,ABS Active,ABS Enabled,AID Allow Tire Blankets,AID Auto Blip,AID Auto Clutch,AID Auto Shift,AID Fuel Rate,AID Ideal Line,AID Mech Damage,AID Stability,AID Tire Wear Rate,Air Density,Air Temp,Ballast,Best Lap Delta,Best Lap Time,Brake Bias,Brake Pos,Brake Temp FL,Brake Temp FR,Brake Temp RL,Brake Temp RR,CG Accel Lateral,CG Accel Longitudinal,CG Accel Vertical,CG Height,Camber FL,Camber FR,Camber RL,Camber RR,Car Coord X,Car Coord Y,Car Coord Z,Car Damage Front,Car Damage Left,Car Damage Rear,Car Damage Right,Car Pos Norm,Caster FL,Caster FR,Chassis Pitch Angle,Chassis Pitch Rate,Chassis Roll Angle,Chassis Roll Rate,Chassis Velocity X,Chassis Velocity Y,Chassis Velocity Z,Chassis Yaw Rate,Clutch Pos,DRS Active,DRS Available,Drive Train Speed,ERS Heat Charging,ERS Is Charging,ERS Max Energy,ERS Power Level,ERS Recovery Level,Engine Brake Setting,Engine Limiter,Engine RPM,Flags,Fuel Level,Gear,Ground Speed,HR Sample Clock,In Pit,KERS Charge,KERS Deployed Energy,KERS Input,KERS Max Energy,LR Sample Clock,Lap Invalidated,Lap Time,Lap Time2,Last Lap Time,Last Sector Time,MR Sample Clock,Max Fuel,Max Power,Max RPM,Max Sus Travel FL,Max Sus Travel FR,Max Sus Travel RL,Max Sus Travel RR,Max Torque,Max Turbo Boost,Num Tires Off Track,Penalties Enabled,Position,Raw Data Sample Rate,Ride Height FL,Ride Height FR,Ride Height RL,Ride Height RR,Road Temp,Self Align Torque FL,Self Align Torque FR,Self Align Torque RL,Self Align Torque RR,Session Lap Count,Session Time Left,Steering Angle,Surface Grip,Suspension Travel FL,Suspension Travel FR,Suspension Travel RL,Suspension Travel RR,TC Active,TC Enabled,Throttle Pos,Tire Dirt Level FL,Tire Dirt Level FR,Tire Dirt Level RL,Tire Dirt Level RR,Tire Load FL,Tire Load FR,Tire Load RL,Tire Load RR,Tire Loaded Radius FL,Tire Loaded Radius FR,Tire Loaded Radius RL,Tire Loaded Radius RR,Tire Pressure FL,Tire Pressure FR,Tire Pressure RL,Tire Pressure RR,Tire Radius FL,Tire Radius FR,Tire Radius RL,Tire Radius RR,Tire Rubber Grip FL,Tire Rubber Grip FR,Tire Rubber Grip RL,Tire Rubber Grip RR,Tire Slip Angle FL,Tire Slip Angle FR,Tire Slip Angle RL,Tire Slip Angle RR,Tire Slip Ratio FL,Tire Slip Ratio FR,Tire Slip Ratio RL,Tire Slip Ratio RR,Tire Temp Core FL,Tire Temp Core FR,Tire Temp Core RL,Tire Temp Core RR,Tire Temp Inner FL,Tire Temp Inner FR,Tire Temp Inner RL,Tire Temp Inner RR,Tire Temp Middle FL,Tire Temp Middle FR,Tire Temp Middle RL,Tire Temp Middle RR,Tire Temp Outer FL,Tire Temp Outer FR,Tire Temp Outer RL,Tire Temp Outer RR,Toe In FL,Toe In FR,Toe In RL,Toe In RR,Turbo Boost,Wheel Angular Speed FL,Wheel Angular Speed FR,Wheel Angular Speed RL,Wheel Angular Speed RR,Wind Direction,Wind Speed
0,0.0,0.0,0.0,1.0,1.0,0.0,0.0,1.0,0.0,100.0,1.0,1.1856,26.0,0.0,0.0,0.0,59.99999,0.0,26.0,26.0,26.0,26.0,-0.12687499999999996,0.25880000000000014,0.0373,291.306,-2.8649,-2.488,-1.6761,-1.3867,-275.6,216.2525,190.984375,0.0,0.0,0.0,0.0,0.0016333333333333755,-5.498166666666667,-5.498166666666667,-0.6979000000000001,1.631,0.18374999999999986,1.3049999999999997,65.32300000000001,-0.04509999999999992,-0.36133333333333334,1.3820000000000006,100.0,1.0,1.0,201.85333333333332,0.0,0.0,0.0,0.0,0.0,0.0,0.0,8555.8,0.0,55.0,5.0,235.13666666666666,0.0,0.0,0.0,0.0,0.0,0.0,0.0,0.0,0.006000000000000227,0.006000000000000227,0.0,0.0,0.0,55.0,616.79921,10000.0,85.0,85.0,85.0,85.0,395.0,0.0,0.0,0.0,1.0,20.0,45.501999999999995,45.501999999999995,50.705,50.705,34.0,-30.08,26.927999999999997,-27.833333333333336,21.38,0.0,1782.7575,-0.8649999999999984,100.0,29.512999999999998,26.586,38.435,41.681,0.0,0.0,100.0,0.0,0.0,0.0,0.0,3857.714285714286,3367.8,3526.4444444444443,4012.5,302.989,293.976,316.32225,314.9355,21.82,9.122875,21.71575,21.349899999999998,314.99999,314.99999,324.99998,324.99998,99.55968571428572,99.50766666666667,99.56288571428571,99.54638571428572,0.12966666666666682,0.012333333333333307,-0.19220000000000004,0.04519999999999991,-0.030000000000001137,-0.14999999999999858,1.6005,1.67,37.375,33.018,36.724000000000004,34.437,57.001000000000005,43.027,58.141,52.1465,54.844,40.391999999999996,56.756,50.5405,53.956,40.829,56.6805,50.019999999999996,-0.15300000000000002,-0.00550000000000006,0.10674000000000002,0.10514000000000001,0.0,204.71,204.405,201.85333333333332,201.85333333333332,0.0,0.0
1,0.0,0.0,0.0,1.0,1.0,0.0,0.0,1.0,0.0,100.0,1.0,1.1856,26.0,0.0,0.0,0.0,59.999996,0.0,26.0,26.0,26.0,26.0,-0.11587499999999995,0.29879999999999995,0.227275,290.024,-2.8118,-2.5543,-1.7198,-1.3637000000000001,-272.27,216.25,190.964,0.0,0.0,0.0,0.0,0.003566666666666607,-5.498166666666667,-5.498166666666667,-0.5783,0.748,0.15700000000000003,-2.718,65.475,-0.04999999999999993,-0.2974333333333334,1.0899999999999999,100.0,1.0,1.0,201.7866666666667,0.0,0.0,0.0,0.0,0.0,0.0,0.0,8553.0,0.0,55.0,5.0,235.68333333333334,1.0,0.0,0.0,0.0,0.0,0.0,0.0,0.0,0.05699999999999861,0.05699999999999861,0.0,0.0,1.0,55.0,616.79921,10000.0,85.000001,85.000001,85.000001,85.000001,395.0,0.0,0.0,0.0,1.0,333.33500000000004,48.111000000000004,48.111000000000004,47.363,47.363,34.0,-24.4225,19.852,-36.30333333333333,30.245,0.0,1782.705,-0.6449999999999996,100.0,29.774,27.391,40.83,44.129,0.0,0.0,100.0,0.0,0.0,0.0,0.0,3268.5714285714284,2602.9,4330.444444444444,5162.6,304.8875,298.163,314.293,311.926,21.830571428571428,9.1345,21.726125,21.3596,314.999998,314.999998,324.999988,324.999988,99.55971428571429,99.50768333333333,99.56301428571429,99.54654285714285,0.12400000000000011,-0.013333333333333308,-0.1654,0.04899999999999993,-0.027000000000001023,-0.14833333333332632,1.3639999999999999,1.4055,37.441,33.091,36.788,34.497,56.997,43.141,58.182,52.2215,54.839,40.489999999999995,56.794,50.6125,53.95,40.93,56.715,50.091499999999996,-0.14200000000000002,-0.019500000000000073,0.10082500000000001,0.110725,0.0,205.19333333333333,204.95499999999998,201.7866666666667,201.7866666666667,0.0,0.0
2,0.0,0.0,0.0,1.0,1.0,0.0,0.0,1.0,0.0,100.0,1.0,1.1856,26.0,0.0,0.0,0.0,59.999996,0.0,26.0,26.0,26.0,26.0,-0.14149999999999996,0.2904,-0.023075000000000002,291.58,-2.7243,-2.653,-1.6239,-1.484,-268.73,216.2425,190.945,0.0,0.0,0.0,0.0,0.005633333333333379,-5.498166666666667,-5.498166666666667,-0.6199,-0.31600000000000006,0.10450000000000004,2.503,65.624,-0.05009999999999992,-0.3410666666666667,1.4720000000000004,100.0,1.0,1.0,202.8,0.0,0.0,0.0,0.0,0.0,0.0,0.0,8595.9,0.0,55.0,5.0,236.22,0.0,0.0,0.0,0.0,0.0,0.0,0.0,0.0,0.11100000000000065,0.11100000000000065,0.0,0.0,0.0,55.0,616.79921,10000.0,85.000001,85.000001,85.000001,85.000001,395.0,0.0,0.0,0.0,1.0,166.665,48.172,48.172,49.896,49.896,34.0,-28.23,18.688,-27.843333333333334,20.565,0.0,1782.65375,-0.48499999999999943,100.0,29.804000000000002,26.836,41.384,43.423,0.0,0.0,100.0,0.0,0.0,0.0,0.0,3621.285714285714,2545.4,3551.0,3784.9,303.8265,299.071,316.09025,315.52475,21.841714285714286,9.14525,21.736875,21.3691,314.999998,314.999998,324.999988,324.999988,99.55972857142856,99.50768333333333,99.56315714285714,99.54668571428572,0.09166666666666679,-0.04533333333333334,-0.19720000000000004,0.034800000000000164,-0.03599999999999781,-0.1566666666666663,1.637,1.6865,37.510999999999996,33.158,36.855999999999995,34.557,56.991,43.235,58.2235,52.283500000000004,54.833,40.571,56.832499999999996,50.6725,53.942,41.013999999999996,56.7505,50.1505,-0.12449999999999994,-0.03950000000000009,0.10115500000000001,0.11799500000000002,0.0,205.61666666666667,205.32,202.8,202.8,0.0,0.0
3,0.0,0.0,0.0,1.0,1.0,0.0,0.0,1.0,0.0,100.0,1.0,1.1856,26.0,0.0,0.0,0.0,59.999996,0.0,26.0,26.0,26.0,26.0,-0.13849999999999996,0.30110000000000015,0.012975,291.168,-2.8996,-2.5006,-1.6919,-1.4124,-265.77,216.23250000000002,190.9275,0.0,0.0,0.0,0.0,0.0073666666666665215,-5.498166666666667,-5.498166666666667,-0.6006,0.20999999999999996,0.19587500000000002,0.75,65.756,-0.0605,-0.29146666666666665,1.2860000000000005,100.0,1.0,1.0,202.92666666666668,0.0,0.0,0.0,0.0,0.0,0.0,0.0,8601.3,0.0,55.0,5.0,236.69333333333333,1.0,0.0,0.0,0.0,0.0,0.0,0.0,0.0,0.1559999999999988,0.1559999999999988,0.0,0.0,1.0,55.0,616.79921,10000.0,85.000001,85.000001,85.000001,85.000001,395.0,0.0,0.0,0.0,1.0,333.33500000000004,48.477000000000004,48.477000000000004,48.263999999999996,48.263999999999996,34.0,-24.95,19.686,-31.936666666666664,24.8375,0.0,1782.60625,-0.6499999999999986,100.0,29.427,26.91,40.796,43.29,0.0,0.0,100.0,0.0,0.0,0.0,0.0,3137.4285714285716,2711.1,3868.6666666666665,4477.4,305.237,297.934,315.3845,313.78175,21.850714285714286,9.15475,21.745625,21.3772,314.999998,314.999998,324.999988,324.999988,99.55974285714285,99.5077,99.56328571428571,99.54682857142858,0.1060000000000001,-0.026666666666666616,-0.19279999999999997,0.03840000000000021,-0.010999999999999233,-0.14666666666666828,1.5215,1.5715,37.567,33.217,36.91,34.607,56.980999999999995,43.327,58.2555,52.346000000000004,54.823,40.650999999999996,56.862,50.7325,53.931,41.096000000000004,56.777,50.21,-0.14049999999999996,-0.021500000000000075,0.100885,0.11193000000000002,0.0,206.05333333333334,205.755,202.92666666666668,202.92666666666668,0.0,0.0
4,0.0,0.0,0.0,1.0,1.0,0.0,0.0,1.0,0.0,100.0,1.0,1.1856,26.0,0.0,0.0,0.0,59.999996,0.0,26.0,26.0,26.0,26.0,-0.15825,0.28590000000000004,-0.0166,290.863,-2.8148,-2.5653,-1.6954,-1.4373,-262.21,216.2175,190.906125,0.0,0.0,0.0,0.0,0.009433333333333294,-5.498166666666667,-5.498166666666667,-0.6333000000000001,-0.647,0.11237499999999989,-0.9359999999999999,65.908,-0.06269999999999998,-0.3366,1.2199999999999998,100.0,1.0,1.0,203.44,0.0,0.0,0.0,0.0,0.0,0.0,0.0,8623.1,0.0,55.0,5.0,237.24333333333334,0.0,0.0,0.0,0.0,0.0,0.0,0.0,0.0,0.21000000000000085,0.21000000000000085,0.0,0.0,0.0,55.0,616.79921,10000.0,85.000001,85.000001,85.000001,85.000001,395.0,0.0,0.0,0.0,1.0,166.665,47.577,47.577,48.355000000000004,48.355000000000004,34.0,-28.0125,21.812,-32.096666666666664,22.8675,0.0,1782.55375,-0.7100000000000009,100.0,29.495,26.734,41.215,43.565,0.0,0.0,100.0,0.0,0.0,0.0,0.0,3605.4285714285716,2812.2,3902.777777777778,4012.2,303.855,297.391,315.22375,314.85675,21.86157142857143,9.1665,21.756375,21.387,314.999998,314.999998,324.999988,324.999988,99.55974285714285,99.5077,99.56342857142857,99.54697142857142,0.11333333333333329,-0.005666666666666598,-0.18620000000000003,0.052000000000000046,-0.053000000000000824,-0.14833333333332632,1.537,1.566,37.635,33.29,36.977000000000004,34.669,56.972,43.429,58.293,52.411500000000004,54.815,40.739000000000004,56.8965,50.795500000000004,53.922,41.187,56.8085,50.272,-0.14349999999999996,-0.013000000000000123,0.10691,0.10877,0.0,206.49666666666667,206.215,203.44,203.44,0.0,0.0
5,0.0,0.0,0.0,1.0,1.0,0.0,0.0,1.0,0.0,100.0,1.0,1.1856,26.0,0.0,0.0,0.0,59.999996,0.0,26.0,26.0,26.0,26.0,-0.13349999999999995,0.30700000000000016,-0.007475000000000001,291.122,-2.8291,-2.5846,-1.6809,-1.4257,-258.85,216.2,190.886125,0.0,0.0,0.0,0.0,0.011366666666666525,-5.498166666666667,-5.498166666666667,-0.6194000000000001,0.4685,0.10837499999999989,-0.1389999999999998,66.05199999999999,-0.0673999999999999,-0.31833333333333336,1.1079999999999997,100.0,1.0,1.0,203.86333333333334,0.0,0.0,0.0,0.0,0.0,0.0,0.0,8641.0,0.0,55.0,5.0,237.76,1.0,0.0,0.0,0.0,0.0,0.0,0.0,0.0,0.26099999999999923,0.26099999999999923,0.0,0.0,1.0,55.0,616.79921,10000.0,85.000001,85.000001,85.000001,85.000001,395.0,0.0,0.0,0.0,1.0,166.665,48.400999999999996,48.400999999999996,48.599000000000004,48.599000000000004,34.0,-26.294999999999998,20.22,-32.84,23.387500000000003,0.0,1782.5025,-1.1850000000000005,100.0,29.508,26.698,41.049,43.372,0.0,0.0,100.0,0.0,0.0,0.0,0.0,3452.4285714285716,2616.7,3964.222222222222,4290.1,304.41,298.297,315.2135,314.176,21.872142857142855,9.177375,21.766375,21.3962,314.999998,314.999998,324.999988,324.999988,99.55977142857142,99.50771666666667,99.56355714285715,99.54711428571429,0.1213333333333333,-0.010333333333333306,-0.19799999999999995,0.029799999999999827,-0.038999999999997925,-0.1383333333333283,1.5385,1.571,37.701,33.358999999999995,37.04,34.726,56.968,43.528999999999996,58.33,52.474000000000004,54.811,40.825,56.931,50.8555,53.916,41.275999999999996,56.84,50.331,-0.1755,0.014000000000000012,0.10391,0.11321,0.0,206.96333333333334,206.675,203.86333333333334,203.86333333333334,0.0,0.0
6,0.0,0.0,0.0,1.0,1.0,0.0,0.0,1.0,0.0,100.0,1.0,1.1856,26.0,0.0,0.0,0.0,59.999996,0.0,26.0,26.0,26.0,26.0,-0.11549999999999994,0.2670000000000001,-0.02705,291.229,-2.7957,-2.6237,-1.7179,-1.4234,-255.68,216.18,190.867125,0.0,0.0,0.0,0.0,0.01323333333333332,-5.498166666666667,-5.498166666666667,-0.6117,0.12,0.121,-0.5299999999999998,66.187,-0.06059999999999999,-0.3072666666666667,0.7800000000000002,100.0,1.0,1.0,204.29000000000002,0.0,0.0,0.0,0.0,0.0,0.0,0.0,8659.0,0.0,55.0,5.0,238.24333333333334,0.0,0.0,0.0,0.0,0.0,0.0,0.0,0.0,0.30900000000000105,0.30900000000000105,0.0,0.0,0.0,55.0,616.79921,10000.0,85.000001,85.000001,85.000001,85.000001,395.0,0.0,0.0,0.0,1.0,166.665,48.538,48.538,48.569,48.569,34.0,-25.1225,21.312,-31.886666666666663,23.2825,0.0,1782.455,-1.3149999999999995,100.0,29.137,26.554000000000002,41.052,43.543,0.0,0.0,100.0,0.0,0.0,0.0,0.0,3447.857142857143,2635.1,3898.3333333333335,4216.4,304.418,298.0755,315.3735,314.366,21.881857142857143,9.187625,21.775875,21.4049,314.999998,314.999998,324.999988,324.999988,99.55978571428571,99.50771666666667,99.56368571428571,99.54725714285715,0.137,0.005666666666666709,-0.1834,0.038000000000000256,-0.04199999999999804,-0.14166666666666572,1.5585,1.5785,37.760999999999996,33.423,37.099000000000004,34.781,56.963,43.622,58.3645,52.535,54.805,40.903999999999996,56.9625,50.915,53.909,41.358000000000004,56.869,50.388999999999996,-0.1895,0.03249999999999997,0.10073000000000001,0.10425000000000001,0.0,207.37,207.115,204.29000000000002,204.29000000000002,0.0,0.0
7,0.0,0.0,0.0,1.0,1.0,0.0,0.0,1.0,0.0,100.0,1.0,1.1856,26.0,0.0,0.0,0.0,59.999996,0.0,26.0,26.0,26.0,26.0,-0.07424999999999993,0.2821,0.03765,290.955,-2.7647,-2.5871,-1.678,-1.4652,-252.3,216.1575,190.846625,0.0,0.0,0.0,0.0,0.015199999999999991,-5.498166666666667,-5.498166666666667,-0.6157,0.008499999999999952,0.13612500000000005,1.3470000000000004,66.331,-0.044399999999999995,-0.31456666666666666,0.3960000000000008,100.0,1.0,1.0,204.69333333333333,0.0,0.0,0.0,0.0,0.0,0.0,0.0,8676.1,0.0,55.0,5.0,238.76333333333332,1.0,0.0,0.0,0.0,0.0,0.0,0.0,0.0,0.35999999999999943,0.35999999999999943,0.0,0.0,1.0,55.0,616.79921,10000.0,85.000001,85.000001,85.000001,85.000001,395.0,0.0,0.0,0.0,1.0,166.665,48.111000000000004,48.111000000000004,48.644999999999996,48.644999999999996,34.0,-23.4775,23.738,-29.84,26.567500000000003,0.0,1782.40375,-1.5999999999999996,100.0,29.35,26.334,41.141999999999996,43.676,0.0,0.0,100.0,0.0,0.0,0.0,0.0,3453.142857142857,2784.9,3810.6666666666665,4317.8,304.1665,297.5175,315.473,314.1305,21.892285714285713,9.198625,21.785875,21.4142,314.999998,314.999998,324.999988,324.999988,99.5598,99.50773333333333,99.56381428571429,99.54741428571428,0.16933333333333334,0.047666666666666746,-0.1614,0.07100000000000017,-0.027999999999998693,-0.134999999999998,1.5354999999999999,1.54,37.826,33.491,37.162,34.839,56.959,43.722,58.400999999999996,52.6005,54.801,40.989999999999995,56.9965,50.9775,53.903,41.447,56.8995,50.4505,-0.21199999999999997,0.056499999999999995,0.104395,0.108715,0.0,207.75666666666666,207.535,204.69333333333333,204.69333333333333,0.0,0.0
8,0.0,0.0,0.0,1.0,1.0,0.0,0.0,1.0,0.0,100.0,1.0,1.1856,26.0,0.0,0.0,0.0,59.999996,0.0,26.0,26.0,26.0,26.0,-0.051124999999999976,0.29000000000000004,0.03725,291.092,-2.8554,-2.5522,-1.6651,-1.4095,-249.11,216.1325,190.82725,0.0,0.0,0.0,0.0,0.017033333333333345,-5.498166666666667,-5.498166666666667,-0.6177,-0.536,0.15900000000000003,0.7650000000000001,66.465,-0.025999999999999912,-0.3100333333333334,-0.002000000000000668,100.0,1.0,1.0,205.03,0.0,0.0,0.0,0.0,0.0,0.0,0.0,8690.4,0.0,55.0,5.0,239.24666666666667,0.0,0.0,0.0,0.0,0.0,0.0,0.0,0.0,0.40800000000000125,0.40800000000000125,0.0,0.0,0.0,55.0,616.79921,10000.0,85.000001,85.000001,85.000001,85.000001,395.0,0.0,0.0,0.0,1.0,333.33500000000004,48.828,48.828,47.913,47.913,34.0,-21.54,24.240000000000002,-28.933333333333334,27.8,0.0,1782.35375,-1.7750000000000004,100.0,28.899,26.381,41.141,43.856,0.0,0.0,100.0,0.0,0.0,0.0,0.0,3214.857142857143,2794.4,3889.8888888888887,4434.5,305.043,297.6155,315.238,313.8185,21.901857142857143,9.209,21.795375,21.423000000000002,314.999998,314.999998,324.999988,324.999988,99.55982857142857,99.50773333333333,99.56394285714286,99.54755714285714,0.18700000000000006,0.06899999999999995,-0.12460000000000004,0.08999999999999986,-0.04100000000000037,-0.14999999999999858,1.5005,1.5185,37.885999999999996,33.556,37.221000000000004,34.894,56.954,43.817,58.435,52.662,54.796,41.073,57.0275,51.037,53.897,41.532,56.928,50.509,-0.21750000000000003,0.07599999999999996,0.10201,0.10895,0.0,208.19333333333333,207.97500000000002,205.03,205.03,0.0,0.0
9,0.0,0.0,0.0,1.0,1.0,0.0,0.0,1.0,0.0,100.0,1.0,1.1856,26.0,0.0,0.0,0.0,59.999996,0.0,26.0,26.0,26.0,26.0,-0.04225000000000001,0.27780000000000005,0.030525,290.878,-2.8458,-2.5561,-1.7248999999999999,-1.3892,-245.92000000000002,216.10750000000002,190.8075,0.0,0.0,0.0,0.0,0.018899999999999917,-5.498166666666667,-5.498166666666667,-0.6269,0.5209999999999999,0.15937500000000004,0.903,66.595,-0.008099999999999996,-0.3138666666666667,-0.08999999999999986,100.0,1.0,1.0,205.57999999999998,0.0,0.0,0.0,0.0,0.0,0.0,0.0,8713.7,0.0,55.0,5.0,239.71666666666667,1.0,0.0,0.0,0.0,0.0,0.0,0.0,0.0,0.4559999999999995,0.4559999999999995,0.0,0.0,1.0,55.0,616.79921,10000.0,85.000001,85.000001,85.000001,85.000001,395.0,0.0,0.0,0.0,1.0,166.665,47.623,47.623,49.042,49.042,34.0,-23.1225,26.022,-27.81,27.622500000000002,0.0,1782.30875,-2.004999999999999,100.0,29.304000000000002,26.631,40.716,43.828,0.0,0.0,100.0,0.0,0.0,0.0,0.0,3581.142857142857,2870.7,3713.3333333333335,4319.8,303.9045,297.073,315.79125,314.18875,21.911571428571428,9.21975,21.804625,21.4317,314.999998,314.999998,324.999988,324.999988,99.55985714285714,99.50775,99.56407142857142,99.54768571428572,0.20999999999999996,0.09366666666666679,-0.12960000000000005,0.11299999999999999,-0.030000000000001137,-0.15166666666667084,1.575,1.5615,37.947,33.623000000000005,37.278999999999996,34.948,56.953,43.918,58.466,52.7225,54.794,41.16,57.056,51.095,53.894,41.620999999999995,56.9535,50.5665,-0.23749999999999993,0.08450000000000002,0.114,0.11120000000000001,0.0,208.57999999999998,208.39,205.57999999999998,205.57999999999998,0.0,0.0
10,0.0,0.0,0.0,1.0,1.0,0.0,0.0,1.0,0.0,100.0,1.0,1.1856,26.0,0.0,0.0,0.0,59.999996,0.0,26.0,26.0,26.0,26.0,-0.0007500000000000284,0.28390000000000004,0.00685,290.695,-2.8224,-2.532,-1.7036,-1.3695,-242.51999999999998,216.07999999999998,190.786875,0.0,0.0,0.0,0.0,0.02086666666666659,-5.498166666666667,-5.498166666666667,-0.6019,-0.276,0.19700000000000006,0.14000000000000012,66.739,0.012800000000000145,-0.3044333333333334,-0.4379999999999997,100.0,1.0,1.0,205.79666666666668,0.0,0.0,0.0,0.0,0.0,0.0,0.0,8723.0,0.0,55.0,5.0,240.23000000000002,0.0,0.0,0.0,0.0,0.0,0.0,1.0,0.0,0.5069999999999979,0.5069999999999979,0.0,0.0,0.0,55.0,616.79921,10000.0,85.000001,85.000001,85.000001,85.000001,395.0,0.0,0.0,0.0,1.0,333.33500000000004,48.644999999999996,48.644999999999996,47.516,47.516,34.0,-19.2375,24.61,-29.816666666666663,30.195,0.0,1782.255,-2.119999999999999,100.0,29.064,26.913,40.989000000000004,44.64,0.0,0.0,100.0,0.0,0.0,0.0,0.0,3198.714285714286,2698.0,4088.1111111111113,4521.2,305.149,297.7815,314.8555,313.55825,21.921857142857142,9.231,21.81475,21.4412,314.999998,314.999998,324.999988,324.999988,99.55987142857143,99.50776666666667,99.56421428571429,99.54784285714285,0.22533333333333339,0.10333333333333328,-0.09739999999999993,0.12559999999999993,-0.038999999999997925,-0.13666666666667027,1.4835,1.4715,38.012,33.694,37.343,35.007,56.953,44.024,58.5035,52.791,54.794,41.251000000000005,57.0905,51.161500000000004,53.891999999999996,41.716,56.9845,50.632,-0.251,0.09750000000000003,0.10316,0.10461000000000001,0.0,209.01666666666665,208.85000000000002,205.79666666666668,205.79666666666668,0.0,0.0
11,0.0,0.0,0.0,1.0,1.0,0.0,0.0,1.0,0.0,100.0,1.0,1.1856,26.0,0.0,0.0,0.0,59.999996,0.0,26.0,26.0,26.0,26.0,0.022375000000000034,0.26980000000000004,-0.07055,291.29,-2.8647,-2.5201000000000002,-1.7553,-1.3663,-239.11,216.0525,190.76625,0.0,0.0,0.0,0.0,0.022599999999999953,-5.498166666666667,-5.498166666666667,-0.6432,-0.3760000000000001,0.22299999999999986,0.645,66.874,0.03279999999999994,-0.33226666666666665,-0.5579999999999998,100.0,1.0,1.0,206.51666666666665,0.0,0.0,0.0,0.0,0.0,0.0,0.0,8753.4,0.0,55.0,5.0,240.72333333333333,1.0,0.0,0.0,0.0,0.0,0.0,1.0,0.0,0.5579999999999998,0.5579999999999998,0.0,0.0,1.0,55.0,616.79921,10000.0,85.000001,85.000001,85.000001,85.000001,395.0,0.0,0.0,0.0,1.0,333.33500000000004,48.141,48.141,49.149,49.149,34.0,-18.985,27.35,-23.306666666666665,27.86,0.0,1782.205,-2.379999999999999,100.0,28.891,26.765,40.647,44.495000000000005,0.0,0.0,100.0,0.0,0.0,0.0,0.0,3287.857142857143,2914.9,3451.5555555555557,4131.8,304.805,296.889,316.44425,314.61325,21.932,9.242375,21.82475,21.450499999999998,314.999998,314.999998,324.999988,324.999988,99.5599,99.50778333333334,99.56434285714286,99.548,0.2536666666666667,0.12566666666666682,-0.07320000000000004,0.15440000000000031,-0.030999999999998806,-0.15166666666667084,1.6205,1.6055,38.075,33.765,37.403999999999996,35.066,56.951,44.132999999999996,58.5345,52.8555,54.791,41.345,57.1195,51.224000000000004,53.887,41.813,57.0105,50.693,-0.256,0.09999999999999998,0.10852500000000001,0.10419500000000001,0.0,209.4,209.23000000000002,206.51666666666665,206.51666666666665,0.0,0.0
12,0.0,0.0,0.0,1.0,1.0,0.0,0.0,1.0,0.0,100.0,1.0,1.1856,26.0,0.0,0.0,0.0,59.999996,0.0,26.0,26.0,26.0,26.0,0.05037500000000006,0.2761,0.026850000000000002,290.573,-2.9312,-2.4973,-1.7331,-1.3769,-235.69,216.025,190.744125,0.0,0.0,0.0,0.0,0.025466666666666526,-5.498166666666667,-5.498166666666667,-0.6326,0.245,0.21837499999999999,-0.7730000000000001,67.016,0.052100000000000035,-0.3054333333333334,-0.6579999999999995,100.0,1.0,1.0,206.73000000000002,0.0,0.0,0.0,0.0,0.0,0.0,0.0,8762.5,0.0,55.0,5.0,241.23000000000002,0.0,0.0,0.0,0.0,0.0,0.0,1.0,0.0,0.6089999999999982,0.6089999999999982,0.0,0.0,0.0,55.0,616.79921,10000.0,85.000001,85.000001,85.000001,85.000001,395.0,0.0,0.0,0.0,1.0,166.665,47.821,47.821,47.836,47.836,34.0,-20.4025,27.716,-26.656666666666666,31.8,0.0,1782.155,-2.254999999999999,100.0,28.711,27.169,40.432,44.576,0.0,0.0,100.0,0.0,0.0,0.0,0.0,3445.142857142857,2900.4,3961.0,4439.8,304.521,296.65,315.24925,313.81475,21.942,9.254,21.834625,21.4599,314.999998,314.999998,324.999988,324.999988,99.55994285714286,99.5078,99.56447142857142,99.54814285714286,0.258,0.13800000000000012,-0.055400000000000005,0.16800000000000015,-0.038000000000000256,-0.14000000000000057,1.5494999999999999,1.5165,38.138,33.838,37.466,35.123999999999995,56.952,44.247,58.5685,52.9215,54.791,41.444,57.1505,51.288,53.885999999999996,41.915,57.0385,50.756,-0.254,0.09999999999999998,0.103675,0.103535,0.0,209.86333333333334,209.71,206.73000000000002,206.73000000000002,0.0,0.0
13,0.0,0.0,0.0,1.0,1.0,0.0,0.0,1.0,0.0,100.0,1.0,1.1856,26.0,0.0,0.0,0.0,59.999996,0.0,26.0,26.0,26.0,26.0,0.06862499999999994,0.2845,0.060050000000000006,290.115,-2.9015,-2.4952,-1.7654,-1.3679999999999999,-232.26999999999998,216.0,190.7225,0.0,0.0,0.0,0.0,0.026833333333333376,-5.498166666666667,-5.498166666666667,-0.6261,-0.0605,0.22299999999999986,1.0440000000000005,67.154,0.059900000000000064,-0.31720000000000004,-0.7960000000000003,100.0,1.0,1.0,207.10333333333335,0.0,0.0,0.0,0.0,0.0,0.0,0.0,8778.3,0.0,55.0,5.0,241.73000000000002,1.0,0.0,0.0,0.0,0.0,0.0,1.0,0.0,0.6600000000000001,0.6600000000000001,0.0,0.0,1.0,55.0,616.79921,10000.0,85.000001,85.000001,85.000001,85.000001,395.0,0.0,0.0,0.0,1.0,166.665,47.44,47.44,47.699,47.699,34.0,-17.259999999999998,29.542,-26.33,34.572500000000005,0.0,1782.105,-2.51,100.0,29.274,27.286,40.786,45.032,0.0,0.0,100.0,0.0,0.0,0.0,0.0,3367.857142857143,2966.6,3904.777777777778,4627.7,304.543,296.566,315.2575,313.42575,21.952285714285715,9.265875,21.84475,21.4694,314.999998,314.999998,324.999988,324.999988,99.55998571428572,99.50781666666667,99.5646,99.5483,0.30633333333333335,0.17333333333333334,-0.04279999999999995,0.18880000000000008,-0.036999999999999034,-0.1700000000000017,1.508,1.4815,38.202,33.911,37.528999999999996,35.184,56.956,44.364000000000004,58.6035,52.991,54.794,41.545,57.1825,51.355000000000004,53.885999999999996,42.019,57.067,50.8225,-0.2835,0.12449999999999994,0.10802,0.11280000000000001,0.0,210.30333333333334,210.135,207.10333333333335,207.10333333333335,0.0,0.0
14,0.0,0.0,0.0,1.0,1.0,0.0,0.0,1.0,0.0,100.0,1.0,1.1856,26.0,0.0,0.0,0.0,59.999996,0.0,26.0,26.0,26.0,26.0,0.0807500000000001,0.26260000000000017,-0.007675,290.48199999999997,-2.895,-2.4422,-1.7686000000000002,-1.3429,-229.05,215.97750000000002,190.702625,0.0,0.0,0.0,0.0,0.028699999999999948,-5.498166666666667,-5.498166666666667,-0.6361,-0.1605000000000001,0.246375,1.3449999999999998,67.282,0.07099999999999995,-0.3317333333333334,-1.0219999999999994,100.0,1.0,1.0,207.58666666666667,0.0,0.0,0.0,0.0,0.0,0.0,0.0,8798.8,0.0,55.0,5.0,242.19,0.0,0.0,0.0,0.0,0.0,0.0,1.0,0.0,0.7079999999999984,0.7079999999999984,0.0,0.0,0.0,55.0,616.79921,10000.0,85.000001,85.000001,85.000001,85.000001,395.0,0.0,0.0,0.0,1.0,333.33500000000004,47.668,47.668,48.019,48.019,34.0,-16.009999999999998,29.933999999999997,-24.273333333333333,33.4925,0.0,1782.05375,-2.6400000000000006,100.0,29.155,27.315,40.703,45.088,0.0,0.0,100.0,0.0,0.0,0.0,0.0,3236.4285714285716,2988.3,3719.1111111111113,4478.2,304.9175,296.527,315.72125,313.798,21.96185714285714,9.276875,21.854125,21.4784,314.999998,314.999998,324.999988,324.999988,99.56001428571429,99.50785,99.56472857142857,99.54845714285715,0.31466666666666687,0.18999999999999995,-0.034399999999999986,0.20240000000000036,-0.0259999999999998,-0.15333333333332888,1.561,1.5070000000000001,38.260999999999996,33.980000000000004,37.588,35.239999999999995,56.959,44.480000000000004,58.6365,53.059,54.797,41.644999999999996,57.2125,51.420500000000004,53.887,42.123999999999995,57.094,50.887,-0.2935,0.13649999999999995,0.11186000000000001,0.10794500000000001,0.0,210.67000000000002,210.53,207.58666666666667,207.58666666666667,0.0,0.0
15,0.0,0.0,0.0,1.0,1.0,0.0,0.0,1.0,0.0,100.0,1.0,1.1856,26.0,0.0,0.0,0.0,59.999996,0.0,26.0,26.0,26.0,26.0,0.10925000000000007,0.27870000000000017,0.008825000000000001,290.558,-2.8749,-2.3997,-1.8013,-1.2814,-225.81,215.95749999999998,190.682375,0.0,0.0,0.0,0.0,0.03059999999999996,-5.498166666666667,-5.498166666666667,-0.6292,0.3195,0.27849999999999997,1.202,67.411,0.08550000000000013,-0.3145333333333334,-1.2039999999999997,100.0,1.0,1.0,207.97333333333333,0.0,0.0,0.0,0.0,0.0,0.0,0.0,8815.2,0.0,55.0,5.0,242.65333333333334,1.0,0.0,0.0,0.0,0.0,0.0,1.0,0.0,0.7560000000000002,0.7560000000000002,0.0,0.0,1.0,55.0,616.79921,10000.0,85.000001,85.000001,85.000001,85.000001,395.0,0.0,0.0,0.0,1.0,333.33500000000004,47.836,47.836,48.218,48.218,34.0,-14.6525,29.7,-23.306666666666665,35.0275,0.0,1782.0075,-2.67,100.0,29.117,27.334,40.39,45.056,0.0,0.0,100.0,0.0,0.0,0.0,0.0,3114.5714285714284,2988.6,3679.8888888888887,4648.3,305.2465,296.504,315.86575,313.4235,21.971285714285713,9.288,21.863375,21.4873,314.999998,314.999998,324.999988,324.999988,99.56007142857143,99.50786666666667,99.56485714285714,99.5486,0.32499999999999996,0.19199999999999995,-0.014000000000000012,0.22019999999999973,-0.038999999999997925,-0.1599999999999966,1.5805,1.513,38.32,34.05,37.646,35.296,56.963,44.584,58.664,53.119,54.8,41.735,57.238,51.4785,53.888,42.217,57.1165,50.9445,-0.29699999999999993,0.136,0.10583000000000001,0.11134500000000001,0.0,211.06333333333333,210.95,207.97333333333333,207.97333333333333,0.0,0.0
16,0.0,0.0,0.0,1.0,1.0,0.0,0.0,1.0,0.0,100.0,1.0,1.1856,26.0,0.0,0.0,0.0,59.999996,0.0,26.0,26.0,26.0,26.0,0.133,0.27259999999999995,-0.046925,290.558,-2.9695,-2.4321,-1.77,-1.2828,-222.37,215.94,190.6605,0.0,0.0,0.0,0.0,0.03259999999999996,-5.498166666666667,-5.498166666666667,-0.6479,-0.7470000000000001,0.26325,-1.041,67.547,0.09929999999999994,-0.3289666666666667,-1.1959999999999997,100.0,1.0,1.0,208.36666666666667,0.0,0.0,0.0,0.0,0.0,0.0,0.0,8831.9,0.0,55.0,5.0,243.14666666666665,0.0,0.0,0.0,0.0,0.0,0.0,1.0,0.0,0.8069999999999986,0.8069999999999986,0.0,0.0,0.0,55.0,616.79921,10000.0,85.000001,85.000001,85.000001,85.000001,395.0,0.0,0.0,0.0,1.0,333.33500000000004,47.821,47.821,47.852000000000004,47.852000000000004,34.0,-16.425,30.098,-22.880000000000003,33.325,0.0,1781.95625,-2.619999999999999,100.0,28.57,27.552,40.557,45.265,0.0,0.0,100.0,0.0,0.0,0.0,0.0,3321.5714285714284,2937.3,3736.3333333333335,4413.8,304.9625,296.4815,315.767,313.88925,21.981,9.299875,21.873375,21.4969,314.999998,314.999998,324.999988,324.999988,99.5601,99.50788333333334,99.56498571428571,99.54875714285714,0.3276666666666668,0.20466666666666677,-0.0033999999999999586,0.2250000000000001,-0.04299999999999926,-0.1316666666666677,1.5665,1.518,38.382,34.123999999999995,37.709,35.355000000000004,56.964,44.703,58.698499999999996,53.187,54.8,41.838,57.269,51.5445,53.887,42.323,57.1445,51.0095,-0.29500000000000004,0.14100000000000001,0.10396000000000001,0.11328,0.0,211.46333333333334,211.335,208.36666666666667,208.36666666666667,0.0,0.0
17,0.0,0.0,0.0,1.0,1.0,0.0,0.0,1.0,0.0,100.0,1.0,1.1856,26.0,0.0,0.0,0.0,59.999996,0.0,26.0,26.0,26.0,26.0,0.125,0.28190000000000004,0.0001,290.298,-2.9339,-2.3854,-1.8170000000000002,-1.2944,-218.92000000000002,215.925,190.638,0.0,0.0,0.0,0.0,0.034599999999999964,-5.498166666666667,-5.498166666666667,-0.6439,0.5275,0.2537499999999999,0.7080000000000002,67.682,0.10400000000000009,-0.31656666666666666,-1.234,100.0,1.0,1.0,208.78333333333333,0.0,0.0,0.0,0.0,0.0,0.0,0.0,8849.6,0.0,55.0,5.0,243.62666666666667,1.0,0.0,0.0,0.0,0.0,0.0,1.0,0.0,0.8580000000000005,0.8580000000000005,0.0,0.0,1.0,55.0,616.79921,10000.0,85.000001,85.000001,85.000001,85.000001,395.0,0.0,0.0,0.0,1.0,333.33500000000004,47.394,47.394,48.035,48.035,34.0,-15.16,30.576,-23.423333333333332,35.7475,0.0,1781.905,-2.6950000000000003,100.0,29.216,27.654,40.278,45.114000000000004,0.0,0.0,100.0,0.0,0.0,0.0,0.0,3303.142857142857,3004.9,3849.0,4573.7,304.7855,296.442,315.5135,313.6215,21.991142857142858,9.312,21.88325,21.5063,314.999998,314.999998,324.999988,324.999988,99.56014285714286,99.50791666666667,99.56511428571429,99.54891428571429,0.3463333333333334,0.21333333333333337,0.015000000000000124,0.2410000000000001,-0.03999999999999915,-0.14999999999999858,1.5645,1.5075,38.445,34.2,37.769999999999996,35.415,56.971000000000004,44.826,58.729,53.2545,54.806,41.945,57.297,51.61,53.89,42.434,57.169,51.0745,-0.30099999999999993,0.13749999999999996,0.10076,0.11055500000000001,0.0,211.92000000000002,211.775,208.78333333333333,208.78333333333333,0.0,0.0
18,0.0,0.0,0.0,1.0,1.0,0.0,0.0,1.0,0.0,100.0,1.0,1.1856,26.0,0.0,0.0,0.0,59.999996,0.0,26.0,26.0,26.0,26.0,0.11775000000000002,0.2633000000000001,-0.023825000000000002,290.329,-2.9539,-2.3689999999999998,-1.8226,-1.2524,-215.67000000000002,215.9125,190.617,0.0,0.0,0.0,0.0,0.036466666666666536,-5.498166666666667,-5.498166666666667,-0.6487,-0.512,0.2646249999999999,0.8610000000000002,67.809,0.1068,-0.3300666666666667,-1.2759999999999998,100.0,1.0,1.0,209.16,0.0,0.0,0.0,0.0,0.0,0.0,0.0,8865.5,0.0,55.0,5.0,244.08666666666664,0.0,0.0,0.0,0.0,0.0,0.0,1.0,0.0,0.9059999999999988,0.9059999999999988,0.0,0.0,0.0,55.0,616.79921,10000.0,85.000001,85.000001,85.000001,85.000001,395.0,0.0,0.0,0.0,1.0,166.665,47.546,47.546,47.821,47.821,34.0,-14.735,31.195999999999998,-23.75,34.5975,0.0,1781.8575,-2.924999999999999,100.0,29.008,27.57,40.619,45.416,0.0,0.0,100.0,0.0,0.0,0.0,0.0,3274.285714285714,3053.1,3767.222222222222,4506.7,304.946,296.373,315.67425,313.75175,22.00042857142857,9.32325,21.892625,21.5154,314.999998,314.999998,324.999988,324.999988,99.56018571428571,99.50795,99.56524285714286,99.54907142857142,0.355,0.2226666666666668,-0.0013999999999999568,0.24160000000000004,-0.036999999999999034,-0.15833333333333144,1.5525,1.5045,38.503,34.269999999999996,37.829,35.471000000000004,56.976,44.939,58.7615,53.320499999999996,54.809,42.042,57.326499999999996,51.674,53.891,42.535,57.195499999999996,51.1375,-0.3115,0.14949999999999997,0.11424500000000001,0.11221,0.0,212.28,212.14,209.16,209.16,0.0,0.0
19,0.0,0.0,0.0,1.0,1.0,0.0,0.0,1.0,0.0,100.0,1.0,1.1856,26.0,0.0,0.0,0.0,59.999996,0.0,26.0,26.0,26.0,26.0,0.15200000000000014,0.28890000000000016,0.04775,289.78,-2.8838,-2.3524,-1.8444,-1.224,-212.01,215.905,190.59325,0.0,0.0,0.0,0.0,0.03859999999999997,-5.498166666666667,-5.498166666666667,-0.6458,0.751,0.2858749999999999,1.2090000000000005,67.95,0.11539999999999995,-0.32276666666666665,-1.6899999999999995,100.0,1.0,1.0,209.57999999999998,0.0,0.0,0.0,0.0,0.0,0.0,0.0,8883.4,0.0,55.0,5.0,244.59333333333336,1.0,0.0,0.0,0.0,0.0,0.0,1.0,0.0,0.9600000000000009,0.9600000000000009,0.0,0.0,1.0,55.0,616.79921,10000.0,85.000001,85.000001,85.000001,85.000001,395.0,0.0,0.0,0.0,1.0,166.665,46.585,46.585,47.729,47.729,34.0,-13.067499999999999,33.302,-23.673333333333332,36.8725,0.0,1781.80375,-3.2300000000000004,100.0,29.498,27.939,40.296,45.331,0.0,0.0,100.0,0.0,0.0,0.0,0.0,3328.5714285714284,3147.1,3833.5555555555557,4769.0,304.5875,295.601,315.5735,313.19275,22.011142857142858,9.33625,21.903125,21.5255,314.999998,314.999998,324.999988,324.999988,99.56024285714285,99.50796666666666,99.56538571428571,99.54922857142857,0.3796666666666668,0.2466666666666668,0.014399999999999968,0.2474000000000003,-0.04100000000000037,-0.15833333333333144,1.564,1.4969999999999999,38.57,34.351,37.894,35.535,56.985,45.073,58.7935,53.3935,54.818,42.159,57.356,51.7445,53.897,42.655,57.2215,51.207499999999996,-0.3405,0.1755,0.11090000000000001,0.106965,0.0,212.73000000000002,212.615,209.57999999999998,209.57999999999998,0.0,0.0
20,0.0,0.0,0.0,1.0,1.0,0.0,0.0,1.0,0.0,100.0,1.0,1.1856,26.0,0.0,0.0,0.0,59.999996,0.0,26.0,26.0,26.0,26.0,0.19274999999999998,0.26970000000000005,-0.022425,290.07,-2.9909,-2.4021,-1.7759,-1.3402,-208.54,215.9,190.570875,0.0,0.0,0.0,0.0,0.0406333333333333,-5.498166666666667,-5.498166666666667,-0.6501,-1.0915,0.28800000000000003,-1.207,68.08500000000001,0.1282000000000001,-0.3382333333333334,-1.88,100.0,1.0,1.0,209.88,0.0,0.0,0.0,0.0,0.0,0.0,0.0,8896.0,0.0,55.0,5.0,245.08333333333334,0.0,0.0,0.0,0.0,0.0,0.0,0.0,0.0,1.0109999999999992,1.0109999999999992,0.0,0.0,0.0,55.0,616.79921,10000.0,85.000001,85.000001,85.000001,85.000001,395.0,0.0,0.0,0.0,1.0,166.665,47.668,47.668,47.165,47.165,34.0,-13.189999999999998,31.762,-22.373333333333335,38.74,0.0,1781.7525,-3.0299999999999994,100.0,28.82,28.059,40.649,45.876000000000005,0.0,0.0,100.0,0.0,0.0,0.0,0.0,3180.142857142857,2950.7,3876.1111111111113,4619.7,305.3735,296.4335,315.40225,313.236,22.020857142857142,9.34825,21.913125,21.5353,314.999998,314.999998,324.999988,324.999988,99.56028571428571,99.508,99.56551428571429,99.5494,0.3823333333333332,0.2510000000000001,0.034599999999999964,0.25839999999999996,-0.030999999999998806,-0.15500000000000114,1.513,1.4335,38.629999999999995,34.427,37.957,35.596000000000004,56.989999999999995,45.198,58.8285,53.466,54.821,42.266999999999996,57.388,51.815,53.899,42.766999999999996,57.25,51.277,-0.33699999999999997,0.1745,0.10347500000000001,0.10394,0.0,213.08333333333334,213.01,209.88,209.88,0.0,0.0
21,0.0,0.0,0.0,1.0,1.0,0.0,0.0,1.0,0.0,100.0,1.0,1.1856,26.0,0.0,0.0,0.0,59.999996,0.0,26.0,26.0,26.0,26.0,0.16349999999999998,0.25660000000000016,-0.0594,290.512,-2.8971,-2.4655,-1.8332000000000002,-1.3064,-205.47,215.9,190.55075,0.0,0.0,0.0,0.0,0.04239999999999999,-5.498166666666667,-5.498166666666667,-0.678,0.29899999999999993,0.26712500000000006,0.2250000000000001,68.197,0.13959999999999995,-0.3470666666666667,-1.5839999999999996,100.0,1.0,1.0,210.49666666666667,0.0,0.0,0.0,0.0,0.0,0.0,0.0,8922.1,0.0,55.0,5.0,245.48666666666668,1.0,0.0,0.0,0.0,0.0,0.0,0.0,0.0,1.056000000000001,1.056000000000001,0.0,0.0,1.0,55.0,616.79921,10000.0,85.000001,85.000001,85.000001,85.000001,395.0,0.0,0.0,0.0,1.0,333.33500000000004,47.073,47.073,48.766999999999996,48.766999999999996,34.0,-15.224999999999998,31.458,-20.256666666666668,34.725,0.0,1781.70625,-2.08,100.0,29.266,27.915,40.069,45.282,0.0,0.0,100.0,0.0,0.0,0.0,0.0,3292.5714285714284,3042.5,3580.0,4321.1,304.7565,296.137,316.21275,314.21425,22.029714285714284,9.359125,21.92175,21.5437,314.999998,314.999998,324.999988,324.999988,99.56032857142857,99.50803333333333,99.56564285714286,99.54954285714285,0.33733333333333326,0.20399999999999996,0.040200000000000014,0.26819999999999977,-0.03399999999999892,-0.1566666666666663,1.636,1.57,38.685,34.495000000000005,38.010999999999996,35.647999999999996,56.995999999999995,45.308,58.8525,53.5245,54.826,42.361999999999995,57.41,51.8715,53.902,42.866,57.269,51.333,-0.26749999999999996,0.10150000000000003,0.10598500000000001,0.10545,0.0,213.48333333333335,213.37,210.49666666666667,210.49666666666667,0.0,0.0
22,0.0,0.0,0.0,1.0,1.0,0.0,0.0,1.0,0.0,100.0,1.0,1.1856,26.0,0.0,0.0,0.0,59.999996,0.0,26.0,26.0,26.0,26.0,0.13000000000000012,0.2591000000000001,0.023625,289.932,-2.8824,-2.4659,-1.8213,-1.3507,-201.99,215.905,190.527125,0.0,0.0,0.0,0.0,0.044433333333333325,-5.498166666666667,-5.498166666666667,-0.6542,0.22150000000000003,0.2653749999999999,-0.722,68.332,0.13149999999999995,-0.32080000000000003,-0.45999999999999996,100.0,1.0,1.0,210.68666666666667,0.0,0.0,0.0,0.0,0.0,0.0,0.0,8930.2,0.0,55.0,5.0,245.97,0.0,0.0,0.0,0.0,0.0,0.0,0.0,0.0,1.1069999999999993,1.1069999999999993,0.0,0.0,0.0,55.0,616.79921,10000.0,85.000001,85.000001,85.000001,85.000001,395.0,0.0,0.0,0.0,1.0,333.33500000000004,47.104,47.104,47.531,47.531,34.0,-18.314999999999998,28.247999999999998,-25.456666666666663,36.582499999999996,0.0,1781.655,-1.2899999999999991,100.0,29.258,28.15,40.352000000000004,45.548,0.0,0.0,100.0,0.0,0.0,0.0,0.0,3304.714285714286,2939.1,3954.5555555555557,4589.7,304.8555,296.2975,315.30925,313.448,22.039714285714286,9.37125,21.93175,21.5534,314.999998,314.999998,324.999988,324.999988,99.56037142857143,99.50805,99.56577142857142,99.5497,0.27266666666666683,0.1413333333333333,-0.0043999999999999595,0.23099999999999987,-0.053000000000000824,-0.1383333333333283,1.4935,1.482,38.748000000000005,34.571,38.073,35.709,57.0,45.427,58.8865,53.5945,54.829,42.466,57.441,51.939499999999995,53.902,42.973,57.2965,51.3995,-0.19399999999999995,0.02949999999999997,0.10563000000000002,0.10742000000000002,0.0,213.95,213.78,210.68666666666667,210.68666666666667,0.0,0.0
23,0.0,0.0,0.0,1.0,1.0,0.0,0.0,1.0,0.0,100.0,1.0,1.1856,26.0,0.0,0.0,0.0,59.999996,0.0,26.0,26.0,26.0,26.0,0.0645,0.25429999999999997,0.00965,289.993,-2.8815,-2.448,-1.7206000000000001,-1.392,-198.5,215.9125,190.50375,0.0,0.0,0.0,0.0,0.046466666666666545,-5.498166666666667,-5.498166666666667,-0.6719,-0.45850000000000013,0.23425000000000007,-0.08000000000000007,68.464,0.09079999999999999,-0.34850000000000003,0.4220000000000006,100.0,1.0,1.0,211.15333333333334,0.0,0.0,0.0,0.0,0.0,0.0,0.0,8950.0,0.0,55.0,5.0,246.44666666666666,1.0,0.0,0.0,0.0,0.0,0.0,0.0,0.0,1.1580000000000013,1.1580000000000013,0.0,0.0,1.0,55.0,616.79921,10000.0,85.000001,85.000001,85.000001,85.000001,395.0,0.0,0.0,0.0,1.0,333.33500000000004,46.768,46.768,48.34,48.34,34.0,-21.4675,27.064,-23.563333333333333,33.1025,0.0,1781.60375,-0.8350000000000009,100.0,29.633,27.862000000000002,40.844,45.475,0.0,0.0,100.0,0.0,0.0,0.0,0.0,3540.142857142857,3003.1,3687.6666666666665,4364.7,304.142,296.503,315.77575,314.00525,22.04957142857143,9.383375000000001,21.94175,21.5631,314.999998,314.999998,324.999988,324.999988,99.56041428571429,99.50806666666666,99.56591428571429,99.54985714285715,0.2426666666666668,0.10666666666666669,-0.030399999999999983,0.1985999999999999,-0.036999999999999034,-0.14333333333333087,1.5,1.5190000000000001,38.81,34.646,38.135999999999996,35.769,57.0,45.542,58.9195,53.6635,54.829,42.565,57.471000000000004,52.0065,53.9,43.075,57.323499999999996,51.466,-0.15849999999999997,-0.0040000000000000036,0.098345,0.11718500000000001,0.0,214.35666666666668,214.13,211.15333333333334,211.15333333333334,0.0,0.0
24,0.0,0.0,0.0,1.0,1.0,0.0,0.0,1.0,0.0,100.0,1.0,1.1856,26.0,0.0,0.0,0.0,59.999996,0.0,26.0,26.0,26.0,26.0,-0.014874999999999972,0.25980000000000003,-0.083775,290.375,-2.8609999999999998,-2.5011,-1.737,-1.3609,-195.20999999999998,215.9225,190.4815,0.0,0.0,0.0,0.0,0.04836666666666656,-5.498166666666667,-5.498166666666667,-0.6706000000000001,-0.16700000000000004,0.21262500000000006,0.391,68.588,0.044300000000000006,-0.3300666666666667,0.8420000000000005,100.0,1.0,1.0,211.49,0.0,0.0,0.0,0.0,0.0,0.0,0.0,8964.3,0.0,55.0,5.0,246.89,0.0,0.0,0.0,0.0,0.0,0.0,0.0,0.0,1.2059999999999995,1.2059999999999995,0.0,0.0,0.0,55.0,616.79921,10000.0,85.000001,85.000001,85.000001,85.000001,395.0,0.0,0.0,0.0,1.0,333.33500000000004,48.004,48.004,47.546,47.546,34.0,-21.1375,23.976,-29.803333333333335,29.66,0.0,1781.5575,-0.7250000000000014,100.0,29.605,27.59,41.011,45.132000000000005,0.0,0.0,100.0,0.0,0.0,0.0,0.0,3194.142857142857,2816.0,4084.5555555555557,4381.6,305.0525,297.58,314.94125,314.073,22.059,9.3945,21.951125,21.572,314.999998,314.999998,324.999988,324.999988,99.56044285714286,99.50808333333333,99.56604285714286,99.55001428571428,0.19666666666666677,0.06233333333333335,-0.08960000000000001,0.14319999999999977,-0.04499999999999815,-0.13666666666667027,1.4889999999999999,1.5105,38.869,34.716,38.195,35.825,56.998000000000005,45.641,58.9505,53.7245,54.827,42.65,57.4995,52.0655,53.896,43.164,57.3485,51.524,-0.14249999999999996,-0.02400000000000002,0.11021500000000001,0.10834,0.0,214.79333333333335,214.515,211.49,211.49,0.0,0.0
25,0.0,0.0,0.0,1.0,1.0,0.0,0.0,1.0,0.0,100.0,1.0,1.1856,26.0,0.0,0.0,0.0,59.999996,0.0,26.0,26.0,26.0,26.0,-0.042625000000000024,0.25870000000000015,-0.061925,290.512,-2.8334,-2.5212,-1.7298,-1.3886,-191.70999999999998,215.93,190.4565,0.0,0.0,0.0,0.0,0.0504,-5.498166666666667,-5.498166666666667,-0.6987,-0.19450000000000012,0.18837499999999996,-1.189,68.717,0.0008000000000001339,-0.32953333333333334,1.17,100.0,1.0,1.0,212.01999999999998,0.0,0.0,0.0,0.0,0.0,0.0,0.0,8986.8,0.0,55.0,5.0,247.35666666666668,1.0,0.0,0.0,0.0,0.0,0.0,0.0,0.0,1.256999999999998,1.256999999999998,0.0,0.0,1.0,55.0,616.79921,10000.0,85.000001,85.000001,85.000001,85.000001,395.0,0.0,0.0,0.0,1.0,333.33500000000004,47.531,47.531,48.218,48.218,34.0,-25.1725,23.278,-28.66,25.4075,0.0,1781.505,-0.6600000000000001,100.0,29.303,27.505,41.074,44.777,0.0,0.0,100.0,0.0,0.0,0.0,0.0,3507.0,2861.7,3778.222222222222,4179.6,304.3575,297.084,315.712,314.55125,22.069,9.406125,21.961125,21.5814,314.999998,314.999998,324.999988,324.999988,99.56045714285715,99.5081,99.56617142857142,99.55015714285715,0.15399999999999991,0.023666666666666725,-0.133,0.0918000000000001,-0.05600000000000094,-0.1283333333333303,1.561,1.5875,38.931,34.789,38.257,35.884,56.992000000000004,45.742000000000004,58.9835,53.786,54.82,42.738,57.5295,52.125,53.888,43.254999999999995,57.3755,51.582499999999996,-0.139,-0.02200000000000002,0.10819000000000001,0.10562500000000001,0.0,215.19333333333333,214.89499999999998,212.01999999999998,212.01999999999998,0.0,0.0
26,0.0,0.0,0.0,1.0,1.0,0.0,0.0,1.0,0.0,100.0,1.0,1.1856,26.0,0.0,0.0,0.0,59.999996,0.0,26.0,26.0,26.0,26.0,-0.10675000000000001,0.2681,0.06420000000000001,289.108,-2.8518,-2.5663,-1.7686000000000002,-1.3904,-188.2,215.9375,190.4305,0.0,0.0,0.0,0.0,0.05246666666666655,-5.498166666666667,-5.498166666666667,-0.6647000000000001,0.861,0.15825,0.23399999999999999,68.85,-0.03309999999999991,-0.3024333333333334,1.25,100.0,1.0,1.0,212.2,0.0,0.0,0.0,0.0,0.0,0.0,0.0,8994.4,0.0,55.0,5.0,247.83333333333334,0.0,0.0,0.0,0.0,0.0,0.0,0.0,0.0,1.3079999999999998,1.3079999999999998,0.0,0.0,0.0,55.0,616.79921,10000.0,85.000001,85.000001,85.000001,85.000001,395.0,0.0,0.0,0.0,1.0,333.33500000000004,46.356,46.356,46.677,46.677,34.0,-26.4775,23.698,-35.49666666666667,28.275,0.0,1781.45375,-0.8200000000000003,100.0,30.567,27.886,41.723,44.911,0.0,0.0,100.0,0.0,0.0,0.0,0.0,3550.857142857143,2954.1,4242.444444444444,4694.7,304.0115,296.603,314.59225,313.37175,22.079285714285714,9.41825,21.97125,21.5909,314.999998,314.999998,324.999988,324.999988,99.56047142857143,99.50811666666667,99.56632857142857,99.55032857142857,0.14500000000000002,0.003666666666666707,-0.15900000000000003,0.06959999999999988,-0.04299999999999926,-0.15833333333333144,1.432,1.4815,38.995999999999995,34.864000000000004,38.32,35.943,56.989999999999995,45.855000000000004,59.022,53.8545,54.818,42.836,57.5655,52.1915,53.884,43.355999999999995,57.408,51.6475,-0.15049999999999997,-0.026000000000000023,0.10355,0.10406000000000001,0.0,215.65333333333334,215.35500000000002,212.2,212.2,0.0,0.0
27,0.0,0.0,0.0,1.0,1.0,0.0,0.0,1.0,0.0,100.0,1.0,1.1856,26.0,0.0,0.0,0.0,59.999996,0.0,26.0,26.0,26.0,26.0,-0.109375,0.23860000000000015,0.0224,289.322,-2.7791,-2.5700000000000003,-1.7278,-1.4978,-184.89,215.94,190.407375,0.0,0.0,0.0,0.0,0.05436666666666656,-5.498166666666667,-5.498166666666667,-0.68,-0.9535,0.12612500000000004,0.133,68.973,-0.0484,-0.34563333333333335,1.0860000000000003,100.0,1.0,1.0,212.59,0.0,0.0,0.0,0.0,0.0,0.0,0.0,9010.9,0.0,55.0,5.0,248.28,1.0,0.0,0.0,0.0,0.0,0.0,0.0,0.0,1.355999999999998,1.355999999999998,0.0,0.0,1.0,55.0,616.79921,10000.0,85.000001,85.000001,85.000001,85.000001,395.0,0.0,0.0,0.0,1.0,333.33500000000004,46.89,46.89,46.616,46.616,34.0,-25.75,22.502,-33.053333333333335,27.595,0.0,1781.40625,-0.8399999999999999,100.0,30.526,27.722,42.88,45.403,0.0,0.0,100.0,0.0,0.0,0.0,0.0,3511.285714285714,2863.0,4021.5555555555557,4406.0,304.0985,297.4345,314.9985,313.90075,22.088857142857144,9.429375,21.981,21.6001,314.999998,314.999998,324.999988,324.999988,99.5605,99.50811666666667,99.56645714285715,99.55047142857143,0.13800000000000012,-0.0023333333333332984,-0.16179999999999994,0.06159999999999988,-0.036999999999999034,-0.10999999999999943,1.4435,1.4805000000000001,39.055,34.933,38.381,36.001000000000005,56.986000000000004,45.944,59.057,53.913,54.813,42.913,57.5975,52.248,53.878,43.435,57.437,51.703,-0.15949999999999998,-0.014000000000000012,0.10230500000000001,0.10889000000000001,0.0,215.96,215.68,212.59,212.59,0.0,0.0
28,0.0,0.0,0.0,1.0,1.0,0.0,0.0,1.0,0.0,100.0,1.0,1.1856,26.0,0.0,0.0,0.0,59.999996,0.0,26.0,26.0,26.0,26.0,-0.12924999999999998,0.2550000000000001,-0.08135,289.871,-2.8022,-2.5594,-1.6729,-1.4621,-181.16,215.9425,190.380875,0.0,0.0,0.0,0.0,0.056533333333333324,-5.498166666666667,-5.498166666666667,-0.6882,0.6275,0.11975000000000002,0.9580000000000002,69.107,-0.058699999999999974,-0.3219666666666667,0.9939999999999998,100.0,1.0,1.0,213.18666666666667,0.0,0.0,0.0,0.0,0.0,0.0,0.0,9036.2,0.0,55.0,5.0,248.76,0.0,0.0,0.0,0.0,0.0,0.0,0.0,0.0,1.4100000000000001,1.4100000000000001,0.0,0.0,0.0,55.0,616.79921,10000.0,85.000001,85.000001,85.000001,85.000001,395.0,0.0,0.0,0.0,1.0,166.665,47.15,47.15,47.76,47.76,34.0,-26.365,21.988,-30.7,24.9075,0.0,1781.35375,-0.9499999999999993,100.0,30.573999999999998,27.584,42.308,44.762,0.0,0.0,100.0,0.0,0.0,0.0,0.0,3517.285714285714,2812.1,3816.8888888888887,4314.3,304.134,297.716,315.56725,314.2845,22.099714285714285,9.441625,21.9915,21.61,314.999998,314.999998,324.999988,324.999988,99.56052857142858,99.50811666666667,99.5666,99.55062857142858,0.1306666666666667,-0.0023333333333332984,-0.18059999999999998,0.04479999999999995,-0.04100000000000037,-0.14000000000000057,1.532,1.5685,39.123000000000005,35.01,38.447,36.063,56.980999999999995,46.048,59.091,53.976,54.809,43.003,57.629,52.3085,53.872,43.528,57.465,51.7625,-0.16649999999999998,0.0034999999999999476,0.10502,0.10472500000000001,0.0,216.41666666666666,216.135,213.18666666666667,213.18666666666667,0.0,0.0
29,0.0,0.0,0.0,1.0,1.0,0.0,0.0,1.0,0.0,100.0,1.0,1.1856,26.0,0.0,0.0,0.0,59.999996,0.0,26.0,26.0,26.0,26.0,-0.12424999999999997,0.26870000000000016,0.0166,289.398,-2.821,-2.5155000000000003,-1.7191,-1.44,-177.84,215.94,190.356125,0.0,0.0,0.0,0.0,0.058466666666666556,-5.498166666666667,-5.498166666666667,-0.6871,-0.6715,0.12362499999999987,0.6510000000000002,69.232,-0.05619999999999992,-0.31146666666666667,0.7939999999999996,100.0,1.0,1.0,213.36666666666667,0.0,0.0,0.0,0.0,0.0,0.0,0.0,9043.8,0.0,55.0,5.0,249.21,1.0,0.0,0.0,0.0,0.0,0.0,0.0,0.0,1.4579999999999984,1.4579999999999984,0.0,0.0,1.0,55.0,616.79921,10000.0,85.000001,85.000001,85.000001,85.000001,395.0,0.0,0.0,0.0,1.0,333.33500000000004,47.165,47.165,46.478,46.478,34.0,-26.9975,22.528,-34.163333333333334,27.055,0.0,1781.305,-1.0399999999999991,100.0,30.177,27.374,42.697,45.058,0.0,0.0,100.0,0.0,0.0,0.0,0.0,3578.857142857143,2930.2,4127.888888888889,4503.2,304.0815,297.311,314.7995,313.77725,22.109,9.4525,22.001125000000002,21.6191,314.999998,314.999998,324.999988,324.999988,99.56054285714286,99.50813333333333,99.56672857142857,99.55078571428571,0.13000000000000012,-0.0016666666666665941,-0.16879999999999995,0.058800000000000185,-0.053000000000000824,-0.12666666666666515,1.4635,1.4985,39.182,35.078,38.507,36.119,56.974000000000004,46.138999999999996,59.1265,54.037,54.802,43.081,57.662,52.367,53.864000000000004,43.608000000000004,57.4955,51.8195,-0.16799999999999993,0.00649999999999995,0.102665,0.10984000000000001,0.0,216.76333333333332,216.5,213.36666666666667,213.36666666666667,0.0,0.0
30,0.0,0.0,0.0,1.0,1.0,0.0,0.0,1.0,0.0,100.0,1.0,1.1856,26.0,0.0,0.0,0.0,59.999996,0.0,26.0,26.0,26.0,26.0,-0.11062499999999997,0.256,0.037525,288.818,-2.8152,-2.4932,-1.6597,-1.4915,-174.31,215.9375,190.3295,0.0,0.0,0.0,0.0,0.06053333333333333,-5.498166666666667,-5.498166666666667,-0.6936,0.5885,0.12612500000000004,-0.47699999999999987,69.358,-0.05149999999999999,-0.32283333333333336,0.7560000000000002,100.0,1.0,1.0,213.81,0.0,0.0,0.0,0.0,0.0,0.0,0.0,9062.7,0.0,55.0,5.0,249.66666666666666,0.0,0.0,0.0,0.0,0.0,0.0,1.0,0.0,1.5090000000000003,1.5090000000000003,0.0,0.0,0.0,55.0,616.79921,10000.0,85.000001,85.000001,85.000001,85.000001,395.0,0.0,0.0,0.0,1.0,166.665,45.897999999999996,45.897999999999996,46.921,46.921,34.0,-28.165,22.304000000000002,-33.056666666666665,27.33,0.0,1781.25625,-1.205,100.0,30.926000000000002,28.141,42.482,45.22,0.0,0.0,100.0,0.0,0.0,0.0,0.0,3829.285714285714,2865.3,4076.5555555555557,4472.8,303.3405,296.984,315.00575,313.69475,22.11942857142857,9.464500000000001,22.011125,21.6286,314.999998,314.999998,324.999988,324.999988,99.56055714285715,99.50813333333333,99.56688571428572,99.55094285714286,0.14733333333333332,0.0006666666666665932,-0.17620000000000002,0.04980000000000029,-0.03300000000000125,-0.1316666666666677,1.4745,1.49,39.245999999999995,35.153,38.569,36.179,56.973,46.242999999999995,59.1605,54.0995,54.8,43.171,57.6935,52.428,53.861000000000004,43.701,57.5235,51.879,-0.1935,0.014000000000000012,0.105635,0.109895,0.0,217.18,216.92000000000002,213.81,213.81,0.0,0.0
31,0.0,0.0,0.0,1.0,1.0,0.0,0.0,1.0,0.0,100.0,1.0,1.1856,26.0,0.0,0.0,0.0,59.999996,0.0,26.0,26.0,26.0,26.0,-0.09524999999999995,0.2530000000000001,0.034625,288.727,-2.8108,-2.5658000000000003,-1.7467000000000001,-1.3820999999999999,-170.98000000000002,215.93,190.30525,0.0,0.0,0.0,0.0,0.06246666666666656,-5.498166666666667,-5.498166666666667,-0.6782,-0.43599999999999994,0.1339999999999999,-1.2209999999999999,69.48,-0.04049999999999998,-0.32830000000000004,0.46200000000000063,100.0,1.0,1.0,214.07333333333332,0.0,0.0,0.0,0.0,0.0,0.0,0.0,9073.8,0.0,55.0,5.0,250.10666666666668,1.0,0.0,0.0,0.0,0.0,0.0,1.0,0.0,1.5569999999999986,1.5569999999999986,0.0,0.0,1.0,55.0,616.79921,10000.0,85.000001,85.000001,85.000001,85.000001,395.0,0.0,0.0,0.0,1.0,333.33500000000004,46.494,46.494,45.471000000000004,45.471000000000004,34.0,-24.825,23.2,-35.77666666666667,26.7975,0.0,1781.2075,-1.3149999999999995,100.0,30.723,28.39,43.057,45.762,0.0,0.0,100.0,0.0,0.0,0.0,0.0,3510.714285714286,2833.5,4264.111111111111,4483.6,304.327,297.099,314.5415,313.6885,22.128857142857143,9.475875,22.02075,21.6379,314.999998,314.999998,324.999988,324.999988,99.56058571428571,99.50815,99.56701428571428,99.55108571428572,0.15799999999999992,0.014666666666666606,-0.16600000000000004,0.06619999999999981,-0.030000000000001137,-0.12333333333332774,1.4405,1.4505,39.306,35.224000000000004,38.629999999999995,36.236999999999995,56.97,46.34,59.1965,54.1625,54.797,43.254999999999995,57.7265,52.4885,53.855999999999995,43.787,57.5535,51.939,-0.1985,0.028000000000000025,0.11149500000000001,0.10651500000000001,0.0,217.53,217.285,214.07333333333332,214.07333333333332,0.0,0.0
32,0.0,0.0,0.0,1.0,1.0,0.0,0.0,1.0,0.0,100.0,1.0,1.1856,26.0,0.0,0.0,0.0,59.999996,0.0,26.0,26.0,26.0,26.0,-0.07787500000000003,0.2518,-0.060825000000000004,289.246,-2.8021,-2.5845000000000002,-1.7612,-1.3999000000000001,-167.22,215.92000000000002,190.2785,0.0,0.0,0.0,0.0,0.06463333333333332,-5.498166666666667,-5.498166666666667,-0.6991,0.14300000000000002,0.10024999999999995,-1.001,69.612,-0.028699999999999948,-0.3413,0.44399999999999995,100.0,1.0,1.0,214.67666666666668,0.0,0.0,0.0,0.0,0.0,0.0,0.0,9099.3,0.0,55.0,5.0,250.57666666666665,0.0,0.0,0.0,0.0,0.0,0.0,1.0,0.0,1.6110000000000007,1.6110000000000007,0.0,0.0,0.0,55.0,616.79921,10000.0,85.000001,85.000001,85.000001,85.000001,395.0,0.0,0.0,0.0,1.0,166.665,46.432,46.432,46.967,46.967,34.0,-25.895,23.774,-31.576666666666664,26.1125,0.0,1781.1525,-1.3849999999999998,100.0,30.704,28.298000000000002,42.728,45.322,0.0,0.0,100.0,0.0,0.0,0.0,0.0,3698.5714285714284,2818.7,3960.5555555555557,4340.0,303.799,297.38,315.368,314.25325,22.13957142857143,9.488624999999999,22.031375,21.648,314.999998,314.999998,324.999988,324.999988,99.56061428571428,99.50815,99.56715714285714,99.55124285714285,0.16466666666666674,0.032666666666666844,-0.1502,0.07840000000000025,-0.04499999999999815,-0.14166666666666572,1.535,1.5485,39.372,35.304,38.696,36.3,56.969,46.449,59.231,54.2285,54.795,43.349000000000004,57.7585,52.552,53.852000000000004,43.885,57.582,52.001,-0.20299999999999996,0.02849999999999997,0.10147500000000001,0.10461500000000001,0.0,217.93333333333334,217.70499999999998,214.67666666666668,214.67666666666668,0.0,0.0
33,0.0,0.0,0.0,1.0,1.0,0.0,0.0,1.0,0.0,100.0,1.0,1.1856,26.0,0.0,0.0,0.0,59.999996,0.0,26.0,26.0,26.0,26.0,-0.06512499999999999,0.25970000000000004,-0.053825000000000005,289.444,-2.7559,-2.5699,-1.7156,-1.4213,-164.09,215.9125,190.25525,0.0,0.0,0.0,0.0,0.06646666666666656,-5.498166666666667,-5.498166666666667,-0.6955,-0.09800000000000009,0.10325000000000006,1.1509999999999998,69.724,-0.019100000000000006,-0.3201333333333334,0.24600000000000044,100.0,1.0,1.0,214.91333333333333,0.0,0.0,0.0,0.0,0.0,0.0,0.0,9109.5,0.0,55.0,5.0,250.98333333333335,1.0,0.0,0.0,0.0,0.0,0.0,1.0,0.0,1.6559999999999988,1.6559999999999988,0.0,0.0,1.0,55.0,616.79921,10000.0,85.000001,85.000001,85.000001,85.000001,395.0,0.0,0.0,0.0,1.0,166.665,47.302,47.302,46.677,46.677,34.0,-21.6325,23.52,-31.766666666666666,28.795,0.0,1781.1075,-1.4699999999999989,100.0,30.618000000000002,27.967,42.717,45.253,0.0,0.0,100.0,0.0,0.0,0.0,0.0,3357.714285714286,2786.2,4059.222222222222,4524.6,304.5725,297.938,315.01325,313.7775,22.148285714285713,9.498875,22.04025,21.6565,314.999998,314.999998,324.999988,324.999988,99.56062857142857,99.50816666666667,99.56728571428572,99.55138571428571,0.19033333333333324,0.04366666666666674,-0.138,0.09100000000000019,-0.03999999999999915,-0.12666666666666515,1.486,1.4935,39.427,35.367999999999995,38.751000000000005,36.352999999999994,56.966,46.534,59.2615,54.2845,54.793,43.423,57.786500000000004,52.606,53.848,43.96,57.607,52.0535,-0.20950000000000002,0.03400000000000003,0.10484500000000001,0.10264000000000001,0.0,218.28,218.055,214.91333333333333,214.91333333333333,0.0,0.0
34,0.0,0.0,0.0,1.0,1.0,0.0,0.0,1.0,0.0,100.0,1.0,1.1856,26.0,0.0,0.0,0.0,59.999996,0.0,26.0,26.0,26.0,26.0,-0.05212499999999998,0.24550000000000005,-0.07652500000000001,289.78,-2.8788,-2.5308,-1.7557,-1.4382000000000001,-160.53,215.9,190.227625,0.0,0.0,0.0,0.0,0.06853333333333333,-5.498166666666667,-5.498166666666667,-0.7255,-0.9645000000000001,0.13924999999999987,0.1419999999999999,69.85,-0.00979999999999992,-0.32780000000000004,0.29000000000000004,100.0,1.0,1.0,215.35000000000002,0.0,0.0,0.0,0.0,0.0,0.0,0.0,9127.9,0.0,55.0,5.0,251.43666666666667,0.0,0.0,0.0,0.0,0.0,0.0,1.0,0.0,1.7070000000000007,1.7070000000000007,0.0,0.0,0.0,55.0,616.79921,10000.0,85.000001,85.000001,85.000001,85.000001,395.0,0.0,0.0,0.0,1.0,333.33500000000004,47.485,47.485,47.653,47.653,34.0,-24.36,23.044,-29.849999999999998,28.73,0.0,1781.05625,-1.5350000000000001,100.0,30.073999999999998,27.816,42.432,45.426,0.0,0.0,100.0,0.0,0.0,0.0,0.0,3571.4285714285716,2745.1,3834.0,4431.6,304.2745,298.115,315.616,313.8775,22.158142857142856,9.510375,22.050125,21.6661,314.999998,314.999998,324.999988,324.999988,99.56065714285714,99.50816666666667,99.56742857142856,99.55154285714286,0.18866666666666676,0.04833333333333334,-0.136,0.09580000000000011,-0.036999999999999034,-0.13666666666667027,1.5085,1.5070000000000001,39.489000000000004,35.44,38.814,36.413,56.963,46.629000000000005,59.2935,54.348,54.789,43.504999999999995,57.8165,52.667500000000004,53.843,44.045,57.6335,52.114,-0.21250000000000002,0.04299999999999993,0.10272500000000001,0.11046500000000001,0.0,218.63333333333333,218.42000000000002,215.35000000000002,215.35000000000002,0.0,0.0
35,0.0,0.0,0.0,1.0,1.0,0.0,0.0,1.0,0.0,100.0,1.0,1.1856,26.0,0.0,0.0,0.0,59.999996,0.0,26.0,26.0,26.0,26.0,-0.05537499999999995,0.26570000000000005,-0.069075,289.749,-2.8901,-2.496,-1.7344,-1.4109,-156.95999999999998,215.885,190.197875,0.0,0.0,0.0,0.0,0.0706,-5.498166666666667,-5.498166666666667,-0.7724000000000001,-0.7215,0.14387499999999998,0.3080000000000003,69.975,0.0004999999999999449,-0.3367333333333334,0.10000000000000053,100.0,1.0,1.0,215.78333333333333,0.0,0.0,0.0,0.0,0.0,0.0,0.0,9146.2,0.0,55.0,5.0,251.88666666666666,1.0,0.0,0.0,0.0,0.0,0.0,1.0,0.0,1.7579999999999991,1.7579999999999991,0.0,0.0,1.0,55.0,616.79921,10000.0,85.000001,85.000001,85.000001,85.000001,395.0,0.0,0.0,0.0,1.0,333.33500000000004,47.089,47.089,46.936,46.936,34.0,-23.195,26.098,-28.473333333333333,27.62,0.0,1781.00375,-1.5649999999999995,100.0,29.932,27.766,42.178,45.046,0.0,0.0,100.0,0.0,0.0,0.0,0.0,3461.285714285714,3026.9,3845.1111111111113,4249.7,304.5275,296.7345,315.4285,314.43375,22.167857142857144,9.52225,22.06,21.6756,314.999998,314.999998,324.999988,324.999988,99.56068571428571,99.50818333333333,99.56757142857143,99.55171428571428,0.19866666666666677,0.06733333333333325,-0.10920000000000007,0.11500000000000021,-0.04899999999999949,-0.14166666666666572,1.5655,1.5565,39.549,35.513999999999996,38.875,36.473,56.958,46.735,59.326,54.412,54.784,43.597,57.846000000000004,52.7295,53.836,44.14,57.66,52.1745,-0.21299999999999997,0.04599999999999993,0.10584500000000001,0.10552,0.0,219.03,218.805,215.78333333333333,215.78333333333333,0.0,0.0
