,ABS Active,ABS Enabled,AID Allow Tire Blankets,AID Auto Blip,AID Auto Clutch,AID Auto Shift,AID Fuel Rate,AID Ideal Line,AID Mech Damage,AID Stability,AID Tire Wear Rate,Air Density,Air Temp,Ballast,Best Lap Delta,Best Lap Time,Brake Bias,Brake Pos,Brake Temp FL,Brake Temp FR,Brake Temp RL,Brake Temp RR,CG Accel Lateral,CG Accel Longitudinal,CG Accel Vertical,CG Height,Camber FL,Camber FR,Camber RL,Camber RR,Car Coord X,Car Coord Y,Car Coord Z,Car Damage Front,Car Damage Left,Car Damage Rear,Car Damage Right,Car Pos Norm,Caster FL,Caster FR,Chassis Pitch Angle,Chassis Pitch Rate,Chassis Roll Angle,Chassis Roll Rate,Chassis Velocity X,Chassis Velocity Y,Chassis Velocity Z,Chassis Yaw Rate,Clutch Pos,DRS Active,DRS Available,Drive Train Speed,ERS Heat Charging,ERS Is Charging,ERS Max Energy,ERS Power Level,ERS Recovery Level,Engine Brake Setting,Engine Limiter,Engine RPM,Flags,Fuel Level,Gear,Ground Speed,HR Sample Clock,In Pit,KERS Charge,KERS Deployed Energy,KERS Input,KERS Max Energy,LR Sample Clock,Lap Invalidated,Lap Time,Lap Time2,Last Lap Time,Last Sector Time,MR Sample Clock,Max Fuel,Max Power,Max RPM,Max Sus Travel FL,Max Sus Travel FR,Max Sus Travel RL,Max Sus Travel RR,Max Torque,Max Turbo Boost,Num Tires Off Track,Penalties Enabled,Position,Raw Data Sample Rate,Ride Height FL,Ride Height FR,Ride Height RL,Ride Height RR,Road Temp,Self Align Torque FL,Self Align Torque FR,Self Align Torque RL,Self Align Torque RR,Session Lap Count,Session Time Left,Steering Angle,Surface Grip,Suspension Travel FL,Suspension Travel FR,Suspension Travel RL,Suspension Travel RR,TC Active,TC Enabled,Throttle Pos,Tire Dirt Level FL,Tire Dirt Level FR,Tire Dirt Level RL,Tire Dirt Level RR,Tire Load FL,Tire Load FR,Tire Load RL,Tire Load RR,Tire Loaded Radius FL,Tire Loaded Radius FR,Tire Loaded Radius RL,Tire Loaded Radius RR,Tire Pressure FL,Tire Pressure FR,Tire Pressure RL,Tire Pressure RR,Tire Radius FL,Tire Radius FR,Tire Radius RL,Tire Radius RR,Tire Rubber Grip FL,Tire Rubber Grip FR,Tire Rubber Grip RL,Tire Rubber Grip RR,Tire Slip Angle FL,Tire Slip Angle FR,Tire Slip Angle RL,Tire Slip Angle RR,Tire Slip Ratio FL,Tire Slip Ratio FR,Tire Slip Ratio RL,Tire Slip Ratio RR,Tire Temp Core FL,Tire Temp Core FR,Tire Temp Core RL,Tire Temp Core RR,Tire Temp Inner FL,Tire Temp Inner FR,Tire Temp Inner RL,Tire Temp Inner RR,Tire Temp Middle FL,Tire Temp Middle FR,Tire Temp Middle RL,Tire Temp Middle RR,Tire Temp Outer FL,Tire Temp Outer FR,Tire Temp Outer RL,Tire Temp Outer RR,Toe In FL,Toe In FR,Toe In RL,Toe In RR,Turbo Boost,Wheel Angular Speed FL,Wheel Angular Speed FR,Wheel Angular Speed RL,Wheel Angular Speed RR,Wind Direction,Wind Speed
0,0.0,0.0,0.0,1.0,1.0,0.0,0.0,1.0,0.0,100.0,1.0,1.1856,26.0,0.0,0.0,0.0,59.99999,0.0,26.0,26.0,26.0,26.0,-0.04988888888888887,0.30700000000000016,0.174325,292.099,-2.8578,-2.539888888888889,-1.631,-1.4295,-275.79,215.5225,190.986875,0.0,0.0,0.0,0.0,0.0015333333333333865,-5.498166666666667,-5.498166666666667,-0.6157,2.2756666666666665,0.08677777777777784,-0.30600000000000005,65.391,-0.0247,-0.277325,0.19200000000000017,100.0,1.0,1.0,201.91,0.0,0.0,0.0,0.0,0.0,0.0,0.0,8558.2,0.0,55.0,5.0,235.37666666666667,0.0,0.0,0.0,0.0,0.0,0.0,0.0,0.0,0.0030000000000001137,0.0030000000000001137,0.0,0.0,0.0,55.0,616.79921,10000.0,85.0,85.0,85.0,85.0,395.0,0.0,0.0,0.0,1.0,20.0,48.400999999999996,48.400999999999996,49.254999999999995,49.254999999999995,34.0,-28.685000000000002,30.97,-29.663333333333334,26.44,0.0,1782.887,-0.6750000000000007,100.0,28.329,27.159,39.317,40.785,0.0,0.0,100.0,0.0,0.0,0.0,0.0,3564.142857142857,3880.1000000000004,4006.75,4250.7,303.9775,298.0543333333333,315.1615,314.26225,21.7934,13.76,21.7475,21.3328,314.99999,314.99999,324.99998,324.99998,99.55925714285715,99.50733333333334,99.56397142857143,99.54584285714286,0.10066666666666668,-0.006333333333333302,-0.13749999999999996,0.08949999999999991,-0.07000000000000028,-0.09166666666666856,1.5394999999999999,1.5590000000000002,37.209,30.75,36.922,34.33,56.595,38.081,58.579,51.8915,54.474000000000004,36.4685,57.198499999999996,50.260999999999996,53.613,36.385999999999996,57.138999999999996,49.70733333333334,-0.1359999999999999,-0.020000000000000018,0.09941000000000001,0.11699000000000001,0.0,204.94,204.815,201.91,201.91,0.0,0.0
1,0.0,0.0,0.0,1.0,1.0,0.0,0.0,1.0,0.0,100.0,1.0,1.1856,26.0,0.0,0.0,0.0,59.999996,0.0,26.0,26.0,26.0,26.0,-0.06455555555555548,0.3246,0.18330000000000002,291.229,-2.7622999999999998,-2.613888888888889,-1.6781000000000001,-1.4464000000000001,-272.45,215.525,190.967,0.0,0.0,0.0,0.0,0.003466666666666507,-5.498166666666667,-5.498166666666667,-0.5038,-0.7323333333333334,0.04055555555555568,-0.9729999999999999,65.548,-0.0155,-0.2147,0.44599999999999973,100.0,1.0,1.0,201.79000000000002,0.0,0.0,0.0,0.0,0.0,0.0,0.0,8553.1,0.0,55.0,5.0,235.94,1.0,0.0,0.0,0.0,0.0,0.0,0.0,0.0,0.053999999999998494,0.053999999999998494,0.0,0.0,1.0,55.0,616.79921,10000.0,85.000001,85.000001,85.000001,85.000001,395.0,0.0,0.0,0.0,1.0,333.33500000000004,52.078,52.078,46.829,46.829,34.0,-21.345,17.97,-38.553333333333335,38.815,0.0,1782.835,-0.3249999999999993,100.0,28.364,27.38,41.689,43.634,0.0,0.0,100.0,0.0,0.0,0.0,0.0,2876.5714285714284,2423.6,4773.25,5704.3,306.0595,303.758,313.056,310.8695,21.8034,13.7676,21.7582,21.3423,314.999998,314.999998,324.999988,324.999988,99.55927142857144,99.50735,99.56411428571428,99.546,0.10533333333333328,-0.03366666666666662,-0.129,0.08633333333333337,-0.030000000000001137,-0.04999999999999716,1.3075,1.326,37.271,30.7975,36.989000000000004,34.388999999999996,56.583,38.144999999999996,58.626,51.964,54.463,36.5255,57.2425,50.3305,53.601,36.4435,57.1795,49.775333333333336,-0.11250000000000004,-0.04700000000000015,0.10781500000000001,0.10813,0.0,205.37666666666667,205.275,201.79000000000002,201.79000000000002,0.0,0.0
2,0.0,0.0,0.0,1.0,1.0,0.0,0.0,1.0,0.0,100.0,1.0,1.1856,26.0,0.0,0.0,0.0,59.999996,0.0,26.0,26.0,26.0,26.0,-0.08577777777777784,0.28459999999999996,-0.26885000000000003,292.953,-2.711,-2.6029999999999998,-1.6232,-1.4671,-269.11,215.525,190.9485,0.0,0.0,0.0,0.0,0.00539999999999996,-5.498166666666667,-5.498166666666667,-0.6139,0.12266666666666667,0.05233333333333312,2.689,65.68299999999999,-0.013600000000000001,-0.316425,0.8379999999999992,100.0,1.0,1.0,203.20666666666668,0.0,0.0,0.0,0.0,0.0,0.0,0.0,8613.3,0.0,55.0,5.0,236.43,0.0,0.0,0.0,0.0,0.0,0.0,0.0,0.0,0.10500000000000043,0.10500000000000043,0.0,0.0,0.0,55.0,616.79921,10000.0,85.000001,85.000001,85.000001,85.000001,395.0,0.0,0.0,0.0,1.0,333.33500000000004,49.911,49.911,50.705,50.705,34.0,-27.2225,21.698,-24.14,18.72,0.0,1782.783,-0.16499999999999915,100.0,28.884,27.157,41.426,42.596000000000004,0.0,0.0,100.0,0.0,0.0,0.0,0.0,3449.714285714286,2924.2,3378.25,3374.9,304.19,301.523,316.5705,316.54075,21.8136,13.774899999999999,21.7683,21.3509,314.999998,314.999998,324.999988,324.999988,99.55928571428572,99.50736666666667,99.56425714285714,99.54612857142857,0.08099999999999996,-0.048666666666666636,-0.16033333333333333,0.07099999999999995,-0.0714285714285694,-0.07833333333332604,1.7894999999999999,1.8240000000000003,37.335,30.843,37.052,34.443,56.573,38.204,58.661,52.0155,54.453,36.577,57.275,50.379999999999995,53.59,36.495,57.2095,49.824333333333335,-0.09549999999999992,-0.058499999999999996,0.10679000000000001,0.102955,0.0,205.78,205.63,203.20666666666668,203.20666666666668,0.0,0.0
3,0.0,0.0,0.0,1.0,1.0,0.0,0.0,1.0,0.0,100.0,1.0,1.1856,26.0,0.0,0.0,0.0,59.999996,0.0,26.0,26.0,26.0,26.0,-0.06744444444444442,0.31489999999999996,0.05545,291.885,-2.7713,-2.5855555555555556,-1.6404,-1.3885,-265.95,215.525,190.929,0.0,0.0,0.0,0.0,0.007233333333333314,-5.498166666666667,-5.498166666666667,-0.5452,0.9926666666666667,0.10377777777777775,-1.976,65.83,-0.027800000000000002,-0.232575,0.7960000000000012,100.0,1.0,1.0,203.00333333333333,0.0,0.0,0.0,0.0,0.0,0.0,0.0,8604.6,0.0,55.0,5.0,236.95666666666668,1.0,0.0,0.0,0.0,0.0,0.0,0.0,0.0,0.1529999999999987,0.1529999999999987,0.0,0.0,1.0,55.0,616.79921,10000.0,85.000001,85.000001,85.000001,85.000001,395.0,0.0,0.0,0.0,1.0,333.33500000000004,50.873,50.873,47.577,47.577,34.0,-23.1525,21.396,-34.07333333333334,27.8675,0.0,1782.735,-0.17999999999999972,100.0,28.496,27.448,41.097,42.825,0.0,0.0,100.0,0.0,0.0,0.0,0.0,2982.857142857143,2884.9,4345.5,4591.1,305.8265,301.55733333333336,314.2995,313.3545,21.8231,13.7823,21.7777,21.3595,314.999998,314.999998,324.999988,324.999988,99.55928571428572,99.50736666666667,99.56438571428572,99.54628571428572,0.08333333333333326,-0.04699999999999993,-0.14983333333333337,0.07216666666666671,-0.04142857142857537,-0.08833333333333115,1.4465,1.4580000000000002,37.394,30.889499999999998,37.111000000000004,34.497,56.561,38.271,58.6975,52.084,54.441,36.637,57.3085,50.446,53.577,36.555,57.24,49.88933333333333,-0.09549999999999992,-0.05900000000000016,0.10800000000000001,0.10713,0.0,206.3,206.14499999999998,203.00333333333333,203.00333333333333,0.0,0.0
4,0.0,0.0,0.0,1.0,1.0,0.0,0.0,1.0,0.0,100.0,1.0,1.1856,26.0,0.0,0.0,0.0,59.999996,0.0,26.0,26.0,26.0,26.0,-0.0872222222222222,0.2811000000000001,0.019350000000000003,292.282,-2.7321,-2.6821111111111113,-1.5577,-1.5316,-262.39,215.5225,190.908625,0.0,0.0,0.0,0.0,0.009333333333333305,-5.498166666666667,-5.498166666666667,-0.5656,-0.737,0.02677777777777779,-1.104,65.983,-0.0381,-0.278075,1.1260000000000012,100.0,1.0,1.0,203.65,0.0,0.0,0.0,0.0,0.0,0.0,0.0,8631.9,0.0,55.0,5.0,237.51333333333332,0.0,0.0,0.0,0.0,0.0,0.0,0.0,0.0,0.20700000000000074,0.20700000000000074,0.0,0.0,0.0,55.0,616.79921,10000.0,85.000001,85.000001,85.000001,85.000001,395.0,0.0,0.0,0.0,1.0,166.665,50.934,50.934,48.492,48.492,34.0,-27.049999999999997,20.348,-31.29,23.887500000000003,0.0,1782.683,-0.08999999999999986,100.0,28.421,27.022,42.134,43.129,0.0,0.0,100.0,0.0,0.0,0.0,0.0,3352.4285714285716,2737.9,4064.25,3929.6,304.7515,302.343,314.94325,315.02,21.8337,13.7903,21.7888,21.3692,314.999998,314.999998,324.999988,324.999988,99.5593,99.50738333333334,99.56452857142857,99.54641428571429,0.06333333333333324,-0.05933333333333335,-0.1748333333333334,0.05800000000000005,-0.04714285714285893,-0.07833333333332604,1.5204999999999997,1.5620000000000003,37.461,30.9395,37.18,34.557,56.549,38.334,58.739,52.146,54.43,36.692499999999995,57.347,50.5055,53.565,36.6105,57.2755,49.94766666666666,-0.08250000000000002,-0.06499999999999995,0.1077,0.10841,0.0,206.69666666666666,206.565,203.65,203.65,0.0,0.0
5,0.0,0.0,0.0,1.0,1.0,0.0,0.0,1.0,0.0,100.0,1.0,1.1856,26.0,0.0,0.0,0.0,59.999996,0.0,26.0,26.0,26.0,26.0,-0.08744444444444444,0.2915000000000001,-0.052175,292.801,-2.7136,-2.6302222222222222,-1.6131,-1.5127000000000002,-259.22,215.51749999999998,190.89025,0.0,0.0,0.0,0.0,0.011166666666666547,-5.498166666666667,-5.498166666666667,-0.5769000000000001,0.3403333333333333,0.050000000000000044,0.16000000000000014,66.119,-0.0551,-0.269575,1.0739999999999998,100.0,1.0,1.0,204.19666666666666,0.0,0.0,0.0,0.0,0.0,0.0,0.0,8655.2,0.0,55.0,5.0,238.0,1.0,0.0,0.0,0.0,0.0,0.0,0.0,0.0,0.254999999999999,0.254999999999999,0.0,0.0,1.0,55.0,616.79921,10000.0,85.000001,85.000001,85.000001,85.000001,395.0,0.0,0.0,0.0,1.0,166.665,51.163,51.163,49.316,49.316,34.0,-25.55,20.857999999999997,-29.413333333333334,22.6725,0.0,1782.635,-0.379999999999999,100.0,28.235,26.83,41.714,42.469,0.0,0.0,100.0,0.0,0.0,0.0,0.0,3257.142857142857,2789.6,3766.375,3986.4,304.9565,302.15133333333335,315.68075,314.96325,21.8433,13.7974,21.7984,21.3775,314.999998,314.999998,324.999988,324.999988,99.55931428571428,99.50738333333334,99.56465714285714,99.54655714285714,0.07533333333333325,-0.04633333333333334,-0.18833333333333335,0.03766666666666674,-0.058571428571426054,-0.09833333333332916,1.6015000000000001,1.6390000000000002,37.519999999999996,30.984,37.239999999999995,34.6095,56.539,38.391999999999996,58.7735,52.201,54.42,36.744,57.379,50.5585,53.554,36.662,57.305,49.99933333333333,-0.11149999999999993,-0.035499999999999865,0.10505500000000001,0.10866500000000001,0.0,207.17333333333335,207.0,204.19666666666666,204.19666666666666,0.0,0.0
6,0.0,0.0,0.0,1.0,1.0,0.0,0.0,1.0,0.0,100.0,1.0,1.1856,26.0,0.0,0.0,0.0,59.999996,0.0,26.0,26.0,26.0,26.0,-0.11466666666666658,0.29059999999999997,0.031875,292.465,-2.7321,-2.695888888888889,-1.5643,-1.4876,-256.04,215.51,190.87075,0.0,0.0,0.0,0.0,0.0129999999999999,-5.498166666666667,-5.498166666666667,-0.5653,-0.19366666666666665,0.03388888888888886,-1.2220000000000004,66.258,-0.0584,-0.243675,0.8339999999999996,100.0,1.0,1.0,204.44,0.0,0.0,0.0,0.0,0.0,0.0,0.0,8665.4,0.0,55.0,5.0,238.5,0.0,0.0,0.0,0.0,0.0,0.0,0.0,0.0,0.3030000000000008,0.3030000000000008,0.0,0.0,0.0,55.0,616.79921,10000.0,85.000001,85.000001,85.000001,85.000001,395.0,0.0,0.0,0.0,1.0,166.665,51.391999999999996,51.391999999999996,48.400999999999996,48.400999999999996,34.0,-26.9675,19.985999999999997,-33.093333333333334,24.0,0.0,1782.587,-0.2699999999999996,100.0,28.042,26.733,41.746,42.624,0.0,0.0,100.0,0.0,0.0,0.0,0.0,3294.0,2713.0,4175.25,4154.4,304.963,302.47866666666664,314.669,314.5005,21.8526,13.8045,21.808,21.386,314.999998,314.999998,324.999988,324.999988,99.55931428571428,99.5074,99.56478571428572,99.54668571428572,0.05233333333333334,-0.06599999999999995,-0.18666666666666665,0.03933333333333322,-0.05142857142857338,-0.061666666666667425,1.509,1.54,37.579,31.028,37.3,34.6625,56.525999999999996,38.45,58.8095,52.260999999999996,54.408,36.795,57.4125,50.616,53.541,36.713,57.335499999999996,50.056,-0.10149999999999992,-0.04999999999999982,0.11355000000000001,0.10264000000000001,0.0,207.57333333333332,207.425,204.44,204.44,0.0,0.0
7,0.0,0.0,0.0,1.0,1.0,0.0,0.0,1.0,0.0,100.0,1.0,1.1856,26.0,0.0,0.0,0.0,59.999996,0.0,26.0,26.0,26.0,26.0,-0.08977777777777785,0.29370000000000007,-0.0023250000000000002,292.313,-2.684,-2.703444444444444,-1.6106,-1.5401,-252.66,215.5,190.850125,0.0,0.0,0.0,0.0,0.014966666666666573,-5.498166666666667,-5.498166666666667,-0.5735,0.096,0.040111111111110986,1.278,66.402,-0.0587,-0.262125,0.6799999999999997,100.0,1.0,1.0,204.92000000000002,0.0,0.0,0.0,0.0,0.0,0.0,0.0,8685.8,0.0,55.0,5.0,239.01999999999998,1.0,0.0,0.0,0.0,0.0,0.0,0.0,0.0,0.3539999999999992,0.3539999999999992,0.0,0.0,1.0,55.0,616.79921,10000.0,85.000001,85.000001,85.000001,85.000001,395.0,0.0,0.0,0.0,1.0,166.665,50.858000000000004,50.858000000000004,48.629999999999995,48.629999999999995,34.0,-24.415,23.024,-31.193333333333335,25.065,0.0,1782.536,-0.8150000000000013,100.0,28.56,26.685,41.956,42.56,0.0,0.0,100.0,0.0,0.0,0.0,0.0,3244.5714285714284,2889.3,3998.0,4133.5,304.8475,301.875,315.07075,314.59875,21.8628,13.812100000000001,21.8183,21.3951,314.999998,314.999998,324.999988,324.999988,99.55932857142857,99.5074,99.56492857142857,99.54684285714286,0.09566666666666679,-0.024333333333333318,-0.17233333333333334,0.051166666666666805,-0.04999999999999716,-0.086666666666666,1.5444999999999998,1.564,37.641999999999996,31.075499999999998,37.364999999999995,34.7195,56.516,38.513,58.8485,52.3225,54.397999999999996,36.8505,57.448499999999996,50.675,53.53,36.769,57.369,50.114,-0.14100000000000001,-0.008999999999999897,0.10619,0.108505,0.0,208.03666666666666,207.885,204.92000000000002,204.92000000000002,0.0,0.0
8,0.0,0.0,0.0,1.0,1.0,0.0,0.0,1.0,0.0,100.0,1.0,1.1856,26.0,0.0,0.0,0.0,59.999996,0.0,26.0,26.0,26.0,26.0,-0.0441111111111111,0.27880000000000016,-0.027075000000000002,292.435,-2.7765,-2.6245555555555558,-1.5779,-1.5258,-249.26999999999998,215.4875,190.829625,0.0,0.0,0.0,0.0,0.016966666666666574,-5.498166666666667,-5.498166666666667,-0.5750000000000001,-0.15933333333333335,0.0564444444444443,-1.021,66.54599999999999,-0.051800000000000006,-0.26645,0.39200000000000124,100.0,1.0,1.0,205.37666666666667,0.0,0.0,0.0,0.0,0.0,0.0,0.0,8705.2,0.0,55.0,5.0,239.54000000000002,0.0,0.0,0.0,0.0,0.0,0.0,0.0,0.0,0.40500000000000114,0.40500000000000114,0.0,0.0,0.0,55.0,616.79921,10000.0,85.000001,85.000001,85.000001,85.000001,395.0,0.0,0.0,0.0,1.0,166.665,51.086,51.086,48.477000000000004,48.477000000000004,34.0,-24.5875,22.432000000000002,-30.063333333333333,25.25,0.0,1782.485,-0.9499999999999993,100.0,28.078,26.939,41.871,42.866,0.0,0.0,100.0,0.0,0.0,0.0,0.0,3235.4285714285716,2853.4,3932.625,4089.4,305.1145,301.81933333333336,315.2765,314.6055,21.872700000000002,13.8198,21.8286,21.4043,314.999998,314.999998,324.999988,324.999988,99.55934285714285,99.5074,99.56505714285714,99.54698571428571,0.10333333333333328,-0.01966666666666661,-0.1698333333333334,0.06099999999999994,-0.05714285714285694,-0.06333333333333258,1.5270000000000001,1.548,37.705,31.124000000000002,37.429,34.7765,56.506,38.576,58.885999999999996,52.3855,54.388,36.9065,57.4835,50.7355,53.519,36.8245,57.400999999999996,50.17366666666666,-0.15900000000000003,0.007500000000000062,0.10604500000000001,0.10734,0.0,208.45333333333335,208.335,205.37666666666667,205.37666666666667,0.0,0.0
9,0.0,0.0,0.0,1.0,1.0,0.0,0.0,1.0,0.0,100.0,1.0,1.1856,26.0,0.0,0.0,0.0,59.999996,0.0,26.0,26.0,26.0,26.0,-0.0357777777777778,0.29000000000000004,-0.011000000000000001,292.343,-2.6955999999999998,-2.646888888888889,-1.5949,-1.4868000000000001,-246.07,215.475,190.810125,0.0,0.0,0.0,0.0,0.018799999999999928,-5.498166666666667,-5.498166666666667,-0.5722,0.20266666666666666,0.042888888888888976,-0.6819999999999999,66.681,-0.0386,-0.256625,0.13000000000000078,100.0,1.0,1.0,205.78333333333333,0.0,0.0,0.0,0.0,0.0,0.0,0.0,8722.4,0.0,55.0,5.0,240.0233333333333,1.0,0.0,0.0,0.0,0.0,0.0,0.0,0.0,0.4529999999999994,0.4529999999999994,0.0,0.0,1.0,55.0,616.79921,10000.0,85.000001,85.000001,85.000001,85.000001,395.0,0.0,0.0,0.0,1.0,333.33500000000004,50.964,50.964,48.676,48.676,34.0,-24.085,23.002000000000002,-29.936666666666664,25.925,0.0,1782.435,-1.0899999999999999,100.0,28.143,26.862000000000002,41.734,42.816,0.0,0.0,100.0,0.0,0.0,0.0,0.0,3341.714285714286,2844.3,3991.125,4151.5,304.785,301.88733333333334,315.14625,314.52,21.8821,13.8271,21.8382,21.4128,314.999998,314.999998,324.999988,324.999988,99.55935714285714,99.50741666666667,99.5652,99.54711428571429,0.11733333333333329,-0.006000000000000005,-0.15366666666666662,0.07733333333333325,-0.048571428571428044,-0.08500000000000085,1.5510000000000002,1.553,37.763,31.1695,37.489000000000004,34.83,56.498000000000005,38.634,58.9215,52.443,54.379999999999995,36.9585,57.5165,50.7915,53.51,36.876999999999995,57.4305,50.228,-0.16399999999999992,0.0129999999999999,0.100415,0.11503500000000001,0.0,208.86666666666667,208.765,205.78333333333333,205.78333333333333,0.0,0.0
10,0.0,0.0,0.0,1.0,1.0,0.0,0.0,1.0,0.0,100.0,1.0,1.1856,26.0,0.0,0.0,0.0,59.999996,0.0,26.0,26.0,26.0,26.0,-0.02966666666666662,0.2905,0.008775,292.252,-2.7464,-2.6293333333333333,-1.63,-1.4725000000000001,-242.67000000000002,215.46,190.789375,0.0,0.0,0.0,0.0,0.02079999999999993,-5.498166666666667,-5.498166666666667,-0.5651,-0.13633333333333333,0.06933333333333325,1.593,66.825,-0.0216,-0.2525,-0.19399999999999995,100.0,1.0,1.0,206.14333333333332,0.0,0.0,0.0,0.0,0.0,0.0,0.0,8737.6,0.0,55.0,5.0,240.54333333333335,0.0,0.0,0.0,0.0,0.0,0.0,1.0,0.0,0.5040000000000013,0.5040000000000013,0.0,0.0,0.0,55.0,616.79921,10000.0,85.000001,85.000001,85.000001,85.000001,395.0,0.0,0.0,0.0,1.0,333.33500000000004,51.224000000000004,51.224000000000004,48.385999999999996,48.385999999999996,34.0,-21.93,24.044,-29.57,28.68,0.0,1782.385,-1.2049999999999983,100.0,28.262999999999998,26.678,41.907,42.984,0.0,0.0,100.0,0.0,0.0,0.0,0.0,3118.5714285714284,2914.8,3991.625,4373.3,305.25,301.8786666666667,315.06225,314.05475,21.8921,13.8348,21.8485,21.422,314.999998,314.999998,324.999988,324.999988,99.55937142857142,99.50741666666667,99.56534285714285,99.54725714285715,0.14000000000000012,0.014666666666666606,-0.131,0.09983333333333322,-0.03857142857143003,-0.0833333333333286,1.5185,1.525,37.826,31.2175,37.553,34.8875,56.489000000000004,38.696,58.9595,52.507,54.372,37.013,57.552,50.8525,53.501000000000005,36.932,57.463,50.288,-0.17599999999999993,0.02499999999999991,0.106965,0.11081500000000001,0.0,209.28666666666666,209.22500000000002,206.14333333333332,206.14333333333332,0.0,0.0
11,0.0,0.0,0.0,1.0,1.0,0.0,0.0,1.0,0.0,100.0,1.0,1.1856,26.0,0.0,0.0,0.0,59.999996,0.0,26.0,26.0,26.0,26.0,0.009444444444444589,0.2702,-0.051300000000000005,292.526,-2.7609,-2.618333333333333,-1.6385,-1.4467,-239.25,215.445,190.768375,0.0,0.0,0.0,0.0,0.022599999999999953,-5.498166666666667,-5.498166666666667,-0.5863,-0.3473333333333333,0.09144444444444422,-0.20699999999999985,66.96600000000001,-0.0028,-0.266725,-0.2860000000000005,100.0,1.0,1.0,206.68,0.0,0.0,0.0,0.0,0.0,0.0,0.0,8760.5,0.0,55.0,5.0,241.05,1.0,0.0,0.0,0.0,0.0,0.0,1.0,0.0,0.5549999999999997,0.5549999999999997,0.0,0.0,1.0,55.0,616.79921,10000.0,85.000001,85.000001,85.000001,85.000001,395.0,0.0,0.0,0.0,1.0,166.665,51.208,51.208,48.843,48.843,34.0,-22.6775,24.11,-27.323333333333338,27.1375,0.0,1782.335,-1.1950000000000003,100.0,27.818,26.838,41.656,43.186,0.0,0.0,100.0,0.0,0.0,0.0,0.0,3241.142857142857,2899.3,3833.25,4127.0,305.105,301.70233333333334,315.5255,314.594,21.9019,13.842600000000001,21.8587,21.4312,314.999998,314.999998,324.999988,324.999988,99.55938571428571,99.50741666666667,99.56547142857143,99.54741428571428,0.1433333333333333,0.016666666666666607,-0.11716666666666664,0.11499999999999999,-0.0628571428571405,-0.0899999999999963,1.5630000000000002,1.5550000000000002,37.887,31.266,37.617000000000004,34.945,56.480999999999995,38.759,58.995,52.569,54.364000000000004,37.0685,57.5845,50.9125,53.491,36.9875,57.493,50.34733333333333,-0.17399999999999993,0.02200000000000002,0.10527500000000001,0.10687500000000001,0.0,209.71333333333334,209.65,206.68,206.68,0.0,0.0
12,0.0,0.0,0.0,1.0,1.0,0.0,0.0,1.0,0.0,100.0,1.0,1.1856,26.0,0.0,0.0,0.0,59.999996,0.0,26.0,26.0,26.0,26.0,0.021222222222222253,0.2816000000000001,0.000675,292.191,-2.797,-2.603777777777778,-1.6413,-1.4572,-236.04,215.43,190.747875,0.0,0.0,0.0,0.0,0.025466666666666526,-5.498166666666667,-5.498166666666667,-0.5819,0.3656666666666667,0.10077777777777785,-0.4849999999999999,67.099,0.012400000000000001,-0.250575,-0.3260000000000005,100.0,1.0,1.0,207.04000000000002,0.0,0.0,0.0,0.0,0.0,0.0,0.0,8775.7,0.0,55.0,5.0,241.53,0.0,0.0,0.0,0.0,0.0,0.0,1.0,0.0,0.602999999999998,0.602999999999998,0.0,0.0,0.0,55.0,616.79921,10000.0,85.000001,85.000001,85.000001,85.000001,395.0,0.0,0.0,0.0,1.0,333.33500000000004,50.842,50.842,48.37,48.37,34.0,-22.4625,25.236,-27.946666666666665,29.3075,0.0,1782.285,-1.2850000000000001,100.0,27.936,27.15,41.415,43.19,0.0,0.0,100.0,0.0,0.0,0.0,0.0,3248.714285714286,2963.9,4008.375,4253.2,305.0655,301.3883333333333,315.1365,314.312,21.9112,13.8501,21.8683,21.439799999999998,314.999998,314.999998,324.999988,324.999988,99.55941428571428,99.50743333333334,99.5656,99.54754285714286,0.15766666666666684,0.03200000000000003,-0.09799999999999998,0.13316666666666666,-0.03857142857143003,-0.09499999999999886,1.5514999999999999,1.5380000000000003,37.945,31.313,37.677,34.999,56.474000000000004,38.821,59.028,52.628,54.357,37.124,57.6155,50.969,53.483000000000004,37.043,57.5205,50.403,-0.17599999999999993,0.026499999999999968,0.10825000000000001,0.11235500000000001,0.0,210.13333333333333,210.095,207.04000000000002,207.04000000000002,0.0,0.0
13,0.0,0.0,0.0,1.0,1.0,0.0,0.0,1.0,0.0,100.0,1.0,1.1856,26.0,0.0,0.0,0.0,59.999996,0.0,26.0,26.0,26.0,26.0,0.042333333333333334,0.276,0.027625,291.794,-2.7641,-2.617222222222222,-1.6378,-1.4661,-232.61,215.41500000000002,190.72625,0.0,0.0,0.0,0.0,0.026633333333333398,-5.498166666666667,-5.498166666666667,-0.5758,-0.15833333333333335,0.10033333333333316,1.0979999999999999,67.241,0.020200000000000003,-0.25720000000000004,-0.47799999999999976,100.0,1.0,1.0,207.38333333333333,0.0,0.0,0.0,0.0,0.0,0.0,0.0,8790.2,0.0,55.0,5.0,242.04000000000002,1.0,0.0,0.0,0.0,0.0,0.0,1.0,0.0,0.6539999999999999,0.6539999999999999,0.0,0.0,1.0,55.0,616.79921,10000.0,85.000001,85.000001,85.000001,85.000001,395.0,0.0,0.0,0.0,1.0,333.33500000000004,50.659,50.659,47.974000000000004,47.974000000000004,34.0,-19.285,27.468,-27.666666666666664,31.3775,0.0,1782.234,-1.2949999999999982,100.0,28.338,27.229,41.894,43.581,0.0,0.0,100.0,0.0,0.0,0.0,0.0,3158.0,3021.8,4011.875,4409.7,305.1485,301.38033333333334,315.00775,313.96925,21.9211,13.8581,21.8786,21.4492,314.999998,314.999998,324.999988,324.999988,99.55942857142857,99.50743333333334,99.56574285714285,99.5477,0.20833333333333326,0.07800000000000007,-0.08566666666666656,0.1423333333333332,-0.02285714285714846,-0.09833333333332916,1.5105,1.5,38.007,31.363,37.741,35.057,56.468,38.888,59.066,52.693,54.351,37.1835,57.6505,51.032,53.476,37.1025,57.5525,50.464666666666666,-0.2044999999999999,0.04699999999999993,0.11087000000000001,0.10554000000000001,0.0,210.55666666666667,210.525,207.38333333333333,207.38333333333333,0.0,0.0
14,0.0,0.0,0.0,1.0,1.0,0.0,0.0,1.0,0.0,100.0,1.0,1.1856,26.0,0.0,0.0,0.0,59.999996,0.0,26.0,26.0,26.0,26.0,0.04966666666666675,0.2752000000000001,-0.018575,291.977,-2.7853,-2.622333333333333,-1.6486,-1.4603000000000002,-229.18,215.4,190.704875,0.0,0.0,0.0,0.0,0.0286333333333334,-5.498166666666667,-5.498166666666667,-0.5879,-0.08433333333333333,0.11255555555555552,-0.23899999999999988,67.38,0.030100000000000002,-0.270225,-0.4479999999999995,100.0,1.0,1.0,207.90333333333334,0.0,0.0,0.0,0.0,0.0,0.0,0.0,8812.3,0.0,55.0,5.0,242.54000000000002,0.0,0.0,0.0,0.0,0.0,0.0,1.0,0.0,0.7049999999999983,0.7049999999999983,0.0,0.0,0.0,55.0,616.79921,10000.0,85.000001,85.000001,85.000001,85.000001,395.0,0.0,0.0,0.0,1.0,333.33500000000004,50.613,50.613,48.325,48.325,34.0,-21.1125,26.034,-26.159999999999997,29.745,0.0,1782.184,-1.3399999999999999,100.0,28.174,27.512999999999998,41.72,43.775999999999996,0.0,0.0,100.0,0.0,0.0,0.0,0.0,3225.142857142857,2943.6,3897.0,4199.4,305.1405,301.403,315.37925,314.4175,21.931,13.8661,21.8888,21.4584,314.999998,314.999998,324.999988,324.999988,99.55945714285714,99.50745,99.56588571428571,99.54784285714285,0.18033333333333323,0.05166666666666675,-0.07750000000000001,0.14733333333333332,-0.05142857142857338,-0.0799999999999983,1.5554999999999999,1.5300000000000002,38.069,31.413,37.805,35.115,56.463,38.956,59.1015,52.7565,54.345,37.243,57.6835,51.093,53.469,37.162,57.582499999999996,50.52433333333333,-0.18700000000000006,0.03200000000000003,0.09620500000000001,0.11196,0.0,211.0,210.94,207.90333333333334,207.90333333333334,0.0,0.0
15,0.0,0.0,0.0,1.0,1.0,0.0,0.0,1.0,0.0,100.0,1.0,1.1856,26.0,0.0,0.0,0.0,59.999996,0.0,26.0,26.0,26.0,26.0,0.06144444444444441,0.2722,-0.011000000000000001,291.855,-2.7808,-2.5954444444444444,-1.6421999999999999,-1.477,-225.94,215.3875,190.6845,0.0,0.0,0.0,0.0,0.0305333333333333,-5.498166666666667,-5.498166666666667,-0.5828,0.20500000000000002,0.12477777777777788,-0.6950000000000003,67.511,0.0358,-0.25927500000000003,-0.4500000000000002,100.0,1.0,1.0,208.2733333333333,0.0,0.0,0.0,0.0,0.0,0.0,0.0,8827.9,0.0,55.0,5.0,243.01333333333332,1.0,0.0,0.0,0.0,0.0,0.0,1.0,0.0,0.7530000000000001,0.7530000000000001,0.0,0.0,1.0,55.0,616.79921,10000.0,85.000001,85.000001,85.000001,85.000001,395.0,0.0,0.0,0.0,1.0,166.665,50.568,50.568,48.141,48.141,34.0,-20.4525,26.09,-26.503333333333337,31.080000000000002,0.0,1782.136,-1.259999999999998,100.0,28.171,27.639,41.582,43.89,0.0,0.0,100.0,0.0,0.0,0.0,0.0,3201.285714285714,2948.3,3970.75,4265.7,305.2085,301.349,315.2195,314.2125,21.9402,13.8737,21.8984,21.4671,314.999998,314.999998,324.999988,324.999988,99.55948571428571,99.50745,99.56601428571429,99.54798571428572,0.18966666666666687,0.05699999999999994,-0.07266666666666666,0.15466666666666673,-0.03857142857143003,-0.08166666666667055,1.5324999999999998,1.5110000000000001,38.126000000000005,31.4605,37.864999999999995,35.1695,56.457,39.019999999999996,59.1345,52.8165,54.34,37.3,57.713499999999996,51.150999999999996,53.462,37.2195,57.6095,50.58166666666666,-0.1844999999999999,0.03049999999999997,0.10478000000000001,0.11178500000000001,0.0,211.40333333333334,211.365,208.2733333333333,208.2733333333333,0.0,0.0
16,0.0,0.0,0.0,1.0,1.0,0.0,0.0,1.0,0.0,100.0,1.0,1.1856,26.0,0.0,0.0,0.0,59.999996,0.0,26.0,26.0,26.0,26.0,0.04833333333333334,0.2752000000000001,0.0083,291.702,-2.8368,-2.546222222222222,-1.6188,-1.4747,-222.49,215.3775,190.6625,0.0,0.0,0.0,0.0,0.03249999999999997,-5.498166666666667,-5.498166666666667,-0.5893,-0.4366666666666667,0.11766666666666681,0.33999999999999986,67.651,0.0392,-0.26665,-0.39999999999999947,100.0,1.0,1.0,208.66,0.0,0.0,0.0,0.0,0.0,0.0,0.0,8844.3,0.0,55.0,5.0,243.51666666666665,0.0,0.0,0.0,0.0,0.0,0.0,1.0,0.0,0.8039999999999985,0.8039999999999985,0.0,0.0,0.0,55.0,616.79921,10000.0,85.000001,85.000001,85.000001,85.000001,395.0,0.0,0.0,0.0,1.0,333.33500000000004,50.415,50.415,47.775,47.775,34.0,-21.25,27.342,-25.61,31.325,0.0,1782.085,-1.1849999999999987,100.0,28.14,27.491,41.913,43.977000000000004,0.0,0.0,100.0,0.0,0.0,0.0,0.0,3193.142857142857,3114.4,3945.0,4253.6,305.1235,300.989,315.18175,314.29675,21.9499,13.8818,21.9087,21.4765,314.999998,314.999998,324.999988,324.999988,99.5595,99.50746666666667,99.56615714285714,99.54812857142858,0.18566666666666687,0.06499999999999995,-0.06099999999999994,0.16349999999999998,-0.03857142857143003,-0.08833333333333115,1.5194999999999999,1.513,38.187,31.511499999999998,37.929,35.228,56.45,39.088,59.171,52.881,54.333,37.3605,57.7475,51.213,53.453,37.28,57.6405,50.64266666666666,-0.17149999999999999,0.022499999999999964,0.10649000000000002,0.104785,0.0,211.82333333333332,211.78,208.66,208.66,0.0,0.0
17,0.0,0.0,0.0,1.0,1.0,0.0,0.0,1.0,0.0,100.0,1.0,1.1856,26.0,0.0,0.0,0.0,59.999996,0.0,26.0,26.0,26.0,26.0,0.03922222222222227,0.2834000000000001,0.022350000000000002,291.458,-2.8064,-2.5228888888888887,-1.6669,-1.4317,-219.04,215.365,190.640375,0.0,0.0,0.0,0.0,0.034533333333333305,-5.498166666666667,-5.498166666666667,-0.5902000000000001,0.18166666666666667,0.09633333333333316,-1.0510000000000002,67.788,0.0378,-0.2622,-0.2679999999999998,100.0,1.0,1.0,209.07333333333332,0.0,0.0,0.0,0.0,0.0,0.0,0.0,8861.9,0.0,55.0,5.0,244.01,1.0,0.0,0.0,0.0,0.0,0.0,1.0,0.0,0.8550000000000004,0.8550000000000004,0.0,0.0,1.0,55.0,616.79921,10000.0,85.000001,85.000001,85.000001,85.000001,395.0,0.0,0.0,0.0,1.0,333.33500000000004,50.11,50.11,47.653,47.653,34.0,-22.4625,25.956,-28.373333333333335,30.46,0.0,1782.034,-1.1050000000000004,100.0,28.299,27.774,41.771,44.007999999999996,0.0,0.0,100.0,0.0,0.0,0.0,0.0,3349.285714285714,3041.8,4141.375,4287.4,304.8095,301.0566666666667,314.85175,314.211,21.959699999999998,13.89,21.9189,21.4857,314.999998,314.999998,324.999988,324.999988,99.55952857142857,99.50748333333334,99.56628571428571,99.54828571428571,0.17633333333333323,0.04699999999999993,-0.07550000000000001,0.15266666666666673,-0.04714285714285893,-0.08500000000000085,1.5255,1.513,38.248000000000005,31.5625,37.992999999999995,35.2855,56.445,39.157,59.2065,52.9435,54.327,37.4215,57.78,51.2735,53.447,37.341499999999996,57.67,50.702333333333335,-0.16700000000000004,0.01200000000000001,0.10849,0.11265000000000001,0.0,212.26666666666665,212.21,209.07333333333332,209.07333333333332,0.0,0.0
18,0.0,0.0,0.0,1.0,1.0,0.0,0.0,1.0,0.0,100.0,1.0,1.1856,26.0,0.0,0.0,0.0,59.999996,0.0,26.0,26.0,26.0,26.0,0.03155555555555578,0.27500000000000013,0.0347,291.382,-2.7349,-2.663333333333333,-1.6139999999999999,-1.4054,-215.78,215.35750000000002,190.61925,0.0,0.0,0.0,0.0,0.03643333333333332,-5.498166666666667,-5.498166666666667,-0.5954,-0.3166666666666667,0.08944444444444422,-0.6510000000000002,67.919,0.0346,-0.265925,-0.19599999999999973,100.0,1.0,1.0,209.43333333333334,0.0,0.0,0.0,0.0,0.0,0.0,0.0,8877.1,0.0,55.0,5.0,244.48000000000002,0.0,0.0,0.0,0.0,0.0,0.0,1.0,0.0,0.9029999999999987,0.9029999999999987,0.0,0.0,0.0,55.0,616.79921,10000.0,85.000001,85.000001,85.000001,85.000001,395.0,0.0,0.0,0.0,1.0,166.665,50.201,50.201,47.485,47.485,34.0,-21.56,26.558,-28.286666666666665,29.9975,0.0,1781.987,-1.1149999999999984,100.0,28.288,27.688,41.991,44.131,0.0,0.0,100.0,0.0,0.0,0.0,0.0,3301.0,2997.3,4113.0,4362.4,304.8945,301.08166666666665,314.816,314.036,21.968899999999998,13.8976,21.9286,21.4945,314.999998,314.999998,324.999988,324.999988,99.55955714285714,99.50748333333334,99.56642857142857,99.54842857142857,0.17333333333333334,0.03933333333333322,-0.08699999999999997,0.1383333333333332,-0.054285714285711606,-0.07166666666666544,1.4914999999999998,1.495,38.306,31.609499999999997,38.054,35.3405,56.438,39.219,59.241,53.0035,54.321,37.4765,57.812,51.3315,53.439,37.397,57.699,50.759,-0.16599999999999993,0.006000000000000005,0.11095000000000001,0.10439000000000001,0.0,212.67000000000002,212.585,209.43333333333334,209.43333333333334,0.0,0.0
19,0.0,0.0,0.0,1.0,1.0,0.0,0.0,1.0,0.0,100.0,1.0,1.1856,26.0,0.0,0.0,0.0,59.999996,0.0,26.0,26.0,26.0,26.0,0.05366666666666675,0.27459999999999996,0.04245,291.153,-2.7146,-2.625888888888889,-1.6160999999999999,-1.5241,-212.32,215.3475,190.5965,0.0,0.0,0.0,0.0,0.03843333333333332,-5.498166666666667,-5.498166666666667,-0.5934,0.5036666666666667,0.10577777777777775,1.077,68.054,0.031200000000000002,-0.2625,-0.2060000000000004,100.0,1.0,1.0,209.87333333333333,0.0,0.0,0.0,0.0,0.0,0.0,0.0,8895.7,0.0,55.0,5.0,244.97,1.0,0.0,0.0,0.0,0.0,0.0,1.0,0.0,0.9540000000000006,0.9540000000000006,0.0,0.0,1.0,55.0,616.79921,10000.0,85.000001,85.000001,85.000001,85.000001,395.0,0.0,0.0,0.0,1.0,166.665,49.713,49.713,47.76,47.76,34.0,-20.71,27.067999999999998,-26.743333333333332,33.207499999999996,0.0,1781.936,-1.0399999999999991,100.0,28.961,27.878,42.008,44.064,0.0,0.0,100.0,0.0,0.0,0.0,0.0,3213.285714285714,3096.4,3985.25,4446.7,304.947,300.88966666666664,315.11225,313.816,21.9788,13.9058,21.9388,21.5038,314.999998,314.999998,324.999988,324.999988,99.55957142857143,99.50748333333334,99.56657142857142,99.54857142857144,0.17733333333333334,0.04066666666666685,-0.07666666666666666,0.15066666666666673,-0.058571428571426054,-0.11166666666667169,1.496,1.492,38.367000000000004,31.661,38.117000000000004,35.3985,56.434,39.287,59.2755,53.0665,54.316,37.5375,57.844,51.3925,53.433,37.457499999999996,57.728,50.818666666666665,-0.16549999999999998,0.0004999999999999449,0.10757000000000001,0.104525,0.0,213.09666666666666,213.04500000000002,209.87333333333333,209.87333333333333,0.0,0.0
20,0.0,0.0,0.0,1.0,1.0,0.0,0.0,1.0,0.0,100.0,1.0,1.1856,26.0,0.0,0.0,0.0,59.999996,0.0,26.0,26.0,26.0,26.0,0.03688888888888897,0.2603,0.0055000000000000005,291.29,-2.7886,-2.570444444444444,-1.6048,-1.5056,-208.84,215.34,190.574125,0.0,0.0,0.0,0.0,0.04046666666666654,-5.498166666666667,-5.498166666666667,-0.5905,-0.6443333333333334,0.10466666666666669,-1.117,68.191,0.0269,-0.26855,-0.08199999999999985,100.0,1.0,1.0,210.24666666666667,0.0,0.0,0.0,0.0,0.0,0.0,0.0,8911.6,0.0,55.0,5.0,245.46333333333334,0.0,0.0,0.0,0.0,0.0,0.0,0.0,0.0,1.004999999999999,1.004999999999999,0.0,0.0,0.0,55.0,616.79921,10000.0,85.000001,85.000001,85.000001,85.000001,395.0,0.0,0.0,0.0,1.0,166.665,50.339,50.339,47.287,47.287,34.0,-21.685,25.096,-28.11,30.3675,0.0,1781.885,-1.0449999999999982,100.0,28.425,27.93,42.419,44.646,0.0,0.0,100.0,0.0,0.0,0.0,0.0,3248.857142857143,2944.6,4068.75,4246.9,305.1215,301.44533333333334,314.9525,314.19,21.9884,13.9139,21.9491,21.5132,314.999998,314.999998,324.999988,324.999988,99.5596,99.5075,99.56671428571428,99.54872857142857,0.17233333333333323,0.038000000000000034,-0.09350000000000003,0.13149999999999995,-0.03142857142857025,-0.086666666666666,1.4895,1.4820000000000002,38.428,31.712,38.182,35.458,56.426,39.353,59.313,53.132,54.309,37.596000000000004,57.879,51.4555,53.424,37.5165,57.7595,50.88066666666667,-0.16900000000000004,0.00550000000000006,0.110075,0.10348500000000001,0.0,213.49666666666667,213.44,210.24666666666667,210.24666666666667,0.0,0.0
21,0.0,0.0,0.0,1.0,1.0,0.0,0.0,1.0,0.0,100.0,1.0,1.1856,26.0,0.0,0.0,0.0,59.999996,0.0,26.0,26.0,26.0,26.0,0.011222222222222245,0.2633000000000001,-0.057125,291.595,-2.7958,-2.551,-1.6495000000000002,-1.4513,-205.36,215.33249999999998,190.551375,0.0,0.0,0.0,0.0,0.04246666666666654,-5.498166666666667,-5.498166666666667,-0.6108,-0.03,0.09477777777777785,0.5899999999999999,68.325,0.0236,-0.26985000000000003,-0.16999999999999993,100.0,1.0,1.0,210.79666666666668,0.0,0.0,0.0,0.0,0.0,0.0,0.0,8935.0,0.0,55.0,5.0,245.94333333333333,1.0,0.0,0.0,0.0,0.0,0.0,0.0,0.0,1.056000000000001,1.056000000000001,0.0,0.0,1.0,55.0,616.79921,10000.0,85.000001,85.000001,85.000001,85.000001,395.0,0.0,0.0,0.0,1.0,166.665,50.262,50.262,48.019,48.019,34.0,-21.7175,26.25,-26.78666666666666,28.392500000000002,0.0,1781.834,-1.0799999999999983,100.0,28.619,27.618,42.226,44.192,0.0,0.0,100.0,0.0,0.0,0.0,0.0,3234.5714285714284,3066.0,3898.125,4157.9,304.991,301.284,315.36825,314.62025,21.9981,13.922,21.9592,21.5225,314.999998,314.999998,324.999988,324.999988,99.55961428571429,99.5075,99.56684285714286,99.54887142857143,0.17466666666666675,0.04966666666666675,-0.08866666666666656,0.13450000000000006,-0.04142857142857537,-0.07666666666666799,1.552,1.5550000000000002,38.488,31.7625,38.245000000000005,35.5155,56.42,39.419,59.347,53.192,54.302,37.6545,57.91,51.5135,53.416,37.5755,57.7875,50.937666666666665,-0.16700000000000004,0.01649999999999996,0.106315,0.102915,0.0,213.92333333333335,213.85000000000002,210.79666666666668,210.79666666666668,0.0,0.0
22,0.0,0.0,0.0,1.0,1.0,0.0,0.0,1.0,0.0,100.0,1.0,1.1856,26.0,0.0,0.0,0.0,59.999996,0.0,26.0,26.0,26.0,26.0,0.018000000000000016,0.2742,0.01625,291.183,-2.846,-2.5758888888888887,-1.6841,-1.4464000000000001,-201.87,215.325,190.527625,0.0,0.0,0.0,0.0,0.044499999999999984,-5.498166666666667,-5.498166666666667,-0.5966,0.11366666666666668,0.10155555555555562,-0.645,68.462,0.0229,-0.24557500000000002,-0.1720000000000006,100.0,1.0,1.0,211.07,0.0,0.0,0.0,0.0,0.0,0.0,0.0,8946.4,0.0,55.0,5.0,246.43333333333334,0.0,0.0,0.0,0.0,0.0,0.0,0.0,0.0,1.1069999999999993,1.1069999999999993,0.0,0.0,0.0,55.0,616.79921,10000.0,85.000001,85.000001,85.000001,85.000001,395.0,0.0,0.0,0.0,1.0,166.665,50.308,50.308,47.18,47.18,34.0,-22.8075,25.166,-30.563333333333333,30.8725,0.0,1781.783,-1.1449999999999996,100.0,28.461,27.829,42.234,44.283,0.0,0.0,100.0,0.0,0.0,0.0,0.0,3307.714285714286,2986.3,4205.875,4451.0,305.027,301.38233333333335,314.706,313.851,22.0079,13.9302,21.9695,21.5318,314.999998,314.999998,324.999988,324.999988,99.55964285714286,99.5075,99.567,99.54902857142856,0.16900000000000004,0.030666666666666842,-0.09933333333333338,0.12949999999999995,-0.027142857142855803,-0.08500000000000085,1.4925000000000002,1.488,38.549,31.814,38.309,35.573499999999996,56.414,39.486,59.3835,53.254999999999995,54.296,37.714,57.9435,51.574,53.409,37.6345,57.818,50.99733333333333,-0.17449999999999988,0.009500000000000064,0.10873500000000001,0.10205,0.0,214.35666666666668,214.285,211.07,211.07,0.0,0.0
23,0.0,0.0,0.0,1.0,1.0,0.0,0.0,1.0,0.0,100.0,1.0,1.1856,26.0,0.0,0.0,0.0,59.999996,0.0,26.0,26.0,26.0,26.0,-0.0033333333333332993,0.2694000000000001,0.01195,291.016,-2.7355,-2.607333333333333,-1.7201,-1.4582,-198.38,215.3175,190.504125,0.0,0.0,0.0,0.0,0.046533333333333315,-5.498166666666667,-5.498166666666667,-0.6105,-0.298,0.10022222222222221,0.6669999999999998,68.595,0.024200000000000003,-0.26945,-0.25200000000000067,100.0,1.0,1.0,211.51666666666665,0.0,0.0,0.0,0.0,0.0,0.0,0.0,8965.4,0.0,55.0,5.0,246.91666666666666,1.0,0.0,0.0,0.0,0.0,0.0,0.0,0.0,1.1580000000000013,1.1580000000000013,0.0,0.0,1.0,55.0,616.79921,10000.0,85.000001,85.000001,85.000001,85.000001,395.0,0.0,0.0,0.0,1.0,166.665,49.759,49.759,47.424,47.424,34.0,-21.2375,26.644,-29.166666666666664,30.2925,0.0,1781.732,-1.120000000000001,100.0,28.928,27.837,42.524,44.455,0.0,0.0,100.0,0.0,0.0,0.0,0.0,3287.5714285714284,3074.0,4082.25,4329.4,304.7465,301.14666666666665,314.956,314.2085,22.0176,13.9384,21.9798,21.5412,314.999998,314.999998,324.999988,324.999988,99.55965714285715,99.50751666666666,99.56712857142857,99.54918571428571,0.18266666666666675,0.042333333333333334,-0.08533333333333337,0.13850000000000007,-0.03999999999999915,-0.0933333333333266,1.533,1.521,38.61,31.865499999999997,38.373000000000005,35.6325,56.408,39.553,59.4195,53.319,54.29,37.7735,57.9775,51.635999999999996,53.402,37.6945,57.8485,51.05766666666666,-0.17199999999999993,0.008999999999999897,0.10655500000000001,0.09722000000000001,0.0,214.76333333333332,214.685,211.51666666666665,211.51666666666665,0.0,0.0
24,0.0,0.0,0.0,1.0,1.0,0.0,0.0,1.0,0.0,100.0,1.0,1.1856,26.0,0.0,0.0,0.0,59.999996,0.0,26.0,26.0,26.0,26.0,0.024666666666666837,0.27670000000000017,-0.024825,291.336,-2.7638,-2.5834444444444444,-1.6280999999999999,-1.4628,-195.29,215.3125,190.483125,0.0,0.0,0.0,0.0,0.04833333333333334,-5.498166666666667,-5.498166666666667,-0.623,-0.2636666666666667,0.10777777777777775,-0.31300000000000017,68.713,0.0263,-0.26935000000000003,-0.2239999999999993,100.0,1.0,1.0,211.9,0.0,0.0,0.0,0.0,0.0,0.0,0.0,8981.6,0.0,55.0,5.0,247.34,0.0,0.0,0.0,0.0,0.0,0.0,0.0,0.0,1.2029999999999994,1.2029999999999994,0.0,0.0,0.0,55.0,616.79921,10000.0,85.000001,85.000001,85.000001,85.000001,395.0,0.0,0.0,0.0,1.0,333.33500000000004,50.461,50.461,47.348,47.348,34.0,-21.065,24.646,-28.65,29.5425,0.0,1781.685,-1.1400000000000006,100.0,28.635,27.857,42.407,44.476,0.0,0.0,100.0,0.0,0.0,0.0,0.0,3202.714285714286,2913.5,4111.5,4242.0,305.2135,301.658,314.859,314.35475,22.0261,13.945599999999999,21.9887,21.549500000000002,314.999998,314.999998,324.999988,324.999988,99.55968571428572,99.50753333333333,99.56725714285714,99.54932857142857,0.17399999999999993,0.032666666666666844,-0.09233333333333338,0.13450000000000006,-0.03714285714285381,-0.07666666666666799,1.5124999999999997,1.516,38.663,31.91,38.43,35.684,56.402,39.614,59.4525,53.377,54.284,37.8275,58.0075,51.692,53.394,37.7485,57.8755,51.11266666666667,-0.1735,0.01200000000000001,0.10455500000000001,0.10527500000000001,0.0,215.11333333333334,215.055,211.9,211.9,0.0,0.0
25,0.0,0.0,0.0,1.0,1.0,0.0,0.0,1.0,0.0,100.0,1.0,1.1856,26.0,0.0,0.0,0.0,59.999996,0.0,26.0,26.0,26.0,26.0,0.033666666666666734,0.25450000000000017,-0.031325,291.183,-2.8252,-2.5651111111111113,-1.6728,-1.4744000000000002,-191.57,215.3075,190.456375,0.0,0.0,0.0,0.0,0.05049999999999999,-5.498166666666667,-5.498166666666667,-0.6388,-0.003,0.11233333333333317,-0.7600000000000002,68.85300000000001,0.030600000000000002,-0.262975,-0.23799999999999955,100.0,1.0,1.0,212.37666666666667,0.0,0.0,0.0,0.0,0.0,0.0,0.0,9001.8,0.0,55.0,5.0,247.84666666666666,1.0,0.0,0.0,0.0,0.0,0.0,0.0,0.0,1.256999999999998,1.256999999999998,0.0,0.0,1.0,55.0,616.79921,10000.0,85.000001,85.000001,85.000001,85.000001,395.0,0.0,0.0,0.0,1.0,166.665,49.698,49.698,47.699,47.699,34.0,-23.69,26.536,-27.413333333333334,29.955000000000002,0.0,1781.633,-1.125,100.0,28.494,27.93,42.266,44.325,0.0,0.0,100.0,0.0,0.0,0.0,0.0,3447.142857142857,3114.1,3938.875,4226.8,304.592,300.8403333333333,315.3535,314.377,22.0363,13.9543,21.9994,21.5593,314.999998,314.999998,324.999988,324.999988,99.55971428571429,99.50753333333333,99.5674,99.54947142857142,0.17033333333333323,0.03533333333333322,-0.08966666666666656,0.14349999999999996,-0.03999999999999915,-0.0799999999999983,1.5444999999999998,1.5430000000000001,38.727000000000004,31.9645,38.497,35.7455,56.394999999999996,39.681,59.4865,53.438,54.277,37.8865,58.039,51.7505,53.385999999999996,37.808,57.903999999999996,51.17033333333333,-0.16999999999999993,0.008999999999999897,0.11116000000000001,0.11033000000000001,0.0,215.56666666666666,215.49,212.37666666666667,212.37666666666667,0.0,0.0
26,0.0,0.0,0.0,1.0,1.0,0.0,0.0,1.0,0.0,100.0,1.0,1.1856,26.0,0.0,0.0,0.0,59.999996,0.0,26.0,26.0,26.0,26.0,0.033666666666666734,0.274,0.061700000000000005,290.344,-2.7671,-2.634888888888889,-1.6402,-1.4532,-188.26,215.3025,190.432375,0.0,0.0,0.0,0.0,0.05243333333333333,-5.498166666666667,-5.498166666666667,-0.6151,0.4716666666666667,0.10777777777777775,-0.6270000000000002,68.98,0.031100000000000003,-0.24750000000000003,-0.2560000000000002,100.0,1.0,1.0,212.56666666666666,0.0,0.0,0.0,0.0,0.0,0.0,0.0,9009.9,0.0,55.0,5.0,248.30333333333334,0.0,0.0,0.0,0.0,0.0,0.0,0.0,0.0,1.3049999999999997,1.3049999999999997,0.0,0.0,0.0,55.0,616.79921,10000.0,85.000001,85.000001,85.000001,85.000001,395.0,0.0,0.0,0.0,1.0,166.665,49.454,49.454,46.6,46.6,34.0,-21.9625,26.125999999999998,-30.65,32.8125,0.0,1781.585,-1.1649999999999991,100.0,29.185,28.427,42.506,44.726,0.0,0.0,100.0,0.0,0.0,0.0,0.0,3372.285714285714,2982.8,4368.25,4578.9,304.7225,301.2153333333333,314.266,313.5325,22.0455,13.962299999999999,22.0091,21.5682,314.999998,314.999998,324.999988,324.999988,99.55972857142856,99.50753333333333,99.56754285714285,99.54962857142857,0.18300000000000005,0.03833333333333333,-0.08099999999999996,0.13749999999999996,-0.04999999999999716,-0.09499999999999886,1.4495,1.436,38.784,32.013999999999996,38.557,35.8015,56.391999999999996,39.746,59.521,53.4985,54.274,37.945,58.071,51.8095,53.381,37.8665,57.933,51.228,-0.18049999999999988,0.014499999999999957,0.10654000000000001,0.102995,0.0,215.98333333333335,215.91,212.56666666666666,212.56666666666666,0.0,0.0
27,0.0,0.0,0.0,1.0,1.0,0.0,0.0,1.0,0.0,100.0,1.0,1.1856,26.0,0.0,0.0,0.0,59.999996,0.0,26.0,26.0,26.0,26.0,0.04877777777777781,0.2541,-0.015250000000000001,290.71,-2.7858,-2.5715555555555554,-1.6978,-1.5309,-184.95,215.3,190.409125,0.0,0.0,0.0,0.0,0.054333333333333345,-5.498166666666667,-5.498166666666667,-0.6307,-0.8043333333333333,0.1116666666666668,-0.7450000000000001,69.10300000000001,0.0322,-0.281875,-0.24799999999999933,100.0,1.0,1.0,213.04000000000002,0.0,0.0,0.0,0.0,0.0,0.0,0.0,9030.0,0.0,55.0,5.0,248.74666666666667,1.0,0.0,0.0,0.0,0.0,0.0,0.0,0.0,1.352999999999998,1.352999999999998,0.0,0.0,1.0,55.0,616.79921,10000.0,85.000001,85.000001,85.000001,85.000001,395.0,0.0,0.0,0.0,1.0,166.665,49.698,49.698,46.585,46.585,34.0,-21.1575,26.049999999999997,-28.773333333333333,30.5575,0.0,1781.537,-1.1499999999999986,100.0,28.993,28.47,43.097,45.197,0.0,0.0,100.0,0.0,0.0,0.0,0.0,3226.142857142857,3032.8,4072.75,4180.4,305.1755,301.11633333333333,315.019,314.4105,22.0545,13.9702,22.0189,21.5772,314.999998,314.999998,324.999988,324.999988,99.55975714285714,99.50755,99.56768571428572,99.54977142857143,0.18033333333333323,0.03933333333333322,-0.08366666666666656,0.14116666666666666,-0.06571428571428584,-0.07333333333333059,1.5105,1.4940000000000002,38.841,32.0635,38.617999999999995,35.8575,56.385999999999996,39.81,59.5565,53.559,54.268,38.0015,58.104,51.8675,53.373999999999995,37.923,57.9625,51.285333333333334,-0.17649999999999988,0.010499999999999954,0.10035000000000001,0.10621000000000001,0.0,216.31666666666666,216.245,213.04000000000002,213.04000000000002,0.0,0.0
28,0.0,0.0,0.0,1.0,1.0,0.0,0.0,1.0,0.0,100.0,1.0,1.1856,26.0,0.0,0.0,0.0,59.999996,0.0,26.0,26.0,26.0,26.0,0.03511111111111109,0.26870000000000016,-0.044675,290.955,-2.7641999999999998,-2.567333333333333,-1.7143000000000002,-1.4814,-181.42000000000002,215.29500000000002,190.384,0.0,0.0,0.0,0.0,0.056400000000000006,-5.498166666666667,-5.498166666666667,-0.6429,0.4603333333333333,0.10422222222222222,0.347,69.232,0.0286,-0.26945,-0.2920000000000007,100.0,1.0,1.0,213.56,0.0,0.0,0.0,0.0,0.0,0.0,0.0,9052.0,0.0,55.0,5.0,249.21,0.0,0.0,0.0,0.0,0.0,0.0,0.0,0.0,1.404,1.404,0.0,0.0,0.0,55.0,616.79921,10000.0,85.000001,85.000001,85.000001,85.000001,395.0,0.0,0.0,0.0,1.0,333.33500000000004,49.606,49.606,47.485,47.485,34.0,-20.4325,27.494,-27.366666666666667,30.712500000000002,0.0,1781.484,-1.2949999999999982,100.0,29.147,28.234,42.621,44.649,0.0,0.0,100.0,0.0,0.0,0.0,0.0,3217.0,3121.6,3914.375,4251.6,304.9985,300.98566666666665,315.42125,314.39925,22.0642,13.9786,22.0289,21.5865,314.999998,314.999998,324.999988,324.999988,99.55977142857142,99.50756666666666,99.56781428571429,99.54991428571428,0.19433333333333325,0.06033333333333335,-0.08266666666666656,0.15500000000000003,-0.03857142857143003,-0.10000000000000142,1.5545,1.5590000000000002,38.900999999999996,32.1165,38.681,35.9155,56.381,39.879,59.588499999999996,53.6195,54.263,38.0625,58.1335,51.926,53.367999999999995,37.9845,57.9885,51.342333333333336,-0.1815,0.02400000000000002,0.10753000000000001,0.112795,0.0,216.73333333333335,216.68,213.56,213.56,0.0,0.0
29,0.0,0.0,0.0,1.0,1.0,0.0,0.0,1.0,0.0,100.0,1.0,1.1856,26.0,0.0,0.0,0.0,59.999996,0.0,26.0,26.0,26.0,26.0,0.04644444444444429,0.2529000000000001,-0.000575,290.863,-2.741,-2.6355555555555554,-1.649,-1.4705,-177.89,215.29500000000002,190.357875,0.0,0.0,0.0,0.0,0.05843333333333334,-5.498166666666667,-5.498166666666667,-0.6384000000000001,-0.5433333333333333,0.08922222222222209,-0.9700000000000002,69.366,0.0286,-0.25675000000000003,-0.3460000000000001,100.0,1.0,1.0,213.78,0.0,0.0,0.0,0.0,0.0,0.0,0.0,9061.3,0.0,55.0,5.0,249.69,1.0,0.0,0.0,0.0,0.0,0.0,0.0,0.0,1.4549999999999983,1.4549999999999983,0.0,0.0,1.0,55.0,616.79921,10000.0,85.000001,85.000001,85.000001,85.000001,395.0,0.0,0.0,0.0,1.0,166.665,50.262,50.262,46.631,46.631,34.0,-20.447499999999998,25.799999999999997,-29.433333333333334,31.8,0.0,1781.435,-1.3200000000000003,100.0,28.625,28.149,42.834,44.914,0.0,0.0,100.0,0.0,0.0,0.0,0.0,3221.714285714286,2926.0,4195.25,4397.7,305.22,301.51366666666667,314.70075,313.95225,22.0737,13.9869,22.0392,21.596,314.999998,314.999998,324.999988,324.999988,99.5598,99.50756666666666,99.56797142857143,99.55007142857143,0.18466666666666676,0.045333333333333226,-0.08583333333333332,0.14383333333333326,-0.030000000000001137,-0.07833333333332604,1.479,1.4609999999999999,38.961,32.168,38.745000000000005,35.975,56.375,39.945,59.6255,53.683,54.257,38.1215,58.168,51.9875,53.36,38.0435,58.019999999999996,51.40266666666667,-0.18799999999999994,0.02400000000000002,0.10881500000000001,0.112045,0.0,217.13333333333333,217.07999999999998,213.78,213.78,0.0,0.0
30,0.0,0.0,0.0,1.0,1.0,0.0,0.0,1.0,0.0,100.0,1.0,1.1856,26.0,0.0,0.0,0.0,59.999996,0.0,26.0,26.0,26.0,26.0,0.05044444444444429,0.2511000000000001,-0.021625000000000002,290.344,-2.718,-2.642444444444444,-1.6508,-1.5213,-174.56,215.29250000000002,190.332875,0.0,0.0,0.0,0.0,0.06040000000000001,-5.498166666666667,-5.498166666666667,-0.6501,0.43133333333333335,0.09433333333333316,-0.0990000000000002,69.485,0.0309,-0.2676,-0.3439999999999994,100.0,1.0,1.0,214.3,0.0,0.0,0.0,0.0,0.0,0.0,0.0,9083.4,0.0,55.0,5.0,250.12333333333333,0.0,0.0,0.0,0.0,0.0,0.0,1.0,0.0,1.5030000000000001,1.5030000000000001,0.0,0.0,0.0,55.0,616.79921,10000.0,85.000001,85.000001,85.000001,85.000001,395.0,0.0,0.0,0.0,1.0,166.665,48.462,48.462,47.562,47.562,34.0,-22.5675,29.216,-26.493333333333332,30.215,0.0,1781.386,-1.3599999999999994,100.0,29.474,28.547,42.686,44.891999999999996,0.0,0.0,100.0,0.0,0.0,0.0,0.0,3550.714285714286,3229.1,3899.0,4194.0,304.038,300.44933333333336,315.42425,314.433,22.083,13.995000000000001,22.0488,21.6048,314.999998,314.999998,324.999988,324.999988,99.55982857142857,99.50758333333333,99.5681,99.55021428571429,0.19033333333333324,0.056666666666666865,-0.07999999999999996,0.13766666666666683,-0.06142857142857139,-0.07666666666666799,1.5234999999999999,1.5180000000000002,39.019,32.2185,38.805,36.03,56.373000000000005,40.010999999999996,59.6565,53.741,54.254999999999995,38.1805,58.1965,52.043,53.355999999999995,38.1025,58.045500000000004,51.45733333333334,-0.1944999999999999,0.026999999999999913,0.10022,0.10737000000000001,0.0,217.52666666666664,217.46,214.3,214.3,0.0,0.0
31,0.0,0.0,0.0,1.0,1.0,0.0,0.0,1.0,0.0,100.0,1.0,1.1856,26.0,0.0,0.0,0.0,59.999996,0.0,26.0,26.0,26.0,26.0,0.07099999999999995,0.2603,0.08285000000000001,289.597,-2.8534,-2.5375555555555556,-1.7298,-1.4556,-170.8,215.29250000000002,190.305375,0.0,0.0,0.0,0.0,0.06256666666666655,-5.498166666666667,-5.498166666666667,-0.6258,-0.2576666666666667,0.11033333333333317,-0.738,69.625,0.0392,-0.264875,-0.4119999999999999,100.0,1.0,1.0,214.47333333333333,0.0,0.0,0.0,0.0,0.0,0.0,0.0,9090.7,0.0,55.0,5.0,250.62666666666667,1.0,0.0,0.0,0.0,0.0,0.0,1.0,0.0,1.5569999999999986,1.5569999999999986,0.0,0.0,1.0,55.0,616.79921,10000.0,85.000001,85.000001,85.000001,85.000001,395.0,0.0,0.0,0.0,1.0,166.665,48.859,48.859,45.456,45.456,34.0,-22.165,27.092,-31.623333333333335,34.4925,0.0,1781.333,-1.3099999999999987,100.0,29.463,28.995,43.351,45.583,0.0,0.0,100.0,0.0,0.0,0.0,0.0,3382.857142857143,3166.3,4354.25,4631.2,304.8055,300.68533333333335,314.26,313.2835,22.0932,14.0041,22.0598,21.615099999999998,314.999998,314.999998,324.999988,324.999988,99.55985714285714,99.50758333333333,99.56825714285715,99.55037142857142,0.19700000000000006,0.04266666666666685,-0.07299999999999995,0.15116666666666667,-0.05571428571428072,-0.05833333333333002,1.424,1.404,39.083,32.275999999999996,38.873999999999995,36.094,56.370000000000005,40.086,59.697,53.811,54.251000000000005,38.247,58.2345,52.111000000000004,53.351,38.169,58.08,51.523666666666664,-0.1955,0.013500000000000068,0.10336000000000001,0.11287000000000001,0.0,217.95333333333335,217.88,214.47333333333333,214.47333333333333,0.0,0.0
32,0.0,0.0,0.0,1.0,1.0,0.0,0.0,1.0,0.0,100.0,1.0,1.1856,26.0,0.0,0.0,0.0,59.999996,0.0,26.0,26.0,26.0,26.0,0.0564444444444443,0.25439999999999996,-0.0368,290.298,-2.7779,-2.594333333333333,-1.7399,-1.4634,-167.45,215.29500000000002,190.281625,0.0,0.0,0.0,0.0,0.0645,-5.498166666666667,-5.498166666666667,-0.647,-0.374,0.08877777777777784,-1.1239999999999997,69.744,0.0408,-0.28752500000000003,-0.4299999999999997,100.0,1.0,1.0,215.00333333333333,0.0,0.0,0.0,0.0,0.0,0.0,0.0,9113.2,0.0,55.0,5.0,251.05333333333334,0.0,0.0,0.0,0.0,0.0,0.0,1.0,0.0,1.6050000000000004,1.6050000000000004,0.0,0.0,0.0,55.0,616.79921,10000.0,85.000001,85.000001,85.000001,85.000001,395.0,0.0,0.0,0.0,1.0,333.33500000000004,49.225,49.225,46.524,46.524,34.0,-20.8475,26.77,-28.883333333333333,31.9025,0.0,1781.283,-1.3499999999999979,100.0,29.387999999999998,28.928,43.287,45.352000000000004,0.0,0.0,100.0,0.0,0.0,0.0,0.0,3322.857142857143,3015.5,4093.75,4370.1,304.8915,301.19933333333336,315.026,314.1095,22.1022,14.0122,22.0694,21.624,314.999998,314.999998,324.999988,324.999988,99.55988571428571,99.50758333333333,99.56838571428571,99.55052857142857,0.20066666666666677,0.05699999999999994,-0.07250000000000001,0.15683333333333338,-0.04999999999999716,-0.07166666666666544,1.5139999999999998,1.499,39.138999999999996,32.326499999999996,38.934,36.15,56.364999999999995,40.150999999999996,59.729,53.87,54.247,38.305,58.263999999999996,52.168,53.345,38.2275,58.106,51.57966666666667,-0.1904999999999999,0.026999999999999913,0.105965,0.10665000000000001,0.0,218.29666666666668,218.24,215.00333333333333,215.00333333333333,0.0,0.0
33,0.0,0.0,0.0,1.0,1.0,0.0,0.0,1.0,0.0,100.0,1.0,1.1856,26.0,0.0,0.0,0.0,59.999996,0.0,26.0,26.0,26.0,26.0,0.051444444444444404,0.2542,-0.0835,290.771,-2.8005,-2.615222222222222,-1.6672,-1.5067,-163.89,215.2975,190.255375,0.0,0.0,0.0,0.0,0.06656666666666655,-5.498166666666667,-5.498166666666667,-0.6567000000000001,-0.10266666666666667,0.08266666666666667,0.9140000000000001,69.87100000000001,0.040600000000000004,-0.26885000000000003,-0.4679999999999991,100.0,1.0,1.0,215.44666666666666,0.0,0.0,0.0,0.0,0.0,0.0,0.0,9132.0,0.0,55.0,5.0,251.51,1.0,0.0,0.0,0.0,0.0,0.0,1.0,0.0,1.6559999999999988,1.6559999999999988,0.0,0.0,1.0,55.0,616.79921,10000.0,85.000001,85.000001,85.000001,85.000001,395.0,0.0,0.0,0.0,1.0,166.665,49.728,49.728,47.134,47.134,34.0,-19.9725,26.924,-26.636666666666663,32.165,0.0,1781.234,-1.3599999999999994,100.0,29.317,28.488,43.004,44.958,0.0,0.0,100.0,0.0,0.0,0.0,0.0,3194.857142857143,2999.7,3959.25,4296.7,305.173,301.498,315.248,314.31675,22.1117,14.0206,22.0795,21.6334,314.999998,314.999998,324.999988,324.999988,99.5599,99.5076,99.56852857142857,99.55068571428572,0.20633333333333326,0.06600000000000006,-0.0681666666666666,0.1645000000000001,-0.02285714285714846,-0.09166666666666856,1.5339999999999998,1.5180000000000002,39.198,32.3785,38.997,36.209,56.361000000000004,40.218,59.762,53.9305,54.242000000000004,38.364,58.294,52.2265,53.339,38.286500000000004,58.132999999999996,51.63666666666667,-0.19599999999999995,0.028000000000000025,0.105495,0.11131,0.0,218.68666666666667,218.65,215.44666666666666,215.44666666666666,0.0,0.0
34,0.0,0.0,0.0,1.0,1.0,0.0,0.0,1.0,0.0,100.0,1.0,1.1856,26.0,0.0,0.0,0.0,59.999996,0.0,26.0,26.0,26.0,26.0,0.05544444444444441,0.24950000000000006,-0.052525,290.848,-2.7413,-2.594666666666667,-1.7016,-1.4904,-160.54,215.3025,190.229125,0.0,0.0,0.0,0.0,0.06853333333333333,-5.498166666666667,-5.498166666666667,-0.6767000000000001,-0.7113333333333334,0.10455555555555551,0.903,69.993,0.0426,-0.265975,-0.4579999999999993,100.0,1.0,1.0,215.75,0.0,0.0,0.0,0.0,0.0,0.0,0.0,9144.8,0.0,55.0,5.0,251.94666666666666,0.0,0.0,0.0,0.0,0.0,0.0,1.0,0.0,1.7040000000000006,1.7040000000000006,0.0,0.0,0.0,55.0,616.79921,10000.0,85.000001,85.000001,85.000001,85.000001,395.0,0.0,0.0,0.0,1.0,166.665,50.11,50.11,47.134,47.134,34.0,-18.8725,26.451999999999998,-27.39666666666666,32.6,0.0,1781.186,-1.3649999999999984,100.0,29.056,28.274,42.93,45.074,0.0,0.0,100.0,0.0,0.0,0.0,0.0,3083.5714285714284,2963.9,4000.25,4372.4,305.3835,301.56933333333336,315.16575,314.09825,22.1206,14.0283,22.0891,21.6423,314.999998,314.999998,324.999988,324.999988,99.55994285714286,99.50761666666666,99.56867142857143,99.55082857142857,0.20300000000000007,0.06533333333333324,-0.06499999999999995,0.16233333333333322,-0.03142857142857025,-0.07833333333332604,1.5019999999999998,1.508,39.254000000000005,32.427,39.057,36.2645,56.355000000000004,40.278,59.7935,53.99,54.236000000000004,38.418,58.323,52.283500000000004,53.332,38.3405,58.159,51.69266666666667,-0.18799999999999994,0.030000000000000027,0.09881000000000001,0.110045,0.0,219.04000000000002,219.005,215.75,215.75,0.0,0.0
35,0.0,0.0,0.0,1.0,1.0,0.0,0.0,1.0,0.0,100.0,1.0,1.1856,26.0,0.0,0.0,0.0,59.999996,0.0,26.0,26.0,26.0,26.0,0.05566666666666675,0.24140000000000006,-0.068075,290.817,-2.8819,-2.504666666666667,-1.6235,-1.4904,-156.95999999999998,215.3075,190.199375,0.0,0.0,0.0,0.0,0.0706,-5.498166666666667,-5.498166666666667,-0.7195,-0.3286666666666667,0.09166666666666679,-1.218,70.118,0.0458,-0.27895000000000003,-0.4479999999999995,100.0,1.0,1.0,216.25,0.0,0.0,0.0,0.0,0.0,0.0,0.0,9166.1,0.0,55.0,5.0,252.4,1.0,0.0,0.0,0.0,0.0,0.0,1.0,0.0,1.754999999999999,1.754999999999999,0.0,0.0,1.0,55.0,616.79921,10000.0,85.000001,85.000001,85.000001,85.000001,395.0,0.0,0.0,0.0,1.0,333.33500000000004,49.332,49.332,47.119,47.119,34.0,-22.785,27.662,-25.57,29.41,0.0,1781.134,-1.1849999999999987,100.0,28.729,28.582,42.662,44.809,0.0,0.0,100.0,0.0,0.0,0.0,0.0,3373.285714285714,3186.5,3921.625,4018.0,304.7805,300.5226666666667,315.44775,314.88475,22.1299,14.0369,22.0992,21.651699999999998,314.999998,314.999998,324.999988,324.999988,99.55995714285714,99.50761666666666,99.56881428571428,99.55098571428572,0.19066666666666676,0.056333333333333346,-0.06966666666666665,0.16266666666666674,-0.04999999999999716,-0.086666666666666,1.5675,1.5430000000000001,39.312,32.4805,39.120000000000005,36.323,56.348,40.347,59.825,54.049,54.229,38.479,58.3525,52.341,53.323,38.402,58.185,51.749,-0.17799999999999994,0.016000000000000014,0.10942500000000001,0.10767000000000002,0.0,219.44,219.39499999999998,216.25,216.25,0.0,0.0
