,ABS Active,ABS Enabled,AID Allow Tire Blankets,AID Auto Blip,AID Auto Clutch,AID Auto Shift,AID Fuel Rate,AID Ideal Line,AID Mech Damage,AID Stability,AID Tire Wear Rate,Air Density,Air Temp,Ballast,Best Lap Delta,Best Lap Time,Brake Bias,Brake Pos,Brake Temp FL,Brake Temp FR,Brake Temp RL,Brake Temp RR,CG Accel Lateral,CG Accel Longitudinal,CG Accel Vertical,CG Height,Camber FL,Camber FR,Camber RL,Camber RR,Car Coord X,Car Coord Y,Car Coord Z,Car Damage Front,Car Damage Left,Car Damage Rear,Car Damage Right,Car Pos Norm,Caster FL,Caster FR,Chassis Pitch Angle,Chassis Pitch Rate,Chassis Roll Angle,Chassis Roll Rate,Chassis Velocity X,Chassis Velocity Y,Chassis Velocity Z,Chassis Yaw Rate,Clutch Pos,DRS Active,DRS Available,Drive Train Speed,ERS Heat Charging,ERS Is Charging,ERS Max Energy,ERS Power Level,ERS Recovery Level,Engine Brake Setting,Engine Limiter,Engine RPM,Flags,Fuel Level,Gear,Ground Speed,HR Sample Clock,In Pit,KERS Charge,KERS Deployed Energy,KERS Input,KERS Max Energy,LR Sample Clock,Lap Invalidated,Lap Time,Lap Time2,Last Lap Time,Last Sector Time,MR Sample Clock,Max Fuel,Max Power,Max RPM,Max Sus Travel FL,Max Sus Travel FR,Max Sus Travel RL,Max Sus Travel RR,Max Torque,Max Turbo Boost,Num Tires Off Track,Penalties Enabled,Position,Raw Data Sample Rate,Ride Height FL,Ride Height FR,Ride Height RL,Ride Height RR,Road Temp,Self Align Torque FL,Self Align Torque FR,Self Align Torque RL,Self Align Torque RR,Session Lap Count,Session Time Left,Steering Angle,Surface Grip,Suspension Travel FL,Suspension Travel FR,Suspension Travel RL,Suspension Travel RR,TC Active,TC Enabled,Throttle Pos,Tire Dirt Level FL,Tire Dirt Level FR,Tire Dirt Level RL,Tire Dirt Level RR,Tire Load FL,Tire Load FR,Tire Load RL,Tire Load RR,Tire Loaded Radius FL,Tire Loaded Radius FR,Tire Loaded Radius RL,Tire Loaded Radius RR,Tire Pressure FL,Tire Pressure FR,Tire Pressure RL,Tire Pressure RR,Tire Radius FL,Tire Radius FR,Tire Radius RL,Tire Radius RR,Tire Rubber Grip FL,Tire Rubber Grip FR,Tire Rubber Grip RL,Tire Rubber Grip RR,Tire Slip Angle FL,Tire Slip Angle FR,Tire Slip Angle RL,Tire Slip Angle RR,Tire Slip Ratio FL,Tire Slip Ratio FR,Tire Slip Ratio RL,Tire Slip Ratio RR,Tire Temp Core FL,Tire Temp Core FR,Tire Temp Core RL,Tire Temp Core RR,Tire Temp Inner FL,Tire Temp Inner FR,Tire Temp Inner RL,Tire Temp Inner RR,Tire Temp Middle FL,Tire Temp Middle FR,Tire Temp Middle RL,Tire Temp Middle RR,Tire Temp Outer FL,Tire Temp Outer FR,Tire Temp Outer RL,Tire Temp Outer RR,Toe In FL,Toe In FR,Toe In RL,Toe In RR,Turbo Boost,Wheel Angular Speed FL,Wheel Angular Speed FR,Wheel Angular Speed RL,Wheel Angular Speed RR,Wind Direction,Wind Speed
0,0.0,0.0,0.0,1.0,1.0,0.0,0.0,1.0,0.0,100.0,1.0,1.1856,26.0,0.0,0.0,0.0,59.99999,0.0,26.0,26.0,26.0,26.0,-0.18577777777777782,0.3077000000000001,0.034775,293.64,-2.6942,-2.686888888888889,-1.49705,-1.5765,-275.65,216.2025,190.987,0.0,0.0,0.0,0.0,0.0015999999999999348,-5.498166666666667,-5.498166666666667,-0.5612,1.504,-0.027499999999999858,-0.04200000000000026,65.464,-0.1068,-0.22710000000000002,1.9100000000000001,100.0,1.0,1.0,202.12,0.0,0.0,0.0,0.0,0.0,0.0,0.0,8567.1,0.0,55.0,5.0,235.64,0.0,0.0,0.0,0.0,0.0,0.0,0.0,0.0,0.0030000000000001137,0.0030000000000001137,0.0,0.0,0.0,55.0,616.79921,10000.0,85.0,85.0,85.0,85.0,395.0,0.0,0.0,0.0,1.0,20.0,51.956,51.956,49.53,49.53,34.0,-30.5425,20.259999999999998,-34.21,21.384999999999998,0.0,1782.777,1.0399999999999991,100.0,27.832,26.437,40.745000000000005,40.203,0.0,0.0,100.0,0.0,0.0,0.0,0.0,3215.142857142857,3257.2,4145.0,4020.5,304.9635,303.01233333333334,314.745,314.8535,21.7796,17.5927,21.7685,21.322499999999998,314.99999,314.99999,324.99998,324.99998,99.55885714285715,99.50701666666667,99.56498571428571,99.54547142857143,-0.05066666666666664,-0.16666666666666663,-0.23483333333333334,-0.010833333333333334,-0.04333333333332945,-0.07000000000000028,1.5185,1.6119999999999999,37.123000000000005,29.704,37.053,34.2655,56.34,35.6,58.960499999999996,51.732,54.25,34.5315,57.5835,50.0925,53.414,34.2475,57.54,49.524,0.0040000000000000036,-0.1499999999999999,0.10474000000000001,0.11169000000000001,0.0,205.20499999999998,205.03,202.12,202.12,0.0,0.0
1,0.0,0.0,0.0,1.0,1.0,0.0,0.0,1.0,0.0,100.0,1.0,1.1856,26.0,0.0,0.0,0.0,59.999996,0.0,26.0,26.0,26.0,26.0,-0.20233333333333337,0.3026,0.18315,292.847,-2.63,-2.790222222222222,-1.51135,-1.5642,-272.3,216.215,190.967,0.0,0.0,0.0,0.0,0.003566666666666607,-5.498166666666667,-5.498166666666667,-0.5066,-0.6583333333333333,-0.07337499999999997,-1.174,65.618,-0.1188,-0.207575,2.1180000000000003,100.0,1.0,1.0,202.2733333333333,0.0,0.0,0.0,0.0,0.0,0.0,0.0,8573.7,0.0,55.0,5.0,236.19333333333333,1.0,0.0,0.0,0.0,0.0,0.0,0.0,0.0,0.053999999999998494,0.053999999999998494,0.0,0.0,1.0,55.0,616.79921,10000.0,85.000001,85.000001,85.000001,85.000001,395.0,0.0,0.0,0.0,1.0,166.665,53.101,53.101,48.355000000000004,48.355000000000004,34.0,-30.8975,15.065000000000001,-38.230000000000004,24.1025,0.0,1782.729,1.1400000000000006,100.0,27.927,26.52,42.869,41.445,0.0,0.0,100.0,0.0,0.0,0.0,0.0,3238.0,2541.0,4345.5,4694.4,305.0325,305.5686666666667,314.207,313.15225,21.7897,17.5984,21.7793,21.3316,314.999998,314.999998,324.999988,324.999988,99.55885714285715,99.50705,99.56514285714286,99.54561428571428,-0.07199999999999995,-0.19166666666666665,-0.254,-0.042,-0.046666666666666856,-0.06833333333332803,1.382,1.502,37.186,29.740499999999997,37.120999999999995,34.3225,56.328,35.6515,59.0075,51.798,54.239000000000004,34.578,57.6275,50.155,53.402,34.292500000000004,57.581,49.58566666666667,0.015499999999999847,-0.15900000000000025,0.09785500000000001,0.10294500000000001,0.0,205.63,205.47,202.2733333333333,202.2733333333333,0.0,0.0
2,0.0,0.0,0.0,1.0,1.0,0.0,0.0,1.0,0.0,100.0,1.0,1.1856,26.0,0.0,0.0,0.0,59.999996,0.0,26.0,26.0,26.0,26.0,-0.23922222222222211,0.2762,-0.11447500000000001,293.549,-2.564,-2.8354444444444447,-1.458,-1.6357,-268.95,216.22,190.94825,0.0,0.0,0.0,0.0,0.005499999999999949,-5.498166666666667,-5.498166666666667,-0.5622,0.04400000000000004,-0.07737499999999997,2.77,65.76,-0.1336,-0.265175,2.3920000000000012,100.0,1.0,1.0,203.21666666666667,0.0,0.0,0.0,0.0,0.0,0.0,0.0,8613.6,0.0,55.0,5.0,236.70333333333332,0.0,0.0,0.0,0.0,0.0,0.0,0.0,0.0,0.10500000000000043,0.10500000000000043,0.0,0.0,0.0,55.0,616.79921,10000.0,85.000001,85.000001,85.000001,85.000001,395.0,0.0,0.0,0.0,1.0,333.33500000000004,51.926,51.926,50.354,50.354,34.0,-33.3,16.451666666666668,-31.669999999999998,16.9925,0.0,1782.677,1.0100000000000016,100.0,28.855,26.436,42.761,40.998000000000005,0.0,0.0,100.0,0.0,0.0,0.0,0.0,3457.285714285714,2756.8,3762.25,3609.7,304.1375,304.8736666666667,315.6085,315.98925,21.8,17.604,21.7898,21.3403,314.999998,314.999998,324.999988,324.999988,99.55887142857142,99.50706666666666,99.56527142857144,99.54574285714286,-0.07699999999999996,-0.20299999999999996,-0.28350000000000003,-0.05566666666666666,-0.036666666666668846,-0.04999999999999716,1.632,1.7365,37.25,29.7745,37.186,34.376999999999995,56.32,35.6995,59.0465,51.854,54.232,34.621,57.664500000000004,50.209,53.394,34.3345,57.6155,49.638333333333335,-0.0004999999999999449,-0.15549999999999997,0.09953500000000001,0.10689000000000001,0.0,206.075,205.85500000000002,203.21666666666667,203.21666666666667,0.0,0.0
3,0.0,0.0,0.0,1.0,1.0,0.0,0.0,1.0,0.0,100.0,1.0,1.1856,26.0,0.0,0.0,0.0,59.999996,0.0,26.0,26.0,26.0,26.0,-0.23088888888888892,0.2942,0.084175,293.076,-2.7084,-2.710777777777778,-1.49885,-1.6005,-265.79,216.2225,190.9295,0.0,0.0,0.0,0.0,0.007333333333333303,-5.498166666666667,-5.498166666666667,-0.524,0.4143333333333332,-0.020750000000000046,0.393,65.902,-0.1481,-0.212625,1.8900000000000006,100.0,1.0,1.0,203.32333333333332,0.0,0.0,0.0,0.0,0.0,0.0,0.0,8618.1,0.0,55.0,5.0,237.21666666666667,1.0,0.0,0.0,0.0,0.0,0.0,0.0,0.0,0.1529999999999987,0.1529999999999987,0.0,0.0,1.0,55.0,616.79921,10000.0,85.000001,85.000001,85.000001,85.000001,395.0,0.0,0.0,0.0,1.0,333.33500000000004,52.658,52.658,48.157,48.157,34.0,-28.8975,16.28,-37.95666666666666,21.015,0.0,1782.629,0.6600000000000001,100.0,28.447,26.527,42.583,41.113,0.0,0.0,100.0,0.0,0.0,0.0,0.0,3019.285714285714,2823.0,4285.375,4284.7,305.548,304.55966666666666,314.33925,314.26225,21.8094,17.6095,21.7995,21.3487,314.999998,314.999998,324.999988,324.999988,99.55887142857142,99.50708333333333,99.56541428571428,99.54588571428572,-0.06033333333333335,-0.19399999999999995,-0.273,-0.058166666666666665,-0.03333333333333144,-0.07499999999999574,1.4745,1.537,37.309,29.8095,37.247,34.4295,56.309,35.7495,59.0845,51.9135,54.221000000000004,34.6665,57.6995,50.266,53.382,34.3785,57.647999999999996,49.69433333333333,-0.028999999999999915,-0.129,0.0952,0.11302000000000001,0.0,206.55,206.365,203.32333333333332,203.32333333333332,0.0,0.0
4,0.0,0.0,0.0,1.0,1.0,0.0,0.0,1.0,0.0,100.0,1.0,1.1856,26.0,0.0,0.0,0.0,59.999996,0.0,26.0,26.0,26.0,26.0,-0.22388888888888892,0.27370000000000005,0.009375,293.289,-2.6429,-2.7583333333333333,-1.51655,-1.6086,-262.43,216.2175,190.909875,0.0,0.0,0.0,0.0,0.009299999999999975,-5.498166666666667,-5.498166666666667,-0.5551,-0.7676666666666667,-0.09087500000000004,-1.7890000000000001,66.049,-0.1403,-0.25275000000000003,1.67,100.0,1.0,1.0,203.89,0.0,0.0,0.0,0.0,0.0,0.0,0.0,8642.1,0.0,55.0,5.0,237.74666666666667,0.0,0.0,0.0,0.0,0.0,0.0,0.0,0.0,0.20400000000000063,0.20400000000000063,0.0,0.0,0.0,55.0,616.79921,10000.0,85.000001,85.000001,85.000001,85.000001,395.0,0.0,0.0,0.0,1.0,333.33500000000004,52.399,52.399,48.676,48.676,34.0,-32.465,16.738333333333333,-36.68,18.165,0.0,1782.577,0.629999999999999,100.0,28.106,26.516,42.928,41.383,0.0,0.0,100.0,0.0,0.0,0.0,0.0,3414.285714285714,2758.4,4153.375,3686.8,304.6095,304.61266666666666,314.68075,315.62575,21.8193,17.6153,21.8101,21.3577,314.999998,314.999998,324.999988,324.999988,99.55888571428571,99.5071,99.56555714285714,99.54602857142856,-0.06299999999999994,-0.18466666666666665,-0.2795,-0.0445,-0.07000000000000028,-0.045000000000001705,1.5485,1.6075,37.370999999999995,29.8455,37.313,34.4855,56.296,35.8005,59.128,51.9735,54.208,34.7125,57.7405,50.323499999999996,53.367999999999995,34.4235,57.6865,49.75033333333333,-0.02949999999999986,-0.12349999999999994,0.11049,0.10271500000000001,0.0,206.945,206.755,203.89,203.89,0.0,0.0
5,0.0,0.0,0.0,1.0,1.0,0.0,0.0,1.0,0.0,100.0,1.0,1.1856,26.0,0.0,0.0,0.0,59.999996,0.0,26.0,26.0,26.0,26.0,-0.19977777777777783,0.2948000000000002,-0.0106,293.411,-2.6561,-2.781,-1.50245,-1.5911,-259.06,216.20749999999998,190.889625,0.0,0.0,0.0,0.0,0.011266666666666536,-5.498166666666667,-5.498166666666667,-0.5486,0.44033333333333324,-0.08587500000000015,1.22,66.195,-0.1359,-0.229,1.4940000000000015,100.0,1.0,1.0,204.31666666666666,0.0,0.0,0.0,0.0,0.0,0.0,0.0,8660.3,0.0,55.0,5.0,238.2733333333333,1.0,0.0,0.0,0.0,0.0,0.0,0.0,0.0,0.254999999999999,0.254999999999999,0.0,0.0,1.0,55.0,616.79921,10000.0,85.000001,85.000001,85.000001,85.000001,395.0,0.0,0.0,0.0,1.0,333.33500000000004,52.841,52.841,49.088,49.088,34.0,-29.1025,17.615000000000002,-35.093333333333334,20.634999999999998,0.0,1782.526,0.26500000000000057,100.0,28.333,26.239,42.702,40.947,0.0,0.0,100.0,0.0,0.0,0.0,0.0,3187.714285714286,2740.2,4099.75,4092.9,305.0575,304.923,314.85375,314.74725,21.8295,17.6211,21.8205,21.3664,314.999998,314.999998,324.999988,324.999988,99.5589,99.50713333333333,99.5657,99.54617142857143,-0.031333333333333324,-0.15766666666666662,-0.2596666666666667,-0.03833333333333334,-0.051666666666669414,-0.04333333333332945,1.5125,1.5885,37.434,29.8815,37.378,34.54,56.285,35.851,59.1685,52.0305,54.197,34.7575,57.7785,50.378,53.357,34.4675,57.7215,49.803666666666665,-0.05449999999999999,-0.09350000000000014,0.09589500000000001,0.105605,0.0,207.425,207.255,204.31666666666666,204.31666666666666,0.0,0.0
6,0.0,0.0,0.0,1.0,1.0,0.0,0.0,1.0,0.0,100.0,1.0,1.1856,26.0,0.0,0.0,0.0,59.999996,0.0,26.0,26.0,26.0,26.0,-0.18411111111111111,0.29190000000000005,0.013275,293.182,-2.6253,-2.756111111111111,-1.5479,-1.5865,-255.88,216.1925,190.87025,0.0,0.0,0.0,0.0,0.0131,-5.498166666666667,-5.498166666666667,-0.5432,0.1036666666666668,-0.06637499999999985,0.9690000000000001,66.333,-0.1253,-0.22665000000000002,1.1340000000000003,100.0,1.0,1.0,204.71333333333334,0.0,0.0,0.0,0.0,0.0,0.0,0.0,8677.0,0.0,55.0,5.0,238.76999999999998,0.0,0.0,0.0,0.0,0.0,0.0,0.0,0.0,0.3030000000000008,0.3030000000000008,0.0,0.0,0.0,55.0,616.79921,10000.0,85.000001,85.000001,85.000001,85.000001,395.0,0.0,0.0,0.0,1.0,333.33500000000004,52.505,52.505,48.798,48.798,34.0,-28.405,19.546666666666667,-34.5,21.6675,0.0,1782.478,0.015000000000000568,100.0,28.209,26.313,42.763,41.322,0.0,0.0,100.0,0.0,0.0,0.0,0.0,3227.4285714285716,2888.4,4076.0,4058.2,304.9275,304.36533333333335,314.892,314.8305,21.8389,17.6266,21.8303,21.3749,314.999998,314.999998,324.999988,324.999988,99.5589,99.50713333333333,99.56584285714285,99.5463,-0.01100000000000001,-0.1323333333333333,-0.2435,-0.013833333333333335,-0.03333333333333144,-0.061666666666667425,1.555,1.5835,37.492999999999995,29.916,37.44,34.593,56.272,35.897,59.207,52.088499999999996,54.186,34.7995,57.814499999999995,50.434,53.344,34.507999999999996,57.7545,49.858000000000004,-0.0734999999999999,-0.07350000000000012,0.10615000000000001,0.11357,0.0,207.815,207.69,204.71333333333334,204.71333333333334,0.0,0.0
7,0.0,0.0,0.0,1.0,1.0,0.0,0.0,1.0,0.0,100.0,1.0,1.1856,26.0,0.0,0.0,0.0,59.999996,0.0,26.0,26.0,26.0,26.0,-0.1283333333333333,0.2874000000000001,0.0148,292.923,-2.6076,-2.7344444444444447,-1.5158,-1.6212,-252.49,216.175,190.849875,0.0,0.0,0.0,0.0,0.015066666666666562,-5.498166666666667,-5.498166666666667,-0.5481,-0.06599999999999995,-0.049875000000000114,0.006999999999999895,66.47800000000001,-0.10490000000000001,-0.23875000000000002,0.7900000000000009,100.0,1.0,1.0,205.13666666666666,0.0,0.0,0.0,0.0,0.0,0.0,0.0,8695.0,0.0,55.0,5.0,239.29333333333335,1.0,0.0,0.0,0.0,0.0,0.0,0.0,0.0,0.3539999999999992,0.3539999999999992,0.0,0.0,1.0,55.0,616.79921,10000.0,85.000001,85.000001,85.000001,85.000001,395.0,0.0,0.0,0.0,1.0,333.33500000000004,52.109,52.109,48.903999999999996,48.903999999999996,34.0,-28.2775,20.64666666666667,-33.626666666666665,23.085,0.0,1782.427,-0.4349999999999987,100.0,28.143,26.564,42.663,41.717,0.0,0.0,100.0,0.0,0.0,0.0,0.0,3393.714285714286,2881.7,4074.0,4054.6000000000004,304.5225,304.2033333333333,314.89975,314.68625,21.849,17.6325,21.8408,21.3839,314.999998,314.999998,324.999988,324.999988,99.5589,99.50715,99.56598571428572,99.54644285714286,0.02200000000000002,-0.10266666666666657,-0.23,-0.0011666666666666668,-0.04833333333333201,-0.05833333333333002,1.5115,1.543,37.556,29.953,37.504999999999995,34.6495,56.259,35.945499999999996,59.2475,52.15,54.173,34.843,57.8525,50.4925,53.331,34.5505,57.789500000000004,49.91566666666667,-0.11599999999999988,-0.040999999999999925,0.10885500000000001,0.11336500000000001,0.0,208.255,208.16,205.13666666666666,205.13666666666666,0.0,0.0
8,0.0,0.0,0.0,1.0,1.0,0.0,0.0,1.0,0.0,100.0,1.0,1.1856,26.0,0.0,0.0,0.0,59.999996,0.0,26.0,26.0,26.0,26.0,-0.08366666666666656,0.30090000000000017,0.035025,293.152,-2.6947,-2.716666666666667,-1.50485,-1.5453999999999999,-249.09,216.1525,190.82925,0.0,0.0,0.0,0.0,0.017066666666666563,-5.498166666666667,-5.498166666666667,-0.5486,-0.5293333333333333,-0.024125000000000174,0.796,66.624,-0.08070000000000001,-0.22925,0.15799999999999947,100.0,1.0,1.0,205.51666666666665,0.0,0.0,0.0,0.0,0.0,0.0,0.0,8711.1,0.0,55.0,5.0,239.82,0.0,0.0,0.0,0.0,0.0,0.0,0.0,0.0,0.40500000000000114,0.40500000000000114,0.0,0.0,0.0,55.0,616.79921,10000.0,85.000001,85.000001,85.000001,85.000001,395.0,0.0,0.0,0.0,1.0,333.33500000000004,52.979,52.979,48.187,48.187,34.0,-24.0575,21.85333333333333,-31.63,25.5625,0.0,1782.376,-0.6149999999999984,100.0,27.839,26.48,42.695,41.822,0.0,0.0,100.0,0.0,0.0,0.0,0.0,2995.857142857143,2918.2,4100.5,4213.5,305.705,304.28633333333335,314.73975,314.38825,21.8588,17.6384,21.8512,21.393,314.999998,314.999998,324.999988,324.999988,99.5589,99.50716666666666,99.56612857142858,99.54658571428571,0.05066666666666686,-0.07066666666666666,-0.1845,0.0445,-0.04333333333332945,-0.054999999999999716,1.519,1.52,37.617999999999995,29.990000000000002,37.57,34.706,56.242999999999995,35.992,59.286500000000004,52.211,54.158,34.8855,57.888999999999996,50.551,53.315,34.591499999999996,57.823499999999996,49.973,-0.12749999999999995,-0.023499999999999854,0.10810000000000002,0.10619500000000001,0.0,208.66500000000002,208.62,205.51666666666665,205.51666666666665,0.0,0.0
9,0.0,0.0,0.0,1.0,1.0,0.0,0.0,1.0,0.0,100.0,1.0,1.1856,26.0,0.0,0.0,0.0,59.999996,0.0,26.0,26.0,26.0,26.0,-0.061999999999999944,0.28859999999999997,0.030325,292.862,-2.6854,-2.719555555555556,-1.5620500000000002,-1.5474,-245.89,216.13,190.809375,0.0,0.0,0.0,0.0,0.018899999999999917,-5.498166666666667,-5.498166666666667,-0.5562,0.6040000000000001,-0.023499999999999854,0.9119999999999999,66.757,-0.0526,-0.231275,-0.04399999999999871,100.0,1.0,1.0,206.07,0.0,0.0,0.0,0.0,0.0,0.0,0.0,8734.5,0.0,55.0,5.0,240.29666666666668,1.0,0.0,0.0,0.0,0.0,0.0,0.0,0.0,0.4529999999999994,0.4529999999999994,0.0,0.0,1.0,55.0,616.79921,10000.0,85.000001,85.000001,85.000001,85.000001,395.0,0.0,0.0,0.0,1.0,166.665,51.727000000000004,51.727000000000004,49.225,49.225,34.0,-26.247500000000002,23.743333333333332,-29.076666666666664,25.7725,0.0,1782.33,-0.7199999999999989,100.0,28.258,26.876,42.333,41.879,0.0,0.0,100.0,0.0,0.0,0.0,0.0,3369.285714285714,3024.8,3931.375,4096.6,304.5355,303.8346666666667,315.27775,314.7435,21.8683,17.6442,21.8609,21.4014,314.999998,314.999998,324.999988,324.999988,99.55892857142857,99.50716666666666,99.56625714285714,99.54671428571429,0.07899999999999996,-0.04966666666666664,-0.15733333333333335,0.06916666666666667,-0.045000000000001705,-0.05833333333333002,1.577,1.564,37.677,30.0265,37.631,34.7585,56.232,36.0375,59.320499999999996,52.266999999999996,54.147,34.926,57.920500000000004,50.6045,53.304,34.6315,57.8525,50.025333333333336,-0.133,-0.019000000000000128,0.11037500000000001,0.10397500000000001,0.0,209.095,209.06,206.07,206.07,0.0,0.0
10,0.0,0.0,0.0,1.0,1.0,0.0,0.0,1.0,0.0,100.0,1.0,1.1856,26.0,0.0,0.0,0.0,59.999996,0.0,26.0,26.0,26.0,26.0,-0.02055555555555555,0.28990000000000005,0.0014,292.648,-2.6682,-2.6951111111111112,-1.54705,-1.5213999999999999,-242.49,216.10500000000002,190.788625,0.0,0.0,0.0,0.0,0.02089999999999992,-5.498166666666667,-5.498166666666667,-0.5313,-0.3703333333333334,0.020624999999999893,0.42199999999999993,66.904,-0.0241,-0.22190000000000001,-0.35599999999999987,100.0,1.0,1.0,206.29666666666668,0.0,0.0,0.0,0.0,0.0,0.0,0.0,8744.2,0.0,55.0,5.0,240.82666666666665,0.0,0.0,0.0,0.0,0.0,0.0,1.0,0.0,0.5040000000000013,0.5040000000000013,0.0,0.0,0.0,55.0,616.79921,10000.0,85.000001,85.000001,85.000001,85.000001,395.0,0.0,0.0,0.0,1.0,333.33500000000004,52.734,52.734,47.638,47.638,34.0,-21.7925,22.555,-31.193333333333335,28.4775,0.0,1782.276,-0.875,100.0,28.022,27.13,42.635,42.806,0.0,0.0,100.0,0.0,0.0,0.0,0.0,2968.5714285714284,2812.7,4297.625,4301.9,305.841,304.42133333333334,314.35725,314.098,21.8781,17.6503,21.8715,21.4106,314.999998,314.999998,324.999988,324.999988,99.55892857142857,99.50718333333333,99.5664,99.54685714285715,0.09333333333333327,-0.029000000000000026,-0.12966666666666665,0.0855,-0.046666666666666856,-0.051666666666669414,1.484,1.4585,37.738,30.064,37.697,34.8165,56.22,36.082499999999996,59.3635,52.335,54.135999999999996,34.9695,57.960499999999996,50.67,53.292,34.6735,57.8875,50.089666666666666,-0.14300000000000002,0.0004999999999999449,0.10147500000000001,0.10517000000000001,0.0,209.53,209.51999999999998,206.29666666666668,206.29666666666668,0.0,0.0
11,0.0,0.0,0.0,1.0,1.0,0.0,0.0,1.0,0.0,100.0,1.0,1.1856,26.0,0.0,0.0,0.0,59.999996,0.0,26.0,26.0,26.0,26.0,0.016666666666666607,0.2732000000000001,-0.0703,293.182,-2.7188,-2.672777777777778,-1.60795,-1.5063,-239.07,216.0775,190.767875,0.0,0.0,0.0,0.0,0.022599999999999953,-5.498166666666667,-5.498166666666667,-0.5746,-0.2683333333333333,0.052999999999999936,0.5229999999999999,67.043,0.0012000000000000001,-0.25295,-0.5220000000000002,100.0,1.0,1.0,207.0366666666667,0.0,0.0,0.0,0.0,0.0,0.0,0.0,8775.5,0.0,55.0,5.0,241.32666666666665,1.0,0.0,0.0,0.0,0.0,0.0,1.0,0.0,0.5549999999999997,0.5549999999999997,0.0,0.0,1.0,55.0,616.79921,10000.0,85.000001,85.000001,85.000001,85.000001,395.0,0.0,0.0,0.0,1.0,333.33500000000004,52.094,52.094,49.271,49.271,34.0,-21.822499999999998,25.913333333333334,-24.683333333333337,26.9325,0.0,1782.226,-0.8999999999999986,100.0,27.843,27.192,42.191,42.72,0.0,0.0,100.0,0.0,0.0,0.0,0.0,3070.285714285714,3122.7,3651.75,3918.5,305.451,303.49766666666665,315.97625,315.137,21.8878,17.6565,21.8818,21.4197,314.999998,314.999998,324.999988,324.999988,99.55894285714285,99.50718333333333,99.56654285714286,99.547,0.1260000000000001,-0.0086666666666666,-0.10683333333333334,0.1345,-0.036666666666668846,-0.07666666666666799,1.6355,1.6065,37.799,30.103,37.760999999999996,34.873,56.209,36.129,59.394999999999996,52.3915,54.123999999999995,35.0095,57.99,50.7245,53.278999999999996,34.7125,57.916,50.14266666666666,-0.1479999999999999,-0.009500000000000064,0.10472500000000001,0.11667500000000001,0.0,209.93,209.945,207.0366666666667,207.0366666666667,0.0,0.0
12,0.0,0.0,0.0,1.0,1.0,0.0,0.0,1.0,0.0,100.0,1.0,1.1856,26.0,0.0,0.0,0.0,59.999996,0.0,26.0,26.0,26.0,26.0,0.030000000000000027,0.2852000000000001,0.016550000000000002,292.618,-2.7758,-2.6630000000000003,-1.5745,-1.5021,-235.85,216.055,190.74725,0.0,0.0,0.0,0.0,0.025466666666666526,-5.498166666666667,-5.498166666666667,-0.5601,0.30333333333333323,0.044624999999999915,0.649,67.179,0.0187,-0.22257500000000002,-0.6440000000000001,100.0,1.0,1.0,207.23333333333335,0.0,0.0,0.0,0.0,0.0,0.0,0.0,8783.8,0.0,55.0,5.0,241.81666666666666,0.0,0.0,0.0,0.0,0.0,0.0,1.0,0.0,0.602999999999998,0.602999999999998,0.0,0.0,0.0,55.0,616.79921,10000.0,85.000001,85.000001,85.000001,85.000001,395.0,0.0,0.0,0.0,1.0,166.665,52.094,52.094,47.974000000000004,47.974000000000004,34.0,-21.695,27.153333333333332,-27.376666666666665,30.9475,0.0,1782.179,-1.0199999999999996,100.0,27.709,27.389,42.098,42.649,0.0,0.0,100.0,0.0,0.0,0.0,0.0,3083.285714285714,3138.7,4123.875,4272.1,305.426,303.47266666666667,314.782,314.30875,21.8969,17.6625,21.8915,21.4282,314.999998,314.999998,324.999988,324.999988,99.55895714285714,99.50718333333333,99.56668571428571,99.54712857142857,0.1433333333333333,0.02100000000000013,-0.08083333333333333,0.14683333333333334,-0.03333333333333144,-0.051666666666669414,1.522,1.4965,37.855000000000004,30.1405,37.822,34.9265,56.199,36.174,59.43,52.449,54.114999999999995,35.05,58.022,50.78,53.268,34.751999999999995,57.945499999999996,50.19733333333333,-0.15349999999999997,0.0015000000000000568,0.10999,0.109755,0.0,210.375,210.38,207.23333333333335,207.23333333333335,0.0,0.0
13,0.0,0.0,0.0,1.0,1.0,0.0,0.0,1.0,0.0,100.0,1.0,1.1856,26.0,0.0,0.0,0.0,59.999996,0.0,26.0,26.0,26.0,26.0,0.06955555555555559,0.2804,0.032175,292.236,-2.7576,-2.654777777777778,-1.6440000000000001,-1.5192,-232.42000000000002,216.03,190.725375,0.0,0.0,0.0,0.0,0.026733333333333387,-5.498166666666667,-5.498166666666667,-0.5525,-0.06399999999999995,0.04537499999999994,-0.44700000000000006,67.321,0.0298,-0.22995000000000002,-0.7400000000000002,100.0,1.0,1.0,207.61,0.0,0.0,0.0,0.0,0.0,0.0,0.0,8799.9,0.0,55.0,5.0,242.32666666666665,1.0,0.0,0.0,0.0,0.0,0.0,1.0,0.0,0.6539999999999999,0.6539999999999999,0.0,0.0,1.0,55.0,616.79921,10000.0,85.000001,85.000001,85.000001,85.000001,395.0,0.0,0.0,0.0,1.0,166.665,51.757999999999996,51.757999999999996,47.897,47.897,34.0,-21.3975,26.925,-28.86,31.615000000000002,0.0,1782.128,-1.2049999999999983,100.0,27.882,27.759999999999998,42.225,43.289,0.0,0.0,100.0,0.0,0.0,0.0,0.0,3218.4285714285716,3032.5,4195.25,4319.5,305.174,303.63233333333335,314.68225,314.087,21.9066,17.6688,21.9019,21.4375,314.999998,314.999998,324.999988,324.999988,99.55898571428571,99.5072,99.56681428571429,99.54728571428572,0.16633333333333322,0.03766666666666674,-0.08,0.14350000000000002,-0.041666666666671404,-0.046666666666666856,1.5075,1.4895,37.916,30.180500000000002,37.887,34.9845,56.191,36.2225,59.468,52.5135,54.107,35.094,58.0575,50.842,53.259,34.795500000000004,57.9775,50.257999999999996,-0.1795,0.024499999999999966,0.109975,0.11011000000000001,0.0,210.805,210.81,207.61,207.61,0.0,0.0
14,0.0,0.0,0.0,1.0,1.0,0.0,0.0,1.0,0.0,100.0,1.0,1.1856,26.0,0.0,0.0,0.0,59.999996,0.0,26.0,26.0,26.0,26.0,0.06822222222222218,0.28400000000000003,-0.01115,292.45,-2.7578,-2.593777777777778,-1.6228500000000001,-1.4875,-228.98,216.0075,190.70425,0.0,0.0,0.0,0.0,0.02873333333333339,-5.498166666666667,-5.498166666666667,-0.5621,-0.122,0.08087500000000003,1.4,67.461,0.046,-0.24335,-1.0499999999999998,100.0,1.0,1.0,208.11666666666667,0.0,0.0,0.0,0.0,0.0,0.0,0.0,8821.3,0.0,55.0,5.0,242.82999999999998,0.0,0.0,0.0,0.0,0.0,0.0,1.0,0.0,0.7049999999999983,0.7049999999999983,0.0,0.0,0.0,55.0,616.79921,10000.0,85.000001,85.000001,85.000001,85.000001,395.0,0.0,0.0,0.0,1.0,166.665,51.849000000000004,51.849000000000004,48.096000000000004,48.096000000000004,34.0,-19.1025,28.53666666666667,-24.903333333333336,31.675,0.0,1782.078,-1.3150000000000013,100.0,27.953,27.68,42.272,43.443,0.0,0.0,100.0,0.0,0.0,0.0,0.0,2981.4285714285716,3207.1,3919.375,4265.2,305.685,303.242,315.25275,314.3215,21.9162,17.6752,21.9123,21.4467,314.999998,314.999998,324.999988,324.999988,99.559,99.5072,99.56695714285715,99.54742857142857,0.18199999999999994,0.05266666666666686,-0.0535,0.16783333333333333,-0.04333333333332945,-0.06499999999999773,1.5675,1.5235,37.976,30.22,37.952,35.042,56.183,36.2715,59.5035,52.576499999999996,54.099999999999994,35.1385,58.0905,50.9025,53.25,34.838499999999996,58.0075,50.31766666666667,-0.1795,0.02949999999999986,0.102955,0.10398,0.0,211.21,211.26,208.11666666666667,208.11666666666667,0.0,0.0
15,0.0,0.0,0.0,1.0,1.0,0.0,0.0,1.0,0.0,100.0,1.0,1.1856,26.0,0.0,0.0,0.0,59.999996,0.0,26.0,26.0,26.0,26.0,0.12022222222222223,0.28190000000000004,-0.05315,292.45,-2.7717,-2.545,-1.6528,-1.4263,-225.54,215.985,190.682625,0.0,0.0,0.0,0.0,0.03073333333333339,-5.498166666666667,-5.498166666666667,-0.5529000000000001,0.22766666666666668,0.10949999999999993,-0.484,67.601,0.0658,-0.225975,-1.1499999999999995,100.0,1.0,1.0,208.53333333333333,0.0,0.0,0.0,0.0,0.0,0.0,0.0,8838.9,0.0,55.0,5.0,243.33333333333334,1.0,0.0,0.0,0.0,0.0,0.0,1.0,0.0,0.7560000000000002,0.7560000000000002,0.0,0.0,1.0,55.0,616.79921,10000.0,85.000001,85.000001,85.000001,85.000001,395.0,0.0,0.0,0.0,1.0,166.665,52.032,52.032,48.096000000000004,48.096000000000004,34.0,-18.24,27.486666666666665,-25.003333333333337,33.19,0.0,1782.026,-1.3000000000000007,100.0,27.774,27.948999999999998,41.939,43.659,0.0,0.0,100.0,0.0,0.0,0.0,0.0,2932.5714285714284,3091.3,3949.75,4391.8,306.0125,303.4313333333333,315.275,313.94675,21.9257,17.6817,21.9225,21.4559,314.999998,314.999998,324.999988,324.999988,99.55901428571428,99.50721666666666,99.5671,99.54758571428572,0.19300000000000006,0.05966666666666676,-0.042833333333333334,0.188,-0.05666666666667197,-0.060000000000002274,1.5385,1.5115,38.036,30.2605,38.016,35.0995,56.176,36.322,59.538,52.64,54.092,35.184,58.122,50.964,53.242000000000004,34.8835,58.036,50.378,-0.18249999999999988,0.026499999999999968,0.10974500000000001,0.109645,0.0,211.66500000000002,211.72,208.53333333333333,208.53333333333333,0.0,0.0
16,0.0,0.0,0.0,1.0,1.0,0.0,0.0,1.0,0.0,100.0,1.0,1.1856,26.0,0.0,0.0,0.0,59.999996,0.0,26.0,26.0,26.0,26.0,0.10733333333333328,0.2734000000000001,-0.013875,292.48,-2.8246,-2.561111111111111,-1.62445,-1.4912,-222.09,215.9675,190.6605,0.0,0.0,0.0,0.0,0.03276666666666661,-5.498166666666667,-5.498166666666667,-0.5763,-0.7053333333333334,0.09850000000000003,0.19399999999999995,67.74000000000001,0.0801,-0.243075,-1.2379999999999995,100.0,1.0,1.0,208.98333333333335,0.0,0.0,0.0,0.0,0.0,0.0,0.0,8858.0,0.0,55.0,5.0,243.83666666666664,0.0,0.0,0.0,0.0,0.0,0.0,1.0,0.0,0.8069999999999986,0.8069999999999986,0.0,0.0,0.0,55.0,616.79921,10000.0,85.000001,85.000001,85.000001,85.000001,395.0,0.0,0.0,0.0,1.0,166.665,51.849000000000004,51.849000000000004,47.958,47.958,34.0,-19.24,29.806666666666665,-22.726666666666667,33.54,0.0,1781.975,-1.245000000000001,100.0,27.576,27.848,42.232,43.681,0.0,0.0,100.0,0.0,0.0,0.0,0.0,3027.857142857143,3280.4,3870.25,4173.2,305.7435,303.0423333333333,315.404,314.4735,21.935,17.6881,21.9329,21.4651,314.999998,314.999998,324.999988,324.999988,99.55904285714286,99.50721666666666,99.56724285714286,99.54772857142858,0.19666666666666677,0.07333333333333325,-0.01666666666666667,0.21666666666666667,-0.051666666666669414,-0.07166666666666544,1.5675,1.516,38.094,30.301000000000002,38.081,35.157,56.165,36.3735,59.575,52.7025,54.082,35.231,58.1565,51.0245,53.230000000000004,34.929,58.067,50.437333333333335,-0.17100000000000004,0.01849999999999996,0.10619500000000001,0.10673500000000001,0.0,212.07,212.11,208.98333333333335,208.98333333333335,0.0,0.0
17,0.0,0.0,0.0,1.0,1.0,0.0,0.0,1.0,0.0,100.0,1.0,1.1856,26.0,0.0,0.0,0.0,59.999996,0.0,26.0,26.0,26.0,26.0,0.11111111111111116,0.2815000000000001,-0.01875,292.145,-2.7896,-2.5388888888888888,-1.6693500000000001,-1.4469,-218.82999999999998,215.95499999999998,190.63925,0.0,0.0,0.0,0.0,0.034633333333333294,-5.498166666666667,-5.498166666666667,-0.5647,0.5840000000000001,0.08224999999999993,0.685,67.87,0.08460000000000001,-0.223275,-1.2079999999999993,100.0,1.0,1.0,209.3466666666667,0.0,0.0,0.0,0.0,0.0,0.0,0.0,8873.4,0.0,55.0,5.0,244.30333333333334,1.0,0.0,0.0,0.0,0.0,0.0,1.0,0.0,0.8550000000000004,0.8550000000000004,0.0,0.0,1.0,55.0,616.79921,10000.0,85.000001,85.000001,85.000001,85.000001,395.0,0.0,0.0,0.0,1.0,166.665,51.650999999999996,51.650999999999996,47.852000000000004,47.852000000000004,34.0,-18.3725,28.64,-25.32,34.42,0.0,1781.928,-1.3099999999999987,100.0,28.037,28.144,41.984,43.653,0.0,0.0,100.0,0.0,0.0,0.0,0.0,3037.857142857143,3143.9,4145.0,4362.9,305.583,303.46066666666667,314.8455,314.159,21.9441,17.6944,21.9425,21.4737,314.999998,314.999998,324.999988,324.999988,99.55907142857143,99.50723333333333,99.56737142857143,99.54787142857143,0.21366666666666667,0.08299999999999996,-0.018166666666666668,0.21316666666666667,-0.03999999999999915,-0.060000000000002274,1.5585,1.5,38.15,30.34,38.141,35.211,56.161,36.424,59.607,52.7615,54.077,35.277,58.186,51.0815,53.224000000000004,34.974000000000004,58.094,50.49333333333333,-0.18049999999999988,0.027499999999999858,0.11087500000000002,0.101315,0.0,212.49,212.565,209.3466666666667,209.3466666666667,0.0,0.0
18,0.0,0.0,0.0,1.0,1.0,0.0,0.0,1.0,0.0,100.0,1.0,1.1856,26.0,0.0,0.0,0.0,59.999996,0.0,26.0,26.0,26.0,26.0,0.10722222222222211,0.26880000000000015,-0.008075,292.068,-2.8278,-2.507777777777778,-1.6829,-1.3954,-215.37,215.9425,190.616875,0.0,0.0,0.0,0.0,0.036666666666666514,-5.498166666666667,-5.498166666666667,-0.5735,-0.5016666666666667,0.10024999999999995,-0.4159999999999999,68.009,0.0884,-0.23897500000000002,-0.968,100.0,1.0,1.0,209.76,0.0,0.0,0.0,0.0,0.0,0.0,0.0,8891.0,0.0,55.0,5.0,244.80333333333334,0.0,0.0,0.0,0.0,0.0,0.0,1.0,0.0,0.9059999999999988,0.9059999999999988,0.0,0.0,0.0,55.0,616.79921,10000.0,85.000001,85.000001,85.000001,85.000001,395.0,0.0,0.0,0.0,1.0,166.665,51.544,51.544,47.638,47.638,34.0,-20.787499999999998,28.241666666666667,-24.96333333333333,32.075,0.0,1781.877,-0.8099999999999987,100.0,27.614,28.134,42.274,44.15,0.0,0.0,100.0,0.0,0.0,0.0,0.0,3167.5714285714284,3235.8,4030.625,4233.7,305.4375,303.02566666666667,315.11275,314.36525,21.9535,17.7009,21.953,21.4831,314.999998,314.999998,324.999988,324.999988,99.55908571428571,99.50723333333333,99.56751428571428,99.54801428571429,0.18399999999999994,0.05333333333333323,-0.02366666666666667,0.20266666666666666,-0.03499999999999659,-0.060000000000002274,1.557,1.511,38.209,30.380499999999998,38.206,35.2695,56.153,36.4755,59.6445,52.826499999999996,54.07,35.323499999999996,58.2205,51.144,53.215,35.0195,58.125,50.555,-0.15149999999999997,-0.00649999999999995,0.10735000000000001,0.10724,0.0,212.89499999999998,212.935,209.76,209.76,0.0,0.0
19,0.0,0.0,0.0,1.0,1.0,0.0,0.0,1.0,0.0,100.0,1.0,1.1856,26.0,0.0,0.0,0.0,59.999996,0.0,26.0,26.0,26.0,26.0,0.08000000000000007,0.29200000000000004,0.047925,291.565,-2.7316,-2.510111111111111,-1.68505,-1.3912,-211.89,215.9325,190.594375,0.0,0.0,0.0,0.0,0.038666666666666516,-5.498166666666667,-5.498166666666667,-0.5631,0.8200000000000001,0.09799999999999986,0.516,68.146,0.0855,-0.2267,-0.6280000000000001,100.0,1.0,1.0,210.14666666666668,0.0,0.0,0.0,0.0,0.0,0.0,0.0,8907.4,0.0,55.0,5.0,245.29666666666668,1.0,0.0,0.0,0.0,0.0,0.0,1.0,0.0,0.9570000000000007,0.9570000000000007,0.0,0.0,1.0,55.0,616.79921,10000.0,85.000001,85.000001,85.000001,85.000001,395.0,0.0,0.0,0.0,1.0,166.665,50.919,50.919,47.409,47.409,34.0,-20.355,28.068333333333335,-26.006666666666668,34.535,0.0,1781.826,-0.3999999999999986,100.0,28.401,28.407,42.183,43.978,0.0,0.0,100.0,0.0,0.0,0.0,0.0,3082.0,3325.2,4174.875,4493.6,305.3375,302.78766666666667,314.7535,313.853,21.9631,17.7076,21.9632,21.4923,314.999998,314.999998,324.999988,324.999988,99.55911428571429,99.50723333333333,99.56765714285714,99.54817142857142,0.16700000000000004,0.030000000000000027,-0.02,0.20783333333333334,-0.036666666666668846,-0.04999999999999716,1.5285,1.5055,38.269,30.4225,38.269999999999996,35.327,56.146,36.5275,59.6785,52.8895,54.063,35.371,58.251999999999995,51.205,53.207,35.0665,58.153,50.615,-0.11450000000000005,-0.0495000000000001,0.10644,0.11475500000000001,0.0,213.375,213.38,210.14666666666668,210.14666666666668,0.0,0.0
20,0.0,0.0,0.0,1.0,1.0,0.0,0.0,1.0,0.0,100.0,1.0,1.1856,26.0,0.0,0.0,0.0,59.999996,0.0,26.0,26.0,26.0,26.0,0.06699999999999995,0.26239999999999997,-0.027800000000000002,291.992,-2.8177,-2.589444444444444,-1.5957,-1.5295,-208.41,215.9275,190.572,0.0,0.0,0.0,0.0,0.04069999999999996,-5.498166666666667,-5.498166666666667,-0.5698,-1.093,0.07600000000000007,-1.358,68.28399999999999,0.0644,-0.24080000000000001,-0.009999999999999787,100.0,1.0,1.0,210.50333333333333,0.0,0.0,0.0,0.0,0.0,0.0,0.0,8922.5,0.0,55.0,5.0,245.79666666666668,0.0,0.0,0.0,0.0,0.0,0.0,0.0,0.0,1.0079999999999991,1.0079999999999991,0.0,0.0,0.0,55.0,616.79921,10000.0,85.000001,85.000001,85.000001,85.000001,395.0,0.0,0.0,0.0,1.0,166.665,52.032,52.032,47.012,47.012,34.0,-21.79,24.821666666666665,-26.703333333333333,32.3675,0.0,1781.774,-0.14499999999999957,100.0,27.761,28.158,42.824,44.355000000000004,0.0,0.0,100.0,0.0,0.0,0.0,0.0,3022.714285714286,3036.5,4151.125,4210.2,305.848,303.65133333333335,314.734,314.26125,21.9724,17.714,21.9738,21.5017,314.999998,314.999998,324.999988,324.999988,99.55912857142857,99.50725,99.56781428571429,99.54832857142857,0.133,-0.002666666666666595,-0.05533333333333334,0.16816666666666666,-0.045000000000001705,-0.046666666666666856,1.4915,1.4705,38.328,30.4625,38.336,35.3855,56.134,36.575,59.7175,52.954,54.051,35.414,58.2885,51.266999999999996,53.194,35.1085,58.186,50.676,-0.09299999999999997,-0.06599999999999984,0.1073,0.10572500000000001,0.0,213.78,213.76,210.50333333333333,210.50333333333333,0.0,0.0
21,0.0,0.0,0.0,1.0,1.0,0.0,0.0,1.0,0.0,100.0,1.0,1.1856,26.0,0.0,0.0,0.0,59.999996,0.0,26.0,26.0,26.0,26.0,0.01855555555555566,0.2816000000000001,-0.06905,292.313,-2.7081,-2.667,-1.64395,-1.5042,-205.34,215.9225,190.55175,0.0,0.0,0.0,0.0,0.04249999999999998,-5.498166666666667,-5.498166666666667,-0.5918,0.44300000000000006,0.046624999999999917,0.014999999999999902,68.4,0.033600000000000005,-0.242175,0.33999999999999986,100.0,1.0,1.0,211.10000000000002,0.0,0.0,0.0,0.0,0.0,0.0,0.0,8947.8,0.0,55.0,5.0,246.21333333333334,1.0,0.0,0.0,0.0,0.0,0.0,0.0,0.0,1.0530000000000008,1.0530000000000008,0.0,0.0,1.0,55.0,616.79921,10000.0,85.000001,85.000001,85.000001,85.000001,395.0,0.0,0.0,0.0,1.0,333.33500000000004,51.498,51.498,48.309,48.309,34.0,-22.185,25.858333333333334,-26.03666666666666,28.4725,0.0,1781.727,-0.14000000000000057,100.0,28.323,28.001,42.442,43.687,0.0,0.0,100.0,0.0,0.0,0.0,0.0,3102.142857142857,3122.2,3936.375,4018.6000000000004,305.3225,303.4766666666667,315.3615,314.96525,21.9809,17.7198,21.9828,21.5096,314.999998,314.999998,324.999988,324.999988,99.55914285714286,99.50725,99.56792857142857,99.54845714285715,0.12366666666666681,-0.010333333333333306,-0.073,0.149,-0.03999999999999915,-0.06333333333333258,1.5865,1.5935,38.381,30.499000000000002,38.393,35.435,56.125,36.618,59.7455,53.0055,54.042,35.453,58.314,51.3165,53.185,35.1465,58.2095,50.724333333333334,-0.09399999999999986,-0.06550000000000011,0.09685500000000001,0.11254000000000002,0.0,214.19,214.14,211.10000000000002,211.10000000000002,0.0,0.0
22,0.0,0.0,0.0,1.0,1.0,0.0,0.0,1.0,0.0,100.0,1.0,1.1856,26.0,0.0,0.0,0.0,59.999996,0.0,26.0,26.0,26.0,26.0,0.0015555555555555323,0.2630000000000001,0.02615,291.779,-2.6798,-2.6806666666666668,-1.62805,-1.5022,-201.85,215.91750000000002,190.528,0.0,0.0,0.0,0.0,0.044533333333333314,-5.498166666666667,-5.498166666666667,-0.5699000000000001,0.13366666666666682,0.03787499999999988,-0.7570000000000001,68.539,0.0041,-0.2205,0.5400000000000009,100.0,1.0,1.0,211.30666666666667,0.0,0.0,0.0,0.0,0.0,0.0,0.0,8956.5,0.0,55.0,5.0,246.71333333333334,0.0,0.0,0.0,0.0,0.0,0.0,0.0,0.0,1.1039999999999992,1.1039999999999992,0.0,0.0,0.0,55.0,616.79921,10000.0,85.000001,85.000001,85.000001,85.000001,395.0,0.0,0.0,0.0,1.0,333.33500000000004,51.559,51.559,47.134,47.134,34.0,-23.4175,23.568333333333335,-31.693333333333335,28.295,0.0,1781.676,-0.17999999999999972,100.0,28.313,28.126,42.897999999999996,43.858000000000004,0.0,0.0,100.0,0.0,0.0,0.0,0.0,3131.5714285714284,2987.5,4254.125,4286.3,305.376,303.698,314.59475,314.2585,21.9906,17.7263,21.9933,21.5189,314.999998,314.999998,324.999988,324.999988,99.55917142857143,99.50726666666667,99.56807142857143,99.5486,0.09200000000000008,-0.04566666666666663,-0.12516666666666668,0.09466666666666668,-0.05666666666667197,-0.060000000000002274,1.4695,1.5115,38.441,30.539,38.458,35.493,56.114999999999995,36.6655,59.784,53.067499999999995,54.032,35.4965,58.3505,51.3765,53.173,35.189,58.2425,50.78333333333333,-0.09299999999999997,-0.06349999999999989,0.10874500000000001,0.10698500000000001,0.0,214.625,214.56,211.30666666666667,211.30666666666667,0.0,0.0
23,0.0,0.0,0.0,1.0,1.0,0.0,0.0,1.0,0.0,100.0,1.0,1.1856,26.0,0.0,0.0,0.0,59.999996,0.0,26.0,26.0,26.0,26.0,-0.018555555555555547,0.25160000000000005,-0.04505,291.824,-2.6941,-2.649,-1.66795,-1.5824,-198.14,215.9125,190.503125,0.0,0.0,0.0,0.0,0.04666666666666652,-5.498166666666667,-5.498166666666667,-0.5888,-0.17266666666666663,0.020874999999999977,-0.6870000000000003,68.681,-0.012400000000000001,-0.24677500000000002,0.5560000000000009,100.0,1.0,1.0,211.87,0.0,0.0,0.0,0.0,0.0,0.0,0.0,8980.4,0.0,55.0,5.0,247.22333333333336,1.0,0.0,0.0,0.0,0.0,0.0,0.0,0.0,1.1580000000000013,1.1580000000000013,0.0,0.0,1.0,55.0,616.79921,10000.0,85.000001,85.000001,85.000001,85.000001,395.0,0.0,0.0,0.0,1.0,166.665,50.964,50.964,48.172,48.172,34.0,-26.439999999999998,22.851666666666667,-30.099999999999998,26.5,0.0,1781.625,-0.11499999999999844,100.0,28.732,28.134999999999998,43.204,43.956,0.0,0.0,100.0,0.0,0.0,0.0,0.0,3388.285714285714,3003.3,3977.625,3959.0,304.618,303.76533333333333,315.31625,314.9675,22.000799999999998,17.7331,22.0044,21.5287,314.999998,314.999998,324.999988,324.999988,99.55917142857143,99.50726666666667,99.56822857142858,99.54875714285714,0.07866666666666666,-0.05733333333333335,-0.13933333333333334,0.09016666666666667,-0.030000000000001137,-0.06333333333333258,1.523,1.5534999999999999,38.504999999999995,30.582,38.528,35.554,56.102999999999994,36.717,59.823499999999996,53.1325,54.019999999999996,35.543,58.3865,51.439,53.16,35.234,58.2755,50.84433333333333,-0.08799999999999986,-0.07250000000000023,0.10753000000000001,0.10923000000000001,0.0,215.035,214.965,211.87,211.87,0.0,0.0
24,0.0,0.0,0.0,1.0,1.0,0.0,0.0,1.0,0.0,100.0,1.0,1.1856,26.0,0.0,0.0,0.0,59.999996,0.0,26.0,26.0,26.0,26.0,-0.0464444444444444,0.28459999999999996,-0.050050000000000004,292.023,-2.7102,-2.665222222222222,-1.5841,-1.5256,-195.05,215.9075,190.482,0.0,0.0,0.0,0.0,0.04846666666666655,-5.498166666666667,-5.498166666666667,-0.5917,-0.515,0.02837500000000004,0.9259999999999999,68.801,-0.0217,-0.23322500000000002,0.4380000000000006,100.0,1.0,1.0,212.13,0.0,0.0,0.0,0.0,0.0,0.0,0.0,8991.4,0.0,55.0,5.0,247.65666666666667,0.0,0.0,0.0,0.0,0.0,0.0,0.0,0.0,1.2029999999999994,1.2029999999999994,0.0,0.0,0.0,55.0,616.79921,10000.0,85.000001,85.000001,85.000001,85.000001,395.0,0.0,0.0,0.0,1.0,333.33500000000004,52.094,52.094,47.089,47.089,34.0,-22.974999999999998,22.376666666666665,-31.9,27.3925,0.0,1781.577,-0.1750000000000007,100.0,28.601,27.691,43.352000000000004,43.712,0.0,0.0,100.0,0.0,0.0,0.0,0.0,2972.857142857143,2950.1,4247.0,4186.7,305.772,304.201,314.47225,314.54825,22.0093,17.7387,22.0136,21.5368,314.999998,314.999998,324.999988,324.999988,99.55918571428572,99.50726666666667,99.56835714285714,99.54888571428572,0.07800000000000007,-0.05466666666666664,-0.13966666666666666,0.088,-0.03833333333332689,-0.051666666666669414,1.4929999999999999,1.5225,38.558,30.616500000000002,38.585,35.605000000000004,56.091,36.757999999999996,59.8565,53.1855,54.009,35.58,58.417500000000004,51.49,53.149,35.2705,58.3035,50.894333333333336,-0.09349999999999992,-0.06199999999999983,0.10873000000000001,0.10855000000000001,0.0,215.41,215.32999999999998,212.13,212.13,0.0,0.0
25,0.0,0.0,0.0,1.0,1.0,0.0,0.0,1.0,0.0,100.0,1.0,1.1856,26.0,0.0,0.0,0.0,59.999996,0.0,26.0,26.0,26.0,26.0,-0.061999999999999944,0.2653000000000001,-0.058325,291.931,-2.7653,-2.636,-1.5886,-1.5391,-191.32999999999998,215.9,190.45525,0.0,0.0,0.0,0.0,0.05063333333333331,-5.498166666666667,-5.498166666666667,-0.6259,0.02633333333333332,0.021749999999999936,-0.014000000000000234,68.94,-0.0269,-0.24075000000000002,0.41799999999999926,100.0,1.0,1.0,212.7,0.0,0.0,0.0,0.0,0.0,0.0,0.0,9015.5,0.0,55.0,5.0,248.16,1.0,0.0,0.0,0.0,0.0,0.0,0.0,0.0,1.256999999999998,1.256999999999998,0.0,0.0,1.0,55.0,616.79921,10000.0,85.000001,85.000001,85.000001,85.000001,395.0,0.0,0.0,0.0,1.0,166.665,50.995,50.995,47.989,47.989,34.0,-26.665,24.965,-28.266666666666666,26.575000000000003,0.0,1781.526,-0.1999999999999993,100.0,28.587,27.838,43.059,43.34,0.0,0.0,100.0,0.0,0.0,0.0,0.0,3325.285714285714,3246.3,3927.125,4047.8,304.831,303.15433333333334,315.3325,314.87425,22.0193,17.7455,22.0245,21.5464,314.999998,314.999998,324.999988,324.999988,99.5592,99.50728333333333,99.56851428571429,99.54904285714285,0.07633333333333336,-0.04999999999999993,-0.13216666666666665,0.09316666666666668,-0.04833333333333201,-0.07333333333333059,1.5695,1.569,38.620999999999995,30.6595,38.653,35.665,56.076,36.8095,59.893,53.246,53.995000000000005,35.626999999999995,58.451499999999996,51.548500000000004,53.132999999999996,35.316,58.3345,50.95166666666667,-0.09399999999999986,-0.0625,0.10439000000000001,0.10654500000000001,0.0,215.845,215.785,212.7,212.7,0.0,0.0
26,0.0,0.0,0.0,1.0,1.0,0.0,0.0,1.0,0.0,100.0,1.0,1.1856,26.0,0.0,0.0,0.0,59.999996,0.0,26.0,26.0,26.0,26.0,-0.050999999999999934,0.2803,0.070525,290.771,-2.7177,-2.7093333333333334,-1.6367500000000001,-1.5293,-188.01999999999998,215.89249999999998,190.430875,0.0,0.0,0.0,0.0,0.05256666666666654,-5.498166666666667,-5.498166666666667,-0.5871000000000001,0.7856666666666667,0.007125000000000048,0.6890000000000001,69.069,-0.0316,-0.21405000000000002,0.3800000000000008,100.0,1.0,1.0,212.82999999999998,0.0,0.0,0.0,0.0,0.0,0.0,0.0,9021.0,0.0,55.0,5.0,248.62,0.0,0.0,0.0,0.0,0.0,0.0,0.0,0.0,1.3049999999999997,1.3049999999999997,0.0,0.0,0.0,55.0,616.79921,10000.0,85.000001,85.000001,85.000001,85.000001,395.0,0.0,0.0,0.0,1.0,166.665,50.491,50.491,46.249,46.249,34.0,-24.9575,24.119999999999997,-35.13333333333333,30.46,0.0,1781.478,-0.35999999999999943,100.0,29.48,28.546,43.598,43.711,0.0,0.0,100.0,0.0,0.0,0.0,0.0,3237.4285714285716,3103.1,4493.25,4552.5,304.93,303.498,313.9845,313.695,22.0285,17.7518,22.034399999999998,21.5552,314.999998,314.999998,324.999988,324.999988,99.5592,99.5073,99.56864285714286,99.54918571428571,0.09033333333333338,-0.05933333333333335,-0.1405,0.085,-0.05333333333332746,-0.05666666666667197,1.434,1.4555,38.678,30.6985,38.715,35.7195,56.067,36.858000000000004,59.9305,53.3045,53.986999999999995,35.671,58.4865,51.605000000000004,53.123999999999995,35.359,58.366,51.00633333333333,-0.11450000000000005,-0.05750000000000011,0.10636000000000001,0.11345000000000001,0.0,216.29000000000002,216.21,212.82999999999998,212.82999999999998,0.0,0.0
27,0.0,0.0,0.0,1.0,1.0,0.0,0.0,1.0,0.0,100.0,1.0,1.1856,26.0,0.0,0.0,0.0,59.999996,0.0,26.0,26.0,26.0,26.0,-0.0357777777777778,0.25160000000000005,0.004175,291.153,-2.6784,-2.683,-1.6249,-1.6076000000000001,-184.7,215.8825,190.407875,0.0,0.0,0.0,0.0,0.05449999999999999,-5.498166666666667,-5.498166666666667,-0.6097,-1.0403333333333333,0.002874999999999961,0.6579999999999999,69.193,-0.029300000000000003,-0.2595,0.19400000000000084,100.0,1.0,1.0,213.30333333333334,0.0,0.0,0.0,0.0,0.0,0.0,0.0,9041.1,0.0,55.0,5.0,249.06666666666666,1.0,0.0,0.0,0.0,0.0,0.0,0.0,0.0,1.352999999999998,1.352999999999998,0.0,0.0,1.0,55.0,616.79921,10000.0,85.000001,85.000001,85.000001,85.000001,395.0,0.0,0.0,0.0,1.0,166.665,50.919,50.919,46.585,46.585,34.0,-23.4875,24.095,-30.976666666666663,28.5025,0.0,1781.429,-0.4299999999999997,100.0,29.194,28.303,44.357,44.365,0.0,0.0,100.0,0.0,0.0,0.0,0.0,3160.857142857143,3112.5,4089.375,4156.9,305.1695,303.613,314.86225,314.5275,22.037399999999998,17.7578,22.0444,21.5641,314.999998,314.999998,324.999988,324.999988,99.55921428571429,99.5073,99.56878571428571,99.54932857142857,0.09966666666666679,-0.05266666666666664,-0.13783333333333334,0.08716666666666667,-0.04333333333332945,-0.061666666666667425,1.4829999999999999,1.4955,38.733999999999995,30.7365,38.778,35.7755,56.056,36.9035,59.968,53.3635,53.976,35.712,58.5215,51.661500000000004,53.111999999999995,35.399,58.397999999999996,51.062,-0.119,-0.052000000000000046,0.10713,0.106745,0.0,216.60000000000002,216.54500000000002,213.30333333333334,213.30333333333334,0.0,0.0
28,0.0,0.0,0.0,1.0,1.0,0.0,0.0,1.0,0.0,100.0,1.0,1.1856,26.0,0.0,0.0,0.0,59.999996,0.0,26.0,26.0,26.0,26.0,-0.025222222222222146,0.26360000000000006,-0.05085,291.534,-2.7031,-2.661777777777778,-1.57735,-1.5655000000000001,-181.17000000000002,215.8725,190.382625,0.0,0.0,0.0,0.0,0.056533333333333324,-5.498166666666667,-5.498166666666667,-0.6165,0.6316666666666668,0.0004999999999999449,-0.3580000000000001,69.322,-0.0244,-0.23605,0.23399999999999999,100.0,1.0,1.0,213.82666666666665,0.0,0.0,0.0,0.0,0.0,0.0,0.0,9063.4,0.0,55.0,5.0,249.53333333333336,0.0,0.0,0.0,0.0,0.0,0.0,0.0,0.0,1.404,1.404,0.0,0.0,0.0,55.0,616.79921,10000.0,85.000001,85.000001,85.000001,85.000001,395.0,0.0,0.0,0.0,1.0,333.33500000000004,50.934,50.934,47.592,47.592,34.0,-25.4,23.18,-29.293333333333333,27.6475,0.0,1781.377,-0.5150000000000006,100.0,29.04,28.366,43.524,43.871,0.0,0.0,100.0,0.0,0.0,0.0,0.0,3336.714285714286,2991.0,4022.0,4134.0,304.8545,303.8023333333333,315.1425,314.66825,22.047,17.7643,22.0546,21.5731,314.999998,314.999998,324.999988,324.999988,99.55922857142858,99.5073,99.56894285714286,99.54947142857142,0.09133333333333327,-0.04999999999999993,-0.13916666666666666,0.09283333333333334,-0.04833333333333201,-0.060000000000002274,1.5594999999999999,1.563,38.794,30.777,38.841,35.832,56.046,36.952,60.001,53.420500000000004,53.966,35.756,58.552,51.716499999999996,53.101,35.442,58.4255,51.11533333333333,-0.12399999999999989,-0.040999999999999925,0.10343000000000001,0.11484000000000001,0.0,217.04000000000002,217.0,213.82666666666665,213.82666666666665,0.0,0.0
29,0.0,0.0,0.0,1.0,1.0,0.0,0.0,1.0,0.0,100.0,1.0,1.1856,26.0,0.0,0.0,0.0,59.999996,0.0,26.0,26.0,26.0,26.0,-0.01822222222222214,0.2642,0.012725,291.153,-2.6599,-2.712777777777778,-1.58255,-1.5362,-177.63,215.8625,190.35625,0.0,0.0,0.0,0.0,0.058599999999999985,-5.498166666666667,-5.498166666666667,-0.6181,-0.7036666666666667,0.010999999999999899,0.7769999999999999,69.456,-0.0184,-0.23225,-0.041999999999999815,100.0,1.0,1.0,214.05333333333334,0.0,0.0,0.0,0.0,0.0,0.0,0.0,9073.0,0.0,55.0,5.0,250.01666666666665,1.0,0.0,0.0,0.0,0.0,0.0,0.0,0.0,1.4549999999999983,1.4549999999999983,0.0,0.0,1.0,55.0,616.79921,10000.0,85.000001,85.000001,85.000001,85.000001,395.0,0.0,0.0,0.0,1.0,166.665,51.041,51.041,46.448,46.448,34.0,-23.24,25.651666666666667,-30.613333333333333,29.9775,0.0,1781.328,-0.5599999999999987,100.0,28.795,28.11,43.956,44.132000000000005,0.0,0.0,100.0,0.0,0.0,0.0,0.0,3192.285714285714,3141.2,4181.25,4336.9,305.1225,303.37,314.60475,314.161,22.0563,17.7708,22.0651,21.5825,314.999998,314.999998,324.999988,324.999988,99.55924285714286,99.50731666666667,99.56908571428572,99.54962857142857,0.1060000000000001,-0.03200000000000003,-0.12383333333333334,0.10483333333333333,-0.021666666666668277,-0.06666666666666998,1.4729999999999999,1.4665,38.852000000000004,30.8175,38.907,35.8905,56.033,36.9985,60.04,53.4825,53.954,35.7985,58.588499999999996,51.775999999999996,53.088,35.483000000000004,58.4585,51.17366666666666,-0.12749999999999995,-0.028999999999999915,0.109575,0.11367500000000001,0.0,217.405,217.37,214.05333333333334,214.05333333333334,0.0,0.0
30,0.0,0.0,0.0,1.0,1.0,0.0,0.0,1.0,0.0,100.0,1.0,1.1856,26.0,0.0,0.0,0.0,59.999996,0.0,26.0,26.0,26.0,26.0,-0.011555555555555541,0.2603,0.056875,290.68,-2.7197,-2.5963333333333334,-1.5563,-1.5951,-174.29,215.85250000000002,190.33125,0.0,0.0,0.0,0.0,0.06053333333333333,-5.498166666666667,-5.498166666666667,-0.6196,0.756,0.010750000000000037,0.6759999999999999,69.577,-0.0086,-0.2358,-0.05400000000000027,100.0,1.0,1.0,214.51,0.0,0.0,0.0,0.0,0.0,0.0,0.0,9092.2,0.0,55.0,5.0,250.45333333333335,0.0,0.0,0.0,0.0,0.0,0.0,1.0,0.0,1.5030000000000001,1.5030000000000001,0.0,0.0,0.0,55.0,616.79921,10000.0,85.000001,85.000001,85.000001,85.000001,395.0,0.0,0.0,0.0,1.0,333.33500000000004,49.911,49.911,46.906,46.906,34.0,-24.9175,25.116666666666667,-29.463333333333335,31.105,0.0,1781.278,-0.5999999999999979,100.0,29.613,28.791,43.713,44.163,0.0,0.0,100.0,0.0,0.0,0.0,0.0,3395.714285714286,3204.8,4165.0,4310.7,304.4725,303.162,314.74775,314.1845,22.0654,17.7772,22.0749,21.5912,314.999998,314.999998,324.999988,324.999988,99.55925714285715,99.50731666666667,99.56922857142857,99.54977142857143,0.121,-0.033333333333333326,-0.11616666666666667,0.1145,-0.026666666666670835,-0.06833333333332803,1.4949999999999999,1.4905,38.909,30.8575,38.968,35.945,56.025999999999996,37.0465,60.072,53.5385,53.947,35.842,58.6185,51.83,53.08,35.5255,58.4855,51.22666666666667,-0.13349999999999995,-0.03949999999999987,0.11157500000000001,0.11194000000000001,0.0,217.79500000000002,217.81,214.51,214.51,0.0,0.0
31,0.0,0.0,0.0,1.0,1.0,0.0,0.0,1.0,0.0,100.0,1.0,1.1856,26.0,0.0,0.0,0.0,59.999996,0.0,26.0,26.0,26.0,26.0,-0.014111111111111074,0.25450000000000017,0.00205,290.573,-2.7843,-2.576777777777778,-1.6054,-1.5899,-170.53,215.84,190.304,0.0,0.0,0.0,0.0,0.06273333333333331,-5.498166666666667,-5.498166666666667,-0.6047,-0.5996666666666667,0.019874999999999865,0.673,69.717,-0.0005,-0.23815,-0.15000000000000036,100.0,1.0,1.0,214.82999999999998,0.0,0.0,0.0,0.0,0.0,0.0,0.0,9105.9,0.0,55.0,5.0,250.95333333333335,1.0,0.0,0.0,0.0,0.0,0.0,1.0,0.0,1.5569999999999986,1.5569999999999986,0.0,0.0,1.0,55.0,616.79921,10000.0,85.000001,85.000001,85.000001,85.000001,395.0,0.0,0.0,0.0,1.0,166.665,50.491,50.491,45.563,45.563,34.0,-23.4275,25.740000000000002,-29.986666666666665,32.010000000000005,0.0,1781.225,-0.629999999999999,100.0,29.301000000000002,28.829,44.434,44.843,0.0,0.0,100.0,0.0,0.0,0.0,0.0,3181.142857142857,3269.7,4259.375,4341.6,305.273,303.19733333333335,314.421,314.2355,22.0754,17.7842,22.086100000000002,21.6013,314.999998,314.999998,324.999988,324.999988,99.55927142857144,99.50731666666667,99.56938571428572,99.54992857142857,0.12366666666666681,-0.02200000000000002,-0.09233333333333334,0.127,-0.045000000000001705,-0.06499999999999773,1.4645,1.4455,38.971000000000004,30.9015,39.038,36.007999999999996,56.016,37.0985,60.114,53.6055,53.937,35.888999999999996,58.6575,51.8945,53.068,35.5715,58.521,51.28966666666666,-0.13250000000000006,-0.038000000000000256,0.097125,0.10712500000000001,0.0,218.23000000000002,218.2,214.82999999999998,214.82999999999998,0.0,0.0
32,0.0,0.0,0.0,1.0,1.0,0.0,0.0,1.0,0.0,100.0,1.0,1.1856,26.0,0.0,0.0,0.0,59.999996,0.0,26.0,26.0,26.0,26.0,-0.013444444444444481,0.2631000000000001,-0.057575,290.848,-2.7196,-2.6813333333333333,-1.67055,-1.5004,-167.18,215.8275,190.279875,0.0,0.0,0.0,0.0,0.06466666666666654,-5.498166666666667,-5.498166666666667,-0.6203000000000001,0.1266666666666667,-0.00550000000000006,0.123,69.836,0.004200000000000001,-0.24452500000000002,-0.19599999999999973,100.0,1.0,1.0,215.32666666666665,0.0,0.0,0.0,0.0,0.0,0.0,0.0,9126.9,0.0,55.0,5.0,251.38333333333333,0.0,0.0,0.0,0.0,0.0,0.0,1.0,0.0,1.6050000000000004,1.6050000000000004,0.0,0.0,0.0,55.0,616.79921,10000.0,85.000001,85.000001,85.000001,85.000001,395.0,0.0,0.0,0.0,1.0,333.33500000000004,50.476,50.476,46.524,46.524,34.0,-23.0825,25.763333333333335,-29.62,29.705000000000002,0.0,1781.175,-0.6400000000000006,100.0,29.312,28.867,44.082,44.620000000000005,0.0,0.0,100.0,0.0,0.0,0.0,0.0,3253.0,3133.1,4165.875,4267.2,304.961,303.4816666666667,314.85125,314.45375,22.0843,17.7906,22.0958,21.61,314.999998,314.999998,324.999988,324.999988,99.55928571428572,99.50731666666667,99.56951428571429,99.55005714285714,0.133,-0.019000000000000017,-0.095,0.12783333333333333,-0.04833333333333201,-0.04999999999999716,1.5414999999999999,1.529,39.027,30.941,39.099000000000004,36.063,56.007,37.1445,60.1485,53.664500000000004,53.928,35.9335,58.689499999999995,51.951499999999996,53.059,35.615,58.548,51.345333333333336,-0.13749999999999996,-0.033500000000000085,0.10333500000000001,0.11189500000000001,0.0,218.61,218.565,215.32666666666665,215.32666666666665,0.0,0.0
33,0.0,0.0,0.0,1.0,1.0,0.0,0.0,1.0,0.0,100.0,1.0,1.1856,26.0,0.0,0.0,0.0,59.999996,0.0,26.0,26.0,26.0,26.0,0.016000000000000014,0.25870000000000015,-0.01165,291.031,-2.7319,-2.670777777777778,-1.60145,-1.5835,-163.61,215.8175,190.25325,0.0,0.0,0.0,0.0,0.06673333333333331,-5.498166666666667,-5.498166666666667,-0.6265000000000001,-0.43533333333333335,-0.0008750000000001812,0.05600000000000005,69.96600000000001,0.0078000000000000005,-0.233,-0.08399999999999963,100.0,1.0,1.0,215.65333333333334,0.0,0.0,0.0,0.0,0.0,0.0,0.0,9140.7,0.0,55.0,5.0,251.85333333333335,1.0,0.0,0.0,0.0,0.0,0.0,1.0,0.0,1.6559999999999988,1.6559999999999988,0.0,0.0,1.0,55.0,616.79921,10000.0,85.000001,85.000001,85.000001,85.000001,395.0,0.0,0.0,0.0,1.0,166.665,51.041,51.041,46.524,46.524,34.0,-23.255,24.34166666666667,-30.009999999999998,30.8825,0.0,1781.126,-0.6550000000000011,100.0,28.943,28.701999999999998,43.964,44.731,0.0,0.0,100.0,0.0,0.0,0.0,0.0,3241.0,2978.5,4201.625,4278.6,305.213,303.90233333333333,314.6945,314.282,22.0936,17.797,22.1062,21.6194,314.999998,314.999998,324.999988,324.999988,99.55931428571428,99.50733333333334,99.56965714285714,99.55021428571429,0.1246666666666667,-0.019000000000000017,-0.10883333333333334,0.11866666666666667,-0.03333333333333144,-0.06333333333333258,1.4925,1.4895,39.085,30.9815,39.164,36.121,55.997,37.19,60.182,53.7215,53.919,35.9725,58.7205,52.0065,53.048,35.6525,58.578,51.398666666666664,-0.13949999999999996,-0.02450000000000019,0.10557000000000001,0.10941500000000001,0.0,218.99,218.98000000000002,215.65333333333334,215.65333333333334,0.0,0.0
34,0.0,0.0,0.0,1.0,1.0,0.0,0.0,1.0,0.0,100.0,1.0,1.1856,26.0,0.0,0.0,0.0,59.999996,0.0,26.0,26.0,26.0,26.0,0.0040000000000000036,0.25649999999999995,-0.06747500000000001,291.336,-2.7618,-2.5926666666666667,-1.66385,-1.5392000000000001,-160.25,215.805,190.227125,0.0,0.0,0.0,0.0,0.06869999999999998,-5.498166666666667,-5.498166666666667,-0.6554,-0.81,0.028750000000000053,-0.17399999999999993,70.086,0.0126,-0.24205000000000002,-0.12399999999999878,100.0,1.0,1.0,216.06,0.0,0.0,0.0,0.0,0.0,0.0,0.0,9158.0,0.0,55.0,5.0,252.28666666666666,0.0,0.0,0.0,0.0,0.0,0.0,1.0,0.0,1.7040000000000006,1.7040000000000006,0.0,0.0,0.0,55.0,616.79921,10000.0,85.000001,85.000001,85.000001,85.000001,395.0,0.0,0.0,0.0,1.0,166.665,51.208,51.208,47.318,47.318,34.0,-23.5675,24.051666666666666,-29.189999999999998,29.4875,0.0,1781.078,-0.634999999999998,100.0,28.708,28.384,43.676,44.709,0.0,0.0,100.0,0.0,0.0,0.0,0.0,3212.4285714285716,3011.3,4039.5,4219.1,305.104,303.865,315.11425,314.39725,22.1024,17.8031,22.1159,21.6282,314.999998,314.999998,324.999988,324.999988,99.55931428571428,99.50733333333334,99.5698,99.55035714285714,0.12400000000000011,-0.01533333333333331,-0.1065,0.115,-0.05833333333333002,-0.051666666666669414,1.518,1.513,39.14,31.0195,39.224000000000004,36.176,55.986999999999995,37.2325,60.213,53.7785,53.91,36.010999999999996,58.7495,52.0615,53.038,35.6905,58.604,51.452333333333335,-0.13050000000000006,-0.025500000000000078,0.106425,0.10465500000000001,0.0,219.36,219.32999999999998,216.06,216.06,0.0,0.0
35,0.0,0.0,0.0,1.0,1.0,0.0,0.0,1.0,0.0,100.0,1.0,1.1856,26.0,0.0,0.0,0.0,59.999996,0.0,26.0,26.0,26.0,26.0,0.0,0.25780000000000003,-0.061225,291.397,-2.7381,-2.6034444444444444,-1.6429,-1.4957,-156.68,215.79500000000002,190.19725,0.0,0.0,0.0,0.0,0.07076666666666653,-5.498166666666667,-5.498166666666667,-0.6965,-0.43633333333333335,0.016999999999999904,0.07899999999999996,70.213,0.0195,-0.24750000000000003,-0.2579999999999991,100.0,1.0,1.0,216.51333333333332,0.0,0.0,0.0,0.0,0.0,0.0,0.0,9177.2,0.0,55.0,5.0,252.74333333333334,1.0,0.0,0.0,0.0,0.0,0.0,1.0,0.0,1.754999999999999,1.754999999999999,0.0,0.0,1.0,55.0,616.79921,10000.0,85.000001,85.000001,85.000001,85.000001,395.0,0.0,0.0,0.0,1.0,333.33500000000004,50.873,50.873,46.844,46.844,34.0,-23.009999999999998,27.118333333333332,-27.560000000000002,28.1675,0.0,1781.027,-0.5449999999999982,100.0,28.591,28.44,43.542,44.167,0.0,0.0,100.0,0.0,0.0,0.0,0.0,3175.714285714286,3325.5,3995.75,4027.7,305.217,302.881,315.10925,314.93975,22.1116,17.8098,22.1262,21.6374,314.999998,314.999998,324.999988,324.999988,99.55932857142857,99.50735,99.56995714285715,99.5505,0.12433333333333318,-0.011666666666666603,-0.08633333333333333,0.13666666666666666,-0.03333333333333144,-0.07499999999999574,1.5494999999999999,1.5414999999999999,39.197,31.061,39.289,36.2335,55.974999999999994,37.28,60.2465,53.835,53.897,36.054,58.7805,52.116,53.024,35.7325,58.6315,51.50566666666667,-0.12450000000000006,-0.03849999999999998,0.10655,0.110865,0.0,219.73000000000002,219.73000000000002,216.51333333333332,216.51333333333332,0.0,0.0
36,0.0,0.0,0.0,1.0,1.0,0.0,0.0,1.0,0.0,100.0,1.0,1.1856,26.0,0.0,0.0,0.0,59.999996,0.0,26.0,26.0,26.0,26.0,0.013555555555555543,0.2721,0.037525,290.543,-2.7845,-2.639222222222222,-1.5935000000000001,-1.5329000000000002,-153.3,215.785,190.167625,0.0,0.0,0.0,0.0,0.07273333333333332,-5.498166666666667,-5.498166666666667,-0.6787000000000001,0.33066666666666666,-0.020375000000000032,-0.03200000000000003,70.33500000000001,0.0222,-0.21745,-0.08799999999999919,100.0,1.0,1.0,216.67666666666668,0.0,0.0,0.0,0.0,0.0,0.0,0.0,9184.2,0.0,55.0,5.0,253.18,0.0,0.0,0.0,0.0,0.0,0.0,1.0,0.0,1.8030000000000008,1.8030000000000008,0.0,0.0,0.0,55.0,616.79921,10000.0,85.000001,85.000001,85.000001,85.000001,395.0,0.0,0.0,0.0,1.0,166.665,50.491,50.491,46.295,46.295,34.0,-24.322499999999998,26.438333333333333,-30.166666666666664,33.91,0.0,1780.979,-0.4499999999999993,100.0,29.178,28.716,43.635,44.324,0.0,0.0,100.0,0.0,0.0,0.0,0.0,3310.4285714285716,3202.6,4377.75,4576.3,304.8865,303.3156666666667,314.2345,313.653,22.1205,17.8162,22.1359,21.6462,314.999998,314.999998,324.999988,324.999988,99.55935714285714,99.50735,99.5701,99.55065714285715,0.1293333333333333,-0.0086666666666666,-0.081,0.1375,-0.030000000000001137,-0.060000000000002274,1.441,1.443,39.253,31.1015,39.349000000000004,36.2885,55.967,37.327,60.28,53.891999999999996,53.89,36.0965,58.8115,52.171,53.015,35.774,58.6595,51.56,-0.11699999999999999,-0.046499999999999986,0.107355,0.10290500000000001,0.0,220.14,220.135,216.67666666666668,216.67666666666668,0.0,0.0
