,ABS Active,ABS Enabled,AID Allow Tire Blankets,AID Auto Blip,AID Auto Clutch,AID Auto Shift,AID Fuel Rate,AID Ideal Line,AID Mech Damage,AID Stability,AID Tire Wear Rate,Air Density,Air Temp,Ballast,Best Lap Delta,Best Lap Time,Brake Bias,Brake Pos,Brake Temp FL,Brake Temp FR,Brake Temp RL,Brake Temp RR,CG Accel Lateral,CG Accel Longitudinal,CG Accel Vertical,CG Height,Camber FL,Camber FR,Camber RL,Camber RR,Car Coord X,Car Coord Y,Car Coord Z,Car Damage Front,Car Damage Left,Car Damage Rear,Car Damage Right,Car Pos Norm,Caster FL,Caster FR,Chassis Pitch Angle,Chassis Pitch Rate,Chassis Roll Angle,Chassis Roll Rate,Chassis Velocity X,Chassis Velocity Y,Chassis Velocity Z,Chassis Yaw Rate,Clutch Pos,DRS Active,DRS Available,Drive Train Speed,ERS Heat Charging,ERS Is Charging,ERS Max Energy,ERS Power Level,ERS Recovery Level,Engine Brake Setting,Engine Limiter,Engine RPM,Flags,Fuel Level,Gear,Ground Speed,HR Sample Clock,In Pit,KERS Charge,KERS Deployed Energy,KERS Input,KERS Max Energy,LR Sample Clock,Lap Invalidated,Lap Time,Lap Time2,Last Lap Time,Last Sector Time,MR Sample Clock,Max Fuel,Max Power,Max RPM,Max Sus Travel FL,Max Sus Travel FR,Max Sus Travel RL,Max Sus Travel RR,Max Torque,Max Turbo Boost,Num Tires Off Track,Penalties Enabled,Position,Raw Data Sample Rate,Ride Height FL,Ride Height FR,Ride Height RL,Ride Height RR,Road Temp,Self Align Torque FL,Self Align Torque FR,Self Align Torque RL,Self Align Torque RR,Session Lap Count,Session Time Left,Steering Angle,Surface Grip,Suspension Travel FL,Suspension Travel FR,Suspension Travel RL,Suspension Travel RR,TC Active,TC Enabled,Throttle Pos,Tire Dirt Level FL,Tire Dirt Level FR,Tire Dirt Level RL,Tire Dirt Level RR,Tire Load FL,Tire Load FR,Tire Load RL,Tire Load RR,Tire Loaded Radius FL,Tire Loaded Radius FR,Tire Loaded Radius RL,Tire Loaded Radius RR,Tire Pressure FL,Tire Pressure FR,Tire Pressure RL,Tire Pressure RR,Tire Radius FL,Tire Radius FR,Tire Radius RL,Tire Radius RR,Tire Rubber Grip FL,Tire Rubber Grip FR,Tire Rubber Grip RL,Tire Rubber Grip RR,Tire Slip Angle FL,Tire Slip Angle FR,Tire Slip Angle RL,Tire Slip Angle RR,Tire Slip Ratio FL,Tire Slip Ratio FR,Tire Slip Ratio RL,Tire Slip Ratio RR,Tire Temp Core FL,Tire Temp Core FR,Tire Temp Core RL,Tire Temp Core RR,Tire Temp Inner FL,Tire Temp Inner FR,Tire Temp Inner RL,Tire Temp Inner RR,Tire Temp Middle FL,Tire Temp Middle FR,Tire Temp Middle RL,Tire Temp Middle RR,Tire Temp Outer FL,Tire Temp Outer FR,Tire Temp Outer RL,Tire Temp Outer RR,Toe In FL,Toe In FR,Toe In RL,Toe In RR,Turbo Boost,Wheel Angular Speed FL,Wheel Angular Speed FR,Wheel Angular Speed RL,Wheel Angular Speed RR,Wind Direction,Wind Speed
0,0.0,0.0,0.0,1.0,1.0,0.0,0.0,1.0,0.0,100.0,1.0,1.1856,26.0,0.0,0.0,0.0,59.99999,0.0,26.0,26.0,26.0,26.0,-0.05688888888888888,-0.3416,0.1179,292.526,-2.6377,-2.5622,-1.4333,-1.6152000000000002,-275.76,215.9425,190.986875,0.0,0.0,0.0,0.0,0.0015333333333333865,-5.498166666666667,-5.498166666666667,-0.5499,-0.23350000000000004,-0.07944444444444443,-0.2370000000000001,65.09700000000001,-0.1411,-0.1976,1.4620000000000006,100.0,1.0,1.0,197.84,0.0,0.0,0.0,0.0,0.0,0.0,0.0,9557.9,0.0,55.0,0.0,234.39,0.0,0.0,0.0,0.0,0.0,0.0,0.0,0.0,0.0030000000000001137,0.0030000000000001137,0.0,0.0,0.0,55.0,616.79921,10000.0,85.0,85.0,85.0,85.0,395.0,0.0,0.0,0.0,1.0,20.0,50.995,50.995,48.019,48.019,34.0,-32.86,25.811666666666667,-31.046666666666663,21.895,0.0,1782.542,-0.22500000000000142,100.0,27.649,26.298000000000002,38.587,41.271,0.0,0.0,0.0,0.0,0.0,0.0,0.0,3658.714285714286,3861.9,3482.222222222222,3849.5,303.7645,302.39433333333335,310.80066666666664,315.3035,21.8014,20.4395,12.057142857142857,21.5323,314.99999,314.99999,324.99998,324.99998,99.55788571428572,99.50583333333333,99.5717,99.55572857142857,-0.0129999999999999,-0.1303333333333332,-0.25883333333333336,-0.06016666666666659,-0.030000000000001137,-0.01833333333333087,-0.04499999999999993,0.016999999999999904,37.259,28.747,45.107,35.577,56.095,33.1335,79.747,56.042500000000004,54.126999999999995,32.438,74.379,54.0565,53.400999999999996,32.079499999999996,77.8365,53.284333333333336,-0.08599999999999997,-0.0625,0.09608000000000001,0.09422000000000001,0.0,204.075,203.945,197.84,197.84,0.0,0.0
1,0.0,0.0,0.0,1.0,1.0,0.0,0.0,1.0,0.0,100.0,1.0,1.1856,26.0,0.0,0.0,0.0,59.999996,0.0,26.0,26.0,26.0,26.0,-0.12444444444444447,0.32140000000000013,0.28202,291.214,-2.5239000000000003,-2.8125,-1.41025,-1.4769,-272.24,215.945,190.96525,0.0,0.0,0.0,0.0,0.0035999999999999366,-5.498166666666667,-5.498166666666667,-0.4606,0.5435,-0.15688888888888863,-1.8639999999999999,65.179,-0.1816,-0.15157500000000002,1.306,100.0,1.0,1.0,201.2266666666667,0.0,0.0,0.0,0.0,0.0,0.0,0.0,8529.2,0.0,55.0,5.0,234.61333333333334,1.0,0.0,0.0,0.0,0.0,0.0,0.0,0.0,0.05699999999999861,0.05699999999999861,0.0,0.0,1.0,55.0,616.79921,10000.0,85.000001,85.000001,85.000001,85.000001,395.0,0.0,0.0,0.0,1.0,166.665,53.162,53.162,45.685,45.685,34.0,-27.299999999999997,15.031666666666666,-38.18,22.517500000000002,0.0,1782.489,-0.5799999999999983,100.0,28.917,27.259,39.487,42.675,0.0,0.0,100.0,0.0,0.0,0.0,0.0,3272.285714285714,2269.9,4386.888888888889,5175.700000000001,304.8905,307.4266666666667,307.204,311.95875,21.8123,20.4447,12.075142857142858,21.5429,314.999998,314.999998,324.999988,324.999988,99.55788571428572,99.50586666666666,99.57184285714285,99.55587142857142,-0.0009999999999998899,-0.14700000000000002,-0.2918333333333334,-0.08433333333333337,-0.03333333333333144,-0.03499999999999659,1.6425,1.5115,37.327,28.779333333333334,45.22,35.643,56.085,33.181,79.816,56.092,54.117000000000004,32.4815,74.441,54.1045,53.39,32.121,77.89699999999999,53.33166666666666,-0.129,-0.030000000000000027,0.09930000000000001,0.11042,0.0,204.305,204.175,201.41333333333333,201.0366666666667,0.0,0.0
2,0.0,0.0,0.0,1.0,1.0,0.0,0.0,1.0,0.0,100.0,1.0,1.1856,26.0,0.0,0.0,0.0,59.999996,0.0,26.0,26.0,26.0,26.0,-0.1426666666666666,0.27390000000000003,0.01812,292.526,-2.4846,-2.8061,-1.3784,-1.6601,-269.11,215.945,190.948,0.0,0.0,0.0,0.0,0.00539999999999996,-5.498166666666667,-5.498166666666667,-0.5094000000000001,-0.74,-0.1426666666666665,2.9370000000000003,65.312,-0.17850000000000002,-0.21330000000000002,1.0220000000000002,100.0,1.0,1.0,202.25333333333333,0.0,0.0,0.0,0.0,0.0,0.0,0.0,8572.8,0.0,55.0,5.0,235.09333333333333,0.0,0.0,0.0,0.0,0.0,0.0,0.0,0.0,0.10500000000000043,0.10500000000000043,0.0,0.0,0.0,55.0,616.79921,10000.0,85.000001,85.000001,85.000001,85.000001,395.0,0.0,0.0,0.0,1.0,333.33500000000004,52.567,52.567,47.806,47.806,34.0,-32.16,16.065,-30.686666666666664,15.7075,0.0,1782.441,-0.2049999999999983,100.0,28.947,26.569,40.317,42.541,0.0,0.0,100.0,0.0,0.0,0.0,0.0,3540.5714285714284,2584.5,3685.6666666666665,3602.6,304.075,306.56466666666665,309.708,315.94975,21.8219,20.4487,12.091285714285714,21.5521,314.999998,314.999998,324.999988,324.999988,99.55788571428572,99.50588333333333,99.572,99.556,-0.055749999999999966,-0.18266666666666675,-0.30366666666666664,-0.08299999999999996,-0.041666666666671404,-0.045000000000001705,1.845,1.917,37.387,28.804000000000002,45.321,35.701,56.075,33.2155,79.893,56.143,54.108000000000004,32.513,74.50999999999999,54.153999999999996,53.379999999999995,32.1515,77.96600000000001,53.379666666666665,-0.10649999999999993,-0.04200000000000004,0.10220000000000001,0.10682000000000001,0.0,204.62,204.54000000000002,202.25333333333333,202.25333333333333,0.0,0.0
3,0.0,0.0,0.0,1.0,1.0,0.0,0.0,1.0,0.0,100.0,1.0,1.1856,26.0,0.0,0.0,0.0,59.999996,0.0,26.0,26.0,26.0,26.0,-0.1173333333333334,0.2963,-0.10865999999999999,292.48,-2.5759,-2.7628,-1.42205,-1.5541,-265.97,215.94,190.929875,0.0,0.0,0.0,0.0,0.007233333333333314,-5.498166666666667,-5.498166666666667,-0.4877,0.8555,-0.0644444444444443,-1.677,65.45400000000001,-0.1746,-0.173325,0.8300000000000001,100.0,1.0,1.0,202.53,0.0,0.0,0.0,0.0,0.0,0.0,0.0,8584.5,0.0,55.0,5.0,235.60000000000002,1.0,0.0,0.0,0.0,0.0,0.0,0.0,0.0,0.1529999999999987,0.1529999999999987,0.0,0.0,1.0,55.0,616.79921,10000.0,85.000001,85.000001,85.000001,85.000001,395.0,0.0,0.0,0.0,1.0,333.33500000000004,53.116,53.116,46.6,46.6,34.0,-27.595,16.99833333333333,-31.276666666666664,19.075000000000003,0.0,1782.392,0.03999999999999915,100.0,28.531,26.942,39.749,42.343,0.0,0.0,100.0,0.0,0.0,0.0,0.0,3033.5714285714284,2779.7,3810.222222222222,4155.7,305.6675,305.745,309.59433333333334,314.539,21.8311,20.4532,12.106857142857143,21.5613,314.999998,314.999998,324.999988,324.999988,99.5579,99.5059,99.57214285714285,99.55617142857143,-0.05699999999999994,-0.19100000000000006,-0.27949999999999997,-0.055166666666666586,-0.07000000000000028,-0.045000000000001705,1.777,1.807,37.444,28.832333333333334,45.418,35.757999999999996,56.063,33.2595,79.957,56.2,54.096000000000004,32.553,74.56700000000001,54.2085,53.367000000000004,32.189499999999995,78.0215,53.43333333333334,-0.08499999999999996,-0.07050000000000001,0.104605,0.110975,0.0,205.11,205.04500000000002,202.53,202.53,0.0,0.0
4,0.0,0.0,0.0,1.0,1.0,0.0,0.0,1.0,0.0,100.0,1.0,1.1856,26.0,0.0,0.0,0.0,59.999996,0.0,26.0,26.0,26.0,26.0,-0.12088888888888893,0.3075000000000001,0.04848,292.236,-2.5475,-2.8957,-1.3083,-1.7067999999999999,-262.43,215.935,190.908875,0.0,0.0,0.0,0.0,0.009299999999999975,-5.498166666666667,-5.498166666666667,-0.4873,-0.629,-0.17855555555555558,-1.5510000000000002,65.613,-0.17600000000000002,-0.16645000000000001,1.2879999999999994,100.0,1.0,1.0,202.92333333333335,0.0,0.0,0.0,0.0,0.0,0.0,0.0,8601.1,0.0,55.0,5.0,236.17666666666668,0.0,0.0,0.0,0.0,0.0,0.0,0.0,0.0,0.20700000000000074,0.20700000000000074,0.0,0.0,0.0,55.0,616.79921,10000.0,85.000001,85.000001,85.000001,85.000001,395.0,0.0,0.0,0.0,1.0,166.665,53.329,53.329,46.097,46.097,34.0,-31.7825,15.94833333333333,-33.04333333333334,20.1075,0.0,1782.34,0.22500000000000142,100.0,28.359,26.32,40.336,42.448,0.0,0.0,100.0,0.0,0.0,0.0,0.0,3416.4285714285716,2533.9,4112.0,3966.0,304.59,306.68233333333336,308.335,315.019,21.8415,20.4579,12.125,21.5718,314.999998,314.999998,324.999988,324.999988,99.55791428571429,99.50591666666666,99.57231428571428,99.55632857142857,-0.06699999999999995,-0.19566666666666666,-0.2808333333333334,-0.05349999999999999,-0.05666666666667197,-0.0049999999999954525,1.7465,1.8094999999999999,37.509,28.861666666666665,45.531,35.824,56.05,33.3035,80.042,56.2635,54.083,32.5935,74.643,54.269999999999996,53.352999999999994,32.228,78.097,53.492666666666665,-0.05899999999999994,-0.08949999999999991,0.10434500000000001,0.11071,0.0,205.59,205.45,202.92333333333335,202.92333333333335,0.0,0.0
5,0.0,0.0,0.0,1.0,1.0,0.0,0.0,1.0,0.0,100.0,1.0,1.1856,26.0,0.0,0.0,0.0,59.999996,0.0,26.0,26.0,26.0,26.0,-0.13088888888888894,0.2945,-0.00966,292.343,-2.5909,-2.8364,-1.4139,-1.7101000000000002,-259.28,215.925,190.89,0.0,0.0,0.0,0.0,0.011133333333333328,-5.498166666666667,-5.498166666666667,-0.5031,-0.0030000000000001137,-0.1499999999999999,0.31299999999999994,65.75,-0.18530000000000002,-0.18245,1.388,100.0,1.0,1.0,203.42000000000002,0.0,0.0,0.0,0.0,0.0,0.0,0.0,8622.2,0.0,55.0,5.0,236.67000000000002,1.0,0.0,0.0,0.0,0.0,0.0,0.0,0.0,0.254999999999999,0.254999999999999,0.0,0.0,1.0,55.0,616.79921,10000.0,85.000001,85.000001,85.000001,85.000001,395.0,0.0,0.0,0.0,1.0,166.665,53.07,53.07,46.921,46.921,34.0,-32.067499999999995,17.105,-32.63666666666666,19.1875,0.0,1782.292,-0.02499999999999858,100.0,28.42,26.27,40.445,42.209,0.0,0.0,100.0,0.0,0.0,0.0,0.0,3417.4285714285716,2705.2,3811.777777777778,4134.7,304.536,306.11,309.52866666666665,314.64525,21.8509,20.4621,12.140857142857143,21.581,314.999998,314.999998,324.999988,324.999988,99.55791428571429,99.50593333333333,99.57245714285715,99.55648571428571,-0.06149999999999989,-0.18666666666666676,-0.3135,-0.09299999999999997,-0.060000000000002274,-0.07666666666666799,1.823,1.7785,37.568,28.887999999999998,45.631,35.881,56.042,33.343,80.114,56.317499999999995,54.076,32.629999999999995,74.708,54.3215,53.344,32.263,78.161,53.54333333333334,-0.08199999999999996,-0.0645,0.10619,0.103245,0.0,206.04000000000002,205.91500000000002,203.51,203.32666666666665,0.0,0.0
6,0.0,0.0,0.0,1.0,1.0,0.0,0.0,1.0,0.0,100.0,1.0,1.1856,26.0,0.0,0.0,0.0,59.999996,0.0,26.0,26.0,26.0,26.0,-0.12844444444444447,0.31200000000000006,-0.01346,292.419,-2.5465,-2.8851,-1.4391500000000002,-1.6665,-256.12,215.9125,190.871,0.0,0.0,0.0,0.0,0.01296666666666657,-5.498166666666667,-5.498166666666667,-0.49000000000000005,0.395,-0.1514444444444445,-1.388,65.888,-0.1981,-0.16735,1.2779999999999996,100.0,1.0,1.0,203.84,0.0,0.0,0.0,0.0,0.0,0.0,0.0,8640.0,0.0,55.0,5.0,237.17000000000002,0.0,0.0,0.0,0.0,0.0,0.0,0.0,0.0,0.3030000000000008,0.3030000000000008,0.0,0.0,0.0,55.0,616.79921,10000.0,85.000001,85.000001,85.000001,85.000001,395.0,0.0,0.0,0.0,1.0,166.665,53.421,53.421,46.524,46.524,34.0,-30.78,17.246666666666666,-33.43666666666667,19.067500000000003,0.0,1782.244,-0.26500000000000057,100.0,28.179,26.264,40.339,42.35,0.0,0.0,100.0,0.0,0.0,0.0,0.0,3356.0,2614.0,3922.222222222222,4105.0,304.741,306.28433333333334,309.181,314.70225,21.8603,20.4665,12.156714285714285,21.5903,314.999998,314.999998,324.999988,324.999988,99.55792857142858,99.50595,99.57261428571428,99.55664285714286,-0.05774999999999997,-0.17766666666666664,-0.30866666666666664,-0.08766666666666656,-0.06333333333333258,-0.046666666666666856,1.9235,1.6625,37.626999999999995,28.915333333333333,45.729,35.939,56.032,33.384,80.184,56.3735,54.066,32.667500000000004,74.771,54.3755,53.333,32.2985,78.2225,53.596000000000004,-0.09950000000000003,-0.04899999999999993,0.1058,0.114585,0.0,206.46,206.35500000000002,204.00333333333333,203.67333333333335,0.0,0.0
7,0.0,0.0,0.0,1.0,1.0,0.0,0.0,1.0,0.0,100.0,1.0,1.1856,26.0,0.0,0.0,0.0,59.999996,0.0,26.0,26.0,26.0,26.0,-0.11655555555555552,0.2904,0.03458,292.206,-2.4919000000000002,-2.9124,-1.37785,-1.7349,-252.76,215.8975,190.85075,0.0,0.0,0.0,0.0,0.014933333333333354,-5.498166666666667,-5.498166666666667,-0.48600000000000004,0.010499999999999954,-0.15711111111111142,1.115,66.036,-0.1993,-0.163575,0.8840000000000003,100.0,1.0,1.0,204.21,0.0,0.0,0.0,0.0,0.0,0.0,0.0,8655.7,0.0,55.0,5.0,237.7,1.0,0.0,0.0,0.0,0.0,0.0,0.0,0.0,0.3539999999999992,0.3539999999999992,0.0,0.0,1.0,55.0,616.79921,10000.0,85.000001,85.000001,85.000001,85.000001,395.0,0.0,0.0,0.0,1.0,166.665,53.284,53.284,46.432,46.432,34.0,-28.927500000000002,19.23833333333333,-32.86666666666666,20.775,0.0,1782.193,-0.6999999999999993,100.0,28.415,25.813,40.623000000000005,42.388,0.0,0.0,100.0,0.0,0.0,0.0,0.0,3332.285714285714,2750.4,3902.4444444444443,4206.1,304.58,306.047,309.073,314.50575,21.8703,20.471,12.173714285714286,21.6002,314.999998,314.999998,324.999988,324.999988,99.55792857142858,99.50596666666667,99.57277142857143,99.5568,-0.026249999999999885,-0.15333333333333332,-0.29833333333333334,-0.0771666666666666,-0.036666666666668846,-0.03999999999999915,1.744,1.777,37.689,28.943666666666665,45.836,36.001,56.021,33.4245,80.262,56.434,54.055,32.704499999999996,74.84,54.434,53.322,32.334,78.291,53.65233333333333,-0.13,-0.019000000000000128,0.10061500000000001,0.11173500000000001,0.0,206.88,206.8,204.21,204.21,0.0,0.0
8,0.0,0.0,0.0,1.0,1.0,0.0,0.0,1.0,0.0,100.0,1.0,1.1856,26.0,0.0,0.0,0.0,59.999996,0.0,26.0,26.0,26.0,26.0,-0.08044444444444443,0.2925,-0.00758,292.374,-2.59,-2.8282,-1.37005,-1.7131,-249.39,215.8775,190.83025,0.0,0.0,0.0,0.0,0.016899999999999915,-5.498166666666667,-5.498166666666667,-0.4907,-0.4025000000000001,-0.13488888888888884,-0.6819999999999999,66.182,-0.17930000000000001,-0.165225,0.31400000000000006,100.0,1.0,1.0,204.63333333333333,0.0,0.0,0.0,0.0,0.0,0.0,0.0,8673.6,0.0,55.0,5.0,238.2266666666667,0.0,0.0,0.0,0.0,0.0,0.0,0.0,0.0,0.40500000000000114,0.40500000000000114,0.0,0.0,0.0,55.0,616.79921,10000.0,85.000001,85.000001,85.000001,85.000001,395.0,0.0,0.0,0.0,1.0,166.665,53.818,53.818,46.051,46.051,34.0,-28.78,18.125,-31.703333333333333,22.015,0.0,1782.142,-0.6849999999999987,100.0,27.816,25.962,40.581,42.622,0.0,0.0,100.0,0.0,0.0,0.0,0.0,3248.857142857143,2700.0,3913.6666666666665,4218.2,305.0755,306.098,309.1263333333333,314.3605,21.8801,20.4756,12.190571428571428,21.6102,314.999998,314.999998,324.999988,324.999988,99.55794285714286,99.50598333333333,99.57292857142858,99.55695714285714,-0.02849999999999997,-0.15766666666666662,-0.2743333333333333,-0.05399999999999994,-0.04833333333333201,-0.045000000000001705,1.736,1.7429999999999999,37.751000000000005,28.97233333333333,45.941,36.064,56.007999999999996,33.4655,80.336,56.495,54.042,32.742,74.907,54.4925,53.308,32.3695,78.356,53.709666666666664,-0.132,-0.009000000000000119,0.10477500000000001,0.11314500000000001,0.0,207.305,207.275,204.63333333333333,204.63333333333333,0.0,0.0
9,0.0,0.0,0.0,1.0,1.0,0.0,0.0,1.0,0.0,100.0,1.0,1.1856,26.0,0.0,0.0,0.0,59.999996,0.0,26.0,26.0,26.0,26.0,-0.06999999999999995,0.2813000000000001,0.02724,292.313,-2.5116,-2.8541,-1.4219,-1.6662,-246.01,215.85750000000002,190.809625,0.0,0.0,0.0,0.0,0.01883333333333337,-5.498166666666667,-5.498166666666667,-0.49350000000000005,0.49,-0.13833333333333364,0.85,66.325,-0.1562,-0.16285,0.15399999999999991,100.0,1.0,1.0,205.16666666666669,0.0,0.0,0.0,0.0,0.0,0.0,0.0,8696.2,0.0,55.0,5.0,238.74,1.0,0.0,0.0,0.0,0.0,0.0,0.0,0.0,0.4559999999999995,0.4559999999999995,0.0,0.0,1.0,55.0,616.79921,10000.0,85.000001,85.000001,85.000001,85.000001,395.0,0.0,0.0,0.0,1.0,166.665,53.146,53.146,46.89,46.89,34.0,-28.1675,20.57,-29.886666666666663,22.900000000000002,0.0,1782.091,-0.7800000000000011,100.0,28.257,26.006,40.403999999999996,42.438,0.0,0.0,100.0,0.0,0.0,0.0,0.0,3364.714285714286,2825.7,3794.5555555555557,4211.4,304.5015,305.8446666666667,309.58866666666665,314.5475,21.8901,20.4803,12.207428571428572,21.6201,314.999998,314.999998,324.999988,324.999988,99.55794285714286,99.506,99.57308571428571,99.55712857142858,0.0015000000000000568,-0.1213333333333333,-0.249,-0.018000000000000016,-0.03166666666666629,-0.04999999999999716,1.791,1.7885,37.813,29.002000000000002,46.046,36.125,55.995000000000005,33.5075,80.406,56.5545,54.031,32.7805,74.969,54.5495,53.295,32.4065,78.417,53.765,-0.13849999999999996,-0.00550000000000006,0.10756,0.11741000000000001,0.0,207.75,207.735,205.16666666666669,205.16666666666669,0.0,0.0
10,0.0,0.0,0.0,1.0,1.0,0.0,0.0,1.0,0.0,100.0,1.0,1.1856,26.0,0.0,0.0,0.0,59.999996,0.0,26.0,26.0,26.0,26.0,-0.027555555555555555,0.28869999999999996,0.02332,292.191,-2.5699,-2.8519,-1.38215,-1.6678000000000002,-242.82,215.835,190.790125,0.0,0.0,0.0,0.0,0.02069999999999994,-5.498166666666667,-5.498166666666667,-0.47390000000000004,-0.16700000000000004,-0.11355555555555563,1.5670000000000002,66.464,-0.1351,-0.14752500000000002,-0.14999999999999947,100.0,1.0,1.0,205.42333333333335,0.0,0.0,0.0,0.0,0.0,0.0,0.0,8707.2,0.0,55.0,5.0,239.24,0.0,0.0,0.0,0.0,0.0,0.0,1.0,0.0,0.5040000000000013,0.5040000000000013,0.0,0.0,0.0,55.0,616.79921,10000.0,85.000001,85.000001,85.000001,85.000001,395.0,0.0,0.0,0.0,1.0,333.33500000000004,53.955,53.955,45.837,45.837,34.0,-25.09,19.81833333333333,-29.583333333333336,25.3575,0.0,1782.041,-0.875,100.0,28.13,25.897,40.535,42.884,0.0,0.0,100.0,0.0,0.0,0.0,0.0,3078.857142857143,2705.5,3979.5555555555557,4421.4,305.3935,306.264,308.77433333333335,314.00825,21.8994,20.4847,12.22342857142857,21.6295,314.999998,314.999998,324.999988,324.999988,99.55794285714286,99.50601666666667,99.57322857142857,99.55728571428571,0.020500000000000185,-0.11199999999999988,-0.21050000000000002,-0.0050000000000000044,-0.023333333333326323,-0.046666666666666856,1.721,1.7195,37.870999999999995,29.029,46.146,36.185,55.983000000000004,33.5445,80.475,56.614,54.019,32.814499999999995,75.031,54.6065,53.283,32.4385,78.478,53.821,-0.14749999999999996,0.0020000000000000018,0.10204500000000001,0.10908500000000002,0.0,208.17000000000002,208.175,205.42333333333335,205.42333333333335,0.0,0.0
11,0.0,0.0,0.0,1.0,1.0,0.0,0.0,1.0,0.0,100.0,1.0,1.1856,26.0,0.0,0.0,0.0,59.999996,0.0,26.0,26.0,26.0,26.0,-0.008777777777777773,0.27790000000000004,-0.060360000000000004,292.633,-2.59,-2.8211,-1.4479,-1.6516000000000002,-239.43,215.8125,190.7695,0.0,0.0,0.0,0.0,0.022599999999999953,-5.498166666666667,-5.498166666666667,-0.5087,-0.5235000000000001,-0.08311111111111114,0.028000000000000025,66.605,-0.1114,-0.17950000000000002,-0.22799999999999976,100.0,1.0,1.0,206.05,0.0,0.0,0.0,0.0,0.0,0.0,0.0,8733.6,0.0,55.0,5.0,239.75,1.0,0.0,0.0,0.0,0.0,0.0,1.0,0.0,0.5549999999999997,0.5549999999999997,0.0,0.0,1.0,55.0,616.79921,10000.0,85.000001,85.000001,85.000001,85.000001,395.0,0.0,0.0,0.0,1.0,333.33500000000004,53.558,53.558,46.982,46.982,34.0,-26.622500000000002,20.89666666666667,-27.263333333333335,23.255,0.0,1781.991,-0.8999999999999986,100.0,27.644,26.188,40.337,43.028,0.0,0.0,100.0,0.0,0.0,0.0,0.0,3287.857142857143,2794.5,3684.0,4040.8,304.959,305.79766666666666,310.07533333333333,314.8665,21.9091,20.4894,12.240142857142857,21.639499999999998,314.999998,314.999998,324.999988,324.999988,99.55794285714286,99.50603333333333,99.5734,99.55745714285715,0.029749999999999943,-0.10266666666666668,-0.20833333333333337,0.014833333333333476,-0.046666666666666856,-0.045000000000001705,1.8165,1.8125,37.932,29.058666666666667,46.251000000000005,36.247,55.969,33.584,80.544,56.673500000000004,54.004999999999995,32.8505,75.093,54.664500000000004,53.268,32.473,78.538,53.87733333333333,-0.15100000000000002,0.0014999999999999458,0.10633000000000001,0.11035,0.0,208.59,208.59,206.05,206.05,0.0,0.0
12,0.0,0.0,0.0,1.0,1.0,0.0,0.0,1.0,0.0,100.0,1.0,1.1856,26.0,0.0,0.0,0.0,59.999996,0.0,26.0,26.0,26.0,26.0,0.0050000000000001155,0.2974000000000001,0.0027600000000000003,292.267,-2.6244,-2.7968,-1.43235,-1.6534,-236.03,215.7875,190.748,0.0,0.0,0.0,0.0,0.025466666666666526,-5.498166666666667,-5.498166666666667,-0.5042,0.4345,-0.07644444444444431,0.45999999999999996,66.749,-0.09140000000000001,-0.15725,-0.39399999999999924,100.0,1.0,1.0,206.44333333333333,0.0,0.0,0.0,0.0,0.0,0.0,0.0,8750.3,0.0,55.0,5.0,240.26666666666665,0.0,0.0,0.0,0.0,0.0,0.0,1.0,0.0,0.6059999999999981,0.6059999999999981,0.0,0.0,0.0,55.0,616.79921,10000.0,85.000001,85.000001,85.000001,85.000001,395.0,0.0,0.0,0.0,1.0,166.665,53.329,53.329,46.356,46.356,34.0,-24.97,23.11333333333333,-26.73,26.962500000000002,0.0,1781.94,-0.8649999999999984,100.0,27.785,26.38,40.11,42.877,0.0,0.0,100.0,0.0,0.0,0.0,0.0,3182.0,2955.2,3817.0,4279.8,305.087,305.45233333333334,309.57866666666666,314.38525,21.9188,20.4943,12.256857142857143,21.6495,314.999998,314.999998,324.999988,324.999988,99.55795714285715,99.50603333333333,99.57354285714285,99.55761428571428,0.05750000000000011,-0.07233333333333314,-0.1735,0.05166666666666675,-0.041666666666671404,-0.051666666666669414,1.7895,1.772,37.992000000000004,29.089333333333336,46.355000000000004,36.309,55.955,33.6245,80.609,56.7335,53.992000000000004,32.888,75.151,54.7225,53.254000000000005,32.5085,78.594,53.93366666666667,-0.14449999999999996,0.0,0.10695,0.11621500000000001,0.0,209.055,209.065,206.44333333333333,206.44333333333333,0.0,0.0
13,0.0,0.0,0.0,1.0,1.0,0.0,0.0,1.0,0.0,100.0,1.0,1.1856,26.0,0.0,0.0,0.0,59.999996,0.0,26.0,26.0,26.0,26.0,0.02066666666666661,0.2965,0.0317,291.718,-2.5862,-2.8061,-1.448,-1.6606,-232.62,215.765,190.72625,0.0,0.0,0.0,0.0,0.026633333333333398,-5.498166666666667,-5.498166666666667,-0.4878,0.006000000000000005,-0.09511111111111115,-0.6930000000000001,66.893,-0.0771,-0.1491,-0.34799999999999986,100.0,1.0,1.0,206.74,0.0,0.0,0.0,0.0,0.0,0.0,0.0,8763.0,0.0,55.0,5.0,240.7866666666667,1.0,0.0,0.0,0.0,0.0,0.0,1.0,0.0,0.657,0.657,0.0,0.0,1.0,55.0,616.79921,10000.0,85.000001,85.000001,85.000001,85.000001,395.0,0.0,0.0,0.0,1.0,166.665,53.177,53.177,45.715,45.715,34.0,-25.975,21.733333333333334,-29.116666666666664,27.9225,0.0,1781.89,-0.8900000000000006,100.0,27.941,26.607,40.269,43.459,0.0,0.0,100.0,0.0,0.0,0.0,0.0,3325.0,2776.4,4032.0,4402.5,304.819,305.84,308.77933333333334,313.98225,21.9285,20.4992,12.273714285714286,21.6596,314.999998,314.999998,324.999988,324.999988,99.55797142857143,99.50605,99.5737,99.5578,0.051750000000000185,-0.07333333333333325,-0.17616666666666658,0.042333333333333334,-0.05333333333332746,-0.060000000000002274,1.711,1.7045,38.053,29.119666666666667,46.461,36.373,55.944,33.664,80.681,56.7965,53.980999999999995,32.924,75.215,54.783,53.242000000000004,32.543,78.6565,53.993,-0.14600000000000002,0.0024999999999999467,0.10130000000000002,0.10272,0.0,209.51,209.53,206.74,206.74,0.0,0.0
14,0.0,0.0,0.0,1.0,1.0,0.0,0.0,1.0,0.0,100.0,1.0,1.1856,26.0,0.0,0.0,0.0,59.999996,0.0,26.0,26.0,26.0,26.0,0.03133333333333321,0.28290000000000015,0.009540000000000002,291.763,-2.6151,-2.7508,-1.45485,-1.6360999999999999,-229.4,215.7425,190.706125,0.0,0.0,0.0,0.0,0.02849999999999997,-5.498166666666667,-5.498166666666667,-0.5025000000000001,-0.3494999999999999,-0.06811111111111146,0.28500000000000003,67.027,-0.0663,-0.17297500000000002,-0.44200000000000017,100.0,1.0,1.0,207.21333333333334,0.0,0.0,0.0,0.0,0.0,0.0,0.0,8783.1,0.0,55.0,5.0,241.26666666666665,0.0,0.0,0.0,0.0,0.0,0.0,1.0,0.0,0.7049999999999983,0.7049999999999983,0.0,0.0,0.0,55.0,616.79921,10000.0,85.000001,85.000001,85.000001,85.000001,395.0,0.0,0.0,0.0,1.0,166.665,52.917,52.917,45.882999999999996,45.882999999999996,34.0,-25.375,22.821666666666665,-26.939999999999998,26.55,0.0,1781.842,-0.9100000000000001,100.0,28.048000000000002,26.801000000000002,40.515,43.781,0.0,0.0,100.0,0.0,0.0,0.0,0.0,3274.142857142857,2911.5,3848.5555555555557,4258.6,304.994,305.4506666666667,309.44166666666666,314.35475,21.9377,20.5038,12.289714285714286,21.6691,314.999998,314.999998,324.999988,324.999988,99.55797142857143,99.50605,99.57384285714286,99.55794285714286,0.06050000000000022,-0.06433333333333313,-0.16349999999999998,0.04733333333333323,-0.041666666666671404,-0.03499999999999659,1.762,1.7465,38.11,29.148333333333333,46.561,36.432,55.934,33.7005,80.747,56.8545,53.971000000000004,32.957,75.275,54.839,53.230000000000004,32.575,78.714,54.047666666666665,-0.14949999999999997,0.006000000000000005,0.09770000000000001,0.09795500000000001,0.0,209.89499999999998,209.9,207.21333333333334,207.21333333333334,0.0,0.0
15,0.0,0.0,0.0,1.0,1.0,0.0,0.0,1.0,0.0,100.0,1.0,1.1856,26.0,0.0,0.0,0.0,59.999996,0.0,26.0,26.0,26.0,26.0,0.0474444444444444,0.2784,0.00634,291.794,-2.6224,-2.7029,-1.488,-1.5737,-225.98,215.72,190.68475,0.0,0.0,0.0,0.0,0.03049999999999997,-5.498166666666667,-5.498166666666667,-0.5006,0.32999999999999996,-0.032444444444444276,0.817,67.167,-0.0539,-0.16337500000000002,-0.5599999999999996,100.0,1.0,1.0,207.68666666666667,0.0,0.0,0.0,0.0,0.0,0.0,0.0,8803.1,0.0,55.0,5.0,241.76999999999998,1.0,0.0,0.0,0.0,0.0,0.0,1.0,0.0,0.7560000000000002,0.7560000000000002,0.0,0.0,1.0,55.0,616.79921,10000.0,85.000001,85.000001,85.000001,85.000001,395.0,0.0,0.0,0.0,1.0,166.665,52.963,52.963,46.051,46.051,34.0,-22.87,23.553333333333335,-25.34,29.5575,0.0,1781.791,-0.8099999999999987,100.0,28.195,26.936,40.353,43.754,0.0,0.0,100.0,0.0,0.0,0.0,0.0,3046.285714285714,3028.2,3747.3333333333335,4473.3,305.489,305.213,309.85566666666665,313.9365,21.9473,20.5088,12.306285714285714,21.6792,314.999998,314.999998,324.999988,324.999988,99.55798571428572,99.50605,99.574,99.55811428571428,0.07825000000000015,-0.058666666666666645,-0.14583333333333337,0.08466666666666667,-0.05333333333332746,-0.054999999999999716,1.8775,1.6705,38.171,29.18,46.664,36.495,55.922,33.7405,80.812,56.9155,53.96,32.994,75.332,54.8975,53.218,32.61,78.7695,54.105000000000004,-0.14349999999999996,-0.008499999999999952,0.10962500000000001,0.112225,0.0,210.35000000000002,210.375,207.81666666666666,207.55666666666667,0.0,0.0
16,0.0,0.0,0.0,1.0,1.0,0.0,0.0,1.0,0.0,100.0,1.0,1.1856,26.0,0.0,0.0,0.0,59.999996,0.0,26.0,26.0,26.0,26.0,0.05122222222222228,0.2832000000000001,-0.006200000000000001,291.763,-2.6734999999999998,-2.7249,-1.4466,-1.6480000000000001,-222.55,215.6975,190.662875,0.0,0.0,0.0,0.0,0.03246666666666653,-5.498166666666667,-5.498166666666667,-0.5066,-0.498,-0.06266666666666643,-1.447,67.309,-0.049600000000000005,-0.16185000000000002,-0.3959999999999999,100.0,1.0,1.0,208.05666666666667,0.0,0.0,0.0,0.0,0.0,0.0,0.0,8818.8,0.0,55.0,5.0,242.28333333333336,0.0,0.0,0.0,0.0,0.0,0.0,1.0,0.0,0.8069999999999986,0.8069999999999986,0.0,0.0,0.0,55.0,616.79921,10000.0,85.000001,85.000001,85.000001,85.000001,395.0,0.0,0.0,0.0,1.0,166.665,53.177,53.177,45.532,45.532,34.0,-25.4375,22.6,-26.276666666666664,28.6475,0.0,1781.739,-0.7100000000000009,100.0,27.669,26.946,40.453,43.959,0.0,0.0,100.0,0.0,0.0,0.0,0.0,3266.4285714285716,2883.3,3920.0,4264.0,305.129,305.5253333333333,309.2576666666667,314.278,21.956699999999998,20.5137,12.323142857142857,21.6893,314.999998,314.999998,324.999988,324.999988,99.55798571428572,99.50606666666667,99.57415714285715,99.55828571428572,0.06725000000000003,-0.058333333333333126,-0.13883333333333336,0.08000000000000007,-0.046666666666666856,-0.045000000000001705,1.734,1.7285,38.230000000000004,29.21066666666667,46.769999999999996,36.558,55.908,33.778999999999996,80.881,56.9765,53.946,33.0295,75.394,54.957,53.204,32.644,78.8295,54.163,-0.13349999999999995,-0.013500000000000068,0.09872,0.104275,0.0,210.765,210.785,208.05666666666667,208.05666666666667,0.0,0.0
17,0.0,0.0,0.0,1.0,1.0,0.0,0.0,1.0,0.0,100.0,1.0,1.1856,26.0,0.0,0.0,0.0,59.999996,0.0,26.0,26.0,26.0,26.0,0.047666666666666746,0.28490000000000015,-0.02266,291.702,-2.6412,-2.7024,-1.4955500000000002,-1.6034000000000002,-219.32,215.68,190.642,0.0,0.0,0.0,0.0,0.034366666666666545,-5.498166666666667,-5.498166666666667,-0.5069,0.242,-0.07577777777777772,-0.7,67.44,-0.0512,-0.157925,-0.3279999999999994,100.0,1.0,1.0,208.49666666666667,0.0,0.0,0.0,0.0,0.0,0.0,0.0,8837.4,0.0,55.0,5.0,242.75333333333333,1.0,0.0,0.0,0.0,0.0,0.0,1.0,0.0,0.8550000000000004,0.8550000000000004,0.0,0.0,1.0,55.0,616.79921,10000.0,85.000001,85.000001,85.000001,85.000001,395.0,0.0,0.0,0.0,1.0,166.665,52.933,52.933,45.853,45.853,34.0,-25.4,22.00333333333333,-27.403333333333336,27.82,0.0,1781.692,-0.6849999999999987,100.0,28.037,27.076999999999998,40.370000000000005,43.838,0.0,0.0,100.0,0.0,0.0,0.0,0.0,3305.714285714286,2859.8,3925.6666666666665,4299.2,304.968,305.6236666666667,309.3546666666667,314.29875,21.9658,20.5185,12.338857142857142,21.6988,314.999998,314.999998,324.999988,324.999988,99.558,99.50606666666667,99.5743,99.55844285714285,0.07025000000000015,-0.06299999999999994,-0.15116666666666656,0.07450000000000001,-0.04333333333332945,-0.041666666666671404,1.7530000000000001,1.7455,38.286,29.240666666666666,46.867999999999995,36.617,55.897999999999996,33.8165,80.943,57.033,53.936,33.064,75.45,55.0115,53.193,32.677,78.8835,54.216,-0.13549999999999995,-0.01649999999999996,0.10484,0.10874,0.0,211.185,211.2,208.49666666666667,208.49666666666667,0.0,0.0
18,0.0,0.0,0.0,1.0,1.0,0.0,0.0,1.0,0.0,100.0,1.0,1.1856,26.0,0.0,0.0,0.0,59.999996,0.0,26.0,26.0,26.0,26.0,0.02200000000000002,0.27690000000000015,-0.007,291.55,-2.6477,-2.7,-1.4871,-1.5678,-215.88,215.66,190.61975,0.0,0.0,0.0,0.0,0.03636666666666655,-5.498166666666667,-5.498166666666667,-0.5123,-0.4335,-0.07111111111111157,0.863,67.58,-0.053000000000000005,-0.1636,-0.24399999999999977,100.0,1.0,1.0,208.87666666666667,0.0,0.0,0.0,0.0,0.0,0.0,0.0,8853.5,0.0,55.0,5.0,243.26,0.0,0.0,0.0,0.0,0.0,0.0,1.0,0.0,0.9059999999999988,0.9059999999999988,0.0,0.0,0.0,55.0,616.79921,10000.0,85.000001,85.000001,85.000001,85.000001,395.0,0.0,0.0,0.0,1.0,166.665,52.872,52.872,45.563,45.563,34.0,-24.98,23.465,-26.773333333333333,28.2375,0.0,1781.641,-0.634999999999998,100.0,28.094,26.814,40.664,43.949,0.0,0.0,100.0,0.0,0.0,0.0,0.0,3236.142857142857,3043.6,3901.6666666666665,4382.9,305.036,305.31033333333335,309.3163333333333,314.169,21.9753,20.5234,12.355857142857143,21.7089,314.999998,314.999998,324.999988,324.999988,99.558,99.50608333333334,99.57445714285714,99.55861428571428,0.07100000000000017,-0.05966666666666676,-0.1413333333333333,0.08050000000000002,-0.054999999999999716,-0.051666666666669414,1.7445,1.7355,38.346000000000004,29.27166666666667,46.974000000000004,36.681,55.885999999999996,33.8555,81.012,57.095,53.925,33.1,75.512,55.071,53.18,32.7115,78.943,54.27466666666667,-0.13049999999999995,-0.025500000000000078,0.104135,0.10763500000000001,0.0,211.61,211.61,208.87666666666667,208.87666666666667,0.0,0.0
19,0.0,0.0,0.0,1.0,1.0,0.0,0.0,1.0,0.0,100.0,1.0,1.1856,26.0,0.0,0.0,0.0,59.999996,0.0,26.0,26.0,26.0,26.0,0.02822222222222215,0.2865,0.04414,291.061,-2.5729,-2.6822,-1.5079,-1.5487000000000002,-212.42000000000002,215.64249999999998,190.59725,0.0,0.0,0.0,0.0,0.03836666666666655,-5.498166666666667,-5.498166666666667,-0.5111,0.6785,-0.062333333333333574,-0.32099999999999995,67.718,-0.0585,-0.16337500000000002,-0.18599999999999994,100.0,1.0,1.0,209.32333333333332,0.0,0.0,0.0,0.0,0.0,0.0,0.0,8872.4,0.0,55.0,5.0,243.75333333333333,1.0,0.0,0.0,0.0,0.0,0.0,1.0,0.0,0.9570000000000007,0.9570000000000007,0.0,0.0,1.0,55.0,616.79921,10000.0,85.000001,85.000001,85.000001,85.000001,395.0,0.0,0.0,0.0,1.0,166.665,51.971000000000004,51.971000000000004,45.501999999999995,45.501999999999995,34.0,-25.9125,23.93,-28.113333333333333,27.2025,0.0,1781.589,-0.6999999999999993,100.0,28.514,27.423000000000002,40.513999999999996,43.99,0.0,0.0,100.0,0.0,0.0,0.0,0.0,3375.0,3079.3,3949.6666666666665,4459.2,304.601,304.88933333333335,309.32233333333335,313.97625,21.985,20.5286,12.372571428571428,21.719,314.999998,314.999998,324.999988,324.999988,99.55802857142857,99.50608333333334,99.57461428571429,99.55878571428572,0.0625,-0.06133333333333324,-0.15849999999999997,0.05683333333333329,-0.05333333333332746,-0.046666666666666856,1.749,1.7469999999999999,38.406,29.303666666666665,47.078,36.744,55.876000000000005,33.8965,81.077,57.155,53.915,33.1375,75.57,55.1295,53.169,32.7475,78.999,54.33133333333333,-0.13449999999999995,-0.013000000000000123,0.10244,0.10155,0.0,212.075,212.065,209.32333333333332,209.32333333333332,0.0,0.0
20,0.0,0.0,0.0,1.0,1.0,0.0,0.0,1.0,0.0,100.0,1.0,1.1856,26.0,0.0,0.0,0.0,59.999996,0.0,26.0,26.0,26.0,26.0,0.026111111111111196,0.28380000000000005,0.04024,291.214,-2.6579,-2.7582,-1.42255,-1.6789,-208.97,215.625,190.574875,0.0,0.0,0.0,0.0,0.04036666666666655,-5.498166666666667,-5.498166666666667,-0.5022,-0.7410000000000001,-0.06955555555555559,0.19799999999999995,67.85900000000001,-0.063,-0.15807500000000002,-0.28799999999999937,100.0,1.0,1.0,209.5966666666667,0.0,0.0,0.0,0.0,0.0,0.0,0.0,8884.0,0.0,55.0,5.0,244.26333333333332,0.0,0.0,0.0,0.0,0.0,0.0,0.0,0.0,1.0079999999999991,1.0079999999999991,0.0,0.0,0.0,55.0,616.79921,10000.0,85.000001,85.000001,85.000001,85.000001,395.0,0.0,0.0,0.0,1.0,166.665,53.101,53.101,44.693,44.693,34.0,-23.7675,22.756666666666668,-27.803333333333335,30.5125,0.0,1781.538,-0.6799999999999997,100.0,28.249,27.016,41.04,44.415,0.0,0.0,100.0,0.0,0.0,0.0,0.0,3087.0,2906.2,4000.3333333333335,4495.2,305.4775,305.63033333333334,308.80033333333336,313.72975,21.9944,20.5336,12.38957142857143,21.7293,314.999998,314.999998,324.999988,324.999988,99.55802857142857,99.5061,99.57477142857142,99.55895714285714,0.07074999999999987,-0.062000000000000055,-0.15516666666666656,0.06583333333333319,-0.03499999999999659,-0.051666666666669414,1.6675,1.6655,38.465,29.334666666666664,47.185,36.808,55.863,33.9355,81.148,57.218,53.902,33.1735,75.634,55.1905,53.155,32.782,79.0615,54.391,-0.132,-0.020499999999999963,0.110795,0.10496000000000001,0.0,212.45499999999998,212.47500000000002,209.5966666666667,209.5966666666667,0.0,0.0
21,0.0,0.0,0.0,1.0,1.0,0.0,0.0,1.0,0.0,100.0,1.0,1.1856,26.0,0.0,0.0,0.0,59.999996,0.0,26.0,26.0,26.0,26.0,0.02499999999999991,0.2552000000000001,-0.047420000000000004,291.702,-2.6314,-2.8085,-1.5030999999999999,-1.633,-205.70999999999998,215.60750000000002,190.553625,0.0,0.0,0.0,0.0,0.042266666666666564,-5.498166666666667,-5.498166666666667,-0.5316000000000001,-0.13949999999999996,-0.07577777777777772,0.933,67.985,-0.067,-0.177425,-0.21200000000000063,100.0,1.0,1.0,210.23333333333335,0.0,0.0,0.0,0.0,0.0,0.0,0.0,8911.0,0.0,55.0,5.0,244.71666666666667,1.0,0.0,0.0,0.0,0.0,0.0,0.0,0.0,1.056000000000001,1.056000000000001,0.0,0.0,1.0,55.0,616.79921,10000.0,85.000001,85.000001,85.000001,85.000001,395.0,0.0,0.0,0.0,1.0,166.665,52.795,52.795,46.112,46.112,34.0,-24.7625,23.36333333333333,-26.733333333333334,27.087500000000002,0.0,1781.491,-0.7199999999999989,100.0,28.402,26.992,40.864000000000004,44.085,0.0,0.0,100.0,0.0,0.0,0.0,0.0,3214.857142857143,2946.6,3764.777777777778,4162.1,305.0575,305.48566666666665,309.90133333333335,314.67775,22.0034,20.5383,12.405285714285714,21.7387,314.999998,314.999998,324.999988,324.999988,99.55804285714285,99.5061,99.57491428571429,99.55911428571429,0.06974999999999998,-0.06733333333333325,-0.16300000000000003,0.07600000000000007,-0.036666666666668846,-0.061666666666667425,1.7785,1.7685,38.521,29.364333333333335,47.283,36.867,55.852000000000004,33.973,81.209,57.272,53.891,33.208,75.688,55.2425,53.143,32.814499999999995,79.1135,54.44166666666666,-0.13649999999999995,-0.020000000000000018,0.10435000000000001,0.11868000000000001,0.0,212.85500000000002,212.865,210.23333333333335,210.23333333333335,0.0,0.0
22,0.0,0.0,0.0,1.0,1.0,0.0,0.0,1.0,0.0,100.0,1.0,1.1856,26.0,0.0,0.0,0.0,59.999996,0.0,26.0,26.0,26.0,26.0,0.040999999999999925,0.27900000000000014,-0.018000000000000002,291.321,-2.5699,-2.8007,-1.49525,-1.6118999999999999,-202.24,215.5925,190.530125,0.0,0.0,0.0,0.0,0.044300000000000006,-5.498166666666667,-5.498166666666667,-0.5153,0.43399999999999994,-0.06811111111111146,-0.7650000000000001,68.123,-0.06960000000000001,-0.149375,-0.22799999999999976,100.0,1.0,1.0,210.5366666666667,0.0,0.0,0.0,0.0,0.0,0.0,0.0,8923.9,0.0,55.0,5.0,245.21333333333334,0.0,0.0,0.0,0.0,0.0,0.0,0.0,0.0,1.1069999999999993,1.1069999999999993,0.0,0.0,0.0,55.0,616.79921,10000.0,85.000001,85.000001,85.000001,85.000001,395.0,0.0,0.0,0.0,1.0,166.665,52.75,52.75,45.150999999999996,45.150999999999996,34.0,-24.0475,22.453333333333333,-28.4,27.535,0.0,1781.44,-0.8099999999999987,100.0,28.326,27.407,40.771,44.227000000000004,0.0,0.0,100.0,0.0,0.0,0.0,0.0,3201.0,2849.2,3977.6666666666665,4386.0,305.218,305.568,309.22333333333336,314.1365,22.012999999999998,20.5434,12.422,21.7488,314.999998,314.999998,324.999988,324.999988,99.55805714285714,99.50611666666667,99.57508571428572,99.55928571428572,0.06674999999999986,-0.07299999999999995,-0.16083333333333338,0.05333333333333323,-0.054999999999999716,-0.046666666666666856,1.733,1.7215,38.581,29.396333333333335,47.387,36.93,55.84,34.0135,81.274,57.332499999999996,53.879999999999995,33.2455,75.746,55.301,53.131,32.8505,79.17,54.498666666666665,-0.14649999999999996,-0.012499999999999956,0.10186,0.10694500000000001,0.0,213.315,213.32,210.5366666666667,210.5366666666667,0.0,0.0
23,0.0,0.0,0.0,1.0,1.0,0.0,0.0,1.0,0.0,100.0,1.0,1.1856,26.0,0.0,0.0,0.0,59.999996,0.0,26.0,26.0,26.0,26.0,0.039111111111111097,0.26859999999999995,-0.0123,291.122,-2.5926,-2.7634,-1.41465,-1.6914,-198.95999999999998,215.5775,190.508,0.0,0.0,0.0,0.0,0.04619999999999991,-5.498166666666667,-5.498166666666667,-0.5207,-0.45799999999999996,-0.0818888888888889,-0.96,68.252,-0.068,-0.162525,-0.25,100.0,1.0,1.0,210.88,0.0,0.0,0.0,0.0,0.0,0.0,0.0,8938.5,0.0,55.0,5.0,245.68,1.0,0.0,0.0,0.0,0.0,0.0,0.0,0.0,1.1550000000000011,1.1550000000000011,0.0,0.0,1.0,55.0,616.79921,10000.0,85.000001,85.000001,85.000001,85.000001,395.0,0.0,0.0,0.0,1.0,166.665,52.551,52.551,45.257999999999996,45.257999999999996,34.0,-26.095,22.2,-27.466666666666665,28.295,0.0,1781.392,-0.7300000000000004,100.0,28.309,27.315,41.052,44.569,0.0,0.0,100.0,0.0,0.0,0.0,0.0,3405.5714285714284,2853.5,3944.0,4307.4,304.7355,305.60633333333334,309.2183333333333,314.2075,22.0219,20.5482,12.437999999999999,21.7584,314.999998,314.999998,324.999988,324.999988,99.55805714285714,99.50611666666667,99.57522857142857,99.55944285714286,0.06325000000000003,-0.07133333333333325,-0.16516666666666657,0.05283333333333329,-0.04833333333333201,-0.045000000000001705,1.71,1.702,38.637,29.426000000000002,47.486999999999995,36.99,55.83,34.051,81.34,57.391,53.870000000000005,33.2795,75.805,55.3575,53.119,32.882999999999996,79.2265,54.554,-0.14249999999999996,-0.013500000000000068,0.10587,0.102925,0.0,213.685,213.69,210.88,210.88,0.0,0.0
24,0.0,0.0,0.0,1.0,1.0,0.0,0.0,1.0,0.0,100.0,1.0,1.1856,26.0,0.0,0.0,0.0,59.999996,0.0,26.0,26.0,26.0,26.0,0.02344444444444438,0.2633000000000001,-0.041080000000000005,291.473,-2.6222,-2.7641999999999998,-1.46645,-1.6209,-195.48000000000002,215.5625,190.4845,0.0,0.0,0.0,0.0,0.04823333333333335,-5.498166666666667,-5.498166666666667,-0.5371,-0.3520000000000001,-0.05677777777777804,1.329,68.387,-0.0654,-0.16975,-0.3360000000000003,100.0,1.0,1.0,211.35666666666668,0.0,0.0,0.0,0.0,0.0,0.0,0.0,8958.7,0.0,55.0,5.0,246.16333333333336,0.0,0.0,0.0,0.0,0.0,0.0,0.0,0.0,1.2059999999999995,1.2059999999999995,0.0,0.0,0.0,55.0,616.79921,10000.0,85.000001,85.000001,85.000001,85.000001,395.0,0.0,0.0,0.0,1.0,166.665,53.009,53.009,45.516999999999996,45.516999999999996,34.0,-23.509999999999998,22.799999999999997,-27.08,27.725,0.0,1781.34,-0.7399999999999984,100.0,28.448999999999998,26.976,41.048,44.355000000000004,0.0,0.0,100.0,0.0,0.0,0.0,0.0,3097.142857142857,2911.8,3900.6666666666665,4327.0,305.34,305.629,309.481,314.30425,22.0315,20.5532,12.454714285714285,21.7685,314.999998,314.999998,324.999988,324.999988,99.55807142857142,99.50613333333334,99.57538571428572,99.55962857142858,0.07500000000000018,-0.06333333333333324,-0.15449999999999997,0.06466666666666687,-0.03499999999999659,-0.06333333333333258,1.7475,1.7435,38.697,29.457333333333334,47.592,37.053,55.818,34.09,81.405,57.4505,53.858999999999995,33.3155,75.863,55.415,53.107,32.917500000000004,79.2825,54.61,-0.14400000000000002,-0.011500000000000066,0.10203500000000001,0.10902500000000001,0.0,214.095,214.125,211.35666666666668,211.35666666666668,0.0,0.0
25,0.0,0.0,0.0,1.0,1.0,0.0,0.0,1.0,0.0,100.0,1.0,1.1856,26.0,0.0,0.0,0.0,59.999996,0.0,26.0,26.0,26.0,26.0,0.027888888888888852,0.2703,-0.06702000000000001,291.626,-2.6695,-2.7229,-1.488,-1.6203,-192.19,215.55,190.461125,0.0,0.0,0.0,0.0,0.05013333333333336,-5.498166666666667,-5.498166666666667,-0.5594,-0.3055000000000001,-0.049666666666666526,0.31699999999999995,68.513,-0.062,-0.1681,-0.4039999999999999,100.0,1.0,1.0,211.81,0.0,0.0,0.0,0.0,0.0,0.0,0.0,8977.9,0.0,55.0,5.0,246.62,1.0,0.0,0.0,0.0,0.0,0.0,0.0,0.0,1.2540000000000013,1.2540000000000013,0.0,0.0,1.0,55.0,616.79921,10000.0,85.000001,85.000001,85.000001,85.000001,395.0,0.0,0.0,0.0,1.0,166.665,52.856,52.856,45.685,45.685,34.0,-24.955,24.086666666666666,-26.056666666666665,27.1525,0.0,1781.292,-0.7399999999999984,100.0,28.124,27.057000000000002,40.891,44.18,0.0,0.0,100.0,0.0,0.0,0.0,0.0,3197.714285714286,3072.6,3774.6666666666665,4216.9,305.255,305.163,309.872,314.57075,22.0402,20.558,12.470428571428572,21.7779,314.999998,314.999998,324.999988,324.999988,99.55807142857142,99.50615,99.57552857142858,99.55978571428571,0.06674999999999986,-0.058333333333333126,-0.1486666666666666,0.07200000000000006,-0.05833333333333002,-0.046666666666666856,1.7695,1.7635,38.751000000000005,29.487333333333332,47.69,37.112,55.805,34.1275,81.463,57.5055,53.846000000000004,33.35,75.916,55.468,53.094,32.9505,79.3325,54.66166666666666,-0.13649999999999995,-0.013000000000000123,0.102635,0.10479000000000001,0.0,214.47500000000002,214.495,211.81,211.81,0.0,0.0
26,0.0,0.0,0.0,1.0,1.0,0.0,0.0,1.0,0.0,100.0,1.0,1.1856,26.0,0.0,0.0,0.0,59.999996,0.0,26.0,26.0,26.0,26.0,0.0387777777777778,0.2811000000000001,0.04478,290.497,-2.6009,-2.8157,-1.50975,-1.6085,-188.7,215.5375,190.4355,0.0,0.0,0.0,0.0,0.052166666666666583,-5.498166666666667,-5.498166666666667,-0.5343,0.8734999999999999,-0.0685555555555557,-1.104,68.649,-0.0589,-0.142825,-0.3279999999999994,100.0,1.0,1.0,212.07333333333332,0.0,0.0,0.0,0.0,0.0,0.0,0.0,8989.1,0.0,55.0,5.0,247.10666666666668,0.0,0.0,0.0,0.0,0.0,0.0,0.0,0.0,1.3049999999999997,1.3049999999999997,0.0,0.0,0.0,55.0,616.79921,10000.0,85.000001,85.000001,85.000001,85.000001,395.0,0.0,0.0,0.0,1.0,333.33500000000004,51.743,51.743,44.708,44.708,34.0,-25.9125,23.78333333333333,-30.183333333333334,29.9575,0.0,1781.24,-0.7300000000000004,100.0,28.826,27.861,40.837,44.397,0.0,0.0,100.0,0.0,0.0,0.0,0.0,3412.5714285714284,2968.0,4131.555555555556,4546.7,304.575,305.09433333333334,308.796,313.7405,22.0499,20.563299999999998,12.487142857142857,21.7881,314.999998,314.999998,324.999988,324.999988,99.55808571428571,99.50615,99.57568571428571,99.55995714285714,0.07450000000000001,-0.07366666666666677,-0.16516666666666657,0.07066666666666666,-0.04999999999999716,-0.041666666666671404,1.6925,1.674,38.812,29.520666666666664,47.795,37.176,55.796,34.1695,81.528,57.566,53.837,33.3885,75.974,55.527,53.084,32.9875,79.3885,54.719,-0.14600000000000002,-0.020000000000000018,0.11046,0.11155000000000001,0.0,214.95,214.96,212.07333333333332,212.07333333333332,0.0,0.0
27,0.0,0.0,0.0,1.0,1.0,0.0,0.0,1.0,0.0,100.0,1.0,1.1856,26.0,0.0,0.0,0.0,59.999996,0.0,26.0,26.0,26.0,26.0,0.05544444444444441,0.2661,0.03586,290.375,-2.6082,-2.7646,-1.46525,-1.7149,-185.39999999999998,215.525,190.41225,0.0,0.0,0.0,0.0,0.054066666666666596,-5.498166666666667,-5.498166666666667,-0.5355,-0.879,-0.07522222222222208,-0.823,68.777,-0.061000000000000006,-0.1661,-0.274,100.0,1.0,1.0,212.36333333333334,0.0,0.0,0.0,0.0,0.0,0.0,0.0,9001.3,0.0,55.0,5.0,247.57,1.0,0.0,0.0,0.0,0.0,0.0,0.0,0.0,1.352999999999998,1.352999999999998,0.0,0.0,1.0,55.0,616.79921,10000.0,85.000001,85.000001,85.000001,85.000001,395.0,0.0,0.0,0.0,1.0,333.33500000000004,52.261,52.261,44.083,44.083,34.0,-24.8125,22.883333333333333,-29.166666666666664,30.712500000000002,0.0,1781.192,-0.7899999999999991,100.0,28.697,27.7,41.616,45.199,0.0,0.0,100.0,0.0,0.0,0.0,0.0,3301.142857142857,2907.5,4121.888888888889,4455.9,304.9205,305.5133333333333,308.59366666666665,313.783,22.058799999999998,20.5681,12.503285714285713,21.7979,314.999998,314.999998,324.999988,324.999988,99.5581,99.50615,99.57584285714286,99.56012857142858,0.07825000000000015,-0.06433333333333313,-0.15266666666666662,0.0621666666666667,-0.05333333333332746,-0.045000000000001705,1.665,1.647,38.867000000000004,29.550666666666665,47.896,37.237,55.786,34.2065,81.598,57.626,53.827,33.423,76.036,55.585,53.072,33.019999999999996,79.4485,54.775333333333336,-0.14800000000000002,-0.008000000000000007,0.10382000000000001,0.111725,0.0,215.3,215.3,212.36333333333334,212.36333333333334,0.0,0.0
28,0.0,0.0,0.0,1.0,1.0,0.0,0.0,1.0,0.0,100.0,1.0,1.1856,26.0,0.0,0.0,0.0,59.999996,0.0,26.0,26.0,26.0,26.0,0.0341111111111112,0.26439999999999997,-0.05198,291.031,-2.6354,-2.7475,-1.48035,-1.639,-181.89,215.515,190.3875,0.0,0.0,0.0,0.0,0.05613333333333337,-5.498166666666667,-5.498166666666667,-0.5678000000000001,0.08799999999999997,-0.06266666666666643,0.782,68.906,-0.0631,-0.185775,-0.36600000000000055,100.0,1.0,1.0,213.0366666666667,0.0,0.0,0.0,0.0,0.0,0.0,0.0,9029.8,0.0,55.0,5.0,248.03333333333336,0.0,0.0,0.0,0.0,0.0,0.0,0.0,0.0,1.404,1.404,0.0,0.0,0.0,55.0,616.79921,10000.0,85.000001,85.000001,85.000001,85.000001,395.0,0.0,0.0,0.0,1.0,166.665,51.956,51.956,45.624,45.624,34.0,-24.8075,24.583333333333336,-25.439999999999998,27.0575,0.0,1781.143,-0.8949999999999996,100.0,28.875,27.701999999999998,41.378,44.67,0.0,0.0,100.0,0.0,0.0,0.0,0.0,3269.5714285714284,3072.8,3710.5555555555557,4204.0,304.8805,305.07866666666666,310.1533333333333,314.608,22.0682,20.5733,12.519857142857143,21.808,314.999998,314.999998,324.999988,324.999988,99.5581,99.50616666666667,99.576,99.56028571428571,0.08174999999999999,-0.05400000000000005,-0.14983333333333337,0.06866666666666688,-0.051666666666669414,-0.045000000000001705,1.7895,1.7845,38.926,29.583333333333336,48.0,37.3,55.775,34.2475,81.658,57.683,53.817,33.460499999999996,76.09,55.64,53.061,33.056,79.5005,54.829,-0.14749999999999996,-0.009000000000000119,0.10559,0.10477500000000001,0.0,215.715,215.73000000000002,213.0366666666667,213.0366666666667,0.0,0.0
29,0.0,0.0,0.0,1.0,1.0,0.0,0.0,1.0,0.0,100.0,1.0,1.1856,26.0,0.0,0.0,0.0,59.999996,0.0,26.0,26.0,26.0,26.0,0.05188888888888887,0.2643,-0.01776,290.695,-2.5807,-2.7076000000000002,-1.49455,-1.6421000000000001,-178.37,215.505,190.361375,0.0,0.0,0.0,0.0,0.05816666666666659,-5.498166666666667,-5.498166666666667,-0.5544,-0.15100000000000002,-0.07866666666666644,-1.2800000000000002,69.041,-0.057600000000000005,-0.14880000000000002,-0.46999999999999975,100.0,1.0,1.0,213.25666666666666,0.0,0.0,0.0,0.0,0.0,0.0,0.0,9039.1,0.0,55.0,5.0,248.51999999999998,1.0,0.0,0.0,0.0,0.0,0.0,0.0,0.0,1.4549999999999983,1.4549999999999983,0.0,0.0,1.0,55.0,616.79921,10000.0,85.000001,85.000001,85.000001,85.000001,395.0,0.0,0.0,0.0,1.0,333.33500000000004,52.429,52.429,44.342,44.342,34.0,-24.1275,23.101666666666667,-28.863333333333333,29.5975,0.0,1781.09,-0.8299999999999983,100.0,28.459,27.62,41.271,44.8,0.0,0.0,100.0,0.0,0.0,0.0,0.0,3260.857142857143,2965.0,4100.333333333333,4426.3,305.0575,305.344,308.8503333333333,313.993,22.0775,20.5785,12.536571428571428,21.8181,314.999998,314.999998,324.999988,324.999988,99.55811428571428,99.50616666666667,99.57615714285714,99.56047142857143,0.07925000000000004,-0.06000000000000005,-0.14700000000000002,0.07266666666666666,-0.04333333333332945,-0.04833333333333201,1.7015,1.6935,38.983999999999995,29.615333333333332,48.104,37.363,55.763,34.286500000000004,81.723,57.7435,53.805,33.4965,76.148,55.698499999999996,53.048,33.0905,79.5555,54.885999999999996,-0.14649999999999996,-0.006000000000000005,0.10713,0.10379000000000001,0.0,216.12,216.16,213.25666666666666,213.25666666666666,0.0,0.0
30,0.0,0.0,0.0,1.0,1.0,0.0,0.0,1.0,0.0,100.0,1.0,1.1856,26.0,0.0,0.0,0.0,59.999996,0.0,26.0,26.0,26.0,26.0,0.053444444444444406,0.26839999999999997,0.04442,290.161,-2.6278,-2.8434,-1.43655,-1.6976,-174.84,215.4975,190.334875,0.0,0.0,0.0,0.0,0.06023333333333336,-5.498166666666667,-5.498166666666667,-0.5645,0.17799999999999994,-0.08055555555555571,0.981,69.173,-0.053200000000000004,-0.164725,-0.5499999999999998,100.0,1.0,1.0,213.68,0.0,0.0,0.0,0.0,0.0,0.0,0.0,9057.1,0.0,55.0,5.0,248.99666666666667,0.0,0.0,0.0,0.0,0.0,0.0,1.0,0.0,1.5060000000000002,1.5060000000000002,0.0,0.0,0.0,55.0,616.79921,10000.0,85.000001,85.000001,85.000001,85.000001,395.0,0.0,0.0,0.0,1.0,166.665,51.178,51.178,44.769,44.769,34.0,-26.475,26.841666666666665,-26.486666666666665,30.7925,0.0,1781.04,-0.870000000000001,100.0,29.215,27.887,41.507,44.891999999999996,0.0,0.0,100.0,0.0,0.0,0.0,0.0,3493.4285714285716,3237.0,3914.0,4446.0,304.3285,304.6793333333333,309.34766666666667,313.94125,22.087,20.5838,12.553428571428572,21.8284,314.999998,314.999998,324.999988,324.999988,99.55812857142857,99.50618333333334,99.57631428571429,99.56064285714285,0.08375000000000021,-0.05499999999999994,-0.1423333333333333,0.07566666666666677,-0.03333333333333144,-0.06499999999999773,1.713,1.687,39.044,29.648333333333333,48.209,37.427,55.754000000000005,34.3275,81.788,57.8035,53.796,33.534,76.207,55.756,53.038,33.1265,79.6115,54.94233333333334,-0.15500000000000003,-0.013000000000000123,0.10625000000000001,0.10168,0.0,216.525,216.565,213.68,213.68,0.0,0.0
31,0.0,0.0,0.0,1.0,1.0,0.0,0.0,1.0,0.0,100.0,1.0,1.1856,26.0,0.0,0.0,0.0,59.999996,0.0,26.0,26.0,26.0,26.0,0.05655555555555569,0.2642,0.05212000000000001,289.749,-2.6851000000000003,-2.7741,-1.5223,-1.7227000000000001,-171.51999999999998,215.49,190.3105,0.0,0.0,0.0,0.0,0.062133333333333374,-5.498166666666667,-5.498166666666667,-0.5414,0.137,-0.06499999999999995,0.798,69.298,-0.055,-0.15745,-0.37600000000000033,100.0,1.0,1.0,213.93333333333334,0.0,0.0,0.0,0.0,0.0,0.0,0.0,9067.9,0.0,55.0,5.0,249.44333333333333,1.0,0.0,0.0,0.0,0.0,0.0,1.0,0.0,1.5539999999999985,1.5539999999999985,0.0,0.0,1.0,55.0,616.79921,10000.0,85.000001,85.000001,85.000001,85.000001,395.0,0.0,0.0,0.0,1.0,333.33500000000004,51.559,51.559,43.472,43.472,34.0,-23.7575,24.763333333333335,-29.34,34.9975,0.0,1780.991,-0.9450000000000003,100.0,29.443,28.313,41.808,45.344,0.0,0.0,100.0,0.0,0.0,0.0,0.0,3173.4285714285716,3059.2,4179.444444444444,4803.1,305.1325,305.0853333333333,308.53,313.245,22.0959,20.5888,12.56942857142857,21.8381,314.999998,314.999998,324.999988,324.999988,99.55814285714285,99.50618333333334,99.57647142857142,99.5608,0.09825000000000017,-0.05400000000000005,-0.1316666666666666,0.08783333333333321,-0.05666666666667197,-0.04333333333332945,1.6505,1.6325,39.1,29.68,48.309,37.488,55.745000000000005,34.3675,81.853,57.862,53.788,33.570499999999996,76.265,55.813,53.028,33.161,79.6675,54.99733333333333,-0.15200000000000002,-0.01200000000000001,0.10303000000000001,0.11129000000000001,0.0,216.93,216.95499999999998,213.93333333333334,213.93333333333334,0.0,0.0
32,0.0,0.0,0.0,1.0,1.0,0.0,0.0,1.0,0.0,100.0,1.0,1.1856,26.0,0.0,0.0,0.0,59.999996,0.0,26.0,26.0,26.0,26.0,0.07188888888888889,0.2541,-0.0373,290.436,-2.637,-2.7735,-1.5452,-1.6405,-167.98000000000002,215.48250000000002,190.285375,0.0,0.0,0.0,0.0,0.06419999999999992,-5.498166666666667,-5.498166666666667,-0.5611,-0.4099999999999999,-0.09233333333333338,-1.001,69.426,-0.058600000000000006,-0.183675,-0.4379999999999997,100.0,1.0,1.0,214.50333333333333,0.0,0.0,0.0,0.0,0.0,0.0,0.0,9092.1,0.0,55.0,5.0,249.91,0.0,0.0,0.0,0.0,0.0,0.0,1.0,0.0,1.6050000000000004,1.6050000000000004,0.0,0.0,0.0,55.0,616.79921,10000.0,85.000001,85.000001,85.000001,85.000001,395.0,0.0,0.0,0.0,1.0,166.665,51.666,51.666,44.586,44.586,34.0,-24.857499999999998,23.51833333333333,-27.72,27.9875,0.0,1780.941,-0.9649999999999999,100.0,29.118,28.355,41.896,45.289,0.0,0.0,100.0,0.0,0.0,0.0,0.0,3349.285714285714,2903.1,3897.8888888888887,4231.4,304.82,305.399,309.54466666666667,314.5325,22.1052,20.5941,12.586285714285715,21.848399999999998,314.999998,314.999998,324.999988,324.999988,99.55815714285714,99.5062,99.57664285714286,99.56098571428572,0.09200000000000008,-0.05333333333333323,-0.14516666666666667,0.07533333333333325,-0.05333333333332746,-0.051666666666669414,1.7385,1.7145,39.158,29.713,48.414,37.553,55.736000000000004,34.4075,81.918,57.922,53.778,33.6075,76.32300000000001,55.871,53.016999999999996,33.1965,79.723,55.053666666666665,-0.16149999999999998,-0.0020000000000000018,0.104245,0.10565500000000001,0.0,217.305,217.32999999999998,214.50333333333333,214.50333333333333,0.0,0.0
33,0.0,0.0,0.0,1.0,1.0,0.0,0.0,1.0,0.0,100.0,1.0,1.1856,26.0,0.0,0.0,0.0,59.999996,0.0,26.0,26.0,26.0,26.0,0.06788888888888889,0.25980000000000003,-0.06042000000000001,290.71,-2.5903,-2.7565,-1.51215,-1.6714,-164.64999999999998,215.48000000000002,190.261,0.0,0.0,0.0,0.0,0.06613333333333338,-5.498166666666667,-5.498166666666667,-0.5753,-0.1705000000000001,-0.09155555555555583,-0.2490000000000001,69.548,-0.056,-0.17500000000000002,-0.492,100.0,1.0,1.0,214.91333333333333,0.0,0.0,0.0,0.0,0.0,0.0,0.0,9109.3,0.0,55.0,5.0,250.34666666666666,1.0,0.0,0.0,0.0,0.0,0.0,1.0,0.0,1.6529999999999987,1.6529999999999987,0.0,0.0,1.0,55.0,616.79921,10000.0,85.000001,85.000001,85.000001,85.000001,395.0,0.0,0.0,0.0,1.0,333.33500000000004,52.048,52.048,44.922,44.922,34.0,-23.5525,23.328333333333333,-27.65,29.1025,0.0,1780.892,-1.0,100.0,29.01,28.114,41.701,45.037,0.0,0.0,100.0,0.0,0.0,0.0,0.0,3234.0,2905.5,3882.3333333333335,4263.2,305.1335,305.48266666666666,309.734,314.40425,22.114,20.5989,12.601857142857142,21.858,314.999998,314.999998,324.999988,324.999988,99.55817142857143,99.5062,99.57678571428572,99.56114285714285,0.08975,-0.05266666666666664,-0.15733333333333333,0.08233333333333337,-0.046666666666666856,-0.045000000000001705,1.742,1.7189999999999999,39.213,29.743333333333332,48.512,37.612,55.726,34.444,81.975,57.977000000000004,53.769,33.641,76.374,55.924,53.007,33.2285,79.7715,55.105333333333334,-0.16449999999999998,-0.0004999999999999449,0.10763,0.115735,0.0,217.7,217.71,214.91333333333333,214.91333333333333,0.0,0.0
34,0.0,0.0,0.0,1.0,1.0,0.0,0.0,1.0,0.0,100.0,1.0,1.1856,26.0,0.0,0.0,0.0,59.999996,0.0,26.0,26.0,26.0,26.0,0.06000000000000005,0.25550000000000006,-0.04016,290.726,-2.6627,-2.7049,-1.52995,-1.6464,-160.89,215.475,190.23175,0.0,0.0,0.0,0.0,0.06833333333333336,-5.498166666666667,-5.498166666666667,-0.5914,-0.792,-0.07222222222222241,-0.27500000000000013,69.686,-0.050100000000000006,-0.16275,-0.4500000000000002,100.0,1.0,1.0,215.26333333333332,0.0,0.0,0.0,0.0,0.0,0.0,0.0,9124.2,0.0,55.0,5.0,250.84333333333336,0.0,0.0,0.0,0.0,0.0,0.0,1.0,0.0,1.7070000000000007,1.7070000000000007,0.0,0.0,0.0,55.0,616.79921,10000.0,85.000001,85.000001,85.000001,85.000001,395.0,0.0,0.0,0.0,1.0,166.665,52.368,52.368,45.150999999999996,45.150999999999996,34.0,-24.9325,22.281666666666666,-27.186666666666664,30.53,0.0,1780.839,-0.9100000000000001,100.0,28.707,27.807000000000002,41.578,45.164,0.0,0.0,100.0,0.0,0.0,0.0,0.0,3320.5714285714284,2839.2,3915.8888888888887,4410.2,305.018,305.7656666666667,309.619,314.018,22.1238,20.6043,12.619428571428571,21.8688,314.999998,314.999998,324.999988,324.999988,99.55818571428571,99.5062,99.57695714285714,99.56132857142858,0.08800000000000008,-0.05066666666666664,-0.13916666666666666,0.08633333333333337,-0.04333333333332945,-0.04333333333332945,1.772,1.654,39.274,29.777,48.620999999999995,37.68,55.714,34.4835,82.03999999999999,58.039500000000004,53.757,33.6775,76.432,55.9845,52.994,33.2635,79.827,55.16433333333333,-0.15549999999999997,-0.0044999999999999485,0.10378000000000001,0.11343500000000001,0.0,218.095,218.13,215.26333333333332,215.26333333333332,0.0,0.0
35,0.0,0.0,0.0,1.0,1.0,0.0,0.0,1.0,0.0,100.0,1.0,1.1856,26.0,0.0,0.0,0.0,59.999996,0.0,26.0,26.0,26.0,26.0,0.06955555555555559,0.2553000000000001,-0.057600000000000005,290.787,-2.6429,-2.6853,-1.4485000000000001,-1.5881,-157.54,215.475,190.204125,0.0,0.0,0.0,0.0,0.07026666666666659,-5.498166666666667,-5.498166666666667,-0.6345000000000001,-0.6675,-0.07122222222222208,-0.9710000000000001,69.807,-0.0465,-0.18150000000000002,-0.5520000000000005,100.0,1.0,1.0,215.70666666666668,0.0,0.0,0.0,0.0,0.0,0.0,0.0,9143.0,0.0,55.0,5.0,251.28,1.0,0.0,0.0,0.0,0.0,0.0,1.0,0.0,1.754999999999999,1.754999999999999,0.0,0.0,1.0,55.0,616.79921,10000.0,85.000001,85.000001,85.000001,85.000001,395.0,0.0,0.0,0.0,1.0,333.33500000000004,52.094,52.094,44.571,44.571,34.0,-24.505,24.47833333333333,-25.71,28.177500000000002,0.0,1780.791,-0.8299999999999983,100.0,28.408,27.972,41.457,44.879,0.0,0.0,100.0,0.0,0.0,0.0,0.0,3300.5714285714284,3089.8,3890.6666666666665,4206.8,305.073,304.88933333333335,309.55466666666666,314.603,22.1324,20.6093,12.635,21.8784,314.999998,314.999998,324.999988,324.999988,99.55818571428571,99.50621666666666,99.5771,99.5615,0.08924999999999983,-0.052000000000000046,-0.1313333333333333,0.09899999999999998,-0.05333333333332746,-0.03499999999999659,1.7725,1.7415,39.327,29.808,48.718,37.74,55.702,34.519999999999996,82.095,58.0935,53.745999999999995,33.7115,76.482,56.037,52.980999999999995,33.295500000000004,79.874,55.215,-0.15100000000000002,-0.01100000000000012,0.10579500000000001,0.11426000000000001,0.0,218.465,218.49,215.70666666666668,215.70666666666668,0.0,0.0
