,ABS Active,ABS Enabled,AID Allow Tire Blankets,AID Auto Blip,AID Auto Clutch,AID Auto Shift,AID Fuel Rate,AID Ideal Line,AID Mech Damage,AID Stability,AID Tire Wear Rate,Air Density,Air Temp,Ballast,Best Lap Delta,Best Lap Time,Brake Bias,Brake Pos,Brake Temp FL,Brake Temp FR,Brake Temp RL,Brake Temp RR,CG Accel Lateral,CG Accel Longitudinal,CG Accel Vertical,CG Height,Camber FL,Camber FR,Camber RL,Camber RR,Car Coord X,Car Coord Y,Car Coord Z,Car Damage Front,Car Damage Left,Car Damage Rear,Car Damage Right,Car Pos Norm,Caster FL,Caster FR,Chassis Pitch Angle,Chassis Pitch Rate,Chassis Roll Angle,Chassis Roll Rate,Chassis Velocity X,Chassis Velocity Y,Chassis Velocity Z,Chassis Yaw Rate,Clutch Pos,DRS Active,DRS Available,Drive Train Speed,ERS Heat Charging,ERS Is Charging,ERS Max Energy,ERS Power Level,ERS Recovery Level,Engine Brake Setting,Engine Limiter,Engine RPM,Flags,Fuel Level,Gear,Ground Speed,HR Sample Clock,In Pit,KERS Charge,KERS Deployed Energy,KERS Input,KERS Max Energy,LR Sample Clock,Lap Invalidated,Lap Time,Lap Time2,Last Lap Time,Last Sector Time,MR Sample Clock,Max Fuel,Max Power,Max RPM,Max Sus Travel FL,Max Sus Travel FR,Max Sus Travel RL,Max Sus Travel RR,Max Torque,Max Turbo Boost,Num Tires Off Track,Penalties Enabled,Position,Raw Data Sample Rate,Ride Height FL,Ride Height FR,Ride Height RL,Ride Height RR,Road Temp,Self Align Torque FL,Self Align Torque FR,Self Align Torque RL,Self Align Torque RR,Session Lap Count,Session Time Left,Steering Angle,Surface Grip,Suspension Travel FL,Suspension Travel FR,Suspension Travel RL,Suspension Travel RR,TC Active,TC Enabled,Throttle Pos,Tire Dirt Level FL,Tire Dirt Level FR,Tire Dirt Level RL,Tire Dirt Level RR,Tire Load FL,Tire Load FR,Tire Load RL,Tire Load RR,Tire Loaded Radius FL,Tire Loaded Radius FR,Tire Loaded Radius RL,Tire Loaded Radius RR,Tire Pressure FL,Tire Pressure FR,Tire Pressure RL,Tire Pressure RR,Tire Radius FL,Tire Radius FR,Tire Radius RL,Tire Radius RR,Tire Rubber Grip FL,Tire Rubber Grip FR,Tire Rubber Grip RL,Tire Rubber Grip RR,Tire Slip Angle FL,Tire Slip Angle FR,Tire Slip Angle RL,Tire Slip Angle RR,Tire Slip Ratio FL,Tire Slip Ratio FR,Tire Slip Ratio RL,Tire Slip Ratio RR,Tire Temp Core FL,Tire Temp Core FR,Tire Temp Core RL,Tire Temp Core RR,Tire Temp Inner FL,Tire Temp Inner FR,Tire Temp Inner RL,Tire Temp Inner RR,Tire Temp Middle FL,Tire Temp Middle FR,Tire Temp Middle RL,Tire Temp Middle RR,Tire Temp Outer FL,Tire Temp Outer FR,Tire Temp Outer RL,Tire Temp Outer RR,Toe In FL,Toe In FR,Toe In RL,Toe In RR,Turbo Boost,Wheel Angular Speed FL,Wheel Angular Speed FR,Wheel Angular Speed RL,Wheel Angular Speed RR,Wind Direction,Wind Speed
0,0.0,0.0,0.0,1.0,1.0,0.0,0.0,1.0,0.0,100.0,1.0,1.1856,26.0,0.0,0.0,0.0,59.99999,0.0,26.0,26.0,26.0,26.0,-0.04755555555555557,0.2896000000000001,0.1935,291.885,-2.7119,-2.66875,-1.47775,-1.566,-275.58,215.51749999999998,190.985625,0.0,0.0,0.0,0.0,0.0016333333333333755,-5.498166666666667,-5.498166666666667,-0.5761000000000001,3.309,-0.058555555555555916,-0.919,65.17,-0.13069999999999993,-0.23470000000000002,0.04800000000000004,100.0,1.0,1.0,201.76,0.0,0.0,0.0,0.0,0.0,0.0,0.0,8551.9,0.0,55.0,5.0,234.58333333333331,0.0,0.0,0.0,0.0,0.0,0.0,0.0,0.0,0.006000000000000227,0.006000000000000227,0.0,0.0,0.0,55.0,616.79921,10000.0,85.0,85.0,85.0,85.0,395.0,0.0,0.0,0.0,1.0,20.0,48.981,48.981,47.821,47.821,34.0,-33.0875,32.745,-28.21,20.7725,0.0,1782.686,-0.8399999999999999,100.0,28.58,28.307000000000002,38.463,40.324,0.0,0.0,100.0,0.0,0.0,0.0,0.0,3741.0,4354.2,3685.5555555555557,4059.9,303.3495,301.088,311.63966666666664,314.8755,21.7988,20.4539,13.701714285714285,21.4857,314.99999,314.99999,324.99998,324.99998,99.55848571428571,99.50596666666667,99.57017142857143,99.55368571428572,0.019750000000000156,-0.10066666666666668,-0.23166666666666658,-0.011499999999999955,-0.06499999999999773,-0.07833333333332604,1.812,1.812,37.242000000000004,28.837,42.885999999999996,35.286,56.28,33.409,74.485,55.1815,54.263999999999996,32.675,70.103,53.2665,53.495000000000005,32.2885,72.653,52.538,-0.15249999999999986,-0.01949999999999985,0.10233,0.10681,0.0,204.275,204.22,201.76,201.76,0.0,0.0
1,0.0,0.0,0.0,1.0,1.0,0.0,0.0,1.0,0.0,100.0,1.0,1.1856,26.0,0.0,0.0,0.0,59.999996,0.0,26.0,26.0,26.0,26.0,-0.050999999999999934,0.32889999999999997,0.18136666666666668,290.863,-2.5859,-2.7975000000000003,-1.4896500000000001,-1.4811,-272.25,215.51999999999998,190.965625,0.0,0.0,0.0,0.0,0.003566666666666607,-5.498166666666667,-5.498166666666667,-0.4203,-1.0659999999999998,-0.137,-1.134,65.333,-0.11009999999999998,-0.11027500000000001,0.32200000000000095,100.0,1.0,1.0,201.42000000000002,0.0,0.0,0.0,0.0,0.0,0.0,0.0,8537.5,0.0,55.0,5.0,235.16666666666669,1.0,0.0,0.0,0.0,0.0,0.0,0.0,0.0,0.05699999999999861,0.05699999999999861,0.0,0.0,1.0,55.0,616.79921,10000.0,85.000001,85.000001,85.000001,85.000001,395.0,0.0,0.0,0.0,1.0,333.33500000000004,54.474000000000004,54.474000000000004,44.388,44.388,34.0,-23.197499999999998,13.828333333333333,-38.29666666666667,30.9775,0.0,1782.633,-0.2049999999999983,100.0,28.481,26.941,40.771,44.303,0.0,0.0,100.0,0.0,0.0,0.0,0.0,2832.714285714286,2095.2,4738.777777777777,5547.700000000001,306.2555,308.149,307.415,310.764,21.8086,20.4583,13.717714285714285,21.496,314.999998,314.999998,324.999988,324.999988,99.55848571428571,99.50598333333333,99.57032857142858,99.55385714285714,0.007000000000000117,-0.1326666666666667,-0.1995,-0.013499999999999956,-0.015000000000000568,-0.026666666666670835,1.5185,1.3815,37.304,28.8645,42.986000000000004,35.35,56.263,33.445499999999996,74.569,55.254,54.248000000000005,32.7085,70.178,53.3365,53.479,32.321,72.72749999999999,52.60633333333333,-0.09599999999999986,-0.05500000000000016,0.10055000000000001,0.10155,0.0,204.7,204.68,201.50333333333333,201.33666666666667,0.0,0.0
2,0.0,0.0,0.0,1.0,1.0,0.0,0.0,1.0,0.0,100.0,1.0,1.1856,26.0,0.0,0.0,0.0,59.999996,0.0,26.0,26.0,26.0,26.0,-0.0885555555555555,0.28080000000000016,-0.2215,292.664,-2.5982000000000003,-2.71525,-1.5038,-1.5815,-268.72,215.5225,190.945875,0.0,0.0,0.0,0.0,0.005633333333333379,-5.498166666666667,-5.498166666666667,-0.5477000000000001,0.3205,-0.058111111111111224,3.6950000000000003,65.47800000000001,-0.09829999999999994,-0.24807500000000002,0.5739999999999998,100.0,1.0,1.0,202.93,0.0,0.0,0.0,0.0,0.0,0.0,0.0,8601.5,0.0,55.0,5.0,235.69,0.0,0.0,0.0,0.0,0.0,0.0,0.0,0.0,0.11100000000000065,0.11100000000000065,0.0,0.0,0.0,55.0,616.79921,10000.0,85.000001,85.000001,85.000001,85.000001,395.0,0.0,0.0,0.0,1.0,166.665,51.513999999999996,51.513999999999996,48.766999999999996,48.766999999999996,34.0,-30.295,20.975,-25.28,18.1625,0.0,1782.58,-0.019999999999999574,100.0,28.971,27.154,40.876,42.673,0.0,0.0,100.0,0.0,0.0,0.0,0.0,3399.714285714286,3113.4,3344.777777777778,3536.8,304.294,304.70775,312.5783333333333,316.1955,21.8194,20.4633,13.734,21.5058,314.999998,314.999998,324.999988,324.999988,99.5585,99.506,99.5705,99.55401428571429,-0.01649999999999996,-0.14466666666666672,-0.23283333333333334,0.010833333333333472,-0.05333333333332746,-0.02833333333332888,1.938,1.973,37.370999999999995,28.8955,43.087,35.411,56.251000000000005,33.4885,74.639,55.3055,54.235,32.748,70.241,53.385999999999996,53.465,32.359,72.789,52.655,-0.08349999999999991,-0.06599999999999984,0.10497000000000001,0.11006,0.0,205.115,205.055,202.93,202.93,0.0,0.0
3,0.0,0.0,0.0,1.0,1.0,0.0,0.0,1.0,0.0,100.0,1.0,1.1856,26.0,0.0,0.0,0.0,59.999996,0.0,26.0,26.0,26.0,26.0,-0.05644444444444441,0.32499999999999996,0.07446666666666667,292.191,-2.636,-2.722,-1.49,-1.5298,-265.77,215.51999999999998,190.928375,0.0,0.0,0.0,0.0,0.0073666666666665215,-5.498166666666667,-5.498166666666667,-0.47990000000000005,1.069,-0.03400000000000025,-2.459,65.616,-0.10539999999999994,-0.16140000000000002,0.5499999999999998,100.0,1.0,1.0,202.80333333333334,0.0,0.0,0.0,0.0,0.0,0.0,0.0,8596.2,0.0,55.0,5.0,236.18333333333334,1.0,0.0,0.0,0.0,0.0,0.0,0.0,0.0,0.1559999999999988,0.1559999999999988,0.0,0.0,1.0,55.0,616.79921,10000.0,85.000001,85.000001,85.000001,85.000001,395.0,0.0,0.0,0.0,1.0,166.665,53.131,53.131,46.158,46.158,34.0,-24.6475,19.028333333333332,-30.106666666666662,25.165,0.0,1782.535,0.13500000000000156,100.0,28.367,27.434,40.31,42.869,0.0,0.0,100.0,0.0,0.0,0.0,0.0,2901.857142857143,2841.3,4028.777777777778,4437.8,306.0845,305.67325,310.29066666666665,313.81625,21.828,20.4677,13.747142857142856,21.514499999999998,314.999998,314.999998,324.999988,324.999988,99.5585,99.50601666666667,99.57062857142857,99.55415714285714,-0.00374999999999992,-0.1393333333333333,-0.1878333333333334,0.022499999999999964,-0.05833333333333002,-0.051666666666669414,1.6785,1.6885,37.425,28.9235,43.17,35.466,56.236000000000004,33.53,74.69200000000001,55.3645,54.221000000000004,32.786,70.288,53.442499999999995,53.45,32.394999999999996,72.8345,52.71033333333334,-0.0674999999999999,-0.08349999999999991,0.097515,0.1111,0.0,205.615,205.57999999999998,202.80333333333334,202.80333333333334,0.0,0.0
4,0.0,0.0,0.0,1.0,1.0,0.0,0.0,1.0,0.0,100.0,1.0,1.1856,26.0,0.0,0.0,0.0,59.999996,0.0,26.0,26.0,26.0,26.0,-0.08677777777777784,0.2875000000000001,0.0993,292.236,-2.5792,-2.8443750000000003,-1.3842,-1.6892,-262.42,215.51749999999998,190.90875,0.0,0.0,0.0,0.0,0.009299999999999975,-5.498166666666667,-5.498166666666667,-0.48900000000000005,-1.1030000000000002,-0.13022222222222224,-0.247,65.765,-0.11499999999999999,-0.17677500000000002,1.0600000000000005,100.0,1.0,1.0,203.29666666666668,0.0,0.0,0.0,0.0,0.0,0.0,0.0,8616.9,0.0,55.0,5.0,236.72333333333333,0.0,0.0,0.0,0.0,0.0,0.0,0.0,0.0,0.20700000000000074,0.20700000000000074,0.0,0.0,0.0,55.0,616.79921,10000.0,85.000001,85.000001,85.000001,85.000001,395.0,0.0,0.0,0.0,1.0,333.33500000000004,53.162,53.162,46.463,46.463,34.0,-29.29,17.333333333333332,-31.919999999999998,22.759999999999998,0.0,1782.483,0.18499999999999872,100.0,28.207,26.779,41.136,42.99,0.0,0.0,100.0,0.0,0.0,0.0,0.0,3354.142857142857,2602.3,4100.222222222223,4016.0,304.765,306.536,309.93,314.8895,21.8379,20.4722,13.762857142857143,21.5242,314.999998,314.999998,324.999988,324.999988,99.5585,99.50603333333333,99.57078571428572,99.55431428571428,-0.018750000000000044,-0.15833333333333321,-0.238,-0.0076666666666665995,-0.060000000000002274,-0.03833333333332689,1.69,1.7229999999999999,37.486999999999995,28.9515,43.268,35.527,56.22,33.568,74.767,55.4245,54.206,32.821,70.355,53.5005,53.435,32.4285,72.9005,52.766666666666666,-0.0685,-0.09050000000000002,0.103745,0.10895,0.0,206.01999999999998,205.945,203.29666666666668,203.29666666666668,0.0,0.0
5,0.0,0.0,0.0,1.0,1.0,0.0,0.0,1.0,0.0,100.0,1.0,1.1856,26.0,0.0,0.0,0.0,59.999996,0.0,26.0,26.0,26.0,26.0,-0.07411111111111102,0.29059999999999997,-0.0398,292.542,-2.5941,-2.77075,-1.48025,-1.6286,-258.87,215.5125,190.887875,0.0,0.0,0.0,0.0,0.011366666666666525,-5.498166666666667,-5.498166666666667,-0.5173,0.35350000000000004,-0.07299999999999995,-0.16100000000000003,65.918,-0.13629999999999998,-0.20367500000000002,0.9820000000000002,100.0,1.0,1.0,203.93666666666667,0.0,0.0,0.0,0.0,0.0,0.0,0.0,8644.1,0.0,55.0,5.0,237.27666666666667,1.0,0.0,0.0,0.0,0.0,0.0,0.0,0.0,0.26099999999999923,0.26099999999999923,0.0,0.0,1.0,55.0,616.79921,10000.0,85.000001,85.000001,85.000001,85.000001,395.0,0.0,0.0,0.0,1.0,166.665,52.689,52.689,47.455,47.455,34.0,-28.4625,19.251666666666665,-29.813333333333333,21.064999999999998,0.0,1782.431,-0.120000000000001,100.0,28.271,27.007,40.872,42.553,0.0,0.0,100.0,0.0,0.0,0.0,0.0,3245.5714285714284,2887.1,3684.6666666666665,4091.0,304.9995,305.42775,311.505,314.75475,21.8485,20.4773,13.778857142857143,21.534399999999998,314.999998,314.999998,324.999988,324.999988,99.55851428571428,99.50605,99.57094285714285,99.55448571428572,-0.018750000000000044,-0.15599999999999992,-0.2586666666666666,-0.028000000000000025,-0.06666666666666998,-0.041666666666671404,1.744,1.8075,37.553,28.983,43.367999999999995,35.59,56.207,33.6135,74.833,55.4865,54.193,32.8625,70.41499999999999,53.56,53.421,32.4685,72.9585,52.825,-0.08949999999999991,-0.06700000000000017,0.11198500000000002,0.11680000000000001,0.0,206.54500000000002,206.45,203.93666666666667,203.93666666666667,0.0,0.0
6,0.0,0.0,0.0,1.0,1.0,0.0,0.0,1.0,0.0,100.0,1.0,1.1856,26.0,0.0,0.0,0.0,59.999996,0.0,26.0,26.0,26.0,26.0,-0.0982222222222221,0.29400000000000004,0.02926666666666667,292.557,-2.6039,-2.84675,-1.3992499999999999,-1.6377,-255.7,215.5075,190.86875,0.0,0.0,0.0,0.0,0.01319999999999999,-5.498166666666667,-5.498166666666667,-0.4968,0.058499999999999996,-0.11877777777777787,-1.501,66.05799999999999,-0.14149999999999996,-0.16815000000000002,0.7999999999999998,100.0,1.0,1.0,204.21,0.0,0.0,0.0,0.0,0.0,0.0,0.0,8655.7,0.0,55.0,5.0,237.78,0.0,0.0,0.0,0.0,0.0,0.0,0.0,0.0,0.30900000000000105,0.30900000000000105,0.0,0.0,0.0,55.0,616.79921,10000.0,85.000001,85.000001,85.000001,85.000001,395.0,0.0,0.0,0.0,1.0,166.665,53.574,53.574,46.844,46.844,34.0,-29.627499999999998,17.258333333333333,-31.956666666666663,21.7325,0.0,1782.383,-0.18499999999999872,100.0,27.963,26.571,40.808,42.559,0.0,0.0,100.0,0.0,0.0,0.0,0.0,3298.857142857143,2562.6,4048.222222222222,4131.7,304.9595,306.51825,310.2026666666667,314.62725,21.8577,20.4817,13.793285714285714,21.5436,314.999998,314.999998,324.999988,324.999988,99.55851428571428,99.50606666666667,99.57108571428572,99.55464285714285,-0.034499999999999975,-0.15599999999999992,-0.247,-0.028000000000000025,-0.04833333333333201,-0.046666666666666856,1.704,1.734,37.611000000000004,29.011,43.458,35.647,56.192,33.6525,74.895,55.545,54.179,32.8985,70.47,53.6165,53.406,32.5025,73.012,52.879666666666665,-0.08549999999999991,-0.0625,0.11002,0.10486000000000001,0.0,206.95499999999998,206.89,204.21,204.21,0.0,0.0
7,0.0,0.0,0.0,1.0,1.0,0.0,0.0,1.0,0.0,100.0,1.0,1.1856,26.0,0.0,0.0,0.0,59.999996,0.0,26.0,26.0,26.0,26.0,-0.06377777777777782,0.2892000000000001,0.0095,292.419,-2.5459,-2.851125,-1.45245,-1.6874,-252.52,215.4975,190.849375,0.0,0.0,0.0,0.0,0.015066666666666562,-5.498166666666667,-5.498166666666667,-0.4983,-0.02499999999999991,-0.10977777777777797,0.129,66.196,-0.14529999999999998,-0.173325,0.6820000000000004,100.0,1.0,1.0,204.63666666666666,0.0,0.0,0.0,0.0,0.0,0.0,0.0,8673.8,0.0,55.0,5.0,238.27666666666667,1.0,0.0,0.0,0.0,0.0,0.0,0.0,0.0,0.3569999999999993,0.3569999999999993,0.0,0.0,1.0,55.0,616.79921,10000.0,85.000001,85.000001,85.000001,85.000001,395.0,0.0,0.0,0.0,1.0,166.665,53.238,53.238,46.753,46.753,34.0,-27.8825,19.13,-32.52333333333333,22.08,0.0,1782.335,-0.5500000000000007,100.0,28.115,26.511,41.013,42.578,0.0,0.0,100.0,0.0,0.0,0.0,0.0,3308.285714285714,2709.1,4007.0,4112.7,304.8605,306.037,310.377,314.65025,21.8672,20.4861,13.807714285714285,21.5527,314.999998,314.999998,324.999988,324.999988,99.55851428571428,99.50608333333334,99.57124285714286,99.55478571428571,-0.0029999999999998916,-0.1383333333333332,-0.25249999999999995,-0.03283333333333338,-0.06666666666666998,-0.03499999999999659,1.6995,1.7315,37.67,29.0385,43.548,35.705,56.18,33.69,74.959,55.601,54.168,32.933,70.528,53.670500000000004,53.394,32.5355,73.0685,52.93266666666666,-0.11999999999999988,-0.03149999999999986,0.100815,0.11054000000000001,0.0,207.39499999999998,207.3,204.63666666666666,204.63666666666666,0.0,0.0
8,0.0,0.0,0.0,1.0,1.0,0.0,0.0,1.0,0.0,100.0,1.0,1.1856,26.0,0.0,0.0,0.0,59.999996,0.0,26.0,26.0,26.0,26.0,-0.06222222222222218,0.27659999999999996,-0.005633333333333334,292.557,-2.6308,-2.77925,-1.4721,-1.6726,-249.14,215.4875,190.829,0.0,0.0,0.0,0.0,0.017033333333333345,-5.498166666666667,-5.498166666666667,-0.5061,-0.12549999999999994,-0.08999999999999986,0.15900000000000003,66.342,-0.135,-0.187175,0.21399999999999952,100.0,1.0,1.0,205.10000000000002,0.0,0.0,0.0,0.0,0.0,0.0,0.0,8693.5,0.0,55.0,5.0,238.8,0.0,0.0,0.0,0.0,0.0,0.0,0.0,0.0,0.40800000000000125,0.40800000000000125,0.0,0.0,0.0,55.0,616.79921,10000.0,85.000001,85.000001,85.000001,85.000001,395.0,0.0,0.0,0.0,1.0,166.665,53.284,53.284,46.783,46.783,34.0,-26.465,20.781666666666666,-29.953333333333333,23.3675,0.0,1782.284,-0.620000000000001,100.0,27.99,26.495,41.057,42.635,0.0,0.0,100.0,0.0,0.0,0.0,0.0,3120.857142857143,2927.1,3842.6666666666665,4136.5,305.264,305.5235,310.887,314.641,21.877,20.491,13.823,21.5626,314.999998,314.999998,324.999988,324.999988,99.55851428571428,99.50608333333334,99.57138571428571,99.55495714285715,0.010499999999999954,-0.12199999999999989,-0.22650000000000003,-0.0050000000000000044,-0.03333333333333144,-0.05333333333332746,1.7355,1.7495,37.730999999999995,29.069,43.644,35.766,56.165,33.732,75.024,55.6635,54.153,32.9715,70.586,53.730000000000004,53.378,32.572,73.1255,52.991,-0.12549999999999994,-0.02300000000000013,0.105565,0.10521000000000001,0.0,207.79500000000002,207.775,205.10000000000002,205.1,0.0,0.0
9,0.0,0.0,0.0,1.0,1.0,0.0,0.0,1.0,0.0,100.0,1.0,1.1856,26.0,0.0,0.0,0.0,59.999996,0.0,26.0,26.0,26.0,26.0,-0.04166666666666663,0.3006,0.0019,292.496,-2.5444,-2.803875,-1.4301,-1.6367,-245.96,215.475,190.8095,0.0,0.0,0.0,0.0,0.018866666666666587,-5.498166666666667,-5.498166666666667,-0.5008,0.28049999999999997,-0.10755555555555585,0.7830000000000001,66.47800000000001,-0.1187999999999999,-0.17395000000000002,-0.04999999999999982,100.0,1.0,1.0,205.5233333333333,0.0,0.0,0.0,0.0,0.0,0.0,0.0,8711.4,0.0,55.0,5.0,239.29000000000002,1.0,0.0,0.0,0.0,0.0,0.0,0.0,0.0,0.4559999999999995,0.4559999999999995,0.0,0.0,1.0,55.0,616.79921,10000.0,85.000001,85.000001,85.000001,85.000001,395.0,0.0,0.0,0.0,1.0,333.33500000000004,53.253,53.253,46.997,46.997,34.0,-25.95,21.33,-29.003333333333337,24.25,0.0,1782.234,-0.7149999999999999,100.0,28.078,26.356,40.97,42.522999999999996,0.0,0.0,100.0,0.0,0.0,0.0,0.0,3215.5714285714284,2878.5,3877.777777777778,4214.1,304.9805,305.713,310.75666666666666,314.50975,21.8863,20.4956,13.837428571428571,21.5717,314.999998,314.999998,324.999988,324.999988,99.55851428571428,99.5061,99.57154285714286,99.5551,0.02499999999999991,-0.1016666666666668,-0.21066666666666656,0.011833333333333362,-0.030000000000001137,-0.060000000000002274,1.748,1.745,37.789,29.097,43.733999999999995,35.823,56.152,33.769999999999996,75.085,55.719,54.141,33.0065,70.641,53.784,53.364999999999995,32.6055,73.1785,53.04333333333334,-0.13149999999999995,-0.0129999999999999,0.11128500000000001,0.10953,0.0,208.215,208.22500000000002,205.5233333333333,205.5233333333333,0.0,0.0
10,0.0,0.0,0.0,1.0,1.0,0.0,0.0,1.0,0.0,100.0,1.0,1.1856,26.0,0.0,0.0,0.0,59.999996,0.0,26.0,26.0,26.0,26.0,-0.010222222222222133,0.3025,-0.0064666666666666674,292.374,-2.6072,-2.777125,-1.46835,-1.6215,-242.56,215.4625,190.78875,0.0,0.0,0.0,0.0,0.02086666666666659,-5.498166666666667,-5.498166666666667,-0.4922,-0.1885000000000001,-0.08422222222222242,0.01100000000000012,66.624,-0.10029999999999994,-0.166725,-0.13999999999999968,100.0,1.0,1.0,205.87666666666667,0.0,0.0,0.0,0.0,0.0,0.0,0.0,8726.4,0.0,55.0,5.0,239.81333333333333,0.0,0.0,0.0,0.0,0.0,0.0,1.0,0.0,0.5069999999999979,0.5069999999999979,0.0,0.0,0.0,55.0,616.79921,10000.0,85.000001,85.000001,85.000001,85.000001,395.0,0.0,0.0,0.0,1.0,333.33500000000004,53.558,53.558,46.6,46.6,34.0,-25.795,20.43333333333333,-29.956666666666663,25.7575,0.0,1782.183,-0.7800000000000011,100.0,27.802,26.409,40.977000000000004,42.984,0.0,0.0,100.0,0.0,0.0,0.0,0.0,3208.0,2764.0,3983.6666666666665,4317.9,305.186,305.9025,310.47433333333333,314.16675,21.8961,20.5003,13.852714285714285,21.5816,314.999998,314.999998,324.999988,324.999988,99.55852857142857,99.50611666666667,99.5717,99.55527142857143,0.035250000000000004,-0.09866666666666668,-0.1995,0.025500000000000078,-0.051666666666669414,-0.03166666666666629,1.7105000000000001,1.707,37.851,29.127,43.829,35.885,56.138,33.809,75.151,55.781,54.128,33.042500000000004,70.7,53.8435,53.351,32.6395,73.236,53.101333333333336,-0.14149999999999996,-0.008000000000000007,0.09880000000000001,0.11119000000000001,0.0,208.66500000000002,208.655,205.87666666666667,205.87666666666667,0.0,0.0
11,0.0,0.0,0.0,1.0,1.0,0.0,0.0,1.0,0.0,100.0,1.0,1.1856,26.0,0.0,0.0,0.0,59.999996,0.0,26.0,26.0,26.0,26.0,-0.008333333333333304,0.27970000000000006,-0.0357,292.633,-2.6172,-2.7715,-1.47935,-1.5942,-239.16,215.45,190.767875,0.0,0.0,0.0,0.0,0.022599999999999953,-5.498166666666667,-5.498166666666667,-0.5147,-0.3454999999999999,-0.053999999999999826,1.1720000000000002,66.766,-0.0824999999999999,-0.184175,-0.3879999999999999,100.0,1.0,1.0,206.42000000000002,0.0,0.0,0.0,0.0,0.0,0.0,0.0,8749.4,0.0,55.0,5.0,240.32666666666665,1.0,0.0,0.0,0.0,0.0,0.0,1.0,0.0,0.5579999999999998,0.5579999999999998,0.0,0.0,1.0,55.0,616.79921,10000.0,85.000001,85.000001,85.000001,85.000001,395.0,0.0,0.0,0.0,1.0,333.33500000000004,53.467,53.467,47.104,47.104,34.0,-24.92,22.685000000000002,-26.706666666666663,25.2125,0.0,1782.133,-0.745000000000001,100.0,27.7,26.33,40.955,43.003,0.0,0.0,100.0,0.0,0.0,0.0,0.0,3113.5714285714284,2972.0,3754.1111111111113,4191.4,305.3,305.43625,311.212,314.5685,21.9058,20.5052,13.867857142857144,21.5914,314.999998,314.999998,324.999988,324.999988,99.55852857142857,99.50613333333334,99.57184285714285,99.55542857142858,0.04225000000000012,-0.08099999999999996,-0.17099999999999993,0.044666666666666854,-0.03833333333332689,-0.04833333333333201,1.7435,1.7465,37.911,29.1575,43.924,35.946,56.123999999999995,33.848,75.213,55.842,54.114000000000004,33.0785,70.756,53.902,53.336,32.674,73.2895,53.15866666666666,-0.133,-0.00749999999999984,0.10239000000000001,0.10291000000000002,0.0,209.075,209.10000000000002,206.42000000000002,206.42000000000002,0.0,0.0
12,0.0,0.0,0.0,1.0,1.0,0.0,0.0,1.0,0.0,100.0,1.0,1.1856,26.0,0.0,0.0,0.0,59.999996,0.0,26.0,26.0,26.0,26.0,0.014333333333333309,0.29280000000000017,-0.005433333333333333,292.374,-2.6614,-2.7501249999999997,-1.4694,-1.6038999999999999,-235.75,215.435,190.746375,0.0,0.0,0.0,0.0,0.025466666666666526,-5.498166666666667,-5.498166666666667,-0.5084000000000001,0.4345,-0.04800000000000004,-0.764,66.90899999999999,-0.06689999999999996,-0.16542500000000002,-0.3979999999999997,100.0,1.0,1.0,206.82999999999998,0.0,0.0,0.0,0.0,0.0,0.0,0.0,8766.8,0.0,55.0,5.0,240.84333333333333,0.0,0.0,0.0,0.0,0.0,0.0,1.0,0.0,0.6089999999999982,0.6089999999999982,0.0,0.0,0.0,55.0,616.79921,10000.0,85.000001,85.000001,85.000001,85.000001,395.0,0.0,0.0,0.0,1.0,166.665,53.238,53.238,46.661,46.661,34.0,-26.5675,21.241666666666667,-27.36,27.205,0.0,1782.083,-0.23499999999999943,100.0,27.594,26.825,40.632,43.025,0.0,0.0,100.0,0.0,0.0,0.0,0.0,3201.4285714285716,2931.4,3907.8888888888887,4288.9,305.2145,305.35025,310.82233333333335,314.2855,21.9155,20.5102,13.883,21.6012,314.999998,314.999998,324.999988,324.999988,99.55854285714285,99.50613333333334,99.572,99.5556,0.027750000000000163,-0.1096666666666668,-0.16149999999999998,0.0621666666666667,-0.05333333333332746,-0.045000000000001705,1.7295,1.714,37.972,29.189,44.019,36.007,56.111000000000004,33.888,75.273,55.902,54.101,33.115,70.81,53.960499999999996,53.323,32.709,73.3415,53.215666666666664,-0.10250000000000004,-0.046499999999999986,0.10742000000000002,0.10701000000000001,0.0,209.555,209.575,206.82999999999998,206.82999999999998,0.0,0.0
13,0.0,0.0,0.0,1.0,1.0,0.0,0.0,1.0,0.0,100.0,1.0,1.1856,26.0,0.0,0.0,0.0,59.999996,0.0,26.0,26.0,26.0,26.0,0.041888888888888864,0.28459999999999996,0.03286666666666667,292.007,-2.6135,-2.779875,-1.4841,-1.6235,-232.34,215.4225,190.72475,0.0,0.0,0.0,0.0,0.026799999999999935,-5.498166666666667,-5.498166666666667,-0.49960000000000004,-0.1875,-0.060555555555555696,1.0060000000000002,67.053,-0.06219999999999992,-0.166375,-0.4139999999999997,100.0,1.0,1.0,207.15666666666667,0.0,0.0,0.0,0.0,0.0,0.0,0.0,8780.6,0.0,55.0,5.0,241.36333333333334,1.0,0.0,0.0,0.0,0.0,0.0,1.0,0.0,0.6600000000000001,0.6600000000000001,0.0,0.0,1.0,55.0,616.79921,10000.0,85.000001,85.000001,85.000001,85.000001,395.0,0.0,0.0,0.0,1.0,166.665,53.177,53.177,46.234,46.234,34.0,-23.2925,23.935000000000002,-27.89666666666666,29.1,0.0,1782.031,-0.8399999999999999,100.0,27.965,26.694,41.025999999999996,43.363,0.0,0.0,100.0,0.0,0.0,0.0,0.0,3132.285714285714,2948.4,3974.222222222222,4430.9,305.236,305.495,310.404,313.98925,21.9252,20.5152,13.898428571428571,21.6111,314.999998,314.999998,324.999988,324.999988,99.55854285714285,99.50615,99.57215714285714,99.55575714285715,0.08325000000000005,-0.04600000000000004,-0.14916666666666656,0.0688333333333333,-0.041666666666671404,-0.045000000000001705,1.672,1.6684999999999999,38.033,29.22,44.114999999999995,36.07,56.099000000000004,33.9275,75.338,55.9655,54.089,33.150999999999996,70.869,54.0215,53.31,32.7435,73.3985,53.275,-0.14500000000000002,-0.000500000000000167,0.10512,0.10596000000000001,0.0,209.99,209.995,207.15666666666667,207.15666666666667,0.0,0.0
14,0.0,0.0,0.0,1.0,1.0,0.0,0.0,1.0,0.0,100.0,1.0,1.1856,26.0,0.0,0.0,0.0,59.999996,0.0,26.0,26.0,26.0,26.0,0.03688888888888897,0.27780000000000005,-0.022033333333333335,292.191,-2.6328,-2.78475,-1.4845000000000002,-1.6137,-229.11,215.4125,190.70475,0.0,0.0,0.0,0.0,0.028666666666666507,-5.498166666666667,-5.498166666666667,-0.515,-0.14549999999999996,-0.04111111111111132,1.2850000000000001,67.185,-0.05259999999999998,-0.18555000000000002,-0.548,100.0,1.0,1.0,207.66333333333333,0.0,0.0,0.0,0.0,0.0,0.0,0.0,8802.1,0.0,55.0,5.0,241.84,0.0,0.0,0.0,0.0,0.0,0.0,1.0,0.0,0.7079999999999984,0.7079999999999984,0.0,0.0,0.0,55.0,616.79921,10000.0,85.000001,85.000001,85.000001,85.000001,395.0,0.0,0.0,0.0,1.0,166.665,53.024,53.024,46.646,46.646,34.0,-23.43,24.291666666666664,-25.933333333333337,27.8125,0.0,1781.984,-0.8550000000000004,100.0,28.033,26.904,41.063,43.476,0.0,0.0,100.0,0.0,0.0,0.0,0.0,3096.4285714285716,2991.7,3808.0,4245.9,305.3355,305.30475,311.035,314.43725,21.9344,20.52,13.912714285714285,21.6204,314.999998,314.999998,324.999988,324.999988,99.55855714285714,99.50615,99.5723,99.55591428571428,0.07750000000000012,-0.050000000000000044,-0.14183333333333337,0.07916666666666683,-0.046666666666666856,-0.05833333333333002,1.7429999999999999,1.7225,38.09,29.25,44.205,36.128,56.087,33.964,75.397,56.0225,54.078,33.185,70.92099999999999,54.076,53.298,32.775999999999996,73.449,53.32866666666666,-0.1419999999999999,-0.0040000000000000036,0.10744000000000001,0.10537,0.0,210.38,210.41,207.66333333333333,207.66333333333333,0.0,0.0
15,0.0,0.0,0.0,1.0,1.0,0.0,0.0,1.0,0.0,100.0,1.0,1.1856,26.0,0.0,0.0,0.0,59.999996,0.0,26.0,26.0,26.0,26.0,0.055777777777777926,0.28170000000000006,-0.0296,292.114,-2.6354,-2.7506250000000003,-1.5,-1.6261,-225.68,215.4,190.683,0.0,0.0,0.0,0.0,0.03066666666666651,-5.498166666666667,-5.498166666666667,-0.5096,0.262,-0.029777777777777903,-0.906,67.326,-0.04179999999999995,-0.17270000000000002,-0.4980000000000002,100.0,1.0,1.0,208.09333333333333,0.0,0.0,0.0,0.0,0.0,0.0,0.0,8820.4,0.0,55.0,5.0,242.34666666666666,1.0,0.0,0.0,0.0,0.0,0.0,1.0,0.0,0.7590000000000003,0.7590000000000003,0.0,0.0,1.0,55.0,616.79921,10000.0,85.000001,85.000001,85.000001,85.000001,395.0,0.0,0.0,0.0,1.0,166.665,53.009,53.009,46.494,46.494,34.0,-24.072499999999998,22.369999999999997,-26.553333333333335,28.8875,0.0,1781.932,-0.6600000000000001,100.0,27.871,27.261,40.849000000000004,43.656,0.0,0.0,100.0,0.0,0.0,0.0,0.0,3156.4285714285716,2858.6,3883.0,4244.9,305.3575,305.509,310.92,314.33825,21.944,20.5251,13.927857142857142,21.6303,314.999998,314.999998,324.999988,324.999988,99.55857142857143,99.50615,99.57244285714286,99.55607142857143,0.06999999999999984,-0.06699999999999995,-0.13916666666666666,0.09149999999999991,-0.05333333333332746,-0.03833333333332689,1.7235,1.6955,38.15,29.2815,44.299,36.189,56.075,34.004,75.457,56.084,54.066,33.2215,70.975,54.1355,53.285,32.811,73.5005,53.38666666666667,-0.13349999999999995,-0.021500000000000075,0.10874,0.11549000000000001,0.0,210.825,210.87,208.09333333333333,208.09333333333333,0.0,0.0
16,0.0,0.0,0.0,1.0,1.0,0.0,0.0,1.0,0.0,100.0,1.0,1.1856,26.0,0.0,0.0,0.0,59.999996,0.0,26.0,26.0,26.0,26.0,0.05166666666666675,0.27500000000000013,0.0038333333333333336,291.855,-2.684,-2.707125,-1.467,-1.6341,-222.45,215.39,190.662375,0.0,0.0,0.0,0.0,0.0325333333333333,-5.498166666666667,-5.498166666666667,-0.5144000000000001,-0.36349999999999993,-0.04800000000000004,-1.23,67.46000000000001,-0.03799999999999992,-0.1759,-0.3380000000000001,100.0,1.0,1.0,208.43666666666667,0.0,0.0,0.0,0.0,0.0,0.0,0.0,8834.9,0.0,55.0,5.0,242.82666666666665,0.0,0.0,0.0,0.0,0.0,0.0,1.0,0.0,0.8069999999999986,0.8069999999999986,0.0,0.0,0.0,55.0,616.79921,10000.0,85.000001,85.000001,85.000001,85.000001,395.0,0.0,0.0,0.0,1.0,166.665,52.826,52.826,45.99,45.99,34.0,-25.355,23.346666666666664,-26.72,28.615000000000002,0.0,1781.885,-0.625,100.0,27.743,27.226,41.071,43.852000000000004,0.0,0.0,100.0,0.0,0.0,0.0,0.0,3286.285714285714,2961.6,3983.3333333333335,4187.1,305.028,305.2565,310.532,314.45375,21.953,20.5298,13.942285714285713,21.6397,314.999998,314.999998,324.999988,324.999988,99.55857142857143,99.50616666666667,99.5726,99.55622857142858,0.07624999999999993,-0.05466666666666664,-0.13249999999999995,0.09166666666666679,-0.045000000000001705,-0.036666666666668846,1.702,1.6835,38.206,29.311500000000002,44.388999999999996,36.248,56.062,34.0405,75.516,56.141999999999996,54.054,33.2555,71.028,54.192,53.272,32.8435,73.5525,53.44166666666666,-0.12850000000000006,-0.02400000000000002,0.10104500000000001,0.10669000000000001,0.0,211.24,211.245,208.43666666666667,208.43666666666667,0.0,0.0
17,0.0,0.0,0.0,1.0,1.0,0.0,0.0,1.0,0.0,100.0,1.0,1.1856,26.0,0.0,0.0,0.0,59.999996,0.0,26.0,26.0,26.0,26.0,0.03744444444444439,0.2793000000000001,0.020966666666666668,291.595,-2.6542,-2.6855,-1.5016,-1.5872,-219.0,215.3825,190.64025,0.0,0.0,0.0,0.0,0.034533333333333305,-5.498166666666667,-5.498166666666667,-0.516,0.123,-0.05733333333333368,0.5529999999999999,67.599,-0.041099999999999914,-0.17525000000000002,-0.28000000000000025,100.0,1.0,1.0,208.86666666666667,0.0,0.0,0.0,0.0,0.0,0.0,0.0,8853.1,0.0,55.0,5.0,243.32666666666665,1.0,0.0,0.0,0.0,0.0,0.0,1.0,0.0,0.8580000000000005,0.8580000000000005,0.0,0.0,1.0,55.0,616.79921,10000.0,85.000001,85.000001,85.000001,85.000001,395.0,0.0,0.0,0.0,1.0,333.33500000000004,52.504999999999995,52.504999999999995,45.914,45.914,34.0,-24.895,24.193333333333335,-26.866666666666667,29.1825,0.0,1781.833,-0.5449999999999982,100.0,28.184,27.232,41.193,43.723,0.0,0.0,100.0,0.0,0.0,0.0,0.0,3227.0,3098.6,3985.5555555555557,4356.9,305.004,305.019,310.507,314.1845,21.962699999999998,20.535,13.957571428571429,21.6495,314.999998,314.999998,324.999988,324.999988,99.5586,99.50616666666667,99.57274285714286,99.5564,0.07399999999999984,-0.05466666666666664,-0.12516666666666665,0.09283333333333332,-0.03333333333333144,-0.054999999999999716,1.7045,1.693,38.266999999999996,29.344,44.485,36.31,56.05,34.081,75.578,56.2025,54.042,33.292500000000004,71.084,54.25,53.259,32.879,73.6055,53.498666666666665,-0.11999999999999988,-0.028500000000000192,0.09917000000000001,0.11610000000000001,0.0,211.66500000000002,211.695,208.86666666666667,208.86666666666667,0.0,0.0
18,0.0,0.0,0.0,1.0,1.0,0.0,0.0,1.0,0.0,100.0,1.0,1.1856,26.0,0.0,0.0,0.0,59.999996,0.0,26.0,26.0,26.0,26.0,0.02300000000000013,0.2842,0.03096666666666667,291.55,-2.5765000000000002,-2.68575,-1.452,-1.5582,-215.76,215.375,190.61925,0.0,0.0,0.0,0.0,0.03643333333333332,-5.498166666666667,-5.498166666666667,-0.5225000000000001,-0.2909999999999999,-0.06144444444444419,0.724,67.731,-0.04609999999999992,-0.17805,-0.22999999999999954,100.0,1.0,1.0,209.23333333333335,0.0,0.0,0.0,0.0,0.0,0.0,0.0,8868.7,0.0,55.0,5.0,243.8,0.0,0.0,0.0,0.0,0.0,0.0,1.0,0.0,0.9059999999999988,0.9059999999999988,0.0,0.0,0.0,55.0,616.79921,10000.0,85.000001,85.000001,85.000001,85.000001,395.0,0.0,0.0,0.0,1.0,166.665,52.551,52.551,45.760999999999996,45.760999999999996,34.0,-24.2175,24.503333333333334,-26.979999999999997,29.0675,0.0,1781.785,-0.5500000000000007,100.0,28.13,27.13,41.316,43.864000000000004,0.0,0.0,100.0,0.0,0.0,0.0,0.0,3191.857142857143,3141.8,3957.5555555555557,4412.3,305.0585,304.94975,310.47066666666666,314.05525,21.9717,20.5398,13.971857142857143,21.6589,314.999998,314.999998,324.999988,324.999988,99.5586,99.50618333333334,99.57288571428572,99.55655714285714,0.06700000000000017,-0.05466666666666664,-0.14200000000000002,0.08949999999999991,-0.045000000000001705,-0.05666666666667197,1.6905000000000001,1.6835,38.323,29.3735,44.575,36.368,56.038,34.1175,75.636,56.2605,54.03,33.326,71.136,54.306,53.245999999999995,32.911500000000004,73.656,53.553333333333335,-0.12050000000000005,-0.03200000000000003,0.10349000000000001,0.11159000000000001,0.0,212.075,212.095,209.23333333333335,209.23333333333335,0.0,0.0
19,0.0,0.0,0.0,1.0,1.0,0.0,0.0,1.0,0.0,100.0,1.0,1.1856,26.0,0.0,0.0,0.0,59.999996,0.0,26.0,26.0,26.0,26.0,0.04155555555555557,0.29200000000000004,0.04606666666666667,291.336,-2.5705999999999998,-2.782375,-1.451,-1.6776,-212.3,215.3675,190.596625,0.0,0.0,0.0,0.0,0.03843333333333332,-5.498166666666667,-5.498166666666667,-0.5188,0.5225,-0.05444444444444452,-0.663,67.869,-0.050999999999999934,-0.17555,-0.08800000000000008,100.0,1.0,1.0,209.66333333333333,0.0,0.0,0.0,0.0,0.0,0.0,0.0,8886.9,0.0,55.0,5.0,244.3,1.0,0.0,0.0,0.0,0.0,0.0,1.0,0.0,0.9570000000000007,0.9570000000000007,0.0,0.0,1.0,55.0,616.79921,10000.0,85.000001,85.000001,85.000001,85.000001,395.0,0.0,0.0,0.0,1.0,333.33500000000004,52.138999999999996,52.138999999999996,46.021,46.021,34.0,-25.305,23.008333333333333,-27.25,29.435,0.0,1781.734,-0.504999999999999,100.0,28.494,27.683,41.191,43.992000000000004,0.0,0.0,100.0,0.0,0.0,0.0,0.0,3305.714285714286,2947.9,3977.0,4366.6,304.8515,305.17225,310.5996666666667,313.988,21.9814,20.5449,13.987142857142857,21.6688,314.999998,314.999998,324.999988,324.999988,99.5586,99.50618333333334,99.57304285714285,99.55671428571429,0.06050000000000022,-0.08066666666666666,-0.14616666666666656,0.0665,-0.04999999999999716,-0.03999999999999915,1.664,1.6825,38.384,29.406,44.67,36.43,56.027,34.158500000000004,75.697,56.321,54.019999999999996,33.364,71.19,54.3645,53.233999999999995,32.9475,73.708,53.61066666666667,-0.12250000000000005,-0.03750000000000009,0.10319,0.11242,0.0,212.51999999999998,212.515,209.66333333333333,209.66333333333333,0.0,0.0
20,0.0,0.0,0.0,1.0,1.0,0.0,0.0,1.0,0.0,100.0,1.0,1.1856,26.0,0.0,0.0,0.0,59.999996,0.0,26.0,26.0,26.0,26.0,0.026222222222222147,0.2681,0.0035333333333333336,291.458,-2.6309,-2.739375,-1.4321000000000002,-1.6659,-208.82999999999998,215.36,190.57425,0.0,0.0,0.0,0.0,0.04046666666666654,-5.498166666666667,-5.498166666666667,-0.5149,-0.6460000000000001,-0.05422222222222217,0.43700000000000006,68.008,-0.05889999999999995,-0.176875,-0.10199999999999942,100.0,1.0,1.0,210.02666666666667,0.0,0.0,0.0,0.0,0.0,0.0,0.0,8902.3,0.0,55.0,5.0,244.80333333333334,0.0,0.0,0.0,0.0,0.0,0.0,0.0,0.0,1.0079999999999991,1.0079999999999991,0.0,0.0,0.0,55.0,616.79921,10000.0,85.000001,85.000001,85.000001,85.000001,395.0,0.0,0.0,0.0,1.0,333.33500000000004,52.795,52.795,45.486,45.486,34.0,-24.0275,23.003333333333334,-27.546666666666667,29.31,0.0,1781.683,-0.5399999999999991,100.0,28.294,27.267,41.664,44.297,0.0,0.0,100.0,0.0,0.0,0.0,0.0,3121.4285714285716,2967.3,3999.3333333333335,4323.0,305.316,305.423,310.34866666666665,314.16375,21.9909,20.55,14.002571428571429,21.6789,314.999998,314.999998,324.999988,324.999988,99.55861428571428,99.5062,99.5732,99.55688571428571,0.06800000000000006,-0.06666666666666665,-0.14949999999999997,0.07299999999999995,-0.036666666666668846,-0.061666666666667425,1.6604999999999999,1.6515,38.443,29.4375,44.766,36.493,56.013,34.198499999999996,75.761,56.3835,54.007,33.4005,71.248,54.425,53.22,32.9825,73.7635,53.669666666666664,-0.12250000000000005,-0.027000000000000135,0.106935,0.10701000000000001,0.0,212.93,212.94,210.02666666666667,210.02666666666667,0.0,0.0
21,0.0,0.0,0.0,1.0,1.0,0.0,0.0,1.0,0.0,100.0,1.0,1.1856,26.0,0.0,0.0,0.0,59.999996,0.0,26.0,26.0,26.0,26.0,0.011222222222222245,0.2773000000000001,-0.0584,291.87,-2.6509,-2.738,-1.48575,-1.6141,-205.57,215.35500000000002,190.553,0.0,0.0,0.0,0.0,0.04236666666666655,-5.498166666666667,-5.498166666666667,-0.5394,-0.23150000000000004,-0.058222222222222175,0.8180000000000001,68.135,-0.06269999999999998,-0.1874,-0.09199999999999964,100.0,1.0,1.0,210.58333333333331,0.0,0.0,0.0,0.0,0.0,0.0,0.0,8925.9,0.0,55.0,5.0,245.26,1.0,0.0,0.0,0.0,0.0,0.0,0.0,0.0,1.056000000000001,1.056000000000001,0.0,0.0,1.0,55.0,616.79921,10000.0,85.000001,85.000001,85.000001,85.000001,395.0,0.0,0.0,0.0,1.0,333.33500000000004,52.719,52.719,46.448,46.448,34.0,-24.95,23.35333333333333,-26.53333333333333,26.175,0.0,1781.635,-0.5799999999999983,100.0,28.286,27.136,41.511,43.951,0.0,0.0,100.0,0.0,0.0,0.0,0.0,3211.4285714285716,3017.6,3830.222222222222,4132.6,305.0635,305.33825,311.06933333333336,314.7315,21.9999,20.5548,14.016857142857143,21.6881,314.999998,314.999998,324.999988,324.999988,99.55862857142857,99.5062,99.57334285714286,99.55704285714286,0.06925000000000026,-0.06699999999999995,-0.15100000000000002,0.06633333333333336,-0.030000000000001137,-0.06499999999999773,1.7389999999999999,1.751,38.498999999999995,29.4675,44.855000000000004,36.551,56.001000000000005,34.2355,75.81700000000001,56.438,53.995000000000005,33.435,71.299,54.4775,53.207,33.0155,73.812,53.721000000000004,-0.12399999999999989,-0.028999999999999915,0.10024000000000001,0.10265,0.0,213.325,213.32999999999998,210.58333333333331,210.58333333333331,0.0,0.0
22,0.0,0.0,0.0,1.0,1.0,0.0,0.0,1.0,0.0,100.0,1.0,1.1856,26.0,0.0,0.0,0.0,59.999996,0.0,26.0,26.0,26.0,26.0,0.032444444444444276,0.2896000000000001,-0.025833333333333333,291.55,-2.696,-2.732875,-1.5155,-1.5992,-202.09,215.35,190.529375,0.0,0.0,0.0,0.0,0.044366666666666554,-5.498166666666667,-5.498166666666667,-0.525,0.3105,-0.05544444444444441,-0.751,68.273,-0.06509999999999994,-0.15812500000000002,-0.13600000000000012,100.0,1.0,1.0,210.90333333333334,0.0,0.0,0.0,0.0,0.0,0.0,0.0,8939.5,0.0,55.0,5.0,245.75333333333333,0.0,0.0,0.0,0.0,0.0,0.0,0.0,0.0,1.1069999999999993,1.1069999999999993,0.0,0.0,0.0,55.0,616.79921,10000.0,85.000001,85.000001,85.000001,85.000001,395.0,0.0,0.0,0.0,1.0,333.33500000000004,52.856,52.856,45.638999999999996,45.638999999999996,34.0,-25.765,21.791666666666668,-29.623333333333335,28.4525,0.0,1781.584,-0.6699999999999982,100.0,28.182,27.429000000000002,41.379,43.963,0.0,0.0,100.0,0.0,0.0,0.0,0.0,3234.857142857143,2861.6,4079.1111111111113,4401.3,305.253,305.55875,310.36033333333336,314.068,22.0094,20.56,14.032,21.6981,314.999998,314.999998,324.999988,324.999988,99.55862857142857,99.50621666666666,99.5735,99.5572,0.058250000000000135,-0.07800000000000007,-0.16233333333333333,0.06833333333333336,-0.051666666666669414,-0.046666666666666856,1.688,1.686,38.559,29.5,44.95,36.613,55.988,34.275999999999996,75.877,56.498,53.983000000000004,33.4725,71.353,54.5355,53.194,33.051,73.8635,53.77733333333333,-0.1339999999999999,-0.02200000000000024,0.10285000000000001,0.11856000000000001,0.0,213.76999999999998,213.78,210.90333333333334,210.90333333333334,0.0,0.0
23,0.0,0.0,0.0,1.0,1.0,0.0,0.0,1.0,0.0,100.0,1.0,1.1856,26.0,0.0,0.0,0.0,59.999996,0.0,26.0,26.0,26.0,26.0,0.0030000000000001137,0.2724,0.015133333333333335,291.229,-2.6716,-2.75525,-1.5461,-1.62,-198.6,215.345,190.505875,0.0,0.0,0.0,0.0,0.0464,-5.498166666666667,-5.498166666666667,-0.5328,-0.367,-0.06277777777777782,0.6699999999999999,68.40899999999999,-0.06569999999999998,-0.17535,-0.17799999999999994,100.0,1.0,1.0,211.30333333333334,0.0,0.0,0.0,0.0,0.0,0.0,0.0,8956.4,0.0,55.0,5.0,246.24666666666667,1.0,0.0,0.0,0.0,0.0,0.0,0.0,0.0,1.1580000000000013,1.1580000000000013,0.0,0.0,1.0,55.0,616.79921,10000.0,85.000001,85.000001,85.000001,85.000001,395.0,0.0,0.0,0.0,1.0,333.33500000000004,52.231,52.231,45.746,45.746,34.0,-26.45,23.608333333333334,-29.6,28.395,0.0,1781.532,-0.6449999999999996,100.0,28.538,27.326,41.775,44.203,0.0,0.0,100.0,0.0,0.0,0.0,0.0,3359.857142857143,3019.3,4027.0,4327.5,304.6805,305.2765,310.459,314.28925,22.019,20.5652,14.047428571428572,21.7081,314.999998,314.999998,324.999988,324.999988,99.55864285714286,99.50623333333333,99.57367142857143,99.55737142857143,0.06925000000000026,-0.06633333333333313,-0.16033333333333333,0.07266666666666666,-0.04833333333333201,-0.06666666666666998,1.685,1.6795,38.619,29.5325,45.047,36.676,55.976,34.3165,75.941,56.56,53.971000000000004,33.5095,71.41,54.595,53.181,33.0865,73.9185,53.83566666666667,-0.13349999999999995,-0.022499999999999964,0.10897000000000001,0.10821000000000001,0.0,214.16500000000002,214.185,211.30333333333334,211.30333333333334,0.0,0.0
24,0.0,0.0,0.0,1.0,1.0,0.0,0.0,1.0,0.0,100.0,1.0,1.1856,26.0,0.0,0.0,0.0,59.999996,0.0,26.0,26.0,26.0,26.0,0.006666666666666599,0.274,-0.0405,291.595,-2.6152,-2.74425,-1.4633,-1.6120999999999999,-195.32,215.34,190.4835,0.0,0.0,0.0,0.0,0.04830000000000001,-5.498166666666667,-5.498166666666667,-0.5507000000000001,-0.40700000000000003,-0.04588888888888887,1.2200000000000002,68.536,-0.0635,-0.18482500000000002,-0.2560000000000002,100.0,1.0,1.0,211.73000000000002,0.0,0.0,0.0,0.0,0.0,0.0,0.0,8974.5,0.0,55.0,5.0,246.70333333333335,0.0,0.0,0.0,0.0,0.0,0.0,0.0,0.0,1.2059999999999995,1.2059999999999995,0.0,0.0,0.0,55.0,616.79921,10000.0,85.000001,85.000001,85.000001,85.000001,395.0,0.0,0.0,0.0,1.0,333.33500000000004,52.856,52.856,45.792,45.792,34.0,-23.7,22.97833333333333,-27.39,27.3525,0.0,1781.484,-0.6950000000000003,100.0,28.462,27.181,41.734,44.122,0.0,0.0,100.0,0.0,0.0,0.0,0.0,3082.857142857143,2968.2,3948.5555555555557,4288.9,305.3925,305.452,310.605,314.37325,22.028,20.57,14.061857142857143,21.7175,314.999998,314.999998,324.999988,324.999988,99.55865714285714,99.50623333333333,99.57381428571429,99.55752857142858,0.06550000000000011,-0.06766666666666676,-0.15000000000000002,0.0628333333333333,-0.04333333333332945,-0.046666666666666856,1.703,1.7055,38.675,29.5625,45.135999999999996,36.734,55.964,34.3535,75.997,56.616,53.959,33.5435,71.461,54.6495,53.169,33.119,73.9675,53.888333333333335,-0.12850000000000006,-0.02300000000000013,0.10236500000000001,0.10345000000000001,0.0,214.555,214.575,211.73000000000002,211.73000000000002,0.0,0.0
25,0.0,0.0,0.0,1.0,1.0,0.0,0.0,1.0,0.0,100.0,1.0,1.1856,26.0,0.0,0.0,0.0,59.999996,0.0,26.0,26.0,26.0,26.0,0.023333333333333428,0.26660000000000017,-0.0264,291.504,-2.6754,-2.72375,-1.50505,-1.6025,-191.61,215.335,190.457,0.0,0.0,0.0,0.0,0.05046666666666655,-5.498166666666667,-5.498166666666667,-0.5676,0.07350000000000001,-0.04133333333333322,0.252,68.678,-0.06029999999999991,-0.1769,-0.2919999999999998,100.0,1.0,1.0,212.21333333333334,0.0,0.0,0.0,0.0,0.0,0.0,0.0,8995.0,0.0,55.0,5.0,247.21333333333334,1.0,0.0,0.0,0.0,0.0,0.0,0.0,0.0,1.259999999999998,1.259999999999998,0.0,0.0,1.0,55.0,616.79921,10000.0,85.000001,85.000001,85.000001,85.000001,395.0,0.0,0.0,0.0,1.0,166.665,52.231,52.231,46.204,46.204,34.0,-25.994999999999997,25.076666666666668,-26.856666666666662,27.880000000000003,0.0,1781.432,-0.6999999999999993,100.0,28.277,27.36,41.488,43.897,0.0,0.0,100.0,0.0,0.0,0.0,0.0,3319.857142857143,3164.6,3860.222222222222,4271.8,304.8165,304.8325,311.0686666666667,314.4255,22.0379,20.575499999999998,14.077857142857143,21.728,314.999998,314.999998,324.999988,324.999988,99.55865714285714,99.50625,99.57397142857143,99.55771428571428,0.0717500000000002,-0.056333333333333124,-0.1476666666666666,0.07800000000000007,-0.03333333333333144,-0.060000000000002274,1.728,1.7065000000000001,38.736999999999995,29.597,45.236000000000004,36.8,55.949,34.396,76.05799999999999,56.678,53.945,33.583,71.515,54.709,53.153999999999996,33.1565,74.0195,53.946666666666665,-0.13549999999999995,-0.014000000000000234,0.09799500000000001,0.11230000000000001,0.0,215.015,215.01999999999998,212.21333333333334,212.21333333333334,0.0,0.0
26,0.0,0.0,0.0,1.0,1.0,0.0,0.0,1.0,0.0,100.0,1.0,1.1856,26.0,0.0,0.0,0.0,59.999996,0.0,26.0,26.0,26.0,26.0,0.02588888888888885,0.2782,0.06016666666666667,290.649,-2.6068,-2.807875,-1.4639,-1.6122999999999998,-188.31,215.33249999999998,190.433,0.0,0.0,0.0,0.0,0.0524,-5.498166666666667,-5.498166666666667,-0.5397000000000001,0.5845,-0.05522222222222206,0.669,68.807,-0.058599999999999985,-0.15475,-0.33399999999999963,100.0,1.0,1.0,212.41333333333333,0.0,0.0,0.0,0.0,0.0,0.0,0.0,9003.4,0.0,55.0,5.0,247.67666666666668,0.0,0.0,0.0,0.0,0.0,0.0,0.0,0.0,1.3079999999999998,1.3079999999999998,0.0,0.0,0.0,55.0,616.79921,10000.0,85.000001,85.000001,85.000001,85.000001,395.0,0.0,0.0,0.0,1.0,166.665,52.016999999999996,52.016999999999996,44.891,44.891,34.0,-24.4925,23.801666666666666,-29.363333333333337,31.44,0.0,1781.384,-0.7049999999999983,100.0,29.009,27.797,41.749,44.245000000000005,0.0,0.0,100.0,0.0,0.0,0.0,0.0,3242.714285714286,2977.8,4209.444444444444,4628.5,304.931,305.32925,309.75233333333335,313.581,22.047,20.5805,14.092285714285714,21.7375,314.999998,314.999998,324.999988,324.999988,99.55867142857143,99.50625,99.57412857142857,99.55787142857143,0.07750000000000012,-0.06633333333333313,-0.14249999999999996,0.08150000000000013,-0.01666666666666572,-0.06333333333333258,1.643,1.627,38.794,29.628,45.327,36.859,55.94,34.4355,76.117,56.736000000000004,53.936,33.619,71.568,54.7655,53.144,33.1915,74.07,54.001666666666665,-0.139,-0.020000000000000018,0.107185,0.11623000000000001,0.0,215.43,215.45499999999998,212.41333333333333,212.41333333333333,0.0,0.0
27,0.0,0.0,0.0,1.0,1.0,0.0,0.0,1.0,0.0,100.0,1.0,1.1856,26.0,0.0,0.0,0.0,59.999996,0.0,26.0,26.0,26.0,26.0,0.03644444444444428,0.25860000000000016,-0.011966666666666667,290.894,-2.6247,-2.745375,-1.4934,-1.6907999999999999,-185.0,215.32999999999998,190.40975,0.0,0.0,0.0,0.0,0.054299999999999904,-5.498166666666667,-5.498166666666667,-0.5535,-0.8755,-0.04922222222222228,1.0140000000000002,68.93299999999999,-0.059599999999999986,-0.187025,-0.30600000000000005,100.0,1.0,1.0,212.84333333333333,0.0,0.0,0.0,0.0,0.0,0.0,0.0,9021.6,0.0,55.0,5.0,248.13,1.0,0.0,0.0,0.0,0.0,0.0,0.0,0.0,1.355999999999998,1.355999999999998,0.0,0.0,1.0,55.0,616.79921,10000.0,85.000001,85.000001,85.000001,85.000001,395.0,0.0,0.0,0.0,1.0,166.665,52.2,52.2,44.815,44.815,34.0,-23.285,24.106666666666666,-28.296666666666667,29.4175,0.0,1781.335,-0.7199999999999989,100.0,28.813,27.735,42.329,44.832,0.0,0.0,100.0,0.0,0.0,0.0,0.0,3110.4285714285716,3065.2,4014.8888888888887,4278.0,305.323,305.123,310.385,314.32275,22.0559,20.5854,14.107,21.7471,314.999998,314.999998,324.999988,324.999988,99.55867142857143,99.50625,99.57428571428571,99.55802857142857,0.08300000000000018,-0.06299999999999994,-0.14583333333333337,0.07550000000000012,-0.03499999999999659,-0.03833333333332689,1.6684999999999999,1.6524999999999999,38.849000000000004,29.659,45.418,36.919,55.929,34.473,76.178,56.7945,53.925,33.6535,71.624,54.8215,53.132,33.2245,74.124,54.056333333333335,-0.13949999999999996,-0.015499999999999847,0.10067500000000001,0.10988,0.0,215.76999999999998,215.79000000000002,212.84333333333333,212.84333333333333,0.0,0.0
28,0.0,0.0,0.0,1.0,1.0,0.0,0.0,1.0,0.0,100.0,1.0,1.1856,26.0,0.0,0.0,0.0,59.999996,0.0,26.0,26.0,26.0,26.0,0.04166666666666674,0.2574000000000001,-0.06570000000000001,291.229,-2.6274,-2.7155,-1.5556,-1.6279,-181.49,215.32999999999998,190.38475,0.0,0.0,0.0,0.0,0.056366666666666565,-5.498166666666667,-5.498166666666667,-0.5739000000000001,0.3135,-0.047666666666666746,-0.847,69.062,-0.05469999999999997,-0.18937500000000002,-0.34999999999999964,100.0,1.0,1.0,213.42666666666668,0.0,0.0,0.0,0.0,0.0,0.0,0.0,9046.4,0.0,55.0,5.0,248.59666666666666,0.0,0.0,0.0,0.0,0.0,0.0,0.0,0.0,1.407,1.407,0.0,0.0,0.0,55.0,616.79921,10000.0,85.000001,85.000001,85.000001,85.000001,395.0,0.0,0.0,0.0,1.0,333.33500000000004,51.941,51.941,46.004999999999995,46.004999999999995,34.0,-25.0625,23.376666666666665,-27.426666666666662,27.23,0.0,1781.282,-0.7699999999999996,100.0,28.695,28.064,41.852000000000004,44.504000000000005,0.0,0.0,100.0,0.0,0.0,0.0,0.0,3301.857142857143,2998.9,3843.6666666666665,4181.8,304.9175,305.1295,311.27366666666666,314.58525,22.0654,20.5908,14.122,21.7569,314.999998,314.999998,324.999988,324.999988,99.55868571428572,99.50626666666666,99.57442857142857,99.55818571428571,0.07725000000000026,-0.06566666666666676,-0.15300000000000002,0.07150000000000012,-0.054999999999999716,-0.03833333333332689,1.7475,1.718,38.909,29.6925,45.513,36.981,55.917,34.5145,76.234,56.8515,53.914,33.692,71.674,54.877,53.119,33.260999999999996,74.17099999999999,54.11033333333333,-0.1479999999999999,-0.01750000000000007,0.10696000000000001,0.10603000000000001,0.0,216.22500000000002,216.22500000000002,213.42666666666668,213.42666666666668,0.0,0.0
29,0.0,0.0,0.0,1.0,1.0,0.0,0.0,1.0,0.0,100.0,1.0,1.1856,26.0,0.0,0.0,0.0,59.999996,0.0,26.0,26.0,26.0,26.0,0.043888888888888866,0.26180000000000003,-0.015333333333333334,290.985,-2.5851,-2.7967500000000003,-1.47935,-1.6255,-177.95999999999998,215.3275,190.3585,0.0,0.0,0.0,0.0,0.05840000000000001,-5.498166666666667,-5.498166666666667,-0.5654,-0.3474999999999999,-0.06588888888888889,0.44900000000000007,69.19800000000001,-0.05019999999999991,-0.16437500000000002,-0.4139999999999997,100.0,1.0,1.0,213.63666666666666,0.0,0.0,0.0,0.0,0.0,0.0,0.0,9055.3,0.0,55.0,5.0,249.08333333333334,1.0,0.0,0.0,0.0,0.0,0.0,0.0,0.0,1.4579999999999984,1.4579999999999984,0.0,0.0,1.0,55.0,616.79921,10000.0,85.000001,85.000001,85.000001,85.000001,395.0,0.0,0.0,0.0,1.0,333.33500000000004,52.567,52.567,44.891,44.891,34.0,-22.6675,23.65833333333333,-28.196666666666665,30.552500000000002,0.0,1781.233,-0.75,100.0,28.58,27.652,42.082,44.569,0.0,0.0,100.0,0.0,0.0,0.0,0.0,3096.0,2956.7,4080.777777777778,4461.3,305.398,305.41375,310.2323333333333,313.97,22.0747,20.596,14.137428571428572,21.767,314.999998,314.999998,324.999988,324.999988,99.5587,99.50628333333333,99.5746,99.55837142857143,0.08499999999999996,-0.06166666666666676,-0.1373333333333333,0.08733333333333326,-0.01666666666666572,-0.04999999999999716,1.664,1.6445,38.967,29.725,45.608999999999995,37.044,55.903999999999996,34.5535,76.295,56.9125,53.902,33.728,71.729,54.9355,53.105999999999995,33.295500000000004,74.224,54.16766666666666,-0.1379999999999999,-0.022499999999999964,0.10463000000000001,0.10988,0.0,216.595,216.635,213.63666666666666,213.63666666666666,0.0,0.0
30,0.0,0.0,0.0,1.0,1.0,0.0,0.0,1.0,0.0,100.0,1.0,1.1856,26.0,0.0,0.0,0.0,59.999996,0.0,26.0,26.0,26.0,26.0,0.05011111111111122,0.2518,0.0041333333333333335,290.436,-2.5715,-2.7971250000000003,-1.5563,-1.6737,-174.43,215.3275,190.332,0.0,0.0,0.0,0.0,0.06046666666666656,-5.498166666666667,-5.498166666666667,-0.5743,0.47750000000000004,-0.059555555555555806,0.09299999999999997,69.327,-0.0504,-0.178425,-0.33000000000000007,100.0,1.0,1.0,214.15,0.0,0.0,0.0,0.0,0.0,0.0,0.0,9077.0,0.0,55.0,5.0,249.55333333333334,0.0,0.0,0.0,0.0,0.0,0.0,1.0,0.0,1.5090000000000003,1.5090000000000003,0.0,0.0,0.0,55.0,616.79921,10000.0,85.000001,85.000001,85.000001,85.000001,395.0,0.0,0.0,0.0,1.0,166.665,50.781,50.781,45.624,45.624,34.0,-26.02,26.666666666666664,-28.133333333333333,28.4975,0.0,1781.183,-0.8499999999999979,100.0,29.253,28.293,42.014,44.735,0.0,0.0,100.0,0.0,0.0,0.0,0.0,3492.142857142857,3253.3,3970.1111111111113,4222.7,304.2005,304.44025,310.96833333333336,314.43575,22.0844,20.601399999999998,14.152714285714286,21.777,314.999998,314.999998,324.999988,324.999988,99.55871428571429,99.50628333333333,99.57475714285714,99.55852857142857,0.08375000000000021,-0.058333333333333126,-0.14300000000000002,0.07216666666666671,-0.046666666666666856,-0.03999999999999915,1.696,1.674,39.027,29.758499999999998,45.704,37.106,55.894999999999996,34.595,76.354,56.9715,53.893,33.766,71.782,54.9925,53.096000000000004,33.332,74.2745,54.223,-0.14900000000000002,-0.015000000000000124,0.09871,0.11344000000000001,0.0,217.025,217.04000000000002,214.15,214.15,0.0,0.0
31,0.0,0.0,0.0,1.0,1.0,0.0,0.0,1.0,0.0,100.0,1.0,1.1856,26.0,0.0,0.0,0.0,59.999996,0.0,26.0,26.0,26.0,26.0,0.06033333333333335,0.2741,0.053200000000000004,289.917,-2.7030000000000003,-2.69475,-1.46725,-1.6824,-171.1,215.32999999999998,190.30775,0.0,0.0,0.0,0.0,0.0623999999999999,-5.498166666666667,-5.498166666666667,-0.5498000000000001,-0.010499999999999954,-0.04899999999999993,-0.866,69.45400000000001,-0.04679999999999995,-0.168825,-0.37600000000000033,100.0,1.0,1.0,214.30666666666667,0.0,0.0,0.0,0.0,0.0,0.0,0.0,9083.7,0.0,55.0,5.0,250.00666666666666,1.0,0.0,0.0,0.0,0.0,0.0,1.0,0.0,1.5569999999999986,1.5569999999999986,0.0,0.0,1.0,55.0,616.79921,10000.0,85.000001,85.000001,85.000001,85.000001,395.0,0.0,0.0,0.0,1.0,333.33500000000004,51.544,51.544,43.777,43.777,34.0,-25.345,23.503333333333334,-30.343333333333334,33.332499999999996,0.0,1781.133,-0.8150000000000013,100.0,29.147,28.589,42.403999999999996,45.314,0.0,0.0,100.0,0.0,0.0,0.0,0.0,3299.714285714286,3026.1,4318.333333333333,4700.7,305.0755,305.1045,309.65233333333333,313.28475,22.0933,20.6065,14.167285714285715,21.7867,314.999998,314.999998,324.999988,324.999988,99.55872857142857,99.5063,99.5749,99.5587,0.08300000000000018,-0.06266666666666665,-0.14416666666666667,0.0778333333333332,-0.05333333333332746,-0.030000000000001137,1.609,1.588,39.083,29.7905,45.795,37.167,55.885999999999996,34.6345,76.414,57.0315,53.884,33.8025,71.836,55.0505,53.086,33.3665,74.326,54.279333333333334,-0.14900000000000002,-0.01750000000000007,0.10443500000000001,0.10950000000000001,0.0,217.42000000000002,217.435,214.30666666666667,214.30666666666667,0.0,0.0
32,0.0,0.0,0.0,1.0,1.0,0.0,0.0,1.0,0.0,100.0,1.0,1.1856,26.0,0.0,0.0,0.0,59.999996,0.0,26.0,26.0,26.0,26.0,0.03222222222222215,0.25660000000000016,-0.0621,290.527,-2.6219,-2.757,-1.5689000000000002,-1.6215,-167.55,215.33249999999998,190.282625,0.0,0.0,0.0,0.0,0.06446666666666656,-5.498166666666667,-5.498166666666667,-0.5705,-0.4245000000000001,-0.06933333333333369,0.5050000000000001,69.582,-0.0411999999999999,-0.193775,-0.5279999999999996,100.0,1.0,1.0,214.87,0.0,0.0,0.0,0.0,0.0,0.0,0.0,9107.6,0.0,55.0,5.0,250.46666666666667,0.0,0.0,0.0,0.0,0.0,0.0,1.0,0.0,1.6080000000000005,1.6080000000000005,0.0,0.0,0.0,55.0,616.79921,10000.0,85.000001,85.000001,85.000001,85.000001,395.0,0.0,0.0,0.0,1.0,166.665,51.697,51.697,44.846000000000004,44.846000000000004,34.0,-23.0775,24.435000000000002,-28.336666666666666,29.4975,0.0,1781.083,-0.7949999999999982,100.0,29.201999999999998,28.287,42.612,45.115,0.0,0.0,100.0,0.0,0.0,0.0,0.0,3205.142857142857,3042.5,4010.1111111111113,4364.2,305.054,305.2055,310.6186666666667,314.26475,22.1027,20.6119,14.182571428571428,21.7968,314.999998,314.999998,324.999988,324.999988,99.55872857142857,99.5063,99.57505714285715,99.55887142857142,0.10524999999999984,-0.05266666666666664,-0.13216666666666665,0.08783333333333321,-0.03833333333332689,-0.051666666666669414,1.693,1.6815,39.141999999999996,29.8245,45.891,37.230000000000004,55.875,34.675,76.474,57.091,53.873000000000005,33.84,71.89,55.108000000000004,53.074,33.4025,74.3775,54.33533333333334,-0.15249999999999986,-0.019000000000000128,0.11075000000000002,0.10211,0.0,217.79000000000002,217.82,214.87,214.87,0.0,0.0
33,0.0,0.0,0.0,1.0,1.0,0.0,0.0,1.0,0.0,100.0,1.0,1.1856,26.0,0.0,0.0,0.0,59.999996,0.0,26.0,26.0,26.0,26.0,0.04800000000000004,0.25280000000000014,-0.0455,290.939,-2.6614,-2.7658750000000003,-1.51125,-1.6519,-164.20999999999998,215.335,190.257875,0.0,0.0,0.0,0.0,0.0663999999999999,-5.498166666666667,-5.498166666666667,-0.5841000000000001,-0.15749999999999997,-0.06522222222222229,0.8260000000000001,69.703,-0.0383,-0.1827,-0.532,100.0,1.0,1.0,215.30333333333334,0.0,0.0,0.0,0.0,0.0,0.0,0.0,9125.9,0.0,55.0,5.0,250.90333333333334,1.0,0.0,0.0,0.0,0.0,0.0,1.0,0.0,1.6559999999999988,1.6559999999999988,0.0,0.0,1.0,55.0,616.79921,10000.0,85.000001,85.000001,85.000001,85.000001,395.0,0.0,0.0,0.0,1.0,333.33500000000004,52.078,52.078,45.334,45.334,34.0,-23.55,24.555,-26.130000000000003,29.7975,0.0,1781.034,-0.7949999999999982,100.0,28.984,28.012999999999998,42.31,44.846000000000004,0.0,0.0,100.0,0.0,0.0,0.0,0.0,3140.4285714285716,3026.3,3895.6666666666665,4279.0,305.3515,305.215,310.978,314.42625,22.1114,20.6169,14.196857142857143,21.8062,314.999998,314.999998,324.999988,324.999988,99.55874285714286,99.50631666666666,99.57521428571428,99.55902857142857,0.08824999999999994,-0.04933333333333323,-0.12266666666666659,0.09883333333333333,-0.04999999999999716,-0.06333333333333258,1.721,1.698,39.196,29.8555,45.980000000000004,37.289,55.864000000000004,34.7115,76.527,57.144999999999996,53.863,33.8735,71.938,55.1605,53.062,33.435,74.4225,54.38633333333333,-0.14349999999999996,-0.018000000000000238,0.10160000000000001,0.11101000000000001,0.0,218.175,218.20499999999998,215.30333333333334,215.30333333333334,0.0,0.0
34,0.0,0.0,0.0,1.0,1.0,0.0,0.0,1.0,0.0,100.0,1.0,1.1856,26.0,0.0,0.0,0.0,59.999996,0.0,26.0,26.0,26.0,26.0,0.05988888888888888,0.2653000000000001,-0.06423333333333334,291.092,-2.5931,-2.7571250000000003,-1.53445,-1.6451,-160.44,215.34,190.2285,0.0,0.0,0.0,0.0,0.0686,-5.498166666666667,-5.498166666666667,-0.6039,-0.7870000000000001,-0.05411111111111122,0.792,69.84100000000001,-0.03520000000000001,-0.17555,-0.4739999999999993,100.0,1.0,1.0,215.64666666666668,0.0,0.0,0.0,0.0,0.0,0.0,0.0,9140.5,0.0,55.0,5.0,251.40333333333334,0.0,0.0,0.0,0.0,0.0,0.0,1.0,0.0,1.7100000000000009,1.7100000000000009,0.0,0.0,0.0,55.0,616.79921,10000.0,85.000001,85.000001,85.000001,85.000001,395.0,0.0,0.0,0.0,1.0,166.665,52.597,52.597,45.456,45.456,34.0,-21.905,23.358333333333334,-27.163333333333334,30.16,0.0,1780.981,-0.7650000000000006,100.0,28.705,27.697,42.164,44.894000000000005,0.0,0.0,100.0,0.0,0.0,0.0,0.0,3065.4285714285716,2885.6,3975.3333333333335,4337.0,305.454,305.606,310.7273333333333,314.253,22.1212,20.6224,14.212857142857143,21.8169,314.999998,314.999998,324.999988,324.999988,99.55875714285715,99.50631666666666,99.57538571428572,99.5592,0.10000000000000009,-0.045333333333333226,-0.1223333333333334,0.09516666666666684,-0.03999999999999915,-0.05666666666667197,1.688,1.6745,39.257,29.89,46.08,37.355000000000004,55.851,34.7515,76.587,57.2085,53.849999999999994,33.9105,71.992,55.222,53.048,33.47,74.4735,54.446,-0.14100000000000001,-0.012500000000000178,0.107075,0.10519,0.0,218.575,218.615,215.64666666666668,215.64666666666668,0.0,0.0
35,0.0,0.0,0.0,1.0,1.0,0.0,0.0,1.0,0.0,100.0,1.0,1.1856,26.0,0.0,0.0,0.0,59.999996,0.0,26.0,26.0,26.0,26.0,0.045333333333333226,0.25690000000000013,-0.0737,291.092,-2.6751,-2.659125,-1.46835,-1.6389,-157.09,215.3475,190.200625,0.0,0.0,0.0,0.0,0.07053333333333334,-5.498166666666667,-5.498166666666667,-0.6462,-0.4215,-0.05566666666666675,0.05600000000000005,69.961,-0.031399999999999983,-0.1925,-0.5360000000000005,100.0,1.0,1.0,216.14,0.0,0.0,0.0,0.0,0.0,0.0,0.0,9161.4,0.0,55.0,5.0,251.83333333333334,1.0,0.0,0.0,0.0,0.0,0.0,1.0,0.0,1.7579999999999991,1.7579999999999991,0.0,0.0,1.0,55.0,616.79921,10000.0,85.000001,85.000001,85.000001,85.000001,395.0,0.0,0.0,0.0,1.0,333.33500000000004,51.849000000000004,51.849000000000004,45.471000000000004,45.471000000000004,34.0,-24.7425,25.5,-25.056666666666665,28.095,0.0,1780.933,-0.6149999999999984,100.0,28.527,28.039,42.016999999999996,44.58,0.0,0.0,100.0,0.0,0.0,0.0,0.0,3238.714285714286,3253.6,3815.5555555555557,4072.3,305.1235,304.52925,311.225,314.85675,22.1298,20.6275,14.227,21.8262,314.999998,314.999998,324.999988,324.999988,99.55877142857143,99.50633333333333,99.57552857142858,99.55935714285714,0.08250000000000002,-0.05333333333333323,-0.125,0.1016666666666668,-0.03333333333333144,-0.05666666666667197,1.7389999999999999,1.7065000000000001,39.311,29.9215,46.169,37.414,55.838,34.789500000000004,76.639,57.260999999999996,53.838,33.945499999999996,72.038,55.272999999999996,53.035,33.5035,74.5175,54.495666666666665,-0.13149999999999995,-0.034499999999999975,0.11097000000000001,0.10462,0.0,218.945,218.97500000000002,216.14,216.14,0.0,0.0
