,ABS Active,ABS Enabled,AID Allow Tire Blankets,AID Auto Blip,AID Auto Clutch,AID Auto Shift,AID Fuel Rate,AID Ideal Line,AID Mech Damage,AID Stability,AID Tire Wear Rate,Air Density,Air Temp,Ballast,Best Lap Delta,Best Lap Time,Brake Bias,Brake Pos,Brake Temp FL,Brake Temp FR,Brake Temp RL,Brake Temp RR,CG Accel Lateral,CG Accel Longitudinal,CG Accel Vertical,CG Height,Camber FL,Camber FR,Camber RL,Camber RR,Car Coord X,Car Coord Y,Car Coord Z,Car Damage Front,Car Damage Left,Car Damage Rear,Car Damage Right,Car Pos Norm,Caster FL,Caster FR,Chassis Pitch Angle,Chassis Pitch Rate,Chassis Roll Angle,Chassis Roll Rate,Chassis Velocity X,Chassis Velocity Y,Chassis Velocity Z,Chassis Yaw Rate,Clutch Pos,DRS Active,DRS Available,Drive Train Speed,ERS Heat Charging,ERS Is Charging,ERS Max Energy,ERS Power Level,ERS Recovery Level,Engine Brake Setting,Engine Limiter,Engine RPM,Flags,Fuel Level,Gear,Ground Speed,HR Sample Clock,In Pit,KERS Charge,KERS Deployed Energy,KERS Input,KERS Max Energy,LR Sample Clock,Lap Invalidated,Lap Time,Lap Time2,Last Lap Time,Last Sector Time,MR Sample Clock,Max Fuel,Max Power,Max RPM,Max Sus Travel FL,Max Sus Travel FR,Max Sus Travel RL,Max Sus Travel RR,Max Torque,Max Turbo Boost,Num Tires Off Track,Penalties Enabled,Position,Raw Data Sample Rate,Ride Height FL,Ride Height FR,Ride Height RL,Ride Height RR,Road Temp,Self Align Torque FL,Self Align Torque FR,Self Align Torque RL,Self Align Torque RR,Session Lap Count,Session Time Left,Steering Angle,Surface Grip,Suspension Travel FL,Suspension Travel FR,Suspension Travel RL,Suspension Travel RR,TC Active,TC Enabled,Throttle Pos,Tire Dirt Level FL,Tire Dirt Level FR,Tire Dirt Level RL,Tire Dirt Level RR,Tire Load FL,Tire Load FR,Tire Load RL,Tire Load RR,Tire Loaded Radius FL,Tire Loaded Radius FR,Tire Loaded Radius RL,Tire Loaded Radius RR,Tire Pressure FL,Tire Pressure FR,Tire Pressure RL,Tire Pressure RR,Tire Radius FL,Tire Radius FR,Tire Radius RL,Tire Radius RR,Tire Rubber Grip FL,Tire Rubber Grip FR,Tire Rubber Grip RL,Tire Rubber Grip RR,Tire Slip Angle FL,Tire Slip Angle FR,Tire Slip Angle RL,Tire Slip Angle RR,Tire Slip Ratio FL,Tire Slip Ratio FR,Tire Slip Ratio RL,Tire Slip Ratio RR,Tire Temp Core FL,Tire Temp Core FR,Tire Temp Core RL,Tire Temp Core RR,Tire Temp Inner FL,Tire Temp Inner FR,Tire Temp Inner RL,Tire Temp Inner RR,Tire Temp Middle FL,Tire Temp Middle FR,Tire Temp Middle RL,Tire Temp Middle RR,Tire Temp Outer FL,Tire Temp Outer FR,Tire Temp Outer RL,Tire Temp Outer RR,Toe In FL,Toe In FR,Toe In RL,Toe In RR,Turbo Boost,Wheel Angular Speed FL,Wheel Angular Speed FR,Wheel Angular Speed RL,Wheel Angular Speed RR,Wind Direction,Wind Speed
0,0.0,0.0,0.0,1.0,1.0,0.0,0.0,1.0,0.0,100.0,1.0,1.1856,26.0,0.0,0.0,0.0,59.99999,0.0,26.0,26.0,26.0,26.0,-0.04137499999999994,0.31790000000000007,0.17653333333333335,292.984,-2.7055,-2.4983,-1.4925000000000002,-1.541,-275.65,215.7725,190.986875,0.0,0.0,0.0,0.0,0.0015999999999999348,-5.498166666666667,-5.498166666666667,-0.5542,2.6783333333333337,-0.03512499999999985,-1.47,65.368,-0.0785,-0.21375000000000002,0.3260000000000005,100.0,1.0,1.0,202.01999999999998,0.0,0.0,0.0,0.0,0.0,0.0,0.0,8562.9,0.0,55.0,5.0,235.29333333333335,0.0,0.0,0.0,0.0,0.0,0.0,0.0,0.0,0.0030000000000001137,0.0030000000000001137,0.0,0.0,0.0,55.0,616.79921,10000.0,85.0,85.0,85.0,85.0,395.0,0.0,0.0,0.0,1.0,20.0,51.025,51.025,48.431,48.431,34.0,-30.432499999999997,25.864,-30.869999999999997,24.05,0.0,1782.833,0.16000000000000014,100.0,27.817,27.325,39.566,40.174,0.0,0.0,100.0,0.0,0.0,0.0,0.0,3356.25,3871.9,4087.875,4125.5,304.6495,302.1945,313.25166666666667,314.5955,21.770375,20.493,18.105625,21.3769,314.99999,314.99999,324.99998,324.99998,99.55791428571429,99.50673333333333,99.56761428571428,99.54842857142857,-0.014333333333333309,-0.12033333333333318,-0.1938333333333333,0.03950000000000009,-0.07000000000000028,-0.06333333333333258,1.6335,1.6644999999999999,37.065,29.0815,39.16,34.605999999999995,55.986999999999995,34.0475,64.9505,53.0115,53.953,33.278,62.465,51.2645,53.159,32.8835,63.3685,50.632999999999996,-0.06599999999999995,-0.08000000000000007,0.10933000000000001,0.10668000000000001,0.0,204.88,204.84,202.01999999999998,202.01999999999998,0.0,0.0
1,0.0,0.0,0.0,1.0,1.0,0.0,0.0,1.0,0.0,100.0,1.0,1.1856,26.0,0.0,0.0,0.0,59.999996,0.0,26.0,26.0,26.0,26.0,-0.09499999999999997,0.3096000000000001,0.1887,292.374,-2.6035,-2.7557,-1.498,-1.4249999999999998,-272.11,215.79000000000002,190.965875,0.0,0.0,0.0,0.0,0.003666666666666596,-5.498166666666667,-5.498166666666667,-0.4666,-2.0540000000000003,-0.09437499999999988,-0.605,65.537,-0.0766,-0.173425,0.8680000000000003,100.0,1.0,1.0,201.95,0.0,0.0,0.0,0.0,0.0,0.0,0.0,8559.9,0.0,55.0,5.0,235.9,1.0,0.0,0.0,0.0,0.0,0.0,0.0,0.0,0.05699999999999861,0.05699999999999861,0.0,0.0,1.0,55.0,616.79921,10000.0,85.000001,85.000001,85.000001,85.000001,395.0,0.0,0.0,0.0,1.0,166.665,54.443,54.443,47.043,47.043,34.0,-24.895,15.32,-37.163333333333334,28.7175,0.0,1782.781,0.47000000000000064,100.0,27.734,26.566,41.911,43.162,0.0,0.0,100.0,0.0,0.0,0.0,0.0,2943.75,2339.5,4603.75,5000.9,305.923,307.37525,311.482,312.2005,21.78075,20.498,18.11925,21.3872,314.999998,314.999998,324.999988,324.999988,99.55792857142858,99.50675,99.5678,99.5486,-0.006000000000000005,-0.1383333333333332,-0.1908333333333333,0.026499999999999968,-0.041666666666671404,-0.03833333333332689,1.3835,1.4344999999999999,37.129,29.112499999999997,39.245999999999995,34.67,55.969,34.087,65.0155,53.086,53.936,33.314499999999995,62.5255,51.336,53.141,32.9185,63.4265,50.703,-0.04499999999999993,-0.10450000000000004,0.10542000000000001,0.11424000000000001,0.0,205.325,205.245,201.95,201.95,0.0,0.0
2,0.0,0.0,0.0,1.0,1.0,0.0,0.0,1.0,0.0,100.0,1.0,1.1856,26.0,0.0,0.0,0.0,59.999996,0.0,26.0,26.0,26.0,26.0,-0.10587499999999994,0.2782,-0.1018,293.747,-2.596,-2.6999,-1.4876,-1.5528,-268.96,215.8025,190.948375,0.0,0.0,0.0,0.0,0.005499999999999949,-5.498166666666667,-5.498166666666667,-0.5645,0.23533333333333317,-0.048125000000000195,2.015,65.664,-0.0838,-0.263525,1.2439999999999998,100.0,1.0,1.0,203.2866666666667,0.0,0.0,0.0,0.0,0.0,0.0,0.0,8616.6,0.0,55.0,5.0,236.36,0.0,0.0,0.0,0.0,0.0,0.0,0.0,0.0,0.10500000000000043,0.10500000000000043,0.0,0.0,0.0,55.0,616.79921,10000.0,85.000001,85.000001,85.000001,85.000001,395.0,0.0,0.0,0.0,1.0,333.33500000000004,52.109,52.109,50.4,50.4,34.0,-31.490000000000002,19.252,-26.08,17.07,0.0,1782.732,0.5999999999999996,100.0,28.357,27.015,41.494,41.614000000000004,0.0,0.0,100.0,0.0,0.0,0.0,0.0,3460.0,2983.5,3474.875,3380.4,304.282,305.1395,314.845,316.509,21.79025,20.5027,18.13075,21.3955,314.999998,314.999998,324.999988,324.999988,99.55792857142858,99.50678333333333,99.56792857142857,99.54872857142857,-0.03466666666666662,-0.15833333333333321,-0.22583333333333333,0.007833333333333359,-0.05666666666667197,-0.046666666666666856,1.8215,1.8719999999999999,37.189,29.142,39.317,34.722,55.959,34.1265,65.05799999999999,53.132,53.926,33.3505,62.564,51.3805,53.129999999999995,32.953,63.463,50.74666666666667,-0.033499999999999974,-0.11699999999999999,0.10546000000000001,0.10913,0.0,205.745,205.61,203.2866666666667,203.2866666666667,0.0,0.0
3,0.0,0.0,0.0,1.0,1.0,0.0,0.0,1.0,0.0,100.0,1.0,1.1856,26.0,0.0,0.0,0.0,59.999996,0.0,26.0,26.0,26.0,26.0,-0.12187499999999996,0.2946,-0.049,293.03,-2.6228,-2.7201,-1.47525,-1.5154999999999998,-265.81,215.8125,190.929375,0.0,0.0,0.0,0.0,0.007333333333333303,-5.498166666666667,-5.498166666666667,-0.49420000000000003,0.9666666666666668,-0.031124999999999847,-2.371,65.81,-0.10160000000000001,-0.17722500000000002,1.0879999999999992,100.0,1.0,1.0,203.18333333333334,0.0,0.0,0.0,0.0,0.0,0.0,0.0,8612.1,0.0,55.0,5.0,236.88333333333333,1.0,0.0,0.0,0.0,0.0,0.0,0.0,0.0,0.1529999999999987,0.1529999999999987,0.0,0.0,1.0,55.0,616.79921,10000.0,85.000001,85.000001,85.000001,85.000001,395.0,0.0,0.0,0.0,1.0,333.33500000000004,53.482,53.482,47.363,47.363,34.0,-26.4725,17.491999999999997,-34.89,22.7625,0.0,1782.683,0.6600000000000001,100.0,27.947,27.189,41.291,41.809,0.0,0.0,100.0,0.0,0.0,0.0,0.0,2956.5,2742.8,4374.0,4229.9,305.9195,305.8755,312.3736666666667,314.2515,21.799375,20.5075,18.14225,21.4042,314.999998,314.999998,324.999988,324.999988,99.55794285714286,99.50678333333333,99.56805714285714,99.54887142857143,-0.04033333333333311,-0.16266666666666674,-0.21533333333333338,0.0006666666666665932,-0.04833333333333201,-0.05833333333333002,1.554,1.577,37.245999999999995,29.172,39.388999999999996,34.775999999999996,55.944,34.1685,65.10249999999999,53.194,53.912,33.3895,62.605000000000004,51.44,53.116,32.99,63.5015,50.805,-0.026499999999999968,-0.11650000000000005,0.10712,0.10918000000000001,0.0,206.25,206.16,203.18333333333334,203.18333333333334,0.0,0.0
4,0.0,0.0,0.0,1.0,1.0,0.0,0.0,1.0,0.0,100.0,1.0,1.1856,26.0,0.0,0.0,0.0,59.999996,0.0,26.0,26.0,26.0,26.0,-0.13287499999999997,0.29610000000000003,0.032633333333333334,293.152,-2.6316,-2.8128,-1.4057,-1.6267,-262.25,215.8225,190.90875,0.0,0.0,0.0,0.0,0.009399999999999964,-5.498166666666667,-5.498166666666667,-0.5231,-1.041,-0.10175000000000001,-0.872,65.967,-0.1136,-0.21965,1.517999999999999,100.0,1.0,1.0,203.75333333333333,0.0,0.0,0.0,0.0,0.0,0.0,0.0,8636.3,0.0,55.0,5.0,237.45333333333332,0.0,0.0,0.0,0.0,0.0,0.0,0.0,0.0,0.20700000000000074,0.20700000000000074,0.0,0.0,0.0,55.0,616.79921,10000.0,85.000001,85.000001,85.000001,85.000001,395.0,0.0,0.0,0.0,1.0,166.665,53.146,53.146,48.004,48.004,34.0,-31.439999999999998,17.8,-33.31333333333333,19.93,0.0,1782.631,0.6600000000000001,100.0,27.802,26.688,42.251,41.96,0.0,0.0,100.0,0.0,0.0,0.0,0.0,3360.875,2763.5,4135.625,3811.1,304.7515,305.94425,312.988,315.32325,21.80975,20.5126,18.155625,21.414,314.999998,314.999998,324.999988,324.999988,99.55794285714286,99.5068,99.56822857142858,99.54902857142856,-0.05499999999999994,-0.17500000000000004,-0.2506666666666666,-0.024666666666666615,-0.045000000000001705,-0.03333333333333144,1.6025,1.671,37.311,29.204,39.473,34.838,55.93,34.2115,65.161,53.257999999999996,53.897999999999996,33.429,62.659,51.501,53.101,33.0275,63.553,50.864666666666665,-0.019000000000000017,-0.12549999999999994,0.10983000000000001,0.09886,0.0,206.675,206.535,203.75333333333333,203.75333333333333,0.0,0.0
5,0.0,0.0,0.0,1.0,1.0,0.0,0.0,1.0,0.0,100.0,1.0,1.1856,26.0,0.0,0.0,0.0,59.999996,0.0,26.0,26.0,26.0,26.0,-0.12887499999999996,0.30679999999999996,-0.04123333333333333,293.427,-2.667,-2.7598000000000003,-1.49545,-1.6355,-259.08,215.8275,190.89,0.0,0.0,0.0,0.0,0.011233333333333317,-5.498166666666667,-5.498166666666667,-0.5327000000000001,0.4813333333333334,-0.08574999999999999,-0.498,66.104,-0.1315,-0.214225,1.4620000000000015,100.0,1.0,1.0,204.28,0.0,0.0,0.0,0.0,0.0,0.0,0.0,8658.6,0.0,55.0,5.0,237.94333333333333,1.0,0.0,0.0,0.0,0.0,0.0,0.0,0.0,0.254999999999999,0.254999999999999,0.0,0.0,1.0,55.0,616.79921,10000.0,85.000001,85.000001,85.000001,85.000001,395.0,0.0,0.0,0.0,1.0,333.33500000000004,53.238,53.238,48.737,48.737,34.0,-30.4225,17.954,-32.73,19.86,0.0,1782.582,0.3100000000000005,100.0,27.864,26.641,41.881,41.480000000000004,0.0,0.0,100.0,0.0,0.0,0.0,0.0,3280.625,2804.7,3938.875,3959.8,304.941,305.75225,313.63366666666667,315.03775,21.819125,20.5173,18.167125,21.4225,314.999998,314.999998,324.999988,324.999988,99.55794285714286,99.50683333333333,99.56837142857142,99.54917142857143,-0.04233333333333311,-0.1693333333333331,-0.26216666666666666,-0.04299999999999993,-0.030000000000001137,-0.03166666666666629,1.6535,1.716,37.369,29.233,39.544,34.891,55.919,34.251999999999995,65.2055,53.312,53.888,33.466,62.7,51.553,53.089,33.063,63.591499999999996,50.915333333333336,-0.050999999999999934,-0.09899999999999998,0.103565,0.10475000000000001,0.0,207.11,206.98000000000002,204.28,204.28,0.0,0.0
6,0.0,0.0,0.0,1.0,1.0,0.0,0.0,1.0,0.0,100.0,1.0,1.1856,26.0,0.0,0.0,0.0,59.999996,0.0,26.0,26.0,26.0,26.0,-0.13937500000000003,0.30380000000000007,0.017333333333333336,293.228,-2.6024,-2.8341000000000003,-1.50455,-1.6131,-255.9,215.82999999999998,190.870625,0.0,0.0,0.0,0.0,0.0131,-5.498166666666667,-5.498166666666667,-0.5109,0.14866666666666672,-0.10462499999999997,-1.188,66.244,-0.13670000000000002,-0.186875,1.202,100.0,1.0,1.0,204.54666666666668,0.0,0.0,0.0,0.0,0.0,0.0,0.0,8670.0,0.0,55.0,5.0,238.45,0.0,0.0,0.0,0.0,0.0,0.0,0.0,0.0,0.3030000000000008,0.3030000000000008,0.0,0.0,0.0,55.0,616.79921,10000.0,85.000001,85.000001,85.000001,85.000001,395.0,0.0,0.0,0.0,1.0,333.33500000000004,53.68,53.68,47.836,47.836,34.0,-30.14,17.121999999999996,-36.343333333333334,21.09,0.0,1782.534,0.3849999999999998,100.0,27.644,26.387,42.009,41.653,0.0,0.0,100.0,0.0,0.0,0.0,0.0,3268.625,2673.6,4274.625,4071.1000000000004,305.009,306.14075,312.6673333333333,314.72725,21.828375,20.5219,18.17875,21.4312,314.999998,314.999998,324.999988,324.999988,99.55795714285715,99.50685,99.56851428571429,99.54931428571429,-0.05366666666666675,-0.18199999999999994,-0.25649999999999995,-0.03283333333333338,-0.03833333333332689,-0.054999999999999716,1.584,1.626,37.427,29.262,39.617000000000004,34.945,55.907,34.291,65.25450000000001,53.37,53.876000000000005,33.501999999999995,62.745,51.6085,53.077,33.0975,63.634,50.96966666666667,-0.04599999999999993,-0.09800000000000009,0.11049,0.10622500000000001,0.0,207.54500000000002,207.45,204.54666666666668,204.54666666666668,0.0,0.0
7,0.0,0.0,0.0,1.0,1.0,0.0,0.0,1.0,0.0,100.0,1.0,1.1856,26.0,0.0,0.0,0.0,59.999996,0.0,26.0,26.0,26.0,26.0,-0.11837500000000001,0.28500000000000014,0.007833333333333333,293.167,-2.5624,-2.8363,-1.4616500000000001,-1.6627,-252.52,215.8275,190.850125,0.0,0.0,0.0,0.0,0.015066666666666562,-5.498166666666667,-5.498166666666667,-0.5216000000000001,-0.040000000000000036,-0.09175000000000022,1.2640000000000002,66.389,-0.133,-0.20672500000000002,0.9100000000000001,100.0,1.0,1.0,205.05,0.0,0.0,0.0,0.0,0.0,0.0,0.0,8691.3,0.0,55.0,5.0,238.97,1.0,0.0,0.0,0.0,0.0,0.0,0.0,0.0,0.3539999999999992,0.3539999999999992,0.0,0.0,1.0,55.0,616.79921,10000.0,85.000001,85.000001,85.000001,85.000001,395.0,0.0,0.0,0.0,1.0,333.33500000000004,53.207,53.207,48.309,48.309,34.0,-28.1425,20.334,-32.35333333333333,22.2425,0.0,1782.482,-0.0600000000000005,100.0,28.059,26.293,42.272999999999996,41.678,0.0,0.0,100.0,0.0,0.0,0.0,0.0,3214.5,2895.7,3982.75,4027.2,304.9245,305.5985,313.345,314.87125,21.83825,20.5269,18.19125,21.4405,314.999998,314.999998,324.999988,324.999988,99.55795714285715,99.50686666666667,99.56865714285715,99.54945714285714,-0.02066666666666661,-0.1399999999999999,-0.2443333333333334,-0.016666666666666607,-0.04999999999999716,-0.054999999999999716,1.6105,1.644,37.489000000000004,29.293,39.695,35.003,55.894999999999996,34.332499999999996,65.3065,53.43,53.864999999999995,33.54,62.792500000000004,51.6665,53.065,33.1335,63.6795,51.025999999999996,-0.07899999999999996,-0.0605,0.10578000000000001,0.11002500000000001,0.0,208.0,207.88,205.05,205.05,0.0,0.0
8,0.0,0.0,0.0,1.0,1.0,0.0,0.0,1.0,0.0,100.0,1.0,1.1856,26.0,0.0,0.0,0.0,59.999996,0.0,26.0,26.0,26.0,26.0,-0.08637499999999998,0.2923,-0.021033333333333334,293.213,-2.655,-2.76,-1.44885,-1.6494,-249.13,215.8225,190.8295,0.0,0.0,0.0,0.0,0.017033333333333345,-5.498166666666667,-5.498166666666667,-0.5243,-0.3413333333333334,-0.07725000000000026,-0.902,66.535,-0.11950000000000001,-0.20292500000000002,0.5679999999999996,100.0,1.0,1.0,205.45666666666668,0.0,0.0,0.0,0.0,0.0,0.0,0.0,8708.6,0.0,55.0,5.0,239.5,0.0,0.0,0.0,0.0,0.0,0.0,0.0,0.0,0.40500000000000114,0.40500000000000114,0.0,0.0,0.0,55.0,616.79921,10000.0,85.000001,85.000001,85.000001,85.000001,395.0,0.0,0.0,0.0,1.0,333.33500000000004,53.604,53.604,47.76,47.76,34.0,-27.8125,19.362,-31.976666666666667,23.12,0.0,1782.431,-0.10500000000000043,100.0,27.543,26.546,42.206,41.946,0.0,0.0,100.0,0.0,0.0,0.0,0.0,3156.125,2836.3,4049.0,4049.7,305.359,305.665,313.23066666666665,314.72575,21.847875000000002,20.5318,18.2035,21.4497,314.999998,314.999998,324.999988,324.999988,99.55797142857143,99.50688333333333,99.56881428571428,99.5496,-0.015333333333333199,-0.1396666666666666,-0.22783333333333333,-0.002666666666666595,-0.06666666666666998,-0.054999999999999716,1.6039999999999999,1.6175,37.549,29.323999999999998,39.772,35.061,55.879999999999995,34.3735,65.3565,53.491,53.849999999999994,33.5775,62.838499999999996,51.7245,53.05,33.1695,63.723,51.083,-0.08950000000000002,-0.05699999999999994,0.105645,0.11625,0.0,208.425,208.34,205.45666666666668,205.45666666666668,0.0,0.0
9,0.0,0.0,0.0,1.0,1.0,0.0,0.0,1.0,0.0,100.0,1.0,1.1856,26.0,0.0,0.0,0.0,59.999996,0.0,26.0,26.0,26.0,26.0,-0.07274999999999998,0.2945,-0.009300000000000001,292.969,-2.5728,-2.7728,-1.49795,-1.6055,-245.93,215.815,190.809875,0.0,0.0,0.0,0.0,0.018899999999999917,-5.498166666666667,-5.498166666666667,-0.5239,0.41700000000000004,-0.08700000000000019,-0.504,66.67,-0.1072,-0.19845000000000002,0.4320000000000004,100.0,1.0,1.0,205.91666666666669,0.0,0.0,0.0,0.0,0.0,0.0,0.0,8728.1,0.0,55.0,5.0,239.98333333333335,1.0,0.0,0.0,0.0,0.0,0.0,0.0,0.0,0.4529999999999994,0.4529999999999994,0.0,0.0,1.0,55.0,616.79921,10000.0,85.000001,85.000001,85.000001,85.000001,395.0,0.0,0.0,0.0,1.0,166.665,52.902,52.902,48.325,48.325,34.0,-28.3525,20.375999999999998,-31.923333333333332,22.9175,0.0,1782.385,-0.3200000000000003,100.0,27.931,26.735,42.052,41.923,0.0,0.0,100.0,0.0,0.0,0.0,0.0,3370.125,2856.2,4027.75,4069.2,304.648,305.5945,313.358,314.7615,21.85725,20.5366,18.215125,21.4584,314.999998,314.999998,324.999988,324.999988,99.55797142857143,99.50688333333333,99.56895714285714,99.54974285714286,0.00633333333333308,-0.1206666666666667,-0.22199999999999998,0.006166666666666654,-0.061666666666667425,-0.03833333333332689,1.6325,1.646,37.607,29.354,39.844,35.115,55.867000000000004,34.4125,65.402,53.547,53.838,33.6135,62.8805,51.778,53.037,33.2035,63.7625,51.135333333333335,-0.10399999999999998,-0.0475000000000001,0.11246500000000001,0.110615,0.0,208.85000000000002,208.79500000000002,205.91666666666669,205.91666666666669,0.0,0.0
10,0.0,0.0,0.0,1.0,1.0,0.0,0.0,1.0,0.0,100.0,1.0,1.1856,26.0,0.0,0.0,0.0,59.999996,0.0,26.0,26.0,26.0,26.0,-0.050999999999999934,0.2914000000000001,-0.021666666666666667,292.908,-2.641,-2.7411,-1.4677,-1.5849,-242.32999999999998,215.805,190.787875,0.0,0.0,0.0,0.0,0.020999999999999908,-5.498166666666667,-5.498166666666667,-0.5126000000000001,-0.4853333333333334,-0.05412499999999998,0.119,66.825,-0.08750000000000001,-0.19592500000000002,0.10800000000000054,100.0,1.0,1.0,206.25,0.0,0.0,0.0,0.0,0.0,0.0,0.0,8742.2,0.0,55.0,5.0,240.54000000000002,0.0,0.0,0.0,0.0,0.0,0.0,1.0,0.0,0.5069999999999979,0.5069999999999979,0.0,0.0,0.0,55.0,616.79921,10000.0,85.000001,85.000001,85.000001,85.000001,395.0,0.0,0.0,0.0,1.0,166.665,53.574,53.574,47.501,47.501,34.0,-25.6675,20.03,-31.766666666666666,24.97,0.0,1782.33,-0.4299999999999997,100.0,27.813,26.705,42.294,42.419,0.0,0.0,100.0,0.0,0.0,0.0,0.0,3087.75,2795.5,4156.875,4231.7,305.5395,305.82975,312.95433333333335,314.31225,21.8675,20.5419,18.22825,21.4684,314.999998,314.999998,324.999988,324.999988,99.55797142857143,99.5069,99.56911428571429,99.5499,0.01833333333333309,-0.10866666666666669,-0.19633333333333336,0.022666666666666613,-0.045000000000001705,-0.046666666666666856,1.58,1.5765,37.672,29.387,39.927,35.177,55.852000000000004,34.454,65.4565,53.613,53.824,33.6515,62.9305,51.842,53.022,33.24,63.81,51.19766666666666,-0.11049999999999993,-0.04049999999999998,0.106215,0.10456000000000001,0.0,209.3,209.26999999999998,206.25,206.25,0.0,0.0
11,0.0,0.0,0.0,1.0,1.0,0.0,0.0,1.0,0.0,100.0,1.0,1.1856,26.0,0.0,0.0,0.0,59.999996,0.0,26.0,26.0,26.0,26.0,-0.03674999999999995,0.2834000000000001,-0.0538,293.32,-2.6452,-2.7372,-1.5220500000000001,-1.5568,-238.92000000000002,215.79500000000002,190.767125,0.0,0.0,0.0,0.0,0.022599999999999953,-5.498166666666667,-5.498166666666667,-0.5433,-0.10433333333333339,-0.02737500000000015,0.802,66.96600000000001,-0.06720000000000001,-0.214975,-0.10799999999999965,100.0,1.0,1.0,206.90333333333334,0.0,0.0,0.0,0.0,0.0,0.0,0.0,8769.9,0.0,55.0,5.0,241.04666666666668,1.0,0.0,0.0,0.0,0.0,0.0,1.0,0.0,0.5579999999999998,0.5579999999999998,0.0,0.0,1.0,55.0,616.79921,10000.0,85.000001,85.000001,85.000001,85.000001,395.0,0.0,0.0,0.0,1.0,166.665,53.238,53.238,48.553,48.553,34.0,-25.105,23.142,-27.096666666666664,24.535,0.0,1782.279,-0.4499999999999993,100.0,27.683,26.712,41.97,42.237,0.0,0.0,100.0,0.0,0.0,0.0,0.0,3085.125,3037.9,3777.125,4008.0,305.379,305.226,314.04066666666665,314.98625,21.87725,20.5471,18.240375,21.4777,314.999998,314.999998,324.999988,324.999988,99.55797142857143,99.50691666666667,99.56925714285714,99.55005714285714,0.03733333333333322,-0.07766666666666677,-0.16433333333333333,0.06333333333333324,-0.05666666666667197,-0.03999999999999915,1.6885,1.6775,37.732,29.4195,40.003,35.235,55.837,34.4935,65.5015,53.6725,53.81,33.688,62.9715,51.899,53.007,33.2745,63.8485,51.25333333333333,-0.10549999999999993,-0.033500000000000085,0.100625,0.11686,0.0,209.72500000000002,209.7,206.90333333333334,206.90333333333334,0.0,0.0
12,0.0,0.0,0.0,1.0,1.0,0.0,0.0,1.0,0.0,100.0,1.0,1.1856,26.0,0.0,0.0,0.0,59.999996,0.0,26.0,26.0,26.0,26.0,-0.015124999999999944,0.2962,0.0044,292.892,-2.6773,-2.7378,-1.49915,-1.5993,-235.9,215.785,190.74775,0.0,0.0,0.0,0.0,0.025466666666666526,-5.498166666666667,-5.498166666666667,-0.5323,0.3806666666666667,-0.032500000000000195,-0.8069999999999999,67.093,-0.052700000000000004,-0.19075,-0.0779999999999994,100.0,1.0,1.0,207.16333333333333,0.0,0.0,0.0,0.0,0.0,0.0,0.0,8780.9,0.0,55.0,5.0,241.50666666666666,0.0,0.0,0.0,0.0,0.0,0.0,1.0,0.0,0.602999999999998,0.602999999999998,0.0,0.0,0.0,55.0,616.79921,10000.0,85.000001,85.000001,85.000001,85.000001,395.0,0.0,0.0,0.0,1.0,333.33500000000004,53.085,53.085,47.699,47.699,34.0,-26.255,22.573999999999998,-29.71,26.4875,0.0,1782.233,-0.46499999999999986,100.0,27.492,27.046,41.762,42.324,0.0,0.0,100.0,0.0,0.0,0.0,0.0,3208.625,2971.6,4111.5,4147.2,305.1725,305.233,313.16566666666665,314.56925,21.88575,20.5517,18.25125,21.4859,314.999998,314.999998,324.999988,324.999988,99.55798571428572,99.50693333333334,99.56938571428572,99.55018571428572,0.040000000000000036,-0.08299999999999996,-0.15949999999999998,0.06400000000000006,-0.060000000000002274,-0.06333333333333258,1.6119999999999999,1.627,37.786,29.448,40.07,35.287,55.825,34.5285,65.543,53.7255,53.798,33.72,63.01,51.95,52.994,33.3055,63.8845,51.303666666666665,-0.10949999999999993,-0.038999999999999924,0.10723500000000001,0.108785,0.0,210.135,210.135,207.16333333333333,207.16333333333333,0.0,0.0
13,0.0,0.0,0.0,1.0,1.0,0.0,0.0,1.0,0.0,100.0,1.0,1.1856,26.0,0.0,0.0,0.0,59.999996,0.0,26.0,26.0,26.0,26.0,-0.0010000000000000009,0.27760000000000007,0.04463333333333333,292.435,-2.6385,-2.7497,-1.52265,-1.5927,-232.47,215.775,190.726,0.0,0.0,0.0,0.0,0.026699999999999946,-5.498166666666667,-5.498166666666667,-0.5231,-0.1266666666666666,-0.038000000000000256,1.092,67.237,-0.0434,-0.194325,-0.22999999999999954,100.0,1.0,1.0,207.50666666666666,0.0,0.0,0.0,0.0,0.0,0.0,0.0,8795.5,0.0,55.0,5.0,242.02333333333334,1.0,0.0,0.0,0.0,0.0,0.0,1.0,0.0,0.6539999999999999,0.6539999999999999,0.0,0.0,1.0,55.0,616.79921,10000.0,85.000001,85.000001,85.000001,85.000001,395.0,0.0,0.0,0.0,1.0,333.33500000000004,52.841,52.841,47.318,47.318,34.0,-23.4925,24.618,-29.630000000000003,28.8625,0.0,1782.182,-0.5,100.0,27.988,27.047,42.225,42.716,0.0,0.0,100.0,0.0,0.0,0.0,0.0,3142.25,3031.1,4129.125,4347.4,305.179,305.24,312.96066666666667,314.15,21.895375,20.5569,18.263625,21.4953,314.999998,314.999998,324.999988,324.999988,99.558,99.50693333333334,99.56954285714286,99.55034285714285,0.0863333333333336,-0.04233333333333311,-0.14183333333333337,0.07699999999999996,-0.03999999999999915,-0.05833333333333002,1.574,1.5625,37.846000000000004,29.481,40.147999999999996,35.346000000000004,55.813,34.567499999999995,65.593,53.7885,53.786,33.756,63.0555,52.0105,52.980999999999995,33.34,63.9275,51.36266666666667,-0.13049999999999995,-0.020000000000000018,0.10698,0.102165,0.0,210.56,210.56,207.50666666666666,207.50666666666666,0.0,0.0
14,0.0,0.0,0.0,1.0,1.0,0.0,0.0,1.0,0.0,100.0,1.0,1.1856,26.0,0.0,0.0,0.0,59.999996,0.0,26.0,26.0,26.0,26.0,0.007624999999999993,0.26990000000000003,-0.017933333333333336,292.648,-2.6644,-2.7474,-1.53015,-1.5761,-228.84,215.7625,190.7035,0.0,0.0,0.0,0.0,0.028833333333333377,-5.498166666666667,-5.498166666666667,-0.538,-0.11366666666666658,-0.010874999999999968,1.2080000000000002,67.385,-0.0284,-0.21357500000000001,-0.33399999999999963,100.0,1.0,1.0,208.07,0.0,0.0,0.0,0.0,0.0,0.0,0.0,8819.3,0.0,55.0,5.0,242.55666666666667,0.0,0.0,0.0,0.0,0.0,0.0,1.0,0.0,0.7079999999999984,0.7079999999999984,0.0,0.0,0.0,55.0,616.79921,10000.0,85.000001,85.000001,85.000001,85.000001,395.0,0.0,0.0,0.0,1.0,166.665,52.795,52.795,47.714,47.714,34.0,-23.505,24.716,-27.263333333333335,28.09,0.0,1782.13,-0.4949999999999992,100.0,27.978,27.305,42.186,42.900999999999996,0.0,0.0,100.0,0.0,0.0,0.0,0.0,3047.625,3089.0,3904.125,4186.8,305.4755,304.98725,313.6363333333333,314.53625,21.905625,20.5625,18.276625,21.5053,314.999998,314.999998,324.999988,324.999988,99.558,99.50695,99.5697,99.5505,0.07200000000000006,-0.055333333333333234,-0.13483333333333336,0.09583333333333321,-0.04999999999999716,-0.03833333333332689,1.6155,1.6199999999999999,37.91,29.516,40.229,35.408,55.799,34.609,65.6425,53.8535,53.772999999999996,33.794,63.101,52.073,52.967,33.376,63.97,51.42366666666666,-0.11699999999999999,-0.03550000000000009,0.10486500000000001,0.10852,0.0,211.015,211.015,208.07,208.07,0.0,0.0
15,0.0,0.0,0.0,1.0,1.0,0.0,0.0,1.0,0.0,100.0,1.0,1.1856,26.0,0.0,0.0,0.0,59.999996,0.0,26.0,26.0,26.0,26.0,0.028625000000000123,0.2945,-0.027133333333333332,292.542,-2.6758,-2.7034000000000002,-1.55335,-1.5812,-225.8,215.7525,190.684375,0.0,0.0,0.0,0.0,0.03059999999999996,-5.498166666666667,-5.498166666666667,-0.5288,0.28766666666666674,0.01200000000000001,-0.589,67.51,-0.0199,-0.1973,-0.29000000000000004,100.0,1.0,1.0,208.41333333333333,0.0,0.0,0.0,0.0,0.0,0.0,0.0,8833.9,0.0,55.0,5.0,243.00666666666666,1.0,0.0,0.0,0.0,0.0,0.0,1.0,0.0,0.7530000000000001,0.7530000000000001,0.0,0.0,1.0,55.0,616.79921,10000.0,85.000001,85.000001,85.000001,85.000001,395.0,0.0,0.0,0.0,1.0,333.33500000000004,52.841,52.841,47.531,47.531,34.0,-23.5775,23.316,-27.83,29.3475,0.0,1782.082,-0.4450000000000003,100.0,27.869,27.544,41.913,43.102000000000004,0.0,0.0,100.0,0.0,0.0,0.0,0.0,3050.0,2990.6,3986.375,4291.2,305.651,305.08625,313.50733333333335,314.16375,21.914,20.5672,18.287375,21.5136,314.999998,314.999998,324.999988,324.999988,99.55801428571428,99.50695,99.56982857142857,99.55064285714286,0.06800000000000006,-0.06433333333333313,-0.12749999999999995,0.09733333333333327,-0.06666666666666998,-0.045000000000001705,1.6059999999999999,1.599,37.963,29.545,40.296,35.46,55.788,34.6455,65.6845,53.911500000000004,53.762,33.828,63.1395,52.129,52.955,33.408500000000004,64.006,51.47866666666667,-0.11149999999999993,-0.038999999999999924,0.10802500000000001,0.10698500000000001,0.0,211.43,211.41500000000002,208.41333333333333,208.41333333333333,0.0,0.0
16,0.0,0.0,0.0,1.0,1.0,0.0,0.0,1.0,0.0,100.0,1.0,1.1856,26.0,0.0,0.0,0.0,59.999996,0.0,26.0,26.0,26.0,26.0,0.03662500000000013,0.26660000000000017,-0.012566666666666667,292.511,-2.7262,-2.6617,-1.51895,-1.5876,-222.15,215.74,190.661125,0.0,0.0,0.0,0.0,0.03269999999999995,-5.498166666666667,-5.498166666666667,-0.5455,-0.5720000000000001,-0.009875000000000078,-1.185,67.65899999999999,-0.015000000000000001,-0.2089,-0.17999999999999972,100.0,1.0,1.0,208.86666666666667,0.0,0.0,0.0,0.0,0.0,0.0,0.0,8853.1,0.0,55.0,5.0,243.54333333333335,0.0,0.0,0.0,0.0,0.0,0.0,1.0,0.0,0.8069999999999986,0.8069999999999986,0.0,0.0,0.0,55.0,616.79921,10000.0,85.000001,85.000001,85.000001,85.000001,395.0,0.0,0.0,0.0,1.0,166.665,52.719,52.719,47.318,47.318,34.0,-25.245,23.866,-27.173333333333332,28.012500000000003,0.0,1782.03,-0.3249999999999993,100.0,27.549,27.519,42.156,43.216,0.0,0.0,100.0,0.0,0.0,0.0,0.0,3230.0,3066.2,4021.0,4074.4,305.2145,304.95475,313.39233333333334,314.68925,21.924,20.5729,18.3005,21.523600000000002,314.999998,314.999998,324.999988,324.999988,99.55802857142857,99.50695,99.56998571428572,99.5508,0.07566666666666677,-0.05566666666666675,-0.11716666666666664,0.10483333333333333,-0.051666666666669414,-0.045000000000001705,1.6095,1.609,38.025,29.5805,40.378,35.522,55.772999999999996,34.6845,65.733,53.9725,53.748000000000005,33.864,63.184,52.1875,52.94,33.443,64.0475,51.536,-0.10449999999999993,-0.04800000000000004,0.10436000000000001,0.10802500000000001,0.0,211.845,211.85500000000002,208.86666666666667,208.86666666666667,0.0,0.0
17,0.0,0.0,0.0,1.0,1.0,0.0,0.0,1.0,0.0,100.0,1.0,1.1856,26.0,0.0,0.0,0.0,59.999996,0.0,26.0,26.0,26.0,26.0,0.012375000000000025,0.2844,0.004033333333333334,292.267,-2.6931,-2.6404,-1.56535,-1.5462,-218.9,215.73000000000002,190.64,0.0,0.0,0.0,0.0,0.034599999999999964,-5.498166666666667,-5.498166666666667,-0.5383,0.3513333333333333,-0.02674999999999983,-0.905,67.78999999999999,-0.016900000000000002,-0.19512500000000002,-0.06399999999999917,100.0,1.0,1.0,209.25333333333333,0.0,0.0,0.0,0.0,0.0,0.0,0.0,8869.5,0.0,55.0,5.0,244.01333333333332,1.0,0.0,0.0,0.0,0.0,0.0,1.0,0.0,0.8550000000000004,0.8550000000000004,0.0,0.0,1.0,55.0,616.79921,10000.0,85.000001,85.000001,85.000001,85.000001,395.0,0.0,0.0,0.0,1.0,166.665,52.504999999999995,52.504999999999995,47.226,47.226,34.0,-25.2725,22.686,-29.846666666666664,28.4125,0.0,1781.983,-0.3100000000000005,100.0,28.001,27.731,42.052,43.166,0.0,0.0,100.0,0.0,0.0,0.0,0.0,3242.0,2988.0,4195.25,4225.9,305.145,305.2055,313.03166666666664,314.40575,21.933,20.578,18.311875,21.5324,314.999998,314.999998,324.999988,324.999988,99.55802857142857,99.50696666666667,99.57012857142857,99.55094285714286,0.07133333333333347,-0.06266666666666665,-0.13116666666666665,0.10099999999999998,-0.06333333333333258,-0.041666666666671404,1.605,1.5999999999999999,38.081,29.612000000000002,40.45,35.578,55.763,34.722,65.776,54.028999999999996,53.738,33.8985,63.2235,52.242,52.929,33.476,64.0845,51.589333333333336,-0.10449999999999993,-0.0495000000000001,0.10419,0.10948000000000001,0.0,212.285,212.29000000000002,209.25333333333333,209.25333333333333,0.0,0.0
18,0.0,0.0,0.0,1.0,1.0,0.0,0.0,1.0,0.0,100.0,1.0,1.1856,26.0,0.0,0.0,0.0,59.999996,0.0,26.0,26.0,26.0,26.0,0.007249999999999979,0.28710000000000013,6.666666666666667e-05,292.206,-2.7083,-2.6326,-1.56385,-1.5062,-215.65,215.7225,190.619,0.0,0.0,0.0,0.0,0.03649999999999998,-5.498166666666667,-5.498166666666667,-0.5465,-0.469,-0.019874999999999865,-0.45799999999999996,67.92099999999999,-0.022500000000000003,-0.20555,0.016000000000000014,100.0,1.0,1.0,209.63,0.0,0.0,0.0,0.0,0.0,0.0,0.0,8885.5,0.0,55.0,5.0,244.48666666666668,0.0,0.0,0.0,0.0,0.0,0.0,1.0,0.0,0.9029999999999987,0.9029999999999987,0.0,0.0,0.0,55.0,616.79921,10000.0,85.000001,85.000001,85.000001,85.000001,395.0,0.0,0.0,0.0,1.0,166.665,52.475,52.475,47.089,47.089,34.0,-25.8125,23.684,-29.563333333333333,27.27,0.0,1781.935,-0.35999999999999943,100.0,27.841,27.549,42.308,43.394,0.0,0.0,100.0,0.0,0.0,0.0,0.0,3276.125,3107.3,4127.375,4202.9,305.091,304.908,313.147,314.45925,21.941875,20.5829,18.323625,21.5414,314.999998,314.999998,324.999988,324.999988,99.55804285714285,99.50696666666667,99.57027142857143,99.55108571428572,0.06833333333333336,-0.06066666666666665,-0.1356666666666666,0.09400000000000008,-0.046666666666666856,-0.041666666666671404,1.6075,1.6105,38.137,29.6435,40.522,35.634,55.75,34.757999999999996,65.8215,54.0875,53.726,33.932,63.265,52.298500000000004,52.916,33.507999999999996,64.1235,51.644666666666666,-0.10150000000000003,-0.04400000000000004,0.10147,0.11218000000000002,0.0,212.675,212.64499999999998,209.63,209.63,0.0,0.0
19,0.0,0.0,0.0,1.0,1.0,0.0,0.0,1.0,0.0,100.0,1.0,1.1856,26.0,0.0,0.0,0.0,59.999996,0.0,26.0,26.0,26.0,26.0,-0.005624999999999991,0.2861,0.052566666666666664,291.702,-2.6215,-2.7355,-1.5777999999999999,-1.4908000000000001,-212.18,215.7125,190.596375,0.0,0.0,0.0,0.0,0.03849999999999998,-5.498166666666667,-5.498166666666667,-0.5406000000000001,0.7710000000000001,-0.009500000000000064,0.802,68.059,-0.023700000000000002,-0.200275,-0.12199999999999989,100.0,1.0,1.0,210.0366666666667,0.0,0.0,0.0,0.0,0.0,0.0,0.0,8902.7,0.0,55.0,5.0,244.98333333333335,1.0,0.0,0.0,0.0,0.0,0.0,1.0,0.0,0.9540000000000006,0.9540000000000006,0.0,0.0,1.0,55.0,616.79921,10000.0,85.000001,85.000001,85.000001,85.000001,395.0,0.0,0.0,0.0,1.0,166.665,51.788,51.788,46.906,46.906,34.0,-23.89,25.258,-29.653333333333336,28.6,0.0,1781.883,-0.3349999999999991,100.0,28.588,27.939,42.278999999999996,43.274,0.0,0.0,100.0,0.0,0.0,0.0,0.0,3172.5,3181.8,4157.75,4454.2,305.0525,304.56525,313.0466666666667,313.97725,21.9515,20.5884,18.33575,21.5508,314.999998,314.999998,324.999988,324.999988,99.55805714285714,99.50698333333334,99.57041428571429,99.55124285714285,0.08166666666666655,-0.06466666666666665,-0.12716666666666665,0.08899999999999997,-0.03333333333333144,-0.041666666666671404,1.5965,1.6065,38.197,29.677999999999997,40.599000000000004,35.692,55.739999999999995,34.7995,65.8665,54.147999999999996,53.716,33.97,63.3065,52.357,52.905,33.5445,64.162,51.702,-0.10949999999999993,-0.05449999999999999,0.10418000000000001,0.10616,0.0,213.13,213.11,210.0366666666667,210.0366666666667,0.0,0.0
20,0.0,0.0,0.0,1.0,1.0,0.0,0.0,1.0,0.0,100.0,1.0,1.1856,26.0,0.0,0.0,0.0,59.999996,0.0,26.0,26.0,26.0,26.0,0.016124999999999945,0.27180000000000004,-0.0041333333333333335,292.007,-2.7183,-2.6894,-1.50035,-1.6160999999999999,-208.7,215.7025,190.574,0.0,0.0,0.0,0.0,0.04053333333333331,-5.498166666666667,-5.498166666666667,-0.54,-0.9283333333333333,-0.018124999999999947,-1.116,68.19800000000001,-0.0238,-0.20585,-0.04999999999999982,100.0,1.0,1.0,210.38,0.0,0.0,0.0,0.0,0.0,0.0,0.0,8917.3,0.0,55.0,5.0,245.48666666666668,0.0,0.0,0.0,0.0,0.0,0.0,0.0,0.0,1.004999999999999,1.004999999999999,0.0,0.0,0.0,55.0,616.79921,10000.0,85.000001,85.000001,85.000001,85.000001,395.0,0.0,0.0,0.0,1.0,333.33500000000004,52.795,52.795,46.417,46.417,34.0,-24.66,22.612000000000002,-29.243333333333332,29.365000000000002,0.0,1781.832,-0.2599999999999998,100.0,27.92,27.756999999999998,42.753,43.811,0.0,0.0,100.0,0.0,0.0,0.0,0.0,3122.5,2942.7,4189.125,4243.0,305.548,305.3345,312.88966666666664,314.2025,21.96075,20.5937,18.34825,21.5604,314.999998,314.999998,324.999988,324.999988,99.55805714285714,99.50698333333334,99.57057142857143,99.5514,0.06466666666666665,-0.06566666666666676,-0.1303333333333333,0.08866666666666667,-0.04833333333333201,-0.03333333333333144,1.5614999999999999,1.5454999999999999,38.254999999999995,29.711,40.677,35.753,55.724999999999994,34.838499999999996,65.9165,54.211,53.702,34.0055,63.3525,52.417500000000004,52.89,33.5785,64.205,51.76133333333333,-0.10199999999999998,-0.050999999999999934,0.09657,0.11337000000000001,0.0,213.51999999999998,213.515,210.38,210.38,0.0,0.0
21,0.0,0.0,0.0,1.0,1.0,0.0,0.0,1.0,0.0,100.0,1.0,1.1856,26.0,0.0,0.0,0.0,59.999996,0.0,26.0,26.0,26.0,26.0,0.022250000000000103,0.26460000000000017,-0.06876666666666667,292.435,-2.6904,-2.6896,-1.573,-1.5714,-205.43,215.695,190.5525,0.0,0.0,0.0,0.0,0.04243333333333332,-5.498166666666667,-5.498166666666667,-0.5643,0.17566666666666686,-0.02762500000000001,-0.6890000000000001,68.324,-0.028900000000000002,-0.21185,0.02200000000000024,100.0,1.0,1.0,211.01,0.0,0.0,0.0,0.0,0.0,0.0,0.0,8944.0,0.0,55.0,5.0,245.93666666666667,1.0,0.0,0.0,0.0,0.0,0.0,0.0,0.0,1.0530000000000008,1.0530000000000008,0.0,0.0,1.0,55.0,616.79921,10000.0,85.000001,85.000001,85.000001,85.000001,395.0,0.0,0.0,0.0,1.0,333.33500000000004,52.536,52.536,47.668,47.668,34.0,-25.509999999999998,22.990000000000002,-28.223333333333336,26.2725,0.0,1781.784,-0.33999999999999986,100.0,28.087,27.745,42.364000000000004,43.391999999999996,0.0,0.0,100.0,0.0,0.0,0.0,0.0,3240.125,2985.5,3960.875,4014.3,305.1585,305.24975,313.66966666666667,314.952,21.96975,20.5988,18.359625,21.5692,314.999998,314.999998,324.999988,324.999988,99.55807142857142,99.507,99.57071428571429,99.55154285714286,0.06533333333333369,-0.06466666666666665,-0.13883333333333336,0.09099999999999997,-0.05333333333332746,-0.051666666666669414,1.644,1.664,38.311,29.7425,40.748000000000005,35.807,55.714,34.876,65.9565,54.265,53.691,34.0405,63.388999999999996,52.47,52.878,33.6115,64.239,51.812,-0.10699999999999998,-0.04849999999999999,0.10616,0.112185,0.0,213.935,213.925,211.01,211.01,0.0,0.0
22,0.0,0.0,0.0,1.0,1.0,0.0,0.0,1.0,0.0,100.0,1.0,1.1856,26.0,0.0,0.0,0.0,59.999996,0.0,26.0,26.0,26.0,26.0,0.0050000000000001155,0.27470000000000017,-0.0057,292.007,-2.6148,-2.7522,-1.5619,-1.5617,-201.94,215.685,190.52875,0.0,0.0,0.0,0.0,0.04446666666666654,-5.498166666666667,-5.498166666666667,-0.5442,0.22166666666666668,-0.020999999999999908,0.9990000000000001,68.463,-0.0317,-0.1859,-0.06799999999999962,100.0,1.0,1.0,211.23666666666668,0.0,0.0,0.0,0.0,0.0,0.0,0.0,8953.5,0.0,55.0,5.0,246.44,0.0,0.0,0.0,0.0,0.0,0.0,0.0,0.0,1.1039999999999992,1.1039999999999992,0.0,0.0,0.0,55.0,616.79921,10000.0,85.000001,85.000001,85.000001,85.000001,395.0,0.0,0.0,0.0,1.0,333.33500000000004,52.643,52.643,46.585,46.585,34.0,-22.31,23.926,-29.949999999999996,29.252499999999998,0.0,1781.733,-0.40499999999999936,100.0,28.319,27.714,42.627,43.437,0.0,0.0,100.0,0.0,0.0,0.0,0.0,2978.5,3021.7,4166.0,4389.2,305.6405,305.18275,312.97866666666664,314.1225,21.979125,20.6043,18.372,21.5787,314.999998,314.999998,324.999988,324.999988,99.55808571428571,99.507,99.57085714285714,99.5517,0.07766666666666655,-0.06166666666666676,-0.1326666666666666,0.08766666666666678,-0.051666666666669414,-0.05833333333333002,1.576,1.572,38.370000000000005,29.7765,40.825,35.867,55.702,34.9155,66.00450000000001,54.326499999999996,53.679,34.077,63.433,52.528999999999996,52.866,33.6465,64.28,51.87,-0.10699999999999998,-0.04200000000000004,0.10351500000000001,0.10481000000000001,0.0,214.365,214.35000000000002,211.23666666666668,211.23666666666668,0.0,0.0
23,0.0,0.0,0.0,1.0,1.0,0.0,0.0,1.0,0.0,100.0,1.0,1.1856,26.0,0.0,0.0,0.0,59.999996,0.0,26.0,26.0,26.0,26.0,0.00912500000000005,0.2559,-0.04816666666666667,291.931,-2.6502,-2.6953,-1.6175000000000002,-1.6242999999999999,-198.44,215.6775,190.50525,0.0,0.0,0.0,0.0,0.046499999999999986,-5.498166666666667,-5.498166666666667,-0.5607,-0.31533333333333335,-0.024125000000000174,-0.595,68.59700000000001,-0.0309,-0.21145,0.013999999999999346,100.0,1.0,1.0,211.74666666666667,0.0,0.0,0.0,0.0,0.0,0.0,0.0,8975.2,0.0,55.0,5.0,246.92333333333335,1.0,0.0,0.0,0.0,0.0,0.0,0.0,0.0,1.1550000000000011,1.1550000000000011,0.0,0.0,1.0,55.0,616.79921,10000.0,85.000001,85.000001,85.000001,85.000001,395.0,0.0,0.0,0.0,1.0,333.33500000000004,52.002,52.002,47.379,47.379,34.0,-26.735,23.398,-29.876666666666665,27.185000000000002,0.0,1781.681,-0.375,100.0,28.304000000000002,27.926000000000002,42.711,43.808,0.0,0.0,100.0,0.0,0.0,0.0,0.0,3401.5,3017.4,4021.0,4035.3,304.699,305.097,313.53333333333336,314.787,21.988625,20.6097,18.384375,21.5883,314.999998,314.999998,324.999988,324.999988,99.55808571428571,99.50701666666667,99.57101428571428,99.55185714285714,0.062333333333333574,-0.06466666666666665,-0.14616666666666656,0.08350000000000013,-0.030000000000001137,-0.046666666666666856,1.586,1.6015,38.429,29.810499999999998,40.902,35.927,55.69,34.9555,66.0515,54.388,53.668,34.1135,63.476,52.588499999999996,52.852999999999994,33.6815,64.3205,51.928,-0.10399999999999998,-0.04699999999999993,0.106575,0.10865000000000001,0.0,214.745,214.75,211.74666666666667,211.74666666666667,0.0,0.0
24,0.0,0.0,0.0,1.0,1.0,0.0,0.0,1.0,0.0,100.0,1.0,1.1856,26.0,0.0,0.0,0.0,59.999996,0.0,26.0,26.0,26.0,26.0,0.00825000000000009,0.28570000000000007,-0.041633333333333335,292.13,-2.6786,-2.6995,-1.53775,-1.5611,-195.14999999999998,215.67000000000002,190.482875,0.0,0.0,0.0,0.0,0.0484,-5.498166666666667,-5.498166666666667,-0.5691,-0.3473333333333334,-0.010499999999999954,-0.279,68.726,-0.0279,-0.204825,-0.09200000000000053,100.0,1.0,1.0,212.08333333333331,0.0,0.0,0.0,0.0,0.0,0.0,0.0,8989.4,0.0,55.0,5.0,247.38333333333333,0.0,0.0,0.0,0.0,0.0,0.0,0.0,0.0,1.2029999999999994,1.2029999999999994,0.0,0.0,0.0,55.0,616.79921,10000.0,85.000001,85.000001,85.000001,85.000001,395.0,0.0,0.0,0.0,1.0,333.33500000000004,52.841,52.841,46.692,46.692,34.0,-24.1375,22.1,-30.339999999999996,27.495,0.0,1781.633,-0.3949999999999996,100.0,28.129,27.736,42.641,43.739000000000004,0.0,0.0,100.0,0.0,0.0,0.0,0.0,3081.375,2904.1,4228.875,4171.9,305.5785,305.4865,312.9456666666667,314.54925,21.9975,20.6147,18.395875,21.5972,314.999998,314.999998,324.999988,324.999988,99.5581,99.50701666666667,99.57115714285715,99.552,0.06300000000000017,-0.07166666666666677,-0.14083333333333337,0.08733333333333326,-0.045000000000001705,-0.03999999999999915,1.5985,1.6045,38.483999999999995,29.842,40.974000000000004,35.983000000000004,55.677,34.9915,66.0945,54.445,53.656,34.147,63.5155,52.643,52.841,33.713499999999996,64.357,51.98133333333333,-0.10849999999999993,-0.04499999999999993,0.11059500000000001,0.10261,0.0,215.16,215.14,212.08333333333331,212.08333333333331,0.0,0.0
25,0.0,0.0,0.0,1.0,1.0,0.0,0.0,1.0,0.0,100.0,1.0,1.1856,26.0,0.0,0.0,0.0,59.999996,0.0,26.0,26.0,26.0,26.0,-0.007624999999999993,0.2561,-0.0551,292.114,-2.7415,-2.6681,-1.5531000000000001,-1.5685,-191.64,215.66,190.45775,0.0,0.0,0.0,0.0,0.05046666666666655,-5.498166666666667,-5.498166666666667,-0.5935,-0.09366666666666656,-0.005875000000000075,0.242,68.85900000000001,-0.024200000000000003,-0.20672500000000002,-0.17799999999999905,100.0,1.0,1.0,212.57999999999998,0.0,0.0,0.0,0.0,0.0,0.0,0.0,9010.5,0.0,55.0,5.0,247.86333333333334,1.0,0.0,0.0,0.0,0.0,0.0,0.0,0.0,1.2540000000000013,1.2540000000000013,0.0,0.0,1.0,55.0,616.79921,10000.0,85.000001,85.000001,85.000001,85.000001,395.0,0.0,0.0,0.0,1.0,166.665,52.17,52.17,47.302,47.302,34.0,-25.5775,25.286,-27.343333333333334,27.627499999999998,0.0,1781.584,-0.40499999999999936,100.0,28.084,27.681,42.521,43.437,0.0,0.0,100.0,0.0,0.0,0.0,0.0,3236.5,3259.9,3916.0,4143.7,305.0805,304.56175,313.702,314.69275,22.00675,20.6202,18.408,21.6066,314.999998,314.999998,324.999988,324.999988,99.5581,99.50703333333334,99.57131428571428,99.55215714285714,0.0773333333333337,-0.06000000000000005,-0.12983333333333336,0.09616666666666673,-0.03333333333333144,-0.07166666666666544,1.633,1.629,38.543,29.875999999999998,41.05,36.041,55.664,35.0315,66.138,54.5035,53.643,34.1835,63.5555,52.6995,52.826,33.7485,64.394,52.03633333333333,-0.11399999999999999,-0.04600000000000004,0.10802500000000001,0.09933,0.0,215.56,215.60500000000002,212.57999999999998,212.57999999999998,0.0,0.0
26,0.0,0.0,0.0,1.0,1.0,0.0,0.0,1.0,0.0,100.0,1.0,1.1856,26.0,0.0,0.0,0.0,59.999996,0.0,26.0,26.0,26.0,26.0,0.013374999999999915,0.2843,0.07003333333333334,291.0,-2.6981,-2.7358000000000002,-1.6047500000000001,-1.5573,-188.12,215.6525,190.432,0.0,0.0,0.0,0.0,0.05249999999999999,-5.498166666666667,-5.498166666666667,-0.5603,0.7130000000000001,-0.022499999999999964,-0.89,68.995,-0.0201,-0.18150000000000002,-0.1559999999999997,100.0,1.0,1.0,212.77666666666667,0.0,0.0,0.0,0.0,0.0,0.0,0.0,9018.9,0.0,55.0,5.0,248.35333333333335,0.0,0.0,0.0,0.0,0.0,0.0,0.0,0.0,1.3049999999999997,1.3049999999999997,0.0,0.0,0.0,55.0,616.79921,10000.0,85.000001,85.000001,85.000001,85.000001,395.0,0.0,0.0,0.0,1.0,333.33500000000004,51.59,51.59,45.822,45.822,34.0,-25.43,23.896,-33.35333333333333,30.8825,0.0,1781.531,-0.42499999999999893,100.0,28.826999999999998,28.515,42.793,43.906,0.0,0.0,100.0,0.0,0.0,0.0,0.0,3301.25,3001.7,4465.5,4506.1,304.92,305.043,312.307,313.74175,22.016375,20.625799999999998,18.420375,21.6162,314.999998,314.999998,324.999988,324.999988,99.55811428571428,99.50705,99.57147142857143,99.55231428571429,0.08366666666666678,-0.06066666666666665,-0.13416666666666666,0.09483333333333333,-0.06333333333333258,-0.054999999999999716,1.5255,1.5314999999999999,38.602999999999994,29.911,41.126999999999995,36.101,55.655,35.073,66.186,54.565,53.634,34.222,63.5995,52.759,52.816,33.7855,64.435,52.09466666666667,-0.12,-0.046499999999999986,0.10740500000000001,0.10919500000000001,0.0,216.035,216.025,212.77666666666667,212.77666666666667,0.0,0.0
27,0.0,0.0,0.0,1.0,1.0,0.0,0.0,1.0,0.0,100.0,1.0,1.1856,26.0,0.0,0.0,0.0,59.999996,0.0,26.0,26.0,26.0,26.0,0.026874999999999982,0.24070000000000014,-0.011366666666666667,291.351,-2.6663,-2.6987,-1.54305,-1.6296,-184.81,215.64499999999998,190.408875,0.0,0.0,0.0,0.0,0.054433333333333334,-5.498166666666667,-5.498166666666667,-0.5793,-1.0493333333333332,-0.020375000000000032,-0.7010000000000001,69.12,-0.0196,-0.22025,-0.15399999999999991,100.0,1.0,1.0,213.21333333333334,0.0,0.0,0.0,0.0,0.0,0.0,0.0,9037.4,0.0,55.0,5.0,248.80666666666667,1.0,0.0,0.0,0.0,0.0,0.0,0.0,0.0,1.352999999999998,1.352999999999998,0.0,0.0,1.0,55.0,616.79921,10000.0,85.000001,85.000001,85.000001,85.000001,395.0,0.0,0.0,0.0,1.0,333.33500000000004,52.016999999999996,52.016999999999996,45.882999999999996,45.882999999999996,34.0,-24.1675,23.826,-29.97,29.0225,0.0,1781.483,-0.4299999999999997,100.0,28.515,28.352,43.46,44.522000000000006,0.0,0.0,100.0,0.0,0.0,0.0,0.0,3175.875,3033.6,4157.875,4151.2,305.327,305.05075,313.033,314.4835,22.02525,20.6309,18.43225,21.6254,314.999998,314.999998,324.999988,324.999988,99.55812857142857,99.50705,99.57161428571429,99.55245714285714,0.07900000000000018,-0.058666666666666645,-0.1376666666666666,0.09383333333333321,-0.060000000000002274,-0.03499999999999659,1.5565,1.549,38.658,29.9435,41.201,36.159,55.643,35.11,66.233,54.6245,53.623000000000005,34.2565,63.6425,52.816,52.804,33.818,64.475,52.150333333333336,-0.11249999999999993,-0.046499999999999986,0.111085,0.11131,0.0,216.365,216.36,213.21333333333334,213.21333333333334,0.0,0.0
28,0.0,0.0,0.0,1.0,1.0,0.0,0.0,1.0,0.0,100.0,1.0,1.1856,26.0,0.0,0.0,0.0,59.999996,0.0,26.0,26.0,26.0,26.0,0.00912500000000005,0.2579,-0.056466666666666665,291.718,-2.6496,-2.696,-1.5917,-1.5886,-181.28,215.6375,190.383625,0.0,0.0,0.0,0.0,0.056466666666666554,-5.498166666666667,-5.498166666666667,-0.5943,0.5449999999999999,-0.021374999999999922,0.548,69.25,-0.018000000000000002,-0.209925,-0.2400000000000002,100.0,1.0,1.0,213.8,0.0,0.0,0.0,0.0,0.0,0.0,0.0,9062.2,0.0,55.0,5.0,249.27333333333334,0.0,0.0,0.0,0.0,0.0,0.0,0.0,0.0,1.404,1.404,0.0,0.0,0.0,55.0,616.79921,10000.0,85.000001,85.000001,85.000001,85.000001,395.0,0.0,0.0,0.0,1.0,166.665,51.788,51.788,47.195,47.195,34.0,-23.3975,24.866,-27.003333333333337,28.572499999999998,0.0,1781.433,-0.48499999999999943,100.0,28.795,28.214,42.905,43.922,0.0,0.0,100.0,0.0,0.0,0.0,0.0,3164.0,3146.3,3918.0,4148.0,305.1345,304.859,313.8143333333333,314.6995,22.034625,20.636499999999998,18.44425,21.6348,314.999998,314.999998,324.999988,324.999988,99.55814285714285,99.50705,99.57175714285714,99.55261428571428,0.09666666666666668,-0.05400000000000005,-0.1163333333333334,0.10883333333333334,-0.045000000000001705,-0.046666666666666856,1.658,1.631,38.716,29.9785,41.277,36.217,55.632,35.1505,66.2735,54.6815,53.611999999999995,34.2935,63.6795,52.8715,52.792,33.854,64.5095,52.20433333333334,-0.123,-0.04600000000000004,0.10884,0.11123500000000001,0.0,216.805,216.81,213.8,213.8,0.0,0.0
29,0.0,0.0,0.0,1.0,1.0,0.0,0.0,1.0,0.0,100.0,1.0,1.1856,26.0,0.0,0.0,0.0,59.999996,0.0,26.0,26.0,26.0,26.0,0.03499999999999992,0.26070000000000015,-0.009300000000000001,291.458,-2.6296,-2.7498,-1.5347,-1.5802,-177.54,215.63,190.35575,0.0,0.0,0.0,0.0,0.058633333333333315,-5.498166666666667,-5.498166666666667,-0.5909,-0.6093333333333333,-0.026000000000000245,0.758,69.393,-0.015600000000000001,-0.197,-0.31399999999999917,100.0,1.0,1.0,214.01999999999998,0.0,0.0,0.0,0.0,0.0,0.0,0.0,9071.5,0.0,55.0,5.0,249.79000000000002,1.0,0.0,0.0,0.0,0.0,0.0,0.0,0.0,1.4579999999999984,1.4579999999999984,0.0,0.0,1.0,55.0,616.79921,10000.0,85.000001,85.000001,85.000001,85.000001,395.0,0.0,0.0,0.0,1.0,166.665,52.260999999999996,52.260999999999996,46.066,46.066,34.0,-22.3825,24.996,-28.336666666666666,30.7925,0.0,1781.38,-0.504999999999999,100.0,28.43,28.0,43.224000000000004,44.168,0.0,0.0,100.0,0.0,0.0,0.0,0.0,3089.75,3091.2,4138.125,4368.3,305.432,304.9905,312.988,314.116,22.044375,20.6423,18.457375,21.645,314.999998,314.999998,324.999988,324.999988,99.55815714285714,99.50706666666666,99.57192857142857,99.55278571428572,0.0990000000000002,-0.050999999999999934,-0.10799999999999998,0.10916666666666686,-0.05666666666667197,-0.045000000000001705,1.544,1.543,38.777,30.014499999999998,41.358999999999995,36.281,55.617999999999995,35.1915,66.3245,54.747,53.599000000000004,34.3315,63.7265,52.934,52.778,33.89,64.553,52.26566666666667,-0.12149999999999994,-0.043500000000000094,0.10399000000000001,0.10637500000000001,0.0,217.22,217.215,214.01999999999998,214.01999999999998,0.0,0.0
30,0.0,0.0,0.0,1.0,1.0,0.0,0.0,1.0,0.0,100.0,1.0,1.1856,26.0,0.0,0.0,0.0,59.999996,0.0,26.0,26.0,26.0,26.0,0.03550000000000009,0.262,0.03686666666666667,290.848,-2.6945,-2.6268000000000002,-1.51545,-1.6306,-174.41,215.625,190.332375,0.0,0.0,0.0,0.0,0.06046666666666656,-5.498166666666667,-5.498166666666667,-0.5959,0.5936666666666668,-0.024624999999999897,-0.5800000000000001,69.507,-0.014100000000000001,-0.207375,-0.25,100.0,1.0,1.0,214.46666666666667,0.0,0.0,0.0,0.0,0.0,0.0,0.0,9090.4,0.0,55.0,5.0,250.2,0.0,0.0,0.0,0.0,0.0,0.0,1.0,0.0,1.5030000000000001,1.5030000000000001,0.0,0.0,0.0,55.0,616.79921,10000.0,85.000001,85.000001,85.000001,85.000001,395.0,0.0,0.0,0.0,1.0,166.665,50.659,50.659,46.524,46.524,34.0,-26.485,25.086,-27.876666666666665,30.2175,0.0,1781.334,-0.5250000000000004,100.0,29.044,28.85,43.01,44.291,0.0,0.0,100.0,0.0,0.0,0.0,0.0,3493.75,3223.2,4079.25,4213.2,304.3245,304.311,313.32966666666664,314.3835,22.05275,20.6474,18.46825,21.6534,314.999998,314.999998,324.999988,324.999988,99.55817142857143,99.50706666666666,99.57205714285715,99.55292857142857,0.09766666666666657,-0.058333333333333126,-0.12116666666666664,0.11050000000000004,-0.05833333333333002,-0.03333333333333144,1.5939999999999999,1.5865,38.83,30.046,41.426,36.334,55.611000000000004,35.2285,66.363,54.7995,53.592,34.3655,63.762,52.985,52.769999999999996,33.9225,64.5855,52.315333333333335,-0.131,-0.04299999999999993,0.10271000000000001,0.11084500000000001,0.0,217.59,217.57999999999998,214.46666666666667,214.46666666666667,0.0,0.0
31,0.0,0.0,0.0,1.0,1.0,0.0,0.0,1.0,0.0,100.0,1.0,1.1856,26.0,0.0,0.0,0.0,59.999996,0.0,26.0,26.0,26.0,26.0,0.009624999999999995,0.25250000000000017,0.03736666666666667,290.604,-2.734,-2.6648,-1.5579,-1.5292,-170.86,215.62,190.306625,0.0,0.0,0.0,0.0,0.06253333333333333,-5.498166666666667,-5.498166666666667,-0.5748,-0.385,-0.018874999999999975,0.506,69.64,-0.0098,-0.20197500000000002,-0.39200000000000035,100.0,1.0,1.0,214.71,0.0,0.0,0.0,0.0,0.0,0.0,0.0,9100.7,0.0,55.0,5.0,250.68,1.0,0.0,0.0,0.0,0.0,0.0,1.0,0.0,1.5539999999999985,1.5539999999999985,0.0,0.0,1.0,55.0,616.79921,10000.0,85.000001,85.000001,85.000001,85.000001,395.0,0.0,0.0,0.0,1.0,166.665,51.483000000000004,51.483000000000004,44.937,44.937,34.0,-23.537499999999998,25.844,-30.613333333333337,30.990000000000002,0.0,1781.284,-0.5099999999999998,100.0,29.049,28.736,43.689,44.894000000000005,0.0,0.0,100.0,0.0,0.0,0.0,0.0,3131.375,3247.1,4312.375,4407.1,305.3995,304.69625,312.48566666666665,313.966,22.062125,20.653,18.48075,21.6632,314.999998,314.999998,324.999988,324.999988,99.55817142857143,99.50706666666666,99.57221428571428,99.55308571428571,0.10099999999999998,-0.04166666666666674,-0.1143333333333334,0.11483333333333334,-0.023333333333326323,-0.046666666666666856,1.516,1.4955,38.888,30.0815,41.504000000000005,36.394999999999996,55.601,35.2695,66.412,54.8635,53.582,34.4035,63.807,53.0465,52.759,33.9585,64.6275,52.375,-0.123,-0.04150000000000009,0.11621000000000001,0.10852500000000001,0.0,217.97,218.01,214.71,214.71,0.0,0.0
32,0.0,0.0,0.0,1.0,1.0,0.0,0.0,1.0,0.0,100.0,1.0,1.1856,26.0,0.0,0.0,0.0,59.999996,0.0,26.0,26.0,26.0,26.0,0.03337499999999993,0.26849999999999996,-0.03783333333333333,290.97,-2.6587,-2.7218999999999998,-1.61175,-1.5855,-167.1,215.615,190.279625,0.0,0.0,0.0,0.0,0.06473333333333331,-5.498166666666667,-5.498166666666667,-0.5928,-0.16733333333333333,-0.03962500000000002,0.39600000000000013,69.776,-0.0046,-0.213925,-0.3860000000000001,100.0,1.0,1.0,215.26333333333332,0.0,0.0,0.0,0.0,0.0,0.0,0.0,9124.2,0.0,55.0,5.0,251.16666666666666,0.0,0.0,0.0,0.0,0.0,0.0,1.0,0.0,1.6080000000000005,1.6080000000000005,0.0,0.0,0.0,55.0,616.79921,10000.0,85.000001,85.000001,85.000001,85.000001,395.0,0.0,0.0,0.0,1.0,166.665,51.575,51.575,45.868,45.868,34.0,-22.965,25.534,-28.990000000000002,31.192500000000003,0.0,1781.23,-0.46999999999999886,100.0,28.998,28.664,43.605000000000004,44.704,0.0,0.0,100.0,0.0,0.0,0.0,0.0,3144.5,3122.6,4146.125,4357.4,305.2255,304.93425,313.159,314.2415,22.071875,20.659,18.49375,21.6734,314.999998,314.999998,324.999988,324.999988,99.55818571428571,99.50708333333333,99.57238571428572,99.55325714285715,0.10433333333333339,-0.03866666666666663,-0.10549999999999993,0.12250000000000005,-0.045000000000001705,-0.05666666666667197,1.585,1.5845,38.949,30.118499999999997,41.586,36.459,55.589,35.312,66.4595,54.9255,53.571,34.443,63.8505,53.1065,52.747,33.9965,64.668,52.434,-0.121,-0.04299999999999993,0.10998000000000001,0.10373,0.0,218.39499999999998,218.43,215.26333333333332,215.26333333333332,0.0,0.0
33,0.0,0.0,0.0,1.0,1.0,0.0,0.0,1.0,0.0,100.0,1.0,1.1856,26.0,0.0,0.0,0.0,59.999996,0.0,26.0,26.0,26.0,26.0,0.037125000000000075,0.2541,-0.0489,291.245,-2.6999,-2.7101,-1.5547,-1.6134,-163.95999999999998,215.6125,190.256125,0.0,0.0,0.0,0.0,0.06653333333333333,-5.498166666666667,-5.498166666666667,-0.6015,-0.22899999999999998,-0.03925000000000001,-0.16000000000000003,69.89,-0.0046,-0.201875,-0.25200000000000067,100.0,1.0,1.0,215.62,0.0,0.0,0.0,0.0,0.0,0.0,0.0,9139.4,0.0,55.0,5.0,251.57666666666665,1.0,0.0,0.0,0.0,0.0,0.0,1.0,0.0,1.6529999999999987,1.6529999999999987,0.0,0.0,1.0,55.0,616.79921,10000.0,85.000001,85.000001,85.000001,85.000001,395.0,0.0,0.0,0.0,1.0,166.665,51.941,51.941,46.066,46.066,34.0,-23.8,23.787999999999997,-28.5,29.9875,0.0,1781.184,-0.4800000000000004,100.0,28.692,28.58,43.391999999999996,44.634,0.0,0.0,100.0,0.0,0.0,0.0,0.0,3184.75,2994.6,4121.5,4243.0,305.355,305.173,313.19966666666664,314.41975,22.08,20.6638,18.5045,21.6818,314.999998,314.999998,324.999988,324.999988,99.5582,99.50708333333333,99.57251428571429,99.55338571428571,0.09566666666666634,-0.05400000000000005,-0.11549999999999994,0.10866666666666669,-0.046666666666666856,-0.04833333333333201,1.5955,1.5915,39.0,30.149,41.653,36.510999999999996,55.579,35.3455,66.498,54.978,53.561,34.4735,63.8855,53.157,52.736000000000004,34.025999999999996,64.7,52.48266666666667,-0.123,-0.045500000000000096,0.10268500000000001,0.10841,0.0,218.76,218.76999999999998,215.62,215.62,0.0,0.0
34,0.0,0.0,0.0,1.0,1.0,0.0,0.0,1.0,0.0,100.0,1.0,1.1856,26.0,0.0,0.0,0.0,59.999996,0.0,26.0,26.0,26.0,26.0,0.018000000000000016,0.25770000000000004,-0.06033333333333334,291.397,-2.6368,-2.7108,-1.60975,-1.5867,-160.39,215.61,190.228375,0.0,0.0,0.0,0.0,0.06863333333333332,-5.498166666666667,-5.498166666666667,-0.6254000000000001,-0.7426666666666667,-0.015249999999999986,0.98,70.02,-0.0037,-0.20497500000000002,-0.2999999999999998,100.0,1.0,1.0,215.99,0.0,0.0,0.0,0.0,0.0,0.0,0.0,9155.0,0.0,55.0,5.0,252.04333333333335,0.0,0.0,0.0,0.0,0.0,0.0,1.0,0.0,1.7040000000000006,1.7040000000000006,0.0,0.0,0.0,55.0,616.79921,10000.0,85.000001,85.000001,85.000001,85.000001,395.0,0.0,0.0,0.0,1.0,333.33500000000004,52.155,52.155,46.494,46.494,34.0,-22.1925,24.692,-28.519999999999996,30.302500000000002,0.0,1781.131,-0.45500000000000007,100.0,28.635,28.139,43.304,44.628,0.0,0.0,100.0,0.0,0.0,0.0,0.0,3059.75,3027.9,4064.0,4295.4,305.4125,305.15275,313.37533333333334,314.307,22.089125,20.6693,18.516750000000002,21.6915,314.999998,314.999998,324.999988,324.999988,99.55821428571429,99.5071,99.57265714285714,99.55355714285714,0.10266666666666646,-0.03699999999999992,-0.11049999999999993,0.11216666666666675,-0.036666666666668846,-0.03999999999999915,1.592,1.574,39.057,30.183,41.729,36.572,55.567,35.3825,66.541,55.0385,53.55,34.507999999999996,63.925,53.2155,52.723,34.0585,64.7365,52.53966666666666,-0.11949999999999994,-0.03400000000000003,0.10833000000000001,0.10054500000000001,0.0,219.125,219.14,215.99,215.99,0.0,0.0
35,0.0,0.0,0.0,1.0,1.0,0.0,0.0,1.0,0.0,100.0,1.0,1.1856,26.0,0.0,0.0,0.0,59.999996,0.0,26.0,26.0,26.0,26.0,0.04325000000000001,0.24530000000000007,-0.06570000000000001,291.489,-2.7025,-2.6428000000000003,-1.5103499999999999,-1.6065,-156.81,215.60750000000002,190.198625,0.0,0.0,0.0,0.0,0.07069999999999999,-5.498166666666667,-5.498166666666667,-0.6684,-0.3816666666666666,-0.027249999999999996,-1.088,70.147,0.0006000000000000001,-0.2156,-0.2920000000000007,100.0,1.0,1.0,216.4766666666667,0.0,0.0,0.0,0.0,0.0,0.0,0.0,9175.6,0.0,55.0,5.0,252.5,1.0,0.0,0.0,0.0,0.0,0.0,1.0,0.0,1.754999999999999,1.754999999999999,0.0,0.0,1.0,55.0,616.79921,10000.0,85.000001,85.000001,85.000001,85.000001,395.0,0.0,0.0,0.0,1.0,166.665,51.804,51.804,46.188,46.188,34.0,-24.662499999999998,25.52,-26.71666666666666,28.5375,0.0,1781.083,-0.27500000000000036,100.0,28.274,28.493000000000002,43.068,44.214,0.0,0.0,100.0,0.0,0.0,0.0,0.0,3200.125,3244.8,4063.875,4056.5,305.267,304.4255,313.4286666666667,314.9535,22.098125,20.6749,18.528875,21.7009,314.999998,314.999998,324.999988,324.999988,99.55822857142857,99.5071,99.57282857142857,99.55371428571429,0.0813333333333337,-0.052000000000000046,-0.10466666666666657,0.11749999999999994,-0.06833333333332803,-0.02833333333332888,1.623,1.6165,39.113,30.218,41.805,36.631,55.553,35.422,66.583,55.0945,53.536,34.544,63.963499999999996,53.269999999999996,52.709,34.0935,64.772,52.593,-0.10150000000000003,-0.05800000000000005,0.10689000000000001,0.10887000000000001,0.0,219.54500000000002,219.535,216.4766666666667,216.4766666666667,0.0,0.0
36,0.0,0.0,0.0,1.0,1.0,0.0,0.0,1.0,0.0,100.0,1.0,1.1856,26.0,0.0,0.0,0.0,59.999996,0.0,26.0,26.0,26.0,26.0,0.031749999999999945,0.27,0.017566666666666668,290.695,-2.7424,-2.6879,-1.5361,-1.5845,-153.44,215.60750000000002,190.16925,0.0,0.0,0.0,0.0,0.07266666666666655,-5.498166666666667,-5.498166666666667,-0.6508,0.40266666666666673,-0.07399999999999984,-1.613,70.269,-0.0019,-0.183875,-0.006000000000000227,100.0,1.0,1.0,216.65666666666667,0.0,0.0,0.0,0.0,0.0,0.0,0.0,9183.3,0.0,55.0,5.0,252.94,0.0,0.0,0.0,0.0,0.0,0.0,1.0,0.0,1.8030000000000008,1.8030000000000008,0.0,0.0,0.0,55.0,616.79921,10000.0,85.000001,85.000001,85.000001,85.000001,395.0,0.0,0.0,0.0,1.0,166.665,51.437,51.437,45.837,45.837,34.0,-26.4875,23.744,-29.75,32.04,0.0,1781.035,-0.23499999999999943,100.0,28.87,28.762,43.134,44.397000000000006,0.0,0.0,100.0,0.0,0.0,0.0,0.0,3400.625,3040.5,4371.5,4475.4,304.7835,305.0585,312.5713333333333,313.8515,22.106875,20.6803,18.540375,21.71,314.999998,314.999998,324.999988,324.999988,99.55824285714286,99.50711666666666,99.57297142857144,99.55385714285714,0.08666666666666645,-0.06000000000000005,-0.10250000000000004,0.1120000000000001,-0.054999999999999716,-0.02833333333332888,1.5494999999999999,1.5325,39.168,30.252,41.876999999999995,36.687,55.544,35.460499999999996,66.6245,55.150999999999996,53.527,34.58,64.002,53.324,52.699,34.128,64.807,52.646,-0.10399999999999998,-0.0685,0.102355,0.110405,0.0,219.97,219.95,216.65666666666667,216.65666666666667,0.0,0.0
