,ABS Active,ABS Enabled,AID Allow Tire Blankets,AID Auto Blip,AID Auto Clutch,AID Auto Shift,AID Fuel Rate,AID Ideal Line,AID Mech Damage,AID Stability,AID Tire Wear Rate,Air Density,Air Temp,Ballast,Best Lap Delta,Best Lap Time,Brake Bias,Brake Pos,Brake Temp FL,Brake Temp FR,Brake Temp RL,Brake Temp RR,CG Accel Lateral,CG Accel Longitudinal,CG Accel Vertical,CG Height,Camber FL,Camber FR,Camber RL,Camber RR,Car Coord X,Car Coord Y,Car Coord Z,Car Damage Front,Car Damage Left,Car Damage Rear,Car Damage Right,Car Pos Norm,Caster FL,Caster FR,Chassis Pitch Angle,Chassis Pitch Rate,Chassis Roll Angle,Chassis Roll Rate,Chassis Velocity X,Chassis Velocity Y,Chassis Velocity Z,Chassis Yaw Rate,Clutch Pos,DRS Active,DRS Available,Drive Train Speed,ERS Heat Charging,ERS Is Charging,ERS Max Energy,ERS Power Level,ERS Recovery Level,Engine Brake Setting,Engine Limiter,Engine RPM,Flags,Fuel Level,Gear,Ground Speed,HR Sample Clock,In Pit,KERS Charge,KERS Deployed Energy,KERS Input,KERS Max Energy,LR Sample Clock,Lap Invalidated,Lap Time,Lap Time2,Last Lap Time,Last Sector Time,MR Sample Clock,Max Fuel,Max Power,Max RPM,Max Sus Travel FL,Max Sus Travel FR,Max Sus Travel RL,Max Sus Travel RR,Max Torque,Max Turbo Boost,Num Tires Off Track,Penalties Enabled,Position,Raw Data Sample Rate,Ride Height FL,Ride Height FR,Ride Height RL,Ride Height RR,Road Temp,Self Align Torque FL,Self Align Torque FR,Self Align Torque RL,Self Align Torque RR,Session Lap Count,Session Time Left,Steering Angle,Surface Grip,Suspension Travel FL,Suspension Travel FR,Suspension Travel RL,Suspension Travel RR,TC Active,TC Enabled,Throttle Pos,Tire Dirt Level FL,Tire Dirt Level FR,Tire Dirt Level RL,Tire Dirt Level RR,Tire Load FL,Tire Load FR,Tire Load RL,Tire Load RR,Tire Loaded Radius FL,Tire Loaded Radius FR,Tire Loaded Radius RL,Tire Loaded Radius RR,Tire Pressure FL,Tire Pressure FR,Tire Pressure RL,Tire Pressure RR,Tire Radius FL,Tire Radius FR,Tire Radius RL,Tire Radius RR,Tire Rubber Grip FL,Tire Rubber Grip FR,Tire Rubber Grip RL,Tire Rubber Grip RR,Tire Slip Angle FL,Tire Slip Angle FR,Tire Slip Angle RL,Tire Slip Angle RR,Tire Slip Ratio FL,Tire Slip Ratio FR,Tire Slip Ratio RL,Tire Slip Ratio RR,Tire Temp Core FL,Tire Temp Core FR,Tire Temp Core RL,Tire Temp Core RR,Tire Temp Inner FL,Tire Temp Inner FR,Tire Temp Inner RL,Tire Temp Inner RR,Tire Temp Middle FL,Tire Temp Middle FR,Tire Temp Middle RL,Tire Temp Middle RR,Tire Temp Outer FL,Tire Temp Outer FR,Tire Temp Outer RL,Tire Temp Outer RR,Toe In FL,Toe In FR,Toe In RL,Toe In RR,Turbo Boost,Wheel Angular Speed FL,Wheel Angular Speed FR,Wheel Angular Speed RL,Wheel Angular Speed RR,Wind Direction,Wind Speed
0,0.0,0.0,0.0,1.0,1.0,0.0,0.0,1.0,0.0,100.0,1.0,1.1856,26.0,0.0,0.0,0.0,59.99999,0.0,26.0,26.0,26.0,26.0,-0.050124999999999975,0.2964,0.1451,292.664,-2.8319,-2.372875,-1.6343,-1.415125,-275.78,215.905,190.987125,0.0,0.0,0.0,0.0,0.0015333333333333334,-5.498166666666667,-5.498166666666667,-0.5094000000000001,1.2996666666666667,0.08711111111111114,-0.778,65.388,0.054200000000000005,-0.154975,1.0620000000000012,100.0,1.0,1.0,202.32999999999998,0.0,0.0,0.0,0.0,0.0,0.0,0.0,8576.1,0.0,55.0,5.0,235.36333333333334,0.0,0.0,0.0,0.0,0.0,0.0,0.0,0.0,0.0030000000000001137,0.0030000000000001137,0.0,0.0,0.0,55.0,616.79921,10000.0,85.0,85.0,85.0,85.0,395.0,0.0,0.0,0.0,1.0,20.0,52.338,52.338,47.073,47.073,34.0,-25.4675,27.06,-27.985,24.4175,0.0,1782.848,1.1550000000000011,100.0,26.294,27.213,41.292,38.455,0.0,0.0,100.0,0.0,0.0,0.0,0.0,2979.75,3933.5,4202.555555555556,3800.7,305.839,302.27125,314.75625,309.524,21.672,20.572400000000002,22.033555555555555,12.178125,314.99999,314.99999,324.99998,324.99998,99.55502857142856,99.50821666666667,99.58108571428572,99.55151428571429,0.03475000000000006,-0.07750000000000001,-0.08779999999999999,0.13559999999999994,-0.05666666666667197,-0.05833333333333002,1.778,1.8225,36.45,29.5775,38.71,39.613,54.657,35.307,64.807,67.017,52.694,34.458,63.177,62.2675,51.928,34.038,63.07,63.820499999999996,0.02300000000000013,-0.16700000000000026,0.10708000000000001,0.10874,0.0,204.91,204.81,202.32999999999998,202.32999999999998,0.0,0.0
1,0.0,0.0,0.0,1.0,1.0,0.0,0.0,1.0,0.0,100.0,1.0,1.1856,26.0,0.0,0.0,0.0,59.999996,0.0,26.0,26.0,26.0,26.0,-0.127625,0.31390000000000007,0.065125,291.595,-2.7478,-2.615625,-1.6153,-1.25725,-272.44,215.925,190.966875,0.0,0.0,0.0,0.0,0.0034666666666666665,-5.498166666666667,-5.498166666666667,-0.4354,-0.43399999999999994,0.030888888888888966,0.10399999999999987,65.544,0.0287,-0.125525,1.3740000000000006,100.0,1.0,1.0,202.31,0.0,0.0,0.0,0.0,0.0,0.0,0.0,8575.2,0.0,55.0,5.0,235.92333333333335,1.0,0.0,0.0,0.0,0.0,0.0,0.0,0.0,0.053999999999998494,0.053999999999998494,0.0,0.0,1.0,55.0,616.79921,10000.0,85.000001,85.000001,85.000001,85.000001,395.0,0.0,0.0,0.0,1.0,333.33500000000004,54.184,54.184,45.456,45.456,34.0,-23.3775,18.124000000000002,-35.8475,26.87,0.0,1782.798,1.1950000000000003,100.0,26.699,27.387999999999998,43.281,39.620000000000005,0.0,0.0,100.0,0.0,0.0,0.0,0.0,2784.875,2668.8,4862.222222222223,4584.3,306.1963333333333,306.245,313.00075,306.40933333333334,21.681333333333335,20.578,22.04588888888889,12.192875,314.999998,314.999998,324.999988,324.999988,99.55504285714285,99.50821666666667,99.58125714285714,99.55167142857142,0.029249999999999998,-0.10524999999999995,-0.10939999999999994,0.10260000000000002,-0.01833333333333087,-0.015000000000000568,1.5594999999999999,1.609,36.507999999999996,29.612499999999997,38.787,39.706,54.643,35.347,64.848,67.1325,52.68,34.495,63.216,62.373,51.914,34.074,63.105000000000004,63.93,0.024666666666666615,-0.16999999999999993,0.10990000000000001,0.10744500000000001,0.0,205.38,205.26999999999998,202.31,202.31,0.0,0.0
2,0.0,0.0,0.0,1.0,1.0,0.0,0.0,1.0,0.0,100.0,1.0,1.1856,26.0,0.0,0.0,0.0,59.999996,0.0,26.0,26.0,26.0,26.0,-0.12137500000000001,0.27670000000000017,-0.08255,292.953,-2.7042,-2.683875,-1.5985,-1.4405000000000001,-269.1,215.94,190.948375,0.0,0.0,0.0,0.0,0.005433333333333333,-5.498166666666667,-5.498166666666667,-0.5207,-0.4790000000000001,0.036222222222222156,0.276,65.68299999999999,0.006500000000000001,-0.2281,1.5700000000000003,100.0,1.0,1.0,203.44333333333333,0.0,0.0,0.0,0.0,0.0,0.0,0.0,8623.3,0.0,55.0,5.0,236.43,0.0,0.0,0.0,0.0,0.0,0.0,0.0,0.0,0.10500000000000043,0.10500000000000043,0.0,0.0,0.0,55.0,616.79921,10000.0,85.000001,85.000001,85.000001,85.000001,395.0,0.0,0.0,0.0,1.0,333.33500000000004,52.658,52.658,48.522999999999996,48.522999999999996,34.0,-28.66,21.588,-26.435,18.1875,0.0,1782.746,1.2050000000000018,100.0,27.264,27.349,43.246,39.722,0.0,0.0,100.0,0.0,0.0,0.0,0.0,3266.125,3082.2,3769.1111111111113,3290.1,304.876,304.954,315.69675,311.51666666666665,21.69088888888889,20.5834,22.05777777777778,12.20725,314.999998,314.999998,324.999988,324.999988,99.55505714285714,99.50823333333334,99.58141428571429,99.55181428571429,0.004250000000000087,-0.11649999999999994,-0.14600000000000002,0.07400000000000007,-0.07833333333332604,-0.011666666666670267,1.8685,1.9224999999999999,36.568,29.646,38.861000000000004,39.795,54.631,35.3855,64.88,67.232,52.668,34.5305,63.2455,62.463499999999996,51.900999999999996,34.108000000000004,63.1315,64.0245,0.022666666666666835,-0.1695000000000002,0.10724,0.10737000000000001,0.0,205.815,205.625,203.44333333333333,203.44333333333333,0.0,0.0
3,0.0,0.0,0.0,1.0,1.0,0.0,0.0,1.0,0.0,100.0,1.0,1.1856,26.0,0.0,0.0,0.0,59.999996,0.0,26.0,26.0,26.0,26.0,-0.14800000000000002,0.3134000000000001,-0.0395,292.603,-2.7123,-2.6412500000000003,-1.5716999999999999,-1.490625,-265.94,215.9525,190.92975,0.0,0.0,0.0,0.0,0.007266666666666668,-5.498166666666667,-5.498166666666667,-0.47090000000000004,1.2243333333333333,0.04899999999999993,-0.5420000000000003,65.825,-0.0212,-0.1476,1.4979999999999993,100.0,1.0,1.0,203.59333333333333,0.0,0.0,0.0,0.0,0.0,0.0,0.0,8629.6,0.0,55.0,5.0,236.93666666666667,1.0,0.0,0.0,0.0,0.0,0.0,0.0,0.0,0.1529999999999987,0.1529999999999987,0.0,0.0,1.0,55.0,616.79921,10000.0,85.000001,85.000001,85.000001,85.000001,395.0,0.0,0.0,0.0,1.0,166.665,53.741,53.741,46.31,46.31,34.0,-24.245,19.168,-34.582499999999996,21.365,0.0,1782.699,1.0899999999999999,100.0,27.179,27.451999999999998,42.936,39.248000000000005,0.0,0.0,100.0,0.0,0.0,0.0,0.0,2800.375,2894.7,4555.0,3786.5,306.33,305.448,313.8925,309.8143333333333,21.699666666666666,20.5886,22.06877777777778,12.220375,314.999998,314.999998,324.999988,324.999988,99.55505714285714,99.50825,99.58157142857142,99.55195714285715,-0.0040000000000000036,-0.13224999999999998,-0.1634,0.05580000000000007,-0.04999999999999716,-0.02833333333332888,1.7045,1.838,36.623000000000005,29.6785,38.93,39.878,54.617000000000004,35.4245,64.9115,67.3255,52.655,34.5665,63.2745,62.549,51.887,34.141999999999996,63.1575,64.113,0.01200000000000001,-0.16400000000000015,0.10518500000000001,0.10613500000000001,0.0,206.31,206.15,203.59333333333333,203.59333333333333,0.0,0.0
4,0.0,0.0,0.0,1.0,1.0,0.0,0.0,1.0,0.0,100.0,1.0,1.1856,26.0,0.0,0.0,0.0,59.999996,0.0,26.0,26.0,26.0,26.0,-0.146625,0.29300000000000015,0.0342,292.313,-2.776,-2.68025,-1.5531000000000001,-1.471,-262.58,215.9625,190.90975,0.0,0.0,0.0,0.0,0.0092,-5.498166666666667,-5.498166666666667,-0.4832,-1.141,0.024666666666666615,-0.7090000000000001,65.973,-0.0298,-0.164275,1.4239999999999995,100.0,1.0,1.0,203.95666666666668,0.0,0.0,0.0,0.0,0.0,0.0,0.0,8645.0,0.0,55.0,5.0,237.4766666666667,0.0,0.0,0.0,0.0,0.0,0.0,0.0,0.0,0.20400000000000063,0.20400000000000063,0.0,0.0,0.0,55.0,616.79921,10000.0,85.000001,85.000001,85.000001,85.000001,395.0,0.0,0.0,0.0,1.0,166.665,53.558,53.558,46.051,46.051,34.0,-26.075,20.786,-32.412499999999994,21.61,0.0,1782.648,1.2149999999999999,100.0,26.921,27.005,43.866,39.649,0.0,0.0,100.0,0.0,0.0,0.0,0.0,2914.75,3130.9,4348.0,3786.5,306.0176666666667,304.93725,314.3115,309.597,21.70888888888889,20.594,22.08088888888889,12.235,314.999998,314.999998,324.999988,324.999988,99.55505714285714,99.50826666666667,99.58174285714286,99.55211428571428,-0.00924999999999998,-0.14,-0.16100000000000003,0.05879999999999996,-0.04833333333333201,-0.06333333333333258,1.7069999999999999,1.764,36.68,29.7125,39.004999999999995,39.968,54.599999999999994,35.465,64.95,67.4315,52.638,34.6035,63.3105,62.6455,51.870000000000005,34.1775,63.19,64.213,0.021333333333333204,-0.16900000000000004,0.10448500000000001,0.10908000000000001,0.0,206.69,206.57,203.95666666666668,203.95666666666668,0.0,0.0
5,0.0,0.0,0.0,1.0,1.0,0.0,0.0,1.0,0.0,100.0,1.0,1.1856,26.0,0.0,0.0,0.0,59.999996,0.0,26.0,26.0,26.0,26.0,-0.15400000000000003,0.28310000000000013,-0.0279,292.496,-2.7476,-2.678125,-1.5855000000000001,-1.5422500000000001,-259.21,215.9675,190.88975,0.0,0.0,0.0,0.0,0.011166666666666668,-5.498166666666667,-5.498166666666667,-0.5064000000000001,0.261,-0.01922222222222203,-0.8199999999999998,66.117,-0.038,-0.185,1.6500000000000004,100.0,1.0,1.0,204.56333333333333,0.0,0.0,0.0,0.0,0.0,0.0,0.0,8670.8,0.0,55.0,5.0,237.99,1.0,0.0,0.0,0.0,0.0,0.0,0.0,0.0,0.254999999999999,0.254999999999999,0.0,0.0,1.0,55.0,616.79921,10000.0,85.000001,85.000001,85.000001,85.000001,395.0,0.0,0.0,0.0,1.0,166.665,53.116,53.116,47.089,47.089,34.0,-28.875,19.234,-32.57,20.675,0.0,1782.597,0.9050000000000011,100.0,27.301,27.240000000000002,43.639,39.369,0.0,0.0,100.0,0.0,0.0,0.0,0.0,3185.5,2937.7,4262.777777777777,3623.4,305.2,305.355,314.62025,310.34766666666667,21.718333333333334,20.5995,22.092666666666666,12.249,314.999998,314.999998,324.999988,324.999988,99.55505714285714,99.50828333333334,99.5819,99.55225714285714,-0.013499999999999956,-0.14574999999999994,-0.1794,0.04800000000000004,-0.03499999999999659,-0.045000000000001705,1.7685,1.813,36.739999999999995,29.746499999999997,39.08,40.056,54.588,35.5065,64.985,67.5275,52.626999999999995,34.641999999999996,63.3425,62.7325,51.857,34.2145,63.2185,64.303,0.004666666666666597,-0.15949999999999998,0.105645,0.11223500000000002,0.0,207.15,207.03,204.25,204.88,0.0,0.0
6,0.0,0.0,0.0,1.0,1.0,0.0,0.0,1.0,0.0,100.0,1.0,1.1856,26.0,0.0,0.0,0.0,59.999996,0.0,26.0,26.0,26.0,26.0,-0.16912499999999997,0.2976000000000001,-0.0026750000000000003,292.328,-2.7151,-2.721,-1.6303,-1.482625,-255.82999999999998,215.97,190.86925,0.0,0.0,0.0,0.0,0.013133333333333335,-5.498166666666667,-5.498166666666667,-0.4834,0.34099999999999997,0.004555555555555646,1.307,66.264,-0.0477,-0.1554,1.3780000000000001,100.0,1.0,1.0,204.89,0.0,0.0,0.0,0.0,0.0,0.0,0.0,8684.6,0.0,55.0,5.0,238.51999999999998,0.0,0.0,0.0,0.0,0.0,0.0,0.0,0.0,0.30600000000000094,0.30600000000000094,0.0,0.0,0.0,55.0,616.79921,10000.0,85.000001,85.000001,85.000001,85.000001,395.0,0.0,0.0,0.0,1.0,166.665,53.543,53.543,46.295,46.295,34.0,-25.5075,20.796,-34.2375,21.435,0.0,1782.546,0.8100000000000023,100.0,27.254,26.984,43.849000000000004,39.274,0.0,0.0,100.0,0.0,0.0,0.0,0.0,2896.25,3030.6,4360.222222222223,3874.7,305.8623333333333,305.20925,314.293,309.48633333333333,21.727777777777778,20.6049,22.104666666666667,12.263375,314.999998,314.999998,324.999988,324.999988,99.55505714285714,99.5083,99.58207142857142,99.55241428571429,-0.0040000000000000036,-0.13124999999999998,-0.17599999999999993,0.04299999999999993,-0.03499999999999659,-0.045000000000001705,1.736,1.7725,36.799,29.7805,39.153999999999996,40.146,54.574,35.547,65.0215,67.6285,52.614000000000004,34.6795,63.376999999999995,62.8245,51.844,34.25,63.2495,64.398,-0.008000000000000007,-0.137,0.103715,0.10595,0.0,207.62,207.495,204.89,204.89,0.0,0.0
7,0.0,0.0,0.0,1.0,1.0,0.0,0.0,1.0,0.0,100.0,1.0,1.1856,26.0,0.0,0.0,0.0,59.999996,0.0,26.0,26.0,26.0,26.0,-0.12775000000000003,0.28510000000000013,0.025825,292.16,-2.6954,-2.707125,-1.5958999999999999,-1.5225,-252.45,215.9675,190.84875,0.0,0.0,0.0,0.0,0.0151,-5.498166666666667,-5.498166666666667,-0.48910000000000003,-0.10200000000000009,0.01577777777777789,-0.609,66.40899999999999,-0.0454,-0.16865,1.1340000000000003,100.0,1.0,1.0,205.34,0.0,0.0,0.0,0.0,0.0,0.0,0.0,8703.6,0.0,55.0,5.0,239.04333333333335,1.0,0.0,0.0,0.0,0.0,0.0,0.0,0.0,0.3569999999999993,0.3569999999999993,0.0,0.0,1.0,55.0,616.79921,10000.0,85.000001,85.000001,85.000001,85.000001,395.0,0.0,0.0,0.0,1.0,166.665,53.146,53.146,46.509,46.509,34.0,-26.38,21.881999999999998,-33.245000000000005,22.1075,0.0,1782.496,0.375,100.0,27.071,27.217,43.812,39.650999999999996,0.0,0.0,100.0,0.0,0.0,0.0,0.0,3116.625,3032.7,4282.555555555556,3797.5,305.3813333333333,304.98675,314.51425,309.54,21.737111111111112,20.6104,22.116666666666667,12.277875,314.999998,314.999998,324.999988,324.999988,99.55505714285714,99.50831666666667,99.58224285714286,99.55257142857143,0.019500000000000073,-0.10824999999999996,-0.17959999999999998,0.053200000000000136,-0.05333333333332746,-0.04999999999999716,1.7235,1.7625,36.857,29.814999999999998,39.229,40.236000000000004,54.561,35.5875,65.05799999999999,67.7325,52.601,34.716499999999996,63.4105,62.919,51.829,34.2855,63.2795,64.49549999999999,-0.04200000000000004,-0.10850000000000026,0.09639,0.11886000000000001,0.0,208.04500000000002,207.94,205.34,205.34,0.0,0.0
8,0.0,0.0,0.0,1.0,1.0,0.0,0.0,1.0,0.0,100.0,1.0,1.1856,26.0,0.0,0.0,0.0,59.999996,0.0,26.0,26.0,26.0,26.0,-0.105375,0.2862,0.01895,292.297,-2.7636,-2.6622500000000002,-1.5641,-1.525375,-249.26,215.9625,190.829375,0.0,0.0,0.0,0.0,0.016966666666666668,-5.498166666666667,-5.498166666666667,-0.49410000000000004,-0.3676666666666668,0.017777777777777892,-0.6579999999999999,66.545,-0.0324,-0.168825,0.6620000000000008,100.0,1.0,1.0,205.7266666666667,0.0,0.0,0.0,0.0,0.0,0.0,0.0,8719.9,0.0,55.0,5.0,239.53333333333333,0.0,0.0,0.0,0.0,0.0,0.0,0.0,0.0,0.40500000000000114,0.40500000000000114,0.0,0.0,0.0,55.0,616.79921,10000.0,85.000001,85.000001,85.000001,85.000001,395.0,0.0,0.0,0.0,1.0,333.33500000000004,53.68,53.68,46.036,46.036,34.0,-25.3975,21.316,-32.537499999999994,22.759999999999998,0.0,1782.446,0.2699999999999996,100.0,26.757,27.203,43.876,39.739000000000004,0.0,0.0,100.0,0.0,0.0,0.0,0.0,2975.625,3000.7,4373.111111111111,3799.5,305.877,305.1605,314.308,309.5473333333333,21.74588888888889,20.6155,22.12788888888889,12.291375,314.999998,314.999998,324.999988,324.999988,99.55507142857142,99.50833333333334,99.5824,99.55271428571429,0.021500000000000075,-0.10424999999999995,-0.15859999999999996,0.06499999999999995,-0.061666666666667425,-0.03999999999999915,1.7215,1.7495,36.912,29.847,39.299,40.321,54.547,35.6245,65.0915,67.828,52.588,34.7505,63.442,63.006,51.816,34.318,63.3075,64.5855,-0.04899999999999993,-0.09350000000000014,0.10758000000000001,0.10596000000000001,0.0,208.465,208.38,205.7266666666667,205.7266666666667,0.0,0.0
9,0.0,0.0,0.0,1.0,1.0,0.0,0.0,1.0,0.0,100.0,1.0,1.1856,26.0,0.0,0.0,0.0,59.999996,0.0,26.0,26.0,26.0,26.0,-0.10562499999999997,0.2864,0.025425,292.099,-2.6846,-2.674125,-1.6234000000000002,-1.47525,-245.86,215.9525,190.8085,0.0,0.0,0.0,0.0,0.018933333333333337,-5.498166666666667,-5.498166666666667,-0.4939,0.5773333333333333,0.018333333333333313,0.7529999999999999,66.687,-0.0115,-0.161675,0.38400000000000034,100.0,1.0,1.0,206.25,0.0,0.0,0.0,0.0,0.0,0.0,0.0,8742.2,0.0,55.0,5.0,240.04333333333335,1.0,0.0,0.0,0.0,0.0,0.0,0.0,0.0,0.4559999999999995,0.4559999999999995,0.0,0.0,1.0,55.0,616.79921,10000.0,85.000001,85.000001,85.000001,85.000001,395.0,0.0,0.0,0.0,1.0,166.665,52.902,52.902,46.799,46.799,34.0,-24.8875,23.804000000000002,-30.4075,23.615,0.0,1782.397,0.14499999999999957,100.0,27.326,27.293,43.735,39.671,0.0,0.0,100.0,0.0,0.0,0.0,0.0,3087.0,3148.7,4183.888888888889,3846.5,305.303,304.8465,314.7555,309.628,21.755222222222223,20.6212,22.139666666666667,12.30575,314.999998,314.999998,324.999988,324.999988,99.55507142857142,99.50835,99.58257142857143,99.55285714285715,0.0515000000000001,-0.07399999999999995,-0.13739999999999997,0.09499999999999997,-0.030000000000001137,-0.06499999999999773,1.76,1.7825,36.97,29.8825,39.373000000000005,40.411,54.535,35.664,65.125,67.92699999999999,52.576,34.787,63.473,63.096000000000004,51.803,34.353,63.335499999999996,64.6785,-0.06400000000000006,-0.08650000000000002,0.11218000000000002,0.10561500000000001,0.0,208.88,208.85500000000002,206.25,206.25,0.0,0.0
10,0.0,0.0,0.0,1.0,1.0,0.0,0.0,1.0,0.0,100.0,1.0,1.1856,26.0,0.0,0.0,0.0,59.999996,0.0,26.0,26.0,26.0,26.0,-0.07025000000000003,0.28600000000000003,0.03105,291.916,-2.7172,-2.659,-1.5949,-1.465375,-242.66,215.9425,190.788875,0.0,0.0,0.0,0.0,0.020800000000000003,-5.498166666666667,-5.498166666666667,-0.47350000000000003,-0.2873333333333332,0.05511111111111111,2.048,66.824,0.017,-0.148575,-0.10799999999999965,100.0,1.0,1.0,206.48333333333335,0.0,0.0,0.0,0.0,0.0,0.0,0.0,8752.1,0.0,55.0,5.0,240.5366666666667,0.0,0.0,0.0,0.0,0.0,0.0,1.0,0.0,0.5040000000000013,0.5040000000000013,0.0,0.0,0.0,55.0,616.79921,10000.0,85.000001,85.000001,85.000001,85.000001,395.0,0.0,0.0,0.0,1.0,333.33500000000004,53.711,53.711,45.486,45.486,34.0,-21.4225,23.404,-30.57,26.645,0.0,1782.348,0.10000000000000142,100.0,27.175,27.251,44.118,40.099000000000004,0.0,0.0,100.0,0.0,0.0,0.0,0.0,2729.0,3064.7,4428.111111111111,4049.1000000000004,306.37966666666665,305.15825,314.07875,308.799,21.76388888888889,20.6264,22.151,12.3195,314.999998,314.999998,324.999988,324.999988,99.55508571428571,99.50835,99.58272857142858,99.55301428571428,0.06275000000000008,-0.06125000000000003,-0.10020000000000007,0.12179999999999991,-0.04333333333332945,-0.04333333333332945,1.702,1.694,37.024,29.915,39.444,40.497,54.524,35.699,65.15899999999999,68.0275,52.565,34.8195,63.5045,63.188,51.791,34.3835,63.364,64.7735,-0.06033333333333313,-0.08349999999999991,0.11203,0.10615500000000001,0.0,209.29000000000002,209.29000000000002,206.48333333333335,206.48333333333335,0.0,0.0
11,0.0,0.0,0.0,1.0,1.0,0.0,0.0,1.0,0.0,100.0,1.0,1.1856,26.0,0.0,0.0,0.0,59.999996,0.0,26.0,26.0,26.0,26.0,-0.03562500000000002,0.2651000000000001,-0.04775,292.343,-2.77,-2.6317500000000003,-1.6542,-1.422125,-239.05,215.93,190.766875,0.0,0.0,0.0,0.0,0.022600000000000002,-5.498166666666667,-5.498166666666667,-0.5128,-0.2889999999999999,0.0818888888888889,0.21399999999999997,66.97200000000001,0.0451,-0.1819,-0.0860000000000003,100.0,1.0,1.0,207.18,0.0,0.0,0.0,0.0,0.0,0.0,0.0,8781.5,0.0,55.0,5.0,241.07,1.0,0.0,0.0,0.0,0.0,0.0,1.0,0.0,0.5579999999999998,0.5579999999999998,0.0,0.0,1.0,55.0,616.79921,10000.0,85.000001,85.000001,85.000001,85.000001,395.0,0.0,0.0,0.0,1.0,166.665,53.131,53.131,46.814,46.814,34.0,-22.3775,25.752000000000002,-25.16,25.12,0.0,1782.295,0.15000000000000213,100.0,26.91,27.521,43.691,40.309,0.0,0.0,100.0,0.0,0.0,0.0,0.0,2894.875,3262.3,3941.5555555555557,3766.4,305.943,304.49375,315.36275,309.915,21.773555555555557,20.6324,22.163444444444444,12.334875,314.999998,314.999998,324.999988,324.999988,99.55508571428571,99.50835,99.5829,99.55317142857143,0.08624999999999994,-0.043749999999999956,-0.0686,0.15599999999999992,-0.03166666666666629,-0.051666666666669414,1.8210000000000002,1.8135,37.085,29.9525,39.522,40.593,54.51,35.7395,65.19200000000001,68.13550000000001,52.551,34.857,63.535,63.286500000000004,51.777,34.4195,63.3905,64.876,-0.05600000000000005,-0.09200000000000008,0.1052,0.107825,0.0,209.72,209.72,207.18,207.18,0.0,0.0
12,0.0,0.0,0.0,1.0,1.0,0.0,0.0,1.0,0.0,100.0,1.0,1.1856,26.0,0.0,0.0,0.0,59.999996,0.0,26.0,26.0,26.0,26.0,-0.02024999999999999,0.3006,0.01115,291.977,-2.8196,-2.62925,-1.6143,-1.4797500000000001,-236.03,215.91750000000002,190.747625,0.0,0.0,0.0,0.0,0.025466666666666665,-5.498166666666667,-5.498166666666667,-0.504,0.3806666666666666,0.061555555555555586,-0.6830000000000003,67.098,0.0623,-0.158825,-0.09399999999999942,100.0,1.0,1.0,207.44666666666666,0.0,0.0,0.0,0.0,0.0,0.0,0.0,8792.9,0.0,55.0,5.0,241.52333333333334,0.0,0.0,0.0,0.0,0.0,0.0,1.0,0.0,0.602999999999998,0.602999999999998,0.0,0.0,0.0,55.0,616.79921,10000.0,85.000001,85.000001,85.000001,85.000001,395.0,0.0,0.0,0.0,1.0,166.665,53.101,53.101,45.959,45.959,34.0,-23.89,24.994,-27.86,26.5775,0.0,1782.25,0.16000000000000014,100.0,26.788,27.8,43.494,40.272999999999996,0.0,0.0,100.0,0.0,0.0,0.0,0.0,3031.0,3148.3,4376.444444444444,3826.1000000000004,305.72133333333335,304.69825,314.36725,309.633,21.781666666666666,20.6374,22.17388888888889,12.347625,314.999998,314.999998,324.999988,324.999988,99.5551,99.50836666666666,99.58304285714286,99.55331428571428,0.08450000000000002,-0.04074999999999995,-0.05799999999999994,0.1604000000000001,-0.05833333333333002,-0.01999999999999602,1.714,1.81,37.135,29.984,39.587,40.672,54.5,35.7725,65.2205,68.225,52.542,34.8875,63.5615,63.3685,51.766,34.449,63.414,64.9605,-0.05166666666666675,-0.09450000000000003,0.10729000000000001,0.104815,0.0,210.14499999999998,210.125,207.44666666666666,207.44666666666666,0.0,0.0
13,0.0,0.0,0.0,1.0,1.0,0.0,0.0,1.0,0.0,100.0,1.0,1.1856,26.0,0.0,0.0,0.0,59.999996,0.0,26.0,26.0,26.0,26.0,0.0017499999999999183,0.2715000000000001,0.037950000000000005,291.473,-2.8135,-2.606625,-1.6646,-1.45475,-232.4,215.9025,190.724625,0.0,0.0,0.0,0.0,0.02676666666666667,-5.498166666666667,-5.498166666666667,-0.4894,-0.03866666666666685,0.07911111111111113,-0.266,67.249,0.07640000000000001,-0.153175,-0.11799999999999944,100.0,1.0,1.0,207.78333333333333,0.0,0.0,0.0,0.0,0.0,0.0,0.0,8807.2,0.0,55.0,5.0,242.06666666666666,1.0,0.0,0.0,0.0,0.0,0.0,1.0,0.0,0.657,0.657,0.0,0.0,1.0,55.0,616.79921,10000.0,85.000001,85.000001,85.000001,85.000001,395.0,0.0,0.0,0.0,1.0,166.665,52.872,52.872,45.532,45.532,34.0,-22.255,26.03,-29.195,28.9975,0.0,1782.195,0.11500000000000199,100.0,26.946,28.009,43.742000000000004,40.675,0.0,0.0,100.0,0.0,0.0,0.0,0.0,3005.75,3164.3,4421.444444444444,4044.8,305.78833333333336,304.6435,314.22175,308.728,21.791333333333334,20.6436,22.186555555555557,12.363125,314.999998,314.999998,324.999988,324.999988,99.55511428571428,99.50836666666666,99.58321428571429,99.55347142857143,0.1180000000000001,-0.015249999999999986,-0.05840000000000001,0.16820000000000013,-0.04833333333333201,-0.03166666666666629,1.678,1.668,37.196,30.0225,39.666,40.769999999999996,54.489000000000004,35.8125,65.257,68.338,52.531,34.9245,63.5955,63.4715,51.754000000000005,34.4845,63.444,65.06700000000001,-0.07099999999999995,-0.07850000000000001,0.11482500000000001,0.107255,0.0,210.595,210.595,207.78333333333333,207.78333333333333,0.0,0.0
14,0.0,0.0,0.0,1.0,1.0,0.0,0.0,1.0,0.0,100.0,1.0,1.1856,26.0,0.0,0.0,0.0,59.999996,0.0,26.0,26.0,26.0,26.0,0.0020000000000000018,0.2775000000000001,-0.0040750000000000005,291.626,-2.7949,-2.560125,-1.6636000000000002,-1.43425,-228.97,215.8875,190.70325,0.0,0.0,0.0,0.0,0.02876666666666667,-5.498166666666667,-5.498166666666667,-0.5034000000000001,-0.2590000000000001,0.10033333333333316,0.8939999999999999,67.388,0.08850000000000001,-0.174375,-0.2779999999999996,100.0,1.0,1.0,208.29000000000002,0.0,0.0,0.0,0.0,0.0,0.0,0.0,8828.6,0.0,55.0,5.0,242.57,0.0,0.0,0.0,0.0,0.0,0.0,1.0,0.0,0.7079999999999984,0.7079999999999984,0.0,0.0,0.0,55.0,616.79921,10000.0,85.000001,85.000001,85.000001,85.000001,395.0,0.0,0.0,0.0,1.0,166.665,52.78,52.78,45.760999999999996,45.760999999999996,34.0,-20.71,27.509999999999998,-25.439999999999998,28.8375,0.0,1782.145,0.10500000000000043,100.0,27.083,28.005,43.845,40.879,0.0,0.0,100.0,0.0,0.0,0.0,0.0,2845.125,3358.2,4167.333333333333,3961.2,306.0706666666667,304.22325,314.76125,309.176,21.800444444444445,20.6494,22.198333333333334,12.378,314.999998,314.999998,324.999988,324.999988,99.55512857142857,99.50838333333333,99.58338571428571,99.55362857142858,0.12400000000000011,-0.008749999999999925,-0.02859999999999996,0.19040000000000012,-0.041666666666671404,-0.061666666666667425,1.7415,1.7195,37.253,30.058500000000002,39.739999999999995,40.861999999999995,54.479,35.85,65.28999999999999,68.443,52.521,34.959,63.626,63.567499999999995,51.742999999999995,34.5175,63.4705,65.1665,-0.06299999999999994,-0.08999999999999986,0.11163000000000001,0.10296500000000001,0.0,211.0,211.035,208.29000000000002,208.29000000000002,0.0,0.0
15,0.0,0.0,0.0,1.0,1.0,0.0,0.0,1.0,0.0,100.0,1.0,1.1856,26.0,0.0,0.0,0.0,59.999996,0.0,26.0,26.0,26.0,26.0,0.02200000000000002,0.28059999999999996,-0.030125000000000002,291.672,-2.7626,-2.5296250000000002,-1.6776,-1.3885,-225.93,215.875,190.684375,0.0,0.0,0.0,0.0,0.030533333333333332,-5.498166666666667,-5.498166666666667,-0.49970000000000003,0.31333333333333335,0.1146666666666667,-0.15399999999999991,67.51,0.0959,-0.163725,-0.20399999999999974,100.0,1.0,1.0,208.69,0.0,0.0,0.0,0.0,0.0,0.0,0.0,8845.6,0.0,55.0,5.0,243.01,1.0,0.0,0.0,0.0,0.0,0.0,1.0,0.0,0.7530000000000001,0.7530000000000001,0.0,0.0,1.0,55.0,616.79921,10000.0,85.000001,85.000001,85.000001,85.000001,395.0,0.0,0.0,0.0,1.0,166.665,52.872,52.872,45.99,45.99,34.0,-20.4175,26.008,-26.0125,28.075,0.0,1782.099,0.125,100.0,27.126,28.208,43.552,40.924,0.0,0.0,100.0,0.0,0.0,0.0,0.0,2853.0,3209.3,4201.0,3976.4,306.17,304.5055,314.7685,309.10633333333334,21.808555555555557,20.6545,22.208666666666666,12.390875,314.999998,314.999998,324.999988,324.999988,99.55514285714285,99.50838333333333,99.58352857142857,99.55377142857142,0.12250000000000005,-0.00924999999999998,-0.03300000000000003,0.18579999999999997,-0.046666666666666856,-0.04999999999999716,1.7429999999999999,1.7475,37.303,30.0905,39.804,40.943,54.471000000000004,35.882999999999996,65.318,68.533,52.513999999999996,34.9895,63.6515,63.6495,51.733999999999995,34.5465,63.4935,65.252,-0.06266666666666665,-0.08800000000000008,0.106425,0.10279500000000001,0.0,211.43,211.41500000000002,208.69,208.69,0.0,0.0
16,0.0,0.0,0.0,1.0,1.0,0.0,0.0,1.0,0.0,100.0,1.0,1.1856,26.0,0.0,0.0,0.0,59.999996,0.0,26.0,26.0,26.0,26.0,0.028124999999999956,0.2673000000000001,-0.04965,291.626,-2.8609999999999998,-2.529875,-1.6609,-1.441625,-222.28,215.86,190.661,0.0,0.0,0.0,0.0,0.032633333333333334,-5.498166666666667,-5.498166666666667,-0.5138,-0.6600000000000001,0.10855555555555552,-1.133,67.65899999999999,0.1044,-0.17025,-0.29600000000000026,100.0,1.0,1.0,209.10000000000002,0.0,0.0,0.0,0.0,0.0,0.0,0.0,8862.9,0.0,55.0,5.0,243.54333333333335,0.0,0.0,0.0,0.0,0.0,0.0,1.0,0.0,0.8069999999999986,0.8069999999999986,0.0,0.0,0.0,55.0,616.79921,10000.0,85.000001,85.000001,85.000001,85.000001,395.0,0.0,0.0,0.0,1.0,166.665,52.841,52.841,45.532,45.532,34.0,-21.515,26.55,-25.25,29.065,0.0,1782.045,0.3249999999999993,100.0,26.789,28.288,43.855000000000004,41.1,0.0,0.0,100.0,0.0,0.0,0.0,0.0,2901.875,3281.0,4195.333333333333,3895.2,306.176,304.3135,314.77625,309.2676666666667,21.817888888888888,20.6607,22.221222222222224,12.406375,314.999998,314.999998,324.999988,324.999988,99.55515714285714,99.50838333333333,99.58371428571428,99.55394285714286,0.12224999999999997,-0.011749999999999927,-0.022399999999999975,0.20199999999999996,-0.041666666666671404,-0.03166666666666629,1.73,1.7225,37.361999999999995,30.1295,39.882999999999996,41.04,54.458,35.9225,65.353,68.6435,52.5,35.0265,63.684,63.751,51.72,34.582,63.522,65.357,-0.050999999999999934,-0.09799999999999986,0.11205500000000002,0.10079500000000001,0.0,211.82999999999998,211.86,209.10000000000002,209.10000000000002,0.0,0.0
17,0.0,0.0,0.0,1.0,1.0,0.0,0.0,1.0,0.0,100.0,1.0,1.1856,26.0,0.0,0.0,0.0,59.999996,0.0,26.0,26.0,26.0,26.0,-0.0031249999999999334,0.27870000000000017,-0.01845,291.367,-2.8041,-2.530625,-1.6861000000000002,-1.417875,-218.82999999999998,215.8475,190.638625,0.0,0.0,0.0,0.0,0.034633333333333335,-5.498166666666667,-5.498166666666667,-0.508,0.395,0.07711111111111113,0.579,67.79599999999999,0.1043,-0.15757500000000002,-0.15799999999999947,100.0,1.0,1.0,209.53333333333333,0.0,0.0,0.0,0.0,0.0,0.0,0.0,8881.4,0.0,55.0,5.0,244.03666666666666,1.0,0.0,0.0,0.0,0.0,0.0,1.0,0.0,0.8580000000000005,0.8580000000000005,0.0,0.0,1.0,55.0,616.79921,10000.0,85.000001,85.000001,85.000001,85.000001,395.0,0.0,0.0,0.0,1.0,166.665,52.551,52.551,45.578,45.578,34.0,-21.1875,26.63,-26.8075,29.875,0.0,1781.994,0.2950000000000017,100.0,27.392,28.304000000000002,43.746,40.947,0.0,0.0,100.0,0.0,0.0,0.0,0.0,2945.125,3257.3,4419.111111111111,3985.5,305.8306666666667,304.5645,314.27975,309.2393333333333,21.826999999999998,20.6666,22.233,12.421,314.999998,314.999998,324.999988,324.999988,99.55517142857143,99.50838333333333,99.58387142857143,99.5541,0.13349999999999995,0.0,-0.011199999999999988,0.21940000000000004,-0.04333333333332945,-0.051666666666669414,1.6785,1.796,37.419,30.1665,39.956,41.131,54.449,35.961,65.384,68.74549999999999,52.492000000000004,35.062,63.7125,63.8445,51.711,34.616,63.547,65.4535,-0.057666666666666755,-0.1030000000000002,0.10782000000000001,0.11846000000000001,0.0,212.305,212.305,209.44333333333333,209.62333333333333,0.0,0.0
18,0.0,0.0,0.0,1.0,1.0,0.0,0.0,1.0,0.0,100.0,1.0,1.1856,26.0,0.0,0.0,0.0,59.999996,0.0,26.0,26.0,26.0,26.0,0.0026250000000000995,0.27170000000000005,-0.052500000000000005,291.336,-2.8458,-2.496375,-1.7034,-1.360125,-215.78,215.8375,190.61875,0.0,0.0,0.0,0.0,0.03643333333333333,-5.498166666666667,-5.498166666666667,-0.5128,-0.488,0.09977777777777774,-0.133,67.918,0.1062,-0.166,-0.08399999999999963,100.0,1.0,1.0,209.87333333333333,0.0,0.0,0.0,0.0,0.0,0.0,0.0,8895.8,0.0,55.0,5.0,244.47666666666666,0.0,0.0,0.0,0.0,0.0,0.0,1.0,0.0,0.9029999999999987,0.9029999999999987,0.0,0.0,0.0,55.0,616.79921,10000.0,85.000001,85.000001,85.000001,85.000001,395.0,0.0,0.0,0.0,1.0,333.33500000000004,52.689,52.689,45.379999999999995,45.379999999999995,34.0,-22.0675,25.823999999999998,-27.0,28.0125,0.0,1781.949,0.370000000000001,100.0,27.069,28.335,44.015,41.266999999999996,0.0,0.0,100.0,0.0,0.0,0.0,0.0,2961.75,3285.6,4302.0,3969.7,306.007,304.38925,314.56125,309.1446666666667,21.835,20.6717,22.243555555555556,12.434125,314.999998,314.999998,324.999988,324.999988,99.55518571428571,99.50838333333333,99.58402857142858,99.55424285714285,0.1180000000000001,-0.019499999999999962,-0.028799999999999937,0.19059999999999988,-0.05333333333332746,-0.05833333333333002,1.7175,1.717,37.468,30.1985,40.022,41.213,54.44,35.9935,65.413,68.84,52.483000000000004,35.092,63.7395,63.931,51.701,34.644999999999996,63.570499999999996,65.543,-0.043333333333333224,-0.11149999999999993,0.11068000000000001,0.10101,0.0,212.655,212.66500000000002,209.87333333333333,209.87333333333333,0.0,0.0
19,0.0,0.0,0.0,1.0,1.0,0.0,0.0,1.0,0.0,100.0,1.0,1.1856,26.0,0.0,0.0,0.0,59.999996,0.0,26.0,26.0,26.0,26.0,-0.0036249999999999893,0.28680000000000017,0.031900000000000005,290.909,-2.801,-2.498125,-1.7098,-1.352,-212.31,215.825,190.59625,0.0,0.0,0.0,0.0,0.03843333333333333,-5.498166666666667,-5.498166666666667,-0.5117,0.6836666666666666,0.10033333333333316,0.542,68.054,0.1008,-0.16542500000000002,0.02200000000000024,100.0,1.0,1.0,210.32666666666665,0.0,0.0,0.0,0.0,0.0,0.0,0.0,8915.0,0.0,55.0,5.0,244.96666666666667,1.0,0.0,0.0,0.0,0.0,0.0,1.0,0.0,0.9540000000000006,0.9540000000000006,0.0,0.0,1.0,55.0,616.79921,10000.0,85.000001,85.000001,85.000001,85.000001,395.0,0.0,0.0,0.0,1.0,166.665,51.772999999999996,51.772999999999996,45.486,45.486,34.0,-21.9725,27.948,-26.89,29.045,0.0,1781.899,0.3249999999999993,100.0,27.741,28.646,43.835,41.155,0.0,0.0,100.0,0.0,0.0,0.0,0.0,3019.5,3455.4,4339.777777777777,4053.4,305.55533333333335,303.9075,314.4755,309.04333333333335,21.84411111111111,20.6778,22.255222222222223,12.44875,314.999998,314.999998,324.999988,324.999988,99.5552,99.5084,99.58418571428571,99.5544,0.131,-0.006750000000000034,-0.020399999999999974,0.20279999999999987,-0.03499999999999659,-0.05333333333332746,1.724,1.7175,37.525999999999996,30.236,40.095,41.305,54.432,36.033,65.444,68.9425,52.474999999999994,35.1285,63.768,64.025,51.691,34.68,63.595,65.6405,-0.04933333333333323,-0.1070000000000002,0.105325,0.105855,0.0,213.11,213.10500000000002,210.32666666666665,210.32666666666665,0.0,0.0
20,0.0,0.0,0.0,1.0,1.0,0.0,0.0,1.0,0.0,100.0,1.0,1.1856,26.0,0.0,0.0,0.0,59.999996,0.0,26.0,26.0,26.0,26.0,0.013624999999999998,0.27670000000000017,0.03155,291.183,-2.8484,-2.563625,-1.6357,-1.471875,-208.63,215.8125,190.572625,0.0,0.0,0.0,0.0,0.04056666666666667,-5.498166666666667,-5.498166666666667,-0.5094000000000001,-1.0156666666666667,0.10211111111111104,0.5800000000000001,68.201,0.0979,-0.16667500000000002,-0.1200000000000001,100.0,1.0,1.0,210.64,0.0,0.0,0.0,0.0,0.0,0.0,0.0,8928.3,0.0,55.0,5.0,245.49666666666667,0.0,0.0,0.0,0.0,0.0,0.0,0.0,0.0,1.0079999999999991,1.0079999999999991,0.0,0.0,0.0,55.0,616.79921,10000.0,85.000001,85.000001,85.000001,85.000001,395.0,0.0,0.0,0.0,1.0,166.665,52.963,52.963,44.693,44.693,34.0,-20.305,26.454,-26.1775,31.075,0.0,1781.844,0.3249999999999993,100.0,27.191,28.279,44.445,41.428,0.0,0.0,100.0,0.0,0.0,0.0,0.0,2750.375,3287.3,4331.444444444444,4057.2,306.50933333333336,304.48,314.334,308.704,21.853444444444445,20.6839,22.26788888888889,12.464625,314.999998,314.999998,324.999988,324.999988,99.55522857142857,99.5084,99.58437142857143,99.55457142857144,0.12125000000000008,-0.017749999999999932,-0.02100000000000002,0.20199999999999996,-0.04333333333332945,-0.05833333333333002,1.6795,1.679,37.584,30.2745,40.174,41.403999999999996,54.419,36.0725,65.48,69.0565,52.463,35.165,63.8015,64.129,51.678,34.715,63.625,65.748,-0.045666666666666744,-0.11149999999999993,0.10716,0.10727,0.0,213.515,213.54500000000002,210.64,210.64,0.0,0.0
21,0.0,0.0,0.0,1.0,1.0,0.0,0.0,1.0,0.0,100.0,1.0,1.1856,26.0,0.0,0.0,0.0,59.999996,0.0,26.0,26.0,26.0,26.0,0.014499999999999957,0.2662,-0.0731,291.58,-2.7579,-2.621625,-1.6949,-1.44,-205.56,215.8025,190.5525,0.0,0.0,0.0,0.0,0.04236666666666667,-5.498166666666667,-5.498166666666667,-0.5368,0.10433333333333339,0.07466666666666666,-1.2640000000000002,68.31700000000001,0.09330000000000001,-0.18065,0.05799999999999983,100.0,1.0,1.0,211.24,0.0,0.0,0.0,0.0,0.0,0.0,0.0,8953.7,0.0,55.0,5.0,245.91333333333336,1.0,0.0,0.0,0.0,0.0,0.0,0.0,0.0,1.0530000000000008,1.0530000000000008,0.0,0.0,1.0,55.0,616.79921,10000.0,85.000001,85.000001,85.000001,85.000001,395.0,0.0,0.0,0.0,1.0,333.33500000000004,52.429,52.429,46.173,46.173,34.0,-21.745,26.284,-25.685,27.115000000000002,0.0,1781.799,0.28999999999999915,100.0,27.324,28.549,43.842,41.29,0.0,0.0,100.0,0.0,0.0,0.0,0.0,3033.0,3172.7,4155.888888888889,3769.2,305.679,304.58,314.96225,309.9576666666667,21.861333333333334,20.6892,22.278111111111112,12.4775,314.999998,314.999998,324.999988,324.999988,99.55522857142857,99.5084,99.58451428571429,99.55471428571428,0.12549999999999994,-0.01649999999999996,-0.03279999999999994,0.18979999999999997,-0.03833333333332689,-0.04999999999999716,1.7785,1.764,37.634,30.307499999999997,40.238,41.483999999999995,54.411,36.106,65.505,69.1425,52.454,35.196,63.8245,64.208,51.669,34.745,63.644999999999996,65.83,-0.05133333333333323,-0.10499999999999998,0.10258,0.1102,0.0,213.89499999999998,213.9,211.24,211.24,0.0,0.0
22,0.0,0.0,0.0,1.0,1.0,0.0,0.0,1.0,0.0,100.0,1.0,1.1856,26.0,0.0,0.0,0.0,59.999996,0.0,26.0,26.0,26.0,26.0,0.012124999999999941,0.27900000000000014,0.003225,291.077,-2.7439,-2.622625,-1.6926,-1.422,-201.86,215.79000000000002,190.527375,0.0,0.0,0.0,0.0,0.044500000000000005,-5.498166666666667,-5.498166666666667,-0.5157,0.30666666666666664,0.08866666666666667,0.119,68.463,0.0936,-0.15235,-0.04999999999999982,100.0,1.0,1.0,211.49333333333334,0.0,0.0,0.0,0.0,0.0,0.0,0.0,8964.4,0.0,55.0,5.0,246.43666666666667,0.0,0.0,0.0,0.0,0.0,0.0,0.0,0.0,1.1069999999999993,1.1069999999999993,0.0,0.0,0.0,55.0,616.79921,10000.0,85.000001,85.000001,85.000001,85.000001,395.0,0.0,0.0,0.0,1.0,166.665,52.551,52.551,44.983000000000004,44.983000000000004,34.0,-20.7075,25.747999999999998,-28.425,28.595,0.0,1781.745,0.27500000000000213,100.0,27.445,28.671,44.123000000000005,41.317,0.0,0.0,100.0,0.0,0.0,0.0,0.0,2858.5,3161.8,4426.444444444444,4053.8,306.15866666666665,304.57225,314.28575,308.94466666666665,21.87088888888889,20.6954,22.290666666666667,12.493,314.999998,314.999998,324.999988,324.999988,99.55524285714286,99.5084,99.58468571428571,99.55488571428572,0.11325000000000007,-0.028249999999999997,-0.038799999999999946,0.17120000000000002,-0.03833333333332689,-0.045000000000001705,1.699,1.6965,37.693,30.3465,40.316,41.581,54.402,36.146,65.53999999999999,69.251,52.445,35.233000000000004,63.857,64.307,51.658,34.78,63.6735,65.9325,-0.052000000000000046,-0.10150000000000015,0.10484500000000001,0.09742500000000001,0.0,214.38,214.345,211.49333333333334,211.49333333333334,0.0,0.0
23,0.0,0.0,0.0,1.0,1.0,0.0,0.0,1.0,0.0,100.0,1.0,1.1856,26.0,0.0,0.0,0.0,59.999996,0.0,26.0,26.0,26.0,26.0,0.010625000000000107,0.2670000000000001,0.009550000000000001,290.985,-2.786,-2.5635000000000003,-1.7563,-1.477875,-198.37,215.7775,190.503875,0.0,0.0,0.0,0.0,0.046533333333333336,-5.498166666666667,-5.498166666666667,-0.5282,-0.33266666666666667,0.09822222222222221,0.32600000000000007,68.59700000000001,0.097,-0.171875,-0.07399999999999984,100.0,1.0,1.0,211.95,0.0,0.0,0.0,0.0,0.0,0.0,0.0,8983.8,0.0,55.0,5.0,246.92333333333335,1.0,0.0,0.0,0.0,0.0,0.0,0.0,0.0,1.1580000000000013,1.1580000000000013,0.0,0.0,1.0,55.0,616.79921,10000.0,85.000001,85.000001,85.000001,85.000001,395.0,0.0,0.0,0.0,1.0,166.665,51.987,51.987,45.731,45.731,34.0,-22.4325,27.358,-26.47,29.585,0.0,1781.694,0.28999999999999915,100.0,27.57,28.603,44.319,41.57,0.0,0.0,100.0,0.0,0.0,0.0,0.0,3071.5,3350.2,4151.333333333333,3943.9,305.5076666666667,304.2575,314.94825,309.22833333333335,21.87977777777778,20.7014,22.302444444444443,12.508,314.999998,314.999998,324.999988,324.999988,99.55525714285714,99.5084,99.58485714285715,99.55504285714285,0.12474999999999992,-0.011749999999999927,-0.027799999999999936,0.19500000000000006,-0.045000000000001705,-0.03166666666666629,1.7315,1.7249999999999999,37.748999999999995,30.383499999999998,40.39,41.675,54.391,36.1845,65.5725,69.3565,52.435,35.2685,63.887,64.4035,51.647,34.8145,63.6995,66.032,-0.05433333333333312,-0.10099999999999998,0.10958500000000002,0.10282500000000001,0.0,214.755,214.74,211.95,211.95,0.0,0.0
24,0.0,0.0,0.0,1.0,1.0,0.0,0.0,1.0,0.0,100.0,1.0,1.1856,26.0,0.0,0.0,0.0,59.999996,0.0,26.0,26.0,26.0,26.0,-0.0020000000000000018,0.2581,-0.028825,291.26,-2.7984,-2.5793749999999998,-1.6614,-1.43225,-195.28,215.76749999999998,190.482875,0.0,0.0,0.0,0.0,0.04833333333333333,-5.498166666666667,-5.498166666666667,-0.5381,-0.4053333333333333,0.0932222222222221,-0.29899999999999993,68.715,0.0985,-0.17115,-0.05799999999999983,100.0,1.0,1.0,212.3,0.0,0.0,0.0,0.0,0.0,0.0,0.0,8998.7,0.0,55.0,5.0,247.34666666666666,0.0,0.0,0.0,0.0,0.0,0.0,0.0,0.0,1.2029999999999994,1.2029999999999994,0.0,0.0,0.0,55.0,616.79921,10000.0,85.000001,85.000001,85.000001,85.000001,395.0,0.0,0.0,0.0,1.0,166.665,52.872,52.872,45.135,45.135,34.0,-20.9925,24.752000000000002,-28.7525,27.9075,0.0,1781.65,0.240000000000002,100.0,27.368,28.519,44.215,41.649,0.0,0.0,100.0,0.0,0.0,0.0,0.0,2879.375,3090.3,4475.444444444444,3900.3,306.159,304.92225,314.21175,309.4753333333333,21.887666666666668,20.7065,22.31277777777778,12.521,314.999998,314.999998,324.999988,324.999988,99.55527142857143,99.50841666666666,99.585,99.55518571428571,0.12050000000000005,-0.023749999999999938,-0.04079999999999995,0.1874,-0.041666666666671404,-0.046666666666666856,1.6245,1.814,37.798,30.416,40.455,41.757,54.382999999999996,36.216499999999996,65.6,69.4455,52.427,35.298500000000004,63.9125,64.4855,51.638,34.843,63.722,66.1165,-0.05400000000000005,-0.10450000000000026,0.11134500000000001,0.10268500000000001,0.0,215.13,215.125,212.17666666666668,212.42666666666668,0.0,0.0
25,0.0,0.0,0.0,1.0,1.0,0.0,0.0,1.0,0.0,100.0,1.0,1.1856,26.0,0.0,0.0,0.0,59.999996,0.0,26.0,26.0,26.0,26.0,0.02187500000000009,0.26370000000000005,-0.054675,291.29,-2.8715,-2.5385,-1.6834,-1.43225,-191.56,215.755,190.456375,0.0,0.0,0.0,0.0,0.0505,-5.498166666666667,-5.498166666666667,-0.5668000000000001,-0.04499999999999993,0.10177777777777774,-0.972,68.855,0.0981,-0.1736,-0.07600000000000051,100.0,1.0,1.0,212.84333333333333,0.0,0.0,0.0,0.0,0.0,0.0,0.0,9021.7,0.0,55.0,5.0,247.85000000000002,1.0,0.0,0.0,0.0,0.0,0.0,0.0,0.0,1.256999999999998,1.256999999999998,0.0,0.0,1.0,55.0,616.79921,10000.0,85.000001,85.000001,85.000001,85.000001,395.0,0.0,0.0,0.0,1.0,166.665,52.17,52.17,45.760999999999996,45.760999999999996,34.0,-23.2575,27.854,-25.564999999999998,28.1075,0.0,1781.596,0.19500000000000028,100.0,27.167,28.642,43.942,41.397999999999996,0.0,0.0,100.0,0.0,0.0,0.0,0.0,3101.375,3380.1,4123.333333333333,3854.7,305.64566666666667,304.028,315.009,309.7133333333333,21.897,20.7128,22.325111111111113,12.5365,314.999998,314.999998,324.999988,324.999988,99.55528571428572,99.50841666666666,99.58518571428571,99.55535714285715,0.12375000000000003,-0.006000000000000005,-0.03600000000000003,0.19700000000000006,-0.05666666666667197,-0.04333333333332945,1.764,1.756,37.855999999999995,30.455,40.532,41.852999999999994,54.370999999999995,36.2565,65.6315,69.5485,52.415,35.335499999999996,63.9415,64.58,51.625,34.8785,63.747,66.214,-0.05966666666666676,-0.09549999999999992,0.10888,0.110255,0.0,215.555,215.55,212.84333333333333,212.84333333333333,0.0,0.0
26,0.0,0.0,0.0,1.0,1.0,0.0,0.0,1.0,0.0,100.0,1.0,1.1856,26.0,0.0,0.0,0.0,59.999996,0.0,26.0,26.0,26.0,26.0,-0.0021249999999999325,0.2613000000000001,0.07490000000000001,290.161,-2.8264,-2.60875,-1.7331,-1.416875,-188.26,215.745,190.432,0.0,0.0,0.0,0.0,0.05243333333333334,-5.498166666666667,-5.498166666666667,-0.531,0.8856666666666667,0.08911111111111114,-0.6800000000000002,68.982,0.101,-0.14235,-0.18799999999999972,100.0,1.0,1.0,213.01999999999998,0.0,0.0,0.0,0.0,0.0,0.0,0.0,9029.1,0.0,55.0,5.0,248.30666666666667,0.0,0.0,0.0,0.0,0.0,0.0,0.0,0.0,1.3049999999999997,1.3049999999999997,0.0,0.0,0.0,55.0,616.79921,10000.0,85.000001,85.000001,85.000001,85.000001,395.0,0.0,0.0,0.0,1.0,166.665,51.544,51.544,44.266,44.266,34.0,-22.5175,27.016,-31.474999999999998,30.5775,0.0,1781.547,0.16499999999999915,100.0,27.968,29.283,44.26,41.616,0.0,0.0,100.0,0.0,0.0,0.0,0.0,3072.0,3266.1,4699.111111111111,4177.9,305.57666666666665,304.21925,313.7095,308.49966666666666,21.905555555555555,20.7186,22.336111111111112,12.5505,314.999998,314.999998,324.999988,324.999988,99.5553,99.50841666666666,99.58535714285715,99.55551428571428,0.13000000000000012,-0.020000000000000018,-0.034599999999999964,0.19240000000000013,-0.03833333333332689,-0.045000000000001705,1.5785,1.7349999999999999,37.91,30.491500000000002,40.601,41.941,54.364999999999995,36.2945,65.662,69.6465,52.409,35.3705,63.9695,64.6695,51.617000000000004,34.912,63.7715,66.307,-0.06699999999999995,-0.09549999999999992,0.10829000000000001,0.10796000000000001,0.0,215.985,215.995,212.91,213.12666666666667,0.0,0.0
27,0.0,0.0,0.0,1.0,1.0,0.0,0.0,1.0,0.0,100.0,1.0,1.1856,26.0,0.0,0.0,0.0,59.999996,0.0,26.0,26.0,26.0,26.0,0.02462500000000012,0.24540000000000006,0.01915,290.298,-2.8045999999999998,-2.563625,-1.733,-1.481125,-184.94,215.735,190.40875,0.0,0.0,0.0,0.0,0.05433333333333334,-5.498166666666667,-5.498166666666667,-0.5442,-1.0813333333333337,0.09966666666666679,-0.887,69.107,0.1106,-0.1784,-0.21999999999999975,100.0,1.0,1.0,213.36333333333334,0.0,0.0,0.0,0.0,0.0,0.0,0.0,9043.7,0.0,55.0,5.0,248.76,1.0,0.0,0.0,0.0,0.0,0.0,0.0,0.0,1.352999999999998,1.352999999999998,0.0,0.0,1.0,55.0,616.79921,10000.0,85.000001,85.000001,85.000001,85.000001,395.0,0.0,0.0,0.0,1.0,333.33500000000004,52.016999999999996,52.016999999999996,44.037,44.037,34.0,-21.155,26.426000000000002,-28.5275,31.3975,0.0,1781.499,0.26000000000000156,100.0,27.628,29.178,45.045,42.334,0.0,0.0,100.0,0.0,0.0,0.0,0.0,2940.25,3276.1,4425.888888888889,4038.9,305.999,304.30375,314.2505,308.74266666666665,21.913777777777778,20.7242,22.347444444444445,12.564875,314.999998,314.999998,324.999988,324.999988,99.55531428571429,99.50843333333333,99.58551428571428,99.55565714285714,0.13050000000000006,-0.022749999999999937,-0.024599999999999955,0.20399999999999996,-0.05666666666667197,-0.030000000000001137,1.6524999999999999,1.641,37.961,30.5265,40.671,42.03,54.355000000000004,36.33,65.695,69.749,52.399,35.4035,64.0,64.7635,51.607,34.944,63.7985,66.404,-0.058333333333333126,-0.10599999999999987,0.11135,0.10937000000000001,0.0,216.325,216.315,213.36333333333334,213.36333333333334,0.0,0.0
28,0.0,0.0,0.0,1.0,1.0,0.0,0.0,1.0,0.0,100.0,1.0,1.1856,26.0,0.0,0.0,0.0,59.999996,0.0,26.0,26.0,26.0,26.0,0.04525000000000001,0.25250000000000017,-0.068,290.909,-2.7945,-2.582625,-1.6579000000000002,-1.4685000000000001,-181.20999999999998,215.7225,190.38225,0.0,0.0,0.0,0.0,0.05653333333333334,-5.498166666666667,-5.498166666666667,-0.5672,0.46799999999999997,0.07099999999999995,-0.8399999999999999,69.242,0.1105,-0.179575,-0.10200000000000031,100.0,1.0,1.0,214.0366666666667,0.0,0.0,0.0,0.0,0.0,0.0,0.0,9072.3,0.0,55.0,5.0,249.24666666666667,0.0,0.0,0.0,0.0,0.0,0.0,0.0,0.0,1.407,1.407,0.0,0.0,0.0,55.0,616.79921,10000.0,85.000001,85.000001,85.000001,85.000001,395.0,0.0,0.0,0.0,1.0,166.665,51.772999999999996,51.772999999999996,45.685,45.685,34.0,-22.205,26.942,-24.57,28.5875,0.0,1781.446,0.15500000000000114,100.0,27.912,29.127,44.38,41.914,0.0,0.0,100.0,0.0,0.0,0.0,0.0,3110.75,3213.8,4141.0,3816.8,305.5006666666667,304.47825,314.97075,309.90366666666665,21.923333333333332,20.7307,22.359555555555556,12.580375,314.999998,314.999998,324.999988,324.999988,99.55534285714286,99.50843333333333,99.58568571428572,99.55582857142858,0.1372500000000001,-0.00275000000000003,-0.01979999999999993,0.20500000000000007,-0.04333333333332945,-0.04333333333332945,1.7565,1.754,38.021,30.566499999999998,40.748000000000005,42.126999999999995,54.347,36.371,65.724,69.851,52.391,35.4415,64.027,64.857,51.597,34.980000000000004,63.821,66.5,-0.06266666666666665,-0.10000000000000009,0.11151000000000001,0.10665500000000001,0.0,216.765,216.76,214.0366666666667,214.0366666666667,0.0,0.0
29,0.0,0.0,0.0,1.0,1.0,0.0,0.0,1.0,0.0,100.0,1.0,1.1856,26.0,0.0,0.0,0.0,59.999996,0.0,26.0,26.0,26.0,26.0,0.025374999999999925,0.2659,0.015775,290.39,-2.7625,-2.614125,-1.6703000000000001,-1.44225,-177.88,215.715,190.357375,0.0,0.0,0.0,0.0,0.05846666666666667,-5.498166666666667,-5.498166666666667,-0.5601,-0.3953333333333333,0.08922222222222209,0.0029999999999998916,69.369,0.11380000000000001,-0.155775,-0.3200000000000003,100.0,1.0,1.0,214.19666666666666,0.0,0.0,0.0,0.0,0.0,0.0,0.0,9079.0,0.0,55.0,5.0,249.7,1.0,0.0,0.0,0.0,0.0,0.0,0.0,0.0,1.4549999999999983,1.4549999999999983,0.0,0.0,1.0,55.0,616.79921,10000.0,85.000001,85.000001,85.000001,85.000001,395.0,0.0,0.0,0.0,1.0,333.33500000000004,52.032,52.032,44.159,44.159,34.0,-20.5275,27.914,-27.3,30.955,0.0,1781.396,0.16000000000000014,100.0,27.626,28.996000000000002,44.689,41.981,0.0,0.0,100.0,0.0,0.0,0.0,0.0,2929.5,3296.9,4481.222222222223,4080.6000000000004,306.014,304.15225,314.12775,308.8473333333333,21.931555555555555,20.7362,22.370666666666665,12.594375,314.999998,314.999998,324.999988,324.999988,99.55535714285715,99.50843333333333,99.58584285714285,99.55598571428571,0.1352500000000001,-0.007249999999999979,-0.014600000000000057,0.2036,-0.046666666666666856,-0.03499999999999659,1.6835,1.659,38.072,30.6015,40.817,42.215,54.338,36.4055,65.754,69.9485,52.382,35.4735,64.055,64.9465,51.587,35.0105,63.8455,66.5925,-0.06766666666666676,-0.09299999999999997,0.10765500000000001,0.10421000000000001,0.0,217.13,217.135,213.87666666666667,214.51333333333332,0.0,0.0
30,0.0,0.0,0.0,1.0,1.0,0.0,0.0,1.0,0.0,100.0,1.0,1.1856,26.0,0.0,0.0,0.0,59.999996,0.0,26.0,26.0,26.0,26.0,0.027875000000000094,0.26070000000000015,0.050575,289.78,-2.8202,-2.497125,-1.6489,-1.4905,-174.34,215.70499999999998,190.33075,0.0,0.0,0.0,0.0,0.060500000000000005,-5.498166666666667,-5.498166666666667,-0.5635,0.5983333333333334,0.08866666666666667,0.11999999999999988,69.498,0.12090000000000001,-0.167775,-0.3279999999999994,100.0,1.0,1.0,214.64333333333332,0.0,0.0,0.0,0.0,0.0,0.0,0.0,9097.9,0.0,55.0,5.0,250.16666666666666,0.0,0.0,0.0,0.0,0.0,0.0,1.0,0.0,1.5060000000000002,1.5060000000000002,0.0,0.0,0.0,55.0,616.79921,10000.0,85.000001,85.000001,85.000001,85.000001,395.0,0.0,0.0,0.0,1.0,166.665,50.613,50.613,44.632,44.632,34.0,-22.6475,28.522,-25.0275,32.2075,0.0,1781.346,0.245000000000001,100.0,28.472,29.698,44.702,42.155,0.0,0.0,100.0,0.0,0.0,0.0,0.0,3169.625,3480.0,4325.333333333333,4051.7,305.134,303.70125,314.48575,308.9173333333333,21.940555555555555,20.7425,22.382333333333335,12.609375,314.999998,314.999998,324.999988,324.999988,99.55537142857143,99.50843333333333,99.58601428571428,99.55615714285715,0.14874999999999994,-0.0040000000000000036,-0.0006000000000000449,0.22079999999999989,-0.046666666666666856,-0.06333333333333258,1.6995,1.667,38.128,30.6405,40.89,42.308,54.331,36.4465,65.7835,70.05199999999999,52.375,35.5115,64.0815,65.0415,51.579,35.0475,63.8685,66.6905,-0.06099999999999994,-0.1070000000000002,0.10861000000000001,0.10251,0.0,217.55,217.57999999999998,214.64333333333332,214.64333333333332,0.0,0.0
31,0.0,0.0,0.0,1.0,1.0,0.0,0.0,1.0,0.0,100.0,1.0,1.1856,26.0,0.0,0.0,0.0,59.999996,0.0,26.0,26.0,26.0,26.0,0.01849999999999996,0.25770000000000004,0.033725000000000005,289.627,-2.8763,-2.584625,-1.7299,-1.388875,-171.0,215.6975,190.3065,0.0,0.0,0.0,0.0,0.06246666666666666,-5.498166666666667,-5.498166666666667,-0.5466,-0.3776666666666668,0.09311111111111114,0.923,69.62100000000001,0.1245,-0.1665,-0.3379999999999992,100.0,1.0,1.0,214.89,0.0,0.0,0.0,0.0,0.0,0.0,0.0,9108.4,0.0,55.0,5.0,250.61333333333334,1.0,0.0,0.0,0.0,0.0,0.0,1.0,0.0,1.5539999999999985,1.5539999999999985,0.0,0.0,1.0,55.0,616.79921,10000.0,85.000001,85.000001,85.000001,85.000001,395.0,0.0,0.0,0.0,1.0,333.33500000000004,51.468,51.468,43.091,43.091,34.0,-20.08,28.442,-29.645,31.87,0.0,1781.296,0.23000000000000043,100.0,28.383,29.658,45.367000000000004,42.606,0.0,0.0,100.0,0.0,0.0,0.0,0.0,2857.125,3379.4,4610.222222222223,4180.2,306.2096666666667,304.10575,313.754,308.4626666666667,21.948888888888888,20.7483,22.393666666666668,12.623625,314.999998,314.999998,324.999988,324.999988,99.55538571428572,99.50843333333333,99.58618571428572,99.55632857142857,0.15700000000000003,-0.0014999999999999458,-0.0037999999999999146,0.22440000000000015,-0.04833333333333201,-0.060000000000002274,1.4625,1.757,38.181,30.676499999999997,40.96,42.397999999999996,54.323,36.486,65.8175,70.15899999999999,52.367999999999995,35.548,64.1135,65.1395,51.57,35.082,63.896,66.7915,-0.06766666666666676,-0.10950000000000015,0.11011000000000001,0.10862000000000001,0.0,217.935,217.935,214.71333333333334,215.07,0.0,0.0
32,0.0,0.0,0.0,1.0,1.0,0.0,0.0,1.0,0.0,100.0,1.0,1.1856,26.0,0.0,0.0,0.0,59.999996,0.0,26.0,26.0,26.0,26.0,0.043625000000000025,0.2512000000000001,-0.043125000000000004,290.176,-2.8235,-2.5797499999999998,-1.7485,-1.393125,-167.45,215.69,190.28125,0.0,0.0,0.0,0.0,0.0645,-5.498166666666667,-5.498166666666667,-0.5653,-0.18199999999999994,0.07266666666666666,-1.4780000000000002,69.748,0.1226,-0.18385,-0.20399999999999974,100.0,1.0,1.0,215.45,0.0,0.0,0.0,0.0,0.0,0.0,0.0,9132.1,0.0,55.0,5.0,251.06333333333333,0.0,0.0,0.0,0.0,0.0,0.0,1.0,0.0,1.6050000000000004,1.6050000000000004,0.0,0.0,0.0,55.0,616.79921,10000.0,85.000001,85.000001,85.000001,85.000001,395.0,0.0,0.0,0.0,1.0,333.33500000000004,51.453,51.453,44.449,44.449,34.0,-21.425,27.798,-26.665,29.96,0.0,1781.246,0.18500000000000227,100.0,28.054,29.745,44.952,42.653,0.0,0.0,100.0,0.0,0.0,0.0,0.0,3058.875,3278.0,4344.444444444444,3981.0,305.7146666666667,304.28,314.5745,309.3856666666667,21.957666666666668,20.7545,22.405333333333335,12.638625,314.999998,314.999998,324.999988,324.999988,99.5554,99.50845,99.58634285714285,99.55647142857143,0.15050000000000008,0.003249999999999975,-0.00539999999999996,0.2205999999999999,-0.046666666666666856,-0.041666666666671404,1.718,1.709,38.236000000000004,30.7155,41.033,42.491,54.315,36.5235,65.8455,70.2535,52.36,35.582499999999996,64.139,65.2265,51.561,35.1155,63.918,66.881,-0.06899999999999995,-0.10349999999999993,0.105535,0.10683500000000001,0.0,218.305,218.32,215.45,215.45,0.0,0.0
33,0.0,0.0,0.0,1.0,1.0,0.0,0.0,1.0,0.0,100.0,1.0,1.1856,26.0,0.0,0.0,0.0,59.999996,0.0,26.0,26.0,26.0,26.0,0.02187500000000009,0.25870000000000015,-0.08650000000000001,290.436,-2.8114,-2.5949999999999998,-1.6734,-1.4861250000000001,-163.89,215.685,190.25475,0.0,0.0,0.0,0.0,0.0666,-5.498166666666667,-5.498166666666667,-0.5747,-0.23833333333333329,0.06333333333333324,1.033,69.876,0.11910000000000001,-0.16995000000000002,-0.3099999999999996,100.0,1.0,1.0,215.83666666666667,0.0,0.0,0.0,0.0,0.0,0.0,0.0,9148.5,0.0,55.0,5.0,251.52666666666664,1.0,0.0,0.0,0.0,0.0,0.0,1.0,0.0,1.6559999999999988,1.6559999999999988,0.0,0.0,1.0,55.0,616.79921,10000.0,85.000001,85.000001,85.000001,85.000001,395.0,0.0,0.0,0.0,1.0,166.665,51.956,51.956,44.556,44.556,34.0,-19.995,27.362000000000002,-26.305,30.1375,0.0,1781.196,0.13500000000000156,100.0,28.098,29.266,44.929,42.385,0.0,0.0,100.0,0.0,0.0,0.0,0.0,2886.25,3246.2,4318.888888888889,3991.4,306.073,304.548,314.484,309.3586666666667,21.966444444444445,20.7604,22.417,12.653375,314.999998,314.999998,324.999988,324.999988,99.55542857142858,99.50845,99.58651428571429,99.55664285714286,0.15274999999999994,0.0020000000000000018,-0.00660000000000005,0.20700000000000007,-0.03333333333333144,-0.04999999999999716,1.553,1.846,38.29,30.752499999999998,41.105999999999995,42.584,54.307,36.56,65.875,70.35249999999999,52.352000000000004,35.6165,64.166,65.31700000000001,51.551,35.147999999999996,63.9415,66.9745,-0.07033333333333314,-0.09750000000000014,0.11058000000000001,0.10348,0.0,218.70499999999998,218.73000000000002,215.67000000000002,216.00333333333333,0.0,0.0
34,0.0,0.0,0.0,1.0,1.0,0.0,0.0,1.0,0.0,100.0,1.0,1.1856,26.0,0.0,0.0,0.0,59.999996,0.0,26.0,26.0,26.0,26.0,0.01937499999999992,0.25029999999999997,-0.0748,290.48199999999997,-2.8495,-2.511875,-1.7423000000000002,-1.443875,-160.53,215.68,190.2285,0.0,0.0,0.0,0.0,0.06853333333333333,-5.498166666666667,-5.498166666666667,-0.5955,-0.6273333333333333,0.09944444444444422,1.126,69.997,0.1199,-0.166525,-0.18200000000000038,100.0,1.0,1.0,216.17666666666668,0.0,0.0,0.0,0.0,0.0,0.0,0.0,9163.0,0.0,55.0,5.0,251.96,0.0,0.0,0.0,0.0,0.0,0.0,1.0,0.0,1.7040000000000006,1.7040000000000006,0.0,0.0,0.0,55.0,616.79921,10000.0,85.000001,85.000001,85.000001,85.000001,395.0,0.0,0.0,0.0,1.0,333.33500000000004,52.094,52.094,45.013,45.013,34.0,-20.805,26.724,-26.175,31.1425,0.0,1781.147,0.17999999999999972,100.0,27.849,29.035,44.778999999999996,42.412,0.0,0.0,100.0,0.0,0.0,0.0,0.0,2922.625,3270.1,4244.888888888889,4082.1000000000004,305.99,304.5415,314.74475,308.9626666666667,21.974666666666668,20.766,22.428,12.6675,314.999998,314.999998,324.999988,324.999988,99.55542857142858,99.50845,99.58667142857144,99.5568,0.14800000000000013,0.0017499999999999183,-0.008799999999999919,0.21020000000000016,-0.045000000000001705,-0.041666666666671404,1.7005,1.7025,38.341,30.7875,41.175,42.672,54.298,36.5935,65.902,70.4465,52.343,35.647999999999996,64.191,65.4035,51.541,35.178,63.963,67.0635,-0.06066666666666665,-0.09850000000000003,0.10782000000000001,0.09969000000000001,0.0,219.07999999999998,219.07,216.17666666666668,216.17666666666668,0.0,0.0
35,0.0,0.0,0.0,1.0,1.0,0.0,0.0,1.0,0.0,100.0,1.0,1.1856,26.0,0.0,0.0,0.0,59.999996,0.0,26.0,26.0,26.0,26.0,0.033500000000000085,0.2519,-0.07505,290.512,-2.8173,-2.52875,-1.7177,-1.4112500000000001,-156.74,215.675,190.197,0.0,0.0,0.0,0.0,0.07073333333333334,-5.498166666666667,-5.498166666666667,-0.6418,-0.5686666666666669,0.07644444444444431,-0.4750000000000001,70.131,0.12190000000000001,-0.18560000000000001,-0.3520000000000003,100.0,1.0,1.0,216.64,0.0,0.0,0.0,0.0,0.0,0.0,0.0,9182.6,0.0,55.0,5.0,252.44666666666666,1.0,0.0,0.0,0.0,0.0,0.0,1.0,0.0,1.7579999999999991,1.7579999999999991,0.0,0.0,1.0,55.0,616.79921,10000.0,85.000001,85.000001,85.000001,85.000001,395.0,0.0,0.0,0.0,1.0,166.665,51.650999999999996,51.650999999999996,44.54,44.54,34.0,-20.95,29.692,-25.09,28.775,0.0,1781.095,0.28000000000000114,100.0,27.662,29.206,44.7,42.192,0.0,0.0,100.0,0.0,0.0,0.0,0.0,2948.125,3552.1,4225.222222222223,3833.2,305.863,303.6485,314.664,309.8863333333333,21.983666666666664,20.7725,22.44022222222222,12.683125,314.999998,314.999998,324.999988,324.999988,99.55545714285714,99.50846666666666,99.58685714285714,99.55697142857143,0.14400000000000013,0.0030000000000001137,0.0023999999999999577,0.21720000000000006,-0.045000000000001705,-0.051666666666669414,1.74,1.715,38.397999999999996,30.828,41.251999999999995,42.769999999999996,54.287,36.6345,65.932,70.549,52.331,35.6855,64.2185,65.4975,51.528,35.2145,63.986,67.1605,-0.05966666666666676,-0.10749999999999993,0.105635,0.10268000000000001,0.0,219.47500000000002,219.505,216.64,216.64,0.0,0.0
36,0.0,0.0,0.0,1.0,1.0,0.0,0.0,1.0,0.0,100.0,1.0,1.1856,26.0,0.0,0.0,0.0,59.999996,0.0,26.0,26.0,26.0,26.0,0.014000000000000012,0.27190000000000003,0.016900000000000002,289.856,-2.8551,-2.57525,-1.6598000000000002,-1.45475,-153.38,215.67000000000002,190.16775,0.0,0.0,0.0,0.0,0.0727,-5.498166666666667,-5.498166666666667,-0.6243000000000001,0.4963333333333333,0.03177777777777768,0.494,70.251,0.12440000000000001,-0.151625,-0.18799999999999972,100.0,1.0,1.0,216.88666666666666,0.0,0.0,0.0,0.0,0.0,0.0,0.0,9193.1,0.0,55.0,5.0,252.87666666666667,0.0,0.0,0.0,0.0,0.0,0.0,1.0,0.0,1.806000000000001,1.806000000000001,0.0,0.0,0.0,55.0,616.79921,10000.0,85.000001,85.000001,85.000001,85.000001,395.0,0.0,0.0,0.0,1.0,166.665,51.361,51.361,44.22,44.22,34.0,-22.2525,27.948,-27.88,31.7825,0.0,1781.047,0.40000000000000213,100.0,28.317,29.333,44.818,42.078,0.0,0.0,100.0,0.0,0.0,0.0,0.0,3076.5,3375.1,4540.444444444444,4190.5,305.53266666666667,304.23575,313.97775,308.714,21.992,20.7783,22.45122222222222,12.697125,314.999998,314.999998,324.999988,324.999988,99.55547142857142,99.50846666666666,99.58701428571429,99.55712857142858,0.1452500000000001,-0.006750000000000034,-0.00539999999999996,0.21079999999999988,-0.04333333333332945,-0.036666666666668846,1.498,1.8135,38.45,30.8645,41.32,42.857,54.28,36.6715,65.9595,70.64150000000001,52.325,35.72,64.244,65.583,51.521,35.2475,64.008,67.248,-0.04800000000000004,-0.11850000000000005,0.11361,0.09627000000000001,0.0,219.885,219.9,216.72333333333333,217.05,0.0,0.0
