,ABS Active,ABS Enabled,AID Allow Tire Blankets,AID Auto Blip,AID Auto Clutch,AID Auto Shift,AID Fuel Rate,AID Ideal Line,AID Mech Damage,AID Stability,AID Tire Wear Rate,Air Density,Air Temp,Ballast,Best Lap Delta,Best Lap Time,Brake Bias,Brake Pos,Brake Temp FL,Brake Temp FR,Brake Temp RL,Brake Temp RR,CG Accel Lateral,CG Accel Longitudinal,CG Accel Vertical,CG Height,Camber FL,Camber FR,Camber RL,Camber RR,Car Coord X,Car Coord Y,Car Coord Z,Car Damage Front,Car Damage Left,Car Damage Rear,Car Damage Right,Car Pos Norm,Caster FL,Caster FR,Chassis Pitch Angle,Chassis Pitch Rate,Chassis Roll Angle,Chassis Roll Rate,Chassis Velocity X,Chassis Velocity Y,Chassis Velocity Z,Chassis Yaw Rate,Clutch Pos,DRS Active,DRS Available,Drive Train Speed,ERS Heat Charging,ERS Is Charging,ERS Max Energy,ERS Power Level,ERS Recovery Level,Engine Brake Setting,Engine Limiter,Engine RPM,Flags,Fuel Level,Gear,Ground Speed,HR Sample Clock,In Pit,KERS Charge,KERS Deployed Energy,KERS Input,KERS Max Energy,LR Sample Clock,Lap Invalidated,Lap Time,Lap Time2,Last Lap Time,Last Sector Time,MR Sample Clock,Max Fuel,Max Power,Max RPM,Max Sus Travel FL,Max Sus Travel FR,Max Sus Travel RL,Max Sus Travel RR,Max Torque,Max Turbo Boost,Num Tires Off Track,Penalties Enabled,Position,Raw Data Sample Rate,Ride Height FL,Ride Height FR,Ride Height RL,Ride Height RR,Road Temp,Self Align Torque FL,Self Align Torque FR,Self Align Torque RL,Self Align Torque RR,Session Lap Count,Session Time Left,Steering Angle,Surface Grip,Suspension Travel FL,Suspension Travel FR,Suspension Travel RL,Suspension Travel RR,TC Active,TC Enabled,Throttle Pos,Tire Dirt Level FL,Tire Dirt Level FR,Tire Dirt Level RL,Tire Dirt Level RR,Tire Load FL,Tire Load FR,Tire Load RL,Tire Load RR,Tire Loaded Radius FL,Tire Loaded Radius FR,Tire Loaded Radius RL,Tire Loaded Radius RR,Tire Pressure FL,Tire Pressure FR,Tire Pressure RL,Tire Pressure RR,Tire Radius FL,Tire Radius FR,Tire Radius RL,Tire Radius RR,Tire Rubber Grip FL,Tire Rubber Grip FR,Tire Rubber Grip RL,Tire Rubber Grip RR,Tire Slip Angle FL,Tire Slip Angle FR,Tire Slip Angle RL,Tire Slip Angle RR,Tire Slip Ratio FL,Tire Slip Ratio FR,Tire Slip Ratio RL,Tire Slip Ratio RR,Tire Temp Core FL,Tire Temp Core FR,Tire Temp Core RL,Tire Temp Core RR,Tire Temp Inner FL,Tire Temp Inner FR,Tire Temp Inner RL,Tire Temp Inner RR,Tire Temp Middle FL,Tire Temp Middle FR,Tire Temp Middle RL,Tire Temp Middle RR,Tire Temp Outer FL,Tire Temp Outer FR,Tire Temp Outer RL,Tire Temp Outer RR,Toe In FL,Toe In FR,Toe In RL,Toe In RR,Turbo Boost,Wheel Angular Speed FL,Wheel Angular Speed FR,Wheel Angular Speed RL,Wheel Angular Speed RR,Wind Direction,Wind Speed
0,0.0,0.0,0.0,1.0,1.0,0.0,0.0,1.0,0.0,100.0,1.0,1.1856,26.0,0.0,0.0,0.0,59.99999,0.0,26.0,26.0,26.0,26.0,-0.07833333333333337,0.3023,0.011075,292.816,-2.8045,-2.571142857142857,-1.6042,-1.4638571428571425,-275.66,216.3025,190.98625,0.0,0.0,0.0,0.0,0.0016,-5.498166666666667,-5.498166666666667,-0.5148,1.1095,0.0664444444444443,-1.089,65.489,0.032100000000000004,-0.169875,1.4620000000000015,100.0,1.0,1.0,202.58333333333331,0.0,0.0,0.0,0.0,0.0,0.0,0.0,8586.8,0.0,55.0,5.0,235.7266666666667,0.0,0.0,0.0,0.0,0.0,0.0,0.0,0.0,0.0030000000000001137,0.0030000000000001137,0.0,0.0,0.0,55.0,616.79921,10000.0,85.0,85.0,85.0,85.0,395.0,0.0,0.0,0.0,1.0,20.0,52.567,52.567,47.47,47.47,34.0,-24.29,25.355999999999998,-29.123333333333335,24.236666666666665,0.0,1782.719,1.245000000000001,100.0,27.02,27.524,41.466,39.043,0.0,0.0,100.0,0.0,0.0,0.0,0.0,2883.142857142857,3546.0,4249.875,3808.7,306.092,303.4986666666667,314.62875,310.3276666666667,21.713666666666665,20.5627,21.98,13.067444444444444,314.99999,314.99999,324.99998,324.99998,99.55688571428571,99.50805,99.57811428571429,99.55131428571428,0.03649999999999998,-0.09324999999999994,-0.10779999999999999,0.1168,-0.04833333333333201,-0.045000000000001705,1.744,1.7965,36.711,29.516666666666666,38.375,38.922,55.352999999999994,35.2335,63.8315,65.2025,53.324,34.348,62.228,60.816,52.519,33.888,62.116,62.0215,0.023666666666666725,-0.18150000000000022,0.10675000000000001,0.11115000000000001,0.0,205.23000000000002,205.11,202.58333333333331,202.58333333333331,0.0,0.0
1,0.0,0.0,0.0,1.0,1.0,0.0,0.0,1.0,0.0,100.0,1.0,1.1856,26.0,0.0,0.0,0.0,59.999996,0.0,26.0,26.0,26.0,26.0,-0.12677777777777777,0.3163,0.13855,291.718,-2.7124,-2.688,-1.6082,-1.4591428571428575,-272.31,216.3,190.965875,0.0,0.0,0.0,0.0,0.0035666666666666668,-5.498166666666667,-5.498166666666667,-0.461,-0.19399999999999995,0.01200000000000001,-0.633,65.641,0.0028,-0.14745,1.5999999999999996,100.0,1.0,1.0,202.7733333333333,0.0,0.0,0.0,0.0,0.0,0.0,0.0,8594.9,0.0,55.0,5.0,236.2733333333333,1.0,0.0,0.0,0.0,0.0,0.0,0.0,0.0,0.053999999999998494,0.053999999999998494,0.0,0.0,1.0,55.0,616.79921,10000.0,85.000001,85.000001,85.000001,85.000001,395.0,0.0,0.0,0.0,1.0,333.33500000000004,53.314,53.314,46.051,46.051,34.0,-25.5825,19.916,-34.15,26.763333333333335,0.0,1782.666,1.1700000000000017,100.0,27.225,27.624,43.778999999999996,39.921,0.0,0.0,100.0,0.0,0.0,0.0,0.0,3023.714285714286,2850.4,4479.375,4361.7,305.6715,305.74966666666666,313.9835,308.38166666666666,21.723333333333333,20.5682,21.992,13.081333333333333,314.999998,314.999998,324.999988,324.999988,99.55688571428571,99.50806666666666,99.5783,99.55148571428572,0.019500000000000073,-0.10975000000000001,-0.1484,0.08,-0.07166666666666544,-0.036666666666668846,1.6115,1.6665,36.771,29.551333333333332,38.45,39.007999999999996,55.338,35.2745,63.873,65.306,53.31,34.385999999999996,62.266999999999996,60.9105,52.504,33.9245,62.150999999999996,62.119,0.0173333333333332,-0.16400000000000015,0.11255000000000001,0.11142500000000001,0.0,205.72,205.555,202.7733333333333,202.7733333333333,0.0,0.0
2,0.0,0.0,0.0,1.0,1.0,0.0,0.0,1.0,0.0,100.0,1.0,1.1856,26.0,0.0,0.0,0.0,59.999996,0.0,26.0,26.0,26.0,26.0,-0.14122222222222214,0.2856000000000001,0.014750000000000001,292.374,-2.6824,-2.7124285714285716,-1.5735999999999999,-1.5227142857142857,-268.76,216.29250000000002,190.946,0.0,0.0,0.0,0.0,0.005633333333333334,-5.498166666666667,-5.498166666666667,-0.5065000000000001,-0.2955000000000001,0.020000000000000018,1.1720000000000002,65.793,-0.0193,-0.20927500000000002,1.7340000000000018,100.0,1.0,1.0,203.60000000000002,0.0,0.0,0.0,0.0,0.0,0.0,0.0,8629.8,0.0,55.0,5.0,236.82666666666665,0.0,0.0,0.0,0.0,0.0,0.0,0.0,0.0,0.10800000000000054,0.10800000000000054,0.0,0.0,0.0,55.0,616.79921,10000.0,85.000001,85.000001,85.000001,85.000001,395.0,0.0,0.0,0.0,1.0,166.665,52.383,52.383,47.775,47.775,34.0,-28.3475,20.848,-29.253333333333334,20.32,0.0,1782.613,1.0350000000000001,100.0,27.82,27.616,43.761,40.153,0.0,0.0,100.0,0.0,0.0,0.0,0.0,3243.857142857143,3043.2,3916.75,3625.0,304.9605,305.13,315.3115,311.1603333333333,21.733666666666664,20.5738,22.0044,13.095777777777778,314.999998,314.999998,324.999988,324.999988,99.55688571428571,99.50808333333333,99.57845714285715,99.55164285714285,0.0017499999999999183,-0.13075000000000003,-0.1776,0.0492,-0.05666666666667197,-0.04333333333332945,1.776,1.8544999999999998,36.836,29.586,38.527,39.098,55.324,35.315,63.911,65.408,53.297,34.4235,62.302,61.004,52.49,33.96,62.183,62.2155,0.0043333333333333,-0.16300000000000026,0.11092500000000001,0.10558500000000001,0.0,206.14,206.01,203.60000000000002,203.6,0.0,0.0
3,0.0,0.0,0.0,1.0,1.0,0.0,0.0,1.0,0.0,100.0,1.0,1.1856,26.0,0.0,0.0,0.0,59.999996,0.0,26.0,26.0,26.0,26.0,-0.15400000000000003,0.29690000000000016,0.018500000000000003,292.343,-2.7923999999999998,-2.6254285714285714,-1.5822,-1.5124285714285715,-265.8,216.2825,190.928875,0.0,0.0,0.0,0.0,0.007333333333333333,-5.498166666666667,-5.498166666666667,-0.47850000000000004,0.508,0.05111111111111111,0.6620000000000001,65.924,-0.035,-0.16455,1.395999999999999,100.0,1.0,1.0,203.83333333333331,0.0,0.0,0.0,0.0,0.0,0.0,0.0,8639.8,0.0,55.0,5.0,237.29666666666668,1.0,0.0,0.0,0.0,0.0,0.0,0.0,0.0,0.1529999999999987,0.1529999999999987,0.0,0.0,1.0,55.0,616.79921,10000.0,85.000001,85.000001,85.000001,85.000001,395.0,0.0,0.0,0.0,1.0,166.665,53.375,53.375,46.249,46.249,34.0,-24.0375,20.154,-33.45666666666666,22.133333333333333,0.0,1782.569,0.8000000000000007,100.0,27.609,27.507,43.515,39.896,0.0,0.0,100.0,0.0,0.0,0.0,0.0,2755.5714285714284,3016.2,4364.5,3906.6000000000004,306.326,305.2443333333333,314.23775,310.1933333333333,21.74211111111111,20.5786,22.0146,13.107555555555555,314.999998,314.999998,324.999988,324.999988,99.5569,99.50808333333333,99.5786,99.55177142857143,0.01200000000000001,-0.123,-0.169,0.0458,-0.06499999999999773,-0.06833333333332803,1.694,1.763,36.888,29.616333333333333,38.591,39.173,55.31,35.3515,63.943,65.4915,53.283,34.457499999999996,62.332,61.0805,52.476,33.9925,62.21,62.2945,-0.013666666666666716,-0.14349999999999996,0.10612500000000001,0.10167000000000001,0.0,206.595,206.48000000000002,203.83333333333331,203.83333333333331,0.0,0.0
4,0.0,0.0,0.0,1.0,1.0,0.0,0.0,1.0,0.0,100.0,1.0,1.1856,26.0,0.0,0.0,0.0,59.999996,0.0,26.0,26.0,26.0,26.0,-0.1517777777777778,0.30380000000000007,-0.0347,292.404,-2.7495000000000003,-2.6515714285714287,-1.6217000000000001,-1.4980000000000002,-262.43,216.26749999999998,190.909,0.0,0.0,0.0,0.0,0.009300000000000001,-5.498166666666667,-5.498166666666667,-0.5006,-0.762,0.002555555555555644,-1.982,66.072,-0.034800000000000005,-0.18455000000000002,1.1159999999999997,100.0,1.0,1.0,204.28,0.0,0.0,0.0,0.0,0.0,0.0,0.0,8658.7,0.0,55.0,5.0,237.83333333333331,0.0,0.0,0.0,0.0,0.0,0.0,0.0,0.0,0.20400000000000063,0.20400000000000063,0.0,0.0,0.0,55.0,616.79921,10000.0,85.000001,85.000001,85.000001,85.000001,395.0,0.0,0.0,0.0,1.0,333.33500000000004,53.146,53.146,46.417,46.417,34.0,-26.33,20.575999999999997,-32.79,20.986666666666665,0.0,1782.516,0.7750000000000021,100.0,27.219,27.429000000000002,43.791,40.115,0.0,0.0,100.0,0.0,0.0,0.0,0.0,3030.857142857143,3027.9,4279.0,3668.6000000000004,305.7375,305.053,314.4745,310.87233333333336,21.751333333333335,20.584,22.0264,13.121222222222222,314.999998,314.999998,324.999988,324.999988,99.5569,99.50811666666667,99.57877142857143,99.55192857142858,0.008000000000000007,-0.12449999999999994,-0.1646,0.056600000000000004,-0.05333333333332746,-0.04333333333332945,1.7225,1.7614999999999998,36.946,29.650333333333336,38.665,39.257999999999996,55.291,35.391999999999996,63.982,65.587,53.265,34.4945,62.3685,61.168,52.457,34.0285,62.2435,62.3845,-0.015333333333333199,-0.13450000000000006,0.11325500000000001,0.10508,0.0,206.97,206.87,204.28,204.28,0.0,0.0
5,0.0,0.0,0.0,1.0,1.0,0.0,0.0,1.0,0.0,100.0,1.0,1.1856,26.0,0.0,0.0,0.0,59.999996,0.0,26.0,26.0,26.0,26.0,-0.13777777777777778,0.3015000000000001,0.001825,292.465,-2.7366,-2.6984285714285714,-1.5811000000000002,-1.5107142857142857,-258.86,216.25,190.8875,0.0,0.0,0.0,0.0,0.011366666666666667,-5.498166666666667,-5.498166666666667,-0.5021,0.34099999999999997,-0.025444444444444603,-0.119,66.226,-0.0332,-0.17650000000000002,1.112,100.0,1.0,1.0,204.7866666666667,0.0,0.0,0.0,0.0,0.0,0.0,0.0,8680.1,0.0,55.0,5.0,238.38333333333333,1.0,0.0,0.0,0.0,0.0,0.0,0.0,0.0,0.2579999999999991,0.2579999999999991,0.0,0.0,1.0,55.0,616.79921,10000.0,85.000001,85.000001,85.000001,85.000001,395.0,0.0,0.0,0.0,1.0,166.665,53.299,53.299,46.951,46.951,34.0,-26.744999999999997,20.375999999999998,-33.49666666666667,21.19,0.0,1782.464,0.4250000000000007,100.0,27.365,27.251,43.59,39.78,0.0,0.0,100.0,0.0,0.0,0.0,0.0,3127.285714285714,2896.7,4347.125,3773.8,305.4065,305.51533333333333,314.38675,310.60266666666666,21.761555555555557,20.5898,22.0388,13.135444444444445,314.999998,314.999998,324.999988,324.999988,99.55691428571429,99.50811666666667,99.57894285714286,99.55207142857142,0.020750000000000046,-0.11275000000000002,-0.1782,0.0436,-0.045000000000001705,-0.03833333333332689,1.7175,1.7599999999999998,37.01,29.686,38.742000000000004,39.346000000000004,55.277,35.434,64.022,65.682,53.251000000000005,34.533500000000004,62.4055,61.254999999999995,52.442,34.0655,62.2765,62.474000000000004,-0.040999999999999925,-0.11450000000000005,0.10562,0.09635500000000001,0.0,207.505,207.39,204.7866666666667,204.7866666666667,0.0,0.0
6,0.0,0.0,0.0,1.0,1.0,0.0,0.0,1.0,0.0,100.0,1.0,1.1856,26.0,0.0,0.0,0.0,59.999996,0.0,26.0,26.0,26.0,26.0,-0.11022222222222211,0.2913000000000001,-0.007425,292.343,-2.7301,-2.708285714285714,-1.6439,-1.484,-255.68,216.23000000000002,190.86825,0.0,0.0,0.0,0.0,0.013233333333333335,-5.498166666666667,-5.498166666666667,-0.4897,0.25449999999999995,0.015666666666666718,-0.21099999999999997,66.363,-0.024200000000000003,-0.16540000000000002,0.7260000000000009,100.0,1.0,1.0,205.17666666666668,0.0,0.0,0.0,0.0,0.0,0.0,0.0,8696.7,0.0,55.0,5.0,238.87666666666667,0.0,0.0,0.0,0.0,0.0,0.0,0.0,0.0,0.30600000000000094,0.30600000000000094,0.0,0.0,0.0,55.0,616.79921,10000.0,85.000001,85.000001,85.000001,85.000001,395.0,0.0,0.0,0.0,1.0,166.665,53.299,53.299,46.555,46.555,34.0,-24.9075,22.362,-32.403333333333336,22.61,0.0,1782.416,0.23000000000000043,100.0,27.092,27.355,43.589,40.005,0.0,0.0,100.0,0.0,0.0,0.0,0.0,3005.285714285714,3020.8,4266.75,3885.7,305.735,305.02,314.5775,310.16766666666666,21.770555555555557,20.5949,22.0498,13.148333333333333,314.999998,314.999998,324.999988,324.999988,99.55691428571429,99.50813333333333,99.5791,99.55222857142857,0.036250000000000115,-0.09450000000000003,-0.155,0.0632,-0.05333333333332746,-0.05666666666667197,1.722,1.7479999999999998,37.066,29.718333333333334,38.811,39.427,55.263,35.471000000000004,64.057,65.773,53.238,34.567499999999995,62.438,61.338,52.428,34.0985,62.3065,62.5595,-0.05433333333333312,-0.09350000000000014,0.11016000000000001,0.10434,0.0,207.905,207.815,205.17666666666668,205.17666666666668,0.0,0.0
7,0.0,0.0,0.0,1.0,1.0,0.0,0.0,1.0,0.0,100.0,1.0,1.1856,26.0,0.0,0.0,0.0,59.999996,0.0,26.0,26.0,26.0,26.0,-0.08144444444444443,0.28390000000000004,0.051475,292.114,-2.6963,-2.6501428571428574,-1.6009,-1.5301428571428572,-252.29,216.20499999999998,190.84775,0.0,0.0,0.0,0.0,0.0152,-5.498166666666667,-5.498166666666667,-0.4937,-0.08550000000000013,0.02488888888888896,0.8720000000000001,66.508,0.0002,-0.1764,0.22799999999999976,100.0,1.0,1.0,205.58333333333331,0.0,0.0,0.0,0.0,0.0,0.0,0.0,8714.0,0.0,55.0,5.0,239.4,1.0,0.0,0.0,0.0,0.0,0.0,0.0,0.0,0.3569999999999993,0.3569999999999993,0.0,0.0,1.0,55.0,616.79921,10000.0,85.000001,85.000001,85.000001,85.000001,395.0,0.0,0.0,0.0,1.0,166.665,52.933,52.933,46.677,46.677,34.0,-23.8925,24.332,-29.503333333333334,25.48,0.0,1782.365,0.054999999999999716,100.0,27.286,27.25,43.711,40.232,0.0,0.0,100.0,0.0,0.0,0.0,0.0,3020.0,3179.3,4183.75,3910.8,305.4675,304.72,314.66225,310.06933333333336,21.78011111111111,20.6004,22.0615,13.16211111111111,314.999998,314.999998,324.999988,324.999988,99.55691428571429,99.50813333333333,99.57925714285714,99.55237142857143,0.06424999999999992,-0.06299999999999994,-0.11900000000000001,0.10400000000000001,-0.02499999999999858,-0.05333333333332746,1.7055,1.7119999999999997,37.125,29.752666666666666,38.885,39.513,55.248999999999995,35.509,64.094,65.8715,53.225,34.603,62.4725,61.428,52.414,34.132,62.3375,62.6525,-0.06333333333333324,-0.0794999999999999,0.10761000000000001,0.10591500000000001,0.0,208.32,208.29500000000002,205.58333333333331,205.58333333333331,0.0,0.0
8,0.0,0.0,0.0,1.0,1.0,0.0,0.0,1.0,0.0,100.0,1.0,1.1856,26.0,0.0,0.0,0.0,59.999996,0.0,26.0,26.0,26.0,26.0,-0.0387777777777778,0.2835000000000001,-0.030125000000000002,292.404,-2.7799,-2.6357142857142857,-1.5801,-1.484,-248.89,216.1775,190.82725,0.0,0.0,0.0,0.0,0.017166666666666667,-5.498166666666667,-5.498166666666667,-0.5,-0.482,0.037222222222222046,-0.22999999999999998,66.653,0.024300000000000002,-0.17375000000000002,-0.04399999999999871,100.0,1.0,1.0,205.99666666666667,0.0,0.0,0.0,0.0,0.0,0.0,0.0,8731.4,0.0,55.0,5.0,239.92000000000002,0.0,0.0,0.0,0.0,0.0,0.0,0.0,0.0,0.40800000000000125,0.40800000000000125,0.0,0.0,0.0,55.0,616.79921,10000.0,85.000001,85.000001,85.000001,85.000001,395.0,0.0,0.0,0.0,1.0,166.665,53.68,53.68,46.188,46.188,34.0,-22.4325,24.157999999999998,-28.486666666666665,25.740000000000002,0.0,1782.313,-0.07000000000000028,100.0,26.789,27.35,43.611000000000004,40.393,0.0,0.0,100.0,0.0,0.0,0.0,0.0,2872.857142857143,3065.6,4273.125,3873.8,306.2215,304.98533333333336,314.48625,310.137,21.789444444444445,20.606,22.0732,13.175777777777778,314.999998,314.999998,324.999988,324.999988,99.55692857142857,99.50815,99.57942857142856,99.55251428571428,0.07550000000000012,-0.04249999999999998,-0.09240000000000001,0.126,-0.046666666666666856,-0.045000000000001705,1.714,1.7085,37.184,29.787333333333336,38.958,39.599000000000004,55.233999999999995,35.546,64.131,65.966,53.211,34.637,62.507,61.515,52.399,34.165,62.3685,62.742,-0.06899999999999995,-0.0625,0.10544,0.10760000000000002,0.0,208.75,208.74,205.99666666666667,205.99666666666667,0.0,0.0
9,0.0,0.0,0.0,1.0,1.0,0.0,0.0,1.0,0.0,100.0,1.0,1.1856,26.0,0.0,0.0,0.0,59.999996,0.0,26.0,26.0,26.0,26.0,-0.02400000000000002,0.28290000000000015,0.03105,292.099,-2.77,-2.6408571428571426,-1.6402999999999999,-1.4584285714285716,-245.89,216.155,190.808625,0.0,0.0,0.0,0.0,0.0189,-5.498166666666667,-5.498166666666667,-0.5034000000000001,0.6105,0.04266666666666663,0.6759999999999999,66.777,0.0449,-0.17120000000000002,-0.23600000000000065,100.0,1.0,1.0,206.49666666666667,0.0,0.0,0.0,0.0,0.0,0.0,0.0,8752.6,0.0,55.0,5.0,240.37,1.0,0.0,0.0,0.0,0.0,0.0,0.0,0.0,0.4529999999999994,0.4529999999999994,0.0,0.0,1.0,55.0,616.79921,10000.0,85.000001,85.000001,85.000001,85.000001,395.0,0.0,0.0,0.0,1.0,333.33500000000004,52.567,52.567,47.104,47.104,34.0,-23.3375,26.817999999999998,-26.643333333333334,26.57333333333333,0.0,1782.267,-0.16999999999999815,100.0,27.307,27.619,43.281,40.345,0.0,0.0,100.0,0.0,0.0,0.0,0.0,3114.857142857143,3244.8,4101.125,3900.8,305.297,304.5196666666667,314.949,310.2486666666667,21.797777777777778,20.611,22.0834,13.187888888888889,314.999998,314.999998,324.999988,324.999988,99.55694285714286,99.50815,99.57957142857143,99.55265714285714,0.1100000000000001,-0.017749999999999932,-0.0718,0.1522,-0.045000000000001705,-0.04999999999999716,1.756,1.7519999999999998,37.236000000000004,29.818666666666665,39.021,39.674,55.224000000000004,35.58,64.16,66.0495,53.201,34.668,62.534,61.591499999999996,52.388999999999996,34.195,62.3925,62.821,-0.08733333333333326,-0.0665,0.10434500000000001,0.10598,0.0,209.15,209.155,206.49666666666667,206.49666666666667,0.0,0.0
10,0.0,0.0,0.0,1.0,1.0,0.0,0.0,1.0,0.0,100.0,1.0,1.1856,26.0,0.0,0.0,0.0,59.999996,0.0,26.0,26.0,26.0,26.0,0.003555555555555534,0.28710000000000013,-0.007050000000000001,291.87,-2.7500999999999998,-2.6104285714285718,-1.6248,-1.4334285714285717,-242.48,216.125,190.787875,0.0,0.0,0.0,0.0,0.020900000000000002,-5.498166666666667,-5.498166666666667,-0.4768,-0.3095000000000001,0.0858888888888889,0.589,66.924,0.0682,-0.15687500000000001,-0.5120000000000005,100.0,1.0,1.0,206.70666666666668,0.0,0.0,0.0,0.0,0.0,0.0,0.0,8761.5,0.0,55.0,5.0,240.89333333333335,0.0,0.0,0.0,0.0,0.0,0.0,1.0,0.0,0.5040000000000013,0.5040000000000013,0.0,0.0,0.0,55.0,616.79921,10000.0,85.000001,85.000001,85.000001,85.000001,395.0,0.0,0.0,0.0,1.0,333.33500000000004,53.589,53.589,45.456,45.456,34.0,-19.134999999999998,25.028,-28.896666666666665,29.096666666666668,0.0,1782.216,-0.2749999999999986,100.0,27.022,27.768,43.635,40.996,0.0,0.0,100.0,0.0,0.0,0.0,0.0,2722.142857142857,3018.0,4476.25,4100.3,306.572,305.09066666666666,314.0135,309.329,21.807111111111112,20.6166,22.0952,13.201888888888888,314.999998,314.999998,324.999988,324.999988,99.55694285714286,99.50816666666667,99.57974285714286,99.55281428571429,0.12474999999999992,-0.006000000000000005,-0.0538,0.1658,-0.041666666666671404,-0.026666666666670835,1.656,1.6440000000000001,37.294,29.853666666666665,39.095,39.762,55.214,35.6155,64.1985,66.1505,53.191,34.701499999999996,62.5695,61.6845,52.376999999999995,34.227000000000004,62.4245,62.917,-0.10033333333333316,-0.04899999999999993,0.11004000000000001,0.10556000000000001,0.0,209.585,209.60000000000002,206.70666666666668,206.70666666666668,0.0,0.0
11,0.0,0.0,0.0,1.0,1.0,0.0,0.0,1.0,0.0,100.0,1.0,1.1856,26.0,0.0,0.0,0.0,59.999996,0.0,26.0,26.0,26.0,26.0,0.029888888888888854,0.2662,-0.055900000000000005,292.435,-2.7959,-2.5734285714285714,-1.6796,-1.4285714285714284,-239.07,216.0975,190.767125,0.0,0.0,0.0,0.0,0.022600000000000002,-5.498166666666667,-5.498166666666667,-0.5224,-0.39800000000000013,0.10911111111111094,-0.009000000000000008,67.061,0.0932,-0.195225,-0.7379999999999995,100.0,1.0,1.0,207.44666666666666,0.0,0.0,0.0,0.0,0.0,0.0,0.0,8792.9,0.0,55.0,5.0,241.39333333333335,1.0,0.0,0.0,0.0,0.0,0.0,1.0,0.0,0.5549999999999997,0.5549999999999997,0.0,0.0,1.0,55.0,616.79921,10000.0,85.000001,85.000001,85.000001,85.000001,395.0,0.0,0.0,0.0,1.0,333.33500000000004,52.917,52.917,47.195,47.195,34.0,-20.0525,28.53,-22.38,28.153333333333332,0.0,1782.166,-0.23999999999999844,100.0,26.88,27.863,43.252,41.037,0.0,0.0,100.0,0.0,0.0,0.0,0.0,2855.0,3337.3,3812.875,3781.4,306.091,304.24333333333334,315.663,310.6123333333333,21.816222222222223,20.6223,22.1067,13.215666666666667,314.999998,314.999998,324.999988,324.999988,99.55695714285714,99.50816666666667,99.5799,99.55295714285714,0.14149999999999996,0.015249999999999986,-0.022,0.217,-0.03333333333333144,-0.060000000000002274,1.804,1.783,37.351,29.889666666666663,39.167,39.848,55.201,35.653,64.23,66.248,53.178,34.7365,62.5985,61.774,52.363,34.2605,62.45,63.0095,-0.08499999999999996,-0.05650000000000022,0.11370000000000001,0.10858000000000001,0.0,209.97,210.04000000000002,207.44666666666666,207.44666666666666,0.0,0.0
12,0.0,0.0,0.0,1.0,1.0,0.0,0.0,1.0,0.0,100.0,1.0,1.1856,26.0,0.0,0.0,0.0,59.999996,0.0,26.0,26.0,26.0,26.0,0.04022222222222216,0.2965,-0.0083,292.038,-2.8357,-2.611142857142857,-1.6277,-1.4381428571428572,-235.84,216.0725,190.746625,0.0,0.0,0.0,0.0,0.025466666666666665,-5.498166666666667,-5.498166666666667,-0.5104000000000001,0.389,0.0862222222222222,0.891,67.197,0.11130000000000001,-0.165475,-0.7400000000000002,100.0,1.0,1.0,207.67333333333335,0.0,0.0,0.0,0.0,0.0,0.0,0.0,8802.5,0.0,55.0,5.0,241.87666666666667,0.0,0.0,0.0,0.0,0.0,0.0,1.0,0.0,0.602999999999998,0.602999999999998,0.0,0.0,0.0,55.0,616.79921,10000.0,85.000001,85.000001,85.000001,85.000001,395.0,0.0,0.0,0.0,1.0,166.665,53.009,53.009,46.112,46.112,34.0,-20.0,29.201999999999998,-24.396666666666665,29.99666666666667,0.0,1782.119,-0.28500000000000014,100.0,26.823,27.906,43.108000000000004,40.79,0.0,0.0,100.0,0.0,0.0,0.0,0.0,2883.0,3310.0,4294.75,3956.6000000000004,306.0055,304.3713333333333,314.4525,310.0883333333333,21.82488888888889,20.6278,22.1175,13.228555555555555,314.999998,314.999998,324.999988,324.999988,99.55697142857143,99.50816666666667,99.58005714285714,99.55311428571429,0.1572500000000001,0.03025000000000011,-0.0014,0.2162,-0.036666666666668846,-0.03833333333332689,1.7269999999999999,1.7014999999999998,37.405,29.923666666666666,39.235,39.928,55.191,35.689499999999995,64.263,66.3365,53.168,34.7695,62.629,61.855000000000004,52.353,34.292500000000004,62.4775,63.0935,-0.09099999999999997,-0.05549999999999988,0.11208000000000001,0.101705,0.0,210.41500000000002,210.46,207.67333333333335,207.67333333333335,0.0,0.0
13,0.0,0.0,0.0,1.0,1.0,0.0,0.0,1.0,0.0,100.0,1.0,1.1856,26.0,0.0,0.0,0.0,59.999996,0.0,26.0,26.0,26.0,26.0,0.07600000000000007,0.28400000000000003,0.042025,291.55,-2.8405,-2.5765714285714285,-1.7193,-1.3995714285714285,-232.41,216.0475,190.72475,0.0,0.0,0.0,0.0,0.02673333333333333,-5.498166666666667,-5.498166666666667,-0.49510000000000004,0.026499999999999968,0.10866666666666669,-0.357,67.339,0.1222,-0.158925,-0.863999999999999,100.0,1.0,1.0,208.00666666666666,0.0,0.0,0.0,0.0,0.0,0.0,0.0,8816.6,0.0,55.0,5.0,242.39,1.0,0.0,0.0,0.0,0.0,0.0,1.0,0.0,0.6539999999999999,0.6539999999999999,0.0,0.0,1.0,55.0,616.79921,10000.0,85.000001,85.000001,85.000001,85.000001,395.0,0.0,0.0,0.0,1.0,333.33500000000004,52.811,52.811,45.760999999999996,45.760999999999996,34.0,-19.605,29.275999999999996,-25.933333333333334,32.18333333333334,0.0,1782.067,-0.4250000000000007,100.0,26.791,28.278,43.21,41.345,0.0,0.0,100.0,0.0,0.0,0.0,0.0,2948.714285714286,3243.4,4371.875,4151.4,305.9815,304.3786666666667,314.354,309.21133333333336,21.83411111111111,20.6336,22.1292,13.242555555555555,314.999998,314.999998,324.999988,324.999988,99.557,99.50816666666667,99.58022857142858,99.55327142857143,0.17599999999999993,0.04899999999999993,0.0058,0.22719999999999999,-0.041666666666671404,-0.054999999999999716,1.693,1.65,37.463,29.960333333333335,39.307,40.016,55.182,35.729,64.299,66.438,53.159,34.8065,62.6625,61.948499999999996,52.343,34.328,62.507,63.189499999999995,-0.10999999999999988,-0.039000000000000146,0.10649000000000002,0.11036000000000001,0.0,210.845,210.905,208.00666666666666,208.00666666666666,0.0,0.0
14,0.0,0.0,0.0,1.0,1.0,0.0,0.0,1.0,0.0,100.0,1.0,1.1856,26.0,0.0,0.0,0.0,59.999996,0.0,26.0,26.0,26.0,26.0,0.07933333333333326,0.27849999999999997,-0.005425,291.702,-2.8277,-2.529857142857143,-1.7201,-1.4140000000000001,-228.98,216.025,190.703375,0.0,0.0,0.0,0.0,0.028733333333333333,-5.498166666666667,-5.498166666666667,-0.509,-0.31600000000000006,0.12944444444444425,0.9710000000000001,67.477,0.1383,-0.182375,-1.0899999999999999,100.0,1.0,1.0,208.51,0.0,0.0,0.0,0.0,0.0,0.0,0.0,8837.9,0.0,55.0,5.0,242.89,0.0,0.0,0.0,0.0,0.0,0.0,1.0,0.0,0.7049999999999983,0.7049999999999983,0.0,0.0,0.0,55.0,616.79921,10000.0,85.000001,85.000001,85.000001,85.000001,395.0,0.0,0.0,0.0,1.0,333.33500000000004,52.704,52.704,45.99,45.99,34.0,-17.905,30.628,-23.113333333333333,32.093333333333334,0.0,1782.016,-0.495000000000001,100.0,26.973,28.262999999999998,43.353,41.623000000000005,0.0,0.0,100.0,0.0,0.0,0.0,0.0,2799.5714285714284,3412.7,4137.75,4035.7,306.2335,304.049,314.83275,309.7513333333333,21.843222222222224,20.639499999999998,22.1408,13.256666666666666,314.999998,314.999998,324.999988,324.999988,99.55702857142857,99.50818333333333,99.58038571428571,99.55342857142857,0.19225000000000003,0.055749999999999966,0.0274,0.24880000000000002,-0.02499999999999858,-0.05333333333332746,1.724,1.6925,37.519999999999996,29.997,39.379999999999995,40.104,55.173,35.7695,64.333,66.539,53.150999999999996,34.844,62.694,62.0415,52.333,34.364,62.535,63.286,-0.1096666666666668,-0.04600000000000026,0.11612000000000001,0.102175,0.0,211.245,211.345,208.51,208.51,0.0,0.0
15,0.0,0.0,0.0,1.0,1.0,0.0,0.0,1.0,0.0,100.0,1.0,1.1856,26.0,0.0,0.0,0.0,59.999996,0.0,26.0,26.0,26.0,26.0,0.10688888888888903,0.29720000000000013,-0.00655,291.809,-2.792,-2.4961428571428574,-1.7115,-1.3614285714285717,-225.73,216.005,190.683125,0.0,0.0,0.0,0.0,0.030633333333333332,-5.498166666666667,-5.498166666666667,-0.5047,0.32799999999999996,0.15477777777777768,1.2880000000000003,67.608,0.1539,-0.169,-1.194,100.0,1.0,1.0,208.95333333333332,0.0,0.0,0.0,0.0,0.0,0.0,0.0,8856.7,0.0,55.0,5.0,243.36,1.0,0.0,0.0,0.0,0.0,0.0,1.0,0.0,0.7530000000000001,0.7530000000000001,0.0,0.0,1.0,55.0,616.79921,10000.0,85.000001,85.000001,85.000001,85.000001,395.0,0.0,0.0,0.0,1.0,333.33500000000004,52.841,52.841,46.265,46.265,34.0,-16.162499999999998,30.537999999999997,-21.47,32.75666666666667,0.0,1781.968,-0.504999999999999,100.0,27.143,28.361,43.105000000000004,41.583,0.0,0.0,100.0,0.0,0.0,0.0,0.0,2659.285714285714,3370.7,4060.0,4116.0,306.6075,304.17833333333334,315.03775,309.559,21.851888888888887,20.645,22.1516,13.269777777777778,314.999998,314.999998,324.999988,324.999988,99.55704285714286,99.5082,99.58054285714286,99.55357142857143,0.20450000000000013,0.07075000000000009,0.045,0.26339999999999997,-0.01999999999999602,-0.07833333333332604,1.748,1.7039999999999997,37.575,30.031333333333336,39.447,40.186,55.166,35.808,64.3635,66.6315,53.144,34.879999999999995,62.722,62.1265,52.325,34.3985,62.5595,63.374,-0.10899999999999999,-0.040999999999999925,0.10678000000000001,0.099485,0.0,211.66500000000002,211.78,208.95333333333332,208.95333333333332,0.0,0.0
16,0.0,0.0,0.0,1.0,1.0,0.0,0.0,1.0,0.0,100.0,1.0,1.1856,26.0,0.0,0.0,0.0,59.999996,0.0,26.0,26.0,26.0,26.0,0.13255555555555576,0.2639,-0.075375,291.779,-2.8967,-2.5158571428571426,-1.6924000000000001,-1.3522857142857143,-222.28,215.9875,190.661125,0.0,0.0,0.0,0.0,0.032633333333333334,-5.498166666666667,-5.498166666666667,-0.5213,-0.7444999999999999,0.14844444444444438,-1.055,67.747,0.1678,-0.177875,-1.2579999999999991,100.0,1.0,1.0,209.32999999999998,0.0,0.0,0.0,0.0,0.0,0.0,0.0,8872.7,0.0,55.0,5.0,243.86333333333334,0.0,0.0,0.0,0.0,0.0,0.0,1.0,0.0,0.8039999999999985,0.8039999999999985,0.0,0.0,0.0,55.0,616.79921,10000.0,85.000001,85.000001,85.000001,85.000001,395.0,0.0,0.0,0.0,1.0,333.33500000000004,52.872,52.872,45.822,45.822,34.0,-17.884999999999998,30.422,-21.089999999999996,32.32333333333334,0.0,1781.916,-0.36499999999999844,100.0,26.669,28.622,43.269999999999996,41.811,0.0,0.0,100.0,0.0,0.0,0.0,0.0,2776.714285714286,3334.5,4111.75,4001.4,306.568,304.10966666666667,314.95475,309.82666666666665,21.860777777777777,20.651,22.1632,13.283888888888889,314.999998,314.999998,324.999988,324.999988,99.55705714285715,99.5082,99.5807,99.55374285714285,0.19650000000000012,0.06675000000000009,0.054,0.2746,-0.045000000000001705,-0.036666666666668846,1.732,1.681,37.629999999999995,30.068666666666665,39.519999999999996,40.274,55.153999999999996,35.85,64.398,66.732,53.132,34.919,62.754,62.2195,52.311,34.436,62.588,63.47,-0.1036666666666668,-0.0535000000000001,0.10605500000000001,0.10296500000000001,0.0,212.06,212.17000000000002,209.32999999999998,209.32999999999998,0.0,0.0
17,0.0,0.0,0.0,1.0,1.0,0.0,0.0,1.0,0.0,100.0,1.0,1.1856,26.0,0.0,0.0,0.0,59.999996,0.0,26.0,26.0,26.0,26.0,0.12344444444444447,0.2863,-0.045875,291.458,-2.8421000000000003,-2.4865714285714287,-1.7172,-1.3861428571428576,-218.82,215.9725,190.6385,0.0,0.0,0.0,0.0,0.03466666666666667,-5.498166666666667,-5.498166666666667,-0.5161,0.532,0.11788888888888893,0.71,67.884,0.17350000000000002,-0.16640000000000002,-1.1579999999999995,100.0,1.0,1.0,209.75,0.0,0.0,0.0,0.0,0.0,0.0,0.0,8890.5,0.0,55.0,5.0,244.35666666666668,1.0,0.0,0.0,0.0,0.0,0.0,1.0,0.0,0.8550000000000004,0.8550000000000004,0.0,0.0,1.0,55.0,616.79921,10000.0,85.000001,85.000001,85.000001,85.000001,395.0,0.0,0.0,0.0,1.0,333.33500000000004,52.414,52.414,45.897999999999996,45.897999999999996,34.0,-17.24,30.258,-21.953333333333333,33.80666666666667,0.0,1781.864,-0.4349999999999987,100.0,27.328,28.792,43.136,41.714,0.0,0.0,100.0,0.0,0.0,0.0,0.0,2861.285714285714,3294.9,4334.625,4067.1000000000004,306.101,304.421,314.47125,309.8023333333333,21.87,20.657,22.174599999999998,13.297777777777778,314.999998,314.999998,324.999988,324.999988,99.55708571428572,99.50821666666667,99.58088571428571,99.55391428571428,0.2217500000000001,0.08499999999999996,0.0696,0.2868,-0.036666666666668846,-0.05833333333333002,1.7229999999999999,1.6755,37.688,30.106333333333332,39.591,40.361000000000004,55.147,35.896,64.43299999999999,66.8355,53.125,34.9615,62.786,62.315,52.304,34.4775,62.616,63.5685,-0.10799999999999987,-0.05049999999999999,0.10552,0.10586000000000001,0.0,212.535,212.63,209.75,209.75,0.0,0.0
18,0.0,0.0,0.0,1.0,1.0,0.0,0.0,1.0,0.0,100.0,1.0,1.1856,26.0,0.0,0.0,0.0,59.999996,0.0,26.0,26.0,26.0,26.0,0.12422222222222223,0.2754000000000001,-0.001425,291.397,-2.8901,-2.4455714285714283,-1.7494,-1.3167142857142857,-215.56,215.96,190.617375,0.0,0.0,0.0,0.0,0.036533333333333334,-5.498166666666667,-5.498166666666667,-0.5202,-0.51,0.15677777777777768,1.21,68.014,0.17400000000000002,-0.17525000000000002,-1.2800000000000002,100.0,1.0,1.0,210.13333333333333,0.0,0.0,0.0,0.0,0.0,0.0,0.0,8906.8,0.0,55.0,5.0,244.82333333333332,0.0,0.0,0.0,0.0,0.0,0.0,1.0,0.0,0.9029999999999987,0.9029999999999987,0.0,0.0,0.0,55.0,616.79921,10000.0,85.000001,85.000001,85.000001,85.000001,395.0,0.0,0.0,0.0,1.0,333.33500000000004,52.505,52.505,45.609,45.609,34.0,-16.474999999999998,32.644,-21.506666666666668,33.260000000000005,0.0,1781.816,-0.6899999999999977,100.0,27.03,28.644,43.491,42.073,0.0,0.0,100.0,0.0,0.0,0.0,0.0,2771.285714285714,3511.8,4126.75,4107.1,306.4595,303.84833333333336,314.90725,309.582,21.878444444444444,20.6626,22.1856,13.311222222222222,314.999998,314.999998,324.999988,324.999988,99.55711428571429,99.50821666666667,99.58102857142858,99.55404285714286,0.23324999999999996,0.09824999999999995,0.0638,0.2844,-0.036666666666668846,-0.041666666666671404,1.726,1.6774999999999998,37.739999999999995,30.141333333333336,39.66,40.445,55.14,35.934,64.4635,66.92699999999999,53.117999999999995,34.9965,62.814,62.399,52.295,34.510999999999996,62.641,63.6555,-0.1263333333333332,-0.03000000000000025,0.11009000000000001,0.10318500000000001,0.0,212.91,212.985,210.13333333333333,210.13333333333333,0.0,0.0
19,0.0,0.0,0.0,1.0,1.0,0.0,0.0,1.0,0.0,100.0,1.0,1.1856,26.0,0.0,0.0,0.0,59.999996,0.0,26.0,26.0,26.0,26.0,0.15755555555555567,0.28790000000000004,0.0395,290.863,-2.8014,-2.4445714285714284,-1.7573,-1.3094285714285716,-211.88,215.9525,190.593625,0.0,0.0,0.0,0.0,0.03866666666666667,-5.498166666666667,-5.498166666666667,-0.513,0.7685,0.15900000000000003,0.792,68.158,0.1816,-0.169325,-1.6720000000000006,100.0,1.0,1.0,210.56,0.0,0.0,0.0,0.0,0.0,0.0,0.0,8924.8,0.0,55.0,5.0,245.34,1.0,0.0,0.0,0.0,0.0,0.0,1.0,0.0,0.9570000000000007,0.9570000000000007,0.0,0.0,1.0,55.0,616.79921,10000.0,85.000001,85.000001,85.000001,85.000001,395.0,0.0,0.0,0.0,1.0,166.665,51.712,51.712,45.41,45.41,34.0,-15.2975,34.19,-21.769999999999996,35.346666666666664,0.0,1781.765,-1.0399999999999991,100.0,27.495,29.155,43.197,42.14,0.0,0.0,100.0,0.0,0.0,0.0,0.0,2853.4285714285716,3554.7,4303.625,4224.3,306.009,303.57933333333335,314.53175,309.26733333333334,21.88811111111111,20.6691,22.1977,13.32611111111111,314.999998,314.999998,324.999988,324.999988,99.55714285714286,99.50823333333334,99.58118571428571,99.55422857142857,0.26075000000000004,0.11749999999999994,0.08,0.30619999999999997,-0.045000000000001705,-0.04333333333332945,1.7335,1.6654999999999998,37.801,30.182000000000002,39.735,40.538,55.135,35.984,64.497,67.0335,53.113,35.0435,62.845,62.4975,52.289,34.556,62.668,63.7575,-0.15333333333333332,-0.008999999999999897,0.10840500000000002,0.10603000000000001,0.0,213.385,213.48000000000002,210.56,210.56,0.0,0.0
20,0.0,0.0,0.0,1.0,1.0,0.0,0.0,1.0,0.0,100.0,1.0,1.1856,26.0,0.0,0.0,0.0,59.999996,0.0,26.0,26.0,26.0,26.0,0.205888888888889,0.2731000000000001,0.053475,291.214,-2.9166,-2.4934285714285718,-1.6998000000000002,-1.4122857142857144,-208.61,215.95,190.5725,0.0,0.0,0.0,0.0,0.040600000000000004,-5.498166666666667,-5.498166666666667,-0.5142,-1.1324999999999998,0.17722222222222217,0.764,68.288,0.1976,-0.17185,-2.0700000000000003,100.0,1.0,1.0,210.84333333333333,0.0,0.0,0.0,0.0,0.0,0.0,0.0,8936.9,0.0,55.0,5.0,245.81,0.0,0.0,0.0,0.0,0.0,0.0,0.0,0.0,1.004999999999999,1.004999999999999,0.0,0.0,0.0,55.0,616.79921,10000.0,85.000001,85.000001,85.000001,85.000001,395.0,0.0,0.0,0.0,1.0,166.665,52.963,52.963,44.785,44.785,34.0,-13.879999999999999,33.786,-19.413333333333334,38.163333333333334,0.0,1781.717,-1.1750000000000007,100.0,26.812,28.834,43.659,42.488,0.0,0.0,100.0,0.0,0.0,0.0,0.0,2567.142857142857,3427.6,4234.25,4223.2,307.116,304.03066666666666,314.54375,308.944,21.896333333333335,20.6748,22.2087,13.339555555555556,314.999998,314.999998,324.999988,324.999988,99.55717142857142,99.50825,99.58135714285714,99.55437142857143,0.27049999999999996,0.13224999999999998,0.10540000000000001,0.32260000000000005,-0.04833333333333201,-0.046666666666666856,1.6844999999999999,1.6105,37.852000000000004,30.217333333333336,39.804,40.622,55.126999999999995,36.027,64.5315,67.132,53.105000000000004,35.083,62.8765,62.588,52.278999999999996,34.5945,62.696,63.8515,-0.1653333333333331,0.007500000000000062,0.108255,0.104285,0.0,213.71,213.865,210.84333333333333,210.84333333333333,0.0,0.0
21,0.0,0.0,0.0,1.0,1.0,0.0,0.0,1.0,0.0,100.0,1.0,1.1856,26.0,0.0,0.0,0.0,59.999996,0.0,26.0,26.0,26.0,26.0,0.17466666666666675,0.2683,-0.047275000000000005,291.534,-2.8278,-2.547285714285714,-1.7576,-1.3822857142857141,-205.32999999999998,215.95,190.550875,0.0,0.0,0.0,0.0,0.0425,-5.498166666666667,-5.498166666666667,-0.5446,0.2985,0.15166666666666662,-0.32499999999999996,68.411,0.2189,-0.18730000000000002,-1.92,100.0,1.0,1.0,211.49333333333334,0.0,0.0,0.0,0.0,0.0,0.0,0.0,8964.4,0.0,55.0,5.0,246.25333333333333,1.0,0.0,0.0,0.0,0.0,0.0,0.0,0.0,1.0530000000000008,1.0530000000000008,0.0,0.0,1.0,55.0,616.79921,10000.0,85.000001,85.000001,85.000001,85.000001,395.0,0.0,0.0,0.0,1.0,166.665,52.124,52.124,46.356,46.356,34.0,-16.535,32.748,-18.089999999999996,34.56333333333333,0.0,1781.669,-0.10500000000000043,100.0,27.192,29.111,42.976,42.336,0.0,0.0,100.0,0.0,0.0,0.0,0.0,2804.714285714286,3447.7,4029.125,3913.6000000000004,306.224,303.8706666666667,315.23175,310.30333333333334,21.904777777777777,20.6806,22.2192,13.352777777777778,314.999998,314.999998,324.999988,324.999988,99.55718571428571,99.50826666666667,99.5815,99.55452857142858,0.22775000000000012,0.08725000000000005,0.1144,0.3402,-0.051666666666669414,-0.05666666666667197,1.8005,1.7325,37.905,30.253666666666668,39.870000000000005,40.705,55.120999999999995,36.0715,64.55799999999999,67.2235,53.099000000000004,35.1245,62.900999999999996,62.673,52.272,34.6345,62.717,63.939,-0.09466666666666668,-0.0665,0.11266500000000002,0.10365500000000001,0.0,214.12,214.28,211.49333333333334,211.49333333333334,0.0,0.0
22,0.0,0.0,0.0,1.0,1.0,0.0,0.0,1.0,0.0,100.0,1.0,1.1856,26.0,0.0,0.0,0.0,59.999996,0.0,26.0,26.0,26.0,26.0,0.14777777777777779,0.2642,0.0344,291.0,-2.8106,-2.5500000000000003,-1.7425000000000002,-1.4275714285714285,-201.84,215.95749999999998,190.527125,0.0,0.0,0.0,0.0,0.044533333333333334,-5.498166666666667,-5.498166666666667,-0.5215000000000001,0.3125,0.14944444444444427,-0.245,68.548,0.221,-0.16317500000000001,-0.6899999999999995,100.0,1.0,1.0,211.70666666666668,0.0,0.0,0.0,0.0,0.0,0.0,0.0,8973.4,0.0,55.0,5.0,246.74666666666667,0.0,0.0,0.0,0.0,0.0,0.0,0.0,0.0,1.1039999999999992,1.1039999999999992,0.0,0.0,0.0,55.0,616.79921,10000.0,85.000001,85.000001,85.000001,85.000001,395.0,0.0,0.0,0.0,1.0,166.665,52.231,52.231,45.150999999999996,45.150999999999996,34.0,-18.8675,28.426,-21.733333333333334,35.94,0.0,1781.618,1.0749999999999993,100.0,27.214,29.299,43.355000000000004,42.426,0.0,0.0,100.0,0.0,0.0,0.0,0.0,2794.142857142857,3295.4,4352.25,4114.8,306.368,304.12333333333333,314.44975,309.46066666666667,21.913777777777778,20.6867,22.2308,13.366888888888889,314.999998,314.999998,324.999988,324.999988,99.55721428571428,99.50826666666667,99.58168571428571,99.5547,0.16100000000000003,0.018750000000000044,0.0858,0.302,-0.061666666666667425,-0.041666666666671404,1.667,1.6480000000000001,37.961,30.291666666666664,39.943,40.793,55.113,36.1135,64.5935,67.325,53.09,35.1635,62.9335,62.7665,52.262,34.672,62.7455,64.0355,-0.0043333333333333,-0.15149999999999997,0.105495,0.10814000000000001,0.0,214.61,214.66,211.70666666666668,211.70666666666668,0.0,0.0
23,0.0,0.0,0.0,1.0,1.0,0.0,0.0,1.0,0.0,100.0,1.0,1.1856,26.0,0.0,0.0,0.0,59.999996,0.0,26.0,26.0,26.0,26.0,0.070888888888889,0.2642,-0.000825,290.955,-2.8288,-2.515285714285714,-1.6589,-1.4551428571428575,-198.34,215.965,190.503625,0.0,0.0,0.0,0.0,0.04656666666666667,-5.498166666666667,-5.498166666666667,-0.5363,-0.4125000000000001,0.13511111111111096,-0.136,68.682,0.17450000000000002,-0.18610000000000002,0.5220000000000002,100.0,1.0,1.0,212.16333333333333,0.0,0.0,0.0,0.0,0.0,0.0,0.0,8992.8,0.0,55.0,5.0,247.23000000000002,1.0,0.0,0.0,0.0,0.0,0.0,0.0,0.0,1.1550000000000011,1.1550000000000011,0.0,0.0,1.0,55.0,616.79921,10000.0,85.000001,85.000001,85.000001,85.000001,395.0,0.0,0.0,0.0,1.0,333.33500000000004,51.758,51.758,45.897999999999996,45.897999999999996,34.0,-22.5575,27.834000000000003,-20.97,33.07,0.0,1781.566,1.3399999999999999,100.0,27.53,29.045,43.78,42.571,0.0,0.0,100.0,0.0,0.0,0.0,0.0,3031.4285714285716,3410.6,4064.5,3984.1000000000004,305.655,304.0543333333333,314.97725,309.89566666666667,21.922777777777778,20.6928,22.2424,13.381222222222222,314.999998,314.999998,324.999988,324.999988,99.55724285714285,99.50828333333334,99.58184285714286,99.55485714285714,0.12274999999999991,-0.003750000000000031,0.047,0.2656,-0.051666666666669414,-0.030000000000001137,1.6915,1.698,38.016999999999996,30.329666666666668,40.015,40.882,55.101,36.153,64.627,67.4275,53.078,35.2005,62.9645,62.861000000000004,52.249,34.707499999999996,62.772999999999996,64.133,0.03200000000000003,-0.1875,0.10040500000000001,0.108105,0.0,215.035,214.99,212.16333333333333,212.16333333333333,0.0,0.0
24,0.0,0.0,0.0,1.0,1.0,0.0,0.0,1.0,0.0,100.0,1.0,1.1856,26.0,0.0,0.0,0.0,59.999996,0.0,26.0,26.0,26.0,26.0,-0.013444444444444481,0.2724,-0.12710000000000002,291.367,-2.8055,-2.571,-1.6623,-1.4384285714285716,-195.04,215.975,190.48125,0.0,0.0,0.0,0.0,0.04846666666666667,-5.498166666666667,-5.498166666666667,-0.5438000000000001,-0.5155000000000001,0.09855555555555551,0.34299999999999997,68.809,0.1101,-0.178475,1.1820000000000004,100.0,1.0,1.0,212.5233333333333,0.0,0.0,0.0,0.0,0.0,0.0,0.0,9008.1,0.0,55.0,5.0,247.68333333333334,0.0,0.0,0.0,0.0,0.0,0.0,0.0,0.0,1.2029999999999994,1.2029999999999994,0.0,0.0,0.0,55.0,616.79921,10000.0,85.000001,85.000001,85.000001,85.000001,395.0,0.0,0.0,0.0,1.0,333.33500000000004,52.917,52.917,45.197,45.197,34.0,-21.315,23.852,-28.386666666666663,28.42,0.0,1781.517,1.2850000000000001,100.0,27.515,28.634999999999998,44.034,42.257,0.0,0.0,100.0,0.0,0.0,0.0,0.0,2760.857142857143,3105.8,4433.75,3913.8,306.3815,305.009,314.11375,310.329,21.93122222222222,20.6982,22.2533,13.394333333333334,314.999998,314.999998,324.999988,324.999988,99.55724285714285,99.50828333333334,99.582,99.55501428571428,0.09149999999999991,-0.04225000000000001,-0.039200000000000006,0.19,-0.041666666666671404,-0.04833333333333201,1.664,1.7085,38.07,30.363999999999997,40.083,40.965,55.088,36.1885,64.6585,67.516,53.066,35.233000000000004,62.994,62.942499999999995,52.236,34.739,62.7985,64.217,0.0303333333333331,-0.18299999999999983,0.10973500000000001,0.10959500000000001,0.0,215.46,215.37,212.5233333333333,212.5233333333333,0.0,0.0
25,0.0,0.0,0.0,1.0,1.0,0.0,0.0,1.0,0.0,100.0,1.0,1.1856,26.0,0.0,0.0,0.0,59.999996,0.0,26.0,26.0,26.0,26.0,-0.07388888888888889,0.27770000000000006,-0.069625,291.321,-2.8397,-2.5622857142857143,-1.6521,-1.4638571428571425,-191.32,215.9875,190.4545,0.0,0.0,0.0,0.0,0.050633333333333336,-5.498166666666667,-5.498166666666667,-0.5778,0.055499999999999994,0.07422222222222219,-0.688,68.947,0.0407,-0.18377500000000002,1.4640000000000004,100.0,1.0,1.0,213.11333333333334,0.0,0.0,0.0,0.0,0.0,0.0,0.0,9033.1,0.0,55.0,5.0,248.18333333333334,1.0,0.0,0.0,0.0,0.0,0.0,0.0,0.0,1.256999999999998,1.256999999999998,0.0,0.0,1.0,55.0,616.79921,10000.0,85.000001,85.000001,85.000001,85.000001,395.0,0.0,0.0,0.0,1.0,166.665,51.865,51.865,46.082,46.082,34.0,-25.9,25.426,-28.439999999999998,24.483333333333334,0.0,1781.465,1.0899999999999999,100.0,27.67,28.576999999999998,43.981,41.693,0.0,0.0,100.0,0.0,0.0,0.0,0.0,3102.0,3431.7,4096.125,3816.5,305.486,304.03866666666664,315.019,310.685,21.94077777777778,20.7045,22.2655,13.408888888888889,314.999998,314.999998,324.999988,324.999988,99.55725714285714,99.5083,99.58217142857143,99.55518571428571,0.06000000000000005,-0.0685,-0.1024,0.1222,-0.05833333333333002,-0.045000000000001705,1.7295,1.799,38.129999999999995,30.403,40.159,41.056,55.072,36.2305,64.69200000000001,67.61,53.051,35.2725,63.0245,63.028999999999996,52.22,34.777,62.8255,64.3065,0.013333333333333197,-0.16849999999999987,0.11064,0.104105,0.0,215.91,215.785,213.11333333333334,213.11333333333334,0.0,0.0
26,0.0,0.0,0.0,1.0,1.0,0.0,0.0,1.0,0.0,100.0,1.0,1.1856,26.0,0.0,0.0,0.0,59.999996,0.0,26.0,26.0,26.0,26.0,-0.1353333333333333,0.27390000000000003,0.05485,290.161,-2.7497,-2.6798571428571427,-1.6689,-1.4887142857142859,-188.0,215.995,190.430125,0.0,0.0,0.0,0.0,0.052566666666666664,-5.498166666666667,-5.498166666666667,-0.5339,0.9405,0.021666666666666723,0.21900000000000008,69.075,0.00030000000000000003,-0.147875,1.4440000000000008,100.0,1.0,1.0,213.23666666666668,0.0,0.0,0.0,0.0,0.0,0.0,0.0,9038.3,0.0,55.0,5.0,248.64,0.0,0.0,0.0,0.0,0.0,0.0,0.0,0.0,1.3049999999999997,1.3049999999999997,0.0,0.0,0.0,55.0,616.79921,10000.0,85.000001,85.000001,85.000001,85.000001,395.0,0.0,0.0,0.0,1.0,333.33500000000004,51.468,51.468,44.266,44.266,34.0,-25.7075,22.898,-36.94,26.193333333333335,0.0,1781.416,0.8850000000000016,100.0,28.743,28.921,44.841,41.653999999999996,0.0,0.0,100.0,0.0,0.0,0.0,0.0,3072.285714285714,3208.4,4744.375,4173.9,305.417,304.5813333333333,313.48825,309.506,21.949666666666666,20.7101,22.2765,13.42211111111111,314.999998,314.999998,324.999988,324.999988,99.55727142857143,99.5083,99.58234285714286,99.55532857142857,0.043749999999999956,-0.11099999999999999,-0.1356,0.0866,-0.03999999999999915,-0.04833333333333201,1.595,1.6385,38.185,30.438333333333333,40.227999999999994,41.138,55.062,36.2715,64.728,67.6975,53.041,35.3105,63.0585,63.1095,52.208,34.813,62.856,64.389,-0.002666666666666595,-0.16199999999999992,0.112515,0.10382000000000001,0.0,216.345,216.215,213.23666666666668,213.23666666666668,0.0,0.0
27,0.0,0.0,0.0,1.0,1.0,0.0,0.0,1.0,0.0,100.0,1.0,1.1856,26.0,0.0,0.0,0.0,59.999996,0.0,26.0,26.0,26.0,26.0,-0.127,0.25570000000000004,0.0143,290.436,-2.7104,-2.6561428571428576,-1.6547,-1.5645714285714285,-184.69,216.0,190.407,0.0,0.0,0.0,0.0,0.0545,-5.498166666666667,-5.498166666666667,-0.557,-1.242,0.017555555555555546,0.726,69.2,-0.014700000000000001,-0.19592500000000002,1.154,100.0,1.0,1.0,213.63333333333333,0.0,0.0,0.0,0.0,0.0,0.0,0.0,9055.2,0.0,55.0,5.0,249.09333333333336,1.0,0.0,0.0,0.0,0.0,0.0,0.0,0.0,1.352999999999998,1.352999999999998,0.0,0.0,1.0,55.0,616.79921,10000.0,85.000001,85.000001,85.000001,85.000001,395.0,0.0,0.0,0.0,1.0,333.33500000000004,51.772999999999996,51.772999999999996,44.556,44.556,34.0,-25.535,22.61,-33.986666666666665,25.546666666666667,0.0,1781.367,0.8500000000000014,100.0,28.494,28.582,45.633,42.103,0.0,0.0,100.0,0.0,0.0,0.0,0.0,3037.285714285714,3254.4,4372.875,3988.7,305.5195,304.5896666666667,314.2605,309.92766666666665,21.958222222222222,20.7155,22.2878,13.435555555555556,314.999998,314.999998,324.999988,324.999988,99.55727142857143,99.50831666666667,99.5825,99.55548571428571,0.031500000000000083,-0.11699999999999999,-0.1484,0.079,-0.041666666666671404,-0.046666666666666856,1.626,1.6705,38.239000000000004,30.472,40.299,41.222,55.047,36.31,64.766,67.7885,53.027,35.346000000000004,63.0935,63.193,52.194,34.8475,62.888,64.4745,-0.016000000000000014,-0.15450000000000008,0.11497,0.10327000000000001,0.0,216.64499999999998,216.54000000000002,213.63333333333333,213.63333333333333,0.0,0.0
28,0.0,0.0,0.0,1.0,1.0,0.0,0.0,1.0,0.0,100.0,1.0,1.1856,26.0,0.0,0.0,0.0,59.999996,0.0,26.0,26.0,26.0,26.0,-0.11188888888888893,0.25849999999999995,-0.047325,291.031,-2.722,-2.653857142857143,-1.5863,-1.5431428571428576,-181.14999999999998,216.0025,190.381875,0.0,0.0,0.0,0.0,0.05653333333333334,-5.498166666666667,-5.498166666666667,-0.5746,0.5555,-0.007111111111111068,-0.7929999999999999,69.327,-0.0233,-0.188425,1.2620000000000005,100.0,1.0,1.0,214.25666666666666,0.0,0.0,0.0,0.0,0.0,0.0,0.0,9081.5,0.0,55.0,5.0,249.55,0.0,0.0,0.0,0.0,0.0,0.0,0.0,0.0,1.404,1.404,0.0,0.0,0.0,55.0,616.79921,10000.0,85.000001,85.000001,85.000001,85.000001,395.0,0.0,0.0,0.0,1.0,166.665,51.712,51.712,45.944,45.944,34.0,-28.1325,20.825999999999997,-31.363333333333333,22.78333333333333,0.0,1781.318,0.7050000000000018,100.0,28.583,28.673000000000002,44.825,41.579,0.0,0.0,100.0,0.0,0.0,0.0,0.0,3249.142857142857,3058.6,4234.625,3787.4,305.0975,304.9773333333333,314.722,310.83,21.967555555555556,20.7214,22.2992,13.449333333333334,314.999998,314.999998,324.999988,324.999988,99.55727142857143,99.50833333333334,99.58267142857143,99.55562857142857,0.01574999999999993,-0.12675000000000003,-0.1546,0.06720000000000001,-0.051666666666669414,-0.045000000000001705,1.7285,1.7664999999999997,38.297,30.508666666666667,40.370000000000005,41.308,55.034,36.3525,64.797,67.8735,53.013999999999996,35.3855,63.123,63.2715,52.18,34.8855,62.9135,64.5545,-0.023333333333333206,-0.14400000000000013,0.104175,0.10687,0.0,217.09,216.995,214.25666666666666,214.25666666666666,0.0,0.0
29,0.0,0.0,0.0,1.0,1.0,0.0,0.0,1.0,0.0,100.0,1.0,1.1856,26.0,0.0,0.0,0.0,59.999996,0.0,26.0,26.0,26.0,26.0,-0.13311111111111107,0.26849999999999996,0.0114,290.497,-2.6678,-2.704285714285714,-1.6293000000000002,-1.512857142857143,-177.61,216.0025,190.3555,0.0,0.0,0.0,0.0,0.058600000000000006,-5.498166666666667,-5.498166666666667,-0.5718,-0.5525,0.007888888888888834,1.245,69.462,-0.0284,-0.168575,0.9740000000000002,100.0,1.0,1.0,214.44333333333333,0.0,0.0,0.0,0.0,0.0,0.0,0.0,9089.5,0.0,55.0,5.0,250.03666666666666,1.0,0.0,0.0,0.0,0.0,0.0,0.0,0.0,1.4549999999999983,1.4549999999999983,0.0,0.0,1.0,55.0,616.79921,10000.0,85.000001,85.000001,85.000001,85.000001,395.0,0.0,0.0,0.0,1.0,333.33500000000004,51.772999999999996,51.772999999999996,44.601,44.601,34.0,-25.369999999999997,23.688,-34.43666666666667,24.866666666666667,0.0,1781.264,0.48499999999999943,100.0,28.421,28.326,45.327,41.579,0.0,0.0,100.0,0.0,0.0,0.0,0.0,3086.5714285714284,3281.0,4435.75,4052.8,305.4115,304.3763333333333,314.09325,309.86566666666664,21.976666666666667,20.727,22.311,13.463333333333333,314.999998,314.999998,324.999988,324.999988,99.55727142857143,99.50835,99.58285714285714,99.5558,0.03675000000000006,-0.11175000000000002,-0.15259999999999999,0.0724,-0.05333333333332746,-0.023333333333326323,1.634,1.6734999999999998,38.354,30.544,40.444,41.396,55.016999999999996,36.394999999999996,64.8375,67.97,52.998000000000005,35.4245,63.1605,63.36,52.163,34.9225,62.9475,64.6455,-0.040999999999999925,-0.12250000000000005,0.10909,0.11192500000000001,0.0,217.47,217.375,214.44333333333333,214.44333333333333,0.0,0.0
30,0.0,0.0,0.0,1.0,1.0,0.0,0.0,1.0,0.0,100.0,1.0,1.1856,26.0,0.0,0.0,0.0,59.999996,0.0,26.0,26.0,26.0,26.0,-0.1313333333333333,0.2681,0.059500000000000004,289.948,-2.7295,-2.5907142857142857,-1.5733000000000001,-1.588285714285714,-174.28,215.9975,190.330375,0.0,0.0,0.0,0.0,0.06053333333333334,-5.498166666666667,-5.498166666666667,-0.5701,0.641,0.006111111111110956,0.4610000000000001,69.583,-0.0204,-0.17735,0.7379999999999995,100.0,1.0,1.0,214.85000000000002,0.0,0.0,0.0,0.0,0.0,0.0,0.0,9106.7,0.0,55.0,5.0,250.47333333333336,0.0,0.0,0.0,0.0,0.0,0.0,1.0,0.0,1.5030000000000001,1.5030000000000001,0.0,0.0,0.0,55.0,616.79921,10000.0,85.000001,85.000001,85.000001,85.000001,395.0,0.0,0.0,0.0,1.0,166.665,50.797,50.797,44.861,44.861,34.0,-27.174999999999997,22.862,-33.126666666666665,26.82,0.0,1781.219,0.375,100.0,29.187,29.083,45.226,41.744,0.0,0.0,100.0,0.0,0.0,0.0,0.0,3274.285714285714,3271.4,4473.625,4069.7,304.8225,304.42833333333334,314.08475,309.69166666666666,21.985555555555557,20.7327,22.3219,13.476555555555557,314.999998,314.999998,324.999988,324.999988,99.55728571428571,99.50836666666666,99.58301428571428,99.55594285714285,0.050999999999999934,-0.10324999999999995,-0.1396,0.0856,-0.04833333333333201,-0.05666666666667197,1.6345,1.6705,38.409,30.579666666666668,40.512,41.479,55.007999999999996,36.434,64.8675,68.0515,52.989000000000004,35.461,63.1885,63.435,52.153,34.957499999999996,62.972,64.722,-0.052999999999999936,-0.11500000000000021,0.10690500000000001,0.10969500000000001,0.0,217.87,217.815,214.85000000000002,214.85000000000002,0.0,0.0
31,0.0,0.0,0.0,1.0,1.0,0.0,0.0,1.0,0.0,100.0,1.0,1.1856,26.0,0.0,0.0,0.0,59.999996,0.0,26.0,26.0,26.0,26.0,-0.10499999999999998,0.2593000000000001,0.0049,289.963,-2.7965,-2.566,-1.6231,-1.5565714285714285,-170.51999999999998,215.99,190.303125,0.0,0.0,0.0,0.0,0.06273333333333334,-5.498166666666667,-5.498166666666667,-0.558,-0.704,0.02055555555555566,0.9319999999999999,69.72200000000001,-0.001,-0.182175,0.3780000000000001,100.0,1.0,1.0,215.17000000000002,0.0,0.0,0.0,0.0,0.0,0.0,0.0,9120.3,0.0,55.0,5.0,250.97,1.0,0.0,0.0,0.0,0.0,0.0,1.0,0.0,1.5569999999999986,1.5569999999999986,0.0,0.0,1.0,55.0,616.79921,10000.0,85.000001,85.000001,85.000001,85.000001,395.0,0.0,0.0,0.0,1.0,166.665,51.437,51.437,43.671,43.671,34.0,-24.63,23.632,-33.38333333333333,27.75333333333333,0.0,1781.164,0.3500000000000014,100.0,28.878,29.165,45.765,42.233000000000004,0.0,0.0,100.0,0.0,0.0,0.0,0.0,2996.285714285714,3344.1,4537.375,4135.9,305.8215,304.46366666666665,313.84925,309.65066666666667,21.99522222222222,20.739,22.3345,13.491777777777777,314.999998,314.999998,324.999988,324.999988,99.55728571428571,99.50838333333333,99.5832,99.55611428571429,0.05725000000000002,-0.08824999999999994,-0.117,0.1032,-0.023333333333326323,-0.05833333333333002,1.6179999999999999,1.6389999999999998,38.47,30.619,40.591,41.573,54.992999999999995,36.4785,64.90899999999999,68.151,52.976,35.502,63.2275,63.527,52.138999999999996,34.997,63.007,64.816,-0.04966666666666675,-0.11399999999999988,0.10446000000000001,0.10957000000000001,0.0,218.24,218.22500000000002,215.17000000000002,215.17000000000002,0.0,0.0
32,0.0,0.0,0.0,1.0,1.0,0.0,0.0,1.0,0.0,100.0,1.0,1.1856,26.0,0.0,0.0,0.0,59.999996,0.0,26.0,26.0,26.0,26.0,-0.08433333333333337,0.2693000000000001,-0.032875,290.344,-2.7326,-2.6061428571428573,-1.6825,-1.4701428571428572,-166.95999999999998,215.98000000000002,190.277625,0.0,0.0,0.0,0.0,0.0648,-5.498166666666667,-5.498166666666667,-0.5799000000000001,0.05499999999999994,-0.010777777777777775,-1.284,69.84700000000001,0.016,-0.1957,0.41999999999999993,100.0,1.0,1.0,215.73333333333335,0.0,0.0,0.0,0.0,0.0,0.0,0.0,9144.2,0.0,55.0,5.0,251.42666666666668,0.0,0.0,0.0,0.0,0.0,0.0,1.0,0.0,1.6080000000000005,1.6080000000000005,0.0,0.0,0.0,55.0,616.79921,10000.0,85.000001,85.000001,85.000001,85.000001,395.0,0.0,0.0,0.0,1.0,166.665,51.193,51.193,44.998,44.998,34.0,-25.935000000000002,23.496,-31.89,25.38666666666667,0.0,1781.114,0.3200000000000003,100.0,28.712,29.337,45.138,42.17,0.0,0.0,100.0,0.0,0.0,0.0,0.0,3253.5714285714284,3167.4,4415.875,3938.8,305.1125,304.65566666666666,314.3855,310.402,22.004333333333335,20.7451,22.3461,13.505777777777778,314.999998,314.999998,324.999988,324.999988,99.5573,99.5084,99.58337142857143,99.55627142857143,0.0685,-0.07574999999999998,-0.1076,0.1158,-0.041666666666671404,-0.05333333333332746,1.703,1.7245,38.527,30.656666666666666,40.663,41.661,54.980999999999995,36.5205,64.9415,68.2405,52.964,35.5405,63.2575,63.609,52.126,35.034,63.033500000000004,64.9005,-0.06133333333333324,-0.1080000000000001,0.11037000000000001,0.10658000000000001,0.0,218.64499999999998,218.625,215.73333333333335,215.73333333333335,0.0,0.0
33,0.0,0.0,0.0,1.0,1.0,0.0,0.0,1.0,0.0,100.0,1.0,1.1856,26.0,0.0,0.0,0.0,59.999996,0.0,26.0,26.0,26.0,26.0,-0.06322222222222218,0.26060000000000016,-0.07485,290.466,-2.7394,-2.646428571428572,-1.6442999999999999,-1.4862857142857142,-163.81,215.97,190.254125,0.0,0.0,0.0,0.0,0.06663333333333334,-5.498166666666667,-5.498166666666667,-0.5804,-0.23449999999999993,-0.00011111111111095084,1.5230000000000001,69.962,0.025900000000000003,-0.176175,0.30600000000000094,100.0,1.0,1.0,216.00333333333333,0.0,0.0,0.0,0.0,0.0,0.0,0.0,9155.5,0.0,55.0,5.0,251.83666666666664,1.0,0.0,0.0,0.0,0.0,0.0,1.0,0.0,1.6529999999999987,1.6529999999999987,0.0,0.0,1.0,55.0,616.79921,10000.0,85.000001,85.000001,85.000001,85.000001,395.0,0.0,0.0,0.0,1.0,333.33500000000004,51.88,51.88,44.708,44.708,34.0,-22.855,24.074,-31.076666666666664,27.14333333333333,0.0,1781.068,0.1999999999999993,100.0,28.686,28.959,45.226,42.071,0.0,0.0,100.0,0.0,0.0,0.0,0.0,2972.714285714286,3151.9,4443.0,4061.9,305.8235,304.89366666666666,314.19825,309.9563333333333,22.012333333333334,20.7501,22.3563,13.51811111111111,314.999998,314.999998,324.999988,324.999988,99.5573,99.5084,99.58351428571429,99.55641428571428,0.08574999999999999,-0.06325000000000003,-0.092,0.12340000000000001,-0.03999999999999915,-0.046666666666666856,1.6665,1.6640000000000001,38.577,30.688333333333333,40.727000000000004,41.738,54.97,36.553,64.972,68.319,52.953,35.5715,63.286,63.6815,52.114,35.0635,63.059,64.9745,-0.06099999999999994,-0.09799999999999986,0.10169500000000001,0.10869000000000001,0.0,218.995,218.97,216.00333333333333,216.00333333333333,0.0,0.0
34,0.0,0.0,0.0,1.0,1.0,0.0,0.0,1.0,0.0,100.0,1.0,1.1856,26.0,0.0,0.0,0.0,59.999996,0.0,26.0,26.0,26.0,26.0,-0.0474444444444444,0.24260000000000015,-0.0724,290.68,-2.8213,-2.6038571428571426,-1.6915,-1.4971428571428573,-160.24,215.95749999999998,190.226125,0.0,0.0,0.0,0.0,0.0687,-5.498166666666667,-5.498166666666667,-0.6093000000000001,-0.8195000000000001,0.03944444444444439,-0.14600000000000002,70.089,0.04,-0.18315,0.20400000000000063,100.0,1.0,1.0,216.44,0.0,0.0,0.0,0.0,0.0,0.0,0.0,9174.1,0.0,55.0,5.0,252.29666666666668,0.0,0.0,0.0,0.0,0.0,0.0,1.0,0.0,1.7040000000000006,1.7040000000000006,0.0,0.0,0.0,55.0,616.79921,10000.0,85.000001,85.000001,85.000001,85.000001,395.0,0.0,0.0,0.0,1.0,333.33500000000004,51.987,51.987,45.501999999999995,45.501999999999995,34.0,-24.27,23.86,-29.723333333333333,27.92,0.0,1781.015,0.20500000000000185,100.0,28.246,28.799,44.922,42.304,0.0,0.0,100.0,0.0,0.0,0.0,0.0,3076.4285714285716,3132.2,4249.5,4013.3,305.6205,304.8566666666667,314.71,309.94933333333336,22.02122222222222,20.7559,22.3678,13.532333333333334,314.999998,314.999998,324.999988,324.999988,99.55731428571428,99.5084,99.5837,99.55657142857143,0.0887500000000001,-0.05774999999999997,-0.08700000000000001,0.1416,-0.051666666666669414,-0.030000000000001137,1.68,1.6825,38.632999999999996,30.724666666666664,40.799,41.827,54.956,36.5905,65.0035,68.411,52.94,35.606,63.3155,63.7665,52.101,35.0965,63.0845,65.0615,-0.06733333333333325,-0.10199999999999987,0.10768000000000001,0.10898500000000001,0.0,219.37,219.325,216.44,216.44,0.0,0.0
35,0.0,0.0,0.0,1.0,1.0,0.0,0.0,1.0,0.0,100.0,1.0,1.1856,26.0,0.0,0.0,0.0,59.999996,0.0,26.0,26.0,26.0,26.0,-0.03722222222222216,0.24870000000000014,-0.051500000000000004,290.726,-2.8096,-2.6004285714285715,-1.6520000000000001,-1.5194285714285716,-156.66,215.945,190.19625,0.0,0.0,0.0,0.0,0.0708,-5.498166666666667,-5.498166666666667,-0.6539,-0.5435000000000001,0.02344444444444438,-0.20099999999999996,70.215,0.0541,-0.1965,0.007999999999999119,100.0,1.0,1.0,216.87666666666667,0.0,0.0,0.0,0.0,0.0,0.0,0.0,9192.7,0.0,55.0,5.0,252.75,1.0,0.0,0.0,0.0,0.0,0.0,1.0,0.0,1.754999999999999,1.754999999999999,0.0,0.0,1.0,55.0,616.79921,10000.0,85.000001,85.000001,85.000001,85.000001,395.0,0.0,0.0,0.0,1.0,166.665,51.544,51.544,45.074,45.074,34.0,-23.9325,28.09,-27.556666666666665,27.006666666666668,0.0,1780.967,0.26000000000000156,100.0,28.132,28.906,44.842,42.003,0.0,0.0,100.0,0.0,0.0,0.0,0.0,3094.285714285714,3480.9,4195.375,3798.7,305.581,303.90233333333333,314.7205,310.7973333333333,22.03,20.762,22.3793,13.546222222222223,314.999998,314.999998,324.999988,324.999988,99.55732857142857,99.50841666666666,99.58385714285714,99.55672857142856,0.09800000000000009,-0.03049999999999997,-0.0648,0.15819999999999998,-0.051666666666669414,-0.051666666666669414,1.7175,1.7189999999999999,38.688,30.762333333333334,40.870000000000005,41.914,54.942,36.629,65.0345,68.498,52.927,35.6415,63.3445,63.8465,52.086,35.131,63.11,65.1435,-0.057333333333333236,-0.09850000000000003,0.10397500000000001,0.10685000000000001,0.0,219.76,219.755,216.87666666666667,216.87666666666667,0.0,0.0
