,ABS Active,ABS Enabled,AID Allow Tire Blankets,AID Auto Blip,AID Auto Clutch,AID Auto Shift,AID Fuel Rate,AID Ideal Line,AID Mech Damage,AID Stability,AID Tire Wear Rate,Air Density,Air Temp,Ballast,Best Lap Delta,Best Lap Time,Brake Bias,Brake Pos,Brake Temp FL,Brake Temp FR,Brake Temp RL,Brake Temp RR,CG Accel Lateral,CG Accel Longitudinal,CG Accel Vertical,CG Height,Camber FL,Camber FR,Camber RL,Camber RR,Car Coord X,Car Coord Y,Car Coord Z,Car Damage Front,Car Damage Left,Car Damage Rear,Car Damage Right,Car Pos Norm,Caster FL,Caster FR,Chassis Pitch Angle,Chassis Pitch Rate,Chassis Roll Angle,Chassis Roll Rate,Chassis Velocity X,Chassis Velocity Y,Chassis Velocity Z,Chassis Yaw Rate,Clutch Pos,DRS Active,DRS Available,Drive Train Speed,ERS Heat Charging,ERS Is Charging,ERS Max Energy,ERS Power Level,ERS Recovery Level,Engine Brake Setting,Engine Limiter,Engine RPM,Flags,Fuel Level,Gear,Ground Speed,HR Sample Clock,In Pit,KERS Charge,KERS Deployed Energy,KERS Input,KERS Max Energy,LR Sample Clock,Lap Invalidated,Lap Time,Lap Time2,Last Lap Time,Last Sector Time,MR Sample Clock,Max Fuel,Max Power,Max RPM,Max Sus Travel FL,Max Sus Travel FR,Max Sus Travel RL,Max Sus Travel RR,Max Torque,Max Turbo Boost,Num Tires Off Track,Penalties Enabled,Position,Raw Data Sample Rate,Ride Height FL,Ride Height FR,Ride Height RL,Ride Height RR,Road Temp,Self Align Torque FL,Self Align Torque FR,Self Align Torque RL,Self Align Torque RR,Session Lap Count,Session Time Left,Steering Angle,Surface Grip,Suspension Travel FL,Suspension Travel FR,Suspension Travel RL,Suspension Travel RR,TC Active,TC Enabled,Throttle Pos,Tire Dirt Level FL,Tire Dirt Level FR,Tire Dirt Level RL,Tire Dirt Level RR,Tire Load FL,Tire Load FR,Tire Load RL,Tire Load RR,Tire Loaded Radius FL,Tire Loaded Radius FR,Tire Loaded Radius RL,Tire Loaded Radius RR,Tire Pressure FL,Tire Pressure FR,Tire Pressure RL,Tire Pressure RR,Tire Radius FL,Tire Radius FR,Tire Radius RL,Tire Radius RR,Tire Rubber Grip FL,Tire Rubber Grip FR,Tire Rubber Grip RL,Tire Rubber Grip RR,Tire Slip Angle FL,Tire Slip Angle FR,Tire Slip Angle RL,Tire Slip Angle RR,Tire Slip Ratio FL,Tire Slip Ratio FR,Tire Slip Ratio RL,Tire Slip Ratio RR,Tire Temp Core FL,Tire Temp Core FR,Tire Temp Core RL,Tire Temp Core RR,Tire Temp Inner FL,Tire Temp Inner FR,Tire Temp Inner RL,Tire Temp Inner RR,Tire Temp Middle FL,Tire Temp Middle FR,Tire Temp Middle RL,Tire Temp Middle RR,Tire Temp Outer FL,Tire Temp Outer FR,Tire Temp Outer RL,Tire Temp Outer RR,Toe In FL,Toe In FR,Toe In RL,Toe In RR,Turbo Boost,Wheel Angular Speed FL,Wheel Angular Speed FR,Wheel Angular Speed RL,Wheel Angular Speed RR,Wind Direction,Wind Speed
0,0.0,0.0,0.0,1.0,1.0,0.0,0.0,1.0,0.0,100.0,1.0,1.1856,26.0,0.0,0.0,0.0,59.99999,0.0,26.0,26.0,26.0,26.0,-0.0832222222222222,0.31489999999999996,0.0531,292.725,-2.793,-2.5776250000000003,-1.5952000000000002,-1.474875,-275.54,216.3125,190.9855,0.0,0.0,0.0,0.0,0.0016666666666665941,-5.498166666666667,-5.498166666666667,-0.529,0.9486666666666667,0.058555555555555694,-0.9470000000000001,65.493,0.025900000000000003,-0.186425,1.3239999999999998,100.0,1.0,1.0,202.56333333333333,0.0,0.0,0.0,0.0,0.0,0.0,0.0,8586.0,0.0,55.0,5.0,235.74333333333334,0.0,0.0,0.0,0.0,0.0,0.0,0.0,0.0,0.006000000000000227,0.006000000000000227,0.0,0.0,0.0,55.0,616.79921,10000.0,85.0,85.0,85.0,85.0,395.0,0.0,0.0,0.0,1.0,20.0,52.016999999999996,52.016999999999996,47.76,47.76,34.0,-25.535,26.746666666666666,-28.453333333333333,23.884999999999998,0.0,1782.913,1.1799999999999997,100.0,27.223,27.676000000000002,41.432,39.394,0.0,0.0,100.0,0.0,0.0,0.0,0.0,3008.75,3685.4,4166.75,3788.1000000000004,305.68,303.13225,314.79725,311.18233333333336,21.68611111111111,20.5536,21.976399999999998,13.9423,314.99999,314.99999,324.99998,324.99998,99.55502857142856,99.50791666666667,99.57814285714285,99.55055714285714,0.03475000000000006,-0.08824999999999994,-0.10899999999999999,0.11080000000000001,-0.02833333333332888,-0.06666666666666998,1.7366666666666668,1.7894999999999999,36.538,29.46,38.352999999999994,38.14,54.712,35.042,63.7725,63.129999999999995,52.757999999999996,34.218,62.203,59.1825,52.001999999999995,33.813,62.1255,60.1325,0.021666666666666945,-0.1695000000000002,0.10175000000000001,0.10884,0.0,205.215,205.14,202.56333333333333,202.56333333333333,0.0,0.0
1,0.0,0.0,0.0,1.0,1.0,0.0,0.0,1.0,0.0,100.0,1.0,1.1856,26.0,0.0,0.0,0.0,59.999996,0.0,26.0,26.0,26.0,26.0,-0.12588888888888894,0.32610000000000006,0.180125,291.718,-2.6968,-2.69625,-1.5931000000000002,-1.4757500000000001,-272.2,216.3075,190.96525,0.0,0.0,0.0,0.0,0.0036333333333333773,-5.498166666666667,-5.498166666666667,-0.46640000000000004,-0.2470000000000001,0.002666666666666595,-0.258,65.647,-0.0025,-0.16112500000000002,1.6140000000000008,100.0,1.0,1.0,202.67666666666668,0.0,0.0,0.0,0.0,0.0,0.0,0.0,8590.7,0.0,55.0,5.0,236.29666666666668,1.0,0.0,0.0,0.0,0.0,0.0,0.0,0.0,0.05699999999999861,0.05699999999999861,0.0,0.0,1.0,55.0,616.79921,10000.0,85.000001,85.000001,85.000001,85.000001,395.0,0.0,0.0,0.0,1.0,333.33500000000004,53.207,53.207,46.204,46.204,34.0,-25.44,19.295,-35.986666666666665,27.3275,0.0,1782.86,1.120000000000001,100.0,27.49,27.794,43.383,40.311,0.0,0.0,100.0,0.0,0.0,0.0,0.0,3017.875,2807.7,4632.0,4455.4,305.67133333333334,305.8865,313.5735,308.88733333333334,21.695666666666668,20.5591,21.9885,13.9555,314.999998,314.999998,324.999988,324.999988,99.55502857142856,99.50791666666667,99.5783,99.55071428571429,0.0182500000000001,-0.11875000000000002,-0.15379999999999994,0.07099999999999995,-0.054999999999999716,-0.05333333333332746,1.558,1.621,36.598,29.494333333333334,38.428,38.222,54.7,35.0835,63.814,63.2285,52.745999999999995,34.2565,62.242,59.272999999999996,51.989000000000004,33.85,62.161,60.225,0.015000000000000124,-0.1655000000000002,0.10794500000000001,0.11101000000000001,0.0,205.72,205.60000000000002,202.67666666666668,202.67666666666668,0.0,0.0
2,0.0,0.0,0.0,1.0,1.0,0.0,0.0,1.0,0.0,100.0,1.0,1.1856,26.0,0.0,0.0,0.0,59.999996,0.0,26.0,26.0,26.0,26.0,-0.13244444444444448,0.2936000000000001,-0.012675,292.709,-2.692,-2.702875,-1.5790000000000002,-1.51575,-268.65,216.3,190.945625,0.0,0.0,0.0,0.0,0.005699999999999927,-5.498166666666667,-5.498166666666667,-0.5194,-0.21066666666666678,0.028999999999999915,0.8319999999999999,65.797,-0.0247,-0.22455,1.6500000000000004,100.0,1.0,1.0,203.63,0.0,0.0,0.0,0.0,0.0,0.0,0.0,8631.1,0.0,55.0,5.0,236.84333333333333,0.0,0.0,0.0,0.0,0.0,0.0,0.0,0.0,0.11100000000000065,0.11100000000000065,0.0,0.0,0.0,55.0,616.79921,10000.0,85.000001,85.000001,85.000001,85.000001,395.0,0.0,0.0,0.0,1.0,166.665,52.292,52.292,48.431,48.431,34.0,-27.9275,20.94833333333333,-28.183333333333334,20.15,0.0,1782.808,0.9250000000000007,100.0,27.823,27.733,43.281,40.34,0.0,0.0,100.0,0.0,0.0,0.0,0.0,3213.125,3073.8,3781.625,3624.9,305.0516666666667,305.0085,315.66175,311.87666666666667,21.70588888888889,20.5646,22.000799999999998,13.9692,314.999998,314.999998,324.999988,324.999988,99.55502857142856,99.50795,99.57847142857143,99.55087142857143,0.005749999999999922,-0.13275000000000003,-0.18299999999999994,0.04899999999999993,-0.05833333333333002,-0.06499999999999773,1.8,1.8615,36.662,29.529,38.504999999999995,38.307,54.687,35.1245,63.8495,63.323499999999996,52.733999999999995,34.294,62.2745,59.3605,51.976,33.885999999999996,62.19,60.315,-0.0013333333333331865,-0.15799999999999992,0.10952,0.110045,0.0,206.175,206.01999999999998,203.63,203.63,0.0,0.0
3,0.0,0.0,0.0,1.0,1.0,0.0,0.0,1.0,0.0,100.0,1.0,1.1856,26.0,0.0,0.0,0.0,59.999996,0.0,26.0,26.0,26.0,26.0,-0.1464444444444445,0.3126,0.0076500000000000005,292.633,-2.7826,-2.633375,-1.5688,-1.5235,-265.68,216.29000000000002,190.928375,0.0,0.0,0.0,0.0,0.007399999999999962,-5.498166666666667,-5.498166666666667,-0.48610000000000003,0.5589999999999999,0.041888888888888864,0.42300000000000004,65.931,-0.0392,-0.1703,1.362,100.0,1.0,1.0,203.79333333333335,0.0,0.0,0.0,0.0,0.0,0.0,0.0,8638.1,0.0,55.0,5.0,237.32,1.0,0.0,0.0,0.0,0.0,0.0,0.0,0.0,0.1559999999999988,0.1559999999999988,0.0,0.0,1.0,55.0,616.79921,10000.0,85.000001,85.000001,85.000001,85.000001,395.0,0.0,0.0,0.0,1.0,166.665,53.482,53.482,46.707,46.707,34.0,-23.945,20.174999999999997,-33.29,22.845,0.0,1782.763,0.745000000000001,100.0,27.604,27.505,43.119,39.986000000000004,0.0,0.0,100.0,0.0,0.0,0.0,0.0,2756.375,2957.7,4379.125,3945.6000000000004,306.3256666666667,305.41175,314.20775,310.81966666666665,21.714222222222222,20.5694,22.011,13.9804,314.999998,314.999998,324.999988,324.999988,99.55502857142856,99.50795,99.57861428571428,99.551,0.012250000000000094,-0.11349999999999993,-0.16700000000000004,0.05040000000000022,-0.046666666666666856,-0.05666666666667197,1.693,1.721,36.714,29.558666666666667,38.569,38.378,54.674,35.161,63.8805,63.4025,52.721000000000004,34.3275,62.3035,59.4335,51.963,33.918,62.216499999999996,60.39,-0.019333333333333202,-0.13100000000000023,0.09841000000000001,0.113695,0.0,206.60500000000002,206.48000000000002,203.79333333333335,203.79333333333335,0.0,0.0
4,0.0,0.0,0.0,1.0,1.0,0.0,0.0,1.0,0.0,100.0,1.0,1.1856,26.0,0.0,0.0,0.0,59.999996,0.0,26.0,26.0,26.0,26.0,-0.14355555555555555,0.2712000000000001,-0.01965,292.603,-2.7418,-2.65925,-1.6108,-1.509125,-262.32,216.275,190.9085,0.0,0.0,0.0,0.0,0.009366666666666523,-5.498166666666667,-5.498166666666667,-0.5099,-0.766,-0.005555555555555536,-1.927,66.078,-0.0395,-0.194275,1.1099999999999994,100.0,1.0,1.0,204.26666666666665,0.0,0.0,0.0,0.0,0.0,0.0,0.0,8658.2,0.0,55.0,5.0,237.85000000000002,0.0,0.0,0.0,0.0,0.0,0.0,0.0,0.0,0.20700000000000074,0.20700000000000074,0.0,0.0,0.0,55.0,616.79921,10000.0,85.000001,85.000001,85.000001,85.000001,395.0,0.0,0.0,0.0,1.0,333.33500000000004,53.055,53.055,46.906,46.906,34.0,-27.0975,20.523333333333333,-32.74333333333333,21.4875,0.0,1782.711,0.7199999999999989,100.0,27.225,27.401,43.519,40.230000000000004,0.0,0.0,100.0,0.0,0.0,0.0,0.0,3097.875,3027.9,4233.875,3692.4,305.53833333333336,305.052,314.58175,311.51366666666667,21.723444444444443,20.5748,22.0228,13.9934,314.999998,314.999998,324.999988,324.999988,99.55504285714285,99.50796666666666,99.57877142857143,99.55115714285714,0.00374999999999992,-0.12749999999999995,-0.1724,0.06020000000000003,-0.030000000000001137,-0.03999999999999915,1.698,1.733,36.772,29.592333333333336,38.641999999999996,38.459,54.657,35.201499999999996,63.919,63.493,52.705,34.365,62.339,59.516999999999996,51.946,33.9535,62.2485,60.4755,-0.019333333333333202,-0.133,0.11005000000000001,0.10738500000000001,0.0,206.99,206.91500000000002,204.26666666666665,204.26666666666665,0.0,0.0
5,0.0,0.0,0.0,1.0,1.0,0.0,0.0,1.0,0.0,100.0,1.0,1.1856,26.0,0.0,0.0,0.0,59.999996,0.0,26.0,26.0,26.0,26.0,-0.14911111111111108,0.2962,-0.0391,292.679,-2.7241,-2.7119999999999997,-1.5682,-1.52125,-258.94,216.2575,190.888125,0.0,0.0,0.0,0.0,0.011333333333333306,-5.498166666666667,-5.498166666666667,-0.5087,0.3743333333333334,-0.032222222222222374,1.101,66.223,-0.0359,-0.186375,1.0199999999999996,100.0,1.0,1.0,204.74,0.0,0.0,0.0,0.0,0.0,0.0,0.0,8678.1,0.0,55.0,5.0,238.37333333333333,1.0,0.0,0.0,0.0,0.0,0.0,0.0,0.0,0.2579999999999991,0.2579999999999991,0.0,0.0,1.0,55.0,616.79921,10000.0,85.000001,85.000001,85.000001,85.000001,395.0,0.0,0.0,0.0,1.0,333.33500000000004,53.253,53.253,47.318,47.318,34.0,-25.965,21.26833333333333,-31.886666666666667,22.67,0.0,1782.659,0.3949999999999996,100.0,27.625,27.135,43.415,39.88,0.0,0.0,100.0,0.0,0.0,0.0,0.0,3031.125,2952.0,4281.625,3833.7,305.499,305.50075,314.47925,311.214,21.733,20.5802,22.034399999999998,14.0061,314.999998,314.999998,324.999988,324.999988,99.55504285714285,99.50798333333333,99.57894285714286,99.55131428571428,0.019749999999999934,-0.10050000000000003,-0.1592,0.06459999999999999,-0.05666666666667197,-0.054999999999999716,1.706,1.741,36.832,29.625999999999998,38.715,38.538,54.644999999999996,35.2435,63.957,63.584,52.693,34.4035,62.3745,59.6005,51.933,33.991,62.281,60.5605,-0.036666666666666625,-0.10950000000000015,0.09823000000000001,0.11632,0.0,207.48000000000002,207.385,204.74,204.74,0.0,0.0
6,0.0,0.0,0.0,1.0,1.0,0.0,0.0,1.0,0.0,100.0,1.0,1.1856,26.0,0.0,0.0,0.0,59.999996,0.0,26.0,26.0,26.0,26.0,-0.10788888888888892,0.3017000000000001,-0.0073750000000000005,292.526,-2.7212,-2.713875,-1.6352,-1.49275,-255.56,216.235,190.867625,0.0,0.0,0.0,0.0,0.013299999999999979,-5.498166666666667,-5.498166666666667,-0.4975,0.241,0.008333333333333304,-0.262,66.369,-0.0281,-0.17465,0.7279999999999998,100.0,1.0,1.0,205.15666666666667,0.0,0.0,0.0,0.0,0.0,0.0,0.0,8695.8,0.0,55.0,5.0,238.9,0.0,0.0,0.0,0.0,0.0,0.0,0.0,0.0,0.30900000000000105,0.30900000000000105,0.0,0.0,0.0,55.0,616.79921,10000.0,85.000001,85.000001,85.000001,85.000001,395.0,0.0,0.0,0.0,1.0,166.665,53.253,53.253,46.921,46.921,34.0,-25.005,22.046666666666667,-32.33,22.6525,0.0,1782.611,0.1700000000000017,100.0,27.176,27.373,43.372,40.202,0.0,0.0,100.0,0.0,0.0,0.0,0.0,3019.25,2990.8,4247.125,3918.2,305.689,305.11075,314.62375,310.809,21.742444444444445,20.5856,22.0461,14.0191,314.999998,314.999998,324.999988,324.999988,99.55504285714285,99.508,99.5791,99.55145714285715,0.03499999999999992,-0.09724999999999995,-0.15759999999999996,0.056599999999999984,-0.05833333333333002,-0.05833333333333002,1.7033333333333334,1.7255,36.89,29.659666666666666,38.788,38.619,54.632999999999996,35.281,63.991,63.670500000000004,52.681,34.438,62.406,59.68,51.92,34.0235,62.309,60.641999999999996,-0.05666666666666664,-0.08899999999999997,0.10418500000000001,0.10094,0.0,207.93,207.85000000000002,205.15666666666667,205.15666666666667,0.0,0.0
7,0.0,0.0,0.0,1.0,1.0,0.0,0.0,1.0,0.0,100.0,1.0,1.1856,26.0,0.0,0.0,0.0,59.999996,0.0,26.0,26.0,26.0,26.0,-0.06977777777777783,0.2935000000000001,0.042675000000000005,292.328,-2.6856,-2.682,-1.5906,-1.539875,-252.17,216.21,190.84725,0.0,0.0,0.0,0.0,0.01526666666666654,-5.498166666666667,-5.498166666666667,-0.5009,-0.03400000000000003,0.016555555555555657,0.9180000000000001,66.515,-0.007,-0.1855,0.23600000000000065,100.0,1.0,1.0,205.57333333333332,0.0,0.0,0.0,0.0,0.0,0.0,0.0,8713.6,0.0,55.0,5.0,239.42333333333335,1.0,0.0,0.0,0.0,0.0,0.0,0.0,0.0,0.35999999999999943,0.35999999999999943,0.0,0.0,1.0,55.0,616.79921,10000.0,85.000001,85.000001,85.000001,85.000001,395.0,0.0,0.0,0.0,1.0,166.665,52.948,52.948,47.073,47.073,34.0,-23.5225,24.186666666666667,-29.53666666666667,25.65,0.0,1782.559,-0.02499999999999858,100.0,27.392,27.223,43.491,40.439,0.0,0.0,100.0,0.0,0.0,0.0,0.0,3021.5,3144.3,4157.5,3927.2,305.45233333333334,304.7965,314.72325,310.7866666666667,21.75188888888889,20.591,22.0578,14.0322,314.999998,314.999998,324.999988,324.999988,99.55505714285714,99.508,99.57925714285714,99.5516,0.07099999999999995,-0.06699999999999995,-0.126,0.10240000000000005,-0.046666666666666856,-0.06666666666666998,1.698,1.697,36.949,29.694,38.861000000000004,38.701,54.620999999999995,35.3195,64.027,63.7635,52.67,34.4735,62.439,59.7655,51.908,34.0575,62.339,60.7295,-0.07433333333333314,-0.07900000000000018,0.114835,0.11302000000000001,0.0,208.32999999999998,208.31,205.57333333333332,205.57333333333332,0.0,0.0
8,0.0,0.0,0.0,1.0,1.0,0.0,0.0,1.0,0.0,100.0,1.0,1.1856,26.0,0.0,0.0,0.0,59.999996,0.0,26.0,26.0,26.0,26.0,-0.031777777777777794,0.2905,-0.033475000000000005,292.572,-2.7727,-2.65125,-1.5716999999999999,-1.49475,-248.78,216.185,190.826625,0.0,0.0,0.0,0.0,0.017233333333333323,-5.498166666666667,-5.498166666666667,-0.5067,-0.4916666666666667,0.02977777777777768,-0.31599999999999984,66.66,0.014400000000000001,-0.18177500000000002,-0.016000000000000014,100.0,1.0,1.0,205.98333333333335,0.0,0.0,0.0,0.0,0.0,0.0,0.0,8730.9,0.0,55.0,5.0,239.94666666666666,0.0,0.0,0.0,0.0,0.0,0.0,0.0,0.0,0.41100000000000136,0.41100000000000136,0.0,0.0,0.0,55.0,616.79921,10000.0,85.000001,85.000001,85.000001,85.000001,395.0,0.0,0.0,0.0,1.0,166.665,53.635,53.635,46.57,46.57,34.0,-22.665,24.118333333333332,-28.953333333333333,25.825000000000003,0.0,1782.508,-0.14499999999999957,100.0,26.841,27.335,43.422,40.619,0.0,0.0,100.0,0.0,0.0,0.0,0.0,2901.5,3051.3,4236.5,3901.5,306.1293333333333,305.016,314.57825,310.7936666666667,21.761,20.5965,22.0694,14.0452,314.999998,314.999998,324.999988,324.999988,99.55505714285714,99.50801666666666,99.57942857142856,99.55174285714286,0.07450000000000001,-0.04399999999999993,-0.10660000000000003,0.12020000000000008,-0.03499999999999659,-0.04999999999999716,1.6836666666666666,1.6925,37.006,29.728,38.934,38.783,54.608000000000004,35.3565,64.0625,63.854,52.657,34.507999999999996,62.472,59.8485,51.894,34.09,62.3685,60.815,-0.08199999999999985,-0.06300000000000017,0.10663,0.10765500000000001,0.0,208.76,208.74,205.98333333333335,205.98333333333335,0.0,0.0
9,0.0,0.0,0.0,1.0,1.0,0.0,0.0,1.0,0.0,100.0,1.0,1.1856,26.0,0.0,0.0,0.0,59.999996,0.0,26.0,26.0,26.0,26.0,-0.03722222222222216,0.2923,0.030625000000000003,292.252,-2.7578,-2.651875,-1.6292,-1.471375,-245.76999999999998,216.16,190.808,0.0,0.0,0.0,0.0,0.018966666666666576,-5.498166666666667,-5.498166666666667,-0.5087,0.6483333333333333,0.03255555555555567,0.6610000000000005,66.78399999999999,0.0341,-0.17747500000000002,-0.23599999999999977,100.0,1.0,1.0,206.4766666666667,0.0,0.0,0.0,0.0,0.0,0.0,0.0,8751.8,0.0,55.0,5.0,240.39333333333332,1.0,0.0,0.0,0.0,0.0,0.0,0.0,0.0,0.4559999999999995,0.4559999999999995,0.0,0.0,1.0,55.0,616.79921,10000.0,85.000001,85.000001,85.000001,85.000001,395.0,0.0,0.0,0.0,1.0,333.33500000000004,52.505,52.505,47.44,47.44,34.0,-23.765,26.645,-27.07,26.685000000000002,0.0,1782.461,-0.26500000000000057,100.0,27.435,27.588,43.133,40.568,0.0,0.0,100.0,0.0,0.0,0.0,0.0,3136.125,3216.3,4082.0,3932.5,305.22066666666666,304.61125,314.995,310.89,21.769222222222222,20.6015,22.0796,14.0567,314.999998,314.999998,324.999988,324.999988,99.55507142857142,99.50801666666666,99.57957142857143,99.55188571428572,0.10200000000000009,-0.017749999999999932,-0.08520000000000005,0.14579999999999993,-0.041666666666671404,-0.07666666666666799,1.744,1.737,37.058,29.759333333333334,38.997,38.854,54.599000000000004,35.3905,64.09,63.933,52.649,34.539,62.498,59.9215,51.885,34.12,62.391,60.8895,-0.09199999999999986,-0.053999999999999826,0.10712,0.10835000000000002,0.0,209.16,209.19,206.4766666666667,206.4766666666667,0.0,0.0
10,0.0,0.0,0.0,1.0,1.0,0.0,0.0,1.0,0.0,100.0,1.0,1.1856,26.0,0.0,0.0,0.0,59.999996,0.0,26.0,26.0,26.0,26.0,-0.004444444444444473,0.29590000000000005,-0.019675,292.053,-2.7403,-2.627875,-1.6122,-1.4495,-242.36,216.1325,190.78725,0.0,0.0,0.0,0.0,0.020966666666666578,-5.498166666666667,-5.498166666666667,-0.4839,-0.3966666666666667,0.0735555555555556,0.5750000000000002,66.931,0.0603,-0.164825,-0.5640000000000001,100.0,1.0,1.0,206.68333333333334,0.0,0.0,0.0,0.0,0.0,0.0,0.0,8760.6,0.0,55.0,5.0,240.92000000000002,0.0,0.0,0.0,0.0,0.0,0.0,1.0,0.0,0.5069999999999979,0.5069999999999979,0.0,0.0,0.0,55.0,616.79921,10000.0,85.000001,85.000001,85.000001,85.000001,395.0,0.0,0.0,0.0,1.0,333.33500000000004,53.589,53.589,45.775999999999996,45.775999999999996,34.0,-19.29,24.641666666666666,-28.89333333333333,29.3625,0.0,1782.411,-0.3200000000000003,100.0,27.13,27.691,43.522999999999996,41.229,0.0,0.0,100.0,0.0,0.0,0.0,0.0,2728.75,2989.9,4448.75,4118.1,306.54133333333334,305.182,314.075,310.06166666666667,21.778444444444446,20.607,22.0913,14.07,314.999998,314.999998,324.999988,324.999988,99.55508571428571,99.50801666666666,99.57972857142857,99.55202857142856,0.1200000000000001,-0.012749999999999928,-0.059799999999999964,0.16259999999999986,-0.051666666666669414,-0.03166666666666629,1.6426666666666667,1.6195,37.114999999999995,29.793666666666667,39.071,38.938,54.59,35.4265,64.128,64.029,52.638999999999996,34.572,62.5325,60.01,51.873999999999995,34.152,62.422,60.9805,-0.09733333333333327,-0.04899999999999993,0.10992500000000001,0.101065,0.0,209.60500000000002,209.62,206.68333333333334,206.68333333333334,0.0,0.0
11,0.0,0.0,0.0,1.0,1.0,0.0,0.0,1.0,0.0,100.0,1.0,1.1856,26.0,0.0,0.0,0.0,59.999996,0.0,26.0,26.0,26.0,26.0,0.03666666666666685,0.2724,-0.061725,292.587,-2.7793,-2.5865,-1.6654,-1.44125,-238.95,216.10500000000002,190.7665,0.0,0.0,0.0,0.0,0.022599999999999953,-5.498166666666667,-5.498166666666667,-0.5299,-0.30966666666666676,0.09733333333333327,0.0259999999999998,67.069,0.0849,-0.20197500000000002,-0.7379999999999995,100.0,1.0,1.0,207.42333333333335,0.0,0.0,0.0,0.0,0.0,0.0,0.0,8791.9,0.0,55.0,5.0,241.42000000000002,1.0,0.0,0.0,0.0,0.0,0.0,1.0,0.0,0.5579999999999998,0.5579999999999998,0.0,0.0,1.0,55.0,616.79921,10000.0,85.000001,85.000001,85.000001,85.000001,395.0,0.0,0.0,0.0,1.0,333.33500000000004,52.826,52.826,47.531,47.531,34.0,-20.175,28.338333333333335,-21.896666666666665,27.810000000000002,0.0,1782.36,-0.2749999999999986,100.0,27.043,27.863,43.098,41.235,0.0,0.0,100.0,0.0,0.0,0.0,0.0,2883.125,3316.9,3803.125,3792.1000000000004,305.999,304.304,315.69375,311.3143333333333,21.787444444444443,20.6127,22.1028,14.0831,314.999998,314.999998,324.999988,324.999988,99.5551,99.50803333333333,99.57988571428571,99.5522,0.14050000000000007,0.012750000000000039,-0.017199999999999993,0.20520000000000005,-0.021666666666668277,-0.045000000000001705,1.81,1.778,37.171,29.829333333333334,39.143,39.019999999999996,54.579,35.4645,64.1575,64.121,52.629000000000005,34.607,62.56,60.095,51.861999999999995,34.1855,62.4465,61.067499999999995,-0.09099999999999997,-0.05799999999999983,0.10568000000000001,0.10529500000000001,0.0,209.98000000000002,210.04500000000002,207.42333333333335,207.42333333333335,0.0,0.0
12,0.0,0.0,0.0,1.0,1.0,0.0,0.0,1.0,0.0,100.0,1.0,1.1856,26.0,0.0,0.0,0.0,59.999996,0.0,26.0,26.0,26.0,26.0,0.05422222222222217,0.2904,-0.00045000000000000004,292.145,-2.8241,-2.619875,-1.6183,-1.448625,-235.72,216.07999999999998,190.746,0.0,0.0,0.0,0.0,0.025466666666666526,-5.498166666666667,-5.498166666666667,-0.5159,0.402,0.0774444444444442,0.8540000000000001,67.20400000000001,0.1019,-0.172275,-0.7299999999999995,100.0,1.0,1.0,207.63666666666666,0.0,0.0,0.0,0.0,0.0,0.0,0.0,8801.0,0.0,55.0,5.0,241.90666666666667,0.0,0.0,0.0,0.0,0.0,0.0,1.0,0.0,0.6059999999999981,0.6059999999999981,0.0,0.0,0.0,55.0,616.79921,10000.0,85.000001,85.000001,85.000001,85.000001,395.0,0.0,0.0,0.0,1.0,166.665,52.917,52.917,46.356,46.356,34.0,-20.105,29.096666666666664,-24.253333333333334,30.630000000000003,0.0,1782.313,-0.33500000000000085,100.0,26.952,27.912,42.999,40.995000000000005,0.0,0.0,100.0,0.0,0.0,0.0,0.0,2904.375,3302.4,4281.625,4013.7,305.9286666666667,304.3865,314.48375,310.6383333333333,21.796,20.6181,22.1137,14.0954,314.999998,314.999998,324.999988,324.999988,99.55511428571428,99.50803333333333,99.58004285714286,99.55232857142857,0.15625,0.027249999999999996,-0.0011999999999999789,0.21420000000000017,-0.054999999999999716,-0.06333333333333258,1.702,1.6644999999999999,37.224999999999994,29.863333333333333,39.21,39.096000000000004,54.571,35.5005,64.19,64.2055,52.620000000000005,34.6405,62.59,60.173,51.852999999999994,34.2175,62.4725,61.147999999999996,-0.09733333333333327,-0.05699999999999994,0.10457000000000001,0.10163000000000001,0.0,210.46,210.495,207.63666666666666,207.63666666666666,0.0,0.0
13,0.0,0.0,0.0,1.0,1.0,0.0,0.0,1.0,0.0,100.0,1.0,1.1856,26.0,0.0,0.0,0.0,59.999996,0.0,26.0,26.0,26.0,26.0,0.07699999999999996,0.28970000000000007,0.039575,291.672,-2.8227,-2.5921250000000002,-1.7045,-1.4172500000000001,-232.29,216.055,190.724125,0.0,0.0,0.0,0.0,0.026833333333333376,-5.498166666666667,-5.498166666666667,-0.5026,-0.032666666666666844,0.09399999999999986,-0.41999999999999993,67.346,0.11320000000000001,-0.1693,-0.8179999999999996,100.0,1.0,1.0,207.99,0.0,0.0,0.0,0.0,0.0,0.0,0.0,8815.9,0.0,55.0,5.0,242.42000000000002,1.0,0.0,0.0,0.0,0.0,0.0,1.0,0.0,0.657,0.657,0.0,0.0,1.0,55.0,616.79921,10000.0,85.000001,85.000001,85.000001,85.000001,395.0,0.0,0.0,0.0,1.0,166.665,52.689,52.689,46.066,46.066,34.0,-20.0825,28.636666666666667,-26.166666666666668,31.855,0.0,1782.262,-0.495000000000001,100.0,26.958,28.245,43.1,41.615,0.0,0.0,100.0,0.0,0.0,0.0,0.0,2985.875,3218.0,4363.125,4159.9,305.8593333333333,304.45425,314.3695,309.9746666666667,21.80511111111111,20.6239,22.1253,14.1088,314.999998,314.999998,324.999988,324.999988,99.55514285714285,99.50803333333333,99.58021428571429,99.5525,0.16775000000000007,0.03649999999999998,-0.0020000000000000018,0.2145999999999999,-0.045000000000001705,-0.041666666666671404,1.67,1.639,37.282,29.89933333333333,39.283,39.18,54.563,35.54,64.2245,64.3025,52.613,34.677,62.6215,60.2625,51.844,34.2525,62.501,61.2395,-0.10799999999999987,-0.03699999999999992,0.10690500000000001,0.10326500000000001,0.0,210.87,210.92000000000002,207.99,207.99,0.0,0.0
14,0.0,0.0,0.0,1.0,1.0,0.0,0.0,1.0,0.0,100.0,1.0,1.1856,26.0,0.0,0.0,0.0,59.999996,0.0,26.0,26.0,26.0,26.0,0.0882222222222222,0.29090000000000016,-0.0054,291.885,-2.8134,-2.543625,-1.6731,-1.41175,-228.85,216.0325,190.702875,0.0,0.0,0.0,0.0,0.028833333333333377,-5.498166666666667,-5.498166666666667,-0.5168,-0.26866666666666683,0.11811111111111106,1.0069999999999997,67.485,0.1273,-0.1913,-1.0779999999999994,100.0,1.0,1.0,208.51,0.0,0.0,0.0,0.0,0.0,0.0,0.0,8837.9,0.0,55.0,5.0,242.92000000000002,0.0,0.0,0.0,0.0,0.0,0.0,1.0,0.0,0.7079999999999984,0.7079999999999984,0.0,0.0,0.0,55.0,616.79921,10000.0,85.000001,85.000001,85.000001,85.000001,395.0,0.0,0.0,0.0,1.0,333.33500000000004,52.658,52.658,46.371,46.371,34.0,-18.1025,30.673333333333332,-22.7,32.07,0.0,1782.211,-0.5749999999999993,100.0,27.118,28.242,43.205,41.778999999999996,0.0,0.0,100.0,0.0,0.0,0.0,0.0,2811.125,3396.6,4088.375,4065.5,306.18733333333336,304.09425,314.92475,310.42266666666666,21.81422222222222,20.6297,22.1369,14.1221,314.999998,314.999998,324.999988,324.999988,99.55515714285714,99.50803333333333,99.58035714285714,99.55264285714286,0.1865000000000001,0.05725000000000002,0.01760000000000006,0.24340000000000006,-0.02833333333332888,-0.060000000000002274,1.7153333333333334,1.6775,37.339,29.935666666666666,39.355999999999995,39.263,54.556,35.5805,64.257,64.398,52.605999999999995,34.7145,62.6515,60.351,51.836,34.288,62.527,61.33,-0.11133333333333328,-0.03949999999999987,0.111875,0.100415,0.0,211.265,211.375,208.51,208.51,0.0,0.0
15,0.0,0.0,0.0,1.0,1.0,0.0,0.0,1.0,0.0,100.0,1.0,1.1856,26.0,0.0,0.0,0.0,59.999996,0.0,26.0,26.0,26.0,26.0,0.11522222222222211,0.28280000000000016,-0.0038,291.977,-2.7815,-2.506125,-1.6941000000000002,-1.3743750000000001,-225.61,216.0125,190.682625,0.0,0.0,0.0,0.0,0.03069999999999995,-5.498166666666667,-5.498166666666667,-0.5102,0.33599999999999997,0.1443333333333332,1.189,67.616,0.1426,-0.17472500000000002,-1.2120000000000006,100.0,1.0,1.0,208.93333333333334,0.0,0.0,0.0,0.0,0.0,0.0,0.0,8855.9,0.0,55.0,5.0,243.39,1.0,0.0,0.0,0.0,0.0,0.0,1.0,0.0,0.7560000000000002,0.7560000000000002,0.0,0.0,1.0,55.0,616.79921,10000.0,85.000001,85.000001,85.000001,85.000001,395.0,0.0,0.0,0.0,1.0,166.665,52.841,52.841,46.57,46.57,34.0,-16.395,30.086666666666666,-21.419999999999998,33.5175,0.0,1782.163,-0.5899999999999999,100.0,27.214,28.302,42.939,41.801,0.0,0.0,100.0,0.0,0.0,0.0,0.0,2662.875,3354.5,4046.125,4159.7,306.592,304.2235,315.06875,310.185,21.822777777777777,20.6352,22.1477,14.134599999999999,314.999998,314.999998,324.999988,324.999988,99.55517142857143,99.50805,99.58051428571429,99.5528,0.19650000000000012,0.062000000000000055,0.04079999999999995,0.2662,-0.05333333333332746,-0.04999999999999716,1.7303333333333333,1.6745,37.391999999999996,29.97,39.423,39.341,54.551,35.619,64.2865,64.486,52.599999999999994,34.75,62.6785,60.432,51.829,34.3225,62.5505,61.4135,-0.11333333333333329,-0.03699999999999992,0.104605,0.112335,0.0,211.72,211.78,208.93333333333334,208.93333333333334,0.0,0.0
16,0.0,0.0,0.0,1.0,1.0,0.0,0.0,1.0,0.0,100.0,1.0,1.1856,26.0,0.0,0.0,0.0,59.999996,0.0,26.0,26.0,26.0,26.0,0.12677777777777788,0.27760000000000007,-0.0711,291.931,-2.8833,-2.504875,-1.679,-1.3665,-222.16,215.9925,190.6605,0.0,0.0,0.0,0.0,0.03269999999999995,-5.498166666666667,-5.498166666666667,-0.5283,-0.7283333333333333,0.13644444444444437,-1.0949999999999998,67.756,0.1567,-0.18582500000000002,-1.2679999999999998,100.0,1.0,1.0,209.32333333333332,0.0,0.0,0.0,0.0,0.0,0.0,0.0,8872.4,0.0,55.0,5.0,243.89333333333335,0.0,0.0,0.0,0.0,0.0,0.0,1.0,0.0,0.8069999999999986,0.8069999999999986,0.0,0.0,0.0,55.0,616.79921,10000.0,85.000001,85.000001,85.000001,85.000001,395.0,0.0,0.0,0.0,1.0,333.33500000000004,52.78,52.78,46.173,46.173,34.0,-18.002499999999998,30.435,-21.593333333333334,32.375,0.0,1782.111,-0.48999999999999844,100.0,26.715,28.554000000000002,43.135,42.046,0.0,0.0,100.0,0.0,0.0,0.0,0.0,2838.375,3334.4,4085.875,4023.8,306.3693333333333,304.1395,315.01575,310.5133333333333,21.831444444444443,20.6411,22.1593,14.1479,314.999998,314.999998,324.999988,324.999988,99.5552,99.50805,99.58067142857143,99.55295714285714,0.20225000000000004,0.07024999999999992,0.03859999999999997,0.268,-0.060000000000002274,-0.03166666666666629,1.7149999999999999,1.6695,37.447,30.006999999999998,39.495999999999995,39.424,54.54,35.661,64.3205,64.5805,52.59,34.789,62.71,60.5195,51.817,34.36,62.5785,61.5035,-0.11399999999999988,-0.03849999999999998,0.11034000000000001,0.10884,0.0,212.11,212.17000000000002,209.32333333333332,209.32333333333332,0.0,0.0
17,0.0,0.0,0.0,1.0,1.0,0.0,0.0,1.0,0.0,100.0,1.0,1.1856,26.0,0.0,0.0,0.0,59.999996,0.0,26.0,26.0,26.0,26.0,0.1166666666666667,0.2921,-0.026000000000000002,291.58,-2.8297,-2.497125,-1.7075,-1.398375,-218.7,215.98000000000002,190.637875,0.0,0.0,0.0,0.0,0.034733333333333394,-5.498166666666667,-5.498166666666667,-0.5207,0.4996666666666667,0.10877777777777786,0.7430000000000003,67.894,0.16440000000000002,-0.172375,-1.2139999999999995,100.0,1.0,1.0,209.71666666666667,0.0,0.0,0.0,0.0,0.0,0.0,0.0,8889.1,0.0,55.0,5.0,244.38666666666666,1.0,0.0,0.0,0.0,0.0,0.0,1.0,0.0,0.8580000000000005,0.8580000000000005,0.0,0.0,1.0,55.0,616.79921,10000.0,85.000001,85.000001,85.000001,85.000001,395.0,0.0,0.0,0.0,1.0,333.33500000000004,52.414,52.414,46.126999999999995,46.126999999999995,34.0,-17.4375,29.945,-22.393333333333334,33.7,0.0,1782.059,-0.504999999999999,100.0,27.375,28.715,43.03,41.952,0.0,0.0,100.0,0.0,0.0,0.0,0.0,2887.375,3287.4,4337.75,4118.4,306.00866666666667,304.451,314.4565,310.3826666666667,21.840555555555554,20.647100000000002,22.1708,14.1611,314.999998,314.999998,324.999988,324.999988,99.55522857142857,99.50806666666666,99.58082857142857,99.55311428571429,0.21875,0.07725000000000004,0.060799999999999965,0.2714000000000001,-0.023333333333326323,-0.05666666666667197,1.706,1.6655,37.504000000000005,30.044333333333334,39.567,39.507,54.536,35.704499999999996,64.352,64.6735,52.585,34.829499999999996,62.739,60.6055,51.811,34.3985,62.6035,61.592,-0.11499999999999999,-0.04349999999999987,0.103175,0.09828,0.0,212.55,212.65,209.71666666666667,209.71666666666667,0.0,0.0
18,0.0,0.0,0.0,1.0,1.0,0.0,0.0,1.0,0.0,100.0,1.0,1.1856,26.0,0.0,0.0,0.0,59.999996,0.0,26.0,26.0,26.0,26.0,0.12855555555555576,0.2774000000000001,0.008525,291.534,-2.8796,-2.4602500000000003,-1.7368000000000001,-1.332,-215.44,215.9675,190.61675,0.0,0.0,0.0,0.0,0.036599999999999966,-5.498166666666667,-5.498166666666667,-0.5269,-0.5013333333333332,0.14588888888888896,1.1790000000000003,68.023,0.1663,-0.18330000000000002,-1.282,100.0,1.0,1.0,210.12,0.0,0.0,0.0,0.0,0.0,0.0,0.0,8906.2,0.0,55.0,5.0,244.85666666666668,0.0,0.0,0.0,0.0,0.0,0.0,1.0,0.0,0.9059999999999988,0.9059999999999988,0.0,0.0,0.0,55.0,616.79921,10000.0,85.000001,85.000001,85.000001,85.000001,395.0,0.0,0.0,0.0,1.0,333.33500000000004,52.414,52.414,45.897999999999996,45.897999999999996,34.0,-16.9725,32.791666666666664,-21.733333333333334,33.5775,0.0,1782.011,-0.7650000000000006,100.0,27.103,28.583,43.333,42.296,0.0,0.0,100.0,0.0,0.0,0.0,0.0,2811.75,3511.3,4119.125,4133.5,306.32166666666666,303.8325,314.92275,310.269,21.849,20.6526,22.1817,14.1738,314.999998,314.999998,324.999988,324.999988,99.55524285714286,99.50808333333333,99.581,99.55325714285715,0.22575000000000012,0.09775,0.056400000000000006,0.28200000000000003,-0.03999999999999915,-0.04333333333332945,1.7056666666666667,1.662,37.556,30.079,39.635999999999996,39.586,54.53,35.745,64.384,64.7645,52.579,34.8665,62.7685,60.69,51.804,34.4345,62.6295,61.6785,-0.1276666666666666,-0.025500000000000078,0.09734500000000001,0.11170000000000001,0.0,212.93,213.025,210.12,210.12,0.0,0.0
19,0.0,0.0,0.0,1.0,1.0,0.0,0.0,1.0,0.0,100.0,1.0,1.1856,26.0,0.0,0.0,0.0,59.999996,0.0,26.0,26.0,26.0,26.0,0.16399999999999992,0.2792000000000001,0.0279,291.092,-2.8458,-2.449875,-1.7458,-1.3195000000000001,-211.97,215.96,190.59425,0.0,0.0,0.0,0.0,0.0386333333333333,-5.498166666666667,-5.498166666666667,-0.5196000000000001,0.7766666666666666,0.14655555555555555,-0.69,68.15899999999999,0.17350000000000002,-0.175825,-1.6079999999999997,100.0,1.0,1.0,210.5366666666667,0.0,0.0,0.0,0.0,0.0,0.0,0.0,8923.8,0.0,55.0,5.0,245.34333333333336,1.0,0.0,0.0,0.0,0.0,0.0,1.0,0.0,0.9570000000000007,0.9570000000000007,0.0,0.0,1.0,55.0,616.79921,10000.0,85.000001,85.000001,85.000001,85.000001,395.0,0.0,0.0,0.0,1.0,333.33500000000004,51.727,51.727,45.853,45.853,34.0,-17.15,32.95,-22.626666666666665,33.465,0.0,1781.96,-1.0249999999999986,100.0,27.388,29.201999999999998,42.961,42.433,0.0,0.0,100.0,0.0,0.0,0.0,0.0,3011.5,3440.1,4312.375,4192.3,305.76366666666667,303.76225,314.578,310.0763333333333,21.85811111111111,20.6588,22.1931,14.1872,314.999998,314.999998,324.999988,324.999988,99.55527142857143,99.5081,99.58115714285714,99.55342857142857,0.246,0.11149999999999993,0.06279999999999997,0.27079999999999993,-0.04333333333332945,-0.04833333333333201,1.708,1.6560000000000001,37.613,30.117333333333335,39.707,39.67,54.528,35.792,64.414,64.86,52.576,34.9105,62.796,60.7785,51.799,34.4765,62.6535,61.7695,-0.16033333333333322,-0.0015000000000000568,0.10558000000000001,0.097595,0.0,213.39499999999998,213.49,210.5366666666667,210.5366666666667,0.0,0.0
20,0.0,0.0,0.0,1.0,1.0,0.0,0.0,1.0,0.0,100.0,1.0,1.1856,26.0,0.0,0.0,0.0,59.999996,0.0,26.0,26.0,26.0,26.0,0.21066666666666678,0.25870000000000015,-0.07435,291.443,-2.9071,-2.5008749999999997,-1.6869,-1.42775,-208.28,215.95749999999998,190.570625,0.0,0.0,0.0,0.0,0.04076666666666651,-5.498166666666667,-5.498166666666667,-0.5259,-1.1456666666666666,0.16399999999999992,-0.40200000000000014,68.305,0.19140000000000001,-0.18632500000000002,-2.034,100.0,1.0,1.0,210.88333333333333,0.0,0.0,0.0,0.0,0.0,0.0,0.0,8938.6,0.0,55.0,5.0,245.87333333333333,0.0,0.0,0.0,0.0,0.0,0.0,0.0,0.0,1.0109999999999992,1.0109999999999992,0.0,0.0,0.0,55.0,616.79921,10000.0,85.000001,85.000001,85.000001,85.000001,395.0,0.0,0.0,0.0,1.0,166.665,52.795,52.795,45.349000000000004,45.349000000000004,34.0,-14.627499999999998,33.06,-19.966666666666665,36.86,0.0,1781.908,-1.3200000000000003,100.0,26.819,28.948,43.455,42.828,0.0,0.0,100.0,0.0,0.0,0.0,0.0,2686.75,3326.4,4174.625,4142.9,306.80966666666666,304.15175,314.75675,309.9956666666667,21.86722222222222,20.6651,22.2054,14.2015,314.999998,314.999998,324.999988,324.999988,99.5553,99.50811666666667,99.58132857142857,99.5536,0.26725,0.13424999999999998,0.08520000000000016,0.3095999999999999,-0.01999999999999602,-0.026666666666670835,1.679,1.6035,37.67,30.156666666666666,39.784,39.76,54.519999999999996,35.8405,64.4515,64.964,52.569,34.9555,62.831,60.8745,51.79,34.5195,62.6845,61.8685,-0.17466666666666675,0.02299999999999991,0.10874,0.109685,0.0,213.735,213.9,210.88333333333333,210.88333333333333,0.0,0.0
21,0.0,0.0,0.0,1.0,1.0,0.0,0.0,1.0,0.0,100.0,1.0,1.1856,26.0,0.0,0.0,0.0,59.999996,0.0,26.0,26.0,26.0,26.0,0.19522222222222219,0.26760000000000006,-0.044175,291.702,-2.8176,-2.55425,-1.7486000000000002,-1.392125,-205.2,215.95749999999998,190.55025,0.0,0.0,0.0,0.0,0.04256666666666653,-5.498166666666667,-5.498166666666667,-0.5487000000000001,0.3996666666666666,0.14288888888888884,-0.10299999999999976,68.42099999999999,0.2127,-0.1927,-2.1479999999999997,100.0,1.0,1.0,211.48666666666668,0.0,0.0,0.0,0.0,0.0,0.0,0.0,8964.1,0.0,55.0,5.0,246.28666666666666,1.0,0.0,0.0,0.0,0.0,0.0,0.0,0.0,1.056000000000001,1.056000000000001,0.0,0.0,1.0,55.0,616.79921,10000.0,85.000001,85.000001,85.000001,85.000001,395.0,0.0,0.0,0.0,1.0,333.33500000000004,52.17,52.17,46.616,46.616,34.0,-15.947499999999998,33.028333333333336,-17.686666666666664,35.7225,0.0,1781.861,-0.3550000000000004,100.0,27.225,29.060000000000002,42.79,42.545,0.0,0.0,100.0,0.0,0.0,0.0,0.0,2803.75,3441.8,4016.375,3962.5,306.2083333333333,303.88525,315.26225,310.8833333333333,21.87511111111111,20.6705,22.2153,14.2132,314.999998,314.999998,324.999988,324.999988,99.55532857142857,99.50813333333333,99.58148571428572,99.55374285714285,0.24,0.09349999999999992,0.1180000000000001,0.3517999999999999,-0.051666666666669414,-0.05333333333332746,1.8093333333333335,1.704,37.719,30.190666666666665,39.846000000000004,39.833,54.516999999999996,35.885999999999996,64.47749999999999,65.0505,52.565,34.9975,62.854,60.955,51.785,34.5605,62.704,61.951499999999996,-0.11266666666666669,-0.04850000000000021,0.1072,0.112695,0.0,214.15,214.305,211.48666666666668,211.48666666666668,0.0,0.0
22,0.0,0.0,0.0,1.0,1.0,0.0,0.0,1.0,0.0,100.0,1.0,1.1856,26.0,0.0,0.0,0.0,59.999996,0.0,26.0,26.0,26.0,26.0,0.1507777777777779,0.26670000000000016,-0.0048000000000000004,291.245,-2.8045999999999998,-2.5575,-1.7401,-1.3823750000000001,-201.51,215.965,190.525,0.0,0.0,0.0,0.0,0.0447333333333334,-5.498166666666667,-5.498166666666667,-0.5256000000000001,0.11399999999999999,0.15122222222222215,1.0629999999999997,68.566,0.2169,-0.16792500000000002,-0.8820000000000006,100.0,1.0,1.0,211.70333333333332,0.0,0.0,0.0,0.0,0.0,0.0,0.0,8973.4,0.0,55.0,5.0,246.81333333333333,0.0,0.0,0.0,0.0,0.0,0.0,0.0,0.0,1.1099999999999994,1.1099999999999994,0.0,0.0,0.0,55.0,616.79921,10000.0,85.000001,85.000001,85.000001,85.000001,395.0,0.0,0.0,0.0,1.0,166.665,52.505,52.505,45.379999999999995,45.379999999999995,34.0,-16.905,29.631666666666668,-21.026666666666664,37.44,0.0,1781.809,0.8550000000000004,100.0,27.318,29.055,43.293,42.674,0.0,0.0,100.0,0.0,0.0,0.0,0.0,2620.25,3354.0,4272.375,4249.4,306.718,304.1525,314.55625,309.87233333333336,21.884444444444444,20.6769,22.2276,14.2275,314.999998,314.999998,324.999988,324.999988,99.55535714285715,99.50813333333333,99.58164285714285,99.55391428571428,0.1805000000000001,0.037250000000000005,0.09079999999999999,0.3175999999999999,-0.04999999999999716,-0.036666666666668846,1.6633333333333333,1.6215000000000002,37.778,30.231,39.923,39.922,54.51,35.929,64.5125,65.1475,52.558,35.037,62.8865,61.045,51.777,34.5985,62.733000000000004,62.0435,-0.018999999999999906,-0.14150000000000018,0.10939000000000002,0.10425000000000001,0.0,214.66,214.715,211.70333333333332,211.70333333333332,0.0,0.0
23,0.0,0.0,0.0,1.0,1.0,0.0,0.0,1.0,0.0,100.0,1.0,1.1856,26.0,0.0,0.0,0.0,59.999996,0.0,26.0,26.0,26.0,26.0,0.08411111111111103,0.2593000000000001,0.00285,291.183,-2.8224,-2.5250000000000004,-1.6492,-1.46625,-198.20999999999998,215.975,190.503,0.0,0.0,0.0,0.0,0.046633333333333304,-5.498166666666667,-5.498166666666667,-0.5432,-0.349,0.12788888888888894,-0.17300000000000004,68.69200000000001,0.17900000000000002,-0.193575,0.2759999999999998,100.0,1.0,1.0,212.18333333333334,0.0,0.0,0.0,0.0,0.0,0.0,0.0,8993.7,0.0,55.0,5.0,247.26666666666665,1.0,0.0,0.0,0.0,0.0,0.0,0.0,0.0,1.1580000000000013,1.1580000000000013,0.0,0.0,1.0,55.0,616.79921,10000.0,85.000001,85.000001,85.000001,85.000001,395.0,0.0,0.0,0.0,1.0,166.665,51.743,51.743,46.326,46.326,34.0,-22.0925,27.67,-21.096666666666664,33.0225,0.0,1781.761,1.3000000000000007,100.0,27.593,28.994,43.553,42.848,0.0,0.0,100.0,0.0,0.0,0.0,0.0,3004.75,3400.3,4017.75,3971.8,305.61033333333336,304.08425,315.099,310.70433333333335,21.892777777777777,20.6826,22.2385,14.2402,314.999998,314.999998,324.999988,324.999988,99.55537142857143,99.50813333333333,99.5818,99.55407142857143,0.13024999999999998,-0.007249999999999979,0.037599999999999856,0.26380000000000003,-0.051666666666669414,-0.05666666666667197,1.6696666666666666,1.6724999999999999,37.83,30.266666666666666,39.991,40.001000000000005,54.501000000000005,35.967,64.5425,65.238,52.549,35.0725,62.914,61.129,51.766999999999996,34.632,62.757,62.1295,0.028000000000000025,-0.1835,0.11190000000000001,0.10336000000000001,0.0,215.05,215.04000000000002,212.18333333333334,212.18333333333334,0.0,0.0
24,0.0,0.0,0.0,1.0,1.0,0.0,0.0,1.0,0.0,100.0,1.0,1.1856,26.0,0.0,0.0,0.0,59.999996,0.0,26.0,26.0,26.0,26.0,-0.003555555555555534,0.27470000000000017,-0.117775,291.58,-2.8017,-2.57375,-1.6568,-1.442125,-194.91,215.985,190.480625,0.0,0.0,0.0,0.0,0.04853333333333332,-5.498166666666667,-5.498166666666667,-0.5506,-0.589,0.09711111111111115,0.492,68.819,0.1199,-0.185975,1.0620000000000012,100.0,1.0,1.0,212.50666666666666,0.0,0.0,0.0,0.0,0.0,0.0,0.0,9007.4,0.0,55.0,5.0,247.72,0.0,0.0,0.0,0.0,0.0,0.0,0.0,0.0,1.2059999999999995,1.2059999999999995,0.0,0.0,0.0,55.0,616.79921,10000.0,85.000001,85.000001,85.000001,85.000001,395.0,0.0,0.0,0.0,1.0,166.665,52.933,52.933,45.532,45.532,34.0,-21.037499999999998,23.756666666666668,-27.57,29.03,0.0,1781.713,1.3449999999999989,100.0,27.525,28.579,43.813,42.475,0.0,0.0,100.0,0.0,0.0,0.0,0.0,2745.125,3117.9,4388.125,3962.7,306.4266666666667,304.978,314.221,310.89433333333335,21.901222222222223,20.6881,22.2494,14.2527,314.999998,314.999998,324.999988,324.999988,99.55538571428572,99.50813333333333,99.58195714285715,99.55422857142857,0.09375,-0.04749999999999999,-0.030200000000000005,0.19140000000000001,-0.030000000000001137,-0.054999999999999716,1.6363333333333334,1.6735,37.882,30.300666666666665,40.059,40.079,54.491,36.001999999999995,64.574,65.3225,52.539,35.105000000000004,62.943,61.207,51.754999999999995,34.6635,62.782,62.21,0.032333333333333325,-0.18900000000000006,0.10816500000000001,0.10329500000000001,0.0,215.48000000000002,215.41500000000002,212.50666666666666,212.50666666666666,0.0,0.0
25,0.0,0.0,0.0,1.0,1.0,0.0,0.0,1.0,0.0,100.0,1.0,1.1856,26.0,0.0,0.0,0.0,59.999996,0.0,26.0,26.0,26.0,26.0,-0.04222222222222216,0.26649999999999996,-0.051025,291.58,-2.8452,-2.5627500000000003,-1.6471,-1.469375,-191.39999999999998,215.9975,190.455375,0.0,0.0,0.0,0.0,0.05059999999999998,-5.498166666666667,-5.498166666666667,-0.5842,0.038000000000000034,0.07022222222222219,-1.866,68.95,0.0499,-0.191675,1.5620000000000012,100.0,1.0,1.0,213.08666666666667,0.0,0.0,0.0,0.0,0.0,0.0,0.0,9032.0,0.0,55.0,5.0,248.19333333333333,1.0,0.0,0.0,0.0,0.0,0.0,0.0,0.0,1.256999999999998,1.256999999999998,0.0,0.0,1.0,55.0,616.79921,10000.0,85.000001,85.000001,85.000001,85.000001,395.0,0.0,0.0,0.0,1.0,333.33500000000004,51.971000000000004,51.971000000000004,46.463,46.463,34.0,-27.12,23.956666666666667,-28.313333333333333,24.8525,0.0,1781.661,1.245000000000001,100.0,27.471,28.642,43.624,41.982,0.0,0.0,100.0,0.0,0.0,0.0,0.0,3191.625,3320.5,4107.875,3810.1000000000004,305.39433333333335,304.2065,315.03475,311.37233333333336,21.91,20.694,22.2608,14.2658,314.999998,314.999998,324.999988,324.999988,99.55538571428572,99.50815,99.58212857142857,99.55437142857143,0.04699999999999993,-0.08350000000000002,-0.09920000000000007,0.1282000000000001,-0.04333333333332945,-0.054999999999999716,1.7153333333333334,1.775,37.938,30.337333333333333,40.129999999999995,40.161,54.477000000000004,36.042500000000004,64.6035,65.4075,52.525,35.1425,62.9705,61.2855,51.741,34.6995,62.806,62.2905,0.016666666666666607,-0.17899999999999983,0.11284000000000001,0.11052500000000001,0.0,215.89499999999998,215.8,213.08666666666667,213.08666666666667,0.0,0.0
26,0.0,0.0,0.0,1.0,1.0,0.0,0.0,1.0,0.0,100.0,1.0,1.1856,26.0,0.0,0.0,0.0,59.999996,0.0,26.0,26.0,26.0,26.0,-0.12144444444444447,0.2782,0.053500000000000006,290.298,-2.7442,-2.68575,-1.6604,-1.502125,-187.67000000000002,216.01,190.428,0.0,0.0,0.0,0.0,0.05276666666666652,-5.498166666666667,-5.498166666666667,-0.5369,0.6373333333333333,0.011111111111111072,-1.064,69.094,-0.0044,-0.155225,1.620000000000001,100.0,1.0,1.0,213.21333333333334,0.0,0.0,0.0,0.0,0.0,0.0,0.0,9037.4,0.0,55.0,5.0,248.71,0.0,0.0,0.0,0.0,0.0,0.0,0.0,0.0,1.311,1.311,0.0,0.0,0.0,55.0,616.79921,10000.0,85.000001,85.000001,85.000001,85.000001,395.0,0.0,0.0,0.0,1.0,166.665,51.650999999999996,51.650999999999996,44.403,44.403,34.0,-27.105,21.265,-38.656666666666666,26.314999999999998,0.0,1781.608,0.990000000000002,100.0,28.56,28.956,44.705,42.019,0.0,0.0,100.0,0.0,0.0,0.0,0.0,3183.0,3041.2,4834.75,4232.5,305.263,304.9465,313.32075,309.9936666666667,21.919888888888888,20.7003,22.2733,14.2799,314.999998,314.999998,324.999988,324.999988,99.5554,99.50816666666667,99.5823,99.55454285714286,0.028999999999999915,-0.122,-0.15039999999999998,0.07540000000000013,-0.03999999999999915,-0.04333333333332945,1.562,1.6185,37.998999999999995,30.376666666666665,40.208,40.248999999999995,54.467,36.089,64.643,65.502,52.515,35.185,63.0075,61.373,51.729,34.7405,62.839,62.379,-0.006999999999999895,-0.16599999999999993,0.11195000000000001,0.10839000000000001,0.0,216.41500000000002,216.26,213.21333333333334,213.21333333333334,0.0,0.0
27,0.0,0.0,0.0,1.0,1.0,0.0,0.0,1.0,0.0,100.0,1.0,1.1856,26.0,0.0,0.0,0.0,59.999996,0.0,26.0,26.0,26.0,26.0,-0.12755555555555553,0.2599,0.009775,290.695,-2.6968,-2.6705,-1.639,-1.58075,-184.56,216.015,190.40625,0.0,0.0,0.0,0.0,0.05456666666666654,-5.498166666666667,-5.498166666666667,-0.5652,-1.202,0.0033333333333331883,0.4370000000000003,69.211,-0.0269,-0.20515,1.3580000000000005,100.0,1.0,1.0,213.65,0.0,0.0,0.0,0.0,0.0,0.0,0.0,9055.9,0.0,55.0,5.0,249.13333333333333,1.0,0.0,0.0,0.0,0.0,0.0,0.0,0.0,1.355999999999998,1.355999999999998,0.0,0.0,1.0,55.0,616.79921,10000.0,85.000001,85.000001,85.000001,85.000001,395.0,0.0,0.0,0.0,1.0,166.665,51.819,51.819,44.968,44.968,34.0,-26.03,22.373333333333335,-34.00666666666667,24.8575,0.0,1781.563,0.9050000000000011,100.0,28.539,28.472,45.483000000000004,42.285,0.0,0.0,100.0,0.0,0.0,0.0,0.0,3061.625,3226.4,4325.875,3968.2,305.44233333333335,304.66525,314.38225,310.7513333333333,21.927777777777777,20.7053,22.2838,14.2919,314.999998,314.999998,324.999988,324.999988,99.5554,99.50818333333333,99.58245714285714,99.55468571428571,0.02200000000000002,-0.12049999999999994,-0.16100000000000003,0.06479999999999997,-0.04333333333332945,-0.04999999999999716,1.6173333333333333,1.669,38.049,30.408,40.274,40.324,54.454,36.126,64.6765,65.583,52.503,35.2195,63.0385,61.4475,51.717,34.772999999999996,62.867,62.455,-0.008333333333333304,-0.15100000000000025,0.10962000000000001,0.11032000000000002,0.0,216.68,216.575,213.65,213.65,0.0,0.0
28,0.0,0.0,0.0,1.0,1.0,0.0,0.0,1.0,0.0,100.0,1.0,1.1856,26.0,0.0,0.0,0.0,59.999996,0.0,26.0,26.0,26.0,26.0,-0.13077777777777777,0.2653000000000001,-0.050225000000000006,291.168,-2.7027,-2.67475,-1.5665,-1.562875,-181.03,216.01999999999998,190.381125,0.0,0.0,0.0,0.0,0.05663333333333331,-5.498166666666667,-5.498166666666667,-0.5773,0.6303333333333333,-0.02477777777777801,-0.722,69.338,-0.044000000000000004,-0.18945,1.4399999999999995,100.0,1.0,1.0,214.25,0.0,0.0,0.0,0.0,0.0,0.0,0.0,9081.3,0.0,55.0,5.0,249.59,0.0,0.0,0.0,0.0,0.0,0.0,0.0,0.0,1.407,1.407,0.0,0.0,0.0,55.0,616.79921,10000.0,85.000001,85.000001,85.000001,85.000001,395.0,0.0,0.0,0.0,1.0,333.33500000000004,51.772999999999996,51.772999999999996,46.188,46.188,34.0,-28.5675,20.08833333333333,-32.946666666666665,22.345,0.0,1781.51,0.7699999999999996,100.0,28.679000000000002,28.509,44.794,41.749,0.0,0.0,100.0,0.0,0.0,0.0,0.0,3275.125,3015.0,4278.125,3806.6000000000004,305.005,305.11425,314.69025,311.4406666666667,21.93711111111111,20.7111,22.2952,14.3048,314.999998,314.999998,324.999988,324.999988,99.55541428571429,99.5082,99.58261428571429,99.55484285714286,0.007749999999999924,-0.14049999999999996,-0.18299999999999994,0.04920000000000013,-0.05666666666667197,-0.03999999999999915,1.7053333333333334,1.7530000000000001,38.107,30.444,40.345,40.405,54.443,36.1685,64.707,65.664,52.492000000000004,35.259,63.067,61.522,51.705,34.8105,62.8915,62.531,-0.022333333333333316,-0.14700000000000024,0.11132,0.11027,0.0,217.14499999999998,217.01,214.25,214.25,0.0,0.0
29,0.0,0.0,0.0,1.0,1.0,0.0,0.0,1.0,0.0,100.0,1.0,1.1856,26.0,0.0,0.0,0.0,59.999996,0.0,26.0,26.0,26.0,26.0,-0.14100000000000001,0.26380000000000003,0.013975000000000001,290.665,-2.6512000000000002,-2.725375,-1.6104,-1.5330000000000001,-177.49,216.01999999999998,190.354625,0.0,0.0,0.0,0.0,0.058666666666666534,-5.498166666666667,-5.498166666666667,-0.5761000000000001,-0.5856666666666668,-0.009666666666666934,1.053,69.473,-0.0454,-0.17600000000000002,0.9920000000000009,100.0,1.0,1.0,214.44333333333333,0.0,0.0,0.0,0.0,0.0,0.0,0.0,9089.5,0.0,55.0,5.0,250.07666666666665,1.0,0.0,0.0,0.0,0.0,0.0,0.0,0.0,1.4579999999999984,1.4579999999999984,0.0,0.0,1.0,55.0,616.79921,10000.0,85.000001,85.000001,85.000001,85.000001,395.0,0.0,0.0,0.0,1.0,166.665,51.772999999999996,51.772999999999996,44.952,44.952,34.0,-26.3325,22.736666666666665,-34.89333333333333,24.8925,0.0,1781.461,0.5500000000000007,100.0,28.541,28.218,45.313,41.785,0.0,0.0,100.0,0.0,0.0,0.0,0.0,3131.75,3228.4,4400.375,4064.9,305.27366666666666,304.52875,314.185,310.56733333333335,21.945999999999998,20.7167,22.3069,14.318200000000001,314.999998,314.999998,324.999988,324.999988,99.55541428571429,99.50821666666667,99.5828,99.555,0.020499999999999963,-0.12775000000000003,-0.17120000000000002,0.06479999999999997,-0.04333333333332945,-0.04833333333333201,1.6186666666666667,1.645,38.163,30.479333333333333,40.418,40.489000000000004,54.428,36.2095,64.745,65.751,52.477999999999994,35.2965,63.102000000000004,61.6025,51.69,34.8465,62.9235,62.6125,-0.03933333333333322,-0.1280000000000001,0.11037000000000001,0.109895,0.0,217.495,217.41,214.44333333333333,214.44333333333333,0.0,0.0
30,0.0,0.0,0.0,1.0,1.0,0.0,0.0,1.0,0.0,100.0,1.0,1.1856,26.0,0.0,0.0,0.0,59.999996,0.0,26.0,26.0,26.0,26.0,-0.1406666666666666,0.2764,0.0594,290.131,-2.7056,-2.614,-1.5522,-1.6105,-174.14999999999998,216.01749999999998,190.3295,0.0,0.0,0.0,0.0,0.06063333333333332,-5.498166666666667,-5.498166666666667,-0.5736,0.6726666666666667,-0.01388888888888884,0.6710000000000003,69.594,-0.0339,-0.181725,0.8640000000000008,100.0,1.0,1.0,214.84,0.0,0.0,0.0,0.0,0.0,0.0,0.0,9106.3,0.0,55.0,5.0,250.51333333333332,0.0,0.0,0.0,0.0,0.0,0.0,1.0,0.0,1.5060000000000002,1.5060000000000002,0.0,0.0,0.0,55.0,616.79921,10000.0,85.000001,85.000001,85.000001,85.000001,395.0,0.0,0.0,0.0,1.0,333.33500000000004,50.858000000000004,50.858000000000004,45.166,45.166,34.0,-28.1525,21.965,-33.81666666666666,26.1675,0.0,1781.411,0.46000000000000085,100.0,29.322,28.916,45.230000000000004,41.926,0.0,0.0,100.0,0.0,0.0,0.0,0.0,3316.625,3208.6,4472.0,4073.9,304.6843333333333,304.64125,314.085,310.45466666666664,21.95488888888889,20.7223,22.3178,14.3307,314.999998,314.999998,324.999988,324.999988,99.55541428571429,99.50823333333334,99.58295714285714,99.55514285714285,0.03325,-0.11649999999999994,-0.1562,0.06740000000000013,-0.03499999999999659,-0.05333333333332746,1.615,1.6695,38.218,30.514666666666663,40.486000000000004,40.567,54.419,36.2515,64.776,65.833,52.47,35.335499999999996,63.1315,61.678,51.68,34.884,62.949,62.6895,-0.045333333333333226,-0.12449999999999983,0.11147000000000001,0.11176000000000001,0.0,217.9,217.85000000000002,214.84,214.84,0.0,0.0
31,0.0,0.0,0.0,1.0,1.0,0.0,0.0,1.0,0.0,100.0,1.0,1.1856,26.0,0.0,0.0,0.0,59.999996,0.0,26.0,26.0,26.0,26.0,-0.10077777777777785,0.2614000000000001,-0.00385,290.146,-2.7845,-2.67575,-1.647,-1.573375,-170.6,216.0125,190.303875,0.0,0.0,0.0,0.0,0.06269999999999998,-5.498166666666667,-5.498166666666667,-0.5611,-0.5780000000000001,0.0033333333333331883,-0.4750000000000001,69.726,-0.0165,-0.18657500000000002,0.5359999999999996,100.0,1.0,1.0,215.13666666666666,0.0,0.0,0.0,0.0,0.0,0.0,0.0,9118.8,0.0,55.0,5.0,250.98666666666668,1.0,0.0,0.0,0.0,0.0,0.0,1.0,0.0,1.5569999999999986,1.5569999999999986,0.0,0.0,1.0,55.0,616.79921,10000.0,85.000001,85.000001,85.000001,85.000001,395.0,0.0,0.0,0.0,1.0,333.33500000000004,51.575,51.575,43.9,43.9,34.0,-26.005,22.12166666666667,-35.946666666666665,27.395,0.0,1781.361,0.370000000000001,100.0,28.835,29.204,45.612,42.498000000000005,0.0,0.0,100.0,0.0,0.0,0.0,0.0,3081.25,3101.6,4639.0,4130.0,305.699,304.80175,313.75725,310.338,21.964,20.7282,22.3297,14.3443,314.999998,314.999998,324.999988,324.999988,99.55541428571429,99.50825,99.58312857142857,99.5553,0.036250000000000115,-0.11075000000000002,-0.14060000000000006,0.09000000000000008,-0.05333333333332746,-0.03499999999999659,1.5896666666666666,1.6099999999999999,38.275,30.551333333333332,40.56,40.652,54.407,36.2945,64.815,65.923,52.458,35.375,63.167500000000004,61.760999999999996,51.667,34.9215,62.9815,62.774,-0.05666666666666664,-0.10850000000000026,0.10903000000000002,0.112725,0.0,218.285,218.215,215.13666666666666,215.13666666666666,0.0,0.0
32,0.0,0.0,0.0,1.0,1.0,0.0,0.0,1.0,0.0,100.0,1.0,1.1856,26.0,0.0,0.0,0.0,59.999996,0.0,26.0,26.0,26.0,26.0,-0.10055555555555551,0.25680000000000014,-0.050025,290.588,-2.7294,-2.62775,-1.6663999999999999,-1.4865,-167.04,216.0025,190.278375,0.0,0.0,0.0,0.0,0.06476666666666653,-5.498166666666667,-5.498166666666667,-0.5856,0.06066666666666665,-0.023777777777777676,-0.20900000000000007,69.852,-0.0024000000000000002,-0.202775,0.4920000000000009,100.0,1.0,1.0,215.73000000000002,0.0,0.0,0.0,0.0,0.0,0.0,0.0,9144.0,0.0,55.0,5.0,251.43666666666667,0.0,0.0,0.0,0.0,0.0,0.0,1.0,0.0,1.6080000000000005,1.6080000000000005,0.0,0.0,0.0,55.0,616.79921,10000.0,85.000001,85.000001,85.000001,85.000001,395.0,0.0,0.0,0.0,1.0,166.665,51.224000000000004,51.224000000000004,45.394999999999996,45.394999999999996,34.0,-25.7425,23.846666666666668,-31.626666666666665,25.442500000000003,0.0,1781.311,0.33999999999999986,100.0,28.932,29.05,45.106,42.274,0.0,0.0,100.0,0.0,0.0,0.0,0.0,3183.625,3238.0,4336.125,3957.3,305.1426666666667,304.59425,314.5385,311.1193333333333,21.973,20.7342,22.3412,14.3576,314.999998,314.999998,324.999988,324.999988,99.55542857142858,99.50826666666667,99.5833,99.55545714285714,0.062249999999999917,-0.08250000000000002,-0.11819999999999997,0.11040000000000005,-0.045000000000001705,-0.04333333333332945,1.691,1.703,38.331,30.58866666666667,40.632,40.735,54.396,36.337,64.846,66.008,52.447,35.414500000000004,63.196,61.8395,51.655,34.959,63.0065,62.854,-0.05466666666666664,-0.11100000000000021,0.10568000000000001,0.11134000000000001,0.0,218.67000000000002,218.635,215.73000000000002,215.73000000000002,0.0,0.0
33,0.0,0.0,0.0,1.0,1.0,0.0,0.0,1.0,0.0,100.0,1.0,1.1856,26.0,0.0,0.0,0.0,59.999996,0.0,26.0,26.0,26.0,26.0,-0.07811111111111102,0.25540000000000007,-0.06797500000000001,290.649,-2.7231,-2.682375,-1.6275,-1.50325,-163.68,215.9925,190.25325,0.0,0.0,0.0,0.0,0.06669999999999998,-5.498166666666667,-5.498166666666667,-0.5853,-0.2370000000000001,-0.016000000000000014,1.5650000000000004,69.974,0.0078000000000000005,-0.18135,0.3979999999999997,100.0,1.0,1.0,215.99666666666667,0.0,0.0,0.0,0.0,0.0,0.0,0.0,9155.3,0.0,55.0,5.0,251.87666666666667,1.0,0.0,0.0,0.0,0.0,0.0,1.0,0.0,1.6559999999999988,1.6559999999999988,0.0,0.0,1.0,55.0,616.79921,10000.0,85.000001,85.000001,85.000001,85.000001,395.0,0.0,0.0,0.0,1.0,333.33500000000004,51.91,51.91,44.998,44.998,34.0,-23.7925,23.581666666666667,-32.19333333333333,27.16,0.0,1781.261,0.18500000000000227,100.0,28.772,28.773,45.181,42.214,0.0,0.0,100.0,0.0,0.0,0.0,0.0,2998.875,3114.5,4428.875,4089.6000000000004,305.7303333333333,304.98525,314.229,310.5973333333333,21.981555555555556,20.7395,22.3521,14.3702,314.999998,314.999998,324.999988,324.999988,99.55542857142858,99.50826666666667,99.58345714285714,99.5556,0.06525000000000003,-0.07524999999999993,-0.11639999999999995,0.11480000000000001,-0.03333333333333144,-0.061666666666667425,1.6353333333333333,1.651,38.385,30.622,40.7,40.813,54.385,36.373,64.8775,66.088,52.437,35.4475,63.226,61.9135,51.644,34.9905,63.033,62.9295,-0.06299999999999994,-0.10099999999999998,0.10755500000000001,0.10983000000000001,0.0,219.055,219.01,215.99666666666667,215.99666666666667,0.0,0.0
34,0.0,0.0,0.0,1.0,1.0,0.0,0.0,1.0,0.0,100.0,1.0,1.1856,26.0,0.0,0.0,0.0,59.999996,0.0,26.0,26.0,26.0,26.0,-0.061555555555555475,0.2550000000000001,-0.0794,290.894,-2.7491,-2.6235,-1.6723,-1.515875,-160.11,215.98000000000002,190.22525,0.0,0.0,0.0,0.0,0.06876666666666653,-5.498166666666667,-5.498166666666667,-0.616,-0.8460000000000001,0.02155555555555555,-0.28500000000000014,70.102,0.0206,-0.190525,0.27999999999999936,100.0,1.0,1.0,216.43,0.0,0.0,0.0,0.0,0.0,0.0,0.0,9173.7,0.0,55.0,5.0,252.34,0.0,0.0,0.0,0.0,0.0,0.0,1.0,0.0,1.7070000000000007,1.7070000000000007,0.0,0.0,0.0,55.0,616.79921,10000.0,85.000001,85.000001,85.000001,85.000001,395.0,0.0,0.0,0.0,1.0,166.665,52.002,52.002,45.775999999999996,45.775999999999996,34.0,-23.9175,23.313333333333333,-30.423333333333332,26.810000000000002,0.0,1781.212,0.15500000000000114,100.0,28.31,28.615000000000002,44.882,42.461,0.0,0.0,100.0,0.0,0.0,0.0,0.0,3071.625,3104.0,4225.375,4012.5,305.51466666666664,304.902,314.77125,310.667,21.990444444444446,20.7453,22.3635,14.3836,314.999998,314.999998,324.999988,324.999988,99.55544285714285,99.50828333333334,99.58362857142858,99.55575714285715,0.08374999999999999,-0.06999999999999995,-0.1087999999999999,0.11420000000000008,-0.05333333333332746,-0.036666666666668846,1.6683333333333334,1.67,38.44,30.658,40.772,40.897,54.373000000000005,36.411,64.908,66.176,52.425,35.4825,63.254,61.995,51.631,35.024,63.0575,63.012,-0.07333333333333325,-0.09549999999999992,0.1082,0.09759000000000001,0.0,219.41500000000002,219.37,216.43,216.43,0.0,0.0
35,0.0,0.0,0.0,1.0,1.0,0.0,0.0,1.0,0.0,100.0,1.0,1.1856,26.0,0.0,0.0,0.0,59.999996,0.0,26.0,26.0,26.0,26.0,-0.048555555555555574,0.25,-0.07072500000000001,290.894,-2.7892,-2.621,-1.6316000000000002,-1.539875,-156.53,215.965,190.195375,0.0,0.0,0.0,0.0,0.07086666666666652,-5.498166666666667,-5.498166666666667,-0.6595000000000001,-0.40866666666666673,0.0016666666666667052,-0.13600000000000012,70.22800000000001,0.0356,-0.20155,0.09399999999999942,100.0,1.0,1.0,216.89666666666668,0.0,0.0,0.0,0.0,0.0,0.0,0.0,9193.4,0.0,55.0,5.0,252.79666666666668,1.0,0.0,0.0,0.0,0.0,0.0,1.0,0.0,1.7579999999999991,1.7579999999999991,0.0,0.0,1.0,55.0,616.79921,10000.0,85.000001,85.000001,85.000001,85.000001,395.0,0.0,0.0,0.0,1.0,333.33500000000004,51.514,51.514,45.456,45.456,34.0,-24.835,26.948333333333334,-27.669999999999998,26.905,0.0,1781.159,0.23000000000000043,100.0,28.247,28.778,44.786,42.122,0.0,0.0,100.0,0.0,0.0,0.0,0.0,3140.75,3455.0,4148.125,3810.8,305.41266666666667,303.978,314.84225,311.4683333333333,21.999111111111112,20.7512,22.3749,14.396799999999999,314.999998,314.999998,324.999988,324.999988,99.55545714285714,99.5083,99.5838,99.55592857142857,0.08299999999999996,-0.05399999999999994,-0.07879999999999998,0.1482000000000001,-0.05333333333332746,-0.041666666666671404,1.705,1.6985000000000001,38.495000000000005,30.695,40.843,40.980000000000004,54.36,36.453,64.9395,66.2625,52.412,35.521,63.283500000000004,62.075,51.617999999999995,35.0615,63.083,63.0935,-0.05933333333333324,-0.1030000000000002,0.10348,0.107785,0.0,219.79500000000002,219.775,216.89666666666665,216.89666666666668,0.0,0.0
