,ABS Active,ABS Enabled,AID Allow Tire Blankets,AID Auto Blip,AID Auto Clutch,AID Auto Shift,AID Fuel Rate,AID Ideal Line,AID Mech Damage,AID Stability,AID Tire Wear Rate,Air Density,Air Temp,Ballast,Best Lap Delta,Best Lap Time,Brake Bias,Brake Pos,Brake Temp FL,Brake Temp FR,Brake Temp RL,Brake Temp RR,CG Accel Lateral,CG Accel Longitudinal,CG Accel Vertical,CG Height,Camber FL,Camber FR,Camber RL,Camber RR,Car Coord X,Car Coord Y,Car Coord Z,Car Damage Front,Car Damage Left,Car Damage Rear,Car Damage Right,Car Pos Norm,Caster FL,Caster FR,Chassis Pitch Angle,Chassis Pitch Rate,Chassis Roll Angle,Chassis Roll Rate,Chassis Velocity X,Chassis Velocity Y,Chassis Velocity Z,Chassis Yaw Rate,Clutch Pos,DRS Active,DRS Available,Drive Train Speed,ERS Heat Charging,ERS Is Charging,ERS Max Energy,ERS Power Level,ERS Recovery Level,Engine Brake Setting,Engine Limiter,Engine RPM,Flags,Fuel Level,Gear,Ground Speed,HR Sample Clock,In Pit,KERS Charge,KERS Deployed Energy,KERS Input,KERS Max Energy,LR Sample Clock,Lap Invalidated,Lap Time,Lap Time2,Last Lap Time,Last Sector Time,MR Sample Clock,Max Fuel,Max Power,Max RPM,Max Sus Travel FL,Max Sus Travel FR,Max Sus Travel RL,Max Sus Travel RR,Max Torque,Max Turbo Boost,Num Tires Off Track,Penalties Enabled,Position,Raw Data Sample Rate,Ride Height FL,Ride Height FR,Ride Height RL,Ride Height RR,Road Temp,Self Align Torque FL,Self Align Torque FR,Self Align Torque RL,Self Align Torque RR,Session Lap Count,Session Time Left,Steering Angle,Surface Grip,Suspension Travel FL,Suspension Travel FR,Suspension Travel RL,Suspension Travel RR,TC Active,TC Enabled,Throttle Pos,Tire Dirt Level FL,Tire Dirt Level FR,Tire Dirt Level RL,Tire Dirt Level RR,Tire Load FL,Tire Load FR,Tire Load RL,Tire Load RR,Tire Loaded Radius FL,Tire Loaded Radius FR,Tire Loaded Radius RL,Tire Loaded Radius RR,Tire Pressure FL,Tire Pressure FR,Tire Pressure RL,Tire Pressure RR,Tire Radius FL,Tire Radius FR,Tire Radius RL,Tire Radius RR,Tire Rubber Grip FL,Tire Rubber Grip FR,Tire Rubber Grip RL,Tire Rubber Grip RR,Tire Slip Angle FL,Tire Slip Angle FR,Tire Slip Angle RL,Tire Slip Angle RR,Tire Slip Ratio FL,Tire Slip Ratio FR,Tire Slip Ratio RL,Tire Slip Ratio RR,Tire Temp Core FL,Tire Temp Core FR,Tire Temp Core RL,Tire Temp Core RR,Tire Temp Inner FL,Tire Temp Inner FR,Tire Temp Inner RL,Tire Temp Inner RR,Tire Temp Middle FL,Tire Temp Middle FR,Tire Temp Middle RL,Tire Temp Middle RR,Tire Temp Outer FL,Tire Temp Outer FR,Tire Temp Outer RL,Tire Temp Outer RR,Toe In FL,Toe In FR,Toe In RL,Toe In RR,Turbo Boost,Wheel Angular Speed FL,Wheel Angular Speed FR,Wheel Angular Speed RL,Wheel Angular Speed RR,Wind Direction,Wind Speed
0,0.0,0.0,0.0,1.0,1.0,0.0,0.0,1.0,0.0,100.0,1.0,1.1856,26.0,0.0,0.0,0.0,59.99999,0.0,26.0,26.0,26.0,26.0,-0.0932222222222222,0.2993000000000001,0.0546,292.999,-2.7806,-2.5908571428571427,-1.5811000000000002,-1.4900000000000002,-275.78,216.3025,190.987125,0.0,0.0,0.0,0.0,0.0015333333333333865,-5.498166666666667,-5.498166666666667,-0.5381,0.7949999999999999,0.04644444444444429,-0.9909999999999999,65.521,0.0126,-0.1947,1.3499999999999996,100.0,1.0,1.0,202.62666666666667,0.0,0.0,0.0,0.0,0.0,0.0,0.0,8588.6,0.0,55.0,5.0,235.8466666666667,0.0,0.0,0.0,0.0,0.0,0.0,0.0,0.0,0.0030000000000001137,0.0030000000000001137,0.0,0.0,0.0,55.0,616.79921,10000.0,85.0,85.0,85.0,85.0,395.0,0.0,0.0,0.0,1.0,20.0,52.17,52.17,48.34,48.34,34.0,-26.3975,25.235,-28.846666666666668,23.3525,0.0,1782.644,1.1550000000000011,100.0,27.277,27.486,41.303,39.614000000000004,0.0,0.0,100.0,0.0,0.0,0.0,0.0,3045.0,3593.7,4110.5,3814.2,305.6175,303.42066666666665,314.94875,311.77633333333335,21.7334,20.5468,21.9411,14.8583,314.99999,314.99999,324.99998,324.99998,99.55761428571428,99.50775,99.5761,99.55051428571429,0.019000000000000128,-0.10524999999999995,-0.129,0.09020000000000006,-0.045000000000001705,-0.06666666666666998,1.712,1.77,36.834,29.417666666666666,38.132,37.614000000000004,55.681,34.989,63.0715,61.709,53.635999999999996,34.1195,61.5165,58.0745,52.825,33.664,61.4305,58.7505,0.01866666666666683,-0.16900000000000004,0.10370000000000001,0.10568000000000001,0.0,205.31,205.22,202.62666666666667,202.62666666666667,0.0,0.0
1,0.0,0.0,0.0,1.0,1.0,0.0,0.0,1.0,0.0,100.0,1.0,1.1856,26.0,0.0,0.0,0.0,59.999996,0.0,26.0,26.0,26.0,26.0,-0.12677777777777777,0.31079999999999997,0.146075,291.901,-2.6837999999999997,-2.706714285714286,-1.5838,-1.4882499999999999,-272.24,216.3,190.96575,0.0,0.0,0.0,0.0,0.0035999999999999366,-5.498166666666667,-5.498166666666667,-0.47140000000000004,-0.10450000000000004,-0.008777777777777995,-0.5800000000000001,65.68299999999999,-0.0079,-0.16475,1.4900000000000002,100.0,1.0,1.0,202.79000000000002,0.0,0.0,0.0,0.0,0.0,0.0,0.0,8595.5,0.0,55.0,5.0,236.42666666666668,1.0,0.0,0.0,0.0,0.0,0.0,0.0,0.0,0.05699999999999861,0.05699999999999861,0.0,0.0,1.0,55.0,616.79921,10000.0,85.000001,85.000001,85.000001,85.000001,395.0,0.0,0.0,0.0,1.0,166.665,53.192,53.192,46.478,46.478,34.0,-26.045,18.556666666666665,-34.156666666666666,27.495,0.0,1782.592,1.1950000000000003,100.0,27.595,27.73,43.588,40.495000000000005,0.0,0.0,100.0,0.0,0.0,0.0,0.0,3035.4285714285716,2777.2,4474.75,4498.5,305.6385,305.97566666666665,313.968,309.57166666666666,21.7438,20.552599999999998,21.9536,14.8716,314.999998,314.999998,324.999988,324.999988,99.55761428571428,99.50776666666667,99.57628571428572,99.55067142857143,0.0050000000000001155,-0.13375000000000004,-0.15039999999999998,0.06520000000000015,-0.05833333333333002,-0.051666666666669414,1.553,1.615,36.899,29.454,38.21,37.697,55.665,35.033500000000004,63.115,61.806,53.620999999999995,34.1605,61.5575,58.164,52.809,33.7035,61.468,58.842,0.01833333333333309,-0.17300000000000004,0.10799,0.10609,0.0,205.845,205.715,202.79000000000002,202.79000000000002,0.0,0.0
2,0.0,0.0,0.0,1.0,1.0,0.0,0.0,1.0,0.0,100.0,1.0,1.1856,26.0,0.0,0.0,0.0,59.999996,0.0,26.0,26.0,26.0,26.0,-0.138,0.2901,0.032075,292.648,-2.6542,-2.741142857142857,-1.5467,-1.5565000000000002,-269.08,216.29250000000002,190.948125,0.0,0.0,0.0,0.0,0.005433333333333401,-5.498166666666667,-5.498166666666667,-0.5177,-0.6739999999999999,-0.00633333333333308,1.307,65.818,-0.026600000000000002,-0.2233,1.7080000000000002,100.0,1.0,1.0,203.57333333333332,0.0,0.0,0.0,0.0,0.0,0.0,0.0,8628.8,0.0,55.0,5.0,236.91666666666669,0.0,0.0,0.0,0.0,0.0,0.0,0.0,0.0,0.10500000000000043,0.10500000000000043,0.0,0.0,0.0,55.0,616.79921,10000.0,85.000001,85.000001,85.000001,85.000001,395.0,0.0,0.0,0.0,1.0,166.665,52.353,52.353,48.294,48.294,34.0,-29.3425,20.226666666666667,-29.133333333333333,20.3625,0.0,1782.543,0.9699999999999989,100.0,27.99,27.521,43.628,40.683,0.0,0.0,100.0,0.0,0.0,0.0,0.0,3317.0,2958.9,3914.125,3604.3,304.7455,305.45,315.2815,312.61033333333336,21.7531,20.5575,21.9645,14.8832,314.999998,314.999998,324.999988,324.999988,99.55761428571428,99.50778333333334,99.57641428571428,99.55081428571428,-0.009749999999999925,-0.13424999999999998,-0.17799999999999994,0.043400000000000105,-0.036666666666668846,-0.06333333333333258,1.733,1.804,36.957,29.484,38.278,37.769999999999996,55.652,35.069,63.1485,61.8855,53.608000000000004,34.1935,61.588499999999996,58.2375,52.796,33.735,61.496,58.917,0.004666666666666597,-0.15949999999999998,0.11097000000000001,0.10226,0.0,206.20499999999998,206.075,203.57333333333332,203.57333333333332,0.0,0.0
3,0.0,0.0,0.0,1.0,1.0,0.0,0.0,1.0,0.0,100.0,1.0,1.1856,26.0,0.0,0.0,0.0,59.999996,0.0,26.0,26.0,26.0,26.0,-0.15266666666666662,0.3158000000000001,-0.0379,292.572,-2.7733,-2.6367142857142856,-1.564,-1.53375,-265.92,216.2825,190.92975,0.0,0.0,0.0,0.0,0.0072666666666665325,-5.498166666666667,-5.498166666666667,-0.4924,0.8075,0.033777777777777684,-0.33299999999999996,65.959,-0.0436,-0.17977500000000002,1.4160000000000004,100.0,1.0,1.0,203.85666666666668,0.0,0.0,0.0,0.0,0.0,0.0,0.0,8640.7,0.0,55.0,5.0,237.42000000000002,1.0,0.0,0.0,0.0,0.0,0.0,0.0,0.0,0.1529999999999987,0.1529999999999987,0.0,0.0,1.0,55.0,616.79921,10000.0,85.000001,85.000001,85.000001,85.000001,395.0,0.0,0.0,0.0,1.0,166.665,53.146,53.146,46.89,46.89,34.0,-25.28,18.973333333333333,-34.31333333333333,21.97,0.0,1782.494,0.7850000000000001,100.0,27.833,27.685,43.120000000000005,40.372,0.0,0.0,100.0,0.0,0.0,0.0,0.0,2846.857142857143,2907.5,4375.5,3940.3,306.095,305.395,314.28275,311.5203333333333,21.7623,20.5625,21.9752,14.8947,314.999998,314.999998,324.999988,324.999988,99.55761428571428,99.5078,99.57657142857143,99.55095714285714,-0.0014999999999999458,-0.13824999999999998,-0.18920000000000003,0.03079999999999994,-0.041666666666671404,-0.041666666666671404,1.6755,1.7269999999999999,37.013999999999996,29.516,38.345,37.842,55.638,35.1085,63.1815,61.9645,53.594,34.230000000000004,61.6185,58.3105,52.781,33.769999999999996,61.5235,58.992,-0.014666666666666606,-0.1379999999999999,0.10629000000000001,0.10049000000000001,0.0,206.675,206.54000000000002,203.85666666666668,203.85666666666668,0.0,0.0
4,0.0,0.0,0.0,1.0,1.0,0.0,0.0,1.0,0.0,100.0,1.0,1.1856,26.0,0.0,0.0,0.0,59.999996,0.0,26.0,26.0,26.0,26.0,-0.15400000000000003,0.2794000000000001,0.024075000000000003,292.618,-2.7248,-2.6755714285714287,-1.5993,-1.525875,-262.55,216.26749999999998,190.909875,0.0,0.0,0.0,0.0,0.009233333333333316,-5.498166666666667,-5.498166666666667,-0.5116,-0.9325000000000001,-0.015444444444444372,-1.005,66.106,-0.0468,-0.19895000000000002,1.1340000000000003,100.0,1.0,1.0,204.29333333333335,0.0,0.0,0.0,0.0,0.0,0.0,0.0,8659.2,0.0,55.0,5.0,237.95333333333332,0.0,0.0,0.0,0.0,0.0,0.0,0.0,0.0,0.20400000000000063,0.20400000000000063,0.0,0.0,0.0,55.0,616.79921,10000.0,85.000001,85.000001,85.000001,85.000001,395.0,0.0,0.0,0.0,1.0,333.33500000000004,53.055,53.055,46.86,46.86,34.0,-26.395,21.05166666666667,-32.223333333333336,21.7925,0.0,1782.442,0.7349999999999994,100.0,27.522,27.255,43.647999999999996,40.571,0.0,0.0,100.0,0.0,0.0,0.0,0.0,3026.0,3087.9,4221.5,3733.2,305.6895,305.05033333333336,314.52,312.093,21.7717,20.5679,21.9868,14.9071,314.999998,314.999998,324.999988,324.999988,99.55762857142857,99.50781666666667,99.57672857142857,99.5511,0.0024999999999999467,-0.12524999999999997,-0.1622,0.05600000000000005,-0.054999999999999716,-0.03833333333332689,1.6655,1.714,37.073,29.549333333333333,38.417,37.92,55.617999999999995,35.1495,63.22,62.0495,53.576,34.2675,61.655,58.39,52.762,33.806,61.5565,59.0725,-0.01766666666666672,-0.13200000000000012,0.09844000000000001,0.10874500000000001,0.0,207.095,206.995,204.29333333333335,204.29333333333335,0.0,0.0
5,0.0,0.0,0.0,1.0,1.0,0.0,0.0,1.0,0.0,100.0,1.0,1.1856,26.0,0.0,0.0,0.0,59.999996,0.0,26.0,26.0,26.0,26.0,-0.14522222222222214,0.2804,-0.040325,292.77,-2.7134,-2.719857142857143,-1.5588000000000002,-1.535625,-258.98,216.25,190.8885,0.0,0.0,0.0,0.0,0.011299999999999977,-5.498166666666667,-5.498166666666667,-0.5133,0.394,-0.03966666666666674,1.181,66.26,-0.046900000000000004,-0.19045,1.072000000000001,100.0,1.0,1.0,204.81333333333333,0.0,0.0,0.0,0.0,0.0,0.0,0.0,8681.3,0.0,55.0,5.0,238.50666666666666,1.0,0.0,0.0,0.0,0.0,0.0,0.0,0.0,0.2579999999999991,0.2579999999999991,0.0,0.0,1.0,55.0,616.79921,10000.0,85.000001,85.000001,85.000001,85.000001,395.0,0.0,0.0,0.0,1.0,166.665,53.238,53.238,47.501,47.501,34.0,-25.9275,20.741666666666667,-32.266666666666666,22.1825,0.0,1782.39,0.34499999999999886,100.0,27.748,27.109,43.436,40.188,0.0,0.0,100.0,0.0,0.0,0.0,0.0,3037.857142857143,2931.8,4235.25,3867.7,305.4965,305.5593333333333,314.5845,311.80766666666665,21.782,20.5735,21.9989,14.92,314.999998,314.999998,324.999988,324.999988,99.55762857142857,99.50783333333334,99.5769,99.55125714285714,0.020000000000000018,-0.11099999999999999,-0.17520000000000002,0.04559999999999986,-0.05333333333332746,-0.05666666666667197,1.6755,1.7329999999999999,37.138,29.584666666666664,38.492999999999995,38.0,55.604,35.192,63.259,62.134,53.562,34.3065,61.691,58.4675,52.747,33.8435,61.5895,59.1515,-0.04366666666666674,-0.1080000000000001,0.10772000000000001,0.10296500000000001,0.0,207.60500000000002,207.505,204.81333333333333,204.81333333333333,0.0,0.0
6,0.0,0.0,0.0,1.0,1.0,0.0,0.0,1.0,0.0,100.0,1.0,1.1856,26.0,0.0,0.0,0.0,59.999996,0.0,26.0,26.0,26.0,26.0,-0.12544444444444447,0.2882,0.01175,292.603,-2.7012,-2.6792857142857143,-1.6197,-1.51025,-255.8,216.23000000000002,190.86925,0.0,0.0,0.0,0.0,0.013166666666666549,-5.498166666666667,-5.498166666666667,-0.5019,0.261,-0.0031111111111110645,1.1470000000000002,66.398,-0.0392,-0.179425,0.6859999999999999,100.0,1.0,1.0,205.20333333333332,0.0,0.0,0.0,0.0,0.0,0.0,0.0,8697.8,0.0,55.0,5.0,239.0,0.0,0.0,0.0,0.0,0.0,0.0,0.0,0.0,0.30600000000000094,0.30600000000000094,0.0,0.0,0.0,55.0,616.79921,10000.0,85.000001,85.000001,85.000001,85.000001,395.0,0.0,0.0,0.0,1.0,166.665,53.177,53.177,47.18,47.18,34.0,-24.5525,22.64666666666667,-32.07666666666667,23.6,0.0,1782.342,0.15500000000000114,100.0,27.473,27.117,43.412,40.376,0.0,0.0,100.0,0.0,0.0,0.0,0.0,2959.142857142857,3112.3,4178.625,3982.0,305.687,304.98633333333333,314.71425,311.4336666666667,21.7911,20.5786,22.0098,14.9317,314.999998,314.999998,324.999988,324.999988,99.55762857142857,99.50783333333334,99.57704285714286,99.5514,0.034250000000000114,-0.09324999999999994,-0.16679999999999995,0.06320000000000014,-0.04333333333332945,-0.07000000000000028,1.694,1.7035,37.194,29.616333333333333,38.561,38.073,55.589,35.229,63.294,62.2145,53.548,34.341,61.7235,58.542500000000004,52.733000000000004,33.8765,61.6185,59.2275,-0.058666666666666645,-0.09299999999999997,0.11241000000000001,0.10971500000000001,0.0,208.005,207.945,205.20333333333332,205.20333333333332,0.0,0.0
7,0.0,0.0,0.0,1.0,1.0,0.0,0.0,1.0,0.0,100.0,1.0,1.1856,26.0,0.0,0.0,0.0,59.999996,0.0,26.0,26.0,26.0,26.0,-0.08944444444444444,0.2892000000000001,0.04975,292.343,-2.756,-2.676,-1.5769000000000002,-1.504,-252.61,216.20749999999998,190.85,0.0,0.0,0.0,0.0,0.014999999999999902,-5.498166666666667,-5.498166666666667,-0.5059,-0.15799999999999992,0.0022222222222221255,0.9130000000000003,66.535,-0.022000000000000002,-0.18985000000000002,0.3719999999999999,100.0,1.0,1.0,205.57,0.0,0.0,0.0,0.0,0.0,0.0,0.0,8713.3,0.0,55.0,5.0,239.49666666666667,1.0,0.0,0.0,0.0,0.0,0.0,0.0,0.0,0.3539999999999992,0.3539999999999992,0.0,0.0,1.0,55.0,616.79921,10000.0,85.000001,85.000001,85.000001,85.000001,395.0,0.0,0.0,0.0,1.0,166.665,52.826,52.826,47.241,47.241,34.0,-25.89,24.248333333333335,-30.316666666666666,25.509999999999998,0.0,1782.294,-0.030000000000001137,100.0,27.475,27.097,43.477000000000004,40.674,0.0,0.0,100.0,0.0,0.0,0.0,0.0,3159.4285714285716,3163.2,4185.5,3998.8,305.1745,304.825,314.63175,311.335,21.8001,20.5837,22.0206,14.9435,314.999998,314.999998,324.999988,324.999988,99.55764285714285,99.50785,99.5772,99.55154285714286,0.05750000000000011,-0.0655,-0.13760000000000006,0.09800000000000009,-0.03833333333332689,-0.061666666666667425,1.669,1.673,37.251000000000005,29.648333333333333,38.629000000000005,38.147,55.576,35.2655,63.3285,62.2965,53.535,34.3745,61.7555,58.618,52.719,33.908500000000004,61.6475,59.305,-0.07533333333333325,-0.07299999999999995,0.10886000000000001,0.11504,0.0,208.41,208.37,205.57,205.57,0.0,0.0
8,0.0,0.0,0.0,1.0,1.0,0.0,0.0,1.0,0.0,100.0,1.0,1.1856,26.0,0.0,0.0,0.0,59.999996,0.0,26.0,26.0,26.0,26.0,-0.043333333333333335,0.2956000000000001,-0.015550000000000001,292.664,-2.7405,-2.6592857142857143,-1.5550000000000002,-1.4886249999999999,-249.21,216.18,190.829375,0.0,0.0,0.0,0.0,0.016999999999999904,-5.498166666666667,-5.498166666666667,-0.508,-0.36349999999999993,0.014999999999999902,-0.32899999999999996,66.68,0.0002,-0.18427500000000002,-0.03200000000000003,100.0,1.0,1.0,205.97,0.0,0.0,0.0,0.0,0.0,0.0,0.0,8730.4,0.0,55.0,5.0,240.01666666666665,0.0,0.0,0.0,0.0,0.0,0.0,0.0,0.0,0.40500000000000114,0.40500000000000114,0.0,0.0,0.0,55.0,616.79921,10000.0,85.000001,85.000001,85.000001,85.000001,395.0,0.0,0.0,0.0,1.0,166.665,53.696,53.696,46.57,46.57,34.0,-22.4375,23.093333333333334,-30.306666666666665,25.745,0.0,1782.243,-0.18499999999999872,100.0,27.012,27.251,43.353,40.829,0.0,0.0,100.0,0.0,0.0,0.0,0.0,2885.0,2988.4,4348.5,3982.9,306.129,305.1976666666667,314.31825,311.32666666666665,21.8096,20.5891,22.0321,14.9559,314.999998,314.999998,324.999988,324.999988,99.55764285714285,99.50785,99.57735714285714,99.55168571428571,0.07174999999999998,-0.057499999999999996,-0.11819999999999997,0.1068,-0.03999999999999915,-0.03833333333332689,1.6675,1.656,37.31,29.682000000000002,38.7,38.224000000000004,55.561,35.303,63.365,62.381,53.521,34.4095,61.789500000000004,58.6965,52.704,33.942,61.678,59.3845,-0.08699999999999997,-0.06300000000000017,0.10612,0.10845,0.0,208.835,208.825,205.97,205.97,0.0,0.0
9,0.0,0.0,0.0,1.0,1.0,0.0,0.0,1.0,0.0,100.0,1.0,1.1856,26.0,0.0,0.0,0.0,59.999996,0.0,26.0,26.0,26.0,26.0,-0.020444444444444487,0.2844,-0.02145,292.435,-2.7487,-2.6592857142857143,-1.6042,-1.4855,-246.0,216.155,190.809625,0.0,0.0,0.0,0.0,0.01883333333333337,-5.498166666666667,-5.498166666666667,-0.5158,0.5155000000000001,0.018000000000000016,-0.538,66.813,0.024,-0.186025,-0.19399999999999995,100.0,1.0,1.0,206.5233333333333,0.0,0.0,0.0,0.0,0.0,0.0,0.0,8753.8,0.0,55.0,5.0,240.49666666666667,1.0,0.0,0.0,0.0,0.0,0.0,0.0,0.0,0.4529999999999994,0.4529999999999994,0.0,0.0,1.0,55.0,616.79921,10000.0,85.000001,85.000001,85.000001,85.000001,395.0,0.0,0.0,0.0,1.0,333.33500000000004,52.551,52.551,47.714,47.714,34.0,-24.875,25.168333333333333,-27.22,25.625,0.0,1782.193,-0.28999999999999915,100.0,27.325,27.63,43.008,40.851,0.0,0.0,100.0,0.0,0.0,0.0,0.0,3251.5714285714284,3108.4,4075.75,3897.5,305.051,304.777,315.025,311.63666666666666,21.8186,20.5944,22.0427,14.967600000000001,314.999998,314.999998,324.999988,324.999988,99.55765714285714,99.50786666666667,99.5775,99.55182857142857,0.09400000000000008,-0.03474999999999995,-0.09520000000000006,0.12340000000000018,-0.04999999999999716,-0.03499999999999659,1.7225000000000001,1.717,37.366,29.715,38.766999999999996,38.297,55.55,35.339,63.3955,62.4595,53.51,34.443,61.818,58.769,52.692,33.974000000000004,61.7035,59.459,-0.09799999999999986,-0.05699999999999994,0.10658000000000001,0.09960500000000001,0.0,209.26,209.245,206.5233333333333,206.5233333333333,0.0,0.0
10,0.0,0.0,0.0,1.0,1.0,0.0,0.0,1.0,0.0,100.0,1.0,1.1856,26.0,0.0,0.0,0.0,59.999996,0.0,26.0,26.0,26.0,26.0,0.0033333333333334103,0.2905,0.050925000000000005,292.114,-2.7175,-2.642571428571429,-1.6533,-1.465875,-242.59,216.1275,190.78875,0.0,0.0,0.0,0.0,0.02083333333333337,-5.498166666666667,-5.498166666666667,-0.4879,-0.2935000000000001,0.06188888888888888,2.0010000000000003,66.96000000000001,0.0492,-0.16865,-0.5739999999999998,100.0,1.0,1.0,206.73000000000002,0.0,0.0,0.0,0.0,0.0,0.0,0.0,8762.5,0.0,55.0,5.0,241.02333333333334,0.0,0.0,0.0,0.0,0.0,0.0,1.0,0.0,0.5040000000000013,0.5040000000000013,0.0,0.0,0.0,55.0,616.79921,10000.0,85.000001,85.000001,85.000001,85.000001,395.0,0.0,0.0,0.0,1.0,333.33500000000004,53.482,53.482,46.051,46.051,34.0,-19.044999999999998,25.225,-29.14333333333333,30.365000000000002,0.0,1782.143,-0.36499999999999844,100.0,27.411,27.502,43.508,41.358000000000004,0.0,0.0,100.0,0.0,0.0,0.0,0.0,2711.285714285714,3076.6,4418.875,4219.3,306.4635,305.104,314.10375,310.61033333333336,21.8281,20.599899999999998,22.0543,14.9803,314.999998,314.999998,324.999988,324.999988,99.55767142857142,99.50786666666667,99.57767142857143,99.55198571428572,0.12224999999999997,-0.01574999999999993,-0.05459999999999998,0.16259999999999986,-0.036666666666668846,-0.061666666666667425,1.612,1.5975,37.426,29.749333333333333,38.839,38.376999999999995,55.538,35.3755,63.4335,62.549,53.498999999999995,34.4765,61.853,58.8525,52.68,34.0065,61.7355,59.544,-0.10199999999999987,-0.051000000000000156,0.11077500000000001,0.10485000000000001,0.0,209.685,209.73000000000002,206.73000000000002,206.73000000000002,0.0,0.0
11,0.0,0.0,0.0,1.0,1.0,0.0,0.0,1.0,0.0,100.0,1.0,1.1856,26.0,0.0,0.0,0.0,59.999996,0.0,26.0,26.0,26.0,26.0,0.0584444444444443,0.2715000000000001,-0.0922,292.679,-2.7709,-2.5940000000000003,-1.616,-1.455625,-239.18,216.1,190.768125,0.0,0.0,0.0,0.0,0.022599999999999953,-5.498166666666667,-5.498166666666667,-0.5342,-0.4950000000000001,0.08533333333333326,-0.942,67.098,0.0746,-0.20997500000000002,-0.6660000000000004,100.0,1.0,1.0,207.46333333333334,0.0,0.0,0.0,0.0,0.0,0.0,0.0,8793.6,0.0,55.0,5.0,241.52333333333334,1.0,0.0,0.0,0.0,0.0,0.0,1.0,0.0,0.5549999999999997,0.5549999999999997,0.0,0.0,1.0,55.0,616.79921,10000.0,85.000001,85.000001,85.000001,85.000001,395.0,0.0,0.0,0.0,1.0,333.33500000000004,52.811,52.811,47.729,47.729,34.0,-21.32,26.97,-22.23333333333333,27.4825,0.0,1782.092,-0.3550000000000004,100.0,27.017,27.918,43.04,41.558,0.0,0.0,100.0,0.0,0.0,0.0,0.0,2994.142857142857,3204.8,3782.125,3787.2,305.845,304.48533333333336,315.70925,311.955,21.8373,20.6056,22.0656,14.992799999999999,314.999998,314.999998,324.999988,324.999988,99.55768571428571,99.50786666666667,99.57781428571428,99.55214285714285,0.129,-0.00024999999999997247,-0.03700000000000003,0.19179999999999997,-0.045000000000001705,-0.046666666666666856,1.764,1.7425,37.483000000000004,29.784666666666666,38.91,38.455,55.525,35.4125,63.4645,62.6355,53.486000000000004,34.510999999999996,61.882,58.9325,52.666,34.039500000000004,61.760999999999996,59.6255,-0.09866666666666668,-0.05449999999999999,0.10794000000000001,0.11117500000000001,0.0,210.085,210.13,207.46333333333334,207.46333333333334,0.0,0.0
12,0.0,0.0,0.0,1.0,1.0,0.0,0.0,1.0,0.0,100.0,1.0,1.1856,26.0,0.0,0.0,0.0,59.999996,0.0,26.0,26.0,26.0,26.0,0.05255555555555569,0.2843,0.0175,292.343,-2.817,-2.6272857142857142,-1.6068,-1.4613749999999999,-235.95,216.075,190.7475,0.0,0.0,0.0,0.0,0.025466666666666526,-5.498166666666667,-5.498166666666667,-0.522,0.43599999999999994,0.06522222222222207,-0.6159999999999999,67.233,0.09050000000000001,-0.178375,-0.6479999999999997,100.0,1.0,1.0,207.7,0.0,0.0,0.0,0.0,0.0,0.0,0.0,8803.6,0.0,55.0,5.0,242.01,0.0,0.0,0.0,0.0,0.0,0.0,1.0,0.0,0.602999999999998,0.602999999999998,0.0,0.0,0.0,55.0,616.79921,10000.0,85.000001,85.000001,85.000001,85.000001,395.0,0.0,0.0,0.0,1.0,166.665,52.963,52.963,46.677,46.677,34.0,-21.5025,27.543333333333333,-25.756666666666668,29.9225,0.0,1782.045,-0.40500000000000114,100.0,26.877,27.98,42.756,41.316,0.0,0.0,100.0,0.0,0.0,0.0,0.0,3017.4285714285716,3175.3,4317.5,3976.8,305.7895,304.598,314.4675,311.4,21.8461,20.6109,22.0763,15.0045,314.999998,314.999998,324.999988,324.999988,99.5577,99.50786666666667,99.57797142857143,99.55227142857143,0.13874999999999993,0.014000000000000012,-0.027200000000000002,0.2005999999999999,-0.060000000000002274,-0.03499999999999659,1.6775,1.6485,37.538,29.818333333333335,38.977000000000004,38.528,55.515,35.448499999999996,63.497,62.714,53.476,34.544,61.912,59.0055,52.655,34.0715,61.7875,59.7,-0.09799999999999986,-0.0495000000000001,0.10726000000000001,0.108215,0.0,210.54500000000002,210.57999999999998,207.7,207.7,0.0,0.0
13,0.0,0.0,0.0,1.0,1.0,0.0,0.0,1.0,0.0,100.0,1.0,1.1856,26.0,0.0,0.0,0.0,59.999996,0.0,26.0,26.0,26.0,26.0,0.06988888888888889,0.28790000000000004,0.0442,291.885,-2.8073,-2.6094285714285714,-1.6909,-1.432,-232.51999999999998,216.0475,190.72575,0.0,0.0,0.0,0.0,0.026699999999999946,-5.498166666666667,-5.498166666666667,-0.508,0.00649999999999995,0.0855555555555556,1.1280000000000001,67.376,0.1,-0.17447500000000002,-0.8559999999999999,100.0,1.0,1.0,208.04333333333335,0.0,0.0,0.0,0.0,0.0,0.0,0.0,8818.1,0.0,55.0,5.0,242.52333333333334,1.0,0.0,0.0,0.0,0.0,0.0,1.0,0.0,0.6539999999999999,0.6539999999999999,0.0,0.0,1.0,55.0,616.79921,10000.0,85.000001,85.000001,85.000001,85.000001,395.0,0.0,0.0,0.0,1.0,166.665,52.734,52.734,46.417,46.417,34.0,-18.8525,29.873333333333335,-25.483333333333334,33.325,0.0,1781.994,-0.5949999999999989,100.0,27.206,28.006999999999998,43.065,41.688,0.0,0.0,100.0,0.0,0.0,0.0,0.0,2896.5714285714284,3293.9,4266.5,4247.9,305.964,304.407,314.506,310.569,21.8555,20.6167,22.0878,15.017299999999999,314.999998,314.999998,324.999988,324.999988,99.55771428571428,99.50788333333334,99.57812857142856,99.55244285714285,0.18199999999999994,0.04974999999999996,-0.0026000000000000467,0.2247999999999999,-0.01833333333333087,-0.05666666666667197,1.649,1.6095,37.597,29.854,39.049,38.608000000000004,55.504999999999995,35.488,63.532,62.8045,53.466,34.5805,61.9445,59.0895,52.644999999999996,34.1065,61.8165,59.786,-0.125,-0.03299999999999992,0.10436500000000001,0.11294000000000001,0.0,210.95,211.01999999999998,208.04333333333335,208.04333333333335,0.0,0.0
14,0.0,0.0,0.0,1.0,1.0,0.0,0.0,1.0,0.0,100.0,1.0,1.1856,26.0,0.0,0.0,0.0,59.999996,0.0,26.0,26.0,26.0,26.0,0.09077777777777785,0.27690000000000015,-0.008475,292.038,-2.8033,-2.553714285714286,-1.6942,-1.442625,-229.07999999999998,216.025,190.704375,0.0,0.0,0.0,0.0,0.028699999999999948,-5.498166666666667,-5.498166666666667,-0.5213,-0.3015000000000001,0.10444444444444434,-0.29800000000000004,67.515,0.11370000000000001,-0.1962,-1.016,100.0,1.0,1.0,208.55333333333334,0.0,0.0,0.0,0.0,0.0,0.0,0.0,8839.8,0.0,55.0,5.0,243.02333333333334,0.0,0.0,0.0,0.0,0.0,0.0,1.0,0.0,0.7049999999999983,0.7049999999999983,0.0,0.0,0.0,55.0,616.79921,10000.0,85.000001,85.000001,85.000001,85.000001,395.0,0.0,0.0,0.0,1.0,333.33500000000004,52.658,52.658,46.661,46.661,34.0,-19.2825,29.126666666666665,-24.126666666666665,31.4,0.0,1781.942,-0.6400000000000006,100.0,27.045,28.292,43.016,42.106,0.0,0.0,100.0,0.0,0.0,0.0,0.0,2950.714285714286,3264.5,4134.25,4037.0,305.972,304.33666666666664,314.89275,311.15433333333334,21.8648,20.6224,22.0992,15.030100000000001,314.999998,314.999998,324.999988,324.999988,99.55774285714286,99.50788333333334,99.5783,99.55258571428571,0.17674999999999996,0.046250000000000124,0.0005999999999999339,0.2227999999999999,-0.04999999999999716,-0.030000000000001137,1.703,1.642,37.655,29.89,39.120000000000005,38.688,55.495999999999995,35.5275,63.5655,62.8935,53.458,34.6175,61.9755,59.1725,52.635,34.141999999999996,61.844,59.871,-0.1256666666666666,-0.028500000000000192,0.10017500000000001,0.10752,0.0,211.375,211.44,208.55333333333334,208.55333333333334,0.0,0.0
15,0.0,0.0,0.0,1.0,1.0,0.0,0.0,1.0,0.0,100.0,1.0,1.1856,26.0,0.0,0.0,0.0,59.999996,0.0,26.0,26.0,26.0,26.0,0.11677777777777787,0.27670000000000017,-0.04275,292.084,-2.7726,-2.5152857142857146,-1.6894,-1.385875,-225.82999999999998,216.005,190.684125,0.0,0.0,0.0,0.0,0.03056666666666652,-5.498166666666667,-5.498166666666667,-0.5156000000000001,0.352,0.13255555555555554,0.04899999999999993,67.645,0.1277,-0.18227500000000002,-1.1399999999999997,100.0,1.0,1.0,208.99333333333334,0.0,0.0,0.0,0.0,0.0,0.0,0.0,8858.4,0.0,55.0,5.0,243.49333333333334,1.0,0.0,0.0,0.0,0.0,0.0,1.0,0.0,0.7530000000000001,0.7530000000000001,0.0,0.0,1.0,55.0,616.79921,10000.0,85.000001,85.000001,85.000001,85.000001,395.0,0.0,0.0,0.0,1.0,166.665,52.78,52.78,46.86,46.86,34.0,-17.6425,28.833333333333336,-23.066666666666666,32.5275,0.0,1781.895,-0.6600000000000001,100.0,27.198,28.384,42.784,42.120000000000005,0.0,0.0,100.0,0.0,0.0,0.0,0.0,2810.4285714285716,3233.2,4076.875,4130.4,306.3155,304.42033333333336,315.037,310.9316666666667,21.8736,20.6279,22.1098,15.042,314.999998,314.999998,324.999988,324.999988,99.55775714285714,99.50788333333334,99.57844285714286,99.55274285714286,0.1865000000000001,0.054750000000000076,0.012399999999999967,0.24640000000000017,-0.054999999999999716,-0.05333333333332746,1.6995,1.6604999999999999,37.71,29.924,39.186,38.762,55.489000000000004,35.566,63.5955,62.976,53.45,34.653,62.003,59.249,52.626000000000005,34.1765,61.868,59.949,-0.1233333333333333,-0.02950000000000008,0.10589000000000001,0.11652000000000001,0.0,211.81,211.87,208.99333333333334,208.99333333333334,0.0,0.0
16,0.0,0.0,0.0,1.0,1.0,0.0,0.0,1.0,0.0,100.0,1.0,1.1856,26.0,0.0,0.0,0.0,59.999996,0.0,26.0,26.0,26.0,26.0,0.1246666666666667,0.274,0.00245,292.084,-2.8697,-2.5465714285714287,-1.6657000000000002,-1.3810000000000002,-222.38,215.9875,190.662,0.0,0.0,0.0,0.0,0.03256666666666652,-5.498166666666667,-5.498166666666667,-0.5314,-0.8435000000000001,0.12777777777777777,0.03500000000000014,67.785,0.14100000000000001,-0.18975,-1.2860000000000005,100.0,1.0,1.0,209.35333333333335,0.0,0.0,0.0,0.0,0.0,0.0,0.0,8873.7,0.0,55.0,5.0,244.0,0.0,0.0,0.0,0.0,0.0,0.0,1.0,0.0,0.8039999999999985,0.8039999999999985,0.0,0.0,0.0,55.0,616.79921,10000.0,85.000001,85.000001,85.000001,85.000001,395.0,0.0,0.0,0.0,1.0,333.33500000000004,52.841,52.841,46.31,46.31,34.0,-17.55,31.276666666666667,-21.14,32.745000000000005,0.0,1781.843,-0.5749999999999993,100.0,26.913,28.341,43.124,42.249,0.0,0.0,100.0,0.0,0.0,0.0,0.0,2771.285714285714,3387.5,4048.875,4068.0,306.505,304.123,315.0305,311.15366666666665,21.8825,20.6337,22.121299999999998,15.0547,314.999998,314.999998,324.999988,324.999988,99.55778571428571,99.5079,99.5786,99.5529,0.20050000000000012,0.07275000000000009,0.04159999999999986,0.2624000000000002,-0.046666666666666856,-0.05333333333332746,1.695,1.636,37.766,29.96066666666667,39.257999999999996,38.842,55.476,35.6075,63.6305,63.064499999999995,53.438,34.6915,62.035,59.332,52.611999999999995,34.213499999999996,61.897,60.033500000000004,-0.11733333333333329,-0.028000000000000025,0.10904000000000001,0.10500500000000001,0.0,212.185,212.28,209.35333333333335,209.35333333333335,0.0,0.0
17,0.0,0.0,0.0,1.0,1.0,0.0,0.0,1.0,0.0,100.0,1.0,1.1856,26.0,0.0,0.0,0.0,59.999996,0.0,26.0,26.0,26.0,26.0,0.13022222222222224,0.28980000000000006,-0.011600000000000001,291.779,-2.8239,-2.5054285714285713,-1.6978,-1.4108749999999999,-218.92000000000002,215.9725,190.639375,0.0,0.0,0.0,0.0,0.034599999999999964,-5.498166666666667,-5.498166666666667,-0.5273,0.519,0.09677777777777785,-0.6499999999999999,67.923,0.149,-0.178725,-1.1639999999999997,100.0,1.0,1.0,209.80333333333334,0.0,0.0,0.0,0.0,0.0,0.0,0.0,8892.7,0.0,55.0,5.0,244.49333333333334,1.0,0.0,0.0,0.0,0.0,0.0,1.0,0.0,0.8550000000000004,0.8550000000000004,0.0,0.0,1.0,55.0,616.79921,10000.0,85.000001,85.000001,85.000001,85.000001,395.0,0.0,0.0,0.0,1.0,333.33500000000004,52.414,52.414,46.555,46.555,34.0,-18.9275,28.795,-23.006666666666668,32.995000000000005,0.0,1781.791,-0.5749999999999993,100.0,27.328,28.842,42.837,42.293,0.0,0.0,100.0,0.0,0.0,0.0,0.0,3006.857142857143,3166.4,4290.875,4053.9,305.8545,304.67833333333334,314.593,311.221,21.8919,20.6396,22.1326,15.0673,314.999998,314.999998,324.999988,324.999988,99.55781428571429,99.50791666666667,99.57877142857143,99.55305714285714,0.19874999999999998,0.07400000000000007,0.041200000000000125,0.2630000000000001,-0.046666666666666856,-0.06333333333333258,1.702,1.6395,37.824,29.997666666666667,39.328,38.921,55.469,35.650999999999996,63.662,63.150999999999996,53.431,34.732,62.064,59.412,52.605000000000004,34.2525,61.9225,60.116,-0.1206666666666667,-0.027000000000000135,0.09895000000000001,0.11182500000000001,0.0,212.655,212.745,209.80333333333334,209.80333333333334,0.0,0.0
18,0.0,0.0,0.0,1.0,1.0,0.0,0.0,1.0,0.0,100.0,1.0,1.1856,26.0,0.0,0.0,0.0,59.999996,0.0,26.0,26.0,26.0,26.0,0.12888888888888883,0.27459999999999996,-0.0611,291.687,-2.8648,-2.467714285714286,-1.7252,-1.3472499999999998,-215.66,215.96,190.61825,0.0,0.0,0.0,0.0,0.03649999999999998,-5.498166666666667,-5.498166666666667,-0.5303,-0.5295000000000001,0.13144444444444425,-0.07099999999999995,68.053,0.15130000000000002,-0.18825,-1.21,100.0,1.0,1.0,210.16,0.0,0.0,0.0,0.0,0.0,0.0,0.0,8907.9,0.0,55.0,5.0,244.96333333333334,0.0,0.0,0.0,0.0,0.0,0.0,1.0,0.0,0.9029999999999987,0.9029999999999987,0.0,0.0,0.0,55.0,616.79921,10000.0,85.000001,85.000001,85.000001,85.000001,395.0,0.0,0.0,0.0,1.0,333.33500000000004,52.49,52.49,46.143,46.143,34.0,-18.02,30.608333333333334,-23.106666666666666,32.144999999999996,0.0,1781.744,-0.8599999999999994,100.0,27.117,28.71,43.230000000000004,42.683,0.0,0.0,100.0,0.0,0.0,0.0,0.0,2892.142857142857,3345.2,4141.75,4109.8,306.2435,304.197,314.9065,311.00033333333334,21.9005,20.6451,22.1434,15.0795,314.999998,314.999998,324.999988,324.999988,99.55782857142857,99.50791666666667,99.57891428571429,99.5532,0.2077500000000001,0.0827500000000001,0.02959999999999985,0.2524000000000002,-0.046666666666666856,-0.045000000000001705,1.697,1.6635,37.878,30.032,39.396,38.997,55.461,35.6905,63.695,63.2365,53.423,34.7685,62.0945,59.492,52.595,34.2875,61.9495,60.1975,-0.133,-0.018000000000000238,0.11016500000000001,0.10375000000000001,0.0,213.035,213.11,210.16,210.16,0.0,0.0
19,0.0,0.0,0.0,1.0,1.0,0.0,0.0,1.0,0.0,100.0,1.0,1.1856,26.0,0.0,0.0,0.0,59.999996,0.0,26.0,26.0,26.0,26.0,0.14444444444444438,0.2904,0.01955,291.306,-2.8269,-2.470142857142857,-1.7325,-1.3373750000000002,-212.18,215.9525,190.59575,0.0,0.0,0.0,0.0,0.03849999999999998,-5.498166666666667,-5.498166666666667,-0.5272,0.7785,0.1359999999999999,0.7469999999999999,68.188,0.1598,-0.1842,-1.6159999999999997,100.0,1.0,1.0,210.62,0.0,0.0,0.0,0.0,0.0,0.0,0.0,8927.4,0.0,55.0,5.0,245.45,1.0,0.0,0.0,0.0,0.0,0.0,1.0,0.0,0.9540000000000006,0.9540000000000006,0.0,0.0,1.0,55.0,616.79921,10000.0,85.000001,85.000001,85.000001,85.000001,395.0,0.0,0.0,0.0,1.0,333.33500000000004,51.697,51.697,46.28,46.28,34.0,-16.877499999999998,33.413333333333334,-22.576666666666668,33.8825,0.0,1781.692,-1.1050000000000004,100.0,27.678,28.962,42.938,42.582,0.0,0.0,100.0,0.0,0.0,0.0,0.0,2949.142857142857,3507.6,4202.75,4208.3,305.7925,303.73,314.77475,310.86833333333334,21.9098,20.6512,22.1546,15.0922,314.999998,314.999998,324.999988,324.999988,99.55785714285715,99.50793333333333,99.57907142857142,99.55337142857142,0.24275000000000002,0.10699999999999998,0.04820000000000002,0.27500000000000013,-0.036666666666668846,-0.07333333333333059,1.7069999999999999,1.66,37.936,30.07,39.466,39.077,55.456,35.737,63.7255,63.325,53.418,34.8115,62.123,59.575,52.589,34.329,61.9745,60.282,-0.15599999999999992,0.0015000000000000568,0.11837,0.10757000000000001,0.0,213.465,213.60000000000002,210.62,210.62,0.0,0.0
20,0.0,0.0,0.0,1.0,1.0,0.0,0.0,1.0,0.0,100.0,1.0,1.1856,26.0,0.0,0.0,0.0,59.999996,0.0,26.0,26.0,26.0,26.0,0.1988888888888889,0.2772000000000001,-0.06865,291.504,-2.8922,-2.5141428571428572,-1.6743999999999999,-1.3293750000000002,-208.7,215.95,190.5735,0.0,0.0,0.0,0.0,0.04053333333333331,-5.498166666666667,-5.498166666666667,-0.5238,-0.964,0.15277777777777768,-0.28400000000000003,68.328,0.17650000000000002,-0.18575,-2.05,100.0,1.0,1.0,210.87666666666667,0.0,0.0,0.0,0.0,0.0,0.0,0.0,8938.2,0.0,55.0,5.0,245.95333333333335,0.0,0.0,0.0,0.0,0.0,0.0,0.0,0.0,1.004999999999999,1.004999999999999,0.0,0.0,0.0,55.0,616.79921,10000.0,85.000001,85.000001,85.000001,85.000001,395.0,0.0,0.0,0.0,1.0,333.33500000000004,52.948,52.948,45.288,45.288,34.0,-14.259999999999998,32.29,-21.196666666666665,36.260000000000005,0.0,1781.641,-1.2399999999999984,100.0,26.987,28.918,43.38,43.056,0.0,0.0,100.0,0.0,0.0,0.0,0.0,2631.857142857143,3266.7,4278.0,4296.4,306.976,304.3333333333333,314.497,310.36033333333336,21.9187,20.6571,22.1662,15.1052,314.999998,314.999998,324.999988,324.999988,99.55788571428572,99.50795,99.57922857142857,99.55352857142857,0.2650000000000001,0.12949999999999995,0.07240000000000002,0.2944000000000002,-0.03833333333332689,-0.036666666666668846,1.646,1.575,37.992000000000004,30.106666666666666,39.539,39.158,55.447,35.7825,63.762,63.417500000000004,53.409,34.8535,62.157,59.661,52.579,34.37,62.0045,60.3755,-0.17799999999999994,0.027499999999999858,0.112725,0.10035500000000001,0.0,213.835,213.985,210.87666666666667,210.87666666666667,0.0,0.0
21,0.0,0.0,0.0,1.0,1.0,0.0,0.0,1.0,0.0,100.0,1.0,1.1856,26.0,0.0,0.0,0.0,59.999996,0.0,26.0,26.0,26.0,26.0,0.21244444444444444,0.258,-0.07577500000000001,291.824,-2.8085,-2.564142857142857,-1.7356,-1.405875,-205.42000000000002,215.95,190.55175,0.0,0.0,0.0,0.0,0.04243333333333332,-5.498166666666667,-5.498166666666667,-0.5564,0.30699999999999994,0.1319999999999999,-1.388,68.45,0.1993,-0.201375,-1.9160000000000004,100.0,1.0,1.0,211.54666666666668,0.0,0.0,0.0,0.0,0.0,0.0,0.0,8966.7,0.0,55.0,5.0,246.39333333333335,1.0,0.0,0.0,0.0,0.0,0.0,0.0,0.0,1.0530000000000008,1.0530000000000008,0.0,0.0,1.0,55.0,616.79921,10000.0,85.000001,85.000001,85.000001,85.000001,395.0,0.0,0.0,0.0,1.0,333.33500000000004,52.063,52.063,46.997,46.997,34.0,-17.662499999999998,31.34,-18.586666666666666,34.120000000000005,0.0,1781.593,-0.120000000000001,100.0,27.217,29.174,42.682,42.876,0.0,0.0,100.0,0.0,0.0,0.0,0.0,2958.4285714285716,3323.4,3987.25,3926.7,305.932,304.06666666666666,315.35275,311.645,21.9272,20.6628,22.1766,15.1172,314.999998,314.999998,324.999988,324.999988,99.5579,99.50796666666666,99.57938571428572,99.55367142857143,0.21875,0.07750000000000012,0.09559999999999991,0.3208,-0.05333333333332746,-0.03999999999999915,1.7650000000000001,1.7045,38.045,30.142666666666663,39.604,39.232,55.441,35.826499999999996,63.7885,63.499,53.403,34.894999999999996,62.1805,59.7365,52.571,34.4095,62.025,60.448,-0.10333333333333328,-0.05500000000000016,0.11200500000000001,0.106315,0.0,214.25,214.38,211.54666666666668,211.54666666666668,0.0,0.0
22,0.0,0.0,0.0,1.0,1.0,0.0,0.0,1.0,0.0,100.0,1.0,1.1856,26.0,0.0,0.0,0.0,59.999996,0.0,26.0,26.0,26.0,26.0,0.14444444444444438,0.26870000000000016,0.02155,291.321,-2.7913,-2.568714285714286,-1.7233,-1.40125,-201.72,215.95499999999998,190.526625,0.0,0.0,0.0,0.0,0.04459999999999997,-5.498166666666667,-5.498166666666667,-0.5313,0.249,0.1319999999999999,-0.44799999999999995,68.596,0.19690000000000002,-0.17552500000000001,-0.5879999999999992,100.0,1.0,1.0,211.76333333333332,0.0,0.0,0.0,0.0,0.0,0.0,0.0,8975.8,0.0,55.0,5.0,246.92000000000002,0.0,0.0,0.0,0.0,0.0,0.0,0.0,0.0,1.1069999999999993,1.1069999999999993,0.0,0.0,0.0,55.0,616.79921,10000.0,85.000001,85.000001,85.000001,85.000001,395.0,0.0,0.0,0.0,1.0,166.665,52.307,52.307,45.653999999999996,45.653999999999996,34.0,-19.215,27.825,-23.113333333333333,35.650000000000006,0.0,1781.542,0.75,100.0,27.346,29.183,43.139,42.971000000000004,0.0,0.0,100.0,0.0,0.0,0.0,0.0,2811.857142857143,3246.5,4312.375,4216.6,306.3345,304.273,314.52475,310.70933333333335,21.936799999999998,20.6692,22.1887,15.1308,314.999998,314.999998,324.999988,324.999988,99.55792857142858,99.50796666666666,99.57955714285714,99.55384285714285,0.15149999999999997,0.012250000000000094,0.054200000000000026,0.28259999999999996,-0.04999999999999716,-0.046666666666666856,1.631,1.603,38.105000000000004,30.182333333333332,39.68,39.317,55.431,35.871,63.826,63.5935,53.393,34.936,62.2155,59.825,52.56,34.449,62.056,60.538,-0.014666666666666606,-0.1379999999999999,0.11293500000000001,0.10469500000000001,0.0,214.765,214.805,211.76333333333332,211.76333333333332,0.0,0.0
23,0.0,0.0,0.0,1.0,1.0,0.0,0.0,1.0,0.0,100.0,1.0,1.1856,26.0,0.0,0.0,0.0,59.999996,0.0,26.0,26.0,26.0,26.0,0.08400000000000007,0.2530000000000001,-0.019225000000000003,291.245,-2.8048,-2.5365714285714285,-1.6347,-1.485875,-198.42000000000002,215.965,190.5045,0.0,0.0,0.0,0.0,0.046499999999999986,-5.498166666666667,-5.498166666666667,-0.5471,-0.395,0.10822222222222222,-1.522,68.72200000000001,0.1549,-0.19985,0.5079999999999991,100.0,1.0,1.0,212.20666666666668,0.0,0.0,0.0,0.0,0.0,0.0,0.0,8994.6,0.0,55.0,5.0,247.37666666666667,1.0,0.0,0.0,0.0,0.0,0.0,0.0,0.0,1.1550000000000011,1.1550000000000011,0.0,0.0,1.0,55.0,616.79921,10000.0,85.000001,85.000001,85.000001,85.000001,395.0,0.0,0.0,0.0,1.0,166.665,51.758,51.758,46.402,46.402,34.0,-23.6225,25.923333333333332,-23.113333333333333,32.2175,0.0,1781.494,1.1900000000000013,100.0,27.562,29.085,43.502,43.179,0.0,0.0,100.0,0.0,0.0,0.0,0.0,3173.714285714286,3247.2,4112.875,3972.6000000000004,305.393,304.3573333333333,314.91525,311.314,21.9454,20.6748,22.1995,15.142900000000001,314.999998,314.999998,324.999988,324.999988,99.55794285714286,99.50796666666666,99.57971428571429,99.554,0.11775000000000002,-0.02200000000000002,0.007600000000000051,0.2390000000000001,-0.05666666666667197,-0.05833333333333002,1.6395,1.6624999999999999,38.158,30.217666666666666,39.747,39.393,55.42,35.908500000000004,63.8575,63.679,53.382,34.971000000000004,62.2445,59.9045,52.547,34.4825,62.0815,60.619,0.012333333333333307,-0.1745000000000001,0.10534,0.11030000000000001,0.0,215.175,215.135,212.20666666666668,212.20666666666668,0.0,0.0
24,0.0,0.0,0.0,1.0,1.0,0.0,0.0,1.0,0.0,100.0,1.0,1.1856,26.0,0.0,0.0,0.0,59.999996,0.0,26.0,26.0,26.0,26.0,-0.011222222222222134,0.2742,0.013800000000000002,291.611,-2.7706,-2.604571428571429,-1.6408,-1.46075,-195.12,215.975,190.482125,0.0,0.0,0.0,0.0,0.04843333333333333,-5.498166666666667,-5.498166666666667,-0.5534,-0.43599999999999994,0.0794444444444442,-0.619,68.849,0.0936,-0.188725,1.1839999999999993,100.0,1.0,1.0,212.56,0.0,0.0,0.0,0.0,0.0,0.0,0.0,9009.6,0.0,55.0,5.0,247.82999999999998,0.0,0.0,0.0,0.0,0.0,0.0,0.0,0.0,1.2029999999999994,1.2029999999999994,0.0,0.0,0.0,55.0,616.79921,10000.0,85.000001,85.000001,85.000001,85.000001,395.0,0.0,0.0,0.0,1.0,166.665,52.856,52.856,45.715,45.715,34.0,-22.4775,22.56833333333333,-29.74666666666667,27.8625,0.0,1781.446,1.1350000000000016,100.0,27.57,28.624,43.668,42.772999999999996,0.0,0.0,100.0,0.0,0.0,0.0,0.0,2881.5714285714284,3005.3,4475.75,3946.5,306.1655,305.175,314.08225,311.5946666666667,21.954,20.6802,22.2102,15.1548,314.999998,314.999998,324.999988,324.999988,99.55795714285715,99.50798333333333,99.57985714285714,99.55415714285714,0.07800000000000007,-0.06325000000000003,-0.06220000000000003,0.16420000000000012,-0.030000000000001137,-0.04999999999999716,1.6245,1.668,38.212,30.251666666666665,39.814,39.468,55.407,35.944,63.8885,63.7575,53.370000000000005,35.004,62.2735,59.9775,52.534,34.5145,62.107,60.6935,0.022333333333333094,-0.1795,0.10570500000000001,0.108465,0.0,215.57999999999998,215.485,212.56,212.56,0.0,0.0
25,0.0,0.0,0.0,1.0,1.0,0.0,0.0,1.0,0.0,100.0,1.0,1.1856,26.0,0.0,0.0,0.0,59.999996,0.0,26.0,26.0,26.0,26.0,-0.07011111111111101,0.26560000000000006,-0.075925,291.718,-2.7387,-2.623,-1.6362,-1.485125,-191.61,215.985,190.457,0.0,0.0,0.0,0.0,0.05046666666666655,-5.498166666666667,-5.498166666666667,-0.5886,-0.13200000000000012,0.06166666666666676,-0.544,68.98,0.028800000000000003,-0.19842500000000002,1.3900000000000006,100.0,1.0,1.0,213.13,0.0,0.0,0.0,0.0,0.0,0.0,0.0,9033.8,0.0,55.0,5.0,248.30333333333334,1.0,0.0,0.0,0.0,0.0,0.0,0.0,0.0,1.2540000000000013,1.2540000000000013,0.0,0.0,1.0,55.0,616.79921,10000.0,85.000001,85.000001,85.000001,85.000001,395.0,0.0,0.0,0.0,1.0,333.33500000000004,52.063,52.063,46.6,46.6,34.0,-24.74,24.549999999999997,-28.583333333333332,25.105,0.0,1781.393,1.0300000000000011,100.0,27.768,28.451999999999998,43.747,42.182,0.0,0.0,100.0,0.0,0.0,0.0,0.0,3017.5714285714284,3347.2,4037.375,3870.5,305.6385,304.2366666666667,315.14075,311.93533333333335,21.9631,20.686,22.2215,15.1674,314.999998,314.999998,324.999988,324.999988,99.55797142857143,99.508,99.58001428571428,99.5543,0.05025000000000013,-0.08574999999999999,-0.1157999999999999,0.12020000000000008,-0.054999999999999716,-0.04999999999999716,1.686,1.7515,38.269,30.287666666666667,39.885,39.546,55.391,35.984,63.9195,63.837,53.355000000000004,35.041,62.302,60.052,52.518,34.5505,62.132,60.7695,0.0040000000000000036,-0.16900000000000004,0.11216500000000001,0.10662500000000001,0.0,216.005,215.875,213.13,213.13,0.0,0.0
26,0.0,0.0,0.0,1.0,1.0,0.0,0.0,1.0,0.0,100.0,1.0,1.1856,26.0,0.0,0.0,0.0,59.999996,0.0,26.0,26.0,26.0,26.0,-0.11299999999999999,0.2822,0.05525,290.466,-2.7321999999999997,-2.698142857142857,-1.6457000000000002,-1.51275,-188.07999999999998,215.995,190.431,0.0,0.0,0.0,0.0,0.05253333333333332,-5.498166666666667,-5.498166666666667,-0.5443,0.9305,0.0005555555555556424,-1.292,69.116,-0.0146,-0.163,1.5,100.0,1.0,1.0,213.28,0.0,0.0,0.0,0.0,0.0,0.0,0.0,9040.1,0.0,55.0,5.0,248.79000000000002,0.0,0.0,0.0,0.0,0.0,0.0,0.0,0.0,1.3049999999999997,1.3049999999999997,0.0,0.0,0.0,55.0,616.79921,10000.0,85.000001,85.000001,85.000001,85.000001,395.0,0.0,0.0,0.0,1.0,333.33500000000004,51.346000000000004,51.346000000000004,44.907,44.907,34.0,-27.82,21.65,-37.736666666666665,25.58,0.0,1781.341,0.8350000000000009,100.0,28.721,28.972,44.427,42.186,0.0,0.0,100.0,0.0,0.0,0.0,0.0,3251.142857142857,3092.2,4753.5,4173.3,305.064,304.7463333333333,313.533,310.90866666666665,21.9726,20.6919,22.2331,15.1801,314.999998,314.999998,324.999988,324.999988,99.55797142857143,99.50801666666666,99.5802,99.55447142857143,0.026499999999999968,-0.126,-0.15359999999999996,0.06740000000000013,-0.051666666666669414,-0.04333333333332945,1.5670000000000002,1.625,38.329,30.324666666666666,39.957,39.625,55.379000000000005,36.0305,63.9595,63.925,53.343,35.084,62.339,60.1335,52.504999999999995,34.591499999999996,62.1655,60.852000000000004,-0.014000000000000012,-0.15549999999999997,0.10804000000000001,0.10666500000000001,0.0,216.465,216.345,213.28,213.28,0.0,0.0
27,0.0,0.0,0.0,1.0,1.0,0.0,0.0,1.0,0.0,100.0,1.0,1.1856,26.0,0.0,0.0,0.0,59.999996,0.0,26.0,26.0,26.0,26.0,-0.12422222222222212,0.2532000000000001,0.004375,290.802,-2.6849,-2.680285714285714,-1.6301999999999999,-1.5931250000000001,-184.56,216.0,190.406375,0.0,0.0,0.0,0.0,0.05456666666666654,-5.498166666666667,-5.498166666666667,-0.5700000000000001,-1.1800000000000002,-0.005111111111111288,0.5859999999999999,69.249,-0.0334,-0.2116,1.1980000000000004,100.0,1.0,1.0,213.73333333333335,0.0,0.0,0.0,0.0,0.0,0.0,0.0,9059.3,0.0,55.0,5.0,249.26999999999998,1.0,0.0,0.0,0.0,0.0,0.0,0.0,0.0,1.355999999999998,1.355999999999998,0.0,0.0,1.0,55.0,616.79921,10000.0,85.000001,85.000001,85.000001,85.000001,395.0,0.0,0.0,0.0,1.0,166.665,51.772999999999996,51.772999999999996,45.197,45.197,34.0,-26.2725,22.028333333333332,-33.82333333333333,24.9925,0.0,1781.292,0.7650000000000006,100.0,28.668,28.442,45.423,42.565,0.0,0.0,100.0,0.0,0.0,0.0,0.0,3072.142857142857,3213.0,4293.5,3990.5,305.4245,304.7083333333333,314.44175,311.3906666666667,21.9819,20.6976,22.244799999999998,15.193,314.999998,314.999998,324.999988,324.999988,99.55797142857143,99.50803333333333,99.58035714285714,99.55461428571428,0.016750000000000043,-0.12749999999999995,-0.16400000000000003,0.06000000000000005,-0.04333333333332945,-0.023333333333326323,1.597,1.6425,38.387,30.360333333333333,40.03,39.706,55.364000000000004,36.0695,63.996,64.0055,53.328,35.1205,62.3735,60.208,52.489999999999995,34.6265,62.1965,60.928,-0.01966666666666672,-0.14800000000000013,0.11568500000000001,0.10149000000000001,0.0,216.8,216.685,213.73333333333335,213.73333333333335,0.0,0.0
28,0.0,0.0,0.0,1.0,1.0,0.0,0.0,1.0,0.0,100.0,1.0,1.1856,26.0,0.0,0.0,0.0,59.999996,0.0,26.0,26.0,26.0,26.0,-0.13955555555555554,0.26880000000000015,-0.07915,291.275,-2.6926,-2.6834285714285713,-1.5624,-1.57275,-181.23000000000002,216.0025,190.38275,0.0,0.0,0.0,0.0,0.056499999999999995,-5.498166666666667,-5.498166666666667,-0.5831000000000001,0.5315,-0.027666666666666728,0.512,69.369,-0.0434,-0.198575,1.202,100.0,1.0,1.0,214.29000000000002,0.0,0.0,0.0,0.0,0.0,0.0,0.0,9083.0,0.0,55.0,5.0,249.70333333333335,0.0,0.0,0.0,0.0,0.0,0.0,0.0,0.0,1.404,1.404,0.0,0.0,0.0,55.0,616.79921,10000.0,85.000001,85.000001,85.000001,85.000001,395.0,0.0,0.0,0.0,1.0,333.33500000000004,51.758,51.758,46.417,46.417,34.0,-27.299999999999997,21.28666666666667,-31.546666666666667,23.045,0.0,1781.243,0.6600000000000001,100.0,28.903,28.359,44.766999999999996,41.981,0.0,0.0,100.0,0.0,0.0,0.0,0.0,3182.857142857143,3110.7,4172.0,3853.4,305.125,305.0056666666667,314.79775,312.0346666666667,21.9908,20.703,22.2554,15.204699999999999,314.999998,314.999998,324.999988,324.999988,99.55798571428572,99.50803333333333,99.58051428571429,99.55475714285714,0.019000000000000128,-0.12724999999999997,-0.17020000000000002,0.05499999999999994,-0.04833333333333201,-0.05666666666667197,1.6855,1.734,38.442,30.394,40.096000000000004,39.778999999999996,55.351,36.11,64.0255,64.077,53.316,35.1575,62.4005,60.2745,52.477000000000004,34.662,62.2205,60.995,-0.02833333333333332,-0.13750000000000018,0.10620500000000001,0.10647500000000001,0.0,217.22500000000002,217.12,214.29000000000002,214.29000000000002,0.0,0.0
29,0.0,0.0,0.0,1.0,1.0,0.0,0.0,1.0,0.0,100.0,1.0,1.1856,26.0,0.0,0.0,0.0,59.999996,0.0,26.0,26.0,26.0,26.0,-0.13522222222222213,0.25140000000000007,0.032425,290.741,-2.6466,-2.6304285714285713,-1.6138,-1.540375,-177.69,216.0025,190.35625,0.0,0.0,0.0,0.0,0.058566666666666545,-5.498166666666667,-5.498166666666667,-0.5791000000000001,-0.5845,-0.016777777777778002,-0.32299999999999995,69.504,-0.0442,-0.17900000000000002,1.0039999999999996,100.0,1.0,1.0,214.4766666666667,0.0,0.0,0.0,0.0,0.0,0.0,0.0,9090.9,0.0,55.0,5.0,250.18666666666667,1.0,0.0,0.0,0.0,0.0,0.0,0.0,0.0,1.4549999999999983,1.4549999999999983,0.0,0.0,1.0,55.0,616.79921,10000.0,85.000001,85.000001,85.000001,85.000001,395.0,0.0,0.0,0.0,1.0,166.665,51.743,51.743,45.074,45.074,34.0,-27.447499999999998,21.88,-35.81333333333333,24.415,0.0,1781.193,0.4350000000000023,100.0,28.429,28.286,45.074,42.125,0.0,0.0,100.0,0.0,0.0,0.0,0.0,3240.857142857143,3219.1,4490.5,4073.9,305.119,304.6,314.04675,311.162,21.9999,20.7086,22.2669,15.2175,314.999998,314.999998,324.999988,324.999988,99.55798571428572,99.50805,99.58068571428572,99.55491428571429,0.014000000000000012,-0.12349999999999994,-0.1714,0.04920000000000013,-0.04333333333332945,-0.04333333333332945,1.588,1.613,38.5,30.429000000000002,40.168,39.858999999999995,55.334,36.1505,64.0635,64.1585,53.3,35.195,62.4365,60.3505,52.461,34.698,62.2525,61.0715,-0.040000000000000036,-0.11850000000000005,0.102925,0.10926500000000001,0.0,217.595,217.505,214.4766666666667,214.4766666666667,0.0,0.0
30,0.0,0.0,0.0,1.0,1.0,0.0,0.0,1.0,0.0,100.0,1.0,1.1856,26.0,0.0,0.0,0.0,59.999996,0.0,26.0,26.0,26.0,26.0,-0.12188888888888894,0.2692000000000001,0.047075,290.222,-2.7052,-2.6127142857142855,-1.5466,-1.6176249999999999,-174.35,215.9975,190.331125,0.0,0.0,0.0,0.0,0.0605,-5.498166666666667,-5.498166666666667,-0.5807,0.685,-0.02066666666666661,-0.958,69.625,-0.0357,-0.189475,0.8339999999999996,100.0,1.0,1.0,214.9,0.0,0.0,0.0,0.0,0.0,0.0,0.0,9108.8,0.0,55.0,5.0,250.62333333333333,0.0,0.0,0.0,0.0,0.0,0.0,1.0,0.0,1.5030000000000001,1.5030000000000001,0.0,0.0,0.0,55.0,616.79921,10000.0,85.000001,85.000001,85.000001,85.000001,395.0,0.0,0.0,0.0,1.0,333.33500000000004,50.766,50.766,45.394999999999996,45.394999999999996,34.0,-29.4,21.66166666666667,-33.84,26.4,0.0,1781.144,0.33000000000000185,100.0,29.197,29.109,45.007,42.282,0.0,0.0,100.0,0.0,0.0,0.0,0.0,3441.0,3125.0,4486.875,4090.6000000000004,304.4995,304.7006666666667,314.11425,311.00266666666664,22.0089,20.714199999999998,22.2777,15.2295,314.999998,314.999998,324.999988,324.999988,99.55798571428572,99.50806666666666,99.58084285714285,99.55505714285714,0.02825000000000011,-0.11249999999999993,-0.15659999999999996,0.06340000000000012,-0.05333333333332746,-0.04833333333333201,1.5979999999999999,1.6275,38.556,30.464,40.235,39.934,55.324,36.192499999999995,64.095,64.2355,53.29,35.2335,62.4655,60.422,52.449,34.735,62.2785,61.144,-0.05499999999999994,-0.10950000000000015,0.101375,0.10951500000000002,0.0,218.005,217.92000000000002,214.9,214.9,0.0,0.0
31,0.0,0.0,0.0,1.0,1.0,0.0,0.0,1.0,0.0,100.0,1.0,1.1856,26.0,0.0,0.0,0.0,59.999996,0.0,26.0,26.0,26.0,26.0,-0.10544444444444445,0.2673000000000001,0.013025,290.268,-2.701,-2.6894285714285715,-1.6351,-1.58575,-170.79,215.9925,190.305375,0.0,0.0,0.0,0.0,0.06256666666666655,-5.498166666666667,-5.498166666666667,-0.5638000000000001,-0.5369999999999999,-0.0030000000000001137,0.9870000000000001,69.757,-0.0184,-0.18895,0.347999999999999,100.0,1.0,1.0,215.18333333333334,0.0,0.0,0.0,0.0,0.0,0.0,0.0,9120.8,0.0,55.0,5.0,251.09666666666666,1.0,0.0,0.0,0.0,0.0,0.0,1.0,0.0,1.5539999999999985,1.5539999999999985,0.0,0.0,1.0,55.0,616.79921,10000.0,85.000001,85.000001,85.000001,85.000001,395.0,0.0,0.0,0.0,1.0,166.665,51.528999999999996,51.528999999999996,44.022,44.022,34.0,-23.6475,22.998333333333335,-34.71,27.96,0.0,1781.094,0.27500000000000213,100.0,29.062,29.011,45.63,42.685,0.0,0.0,100.0,0.0,0.0,0.0,0.0,2949.4285714285716,3205.1,4566.5,4188.4,305.821,304.647,313.8175,310.99333333333334,22.0182,20.7201,22.2894,15.2425,314.999998,314.999998,324.999988,324.999988,99.558,99.50808333333333,99.58101428571429,99.55522857142857,0.05499999999999994,-0.10899999999999999,-0.12979999999999992,0.0895999999999999,-0.045000000000001705,-0.03833333333332689,1.5705,1.584,38.614000000000004,30.500666666666667,40.308,40.015,55.31,36.2345,64.134,64.3205,53.277,35.272999999999996,62.501999999999995,60.5005,52.435,34.7725,62.3115,61.224000000000004,-0.06233333333333313,-0.11299999999999999,0.10534,0.10006500000000002,0.0,218.37,218.32999999999998,215.18333333333334,215.18333333333334,0.0,0.0
32,0.0,0.0,0.0,1.0,1.0,0.0,0.0,1.0,0.0,100.0,1.0,1.1856,26.0,0.0,0.0,0.0,59.999996,0.0,26.0,26.0,26.0,26.0,-0.07388888888888889,0.2671000000000001,-0.08135,290.726,-2.7293,-2.6272857142857142,-1.6640000000000001,-1.49375,-167.23000000000002,215.98250000000002,190.279875,0.0,0.0,0.0,0.0,0.06463333333333332,-5.498166666666667,-5.498166666666667,-0.5881000000000001,0.025000000000000022,-0.028666666666666618,-1.294,69.882,-0.0013000000000000002,-0.20677500000000001,0.4559999999999995,100.0,1.0,1.0,215.79000000000002,0.0,0.0,0.0,0.0,0.0,0.0,0.0,9146.6,0.0,55.0,5.0,251.55,0.0,0.0,0.0,0.0,0.0,0.0,1.0,0.0,1.6050000000000004,1.6050000000000004,0.0,0.0,0.0,55.0,616.79921,10000.0,85.000001,85.000001,85.000001,85.000001,395.0,0.0,0.0,0.0,1.0,166.665,51.224000000000004,51.224000000000004,45.609,45.609,34.0,-26.7875,22.583333333333332,-31.456666666666663,24.942500000000003,0.0,1781.044,0.2699999999999996,100.0,28.843,29.18,45.033,42.649,0.0,0.0,100.0,0.0,0.0,0.0,0.0,3286.0,3134.3,4287.375,3938.9,305.034,304.7456666666667,314.6745,311.82033333333334,22.0275,20.7261,22.3007,15.2553,314.999998,314.999998,324.999988,324.999988,99.558,99.5081,99.58117142857142,99.55538571428572,0.055749999999999966,-0.09475,-0.124,0.10120000000000018,-0.05833333333333002,-0.05666666666667197,1.6785,1.707,38.672,30.538,40.379999999999995,40.095,55.296,36.277,64.166,64.4,53.263999999999996,35.312,62.532,60.5745,52.421,34.81,62.338,61.299,-0.057666666666666755,-0.10850000000000026,0.10843000000000001,0.10962000000000001,0.0,218.76999999999998,218.71,215.79000000000002,215.79000000000002,0.0,0.0
33,0.0,0.0,0.0,1.0,1.0,0.0,0.0,1.0,0.0,100.0,1.0,1.1856,26.0,0.0,0.0,0.0,59.999996,0.0,26.0,26.0,26.0,26.0,-0.06744444444444442,0.26470000000000016,-0.0213,290.756,-2.7171,-2.668142857142857,-1.6200999999999999,-1.51425,-163.88,215.9725,190.254875,0.0,0.0,0.0,0.0,0.06659999999999999,-5.498166666666667,-5.498166666666667,-0.5877,-0.19700000000000006,-0.02566666666666695,0.31099999999999994,70.005,0.0085,-0.18530000000000002,0.39200000000000124,100.0,1.0,1.0,216.05,0.0,0.0,0.0,0.0,0.0,0.0,0.0,9157.6,0.0,55.0,5.0,251.99,1.0,0.0,0.0,0.0,0.0,0.0,1.0,0.0,1.6529999999999987,1.6529999999999987,0.0,0.0,1.0,55.0,616.79921,10000.0,85.000001,85.000001,85.000001,85.000001,395.0,0.0,0.0,0.0,1.0,333.33500000000004,51.91,51.91,45.166,45.166,34.0,-24.4525,22.73,-32.35666666666667,26.8075,0.0,1780.994,0.11500000000000199,100.0,28.715,28.833,45.022,42.652,0.0,0.0,100.0,0.0,0.0,0.0,0.0,3093.4285714285716,3045.6,4457.125,4065.1000000000004,305.622,305.08933333333334,314.2125,311.31333333333333,22.0361,20.7314,22.3115,15.267299999999999,314.999998,314.999998,324.999988,324.999988,99.55801428571428,99.50811666666667,99.58134285714286,99.55552857142857,0.0645,-0.08074999999999999,-0.11839999999999995,0.1060000000000001,-0.041666666666671404,-0.045000000000001705,1.6325,1.6235,38.726,30.571333333333335,40.447,40.17,55.284,36.313,64.1985,64.4755,53.251999999999995,35.3455,62.562,60.644999999999996,52.409,34.842,62.3645,61.37,-0.06566666666666676,-0.09600000000000009,0.10947000000000001,0.10757000000000001,0.0,219.135,219.10000000000002,216.05,216.05,0.0,0.0
34,0.0,0.0,0.0,1.0,1.0,0.0,0.0,1.0,0.0,100.0,1.0,1.1856,26.0,0.0,0.0,0.0,59.999996,0.0,26.0,26.0,26.0,26.0,-0.055333333333333345,0.2530000000000001,-0.0407,291.0,-2.7904999999999998,-2.6358571428571427,-1.6648,-1.5277500000000002,-160.3,215.96,190.227,0.0,0.0,0.0,0.0,0.06866666666666654,-5.498166666666667,-5.498166666666667,-0.6171,-0.8065,0.016999999999999904,1.1030000000000002,70.133,0.0198,-0.193775,0.15000000000000036,100.0,1.0,1.0,216.48000000000002,0.0,0.0,0.0,0.0,0.0,0.0,0.0,9175.8,0.0,55.0,5.0,252.45,0.0,0.0,0.0,0.0,0.0,0.0,1.0,0.0,1.7040000000000006,1.7040000000000006,0.0,0.0,0.0,55.0,616.79921,10000.0,85.000001,85.000001,85.000001,85.000001,395.0,0.0,0.0,0.0,1.0,166.665,52.016999999999996,52.016999999999996,46.021,46.021,34.0,-23.8725,24.318333333333335,-29.64,28.4675,0.0,1780.945,0.125,100.0,28.523,28.445,44.869,42.701,0.0,0.0,100.0,0.0,0.0,0.0,0.0,3041.285714285714,3167.8,4173.625,4106.5,305.5715,304.8996666666667,314.83125,311.1693333333333,22.045099999999998,20.737099999999998,22.3228,15.280100000000001,314.999998,314.999998,324.999988,324.999988,99.55802857142857,99.50811666666667,99.5815,99.55568571428572,0.08899999999999997,-0.05674999999999997,-0.10060000000000002,0.13000000000000012,-0.03499999999999659,-0.041666666666671404,1.638,1.6525,38.782,30.607,40.518,40.251,55.269999999999996,36.3505,64.2295,64.55799999999999,53.239000000000004,35.379999999999995,62.591499999999996,60.7215,52.394999999999996,34.8755,62.3905,61.4475,-0.07366666666666677,-0.08749999999999991,0.10389000000000001,0.10777500000000001,0.0,219.49,219.47,216.48000000000002,216.48000000000002,0.0,0.0
35,0.0,0.0,0.0,1.0,1.0,0.0,0.0,1.0,0.0,100.0,1.0,1.1856,26.0,0.0,0.0,0.0,59.999996,0.0,26.0,26.0,26.0,26.0,-0.03433333333333333,0.25450000000000017,-0.060500000000000005,291.077,-2.7904999999999998,-2.604571428571429,-1.6294,-1.54325,-156.72,215.945,190.197125,0.0,0.0,0.0,0.0,0.07076666666666653,-5.498166666666667,-5.498166666666667,-0.6622,-0.48849999999999993,0.0022222222222221255,-1.129,70.259,0.0356,-0.2058,0.05799999999999983,100.0,1.0,1.0,216.92666666666668,0.0,0.0,0.0,0.0,0.0,0.0,0.0,9194.7,0.0,55.0,5.0,252.90666666666667,1.0,0.0,0.0,0.0,0.0,0.0,1.0,0.0,1.754999999999999,1.754999999999999,0.0,0.0,1.0,55.0,616.79921,10000.0,85.000001,85.000001,85.000001,85.000001,395.0,0.0,0.0,0.0,1.0,333.33500000000004,51.650999999999996,51.650999999999996,45.547,45.547,34.0,-25.1675,26.064999999999998,-28.726666666666667,26.665,0.0,1780.892,0.23499999999999943,100.0,28.156,28.823,44.556,42.439,0.0,0.0,100.0,0.0,0.0,0.0,0.0,3168.857142857143,3338.5,4217.0,3840.0,305.4715,304.16,314.704,312.00166666666667,22.054,20.743,22.3341,15.2928,314.999998,314.999998,324.999988,324.999988,99.55804285714285,99.50813333333333,99.58167142857143,99.55584285714286,0.07800000000000007,-0.050999999999999934,-0.08879999999999999,0.13640000000000008,-0.046666666666666856,-0.04833333333333201,1.686,1.694,38.837,30.644,40.588,40.33,55.254999999999995,36.3895,64.26050000000001,64.63550000000001,53.224999999999994,35.4165,62.62,60.7935,52.379000000000005,34.91,62.4155,61.5205,-0.06299999999999994,-0.0950000000000002,0.10967,0.10181000000000001,0.0,219.89,219.87,216.92666666666668,216.92666666666668,0.0,0.0
