,ABS Active,ABS Enabled,AID Allow Tire Blankets,AID Auto Blip,AID Auto Clutch,AID Auto Shift,AID Fuel Rate,AID Ideal Line,AID Mech Damage,AID Stability,AID Tire Wear Rate,Air Density,Air Temp,Ballast,Best Lap Delta,Best Lap Time,Brake Bias,Brake Pos,Brake Temp FL,Brake Temp FR,Brake Temp RL,Brake Temp RR,CG Accel Lateral,CG Accel Longitudinal,CG Accel Vertical,CG Height,Camber FL,Camber FR,Camber RL,Camber RR,Car Coord X,Car Coord Y,Car Coord Z,Car Damage Front,Car Damage Left,Car Damage Rear,Car Damage Right,Car Pos Norm,Caster FL,Caster FR,Chassis Pitch Angle,Chassis Pitch Rate,Chassis Roll Angle,Chassis Roll Rate,Chassis Velocity X,Chassis Velocity Y,Chassis Velocity Z,Chassis Yaw Rate,Clutch Pos,DRS Active,DRS Available,Drive Train Speed,ERS Heat Charging,ERS Is Charging,ERS Max Energy,ERS Power Level,ERS Recovery Level,Engine Brake Setting,Engine Limiter,Engine RPM,Flags,Fuel Level,Gear,Ground Speed,HR Sample Clock,In Pit,KERS Charge,KERS Deployed Energy,KERS Input,KERS Max Energy,LR Sample Clock,Lap Invalidated,Lap Time,Lap Time2,Last Lap Time,Last Sector Time,MR Sample Clock,Max Fuel,Max Power,Max RPM,Max Sus Travel FL,Max Sus Travel FR,Max Sus Travel RL,Max Sus Travel RR,Max Torque,Max Turbo Boost,Num Tires Off Track,Penalties Enabled,Position,Raw Data Sample Rate,Ride Height FL,Ride Height FR,Ride Height RL,Ride Height RR,Road Temp,Self Align Torque FL,Self Align Torque FR,Self Align Torque RL,Self Align Torque RR,Session Lap Count,Session Time Left,Steering Angle,Surface Grip,Suspension Travel FL,Suspension Travel FR,Suspension Travel RL,Suspension Travel RR,TC Active,TC Enabled,Throttle Pos,Tire Dirt Level FL,Tire Dirt Level FR,Tire Dirt Level RL,Tire Dirt Level RR,Tire Load FL,Tire Load FR,Tire Load RL,Tire Load RR,Tire Loaded Radius FL,Tire Loaded Radius FR,Tire Loaded Radius RL,Tire Loaded Radius RR,Tire Pressure FL,Tire Pressure FR,Tire Pressure RL,Tire Pressure RR,Tire Radius FL,Tire Radius FR,Tire Radius RL,Tire Radius RR,Tire Rubber Grip FL,Tire Rubber Grip FR,Tire Rubber Grip RL,Tire Rubber Grip RR,Tire Slip Angle FL,Tire Slip Angle FR,Tire Slip Angle RL,Tire Slip Angle RR,Tire Slip Ratio FL,Tire Slip Ratio FR,Tire Slip Ratio RL,Tire Slip Ratio RR,Tire Temp Core FL,Tire Temp Core FR,Tire Temp Core RL,Tire Temp Core RR,Tire Temp Inner FL,Tire Temp Inner FR,Tire Temp Inner RL,Tire Temp Inner RR,Tire Temp Middle FL,Tire Temp Middle FR,Tire Temp Middle RL,Tire Temp Middle RR,Tire Temp Outer FL,Tire Temp Outer FR,Tire Temp Outer RL,Tire Temp Outer RR,Toe In FL,Toe In FR,Toe In RL,Toe In RR,Turbo Boost,Wheel Angular Speed FL,Wheel Angular Speed FR,Wheel Angular Speed RL,Wheel Angular Speed RR,Wind Direction,Wind Speed
0,0.0,0.0,0.0,1.0,1.0,0.0,0.0,1.0,0.0,100.0,1.0,1.1856,26.0,0.0,0.0,0.0,59.99999,0.0,26.0,26.0,26.0,26.0,-0.08050000000000002,0.2933000000000001,0.0201,293.961,-2.7162,-2.6567499999999997,-1.5161,-1.55925,-275.48,216.28750000000002,190.986375,0.0,0.0,0.0,0.0,0.0016999999999999238,-5.498166666666667,-5.498166666666667,-0.5438000000000001,1.3266666666666667,-0.01175000000000015,-1.5060000000000002,65.54599999999999,-0.0391,-0.21005000000000001,0.9920000000000009,100.0,1.0,1.0,202.36333333333334,0.0,0.0,0.0,0.0,0.0,0.0,0.0,8577.5,0.0,55.0,5.0,235.93333333333334,0.0,0.0,0.0,0.0,0.0,0.0,0.0,0.0,0.006000000000000227,0.006000000000000227,0.0,0.0,0.0,55.0,616.79921,10000.0,85.0,85.0,85.0,85.0,395.0,0.0,0.0,0.0,1.0,20.0,52.719,52.719,49.332,49.332,34.0,-26.39,22.97,-31.279999999999998,24.150000000000002,0.0,1783.009,0.8449999999999989,100.0,27.514,27.139,40.585,40.599000000000004,0.0,0.0,100.0,0.0,0.0,0.0,0.0,2995.857142857143,3334.1,4182.0,3947.9,305.783,304.12033333333335,314.725,314.9555,21.7946,20.5177,21.7757,21.3206,314.99999,314.99999,324.99998,324.99998,99.55982857142857,99.50731666666667,99.56547142857143,99.54547142857143,-0.006750000000000034,-0.12475000000000003,-0.16783333333333333,0.05466666666666666,-0.05666666666667197,-0.03857142857143003,1.5383333333333333,1.579,37.216,29.236,37.098,34.254,56.622,34.5625,59.167,51.731,54.515,33.7155,57.7915,50.0805,53.673,33.262,57.757,49.50066666666667,-0.011500000000000066,-0.13600000000000012,0.10622000000000001,0.10317000000000001,0.0,205.425,205.3,202.36333333333334,202.36333333333334,0.0,0.0
1,0.0,0.0,0.0,1.0,1.0,0.0,0.0,1.0,0.0,100.0,1.0,1.1856,26.0,0.0,0.0,0.0,59.999996,0.0,26.0,26.0,26.0,26.0,-0.10849999999999993,0.3057000000000001,0.19083333333333333,292.923,-2.6333,-2.769125,-1.5247000000000002,-1.5110000000000001,-271.94,216.2825,190.965,0.0,0.0,0.0,0.0,0.003766666666666585,-5.498166666666667,-5.498166666666667,-0.5054000000000001,-1.0556666666666668,-0.05962500000000004,-1.1320000000000001,65.709,-0.0565,-0.2063,1.450000000000001,100.0,1.0,1.0,202.55333333333334,0.0,0.0,0.0,0.0,0.0,0.0,0.0,8585.4,0.0,55.0,5.0,236.51999999999998,1.0,0.0,0.0,0.0,0.0,0.0,0.0,0.0,0.05999999999999872,0.05999999999999872,0.0,0.0,1.0,55.0,616.79921,10000.0,85.000001,85.000001,85.000001,85.000001,395.0,0.0,0.0,0.0,1.0,166.665,53.314,53.314,48.37,48.37,34.0,-28.045,18.351999999999997,-34.443333333333335,27.5275,0.0,1782.955,0.9050000000000011,100.0,27.643,27.071,42.727000000000004,41.925,0.0,0.0,100.0,0.0,0.0,0.0,0.0,3177.857142857143,2753.9,4290.25,4639.8,305.271,306.0663333333333,314.32375,313.17925,21.8052,20.5231,21.7872,21.3303,314.999998,314.999998,324.999988,324.999988,99.55984285714285,99.50733333333334,99.56562857142858,99.54562857142857,-0.020000000000000018,-0.14674999999999994,-0.1905,0.028833333333333332,-0.03999999999999915,-0.060000000000002274,1.4063333333333334,1.4705,37.282,29.269333333333336,37.17,34.314499999999995,56.604,34.605000000000004,59.214,51.8005,54.498000000000005,33.7545,57.836,50.1465,53.655,33.3,57.7985,49.565333333333335,-0.0020000000000000018,-0.14650000000000007,0.107785,0.1015,0.0,205.88,205.765,202.55333333333334,202.55333333333334,0.0,0.0
2,0.0,0.0,0.0,1.0,1.0,0.0,0.0,1.0,0.0,100.0,1.0,1.1856,26.0,0.0,0.0,0.0,59.999996,0.0,26.0,26.0,26.0,26.0,-0.13112499999999994,0.2966,-0.021766666666666667,293.579,-2.6028000000000002,-2.79,-1.4913,-1.6075,-268.78,216.275,190.94725,0.0,0.0,0.0,0.0,0.005599999999999938,-5.498166666666667,-5.498166666666667,-0.5497000000000001,0.19333333333333336,-0.047499999999999876,1.681,65.842,-0.0741,-0.25305,1.6180000000000003,100.0,1.0,1.0,203.43,0.0,0.0,0.0,0.0,0.0,0.0,0.0,8622.6,0.0,55.0,5.0,237.00333333333333,0.0,0.0,0.0,0.0,0.0,0.0,0.0,0.0,0.10800000000000054,0.10800000000000054,0.0,0.0,0.0,55.0,616.79921,10000.0,85.000001,85.000001,85.000001,85.000001,395.0,0.0,0.0,0.0,1.0,333.33500000000004,52.307,52.307,50.095,50.095,34.0,-30.622500000000002,19.535999999999998,-29.659999999999997,20.2225,0.0,1782.905,0.6700000000000017,100.0,28.402,27.135,42.544,41.394,0.0,0.0,100.0,0.0,0.0,0.0,0.0,3386.0,2933.3,3772.875,3724.8,304.53,305.4476666666667,315.60425,315.6645,21.8149,20.5278,21.7971,21.3385,314.999998,314.999998,324.999988,324.999988,99.55984285714285,99.50735,99.56577142857142,99.54575714285714,-0.03200000000000003,-0.15825,-0.2255,0.0036666666666666666,-0.0799999999999983,-0.03142857142857025,1.6263333333333332,1.6895,37.343,29.299,37.232,34.366,56.592,34.6425,59.2495,51.852000000000004,54.486000000000004,33.789,57.869,50.1965,53.643,33.333,57.829,49.614333333333335,-0.01749999999999985,-0.13600000000000012,0.106535,0.10348,0.0,206.335,206.16,203.43,203.43,0.0,0.0
3,0.0,0.0,0.0,1.0,1.0,0.0,0.0,1.0,0.0,100.0,1.0,1.1856,26.0,0.0,0.0,0.0,59.999996,0.0,26.0,26.0,26.0,26.0,-0.14249999999999996,0.3096000000000001,-0.030633333333333332,293.381,-2.724,-2.691,-1.5104000000000002,-1.593375,-265.61,216.265,190.92875,0.0,0.0,0.0,0.0,0.007433333333333292,-5.498166666666667,-5.498166666666667,-0.5097,0.42500000000000004,-0.013250000000000206,-0.9750000000000001,65.985,-0.08710000000000001,-0.20245000000000002,1.2400000000000002,100.0,1.0,1.0,203.56333333333333,0.0,0.0,0.0,0.0,0.0,0.0,0.0,8628.4,0.0,55.0,5.0,237.51666666666665,1.0,0.0,0.0,0.0,0.0,0.0,0.0,0.0,0.1559999999999988,0.1559999999999988,0.0,0.0,1.0,55.0,616.79921,10000.0,85.000001,85.000001,85.000001,85.000001,395.0,0.0,0.0,0.0,1.0,166.665,53.528,53.528,48.08,48.08,34.0,-25.72,17.816,-36.019999999999996,24.2475,0.0,1782.857,0.629999999999999,100.0,28.003,27.148,42.453,41.534,0.0,0.0,100.0,0.0,0.0,0.0,0.0,2862.5714285714284,2781.1,4346.5,4211.2,306.109,305.78933333333333,314.2735,314.36425,21.8242,20.5327,21.8069,21.346899999999998,314.999998,314.999998,324.999988,324.999988,99.55985714285714,99.50736666666667,99.5659,99.54588571428572,-0.020749999999999935,-0.15449999999999997,-0.22316666666666665,0.009000000000000001,-0.04999999999999716,-0.04142857142856826,1.48,1.5345,37.400999999999996,29.329333333333334,37.293,34.4185,56.575,34.682,59.287,51.911,54.471000000000004,33.826,57.903999999999996,50.253,53.626999999999995,33.368,57.861,49.669333333333334,-0.03200000000000003,-0.121,0.112695,0.10788,0.0,206.75,206.66,203.56333333333333,203.56333333333333,0.0,0.0
4,0.0,0.0,0.0,1.0,1.0,0.0,0.0,1.0,0.0,100.0,1.0,1.1856,26.0,0.0,0.0,0.0,59.999996,0.0,26.0,26.0,26.0,26.0,-0.14200000000000002,0.28790000000000004,-0.017633333333333334,293.61,-2.6552,-2.7465,-1.5211000000000001,-1.603375,-262.05,216.25,190.907875,0.0,0.0,0.0,0.0,0.009533333333333394,-5.498166666666667,-5.498166666666667,-0.5482,-0.562,-0.08349999999999991,-1.499,66.14,-0.08850000000000001,-0.23975000000000002,1.2260000000000009,100.0,1.0,1.0,204.2,0.0,0.0,0.0,0.0,0.0,0.0,0.0,8655.3,0.0,55.0,5.0,238.07666666666665,0.0,0.0,0.0,0.0,0.0,0.0,0.0,0.0,0.21000000000000085,0.21000000000000085,0.0,0.0,0.0,55.0,616.79921,10000.0,85.000001,85.000001,85.000001,85.000001,395.0,0.0,0.0,0.0,1.0,166.665,52.856,52.856,48.95,48.95,34.0,-30.0775,19.264,-32.39,20.3375,0.0,1782.805,0.5949999999999989,100.0,27.814,26.96,42.795,41.445,0.0,0.0,100.0,0.0,0.0,0.0,0.0,3327.4285714285716,2896.0,4058.25,3658.9,304.863,305.4603333333333,314.93375,315.72625,21.834600000000002,20.5381,21.8182,21.3563,314.999998,314.999998,324.999988,324.999988,99.55985714285714,99.5074,99.56604285714286,99.54604285714285,-0.027000000000000024,-0.15125,-0.214,0.009666666666666665,-0.041666666666671404,-0.05142857142856627,1.591,1.6219999999999999,37.467,29.363333333333333,37.364000000000004,34.477000000000004,56.556,34.726,59.3305,51.972,54.452,33.8665,57.945,50.3115,53.608000000000004,33.407,57.899,49.727000000000004,-0.03249999999999997,-0.11549999999999994,0.10525000000000001,0.107615,0.0,207.2,207.10500000000002,204.2,204.2,0.0,0.0
5,0.0,0.0,0.0,1.0,1.0,0.0,0.0,1.0,0.0,100.0,1.0,1.1856,26.0,0.0,0.0,0.0,59.999996,0.0,26.0,26.0,26.0,26.0,-0.12549999999999994,0.31790000000000007,-0.005933333333333334,293.579,-2.6724,-2.762625,-1.5099,-1.586875,-258.87,216.23250000000002,190.888625,0.0,0.0,0.0,0.0,0.011366666666666525,-5.498166666666667,-5.498166666666667,-0.5359,0.359,-0.08325000000000005,-0.28500000000000014,66.27799999999999,-0.0886,-0.214725,1.0359999999999996,100.0,1.0,1.0,204.54000000000002,0.0,0.0,0.0,0.0,0.0,0.0,0.0,8669.7,0.0,55.0,5.0,238.57333333333332,1.0,0.0,0.0,0.0,0.0,0.0,0.0,0.0,0.2579999999999991,0.2579999999999991,0.0,0.0,1.0,55.0,616.79921,10000.0,85.000001,85.000001,85.000001,85.000001,395.0,0.0,0.0,0.0,1.0,166.665,53.345,53.345,48.888999999999996,48.888999999999996,34.0,-28.8325,19.026,-33.97,22.92,0.0,1782.757,0.23000000000000043,100.0,27.818,26.812,42.593,41.232,0.0,0.0,100.0,0.0,0.0,0.0,0.0,3215.0,2769.8,4212.25,4053.9,305.1745,305.909,314.6355,314.75775,21.8441,20.5429,21.828,21.3646,314.999998,314.999998,324.999988,324.999988,99.55985714285714,99.5074,99.56618571428571,99.54615714285714,-0.020749999999999935,-0.13449999999999995,-0.21683333333333335,0.007666666666666667,-0.06666666666666998,-0.054285714285711606,1.55,1.559,37.525999999999996,29.393333333333334,37.425,34.528999999999996,56.542,34.763999999999996,59.368,52.0265,54.439,33.900999999999996,57.980000000000004,50.3635,53.594,33.44,57.9315,49.778,-0.047499999999999876,-0.09050000000000002,0.107505,0.108975,0.0,207.70499999999998,207.565,204.54000000000002,204.54000000000002,0.0,0.0
6,0.0,0.0,0.0,1.0,1.0,0.0,0.0,1.0,0.0,100.0,1.0,1.1856,26.0,0.0,0.0,0.0,59.999996,0.0,26.0,26.0,26.0,26.0,-0.10875000000000001,0.2896000000000001,-0.010100000000000001,293.411,-2.6388,-2.793875,-1.5545,-1.583,-255.68,216.2125,190.869375,0.0,0.0,0.0,0.0,0.01323333333333332,-5.498166666666667,-5.498166666666667,-0.531,0.1180000000000001,-0.06450000000000022,-0.4670000000000001,66.416,-0.0824,-0.21535,0.8040000000000003,100.0,1.0,1.0,204.97,0.0,0.0,0.0,0.0,0.0,0.0,0.0,8687.9,0.0,55.0,5.0,239.07,0.0,0.0,0.0,0.0,0.0,0.0,0.0,0.0,0.30600000000000094,0.30600000000000094,0.0,0.0,0.0,55.0,616.79921,10000.0,85.000001,85.000001,85.000001,85.000001,395.0,0.0,0.0,0.0,1.0,166.665,53.085,53.085,48.66,48.66,34.0,-27.695,20.49,-33.236666666666665,23.177500000000002,0.0,1782.709,0.010000000000001563,100.0,27.726,26.942,42.723,41.609,0.0,0.0,100.0,0.0,0.0,0.0,0.0,3205.285714285714,2865.5,4135.5,3996.1000000000004,305.1525,305.50466666666665,314.81075,314.902,21.8535,20.5478,21.838,21.3731,314.999998,314.999998,324.999988,324.999988,99.55985714285714,99.50741666666667,99.56632857142857,99.5463,-0.0020000000000000018,-0.126,-0.203,0.021666666666666667,-0.06666666666666998,-0.044285714285713595,1.536,1.5625,37.585,29.423666666666666,37.486999999999995,34.582,56.527,34.8015,59.406,52.084,54.425,33.936,58.015,50.419,53.578,33.4735,57.964,49.83166666666666,-0.06549999999999989,-0.07850000000000001,0.10314000000000001,0.10757000000000001,0.0,208.07,207.985,204.97,204.97,0.0,0.0
7,0.0,0.0,0.0,1.0,1.0,0.0,0.0,1.0,0.0,100.0,1.0,1.1856,26.0,0.0,0.0,0.0,59.999996,0.0,26.0,26.0,26.0,26.0,-0.07624999999999993,0.2876000000000001,0.0473,293.198,-2.6083,-2.753,-1.5144000000000002,-1.62575,-252.29,216.1875,190.848875,0.0,0.0,0.0,0.0,0.015199999999999991,-5.498166666666667,-5.498166666666667,-0.5339,0.04833333333333334,-0.04875000000000007,1.147,66.562,-0.0668,-0.22332500000000002,0.33000000000000007,100.0,1.0,1.0,205.39,0.0,0.0,0.0,0.0,0.0,0.0,0.0,8705.8,0.0,55.0,5.0,239.59333333333333,1.0,0.0,0.0,0.0,0.0,0.0,0.0,0.0,0.3569999999999993,0.3569999999999993,0.0,0.0,1.0,55.0,616.79921,10000.0,85.000001,85.000001,85.000001,85.000001,395.0,0.0,0.0,0.0,1.0,166.665,52.811,52.811,48.798,48.798,34.0,-25.7675,23.016,-30.173333333333332,25.302500000000002,0.0,1782.657,-0.21000000000000085,100.0,27.987000000000002,26.848,42.835,41.782,0.0,0.0,100.0,0.0,0.0,0.0,0.0,3161.714285714286,3028.6,4024.625,4078.9,305.0525,305.1596666666667,314.971,314.71175,21.8634,20.553,21.8485,21.3821,314.999998,314.999998,324.999988,324.999988,99.55987142857143,99.50743333333334,99.56647142857143,99.54642857142858,0.033500000000000085,-0.08450000000000002,-0.1695,0.03916666666666666,-0.04999999999999716,-0.060000000000002274,1.5366666666666666,1.548,37.647,29.456,37.553,34.638,56.510999999999996,34.841,59.445,52.144999999999996,54.41,33.972,58.0515,50.477000000000004,53.563,33.507999999999996,57.9975,49.888999999999996,-0.09549999999999992,-0.053999999999999826,0.10483500000000001,0.09824000000000001,0.0,208.505,208.45499999999998,205.39,205.39,0.0,0.0
8,0.0,0.0,0.0,1.0,1.0,0.0,0.0,1.0,0.0,100.0,1.0,1.1856,26.0,0.0,0.0,0.0,59.999996,0.0,26.0,26.0,26.0,26.0,-0.029874999999999985,0.2856000000000001,0.0256,293.457,-2.6939,-2.7251250000000002,-1.4979,-1.57775,-248.69,216.16,190.827,0.0,0.0,0.0,0.0,0.017299999999999982,-5.498166666666667,-5.498166666666667,-0.5385,-0.6483333333333333,-0.032624999999999904,0.6970000000000001,66.71600000000001,-0.045000000000000005,-0.21757500000000002,-0.08200000000000074,100.0,1.0,1.0,205.82333333333332,0.0,0.0,0.0,0.0,0.0,0.0,0.0,8724.2,0.0,55.0,5.0,240.15,0.0,0.0,0.0,0.0,0.0,0.0,0.0,0.0,0.41100000000000136,0.41100000000000136,0.0,0.0,0.0,55.0,616.79921,10000.0,85.000001,85.000001,85.000001,85.000001,395.0,0.0,0.0,0.0,1.0,166.665,53.528,53.528,48.294,48.294,34.0,-23.89,23.52,-29.296666666666667,27.2975,0.0,1782.604,-0.34499999999999886,100.0,27.479,26.774,42.808,41.911,0.0,0.0,100.0,0.0,0.0,0.0,0.0,2977.285714285714,3038.5,4052.0,4108.4,305.821,305.24133333333333,314.8715,314.62675,21.8737,20.5585,21.8597,21.3917,314.999998,314.999998,324.999988,324.999988,99.55987142857143,99.50743333333334,99.56661428571428,99.54658571428571,0.04875000000000007,-0.06525000000000003,-0.14833333333333334,0.084,-0.04999999999999716,-0.060000000000002274,1.5156666666666667,1.5225,37.71,29.490666666666666,37.623000000000005,34.698,56.492000000000004,34.881,59.4865,52.2085,54.391999999999996,34.009,58.0905,50.538,53.544,33.5435,58.033,49.94866666666667,-0.09699999999999998,-0.04150000000000009,0.108755,0.11235500000000001,0.0,208.945,208.93,205.82333333333332,205.82333333333332,0.0,0.0
9,0.0,0.0,0.0,1.0,1.0,0.0,0.0,1.0,0.0,100.0,1.0,1.1856,26.0,0.0,0.0,0.0,59.999996,0.0,26.0,26.0,26.0,26.0,-0.018874999999999975,0.2913000000000001,0.0405,293.045,-2.6233,-2.720875,-1.5566,-1.561125,-245.49,216.135,190.807125,0.0,0.0,0.0,0.0,0.019133333333333336,-5.498166666666667,-5.498166666666667,-0.5385,0.7853333333333332,-0.03025000000000011,1.0110000000000001,66.85,-0.026000000000000002,-0.213125,-0.19599999999999973,100.0,1.0,1.0,206.32,0.0,0.0,0.0,0.0,0.0,0.0,0.0,8745.2,0.0,55.0,5.0,240.63,1.0,0.0,0.0,0.0,0.0,0.0,0.0,0.0,0.45899999999999963,0.45899999999999963,0.0,0.0,1.0,55.0,616.79921,10000.0,85.000001,85.000001,85.000001,85.000001,395.0,0.0,0.0,0.0,1.0,166.665,52.383,52.383,49.025999999999996,49.025999999999996,34.0,-24.7025,24.628,-28.78666666666666,27.785,0.0,1782.556,-0.509999999999998,100.0,28.091,27.257,42.421,41.942,0.0,0.0,100.0,0.0,0.0,0.0,0.0,3234.5714285714284,3085.0,4034.5,4133.9,304.8815,305.01866666666666,315.05825,314.66175,21.883,20.5636,21.8694,21.4001,314.999998,314.999998,324.999988,324.999988,99.55987142857143,99.50745,99.56674285714286,99.54672857142857,0.07450000000000001,-0.04999999999999993,-0.13383333333333333,0.09883333333333333,-0.03833333333332689,-0.04571428571428271,1.57,1.5554999999999999,37.769,29.522333333333336,37.684,34.7505,56.480000000000004,34.918,59.5205,52.263999999999996,54.379999999999995,34.043,58.122,50.591499999999996,53.531,33.576,58.062,50.001,-0.11349999999999993,-0.0365000000000002,0.11042500000000001,0.10858000000000001,0.0,209.36,209.375,206.32,206.32,0.0,0.0
10,0.0,0.0,0.0,1.0,1.0,0.0,0.0,1.0,0.0,100.0,1.0,1.1856,26.0,0.0,0.0,0.0,59.999996,0.0,26.0,26.0,26.0,26.0,0.00912500000000005,0.28890000000000016,0.0577,292.984,-2.6611000000000002,-2.707375,-1.5382,-1.5335,-242.28,216.11,190.787625,0.0,0.0,0.0,0.0,0.020999999999999908,-5.498166666666667,-5.498166666666667,-0.5199,-0.6403333333333333,0.011624999999999996,1.668,66.988,-0.0047,-0.2076,-0.5620000000000012,100.0,1.0,1.0,206.55666666666667,0.0,0.0,0.0,0.0,0.0,0.0,0.0,8755.1,0.0,55.0,5.0,241.12666666666667,0.0,0.0,0.0,0.0,0.0,0.0,1.0,0.0,0.5069999999999979,0.5069999999999979,0.0,0.0,0.0,55.0,616.79921,10000.0,85.000001,85.000001,85.000001,85.000001,395.0,0.0,0.0,0.0,1.0,333.33500000000004,53.482,53.482,47.623,47.623,34.0,-20.425,23.94,-29.816666666666663,30.2925,0.0,1782.507,-0.5899999999999999,100.0,27.79,27.187,42.914,42.669,0.0,0.0,100.0,0.0,0.0,0.0,0.0,2800.4285714285716,2987.3,4220.125,4326.5,306.248,305.39233333333334,314.459,314.1235,21.8922,20.5685,21.8795,21.4088,314.999998,314.999998,324.999988,324.999988,99.55988571428571,99.50745,99.56688571428572,99.54685714285715,0.09299999999999997,-0.03974999999999995,-0.1165,0.11516666666666667,-0.041666666666671404,-0.034285714285715585,1.4836666666666667,1.4769999999999999,37.826,29.553333333333335,37.747,34.805,56.466,34.952,59.559,52.3245,54.367000000000004,34.075,58.158,50.6495,53.518,33.6065,58.095,50.05766666666666,-0.123,-0.028500000000000192,0.11284500000000001,0.106465,0.0,209.775,209.79000000000002,206.55666666666667,206.55666666666667,0.0,0.0
11,0.0,0.0,0.0,1.0,1.0,0.0,0.0,1.0,0.0,100.0,1.0,1.1856,26.0,0.0,0.0,0.0,59.999996,0.0,26.0,26.0,26.0,26.0,0.05312500000000009,0.27500000000000013,-0.10173333333333334,293.472,-2.7071,-2.68275,-1.5901,-1.52325,-238.86,216.08249999999998,190.766875,0.0,0.0,0.0,0.0,0.022599999999999953,-5.498166666666667,-5.498166666666667,-0.5621,-0.09433333333333338,0.030750000000000055,-0.71,67.126,0.0151,-0.236775,-0.6079999999999988,100.0,1.0,1.0,207.29000000000002,0.0,0.0,0.0,0.0,0.0,0.0,0.0,8786.3,0.0,55.0,5.0,241.62666666666667,1.0,0.0,0.0,0.0,0.0,0.0,1.0,0.0,0.5579999999999998,0.5579999999999998,0.0,0.0,1.0,55.0,616.79921,10000.0,85.000001,85.000001,85.000001,85.000001,395.0,0.0,0.0,0.0,1.0,333.33500000000004,52.78,52.78,49.225,49.225,34.0,-22.895,25.852,-24.35,26.8725,0.0,1782.456,-0.7199999999999989,100.0,27.528,27.651,42.293,42.61,0.0,0.0,100.0,0.0,0.0,0.0,0.0,3084.5714285714284,3086.5,3732.625,3861.8,305.568,304.85,315.81825,315.254,21.9018,20.573999999999998,21.8898,21.4178,314.999998,314.999998,324.999988,324.999988,99.5599,99.50746666666667,99.56702857142857,99.54698571428571,0.09749999999999992,-0.018000000000000016,-0.09083333333333334,0.13983333333333334,-0.05833333333333002,-0.06285714285714761,1.6413333333333333,1.6235,37.885999999999996,29.587333333333333,37.811,34.861,56.451,34.9895,59.593,52.382999999999996,54.352999999999994,34.1095,58.189,50.706,53.503,33.64,58.1235,50.11333333333333,-0.12199999999999989,-0.020999999999999908,0.09973000000000001,0.10763,0.0,210.20499999999998,210.235,207.29000000000002,207.29000000000002,0.0,0.0
12,0.0,0.0,0.0,1.0,1.0,0.0,0.0,1.0,0.0,100.0,1.0,1.1856,26.0,0.0,0.0,0.0,59.999996,0.0,26.0,26.0,26.0,26.0,0.050875000000000004,0.2781,0.03906666666666667,292.847,-2.7626,-2.677375,-1.5582,-1.52375,-235.63,216.0575,190.746125,0.0,0.0,0.0,0.0,0.025466666666666526,-5.498166666666667,-5.498166666666667,-0.5464,0.28,0.018249999999999877,-0.8370000000000002,67.263,0.030100000000000002,-0.207625,-0.6359999999999992,100.0,1.0,1.0,207.47333333333333,0.0,0.0,0.0,0.0,0.0,0.0,0.0,8794.1,0.0,55.0,5.0,242.11666666666667,0.0,0.0,0.0,0.0,0.0,0.0,1.0,0.0,0.6059999999999981,0.6059999999999981,0.0,0.0,0.0,55.0,616.79921,10000.0,85.000001,85.000001,85.000001,85.000001,395.0,0.0,0.0,0.0,1.0,166.665,52.689,52.689,47.897,47.897,34.0,-23.759999999999998,25.677999999999997,-27.53,30.8525,0.0,1782.409,-0.3999999999999986,100.0,27.434,27.816,42.269999999999996,42.615,0.0,0.0,100.0,0.0,0.0,0.0,0.0,3136.857142857143,3115.9,4235.875,4185.4,305.467,304.779,314.594,314.441,21.910800000000002,20.5792,21.8996,21.4263,314.999998,314.999998,324.999988,324.999988,99.55991428571429,99.50746666666667,99.56715714285714,99.54712857142857,0.09850000000000003,-0.027000000000000024,-0.07333333333333333,0.152,-0.05666666666667197,-0.04571428571428271,1.5256666666666667,1.501,37.943,29.619999999999997,37.873000000000005,34.914,56.439,35.0255,59.629,52.44,54.34,34.1425,58.2225,50.760999999999996,53.489000000000004,33.6715,58.153999999999996,50.167,-0.10999999999999988,-0.04200000000000026,0.10345000000000001,0.11024,0.0,210.64499999999998,210.685,207.47333333333333,207.47333333333333,0.0,0.0
13,0.0,0.0,0.0,1.0,1.0,0.0,0.0,1.0,0.0,100.0,1.0,1.1856,26.0,0.0,0.0,0.0,59.999996,0.0,26.0,26.0,26.0,26.0,0.07200000000000006,0.28770000000000007,0.0538,292.511,-2.7323,-2.67625,-1.5891000000000002,-1.543875,-232.2,216.0325,190.724375,0.0,0.0,0.0,0.0,0.026866666666666594,-5.498166666666667,-5.498166666666667,-0.5394,-0.06299999999999994,0.022624999999999895,1.127,67.405,0.0363,-0.21677500000000002,-0.847999999999999,100.0,1.0,1.0,207.86,0.0,0.0,0.0,0.0,0.0,0.0,0.0,8810.5,0.0,55.0,5.0,242.63,1.0,0.0,0.0,0.0,0.0,0.0,1.0,0.0,0.657,0.657,0.0,0.0,1.0,55.0,616.79921,10000.0,85.000001,85.000001,85.000001,85.000001,395.0,0.0,0.0,0.0,1.0,333.33500000000004,52.429,52.429,47.882,47.882,34.0,-20.87,27.91,-26.656666666666666,33.510000000000005,0.0,1782.356,-0.8449999999999989,100.0,27.883,27.811,42.605000000000004,43.031,0.0,0.0,100.0,0.0,0.0,0.0,0.0,3060.4285714285716,3189.0,4142.75,4354.2,305.474,304.72566666666665,314.69325,314.0975,21.9205,20.5848,21.9102,21.4355,314.999998,314.999998,324.999988,324.999988,99.55992857142857,99.50746666666667,99.5673,99.54728571428572,0.14949999999999997,0.015000000000000124,-0.0575,0.16816666666666666,-0.036666666666668846,-0.060000000000002274,1.501,1.4785,38.003,29.654666666666664,37.939,34.972,56.428,35.0635,59.667,52.504,54.33,34.178,58.257999999999996,50.822,53.477999999999994,33.7055,58.1865,50.227000000000004,-0.14949999999999997,-0.008500000000000174,0.106575,0.107865,0.0,211.06,211.10500000000002,207.86,207.86,0.0,0.0
14,0.0,0.0,0.0,1.0,1.0,0.0,0.0,1.0,0.0,100.0,1.0,1.1856,26.0,0.0,0.0,0.0,59.999996,0.0,26.0,26.0,26.0,26.0,0.09487500000000004,0.2893000000000001,-0.012933333333333335,292.801,-2.7372,-2.6096250000000003,-1.6028,-1.508875,-228.76,216.01,190.703125,0.0,0.0,0.0,0.0,0.028866666666666596,-5.498166666666667,-5.498166666666667,-0.5488000000000001,-0.15066666666666662,0.05337499999999995,-0.16300000000000026,67.545,0.049300000000000004,-0.22840000000000002,-1.016,100.0,1.0,1.0,208.38666666666666,0.0,0.0,0.0,0.0,0.0,0.0,0.0,8832.8,0.0,55.0,5.0,243.13333333333333,0.0,0.0,0.0,0.0,0.0,0.0,1.0,0.0,0.7079999999999984,0.7079999999999984,0.0,0.0,0.0,55.0,616.79921,10000.0,85.000001,85.000001,85.000001,85.000001,395.0,0.0,0.0,0.0,1.0,333.33500000000004,52.612,52.612,48.111,48.111,34.0,-20.3425,27.542,-25.763333333333335,31.310000000000002,0.0,1782.305,-0.9499999999999993,100.0,27.548000000000002,28.043,42.432,43.327,0.0,0.0,100.0,0.0,0.0,0.0,0.0,3019.4285714285716,3174.8,3987.25,4167.0,305.7715,304.60966666666667,315.156,314.48425,21.9301,20.5903,21.9206,21.4447,314.999998,314.999998,324.999988,324.999988,99.55995714285714,99.50748333333334,99.56745714285714,99.54742857142857,0.1512500000000001,0.0182500000000001,-0.0665,0.1695,-0.03166666666666629,-0.03714285714285381,1.5566666666666666,1.518,38.063,29.689333333333334,38.004000000000005,35.0295,56.417,35.101,59.703,52.566,54.319,34.2125,58.2915,50.882,53.466,33.739,58.216499999999996,50.285666666666664,-0.15349999999999997,0.0015000000000000568,0.11040000000000001,0.10625000000000001,0.0,211.47,211.535,208.38666666666666,208.38666666666666,0.0,0.0
15,0.0,0.0,0.0,1.0,1.0,0.0,0.0,1.0,0.0,100.0,1.0,1.1856,26.0,0.0,0.0,0.0,59.999996,0.0,26.0,26.0,26.0,26.0,0.13175000000000003,0.2844,-0.05503333333333334,292.831,-2.7465,-2.5705,-1.6268,-1.4541250000000001,-225.51,215.99,190.68275,0.0,0.0,0.0,0.0,0.03076666666666661,-5.498166666666667,-5.498166666666667,-0.539,0.2406666666666668,0.07987499999999992,-0.4620000000000002,67.67699999999999,0.06570000000000001,-0.2092,-1.162,100.0,1.0,1.0,208.75666666666666,0.0,0.0,0.0,0.0,0.0,0.0,0.0,8848.5,0.0,55.0,5.0,243.60666666666668,1.0,0.0,0.0,0.0,0.0,0.0,1.0,0.0,0.7560000000000002,0.7560000000000002,0.0,0.0,1.0,55.0,616.79921,10000.0,85.000001,85.000001,85.000001,85.000001,395.0,0.0,0.0,0.0,1.0,166.665,52.826,52.826,48.111,48.111,34.0,-18.9975,27.292,-24.523333333333333,33.33,0.0,1782.257,-0.9400000000000013,100.0,27.534,28.068,42.185,43.394,0.0,0.0,100.0,0.0,0.0,0.0,0.0,2879.5714285714284,3135.1,3996.5,4339.9,306.1755,304.723,315.16375,314.0795,21.9391,20.5956,21.9304,21.4533,314.999998,314.999998,324.999988,324.999988,99.55997142857143,99.50748333333334,99.56758571428571,99.54755714285714,0.15949999999999998,0.03049999999999997,-0.033666666666666664,0.1925,-0.045000000000001705,-0.0357142857142847,1.5443333333333333,1.5155,38.120000000000005,29.72233333333333,38.065,35.083,56.407,35.1375,59.7355,52.625,54.309,34.2465,58.3215,50.939,53.455,33.7715,58.244,50.34166666666667,-0.15100000000000002,-0.0009999999999998899,0.10658000000000001,0.116455,0.0,211.9,211.97,208.75666666666666,208.75666666666666,0.0,0.0
16,0.0,0.0,0.0,1.0,1.0,0.0,0.0,1.0,0.0,100.0,1.0,1.1856,26.0,0.0,0.0,0.0,59.999996,0.0,26.0,26.0,26.0,26.0,0.13387499999999997,0.27370000000000005,-0.03366666666666667,292.77,-2.8046,-2.581,-1.5994000000000002,-1.5145,-221.85,215.9725,190.659375,0.0,0.0,0.0,0.0,0.03289999999999993,-5.498166666666667,-5.498166666666667,-0.5639000000000001,-0.596,0.06662499999999993,-1.1320000000000001,67.824,0.078,-0.2277,-1.1679999999999993,100.0,1.0,1.0,209.24666666666667,0.0,0.0,0.0,0.0,0.0,0.0,0.0,8869.2,0.0,55.0,5.0,244.14,0.0,0.0,0.0,0.0,0.0,0.0,1.0,0.0,0.8099999999999987,0.8099999999999987,0.0,0.0,0.0,55.0,616.79921,10000.0,85.000001,85.000001,85.000001,85.000001,395.0,0.0,0.0,0.0,1.0,166.665,52.46,52.46,48.08,48.08,34.0,-21.22,29.036,-23.14666666666666,32.4025,0.0,1782.205,-0.879999999999999,100.0,27.183,28.167,42.394,43.47,0.0,0.0,100.0,0.0,0.0,0.0,0.0,3134.5714285714284,3268.8,3920.75,4085.9,305.571,304.34866666666665,315.323,314.66625,21.948999999999998,20.6015,21.9415,21.463,314.999998,314.999998,324.999988,324.999988,99.55998571428572,99.50748333333334,99.56772857142857,99.54771428571429,0.16274999999999995,0.03849999999999998,-0.025833333333333333,0.20483333333333334,-0.04999999999999716,-0.034285714285715585,1.5736666666666665,1.527,38.181,29.759666666666668,38.134,35.144,56.391999999999996,35.1795,59.775,52.69,54.295,34.2855,58.3585,51.002,53.44,33.8085,58.2775,50.403666666666666,-0.14449999999999985,-0.01200000000000001,0.11077000000000001,0.11034000000000001,0.0,212.32,212.38,209.24666666666667,209.24666666666667,0.0,0.0
17,0.0,0.0,0.0,1.0,1.0,0.0,0.0,1.0,0.0,100.0,1.0,1.1856,26.0,0.0,0.0,0.0,59.999996,0.0,26.0,26.0,26.0,26.0,0.12787499999999996,0.2842,0.0292,292.404,-2.7663,-2.56325,-1.6426,-1.475375,-218.59,215.95749999999998,190.638125,0.0,0.0,0.0,0.0,0.03476666666666661,-5.498166666666667,-5.498166666666667,-0.5486,0.4223333333333332,0.048249999999999904,-0.6230000000000002,67.956,0.08070000000000001,-0.2044,-1.13,100.0,1.0,1.0,209.57,0.0,0.0,0.0,0.0,0.0,0.0,0.0,8882.8,0.0,55.0,5.0,244.61,1.0,0.0,0.0,0.0,0.0,0.0,1.0,0.0,0.8580000000000005,0.8580000000000005,0.0,0.0,1.0,55.0,616.79921,10000.0,85.000001,85.000001,85.000001,85.000001,395.0,0.0,0.0,0.0,1.0,166.665,52.414,52.414,47.653,47.653,34.0,-19.97,27.152,-26.82666666666666,33.745000000000005,0.0,1782.157,-0.9749999999999979,100.0,27.657,28.403,42.26,43.486000000000004,0.0,0.0,100.0,0.0,0.0,0.0,0.0,3105.0,3098.1,4300.625,4316.3,305.578,304.88966666666664,314.5205,314.185,21.9581,20.6069,21.9512,21.4716,314.999998,314.999998,324.999988,324.999988,99.56,99.5075,99.56787142857142,99.54785714285714,0.17975000000000008,0.03925000000000001,-0.0305,0.1985,-0.05333333333332746,-0.04285714285714448,1.529,1.4994999999999998,38.238,29.793,38.195,35.1975,56.384,35.218,59.8085,52.7485,54.288,34.321,58.388999999999996,51.058,53.431,33.843,58.305,50.458666666666666,-0.15999999999999992,-0.0045000000000001705,0.10781500000000001,0.10948000000000001,0.0,212.76999999999998,212.82999999999998,209.57,209.57,0.0,0.0
18,0.0,0.0,0.0,1.0,1.0,0.0,0.0,1.0,0.0,100.0,1.0,1.1856,26.0,0.0,0.0,0.0,59.999996,0.0,26.0,26.0,26.0,26.0,0.11637500000000012,0.2811000000000001,-0.011333333333333334,292.404,-2.8017000000000003,-2.533625,-1.657,-1.421875,-215.32999999999998,215.9475,190.617,0.0,0.0,0.0,0.0,0.036666666666666514,-5.498166666666667,-5.498166666666667,-0.5611,-0.5116666666666667,0.07074999999999987,-0.399,68.086,0.08460000000000001,-0.22440000000000002,-1.1399999999999997,100.0,1.0,1.0,209.98666666666668,0.0,0.0,0.0,0.0,0.0,0.0,0.0,8900.6,0.0,55.0,5.0,245.07999999999998,0.0,0.0,0.0,0.0,0.0,0.0,1.0,0.0,0.9059999999999988,0.9059999999999988,0.0,0.0,0.0,55.0,616.79921,10000.0,85.000001,85.000001,85.000001,85.000001,395.0,0.0,0.0,0.0,1.0,333.33500000000004,52.246,52.246,47.668,47.668,34.0,-21.305,28.426,-24.973333333333336,31.665,0.0,1782.107,-0.5799999999999983,100.0,27.434,28.315,42.571,43.848,0.0,0.0,100.0,0.0,0.0,0.0,0.0,3129.285714285714,3308.2,4063.875,4197.2,305.555,304.27133333333336,315.032,314.45225,21.967,20.6122,21.961100000000002,21.4804,314.999998,314.999998,324.999988,324.999988,99.56002857142857,99.5075,99.56801428571428,99.548,0.1605000000000001,0.026499999999999968,-0.025833333333333333,0.19516666666666665,-0.041666666666671404,-0.05285714285714249,1.5563333333333333,1.5225,38.294,29.826333333333334,38.257,35.2525,56.373000000000005,35.2575,59.8455,52.8125,54.277,34.3575,58.4235,51.1195,53.419,33.8785,58.336,50.519333333333336,-0.1339999999999999,-0.022499999999999964,0.11138500000000001,0.09911500000000001,0.0,213.135,213.215,209.98666666666668,209.98666666666668,0.0,0.0
19,0.0,0.0,0.0,1.0,1.0,0.0,0.0,1.0,0.0,100.0,1.0,1.1856,26.0,0.0,0.0,0.0,59.999996,0.0,26.0,26.0,26.0,26.0,0.08775,0.28190000000000004,0.04736666666666667,291.916,-2.7063,-2.6473750000000003,-1.6566,-1.422625,-211.85,215.9375,190.594375,0.0,0.0,0.0,0.0,0.03869999999999996,-5.498166666666667,-5.498166666666667,-0.5481,0.8603333333333334,0.06574999999999998,0.45199999999999996,68.223,0.0876,-0.21002500000000002,-0.6760000000000002,100.0,1.0,1.0,210.38333333333333,0.0,0.0,0.0,0.0,0.0,0.0,0.0,8917.3,0.0,55.0,5.0,245.57,1.0,0.0,0.0,0.0,0.0,0.0,1.0,0.0,0.9570000000000007,0.9570000000000007,0.0,0.0,1.0,55.0,616.79921,10000.0,85.000001,85.000001,85.000001,85.000001,395.0,0.0,0.0,0.0,1.0,166.665,51.727000000000004,51.727000000000004,47.363,47.363,34.0,-20.96,27.85,-25.676666666666662,35.0275,0.0,1782.057,0.045000000000001705,100.0,28.209,28.586,42.53,43.708,0.0,0.0,100.0,0.0,0.0,0.0,0.0,3024.5714285714284,3302.8,4222.125,4463.5,305.516,304.18833333333333,314.642,313.92475,21.9766,20.6181,21.9715,21.4895,314.999998,314.999998,324.999988,324.999988,99.56004285714286,99.5075,99.56814285714286,99.54814285714286,0.13775000000000004,-0.013000000000000012,-0.013666666666666666,0.21266666666666667,-0.03333333333333144,-0.060000000000002274,1.5150000000000001,1.495,38.354,29.862666666666666,38.322,35.3095,56.364000000000004,35.295500000000004,59.878,52.871,54.268,34.393,58.4535,51.176,53.409,33.9125,58.3635,50.574666666666666,-0.08000000000000007,-0.08349999999999991,0.104605,0.10640000000000001,0.0,213.615,213.67000000000002,210.38333333333333,210.38333333333333,0.0,0.0
20,0.0,0.0,0.0,1.0,1.0,0.0,0.0,1.0,0.0,100.0,1.0,1.1856,26.0,0.0,0.0,0.0,59.999996,0.0,26.0,26.0,26.0,26.0,0.06750000000000012,0.27090000000000014,-0.021666666666666667,292.374,-2.7923,-2.61675,-1.5666,-1.5582500000000001,-208.37,215.9325,190.572125,0.0,0.0,0.0,0.0,0.0407333333333334,-5.498166666666667,-5.498166666666667,-0.5565,-1.149,0.04412499999999997,-1.3170000000000002,68.361,0.0625,-0.2242,0.14200000000000124,100.0,1.0,1.0,210.74333333333334,0.0,0.0,0.0,0.0,0.0,0.0,0.0,8932.7,0.0,55.0,5.0,246.07333333333332,0.0,0.0,0.0,0.0,0.0,0.0,0.0,0.0,1.0079999999999991,1.0079999999999991,0.0,0.0,0.0,55.0,616.79921,10000.0,85.000001,85.000001,85.000001,85.000001,395.0,0.0,0.0,0.0,1.0,333.33500000000004,52.795,52.795,47.058,47.058,34.0,-22.89,24.298000000000002,-26.72,32.129999999999995,0.0,1782.006,0.4299999999999997,100.0,27.534,28.244,43.149,44.067,0.0,0.0,100.0,0.0,0.0,0.0,0.0,2989.142857142857,3073.6,4172.75,4166.1,305.9655,304.9433333333333,314.6835,314.4085,21.9859,20.6236,21.9821,21.4989,314.999998,314.999998,324.999988,324.999988,99.56005714285715,99.5075,99.5683,99.5483,0.09349999999999992,-0.03749999999999998,-0.059333333333333335,0.16633333333333333,-0.045000000000001705,-0.028571428571432023,1.4803333333333333,1.486,38.412,29.897666666666666,38.388,35.368,56.347,35.333,59.917500000000004,52.9345,54.251999999999995,34.4275,58.49,51.2375,53.393,33.946,58.397,50.635,-0.052999999999999936,-0.10749999999999993,0.101555,0.107575,0.0,214.01999999999998,214.005,210.74333333333334,210.74333333333334,0.0,0.0
21,0.0,0.0,0.0,1.0,1.0,0.0,0.0,1.0,0.0,100.0,1.0,1.1856,26.0,0.0,0.0,0.0,59.999996,0.0,26.0,26.0,26.0,26.0,0.027249999999999996,0.28390000000000004,-0.04726666666666667,292.618,-2.7338,-2.643,-1.6136,-1.53475,-205.07999999999998,215.9275,190.55025,0.0,0.0,0.0,0.0,0.0426333333333333,-5.498166666666667,-5.498166666666667,-0.5756,0.536,0.008124999999999938,-1.3010000000000002,68.486,0.024200000000000003,-0.22012500000000002,0.6280000000000001,100.0,1.0,1.0,211.34,0.0,0.0,0.0,0.0,0.0,0.0,0.0,8957.9,0.0,55.0,5.0,246.52333333333334,1.0,0.0,0.0,0.0,0.0,0.0,0.0,0.0,1.056000000000001,1.056000000000001,0.0,0.0,1.0,55.0,616.79921,10000.0,85.000001,85.000001,85.000001,85.000001,395.0,0.0,0.0,0.0,1.0,166.665,52.322,52.322,48.157,48.157,34.0,-25.085,23.072,-28.363333333333337,27.517500000000002,0.0,1781.959,0.40500000000000114,100.0,27.979,28.252,42.681,43.399,0.0,0.0,100.0,0.0,0.0,0.0,0.0,3178.0,3055.7,4095.0,3984.5,305.3615,305.0113333333333,315.021,315.02125,21.9949,20.6289,21.9918,21.5073,314.999998,314.999998,324.999988,324.999988,99.56007142857143,99.5075,99.56842857142857,99.54842857142857,0.07099999999999995,-0.06874999999999998,-0.10183333333333333,0.1265,-0.04833333333333201,-0.04999999999999716,1.577,1.5985,38.468,29.930999999999997,38.449,35.420500000000004,56.335,35.371,59.948,52.988,54.239999999999995,34.4625,58.5185,51.289,53.379999999999995,33.9795,58.4225,50.68566666666666,-0.047499999999999876,-0.11500000000000021,0.10211500000000001,0.108285,0.0,214.47,214.41,211.34,211.34,0.0,0.0
22,0.0,0.0,0.0,1.0,1.0,0.0,0.0,1.0,0.0,100.0,1.0,1.1856,26.0,0.0,0.0,0.0,59.999996,0.0,26.0,26.0,26.0,26.0,-0.026374999999999926,0.27890000000000015,-0.0017000000000000001,292.175,-2.6451000000000002,-2.7186250000000003,-1.5926,-1.5395,-201.38,215.9225,190.525125,0.0,0.0,0.0,0.0,0.04479999999999995,-5.498166666666667,-5.498166666666667,-0.5567,-0.10466666666666657,-0.0036249999999999893,-0.956,68.633,-0.0122,-0.20505,0.7599999999999998,100.0,1.0,1.0,211.57333333333332,0.0,0.0,0.0,0.0,0.0,0.0,0.0,8967.8,0.0,55.0,5.0,247.05333333333334,0.0,0.0,0.0,0.0,0.0,0.0,0.0,0.0,1.1099999999999994,1.1099999999999994,0.0,0.0,0.0,55.0,616.79921,10000.0,85.000001,85.000001,85.000001,85.000001,395.0,0.0,0.0,0.0,1.0,166.665,52.582,52.582,47.028,47.028,34.0,-23.9775,21.535999999999998,-32.620000000000005,27.6325,0.0,1781.905,0.379999999999999,100.0,28.145,28.186,43.379,43.573,0.0,0.0,100.0,0.0,0.0,0.0,0.0,3029.4285714285716,2931.5,4324.875,4248.2,305.7205,305.29466666666667,314.4215,314.2845,22.0051,20.6348,22.003,21.517,314.999998,314.999998,324.999988,324.999988,99.56007142857143,99.50751666666666,99.56858571428572,99.54858571428572,0.04849999999999999,-0.09899999999999998,-0.14,0.07683333333333334,-0.051666666666669414,-0.04285714285714448,1.4726666666666666,1.517,38.532,29.967666666666666,38.519,35.4815,56.319,35.413,59.99,53.053,54.224999999999994,34.501999999999995,58.558,51.3515,53.364000000000004,34.016999999999996,58.4585,50.74666666666667,-0.04849999999999999,-0.1120000000000001,0.10504000000000001,0.10992500000000001,0.0,214.93,214.84,211.57333333333332,211.57333333333332,0.0,0.0
23,0.0,0.0,0.0,1.0,1.0,0.0,0.0,1.0,0.0,100.0,1.0,1.1856,26.0,0.0,0.0,0.0,59.999996,0.0,26.0,26.0,26.0,26.0,-0.07162499999999994,0.25239999999999996,-0.044666666666666674,292.145,-2.6523,-2.687875,-1.6309,-1.53175,-197.88,215.91750000000002,190.501625,0.0,0.0,0.0,0.0,0.04683333333333339,-5.498166666666667,-5.498166666666667,-0.5757,-0.03433333333333333,-0.018124999999999947,0.5780000000000001,68.766,-0.0337,-0.22915000000000002,0.8179999999999996,100.0,1.0,1.0,212.14,0.0,0.0,0.0,0.0,0.0,0.0,0.0,8991.9,0.0,55.0,5.0,247.53,1.0,0.0,0.0,0.0,0.0,0.0,0.0,0.0,1.1610000000000014,1.1610000000000014,0.0,0.0,1.0,55.0,616.79921,10000.0,85.000001,85.000001,85.000001,85.000001,395.0,0.0,0.0,0.0,1.0,166.665,51.727000000000004,51.727000000000004,48.019,48.019,34.0,-26.59,22.695999999999998,-31.056666666666665,25.087500000000002,0.0,1781.854,0.3500000000000014,100.0,28.779,28.024,43.647,43.463,0.0,0.0,100.0,0.0,0.0,0.0,0.0,3258.285714285714,3126.3,4044.875,3988.3,304.8725,304.94966666666664,315.09675,315.0815,22.0147,20.6404,22.0136,21.5262,314.999998,314.999998,324.999988,324.999988,99.56008571428572,99.50753333333333,99.56872857142857,99.54874285714286,0.044499999999999984,-0.09750000000000003,-0.1575,0.077,-0.04333333333332945,-0.06571428571428584,1.5566666666666666,1.5755,38.592,30.002333333333333,38.585,35.5385,56.304,35.454499999999996,60.0275,53.112,54.211,34.54,58.5925,51.408500000000004,53.349000000000004,34.0535,58.49,50.80233333333334,-0.052999999999999936,-0.10650000000000004,0.10815000000000001,0.11320000000000001,0.0,215.32,215.265,212.14,212.14,0.0,0.0
24,0.0,0.0,0.0,1.0,1.0,0.0,0.0,1.0,0.0,100.0,1.0,1.1856,26.0,0.0,0.0,0.0,59.999996,0.0,26.0,26.0,26.0,26.0,-0.07799999999999996,0.27470000000000017,-0.0562,292.374,-2.6757,-2.7022500000000003,-1.5487000000000002,-1.56275,-194.57,215.91,190.479,0.0,0.0,0.0,0.0,0.048733333333333295,-5.498166666666667,-5.498166666666667,-0.5822,-0.7776666666666666,-0.01200000000000001,0.8240000000000001,68.895,-0.046400000000000004,-0.2174,0.7040000000000006,100.0,1.0,1.0,212.40666666666667,0.0,0.0,0.0,0.0,0.0,0.0,0.0,9003.1,0.0,55.0,5.0,247.99333333333334,0.0,0.0,0.0,0.0,0.0,0.0,0.0,0.0,1.2089999999999996,1.2089999999999996,0.0,0.0,0.0,55.0,616.79921,10000.0,85.000001,85.000001,85.000001,85.000001,395.0,0.0,0.0,0.0,1.0,166.665,52.872,52.872,47.058,47.058,34.0,-24.075,21.212,-32.63333333333333,26.2075,0.0,1781.806,0.245000000000001,100.0,28.41,27.692,43.849000000000004,43.345,0.0,0.0,100.0,0.0,0.0,0.0,0.0,2929.5714285714284,2978.7,4240.875,4141.4,305.934,305.41633333333334,314.4975,314.64975,22.023600000000002,20.6454,22.0235,21.5348,314.999998,314.999998,324.999988,324.999988,99.56008571428572,99.50755,99.56887142857143,99.54887142857143,0.03275000000000006,-0.10624999999999996,-0.165,0.06183333333333334,-0.045000000000001705,-0.047142857142851824,1.5016666666666667,1.5165,38.647999999999996,30.034,38.647,35.5925,56.287,35.491,60.064,53.167500000000004,54.195,34.574,58.626999999999995,51.462,53.332,34.086,58.521,50.85433333333333,-0.0605,-0.10400000000000009,0.10104,0.11162500000000002,0.0,215.72500000000002,215.635,212.40666666666667,212.40666666666667,0.0,0.0
25,0.0,0.0,0.0,1.0,1.0,0.0,0.0,1.0,0.0,100.0,1.0,1.1856,26.0,0.0,0.0,0.0,59.999996,0.0,26.0,26.0,26.0,26.0,-0.06899999999999995,0.26560000000000006,-0.028300000000000002,292.084,-2.7245,-2.674125,-1.5489000000000002,-1.5775000000000001,-191.06,215.9025,190.4535,0.0,0.0,0.0,0.0,0.050799999999999956,-5.498166666666667,-5.498166666666667,-0.6112000000000001,0.27666666666666684,-0.026874999999999982,-1.2600000000000002,69.026,-0.052500000000000005,-0.2233,0.702,100.0,1.0,1.0,212.95666666666668,0.0,0.0,0.0,0.0,0.0,0.0,0.0,9026.5,0.0,55.0,5.0,248.46666666666667,1.0,0.0,0.0,0.0,0.0,0.0,0.0,0.0,1.259999999999998,1.259999999999998,0.0,0.0,1.0,55.0,616.79921,10000.0,85.000001,85.000001,85.000001,85.000001,395.0,0.0,0.0,0.0,1.0,166.665,51.422,51.422,47.882,47.882,34.0,-29.7625,22.934,-30.576666666666668,24.5025,0.0,1781.755,0.18500000000000227,100.0,28.503,28.197,43.499,43.049,0.0,0.0,100.0,0.0,0.0,0.0,0.0,3462.142857142857,3218.0,4034.5,3976.9,304.566,304.56666666666666,315.129,315.02175,22.0331,20.651,22.0338,21.5438,314.999998,314.999998,324.999988,324.999988,99.5601,99.50756666666666,99.56901428571429,99.54901428571429,0.026000000000000023,-0.10924999999999996,-0.171,0.052833333333333336,-0.07333333333333059,-0.03857142857143003,1.5553333333333332,1.5835,38.707,30.069,38.712,35.6485,56.271,35.533500000000004,60.099000000000004,53.2235,54.179,34.613,58.6595,51.5155,53.315,34.1235,58.551,50.907,-0.0674999999999999,-0.09399999999999986,0.10562500000000001,0.10064000000000001,0.0,216.14,216.055,212.95666666666668,212.95666666666668,0.0,0.0
26,0.0,0.0,0.0,1.0,1.0,0.0,0.0,1.0,0.0,100.0,1.0,1.1856,26.0,0.0,0.0,0.0,59.999996,0.0,26.0,26.0,26.0,26.0,-0.08374999999999999,0.28690000000000015,0.08170000000000001,291.016,-2.6739,-2.7565,-1.5991,-1.574875,-187.53,215.89,190.427875,0.0,0.0,0.0,0.0,0.0528333333333334,-5.498166666666667,-5.498166666666667,-0.5686,0.4119999999999999,-0.0405000000000002,0.841,69.163,-0.0523,-0.198825,0.4299999999999997,100.0,1.0,1.0,213.06333333333333,0.0,0.0,0.0,0.0,0.0,0.0,0.0,9030.9,0.0,55.0,5.0,248.96,0.0,0.0,0.0,0.0,0.0,0.0,0.0,0.0,1.311,1.311,0.0,0.0,0.0,55.0,616.79921,10000.0,85.000001,85.000001,85.000001,85.000001,395.0,0.0,0.0,0.0,1.0,166.665,51.575,51.575,45.914,45.914,34.0,-25.612499999999997,22.504,-37.03,30.27,0.0,1781.704,-0.02499999999999858,100.0,29.371,28.505,44.334,43.499,0.0,0.0,100.0,0.0,0.0,0.0,0.0,3130.142857142857,3039.9,4625.5,4593.6,305.1855,305.18533333333335,313.644,313.59775,22.0429,20.6567,22.0446,21.5531,314.999998,314.999998,324.999988,324.999988,99.5601,99.50758333333333,99.56917142857142,99.54917142857143,0.046250000000000124,-0.10050000000000003,-0.15983333333333336,0.06233333333333334,-0.03999999999999915,-0.060000000000002274,1.424,1.4289999999999998,38.768,30.104666666666667,38.778,35.707,56.257999999999996,35.576,60.141,53.285,54.167,34.6525,58.698499999999996,51.575,53.302,34.161500000000004,58.587,50.964666666666666,-0.08199999999999985,-0.08349999999999991,0.10923000000000001,0.10942500000000001,0.0,216.55,216.525,213.06333333333333,213.06333333333333,0.0,0.0
27,0.0,0.0,0.0,1.0,1.0,0.0,0.0,1.0,0.0,100.0,1.0,1.1856,26.0,0.0,0.0,0.0,59.999996,0.0,26.0,26.0,26.0,26.0,-0.057374999999999954,0.24829999999999997,-0.05446666666666666,291.763,-2.642,-2.718,-1.5887,-1.6425,-184.20999999999998,215.88,190.40475,0.0,0.0,0.0,0.0,0.05476666666666652,-5.498166666666667,-5.498166666666667,-0.603,-0.9516666666666667,-0.03774999999999995,0.6739999999999999,69.286,-0.0446,-0.24702500000000002,0.27200000000000024,100.0,1.0,1.0,213.66666666666669,0.0,0.0,0.0,0.0,0.0,0.0,0.0,9056.5,0.0,55.0,5.0,249.40333333333334,1.0,0.0,0.0,0.0,0.0,0.0,0.0,0.0,1.3589999999999982,1.3589999999999982,0.0,0.0,1.0,55.0,616.79921,10000.0,85.000001,85.000001,85.000001,85.000001,395.0,0.0,0.0,0.0,1.0,166.665,51.772999999999996,51.772999999999996,46.921,46.921,34.0,-25.025,23.312,-30.04,26.56,0.0,1781.656,-0.0799999999999983,100.0,28.989,28.303,44.688,43.862,0.0,0.0,100.0,0.0,0.0,0.0,0.0,3136.5714285714284,3141.7,3970.125,3995.0,305.3455,304.88933333333335,315.116,314.9625,22.0518,20.6619,22.0546,21.5619,314.999998,314.999998,324.999988,324.999988,99.5601,99.50758333333333,99.56931428571428,99.54931428571429,0.049250000000000016,-0.09350000000000003,-0.153,0.06983333333333333,-0.036666666666668846,-0.05142857142856627,1.522,1.5354999999999999,38.824,30.137,38.841,35.7615,56.242999999999995,35.6145,60.1775,53.341499999999996,54.153,34.6875,58.733000000000004,51.629,53.287,34.195,58.6185,51.01733333333333,-0.08299999999999996,-0.08099999999999996,0.10699000000000002,0.102415,0.0,216.88,216.845,213.66666666666669,213.66666666666669,0.0,0.0
28,0.0,0.0,0.0,1.0,1.0,0.0,0.0,1.0,0.0,100.0,1.0,1.1856,26.0,0.0,0.0,0.0,59.999996,0.0,26.0,26.0,26.0,26.0,-0.03049999999999997,0.2774000000000001,-0.0487,291.824,-2.6407,-2.6945,-1.5714000000000001,-1.573125,-180.67000000000002,215.865,190.37925,0.0,0.0,0.0,0.0,0.0568333333333334,-5.498166666666667,-5.498166666666667,-0.5972000000000001,0.692,-0.03762500000000024,-0.35599999999999987,69.417,-0.038700000000000005,-0.20965,0.29600000000000115,100.0,1.0,1.0,214.07666666666665,0.0,0.0,0.0,0.0,0.0,0.0,0.0,9074.0,0.0,55.0,5.0,249.87,0.0,0.0,0.0,0.0,0.0,0.0,0.0,0.0,1.4100000000000001,1.4100000000000001,0.0,0.0,0.0,55.0,616.79921,10000.0,85.000001,85.000001,85.000001,85.000001,395.0,0.0,0.0,0.0,1.0,166.665,51.879999999999995,51.879999999999995,47.134,47.134,34.0,-25.22,22.048,-31.833333333333336,26.9725,0.0,1781.606,-0.19000000000000128,100.0,28.877,28.398,43.92,43.542,0.0,0.0,100.0,0.0,0.0,0.0,0.0,3192.857142857143,2981.0,4244.5,4155.1,305.2165,305.20033333333333,314.708,314.6325,22.0615,20.6675,22.0649,21.5709,314.999998,314.999998,324.999988,324.999988,99.56011428571429,99.5076,99.56947142857143,99.54944285714285,0.05525000000000002,-0.09124999999999994,-0.15133333333333335,0.07283333333333333,-0.054999999999999716,-0.047142857142851824,1.5276666666666667,1.5385,38.884,30.172,38.906,35.818,56.229,35.655,60.2115,53.397999999999996,54.14,34.725,58.765,51.6835,53.272999999999996,34.231,58.647,51.07066666666667,-0.09450000000000003,-0.06850000000000023,0.10185000000000001,0.106105,0.0,217.345,217.305,214.07666666666665,214.07666666666665,0.0,0.0
29,0.0,0.0,0.0,1.0,1.0,0.0,0.0,1.0,0.0,100.0,1.0,1.1856,26.0,0.0,0.0,0.0,59.999996,0.0,26.0,26.0,26.0,26.0,-0.02012499999999995,0.24870000000000014,-0.0125,291.641,-2.6271,-2.745875,-1.5497,-1.57175,-177.13,215.85,190.352875,0.0,0.0,0.0,0.0,0.05889999999999995,-5.498166666666667,-5.498166666666667,-0.6097,-0.7366666666666667,-0.02674999999999983,0.8069999999999999,69.55,-0.0279,-0.22082500000000002,-0.045999999999999375,100.0,1.0,1.0,214.37666666666667,0.0,0.0,0.0,0.0,0.0,0.0,0.0,9086.6,0.0,55.0,5.0,250.35333333333335,1.0,0.0,0.0,0.0,0.0,0.0,0.0,0.0,1.4609999999999985,1.4609999999999985,0.0,0.0,1.0,55.0,616.79921,10000.0,85.000001,85.000001,85.000001,85.000001,395.0,0.0,0.0,0.0,1.0,166.665,51.894999999999996,51.894999999999996,46.86,46.86,34.0,-24.009999999999998,24.677999999999997,-30.019999999999996,28.87,0.0,1781.554,-0.28999999999999915,100.0,28.69,28.178,44.318,43.822,0.0,0.0,100.0,0.0,0.0,0.0,0.0,3155.4285714285716,3127.7,4108.0,4248.7,305.239,304.89,314.81225,314.38375,22.0708,20.6731,22.075499999999998,21.5802,314.999998,314.999998,324.999988,324.999988,99.56012857142858,99.50761666666666,99.56961428571428,99.5496,0.0747500000000001,-0.06574999999999998,-0.135,0.09033333333333333,-0.03999999999999915,-0.044285714285713595,1.4806666666666666,1.4849999999999999,38.942,30.206666666666663,38.972,35.8765,56.213,35.6935,60.251,53.459,54.123999999999995,34.760999999999996,58.8015,51.742,53.257,34.2655,58.6805,51.12766666666667,-0.10199999999999987,-0.0535000000000001,0.10680500000000001,0.09984000000000001,0.0,217.70499999999998,217.675,214.37666666666667,214.37666666666667,0.0,0.0
30,0.0,0.0,0.0,1.0,1.0,0.0,0.0,1.0,0.0,100.0,1.0,1.1856,26.0,0.0,0.0,0.0,59.999996,0.0,26.0,26.0,26.0,26.0,-0.005375000000000019,0.2631000000000001,-0.011066666666666667,291.122,-2.6870000000000003,-2.6262499999999998,-1.5245000000000002,-1.6263750000000001,-174.0,215.835,190.329375,0.0,0.0,0.0,0.0,0.060699999999999976,-5.498166666666667,-5.498166666666667,-0.6024,0.8523333333333334,-0.0286249999999999,-0.5350000000000001,69.664,-0.015000000000000001,-0.2174,-0.03200000000000003,100.0,1.0,1.0,214.76999999999998,0.0,0.0,0.0,0.0,0.0,0.0,0.0,9103.4,0.0,55.0,5.0,250.76333333333332,0.0,0.0,0.0,0.0,0.0,0.0,1.0,0.0,1.5060000000000002,1.5060000000000002,0.0,0.0,0.0,55.0,616.79921,10000.0,85.000001,85.000001,85.000001,85.000001,395.0,0.0,0.0,0.0,1.0,166.665,50.751,50.751,47.012,47.012,34.0,-26.572499999999998,23.38,-29.856666666666662,29.2575,0.0,1781.509,-0.3049999999999997,100.0,29.378,29.089,44.006,43.915,0.0,0.0,100.0,0.0,0.0,0.0,0.0,3439.5714285714284,3082.2,4245.375,4135.8,304.513,304.81933333333336,314.62075,314.5455,22.0794,20.6783,22.0848,21.5884,314.999998,314.999998,324.999988,324.999988,99.56012857142858,99.50761666666666,99.56974285714286,99.54972857142857,0.08400000000000007,-0.06725000000000003,-0.12116666666666667,0.09866666666666668,-0.04999999999999716,-0.04999999999999716,1.5016666666666667,1.4975,38.995999999999995,30.239333333333335,39.03,35.9275,56.204,35.731,60.282,53.5105,54.116,34.796,58.8305,51.7915,53.248000000000005,34.298500000000004,58.7065,51.176,-0.11450000000000005,-0.05900000000000016,0.10257000000000001,0.10851000000000001,0.0,218.07999999999998,218.10000000000002,214.76999999999998,214.76999999999998,0.0,0.0
31,0.0,0.0,0.0,1.0,1.0,0.0,0.0,1.0,0.0,100.0,1.0,1.1856,26.0,0.0,0.0,0.0,59.999996,0.0,26.0,26.0,26.0,26.0,0.013000000000000123,0.25750000000000006,-6.666666666666667e-05,290.848,-2.76,-2.6025,-1.5766,-1.616625,-170.23000000000002,215.8175,190.30225,0.0,0.0,0.0,0.0,0.06289999999999996,-5.498166666666667,-5.498166666666667,-0.5937,-0.5823333333333334,-0.015375000000000139,-0.661,69.803,-0.0007,-0.2258,-0.18799999999999883,100.0,1.0,1.0,215.11,0.0,0.0,0.0,0.0,0.0,0.0,0.0,9117.8,0.0,55.0,5.0,251.26666666666665,1.0,0.0,0.0,0.0,0.0,0.0,1.0,0.0,1.5599999999999987,1.5599999999999987,0.0,0.0,1.0,55.0,616.79921,10000.0,85.000001,85.000001,85.000001,85.000001,395.0,0.0,0.0,0.0,1.0,166.665,50.995,50.995,45.731,45.731,34.0,-25.2125,25.46,-30.4,31.5425,0.0,1781.456,-0.3550000000000004,100.0,29.019,29.123,44.639,44.59,0.0,0.0,100.0,0.0,0.0,0.0,0.0,3269.4285714285716,3287.2,4275.625,4279.1,305.161,304.3666666666667,314.4765,314.30625,22.0894,20.6844,22.0961,21.598399999999998,314.999998,314.999998,324.999988,324.999988,99.56014285714286,99.50763333333333,99.56991428571429,99.54988571428571,0.09224999999999994,-0.05125000000000002,-0.1075,0.1205,-0.051666666666669414,-0.04142857142856826,1.4633333333333334,1.458,39.059,30.27733333333333,39.101,35.99,56.19,35.774,60.324,53.576499999999996,54.102000000000004,34.835499999999996,58.87,51.855000000000004,53.233000000000004,34.3365,58.7425,51.238,-0.11149999999999993,-0.05750000000000011,0.10022500000000001,0.11285,0.0,218.48000000000002,218.47500000000002,215.11,215.11,0.0,0.0
32,0.0,0.0,0.0,1.0,1.0,0.0,0.0,1.0,0.0,100.0,1.0,1.1856,26.0,0.0,0.0,0.0,59.999996,0.0,26.0,26.0,26.0,26.0,0.005125000000000046,0.2639,-0.0108,291.138,-2.6614,-2.71775,-1.5734,-1.5290000000000001,-166.67000000000002,215.8025,190.2765,0.0,0.0,0.0,0.0,0.0649666666666665,-5.498166666666667,-5.498166666666667,-0.6064,0.038999999999999924,-0.03887499999999999,0.4059999999999999,69.931,0.0074,-0.227525,-0.30799999999999983,100.0,1.0,1.0,215.55,0.0,0.0,0.0,0.0,0.0,0.0,0.0,9136.4,0.0,55.0,5.0,251.72666666666666,0.0,0.0,0.0,0.0,0.0,0.0,1.0,0.0,1.6110000000000007,1.6110000000000007,0.0,0.0,0.0,55.0,616.79921,10000.0,85.000001,85.000001,85.000001,85.000001,395.0,0.0,0.0,0.0,1.0,166.665,51.391999999999996,51.391999999999996,46.417,46.417,34.0,-22.64,25.874000000000002,-28.85,31.545,0.0,1781.404,-0.39000000000000057,100.0,29.141,28.918,44.406,44.334,0.0,0.0,100.0,0.0,0.0,0.0,0.0,3115.857142857143,3149.2,4191.5,4371.8,305.292,304.849,314.63575,314.16025,22.0988,20.6902,22.1066,21.6077,314.999998,314.999998,324.999988,324.999988,99.56015714285714,99.50763333333333,99.57005714285714,99.55004285714286,0.10749999999999993,-0.036250000000000004,-0.09433333333333332,0.13383333333333333,-0.023333333333326323,-0.06857142857143117,1.4986666666666668,1.495,39.117999999999995,30.313666666666666,39.166,36.048,56.177,35.814,60.359,53.635,54.09,34.8725,58.902,51.911500000000004,53.22,34.372,58.7715,51.29333333333334,-0.11749999999999994,-0.04800000000000004,0.10750000000000001,0.10832000000000001,0.0,218.875,218.905,215.55,215.55,0.0,0.0
33,0.0,0.0,0.0,1.0,1.0,0.0,0.0,1.0,0.0,100.0,1.0,1.1856,26.0,0.0,0.0,0.0,59.999996,0.0,26.0,26.0,26.0,26.0,0.022750000000000048,0.2594000000000001,-0.0362,291.443,-2.7128,-2.69325,-1.5787,-1.60425,-163.51999999999998,215.7875,190.252875,0.0,0.0,0.0,0.0,0.06679999999999997,-5.498166666666667,-5.498166666666667,-0.614,-0.41000000000000003,-0.028000000000000025,0.11699999999999999,70.045,0.0129,-0.21835000000000002,-0.2320000000000011,100.0,1.0,1.0,215.89333333333332,0.0,0.0,0.0,0.0,0.0,0.0,0.0,9151.0,0.0,55.0,5.0,252.13666666666666,1.0,0.0,0.0,0.0,0.0,0.0,1.0,0.0,1.6559999999999988,1.6559999999999988,0.0,0.0,1.0,55.0,616.79921,10000.0,85.000001,85.000001,85.000001,85.000001,395.0,0.0,0.0,0.0,1.0,166.665,51.804,51.804,46.661,46.661,34.0,-23.415,24.332,-29.35333333333333,30.7775,0.0,1781.359,-0.41999999999999815,100.0,28.747,28.745,44.218,44.382999999999996,0.0,0.0,100.0,0.0,0.0,0.0,0.0,3158.285714285714,3024.9,4182.0,4248.8,305.4075,305.1023333333333,314.721,314.3535,22.1071,20.6951,22.1158,21.6159,314.999998,314.999998,324.999988,324.999988,99.56017142857142,99.50765,99.57018571428571,99.55017142857143,0.10275000000000012,-0.04349999999999998,-0.10583333333333333,0.11633333333333333,-0.03166666666666629,-0.04285714285714448,1.504,1.492,39.169,30.34433333333333,39.224000000000004,36.099000000000004,56.166,35.846000000000004,60.3905,53.687,54.08,34.902,58.9315,51.962,53.209,34.4005,58.798,51.342,-0.11349999999999993,-0.05049999999999999,0.10944000000000001,0.10275500000000001,0.0,219.215,219.23000000000002,215.89333333333332,215.89333333333332,0.0,0.0
34,0.0,0.0,0.0,1.0,1.0,0.0,0.0,1.0,0.0,100.0,1.0,1.1856,26.0,0.0,0.0,0.0,59.999996,0.0,26.0,26.0,26.0,26.0,0.016625000000000112,0.25950000000000006,-0.06643333333333334,291.824,-2.7379,-2.623625,-1.6455000000000002,-1.559625,-159.94,215.7725,190.225,0.0,0.0,0.0,0.0,0.06886666666666652,-5.498166666666667,-5.498166666666667,-0.6444000000000001,-0.7286666666666667,0.0040000000000000036,0.933,70.173,0.021400000000000002,-0.22462500000000002,-0.3539999999999992,100.0,1.0,1.0,216.33333333333331,0.0,0.0,0.0,0.0,0.0,0.0,0.0,9169.6,0.0,55.0,5.0,252.59666666666666,0.0,0.0,0.0,0.0,0.0,0.0,1.0,0.0,1.7070000000000007,1.7070000000000007,0.0,0.0,0.0,55.0,616.79921,10000.0,85.000001,85.000001,85.000001,85.000001,395.0,0.0,0.0,0.0,1.0,166.665,52.216,52.216,47.272,47.272,34.0,-21.7225,24.866,-28.380000000000003,30.615000000000002,0.0,1781.308,-0.39000000000000057,100.0,28.572,28.313,43.943,44.308,0.0,0.0,100.0,0.0,0.0,0.0,0.0,2972.285714285714,3099.0,4054.75,4198.4,305.6935,305.00533333333334,315.06275,314.51425,22.1163,20.7007,22.1262,21.6252,314.999998,314.999998,324.999988,324.999988,99.56018571428571,99.50765,99.57032857142858,99.55032857142857,0.11775000000000002,-0.02849999999999997,-0.093,0.13633333333333333,-0.046666666666666856,-0.05571428571428072,1.527,1.513,39.227000000000004,30.379333333333335,39.289,36.1575,56.152,35.8825,60.424,53.747,54.067,34.936,58.9625,52.0195,53.194,34.433,58.826,51.39833333333333,-0.11599999999999988,-0.0495000000000001,0.10239500000000001,0.107605,0.0,219.61,219.62,216.33333333333334,216.33333333333331,0.0,0.0
35,0.0,0.0,0.0,1.0,1.0,0.0,0.0,1.0,0.0,100.0,1.0,1.1856,26.0,0.0,0.0,0.0,59.999996,0.0,26.0,26.0,26.0,26.0,0.03562500000000002,0.24550000000000005,-0.0477,291.779,-2.7194000000000003,-2.6245000000000003,-1.6212,-1.51625,-156.36,215.76,190.194875,0.0,0.0,0.0,0.0,0.07096666666666651,-5.498166666666667,-5.498166666666667,-0.6834,-0.21866666666666656,-0.011375000000000135,-1.088,70.3,0.029400000000000003,-0.22792500000000002,-0.3960000000000008,100.0,1.0,1.0,216.79666666666668,0.0,0.0,0.0,0.0,0.0,0.0,0.0,9189.2,0.0,55.0,5.0,253.05333333333334,1.0,0.0,0.0,0.0,0.0,0.0,1.0,0.0,1.7579999999999991,1.7579999999999991,0.0,0.0,1.0,55.0,616.79921,10000.0,85.000001,85.000001,85.000001,85.000001,395.0,0.0,0.0,0.0,1.0,333.33500000000004,51.575,51.575,46.967,46.967,34.0,-23.377499999999998,27.009999999999998,-27.313333333333333,28.4425,0.0,1781.256,-0.25,100.0,28.285,28.819,43.674,43.896,0.0,0.0,100.0,0.0,0.0,0.0,0.0,3167.4285714285716,3323.6,4011.0,3994.4,305.395,304.187,315.1495,315.0105,22.1253,20.7065,22.136499999999998,21.6343,314.999998,314.999998,324.999988,324.999988,99.5602,99.50765,99.57048571428571,99.55047142857143,0.10675000000000012,-0.03125,-0.08716666666666667,0.14183333333333334,-0.051666666666669414,-0.04571428571428271,1.556,1.5365,39.283,30.415666666666667,39.352999999999994,36.2145,56.137,35.921,60.457499999999996,53.8025,54.052,34.9715,58.9935,52.073,53.179,34.4675,58.854,51.45066666666666,-0.10050000000000003,-0.06050000000000022,0.11137500000000002,0.104285,0.0,220.015,220.035,216.79666666666668,216.79666666666668,0.0,0.0
