,ABS Active,ABS Enabled,AID Allow Tire Blankets,AID Auto Blip,AID Auto Clutch,AID Auto Shift,AID Fuel Rate,AID Ideal Line,AID Mech Damage,AID Stability,AID Tire Wear Rate,Air Density,Air Temp,Ballast,Best Lap Delta,Best Lap Time,Brake Bias,Brake Pos,Brake Temp FL,Brake Temp FR,Brake Temp RL,Brake Temp RR,CG Accel Lateral,CG Accel Longitudinal,CG Accel Vertical,CG Height,Camber FL,Camber FR,Camber RL,Camber RR,Car Coord X,Car Coord Y,Car Coord Z,Car Damage Front,Car Damage Left,Car Damage Rear,Car Damage Right,Car Pos Norm,Caster FL,Caster FR,Chassis Pitch Angle,Chassis Pitch Rate,Chassis Roll Angle,Chassis Roll Rate,Chassis Velocity X,Chassis Velocity Y,Chassis Velocity Z,Chassis Yaw Rate,Clutch Pos,DRS Active,DRS Available,Drive Train Speed,ERS Heat Charging,ERS Is Charging,ERS Max Energy,ERS Power Level,ERS Recovery Level,Engine Brake Setting,Engine Limiter,Engine RPM,Flags,Fuel Level,Gear,Ground Speed,HR Sample Clock,In Pit,KERS Charge,KERS Deployed Energy,KERS Input,KERS Max Energy,LR Sample Clock,Lap Invalidated,Lap Time,Lap Time2,Last Lap Time,Last Sector Time,MR Sample Clock,Max Fuel,Max Power,Max RPM,Max Sus Travel FL,Max Sus Travel FR,Max Sus Travel RL,Max Sus Travel RR,Max Torque,Max Turbo Boost,Num Tires Off Track,Penalties Enabled,Position,Raw Data Sample Rate,Ride Height FL,Ride Height FR,Ride Height RL,Ride Height RR,Road Temp,Self Align Torque FL,Self Align Torque FR,Self Align Torque RL,Self Align Torque RR,Session Lap Count,Session Time Left,Steering Angle,Surface Grip,Suspension Travel FL,Suspension Travel FR,Suspension Travel RL,Suspension Travel RR,TC Active,TC Enabled,Throttle Pos,Tire Dirt Level FL,Tire Dirt Level FR,Tire Dirt Level RL,Tire Dirt Level RR,Tire Load FL,Tire Load FR,Tire Load RL,Tire Load RR,Tire Loaded Radius FL,Tire Loaded Radius FR,Tire Loaded Radius RL,Tire Loaded Radius RR,Tire Pressure FL,Tire Pressure FR,Tire Pressure RL,Tire Pressure RR,Tire Radius FL,Tire Radius FR,Tire Radius RL,Tire Radius RR,Tire Rubber Grip FL,Tire Rubber Grip FR,Tire Rubber Grip RL,Tire Rubber Grip RR,Tire Slip Angle FL,Tire Slip Angle FR,Tire Slip Angle RL,Tire Slip Angle RR,Tire Slip Ratio FL,Tire Slip Ratio FR,Tire Slip Ratio RL,Tire Slip Ratio RR,Tire Temp Core FL,Tire Temp Core FR,Tire Temp Core RL,Tire Temp Core RR,Tire Temp Inner FL,Tire Temp Inner FR,Tire Temp Inner RL,Tire Temp Inner RR,Tire Temp Middle FL,Tire Temp Middle FR,Tire Temp Middle RL,Tire Temp Middle RR,Tire Temp Outer FL,Tire Temp Outer FR,Tire Temp Outer RL,Tire Temp Outer RR,Toe In FL,Toe In FR,Toe In RL,Toe In RR,Turbo Boost,Wheel Angular Speed FL,Wheel Angular Speed FR,Wheel Angular Speed RL,Wheel Angular Speed RR,Wind Direction,Wind Speed
0,0.0,0.0,0.0,1.0,1.0,0.0,0.0,1.0,0.0,100.0,1.0,1.1856,26.0,0.0,0.0,0.0,59.99999,0.0,26.0,26.0,26.0,26.0,-0.060111111111111115,0.31330000000000013,0.064275,294.037,-2.7255,-2.6535555555555557,-1.5234,-1.5531000000000001,-275.68,216.29000000000002,190.987625,0.0,0.0,0.0,0.0,0.0015999999999999348,-5.498166666666667,-5.498166666666667,-0.5471,1.1356666666666664,-0.001374999999999904,-0.46199999999999997,65.52799999999999,-0.029,-0.21185,0.9540000000000006,100.0,1.0,1.0,202.31,0.0,0.0,0.0,0.0,0.0,0.0,0.0,8575.2,0.0,55.0,5.0,235.87333333333333,0.0,0.0,0.0,0.0,0.0,0.0,0.0,0.0,0.0030000000000001137,0.0030000000000001137,0.0,0.0,0.0,55.0,616.79921,10000.0,85.0,85.0,85.0,85.0,395.0,0.0,0.0,0.0,1.0,20.0,52.841,52.841,49.576,49.576,34.0,-25.77,23.862000000000002,-29.903333333333336,25.5825,0.0,1783.114,0.8200000000000003,100.0,27.515,26.936,40.59,40.637,0.0,0.0,100.0,0.0,0.0,0.0,0.0,2949.714285714286,3386.5,4074.5,4020.6000000000004,305.8915,304.091,314.92425,314.81925,21.7892,20.5107,21.7768,21.3205,314.99999,314.99999,324.99998,324.99998,99.55954285714286,99.50711666666666,99.56542857142857,99.54547142857143,-0.00024999999999986144,-0.11133333333333328,-0.15716666666666657,0.07566666666666677,-0.06333333333333258,-0.05666666666667197,1.5510000000000002,1.584,37.183,29.192,37.105000000000004,34.2535,56.507,34.442,59.1475,51.716499999999996,54.408,33.605000000000004,57.7715,50.068,53.57,33.1595,57.7355,49.49066666666667,-0.008999999999999897,-0.13649999999999984,0.11065000000000001,0.10864000000000001,0.0,205.365,205.26,202.31,202.31,0.0,0.0
1,0.0,0.0,0.0,1.0,1.0,0.0,0.0,1.0,0.0,100.0,1.0,1.1856,26.0,0.0,0.0,0.0,59.999996,0.0,26.0,26.0,26.0,26.0,-0.10499999999999998,0.3224,0.150725,292.984,-2.6384,-2.760111111111111,-1.5291000000000001,-1.5463,-272.34,216.285,190.96725,0.0,0.0,0.0,0.0,0.0035333333333333883,-5.498166666666667,-5.498166666666667,-0.5001,-0.5996666666666667,-0.05149999999999988,-0.7010000000000001,65.682,-0.0482,-0.194575,1.4459999999999997,100.0,1.0,1.0,202.48333333333335,0.0,0.0,0.0,0.0,0.0,0.0,0.0,8582.6,0.0,55.0,5.0,236.42666666666668,1.0,0.0,0.0,0.0,0.0,0.0,0.0,0.0,0.053999999999998494,0.053999999999998494,0.0,0.0,1.0,55.0,616.79921,10000.0,85.000001,85.000001,85.000001,85.000001,395.0,0.0,0.0,0.0,1.0,166.665,53.406,53.406,48.325,48.325,34.0,-27.3175,18.16,-34.55,28.892500000000002,0.0,1783.065,0.8550000000000004,100.0,27.603,27.136,42.602000000000004,41.715,0.0,0.0,100.0,0.0,0.0,0.0,0.0,3155.142857142857,2715.8,4337.375,4676.9,305.303,306.18975,314.21825,313.20925,21.7991,20.5159,21.7877,21.3296,314.999998,314.999998,324.999988,324.999988,99.55954285714286,99.50713333333333,99.56558571428572,99.54561428571428,-0.006000000000000005,-0.1419999999999999,-0.18366666666666664,0.039166666666666794,-0.045000000000001705,-0.046666666666666856,1.4125,1.47,37.245000000000005,29.224,37.173,34.31,56.489999999999995,34.483000000000004,59.192499999999995,51.7805,54.391999999999996,33.643,57.814,50.1295,53.553,33.196,57.775,49.550666666666665,-0.009500000000000064,-0.14400000000000013,0.10869000000000001,0.10864000000000001,0.0,205.81,205.69,202.48333333333335,202.48333333333335,0.0,0.0
2,0.0,0.0,0.0,1.0,1.0,0.0,0.0,1.0,0.0,100.0,1.0,1.1856,26.0,0.0,0.0,0.0,59.999996,0.0,26.0,26.0,26.0,26.0,-0.14022222222222214,0.28480000000000016,-0.083425,293.61,-2.6018,-2.7941111111111114,-1.4896,-1.6093000000000002,-268.98,216.2775,190.9485,0.0,0.0,0.0,0.0,0.005499999999999949,-5.498166666666667,-5.498166666666667,-0.5507000000000001,0.04400000000000004,-0.046875,2.491,65.825,-0.0697,-0.25627500000000003,1.5220000000000002,100.0,1.0,1.0,203.37666666666667,0.0,0.0,0.0,0.0,0.0,0.0,0.0,8620.4,0.0,55.0,5.0,236.94,0.0,0.0,0.0,0.0,0.0,0.0,0.0,0.0,0.10500000000000043,0.10500000000000043,0.0,0.0,0.0,55.0,616.79921,10000.0,85.000001,85.000001,85.000001,85.000001,395.0,0.0,0.0,0.0,1.0,166.665,52.307,52.307,50.11,50.11,34.0,-29.2925,20.514000000000003,-29.33,20.314999999999998,0.0,1783.013,0.7600000000000016,100.0,28.490000000000002,27.099,42.582,41.431,0.0,0.0,100.0,0.0,0.0,0.0,0.0,3316.142857142857,2957.2,3774.125,3688.0,304.5765,305.47925,315.57475,315.7725,21.8094,20.5208,21.7982,21.3384,314.999998,314.999998,324.999988,324.999988,99.55954285714286,99.50715,99.56571428571428,99.54574285714286,-0.013749999999999929,-0.137,-0.21750000000000003,0.011166666666666547,-0.05666666666667197,-0.03999999999999915,1.63,1.692,37.309,29.255,37.239000000000004,34.365,56.477000000000004,34.522,59.2305,51.8375,54.379000000000005,33.679,57.8495,50.1845,53.539,33.2305,57.8075,49.60466666666667,-0.01949999999999985,-0.13050000000000006,0.10499000000000001,0.104955,0.0,206.275,206.10500000000002,203.37666666666667,203.37666666666667,0.0,0.0
3,0.0,0.0,0.0,1.0,1.0,0.0,0.0,1.0,0.0,100.0,1.0,1.1856,26.0,0.0,0.0,0.0,59.999996,0.0,26.0,26.0,26.0,26.0,-0.1353333333333333,0.31730000000000014,0.067425,293.381,-2.7294,-2.689222222222222,-1.5134,-1.5897000000000001,-265.82,216.26749999999998,190.93,0.0,0.0,0.0,0.0,0.007333333333333303,-5.498166666666667,-5.498166666666667,-0.5113,0.42933333333333334,-0.006250000000000089,0.245,65.968,-0.0844,-0.201575,1.1980000000000004,100.0,1.0,1.0,203.51666666666665,0.0,0.0,0.0,0.0,0.0,0.0,0.0,8626.4,0.0,55.0,5.0,237.45333333333332,1.0,0.0,0.0,0.0,0.0,0.0,0.0,0.0,0.1529999999999987,0.1529999999999987,0.0,0.0,1.0,55.0,616.79921,10000.0,85.000001,85.000001,85.000001,85.000001,395.0,0.0,0.0,0.0,1.0,333.33500000000004,53.436,53.436,48.187,48.187,34.0,-25.66,18.708,-34.7,24.552500000000002,0.0,1782.965,0.620000000000001,100.0,28.021,27.029,42.445,41.429,0.0,0.0,100.0,0.0,0.0,0.0,0.0,2859.5714285714284,2909.1,4276.0,4246.1,306.0485,305.577,314.366,314.35,21.8187,20.5257,21.808,21.3468,314.999998,314.999998,324.999988,324.999988,99.55955714285714,99.50716666666666,99.56584285714285,99.54588571428572,-0.01649999999999996,-0.15133333333333332,-0.2081666666666666,0.013000000000000123,-0.02499999999999858,-0.051666666666669414,1.4835,1.543,37.367000000000004,29.2855,37.3,34.417500000000004,56.461,34.5625,59.2665,51.896,54.364000000000004,33.716499999999996,57.882999999999996,50.2405,53.522999999999996,33.266,57.839,49.659666666666666,-0.03400000000000003,-0.12349999999999994,0.10882000000000001,0.10375500000000001,0.0,206.695,206.61,203.51666666666665,203.51666666666665,0.0,0.0
4,0.0,0.0,0.0,1.0,1.0,0.0,0.0,1.0,0.0,100.0,1.0,1.1856,26.0,0.0,0.0,0.0,59.999996,0.0,26.0,26.0,26.0,26.0,-0.13822222222222214,0.27470000000000017,-0.024,293.61,-2.6629,-2.7398888888888893,-1.528,-1.5965,-262.45,216.2525,190.91025,0.0,0.0,0.0,0.0,0.009299999999999975,-5.498166666666667,-5.498166666666667,-0.5437000000000001,-0.767,-0.07687500000000025,-1.8000000000000003,66.114,-0.0858,-0.2368,1.138,100.0,1.0,1.0,204.10333333333332,0.0,0.0,0.0,0.0,0.0,0.0,0.0,8651.2,0.0,55.0,5.0,237.98000000000002,0.0,0.0,0.0,0.0,0.0,0.0,0.0,0.0,0.20400000000000063,0.20400000000000063,0.0,0.0,0.0,55.0,616.79921,10000.0,85.000001,85.000001,85.000001,85.000001,395.0,0.0,0.0,0.0,1.0,333.33500000000004,53.07,53.07,48.737,48.737,34.0,-29.259999999999998,19.374000000000002,-32.71333333333334,20.955,0.0,1782.913,0.5899999999999999,100.0,27.714,26.921,42.784,41.549,0.0,0.0,100.0,0.0,0.0,0.0,0.0,3252.142857142857,2880.9,4116.25,3686.3,305.094,305.50825,314.78325,315.637,21.8284,20.5308,21.8187,21.3557,314.999998,314.999998,324.999988,324.999988,99.55955714285714,99.50718333333333,99.566,99.54601428571429,-0.025249999999999995,-0.1439999999999999,-0.20299999999999996,0.01750000000000007,-0.04999999999999716,-0.061666666666667425,1.5505,1.5815000000000001,37.428,29.3175,37.367000000000004,34.473,56.442,34.604,59.3085,51.955,54.346000000000004,33.7545,57.9225,50.297,53.504999999999995,33.3025,57.875,49.714666666666666,-0.026999999999999913,-0.11500000000000021,0.10477,0.10543500000000001,0.0,207.115,207.01,204.10333333333335,204.10333333333332,0.0,0.0
5,0.0,0.0,0.0,1.0,1.0,0.0,0.0,1.0,0.0,100.0,1.0,1.1856,26.0,0.0,0.0,0.0,59.999996,0.0,26.0,26.0,26.0,26.0,-0.13755555555555554,0.27570000000000006,-0.009175,293.655,-2.6694,-2.7667777777777776,-1.5105,-1.5866,-259.07,216.235,190.89,0.0,0.0,0.0,0.0,0.011233333333333317,-5.498166666666667,-5.498166666666667,-0.5352,0.4526666666666668,-0.08037500000000009,1.1219999999999999,66.261,-0.0883,-0.21400000000000002,1.0060000000000002,100.0,1.0,1.0,204.51,0.0,0.0,0.0,0.0,0.0,0.0,0.0,8668.4,0.0,55.0,5.0,238.50666666666666,1.0,0.0,0.0,0.0,0.0,0.0,0.0,0.0,0.254999999999999,0.254999999999999,0.0,0.0,1.0,55.0,616.79921,10000.0,85.000001,85.000001,85.000001,85.000001,395.0,0.0,0.0,0.0,1.0,333.33500000000004,53.452,53.452,48.996,48.996,34.0,-27.177500000000002,19.45,-33.16,23.637500000000003,0.0,1782.861,0.3200000000000003,100.0,27.953,26.654,42.632,41.131,0.0,0.0,100.0,0.0,0.0,0.0,0.0,3087.285714285714,2847.9,4133.25,4088.2,305.3735,305.8335,314.77375,314.75875,21.8385,20.535899999999998,21.8291,21.3645,314.999998,314.999998,324.999988,324.999988,99.55955714285714,99.5072,99.56614285714285,99.54617142857143,-0.007500000000000062,-0.1356666666666666,-0.21150000000000002,0.01883333333333348,-0.02499999999999858,-0.030000000000001137,1.5234999999999999,1.56,37.491,29.349,37.432,34.528,56.427,34.647,59.3505,52.0155,54.331,33.794,57.962,50.355000000000004,53.489000000000004,33.3405,57.911500000000004,49.77133333333333,-0.052999999999999936,-0.09750000000000014,0.10837000000000001,0.112015,0.0,207.61,207.5,204.51,204.51,0.0,0.0
6,0.0,0.0,0.0,1.0,1.0,0.0,0.0,1.0,0.0,100.0,1.0,1.1856,26.0,0.0,0.0,0.0,59.999996,0.0,26.0,26.0,26.0,26.0,-0.12122222222222212,0.2825,0.009875,293.442,-2.6366,-2.7424444444444447,-1.5545,-1.5822,-255.89,216.215,190.870625,0.0,0.0,0.0,0.0,0.0131,-5.498166666666667,-5.498166666666667,-0.5313,0.08733333333333326,-0.060875000000000234,0.87,66.399,-0.0843,-0.214975,0.7320000000000011,100.0,1.0,1.0,204.92000000000002,0.0,0.0,0.0,0.0,0.0,0.0,0.0,8685.8,0.0,55.0,5.0,239.00666666666666,0.0,0.0,0.0,0.0,0.0,0.0,0.0,0.0,0.3030000000000008,0.3030000000000008,0.0,0.0,0.0,55.0,616.79921,10000.0,85.000001,85.000001,85.000001,85.000001,395.0,0.0,0.0,0.0,1.0,333.33500000000004,53.101,53.101,48.751999999999995,48.751999999999995,34.0,-26.5325,21.082,-32.89,24.145,0.0,1782.814,-0.02499999999999858,100.0,27.861,26.745,42.753,41.506,0.0,0.0,100.0,0.0,0.0,0.0,0.0,3120.714285714286,2998.0,4071.5,4045.6000000000004,305.259,305.32225,314.9035,314.85725,21.8479,20.5407,21.839,21.3729,314.999998,314.999998,324.999988,324.999988,99.55955714285714,99.50721666666666,99.56628571428571,99.54628571428572,0.009500000000000064,-0.1213333333333333,-0.20599999999999996,0.03633333333333333,-0.03833333333332689,-0.06333333333333258,1.526,1.575,37.549,29.3795,37.494,34.581,56.412,34.6825,59.385999999999996,52.0695,54.318,33.827,57.9945,50.407,53.475,33.372,57.942,49.822,-0.0734999999999999,-0.08300000000000018,0.11245500000000001,0.11305000000000001,0.0,208.015,207.935,204.92000000000002,204.92000000000002,0.0,0.0
7,0.0,0.0,0.0,1.0,1.0,0.0,0.0,1.0,0.0,100.0,1.0,1.1856,26.0,0.0,0.0,0.0,59.999996,0.0,26.0,26.0,26.0,26.0,-0.07655555555555549,0.27880000000000016,0.045700000000000005,293.228,-2.6087,-2.756222222222222,-1.5148000000000001,-1.6251,-252.3,216.19,190.849,0.0,0.0,0.0,0.0,0.015199999999999991,-5.498166666666667,-5.498166666666667,-0.5349,0.046666666666666856,-0.04962500000000025,1.195,66.554,-0.0659,-0.224525,0.3179999999999996,100.0,1.0,1.0,205.37666666666667,0.0,0.0,0.0,0.0,0.0,0.0,0.0,8705.1,0.0,55.0,5.0,239.56333333333333,1.0,0.0,0.0,0.0,0.0,0.0,0.0,0.0,0.3569999999999993,0.3569999999999993,0.0,0.0,1.0,55.0,616.79921,10000.0,85.000001,85.000001,85.000001,85.000001,395.0,0.0,0.0,0.0,1.0,166.665,52.795,52.795,48.828,48.828,34.0,-25.612499999999997,22.939999999999998,-30.776666666666664,25.93,0.0,1782.762,-0.19500000000000028,100.0,27.998,26.85,42.792,41.761,0.0,0.0,100.0,0.0,0.0,0.0,0.0,3165.5714285714284,3027.8,4029.25,4067.1000000000004,305.038,305.16025,314.95625,314.74275,21.8584,20.5462,21.8502,21.3824,314.999998,314.999998,324.999988,324.999988,99.55955714285714,99.50723333333333,99.56642857142857,99.54644285714286,0.038000000000000256,-0.08699999999999997,-0.17933333333333334,0.05233333333333334,-0.030000000000001137,-0.041666666666671404,1.5225,1.535,37.614999999999995,29.4135,37.564,34.64,56.396,34.7245,59.428,52.1335,54.302,33.866,58.034,50.4685,53.459,33.409,57.978,49.882333333333335,-0.09599999999999986,-0.05600000000000005,0.102175,0.10720500000000001,0.0,208.44,208.41500000000002,205.37666666666667,205.37666666666667,0.0,0.0
8,0.0,0.0,0.0,1.0,1.0,0.0,0.0,1.0,0.0,100.0,1.0,1.1856,26.0,0.0,0.0,0.0,59.999996,0.0,26.0,26.0,26.0,26.0,-0.03933333333333333,0.28780000000000006,-0.039325,293.472,-2.6997,-2.712777777777778,-1.5003000000000002,-1.5733000000000001,-248.9,216.1625,190.828375,0.0,0.0,0.0,0.0,0.017166666666666552,-5.498166666666667,-5.498166666666667,-0.5367000000000001,-0.5223333333333333,-0.033250000000000224,-0.55,66.699,-0.0461,-0.216725,-0.03000000000000025,100.0,1.0,1.0,205.76,0.0,0.0,0.0,0.0,0.0,0.0,0.0,8721.3,0.0,55.0,5.0,240.08666666666667,0.0,0.0,0.0,0.0,0.0,0.0,0.0,0.0,0.40800000000000125,0.40800000000000125,0.0,0.0,0.0,55.0,616.79921,10000.0,85.000001,85.000001,85.000001,85.000001,395.0,0.0,0.0,0.0,1.0,166.665,53.619,53.619,48.187,48.187,34.0,-24.357499999999998,22.046,-30.56,26.505,0.0,1782.71,-0.33999999999999986,100.0,27.396,26.941,42.698,41.985,0.0,0.0,100.0,0.0,0.0,0.0,0.0,3001.714285714286,2917.7,4150.125,4084.2,305.8525,305.4405,314.70475,314.61275,21.8681,20.5514,21.860599999999998,21.3914,314.999998,314.999998,324.999988,324.999988,99.55957142857143,99.50723333333333,99.56658571428571,99.54658571428571,0.040750000000000064,-0.07766666666666677,-0.15733333333333333,0.07066666666666666,-0.041666666666671404,-0.045000000000001705,1.5154999999999998,1.5085,37.676,29.445999999999998,37.629000000000005,34.6965,56.379000000000005,34.7625,59.4675,52.194,54.286,33.900999999999996,58.071,50.525999999999996,53.442,33.443,58.012,49.93866666666666,-0.09699999999999998,-0.044500000000000206,0.10415,0.10728000000000001,0.0,208.885,208.875,205.76,205.76,0.0,0.0
9,0.0,0.0,0.0,1.0,1.0,0.0,0.0,1.0,0.0,100.0,1.0,1.1856,26.0,0.0,0.0,0.0,59.999996,0.0,26.0,26.0,26.0,26.0,-0.034222222222222154,0.2856000000000001,0.0298,293.137,-2.6824,-2.7225555555555556,-1.5535999999999999,-1.5556,-245.9,216.14,190.80975,0.0,0.0,0.0,0.0,0.018899999999999917,-5.498166666666667,-5.498166666666667,-0.5428000000000001,0.6003333333333334,-0.033500000000000085,0.7929999999999999,66.824,-0.0284,-0.216625,-0.15200000000000014,100.0,1.0,1.0,206.25666666666666,0.0,0.0,0.0,0.0,0.0,0.0,0.0,8742.5,0.0,55.0,5.0,240.5366666666667,1.0,0.0,0.0,0.0,0.0,0.0,0.0,0.0,0.4529999999999994,0.4529999999999994,0.0,0.0,1.0,55.0,616.79921,10000.0,85.000001,85.000001,85.000001,85.000001,395.0,0.0,0.0,0.0,1.0,333.33500000000004,52.429,52.429,49.179,49.179,34.0,-25.549999999999997,24.584,-27.936666666666667,26.705000000000002,0.0,1782.664,-0.509999999999998,100.0,27.951999999999998,27.168,42.433,41.871,0.0,0.0,100.0,0.0,0.0,0.0,0.0,3289.285714285714,3108.3,3964.5,4072.7,304.7905,304.944,315.1975,314.8005,21.8768,20.5561,21.869799999999998,21.3993,314.999998,314.999998,324.999988,324.999988,99.55957142857143,99.50723333333333,99.5667,99.5467,0.07725000000000026,-0.05666666666666664,-0.13016666666666665,0.09066666666666667,-0.03333333333333144,-0.04999999999999716,1.5855000000000001,1.5855,37.730000000000004,29.4755,37.686,34.7455,56.367000000000004,34.7975,59.499,52.2455,54.274,33.933,58.1005,50.576,53.43,33.4735,58.039,49.98766666666667,-0.11799999999999988,-0.039000000000000146,0.10404500000000001,0.10957000000000001,0.0,209.29000000000002,209.3,206.25666666666666,206.25666666666666,0.0,0.0
10,0.0,0.0,0.0,1.0,1.0,0.0,0.0,1.0,0.0,100.0,1.0,1.1856,26.0,0.0,0.0,0.0,59.999996,0.0,26.0,26.0,26.0,26.0,0.0031111111111110645,0.29390000000000005,-0.004525,292.938,-2.6612999999999998,-2.7044444444444444,-1.5350000000000001,-1.5352999999999999,-242.49,216.1125,190.789,0.0,0.0,0.0,0.0,0.02089999999999992,-5.498166666666667,-5.498166666666667,-0.5179,-0.3783333333333334,0.006624999999999881,0.34199999999999997,66.971,-0.0098,-0.2068,-0.44599999999999973,100.0,1.0,1.0,206.49666666666667,0.0,0.0,0.0,0.0,0.0,0.0,0.0,8752.6,0.0,55.0,5.0,241.06666666666666,0.0,0.0,0.0,0.0,0.0,0.0,1.0,0.0,0.5040000000000013,0.5040000000000013,0.0,0.0,0.0,55.0,616.79921,10000.0,85.000001,85.000001,85.000001,85.000001,395.0,0.0,0.0,0.0,1.0,333.33500000000004,53.436,53.436,47.607,47.607,34.0,-21.4,22.92,-30.513333333333335,29.37,0.0,1782.614,-0.6050000000000004,100.0,27.738,27.368,42.787,42.732,0.0,0.0,100.0,0.0,0.0,0.0,0.0,2891.5714285714284,2869.7,4324.75,4278.6,306.081,305.546,314.29225,314.155,21.886499999999998,20.5614,21.8803,21.4085,314.999998,314.999998,324.999988,324.999988,99.55958571428572,99.50725,99.56684285714286,99.54685714285715,0.0847500000000001,-0.04366666666666674,-0.1153333333333334,0.10233333333333339,-0.03999999999999915,-0.04999999999999716,1.4765000000000001,1.47,37.791,29.508499999999998,37.751999999999995,34.803,56.352999999999994,34.8345,59.54,52.3095,54.260999999999996,33.967,58.138,50.637,53.416,33.506,58.073499999999996,50.047666666666665,-0.11999999999999988,-0.02400000000000002,0.10748500000000001,0.11003500000000001,0.0,209.72,209.755,206.49666666666667,206.49666666666667,0.0,0.0
11,0.0,0.0,0.0,1.0,1.0,0.0,0.0,1.0,0.0,100.0,1.0,1.1856,26.0,0.0,0.0,0.0,59.999996,0.0,26.0,26.0,26.0,26.0,0.028111111111111198,0.26649999999999996,-0.06665,293.472,-2.7045,-2.687555555555556,-1.5903,-1.5265,-239.07,216.085,190.76825,0.0,0.0,0.0,0.0,0.022599999999999953,-5.498166666666667,-5.498166666666667,-0.5616,-0.256,0.03224999999999989,0.363,67.11,0.0103,-0.23822500000000002,-0.6260000000000003,100.0,1.0,1.0,207.24,0.0,0.0,0.0,0.0,0.0,0.0,0.0,8784.1,0.0,55.0,5.0,241.56666666666666,1.0,0.0,0.0,0.0,0.0,0.0,1.0,0.0,0.5549999999999997,0.5549999999999997,0.0,0.0,1.0,55.0,616.79921,10000.0,85.000001,85.000001,85.000001,85.000001,395.0,0.0,0.0,0.0,1.0,333.33500000000004,52.795,52.795,49.24,49.24,34.0,-21.89,26.466,-24.03,27.06,0.0,1782.563,-0.5899999999999999,100.0,27.63,27.464,42.414,42.612,0.0,0.0,100.0,0.0,0.0,0.0,0.0,3009.4285714285716,3186.7,3687.125,3877.0,305.6455,304.71375,315.896,315.23975,21.8961,20.5668,21.8907,21.4175,314.999998,314.999998,324.999988,324.999988,99.5596,99.50725,99.56698571428572,99.54698571428571,0.10924999999999985,-0.021666666666666723,-0.09050000000000002,0.13966666666666683,-0.046666666666666856,-0.07333333333333059,1.6360000000000001,1.6075,37.849999999999994,29.5425,37.817,34.8595,56.338,34.872,59.574,52.369,54.247,34.001999999999995,58.17,50.6945,53.400999999999996,33.539500000000004,58.1025,50.10366666666667,-0.12450000000000006,-0.027000000000000135,0.10512500000000001,0.10705,0.0,210.135,210.185,207.24,207.24,0.0,0.0
12,0.0,0.0,0.0,1.0,1.0,0.0,0.0,1.0,0.0,100.0,1.0,1.1856,26.0,0.0,0.0,0.0,59.999996,0.0,26.0,26.0,26.0,26.0,0.047666666666666746,0.28590000000000004,0.035875000000000004,292.877,-2.7613,-2.678777777777778,-1.5567,-1.5249000000000001,-235.64,216.0575,190.746125,0.0,0.0,0.0,0.0,0.025466666666666526,-5.498166666666667,-5.498166666666667,-0.5458000000000001,0.272,0.01649999999999996,-0.919,67.255,0.027800000000000002,-0.2068,-0.6200000000000001,100.0,1.0,1.0,207.45,0.0,0.0,0.0,0.0,0.0,0.0,0.0,8793.0,0.0,55.0,5.0,242.08666666666664,0.0,0.0,0.0,0.0,0.0,0.0,1.0,0.0,0.6059999999999981,0.6059999999999981,0.0,0.0,0.0,55.0,616.79921,10000.0,85.000001,85.000001,85.000001,85.000001,395.0,0.0,0.0,0.0,1.0,166.665,52.734,52.734,47.897,47.897,34.0,-23.7575,25.53,-28.126666666666665,30.8775,0.0,1782.513,-0.4450000000000003,100.0,27.389,27.777,42.26,42.597,0.0,0.0,100.0,0.0,0.0,0.0,0.0,3141.0,3105.8,4242.75,4178.2,305.4525,304.81025,314.57925,314.457,21.9057,20.5722,21.901,21.4265,314.999998,314.999998,324.999988,324.999988,99.55961428571429,99.50726666666667,99.56712857142857,99.54712857142857,0.0990000000000002,-0.02833333333333332,-0.08333333333333337,0.15316666666666667,-0.05833333333333002,-0.03833333333332689,1.5190000000000001,1.499,37.91,29.5765,37.882,34.9155,56.325,34.91,59.6115,52.429,54.233999999999995,34.037,58.205,50.7525,53.387,33.573499999999996,58.1345,50.160666666666664,-0.11499999999999999,-0.044500000000000206,0.10737000000000001,0.11732500000000001,0.0,210.60500000000002,210.65,207.45,207.45,0.0,0.0
13,0.0,0.0,0.0,1.0,1.0,0.0,0.0,1.0,0.0,100.0,1.0,1.1856,26.0,0.0,0.0,0.0,59.999996,0.0,26.0,26.0,26.0,26.0,0.06766666666666676,0.2833000000000001,0.054675,292.542,-2.7317,-2.678,-1.5878999999999999,-1.5442,-232.21,216.0325,190.7245,0.0,0.0,0.0,0.0,0.026866666666666594,-5.498166666666667,-5.498166666666667,-0.5395,-0.07733333333333337,0.021625000000000005,1.15,67.397,0.0359,-0.21657500000000002,-0.8799999999999999,100.0,1.0,1.0,207.83666666666667,0.0,0.0,0.0,0.0,0.0,0.0,0.0,8809.4,0.0,55.0,5.0,242.60000000000002,1.0,0.0,0.0,0.0,0.0,0.0,1.0,0.0,0.657,0.657,0.0,0.0,1.0,55.0,616.79921,10000.0,85.000001,85.000001,85.000001,85.000001,395.0,0.0,0.0,0.0,1.0,166.665,52.429,52.429,47.882,47.882,34.0,-20.935,27.854,-26.766666666666666,33.31,0.0,1782.462,-0.8649999999999984,100.0,27.866,27.783,42.601,42.972,0.0,0.0,100.0,0.0,0.0,0.0,0.0,3059.714285714286,3184.3,4142.875,4359.2,305.4745,304.741,314.69375,314.08275,21.9153,20.5777,21.9115,21.4357,314.999998,314.999998,324.999988,324.999988,99.55962857142858,99.50726666666667,99.56727142857143,99.54728571428572,0.14774999999999983,0.014333333333333087,-0.059666666666666646,0.16300000000000003,-0.04999999999999716,-0.046666666666666856,1.4975,1.4765000000000001,37.971000000000004,29.611,37.947,34.973,56.314,34.948499999999996,59.65,52.493,54.224000000000004,34.0725,58.2405,50.8135,53.375,33.6075,58.167,50.220666666666666,-0.14700000000000002,-0.008999999999999897,0.107035,0.10899,0.0,211.04000000000002,211.07999999999998,207.83666666666667,207.83666666666667,0.0,0.0
14,0.0,0.0,0.0,1.0,1.0,0.0,0.0,1.0,0.0,100.0,1.0,1.1856,26.0,0.0,0.0,0.0,59.999996,0.0,26.0,26.0,26.0,26.0,0.1016666666666668,0.28070000000000017,-0.0166,292.816,-2.7376,-2.610555555555556,-1.6023,-1.5096,-228.76999999999998,216.01,190.70325,0.0,0.0,0.0,0.0,0.028866666666666596,-5.498166666666667,-5.498166666666667,-0.549,-0.14900000000000002,0.052999999999999936,-0.14800000000000013,67.537,0.0506,-0.2283,-1.04,100.0,1.0,1.0,208.35666666666668,0.0,0.0,0.0,0.0,0.0,0.0,0.0,8831.4,0.0,55.0,5.0,243.10333333333335,0.0,0.0,0.0,0.0,0.0,0.0,1.0,0.0,0.7079999999999984,0.7079999999999984,0.0,0.0,0.0,55.0,616.79921,10000.0,85.000001,85.000001,85.000001,85.000001,395.0,0.0,0.0,0.0,1.0,166.665,52.628,52.628,48.126,48.126,34.0,-20.355,27.488,-25.656666666666666,31.125,0.0,1782.411,-0.9250000000000007,100.0,27.528,28.012999999999998,42.417,43.287,0.0,0.0,100.0,0.0,0.0,0.0,0.0,3018.857142857143,3178.1,3981.5,4166.7,305.772,304.595,315.172,314.48475,21.9249,20.5832,21.9219,21.4449,314.999998,314.999998,324.999988,324.999988,99.55964285714286,99.50726666666667,99.56741428571429,99.54742857142857,0.15074999999999994,0.01633333333333331,-0.06566666666666665,0.16566666666666685,-0.03833333333332689,-0.060000000000002274,1.56,1.5155,38.031,29.645,38.012,35.0305,56.304,34.9865,59.686,52.555,54.213,34.108000000000004,58.274,50.8735,53.364000000000004,33.6415,58.1975,50.279333333333334,-0.15549999999999997,-0.0040000000000000036,0.1116,0.102175,0.0,211.44,211.525,208.35666666666668,208.35666666666668,0.0,0.0
15,0.0,0.0,0.0,1.0,1.0,0.0,0.0,1.0,0.0,100.0,1.0,1.1856,26.0,0.0,0.0,0.0,59.999996,0.0,26.0,26.0,26.0,26.0,0.10877777777777786,0.2834000000000001,0.0078000000000000005,292.816,-2.7085,-2.575111111111111,-1.6285,-1.4547,-225.72,215.9925,190.684125,0.0,0.0,0.0,0.0,0.0306333333333334,-5.498166666666667,-5.498166666666667,-0.5398000000000001,0.31133333333333324,0.08187499999999992,1.11,67.66,0.067,-0.20925000000000002,-1.21,100.0,1.0,1.0,208.7266666666667,0.0,0.0,0.0,0.0,0.0,0.0,0.0,8847.1,0.0,55.0,5.0,243.54666666666668,1.0,0.0,0.0,0.0,0.0,0.0,1.0,0.0,0.7530000000000001,0.7530000000000001,0.0,0.0,1.0,55.0,616.79921,10000.0,85.000001,85.000001,85.000001,85.000001,395.0,0.0,0.0,0.0,1.0,333.33500000000004,52.795,52.795,48.187,48.187,34.0,-18.1925,28.018,-23.546666666666667,34.2425,0.0,1782.363,-0.9100000000000001,100.0,27.724,27.894,42.3,43.257,0.0,0.0,100.0,0.0,0.0,0.0,0.0,2800.714285714286,3231.6,3943.125,4384.5,306.2075,304.60225,315.2405,314.06475,21.9334,20.5881,21.931,21.453,314.999998,314.999998,324.999988,324.999988,99.55965714285715,99.50726666666667,99.56752857142857,99.54755714285714,0.1615000000000002,0.028999999999999915,-0.021666666666666612,0.20333333333333337,-0.030000000000001137,-0.060000000000002274,1.5630000000000002,1.5035,38.084,29.676000000000002,38.069,35.081,56.294,35.021,59.716499999999996,52.61,54.205,34.1395,58.3025,50.926,53.354,33.672,58.223,50.33133333333333,-0.14349999999999996,-0.009500000000000064,0.10190500000000001,0.11305000000000001,0.0,211.845,211.935,208.7266666666667,208.7266666666667,0.0,0.0
16,0.0,0.0,0.0,1.0,1.0,0.0,0.0,1.0,0.0,100.0,1.0,1.1856,26.0,0.0,0.0,0.0,59.999996,0.0,26.0,26.0,26.0,26.0,0.12388888888888894,0.26550000000000007,-0.01105,292.801,-2.8032,-2.584111111111111,-1.5992000000000002,-1.5157,-222.07,215.9725,190.66075,0.0,0.0,0.0,0.0,0.03276666666666661,-5.498166666666667,-5.498166666666667,-0.562,-0.6976666666666667,0.0694999999999999,0.17999999999999994,67.80799999999999,0.0782,-0.22617500000000001,-1.2279999999999998,100.0,1.0,1.0,209.19,0.0,0.0,0.0,0.0,0.0,0.0,0.0,8866.8,0.0,55.0,5.0,244.08333333333334,0.0,0.0,0.0,0.0,0.0,0.0,1.0,0.0,0.8069999999999986,0.8069999999999986,0.0,0.0,0.0,55.0,616.79921,10000.0,85.000001,85.000001,85.000001,85.000001,395.0,0.0,0.0,0.0,1.0,166.665,52.643,52.643,47.974000000000004,47.974000000000004,34.0,-19.5325,29.588,-22.796666666666667,33.7,0.0,1782.312,-0.870000000000001,100.0,27.33,27.995,42.51,43.421,0.0,0.0,100.0,0.0,0.0,0.0,0.0,2984.857142857143,3332.9,3907.125,4138.3,305.877,304.34975,315.29375,314.561,21.9432,20.594,21.9421,21.462699999999998,314.999998,314.999998,324.999988,324.999988,99.55968571428572,99.50728333333333,99.5677,99.54771428571429,0.17775000000000007,0.04166666666666696,-0.018000000000000016,0.21999999999999997,-0.04833333333333201,-0.05333333333332746,1.5554999999999999,1.5115,38.144999999999996,29.713,38.138,35.1415,56.28,35.063,59.756,52.6755,54.191,34.1785,58.339,50.9895,53.339,33.7095,58.2565,50.39366666666667,-0.14949999999999997,-0.0129999999999999,0.10744000000000001,0.11132500000000001,0.0,212.255,212.345,209.19,209.19,0.0,0.0
17,0.0,0.0,0.0,1.0,1.0,0.0,0.0,1.0,0.0,100.0,1.0,1.1856,26.0,0.0,0.0,0.0,59.999996,0.0,26.0,26.0,26.0,26.0,0.127,0.2962,0.019125,292.419,-2.7672,-2.562444444444444,-1.6436000000000002,-1.4757,-218.61,215.95749999999998,190.638125,0.0,0.0,0.0,0.0,0.03476666666666661,-5.498166666666667,-5.498166666666667,-0.5493,0.44599999999999995,0.04849999999999999,-0.651,67.947,0.0814,-0.205925,-1.0879999999999992,100.0,1.0,1.0,209.54666666666668,0.0,0.0,0.0,0.0,0.0,0.0,0.0,8882.0,0.0,55.0,5.0,244.57999999999998,1.0,0.0,0.0,0.0,0.0,0.0,1.0,0.0,0.8580000000000005,0.8580000000000005,0.0,0.0,1.0,55.0,616.79921,10000.0,85.000001,85.000001,85.000001,85.000001,395.0,0.0,0.0,0.0,1.0,166.665,52.382999999999996,52.382999999999996,47.668,47.668,34.0,-20.09,27.294,-26.78333333333333,33.8475,0.0,1782.26,-0.9600000000000009,100.0,27.675,28.401,42.25,43.487,0.0,0.0,100.0,0.0,0.0,0.0,0.0,3103.714285714286,3104.1,4294.75,4303.6,305.578,304.85975,314.53625,314.216,21.9528,20.5997,21.9524,21.4718,314.999998,314.999998,324.999988,324.999988,99.55971428571429,99.50728333333333,99.56782857142858,99.54787142857143,0.17700000000000005,0.04033333333333333,-0.030333333333333323,0.20233333333333325,-0.036666666666668846,-0.05333333333332746,1.5285,1.4945,38.205,29.7485,38.203,35.198499999999996,56.272,35.104,59.7915,52.7375,54.183,34.216499999999996,58.3715,51.0495,53.33,33.746,58.286,50.452333333333335,-0.15500000000000003,-0.0040000000000000036,0.10884500000000001,0.11112000000000001,0.0,212.735,212.815,209.54666666666668,209.54666666666668,0.0,0.0
18,0.0,0.0,0.0,1.0,1.0,0.0,0.0,1.0,0.0,100.0,1.0,1.1856,26.0,0.0,0.0,0.0,59.999996,0.0,26.0,26.0,26.0,26.0,0.12011111111111106,0.27370000000000005,-0.030125000000000002,292.542,-2.795,-2.5411111111111113,-1.6567,-1.4216,-215.54,215.9475,190.6185,0.0,0.0,0.0,0.0,0.036566666666666525,-5.498166666666667,-5.498166666666667,-0.5593,-0.5263333333333333,0.07325000000000004,1.147,68.069,0.0818,-0.22232500000000002,-1.2679999999999998,100.0,1.0,1.0,209.95333333333332,0.0,0.0,0.0,0.0,0.0,0.0,0.0,8899.2,0.0,55.0,5.0,245.01999999999998,0.0,0.0,0.0,0.0,0.0,0.0,1.0,0.0,0.9029999999999987,0.9029999999999987,0.0,0.0,0.0,55.0,616.79921,10000.0,85.000001,85.000001,85.000001,85.000001,395.0,0.0,0.0,0.0,1.0,333.33500000000004,52.429,52.429,47.729,47.729,34.0,-18.6925,30.35,-23.986666666666665,32.5175,0.0,1782.214,-1.245000000000001,100.0,27.557,28.092,42.631,43.748000000000005,0.0,0.0,100.0,0.0,0.0,0.0,0.0,2980.0,3359.1,3994.25,4228.3,305.8305,304.31825,315.1395,314.43775,21.961199999999998,20.6047,21.9617,21.48,314.999998,314.999998,324.999988,324.999988,99.55972857142856,99.5073,99.56795714285714,99.548,0.1964999999999999,0.06366666666666676,-0.015833333333333366,0.20750000000000002,-0.03499999999999659,-0.054999999999999716,1.5645,1.514,38.257,29.779,38.26,35.25,56.263,35.1395,59.824,52.794,54.174,34.2495,58.402,51.1035,53.32,33.7775,58.3135,50.50566666666667,-0.16849999999999987,0.012499999999999956,0.11333000000000001,0.10852500000000001,0.0,213.075,213.16,209.95333333333332,209.95333333333332,0.0,0.0
19,0.0,0.0,0.0,1.0,1.0,0.0,0.0,1.0,0.0,100.0,1.0,1.1856,26.0,0.0,0.0,0.0,59.999996,0.0,26.0,26.0,26.0,26.0,0.16333333333333333,0.2885,0.031225000000000003,292.007,-2.771,-2.5243333333333333,-1.6733,-1.4014,-212.07,215.94,190.595875,0.0,0.0,0.0,0.0,0.03856666666666653,-5.498166666666667,-5.498166666666667,-0.5513,0.813,0.08299999999999996,-0.45500000000000007,68.206,0.08990000000000001,-0.2121,-1.5420000000000007,100.0,1.0,1.0,210.36,0.0,0.0,0.0,0.0,0.0,0.0,0.0,8916.4,0.0,55.0,5.0,245.51333333333332,1.0,0.0,0.0,0.0,0.0,0.0,1.0,0.0,0.9540000000000006,0.9540000000000006,0.0,0.0,1.0,55.0,616.79921,10000.0,85.000001,85.000001,85.000001,85.000001,395.0,0.0,0.0,0.0,1.0,333.33500000000004,51.666,51.666,47.592,47.592,34.0,-19.075,31.002,-24.883333333333333,34.3575,0.0,1782.163,-1.5199999999999996,100.0,27.93,28.776,42.289,43.807,0.0,0.0,100.0,0.0,0.0,0.0,0.0,3137.857142857143,3315.0,4168.5,4396.2,305.41,304.156,314.841,314.032,21.9708,20.610500000000002,21.972,21.4892,314.999998,314.999998,324.999988,324.999988,99.55975714285714,99.5073,99.56811428571429,99.54814285714286,0.20750000000000002,0.08366666666666678,-0.006166666666666654,0.21583333333333332,-0.04833333333333201,-0.04999999999999716,1.554,1.4914999999999998,38.317,29.8155,38.325,35.307,56.256,35.1835,59.858000000000004,52.8565,54.167,34.2905,58.4335,51.164,53.312,33.817,58.342,50.565,-0.19500000000000006,0.04349999999999987,0.0999,0.11035,0.0,213.53,213.64,210.36,210.36,0.0,0.0
20,0.0,0.0,0.0,1.0,1.0,0.0,0.0,1.0,0.0,100.0,1.0,1.1856,26.0,0.0,0.0,0.0,59.999996,0.0,26.0,26.0,26.0,26.0,0.20333333333333337,0.27560000000000007,0.05595,292.297,-2.8243,-2.5825555555555555,-1.6083,-1.5138,-208.59,215.9375,190.5735,0.0,0.0,0.0,0.0,0.04059999999999997,-5.498166666666667,-5.498166666666667,-0.5537000000000001,-1.2036666666666667,0.0971249999999999,0.609,68.345,0.1039,-0.220175,-2.0700000000000003,100.0,1.0,1.0,210.67000000000002,0.0,0.0,0.0,0.0,0.0,0.0,0.0,8929.6,0.0,55.0,5.0,246.01666666666665,0.0,0.0,0.0,0.0,0.0,0.0,0.0,0.0,1.004999999999999,1.004999999999999,0.0,0.0,0.0,55.0,616.79921,10000.0,85.000001,85.000001,85.000001,85.000001,395.0,0.0,0.0,0.0,1.0,333.33500000000004,52.826,52.826,46.875,46.875,34.0,-15.524999999999999,31.858,-22.57333333333333,37.95,0.0,1782.112,-1.8049999999999997,100.0,27.419,28.354,42.853,44.28,0.0,0.0,100.0,0.0,0.0,0.0,0.0,2759.5714285714284,3279.3,4082.5,4404.2,306.548,304.485,314.822,313.84575,21.9799,20.6161,21.9825,21.4986,314.999998,314.999998,324.999988,324.999988,99.55977142857142,99.50731666666667,99.56825714285715,99.5483,0.24124999999999996,0.10766666666666636,0.017000000000000126,0.2410000000000001,-0.046666666666666856,-0.05833333333333002,1.5030000000000001,1.4385,38.375,29.851,38.391,35.366,56.245999999999995,35.227000000000004,59.897,52.922,54.157,34.331,58.4695,51.2275,53.301,33.856,58.3745,50.62733333333333,-0.20999999999999996,0.06349999999999989,0.11320000000000001,0.09906000000000001,0.0,213.88,214.055,210.67000000000002,210.67000000000002,0.0,0.0
21,0.0,0.0,0.0,1.0,1.0,0.0,0.0,1.0,0.0,100.0,1.0,1.1856,26.0,0.0,0.0,0.0,59.999996,0.0,26.0,26.0,26.0,26.0,0.20866666666666678,0.27900000000000014,-0.060425,292.618,-2.7457,-2.6285555555555558,-1.6819000000000002,-1.4659,-205.3,215.9375,190.55175,0.0,0.0,0.0,0.0,0.04249999999999998,-5.498166666666667,-5.498166666666667,-0.5795,0.4866666666666668,0.09024999999999994,0.476,68.469,0.12490000000000001,-0.22625,-2.362,100.0,1.0,1.0,211.31,0.0,0.0,0.0,0.0,0.0,0.0,0.0,8956.6,0.0,55.0,5.0,246.46,1.0,0.0,0.0,0.0,0.0,0.0,0.0,0.0,1.0530000000000008,1.0530000000000008,0.0,0.0,1.0,55.0,616.79921,10000.0,85.000001,85.000001,85.000001,85.000001,395.0,0.0,0.0,0.0,1.0,333.33500000000004,52.155,52.155,48.309,48.309,34.0,-15.594999999999999,33.026,-20.380000000000003,34.6,0.0,1782.065,-1.1999999999999993,100.0,27.703,28.634,42.097,43.956,0.0,0.0,100.0,0.0,0.0,0.0,0.0,2907.285714285714,3326.3,3866.5,4120.9,305.915,304.24875,315.5405,314.717,21.9887,20.6217,21.9921,21.5071,314.999998,314.999998,324.999988,324.999988,99.5598,99.50731666666667,99.56838571428571,99.54842857142857,0.24949999999999983,0.11033333333333362,0.039166666666666794,0.2626666666666668,-0.046666666666666856,-0.06333333333333258,1.633,1.556,38.43,29.8855,38.45,35.4195,56.239000000000004,35.2715,59.926,52.9785,54.150999999999996,34.372,58.4965,51.282,53.293,33.8955,58.3985,50.681,-0.19799999999999995,0.03649999999999998,0.10687,0.100995,0.0,214.31,214.465,211.31,211.31,0.0,0.0
22,0.0,0.0,0.0,1.0,1.0,0.0,0.0,1.0,0.0,100.0,1.0,1.1856,26.0,0.0,0.0,0.0,59.999996,0.0,26.0,26.0,26.0,26.0,0.20399999999999996,0.2754000000000001,0.025525000000000003,292.068,-2.7481,-2.609,-1.681,-1.451,-201.81,215.945,190.528,0.0,0.0,0.0,0.0,0.044533333333333314,-5.498166666666667,-5.498166666666667,-0.5581,0.08400000000000007,0.09962499999999985,-0.6440000000000001,68.608,0.1403,-0.2083,-1.3520000000000003,100.0,1.0,1.0,211.51666666666665,0.0,0.0,0.0,0.0,0.0,0.0,0.0,8965.4,0.0,55.0,5.0,246.96333333333334,0.0,0.0,0.0,0.0,0.0,0.0,0.0,0.0,1.1039999999999992,1.1039999999999992,0.0,0.0,0.0,55.0,616.79921,10000.0,85.000001,85.000001,85.000001,85.000001,395.0,0.0,0.0,0.0,1.0,166.665,52.2,52.2,47.134,47.134,34.0,-19.2275,27.918,-23.130000000000003,37.317499999999995,0.0,1782.015,0.004999999999999005,100.0,27.599,28.96,42.364000000000004,44.425,0.0,0.0,100.0,0.0,0.0,0.0,0.0,2905.5714285714284,3207.8,4173.5,4375.0,306.075,304.379,314.789,314.02575,21.9981,20.6275,22.0025,21.5165,314.999998,314.999998,324.999988,324.999988,99.55982857142857,99.50733333333334,99.56852857142857,99.54858571428572,0.16049999999999986,0.015000000000000124,0.03283333333333327,0.25649999999999995,-0.03333333333333144,-0.04333333333332945,1.5154999999999998,1.4575,38.488,29.9215,38.516,35.478,56.230000000000004,35.314499999999995,59.964,53.0445,54.141999999999996,34.411500000000004,58.5315,51.3455,53.283,33.9335,58.4305,50.74333333333333,-0.08799999999999986,-0.06999999999999984,0.10536500000000001,0.10761000000000001,0.0,214.745,214.85000000000002,211.51666666666665,211.51666666666665,0.0,0.0
23,0.0,0.0,0.0,1.0,1.0,0.0,0.0,1.0,0.0,100.0,1.0,1.1856,26.0,0.0,0.0,0.0,59.999996,0.0,26.0,26.0,26.0,26.0,0.10688888888888903,0.2559,-0.042025,292.13,-2.7514,-2.5887777777777776,-1.5791,-1.546,-198.1,215.95749999999998,190.503125,0.0,0.0,0.0,0.0,0.046699999999999964,-5.498166666666667,-5.498166666666667,-0.5772,-0.1203333333333334,0.06562500000000004,-1.246,68.749,0.10990000000000001,-0.23375,0.0860000000000003,100.0,1.0,1.0,212.08666666666667,0.0,0.0,0.0,0.0,0.0,0.0,0.0,8989.6,0.0,55.0,5.0,247.47333333333336,1.0,0.0,0.0,0.0,0.0,0.0,0.0,0.0,1.1580000000000013,1.1580000000000013,0.0,0.0,1.0,55.0,616.79921,10000.0,85.000001,85.000001,85.000001,85.000001,395.0,0.0,0.0,0.0,1.0,166.665,51.62,51.62,48.203,48.203,34.0,-24.24,25.466,-22.676666666666662,31.595,0.0,1781.961,0.8200000000000003,100.0,28.034,28.863,42.664,44.471000000000004,0.0,0.0,100.0,0.0,0.0,0.0,0.0,3220.285714285714,3172.4,3905.375,3965.7,305.1495,304.58375,315.36025,314.948,22.0079,20.6336,22.0136,21.5263,314.999998,314.999998,324.999988,324.999988,99.55985714285714,99.50733333333334,99.56868571428572,99.54875714285714,0.10524999999999984,-0.02733333333333321,-0.02183333333333337,0.20416666666666683,-0.06833333333332803,-0.02499999999999858,1.5525,1.5474999999999999,38.55,29.96,38.585,35.539500000000004,56.217,35.3565,60.0015,53.1115,54.129000000000005,34.451,58.5665,51.41,53.269,33.9715,58.4615,50.807,-0.020000000000000018,-0.13450000000000006,0.11073000000000001,0.10309000000000001,0.0,215.235,215.215,212.08666666666667,212.08666666666667,0.0,0.0
24,0.0,0.0,0.0,1.0,1.0,0.0,0.0,1.0,0.0,100.0,1.0,1.1856,26.0,0.0,0.0,0.0,59.999996,0.0,26.0,26.0,26.0,26.0,0.020888888888888957,0.2712000000000001,-0.10490000000000001,292.358,-2.7458,-2.6294444444444443,-1.5977000000000001,-1.5106000000000002,-195.0,215.97,190.482,0.0,0.0,0.0,0.0,0.04849999999999999,-5.498166666666667,-5.498166666666667,-0.5781000000000001,-0.497,0.04912499999999986,0.503,68.869,0.060000000000000005,-0.21775,0.8559999999999999,100.0,1.0,1.0,212.32999999999998,0.0,0.0,0.0,0.0,0.0,0.0,0.0,8999.8,0.0,55.0,5.0,247.90333333333334,0.0,0.0,0.0,0.0,0.0,0.0,0.0,0.0,1.2029999999999994,1.2029999999999994,0.0,0.0,0.0,55.0,616.79921,10000.0,85.000001,85.000001,85.000001,85.000001,395.0,0.0,0.0,0.0,1.0,333.33500000000004,52.841,52.841,47.028,47.028,34.0,-22.47,22.378,-28.383333333333333,30.4175,0.0,1781.914,1.0199999999999996,100.0,28.009,28.278,43.068,44.064,0.0,0.0,100.0,0.0,0.0,0.0,0.0,2838.857142857143,3022.5,4285.375,4148.9,306.1795,305.2645,314.37675,314.636,22.0161,20.6385,22.0228,21.534399999999998,314.999998,314.999998,324.999988,324.999988,99.55985714285714,99.50735,99.56881428571428,99.54888571428572,0.0674999999999999,-0.07166666666666677,-0.06499999999999995,0.15583333333333327,-0.045000000000001705,-0.03999999999999915,1.4955,1.5155,38.601,29.990499999999997,38.643,35.59,56.203,35.3905,60.0345,53.164500000000004,54.116,34.4825,58.597,51.4615,53.254999999999995,34.001999999999995,58.489,50.85733333333333,0.002000000000000224,-0.15799999999999992,0.1015,0.11545000000000001,0.0,215.65,215.565,212.32999999999998,212.32999999999998,0.0,0.0
25,0.0,0.0,0.0,1.0,1.0,0.0,0.0,1.0,0.0,100.0,1.0,1.1856,26.0,0.0,0.0,0.0,59.999996,0.0,26.0,26.0,26.0,26.0,-0.041888888888888864,0.26070000000000015,-0.0473,292.358,-2.7794,-2.6246666666666667,-1.5822,-1.5438,-191.49,215.985,190.45675,0.0,0.0,0.0,0.0,0.05053333333333332,-5.498166666666667,-5.498166666666667,-0.6131,-0.01866666666666661,0.014124999999999943,-1.991,69.001,-0.006200000000000001,-0.22685000000000002,1.4740000000000002,100.0,1.0,1.0,212.89333333333332,0.0,0.0,0.0,0.0,0.0,0.0,0.0,9023.8,0.0,55.0,5.0,248.37666666666667,1.0,0.0,0.0,0.0,0.0,0.0,0.0,0.0,1.2540000000000013,1.2540000000000013,0.0,0.0,1.0,55.0,616.79921,10000.0,85.000001,85.000001,85.000001,85.000001,395.0,0.0,0.0,0.0,1.0,333.33500000000004,51.926,51.926,47.928,47.928,34.0,-28.86,22.232,-29.866666666666667,24.9725,0.0,1781.863,1.0500000000000007,100.0,27.974,28.34,43.001,43.513,0.0,0.0,100.0,0.0,0.0,0.0,0.0,3303.0,3201.2,4016.875,3949.8,305.1015,304.5695,315.176,315.11375,22.0255,20.6441,22.0332,21.5434,314.999998,314.999998,324.999988,324.999988,99.55985714285714,99.50736666666667,99.56895714285714,99.54902857142856,0.019750000000000156,-0.11233333333333317,-0.14983333333333337,0.07766666666666677,-0.05666666666667197,-0.03833333333332689,1.542,1.6025,38.659,30.0255,38.708,35.6465,56.185,35.4325,60.069,53.222,54.098,34.5215,58.629,51.5165,53.236999999999995,34.039500000000004,58.518,50.91133333333333,0.00749999999999984,-0.16349999999999998,0.11034500000000001,0.09879,0.0,216.075,215.95,212.89333333333332,212.89333333333332,0.0,0.0
26,0.0,0.0,0.0,1.0,1.0,0.0,0.0,1.0,0.0,100.0,1.0,1.1856,26.0,0.0,0.0,0.0,59.999996,0.0,26.0,26.0,26.0,26.0,-0.1163333333333334,0.2794000000000001,0.0692,291.138,-2.6705,-2.7564444444444445,-1.5885,-1.5819,-187.95999999999998,215.9975,190.430875,0.0,0.0,0.0,0.0,0.05259999999999998,-5.498166666666667,-5.498166666666667,-0.5703,0.8026666666666669,-0.048249999999999904,0.06899999999999995,69.138,-0.058600000000000006,-0.19395,1.6300000000000008,100.0,1.0,1.0,213.05333333333334,0.0,0.0,0.0,0.0,0.0,0.0,0.0,9030.6,0.0,55.0,5.0,248.86666666666667,0.0,0.0,0.0,0.0,0.0,0.0,0.0,0.0,1.3049999999999997,1.3049999999999997,0.0,0.0,0.0,55.0,616.79921,10000.0,85.000001,85.000001,85.000001,85.000001,395.0,0.0,0.0,0.0,1.0,333.33500000000004,51.376,51.376,46.188,46.188,34.0,-28.369999999999997,21.076,-37.92333333333333,27.75,0.0,1781.812,0.9499999999999993,100.0,29.315,28.504,44.039,43.418,0.0,0.0,100.0,0.0,0.0,0.0,0.0,3235.0,3073.6,4610.375,4413.7,304.9555,305.005,313.7055,314.0415,22.0352,20.6498,22.0439,21.552599999999998,314.999998,314.999998,324.999988,324.999988,99.55987142857143,99.50738333333334,99.56911428571429,99.54917142857143,0.0030000000000001137,-0.14266666666666672,-0.1801666666666666,0.04483333333333328,-0.046666666666666856,-0.05833333333333002,1.408,1.4735,38.72,30.061500000000002,38.774,35.704,56.171,35.478,60.11,53.281,54.085,34.5635,58.667500000000004,51.574,53.223,34.079499999999996,58.5535,50.967,-0.006000000000000005,-0.15450000000000008,0.10285000000000001,0.10874,0.0,216.54500000000002,216.405,213.05333333333334,213.05333333333334,0.0,0.0
27,0.0,0.0,0.0,1.0,1.0,0.0,0.0,1.0,0.0,100.0,1.0,1.1856,26.0,0.0,0.0,0.0,59.999996,0.0,26.0,26.0,26.0,26.0,-0.13722222222222213,0.2513000000000001,-0.010425,291.534,-2.615,-2.7475555555555555,-1.5615,-1.6724,-184.64,216.0075,190.40775,0.0,0.0,0.0,0.0,0.05453333333333332,-5.498166666666667,-5.498166666666667,-0.5965,-1.1219999999999999,-0.0677500000000002,0.41900000000000004,69.261,-0.0913,-0.24295,1.6219999999999999,100.0,1.0,1.0,213.51999999999998,0.0,0.0,0.0,0.0,0.0,0.0,0.0,9050.3,0.0,55.0,5.0,249.32,1.0,0.0,0.0,0.0,0.0,0.0,0.0,0.0,1.352999999999998,1.352999999999998,0.0,0.0,1.0,55.0,616.79921,10000.0,85.000001,85.000001,85.000001,85.000001,395.0,0.0,0.0,0.0,1.0,333.33500000000004,51.697,51.697,46.646,46.646,34.0,-28.715,19.857999999999997,-34.97666666666666,24.330000000000002,0.0,1781.765,0.745000000000001,100.0,29.168,28.118000000000002,44.978,43.775,0.0,0.0,100.0,0.0,0.0,0.0,0.0,3219.857142857143,3072.5,4173.5,4037.6000000000004,304.996,305.15075,314.65975,314.81325,22.0442,20.6549,22.0541,21.5614,314.999998,314.999998,324.999988,324.999988,99.55987142857143,99.5074,99.56925714285714,99.54931428571429,-0.020000000000000018,-0.16566666666666663,-0.21466666666666656,0.00883333333333347,-0.04333333333332945,-0.07000000000000028,1.45,1.5155,38.775999999999996,30.093,38.838,35.759,56.156,35.5185,60.15,53.338499999999996,54.071,34.601,58.705,51.6285,53.208,34.1155,58.588,51.02033333333333,-0.020000000000000018,-0.1459999999999999,0.10806,0.11052000000000001,0.0,216.87,216.74,213.51999999999998,213.51999999999998,0.0,0.0
28,0.0,0.0,0.0,1.0,1.0,0.0,0.0,1.0,0.0,100.0,1.0,1.1856,26.0,0.0,0.0,0.0,59.999996,0.0,26.0,26.0,26.0,26.0,-0.15222222222222215,0.25050000000000017,-0.039850000000000003,291.87,-2.6319,-2.7431111111111113,-1.4999,-1.6426,-181.11,216.0125,190.382375,0.0,0.0,0.0,0.0,0.05656666666666654,-5.498166666666667,-5.498166666666667,-0.6011000000000001,0.6673333333333333,-0.08662500000000017,-0.6819999999999999,69.392,-0.11470000000000001,-0.216725,1.5820000000000007,100.0,1.0,1.0,214.0366666666667,0.0,0.0,0.0,0.0,0.0,0.0,0.0,9072.3,0.0,55.0,5.0,249.78,0.0,0.0,0.0,0.0,0.0,0.0,0.0,0.0,1.404,1.404,0.0,0.0,0.0,55.0,616.79921,10000.0,85.000001,85.000001,85.000001,85.000001,395.0,0.0,0.0,0.0,1.0,166.665,51.772999999999996,51.772999999999996,47.485,47.485,34.0,-30.975,18.328,-35.413333333333334,22.48,0.0,1781.714,0.5700000000000003,100.0,29.184,28.073999999999998,44.311,43.109,0.0,0.0,100.0,0.0,0.0,0.0,0.0,3392.285714285714,2896.6,4184.375,4032.8,304.696,305.4775,314.75675,314.92375,22.054,20.6603,22.0644,21.5704,314.999998,314.999998,324.999988,324.999988,99.55987142857143,99.50741666666667,99.5694,99.54945714285714,-0.03349999999999986,-0.17500000000000004,-0.24849999999999994,-0.012666666666666604,-0.030000000000001137,-0.04833333333333201,1.5185,1.5685,38.837,30.127000000000002,38.903,35.815,56.143,35.563,60.186,53.393,54.059,34.641999999999996,58.7385,51.681,53.194,34.1545,58.6185,51.071333333333335,-0.04149999999999987,-0.13050000000000006,0.1082,0.105175,0.0,217.305,217.17000000000002,214.0366666666667,214.0366666666667,0.0,0.0
29,0.0,0.0,0.0,1.0,1.0,0.0,0.0,1.0,0.0,100.0,1.0,1.1856,26.0,0.0,0.0,0.0,59.999996,0.0,26.0,26.0,26.0,26.0,-0.17388888888888887,0.25460000000000016,0.00455,291.458,-2.5667,-2.8073333333333332,-1.5323,-1.6264,-177.56,216.015,190.356,0.0,0.0,0.0,0.0,0.058633333333333315,-5.498166666666667,-5.498166666666667,-0.6057,-0.741,-0.08599999999999985,0.706,69.526,-0.1149,-0.216475,1.1679999999999993,100.0,1.0,1.0,214.28,0.0,0.0,0.0,0.0,0.0,0.0,0.0,9082.5,0.0,55.0,5.0,250.26666666666665,1.0,0.0,0.0,0.0,0.0,0.0,0.0,0.0,1.4549999999999983,1.4549999999999983,0.0,0.0,1.0,55.0,616.79921,10000.0,85.000001,85.000001,85.000001,85.000001,395.0,0.0,0.0,0.0,1.0,166.665,51.666,51.666,46.478,46.478,34.0,-29.6425,20.548000000000002,-36.07333333333334,24.3125,0.0,1781.663,0.495000000000001,100.0,29.059,27.717,44.897,43.238,0.0,0.0,100.0,0.0,0.0,0.0,0.0,3323.0,3103.1,4291.75,4183.2,304.7055,304.90725,314.341,314.53825,22.0635,20.6657,22.0752,21.5796,314.999998,314.999998,324.999988,324.999988,99.55987142857143,99.50743333333334,99.56955714285715,99.5496,-0.027499999999999858,-0.17166666666666663,-0.22016666666666662,0.0008333333333334636,-0.03833333333332689,-0.03166666666666629,1.463,1.4865,38.897,30.1605,38.97,35.8725,56.126999999999995,35.606,60.2285,53.4525,54.044,34.6815,58.7785,51.738,53.179,34.192,58.6555,51.126666666666665,-0.04400000000000004,-0.11900000000000022,0.10128500000000001,0.11239,0.0,217.655,217.55,214.28,214.28,0.0,0.0
30,0.0,0.0,0.0,1.0,1.0,0.0,0.0,1.0,0.0,100.0,1.0,1.1856,26.0,0.0,0.0,0.0,59.999996,0.0,26.0,26.0,26.0,26.0,-0.1597777777777778,0.27259999999999995,0.055575,291.0,-2.6224,-2.695555555555556,-1.4713,-1.7027999999999999,-174.22,216.015,190.331,0.0,0.0,0.0,0.0,0.060566666666666547,-5.498166666666667,-5.498166666666667,-0.6031000000000001,0.7770000000000001,-0.08862499999999995,0.747,69.647,-0.10840000000000001,-0.21682500000000002,1.0700000000000003,100.0,1.0,1.0,214.68333333333334,0.0,0.0,0.0,0.0,0.0,0.0,0.0,9099.6,0.0,55.0,5.0,250.70333333333335,0.0,0.0,0.0,0.0,0.0,0.0,1.0,0.0,1.5030000000000001,1.5030000000000001,0.0,0.0,0.0,55.0,616.79921,10000.0,85.000001,85.000001,85.000001,85.000001,395.0,0.0,0.0,0.0,1.0,166.665,50.827,50.827,46.753,46.753,34.0,-30.915,19.810000000000002,-35.45,26.0125,0.0,1781.615,0.3049999999999997,100.0,29.902,28.41,44.744,43.229,0.0,0.0,100.0,0.0,0.0,0.0,0.0,3455.4285714285716,3059.8,4345.375,4249.2,304.2995,305.09625,314.3015,314.31825,22.0728,20.671,22.0851,21.5882,314.999998,314.999998,324.999988,324.999988,99.55988571428571,99.50745,99.5697,99.54974285714286,-0.012750000000000039,-0.15566666666666662,-0.21750000000000003,0.0030000000000001137,-0.036666666666668846,-0.06499999999999773,1.4635,1.508,38.955,30.194,39.032,35.9265,56.117000000000004,35.6495,60.2645,53.5065,54.034,34.7215,58.812,51.789500000000004,53.168,34.2305,58.686,51.177,-0.06000000000000005,-0.10749999999999993,0.10423500000000001,0.113375,0.0,218.07,218.005,214.68333333333334,214.68333333333334,0.0,0.0
31,0.0,0.0,0.0,1.0,1.0,0.0,0.0,1.0,0.0,100.0,1.0,1.1856,26.0,0.0,0.0,0.0,59.999996,0.0,26.0,26.0,26.0,26.0,-0.11788888888888893,0.24850000000000017,-0.0129,291.0,-2.6957,-2.763333333333333,-1.5638,-1.6715,-170.67000000000002,216.01,190.30525,0.0,0.0,0.0,0.0,0.06263333333333332,-5.498166666666667,-5.498166666666667,-0.5893,-0.605,-0.0767500000000001,-0.708,69.779,-0.0961,-0.22005000000000002,0.7260000000000009,100.0,1.0,1.0,215.0,0.0,0.0,0.0,0.0,0.0,0.0,0.0,9113.0,0.0,55.0,5.0,251.18,1.0,0.0,0.0,0.0,0.0,0.0,1.0,0.0,1.5539999999999985,1.5539999999999985,0.0,0.0,1.0,55.0,616.79921,10000.0,85.000001,85.000001,85.000001,85.000001,395.0,0.0,0.0,0.0,1.0,333.33500000000004,51.544,51.544,45.456,45.456,34.0,-28.325,19.73,-38.11,26.69,0.0,1781.563,0.20500000000000185,100.0,29.468,28.666,45.272999999999996,43.972,0.0,0.0,100.0,0.0,0.0,0.0,0.0,3226.714285714286,2954.0,4501.375,4224.0,305.2995,305.25625,313.989,314.4455,22.0824,20.6766,22.0959,21.5976,314.999998,314.999998,324.999988,324.999988,99.55988571428571,99.50748333333334,99.56985714285715,99.5499,-0.0020000000000000018,-0.15733333333333333,-0.21150000000000002,0.026000000000000023,-0.04333333333332945,-0.03999999999999915,1.4315,1.4765000000000001,39.015,30.2285,39.099000000000004,35.985,56.101,35.6935,60.3075,53.567,54.019,34.7625,58.8525,51.848,53.152,34.2695,58.723,51.233666666666664,-0.07699999999999996,-0.0990000000000002,0.10541500000000001,0.12048500000000001,0.0,218.425,218.38,215.0,215.0,0.0,0.0
32,0.0,0.0,0.0,1.0,1.0,0.0,0.0,1.0,0.0,100.0,1.0,1.1856,26.0,0.0,0.0,0.0,59.999996,0.0,26.0,26.0,26.0,26.0,-0.10688888888888892,0.2692000000000001,-0.031400000000000004,291.214,-2.6428,-2.7105555555555556,-1.5859,-1.5826,-166.89999999999998,216.0,190.278,0.0,0.0,0.0,0.0,0.0648333333333333,-5.498166666666667,-5.498166666666667,-0.6101,0.20233333333333325,-0.1027499999999999,-0.8380000000000001,69.913,-0.08030000000000001,-0.2288,0.7000000000000011,100.0,1.0,1.0,215.56666666666666,0.0,0.0,0.0,0.0,0.0,0.0,0.0,9137.0,0.0,55.0,5.0,251.66,0.0,0.0,0.0,0.0,0.0,0.0,1.0,0.0,1.6080000000000005,1.6080000000000005,0.0,0.0,0.0,55.0,616.79921,10000.0,85.000001,85.000001,85.000001,85.000001,395.0,0.0,0.0,0.0,1.0,166.665,51.147,51.147,46.646,46.646,34.0,-29.575,20.492,-34.806666666666665,25.025,0.0,1781.511,0.08000000000000185,100.0,29.471,28.722,44.817,43.72,0.0,0.0,100.0,0.0,0.0,0.0,0.0,3439.285714285714,2988.8,4312.875,4136.5,304.574,305.21675,314.54125,314.754,22.0925,20.6825,22.107,21.6073,314.999998,314.999998,324.999988,324.999988,99.55988571428571,99.5075,99.57001428571428,99.55004285714286,0.010250000000000092,-0.1326666666666667,-0.1918333333333333,0.038833333333333275,-0.06666666666666998,-0.04833333333333201,1.532,1.559,39.078,30.266,39.169,36.045500000000004,56.085,35.7405,60.3465,53.6265,54.004000000000005,34.8055,58.888999999999996,51.905,53.135999999999996,34.311,58.7565,51.28933333333333,-0.0734999999999999,-0.08899999999999997,0.106755,0.11015000000000001,0.0,218.905,218.79500000000002,215.56666666666666,215.56666666666666,0.0,0.0
33,0.0,0.0,0.0,1.0,1.0,0.0,0.0,1.0,0.0,100.0,1.0,1.1856,26.0,0.0,0.0,0.0,59.999996,0.0,26.0,26.0,26.0,26.0,-0.09211111111111103,0.2672000000000001,-0.0386,291.336,-2.651,-2.753111111111111,-1.5288,-1.5892,-163.54,215.99,190.252875,0.0,0.0,0.0,0.0,0.06679999999999997,-5.498166666666667,-5.498166666666667,-0.6121,-0.42166666666666663,-0.08612500000000001,0.17699999999999994,70.036,-0.07010000000000001,-0.21610000000000001,0.48799999999999955,100.0,1.0,1.0,215.84,0.0,0.0,0.0,0.0,0.0,0.0,0.0,9148.6,0.0,55.0,5.0,252.10333333333335,1.0,0.0,0.0,0.0,0.0,0.0,1.0,0.0,1.6559999999999988,1.6559999999999988,0.0,0.0,1.0,55.0,616.79921,10000.0,85.000001,85.000001,85.000001,85.000001,395.0,0.0,0.0,0.0,1.0,166.665,51.772999999999996,51.772999999999996,46.371,46.371,34.0,-27.1425,20.799999999999997,-33.95,26.5075,0.0,1781.463,-0.05000000000000071,100.0,29.2,28.431,44.826,43.846000000000004,0.0,0.0,100.0,0.0,0.0,0.0,0.0,3240.142857142857,2921.3,4307.875,4248.1,305.1475,305.439,314.4015,314.3695,22.101399999999998,20.6876,22.1169,21.616,314.999998,314.999998,324.999988,324.999988,99.5599,99.5075,99.57017142857143,99.55018571428572,0.022749999999999826,-0.1206666666666667,-0.1818333333333334,0.04183333333333339,-0.03333333333333144,-0.036666666666668846,1.477,1.4914999999999998,39.134,30.2975,39.230999999999995,36.1,56.071,35.7775,60.3825,53.6815,53.989999999999995,34.84,58.923,51.958,53.122,34.344,58.787,51.340666666666664,-0.08699999999999997,-0.07650000000000023,0.10594500000000001,0.11216000000000001,0.0,219.24,219.185,215.84,215.84,0.0,0.0
34,0.0,0.0,0.0,1.0,1.0,0.0,0.0,1.0,0.0,100.0,1.0,1.1856,26.0,0.0,0.0,0.0,59.999996,0.0,26.0,26.0,26.0,26.0,-0.06655555555555548,0.2619,-0.08345000000000001,291.718,-2.7148,-2.7088888888888887,-1.5902,-1.612,-160.17000000000002,215.97750000000002,190.226625,0.0,0.0,0.0,0.0,0.06873333333333331,-5.498166666666667,-5.498166666666667,-0.6438,-0.8383333333333334,-0.0558749999999999,-0.1140000000000001,70.157,-0.054,-0.22792500000000002,0.33399999999999963,100.0,1.0,1.0,216.28,0.0,0.0,0.0,0.0,0.0,0.0,0.0,9167.3,0.0,55.0,5.0,252.53666666666666,0.0,0.0,0.0,0.0,0.0,0.0,1.0,0.0,1.7040000000000006,1.7040000000000006,0.0,0.0,0.0,55.0,616.79921,10000.0,85.000001,85.000001,85.000001,85.000001,395.0,0.0,0.0,0.0,1.0,166.665,51.971000000000004,51.971000000000004,47.379,47.379,34.0,-27.53,21.174,-31.57,26.865000000000002,0.0,1781.415,-0.019999999999999574,100.0,28.93,28.146,44.516999999999996,43.900999999999996,0.0,0.0,100.0,0.0,0.0,0.0,0.0,3278.857142857143,2934.7,4094.25,4116.5,305.0365,305.43275,314.98775,314.63725,22.1103,20.6927,22.1267,21.6247,314.999998,314.999998,324.999988,324.999988,99.5599,99.50751666666666,99.5703,99.55032857142857,0.03624999999999989,-0.1036666666666668,-0.1648333333333334,0.06350000000000011,-0.051666666666669414,-0.036666666666668846,1.5274999999999999,1.539,39.189,30.3295,39.292,36.1545,56.055,35.814499999999995,60.4155,53.7365,53.976,34.874,58.9535,52.010999999999996,53.107,34.3765,58.815,51.39233333333333,-0.09099999999999997,-0.07299999999999995,0.10423,0.11036000000000001,0.0,219.585,219.54000000000002,216.28,216.28,0.0,0.0
35,0.0,0.0,0.0,1.0,1.0,0.0,0.0,1.0,0.0,100.0,1.0,1.1856,26.0,0.0,0.0,0.0,59.999996,0.0,26.0,26.0,26.0,26.0,-0.06955555555555548,0.24980000000000002,-0.035750000000000004,291.763,-2.7164,-2.695333333333333,-1.5609000000000002,-1.6196000000000002,-156.59,215.9625,190.19675,0.0,0.0,0.0,0.0,0.0708333333333333,-5.498166666666667,-5.498166666666667,-0.6862,-0.486,-0.05962500000000004,-0.03200000000000003,70.283,-0.0354,-0.232125,0.11800000000000033,100.0,1.0,1.0,216.74,0.0,0.0,0.0,0.0,0.0,0.0,0.0,9186.9,0.0,55.0,5.0,252.99333333333334,1.0,0.0,0.0,0.0,0.0,0.0,1.0,0.0,1.754999999999999,1.754999999999999,0.0,0.0,1.0,55.0,616.79921,10000.0,85.000001,85.000001,85.000001,85.000001,395.0,0.0,0.0,0.0,1.0,333.33500000000004,51.575,51.575,46.982,46.982,34.0,-26.805,25.002000000000002,-29.856666666666662,26.36,0.0,1781.363,-0.030000000000001137,100.0,28.752,28.256999999999998,44.232,43.39,0.0,0.0,100.0,0.0,0.0,0.0,0.0,3255.142857142857,3323.6,4046.375,3947.2,305.1345,304.38675,314.998,315.1185,22.1194,20.6983,22.1371,21.6338,314.999998,314.999998,324.999988,324.999988,99.5599,99.50753333333333,99.57044285714285,99.55047142857143,0.04700000000000015,-0.08533333333333326,-0.14500000000000002,0.07933333333333326,-0.06333333333333258,-0.045000000000001705,1.5415,1.5335,39.245999999999995,30.3645,39.357,36.2115,56.038,35.855000000000004,60.45,53.7915,53.959,34.911500000000004,58.986,52.0635,53.089,34.4125,58.844,51.443666666666665,-0.08099999999999996,-0.08050000000000024,0.110905,0.10160000000000001,0.0,219.97500000000002,219.94,216.74,216.74,0.0,0.0
36,0.0,0.0,0.0,1.0,1.0,0.0,0.0,1.0,0.0,100.0,1.0,1.1856,26.0,0.0,0.0,0.0,59.999996,0.0,26.0,26.0,26.0,26.0,-0.04633333333333334,0.26260000000000017,0.032,290.863,-2.723,-2.651222222222222,-1.5349,-1.6071,-153.22,215.9475,190.167,0.0,0.0,0.0,0.0,0.07279999999999998,-5.498166666666667,-5.498166666666667,-0.6654,0.363,-0.08912500000000012,0.16500000000000004,70.406,-0.0262,-0.19925,0.21799999999999997,100.0,1.0,1.0,216.87666666666667,0.0,0.0,0.0,0.0,0.0,0.0,0.0,9192.6,0.0,55.0,5.0,253.43333333333334,0.0,0.0,0.0,0.0,0.0,0.0,1.0,0.0,1.8030000000000008,1.8030000000000008,0.0,0.0,0.0,55.0,616.79921,10000.0,85.000001,85.000001,85.000001,85.000001,395.0,0.0,0.0,0.0,1.0,166.665,51.285,51.285,46.173,46.173,34.0,-26.5325,23.958,-32.67666666666666,32.3725,0.0,1781.316,-0.07499999999999929,100.0,29.258,28.622,44.288,43.643,0.0,0.0,100.0,0.0,0.0,0.0,0.0,3309.0,3177.3,4491.125,4552.9,304.8975,304.868,313.95575,313.72475,22.1283,20.7038,22.147,21.6426,314.999998,314.999998,324.999988,324.999988,99.55991428571429,99.50755,99.5706,99.55061428571429,0.06800000000000006,-0.07000000000000006,-0.12266666666666659,0.09516666666666684,-0.045000000000001705,-0.054999999999999716,1.437,1.4405000000000001,39.302,30.399,39.419,36.266,56.025,35.894999999999996,60.485,53.847,53.947,34.948499999999996,59.0185,52.117,53.076,34.448,58.8735,51.495666666666665,-0.09299999999999997,-0.07450000000000001,0.105425,0.10931,0.0,220.385,220.36,216.87666666666667,216.87666666666667,0.0,0.0
