,ABS Active,ABS Enabled,AID Allow Tire Blankets,AID Auto Blip,AID Auto Clutch,AID Auto Shift,AID Fuel Rate,AID Ideal Line,AID Mech Damage,AID Stability,AID Tire Wear Rate,Air Density,Air Temp,Ballast,Best Lap Delta,Best Lap Time,Brake Bias,Brake Pos,Brake Temp FL,Brake Temp FR,Brake Temp RL,Brake Temp RR,CG Accel Lateral,CG Accel Longitudinal,CG Accel Vertical,CG Height,Camber FL,Camber FR,Camber RL,Camber RR,Car Coord X,Car Coord Y,Car Coord Z,Car Damage Front,Car Damage Left,Car Damage Rear,Car Damage Right,Car Pos Norm,Caster FL,Caster FR,Chassis Pitch Angle,Chassis Pitch Rate,Chassis Roll Angle,Chassis Roll Rate,Chassis Velocity X,Chassis Velocity Y,Chassis Velocity Z,Chassis Yaw Rate,Clutch Pos,DRS Active,DRS Available,Drive Train Speed,ERS Heat Charging,ERS Is Charging,ERS Max Energy,ERS Power Level,ERS Recovery Level,Engine Brake Setting,Engine Limiter,Engine RPM,Flags,Fuel Level,Gear,Ground Speed,HR Sample Clock,In Pit,KERS Charge,KERS Deployed Energy,KERS Input,KERS Max Energy,LR Sample Clock,Lap Invalidated,Lap Time,Lap Time2,Last Lap Time,Last Sector Time,MR Sample Clock,Max Fuel,Max Power,Max RPM,Max Sus Travel FL,Max Sus Travel FR,Max Sus Travel RL,Max Sus Travel RR,Max Torque,Max Turbo Boost,Num Tires Off Track,Penalties Enabled,Position,Raw Data Sample Rate,Ride Height FL,Ride Height FR,Ride Height RL,Ride Height RR,Road Temp,Self Align Torque FL,Self Align Torque FR,Self Align Torque RL,Self Align Torque RR,Session Lap Count,Session Time Left,Steering Angle,Surface Grip,Suspension Travel FL,Suspension Travel FR,Suspension Travel RL,Suspension Travel RR,TC Active,TC Enabled,Throttle Pos,Tire Dirt Level FL,Tire Dirt Level FR,Tire Dirt Level RL,Tire Dirt Level RR,Tire Load FL,Tire Load FR,Tire Load RL,Tire Load RR,Tire Loaded Radius FL,Tire Loaded Radius FR,Tire Loaded Radius RL,Tire Loaded Radius RR,Tire Pressure FL,Tire Pressure FR,Tire Pressure RL,Tire Pressure RR,Tire Radius FL,Tire Radius FR,Tire Radius RL,Tire Radius RR,Tire Rubber Grip FL,Tire Rubber Grip FR,Tire Rubber Grip RL,Tire Rubber Grip RR,Tire Slip Angle FL,Tire Slip Angle FR,Tire Slip Angle RL,Tire Slip Angle RR,Tire Slip Ratio FL,Tire Slip Ratio FR,Tire Slip Ratio RL,Tire Slip Ratio RR,Tire Temp Core FL,Tire Temp Core FR,Tire Temp Core RL,Tire Temp Core RR,Tire Temp Inner FL,Tire Temp Inner FR,Tire Temp Inner RL,Tire Temp Inner RR,Tire Temp Middle FL,Tire Temp Middle FR,Tire Temp Middle RL,Tire Temp Middle RR,Tire Temp Outer FL,Tire Temp Outer FR,Tire Temp Outer RL,Tire Temp Outer RR,Toe In FL,Toe In FR,Toe In RL,Toe In RR,Turbo Boost,Wheel Angular Speed FL,Wheel Angular Speed FR,Wheel Angular Speed RL,Wheel Angular Speed RR,Wind Direction,Wind Speed
0,0.0,0.0,0.0,1.0,1.0,0.0,0.0,1.0,0.0,100.0,1.0,1.1856,26.0,0.0,0.0,0.0,59.99999,0.0,26.0,26.0,26.0,26.0,-0.03025,0.31120000000000014,0.20426666666666668,293.137,-2.7904,-2.62175,-1.5564,-1.5106000000000002,-275.63,215.53,190.987125,0.0,0.0,0.0,0.0,0.0016333333333333332,-5.498166666666667,-5.498166666666667,-0.5593,2.0363333333333333,-0.003750000000000142,-0.9969999999999999,65.505,-0.0322,-0.22195,0.11200000000000099,100.0,1.0,1.0,202.21333333333334,0.0,0.0,0.0,0.0,0.0,0.0,0.0,8571.1,0.0,55.0,5.0,235.7866666666667,0.0,0.0,0.0,0.0,0.0,0.0,0.0,0.0,0.0030000000000001137,0.0030000000000001137,0.0,0.0,0.0,55.0,616.79921,10000.0,85.0,85.0,85.0,85.0,395.0,0.0,0.0,0.0,1.0,20.0,50.842,50.842,48.676,48.676,34.0,-29.58,32.498,-30.2,25.6925,0.0,1783.039,0.21499999999999986,100.0,27.335,27.298000000000002,40.34,40.121,0.0,0.0,100.0,0.0,0.0,0.0,0.0,3351.857142857143,4315.5,4145.75,4102.3,304.657,301.418,314.81975,314.607,21.7758,20.514499999999998,21.7868,21.3312,314.99999,314.99999,324.99998,324.99998,99.55891428571428,99.50716666666666,99.56578571428571,99.54588571428572,0.022250000000000103,-0.08599999999999997,-0.14283333333333334,0.0745,-0.051666666666669414,-0.060000000000002274,1.5453333333333332,1.562,37.099000000000004,29.216,37.168,34.32,56.289,34.466499999999996,59.254,51.8535,54.21,33.649,57.872,50.201,53.382,33.223,57.832499999999996,49.623333333333335,-0.06499999999999995,-0.09250000000000025,0.10217000000000001,0.10179,0.0,205.265,205.255,202.21333333333334,202.21333333333334,0.0,0.0
1,0.0,0.0,0.0,1.0,1.0,0.0,0.0,1.0,0.0,100.0,1.0,1.1856,26.0,0.0,0.0,0.0,59.999996,0.0,26.0,26.0,26.0,26.0,-0.06799999999999995,0.32320000000000015,0.1630666666666667,292.374,-2.6893,-2.703875,-1.5958999999999999,-1.3784,-272.28,215.54000000000002,190.96725,0.0,0.0,0.0,0.0,0.0035666666666666668,-5.498166666666667,-5.498166666666667,-0.4748,-1.6646666666666667,-0.04925000000000024,-0.137,65.664,-0.029400000000000003,-0.1792,0.6799999999999997,100.0,1.0,1.0,202.12666666666667,0.0,0.0,0.0,0.0,0.0,0.0,0.0,8567.5,0.0,55.0,5.0,236.35666666666668,1.0,0.0,0.0,0.0,0.0,0.0,0.0,0.0,0.053999999999998494,0.053999999999998494,0.0,0.0,1.0,55.0,616.79921,10000.0,85.000001,85.000001,85.000001,85.000001,395.0,0.0,0.0,0.0,1.0,333.33500000000004,54.321,54.321,47.318,47.318,34.0,-23.14,16.634,-37.96666666666667,33.825,0.0,1782.989,0.4299999999999997,100.0,27.529,27.104,42.521,42.958,0.0,0.0,100.0,0.0,0.0,0.0,0.0,2811.142857142857,2437.1,4770.375,5334.6,306.2665,307.0615,313.0655,311.25075,21.7856,20.5195,21.7978,21.3406,314.999998,314.999998,324.999988,324.999988,99.55894285714285,99.5072,99.56592857142857,99.54605714285714,0.02674999999999983,-0.1103333333333334,-0.1395,0.0675,-0.03333333333333144,-0.015000000000000568,1.2853333333333334,1.3119999999999998,37.16,29.247,37.236000000000004,34.379,56.272,34.504,59.3015,51.9225,54.193,33.6835,57.917,50.266999999999996,53.364000000000004,33.256,57.874,49.688,-0.04249999999999998,-0.10899999999999999,0.09971000000000001,0.11294000000000001,0.0,205.70499999999998,205.64499999999998,202.12666666666667,202.12666666666667,0.0,0.0
2,0.0,0.0,0.0,1.0,1.0,0.0,0.0,1.0,0.0,100.0,1.0,1.1856,26.0,0.0,0.0,0.0,59.999996,0.0,26.0,26.0,26.0,26.0,-0.08174999999999999,0.2983,-0.098,293.945,-2.63725,-2.6550000000000002,-1.56715,-1.5156,-268.93,215.55,190.9485,0.0,0.0,0.0,0.0,0.0055000000000000005,-5.498166666666667,-5.498166666666667,-0.5793,0.6643333333333333,-0.012249999999999872,1.585,65.798,-0.0356,-0.273,0.9100000000000001,100.0,1.0,1.0,203.55333333333334,0.0,0.0,0.0,0.0,0.0,0.0,0.0,8627.9,0.0,55.0,5.0,236.84333333333333,0.0,0.0,0.0,0.0,0.0,0.0,0.0,0.0,0.10500000000000043,0.10500000000000043,0.0,0.0,0.0,55.0,616.79921,10000.0,85.000001,85.000001,85.000001,85.000001,395.0,0.0,0.0,0.0,1.0,166.665,51.926,51.926,50.858000000000004,50.858000000000004,34.0,-29.12,21.268,-25.3,18.475,0.0,1782.938,0.5599999999999987,100.0,28.12,27.487000000000002,41.816,41.582,0.0,0.0,100.0,0.0,0.0,0.0,0.0,3378.0,3113.4,3499.625,3368.5,304.533,304.70325,316.3345,316.549,21.7957,20.5247,21.8081,21.3491,314.999998,314.999998,324.999988,324.999988,99.55894285714285,99.50721666666666,99.56607142857143,99.54617142857143,0.006750000000000256,-0.1263333333333334,-0.178,0.052333333333333336,-0.061666666666667425,-0.02499999999999858,1.7756666666666667,1.817,37.223,29.279,37.301,34.4315,56.257999999999996,34.544,59.335499999999996,51.9705,54.18,33.7205,57.948,50.3135,53.35,33.2915,57.903,49.734,-0.03849999999999998,-0.12049999999999983,0.109045,0.10756500000000001,0.0,206.16500000000002,206.05,203.55333333333334,203.55333333333334,0.0,0.0
3,0.0,0.0,0.0,1.0,1.0,0.0,0.0,1.0,0.0,100.0,1.0,1.1856,26.0,0.0,0.0,0.0,59.999996,0.0,26.0,26.0,26.0,26.0,-0.08737499999999998,0.30090000000000017,-0.021500000000000002,293.076,-2.65895,-2.6835,-1.54665,-1.4852,-265.77,215.5575,190.92925,0.0,0.0,0.0,0.0,0.007366666666666667,-5.498166666666667,-5.498166666666667,-0.5014000000000001,0.6706666666666667,0.0020000000000000018,-2.24,65.947,-0.049,-0.18760000000000002,0.798,100.0,1.0,1.0,203.35,0.0,0.0,0.0,0.0,0.0,0.0,0.0,8619.2,0.0,55.0,5.0,237.37666666666667,1.0,0.0,0.0,0.0,0.0,0.0,0.0,0.0,0.1529999999999987,0.1529999999999987,0.0,0.0,1.0,55.0,616.79921,10000.0,85.000001,85.000001,85.000001,85.000001,395.0,0.0,0.0,0.0,1.0,333.33500000000004,53.391,53.391,47.623,47.623,34.0,-24.355,19.25,-35.53333333333333,26.875,0.0,1782.888,0.6600000000000001,100.0,27.735,27.494,41.978,42.018,0.0,0.0,100.0,0.0,0.0,0.0,0.0,2881.285714285714,2851.8,4541.5,4323.0,306.1555,305.54675,313.80475,313.9735,21.8049,20.5297,21.818,21.357599999999998,314.999998,314.999998,324.999988,324.999988,99.55894285714285,99.50723333333333,99.5662,99.54631428571429,0.0027500000000002522,-0.1306666666666666,-0.16483333333333336,0.063,-0.030000000000001137,-0.030000000000001137,1.4286666666666665,1.464,37.28,29.310333333333332,37.363,34.485,56.241,34.5845,59.3725,52.0325,54.164,33.7575,57.9825,50.373,53.333,33.327,57.9345,49.79233333333333,-0.026999999999999913,-0.12199999999999989,0.11024,0.11410000000000001,0.0,206.625,206.56,203.35000000000002,203.35,0.0,0.0
4,0.0,0.0,0.0,1.0,1.0,0.0,0.0,1.0,0.0,100.0,1.0,1.1856,26.0,0.0,0.0,0.0,59.999996,0.0,26.0,26.0,26.0,26.0,-0.10587499999999994,0.3003,-0.05316666666666667,293.442,-2.65075,-2.763875,-1.48255,-1.6034000000000002,-262.4,215.5625,190.909875,0.0,0.0,0.0,0.0,0.009300000000000001,-5.498166666666667,-5.498166666666667,-0.5307000000000001,-0.8656666666666668,-0.05250000000000021,0.25900000000000034,66.093,-0.055900000000000005,-0.234825,1.1320000000000014,100.0,1.0,1.0,203.99666666666667,0.0,0.0,0.0,0.0,0.0,0.0,0.0,8646.7,0.0,55.0,5.0,237.90333333333334,0.0,0.0,0.0,0.0,0.0,0.0,0.0,0.0,0.20400000000000063,0.20400000000000063,0.0,0.0,0.0,55.0,616.79921,10000.0,85.000001,85.000001,85.000001,85.000001,395.0,0.0,0.0,0.0,1.0,166.665,53.146,53.146,48.752,48.752,34.0,-27.662499999999998,19.966,-30.71666666666667,23.517500000000002,0.0,1782.839,0.7199999999999989,100.0,27.805,26.929000000000002,42.91,42.045,0.0,0.0,100.0,0.0,0.0,0.0,0.0,3127.142857142857,2918.4,4057.25,3856.9,305.2485,305.58525,314.906,315.25725,21.8147,20.5347,21.8288,21.3666,314.999998,314.999998,324.999988,324.999988,99.55894285714285,99.50723333333333,99.56634285714286,99.54644285714286,-0.013749999999999929,-0.137,-0.18333333333333335,0.04566666666666667,-0.03999999999999915,-0.04333333333332945,1.531,1.5875,37.342,29.342,37.43,34.541,56.224000000000004,34.6245,59.414500000000004,52.091499999999996,54.147999999999996,33.7945,58.022,50.4295,53.317,33.3625,57.971000000000004,49.84733333333333,-0.01550000000000007,-0.13350000000000017,0.10340500000000001,0.10583000000000001,0.0,207.005,206.95499999999998,203.99666666666667,203.99666666666667,0.0,0.0
5,0.0,0.0,0.0,1.0,1.0,0.0,0.0,1.0,0.0,100.0,1.0,1.1856,26.0,0.0,0.0,0.0,59.999996,0.0,26.0,26.0,26.0,26.0,-0.11049999999999993,0.30510000000000015,-0.0346,293.747,-2.66655,-2.71725,-1.51735,-1.5870000000000002,-258.83,215.565,190.888875,0.0,0.0,0.0,0.0,0.0114,-5.498166666666667,-5.498166666666667,-0.5375,0.5886666666666667,-0.04012500000000019,0.7560000000000002,66.24600000000001,-0.07590000000000001,-0.22085000000000002,1.1600000000000001,100.0,1.0,1.0,204.55,0.0,0.0,0.0,0.0,0.0,0.0,0.0,8670.2,0.0,55.0,5.0,238.45666666666668,1.0,0.0,0.0,0.0,0.0,0.0,0.0,0.0,0.2579999999999991,0.2579999999999991,0.0,0.0,1.0,55.0,616.79921,10000.0,85.000001,85.000001,85.000001,85.000001,395.0,0.0,0.0,0.0,1.0,166.665,53.329,53.329,49.24,49.24,34.0,-26.525,20.616,-30.413333333333334,22.9825,0.0,1782.785,0.34499999999999886,100.0,27.752,26.753,42.47,41.44,0.0,0.0,100.0,0.0,0.0,0.0,0.0,3033.0,2976.4,3936.25,3981.5,305.467,305.39225,315.2615,315.03225,21.8252,20.5402,21.8398,21.375799999999998,314.999998,314.999998,324.999988,324.999988,99.55895714285714,99.50725,99.5665,99.5466,-0.003249999999999975,-0.1233333333333334,-0.197,0.025500000000000002,-0.06333333333333258,-0.054999999999999716,1.573,1.6265,37.407,29.376333333333335,37.498999999999995,34.599000000000004,56.208,34.668,59.454,52.150999999999996,54.132,33.8345,58.0585,50.4865,53.301,33.400999999999996,58.0045,49.903333333333336,-0.040000000000000036,-0.0990000000000002,0.09871500000000001,0.10848500000000001,0.0,207.57999999999998,207.47,204.55,204.55,0.0,0.0
6,0.0,0.0,0.0,1.0,1.0,0.0,0.0,1.0,0.0,100.0,1.0,1.1856,26.0,0.0,0.0,0.0,59.999996,0.0,26.0,26.0,26.0,26.0,-0.10912500000000003,0.31320000000000014,0.02806666666666667,293.549,-2.6496,-2.788125,-1.5123,-1.5718,-255.85,215.565,190.870625,0.0,0.0,0.0,0.0,0.013133333333333335,-5.498166666666667,-5.498166666666667,-0.5248,-0.18433333333333324,-0.060875000000000234,-1.056,66.378,-0.0813,-0.2024,1.0039999999999996,100.0,1.0,1.0,204.78,0.0,0.0,0.0,0.0,0.0,0.0,0.0,8679.8,0.0,55.0,5.0,238.93,0.0,0.0,0.0,0.0,0.0,0.0,0.0,0.0,0.3030000000000008,0.3030000000000008,0.0,0.0,0.0,55.0,616.79921,10000.0,85.000001,85.000001,85.000001,85.000001,395.0,0.0,0.0,0.0,1.0,333.33500000000004,53.696,53.696,48.462,48.462,34.0,-28.4325,18.598,-34.76,23.490000000000002,0.0,1782.739,0.48499999999999943,100.0,27.321,26.618,42.637,41.675,0.0,0.0,100.0,0.0,0.0,0.0,0.0,3189.285714285714,2752.5,4301.25,4042.3,305.2305,305.90375,314.3725,314.7685,21.8338,20.5447,21.8491,21.3837,314.999998,314.999998,324.999988,324.999988,99.55895714285714,99.50726666666667,99.56662857142857,99.54672857142857,-0.02224999999999988,-0.14900000000000002,-0.20566666666666666,0.02266666666666667,-0.04999999999999716,-0.041666666666671404,1.476,1.549,37.461,29.404,37.557,34.6485,56.193,34.703,59.49,52.204499999999996,54.117999999999995,33.8665,58.092,50.538,53.286,33.4315,58.0355,49.95366666666666,-0.03749999999999987,-0.1070000000000002,0.10745500000000001,0.10975000000000001,0.0,207.95,207.85500000000002,204.78,204.78,0.0,0.0
7,0.0,0.0,0.0,1.0,1.0,0.0,0.0,1.0,0.0,100.0,1.0,1.1856,26.0,0.0,0.0,0.0,59.999996,0.0,26.0,26.0,26.0,26.0,-0.09324999999999994,0.28510000000000013,-0.009300000000000001,293.488,-2.6099,-2.78925,-1.56165,-1.6188,-252.46,215.5625,190.85,0.0,0.0,0.0,0.0,0.0151,-5.498166666666667,-5.498166666666667,-0.533,0.1203333333333334,-0.05025000000000013,1.1080000000000005,66.522,-0.08370000000000001,-0.215675,0.7460000000000004,100.0,1.0,1.0,205.30333333333334,0.0,0.0,0.0,0.0,0.0,0.0,0.0,8702.1,0.0,55.0,5.0,239.45,1.0,0.0,0.0,0.0,0.0,0.0,0.0,0.0,0.3539999999999992,0.3539999999999992,0.0,0.0,1.0,55.0,616.79921,10000.0,85.000001,85.000001,85.000001,85.000001,395.0,0.0,0.0,0.0,1.0,166.665,53.253,53.253,48.766999999999996,48.766999999999996,34.0,-25.5625,21.588,-32.67,23.6475,0.0,1782.689,-0.030000000000001137,100.0,27.845,26.688,42.793,41.616,0.0,0.0,100.0,0.0,0.0,0.0,0.0,3093.0,2944.4,4086.5,3990.7,305.313,305.46775,314.88025,314.9575,21.8437,20.5498,21.8597,21.3927,314.999998,314.999998,324.999988,324.999988,99.55895714285714,99.50728333333333,99.56677142857143,99.54685714285715,0.021500000000000075,-0.10833333333333339,-0.19683333333333336,0.02383333333333333,-0.03333333333333144,-0.054999999999999716,1.5283333333333333,1.5765,37.522999999999996,29.436666666666667,37.623000000000005,34.704,56.179,34.7435,59.528999999999996,52.2635,54.104,33.903999999999996,58.129,50.5945,53.271,33.467,58.0695,50.00866666666667,-0.07600000000000007,-0.0754999999999999,0.10575000000000001,0.105245,0.0,208.385,208.32,205.30333333333334,205.30333333333334,0.0,0.0
8,0.0,0.0,0.0,1.0,1.0,0.0,0.0,1.0,0.0,100.0,1.0,1.1856,26.0,0.0,0.0,0.0,59.999996,0.0,26.0,26.0,26.0,26.0,-0.07650000000000001,0.27760000000000007,-0.017966666666666666,293.51800000000003,-2.68665,-2.7225,-1.53945,-1.6122,-248.86,215.5575,190.828125,0.0,0.0,0.0,0.0,0.0172,-5.498166666666667,-5.498166666666667,-0.5372,-0.16500000000000004,-0.03987499999999988,0.375,66.676,-0.0713,-0.21925,0.3380000000000001,100.0,1.0,1.0,205.76,0.0,0.0,0.0,0.0,0.0,0.0,0.0,8721.4,0.0,55.0,5.0,240.00333333333333,0.0,0.0,0.0,0.0,0.0,0.0,0.0,0.0,0.40800000000000125,0.40800000000000125,0.0,0.0,0.0,55.0,616.79921,10000.0,85.000001,85.000001,85.000001,85.000001,395.0,0.0,0.0,0.0,1.0,166.665,53.36,53.36,48.522999999999996,48.522999999999996,34.0,-25.232499999999998,22.016,-30.42666666666667,24.94,0.0,1782.635,-0.10500000000000043,100.0,27.552,26.819,42.806,41.765,0.0,0.0,100.0,0.0,0.0,0.0,0.0,3038.5714285714284,3029.6,4023.125,4002.3,305.563,305.2285,315.02425,314.91775,21.854,20.5554,21.8709,21.4022,314.999998,314.999998,324.999988,324.999988,99.55895714285714,99.5073,99.56692857142858,99.54701428571428,0.03049999999999997,-0.10099999999999998,-0.17133333333333334,0.04833333333333334,-0.03166666666666629,-0.054999999999999716,1.5573333333333332,1.5625,37.588,29.471,37.693,34.7635,56.161,34.786,59.570499999999996,52.327,54.088,33.943,58.167500000000004,50.655,53.254000000000005,33.5045,58.105000000000004,50.068333333333335,-0.08299999999999996,-0.06999999999999984,0.10656,0.10212500000000001,0.0,208.845,208.815,205.76,205.76,0.0,0.0
9,0.0,0.0,0.0,1.0,1.0,0.0,0.0,1.0,0.0,100.0,1.0,1.1856,26.0,0.0,0.0,0.0,59.999996,0.0,26.0,26.0,26.0,26.0,-0.04862500000000003,0.27900000000000014,-0.0074333333333333335,293.259,-2.61375,-2.730875,-1.5434,-1.5685,-245.86,215.55,190.80975,0.0,0.0,0.0,0.0,0.018933333333333337,-5.498166666666667,-5.498166666666667,-0.535,0.24066666666666658,-0.050875000000000004,-0.6259999999999999,66.803,-0.0555,-0.21325000000000002,0.17999999999999972,100.0,1.0,1.0,206.14333333333332,0.0,0.0,0.0,0.0,0.0,0.0,0.0,8737.7,0.0,55.0,5.0,240.46,1.0,0.0,0.0,0.0,0.0,0.0,0.0,0.0,0.4529999999999994,0.4529999999999994,0.0,0.0,1.0,55.0,616.79921,10000.0,85.000001,85.000001,85.000001,85.000001,395.0,0.0,0.0,0.0,1.0,166.665,52.948,52.948,48.721000000000004,48.721000000000004,34.0,-26.634999999999998,21.646,-31.10333333333333,24.9225,0.0,1782.591,-0.21999999999999886,100.0,27.672,27.061,42.661,41.889,0.0,0.0,100.0,0.0,0.0,0.0,0.0,3254.0,2932.6,4094.0,4051.4,305.037,305.3575,314.91025,314.7725,21.8627,20.56,21.8801,21.4101,314.999998,314.999998,324.999988,324.999988,99.55897142857143,99.50731666666667,99.56704285714285,99.54712857142857,0.027249999999999996,-0.09633333333333338,-0.17083333333333334,0.049833333333333334,-0.061666666666667425,-0.05333333333332746,1.5416666666666667,1.54,37.641999999999996,29.5,37.751000000000005,34.813,56.149,34.821,59.6045,52.3785,54.075,33.9755,58.199,50.705,53.241,33.5355,58.134,50.117,-0.09399999999999986,-0.05750000000000011,0.10744500000000001,0.10214000000000001,0.0,209.25,209.22,206.14333333333332,206.14333333333332,0.0,0.0
10,0.0,0.0,0.0,1.0,1.0,0.0,0.0,1.0,0.0,100.0,1.0,1.1856,26.0,0.0,0.0,0.0,59.999996,0.0,26.0,26.0,26.0,26.0,-0.035374999999999934,0.2964,0.012566666666666667,293.182,-2.66925,-2.7098750000000003,-1.5041,-1.5526,-242.45,215.54250000000002,190.788875,0.0,0.0,0.0,0.0,0.020933333333333335,-5.498166666666667,-5.498166666666667,-0.5283,-0.2336666666666667,-0.019874999999999865,1.697,66.94800000000001,-0.0395,-0.211175,-0.03399999999999981,100.0,1.0,1.0,206.49666666666667,0.0,0.0,0.0,0.0,0.0,0.0,0.0,8752.6,0.0,55.0,5.0,240.98333333333335,0.0,0.0,0.0,0.0,0.0,0.0,1.0,0.0,0.5040000000000013,0.5040000000000013,0.0,0.0,0.0,55.0,616.79921,10000.0,85.000001,85.000001,85.000001,85.000001,395.0,0.0,0.0,0.0,1.0,333.33500000000004,53.329,53.329,48.325,48.325,34.0,-23.755,22.594,-29.383333333333333,27.665,0.0,1782.539,-0.3249999999999993,100.0,27.765,26.876,42.868,42.159,0.0,0.0,100.0,0.0,0.0,0.0,0.0,2986.142857142857,3010.7,4104.125,4259.9,305.6545,305.33375,314.7955,314.33775,21.8725,20.5652,21.8907,21.4192,314.999998,314.999998,324.999988,324.999988,99.55897142857143,99.50731666666667,99.56718571428571,99.54728571428572,0.05325000000000024,-0.07866666666666666,-0.14150000000000001,0.076,-0.04999999999999716,-0.041666666666671404,1.5276666666666667,1.5205,37.703,29.532666666666664,37.817,34.87,56.134,34.859,59.6435,52.4395,54.062,34.0105,58.236,50.7635,53.226,33.569,58.168,50.174,-0.09299999999999997,-0.05650000000000022,0.10160000000000001,0.10450500000000001,0.0,209.66500000000002,209.655,206.49666666666667,206.49666666666667,0.0,0.0
11,0.0,0.0,0.0,1.0,1.0,0.0,0.0,1.0,0.0,100.0,1.0,1.1856,26.0,0.0,0.0,0.0,59.999996,0.0,26.0,26.0,26.0,26.0,-0.0021249999999999325,0.2811000000000001,-0.05163333333333334,293.51800000000003,-2.6845,-2.698,-1.5621,-1.5241,-239.03,215.5325,190.768,0.0,0.0,0.0,0.0,0.022600000000000002,-5.498166666666667,-5.498166666666667,-0.5507000000000001,-0.2670000000000001,0.0026249999999998774,-0.4259999999999997,67.09,-0.0268,-0.22545,-0.11799999999999944,100.0,1.0,1.0,207.05666666666667,0.0,0.0,0.0,0.0,0.0,0.0,0.0,8776.4,0.0,55.0,5.0,241.49333333333334,1.0,0.0,0.0,0.0,0.0,0.0,1.0,0.0,0.5549999999999997,0.5549999999999997,0.0,0.0,1.0,55.0,616.79921,10000.0,85.000001,85.000001,85.000001,85.000001,395.0,0.0,0.0,0.0,1.0,333.33500000000004,53.268,53.268,48.935,48.935,34.0,-24.794999999999998,23.464,-27.85,25.745,0.0,1782.486,-0.46499999999999986,100.0,27.278,27.092,42.478,42.272999999999996,0.0,0.0,100.0,0.0,0.0,0.0,0.0,3127.285714285714,3004.0,3925.625,4008.5,305.4475,305.15725,315.31925,314.8915,21.8821,20.5705,21.9011,21.4282,314.999998,314.999998,324.999988,324.999988,99.55898571428571,99.50731666666667,99.56734285714286,99.54741428571428,0.05675000000000008,-0.05899999999999994,-0.133,0.08733333333333333,-0.026666666666670835,-0.060000000000002274,1.58,1.5805,37.763,29.566,37.882,34.9265,56.119,34.897,59.6795,52.499,54.047,34.045500000000004,58.269,50.820499999999996,53.211,33.6025,58.198,50.230333333333334,-0.10650000000000004,-0.04249999999999998,0.10593000000000001,0.10668000000000001,0.0,210.09,210.10500000000002,207.05666666666667,207.05666666666667,0.0,0.0
12,0.0,0.0,0.0,1.0,1.0,0.0,0.0,1.0,0.0,100.0,1.0,1.1856,26.0,0.0,0.0,0.0,59.999996,0.0,26.0,26.0,26.0,26.0,0.00275000000000003,0.2956000000000001,0.010400000000000001,293.167,-2.7133,-2.69175,-1.54125,-1.5426,-235.8,215.525,190.7475,0.0,0.0,0.0,0.0,0.025466666666666665,-5.498166666666667,-5.498166666666667,-0.5432,0.3866666666666666,0.0026249999999998774,-0.629,67.224,-0.0126,-0.206375,-0.17999999999999972,100.0,1.0,1.0,207.4,0.0,0.0,0.0,0.0,0.0,0.0,0.0,8790.9,0.0,55.0,5.0,241.97666666666666,0.0,0.0,0.0,0.0,0.0,0.0,1.0,0.0,0.602999999999998,0.602999999999998,0.0,0.0,0.0,55.0,616.79921,10000.0,85.000001,85.000001,85.000001,85.000001,395.0,0.0,0.0,0.0,1.0,333.33500000000004,52.994,52.994,48.325,48.325,34.0,-24.8375,23.91,-28.92666666666667,27.8,0.0,1782.44,-0.41499999999999915,100.0,27.392,27.374,42.339,42.256,0.0,0.0,100.0,0.0,0.0,0.0,0.0,3134.5714285714284,3045.7,4149.375,4145.0,305.4085,305.011,314.80875,314.5795,21.8912,20.5756,21.910899999999998,21.436700000000002,314.999998,314.999998,324.999988,324.999988,99.55898571428571,99.50733333333334,99.56747142857142,99.54755714285714,0.06400000000000006,-0.05666666666666664,-0.12016666666666667,0.098,-0.046666666666666856,-0.054999999999999716,1.5536666666666668,1.528,37.82,29.597666666666665,37.943,34.979,56.105999999999995,34.9335,59.714,52.555,54.035,34.079499999999996,58.301,50.874,53.198,33.635,58.2275,50.282666666666664,-0.10349999999999993,-0.040999999999999925,0.098695,0.11051000000000001,0.0,210.53,210.54500000000002,207.4,207.4,0.0,0.0
13,0.0,0.0,0.0,1.0,1.0,0.0,0.0,1.0,0.0,100.0,1.0,1.1856,26.0,0.0,0.0,0.0,59.999996,0.0,26.0,26.0,26.0,26.0,0.030999999999999917,0.27790000000000004,0.028733333333333333,292.831,-2.68175,-2.705375,-1.5695999999999999,-1.5509,-232.37,215.515,190.72575,0.0,0.0,0.0,0.0,0.02676666666666667,-5.498166666666667,-5.498166666666667,-0.5374,-0.20766666666666667,0.002874999999999961,1.1820000000000004,67.367,-0.0057,-0.21250000000000002,-0.347999999999999,100.0,1.0,1.0,207.76666666666665,0.0,0.0,0.0,0.0,0.0,0.0,0.0,8806.5,0.0,55.0,5.0,242.49333333333334,1.0,0.0,0.0,0.0,0.0,0.0,1.0,0.0,0.6539999999999999,0.6539999999999999,0.0,0.0,1.0,55.0,616.79921,10000.0,85.000001,85.000001,85.000001,85.000001,395.0,0.0,0.0,0.0,1.0,166.665,52.841,52.841,48.019,48.019,34.0,-21.9025,25.838,-28.740000000000002,30.712500000000002,0.0,1782.389,-0.3999999999999986,100.0,27.781,27.368,42.798,42.614000000000004,0.0,0.0,100.0,0.0,0.0,0.0,0.0,3035.0,3108.2,4119.75,4297.7,305.522,305.003,314.756,314.25175,21.9009,20.5811,21.9215,21.4459,314.999998,314.999998,324.999988,324.999988,99.559,99.50735,99.56761428571428,99.5477,0.11050000000000004,-0.021333333333333315,-0.106,0.12616666666666668,-0.03499999999999659,-0.07333333333333059,1.4993333333333334,1.5070000000000001,37.879999999999995,29.631666666666668,38.009,35.036500000000004,56.093,34.972,59.7525,52.6165,54.022,34.1145,58.3375,50.9335,53.184,33.669,58.2605,50.341,-0.12450000000000006,-0.028999999999999915,0.10754000000000001,0.11612000000000001,0.0,210.95499999999998,210.985,207.76666666666665,207.76666666666665,0.0,0.0
14,0.0,0.0,0.0,1.0,1.0,0.0,0.0,1.0,0.0,100.0,1.0,1.1856,26.0,0.0,0.0,0.0,59.999996,0.0,26.0,26.0,26.0,26.0,0.038124999999999964,0.28390000000000004,-0.0256,293.045,-2.7044,-2.71,-1.56635,-1.5434999999999999,-228.93,215.5075,190.704375,0.0,0.0,0.0,0.0,0.02876666666666667,-5.498166666666667,-5.498166666666667,-0.5508000000000001,-0.07033333333333336,0.01662499999999989,-0.45699999999999985,67.506,0.0043,-0.2265,-0.347999999999999,100.0,1.0,1.0,208.2866666666667,0.0,0.0,0.0,0.0,0.0,0.0,0.0,8828.5,0.0,55.0,5.0,242.99666666666667,0.0,0.0,0.0,0.0,0.0,0.0,1.0,0.0,0.7049999999999983,0.7049999999999983,0.0,0.0,0.0,55.0,616.79921,10000.0,85.000001,85.000001,85.000001,85.000001,395.0,0.0,0.0,0.0,1.0,166.665,52.811,52.811,48.431,48.431,34.0,-23.1725,24.46,-27.35,28.19,0.0,1782.338,-0.4349999999999987,100.0,27.602,27.696,42.572,42.769,0.0,0.0,100.0,0.0,0.0,0.0,0.0,3102.714285714286,3018.1,4001.75,4084.2,305.514,305.04075,315.14275,314.69975,21.9105,20.5865,21.9319,21.455,314.999998,314.999998,324.999988,324.999988,99.559,99.50735,99.56775714285715,99.54784285714285,0.09425000000000017,-0.04266666666666663,-0.10616666666666667,0.11516666666666667,-0.05666666666667197,-0.061666666666667425,1.5576666666666668,1.541,37.941,29.665666666666667,38.075,35.0935,56.08,35.01,59.789,52.677,54.01,34.15,58.371,50.9915,53.171,33.7025,58.2915,50.397666666666666,-0.11499999999999999,-0.03949999999999987,0.10565000000000001,0.11167,0.0,211.385,211.41500000000002,208.2866666666667,208.2866666666667,0.0,0.0
15,0.0,0.0,0.0,1.0,1.0,0.0,0.0,1.0,0.0,100.0,1.0,1.1856,26.0,0.0,0.0,0.0,59.999996,0.0,26.0,26.0,26.0,26.0,0.026250000000000107,0.27490000000000014,-0.006166666666666667,293.015,-2.6954,-2.6862500000000002,-1.5763500000000001,-1.5607,-225.49,215.5,190.682625,0.0,0.0,0.0,0.0,0.03076666666666667,-5.498166666666667,-5.498166666666667,-0.5424,0.22233333333333338,0.03037500000000004,0.7279999999999998,67.648,0.0145,-0.21072500000000002,-0.4220000000000006,100.0,1.0,1.0,208.68,0.0,0.0,0.0,0.0,0.0,0.0,0.0,8845.1,0.0,55.0,5.0,243.50333333333333,1.0,0.0,0.0,0.0,0.0,0.0,1.0,0.0,0.7560000000000002,0.7560000000000002,0.0,0.0,1.0,55.0,616.79921,10000.0,85.000001,85.000001,85.000001,85.000001,395.0,0.0,0.0,0.0,1.0,166.665,52.963,52.963,48.294,48.294,34.0,-21.7375,24.996000000000002,-27.04,30.6875,0.0,1782.287,-0.3099999999999987,100.0,27.742,27.574,42.513,42.742000000000004,0.0,0.0,100.0,0.0,0.0,0.0,0.0,2935.4285714285716,3089.6,4034.875,4213.2,305.826,305.00125,315.013,314.4335,21.920099999999998,20.592,21.9423,21.4641,314.999998,314.999998,324.999988,324.999988,99.55901428571428,99.50735,99.5679,99.54798571428572,0.09724999999999984,-0.035666666666666624,-0.08766666666666667,0.13666666666666666,-0.060000000000002274,-0.051666666666669414,1.526,1.5165,38.001000000000005,29.7,38.14,35.1505,56.067,35.0485,59.825,52.7375,53.997,34.185,58.4045,51.05,53.158,33.7365,58.3215,50.455,-0.09899999999999998,-0.05250000000000021,0.10898000000000001,0.101915,0.0,211.835,211.86,208.68,208.68,0.0,0.0
16,0.0,0.0,0.0,1.0,1.0,0.0,0.0,1.0,0.0,100.0,1.0,1.1856,26.0,0.0,0.0,0.0,59.999996,0.0,26.0,26.0,26.0,26.0,0.02825000000000011,0.2681,-0.0005666666666666667,292.816,-2.75635,-2.6331249999999997,-1.55325,-1.5565,-222.23,215.4925,190.661875,0.0,0.0,0.0,0.0,0.03266666666666667,-5.498166666666667,-5.498166666666667,-0.5547000000000001,-0.43300000000000005,0.021374999999999922,0.24399999999999977,67.779,0.0173,-0.22465000000000002,-0.24799999999999933,100.0,1.0,1.0,209.07,0.0,0.0,0.0,0.0,0.0,0.0,0.0,8861.8,0.0,55.0,5.0,243.98000000000002,0.0,0.0,0.0,0.0,0.0,0.0,1.0,0.0,0.8039999999999985,0.8039999999999985,0.0,0.0,0.0,55.0,616.79921,10000.0,85.000001,85.000001,85.000001,85.000001,395.0,0.0,0.0,0.0,1.0,166.665,52.582,52.582,47.989,47.989,34.0,-23.5575,26.028,-26.336666666666666,29.715,0.0,1782.24,-0.25,100.0,27.576,27.679000000000002,42.771,42.928,0.0,0.0,100.0,0.0,0.0,0.0,0.0,3085.714285714286,3225.2,4027.625,4091.5,305.451,304.62725,315.00575,314.70075,21.929,20.5972,21.9522,21.4727,314.999998,314.999998,324.999988,324.999988,99.55904285714286,99.50735,99.56804285714286,99.54812857142858,0.09624999999999995,-0.028666666666666618,-0.08033333333333333,0.13866666666666666,-0.021666666666668277,-0.06666666666666998,1.5226666666666666,1.513,38.056,29.732333333333333,38.202,35.204499999999996,56.053,35.084,59.8605,52.7945,53.983999999999995,34.2185,58.4375,51.105000000000004,53.144,33.7685,58.352000000000004,50.509,-0.09450000000000003,-0.052999999999999936,0.10228500000000001,0.10692000000000002,0.0,212.215,212.245,209.07,209.07,0.0,0.0
17,0.0,0.0,0.0,1.0,1.0,0.0,0.0,1.0,0.0,100.0,1.0,1.1856,26.0,0.0,0.0,0.0,59.999996,0.0,26.0,26.0,26.0,26.0,0.016750000000000043,0.2863,0.02736666666666667,292.465,-2.7202,-2.61325,-1.59595,-1.5184,-218.76999999999998,215.485,190.639625,0.0,0.0,0.0,0.0,0.03466666666666667,-5.498166666666667,-5.498166666666667,-0.5509000000000001,0.20299999999999996,-0.003750000000000142,-1.0659999999999998,67.919,0.0145,-0.21430000000000002,-0.15200000000000014,100.0,1.0,1.0,209.45,0.0,0.0,0.0,0.0,0.0,0.0,0.0,8877.8,0.0,55.0,5.0,244.48000000000002,1.0,0.0,0.0,0.0,0.0,0.0,1.0,0.0,0.8550000000000004,0.8550000000000004,0.0,0.0,1.0,55.0,616.79921,10000.0,85.000001,85.000001,85.000001,85.000001,395.0,0.0,0.0,0.0,1.0,166.665,52.322,52.322,47.653,47.653,34.0,-24.5875,24.293999999999997,-30.566666666666666,28.9075,0.0,1782.189,-0.19500000000000028,100.0,27.812,27.981,42.677,42.984,0.0,0.0,100.0,0.0,0.0,0.0,0.0,3235.285714285714,3096.1,4330.375,4203.0,305.1525,304.84675,314.44675,314.447,21.9386,20.6027,21.962699999999998,21.4818,314.999998,314.999998,324.999988,324.999988,99.55904285714286,99.50736666666667,99.56818571428572,99.54827142857143,0.09149999999999991,-0.04266666666666663,-0.10533333333333333,0.11516666666666667,-0.05833333333333002,-0.03499999999999659,1.5123333333333333,1.5175,38.116,29.767,38.266999999999996,35.260999999999996,56.041,35.123,59.8965,52.8545,53.973,34.254,58.4715,51.1625,53.131,33.8025,58.382999999999996,50.565333333333335,-0.09699999999999998,-0.05750000000000011,0.11045,0.09727000000000001,0.0,212.67000000000002,212.68,209.45,209.45,0.0,0.0
18,0.0,0.0,0.0,1.0,1.0,0.0,0.0,1.0,0.0,100.0,1.0,1.1856,26.0,0.0,0.0,0.0,59.999996,0.0,26.0,26.0,26.0,26.0,0.02750000000000008,0.2782,0.0357,292.419,-2.64275,-2.747,-1.49705,-1.4847000000000001,-215.31,215.48000000000002,190.617125,0.0,0.0,0.0,0.0,0.0367,-5.498166666666667,-5.498166666666667,-0.562,-0.32133333333333325,0.0016249999999999876,0.8780000000000001,68.05799999999999,0.011300000000000001,-0.22715000000000002,-0.1479999999999997,100.0,1.0,1.0,209.86333333333334,0.0,0.0,0.0,0.0,0.0,0.0,0.0,8895.4,0.0,55.0,5.0,244.98000000000002,0.0,0.0,0.0,0.0,0.0,0.0,1.0,0.0,0.9059999999999988,0.9059999999999988,0.0,0.0,0.0,55.0,616.79921,10000.0,85.000001,85.000001,85.000001,85.000001,395.0,0.0,0.0,0.0,1.0,166.665,52.322,52.322,47.775,47.775,34.0,-22.8625,26.384,-27.026666666666667,30.087500000000002,0.0,1782.137,-0.1750000000000007,100.0,27.969,27.805,42.987,43.054,0.0,0.0,100.0,0.0,0.0,0.0,0.0,3080.857142857143,3187.8,4073.875,4302.1,305.389,304.61225,314.8535,314.25675,21.9481,20.6082,21.9732,21.491,314.999998,314.999998,324.999988,324.999988,99.55905714285714,99.50736666666667,99.56832857142857,99.54841428571429,0.08950000000000014,-0.04066666666666663,-0.09816666666666668,0.1305,-0.036666666666668846,-0.061666666666667425,1.499,1.5,38.176,29.801333333333332,38.332,35.3185,56.028,35.161,59.934,52.915,53.96,34.289500000000004,58.5065,51.221000000000004,53.117000000000004,33.8365,58.414500000000004,50.62233333333333,-0.09099999999999997,-0.05799999999999983,0.10805500000000001,0.109145,0.0,213.095,213.095,209.86333333333334,209.86333333333334,0.0,0.0
19,0.0,0.0,0.0,1.0,1.0,0.0,0.0,1.0,0.0,100.0,1.0,1.1856,26.0,0.0,0.0,0.0,59.999996,0.0,26.0,26.0,26.0,26.0,0.029125000000000068,0.28170000000000006,0.0193,292.236,-2.65065,-2.705125,-1.52625,-1.6049,-211.82999999999998,215.475,190.594375,0.0,0.0,0.0,0.0,0.038700000000000005,-5.498166666666667,-5.498166666666667,-0.5507000000000001,0.5636666666666666,0.008249999999999869,-0.7959999999999998,68.195,0.0071,-0.214625,0.0,100.0,1.0,1.0,210.29333333333335,0.0,0.0,0.0,0.0,0.0,0.0,0.0,8913.5,0.0,55.0,5.0,245.47333333333336,1.0,0.0,0.0,0.0,0.0,0.0,1.0,0.0,0.9570000000000007,0.9570000000000007,0.0,0.0,1.0,55.0,616.79921,10000.0,85.000001,85.000001,85.000001,85.000001,395.0,0.0,0.0,0.0,1.0,166.665,52.078,52.078,47.76,47.76,34.0,-23.9025,23.692,-28.82333333333333,30.3675,0.0,1782.087,-0.11499999999999844,100.0,28.302,28.356,42.832,43.269999999999996,0.0,0.0,100.0,0.0,0.0,0.0,0.0,3147.0,3004.6,4191.125,4217.5,305.3495,305.01475,314.707,314.296,21.9577,20.6138,21.9836,21.5001,314.999998,314.999998,324.999988,324.999988,99.55907142857143,99.50738333333334,99.56847142857143,99.54855714285715,0.07650000000000023,-0.05999999999999994,-0.11016666666666668,0.113,-0.041666666666671404,-0.04833333333333201,1.5016666666666667,1.505,38.236000000000004,29.836333333333336,38.397,35.3755,56.016,35.201,59.9695,52.9755,53.949,34.326499999999996,58.539,51.2785,53.105000000000004,33.872,58.4445,50.679,-0.08899999999999997,-0.06999999999999984,0.10283,0.112115,0.0,213.56,213.535,210.29333333333335,210.29333333333335,0.0,0.0
20,0.0,0.0,0.0,1.0,1.0,0.0,0.0,1.0,0.0,100.0,1.0,1.1856,26.0,0.0,0.0,0.0,59.999996,0.0,26.0,26.0,26.0,26.0,0.01912500000000006,0.2550000000000001,-0.012066666666666668,292.374,-2.71815,-2.659,-1.53065,-1.5893000000000002,-208.56,215.47,190.573375,0.0,0.0,0.0,0.0,0.040633333333333334,-5.498166666666667,-5.498166666666667,-0.5563,-0.831,0.008249999999999869,-0.9670000000000001,68.325,0.0012000000000000001,-0.22745,0.09600000000000009,100.0,1.0,1.0,210.66333333333333,0.0,0.0,0.0,0.0,0.0,0.0,0.0,8929.3,0.0,55.0,5.0,245.94333333333333,0.0,0.0,0.0,0.0,0.0,0.0,0.0,0.0,1.004999999999999,1.004999999999999,0.0,0.0,0.0,55.0,616.79921,10000.0,85.000001,85.000001,85.000001,85.000001,395.0,0.0,0.0,0.0,1.0,333.33500000000004,52.521,52.521,47.394,47.394,34.0,-24.412499999999998,23.38,-28.75333333333333,28.8,0.0,1782.036,-0.14999999999999858,100.0,27.864,28.083,43.339,43.638,0.0,0.0,100.0,0.0,0.0,0.0,0.0,3131.5714285714284,3026.1,4156.625,4067.3,305.48,305.0675,314.746,314.63975,21.9666,20.619,21.9936,21.5089,314.999998,314.999998,324.999988,324.999988,99.55907142857143,99.50738333333334,99.56861428571429,99.5487,0.07399999999999984,-0.05933333333333335,-0.11016666666666668,0.10983333333333332,-0.041666666666671404,-0.026666666666670835,1.4809999999999999,1.4889999999999999,38.291,29.868666666666666,38.46,35.4305,56.001999999999995,35.237,60.006,53.033500000000004,53.935,34.3595,58.573499999999996,51.3345,53.091,33.903999999999996,58.476,50.734,-0.08799999999999986,-0.06800000000000006,0.10418000000000001,0.10546000000000001,0.0,213.905,213.89,210.66333333333333,210.66333333333333,0.0,0.0
21,0.0,0.0,0.0,1.0,1.0,0.0,0.0,1.0,0.0,100.0,1.0,1.1856,26.0,0.0,0.0,0.0,59.999996,0.0,26.0,26.0,26.0,26.0,0.01187500000000008,0.2753000000000001,-0.03693333333333333,292.618,-2.7164,-2.6654999999999998,-1.5787,-1.5467,-205.26999999999998,215.465,190.55175,0.0,0.0,0.0,0.0,0.04253333333333333,-5.498166666666667,-5.498166666666667,-0.5741,0.09266666666666656,-0.0036249999999999893,-0.6699999999999999,68.451,-0.0044,-0.224175,0.017999999999999794,100.0,1.0,1.0,211.2,0.0,0.0,0.0,0.0,0.0,0.0,0.0,8951.9,0.0,55.0,5.0,246.39666666666665,1.0,0.0,0.0,0.0,0.0,0.0,0.0,0.0,1.0530000000000008,1.0530000000000008,0.0,0.0,1.0,55.0,616.79921,10000.0,85.000001,85.000001,85.000001,85.000001,395.0,0.0,0.0,0.0,1.0,333.33500000000004,52.414,52.414,48.096000000000004,48.096000000000004,34.0,-24.8075,24.128,-28.563333333333333,27.5025,0.0,1781.99,-0.25,100.0,27.938,27.956,42.988,43.205,0.0,0.0,100.0,0.0,0.0,0.0,0.0,3219.5714285714284,3063.0,4069.25,3997.9,305.212,305.01325,315.0245,314.9635,21.9755,20.6242,22.0033,21.5174,314.999998,314.999998,324.999988,324.999988,99.55908571428571,99.5074,99.56874285714285,99.54884285714286,0.08274999999999988,-0.04899999999999993,-0.11750000000000001,0.11633333333333333,-0.051666666666669414,-0.046666666666666856,1.574,1.5545,38.347,29.901,38.521,35.4835,55.989999999999995,35.2735,60.038,53.087,53.924,34.3935,58.603,51.3865,53.078,33.936,58.503,50.784333333333336,-0.10199999999999987,-0.05449999999999999,0.11074,0.11524000000000001,0.0,214.32999999999998,214.305,211.2,211.2,0.0,0.0
22,0.0,0.0,0.0,1.0,1.0,0.0,0.0,1.0,0.0,100.0,1.0,1.1856,26.0,0.0,0.0,0.0,59.999996,0.0,26.0,26.0,26.0,26.0,-0.009000000000000008,0.26660000000000017,-0.0015333333333333334,292.175,-2.76825,-2.6343750000000004,-1.5972,-1.5333999999999999,-201.78,215.46,190.528,0.0,0.0,0.0,0.0,0.04456666666666667,-5.498166666666667,-5.498166666666667,-0.558,0.04533333333333334,0.006124999999999936,1.0670000000000002,68.589,-0.0036000000000000003,-0.20075,-0.15399999999999991,100.0,1.0,1.0,211.45333333333332,0.0,0.0,0.0,0.0,0.0,0.0,0.0,8962.7,0.0,55.0,5.0,246.89333333333335,0.0,0.0,0.0,0.0,0.0,0.0,0.0,0.0,1.1039999999999992,1.1039999999999992,0.0,0.0,0.0,55.0,616.79921,10000.0,85.000001,85.000001,85.000001,85.000001,395.0,0.0,0.0,0.0,1.0,166.665,52.49,52.49,47.15,47.15,34.0,-23.8825,24.536,-30.866666666666667,30.9675,0.0,1781.94,-0.2699999999999996,100.0,28.18,27.876,43.287,43.269999999999996,0.0,0.0,100.0,0.0,0.0,0.0,0.0,3045.5714285714284,3159.8,4269.0,4396.5,305.63,304.92825,314.46975,314.0725,21.985,20.6297,22.0138,21.5266,314.999998,314.999998,324.999988,324.999988,99.5591,99.5074,99.5689,99.54898571428572,0.08174999999999999,-0.04733333333333334,-0.11383333333333333,0.11783333333333333,-0.02833333333332888,-0.051666666666669414,1.4806666666666666,1.479,38.406,29.935666666666666,38.586,35.541,55.977000000000004,35.3125,60.0755,53.147,53.911,34.4295,58.6385,51.4445,53.065,33.9705,58.535,50.841,-0.09549999999999992,-0.058499999999999996,0.109725,0.11123000000000001,0.0,214.745,214.765,211.45333333333332,211.45333333333332,0.0,0.0
23,0.0,0.0,0.0,1.0,1.0,0.0,0.0,1.0,0.0,100.0,1.0,1.1856,26.0,0.0,0.0,0.0,59.999996,0.0,26.0,26.0,26.0,26.0,-0.007624999999999993,0.2670000000000001,0.0179,292.053,-2.6529,-2.6942500000000003,-1.63455,-1.5101,-198.07,215.45499999999998,190.503125,0.0,0.0,0.0,0.0,0.046700000000000005,-5.498166666666667,-5.498166666666667,-0.5744,-0.20333333333333337,0.0035000000000000586,0.7199999999999998,68.732,0.0006000000000000001,-0.22692500000000002,-0.15200000000000014,100.0,1.0,1.0,211.94,0.0,0.0,0.0,0.0,0.0,0.0,0.0,8983.4,0.0,55.0,5.0,247.40666666666667,1.0,0.0,0.0,0.0,0.0,0.0,0.0,0.0,1.1580000000000013,1.1580000000000013,0.0,0.0,1.0,55.0,616.79921,10000.0,85.000001,85.000001,85.000001,85.000001,395.0,0.0,0.0,0.0,1.0,166.665,51.956,51.956,47.501,47.501,34.0,-23.474999999999998,25.044,-29.773333333333333,29.035,0.0,1781.885,-0.245000000000001,100.0,28.428,28.068,43.47,43.489000000000004,0.0,0.0,100.0,0.0,0.0,0.0,0.0,3162.285714285714,3152.9,4183.125,4194.7,305.12,304.81425,314.734,314.55125,21.995,20.6357,22.025,21.5364,314.999998,314.999998,324.999988,324.999988,99.55911428571429,99.5074,99.56904285714286,99.54914285714285,0.09525000000000006,-0.05066666666666664,-0.10266666666666667,0.12366666666666667,-0.02833333333332888,-0.05833333333333002,1.5293333333333332,1.531,38.469,29.973,38.656,35.602000000000004,55.964,35.3545,60.115,53.211,53.897999999999996,34.468,58.675,51.506,53.051,34.0075,58.568,50.90133333333333,-0.09899999999999998,-0.06349999999999989,0.105465,0.11017,0.0,215.16500000000002,215.19,211.94,211.94,0.0,0.0
24,0.0,0.0,0.0,1.0,1.0,0.0,0.0,1.0,0.0,100.0,1.0,1.1856,26.0,0.0,0.0,0.0,59.999996,0.0,26.0,26.0,26.0,26.0,0.010499999999999954,0.26550000000000007,-0.04463333333333333,292.435,-2.68295,-2.6736250000000004,-1.5474,-1.5646,-194.76999999999998,215.4525,190.4805,0.0,0.0,0.0,0.0,0.048633333333333334,-5.498166666666667,-5.498166666666667,-0.5849,-0.42199999999999993,0.013249999999999984,1.085,68.85900000000001,0.0027,-0.220725,-0.16600000000000037,100.0,1.0,1.0,212.32999999999998,0.0,0.0,0.0,0.0,0.0,0.0,0.0,9000.0,0.0,55.0,5.0,247.86333333333334,0.0,0.0,0.0,0.0,0.0,0.0,0.0,0.0,1.2059999999999995,1.2059999999999995,0.0,0.0,0.0,55.0,616.79921,10000.0,85.000001,85.000001,85.000001,85.000001,395.0,0.0,0.0,0.0,1.0,166.665,52.75,52.75,47.409,47.409,34.0,-21.985,24.33,-28.69333333333333,29.1825,0.0,1781.838,-0.28000000000000114,100.0,28.169,27.808,43.427,43.452,0.0,0.0,100.0,0.0,0.0,0.0,0.0,2936.142857142857,3090.5,4127.875,4162.4,305.8605,305.097,314.75925,314.591,22.0039,20.6408,22.0348,21.545,314.999998,314.999998,324.999988,324.999988,99.55911428571429,99.50741666666667,99.56918571428571,99.54927142857143,0.0887500000000001,-0.04733333333333334,-0.1095,0.115,-0.041666666666671404,-0.060000000000002274,1.5083333333333333,1.5190000000000001,38.524,30.005,38.718,35.656,55.951,35.3895,60.1485,53.2665,53.885999999999996,34.5005,58.7065,51.5595,53.038,34.039,58.5965,50.95366666666666,-0.09899999999999998,-0.06099999999999994,0.111085,0.106925,0.0,215.565,215.57,212.32999999999998,212.32999999999998,0.0,0.0
25,0.0,0.0,0.0,1.0,1.0,0.0,0.0,1.0,0.0,100.0,1.0,1.1856,26.0,0.0,0.0,0.0,59.999996,0.0,26.0,26.0,26.0,26.0,0.0002500000000000835,0.2695000000000001,-0.023666666666666666,292.175,-2.74035,-2.65075,-1.5875,-1.5357,-191.45999999999998,215.4475,190.456625,0.0,0.0,0.0,0.0,0.05056666666666667,-5.498166666666667,-5.498166666666667,-0.6023000000000001,0.032333333333333325,0.018750000000000044,0.26400000000000023,68.98400000000001,0.0064,-0.21860000000000002,-0.242,100.0,1.0,1.0,212.76999999999998,0.0,0.0,0.0,0.0,0.0,0.0,0.0,9018.6,0.0,55.0,5.0,248.31333333333333,1.0,0.0,0.0,0.0,0.0,0.0,0.0,0.0,1.2540000000000013,1.2540000000000013,0.0,0.0,1.0,55.0,616.79921,10000.0,85.000001,85.000001,85.000001,85.000001,395.0,0.0,0.0,0.0,1.0,333.33500000000004,51.849000000000004,51.849000000000004,47.775,47.775,34.0,-25.06,26.747999999999998,-27.87,29.2725,0.0,1781.787,-0.2699999999999996,100.0,28.109,28.022,43.225,43.286,0.0,0.0,100.0,0.0,0.0,0.0,0.0,3244.0,3337.6,4010.625,4167.5,305.042,304.295,315.14725,314.61275,22.0127,20.6461,22.0446,21.5536,314.999998,314.999998,324.999988,324.999988,99.55912857142857,99.50741666666667,99.56931428571428,99.54941428571429,0.09050000000000002,-0.04033333333333333,-0.108,0.12616666666666668,-0.03833333333332689,-0.04333333333332945,1.5483333333333333,1.542,38.579,30.038,38.778999999999996,35.71,55.938,35.4265,60.181,53.3215,53.873999999999995,34.5345,58.7365,51.612,53.024,34.0715,58.6235,51.004999999999995,-0.09899999999999998,-0.05799999999999983,0.11399500000000001,0.10404000000000001,0.0,215.95499999999998,215.95,212.76999999999998,212.76999999999998,0.0,0.0
26,0.0,0.0,0.0,1.0,1.0,0.0,0.0,1.0,0.0,100.0,1.0,1.1856,26.0,0.0,0.0,0.0,59.999996,0.0,26.0,26.0,26.0,26.0,0.024499999999999966,0.27300000000000013,0.06103333333333334,291.367,-2.70645,-2.729125,-1.5513,-1.5581,-187.94,215.445,190.431,0.0,0.0,0.0,0.0,0.0526,-5.498166666666667,-5.498166666666667,-0.5739000000000001,0.3876666666666666,0.004999999999999893,-0.7109999999999999,69.12,0.0089,-0.2019,-0.1479999999999997,100.0,1.0,1.0,212.9766666666667,0.0,0.0,0.0,0.0,0.0,0.0,0.0,9027.3,0.0,55.0,5.0,248.80333333333334,0.0,0.0,0.0,0.0,0.0,0.0,0.0,0.0,1.3049999999999997,1.3049999999999997,0.0,0.0,0.0,55.0,616.79921,10000.0,85.000001,85.000001,85.000001,85.000001,395.0,0.0,0.0,0.0,1.0,333.33500000000004,51.682,51.682,46.555,46.555,34.0,-24.77,24.082,-31.97,32.04,0.0,1781.736,-0.3249999999999993,100.0,28.697,28.704,43.575,43.788,0.0,0.0,100.0,0.0,0.0,0.0,0.0,3261.857142857143,2994.8,4488.125,4463.0,305.11,305.09625,313.9835,313.78425,22.0223,20.6518,22.0552,21.5629,314.999998,314.999998,324.999988,324.999988,99.55914285714286,99.50743333333334,99.56947142857143,99.54955714285714,0.08999999999999986,-0.05266666666666664,-0.10833333333333334,0.113,-0.03499999999999659,-0.04999999999999716,1.4343333333333335,1.436,38.638999999999996,30.073999999999998,38.845,35.768,55.927,35.467,60.2195,53.382999999999996,53.864000000000004,34.572,58.772,51.671,53.013,34.1075,58.656,51.063,-0.10650000000000004,-0.05699999999999994,0.11035,0.104245,0.0,216.4,216.41,212.9766666666667,212.9766666666667,0.0,0.0
27,0.0,0.0,0.0,1.0,1.0,0.0,0.0,1.0,0.0,100.0,1.0,1.1856,26.0,0.0,0.0,0.0,59.999996,0.0,26.0,26.0,26.0,26.0,0.038124999999999964,0.2501,-0.03796666666666667,291.87,-2.75245,-2.66975,-1.6109499999999999,-1.5415,-184.62,215.44,190.407875,0.0,0.0,0.0,0.0,0.054533333333333336,-5.498166666666667,-5.498166666666667,-0.5962000000000001,-0.8640000000000001,0.013624999999999998,-0.569,69.244,0.011000000000000001,-0.23800000000000002,-0.22200000000000042,100.0,1.0,1.0,213.4766666666667,0.0,0.0,0.0,0.0,0.0,0.0,0.0,9048.6,0.0,55.0,5.0,249.25,1.0,0.0,0.0,0.0,0.0,0.0,0.0,0.0,1.352999999999998,1.352999999999998,0.0,0.0,1.0,55.0,616.79921,10000.0,85.000001,85.000001,85.000001,85.000001,395.0,0.0,0.0,0.0,1.0,333.33500000000004,51.987,51.987,46.738,46.738,34.0,-23.8075,24.862000000000002,-29.553333333333335,28.505,0.0,1781.69,-0.3049999999999997,100.0,28.34,28.608,43.942,44.147000000000006,0.0,0.0,100.0,0.0,0.0,0.0,0.0,3138.714285714286,3109.4,4175.625,4061.9,305.5315,304.79925,314.78125,314.82675,22.0311,20.6572,22.0652,21.5717,314.999998,314.999998,324.999988,324.999988,99.55915714285715,99.50743333333334,99.56961428571428,99.5497,0.09525000000000006,-0.04566666666666663,-0.10516666666666667,0.12316666666666667,-0.04333333333332945,-0.036666666666668846,1.5176666666666667,1.5110000000000001,38.694,30.107333333333333,38.907,35.823499999999996,55.915,35.504,60.254999999999995,53.44,53.852000000000004,34.606,58.8055,51.726,53.001000000000005,34.14,58.6865,51.11666666666667,-0.10999999999999988,-0.05600000000000005,0.10869500000000001,0.10740000000000001,0.0,216.74,216.745,213.4766666666667,213.4766666666667,0.0,0.0
28,0.0,0.0,0.0,1.0,1.0,0.0,0.0,1.0,0.0,100.0,1.0,1.1856,26.0,0.0,0.0,0.0,59.999996,0.0,26.0,26.0,26.0,26.0,0.013749999999999929,0.26049999999999995,-0.036533333333333334,292.007,-2.67945,-2.65975,-1.625,-1.5670000000000002,-181.07999999999998,215.4375,190.3825,0.0,0.0,0.0,0.0,0.056600000000000004,-5.498166666666667,-5.498166666666667,-0.6029,0.5593333333333332,0.004249999999999865,0.3330000000000002,69.373,0.015000000000000001,-0.218525,-0.30600000000000005,100.0,1.0,1.0,213.98000000000002,0.0,0.0,0.0,0.0,0.0,0.0,0.0,9069.9,0.0,55.0,5.0,249.71666666666667,0.0,0.0,0.0,0.0,0.0,0.0,0.0,0.0,1.404,1.404,0.0,0.0,0.0,55.0,616.79921,10000.0,85.000001,85.000001,85.000001,85.000001,395.0,0.0,0.0,0.0,1.0,333.33500000000004,51.865,51.865,47.455,47.455,34.0,-22.63,25.698,-28.09,30.0,0.0,1781.639,-0.3249999999999993,100.0,28.602,28.427,43.447,43.65,0.0,0.0,100.0,0.0,0.0,0.0,0.0,3073.5714285714284,3197.4,4088.75,4142.7,305.432,304.714,315.016,314.681,22.0405,20.6629,22.075499999999998,21.5809,314.999998,314.999998,324.999988,324.999988,99.55917142857143,99.50743333333334,99.56975714285714,99.54985714285715,0.10199999999999987,-0.03733333333333333,-0.09033333333333333,0.13533333333333333,-0.03999999999999915,-0.07333333333333059,1.5486666666666666,1.535,38.753,30.143,38.972,35.8805,55.903,35.5435,60.2875,53.4975,53.841,34.6425,58.835499999999996,51.7815,52.988,34.175,58.713499999999996,51.17066666666666,-0.10599999999999987,-0.06199999999999983,0.11012000000000001,0.10322500000000001,0.0,217.17000000000002,217.21,213.98000000000002,213.98000000000002,0.0,0.0
29,0.0,0.0,0.0,1.0,1.0,0.0,0.0,1.0,0.0,100.0,1.0,1.1856,26.0,0.0,0.0,0.0,59.999996,0.0,26.0,26.0,26.0,26.0,0.035374999999999934,0.24770000000000003,-0.006333333333333334,291.855,-2.66415,-2.716375,-1.56935,-1.5501,-177.54,215.435,190.356125,0.0,0.0,0.0,0.0,0.05863333333333334,-5.498166666666667,-5.498166666666667,-0.6045,-0.6636666666666668,-0.001875000000000071,-0.742,69.508,0.015300000000000001,-0.21482500000000002,-0.23799999999999955,100.0,1.0,1.0,214.23000000000002,0.0,0.0,0.0,0.0,0.0,0.0,0.0,9080.4,0.0,55.0,5.0,250.20333333333335,1.0,0.0,0.0,0.0,0.0,0.0,0.0,0.0,1.4549999999999983,1.4549999999999983,0.0,0.0,1.0,55.0,616.79921,10000.0,85.000001,85.000001,85.000001,85.000001,395.0,0.0,0.0,0.0,1.0,333.33500000000004,52.322,52.322,46.829,46.829,34.0,-22.435,24.234,-29.35333333333333,30.66,0.0,1781.587,-0.3949999999999996,100.0,28.12,28.403,43.766,44.034,0.0,0.0,100.0,0.0,0.0,0.0,0.0,3126.285714285714,3002.6,4221.75,4263.0,305.5315,305.0905,314.61675,314.2645,22.0498,20.6685,22.086100000000002,21.5902,314.999998,314.999998,324.999988,324.999988,99.55918571428572,99.50745,99.56991428571429,99.55,0.1070000000000002,-0.047666666666666635,-0.09983333333333333,0.12283333333333334,-0.04833333333333201,-0.05333333333332746,1.4743333333333335,1.459,38.811,30.177999999999997,39.038,35.9385,55.89,35.581,60.326,53.558,53.828,34.6775,58.871,51.84,52.975,34.2085,58.746,51.227666666666664,-0.11299999999999999,-0.052000000000000046,0.10076,0.10626000000000001,0.0,217.575,217.565,214.23000000000002,214.23000000000002,0.0,0.0
30,0.0,0.0,0.0,1.0,1.0,0.0,0.0,1.0,0.0,100.0,1.0,1.1856,26.0,0.0,0.0,0.0,59.999996,0.0,26.0,26.0,26.0,26.0,0.054624999999999924,0.25340000000000007,0.0032666666666666664,291.245,-2.7281,-2.599375,-1.64065,-1.5985,-174.2,215.435,190.33125,0.0,0.0,0.0,0.0,0.0606,-5.498166666666667,-5.498166666666667,-0.608,0.7466666666666666,0.001874999999999849,-0.5379999999999998,69.629,0.0166,-0.21935000000000002,-0.3360000000000003,100.0,1.0,1.0,214.71666666666667,0.0,0.0,0.0,0.0,0.0,0.0,0.0,9101.0,0.0,55.0,5.0,250.64,0.0,0.0,0.0,0.0,0.0,0.0,1.0,0.0,1.5030000000000001,1.5030000000000001,0.0,0.0,0.0,55.0,616.79921,10000.0,85.000001,85.000001,85.000001,85.000001,395.0,0.0,0.0,0.0,1.0,166.665,50.522,50.522,47.226,47.226,34.0,-25.8525,26.338,-29.816666666666666,29.35,0.0,1781.54,-0.39000000000000057,100.0,28.996,29.088,43.514,43.968,0.0,0.0,100.0,0.0,0.0,0.0,0.0,3406.5714285714284,3307.6,4189.75,4071.9,304.532,304.05875,314.909,314.72975,22.058799999999998,20.674,22.0959,21.5989,314.999998,314.999998,324.999988,324.999988,99.5592,99.50745,99.57004285714285,99.55014285714286,0.10325000000000006,-0.04166666666666663,-0.10416666666666667,0.12,-0.05666666666667197,-0.03833333333332689,1.522,1.5070000000000001,38.867000000000004,30.212666666666664,39.099000000000004,35.993,55.882,35.62,60.3575,53.613,53.82,34.713499999999996,58.900999999999996,51.893,52.966,34.243,58.7725,51.279666666666664,-0.11850000000000005,-0.05500000000000016,0.11402500000000002,0.09960500000000001,0.0,217.97,217.96,214.71666666666667,214.71666666666667,0.0,0.0
31,0.0,0.0,0.0,1.0,1.0,0.0,0.0,1.0,0.0,100.0,1.0,1.1856,26.0,0.0,0.0,0.0,59.999996,0.0,26.0,26.0,26.0,26.0,0.023125000000000062,0.2519,0.06703333333333333,290.787,-2.76545,-2.6317500000000003,-1.64195,-1.4993,-170.64999999999998,215.435,190.305375,0.0,0.0,0.0,0.0,0.06266666666666666,-5.498166666666667,-5.498166666666667,-0.5885,-0.3653333333333333,0.011624999999999996,0.8570000000000002,69.762,0.0217,-0.220925,-0.37399999999999967,100.0,1.0,1.0,214.91666666666669,0.0,0.0,0.0,0.0,0.0,0.0,0.0,9109.6,0.0,55.0,5.0,251.12,1.0,0.0,0.0,0.0,0.0,0.0,1.0,0.0,1.5539999999999985,1.5539999999999985,0.0,0.0,1.0,55.0,616.79921,10000.0,85.000001,85.000001,85.000001,85.000001,395.0,0.0,0.0,0.0,1.0,333.33500000000004,51.117,51.117,45.685,45.685,34.0,-23.4,27.346,-30.509999999999998,33.055,0.0,1781.488,-0.40500000000000114,100.0,29.058,29.084,44.426,44.625,0.0,0.0,100.0,0.0,0.0,0.0,0.0,3136.4285714285716,3362.0,4321.5,4436.7,305.3615,304.30775,314.282,313.87025,22.0681,20.6798,22.1066,21.6084,314.999998,314.999998,324.999988,324.999988,99.55921428571429,99.50745,99.5702,99.5503,0.11249999999999982,-0.02633333333333332,-0.0805,0.1485,-0.04333333333332945,-0.046666666666666856,1.439,1.4140000000000001,38.926,30.249000000000002,39.166,36.0525,55.870999999999995,35.66,60.3975,53.6765,53.81,34.7505,58.938,51.954,52.954,34.2785,58.806,51.339,-0.11349999999999993,-0.058499999999999996,0.10594500000000001,0.10746000000000001,0.0,218.36,218.365,214.91666666666669,214.91666666666669,0.0,0.0
32,0.0,0.0,0.0,1.0,1.0,0.0,0.0,1.0,0.0,100.0,1.0,1.1856,26.0,0.0,0.0,0.0,59.999996,0.0,26.0,26.0,26.0,26.0,0.04150000000000009,0.26490000000000014,-0.029333333333333333,291.367,-2.6925,-2.6888750000000003,-1.58365,-1.6245,-166.88,215.435,190.278375,0.0,0.0,0.0,0.0,0.06483333333333334,-5.498166666666667,-5.498166666666667,-0.6074,-0.2486666666666668,-0.008500000000000174,0.2530000000000001,69.897,0.0252,-0.232525,-0.39999999999999947,100.0,1.0,1.0,215.4766666666667,0.0,0.0,0.0,0.0,0.0,0.0,0.0,9133.3,0.0,55.0,5.0,251.60333333333335,0.0,0.0,0.0,0.0,0.0,0.0,1.0,0.0,1.6080000000000005,1.6080000000000005,0.0,0.0,0.0,55.0,616.79921,10000.0,85.000001,85.000001,85.000001,85.000001,395.0,0.0,0.0,0.0,1.0,166.665,51.59,51.59,46.707,46.707,34.0,-21.97,26.376,-27.386666666666667,32.615,0.0,1781.436,-0.370000000000001,100.0,28.891,28.903,44.21,44.522000000000006,0.0,0.0,100.0,0.0,0.0,0.0,0.0,3059.4285714285716,3177.4,4073.125,4253.5,305.5075,304.7745,314.9425,314.34675,22.0779,20.686,22.1177,21.6183,314.999998,314.999998,324.999988,324.999988,99.55922857142858,99.50746666666667,99.57035714285715,99.55045714285714,0.11699999999999999,-0.023666666666666614,-0.08366666666666667,0.146,-0.03499999999999659,-0.05666666666667197,1.513,1.5030000000000001,38.986999999999995,30.287333333333336,39.236000000000004,36.114,55.858999999999995,35.702,60.434,53.7385,53.798,34.789,58.972,52.013999999999996,52.941,34.3155,58.8365,51.397666666666666,-0.11199999999999988,-0.05049999999999999,0.109405,0.105755,0.0,218.76999999999998,218.8,215.4766666666667,215.4766666666667,0.0,0.0
33,0.0,0.0,0.0,1.0,1.0,0.0,0.0,1.0,0.0,100.0,1.0,1.1856,26.0,0.0,0.0,0.0,59.999996,0.0,26.0,26.0,26.0,26.0,0.040750000000000064,0.2583,-0.06296666666666667,291.626,-2.7063,-2.69725,-1.59185,-1.588,-163.51999999999998,215.4375,190.25325,0.0,0.0,0.0,0.0,0.0668,-5.498166666666667,-5.498166666666667,-0.616,-0.20166666666666666,-0.00749999999999984,1.056,70.019,0.024900000000000002,-0.21635000000000001,-0.33999999999999986,100.0,1.0,1.0,215.85666666666668,0.0,0.0,0.0,0.0,0.0,0.0,0.0,9149.3,0.0,55.0,5.0,252.04000000000002,1.0,0.0,0.0,0.0,0.0,0.0,1.0,0.0,1.6559999999999988,1.6559999999999988,0.0,0.0,1.0,55.0,616.79921,10000.0,85.000001,85.000001,85.000001,85.000001,395.0,0.0,0.0,0.0,1.0,166.665,51.865,51.865,46.997,46.997,34.0,-22.1675,25.874,-27.21,31.5225,0.0,1781.387,-0.39000000000000057,100.0,28.729,28.646,44.018,44.297,0.0,0.0,100.0,0.0,0.0,0.0,0.0,3073.714285714286,3105.6,4081.75,4231.7,305.5,304.99725,314.9355,314.4765,22.0866,20.6913,22.1275,21.6269,314.999998,314.999998,324.999988,324.999988,99.55924285714286,99.50746666666667,99.57048571428571,99.55058571428572,0.11750000000000016,-0.02100000000000002,-0.07783333333333332,0.14066666666666666,-0.03166666666666629,-0.04833333333333201,1.5236666666666667,1.5045,39.041,30.320333333333334,39.297,36.1685,55.848,35.737,60.466499999999996,53.793,53.787,34.8215,59.001999999999995,52.0665,52.929,34.3465,58.8635,51.44866666666667,-0.11699999999999999,-0.04700000000000015,0.10171500000000001,0.10296000000000001,0.0,219.14499999999998,219.16500000000002,215.85666666666668,215.85666666666668,0.0,0.0
34,0.0,0.0,0.0,1.0,1.0,0.0,0.0,1.0,0.0,100.0,1.0,1.1856,26.0,0.0,0.0,0.0,59.999996,0.0,26.0,26.0,26.0,26.0,0.03600000000000003,0.25839999999999996,-0.0703,291.824,-2.663,-2.675875,-1.627,-1.5253999999999999,-160.14999999999998,215.44,190.226875,0.0,0.0,0.0,0.0,0.06876666666666667,-5.498166666666667,-5.498166666666667,-0.6413,-0.8306666666666669,0.015374999999999917,0.9270000000000005,70.14,0.0258,-0.22155,-0.3520000000000003,100.0,1.0,1.0,216.19666666666666,0.0,0.0,0.0,0.0,0.0,0.0,0.0,9163.8,0.0,55.0,5.0,252.47666666666666,0.0,0.0,0.0,0.0,0.0,0.0,1.0,0.0,1.7040000000000006,1.7040000000000006,0.0,0.0,0.0,55.0,616.79921,10000.0,85.000001,85.000001,85.000001,85.000001,395.0,0.0,0.0,0.0,1.0,166.665,52.353,52.353,47.134,47.134,34.0,-21.287499999999998,25.042,-28.223333333333333,30.895,0.0,1781.34,-0.384999999999998,100.0,28.439,28.346,43.885,44.388999999999996,0.0,0.0,100.0,0.0,0.0,0.0,0.0,2989.5714285714284,3047.3,4108.25,4254.7,305.7695,305.13,314.91275,314.4245,22.0952,20.6965,22.1373,21.6357,314.999998,314.999998,324.999988,324.999988,99.55925714285715,99.50748333333334,99.57062857142857,99.55072857142858,0.1120000000000001,-0.024666666666666615,-0.0845,0.14166666666666666,-0.03833333333332689,-0.04833333333333201,1.5183333333333333,1.5030000000000001,39.095,30.35333333333333,39.358000000000004,36.2235,55.836,35.771,60.4985,53.8495,53.775,34.853,59.0315,52.1205,52.917,34.3765,58.8905,51.502,-0.10450000000000004,-0.05449999999999999,0.10730500000000001,0.105395,0.0,219.495,219.525,216.19666666666666,216.19666666666666,0.0,0.0
35,0.0,0.0,0.0,1.0,1.0,0.0,0.0,1.0,0.0,100.0,1.0,1.1856,26.0,0.0,0.0,0.0,59.999996,0.0,26.0,26.0,26.0,26.0,0.06275000000000008,0.24950000000000006,-0.056400000000000006,291.763,-2.72415,-2.6561250000000003,-1.53875,-1.5842,-156.57,215.4425,190.197,0.0,0.0,0.0,0.0,0.07083333333333335,-5.498166666666667,-5.498166666666667,-0.6793,-0.16066666666666674,-0.006250000000000089,-1.286,70.266,0.0292,-0.227475,-0.3099999999999996,100.0,1.0,1.0,216.68,0.0,0.0,0.0,0.0,0.0,0.0,0.0,9184.3,0.0,55.0,5.0,252.93333333333334,1.0,0.0,0.0,0.0,0.0,0.0,1.0,0.0,1.754999999999999,1.754999999999999,0.0,0.0,1.0,55.0,616.79921,10000.0,85.000001,85.000001,85.000001,85.000001,395.0,0.0,0.0,0.0,1.0,333.33500000000004,51.666,51.666,46.768,46.768,34.0,-23.7025,26.664,-26.863333333333333,29.82,0.0,1781.288,-0.1999999999999993,100.0,28.139,28.837,43.611000000000004,43.976,0.0,0.0,100.0,0.0,0.0,0.0,0.0,3177.857142857143,3289.6,4133.25,4023.6000000000004,305.3665,304.26575,314.9505,315.0105,22.1042,20.7024,22.1476,21.6449,314.999998,314.999998,324.999988,324.999988,99.55927142857144,99.50748333333334,99.57077142857143,99.55088571428571,0.10199999999999987,-0.03933333333333333,-0.08283333333333333,0.149,-0.03499999999999659,-0.04999999999999716,1.5526666666666666,1.5415,39.150999999999996,30.39,39.423,36.2805,55.821,35.8105,60.5315,53.9045,53.762,34.89,59.0625,52.174,52.902,34.412,58.918,51.554,-0.09749999999999992,-0.06999999999999984,0.10848500000000001,0.107325,0.0,219.89499999999998,219.92000000000002,216.68,216.68,0.0,0.0
36,0.0,0.0,0.0,1.0,1.0,0.0,0.0,1.0,0.0,100.0,1.0,1.1856,26.0,0.0,0.0,0.0,59.999996,0.0,26.0,26.0,26.0,26.0,0.04387500000000011,0.25670000000000015,0.03276666666666667,291.153,-2.64625,-2.720875,-1.6454,-1.5961,-152.99,215.4475,190.16575,0.0,0.0,0.0,0.0,0.07293333333333334,-5.498166666666667,-5.498166666666667,-0.6626000000000001,0.0033333333333332993,-0.04499999999999993,0.28300000000000036,70.396,0.020900000000000002,-0.203075,-0.14200000000000035,100.0,1.0,1.0,216.86666666666667,0.0,0.0,0.0,0.0,0.0,0.0,0.0,9192.2,0.0,55.0,5.0,253.4,0.0,0.0,0.0,0.0,0.0,0.0,1.0,0.0,1.806000000000001,1.806000000000001,0.0,0.0,0.0,55.0,616.79921,10000.0,85.000001,85.000001,85.000001,85.000001,395.0,0.0,0.0,0.0,1.0,166.665,51.788,51.788,46.356,46.356,34.0,-21.02,25.566,-30.796666666666667,34.545,0.0,1781.237,-0.19500000000000028,100.0,28.912,28.764,43.954,44.253,0.0,0.0,100.0,0.0,0.0,0.0,0.0,2956.857142857143,3112.3,4357.25,4505.5,305.6365,304.9315,314.29225,313.8175,22.1135,20.7082,22.1581,21.6543,314.999998,314.999998,324.999988,324.999988,99.55928571428572,99.50748333333334,99.57092857142857,99.55102857142857,0.11450000000000005,-0.036666666666666625,-0.081,0.14300000000000002,-0.026666666666670835,-0.060000000000002274,1.4383333333333335,1.446,39.209,30.426333333333332,39.488,36.339,55.811,35.8505,60.567499999999995,53.965,53.751000000000005,34.9265,59.096000000000004,52.232,52.891,34.447,58.948,51.611000000000004,-0.09549999999999992,-0.06950000000000012,0.099055,0.11332500000000001,0.0,220.32999999999998,220.345,216.86666666666667,216.86666666666667,0.0,0.0
