,ABS Active,ABS Enabled,AID Allow Tire Blankets,AID Auto Blip,AID Auto Clutch,AID Auto Shift,AID Fuel Rate,AID Ideal Line,AID Mech Damage,AID Stability,AID Tire Wear Rate,Air Density,Air Temp,Ballast,Best Lap Delta,Best Lap Time,Brake Bias,Brake Pos,Brake Temp FL,Brake Temp FR,Brake Temp RL,Brake Temp RR,CG Accel Lateral,CG Accel Longitudinal,CG Accel Vertical,CG Height,Camber FL,Camber FR,Camber RL,Camber RR,Car Coord X,Car Coord Y,Car Coord Z,Car Damage Front,Car Damage Left,Car Damage Rear,Car Damage Right,Car Pos Norm,Caster FL,Caster FR,Chassis Pitch Angle,Chassis Pitch Rate,Chassis Roll Angle,Chassis Roll Rate,Chassis Velocity X,Chassis Velocity Y,Chassis Velocity Z,Chassis Yaw Rate,Clutch Pos,DRS Active,DRS Available,Drive Train Speed,ERS Heat Charging,ERS Is Charging,ERS Max Energy,ERS Power Level,ERS Recovery Level,Engine Brake Setting,Engine Limiter,Engine RPM,Flags,Fuel Level,Gear,Ground Speed,HR Sample Clock,In Pit,KERS Charge,KERS Deployed Energy,KERS Input,KERS Max Energy,LR Sample Clock,Lap Invalidated,Lap Time,Lap Time2,Last Lap Time,Last Sector Time,MR Sample Clock,Max Fuel,Max Power,Max RPM,Max Sus Travel FL,Max Sus Travel FR,Max Sus Travel RL,Max Sus Travel RR,Max Torque,Max Turbo Boost,Num Tires Off Track,Penalties Enabled,Position,Raw Data Sample Rate,Ride Height FL,Ride Height FR,Ride Height RL,Ride Height RR,Road Temp,Self Align Torque FL,Self Align Torque FR,Self Align Torque RL,Self Align Torque RR,Session Lap Count,Session Time Left,Steering Angle,Surface Grip,Suspension Travel FL,Suspension Travel FR,Suspension Travel RL,Suspension Travel RR,TC Active,TC Enabled,Throttle Pos,Tire Dirt Level FL,Tire Dirt Level FR,Tire Dirt Level RL,Tire Dirt Level RR,Tire Load FL,Tire Load FR,Tire Load RL,Tire Load RR,Tire Loaded Radius FL,Tire Loaded Radius FR,Tire Loaded Radius RL,Tire Loaded Radius RR,Tire Pressure FL,Tire Pressure FR,Tire Pressure RL,Tire Pressure RR,Tire Radius FL,Tire Radius FR,Tire Radius RL,Tire Radius RR,Tire Rubber Grip FL,Tire Rubber Grip FR,Tire Rubber Grip RL,Tire Rubber Grip RR,Tire Slip Angle FL,Tire Slip Angle FR,Tire Slip Angle RL,Tire Slip Angle RR,Tire Slip Ratio FL,Tire Slip Ratio FR,Tire Slip Ratio RL,Tire Slip Ratio RR,Tire Temp Core FL,Tire Temp Core FR,Tire Temp Core RL,Tire Temp Core RR,Tire Temp Inner FL,Tire Temp Inner FR,Tire Temp Inner RL,Tire Temp Inner RR,Tire Temp Middle FL,Tire Temp Middle FR,Tire Temp Middle RL,Tire Temp Middle RR,Tire Temp Outer FL,Tire Temp Outer FR,Tire Temp Outer RL,Tire Temp Outer RR,Toe In FL,Toe In FR,Toe In RL,Toe In RR,Turbo Boost,Wheel Angular Speed FL,Wheel Angular Speed FR,Wheel Angular Speed RL,Wheel Angular Speed RR,Wind Direction,Wind Speed
0,0.0,0.0,0.0,1.0,1.0,0.0,0.0,1.0,0.0,100.0,1.0,1.1856,26.0,0.0,0.0,0.0,59.99999,0.0,26.0,26.0,26.0,26.0,-0.1093333333333334,0.28770000000000007,0.035,294.052,-2.703,-2.681888888888889,-1.5,-1.5742,-275.62,216.285,190.98725,0.0,0.0,0.0,0.0,0.0016333333333333332,-5.498166666666667,-5.498166666666667,-0.5494,1.2543333333333333,-0.02662500000000012,-0.22999999999999998,65.483,-0.0523,-0.21655000000000002,1.0939999999999994,100.0,1.0,1.0,202.18333333333334,0.0,0.0,0.0,0.0,0.0,0.0,0.0,8569.8,0.0,55.0,5.0,235.71,0.0,0.0,0.0,0.0,0.0,0.0,0.0,0.0,0.0030000000000001137,0.0030000000000001137,0.0,0.0,0.0,55.0,616.79921,10000.0,85.0,85.0,85.0,85.0,395.0,0.0,0.0,0.0,1.0,20.0,52.75,52.75,49.637,49.637,34.0,-28.28,23.17,-30.62,23.625,0.0,1782.885,0.9800000000000004,100.0,27.345,26.704,40.759,40.283,0.0,0.0,100.0,0.0,0.0,0.0,0.0,3109.285714285714,3397.4,4095.5,3961.7,305.3135,304.04775,314.86566666666664,314.9745,21.7741,20.5128,21.769199999999998,21.314,314.99999,314.99999,324.99998,324.99998,99.55858571428571,99.5072,99.56498571428571,99.5452,-0.02299999999999991,-0.134,-0.17399999999999993,0.04059999999999997,-0.05833333333333002,-0.03833333333332689,1.5506666666666666,1.595,37.088,29.205,37.058,34.2125,56.178,34.4495,58.9945,51.607,54.102999999999994,33.629999999999995,57.624,49.966,53.275999999999996,33.201,57.5875,49.391666666666666,0.002000000000000224,-0.14650000000000007,0.10568000000000001,0.10086,0.0,205.255,205.115,202.18333333333334,202.18333333333334,0.0,0.0
1,0.0,0.0,0.0,1.0,1.0,0.0,0.0,1.0,0.0,100.0,1.0,1.1856,26.0,0.0,0.0,0.0,59.999996,0.0,26.0,26.0,26.0,26.0,-0.13611111111111107,0.31700000000000017,-0.0032666666666666664,293.152,-2.6279,-2.776777777777778,-1.5211999999999999,-1.5577,-272.07,216.2825,190.966,0.0,0.0,0.0,0.0,0.0037,-5.498166666666667,-5.498166666666667,-0.49710000000000004,-0.6316666666666666,-0.06287500000000001,-0.3849999999999998,65.647,-0.06720000000000001,-0.19885,1.5099999999999998,100.0,1.0,1.0,202.36,0.0,0.0,0.0,0.0,0.0,0.0,0.0,8577.3,0.0,55.0,5.0,236.3,1.0,0.0,0.0,0.0,0.0,0.0,0.0,0.0,0.05699999999999861,0.05699999999999861,0.0,0.0,1.0,55.0,616.79921,10000.0,85.000001,85.000001,85.000001,85.000001,395.0,0.0,0.0,0.0,1.0,166.665,53.726,53.726,48.385999999999996,48.385999999999996,34.0,-26.97,17.586,-33.89333333333333,28.4625,0.0,1782.833,1.0100000000000016,100.0,27.626,26.8,42.872,41.608000000000004,0.0,0.0,100.0,0.0,0.0,0.0,0.0,3020.4285714285716,2676.0,4246.125,4733.1,305.5495,306.31375,314.4343333333333,313.059,21.7846,20.5181,21.7806,21.3237,314.999998,314.999998,324.999988,324.999988,99.5586,99.50721666666666,99.56514285714286,99.54535714285714,-0.028666666666666618,-0.15300000000000002,-0.1896,0.02320000000000011,-0.045000000000001705,-0.03499999999999659,1.407,1.4809999999999999,37.153999999999996,29.238333333333333,37.129000000000005,34.272999999999996,56.163,34.493,59.042,51.677,54.088,33.67,57.668,50.0325,53.26,33.2395,57.629,49.457,0.009500000000000064,-0.1499999999999999,0.09979500000000001,0.10489000000000001,0.0,205.695,205.57,202.36,202.36,0.0,0.0
2,0.0,0.0,0.0,1.0,1.0,0.0,0.0,1.0,0.0,100.0,1.0,1.1856,26.0,0.0,0.0,0.0,59.999996,0.0,26.0,26.0,26.0,26.0,-0.16822222222222216,0.28370000000000006,-0.10073333333333334,293.716,-2.5869999999999997,-2.812222222222222,-1.4747,-1.624,-268.92,216.2775,190.94825,0.0,0.0,0.0,0.0,0.005533333333333334,-5.498166666666667,-5.498166666666667,-0.5467000000000001,-0.009333333333333334,-0.06349999999999989,2.3609999999999998,65.78,-0.0843,-0.248125,1.718,100.0,1.0,1.0,203.24,0.0,0.0,0.0,0.0,0.0,0.0,0.0,8614.5,0.0,55.0,5.0,236.78,0.0,0.0,0.0,0.0,0.0,0.0,0.0,0.0,0.10500000000000043,0.10500000000000043,0.0,0.0,0.0,55.0,616.79921,10000.0,85.000001,85.000001,85.000001,85.000001,395.0,0.0,0.0,0.0,1.0,333.33500000000004,52.521,52.521,50.125,50.125,34.0,-30.665,19.462,-30.09,19.6825,0.0,1782.784,0.7300000000000004,100.0,28.38,26.771,42.699,41.241,0.0,0.0,100.0,0.0,0.0,0.0,0.0,3341.0,2912.2,3793.375,3673.3,304.503,305.6195,315.5316666666667,315.80575,21.7943,20.5228,21.790399999999998,21.3318,314.999998,314.999998,324.999988,324.999988,99.5586,99.50723333333333,99.56527142857144,99.54548571428572,-0.04166666666666674,-0.15800000000000003,-0.23520000000000008,-0.0033999999999999586,-0.03333333333333144,-0.05833333333333002,1.6316666666666666,1.7065000000000001,37.214,29.267333333333333,37.19,34.324,56.152,34.53,59.0775,51.7295,54.078,33.704,57.701499999999996,50.0835,53.248999999999995,33.272,57.66,49.50666666666667,-0.010499999999999954,-0.13549999999999995,0.10803000000000001,0.10260000000000001,0.0,206.11,205.98000000000002,203.24,203.24,0.0,0.0
3,0.0,0.0,0.0,1.0,1.0,0.0,0.0,1.0,0.0,100.0,1.0,1.1856,26.0,0.0,0.0,0.0,59.999996,0.0,26.0,26.0,26.0,26.0,-0.15700000000000003,0.3043,0.0727,293.427,-2.7189,-2.704888888888889,-1.5046,-1.5997,-265.76,216.26749999999998,190.92975,0.0,0.0,0.0,0.0,0.007366666666666667,-5.498166666666667,-5.498166666666667,-0.5102,0.3783333333333333,-0.016875000000000195,0.5259999999999998,65.923,-0.0974,-0.199825,1.2720000000000002,100.0,1.0,1.0,203.39333333333332,0.0,0.0,0.0,0.0,0.0,0.0,0.0,8621.1,0.0,55.0,5.0,237.29333333333335,1.0,0.0,0.0,0.0,0.0,0.0,0.0,0.0,0.1529999999999987,0.1529999999999987,0.0,0.0,1.0,55.0,616.79921,10000.0,85.000001,85.000001,85.000001,85.000001,395.0,0.0,0.0,0.0,1.0,333.33500000000004,53.497,53.497,48.172,48.172,34.0,-26.3525,18.514,-35.196666666666665,24.5325,0.0,1782.736,0.6600000000000001,100.0,27.984,26.84,42.576,41.268,0.0,0.0,100.0,0.0,0.0,0.0,0.0,2884.285714285714,2901.4,4276.625,4258.4,305.96,305.6105,314.35333333333335,314.32225,21.8036,20.5276,21.8002,21.3402,314.999998,314.999998,324.999988,324.999988,99.5586,99.50725,99.5654,99.54561428571428,-0.030000000000000027,-0.15766666666666662,-0.21999999999999997,0.006399999999999961,-0.04333333333332945,-0.03833333333332689,1.4846666666666666,1.5095,37.272,29.297666666666665,37.251000000000005,34.376,56.138,34.57,59.1155,51.788,54.065,33.741,57.737,50.1395,53.235,33.3075,57.692499999999995,49.56166666666667,-0.026999999999999913,-0.12049999999999983,0.10321500000000002,0.11036000000000001,0.0,206.565,206.45,203.39333333333332,203.39333333333332,0.0,0.0
4,0.0,0.0,0.0,1.0,1.0,0.0,0.0,1.0,0.0,100.0,1.0,1.1856,26.0,0.0,0.0,0.0,59.999996,0.0,26.0,26.0,26.0,26.0,-0.16033333333333333,0.2833000000000001,-0.0441,293.701,-2.6484,-2.7555555555555555,-1.518,-1.6071,-262.19,216.2525,190.908875,0.0,0.0,0.0,0.0,0.009433333333333334,-5.498166666666667,-5.498166666666667,-0.5454,-0.7416666666666667,-0.08550000000000013,-0.5249999999999999,66.07900000000001,-0.0956,-0.239125,1.1760000000000002,100.0,1.0,1.0,204.01333333333332,0.0,0.0,0.0,0.0,0.0,0.0,0.0,8647.3,0.0,55.0,5.0,237.85666666666668,0.0,0.0,0.0,0.0,0.0,0.0,0.0,0.0,0.20700000000000074,0.20700000000000074,0.0,0.0,0.0,55.0,616.79921,10000.0,85.000001,85.000001,85.000001,85.000001,395.0,0.0,0.0,0.0,1.0,166.665,53.055,53.055,48.92,48.92,34.0,-29.395,19.772,-31.983333333333334,20.8625,0.0,1782.683,0.6449999999999996,100.0,27.826,26.674,42.926,41.345,0.0,0.0,100.0,0.0,0.0,0.0,0.0,3229.0,2965.6,4020.0,3672.0,305.02,305.434,314.953,315.69975,21.8139,20.533,21.8115,21.3496,314.999998,314.999998,324.999988,324.999988,99.55861428571428,99.50726666666667,99.56555714285714,99.54575714285714,-0.03266666666666662,-0.14933333333333332,-0.20999999999999996,0.016799999999999926,-0.05833333333333002,-0.06499999999999773,1.5723333333333334,1.5995,37.337,29.331333333333333,37.322,34.435,56.120000000000005,34.614,59.16,51.851,54.048,33.782,57.7785,50.1995,53.217,33.3465,57.731,49.620333333333335,-0.021499999999999853,-0.1200000000000001,0.10030000000000001,0.10592000000000001,0.0,207.0,206.905,204.01333333333332,204.01333333333332,0.0,0.0
5,0.0,0.0,0.0,1.0,1.0,0.0,0.0,1.0,0.0,100.0,1.0,1.1856,26.0,0.0,0.0,0.0,59.999996,0.0,26.0,26.0,26.0,26.0,-0.14811111111111108,0.3106,-0.0108,293.701,-2.6602,-2.7764444444444445,-1.5017,-1.5939999999999999,-259.02,216.2375,190.889625,0.0,0.0,0.0,0.0,0.011266666666666668,-5.498166666666667,-5.498166666666667,-0.5357000000000001,0.4366666666666667,-0.08824999999999994,1.2110000000000003,66.217,-0.0949,-0.21345,1.0540000000000003,100.0,1.0,1.0,204.37666666666667,0.0,0.0,0.0,0.0,0.0,0.0,0.0,8662.8,0.0,55.0,5.0,238.35000000000002,1.0,0.0,0.0,0.0,0.0,0.0,0.0,0.0,0.254999999999999,0.254999999999999,0.0,0.0,1.0,55.0,616.79921,10000.0,85.000001,85.000001,85.000001,85.000001,395.0,0.0,0.0,0.0,1.0,166.665,53.497,53.497,49.042,49.042,34.0,-27.744999999999997,19.156,-33.5,22.6825,0.0,1782.635,0.21499999999999986,100.0,27.945,26.519,42.652,41.004,0.0,0.0,100.0,0.0,0.0,0.0,0.0,3102.714285714286,2833.1,4147.5,4081.1000000000004,305.3155,305.882,314.7303333333333,314.77625,21.8233,20.5378,21.8213,21.3578,314.999998,314.999998,324.999988,324.999988,99.55861428571428,99.50728333333333,99.5657,99.54588571428572,-0.019333333333333202,-0.1423333333333333,-0.21939999999999993,0.0014000000000000679,-0.03166666666666629,-0.04333333333332945,1.537,1.5865,37.394999999999996,29.361,37.382999999999996,34.486,56.108000000000004,34.6525,59.1975,51.905,54.036,33.817,57.814,50.251,53.205,33.379999999999995,57.763999999999996,49.67066666666666,-0.05049999999999999,-0.09600000000000009,0.10626500000000001,0.10105000000000001,0.0,207.47500000000002,207.375,204.37666666666667,204.37666666666667,0.0,0.0
6,0.0,0.0,0.0,1.0,1.0,0.0,0.0,1.0,0.0,100.0,1.0,1.1856,26.0,0.0,0.0,0.0,59.999996,0.0,26.0,26.0,26.0,26.0,-0.1243333333333334,0.2913000000000001,0.012100000000000001,293.472,-2.6352,-2.7472222222222222,-1.5505,-1.5842,-255.84,216.2175,190.870375,0.0,0.0,0.0,0.0,0.013133333333333335,-5.498166666666667,-5.498166666666667,-0.5309,0.11066666666666668,-0.06462499999999993,0.9989999999999997,66.356,-0.0886,-0.21405000000000002,0.766,100.0,1.0,1.0,204.77666666666667,0.0,0.0,0.0,0.0,0.0,0.0,0.0,8679.8,0.0,55.0,5.0,238.85000000000002,0.0,0.0,0.0,0.0,0.0,0.0,0.0,0.0,0.3030000000000008,0.3030000000000008,0.0,0.0,0.0,55.0,616.79921,10000.0,85.000001,85.000001,85.000001,85.000001,395.0,0.0,0.0,0.0,1.0,333.33500000000004,53.162,53.162,48.798,48.798,34.0,-26.799999999999997,20.845999999999997,-32.516666666666666,23.372500000000002,0.0,1782.587,0.03500000000000014,100.0,27.832,26.666,42.783,41.414,0.0,0.0,100.0,0.0,0.0,0.0,0.0,3113.285714285714,2994.7,4063.875,4044.9,305.232,305.355,314.92133333333334,314.86,21.8325,20.5426,21.8312,21.3662,314.999998,314.999998,324.999988,324.999988,99.55861428571428,99.5073,99.56582857142857,99.54602857142856,0.002666666666666817,-0.127,-0.2036,0.020399999999999974,-0.04333333333332945,-0.04999999999999716,1.5513333333333335,1.5655000000000001,37.453,29.391333333333336,37.445,34.539,56.094,34.6905,59.236,51.963,54.022,33.852000000000004,57.8495,50.3065,53.19,33.4135,57.797,49.725,-0.07099999999999995,-0.08199999999999985,0.10320000000000001,0.10338000000000001,0.0,207.87,207.79500000000002,204.77666666666667,204.77666666666667,0.0,0.0
7,0.0,0.0,0.0,1.0,1.0,0.0,0.0,1.0,0.0,100.0,1.0,1.1856,26.0,0.0,0.0,0.0,59.999996,0.0,26.0,26.0,26.0,26.0,-0.09111111111111103,0.2885,0.0198,293.213,-2.6115,-2.7328888888888887,-1.5124,-1.6266,-252.45,216.1925,190.849875,0.0,0.0,0.0,0.0,0.0151,-5.498166666666667,-5.498166666666667,-0.5344,-0.03066666666666667,-0.05525000000000002,-0.2250000000000001,66.501,-0.0709,-0.22357500000000002,0.43400000000000016,100.0,1.0,1.0,205.20666666666668,0.0,0.0,0.0,0.0,0.0,0.0,0.0,8697.9,0.0,55.0,5.0,239.37666666666667,1.0,0.0,0.0,0.0,0.0,0.0,0.0,0.0,0.3539999999999992,0.3539999999999992,0.0,0.0,1.0,55.0,616.79921,10000.0,85.000001,85.000001,85.000001,85.000001,395.0,0.0,0.0,0.0,1.0,333.33500000000004,52.795,52.795,48.843,48.843,34.0,-27.2675,21.52,-32.28,24.7725,0.0,1782.535,-0.18499999999999872,100.0,27.812,26.886,42.72,41.792,0.0,0.0,100.0,0.0,0.0,0.0,0.0,3300.5714285714284,2962.8,4102.25,4029.5,304.8115,305.26925,314.83733333333333,314.74575,21.8424,20.5478,21.8417,21.3752,314.999998,314.999998,324.999988,324.999988,99.55862857142857,99.50731666666667,99.56598571428572,99.54617142857143,0.024666666666666615,-0.10566666666666658,-0.19999999999999996,0.03420000000000001,-0.036666666666668846,-0.04833333333333201,1.5356666666666667,1.554,37.515,29.423666666666666,37.510999999999996,34.595,56.079,34.730000000000004,59.275999999999996,52.024,54.007999999999996,33.8885,57.887,50.365,53.176,33.448499999999996,57.8315,49.782333333333334,-0.09749999999999992,-0.05750000000000011,0.11293,0.10630500000000001,0.0,208.3,208.265,205.20666666666668,205.20666666666668,0.0,0.0
8,0.0,0.0,0.0,1.0,1.0,0.0,0.0,1.0,0.0,100.0,1.0,1.1856,26.0,0.0,0.0,0.0,59.999996,0.0,26.0,26.0,26.0,26.0,-0.04755555555555557,0.2813000000000001,0.0287,293.472,-2.6919,-2.720222222222222,-1.495,-1.5558,-249.05,216.16750000000002,190.82925,0.0,0.0,0.0,0.0,0.017066666666666667,-5.498166666666667,-5.498166666666667,-0.5358,-0.5756666666666667,-0.035375000000000156,0.8399999999999999,66.647,-0.051000000000000004,-0.21465,-0.012000000000000455,100.0,1.0,1.0,205.60000000000002,0.0,0.0,0.0,0.0,0.0,0.0,0.0,8714.6,0.0,55.0,5.0,239.9,0.0,0.0,0.0,0.0,0.0,0.0,0.0,0.0,0.40500000000000114,0.40500000000000114,0.0,0.0,0.0,55.0,616.79921,10000.0,85.000001,85.000001,85.000001,85.000001,395.0,0.0,0.0,0.0,1.0,333.33500000000004,53.665,53.665,48.126,48.126,34.0,-23.372500000000002,22.552,-30.2,27.17,0.0,1782.483,-0.36499999999999844,100.0,27.506,26.716,42.822,41.828,0.0,0.0,100.0,0.0,0.0,0.0,0.0,2922.714285714286,2999.5,4123.625,4164.0,305.9325,305.3525,314.6773333333333,314.50875,21.8519,20.553,21.8522,21.3842,314.999998,314.999998,324.999988,324.999988,99.55862857142857,99.50731666666667,99.56611428571429,99.54631428571429,0.04999999999999982,-0.07999999999999996,-0.1532,0.07779999999999987,-0.03333333333333144,-0.07333333333333059,1.506,1.5045,37.575,29.456,37.576,34.650999999999996,56.062,34.7685,59.316,52.084,53.992999999999995,33.924,57.9245,50.423,53.159,33.482,57.866,49.839,-0.10199999999999987,-0.04700000000000015,0.10540000000000001,0.11605000000000001,0.0,208.72500000000002,208.74,205.60000000000002,205.60000000000002,0.0,0.0
9,0.0,0.0,0.0,1.0,1.0,0.0,0.0,1.0,0.0,100.0,1.0,1.1856,26.0,0.0,0.0,0.0,59.999996,0.0,26.0,26.0,26.0,26.0,-0.03166666666666662,0.2894000000000001,0.033933333333333336,293.152,-2.683,-2.7233333333333336,-1.5528,-1.5567,-245.85,216.14249999999998,190.8095,0.0,0.0,0.0,0.0,0.018933333333333337,-5.498166666666667,-5.498166666666667,-0.5421,0.6376666666666666,-0.033500000000000085,0.7930000000000001,66.781,-0.0325,-0.215975,-0.16600000000000037,100.0,1.0,1.0,206.12666666666667,0.0,0.0,0.0,0.0,0.0,0.0,0.0,8737.0,0.0,55.0,5.0,240.38333333333333,1.0,0.0,0.0,0.0,0.0,0.0,0.0,0.0,0.4529999999999994,0.4529999999999994,0.0,0.0,1.0,55.0,616.79921,10000.0,85.000001,85.000001,85.000001,85.000001,395.0,0.0,0.0,0.0,1.0,333.33500000000004,52.429,52.429,49.179,49.179,34.0,-25.822499999999998,24.716,-28.296666666666667,27.055,0.0,1782.436,-0.5199999999999996,100.0,27.948,27.167,42.432,41.826,0.0,0.0,100.0,0.0,0.0,0.0,0.0,3284.857142857143,3103.1,3957.0,4088.8,304.793,304.96225,315.2153333333333,314.75725,21.8611,20.558,21.862,21.3926,314.999998,314.999998,324.999988,324.999988,99.55862857142857,99.50733333333334,99.56625714285714,99.54644285714286,0.07066666666666643,-0.05266666666666664,-0.13979999999999992,0.09400000000000008,-0.03499999999999659,-0.061666666666667425,1.589,1.578,37.632,29.487666666666666,37.637,34.7035,56.051,34.806,59.35,52.14,53.980999999999995,33.958,57.956,50.4765,53.147,33.515,57.894999999999996,49.891333333333336,-0.11349999999999993,-0.03699999999999992,0.11245000000000001,0.11162500000000002,0.0,209.16,209.17000000000002,206.12666666666667,206.12666666666667,0.0,0.0
10,0.0,0.0,0.0,1.0,1.0,0.0,0.0,1.0,0.0,100.0,1.0,1.1856,26.0,0.0,0.0,0.0,59.999996,0.0,26.0,26.0,26.0,26.0,-0.004222222222222127,0.2896000000000001,-0.0073,292.999,-2.6609,-2.7012222222222224,-1.5342,-1.5352999999999999,-242.44,216.115,190.78875,0.0,0.0,0.0,0.0,0.020933333333333335,-5.498166666666667,-5.498166666666667,-0.5181,-0.41433333333333333,0.0044999999999999485,0.32699999999999996,66.928,-0.0114,-0.20720000000000002,-0.4560000000000004,100.0,1.0,1.0,206.36666666666667,0.0,0.0,0.0,0.0,0.0,0.0,0.0,8747.1,0.0,55.0,5.0,240.91333333333333,0.0,0.0,0.0,0.0,0.0,0.0,1.0,0.0,0.5040000000000013,0.5040000000000013,0.0,0.0,0.0,55.0,616.79921,10000.0,85.000001,85.000001,85.000001,85.000001,395.0,0.0,0.0,0.0,1.0,333.33500000000004,53.497,53.497,47.638,47.638,34.0,-21.56,22.628,-30.61,29.0425,0.0,1782.386,-0.625,100.0,27.707,27.313,42.781,42.688,0.0,0.0,100.0,0.0,0.0,0.0,0.0,2889.285714285714,2859.9,4321.75,4263.7,306.084,305.579,314.295,314.18825,21.8708,20.563299999999998,21.8726,21.401699999999998,314.999998,314.999998,324.999988,324.999988,99.55864285714286,99.50733333333334,99.5664,99.54658571428571,0.08000000000000007,-0.04833333333333334,-0.11819999999999997,0.09820000000000007,-0.046666666666666856,-0.03166666666666629,1.4816666666666667,1.4625,37.692,29.520333333333333,37.704,34.760999999999996,56.038,34.8425,59.3915,52.204,53.969,33.992,57.9945,50.538,53.134,33.5475,57.9305,49.95166666666667,-0.11850000000000005,-0.025500000000000078,0.10647000000000001,0.10792500000000001,0.0,209.595,209.615,206.36666666666667,206.36666666666667,0.0,0.0
11,0.0,0.0,0.0,1.0,1.0,0.0,0.0,1.0,0.0,100.0,1.0,1.1856,26.0,0.0,0.0,0.0,59.999996,0.0,26.0,26.0,26.0,26.0,0.028111111111111198,0.276,-0.0747,293.549,-2.7034,-2.6871111111111112,-1.5877,-1.5255,-239.03,216.0875,190.768,0.0,0.0,0.0,0.0,0.022600000000000002,-5.498166666666667,-5.498166666666667,-0.5618000000000001,-0.22333333333333336,0.031749999999999945,0.34299999999999997,67.06700000000001,0.0109,-0.23795000000000002,-0.6720000000000006,100.0,1.0,1.0,207.10666666666668,0.0,0.0,0.0,0.0,0.0,0.0,0.0,8778.6,0.0,55.0,5.0,241.41333333333336,1.0,0.0,0.0,0.0,0.0,0.0,1.0,0.0,0.5549999999999997,0.5549999999999997,0.0,0.0,1.0,55.0,616.79921,10000.0,85.000001,85.000001,85.000001,85.000001,395.0,0.0,0.0,0.0,1.0,166.665,52.856,52.856,49.347,49.347,34.0,-22.2925,26.658,-23.83,26.96,0.0,1782.335,-0.7049999999999983,100.0,27.566,27.389,42.337,42.509,0.0,0.0,100.0,0.0,0.0,0.0,0.0,3001.142857142857,3180.4,3679.75,3874.8,305.6635,304.7315,315.91366666666664,315.2425,21.8803,20.5687,21.8829,21.4107,314.999998,314.999998,324.999988,324.999988,99.55865714285714,99.50735,99.56654285714286,99.54672857142857,0.09766666666666657,-0.015666666666666607,-0.08860000000000001,0.13859999999999983,-0.045000000000001705,-0.04999999999999716,1.6440000000000001,1.613,37.751999999999995,29.554333333333332,37.768,34.817,56.022999999999996,34.879999999999995,59.426,52.2635,53.955,34.027,58.0265,50.5955,53.119,33.5805,57.9595,50.007999999999996,-0.11699999999999999,-0.01849999999999996,0.10582000000000001,0.10017500000000001,0.0,210.0,210.04000000000002,207.10666666666668,207.10666666666668,0.0,0.0
12,0.0,0.0,0.0,1.0,1.0,0.0,0.0,1.0,0.0,100.0,1.0,1.1856,26.0,0.0,0.0,0.0,59.999996,0.0,26.0,26.0,26.0,26.0,0.05488888888888899,0.28900000000000015,0.03423333333333333,292.938,-2.7614,-2.6785555555555556,-1.5545,-1.5255999999999998,-235.6,216.0625,190.746,0.0,0.0,0.0,0.0,0.025466666666666665,-5.498166666666667,-5.498166666666667,-0.5454,0.275,0.015249999999999986,-0.843,67.212,0.0308,-0.20677500000000001,-0.6260000000000003,100.0,1.0,1.0,207.31666666666666,0.0,0.0,0.0,0.0,0.0,0.0,0.0,8787.4,0.0,55.0,5.0,241.93333333333334,0.0,0.0,0.0,0.0,0.0,0.0,1.0,0.0,0.6059999999999981,0.6059999999999981,0.0,0.0,0.0,55.0,616.79921,10000.0,85.000001,85.000001,85.000001,85.000001,395.0,0.0,0.0,0.0,1.0,166.665,52.811,52.811,47.958,47.958,34.0,-23.564999999999998,25.676,-27.699999999999996,30.7225,0.0,1782.284,-0.4250000000000007,100.0,27.319,27.713,42.214,42.513,0.0,0.0,100.0,0.0,0.0,0.0,0.0,3138.4285714285716,3095.9,4246.125,4180.7,305.44,304.84325,314.5663333333333,314.44425,21.8898,20.5742,21.8933,21.4197,314.999998,314.999998,324.999988,324.999988,99.55867142857143,99.50735,99.56668571428571,99.54687142857144,0.1033333333333335,-0.022666666666666613,-0.0756,0.1502000000000001,-0.036666666666668846,-0.02833333333332888,1.5183333333333335,1.5065,37.811,29.58866666666667,37.833,34.873,56.010999999999996,34.918,59.464,52.3245,53.943,34.0615,58.0625,50.653999999999996,53.105999999999995,33.614,57.992,50.065333333333335,-0.11299999999999999,-0.040000000000000036,0.10450000000000001,0.10717000000000002,0.0,210.465,210.515,207.31666666666666,207.31666666666666,0.0,0.0
13,0.0,0.0,0.0,1.0,1.0,0.0,0.0,1.0,0.0,100.0,1.0,1.1856,26.0,0.0,0.0,0.0,59.999996,0.0,26.0,26.0,26.0,26.0,0.06744444444444442,0.27790000000000004,0.0536,292.587,-2.7347,-2.674,-1.5909,-1.5067,-232.17000000000002,216.0375,190.72425,0.0,0.0,0.0,0.0,0.0269,-5.498166666666667,-5.498166666666667,-0.5397000000000001,-0.09466666666666668,0.02562500000000001,1.1130000000000004,67.355,0.0369,-0.21655000000000002,-0.8779999999999992,100.0,1.0,1.0,207.70333333333332,0.0,0.0,0.0,0.0,0.0,0.0,0.0,8803.8,0.0,55.0,5.0,242.45,1.0,0.0,0.0,0.0,0.0,0.0,1.0,0.0,0.657,0.657,0.0,0.0,1.0,55.0,616.79921,10000.0,85.000001,85.000001,85.000001,85.000001,395.0,0.0,0.0,0.0,1.0,166.665,52.505,52.505,47.974000000000004,47.974000000000004,34.0,-20.72,28.026,-26.253333333333337,32.832499999999996,0.0,1782.233,-0.8900000000000006,100.0,27.802,27.767,42.56,42.944,0.0,0.0,100.0,0.0,0.0,0.0,0.0,3042.857142857143,3193.5,4111.0,4368.1,305.523,304.71325,314.7726666666667,314.05475,21.8994,20.5797,21.9038,21.4289,314.999998,314.999998,324.999988,324.999988,99.55868571428572,99.50735,99.56682857142857,99.54701428571428,0.1499999999999999,0.017333333333333423,-0.05520000000000003,0.1632,-0.05333333333332746,-0.04999999999999716,1.513,1.4849999999999999,37.870999999999995,29.622999999999998,37.899,34.931,56.001000000000005,34.956,59.5025,52.3885,53.933,34.097,58.098,50.7155,53.095,33.647999999999996,58.0245,50.12566666666667,-0.1479999999999999,-0.008500000000000174,0.09895000000000001,0.10925000000000001,0.0,210.91,210.945,207.70333333333332,207.70333333333332,0.0,0.0
14,0.0,0.0,0.0,1.0,1.0,0.0,0.0,1.0,0.0,100.0,1.0,1.1856,26.0,0.0,0.0,0.0,59.999996,0.0,26.0,26.0,26.0,26.0,0.09866666666666668,0.28690000000000015,-0.012766666666666667,292.831,-2.7378,-2.6131111111111114,-1.5993,-1.5095,-228.73,216.0125,190.703,0.0,0.0,0.0,0.0,0.028900000000000002,-5.498166666666667,-5.498166666666667,-0.5492,-0.12866666666666665,0.05174999999999996,-0.20500000000000007,67.495,0.049100000000000005,-0.228025,-0.96,100.0,1.0,1.0,208.22333333333333,0.0,0.0,0.0,0.0,0.0,0.0,0.0,8825.8,0.0,55.0,5.0,242.95333333333335,0.0,0.0,0.0,0.0,0.0,0.0,1.0,0.0,0.7079999999999984,0.7079999999999984,0.0,0.0,0.0,55.0,616.79921,10000.0,85.000001,85.000001,85.000001,85.000001,395.0,0.0,0.0,0.0,1.0,166.665,52.628,52.628,48.141,48.141,34.0,-20.9,27.508,-24.71333333333333,31.375,0.0,1782.182,-0.8150000000000013,100.0,27.504,28.019,42.396,43.282,0.0,0.0,100.0,0.0,0.0,0.0,0.0,3026.5714285714284,3167.6,3986.5,4158.9,305.7445,304.62775,315.159,314.5025,21.9089,20.5852,21.9142,21.4381,314.999998,314.999998,324.999988,324.999988,99.55871428571429,99.50735,99.56695714285715,99.54715714285715,0.13966666666666638,0.01866666666666661,-0.04799999999999993,0.17220000000000013,-0.05833333333333002,-0.045000000000001705,1.5743333333333334,1.521,37.931,29.657666666666664,37.964,34.988,55.991,34.994,59.539,52.451,53.924,34.132,58.1315,50.7755,53.084,33.682,58.0555,50.184666666666665,-0.14300000000000002,-0.00550000000000006,0.09323500000000001,0.11365000000000001,0.0,211.325,211.385,208.22333333333333,208.22333333333333,0.0,0.0
15,0.0,0.0,0.0,1.0,1.0,0.0,0.0,1.0,0.0,100.0,1.0,1.1856,26.0,0.0,0.0,0.0,59.999996,0.0,26.0,26.0,26.0,26.0,0.08888888888888902,0.2811000000000001,0.008866666666666667,292.847,-2.711,-2.575333333333333,-1.6271,-1.4567999999999999,-225.69,215.995,190.684,0.0,0.0,0.0,0.0,0.03066666666666667,-5.498166666666667,-5.498166666666667,-0.5397000000000001,0.2813333333333333,0.07925000000000004,0.8819999999999997,67.619,0.0601,-0.209375,-0.9160000000000004,100.0,1.0,1.0,208.59,0.0,0.0,0.0,0.0,0.0,0.0,0.0,8841.3,0.0,55.0,5.0,243.39666666666665,1.0,0.0,0.0,0.0,0.0,0.0,1.0,0.0,0.7530000000000001,0.7530000000000001,0.0,0.0,1.0,55.0,616.79921,10000.0,85.000001,85.000001,85.000001,85.000001,395.0,0.0,0.0,0.0,1.0,166.665,52.826,52.826,48.172,48.172,34.0,-19.3375,26.896,-24.306666666666665,33.46,0.0,1782.138,-0.4400000000000013,100.0,27.713,27.865000000000002,42.282,43.238,0.0,0.0,100.0,0.0,0.0,0.0,0.0,2800.0,3225.2,3953.125,4379.8,306.21,304.6205,315.2126666666667,314.0675,21.9173,20.5901,21.9233,21.4461,314.999998,314.999998,324.999988,324.999988,99.55871428571429,99.50736666666667,99.5671,99.54728571428572,0.133,0.0040000000000000036,-0.03520000000000001,0.1896,-0.03999999999999915,-0.061666666666667425,1.557,1.508,37.983000000000004,29.688333333333333,38.021,35.0385,55.982,35.028,59.57,52.5065,53.915,34.1635,58.1605,50.829,53.074,33.712,58.0815,50.23733333333333,-0.11499999999999999,-0.038000000000000256,0.10071000000000001,0.11225500000000001,0.0,211.72,211.79000000000002,208.59,208.59,0.0,0.0
16,0.0,0.0,0.0,1.0,1.0,0.0,0.0,1.0,0.0,100.0,1.0,1.1856,26.0,0.0,0.0,0.0,59.999996,0.0,26.0,26.0,26.0,26.0,0.07633333333333336,0.27259999999999995,-0.038,292.877,-2.7959,-2.591333333333333,-1.5870000000000002,-1.4674,-222.24,215.97750000000002,190.661875,0.0,0.0,0.0,0.0,0.03266666666666667,-5.498166666666667,-5.498166666666667,-0.5601,-0.6960000000000001,0.051124999999999865,-1.3399999999999999,67.759,0.062,-0.22490000000000002,-0.47799999999999976,100.0,1.0,1.0,209.0233333333333,0.0,0.0,0.0,0.0,0.0,0.0,0.0,8859.8,0.0,55.0,5.0,243.90333333333334,0.0,0.0,0.0,0.0,0.0,0.0,1.0,0.0,0.8039999999999985,0.8039999999999985,0.0,0.0,0.0,55.0,616.79921,10000.0,85.000001,85.000001,85.000001,85.000001,395.0,0.0,0.0,0.0,1.0,166.665,52.795,52.795,47.928,47.928,34.0,-23.197499999999998,25.7,-25.253333333333337,30.625,0.0,1782.086,-0.09499999999999886,100.0,27.209,28.014,42.55,43.342,0.0,0.0,100.0,0.0,0.0,0.0,0.0,3063.5714285714284,3156.9,4005.875,4104.3,305.743,304.68925,315.1286666666667,314.6545,21.9266,20.5957,21.933799999999998,21.4553,314.999998,314.999998,324.999988,324.999988,99.55872857142857,99.50736666666667,99.56724285714286,99.54742857142857,0.10199999999999987,-0.016666666666666607,-0.05679999999999996,0.17940000000000023,-0.07000000000000028,-0.03833333333332689,1.5430000000000001,1.528,38.041,29.723,38.086,35.0955,55.967,35.066,59.6085,52.568,53.9,34.198499999999996,58.196,50.8885,53.059,33.7455,58.114,50.29566666666666,-0.0774999999999999,-0.06550000000000011,0.10518000000000001,0.11013500000000001,0.0,212.155,212.155,209.0233333333333,209.0233333333333,0.0,0.0
17,0.0,0.0,0.0,1.0,1.0,0.0,0.0,1.0,0.0,100.0,1.0,1.1856,26.0,0.0,0.0,0.0,59.999996,0.0,26.0,26.0,26.0,26.0,0.023222222222222255,0.2905,-0.0361,292.572,-2.7369,-2.5935555555555556,-1.6126,-1.5032,-218.78,215.96,190.639375,0.0,0.0,0.0,0.0,0.03466666666666667,-5.498166666666667,-5.498166666666667,-0.5496,0.5113333333333333,0.018124999999999947,0.4059999999999997,67.898,0.0443,-0.2056,-0.040000000000000036,100.0,1.0,1.0,209.42333333333335,0.0,0.0,0.0,0.0,0.0,0.0,0.0,8876.7,0.0,55.0,5.0,244.40333333333334,1.0,0.0,0.0,0.0,0.0,0.0,1.0,0.0,0.8550000000000004,0.8550000000000004,0.0,0.0,1.0,55.0,616.79921,10000.0,85.000001,85.000001,85.000001,85.000001,395.0,0.0,0.0,0.0,1.0,333.33500000000004,52.505,52.505,47.867,47.867,34.0,-22.525,24.522,-28.369999999999997,31.2625,0.0,1782.034,0.004999999999999005,100.0,27.983,28.049,42.511,43.092,0.0,0.0,100.0,0.0,0.0,0.0,0.0,3045.142857142857,3086.0,4248.75,4254.3,305.565,305.07725,314.5846666666667,314.417,21.9362,20.6013,21.9441,21.4643,314.999998,314.999998,324.999988,324.999988,99.55874285714286,99.50736666666667,99.56737142857143,99.54758571428572,0.10833333333333339,-0.024666666666666615,-0.07239999999999991,0.15880000000000005,-0.023333333333326323,-0.054999999999999716,1.5236666666666667,1.52,38.101,29.758,38.150999999999996,35.152,55.956,35.105000000000004,59.644,52.6285,53.89,34.235,58.2295,50.947,53.048,33.7805,58.144,50.353,-0.07650000000000001,-0.08150000000000013,0.10551,0.11012000000000001,0.0,212.615,212.62,209.42333333333335,209.42333333333335,0.0,0.0
18,0.0,0.0,0.0,1.0,1.0,0.0,0.0,1.0,0.0,100.0,1.0,1.1856,26.0,0.0,0.0,0.0,59.999996,0.0,26.0,26.0,26.0,26.0,0.0003333333333332966,0.27080000000000015,-0.031900000000000005,292.526,-2.7536,-2.5842222222222224,-1.615,-1.4632999999999998,-215.51999999999998,215.945,190.61825,0.0,0.0,0.0,0.0,0.03656666666666667,-5.498166666666667,-5.498166666666667,-0.5592,-0.529,0.02499999999999991,0.8200000000000003,68.028,0.0244,-0.22155,0.16999999999999993,100.0,1.0,1.0,209.83666666666667,0.0,0.0,0.0,0.0,0.0,0.0,0.0,8894.2,0.0,55.0,5.0,244.87333333333333,0.0,0.0,0.0,0.0,0.0,0.0,1.0,0.0,0.9029999999999987,0.9029999999999987,0.0,0.0,0.0,55.0,616.79921,10000.0,85.000001,85.000001,85.000001,85.000001,395.0,0.0,0.0,0.0,1.0,166.665,52.429,52.429,47.729,47.729,34.0,-23.84,25.48,-27.793333333333337,28.8925,0.0,1781.987,0.015000000000000568,100.0,27.844,27.772,43.018,43.364000000000004,0.0,0.0,100.0,0.0,0.0,0.0,0.0,3083.142857142857,3269.1,4073.5,4135.1,305.5115,304.6115,314.9436666666667,314.66925,21.9451,20.6065,21.9541,21.473,314.999998,314.999998,324.999988,324.999988,99.55875714285715,99.50736666666667,99.56751428571428,99.54772857142858,0.08733333333333348,-0.036666666666666625,-0.08679999999999999,0.14379999999999993,-0.045000000000001705,-0.045000000000001705,1.529,1.535,38.157,29.790333333333333,38.213,35.206,55.943,35.1405,59.6805,52.6875,53.878,34.2675,58.2635,51.0035,53.035,33.812,58.1755,50.40833333333333,-0.0734999999999999,-0.07799999999999985,0.10332000000000001,0.11443,0.0,213.005,212.98000000000002,209.83666666666667,209.83666666666667,0.0,0.0
19,0.0,0.0,0.0,1.0,1.0,0.0,0.0,1.0,0.0,100.0,1.0,1.1856,26.0,0.0,0.0,0.0,59.999996,0.0,26.0,26.0,26.0,26.0,-0.005111111111111066,0.29190000000000005,0.0466,291.992,-2.7132,-2.5825555555555555,-1.6171,-1.4575,-212.04,215.9275,190.59575,0.0,0.0,0.0,0.0,0.0386,-5.498166666666667,-5.498166666666667,-0.5499,0.8533333333333334,0.018000000000000016,-0.8029999999999999,68.166,0.0078000000000000005,-0.209825,0.30400000000000027,100.0,1.0,1.0,210.23666666666668,0.0,0.0,0.0,0.0,0.0,0.0,0.0,8911.2,0.0,55.0,5.0,245.36666666666667,1.0,0.0,0.0,0.0,0.0,0.0,1.0,0.0,0.9540000000000006,0.9540000000000006,0.0,0.0,1.0,55.0,616.79921,10000.0,85.000001,85.000001,85.000001,85.000001,395.0,0.0,0.0,0.0,1.0,166.665,51.727000000000004,51.727000000000004,47.562,47.562,34.0,-25.6625,23.956,-30.5,28.5825,0.0,1781.936,0.02500000000000213,100.0,28.326,28.332,42.814,43.287,0.0,0.0,100.0,0.0,0.0,0.0,0.0,3260.0,3188.8,4292.625,4304.8,305.03,304.557,314.538,314.26325,21.9548,20.612099999999998,21.9644,21.4821,314.999998,314.999998,324.999988,324.999988,99.55877142857143,99.50738333333334,99.56765714285714,99.54787142857143,0.07266666666666666,-0.06299999999999994,-0.10460000000000003,0.11099999999999999,-0.05333333333332746,-0.05833333333333002,1.5133333333333334,1.514,38.217,29.825666666666663,38.278,35.263,55.932,35.1815,59.716499999999996,52.7475,53.867000000000004,34.3055,58.297,51.0615,53.022999999999996,33.848,58.2055,50.465333333333334,-0.07650000000000001,-0.08099999999999996,0.09904500000000001,0.10459500000000001,0.0,213.465,213.445,210.23666666666668,210.23666666666668,0.0,0.0
20,0.0,0.0,0.0,1.0,1.0,0.0,0.0,1.0,0.0,100.0,1.0,1.1856,26.0,0.0,0.0,0.0,59.999996,0.0,26.0,26.0,26.0,26.0,-0.01388888888888884,0.2781,0.029833333333333333,292.328,-2.7448,-2.6642222222222225,-1.5341,-1.5895,-208.56,215.9125,190.573375,0.0,0.0,0.0,0.0,0.040600000000000004,-5.498166666666667,-5.498166666666667,-0.5534,-1.1666666666666667,0.008999999999999897,0.31899999999999995,68.305,-0.0049,-0.221225,0.17799999999999994,100.0,1.0,1.0,210.55,0.0,0.0,0.0,0.0,0.0,0.0,0.0,8924.4,0.0,55.0,5.0,245.87333333333333,0.0,0.0,0.0,0.0,0.0,0.0,0.0,0.0,1.004999999999999,1.004999999999999,0.0,0.0,0.0,55.0,616.79921,10000.0,85.000001,85.000001,85.000001,85.000001,395.0,0.0,0.0,0.0,1.0,333.33500000000004,52.856,52.856,46.906,46.906,34.0,-23.075,23.652,-29.240000000000002,30.7125,0.0,1781.885,0.07499999999999929,100.0,27.925,27.786,43.633,43.531,0.0,0.0,100.0,0.0,0.0,0.0,0.0,2949.714285714286,3104.2,4191.25,4261.3,305.938,305.05375,314.54966666666667,314.19925,21.9641,20.6176,21.9751,21.4914,314.999998,314.999998,324.999988,324.999988,99.55877142857143,99.5074,99.56781428571429,99.54801428571429,0.07399999999999984,-0.06399999999999995,-0.10920000000000007,0.11440000000000006,-0.04333333333332945,-0.03499999999999659,1.468,1.4725000000000001,38.275,29.859666666666666,38.344,35.321,55.916,35.2195,59.757999999999996,52.8105,53.852000000000004,34.341,58.335499999999996,51.122,53.007,33.882,58.241,50.52433333333333,-0.07299999999999995,-0.08550000000000013,0.10672000000000001,0.10976500000000002,0.0,213.86,213.825,210.55,210.55,0.0,0.0
21,0.0,0.0,0.0,1.0,1.0,0.0,0.0,1.0,0.0,100.0,1.0,1.1856,26.0,0.0,0.0,0.0,59.999996,0.0,26.0,26.0,26.0,26.0,-0.009444444444444478,0.28,-0.057166666666666664,292.664,-2.7028,-2.675222222222222,-1.5912000000000002,-1.556,-205.07999999999998,215.8975,190.55025,0.0,0.0,0.0,0.0,0.042633333333333336,-5.498166666666667,-5.498166666666667,-0.5753,0.53,-0.018625000000000114,-0.9729999999999999,68.438,-0.0171,-0.219525,0.36799999999999944,100.0,1.0,1.0,211.19333333333333,0.0,0.0,0.0,0.0,0.0,0.0,0.0,8951.8,0.0,55.0,5.0,246.35000000000002,1.0,0.0,0.0,0.0,0.0,0.0,0.0,0.0,1.056000000000001,1.056000000000001,0.0,0.0,1.0,55.0,616.79921,10000.0,85.000001,85.000001,85.000001,85.000001,395.0,0.0,0.0,0.0,1.0,166.665,52.383,52.383,48.157,48.157,34.0,-25.509999999999998,22.948,-29.9,25.9025,0.0,1781.834,-0.03999999999999915,100.0,28.123,27.996000000000002,42.997,43.039,0.0,0.0,100.0,0.0,0.0,0.0,0.0,3222.0,3013.8,4091.25,3976.5,305.2125,305.1515,315.024,315.0395,21.9736,20.6231,21.9853,21.5003,314.999998,314.999998,324.999988,324.999988,99.55878571428572,99.5074,99.56794285714285,99.54815714285715,0.06433333333333335,-0.06933333333333336,-0.1392,0.08899999999999997,-0.03999999999999915,-0.06333333333333258,1.5783333333333334,1.597,38.335,29.894666666666666,38.408,35.376999999999995,55.903,35.26,59.7915,52.867,53.839,34.378,58.367,51.1765,52.994,33.917500000000004,58.2695,50.577666666666666,-0.08699999999999997,-0.06800000000000006,0.10763,0.10751000000000001,0.0,214.29500000000002,214.28,211.19333333333333,211.19333333333333,0.0,0.0
22,0.0,0.0,0.0,1.0,1.0,0.0,0.0,1.0,0.0,100.0,1.0,1.1856,26.0,0.0,0.0,0.0,59.999996,0.0,26.0,26.0,26.0,26.0,-0.027666666666666617,0.27560000000000007,0.0004333333333333333,292.206,-2.6289,-2.7335555555555557,-1.588,-1.5461,-201.57999999999998,215.88,190.5265,0.0,0.0,0.0,0.0,0.044666666666666674,-5.498166666666667,-5.498166666666667,-0.5559000000000001,-0.042333333333333334,-0.00812500000000016,1.1150000000000002,68.577,-0.0216,-0.20355,0.18200000000000038,100.0,1.0,1.0,211.41,0.0,0.0,0.0,0.0,0.0,0.0,0.0,8961.0,0.0,55.0,5.0,246.85000000000002,0.0,0.0,0.0,0.0,0.0,0.0,0.0,0.0,1.1069999999999993,1.1069999999999993,0.0,0.0,0.0,55.0,616.79921,10000.0,85.000001,85.000001,85.000001,85.000001,395.0,0.0,0.0,0.0,1.0,166.665,52.567,52.567,47.073,47.073,34.0,-22.265,23.738,-31.183333333333334,29.7325,0.0,1781.783,-0.10500000000000043,100.0,28.361,27.906,43.559,43.238,0.0,0.0,100.0,0.0,0.0,0.0,0.0,2936.0,3052.6,4232.625,4367.5,305.7855,305.11475,314.5466666666667,314.13425,21.983,20.6286,21.9959,21.5095,314.999998,314.999998,324.999988,324.999988,99.55878571428572,99.5074,99.5681,99.5483,0.07233333333333336,-0.06866666666666665,-0.12839999999999996,0.09759999999999991,-0.030000000000001137,-0.05833333333333002,1.4833333333333334,1.494,38.394,29.929000000000002,38.474000000000004,35.4345,55.89,35.2995,59.832,52.9285,53.827,34.414500000000004,58.4045,51.2355,52.980000000000004,33.9525,58.304,50.635666666666665,-0.08450000000000002,-0.07299999999999995,0.10951000000000001,0.11227000000000001,0.0,214.72,214.7,211.41,211.41,0.0,0.0
23,0.0,0.0,0.0,1.0,1.0,0.0,0.0,1.0,0.0,100.0,1.0,1.1856,26.0,0.0,0.0,0.0,59.999996,0.0,26.0,26.0,26.0,26.0,-0.0006666666666665932,0.2530000000000001,-0.0661,292.206,-2.6633,-2.6798888888888888,-1.6383,-1.6072,-198.07999999999998,215.8625,190.503125,0.0,0.0,0.0,0.0,0.046700000000000005,-5.498166666666667,-5.498166666666667,-0.5763,-0.12133333333333333,-0.01200000000000001,-0.5049999999999999,68.71000000000001,-0.0198,-0.23125,0.22200000000000042,100.0,1.0,1.0,211.96333333333334,0.0,0.0,0.0,0.0,0.0,0.0,0.0,8984.3,0.0,55.0,5.0,247.33333333333334,1.0,0.0,0.0,0.0,0.0,0.0,0.0,0.0,1.1580000000000013,1.1580000000000013,0.0,0.0,1.0,55.0,616.79921,10000.0,85.000001,85.000001,85.000001,85.000001,395.0,0.0,0.0,0.0,1.0,166.665,51.727000000000004,51.727000000000004,48.111,48.111,34.0,-25.997500000000002,23.478,-29.78666666666666,26.5775,0.0,1781.732,-0.14999999999999858,100.0,28.528,28.221,43.518,43.497,0.0,0.0,100.0,0.0,0.0,0.0,0.0,3340.0,3045.4,4028.375,3928.6000000000004,304.769,305.014,315.192,315.04175,21.9925,20.6342,22.0064,21.5187,314.999998,314.999998,324.999988,324.999988,99.5588,99.50741666666667,99.56824285714286,99.54845714285715,0.07200000000000006,-0.06566666666666665,-0.13439999999999996,0.09020000000000006,-0.04999999999999716,-0.046666666666666856,1.5586666666666666,1.553,38.453,29.96366666666667,38.54,35.492,55.876999999999995,35.3395,59.8695,52.989,53.815,34.451499999999996,58.439499999999995,51.294,52.967,33.988,58.336,50.69266666666667,-0.09749999999999992,-0.06300000000000017,0.09860000000000001,0.112515,0.0,215.14,215.085,211.96333333333334,211.96333333333334,0.0,0.0
24,0.0,0.0,0.0,1.0,1.0,0.0,0.0,1.0,0.0,100.0,1.0,1.1856,26.0,0.0,0.0,0.0,59.999996,0.0,26.0,26.0,26.0,26.0,-0.028666666666666618,0.27249999999999996,-0.05183333333333334,292.404,-2.6889,-2.688111111111111,-1.5612,-1.5474999999999999,-194.99,215.8475,190.482,0.0,0.0,0.0,0.0,0.0485,-5.498166666666667,-5.498166666666667,-0.5795,-0.4956666666666667,0.00275000000000003,1.1239999999999997,68.831,-0.0142,-0.217375,0.009999999999999787,100.0,1.0,1.0,212.22333333333333,0.0,0.0,0.0,0.0,0.0,0.0,0.0,8995.4,0.0,55.0,5.0,247.76333333333332,0.0,0.0,0.0,0.0,0.0,0.0,0.0,0.0,1.2029999999999994,1.2029999999999994,0.0,0.0,0.0,55.0,616.79921,10000.0,85.000001,85.000001,85.000001,85.000001,395.0,0.0,0.0,0.0,1.0,333.33500000000004,52.856,52.856,47.15,47.15,34.0,-22.64,22.915999999999997,-30.23,28.755000000000003,0.0,1781.685,-0.16000000000000014,100.0,28.309,27.804000000000002,43.614000000000004,43.384,0.0,0.0,100.0,0.0,0.0,0.0,0.0,2919.285714285714,2998.8,4244.625,4175.7,305.923,305.37325,314.48566666666665,314.577,22.000799999999998,20.639,22.0156,21.5268,314.999998,314.999998,324.999988,324.999988,99.55881428571429,99.50743333333334,99.56837142857142,99.54858571428572,0.06999999999999984,-0.06499999999999995,-0.11660000000000004,0.10899999999999999,-0.03166666666666629,-0.06499999999999773,1.5103333333333333,1.512,38.504999999999995,29.993666666666666,38.597,35.542500000000004,55.864000000000004,35.373,59.9025,53.042,53.803,34.482,58.4705,51.345,52.954,34.0175,58.364,50.742333333333335,-0.09499999999999997,-0.06099999999999994,0.105745,0.11360500000000001,0.0,215.485,215.49,212.22333333333333,212.22333333333333,0.0,0.0
25,0.0,0.0,0.0,1.0,1.0,0.0,0.0,1.0,0.0,100.0,1.0,1.1856,26.0,0.0,0.0,0.0,59.999996,0.0,26.0,26.0,26.0,26.0,-0.002888888888888941,0.26260000000000017,-0.06063333333333334,292.313,-2.7592,-2.644222222222222,-1.5777999999999999,-1.5488,-191.47,215.8275,190.456625,0.0,0.0,0.0,0.0,0.05053333333333333,-5.498166666666667,-5.498166666666667,-0.611,-0.073,0.004249999999999865,-1.0,68.963,-0.0095,-0.224925,0.0,100.0,1.0,1.0,212.76,0.0,0.0,0.0,0.0,0.0,0.0,0.0,9018.2,0.0,55.0,5.0,248.24,1.0,0.0,0.0,0.0,0.0,0.0,0.0,0.0,1.2540000000000013,1.2540000000000013,0.0,0.0,1.0,55.0,616.79921,10000.0,85.000001,85.000001,85.000001,85.000001,395.0,0.0,0.0,0.0,1.0,333.33500000000004,51.849000000000004,51.849000000000004,47.974000000000004,47.974000000000004,34.0,-26.7775,25.064,-28.073333333333338,27.005000000000003,0.0,1781.634,-0.2049999999999983,100.0,28.095,28.179000000000002,43.253,43.222,0.0,0.0,100.0,0.0,0.0,0.0,0.0,3331.285714285714,3223.2,3962.875,4037.2,304.9825,304.50975,315.2853333333333,314.8875,22.0101,20.6446,22.0259,21.535800000000002,314.999998,314.999998,324.999988,324.999988,99.55882857142858,99.50743333333334,99.56851428571429,99.54872857142857,0.06899999999999995,-0.05699999999999994,-0.125,0.10140000000000016,-0.05666666666667197,-0.05333333333332746,1.5596666666666668,1.5765,38.563,30.028666666666666,38.662,35.599000000000004,55.849999999999994,35.4125,59.9375,53.1,53.788,34.519,58.503,51.4005,52.939,34.0525,58.3935,50.797,-0.09749999999999992,-0.06000000000000005,0.10763500000000001,0.10502500000000001,0.0,215.905,215.89499999999998,212.76,212.76,0.0,0.0
26,0.0,0.0,0.0,1.0,1.0,0.0,0.0,1.0,0.0,100.0,1.0,1.1856,26.0,0.0,0.0,0.0,59.999996,0.0,26.0,26.0,26.0,26.0,-0.01388888888888884,0.2662,0.08013333333333333,291.153,-2.7083,-2.719888888888889,-1.6245,-1.542,-187.95,215.81,190.430875,0.0,0.0,0.0,0.0,0.0526,-5.498166666666667,-5.498166666666667,-0.5726,0.6903333333333334,-0.007249999999999979,0.8140000000000001,69.1,-0.0043,-0.19840000000000002,-0.07600000000000051,100.0,1.0,1.0,212.91333333333333,0.0,0.0,0.0,0.0,0.0,0.0,0.0,9024.7,0.0,55.0,5.0,248.73333333333335,0.0,0.0,0.0,0.0,0.0,0.0,0.0,0.0,1.3049999999999997,1.3049999999999997,0.0,0.0,0.0,55.0,616.79921,10000.0,85.000001,85.000001,85.000001,85.000001,395.0,0.0,0.0,0.0,1.0,333.33500000000004,51.376,51.376,46.265,46.265,34.0,-24.03,25.422,-33.36,32.375,0.0,1781.583,-0.34999999999999787,100.0,29.106,28.68,43.755,43.553,0.0,0.0,100.0,0.0,0.0,0.0,0.0,3152.4285714285716,3149.8,4523.875,4545.7,305.188,304.77725,313.90666666666664,313.69325,22.0197,20.6504,22.0364,21.545099999999998,314.999998,314.999998,324.999988,324.999988,99.55884285714286,99.50743333333334,99.56867142857143,99.54887142857143,0.09200000000000008,-0.04833333333333334,-0.1077999999999999,0.11340000000000017,-0.04333333333332945,-0.051666666666669414,1.4326666666666668,1.4344999999999999,38.623000000000005,30.064666666666668,38.727000000000004,35.657,55.84,35.454,59.977000000000004,53.162,53.778999999999996,34.5575,58.539500000000004,51.46,52.929,34.0895,58.427,50.855333333333334,-0.10599999999999987,-0.05900000000000016,0.10809500000000001,0.11188000000000001,0.0,216.36,216.345,212.91333333333333,212.91333333333333,0.0,0.0
27,0.0,0.0,0.0,1.0,1.0,0.0,0.0,1.0,0.0,100.0,1.0,1.1856,26.0,0.0,0.0,0.0,59.999996,0.0,26.0,26.0,26.0,26.0,-0.0033333333333332993,0.2599,-0.024200000000000003,291.626,-2.6788,-2.685666666666667,-1.6171,-1.612,-184.63,215.79250000000002,190.407875,0.0,0.0,0.0,0.0,0.054533333333333336,-5.498166666666667,-5.498166666666667,-0.5961000000000001,-1.0296666666666667,-0.0040000000000000036,0.7460000000000004,69.224,0.0027,-0.24225000000000002,-0.2759999999999998,100.0,1.0,1.0,213.40666666666667,0.0,0.0,0.0,0.0,0.0,0.0,0.0,9045.5,0.0,55.0,5.0,249.18333333333334,1.0,0.0,0.0,0.0,0.0,0.0,0.0,0.0,1.352999999999998,1.352999999999998,0.0,0.0,1.0,55.0,616.79921,10000.0,85.000001,85.000001,85.000001,85.000001,395.0,0.0,0.0,0.0,1.0,333.33500000000004,51.834,51.834,46.616,46.616,34.0,-22.1575,25.456,-29.306666666666665,29.875,0.0,1781.536,-0.370000000000001,100.0,28.745,28.486,44.369,44.209,0.0,0.0,100.0,0.0,0.0,0.0,0.0,3036.142857142857,3193.3,4102.625,4114.0,305.5495,304.75475,314.82966666666664,314.63225,22.0285,20.6556,22.0464,21.5539,314.999998,314.999998,324.999988,324.999988,99.55884285714286,99.50745,99.56881428571428,99.54901428571429,0.10533333333333372,-0.046666666666666634,-0.10660000000000003,0.11919999999999997,-0.060000000000002274,-0.054999999999999716,1.505,1.491,38.678,30.097666666666665,38.79,35.712,55.828,35.4905,60.0145,53.2205,53.766999999999996,34.591,58.5745,51.5165,52.916,34.122,58.459,50.910333333333334,-0.11050000000000004,-0.05549999999999988,0.11099,0.09884000000000001,0.0,216.68,216.68,213.40666666666667,213.40666666666667,0.0,0.0
28,0.0,0.0,0.0,1.0,1.0,0.0,0.0,1.0,0.0,100.0,1.0,1.1856,26.0,0.0,0.0,0.0,59.999996,0.0,26.0,26.0,26.0,26.0,0.036222222222222156,0.25980000000000003,-0.057866666666666663,291.946,-2.6694,-2.672777777777778,-1.6174,-1.5716,-181.1,215.7725,190.3825,0.0,0.0,0.0,0.0,0.05656666666666667,-5.498166666666667,-5.498166666666667,-0.6027,0.6336666666666666,-0.009374999999999911,-0.44599999999999973,69.354,0.014100000000000001,-0.218725,-0.2579999999999991,100.0,1.0,1.0,213.93,0.0,0.0,0.0,0.0,0.0,0.0,0.0,9067.7,0.0,55.0,5.0,249.64666666666665,0.0,0.0,0.0,0.0,0.0,0.0,0.0,0.0,1.404,1.404,0.0,0.0,0.0,55.0,616.79921,10000.0,85.000001,85.000001,85.000001,85.000001,395.0,0.0,0.0,0.0,1.0,333.33500000000004,51.757999999999996,51.757999999999996,47.684,47.684,34.0,-23.705,24.758,-27.85333333333333,29.2175,0.0,1781.484,-0.379999999999999,100.0,28.628,28.567,43.546,43.753,0.0,0.0,100.0,0.0,0.0,0.0,0.0,3226.4285714285716,3066.8,4056.375,4108.4,305.128,304.92875,315.139,314.7275,22.0379,20.6613,22.0566,21.563,314.999998,314.999998,324.999988,324.999988,99.55885714285715,99.50745,99.56895714285714,99.54915714285714,0.10099999999999998,-0.039000000000000035,-0.09639999999999993,0.12379999999999991,-0.05333333333332746,-0.03999999999999915,1.5710000000000002,1.535,38.736999999999995,30.133333333333333,38.854,35.7685,55.817,35.53,60.0475,53.2775,53.757,34.6275,58.6055,51.5715,52.905,34.1565,58.487,50.964,-0.10850000000000004,-0.05049999999999999,0.09745500000000001,0.10443000000000001,0.0,217.135,217.125,213.93,213.93,0.0,0.0
29,0.0,0.0,0.0,1.0,1.0,0.0,0.0,1.0,0.0,100.0,1.0,1.1856,26.0,0.0,0.0,0.0,59.999996,0.0,26.0,26.0,26.0,26.0,0.03222222222222215,0.25140000000000007,0.0018000000000000002,291.641,-2.6607,-2.715,-1.5747,-1.5474999999999999,-177.56,215.755,190.356125,0.0,0.0,0.0,0.0,0.05863333333333334,-5.498166666666667,-5.498166666666667,-0.6051000000000001,-0.674,0.0035000000000000586,0.8550000000000004,69.488,0.022000000000000002,-0.21577500000000002,-0.41000000000000014,100.0,1.0,1.0,214.16333333333333,0.0,0.0,0.0,0.0,0.0,0.0,0.0,9077.5,0.0,55.0,5.0,250.13333333333333,1.0,0.0,0.0,0.0,0.0,0.0,0.0,0.0,1.4549999999999983,1.4549999999999983,0.0,0.0,1.0,55.0,616.79921,10000.0,85.000001,85.000001,85.000001,85.000001,395.0,0.0,0.0,0.0,1.0,333.33500000000004,51.971000000000004,51.971000000000004,46.616,46.616,34.0,-22.009999999999998,26.624,-27.82333333333333,32.3825,0.0,1781.433,-0.3999999999999986,100.0,28.387999999999998,28.35,43.959,43.997,0.0,0.0,100.0,0.0,0.0,0.0,0.0,3061.857142857143,3195.0,4160.75,4330.9,305.5175,304.6335,314.66366666666664,314.17425,22.0471,20.6669,22.0672,21.5723,314.999998,314.999998,324.999988,324.999988,99.55887142857142,99.50746666666667,99.5691,99.54931428571429,0.10899999999999999,-0.02966666666666662,-0.07779999999999998,0.14559999999999995,-0.03999999999999915,-0.04833333333333201,1.4866666666666668,1.45,38.795,30.168333333333333,38.92,35.827,55.803,35.568,60.0865,53.3395,53.744,34.6625,58.641999999999996,51.631,52.891,34.19,58.519999999999996,51.022,-0.10699999999999998,-0.051000000000000156,0.10751000000000001,0.10698,0.0,217.5,217.51999999999998,214.16333333333333,214.16333333333333,0.0,0.0
30,0.0,0.0,0.0,1.0,1.0,0.0,0.0,1.0,0.0,100.0,1.0,1.1856,26.0,0.0,0.0,0.0,59.999996,0.0,26.0,26.0,26.0,26.0,0.04266666666666685,0.25070000000000014,-0.006533333333333333,291.214,-2.6816,-2.596888888888889,-1.5504,-1.6016,-174.01,215.7375,190.329625,0.0,0.0,0.0,0.0,0.060700000000000004,-5.498166666666667,-5.498166666666667,-0.6026,0.8763333333333334,-0.000500000000000167,-0.6000000000000001,69.618,0.027600000000000003,-0.216725,-0.35599999999999987,100.0,1.0,1.0,214.65,0.0,0.0,0.0,0.0,0.0,0.0,0.0,9098.2,0.0,55.0,5.0,250.59666666666666,0.0,0.0,0.0,0.0,0.0,0.0,1.0,0.0,1.5060000000000002,1.5060000000000002,0.0,0.0,0.0,55.0,616.79921,10000.0,85.000001,85.000001,85.000001,85.000001,395.0,0.0,0.0,0.0,1.0,166.665,50.797,50.797,47.134,47.134,34.0,-24.052500000000002,25.677999999999997,-27.89666666666666,30.575000000000003,0.0,1781.385,-0.3999999999999986,100.0,29.089,29.201,43.622,44.129000000000005,0.0,0.0,100.0,0.0,0.0,0.0,0.0,3353.142857142857,3163.2,4187.25,4125.4,304.685,304.5475,314.7606666666667,314.57875,22.0567,20.6728,22.0775,21.5815,314.999998,314.999998,324.999988,324.999988,99.55888571428571,99.50746666666667,99.56925714285714,99.54945714285714,0.12133333333333374,-0.024666666666666615,-0.08679999999999999,0.13240000000000007,-0.046666666666666856,-0.04999999999999716,1.5053333333333332,1.4889999999999999,38.854,30.205333333333336,38.985,35.8845,55.795,35.609,60.121,53.3995,53.736000000000004,34.7005,58.674,51.6885,52.882,34.2265,58.549,51.07866666666666,-0.12199999999999989,-0.05149999999999988,0.10778000000000001,0.10067500000000001,0.0,217.935,217.95,214.65,214.65,0.0,0.0
31,0.0,0.0,0.0,1.0,1.0,0.0,0.0,1.0,0.0,100.0,1.0,1.1856,26.0,0.0,0.0,0.0,59.999996,0.0,26.0,26.0,26.0,26.0,0.03255555555555567,0.24609999999999999,0.020266666666666665,290.924,-2.7896,-2.5743333333333336,-1.5997,-1.4969999999999999,-170.67000000000002,215.7225,190.305375,0.0,0.0,0.0,0.0,0.06263333333333335,-5.498166666666667,-5.498166666666667,-0.5891000000000001,-0.5116666666666667,0.00912500000000005,-0.8380000000000001,69.742,0.031900000000000005,-0.21995,-0.3520000000000003,100.0,1.0,1.0,214.89333333333332,0.0,0.0,0.0,0.0,0.0,0.0,0.0,9108.5,0.0,55.0,5.0,251.04666666666668,1.0,0.0,0.0,0.0,0.0,0.0,1.0,0.0,1.5539999999999985,1.5539999999999985,0.0,0.0,1.0,55.0,616.79921,10000.0,85.000001,85.000001,85.000001,85.000001,395.0,0.0,0.0,0.0,1.0,166.665,51.315,51.315,45.593,45.593,34.0,-23.752499999999998,25.968,-30.273333333333333,30.747500000000002,0.0,1781.336,-0.4400000000000013,100.0,28.77,29.23,44.327,44.852000000000004,0.0,0.0,100.0,0.0,0.0,0.0,0.0,3181.142857142857,3239.9,4371.75,4224.9,305.439,304.5225,314.2366666666667,314.31325,22.0654,20.6783,22.0875,21.5905,314.999998,314.999998,324.999988,324.999988,99.5589,99.50746666666667,99.56938571428572,99.5496,0.11266666666666669,-0.02400000000000002,-0.08320000000000005,0.14259999999999984,-0.036666666666668846,-0.041666666666671404,1.4543333333333333,1.4485000000000001,38.909,30.239333333333335,39.047,35.9405,55.785,35.646,60.159,53.4595,53.726,34.735,58.7095,51.7465,52.870000000000005,34.2595,58.581,51.135,-0.11799999999999988,-0.04800000000000004,0.10751000000000001,0.11564500000000001,0.0,218.29000000000002,218.305,214.89333333333332,214.89333333333332,0.0,0.0
32,0.0,0.0,0.0,1.0,1.0,0.0,0.0,1.0,0.0,100.0,1.0,1.1856,26.0,0.0,0.0,0.0,59.999996,0.0,26.0,26.0,26.0,26.0,0.0277777777777779,0.26770000000000005,-0.03676666666666667,291.245,-2.6907,-2.684,-1.6482999999999999,-1.5056,-167.11,215.70749999999998,190.279875,0.0,0.0,0.0,0.0,0.06470000000000001,-5.498166666666667,-5.498166666666667,-0.6052000000000001,-0.01933333333333333,-0.012500000000000178,0.24399999999999977,69.87,0.0347,-0.227025,-0.48599999999999977,100.0,1.0,1.0,215.39666666666668,0.0,0.0,0.0,0.0,0.0,0.0,0.0,9129.9,0.0,55.0,5.0,251.50666666666666,0.0,0.0,0.0,0.0,0.0,0.0,1.0,0.0,1.6050000000000004,1.6050000000000004,0.0,0.0,0.0,55.0,616.79921,10000.0,85.000001,85.000001,85.000001,85.000001,395.0,0.0,0.0,0.0,1.0,333.33500000000004,51.437,51.437,46.509,46.509,34.0,-21.9775,26.927999999999997,-28.409999999999997,31.6975,0.0,1781.283,-0.4549999999999983,100.0,28.867,29.004,44.115,44.510999999999996,0.0,0.0,100.0,0.0,0.0,0.0,0.0,3116.142857142857,3198.9,4225.875,4323.0,305.311,304.69975,314.682,314.315,22.0747,20.6841,22.0979,21.5997,314.999998,314.999998,324.999988,324.999988,99.55892857142857,99.50748333333334,99.56954285714286,99.54975714285715,0.12766666666666637,-0.014666666666666606,-0.06659999999999999,0.15280000000000005,-0.03999999999999915,-0.061666666666667425,1.5283333333333333,1.501,38.967,30.275666666666666,39.111999999999995,35.998,55.774,35.6855,60.194,53.519,53.716,34.7715,58.742,51.804,52.858999999999995,34.295,58.6105,51.191,-0.11850000000000005,-0.046499999999999986,0.10397500000000001,0.102245,0.0,218.685,218.71,215.39666666666668,215.39666666666668,0.0,0.0
33,0.0,0.0,0.0,1.0,1.0,0.0,0.0,1.0,0.0,100.0,1.0,1.1856,26.0,0.0,0.0,0.0,59.999996,0.0,26.0,26.0,26.0,26.0,0.05699999999999994,0.24280000000000013,-0.04076666666666667,291.504,-2.7343,-2.673111111111111,-1.5955,-1.5867,-163.54,215.6925,190.25325,0.0,0.0,0.0,0.0,0.0668,-5.498166666666667,-5.498166666666667,-0.615,-0.3393333333333333,-0.0073750000000001315,-0.01100000000000012,70.0,0.033800000000000004,-0.217925,-0.35599999999999987,100.0,1.0,1.0,215.77666666666667,0.0,0.0,0.0,0.0,0.0,0.0,0.0,9146.0,0.0,55.0,5.0,251.97333333333336,1.0,0.0,0.0,0.0,0.0,0.0,1.0,0.0,1.6559999999999988,1.6559999999999988,0.0,0.0,1.0,55.0,616.79921,10000.0,85.000001,85.000001,85.000001,85.000001,395.0,0.0,0.0,0.0,1.0,166.665,51.804,51.804,46.768,46.768,34.0,-22.744999999999997,25.322000000000003,-28.016666666666666,32.004999999999995,0.0,1781.234,-0.4800000000000004,100.0,28.522,28.846,43.95,44.525999999999996,0.0,0.0,100.0,0.0,0.0,0.0,0.0,3165.857142857143,3060.2,4150.75,4237.8,305.425,304.98275,314.79966666666667,314.3865,22.0839,20.689799999999998,22.1083,21.6089,314.999998,314.999998,324.999988,324.999988,99.55894285714285,99.50748333333334,99.56968571428571,99.5499,0.12266666666666648,-0.023333333333333317,-0.08099999999999996,0.14640000000000009,-0.03499999999999659,-0.023333333333326323,1.5016666666666667,1.492,39.024,30.311,39.177,36.056,55.763999999999996,35.7225,60.2295,53.579,53.706,34.8055,58.775,51.8615,52.848,34.3275,58.6405,51.24733333333333,-0.12149999999999994,-0.04400000000000004,0.10423,0.11209500000000001,0.0,219.07999999999998,219.085,215.77666666666667,215.77666666666667,0.0,0.0
34,0.0,0.0,0.0,1.0,1.0,0.0,0.0,1.0,0.0,100.0,1.0,1.1856,26.0,0.0,0.0,0.0,59.999996,0.0,26.0,26.0,26.0,26.0,0.05277777777777781,0.254,-0.04596666666666667,291.794,-2.6742,-2.666666666666667,-1.6529,-1.5481,-160.18,215.68,190.227,0.0,0.0,0.0,0.0,0.06873333333333334,-5.498166666666667,-5.498166666666667,-0.641,-0.8260000000000001,0.017125000000000057,-0.2889999999999997,70.12100000000001,0.035,-0.223175,-0.3719999999999999,100.0,1.0,1.0,216.15333333333334,0.0,0.0,0.0,0.0,0.0,0.0,0.0,9162.0,0.0,55.0,5.0,252.41,0.0,0.0,0.0,0.0,0.0,0.0,1.0,0.0,1.7040000000000006,1.7040000000000006,0.0,0.0,0.0,55.0,616.79921,10000.0,85.000001,85.000001,85.000001,85.000001,395.0,0.0,0.0,0.0,1.0,166.665,52.17,52.17,47.302,47.302,34.0,-21.94,24.89,-28.060000000000002,31.03,0.0,1781.186,-0.48499999999999943,100.0,28.271,28.549,43.730000000000004,44.538,0.0,0.0,100.0,0.0,0.0,0.0,0.0,3138.714285714286,2996.9,4090.75,4182.0,305.481,305.116,314.99033333333335,314.47225,22.0925,20.695,22.1181,21.6177,314.999998,314.999998,324.999988,324.999988,99.55895714285714,99.50748333333334,99.56982857142857,99.55004285714286,0.12333333333333352,-0.01966666666666661,-0.07879999999999998,0.14680000000000004,-0.04333333333332945,-0.04999999999999716,1.5223333333333335,1.4994999999999998,39.078,30.344,39.238,36.1105,55.751999999999995,35.7565,60.2615,53.635999999999996,53.695,34.837,58.8045,51.9165,52.836,34.3575,58.6665,51.30133333333333,-0.11749999999999994,-0.04300000000000015,0.1053,0.10699000000000002,0.0,219.445,219.465,216.15333333333334,216.15333333333334,0.0,0.0
35,0.0,0.0,0.0,1.0,1.0,0.0,0.0,1.0,0.0,100.0,1.0,1.1856,26.0,0.0,0.0,0.0,59.999996,0.0,26.0,26.0,26.0,26.0,0.045222222222222275,0.24930000000000008,-0.08236666666666667,291.809,-2.7316,-2.6145555555555555,-1.6298,-1.5072,-156.6,215.66750000000002,190.197,0.0,0.0,0.0,0.0,0.07083333333333335,-5.498166666666667,-5.498166666666667,-0.6811,-0.3243333333333333,0.0029999999999998916,0.017000000000000348,70.248,0.0396,-0.229825,-0.532,100.0,1.0,1.0,216.61666666666667,0.0,0.0,0.0,0.0,0.0,0.0,0.0,9181.5,0.0,55.0,5.0,252.86666666666667,1.0,0.0,0.0,0.0,0.0,0.0,1.0,0.0,1.754999999999999,1.754999999999999,0.0,0.0,1.0,55.0,616.79921,10000.0,85.000001,85.000001,85.000001,85.000001,395.0,0.0,0.0,0.0,1.0,333.33500000000004,51.727000000000004,51.727000000000004,46.86,46.86,34.0,-22.145,28.402,-26.409999999999997,29.725,0.0,1781.135,-0.3200000000000003,100.0,28.167,28.64,43.618,43.967,0.0,0.0,100.0,0.0,0.0,0.0,0.0,3074.4285714285716,3407.6,4017.25,4029.5,305.505,304.0835,315.06166666666667,314.9225,22.101399999999998,20.7009,22.1283,21.6268,314.999998,314.999998,324.999988,324.999988,99.55897142857143,99.50748333333334,99.56997142857144,99.5502,0.12333333333333352,-0.01200000000000001,-0.06299999999999994,0.16379999999999995,-0.041666666666671404,-0.03999999999999915,1.544,1.53,39.134,30.380333333333333,39.302,36.167500000000004,55.739000000000004,35.795,60.295500000000004,53.692499999999995,53.682,34.873,58.836,51.971000000000004,52.822,34.391999999999996,58.695,51.35466666666667,-0.10999999999999988,-0.05250000000000021,0.10482500000000002,0.10709,0.0,219.825,219.86,216.61666666666667,216.61666666666667,0.0,0.0
