,ABS Active,ABS Enabled,AID Allow Tire Blankets,AID Auto Blip,AID Auto Clutch,AID Auto Shift,AID Fuel Rate,AID Ideal Line,AID Mech Damage,AID Stability,AID Tire Wear Rate,Air Density,Air Temp,Ballast,Best Lap Delta,Best Lap Time,Brake Bias,Brake Pos,Brake Temp FL,Brake Temp FR,Brake Temp RL,Brake Temp RR,CG Accel Lateral,CG Accel Longitudinal,CG Accel Vertical,CG Height,Camber FL,Camber FR,Camber RL,Camber RR,Car Coord X,Car Coord Y,Car Coord Z,Car Damage Front,Car Damage Left,Car Damage Rear,Car Damage Right,Car Pos Norm,Caster FL,Caster FR,Chassis Pitch Angle,Chassis Pitch Rate,Chassis Roll Angle,Chassis Roll Rate,Chassis Velocity X,Chassis Velocity Y,Chassis Velocity Z,Chassis Yaw Rate,Clutch Pos,DRS Active,DRS Available,Drive Train Speed,ERS Heat Charging,ERS Is Charging,ERS Max Energy,ERS Power Level,ERS Recovery Level,Engine Brake Setting,Engine Limiter,Engine RPM,Flags,Fuel Level,Gear,Ground Speed,HR Sample Clock,In Pit,KERS Charge,KERS Deployed Energy,KERS Input,KERS Max Energy,LR Sample Clock,Lap Invalidated,Lap Time,Lap Time2,Last Lap Time,Last Sector Time,MR Sample Clock,Max Fuel,Max Power,Max RPM,Max Sus Travel FL,Max Sus Travel FR,Max Sus Travel RL,Max Sus Travel RR,Max Torque,Max Turbo Boost,Num Tires Off Track,Penalties Enabled,Position,Raw Data Sample Rate,Ride Height FL,Ride Height FR,Ride Height RL,Ride Height RR,Road Temp,Self Align Torque FL,Self Align Torque FR,Self Align Torque RL,Self Align Torque RR,Session Lap Count,Session Time Left,Steering Angle,Surface Grip,Suspension Travel FL,Suspension Travel FR,Suspension Travel RL,Suspension Travel RR,TC Active,TC Enabled,Throttle Pos,Tire Dirt Level FL,Tire Dirt Level FR,Tire Dirt Level RL,Tire Dirt Level RR,Tire Load FL,Tire Load FR,Tire Load RL,Tire Load RR,Tire Loaded Radius FL,Tire Loaded Radius FR,Tire Loaded Radius RL,Tire Loaded Radius RR,Tire Pressure FL,Tire Pressure FR,Tire Pressure RL,Tire Pressure RR,Tire Radius FL,Tire Radius FR,Tire Radius RL,Tire Radius RR,Tire Rubber Grip FL,Tire Rubber Grip FR,Tire Rubber Grip RL,Tire Rubber Grip RR,Tire Slip Angle FL,Tire Slip Angle FR,Tire Slip Angle RL,Tire Slip Angle RR,Tire Slip Ratio FL,Tire Slip Ratio FR,Tire Slip Ratio RL,Tire Slip Ratio RR,Tire Temp Core FL,Tire Temp Core FR,Tire Temp Core RL,Tire Temp Core RR,Tire Temp Inner FL,Tire Temp Inner FR,Tire Temp Inner RL,Tire Temp Inner RR,Tire Temp Middle FL,Tire Temp Middle FR,Tire Temp Middle RL,Tire Temp Middle RR,Tire Temp Outer FL,Tire Temp Outer FR,Tire Temp Outer RL,Tire Temp Outer RR,Toe In FL,Toe In FR,Toe In RL,Toe In RR,Turbo Boost,Wheel Angular Speed FL,Wheel Angular Speed FR,Wheel Angular Speed RL,Wheel Angular Speed RR,Wind Direction,Wind Speed
0,0.0,0.0,0.0,1.0,1.0,0.0,0.0,1.0,0.0,100.0,1.0,1.1856,26.0,0.0,0.0,0.0,59.99999,0.0,26.0,26.0,26.0,26.0,-0.15112499999999995,0.3024,0.03213333333333333,293.961,-2.6743,-2.7055555555555557,-1.4791,-1.5965555555555557,-275.6,216.26,190.987,0.0,0.0,0.0,0.0,0.0016333333333333332,-5.498166666666667,-5.498166666666667,-0.5534,1.1376666666666668,-0.05037499999999984,-0.16300000000000003,65.563,-0.0959,-0.219,1.5039999999999996,100.0,1.0,1.0,202.44666666666666,0.0,0.0,0.0,0.0,0.0,0.0,0.0,8581.0,0.0,55.0,5.0,235.99333333333334,0.0,0.0,0.0,0.0,0.0,0.0,0.0,0.0,0.006000000000000227,0.006000000000000227,0.0,0.0,0.0,55.0,616.79921,10000.0,85.0,85.0,85.0,85.0,395.0,0.0,0.0,0.0,1.0,20.0,52.536,52.536,49.652,49.652,34.0,-30.5625,21.619999999999997,-32.42666666666666,21.965,0.0,1782.612,1.0,100.0,27.587,26.604,41.092,40.086,0.0,0.0,100.0,0.0,0.0,0.0,0.0,3207.142857142857,3408.6,4084.125,3903.9,305.0345,304.0285,314.90633333333335,315.12175,21.8194,20.5209,21.7851,21.323,314.99999,314.99999,324.99998,324.99998,99.56141428571429,99.50746666666667,99.56597142857143,99.54558571428572,-0.058499999999999996,-0.17233333333333334,-0.21939999999999993,0.010833333333333472,-0.04833333333333201,-0.06499999999999773,1.556,1.6175000000000002,37.372,29.255666666666666,37.157,34.269,57.187,34.657,59.343,51.7855,55.035,33.8005,57.961,50.132999999999996,54.17,33.3445,57.926,49.55433333333333,0.00649999999999995,-0.15249999999999986,0.10200000000000001,0.11376000000000001,0.0,205.465,205.35000000000002,202.44666666666666,202.44666666666666,0.0,0.0
1,0.0,0.0,0.0,1.0,1.0,0.0,0.0,1.0,0.0,100.0,1.0,1.1856,26.0,0.0,0.0,0.0,59.999996,0.0,26.0,26.0,26.0,26.0,-0.16625,0.3188,0.1673666666666667,293.076,-2.6015,-2.8017777777777777,-1.5004,-1.578111111111111,-272.25,216.2625,190.966875,0.0,0.0,0.0,0.0,0.0036000000000000003,-5.498166666666667,-5.498166666666667,-0.4955,-0.481,-0.08887500000000026,-0.835,65.71600000000001,-0.098,-0.19205,1.6660000000000004,100.0,1.0,1.0,202.58333333333331,0.0,0.0,0.0,0.0,0.0,0.0,0.0,8586.8,0.0,55.0,5.0,236.54666666666668,1.0,0.0,0.0,0.0,0.0,0.0,0.0,0.0,0.05699999999999861,0.05699999999999861,0.0,0.0,1.0,55.0,616.79921,10000.0,85.000001,85.000001,85.000001,85.000001,395.0,0.0,0.0,0.0,1.0,333.33500000000004,53.65,53.65,48.278999999999996,48.278999999999996,34.0,-29.57,16.105999999999998,-36.65,26.275,0.0,1782.559,1.0549999999999997,100.0,27.781,26.761,43.121,41.262,0.0,0.0,100.0,0.0,0.0,0.0,0.0,3172.142857142857,2597.3,4326.5,4714.8,305.2705,306.569,314.262,313.1155,21.8297,20.526,21.796,21.3321,314.999998,314.999998,324.999988,324.999988,99.56142857142858,99.50748333333334,99.56612857142858,99.54574285714286,-0.06424999999999992,-0.18266666666666664,-0.23360000000000003,-0.014666666666666606,-0.04333333333332945,-0.06499999999999773,1.4140000000000001,1.4765000000000001,37.436,29.287333333333336,37.224999999999994,34.326,57.173,34.6995,59.388,51.8505,55.021,33.84,58.0035,50.195,54.156,33.382,57.966,49.615,0.007000000000000117,-0.14849999999999985,0.100985,0.10603000000000001,0.0,205.91,205.815,202.58333333333331,202.58333333333331,0.0,0.0
2,0.0,0.0,0.0,1.0,1.0,0.0,0.0,1.0,0.0,100.0,1.0,1.1856,26.0,0.0,0.0,0.0,59.999996,0.0,26.0,26.0,26.0,26.0,-0.16937499999999994,0.3054000000000001,-0.0115,293.671,-2.5778,-2.822111111111111,-1.4668,-1.6311111111111112,-268.7,216.26,190.946875,0.0,0.0,0.0,0.0,0.005666666666666667,-5.498166666666667,-5.498166666666667,-0.5467000000000001,0.095,-0.07462500000000016,2.0100000000000002,65.867,-0.1073,-0.24652500000000002,1.862000000000001,100.0,1.0,1.0,203.51666666666665,0.0,0.0,0.0,0.0,0.0,0.0,0.0,8626.3,0.0,55.0,5.0,237.09333333333333,0.0,0.0,0.0,0.0,0.0,0.0,0.0,0.0,0.11100000000000065,0.11100000000000065,0.0,0.0,0.0,55.0,616.79921,10000.0,85.000001,85.000001,85.000001,85.000001,395.0,0.0,0.0,0.0,1.0,166.665,52.475,52.475,50.11,50.11,34.0,-32.519999999999996,17.936,-30.936666666666667,19.18,0.0,1782.506,0.9349999999999987,100.0,28.461,26.8,42.91,41.076,0.0,0.0,100.0,0.0,0.0,0.0,0.0,3429.5714285714284,2877.4,3762.875,3715.6,304.4065,305.66025,315.633,315.6935,21.8408,20.5311,21.8072,21.3414,314.999998,314.999998,324.999988,324.999988,99.56142857142858,99.5075,99.56627142857143,99.54587142857143,-0.06874999999999987,-0.19333333333333336,-0.264,-0.022833333333333372,-0.07333333333333059,-0.05833333333333002,1.6275,1.7045,37.504999999999995,29.319666666666667,37.295,34.384,57.16,34.741,59.4285,51.91,55.01,33.878,58.0415,50.2525,54.143,33.4185,58.001,49.671,-0.0044999999999999485,-0.14900000000000002,0.108545,0.11032000000000002,0.0,206.41500000000002,206.23000000000002,203.51666666666665,203.51666666666665,0.0,0.0
3,0.0,0.0,0.0,1.0,1.0,0.0,0.0,1.0,0.0,100.0,1.0,1.1856,26.0,0.0,0.0,0.0,59.999996,0.0,26.0,26.0,26.0,26.0,-0.17812499999999998,0.31330000000000013,-0.028933333333333332,293.365,-2.7079,-2.7119999999999997,-1.4929000000000001,-1.610111111111111,-265.53,216.2525,190.92825,0.0,0.0,0.0,0.0,0.007500000000000001,-5.498166666666667,-5.498166666666667,-0.5096,0.387,-0.03212500000000018,-0.997,66.011,-0.1169,-0.201875,1.5439999999999996,100.0,1.0,1.0,203.62,0.0,0.0,0.0,0.0,0.0,0.0,0.0,8630.7,0.0,55.0,5.0,237.60666666666668,1.0,0.0,0.0,0.0,0.0,0.0,0.0,0.0,0.15899999999999892,0.15899999999999892,0.0,0.0,1.0,55.0,616.79921,10000.0,85.000001,85.000001,85.000001,85.000001,395.0,0.0,0.0,0.0,1.0,166.665,53.497,53.497,48.05,48.05,34.0,-27.625,16.64,-36.7,22.572499999999998,0.0,1782.458,0.7199999999999989,100.0,28.046,26.971,42.697,41.301,0.0,0.0,100.0,0.0,0.0,0.0,0.0,2932.4285714285716,2767.7,4363.25,4226.3,305.9085,305.8345,314.2416666666667,314.3175,21.8503,20.536,21.8171,21.349899999999998,314.999998,314.999998,324.999988,324.999988,99.56144285714285,99.50751666666666,99.56641428571429,99.54601428571429,-0.05525000000000002,-0.18666666666666665,-0.23639999999999994,-0.02749999999999997,-0.021666666666668277,-0.03833333333332689,1.468,1.5444999999999998,37.564,29.35,37.357,34.4365,57.144999999999996,34.782,59.466,51.969,54.995000000000005,33.916,58.076499999999996,50.309,54.128,33.454499999999996,58.033,49.726333333333336,-0.020499999999999963,-0.1299999999999999,0.09764500000000001,0.10893000000000001,0.0,206.82999999999998,206.695,203.62,203.62,0.0,0.0
4,0.0,0.0,0.0,1.0,1.0,0.0,0.0,1.0,0.0,100.0,1.0,1.1856,26.0,0.0,0.0,0.0,59.999996,0.0,26.0,26.0,26.0,26.0,-0.16412499999999997,0.2823,-0.0199,293.625,-2.6401,-2.760666666666667,-1.5110999999999999,-1.6133333333333333,-262.36,216.24,190.90975,0.0,0.0,0.0,0.0,0.009333333333333334,-5.498166666666667,-5.498166666666667,-0.5432,-0.7353333333333334,-0.09699999999999998,-1.6960000000000002,66.147,-0.11720000000000001,-0.237025,1.3920000000000003,100.0,1.0,1.0,204.19333333333333,0.0,0.0,0.0,0.0,0.0,0.0,0.0,8655.1,0.0,55.0,5.0,238.10333333333335,0.0,0.0,0.0,0.0,0.0,0.0,0.0,0.0,0.20700000000000074,0.20700000000000074,0.0,0.0,0.0,55.0,616.79921,10000.0,85.000001,85.000001,85.000001,85.000001,395.0,0.0,0.0,0.0,1.0,166.665,53.085,53.085,48.737,48.737,34.0,-30.57,18.254,-34.25,19.5025,0.0,1782.41,0.5850000000000009,100.0,27.819,26.775,43.009,41.346000000000004,0.0,0.0,100.0,0.0,0.0,0.0,0.0,3307.714285714286,2840.2,4124.125,3663.2,304.939,305.6435,314.766,315.696,21.8596,20.5408,21.8272,21.3582,314.999998,314.999998,324.999988,324.999988,99.56144285714285,99.50753333333333,99.56655714285715,99.54614285714285,-0.046499999999999986,-0.16866666666666663,-0.2377999999999999,-0.012499999999999956,-0.046666666666666856,-0.05333333333332746,1.5539999999999998,1.621,37.623000000000005,29.38,37.42,34.489,57.128,34.8215,59.504999999999995,52.024,54.979,33.952,58.113,50.3615,54.111,33.4895,58.067,49.77766666666667,-0.03200000000000003,-0.11799999999999988,0.11026500000000002,0.10548500000000001,0.0,207.215,207.11,204.19333333333333,204.19333333333333,0.0,0.0
5,0.0,0.0,0.0,1.0,1.0,0.0,0.0,1.0,0.0,100.0,1.0,1.1856,26.0,0.0,0.0,0.0,59.999996,0.0,26.0,26.0,26.0,26.0,-0.16012499999999996,0.2934000000000001,-0.0031333333333333335,293.655,-2.6506,-2.786,-1.4954,-1.599777777777778,-258.98,216.225,190.889375,0.0,0.0,0.0,0.0,0.011300000000000001,-5.498166666666667,-5.498166666666667,-0.5354,0.4023333333333333,-0.09612500000000024,1.1219999999999999,66.294,-0.11270000000000001,-0.21315,1.12,100.0,1.0,1.0,204.5966666666667,0.0,0.0,0.0,0.0,0.0,0.0,0.0,8672.1,0.0,55.0,5.0,238.63,1.0,0.0,0.0,0.0,0.0,0.0,0.0,0.0,0.2579999999999991,0.2579999999999991,0.0,0.0,1.0,55.0,616.79921,10000.0,85.000001,85.000001,85.000001,85.000001,395.0,0.0,0.0,0.0,1.0,333.33500000000004,53.467,53.467,48.965,48.965,34.0,-28.189999999999998,19.12,-34.06333333333333,22.447499999999998,0.0,1782.358,0.21499999999999986,100.0,28.078,26.498,42.82,40.949,0.0,0.0,100.0,0.0,0.0,0.0,0.0,3118.0,2825.0,4153.25,4088.2,305.296,305.9085,314.726,314.75675,21.8699,20.5459,21.837699999999998,21.367,314.999998,314.999998,324.999988,324.999988,99.56145714285714,99.50756666666666,99.56668571428571,99.54628571428572,-0.02849999999999997,-0.14400000000000002,-0.23039999999999994,-0.007333333333333303,-0.02499999999999858,-0.07000000000000028,1.528,1.565,37.687,29.411666666666665,37.486000000000004,34.544,57.113,34.862,59.545,52.081,54.964,33.9895,58.1505,50.416,54.096000000000004,33.525,58.1015,49.830666666666666,-0.05049999999999999,-0.09450000000000003,0.10809,0.111795,0.0,207.69,207.615,204.5966666666667,204.59666666666666,0.0,0.0
6,0.0,0.0,0.0,1.0,1.0,0.0,0.0,1.0,0.0,100.0,1.0,1.1856,26.0,0.0,0.0,0.0,59.999996,0.0,26.0,26.0,26.0,26.0,-0.14349999999999996,0.28059999999999996,0.007566666666666668,293.442,-2.6191,-2.759888888888889,-1.5404,-1.5964444444444443,-255.8,216.20749999999998,190.87,0.0,0.0,0.0,0.0,0.013166666666666667,-5.498166666666667,-5.498166666666667,-0.5316000000000001,0.1,-0.0767500000000001,1.004,66.432,-0.0994,-0.21505000000000002,0.79,100.0,1.0,1.0,205.00333333333333,0.0,0.0,0.0,0.0,0.0,0.0,0.0,8689.3,0.0,55.0,5.0,239.12333333333333,0.0,0.0,0.0,0.0,0.0,0.0,0.0,0.0,0.30600000000000094,0.30600000000000094,0.0,0.0,0.0,55.0,616.79921,10000.0,85.000001,85.000001,85.000001,85.000001,395.0,0.0,0.0,0.0,1.0,333.33500000000004,53.116,53.116,48.751999999999995,48.751999999999995,34.0,-27.405,20.374000000000002,-32.95333333333333,22.7975,0.0,1782.31,0.11500000000000199,100.0,27.964,26.631,42.905,41.306,0.0,0.0,100.0,0.0,0.0,0.0,0.0,3141.285714285714,2978.4,4091.875,4035.4,305.1665,305.4115,314.85566666666665,314.886,21.8794,20.5507,21.8477,21.3755,314.999998,314.999998,324.999988,324.999988,99.56145714285714,99.50758333333333,99.56682857142857,99.54641428571429,-0.008249999999999869,-0.1376666666666666,-0.20920000000000005,0.007333333333333414,-0.041666666666671404,-0.04999999999999716,1.5510000000000002,1.5675,37.745999999999995,29.442,37.548,34.597,57.097,34.9,59.582499999999996,52.138,54.949,34.0245,58.1855,50.4705,54.08,33.5585,58.134,49.88433333333333,-0.06549999999999989,-0.08349999999999991,0.09956000000000001,0.09913000000000001,0.0,208.11,208.035,205.00333333333333,205.00333333333333,0.0,0.0
7,0.0,0.0,0.0,1.0,1.0,0.0,0.0,1.0,0.0,100.0,1.0,1.1856,26.0,0.0,0.0,0.0,59.999996,0.0,26.0,26.0,26.0,26.0,-0.08537499999999998,0.28970000000000007,0.04476666666666667,293.289,-2.5999,-2.7634444444444446,-1.5072,-1.6315555555555556,-252.2,216.1825,190.848375,0.0,0.0,0.0,0.0,0.015233333333333335,-5.498166666666667,-5.498166666666667,-0.5349,0.09366666666666668,-0.057250000000000245,1.233,66.586,-0.0776,-0.22437500000000002,0.39000000000000057,100.0,1.0,1.0,205.48000000000002,0.0,0.0,0.0,0.0,0.0,0.0,0.0,8709.6,0.0,55.0,5.0,239.68,1.0,0.0,0.0,0.0,0.0,0.0,0.0,0.0,0.35999999999999943,0.35999999999999943,0.0,0.0,1.0,55.0,616.79921,10000.0,85.000001,85.000001,85.000001,85.000001,395.0,0.0,0.0,0.0,1.0,166.665,52.856,52.856,48.874,48.874,34.0,-25.6525,22.114,-31.049999999999997,25.67,0.0,1782.257,-0.21499999999999986,100.0,28.059,26.782,42.886,41.583,0.0,0.0,100.0,0.0,0.0,0.0,0.0,3158.714285714286,2999.4,4009.0,4076.6000000000004,305.066,305.25,315.015,314.72525,21.8901,20.5562,21.8589,21.384999999999998,314.999998,314.999998,324.999988,324.999988,99.56145714285714,99.50758333333333,99.56698571428572,99.54655714285714,0.03400000000000025,-0.10266666666666657,-0.19240000000000002,0.044333333333333336,-0.030000000000001137,-0.04333333333332945,1.5345,1.5350000000000001,37.813,29.476333333333336,37.617999999999995,34.6565,57.079,34.942,59.624,52.202,54.932,34.063,58.224000000000004,50.532,54.063,33.5955,58.1695,49.94433333333333,-0.09599999999999986,-0.06000000000000005,0.10879000000000001,0.11020500000000001,0.0,208.555,208.51,205.48000000000002,205.48000000000002,0.0,0.0
8,0.0,0.0,0.0,1.0,1.0,0.0,0.0,1.0,0.0,100.0,1.0,1.1856,26.0,0.0,0.0,0.0,59.999996,0.0,26.0,26.0,26.0,26.0,-0.04937499999999995,0.28680000000000017,-0.02986666666666667,293.51800000000003,-2.6878,-2.727777777777778,-1.4921,-1.579888888888889,-248.8,216.1575,190.82775,0.0,0.0,0.0,0.0,0.017233333333333337,-5.498166666666667,-5.498166666666667,-0.5379,-0.5576666666666666,-0.04200000000000026,-0.524,66.731,-0.0548,-0.217725,0.002000000000000668,100.0,1.0,1.0,205.85666666666668,0.0,0.0,0.0,0.0,0.0,0.0,0.0,8725.5,0.0,55.0,5.0,240.20333333333332,0.0,0.0,0.0,0.0,0.0,0.0,0.0,0.0,0.41100000000000136,0.41100000000000136,0.0,0.0,0.0,55.0,616.79921,10000.0,85.000001,85.000001,85.000001,85.000001,395.0,0.0,0.0,0.0,1.0,166.665,53.635,53.635,48.278999999999996,48.278999999999996,34.0,-24.7175,21.857999999999997,-30.916666666666664,25.62,0.0,1782.206,-0.3550000000000004,100.0,27.392,26.855,42.753,41.846000000000004,0.0,0.0,100.0,0.0,0.0,0.0,0.0,3049.142857142857,2912.3,4141.375,4067.2,305.728,305.454,314.73333333333335,314.6565,21.9,20.5614,21.8695,21.394,314.999998,314.999998,324.999988,324.999988,99.56145714285714,99.5076,99.56712857142857,99.5467,0.0405000000000002,-0.08466666666666656,-0.1684,0.05516666666666681,-0.04333333333332945,-0.03333333333333144,1.517,1.5230000000000001,37.875,29.509,37.684,34.7125,57.06,34.980000000000004,59.663,52.262,54.914,34.098,58.2605,50.5895,54.044,33.629,58.203,50.00066666666667,-0.10450000000000004,-0.044500000000000206,0.109465,0.10132500000000001,0.0,208.99,208.965,205.85666666666668,205.85666666666668,0.0,0.0
9,0.0,0.0,0.0,1.0,1.0,0.0,0.0,1.0,0.0,100.0,1.0,1.1856,26.0,0.0,0.0,0.0,59.999996,0.0,26.0,26.0,26.0,26.0,-0.028249999999999997,0.2922,-0.013733333333333335,293.106,-2.6206,-2.7248888888888887,-1.5507,-1.564888888888889,-245.6,216.1325,190.807875,0.0,0.0,0.0,0.0,0.019100000000000002,-5.498166666666667,-5.498166666666667,-0.5396000000000001,0.73,-0.03987499999999988,-0.29000000000000004,66.86500000000001,-0.030100000000000002,-0.21475,-0.1559999999999997,100.0,1.0,1.0,206.36666666666667,0.0,0.0,0.0,0.0,0.0,0.0,0.0,8747.2,0.0,55.0,5.0,240.68333333333334,1.0,0.0,0.0,0.0,0.0,0.0,0.0,0.0,0.45899999999999963,0.45899999999999963,0.0,0.0,1.0,55.0,616.79921,10000.0,85.000001,85.000001,85.000001,85.000001,395.0,0.0,0.0,0.0,1.0,166.665,52.429,52.429,49.118,49.118,34.0,-25.895,23.302,-29.383333333333333,26.05,0.0,1782.158,-0.4450000000000003,100.0,27.939,27.303,42.407,41.888,0.0,0.0,100.0,0.0,0.0,0.0,0.0,3348.5714285714284,2984.9,4057.5,4063.6000000000004,304.6975,305.15525,315.05733333333336,314.76775,21.9095,20.5665,21.8793,21.4025,314.999998,314.999998,324.999988,324.999988,99.56147142857142,99.50761666666666,99.56725714285714,99.54682857142858,0.06625000000000014,-0.06599999999999995,-0.14459999999999995,0.07350000000000012,-0.03166666666666629,-0.06333333333333258,1.5665,1.564,37.935,29.540666666666667,37.745000000000005,34.7655,57.046,35.016999999999996,59.6965,52.317,54.900999999999996,34.132,58.2915,50.6425,54.03,33.661500000000004,58.2315,50.05233333333334,-0.11399999999999988,-0.03849999999999998,0.10812000000000001,0.100815,0.0,209.41500000000002,209.435,206.36666666666667,206.36666666666667,0.0,0.0
10,0.0,0.0,0.0,1.0,1.0,0.0,0.0,1.0,0.0,100.0,1.0,1.1856,26.0,0.0,0.0,0.0,59.999996,0.0,26.0,26.0,26.0,26.0,0.016625000000000112,0.2943,0.05483333333333334,293.015,-2.7003,-2.7074444444444445,-1.5369000000000002,-1.5343333333333333,-242.18,216.10500000000002,190.787125,0.0,0.0,0.0,0.0,0.021066666666666668,-5.498166666666667,-5.498166666666667,-0.5205000000000001,-0.7113333333333334,0.009749999999999925,1.737,67.012,-0.0077,-0.207925,-0.516,100.0,1.0,1.0,206.62333333333333,0.0,0.0,0.0,0.0,0.0,0.0,0.0,8758.0,0.0,55.0,5.0,241.21333333333334,0.0,0.0,0.0,0.0,0.0,0.0,1.0,0.0,0.509999999999998,0.509999999999998,0.0,0.0,0.0,55.0,616.79921,10000.0,85.000001,85.000001,85.000001,85.000001,395.0,0.0,0.0,0.0,1.0,166.665,53.497,53.497,47.638,47.638,34.0,-21.037499999999998,23.982,-29.0,30.1075,0.0,1782.108,-0.5749999999999993,100.0,27.77,27.126,42.96,42.631,0.0,0.0,100.0,0.0,0.0,0.0,0.0,2825.714285714286,2985.4,4209.25,4325.1,306.2305,305.40625,314.50333333333333,314.13725,21.9194,20.5718,21.8899,21.4117,314.999998,314.999998,324.999988,324.999988,99.56148571428571,99.50761666666666,99.5674,99.54698571428571,0.08975,-0.038000000000000034,-0.10399999999999998,0.11183333333333323,-0.026666666666670835,-0.03499999999999659,1.4899999999999998,1.4745,37.997,29.573999999999998,37.812,34.823,57.03,35.053,59.7365,52.381,54.885999999999996,34.1655,58.329,50.7035,54.013999999999996,33.6935,58.266,50.11233333333333,-0.12149999999999994,-0.028000000000000025,0.10629500000000001,0.10813500000000001,0.0,209.835,209.86,206.62333333333333,206.62333333333333,0.0,0.0
11,0.0,0.0,0.0,1.0,1.0,0.0,0.0,1.0,0.0,100.0,1.0,1.1856,26.0,0.0,0.0,0.0,59.999996,0.0,26.0,26.0,26.0,26.0,0.046375000000000055,0.28700000000000014,-0.10293333333333334,293.503,-2.7092,-2.685,-1.5877,-1.5252222222222223,-238.76,216.0775,190.76625,0.0,0.0,0.0,0.0,0.022600000000000002,-5.498166666666667,-5.498166666666667,-0.5619000000000001,-0.032,0.02949999999999986,-0.7929999999999999,67.15,0.0118,-0.2351,-0.5839999999999996,100.0,1.0,1.0,207.36333333333334,0.0,0.0,0.0,0.0,0.0,0.0,0.0,8789.3,0.0,55.0,5.0,241.71,1.0,0.0,0.0,0.0,0.0,0.0,1.0,0.0,0.5609999999999999,0.5609999999999999,0.0,0.0,1.0,55.0,616.79921,10000.0,85.000001,85.000001,85.000001,85.000001,395.0,0.0,0.0,0.0,1.0,166.665,52.795,52.795,49.24,49.24,34.0,-22.7225,25.572000000000003,-24.6,26.512500000000003,0.0,1782.057,-0.6499999999999986,100.0,27.526,27.607,42.26,42.567,0.0,0.0,100.0,0.0,0.0,0.0,0.0,3085.142857142857,3086.3,3760.125,3868.6000000000004,305.5815,304.84825,315.786,315.25225,21.9292,20.5773,21.900199999999998,21.4207,314.999998,314.999998,324.999988,324.999988,99.5615,99.50761666666666,99.56754285714285,99.54711428571429,0.10199999999999987,-0.025000000000000022,-0.09220000000000006,0.13050000000000006,-0.03833333333332689,-0.036666666666668846,1.633,1.6219999999999999,38.058,29.608,37.876000000000005,34.8795,57.013999999999996,35.0905,59.7695,52.4395,54.870000000000005,34.2,58.3595,50.7605,53.998000000000005,33.727000000000004,58.2935,50.168,-0.12749999999999995,-0.027499999999999858,0.10423,0.10426,0.0,210.26,210.29000000000002,207.36333333333334,207.36333333333334,0.0,0.0
12,0.0,0.0,0.0,1.0,1.0,0.0,0.0,1.0,0.0,100.0,1.0,1.1856,26.0,0.0,0.0,0.0,59.999996,0.0,26.0,26.0,26.0,26.0,0.05025000000000013,0.2841,0.0118,292.862,-2.7536,-2.685666666666667,-1.5493000000000001,-1.5290000000000001,-235.74,216.055,190.74675,0.0,0.0,0.0,0.0,0.025466666666666665,-5.498166666666667,-5.498166666666667,-0.5467000000000001,0.2986666666666667,0.016249999999999876,0.647,67.278,0.0262,-0.20720000000000002,-0.7079999999999993,100.0,1.0,1.0,207.5233333333333,0.0,0.0,0.0,0.0,0.0,0.0,0.0,8796.1,0.0,55.0,5.0,242.17333333333335,0.0,0.0,0.0,0.0,0.0,0.0,1.0,0.0,0.6059999999999981,0.6059999999999981,0.0,0.0,0.0,55.0,616.79921,10000.0,85.000001,85.000001,85.000001,85.000001,395.0,0.0,0.0,0.0,1.0,333.33500000000004,52.719,52.719,47.897,47.897,34.0,-21.93,27.268,-27.246666666666663,31.165,0.0,1782.011,-0.6750000000000007,100.0,27.604,27.631,42.391999999999996,42.480000000000004,0.0,0.0,100.0,0.0,0.0,0.0,0.0,3041.4285714285716,3196.0,4183.75,4231.2,305.573,304.71775,314.63866666666667,314.40975,21.9378,20.5822,21.9095,21.4287,314.999998,314.999998,324.999988,324.999988,99.56151428571428,99.50761666666666,99.56767142857143,99.54724285714286,0.12524999999999986,-0.003666666666666596,-0.0756,0.15066666666666673,-0.046666666666666856,-0.06499999999999773,1.5190000000000001,1.4969999999999999,38.111000000000004,29.638666666666666,37.934,34.929,57.0,35.1235,59.8025,52.493,54.858000000000004,34.231,58.3905,50.8115,53.983999999999995,33.7565,58.322,50.218333333333334,-0.12850000000000006,-0.02499999999999991,0.11178,0.11004000000000001,0.0,210.675,210.73000000000002,207.5233333333333,207.5233333333333,0.0,0.0
13,0.0,0.0,0.0,1.0,1.0,0.0,0.0,1.0,0.0,100.0,1.0,1.1856,26.0,0.0,0.0,0.0,59.999996,0.0,26.0,26.0,26.0,26.0,0.08224999999999993,0.27870000000000017,0.037233333333333334,292.496,-2.7377,-2.671444444444444,-1.5911,-1.5415555555555558,-232.3,216.03,190.725,0.0,0.0,0.0,0.0,0.0268,-5.498166666666667,-5.498166666666667,-0.5398000000000001,-0.09433333333333332,0.02112500000000006,-0.43099999999999994,67.42099999999999,0.0368,-0.21652500000000002,-0.7839999999999998,100.0,1.0,1.0,207.90333333333334,0.0,0.0,0.0,0.0,0.0,0.0,0.0,8812.2,0.0,55.0,5.0,242.68333333333334,1.0,0.0,0.0,0.0,0.0,0.0,1.0,0.0,0.657,0.657,0.0,0.0,1.0,55.0,616.79921,10000.0,85.000001,85.000001,85.000001,85.000001,395.0,0.0,0.0,0.0,1.0,333.33500000000004,52.399,52.399,47.836,47.836,34.0,-21.6425,26.902,-27.903333333333336,31.7875,0.0,1781.96,-0.8200000000000003,100.0,27.743,27.999,42.542,43.124,0.0,0.0,100.0,0.0,0.0,0.0,0.0,3161.4285714285716,3092.3,4206.125,4290.9,305.3665,304.8465,314.6313333333333,314.15775,21.9476,20.5878,21.92,21.4379,314.999998,314.999998,324.999988,324.999988,99.56152857142857,99.50763333333333,99.56781428571429,99.5474,0.14700000000000024,0.009666666666666712,-0.0726,0.14500000000000002,-0.036666666666668846,-0.03999999999999915,1.4954999999999998,1.4815,38.173,29.673333333333332,38.0,34.987,56.988,35.161,59.8405,52.5565,54.846000000000004,34.2655,58.4255,50.8725,53.971000000000004,33.79,58.354,50.278,-0.15049999999999986,-0.008999999999999897,0.10804000000000001,0.09835,0.0,211.095,211.14499999999998,207.90333333333334,207.90333333333334,0.0,0.0
14,0.0,0.0,0.0,1.0,1.0,0.0,0.0,1.0,0.0,100.0,1.0,1.1856,26.0,0.0,0.0,0.0,59.999996,0.0,26.0,26.0,26.0,26.0,0.09149999999999991,0.28200000000000003,-0.0092,292.74,-2.7339,-2.616111111111111,-1.5988,-1.5121111111111112,-228.86,216.0075,190.70375,0.0,0.0,0.0,0.0,0.028800000000000003,-5.498166666666667,-5.498166666666667,-0.5491,-0.10333333333333333,0.053749999999999964,1.342,67.56,0.0494,-0.22885,-1.0380000000000003,100.0,1.0,1.0,208.41666666666669,0.0,0.0,0.0,0.0,0.0,0.0,0.0,8834.0,0.0,55.0,5.0,243.18666666666667,0.0,0.0,0.0,0.0,0.0,0.0,1.0,0.0,0.7079999999999984,0.7079999999999984,0.0,0.0,0.0,55.0,616.79921,10000.0,85.000001,85.000001,85.000001,85.000001,395.0,0.0,0.0,0.0,1.0,333.33500000000004,52.521,52.521,48.05,48.05,34.0,-19.565,28.439999999999998,-23.73666666666667,32.215,0.0,1781.908,-0.9299999999999997,100.0,27.783,27.938,42.582,43.233000000000004,0.0,0.0,100.0,0.0,0.0,0.0,0.0,2929.5714285714284,3263.0,3944.375,4230.0,305.862,304.51725,315.201,314.407,21.9574,20.5933,21.9305,21.4471,314.999998,314.999998,324.999988,324.999988,99.56154285714285,99.50763333333333,99.56795714285714,99.54754285714286,0.15675000000000017,0.02300000000000013,-0.032399999999999984,0.17766666666666686,-0.026666666666670835,-0.060000000000002274,1.5644999999999998,1.5230000000000001,38.233999999999995,29.708333333333336,38.066,35.0445,56.976,35.199,59.876,52.6185,54.834,34.3005,58.4585,50.9325,53.958,33.823499999999996,58.3835,50.336666666666666,-0.1519999999999999,-0.0045000000000001705,0.09493000000000001,0.107325,0.0,211.515,211.595,208.41666666666669,208.41666666666669,0.0,0.0
15,0.0,0.0,0.0,1.0,1.0,0.0,0.0,1.0,0.0,100.0,1.0,1.1856,26.0,0.0,0.0,0.0,59.999996,0.0,26.0,26.0,26.0,26.0,0.11325000000000007,0.28590000000000004,0.012633333333333333,292.77,-2.7115,-2.573666666666667,-1.6265,-1.4535555555555557,-225.62,215.9875,190.683375,0.0,0.0,0.0,0.0,0.0307,-5.498166666666667,-5.498166666666667,-0.5393,0.27266666666666667,0.08299999999999996,0.917,67.69200000000001,0.06380000000000001,-0.2087,-1.226,100.0,1.0,1.0,208.81,0.0,0.0,0.0,0.0,0.0,0.0,0.0,8850.7,0.0,55.0,5.0,243.66,1.0,0.0,0.0,0.0,0.0,0.0,1.0,0.0,0.7560000000000002,0.7560000000000002,0.0,0.0,1.0,55.0,616.79921,10000.0,85.000001,85.000001,85.000001,85.000001,395.0,0.0,0.0,0.0,1.0,333.33500000000004,52.78,52.78,48.096000000000004,48.096000000000004,34.0,-17.64,28.588,-24.016666666666666,34.2375,0.0,1781.86,-0.9450000000000003,100.0,27.743,27.944,42.325,43.325,0.0,0.0,100.0,0.0,0.0,0.0,0.0,2784.0,3242.0,3943.875,4407.3,306.282,304.57,315.239,314.00225,21.9665,20.5986,21.9403,21.4558,314.999998,314.999998,324.999988,324.999988,99.56155714285714,99.50763333333333,99.56808571428571,99.54767142857143,0.17249999999999988,0.04033333333333333,-0.030399999999999983,0.19866666666666677,-0.03499999999999659,-0.05333333333332746,1.5499999999999998,1.5,38.291,29.741333333333333,38.126999999999995,35.0985,56.965,35.235,59.908,52.677,54.823,34.334,58.488,50.989,53.946,33.8555,58.4105,50.39233333333333,-0.15399999999999991,-0.0009999999999998899,0.10600000000000001,0.10909500000000001,0.0,211.945,212.01,208.81,208.81,0.0,0.0
16,0.0,0.0,0.0,1.0,1.0,0.0,0.0,1.0,0.0,100.0,1.0,1.1856,26.0,0.0,0.0,0.0,59.999996,0.0,26.0,26.0,26.0,26.0,0.11224999999999996,0.27659999999999996,-0.0038,292.77,-2.7975,-2.587888888888889,-1.5973000000000002,-1.5176666666666667,-221.96,215.9675,190.66,0.0,0.0,0.0,0.0,0.03283333333333333,-5.498166666666667,-5.498166666666667,-0.5630000000000001,-0.6383333333333334,0.06600000000000006,0.10099999999999998,67.839,0.0765,-0.2268,-1.194,100.0,1.0,1.0,209.28,0.0,0.0,0.0,0.0,0.0,0.0,0.0,8870.6,0.0,55.0,5.0,244.19666666666666,0.0,0.0,0.0,0.0,0.0,0.0,1.0,0.0,0.8099999999999987,0.8099999999999987,0.0,0.0,0.0,55.0,616.79921,10000.0,85.000001,85.000001,85.000001,85.000001,395.0,0.0,0.0,0.0,1.0,166.665,52.505,52.505,48.004,48.004,34.0,-20.1875,29.944,-22.406666666666666,32.760000000000005,0.0,1781.808,-0.879999999999999,100.0,27.392,28.017,42.536,43.411,0.0,0.0,100.0,0.0,0.0,0.0,0.0,3019.285714285714,3345.6,3899.875,4131.7,305.7835,304.30225,315.32233333333335,314.6045,21.9765,20.6046,21.9514,21.4655,314.999998,314.999998,324.999988,324.999988,99.56157142857143,99.50765,99.56824285714286,99.54784285714285,0.16774999999999984,0.045666666666666744,-0.013399999999999967,0.2038333333333333,-0.03999999999999915,-0.061666666666667425,1.5755,1.5255,38.352999999999994,29.778666666666666,38.196,35.1595,56.948,35.2765,59.947,52.742,54.808,34.3725,58.5245,51.052,53.93,33.8925,58.443,50.454,-0.14449999999999985,-0.0024999999999999467,0.10214000000000001,0.10477,0.0,212.35500000000002,212.445,209.28,209.28,0.0,0.0
17,0.0,0.0,0.0,1.0,1.0,0.0,0.0,1.0,0.0,100.0,1.0,1.1856,26.0,0.0,0.0,0.0,59.999996,0.0,26.0,26.0,26.0,26.0,0.12624999999999997,0.2876000000000001,0.0262,292.328,-2.7657,-2.5635555555555554,-1.6434000000000002,-1.4755555555555557,-218.49,215.9525,190.637375,0.0,0.0,0.0,0.0,0.034833333333333334,-5.498166666666667,-5.498166666666667,-0.5484,0.41600000000000004,0.04812499999999997,-0.595,67.979,0.0781,-0.205875,-1.0839999999999996,100.0,1.0,1.0,209.62,0.0,0.0,0.0,0.0,0.0,0.0,0.0,8885.1,0.0,55.0,5.0,244.69333333333333,1.0,0.0,0.0,0.0,0.0,0.0,1.0,0.0,0.8610000000000007,0.8610000000000007,0.0,0.0,1.0,55.0,616.79921,10000.0,85.000001,85.000001,85.000001,85.000001,395.0,0.0,0.0,0.0,1.0,166.665,52.353,52.353,47.546,47.546,34.0,-20.1575,27.502000000000002,-27.35333333333333,33.745000000000005,0.0,1781.757,-1.004999999999999,100.0,27.713,28.426000000000002,42.297,43.536,0.0,0.0,100.0,0.0,0.0,0.0,0.0,3112.142857142857,3109.9,4333.125,4327.3,305.561,304.842,314.4433333333333,314.1535,21.9862,20.6103,21.9618,21.4747,314.999998,314.999998,324.999988,324.999988,99.5616,99.50765,99.56838571428571,99.54798571428572,0.17675000000000018,0.044333333333333336,-0.03539999999999999,0.1948333333333332,-0.04999999999999716,-0.026666666666670835,1.5299999999999998,1.4845000000000002,38.414,29.814333333333334,38.260999999999996,35.217,56.938,35.317,59.982,52.804,54.798,34.41,58.5565,51.1115,53.919,33.929,58.4725,50.51233333333333,-0.15849999999999986,0.0009999999999998899,0.10614000000000001,0.10498500000000001,0.0,212.835,212.905,209.62,209.62,0.0,0.0
18,0.0,0.0,0.0,1.0,1.0,0.0,0.0,1.0,0.0,100.0,1.0,1.1856,26.0,0.0,0.0,0.0,59.999996,0.0,26.0,26.0,26.0,26.0,0.12737500000000002,0.2704,-0.008033333333333333,292.45,-2.7963,-2.5394444444444444,-1.6568,-1.4224444444444444,-215.43,215.9425,190.61775,0.0,0.0,0.0,0.0,0.03663333333333333,-5.498166666666667,-5.498166666666667,-0.56,-0.511,0.07424999999999993,1.068,68.1,0.0814,-0.2235,-1.3439999999999994,100.0,1.0,1.0,210.04666666666668,0.0,0.0,0.0,0.0,0.0,0.0,0.0,8903.1,0.0,55.0,5.0,245.13333333333333,0.0,0.0,0.0,0.0,0.0,0.0,1.0,0.0,0.9059999999999988,0.9059999999999988,0.0,0.0,0.0,55.0,616.79921,10000.0,85.000001,85.000001,85.000001,85.000001,395.0,0.0,0.0,0.0,1.0,333.33500000000004,52.322,52.322,47.668,47.668,34.0,-18.8375,30.624,-23.990000000000002,33.004999999999995,0.0,1781.71,-1.1950000000000003,100.0,27.626,28.149,42.64,43.789,0.0,0.0,100.0,0.0,0.0,0.0,0.0,2991.4285714285716,3384.0,4009.25,4242.4,305.8135,304.22475,315.1073333333333,314.4055,21.9946,20.6153,21.9711,21.4829,314.999998,314.999998,324.999988,324.999988,99.56162857142857,99.50766666666667,99.56851428571429,99.54811428571429,0.1955,0.06366666666666676,-0.013000000000000012,0.21266666666666678,-0.03166666666666629,-0.06666666666666998,1.5550000000000002,1.501,38.466,29.845666666666666,38.319,35.2685,56.928,35.3525,60.013999999999996,52.86,54.788,34.442499999999995,58.5865,51.1655,53.908,33.960499999999996,58.4995,50.565333333333335,-0.17100000000000004,0.01200000000000001,0.10934500000000001,0.10266000000000002,0.0,213.16,213.265,210.04666666666668,210.04666666666668,0.0,0.0
19,0.0,0.0,0.0,1.0,1.0,0.0,0.0,1.0,0.0,100.0,1.0,1.1856,26.0,0.0,0.0,0.0,59.999996,0.0,26.0,26.0,26.0,26.0,0.11762500000000009,0.28990000000000005,0.059166666666666666,291.916,-2.7162,-2.637666666666667,-1.6684,-1.4094444444444443,-211.75,215.935,190.59375,0.0,0.0,0.0,0.0,0.03876666666666667,-5.498166666666667,-5.498166666666667,-0.5474,0.8213333333333334,0.07887500000000003,0.5569999999999999,68.24600000000001,0.0942,-0.21002500000000002,-1.2279999999999998,100.0,1.0,1.0,210.42000000000002,0.0,0.0,0.0,0.0,0.0,0.0,0.0,8919.0,0.0,55.0,5.0,245.65666666666667,1.0,0.0,0.0,0.0,0.0,0.0,1.0,0.0,0.9600000000000009,0.9600000000000009,0.0,0.0,1.0,55.0,616.79921,10000.0,85.000001,85.000001,85.000001,85.000001,395.0,0.0,0.0,0.0,1.0,166.665,51.788,51.788,47.302,47.302,34.0,-19.9325,29.062,-25.306666666666665,35.94,0.0,1781.658,-0.3550000000000004,100.0,28.139,28.671,42.434,43.783,0.0,0.0,100.0,0.0,0.0,0.0,0.0,2980.857142857143,3298.3,4221.25,4531.6,305.668,304.2015,314.6413333333333,313.75625,22.0048,20.6215,21.9821,21.4927,314.999998,314.999998,324.999988,324.999988,99.56164285714286,99.50766666666667,99.56867142857143,99.54827142857143,0.15549999999999997,0.01766666666666672,-0.0037999999999999146,0.21833333333333327,-0.045000000000001705,-0.04999999999999716,1.5150000000000001,1.4699999999999998,38.53,29.884666666666668,38.388,35.329499999999996,56.917,35.397,60.05,52.9265,54.777,34.484,58.62,51.2295,53.896,34.0,58.5295,50.62866666666667,-0.11349999999999993,-0.046499999999999986,0.10462500000000001,0.102635,0.0,213.67000000000002,213.755,210.42000000000002,210.42000000000002,0.0,0.0
20,0.0,0.0,0.0,1.0,1.0,0.0,0.0,1.0,0.0,100.0,1.0,1.1856,26.0,0.0,0.0,0.0,59.999996,0.0,26.0,26.0,26.0,26.0,0.10475000000000012,0.2552000000000001,-0.02606666666666667,292.389,-2.8087,-2.6003333333333334,-1.5817999999999999,-1.5433333333333332,-208.26999999999998,215.93,190.571375,0.0,0.0,0.0,0.0,0.0408,-5.498166666666667,-5.498166666666667,-0.5587,-1.1556666666666668,0.06137499999999996,-1.249,68.384,0.0872,-0.22655,-0.44599999999999973,100.0,1.0,1.0,210.82333333333332,0.0,0.0,0.0,0.0,0.0,0.0,0.0,8936.1,0.0,55.0,5.0,246.15666666666667,0.0,0.0,0.0,0.0,0.0,0.0,0.0,0.0,1.0109999999999992,1.0109999999999992,0.0,0.0,0.0,55.0,616.79921,10000.0,85.000001,85.000001,85.000001,85.000001,395.0,0.0,0.0,0.0,1.0,166.665,52.704,52.704,47.15,47.15,34.0,-21.96,25.586,-24.990000000000002,33.245000000000005,0.0,1781.607,0.14499999999999957,100.0,27.423000000000002,28.355,42.966,44.194,0.0,0.0,100.0,0.0,0.0,0.0,0.0,2979.142857142857,3120.8,4124.875,4169.5,306.0105,304.789,314.804,314.40675,22.0142,20.6272,21.9927,21.5021,314.999998,314.999998,324.999988,324.999988,99.56165714285714,99.50766666666667,99.56881428571428,99.54842857142857,0.11750000000000016,-0.014000000000000012,-0.031000000000000028,0.1911666666666667,-0.04999999999999716,-0.01666666666666572,1.4985,1.48,38.589,29.919666666666664,38.455,35.388,56.9,35.4335,60.088499999999996,52.99,54.760999999999996,34.5185,58.6555,51.291,53.879000000000005,34.033,58.562,50.68866666666666,-0.06699999999999995,-0.08650000000000002,0.10866,0.10144500000000001,0.0,214.06,214.075,210.82333333333332,210.82333333333332,0.0,0.0
21,0.0,0.0,0.0,1.0,1.0,0.0,0.0,1.0,0.0,100.0,1.0,1.1856,26.0,0.0,0.0,0.0,59.999996,0.0,26.0,26.0,26.0,26.0,0.040999999999999925,0.2811000000000001,-0.07576666666666666,292.648,-2.6989,-2.676555555555556,-1.6304,-1.5182222222222221,-205.19,215.9275,190.551,0.0,0.0,0.0,0.0,0.04256666666666667,-5.498166666666667,-5.498166666666667,-0.5771000000000001,0.5103333333333333,0.029749999999999943,-0.15500000000000003,68.5,0.061000000000000006,-0.22360000000000002,0.07000000000000028,100.0,1.0,1.0,211.4,0.0,0.0,0.0,0.0,0.0,0.0,0.0,8960.4,0.0,55.0,5.0,246.57333333333332,1.0,0.0,0.0,0.0,0.0,0.0,0.0,0.0,1.056000000000001,1.056000000000001,0.0,0.0,1.0,55.0,616.79921,10000.0,85.000001,85.000001,85.000001,85.000001,395.0,0.0,0.0,0.0,1.0,333.33500000000004,52.292,52.292,48.218,48.218,34.0,-22.3675,25.978,-25.793333333333337,29.72,0.0,1781.56,0.34499999999999886,100.0,28.011,28.245,42.551,43.501,0.0,0.0,100.0,0.0,0.0,0.0,0.0,3015.5714285714284,3166.3,4004.75,4021.1000000000004,305.6065,304.75175,315.203,314.95925,22.0227,20.6322,22.0018,21.509999999999998,314.999998,314.999998,324.999988,324.999988,99.56167142857143,99.50768333333333,99.56892857142857,99.54854285714286,0.10024999999999995,-0.02833333333333332,-0.06059999999999999,0.1691666666666667,-0.051666666666669414,-0.060000000000002274,1.5884999999999998,1.5825,38.641999999999996,29.951333333333334,38.510999999999996,35.4375,56.888,35.4685,60.116,53.0405,54.75,34.5505,58.681,51.34,53.867000000000004,34.064,58.5845,50.736666666666665,-0.04699999999999993,-0.10400000000000009,0.11227500000000001,0.105965,0.0,214.485,214.48000000000002,211.4,211.4,0.0,0.0
22,0.0,0.0,0.0,1.0,1.0,0.0,0.0,1.0,0.0,100.0,1.0,1.1856,26.0,0.0,0.0,0.0,59.999996,0.0,26.0,26.0,26.0,26.0,0.021374999999999922,0.2613000000000001,0.014466666666666666,292.13,-2.6685,-2.6934444444444443,-1.6111,-1.5212222222222223,-201.69,215.9275,190.527125,0.0,0.0,0.0,0.0,0.0446,-5.498166666666667,-5.498166666666667,-0.5565,0.07266666666666667,0.018000000000000016,-0.754,68.639,0.021400000000000002,-0.20485,0.6479999999999997,100.0,1.0,1.0,211.61333333333334,0.0,0.0,0.0,0.0,0.0,0.0,0.0,8969.5,0.0,55.0,5.0,247.07333333333332,0.0,0.0,0.0,0.0,0.0,0.0,0.0,0.0,1.1069999999999993,1.1069999999999993,0.0,0.0,0.0,55.0,616.79921,10000.0,85.000001,85.000001,85.000001,85.000001,395.0,0.0,0.0,0.0,1.0,333.33500000000004,52.383,52.383,47.104,47.104,34.0,-23.3425,23.18,-30.909999999999997,29.887500000000003,0.0,1781.51,0.35999999999999943,100.0,28.075,28.368000000000002,43.149,43.726,0.0,0.0,100.0,0.0,0.0,0.0,0.0,3038.4285714285716,3018.4,4280.375,4282.7,305.69,305.00425,314.5276666666667,314.26775,22.0324,20.6379,22.0124,21.5193,314.999998,314.999998,324.999988,324.999988,99.56168571428572,99.50768333333333,99.56908571428572,99.5487,0.0714999999999999,-0.07266666666666666,-0.1107999999999999,0.11766666666666681,-0.041666666666671404,-0.041666666666671404,1.476,1.4895,38.703,29.986666666666665,38.578,35.4955,56.873000000000005,35.5075,60.155,53.1025,54.735,34.5865,58.717,51.399,53.851,34.099000000000004,58.6175,50.794666666666664,-0.04849999999999999,-0.10899999999999999,0.1062,0.10638,0.0,214.94,214.865,211.61333333333334,211.61333333333334,0.0,0.0
23,0.0,0.0,0.0,1.0,1.0,0.0,0.0,1.0,0.0,100.0,1.0,1.1856,26.0,0.0,0.0,0.0,59.999996,0.0,26.0,26.0,26.0,26.0,-0.03374999999999995,0.2582,-0.013666666666666667,292.13,-2.6692,-2.670777777777778,-1.5213,-1.606,-198.18,215.925,190.50375,0.0,0.0,0.0,0.0,0.04663333333333333,-5.498166666666667,-5.498166666666667,-0.5754,-0.244,-0.0027500000000002522,0.23399999999999999,68.772,-0.013300000000000001,-0.231325,0.7479999999999993,100.0,1.0,1.0,212.14,0.0,0.0,0.0,0.0,0.0,0.0,0.0,8991.9,0.0,55.0,5.0,247.55666666666667,1.0,0.0,0.0,0.0,0.0,0.0,0.0,0.0,1.1580000000000013,1.1580000000000013,0.0,0.0,1.0,55.0,616.79921,10000.0,85.000001,85.000001,85.000001,85.000001,395.0,0.0,0.0,0.0,1.0,333.33500000000004,51.697,51.697,48.126,48.126,34.0,-26.0125,23.637999999999998,-27.766666666666666,26.655,0.0,1781.458,0.33000000000000185,100.0,28.626,28.154,43.537,43.695,0.0,0.0,100.0,0.0,0.0,0.0,0.0,3260.0,3152.3,3922.0,3968.9,304.8725,304.873,315.25266666666664,314.993,22.0422,20.6435,22.023,21.5285,314.999998,314.999998,324.999988,324.999988,99.56168571428572,99.50768333333333,99.56922857142857,99.54884285714286,0.06150000000000011,-0.07699999999999996,-0.133,0.08633333333333337,-0.06666666666666998,-0.04833333333333201,1.5105,1.5465,38.763999999999996,30.022,38.644,35.5535,56.857,35.5475,60.191,53.163,54.72,34.624,58.751,51.457499999999996,53.835,34.1345,58.647999999999996,50.85166666666667,-0.05449999999999999,-0.10899999999999999,0.10818000000000001,0.10189500000000001,0.0,215.35000000000002,215.26999999999998,212.14,212.14,0.0,0.0
24,0.0,0.0,0.0,1.0,1.0,0.0,0.0,1.0,0.0,100.0,1.0,1.1856,26.0,0.0,0.0,0.0,59.999996,0.0,26.0,26.0,26.0,26.0,-0.06525000000000003,0.2634000000000001,-0.0853,292.358,-2.6825,-2.692333333333333,-1.5546,-1.5566666666666669,-194.88,215.925,190.481125,0.0,0.0,0.0,0.0,0.04856666666666667,-5.498166666666667,-5.498166666666667,-0.5796,-0.5913333333333334,-0.004125000000000156,0.974,68.901,-0.0318,-0.21760000000000002,0.6760000000000002,100.0,1.0,1.0,212.42333333333335,0.0,0.0,0.0,0.0,0.0,0.0,0.0,9003.9,0.0,55.0,5.0,248.01666666666665,0.0,0.0,0.0,0.0,0.0,0.0,0.0,0.0,1.2059999999999995,1.2059999999999995,0.0,0.0,0.0,55.0,616.79921,10000.0,85.000001,85.000001,85.000001,85.000001,395.0,0.0,0.0,0.0,1.0,166.665,52.856,52.856,47.089,47.089,34.0,-23.9575,21.152,-32.263333333333335,26.7225,0.0,1781.411,0.3049999999999997,100.0,28.371,27.85,43.686,43.446,0.0,0.0,100.0,0.0,0.0,0.0,0.0,2939.142857142857,2956.3,4283.5,4134.1,305.8875,305.50675,314.39033333333333,314.68,22.0513,20.6486,22.033,21.5371,314.999998,314.999998,324.999988,324.999988,99.5617,99.5077,99.56937142857143,99.54898571428572,0.0402499999999999,-0.10099999999999998,-0.14839999999999998,0.07433333333333336,-0.02833333333332888,-0.05666666666667197,1.4954999999999998,1.5139999999999998,38.821,30.053666666666665,38.706,35.607,56.84,35.584,60.227000000000004,53.2175,54.704,34.6575,58.7845,51.5105,53.818,34.1665,58.6785,50.903333333333336,-0.05699999999999994,-0.10250000000000004,0.109655,0.10885,0.0,215.72500000000002,215.67000000000002,212.42333333333335,212.42333333333335,0.0,0.0
25,0.0,0.0,0.0,1.0,1.0,0.0,0.0,1.0,0.0,100.0,1.0,1.1856,26.0,0.0,0.0,0.0,59.999996,0.0,26.0,26.0,26.0,26.0,-0.053749999999999964,0.2603,-0.05126666666666667,292.252,-2.7444,-2.6575555555555557,-1.5619,-1.5662222222222222,-191.36,215.92000000000002,190.45575,0.0,0.0,0.0,0.0,0.0506,-5.498166666666667,-5.498166666666667,-0.6122000000000001,0.046,-0.012375000000000025,-1.3559999999999999,69.033,-0.0448,-0.22545,0.71,100.0,1.0,1.0,212.98000000000002,0.0,0.0,0.0,0.0,0.0,0.0,0.0,9027.4,0.0,55.0,5.0,248.49,1.0,0.0,0.0,0.0,0.0,0.0,0.0,0.0,1.256999999999998,1.256999999999998,0.0,0.0,1.0,55.0,616.79921,10000.0,85.000001,85.000001,85.000001,85.000001,395.0,0.0,0.0,0.0,1.0,166.665,51.757999999999996,51.757999999999996,47.928,47.928,34.0,-29.02,22.622,-30.233333333333334,24.9125,0.0,1781.36,0.26500000000000057,100.0,28.225,28.143,43.364000000000004,43.123000000000005,0.0,0.0,100.0,0.0,0.0,0.0,0.0,3388.857142857143,3194.4,4000.625,3978.7,304.825,304.598,315.20466666666664,315.006,22.0609,20.6542,22.0434,21.5462,314.999998,314.999998,324.999988,324.999988,99.5617,99.50771666666667,99.56951428571429,99.54912857142857,0.02950000000000008,-0.1093333333333334,-0.16659999999999997,0.0648333333333333,-0.051666666666669414,-0.04833333333333201,1.556,1.6019999999999999,38.881,30.08866666666667,38.771,35.664,56.821,35.625,60.260999999999996,53.274,54.686,34.695499999999996,58.816,51.5645,53.8,34.203,58.707499999999996,50.95666666666666,-0.06499999999999995,-0.10550000000000015,0.11018000000000001,0.10541500000000001,0.0,216.14,216.07,212.98000000000002,212.98000000000002,0.0,0.0
26,0.0,0.0,0.0,1.0,1.0,0.0,0.0,1.0,0.0,100.0,1.0,1.1856,26.0,0.0,0.0,0.0,59.999996,0.0,26.0,26.0,26.0,26.0,-0.08462499999999995,0.2724,0.091,291.10699999999997,-2.6734,-2.755,-1.596,-1.5735555555555556,-187.84,215.91500000000002,190.43,0.0,0.0,0.0,0.0,0.05266666666666667,-5.498166666666667,-5.498166666666667,-0.5699000000000001,0.6793333333333333,-0.04062499999999991,0.613,69.169,-0.05,-0.196325,0.5839999999999996,100.0,1.0,1.0,213.11666666666667,0.0,0.0,0.0,0.0,0.0,0.0,0.0,9033.3,0.0,55.0,5.0,248.98000000000002,0.0,0.0,0.0,0.0,0.0,0.0,0.0,0.0,1.3079999999999998,1.3079999999999998,0.0,0.0,0.0,55.0,616.79921,10000.0,85.000001,85.000001,85.000001,85.000001,395.0,0.0,0.0,0.0,1.0,333.33500000000004,51.422,51.422,46.126999999999995,46.126999999999995,34.0,-26.3875,22.734,-36.81666666666666,29.515,0.0,1781.308,0.10000000000000142,100.0,29.322,28.486,44.118,43.39,0.0,0.0,100.0,0.0,0.0,0.0,0.0,3207.142857142857,3076.1,4599.75,4514.9,305.0455,305.01775,313.73466666666667,313.82575,22.0708,20.6599,22.054,21.5555,314.999998,314.999998,324.999988,324.999988,99.5617,99.50773333333333,99.56965714285714,99.54927142857143,0.042749999999999844,-0.10366666666666657,-0.16159999999999997,0.061833333333333185,-0.04333333333332945,-0.060000000000002274,1.4180000000000001,1.4375,38.943,30.124333333333333,38.838,35.722,56.807,35.6685,60.3015,53.3345,54.672,34.7355,58.854,51.623,53.785,34.2415,58.742,51.013333333333335,-0.07250000000000001,-0.0950000000000002,0.10959500000000001,0.10477,0.0,216.615,216.53,213.11666666666667,213.11666666666667,0.0,0.0
27,0.0,0.0,0.0,1.0,1.0,0.0,0.0,1.0,0.0,100.0,1.0,1.1856,26.0,0.0,0.0,0.0,59.999996,0.0,26.0,26.0,26.0,26.0,-0.06787500000000002,0.24250000000000016,-0.027433333333333334,291.641,-2.6406,-2.7223333333333333,-1.5862,-1.644777777777778,-184.51,215.91,190.406875,0.0,0.0,0.0,0.0,0.0546,-5.498166666666667,-5.498166666666667,-0.5977,-1.046,-0.03987499999999988,0.802,69.292,-0.049100000000000005,-0.243425,0.44399999999999995,100.0,1.0,1.0,213.62666666666667,0.0,0.0,0.0,0.0,0.0,0.0,0.0,9054.9,0.0,55.0,5.0,249.42666666666668,1.0,0.0,0.0,0.0,0.0,0.0,0.0,0.0,1.355999999999998,1.355999999999998,0.0,0.0,1.0,55.0,616.79921,10000.0,85.000001,85.000001,85.000001,85.000001,395.0,0.0,0.0,0.0,1.0,166.665,51.804,51.804,46.661,46.661,34.0,-25.259999999999998,23.102,-31.563333333333333,27.122500000000002,0.0,1781.261,0.03500000000000014,100.0,29.009,28.239,44.756,43.941,0.0,0.0,100.0,0.0,0.0,0.0,0.0,3119.5714285714284,3139.3,4109.375,4044.9,305.3155,304.934,314.82533333333333,314.811,22.0798,20.6651,22.0642,21.5643,314.999998,314.999998,324.999988,324.999988,99.56171428571429,99.50775,99.56981428571429,99.54941428571429,0.042749999999999844,-0.09799999999999998,-0.15739999999999998,0.0688333333333333,-0.023333333333326323,-0.03999999999999915,1.4954999999999998,1.5034999999999998,38.998999999999995,30.157,38.900999999999996,35.777,56.79,35.7065,60.339,53.3915,54.657,34.7705,58.8895,51.6775,53.769,34.275,58.774,51.06633333333333,-0.07699999999999996,-0.08450000000000024,0.104285,0.113,0.0,216.89499999999998,216.865,213.62666666666667,213.62666666666667,0.0,0.0
28,0.0,0.0,0.0,1.0,1.0,0.0,0.0,1.0,0.0,100.0,1.0,1.1856,26.0,0.0,0.0,0.0,59.999996,0.0,26.0,26.0,26.0,26.0,-0.04412499999999997,0.25980000000000003,-0.05416666666666667,291.84,-2.679,-2.699111111111111,-1.5396,-1.6027777777777779,-180.98000000000002,215.9,190.3815,0.0,0.0,0.0,0.0,0.056666666666666664,-5.498166666666667,-5.498166666666667,-0.6003000000000001,0.649,-0.041625000000000245,-0.497,69.423,-0.047,-0.2154,0.4039999999999999,100.0,1.0,1.0,214.12,0.0,0.0,0.0,0.0,0.0,0.0,0.0,9075.8,0.0,55.0,5.0,249.89333333333335,0.0,0.0,0.0,0.0,0.0,0.0,0.0,0.0,1.407,1.407,0.0,0.0,0.0,55.0,616.79921,10000.0,85.000001,85.000001,85.000001,85.000001,395.0,0.0,0.0,0.0,1.0,166.665,51.712,51.712,47.516,47.516,34.0,-26.66,22.02,-30.923333333333332,26.805,0.0,1781.21,-0.09999999999999787,100.0,28.892,28.378,43.92,43.466,0.0,0.0,100.0,0.0,0.0,0.0,0.0,3282.714285714286,2990.1,4139.625,4105.4,304.956,305.18475,314.937,314.709,22.0895,20.6708,22.0745,21.5734,314.999998,314.999998,324.999988,324.999988,99.56172857142857,99.50775,99.56995714285715,99.54955714285714,0.05049999999999999,-0.09399999999999997,-0.16059999999999997,0.06833333333333336,-0.026666666666670835,-0.061666666666667425,1.536,1.5390000000000001,39.06,30.192333333333334,38.965,35.8335,56.775,35.747,60.3725,53.4475,54.641999999999996,34.808,58.92,51.7315,53.754000000000005,34.311,58.802,51.119,-0.09450000000000003,-0.07200000000000006,0.10175000000000001,0.11112000000000001,0.0,217.35000000000002,217.325,214.12,214.12,0.0,0.0
29,0.0,0.0,0.0,1.0,1.0,0.0,0.0,1.0,0.0,100.0,1.0,1.1856,26.0,0.0,0.0,0.0,59.999996,0.0,26.0,26.0,26.0,26.0,-0.044875,0.2552000000000001,0.011833333333333333,291.58,-2.6208,-2.753111111111111,-1.5423,-1.5766666666666669,-177.43,215.89,190.355125,0.0,0.0,0.0,0.0,0.0587,-5.498166666666667,-5.498166666666667,-0.6064,-0.6896666666666667,-0.0338750000000001,0.778,69.557,-0.0368,-0.21825,0.12399999999999967,100.0,1.0,1.0,214.37,0.0,0.0,0.0,0.0,0.0,0.0,0.0,9086.4,0.0,55.0,5.0,250.37666666666667,1.0,0.0,0.0,0.0,0.0,0.0,0.0,0.0,1.4579999999999984,1.4579999999999984,0.0,0.0,1.0,55.0,616.79921,10000.0,85.000001,85.000001,85.000001,85.000001,395.0,0.0,0.0,0.0,1.0,333.33500000000004,51.849000000000004,51.849000000000004,46.616,46.616,34.0,-24.96,24.206,-30.880000000000003,28.7025,0.0,1781.158,-0.134999999999998,100.0,28.703,28.139,44.384,43.707,0.0,0.0,100.0,0.0,0.0,0.0,0.0,3178.142857142857,3135.0,4197.875,4260.9,305.1775,304.8285,314.5833333333333,314.353,22.099,20.6763,22.0851,21.5827,314.999998,314.999998,324.999988,324.999988,99.56172857142857,99.50776666666667,99.5701,99.54971428571429,0.05675000000000008,-0.08099999999999996,-0.13739999999999997,0.08366666666666678,-0.023333333333326323,-0.03833333333332689,1.4754999999999998,1.4849999999999999,39.119,30.227,39.032,35.891999999999996,56.757,35.786,60.411500000000004,53.507999999999996,54.625,34.8445,58.957,51.789500000000004,53.736000000000004,34.346000000000004,58.835499999999996,51.175666666666665,-0.09199999999999986,-0.06349999999999989,0.10323500000000001,0.110755,0.0,217.70499999999998,217.69,214.37,214.37,0.0,0.0
30,0.0,0.0,0.0,1.0,1.0,0.0,0.0,1.0,0.0,100.0,1.0,1.1856,26.0,0.0,0.0,0.0,59.999996,0.0,26.0,26.0,26.0,26.0,-0.02774999999999994,0.26580000000000004,0.06603333333333335,291.077,-2.6798,-2.6368888888888886,-1.5190000000000001,-1.6352222222222221,-174.09,215.88,190.330125,0.0,0.0,0.0,0.0,0.06066666666666667,-5.498166666666667,-5.498166666666667,-0.6023000000000001,0.8123333333333334,-0.033250000000000224,0.7929999999999999,69.678,-0.027800000000000002,-0.215875,0.09600000000000009,100.0,1.0,1.0,214.80333333333334,0.0,0.0,0.0,0.0,0.0,0.0,0.0,9104.8,0.0,55.0,5.0,250.81333333333333,0.0,0.0,0.0,0.0,0.0,0.0,1.0,0.0,1.5060000000000002,1.5060000000000002,0.0,0.0,0.0,55.0,616.79921,10000.0,85.000001,85.000001,85.000001,85.000001,395.0,0.0,0.0,0.0,1.0,333.33500000000004,50.812,50.812,46.921,46.921,34.0,-26.2575,23.706,-30.406666666666666,29.939999999999998,0.0,1781.111,-0.1750000000000007,100.0,29.546,28.832,44.182,43.766,0.0,0.0,100.0,0.0,0.0,0.0,0.0,3353.857142857143,3176.2,4226.375,4229.5,304.634,304.72725,314.6046666666667,314.39225,22.1083,20.6819,22.095,21.5914,314.999998,314.999998,324.999988,324.999988,99.56174285714286,99.50778333333334,99.57024285714286,99.54985714285715,0.0767500000000001,-0.07566666666666666,-0.13339999999999996,0.09616666666666673,-0.03499999999999659,-0.05833333333333002,1.492,1.4985,39.177,30.261666666666667,39.094,35.9465,56.745000000000005,35.826,60.444,53.563,54.614000000000004,34.8815,58.987,51.842,53.724000000000004,34.3815,58.863,51.227000000000004,-0.10149999999999992,-0.06999999999999984,0.109185,0.10719000000000001,0.0,218.13,218.13,214.80333333333334,214.80333333333334,0.0,0.0
31,0.0,0.0,0.0,1.0,1.0,0.0,0.0,1.0,0.0,100.0,1.0,1.1856,26.0,0.0,0.0,0.0,59.999996,0.0,26.0,26.0,26.0,26.0,-0.018874999999999975,0.2553000000000001,-0.00013333333333333334,290.878,-2.7468,-2.617,-1.5687,-1.6280000000000001,-170.32,215.8675,190.302875,0.0,0.0,0.0,0.0,0.06283333333333334,-5.498166666666667,-5.498166666666667,-0.5924,-0.649,-0.02400000000000002,0.623,69.81700000000001,-0.0142,-0.2242,-0.09799999999999986,100.0,1.0,1.0,215.14,0.0,0.0,0.0,0.0,0.0,0.0,0.0,9119.0,0.0,55.0,5.0,251.31666666666666,1.0,0.0,0.0,0.0,0.0,0.0,1.0,0.0,1.5599999999999987,1.5599999999999987,0.0,0.0,1.0,55.0,616.79921,10000.0,85.000001,85.000001,85.000001,85.000001,395.0,0.0,0.0,0.0,1.0,166.665,51.147,51.147,45.638999999999996,45.638999999999996,34.0,-25.1425,25.11,-30.846666666666664,31.085,0.0,1781.058,-0.19500000000000028,100.0,29.171,28.899,44.881,44.469,0.0,0.0,100.0,0.0,0.0,0.0,0.0,3189.5714285714284,3326.0,4255.125,4302.4,305.267,304.4575,314.44533333333334,314.30575,22.1183,20.688,22.1063,21.6015,314.999998,314.999998,324.999988,324.999988,99.56175714285715,99.50778333333334,99.57041428571429,99.55001428571428,0.07900000000000018,-0.06433333333333335,-0.11839999999999995,0.10683333333333334,-0.030000000000001137,-0.061666666666667425,1.4585,1.46,39.239999999999995,30.299999999999997,39.165,36.009,56.729,35.8695,60.4865,53.628,54.599000000000004,34.921,59.0265,51.905,53.707,34.4195,58.899,51.288333333333334,-0.10199999999999987,-0.0665,0.10898500000000001,0.10838,0.0,218.515,218.535,215.14,215.14,0.0,0.0
32,0.0,0.0,0.0,1.0,1.0,0.0,0.0,1.0,0.0,100.0,1.0,1.1856,26.0,0.0,0.0,0.0,59.999996,0.0,26.0,26.0,26.0,26.0,-0.02862500000000001,0.2632000000000001,-0.03613333333333333,291.153,-2.6517,-2.719777777777778,-1.6326,-1.5364444444444443,-166.97,215.85750000000002,190.278625,0.0,0.0,0.0,0.0,0.0648,-5.498166666666667,-5.498166666666667,-0.6061000000000001,0.146,-0.04775000000000018,0.266,69.937,-0.0061,-0.22660000000000002,-0.1120000000000001,100.0,1.0,1.0,215.61,0.0,0.0,0.0,0.0,0.0,0.0,0.0,9138.9,0.0,55.0,5.0,251.74333333333334,0.0,0.0,0.0,0.0,0.0,0.0,1.0,0.0,1.6080000000000005,1.6080000000000005,0.0,0.0,0.0,55.0,616.79921,10000.0,85.000001,85.000001,85.000001,85.000001,395.0,0.0,0.0,0.0,1.0,166.665,51.269999999999996,51.269999999999996,46.463,46.463,34.0,-24.0975,25.266,-31.10333333333333,29.7075,0.0,1781.01,-0.23000000000000043,100.0,29.194,28.855,44.481,44.225,0.0,0.0,100.0,0.0,0.0,0.0,0.0,3202.4285714285716,3161.8,4255.0,4280.4,305.0625,304.81775,314.632,314.43275,22.127299999999998,20.6935,22.1162,21.6102,314.999998,314.999998,324.999988,324.999988,99.56175714285715,99.5078,99.57054285714285,99.55015714285715,0.08899999999999997,-0.052999999999999936,-0.1177999999999999,0.11533333333333329,-0.036666666666668846,-0.051666666666669414,1.537,1.5150000000000001,39.296,30.334,39.226,36.0635,56.715,35.9075,60.5185,53.682,54.586,34.9565,59.0565,51.957,53.694,34.4535,58.926,51.339333333333336,-0.10099999999999998,-0.06599999999999984,0.10901500000000001,0.113655,0.0,218.91,218.91500000000002,215.61,215.61,0.0,0.0
33,0.0,0.0,0.0,1.0,1.0,0.0,0.0,1.0,0.0,100.0,1.0,1.1856,26.0,0.0,0.0,0.0,59.999996,0.0,26.0,26.0,26.0,26.0,-0.0016249999999999876,0.2551000000000001,-0.034133333333333335,291.397,-2.6938,-2.711222222222222,-1.5655000000000001,-1.6124444444444443,-163.61,215.845,190.253625,0.0,0.0,0.0,0.0,0.06673333333333334,-5.498166666666667,-5.498166666666667,-0.6121,-0.4083333333333333,-0.03937500000000016,1.3359999999999999,70.059,0.0004,-0.21627500000000002,-0.07600000000000051,100.0,1.0,1.0,215.92333333333335,0.0,0.0,0.0,0.0,0.0,0.0,0.0,9152.3,0.0,55.0,5.0,252.18666666666667,1.0,0.0,0.0,0.0,0.0,0.0,1.0,0.0,1.6559999999999988,1.6559999999999988,0.0,0.0,1.0,55.0,616.79921,10000.0,85.000001,85.000001,85.000001,85.000001,395.0,0.0,0.0,0.0,1.0,333.33500000000004,51.865,51.865,46.539,46.539,34.0,-23.5225,24.48,-29.443333333333335,31.1575,0.0,1780.961,-0.23499999999999943,100.0,28.951,28.536,44.441,44.241,0.0,0.0,100.0,0.0,0.0,0.0,0.0,3101.0,3082.6,4199.875,4292.2,305.4815,305.0865,314.6433333333333,314.32225,22.1362,20.6987,22.1261,21.6189,314.999998,314.999998,324.999988,324.999988,99.56177142857143,99.5078,99.5707,99.55028571428572,0.08800000000000008,-0.051999999999999935,-0.10639999999999994,0.11633333333333318,-0.026666666666670835,-0.06499999999999773,1.4929999999999999,1.4929999999999999,39.351,30.366999999999997,39.288,36.1185,56.701,35.942499999999995,60.5525,53.738,54.572,34.989,59.088499999999996,52.0105,53.679,34.4845,58.954499999999996,51.391333333333336,-0.09799999999999986,-0.06199999999999983,0.101095,0.11098000000000001,0.0,219.275,219.29000000000002,215.92333333333335,215.92333333333335,0.0,0.0
34,0.0,0.0,0.0,1.0,1.0,0.0,0.0,1.0,0.0,100.0,1.0,1.1856,26.0,0.0,0.0,0.0,59.999996,0.0,26.0,26.0,26.0,26.0,-0.005750000000000033,0.25450000000000017,-0.0776,291.855,-2.7257,-2.634444444444444,-1.6356000000000002,-1.5716666666666668,-159.82,215.83249999999998,190.224,0.0,0.0,0.0,0.0,0.06893333333333335,-5.498166666666667,-5.498166666666667,-0.646,-0.7863333333333334,-0.007249999999999979,0.9180000000000001,70.194,0.0043,-0.224825,-0.11600000000000055,100.0,1.0,1.0,216.39666666666668,0.0,0.0,0.0,0.0,0.0,0.0,0.0,9172.2,0.0,55.0,5.0,252.67333333333335,0.0,0.0,0.0,0.0,0.0,0.0,1.0,0.0,1.7100000000000009,1.7100000000000009,0.0,0.0,0.0,55.0,616.79921,10000.0,85.000001,85.000001,85.000001,85.000001,395.0,0.0,0.0,0.0,1.0,166.665,52.246,52.246,47.211,47.211,34.0,-22.2725,24.066,-28.93,30.0625,0.0,1780.908,-0.259999999999998,100.0,28.674,28.241,44.077,44.234,0.0,0.0,100.0,0.0,0.0,0.0,0.0,2970.714285714286,3078.0,4069.75,4175.4,305.7225,305.0955,315.031,314.574,22.1462,20.7047,22.1371,21.6288,314.999998,314.999998,324.999988,324.999988,99.56178571428572,99.50781666666667,99.57084285714286,99.55045714285714,0.10150000000000015,-0.04499999999999993,-0.10379999999999989,0.12749999999999995,-0.02833333333332888,-0.05333333333332746,1.5284999999999997,1.5265,39.413,30.404,39.357,36.18,56.684,35.981,60.5875,53.8005,54.556,35.025,59.121,52.071,53.662,34.519,58.9835,51.45033333333333,-0.10499999999999998,-0.06099999999999994,0.10452,0.11320500000000001,0.0,219.67000000000002,219.685,216.39666666666668,216.39666666666668,0.0,0.0
35,0.0,0.0,0.0,1.0,1.0,0.0,0.0,1.0,0.0,100.0,1.0,1.1856,26.0,0.0,0.0,0.0,59.999996,0.0,26.0,26.0,26.0,26.0,0.026000000000000023,0.24340000000000006,-0.0402,291.748,-2.7054,-2.6514444444444445,-1.6075,-1.5303333333333333,-156.24,215.82,190.19375,0.0,0.0,0.0,0.0,0.07103333333333334,-5.498166666666667,-5.498166666666667,-0.6846,-0.14400000000000002,-0.025500000000000078,-1.094,70.321,0.009300000000000001,-0.22820000000000001,-0.17600000000000016,100.0,1.0,1.0,216.86333333333334,0.0,0.0,0.0,0.0,0.0,0.0,0.0,9192.1,0.0,55.0,5.0,253.13,1.0,0.0,0.0,0.0,0.0,0.0,1.0,0.0,1.7609999999999992,1.7609999999999992,0.0,0.0,1.0,55.0,616.79921,10000.0,85.000001,85.000001,85.000001,85.000001,395.0,0.0,0.0,0.0,1.0,166.665,51.453,51.453,46.951,46.951,34.0,-24.605,26.594,-27.64333333333333,27.3975,0.0,1780.856,-0.19500000000000028,100.0,28.362000000000002,28.78,43.788,43.772,0.0,0.0,100.0,0.0,0.0,0.0,0.0,3230.4285714285716,3330.7,4010.25,3966.9,305.2255,304.1855,315.16333333333336,315.08525,22.1554,20.7105,22.1475,21.6379,314.999998,314.999998,324.999988,324.999988,99.5618,99.50781666666667,99.571,99.5506,0.0887500000000001,-0.04733333333333334,-0.09839999999999993,0.12250000000000005,-0.041666666666671404,-0.041666666666671404,1.5635,1.5465,39.471000000000004,30.440666666666665,39.422,36.237,56.667,36.0205,60.621,53.855000000000004,54.54,35.061,59.152,52.124,53.644999999999996,34.554,59.010999999999996,51.501666666666665,-0.09749999999999992,-0.06300000000000017,0.10585000000000001,0.10585000000000001,0.0,220.07999999999998,220.085,216.86333333333334,216.86333333333334,0.0,0.0
