,ABS Active,ABS Enabled,AID Allow Tire Blankets,AID Auto Blip,AID Auto Clutch,AID Auto Shift,AID Fuel Rate,AID Ideal Line,AID Mech Damage,AID Stability,AID Tire Wear Rate,Air Density,Air Temp,Ballast,Best Lap Delta,Best Lap Time,Brake Bias,Brake Pos,Brake Temp FL,Brake Temp FR,Brake Temp RL,Brake Temp RR,CG Accel Lateral,CG Accel Longitudinal,CG Accel Vertical,CG Height,Camber FL,Camber FR,Camber RL,Camber RR,Car Coord X,Car Coord Y,Car Coord Z,Car Damage Front,Car Damage Left,Car Damage Rear,Car Damage Right,Car Pos Norm,Caster FL,Caster FR,Chassis Pitch Angle,Chassis Pitch Rate,Chassis Roll Angle,Chassis Roll Rate,Chassis Velocity X,Chassis Velocity Y,Chassis Velocity Z,Chassis Yaw Rate,Clutch Pos,DRS Active,DRS Available,Drive Train Speed,ERS Heat Charging,ERS Is Charging,ERS Max Energy,ERS Power Level,ERS Recovery Level,Engine Brake Setting,Engine Limiter,Engine RPM,Flags,Fuel Level,Gear,Ground Speed,HR Sample Clock,In Pit,KERS Charge,KERS Deployed Energy,KERS Input,KERS Max Energy,LR Sample Clock,Lap Invalidated,Lap Time,Lap Time2,Last Lap Time,Last Sector Time,MR Sample Clock,Max Fuel,Max Power,Max RPM,Max Sus Travel FL,Max Sus Travel FR,Max Sus Travel RL,Max Sus Travel RR,Max Torque,Max Turbo Boost,Num Tires Off Track,Penalties Enabled,Position,Raw Data Sample Rate,Ride Height FL,Ride Height FR,Ride Height RL,Ride Height RR,Road Temp,Self Align Torque FL,Self Align Torque FR,Self Align Torque RL,Self Align Torque RR,Session Lap Count,Session Time Left,Steering Angle,Surface Grip,Suspension Travel FL,Suspension Travel FR,Suspension Travel RL,Suspension Travel RR,TC Active,TC Enabled,Throttle Pos,Tire Dirt Level FL,Tire Dirt Level FR,Tire Dirt Level RL,Tire Dirt Level RR,Tire Load FL,Tire Load FR,Tire Load RL,Tire Load RR,Tire Loaded Radius FL,Tire Loaded Radius FR,Tire Loaded Radius RL,Tire Loaded Radius RR,Tire Pressure FL,Tire Pressure FR,Tire Pressure RL,Tire Pressure RR,Tire Radius FL,Tire Radius FR,Tire Radius RL,Tire Radius RR,Tire Rubber Grip FL,Tire Rubber Grip FR,Tire Rubber Grip RL,Tire Rubber Grip RR,Tire Slip Angle FL,Tire Slip Angle FR,Tire Slip Angle RL,Tire Slip Angle RR,Tire Slip Ratio FL,Tire Slip Ratio FR,Tire Slip Ratio RL,Tire Slip Ratio RR,Tire Temp Core FL,Tire Temp Core FR,Tire Temp Core RL,Tire Temp Core RR,Tire Temp Inner FL,Tire Temp Inner FR,Tire Temp Inner RL,Tire Temp Inner RR,Tire Temp Middle FL,Tire Temp Middle FR,Tire Temp Middle RL,Tire Temp Middle RR,Tire Temp Outer FL,Tire Temp Outer FR,Tire Temp Outer RL,Tire Temp Outer RR,Toe In FL,Toe In FR,Toe In RL,Toe In RR,Turbo Boost,Wheel Angular Speed FL,Wheel Angular Speed FR,Wheel Angular Speed RL,Wheel Angular Speed RR,Wind Direction,Wind Speed
0,0.0,0.0,0.0,1.0,1.0,0.0,0.0,1.0,0.0,100.0,1.0,1.1856,26.0,0.0,0.0,0.0,59.99999,0.0,26.0,26.0,26.0,26.0,-0.07299999999999995,0.2896000000000001,0.0757,293.991,-2.7161,-2.6576250000000003,-1.5157500000000002,-1.5585,-275.67,216.29500000000002,190.9875,0.0,0.0,0.0,0.0,0.0016,-5.498166666666667,-5.498166666666667,-0.5475,1.2733333333333332,-0.008624999999999883,-0.5249999999999995,65.49600000000001,-0.0393,-0.21255000000000002,0.9800000000000004,100.0,1.0,1.0,202.21333333333334,0.0,0.0,0.0,0.0,0.0,0.0,0.0,8571.1,0.0,55.0,5.0,235.75333333333333,0.0,0.0,0.0,0.0,0.0,0.0,0.0,0.0,0.0030000000000001137,0.0030000000000001137,0.0,0.0,0.0,55.0,616.79921,10000.0,85.0,85.0,85.0,85.0,395.0,0.0,0.0,0.0,1.0,20.0,52.78,52.78,49.545,49.545,34.0,-25.759999999999998,23.538,-30.236666666666665,25.41,0.0,1782.607,0.740000000000002,100.0,27.664,27.005,40.597,40.525,0.0,0.0,100.0,0.0,0.0,0.0,0.0,2950.714285714286,3363.1,4117.0,4032.4,305.8775,304.15366666666665,314.8195,314.79075,21.7634,20.5121,21.7725,21.3129,314.99999,314.99999,324.99998,324.99998,99.55788571428572,99.5072,99.5652,99.54512857142858,-0.0017499999999999183,-0.11524999999999985,-0.15766666666666662,0.06699999999999995,-0.04833333333333201,-0.05666666666667197,1.546,1.557,37.021,29.200666666666663,37.078,34.206,55.952,34.420500000000004,59.066,51.596000000000004,53.896,33.621,57.696,49.9535,53.08,33.2115,57.663,49.376999999999995,-0.01649999999999996,-0.129,0.10685000000000001,0.10854000000000001,0.0,205.265,205.185,202.21333333333334,202.21333333333334,0.0,0.0
1,0.0,0.0,0.0,1.0,1.0,0.0,0.0,1.0,0.0,100.0,1.0,1.1856,26.0,0.0,0.0,0.0,59.999996,0.0,26.0,26.0,26.0,26.0,-0.11249999999999993,0.3015000000000001,-0.006066666666666666,292.999,-2.6297,-2.767125,-1.5246,-1.5539,-272.12,216.29000000000002,190.966125,0.0,0.0,0.0,0.0,0.0036666666666666666,-5.498166666666667,-5.498166666666667,-0.5049,-0.7633333333333334,-0.057250000000000245,-0.21399999999999952,65.65899999999999,-0.054400000000000004,-0.20605,1.3760000000000012,100.0,1.0,1.0,202.41333333333333,0.0,0.0,0.0,0.0,0.0,0.0,0.0,8579.5,0.0,55.0,5.0,236.34,1.0,0.0,0.0,0.0,0.0,0.0,0.0,0.0,0.05699999999999861,0.05699999999999861,0.0,0.0,1.0,55.0,616.79921,10000.0,85.000001,85.000001,85.000001,85.000001,395.0,0.0,0.0,0.0,1.0,166.665,53.329,53.329,48.447,48.447,34.0,-27.09,18.708,-33.11,29.1225,0.0,1782.554,0.9000000000000021,100.0,27.782,27.063,42.72,41.681,0.0,0.0,100.0,0.0,0.0,0.0,0.0,3075.4285714285716,2737.5,4249.875,4688.1,305.3805,306.13033333333334,314.403,313.18025,21.7738,20.5175,21.784,21.3226,314.999998,314.999998,324.999988,324.999988,99.55788571428572,99.50721666666666,99.56535714285714,99.54528571428571,-0.017249999999999988,-0.133,-0.17333333333333334,0.039166666666666794,-0.021666666666668277,-0.03166666666666629,1.417,1.4625,37.086,29.234333333333332,37.15,34.266,55.935,34.463499999999996,59.114,51.664500000000004,53.879999999999995,33.6605,57.741,50.019,53.063,33.2495,57.705,49.44133333333333,0.002000000000000224,-0.14400000000000013,0.097045,0.107115,0.0,205.71,205.59,202.41333333333333,202.41333333333333,0.0,0.0
2,0.0,0.0,0.0,1.0,1.0,0.0,0.0,1.0,0.0,100.0,1.0,1.1856,26.0,0.0,0.0,0.0,59.999996,0.0,26.0,26.0,26.0,26.0,-0.15437499999999993,0.29259999999999997,-0.07593333333333334,293.64,-2.5956,-2.7986250000000004,-1.48295,-1.6147,-268.97,216.2825,190.9485,0.0,0.0,0.0,0.0,0.0055000000000000005,-5.498166666666667,-5.498166666666667,-0.5511,0.14200000000000002,-0.05262499999999992,2.463,65.793,-0.0723,-0.255925,1.6020000000000003,100.0,1.0,1.0,203.28,0.0,0.0,0.0,0.0,0.0,0.0,0.0,8616.2,0.0,55.0,5.0,236.82666666666665,0.0,0.0,0.0,0.0,0.0,0.0,0.0,0.0,0.10500000000000043,0.10500000000000043,0.0,0.0,0.0,55.0,616.79921,10000.0,85.000001,85.000001,85.000001,85.000001,395.0,0.0,0.0,0.0,1.0,333.33500000000004,52.322,52.322,50.171,50.171,34.0,-29.7925,20.076,-29.373333333333335,20.427500000000002,0.0,1782.505,0.7750000000000021,100.0,28.526,27.012999999999998,42.546,41.295,0.0,0.0,100.0,0.0,0.0,0.0,0.0,3321.142857142857,2951.5,3793.25,3687.1,304.5485,305.49666666666667,315.531,315.7745,21.7833,20.5222,21.7939,21.3308,314.999998,314.999998,324.999988,324.999988,99.5579,99.50723333333333,99.56548571428571,99.54541428571429,-0.025249999999999995,-0.14749999999999996,-0.21699999999999997,0.01200000000000001,-0.045000000000001705,-0.030000000000001137,1.6365,1.681,37.146,29.263666666666666,37.212,34.317499999999995,55.925,34.501,59.15,51.718,53.870000000000005,33.695,57.774,50.07,53.052,33.2825,57.7355,49.49133333333333,-0.01200000000000001,-0.13850000000000007,0.10256000000000001,0.10988500000000001,0.0,206.15,205.995,203.28,203.28,0.0,0.0
3,0.0,0.0,0.0,1.0,1.0,0.0,0.0,1.0,0.0,100.0,1.0,1.1856,26.0,0.0,0.0,0.0,59.999996,0.0,26.0,26.0,26.0,26.0,-0.14074999999999993,0.30269999999999997,0.07876666666666667,293.427,-2.7232000000000003,-2.693125,-1.5101499999999999,-1.5929,-265.81,216.2725,190.93,0.0,0.0,0.0,0.0,0.007333333333333333,-5.498166666666667,-5.498166666666667,-0.5109,0.35933333333333334,-0.010499999999999954,0.383,65.936,-0.0863,-0.2015,1.2040000000000006,100.0,1.0,1.0,203.42666666666668,0.0,0.0,0.0,0.0,0.0,0.0,0.0,8622.4,0.0,55.0,5.0,237.34,1.0,0.0,0.0,0.0,0.0,0.0,0.0,0.0,0.1529999999999987,0.1529999999999987,0.0,0.0,1.0,55.0,616.79921,10000.0,85.000001,85.000001,85.000001,85.000001,395.0,0.0,0.0,0.0,1.0,333.33500000000004,53.467,53.467,48.187,48.187,34.0,-25.88,18.558,-34.74666666666667,24.77,0.0,1782.456,0.6099999999999994,100.0,28.064,26.963,42.475,41.371,0.0,0.0,100.0,0.0,0.0,0.0,0.0,2847.4285714285716,2901.8,4284.0,4243.4,306.0815,305.609,314.3375,314.352,21.7925,20.527,21.8037,21.339199999999998,314.999998,314.999998,324.999988,324.999988,99.5579,99.50725,99.56561428571429,99.54554285714286,-0.027499999999999858,-0.15425,-0.20833333333333337,0.014333333333333309,-0.041666666666671404,-0.036666666666668846,1.482,1.5124999999999997,37.203,29.294,37.272999999999996,34.37,55.91,34.541,59.1865,51.7765,53.855999999999995,33.7315,57.8085,50.1265,53.038,33.317499999999995,57.766999999999996,49.54666666666667,-0.026000000000000023,-0.11850000000000005,0.10365500000000001,0.11533000000000002,0.0,206.60000000000002,206.51999999999998,203.42666666666668,203.42666666666668,0.0,0.0
4,0.0,0.0,0.0,1.0,1.0,0.0,0.0,1.0,0.0,100.0,1.0,1.1856,26.0,0.0,0.0,0.0,59.999996,0.0,26.0,26.0,26.0,26.0,-0.15662500000000001,0.29980000000000007,-0.03346666666666667,293.655,-2.6561,-2.747,-1.5243,-1.6014,-262.24,216.2575,190.909125,0.0,0.0,0.0,0.0,0.0094,-5.498166666666667,-5.498166666666667,-0.547,-0.7393333333333334,-0.0794999999999999,-0.601,66.09100000000001,-0.0864,-0.23927500000000002,1.112,100.0,1.0,1.0,204.05666666666667,0.0,0.0,0.0,0.0,0.0,0.0,0.0,8649.2,0.0,55.0,5.0,237.9,0.0,0.0,0.0,0.0,0.0,0.0,0.0,0.0,0.20700000000000074,0.20700000000000074,0.0,0.0,0.0,55.0,616.79921,10000.0,85.000001,85.000001,85.000001,85.000001,395.0,0.0,0.0,0.0,1.0,166.665,52.979,52.979,48.92,48.92,34.0,-28.9725,19.924,-31.926666666666666,20.89,0.0,1782.404,0.615000000000002,100.0,27.855,26.759,42.853,41.412,0.0,0.0,100.0,0.0,0.0,0.0,0.0,3217.142857142857,2988.9,4016.625,3673.2,305.065,305.3573333333333,314.9675,315.699,21.8027,20.5325,21.815,21.3486,314.999998,314.999998,324.999988,324.999988,99.55791428571429,99.50726666666667,99.56577142857142,99.54568571428571,-0.024499999999999966,-0.14825,-0.20750000000000002,0.019166666666666554,-0.04833333333333201,-0.060000000000002274,1.5695000000000001,1.6025,37.266999999999996,29.328,37.344,34.4285,55.891999999999996,34.585,59.231,51.839,53.839,33.772,57.8495,50.186,53.019999999999996,33.3565,57.8055,49.605000000000004,-0.025499999999999856,-0.121,0.10891500000000001,0.10060000000000001,0.0,207.04000000000002,206.935,204.05666666666667,204.05666666666667,0.0,0.0
5,0.0,0.0,0.0,1.0,1.0,0.0,0.0,1.0,0.0,100.0,1.0,1.1856,26.0,0.0,0.0,0.0,59.999996,0.0,26.0,26.0,26.0,26.0,-0.131625,0.29100000000000015,-0.014966666666666666,293.64,-2.6659,-2.771375,-1.5070999999999999,-1.5895000000000001,-259.07,216.24,190.889875,0.0,0.0,0.0,0.0,0.011266666666666668,-5.498166666666667,-5.498166666666667,-0.5359,0.4603333333333333,-0.08237499999999986,1.2149999999999999,66.229,-0.0891,-0.213375,1.056000000000001,100.0,1.0,1.0,204.41666666666669,0.0,0.0,0.0,0.0,0.0,0.0,0.0,8664.5,0.0,55.0,5.0,238.39333333333332,1.0,0.0,0.0,0.0,0.0,0.0,0.0,0.0,0.254999999999999,0.254999999999999,0.0,0.0,1.0,55.0,616.79921,10000.0,85.000001,85.000001,85.000001,85.000001,395.0,0.0,0.0,0.0,1.0,166.665,53.452,53.452,48.981,48.981,34.0,-26.95,19.689999999999998,-33.266666666666666,23.42,0.0,1782.356,0.3049999999999997,100.0,27.979,26.65,42.632,41.104,0.0,0.0,100.0,0.0,0.0,0.0,0.0,3087.285714285714,2838.4,4148.625,4093.6000000000004,305.3605,305.86633333333333,314.7295,314.745,21.812,20.5372,21.8248,21.3568,314.999998,314.999998,324.999988,324.999988,99.55791428571429,99.50728333333333,99.56591428571429,99.54582857142857,-0.00275000000000003,-0.12850000000000006,-0.21166666666666656,0.014666666666666606,-0.036666666666668846,-0.060000000000002274,1.5255,1.5795,37.325,29.357666666666667,37.405,34.480000000000004,55.879999999999995,34.6235,59.2685,51.893,53.827,33.8075,57.885,50.238,53.007,33.39,57.838,49.65566666666666,-0.05899999999999994,-0.09750000000000014,0.10360000000000001,0.10722500000000001,0.0,207.515,207.41500000000002,204.41666666666669,204.41666666666669,0.0,0.0
6,0.0,0.0,0.0,1.0,1.0,0.0,0.0,1.0,0.0,100.0,1.0,1.1856,26.0,0.0,0.0,0.0,59.999996,0.0,26.0,26.0,26.0,26.0,-0.11962499999999998,0.3014000000000001,0.012966666666666666,293.411,-2.6366,-2.743125,-1.55415,-1.5827,-255.88,216.22,190.8705,0.0,0.0,0.0,0.0,0.0131,-5.498166666666667,-5.498166666666667,-0.5316000000000001,0.09366666666666668,-0.06137499999999996,0.8639999999999999,66.368,-0.085,-0.215725,0.7560000000000002,100.0,1.0,1.0,204.82333333333332,0.0,0.0,0.0,0.0,0.0,0.0,0.0,8681.8,0.0,55.0,5.0,238.89666666666668,0.0,0.0,0.0,0.0,0.0,0.0,0.0,0.0,0.3030000000000008,0.3030000000000008,0.0,0.0,0.0,55.0,616.79921,10000.0,85.000001,85.000001,85.000001,85.000001,395.0,0.0,0.0,0.0,1.0,333.33500000000004,53.07,53.07,48.751999999999995,48.751999999999995,34.0,-26.6175,21.046,-32.28666666666666,23.877499999999998,0.0,1782.307,0.10000000000000142,100.0,27.876,26.764,42.796,41.508,0.0,0.0,100.0,0.0,0.0,0.0,0.0,3125.4285714285716,3002.6,4058.875,4043.2,305.231,305.309,314.93575,314.859,21.8213,20.5421,21.8348,21.3653,314.999998,314.999998,324.999988,324.999988,99.55791428571429,99.5073,99.56604285714286,99.54595714285715,0.008750000000000036,-0.12324999999999986,-0.1981666666666666,0.030999999999999917,-0.04333333333332945,-0.05333333333332746,1.544,1.5665,37.382999999999996,29.387999999999998,37.467,34.533,55.866,34.661500000000004,59.3065,51.951,53.814,33.8425,57.92,50.2935,52.992999999999995,33.423500000000004,57.8705,49.71,-0.0685,-0.08099999999999996,0.10633500000000001,0.11633,0.0,207.9,207.825,204.82333333333332,204.82333333333332,0.0,0.0
7,0.0,0.0,0.0,1.0,1.0,0.0,0.0,1.0,0.0,100.0,1.0,1.1856,26.0,0.0,0.0,0.0,59.999996,0.0,26.0,26.0,26.0,26.0,-0.09237499999999998,0.28690000000000015,0.018366666666666667,293.137,-2.6101,-2.729625,-1.51335,-1.5708,-252.5,216.195,190.850125,0.0,0.0,0.0,0.0,0.015066666666666666,-5.498166666666667,-5.498166666666667,-0.5344,-0.025666666666666667,-0.05337499999999995,-0.20399999999999974,66.514,-0.069,-0.22410000000000002,0.4400000000000004,100.0,1.0,1.0,205.23000000000002,0.0,0.0,0.0,0.0,0.0,0.0,0.0,8698.9,0.0,55.0,5.0,239.42000000000002,1.0,0.0,0.0,0.0,0.0,0.0,0.0,0.0,0.3539999999999992,0.3539999999999992,0.0,0.0,1.0,55.0,616.79921,10000.0,85.000001,85.000001,85.000001,85.000001,395.0,0.0,0.0,0.0,1.0,333.33500000000004,52.75,52.75,48.766999999999996,48.766999999999996,34.0,-27.18,21.808,-31.963333333333335,24.125,0.0,1782.255,-0.23499999999999943,100.0,27.849,26.97,42.76,41.876,0.0,0.0,100.0,0.0,0.0,0.0,0.0,3304.857142857143,2958.7,4108.625,4059.2,304.7955,305.28366666666665,314.8215,314.729,21.8311,20.5473,21.8453,21.374299999999998,314.999998,314.999998,324.999988,324.999988,99.55791428571429,99.50731666666667,99.56618571428571,99.54608571428571,0.027249999999999996,-0.09749999999999992,-0.1918333333333333,0.03316666666666679,-0.06333333333333258,-0.061666666666667425,1.5335,1.549,37.445,29.420333333333332,37.533,34.589,55.852000000000004,34.701499999999996,59.3465,52.012,53.8,33.879,57.957499999999996,50.352000000000004,52.979,33.4585,57.9055,49.76733333333333,-0.09199999999999986,-0.051000000000000156,0.104135,0.10391,0.0,208.35500000000002,208.315,205.23000000000002,205.23000000000002,0.0,0.0
8,0.0,0.0,0.0,1.0,1.0,0.0,0.0,1.0,0.0,100.0,1.0,1.1856,26.0,0.0,0.0,0.0,59.999996,0.0,26.0,26.0,26.0,26.0,-0.04325000000000001,0.29410000000000003,0.04336666666666667,293.427,-2.6938,-2.7188749999999997,-1.49905,-1.553,-249.1,216.17000000000002,190.8295,0.0,0.0,0.0,0.0,0.017033333333333334,-5.498166666666667,-5.498166666666667,-0.537,-0.5883333333333334,-0.03412499999999996,0.7309999999999999,66.65899999999999,-0.0494,-0.21435,-0.07000000000000028,100.0,1.0,1.0,205.63,0.0,0.0,0.0,0.0,0.0,0.0,0.0,8715.9,0.0,55.0,5.0,239.94666666666666,0.0,0.0,0.0,0.0,0.0,0.0,0.0,0.0,0.40500000000000114,0.40500000000000114,0.0,0.0,0.0,55.0,616.79921,10000.0,85.000001,85.000001,85.000001,85.000001,395.0,0.0,0.0,0.0,1.0,333.33500000000004,53.65,53.65,48.08,48.08,34.0,-23.2425,22.842,-30.323333333333334,27.175,0.0,1782.203,-0.3550000000000004,100.0,27.544,26.773,42.84,41.893,0.0,0.0,100.0,0.0,0.0,0.0,0.0,2909.5714285714284,2999.8,4126.875,4168.5,305.978,305.3516666666667,314.67675,314.49275,21.8407,20.5524,21.8558,21.3832,314.999998,314.999998,324.999988,324.999988,99.55792857142858,99.50731666666667,99.56634285714286,99.54624285714286,0.05025000000000013,-0.07250000000000001,-0.15433333333333332,0.07883333333333331,-0.06833333333332803,-0.06333333333333258,1.509,1.5150000000000001,37.504999999999995,29.452666666666666,37.599000000000004,34.644999999999996,55.835,34.742,59.3885,52.076,53.784,33.9165,57.9965,50.4135,52.962,33.494,57.941,49.827333333333335,-0.10399999999999987,-0.03949999999999987,0.109895,0.11451000000000001,0.0,208.775,208.76999999999998,205.63,205.63,0.0,0.0
9,0.0,0.0,0.0,1.0,1.0,0.0,0.0,1.0,0.0,100.0,1.0,1.1856,26.0,0.0,0.0,0.0,59.999996,0.0,26.0,26.0,26.0,26.0,-0.03037499999999993,0.29879999999999995,0.031033333333333333,293.137,-2.6814999999999998,-2.7255000000000003,-1.5519500000000002,-1.5572,-245.9,216.14499999999998,190.809625,0.0,0.0,0.0,0.0,0.0189,-5.498166666666667,-5.498166666666667,-0.5435,0.6116666666666667,-0.035250000000000004,0.7770000000000001,66.793,-0.028300000000000002,-0.216975,-0.17600000000000016,100.0,1.0,1.0,206.17000000000002,0.0,0.0,0.0,0.0,0.0,0.0,0.0,8738.8,0.0,55.0,5.0,240.42666666666668,1.0,0.0,0.0,0.0,0.0,0.0,0.0,0.0,0.4529999999999994,0.4529999999999994,0.0,0.0,1.0,55.0,616.79921,10000.0,85.000001,85.000001,85.000001,85.000001,395.0,0.0,0.0,0.0,1.0,333.33500000000004,52.383,52.383,49.164,49.164,34.0,-26.0425,24.688,-27.973333333333333,26.997500000000002,0.0,1782.156,-0.4400000000000013,100.0,27.996,27.198,42.467,41.877,0.0,0.0,100.0,0.0,0.0,0.0,0.0,3294.4285714285716,3108.0,3964.25,4064.6000000000004,304.7625,304.946,315.1995,314.8175,21.849899999999998,20.5575,21.8655,21.3916,314.999998,314.999998,324.999988,324.999988,99.55794285714286,99.50731666666667,99.56647142857143,99.54635714285715,0.06725000000000003,-0.05499999999999994,-0.131,0.09683333333333333,-0.046666666666666856,-0.05666666666667197,1.5765,1.5775000000000001,37.562,29.484333333333332,37.66,34.6975,55.824,34.777,59.42,52.128,53.774,33.948499999999996,58.0265,50.463499999999996,52.951,33.525,57.968,49.876333333333335,-0.10699999999999998,-0.040000000000000036,0.10181000000000001,0.10653000000000001,0.0,209.185,209.20499999999998,206.17000000000002,206.17000000000002,0.0,0.0
10,0.0,0.0,0.0,1.0,1.0,0.0,0.0,1.0,0.0,100.0,1.0,1.1856,26.0,0.0,0.0,0.0,59.999996,0.0,26.0,26.0,26.0,26.0,-0.0012499999999999734,0.30580000000000007,-0.0046,292.953,-2.6609,-2.69975,-1.5338,-1.5359,-242.49,216.1175,190.789,0.0,0.0,0.0,0.0,0.020900000000000002,-5.498166666666667,-5.498166666666667,-0.5181,-0.377,0.004874999999999963,0.33999999999999986,66.94,-0.0063,-0.207625,-0.4820000000000002,100.0,1.0,1.0,206.39333333333332,0.0,0.0,0.0,0.0,0.0,0.0,0.0,8748.3,0.0,55.0,5.0,240.95666666666668,0.0,0.0,0.0,0.0,0.0,0.0,1.0,0.0,0.5040000000000013,0.5040000000000013,0.0,0.0,0.0,55.0,616.79921,10000.0,85.000001,85.000001,85.000001,85.000001,395.0,0.0,0.0,0.0,1.0,333.33500000000004,53.436,53.436,47.607,47.607,34.0,-21.384999999999998,22.747999999999998,-30.566666666666663,29.0125,0.0,1782.106,-0.5899999999999999,100.0,27.72,27.35,42.774,42.69,0.0,0.0,100.0,0.0,0.0,0.0,0.0,2901.714285714286,2863.9,4335.125,4275.9,306.0375,305.56333333333333,314.26375,314.157,21.8596,20.5627,21.8762,21.4008,314.999998,314.999998,324.999988,324.999988,99.55794285714286,99.50733333333334,99.56661428571428,99.54651428571428,0.08725000000000005,-0.04574999999999996,-0.1163333333333334,0.09650000000000003,-0.04333333333332945,-0.05666666666667197,1.4935,1.4739999999999998,37.622,29.517333333333333,37.726,34.754999999999995,55.812,34.814,59.461,52.192499999999995,53.763,33.9825,58.064499999999995,50.525,52.939,33.5575,58.0035,49.93666666666667,-0.1279999999999999,-0.028500000000000192,0.108075,0.10718000000000001,0.0,209.615,209.655,206.39333333333332,206.39333333333332,0.0,0.0
11,0.0,0.0,0.0,1.0,1.0,0.0,0.0,1.0,0.0,100.0,1.0,1.1856,26.0,0.0,0.0,0.0,59.999996,0.0,26.0,26.0,26.0,26.0,0.028999999999999915,0.27180000000000004,-0.0722,293.549,-2.7055,-2.68675,-1.5909499999999999,-1.5246,-239.07,216.09,190.76825,0.0,0.0,0.0,0.0,0.022600000000000002,-5.498166666666667,-5.498166666666667,-0.5613,-0.251,0.033625000000000016,0.37100000000000044,67.07900000000001,0.0143,-0.237625,-0.6559999999999997,100.0,1.0,1.0,207.14333333333332,0.0,0.0,0.0,0.0,0.0,0.0,0.0,8780.1,0.0,55.0,5.0,241.45666666666668,1.0,0.0,0.0,0.0,0.0,0.0,1.0,0.0,0.5549999999999997,0.5549999999999997,0.0,0.0,1.0,55.0,616.79921,10000.0,85.000001,85.000001,85.000001,85.000001,395.0,0.0,0.0,0.0,1.0,333.33500000000004,52.856,52.856,49.316,49.316,34.0,-21.8,26.567999999999998,-24.049999999999997,27.2925,0.0,1782.055,-0.5650000000000013,100.0,27.573,27.411,42.36,42.545,0.0,0.0,100.0,0.0,0.0,0.0,0.0,2991.0,3181.0,3673.625,3880.9,305.6935,304.731,315.92825,315.2265,21.869,20.5681,21.886499999999998,21.4098,314.999998,314.999998,324.999988,324.999988,99.55795714285715,99.50733333333334,99.56674285714286,99.54664285714286,0.10775000000000023,-0.018000000000000016,-0.09316666666666662,0.1443333333333332,-0.04833333333333201,-0.07166666666666544,1.638,1.608,37.681,29.551000000000002,37.79,34.8115,55.799,34.8515,59.4955,52.251999999999995,53.748999999999995,34.0175,58.0965,50.582499999999996,52.925,33.5905,58.0325,49.993,-0.119,-0.026000000000000245,0.10988500000000001,0.10525500000000002,0.0,210.03,210.07999999999998,207.14333333333332,207.14333333333332,0.0,0.0
12,0.0,0.0,0.0,1.0,1.0,0.0,0.0,1.0,0.0,100.0,1.0,1.1856,26.0,0.0,0.0,0.0,59.999996,0.0,26.0,26.0,26.0,26.0,0.05137499999999995,0.29990000000000006,0.011633333333333334,292.938,-2.7575000000000003,-2.683375,-1.55155,-1.5247000000000002,-235.85,216.065,190.7475,0.0,0.0,0.0,0.0,0.025466666666666665,-5.498166666666667,-5.498166666666667,-0.5469,0.29,0.01937499999999992,0.6420000000000003,67.21600000000001,0.028800000000000003,-0.20645000000000002,-0.6899999999999995,100.0,1.0,1.0,207.34333333333333,0.0,0.0,0.0,0.0,0.0,0.0,0.0,8788.5,0.0,55.0,5.0,241.94666666666666,0.0,0.0,0.0,0.0,0.0,0.0,1.0,0.0,0.602999999999998,0.602999999999998,0.0,0.0,0.0,55.0,616.79921,10000.0,85.000001,85.000001,85.000001,85.000001,395.0,0.0,0.0,0.0,1.0,166.665,52.795,52.795,47.928,47.928,34.0,-21.82,27.384,-26.846666666666664,31.1,0.0,1782.008,-0.6449999999999996,100.0,27.506,27.557,42.331,42.455,0.0,0.0,100.0,0.0,0.0,0.0,0.0,3020.857142857143,3203.8,4162.625,4222.0,305.6225,304.6906666666667,314.688,314.4285,21.8778,20.5733,21.8963,21.4183,314.999998,314.999998,324.999988,324.999988,99.55797142857143,99.50735,99.56688571428572,99.54678571428572,0.12400000000000011,-0.0022499999999998632,-0.07150000000000001,0.15366666666666684,-0.03499999999999659,-0.04833333333333201,1.531,1.5124999999999997,37.736000000000004,29.583,37.852000000000004,34.864,55.787,34.8875,59.531,52.309,53.738,34.0505,58.1295,50.6375,52.913,33.622,58.0625,50.047,-0.127,-0.028999999999999915,0.10722000000000001,0.10409,0.0,210.47500000000002,210.53,207.34333333333333,207.34333333333333,0.0,0.0
13,0.0,0.0,0.0,1.0,1.0,0.0,0.0,1.0,0.0,100.0,1.0,1.1856,26.0,0.0,0.0,0.0,59.999996,0.0,26.0,26.0,26.0,26.0,0.08062499999999995,0.28100000000000014,0.039733333333333336,292.526,-2.7359999999999998,-2.6732500000000003,-1.62305,-1.5095,-232.41,216.04000000000002,190.72575,0.0,0.0,0.0,0.0,0.02673333333333333,-5.498166666666667,-5.498166666666667,-0.5392,-0.058,0.019749999999999934,-0.5179999999999998,67.35900000000001,0.0357,-0.21507500000000002,-0.7579999999999991,100.0,1.0,1.0,207.71666666666667,0.0,0.0,0.0,0.0,0.0,0.0,0.0,8804.4,0.0,55.0,5.0,242.46,1.0,0.0,0.0,0.0,0.0,0.0,1.0,0.0,0.6539999999999999,0.6539999999999999,0.0,0.0,1.0,55.0,616.79921,10000.0,85.000001,85.000001,85.000001,85.000001,395.0,0.0,0.0,0.0,1.0,166.665,52.444,52.444,47.867,47.867,34.0,-21.915,26.990000000000002,-28.286666666666665,32.195,0.0,1781.957,-0.8599999999999994,100.0,27.681,27.941,42.46,43.063,0.0,0.0,100.0,0.0,0.0,0.0,0.0,3162.714285714286,3088.9,4241.5,4293.3,305.3395,304.8503333333333,314.57325,314.146,21.8874,20.5788,21.9068,21.4275,314.999998,314.999998,324.999988,324.999988,99.55798571428572,99.50735,99.56702857142857,99.54694285714285,0.14049999999999985,0.011499999999999844,-0.0685,0.16066666666666674,-0.03833333333332689,-0.041666666666671404,1.5185,1.479,37.796,29.617666666666665,37.917,34.922,55.778,34.9255,59.5695,52.373,53.729,34.085499999999996,58.1655,50.699,52.902,33.656,58.0955,50.10733333333333,-0.14549999999999996,-0.006000000000000227,0.10556000000000001,0.11083000000000001,0.0,210.91,210.95499999999998,207.71666666666667,207.71666666666667,0.0,0.0
14,0.0,0.0,0.0,1.0,1.0,0.0,0.0,1.0,0.0,100.0,1.0,1.1856,26.0,0.0,0.0,0.0,59.999996,0.0,26.0,26.0,26.0,26.0,0.08662499999999995,0.28180000000000005,-0.012266666666666667,292.847,-2.7339,-2.6189999999999998,-1.6308500000000001,-1.5118,-228.98,216.01749999999998,190.7045,0.0,0.0,0.0,0.0,0.028733333333333333,-5.498166666666667,-5.498166666666667,-0.5489,-0.13166666666666665,0.05212499999999998,1.3760000000000003,67.498,0.0477,-0.228775,-1.0479999999999992,100.0,1.0,1.0,208.23666666666668,0.0,0.0,0.0,0.0,0.0,0.0,0.0,8826.4,0.0,55.0,5.0,242.96666666666667,0.0,0.0,0.0,0.0,0.0,0.0,1.0,0.0,0.7049999999999983,0.7049999999999983,0.0,0.0,0.0,55.0,616.79921,10000.0,85.000001,85.000001,85.000001,85.000001,395.0,0.0,0.0,0.0,1.0,166.665,52.658,52.658,48.172,48.172,34.0,-19.4075,28.592,-25.25,31.8825,0.0,1781.906,-0.9699999999999989,100.0,27.707,27.817,42.488,43.141,0.0,0.0,100.0,0.0,0.0,0.0,0.0,2926.0,3251.5,3970.75,4214.7,305.8505,304.55133333333333,315.1585,314.44125,21.8968,20.5843,21.9172,21.4366,314.999998,314.999998,324.999988,324.999988,99.558,99.50735,99.56717142857143,99.54707142857143,0.15974999999999984,0.028750000000000053,-0.04999999999999993,0.17333333333333334,-0.045000000000001705,-0.041666666666671404,1.554,1.5145,37.855000000000004,29.652,37.982,34.979,55.769,34.963499999999996,59.606,52.4355,53.72,34.121,58.199,50.7595,52.891999999999996,33.69,58.126,50.166333333333334,-0.15500000000000003,-0.0040000000000000036,0.10666,0.10697000000000001,0.0,211.32999999999998,211.39,208.23666666666668,208.23666666666668,0.0,0.0
15,0.0,0.0,0.0,1.0,1.0,0.0,0.0,1.0,0.0,100.0,1.0,1.1856,26.0,0.0,0.0,0.0,59.999996,0.0,26.0,26.0,26.0,26.0,0.10175000000000001,0.2863,0.0089,292.877,-2.7086,-2.5768750000000002,-1.6280000000000001,-1.4529,-225.73,215.9975,190.68425,0.0,0.0,0.0,0.0,0.030633333333333332,-5.498166666666667,-5.498166666666667,-0.5401,0.3196666666666667,0.08174999999999999,1.0860000000000003,67.63,0.0627,-0.20935,-1.1820000000000004,100.0,1.0,1.0,208.63,0.0,0.0,0.0,0.0,0.0,0.0,0.0,8843.1,0.0,55.0,5.0,243.44,1.0,0.0,0.0,0.0,0.0,0.0,1.0,0.0,0.7530000000000001,0.7530000000000001,0.0,0.0,1.0,55.0,616.79921,10000.0,85.000001,85.000001,85.000001,85.000001,395.0,0.0,0.0,0.0,1.0,166.665,52.811,52.811,48.203,48.203,34.0,-17.96,28.174,-24.303333333333335,33.495000000000005,0.0,1781.858,-0.9800000000000004,100.0,27.673000000000002,27.845,42.229,43.187,0.0,0.0,100.0,0.0,0.0,0.0,0.0,2801.285714285714,3230.9,3947.875,4382.5,306.1945,304.604,315.22725,314.06675,21.9057,20.5896,21.9269,21.4452,314.999998,314.999998,324.999988,324.999988,99.55802857142857,99.50735,99.5673,99.54721428571429,0.16749999999999998,0.032500000000000195,-0.03483333333333338,0.19133333333333336,-0.06333333333333258,-0.03833333333332689,1.5465,1.5135,37.911,29.685000000000002,38.043,35.033,55.76,35.0,59.638999999999996,52.4945,53.712,34.1545,58.2295,50.8165,52.882999999999996,33.722,58.1535,50.22233333333333,-0.1499999999999999,-0.0034999999999998366,0.10676000000000001,0.10985,0.0,211.76,211.825,208.63,208.63,0.0,0.0
16,0.0,0.0,0.0,1.0,1.0,0.0,0.0,1.0,0.0,100.0,1.0,1.1856,26.0,0.0,0.0,0.0,59.999996,0.0,26.0,26.0,26.0,26.0,0.12400000000000011,0.2651000000000001,-0.0514,292.908,-2.8087,-2.6077500000000002,-1.6014,-1.4518,-222.28,215.98000000000002,190.66225,0.0,0.0,0.0,0.0,0.032633333333333334,-5.498166666666667,-5.498166666666667,-0.5602,-0.7253333333333334,0.06899999999999995,-1.017,67.77,0.0741,-0.225025,-1.1959999999999997,100.0,1.0,1.0,209.05666666666667,0.0,0.0,0.0,0.0,0.0,0.0,0.0,8861.1,0.0,55.0,5.0,243.94333333333333,0.0,0.0,0.0,0.0,0.0,0.0,1.0,0.0,0.8039999999999985,0.8039999999999985,0.0,0.0,0.0,55.0,616.79921,10000.0,85.000001,85.000001,85.000001,85.000001,395.0,0.0,0.0,0.0,1.0,333.33500000000004,52.795,52.795,47.913,47.913,34.0,-20.21,28.22,-23.876666666666665,32.1475,0.0,1781.806,-0.9050000000000011,100.0,27.155,28.101,42.427,43.418,0.0,0.0,100.0,0.0,0.0,0.0,0.0,2993.285714285714,3184.5,3967.375,4146.9,305.941,304.5663333333333,315.2195,314.54725,21.9148,20.5952,21.9374,21.4544,314.999998,314.999998,324.999988,324.999988,99.55804285714285,99.50736666666667,99.56745714285714,99.54735714285714,0.16199999999999992,0.03200000000000003,-0.03316666666666657,0.20466666666666677,-0.060000000000002274,-0.045000000000001705,1.5705,1.5099999999999998,37.968,29.719666666666665,38.108000000000004,35.09,55.748000000000005,35.04,59.6765,52.557,53.7,34.1915,58.2645,50.8765,52.870000000000005,33.7575,58.1855,50.281666666666666,-0.14500000000000002,-0.009500000000000064,0.10831,0.11510500000000001,0.0,212.155,212.22500000000002,209.05666666666667,209.05666666666667,0.0,0.0
17,0.0,0.0,0.0,1.0,1.0,0.0,0.0,1.0,0.0,100.0,1.0,1.1856,26.0,0.0,0.0,0.0,59.999996,0.0,26.0,26.0,26.0,26.0,0.11850000000000005,0.2861,-0.03606666666666667,292.572,-2.7614,-2.5675,-1.6399,-1.4762,-218.82,215.965,190.639625,0.0,0.0,0.0,0.0,0.03466666666666667,-5.498166666666667,-5.498166666666667,-0.5512,0.5453333333333333,0.04912499999999986,0.6690000000000005,67.90899999999999,0.07740000000000001,-0.20700000000000002,-1.1679999999999993,100.0,1.0,1.0,209.46333333333334,0.0,0.0,0.0,0.0,0.0,0.0,0.0,8878.4,0.0,55.0,5.0,244.44333333333333,1.0,0.0,0.0,0.0,0.0,0.0,1.0,0.0,0.8550000000000004,0.8550000000000004,0.0,0.0,1.0,55.0,616.79921,10000.0,85.000001,85.000001,85.000001,85.000001,395.0,0.0,0.0,0.0,1.0,333.33500000000004,52.475,52.475,47.928,47.928,34.0,-18.9525,27.758,-25.343333333333334,33.975,0.0,1781.754,-0.9749999999999979,100.0,27.818,28.285,42.252,43.295,0.0,0.0,100.0,0.0,0.0,0.0,0.0,2982.714285714286,3145.4,4182.875,4312.4,305.7485,304.877,314.75175,314.279,21.9243,20.6009,21.9476,21.4635,314.999998,314.999998,324.999988,324.999988,99.55805714285714,99.50736666666667,99.56758571428571,99.54751428571429,0.18524999999999991,0.04574999999999996,-0.019499999999999962,0.20616666666666683,-0.04999999999999716,-0.03833333333332689,1.536,1.501,38.027,29.755333333333333,38.173,35.147,55.739999999999995,35.081,59.7115,52.619,53.693,34.2295,58.297,50.9365,52.861000000000004,33.794,58.2145,50.340333333333334,-0.15500000000000003,-0.002000000000000224,0.10503000000000001,0.11062500000000001,0.0,212.61,212.69,209.46333333333334,209.46333333333334,0.0,0.0
18,0.0,0.0,0.0,1.0,1.0,0.0,0.0,1.0,0.0,100.0,1.0,1.1856,26.0,0.0,0.0,0.0,59.999996,0.0,26.0,26.0,26.0,26.0,0.09975,0.2743,-0.033,292.557,-2.7964,-2.5406250000000004,-1.6535000000000002,-1.4251,-215.56,215.9525,190.6185,0.0,0.0,0.0,0.0,0.036533333333333334,-5.498166666666667,-5.498166666666667,-0.5601,-0.5273333333333334,0.07050000000000001,1.0099999999999998,68.03999999999999,0.0824,-0.22290000000000001,-1.1360000000000001,100.0,1.0,1.0,209.87,0.0,0.0,0.0,0.0,0.0,0.0,0.0,8895.7,0.0,55.0,5.0,244.91333333333336,0.0,0.0,0.0,0.0,0.0,0.0,1.0,0.0,0.9029999999999987,0.9029999999999987,0.0,0.0,0.0,55.0,616.79921,10000.0,85.000001,85.000001,85.000001,85.000001,395.0,0.0,0.0,0.0,1.0,333.33500000000004,52.444,52.444,47.775,47.775,34.0,-20.2975,29.009999999999998,-24.163333333333334,32.370000000000005,0.0,1781.707,-0.6400000000000006,100.0,27.566,28.072,42.609,43.713,0.0,0.0,100.0,0.0,0.0,0.0,0.0,2982.0,3353.8,3999.875,4207.6,305.817,304.3353333333333,315.126,314.48525,21.9331,20.6061,21.9575,21.4722,314.999998,314.999998,324.999988,324.999988,99.55808571428571,99.50736666666667,99.56772857142857,99.54764285714286,0.15949999999999998,0.03400000000000025,-0.019333333333333313,0.20783333333333331,-0.03999999999999915,-0.04833333333333201,1.564,1.516,38.082,29.788333333333334,38.233999999999995,35.201499999999996,55.730999999999995,35.1185,59.747,52.6795,53.684,34.263999999999996,58.33,50.9945,52.851,33.827,58.2445,50.397333333333336,-0.13050000000000006,-0.028999999999999915,0.10961000000000001,0.10548,0.0,212.99,213.06,209.87,209.87,0.0,0.0
19,0.0,0.0,0.0,1.0,1.0,0.0,0.0,1.0,0.0,100.0,1.0,1.1856,26.0,0.0,0.0,0.0,59.999996,0.0,26.0,26.0,26.0,26.0,0.08912500000000012,0.29469999999999996,0.035633333333333336,292.023,-2.7607,-2.5330000000000004,-1.6547,-1.4198,-212.07999999999998,215.945,190.596,0.0,0.0,0.0,0.0,0.03856666666666667,-5.498166666666667,-5.498166666666667,-0.5511,0.8556666666666667,0.06274999999999986,-0.8860000000000001,68.17699999999999,0.0824,-0.211175,-0.5179999999999998,100.0,1.0,1.0,210.26999999999998,0.0,0.0,0.0,0.0,0.0,0.0,0.0,8912.6,0.0,55.0,5.0,245.40666666666667,1.0,0.0,0.0,0.0,0.0,0.0,1.0,0.0,0.9540000000000006,0.9540000000000006,0.0,0.0,1.0,55.0,616.79921,10000.0,85.000001,85.000001,85.000001,85.000001,395.0,0.0,0.0,0.0,1.0,333.33500000000004,51.697,51.697,47.623,47.623,34.0,-23.2425,26.137999999999998,-25.909999999999997,32.585,0.0,1781.656,0.08500000000000085,100.0,28.012,28.663,42.377,43.704,0.0,0.0,100.0,0.0,0.0,0.0,0.0,3184.714285714286,3264.7,4226.5,4335.0,305.2585,304.3113333333333,314.70525,314.18625,21.9426,20.6119,21.9678,21.4814,314.999998,314.999998,324.999988,324.999988,99.5581,99.50738333333334,99.56785714285714,99.5478,0.12150000000000016,-0.018750000000000044,-0.021499999999999964,0.1918333333333333,-0.03499999999999659,-0.041666666666671404,1.541,1.525,38.141,29.824333333333335,38.299,35.2585,55.723,35.159,59.782,52.7415,53.675,34.3015,58.362,51.0545,52.842,33.8635,58.2735,50.45633333333333,-0.07899999999999996,-0.08250000000000002,0.10179500000000001,0.102995,0.0,213.46,213.505,210.26999999999998,210.26999999999998,0.0,0.0
20,0.0,0.0,0.0,1.0,1.0,0.0,0.0,1.0,0.0,100.0,1.0,1.1856,26.0,0.0,0.0,0.0,59.999996,0.0,26.0,26.0,26.0,26.0,0.049875000000000114,0.2755000000000001,0.0198,292.328,-2.7881,-2.62075,-1.5666,-1.5603,-208.6,215.9375,190.573625,0.0,0.0,0.0,0.0,0.040600000000000004,-5.498166666666667,-5.498166666666667,-0.5527000000000001,-1.1663333333333332,0.04562500000000003,0.04400000000000048,68.316,0.0585,-0.21982500000000002,0.06200000000000028,100.0,1.0,1.0,210.58333333333331,0.0,0.0,0.0,0.0,0.0,0.0,0.0,8925.9,0.0,55.0,5.0,245.91333333333336,0.0,0.0,0.0,0.0,0.0,0.0,0.0,0.0,1.004999999999999,1.004999999999999,0.0,0.0,0.0,55.0,616.79921,10000.0,85.000001,85.000001,85.000001,85.000001,395.0,0.0,0.0,0.0,1.0,333.33500000000004,52.887,52.887,46.86,46.86,34.0,-21.7925,24.658,-26.413333333333334,33.79,0.0,1781.605,0.379999999999999,100.0,27.667,28.079,43.25,43.933,0.0,0.0,100.0,0.0,0.0,0.0,0.0,2868.142857142857,3152.2,4181.0,4302.1,306.1975,304.88533333333334,314.5795,314.09175,21.9518,20.6174,21.9784,21.4907,314.999998,314.999998,324.999988,324.999988,99.55811428571428,99.50738333333334,99.56801428571428,99.54794285714286,0.09650000000000025,-0.041749999999999954,-0.04999999999999993,0.1721666666666668,-0.04333333333332945,-0.05666666666667197,1.4725000000000001,1.4685000000000001,38.199,29.859,38.364999999999995,35.317,55.708,35.197,59.822,52.806,53.661,34.337,58.3995,51.1165,52.827,33.897,58.3075,50.51733333333333,-0.050000000000000044,-0.10599999999999987,0.10595,0.10901000000000001,0.0,213.865,213.88,210.58333333333331,210.58333333333331,0.0,0.0
21,0.0,0.0,0.0,1.0,1.0,0.0,0.0,1.0,0.0,100.0,1.0,1.1856,26.0,0.0,0.0,0.0,59.999996,0.0,26.0,26.0,26.0,26.0,-0.007124999999999937,0.27390000000000003,-0.07350000000000001,292.694,-2.6757,-2.6995,-1.6105,-1.5375,-205.32,215.9325,190.552,0.0,0.0,0.0,0.0,0.0425,-5.498166666666667,-5.498166666666667,-0.5782,0.461,0.007749999999999924,-0.20000000000000018,68.441,0.0229,-0.22537500000000002,0.548,100.0,1.0,1.0,211.2266666666667,0.0,0.0,0.0,0.0,0.0,0.0,0.0,8953.1,0.0,55.0,5.0,246.36,1.0,0.0,0.0,0.0,0.0,0.0,0.0,0.0,1.0530000000000008,1.0530000000000008,0.0,0.0,1.0,55.0,616.79921,10000.0,85.000001,85.000001,85.000001,85.000001,395.0,0.0,0.0,0.0,1.0,166.665,52.292,52.292,48.355000000000004,48.355000000000004,34.0,-23.7725,24.344,-27.61,27.5925,0.0,1781.558,0.4299999999999997,100.0,28.145,28.062,42.727000000000004,43.291,0.0,0.0,100.0,0.0,0.0,0.0,0.0,3067.0,3141.2,4001.125,3962.1000000000004,305.427,304.83233333333334,315.2065,315.1,21.9607,20.622700000000002,21.9881,21.4991,314.999998,314.999998,324.999988,324.999988,99.55811428571428,99.5074,99.56814285714286,99.54808571428572,0.07299999999999995,-0.06624999999999992,-0.10266666666666657,0.13250000000000006,-0.07499999999999574,-0.05666666666667197,1.581,1.5995,38.254000000000005,29.892333333333333,38.426,35.3695,55.696,35.235,59.8525,52.86,53.65,34.3715,58.428,51.1685,52.815,33.9305,58.3335,50.568,-0.038999999999999924,-0.11750000000000016,0.10655,0.11117,0.0,214.335,214.26,211.2266666666667,211.2266666666667,0.0,0.0
22,0.0,0.0,0.0,1.0,1.0,0.0,0.0,1.0,0.0,100.0,1.0,1.1856,26.0,0.0,0.0,0.0,59.999996,0.0,26.0,26.0,26.0,26.0,-0.038124999999999964,0.28100000000000014,-0.008333333333333333,292.16,-2.6381,-2.724125,-1.5903,-1.5431,-201.62,215.9275,190.52675,0.0,0.0,0.0,0.0,0.044666666666666674,-5.498166666666667,-5.498166666666667,-0.5564,0.033666666666666664,-0.003249999999999975,0.8079999999999998,68.588,-0.012400000000000001,-0.20455,0.726,100.0,1.0,1.0,211.45,0.0,0.0,0.0,0.0,0.0,0.0,0.0,8962.7,0.0,55.0,5.0,246.89,0.0,0.0,0.0,0.0,0.0,0.0,0.0,0.0,1.1069999999999993,1.1069999999999993,0.0,0.0,0.0,55.0,616.79921,10000.0,85.000001,85.000001,85.000001,85.000001,395.0,0.0,0.0,0.0,1.0,166.665,52.444,52.444,47.104,47.104,34.0,-23.349999999999998,23.098,-31.876666666666665,28.7425,0.0,1781.504,0.34499999999999886,100.0,28.338,27.989,43.453,43.384,0.0,0.0,100.0,0.0,0.0,0.0,0.0,2959.142857142857,3072.1,4239.875,4318.6,305.708,305.038,314.53075,314.25575,21.9707,20.6286,21.999299999999998,21.5089,314.999998,314.999998,324.999988,324.999988,99.55814285714285,99.5074,99.5683,99.54824285714285,0.052999999999999936,-0.08699999999999997,-0.13883333333333336,0.08933333333333326,-0.03333333333333144,-0.05333333333332746,1.475,1.513,38.317,29.928666666666665,38.495999999999995,35.4305,55.682,35.2775,59.894999999999996,52.9245,53.637,34.411,58.4675,51.231,52.8,33.9685,58.37,50.629333333333335,-0.04699999999999993,-0.11050000000000004,0.11613500000000002,0.10376,0.0,214.78,214.715,211.45,211.45,0.0,0.0
23,0.0,0.0,0.0,1.0,1.0,0.0,0.0,1.0,0.0,100.0,1.0,1.1856,26.0,0.0,0.0,0.0,59.999996,0.0,26.0,26.0,26.0,26.0,-0.042625000000000024,0.25060000000000016,-0.04746666666666667,292.175,-2.6577,-2.68575,-1.6304500000000002,-1.6182,-198.12,215.92000000000002,190.50325,0.0,0.0,0.0,0.0,0.046700000000000005,-5.498166666666667,-5.498166666666667,-0.5749000000000001,-0.16433333333333336,-0.020500000000000185,-0.7210000000000001,68.721,-0.0332,-0.230475,0.8540000000000001,100.0,1.0,1.0,211.99333333333334,0.0,0.0,0.0,0.0,0.0,0.0,0.0,8985.6,0.0,55.0,5.0,247.37,1.0,0.0,0.0,0.0,0.0,0.0,0.0,0.0,1.1580000000000013,1.1580000000000013,0.0,0.0,1.0,55.0,616.79921,10000.0,85.000001,85.000001,85.000001,85.000001,395.0,0.0,0.0,0.0,1.0,166.665,51.757999999999996,51.757999999999996,48.172,48.172,34.0,-28.0875,21.64,-31.099999999999998,25.195,0.0,1781.453,0.3550000000000004,100.0,28.586,28.162,43.611000000000004,43.543,0.0,0.0,100.0,0.0,0.0,0.0,0.0,3364.285714285714,3015.8,4029.625,3915.6000000000004,304.692,305.105,315.19175,315.072,21.9803,20.6341,22.0098,21.5181,314.999998,314.999998,324.999988,324.999988,99.55814285714285,99.50741666666667,99.56845714285714,99.54838571428571,0.030749999999999833,-0.10499999999999998,-0.15983333333333338,0.06233333333333335,-0.04999999999999716,-0.03499999999999659,1.5205,1.5675,38.376999999999995,29.96333333333333,38.562,35.488,55.669,35.319,59.933,52.9845,53.623999999999995,34.4495,58.503,51.2885,52.786,34.004999999999995,58.402,50.68566666666666,-0.04949999999999988,-0.10450000000000026,0.10469,0.10493500000000001,0.0,215.19,215.10000000000002,211.99333333333334,211.99333333333334,0.0,0.0
24,0.0,0.0,0.0,1.0,1.0,0.0,0.0,1.0,0.0,100.0,1.0,1.1856,26.0,0.0,0.0,0.0,59.999996,0.0,26.0,26.0,26.0,26.0,-0.08024999999999993,0.2812000000000001,-0.0575,292.389,-2.6704,-2.706125,-1.5448,-1.565,-195.01999999999998,215.91500000000002,190.48225,0.0,0.0,0.0,0.0,0.0485,-5.498166666666667,-5.498166666666667,-0.5786,-0.5586666666666666,-0.016125000000000167,0.9400000000000004,68.842,-0.042800000000000005,-0.21732500000000002,0.6539999999999999,100.0,1.0,1.0,212.24333333333334,0.0,0.0,0.0,0.0,0.0,0.0,0.0,8996.2,0.0,55.0,5.0,247.80333333333334,0.0,0.0,0.0,0.0,0.0,0.0,0.0,0.0,1.2029999999999994,1.2029999999999994,0.0,0.0,0.0,55.0,616.79921,10000.0,85.000001,85.000001,85.000001,85.000001,395.0,0.0,0.0,0.0,1.0,333.33500000000004,52.872,52.872,47.119,47.119,34.0,-24.24,21.037999999999997,-32.57,26.025,0.0,1781.406,0.27500000000000213,100.0,28.442,27.664,43.769,43.272,0.0,0.0,100.0,0.0,0.0,0.0,0.0,2961.285714285714,2952.2,4297.5,4124.8,305.8,305.52566666666667,314.34775,314.6985,21.9885,20.6389,22.0191,21.5261,314.999998,314.999998,324.999988,324.999988,99.55814285714285,99.50743333333334,99.56858571428572,99.54851428571429,0.035499999999999865,-0.10525000000000007,-0.15566666666666662,0.06166666666666676,-0.054999999999999716,-0.03833333333332689,1.5110000000000001,1.533,38.428,29.993000000000002,38.619,35.5385,55.656,35.354,59.9675,53.037,53.611000000000004,34.4815,58.535,51.338499999999996,52.772999999999996,34.0355,58.4315,50.73466666666667,-0.057499999999999885,-0.09450000000000003,0.10775000000000001,0.10008,0.0,215.565,215.47,212.24333333333334,212.24333333333334,0.0,0.0
25,0.0,0.0,0.0,1.0,1.0,0.0,0.0,1.0,0.0,100.0,1.0,1.1856,26.0,0.0,0.0,0.0,59.999996,0.0,26.0,26.0,26.0,26.0,-0.060124999999999984,0.2631000000000001,-0.058666666666666666,292.374,-2.7347,-2.670125,-1.5542,-1.5723,-191.51,215.905,190.457,0.0,0.0,0.0,0.0,0.05053333333333333,-5.498166666666667,-5.498166666666667,-0.6124,-0.051000000000000004,-0.020375000000000032,-1.0579999999999998,68.974,-0.047400000000000005,-0.22612500000000002,0.6040000000000001,100.0,1.0,1.0,212.8,0.0,0.0,0.0,0.0,0.0,0.0,0.0,9019.8,0.0,55.0,5.0,248.28,1.0,0.0,0.0,0.0,0.0,0.0,0.0,0.0,1.2540000000000013,1.2540000000000013,0.0,0.0,1.0,55.0,616.79921,10000.0,85.000001,85.000001,85.000001,85.000001,395.0,0.0,0.0,0.0,1.0,333.33500000000004,51.894999999999996,51.894999999999996,47.958,47.958,34.0,-28.5225,22.598,-29.996666666666666,24.5,0.0,1781.355,0.19000000000000128,100.0,28.296,28.022,43.434,42.995000000000005,0.0,0.0,100.0,0.0,0.0,0.0,0.0,3347.142857142857,3161.0,4001.875,3974.0,304.9355,304.72333333333336,315.193,315.0545,21.997799999999998,20.6444,22.0295,21.5352,314.999998,314.999998,324.999988,324.999988,99.55814285714285,99.50743333333334,99.56872857142857,99.54865714285714,0.028500000000000192,-0.10599999999999987,-0.1638333333333334,0.0561666666666667,-0.04833333333333201,-0.036666666666668846,1.56,1.592,38.486000000000004,30.02733333333333,38.684,35.5945,55.64,35.3955,60.003,53.0935,53.596000000000004,34.5195,58.5685,51.393,52.757,34.072,58.462,50.78766666666667,-0.06800000000000006,-0.09399999999999986,0.106355,0.10068500000000001,0.0,215.95499999999998,215.89,212.8,212.8,0.0,0.0
26,0.0,0.0,0.0,1.0,1.0,0.0,0.0,1.0,0.0,100.0,1.0,1.1856,26.0,0.0,0.0,0.0,59.999996,0.0,26.0,26.0,26.0,26.0,-0.07025000000000003,0.27170000000000005,0.0699,291.138,-2.6822,-2.747625,-1.5997,-1.569,-187.78,215.89249999999998,190.429625,0.0,0.0,0.0,0.0,0.052700000000000004,-5.498166666666667,-5.498166666666667,-0.5707,0.6203333333333334,-0.04012500000000019,-0.7859999999999996,69.119,-0.0471,-0.197825,0.5499999999999998,100.0,1.0,1.0,212.95666666666668,0.0,0.0,0.0,0.0,0.0,0.0,0.0,9026.5,0.0,55.0,5.0,248.8,0.0,0.0,0.0,0.0,0.0,0.0,0.0,0.0,1.3079999999999998,1.3079999999999998,0.0,0.0,0.0,55.0,616.79921,10000.0,85.000001,85.000001,85.000001,85.000001,395.0,0.0,0.0,0.0,1.0,166.665,51.453,51.453,46.143,46.143,34.0,-27.4025,21.688,-37.58,28.8575,0.0,1781.303,0.030000000000001137,100.0,29.137999999999998,28.674,44.012,43.451,0.0,0.0,100.0,0.0,0.0,0.0,0.0,3302.4285714285716,2965.5,4649.875,4479.8,304.927,305.17333333333335,313.67675,313.81375,22.008,20.6504,22.0407,21.545,314.999998,314.999998,324.999988,324.999988,99.55815714285714,99.50745,99.5689,99.54881428571429,0.0365000000000002,-0.10949999999999993,-0.1668333333333334,0.055333333333333234,-0.045000000000001705,-0.054999999999999716,1.4144999999999999,1.4449999999999998,38.55,30.064999999999998,38.754000000000005,35.656,55.628,35.4415,60.0465,53.158,53.585,34.5625,58.609,51.455,52.744,34.113,58.499,50.848333333333336,-0.0814999999999999,-0.08599999999999985,0.10477,0.110295,0.0,216.435,216.375,212.95666666666668,212.95666666666668,0.0,0.0
27,0.0,0.0,0.0,1.0,1.0,0.0,0.0,1.0,0.0,100.0,1.0,1.1856,26.0,0.0,0.0,0.0,59.999996,0.0,26.0,26.0,26.0,26.0,-0.05337499999999995,0.2550000000000001,-0.009333333333333334,291.58,-2.6432,-2.7193750000000003,-1.58965,-1.6421999999999999,-184.67000000000002,215.88,190.408,0.0,0.0,0.0,0.0,0.0545,-5.498166666666667,-5.498166666666667,-0.5962000000000001,-1.039,-0.0365000000000002,0.8109999999999999,69.235,-0.0417,-0.24225000000000002,0.25200000000000067,100.0,1.0,1.0,213.43,0.0,0.0,0.0,0.0,0.0,0.0,0.0,9046.5,0.0,55.0,5.0,249.22,1.0,0.0,0.0,0.0,0.0,0.0,0.0,0.0,1.352999999999998,1.352999999999998,0.0,0.0,1.0,55.0,616.79921,10000.0,85.000001,85.000001,85.000001,85.000001,395.0,0.0,0.0,0.0,1.0,333.33500000000004,51.772999999999996,51.772999999999996,46.631,46.631,34.0,-24.7075,23.726,-31.836666666666666,27.805,0.0,1781.256,-0.0799999999999983,100.0,28.994,28.268,44.707,43.916,0.0,0.0,100.0,0.0,0.0,0.0,0.0,3114.285714285714,3141.6,4128.5,4101.5,305.304,304.9223333333333,314.76825,314.66225,22.0162,20.6552,22.0501,21.5532,314.999998,314.999998,324.999988,324.999988,99.55817142857143,99.50746666666667,99.56902857142857,99.54895714285715,0.05449999999999999,-0.08325000000000005,-0.15783333333333338,0.07366666666666677,-0.03499999999999659,-0.03499999999999659,1.4914999999999998,1.499,38.601,30.095333333333336,38.813,35.707499999999996,55.614999999999995,35.477000000000004,60.082499999999996,53.212,53.572,34.595,58.6425,51.507,52.732,34.144,58.5295,50.899,-0.08899999999999997,-0.06899999999999995,0.11086000000000001,0.10368000000000001,0.0,216.72500000000002,216.68,213.43,213.43,0.0,0.0
28,0.0,0.0,0.0,1.0,1.0,0.0,0.0,1.0,0.0,100.0,1.0,1.1856,26.0,0.0,0.0,0.0,59.999996,0.0,26.0,26.0,26.0,26.0,-0.024499999999999966,0.2681,-0.05313333333333334,291.916,-2.6697,-2.69525,-1.5448,-1.5984,-181.13,215.8675,190.38275,0.0,0.0,0.0,0.0,0.05656666666666667,-5.498166666666667,-5.498166666666667,-0.6024,0.619,-0.03774999999999995,-0.3879999999999999,69.36500000000001,-0.0335,-0.218925,0.274,100.0,1.0,1.0,213.95666666666668,0.0,0.0,0.0,0.0,0.0,0.0,0.0,9068.8,0.0,55.0,5.0,249.68666666666667,0.0,0.0,0.0,0.0,0.0,0.0,0.0,0.0,1.404,1.404,0.0,0.0,0.0,55.0,616.79921,10000.0,85.000001,85.000001,85.000001,85.000001,395.0,0.0,0.0,0.0,1.0,333.33500000000004,51.727000000000004,51.727000000000004,47.607,47.607,34.0,-26.35,22.506,-29.689999999999998,27.2425,0.0,1781.205,-0.17999999999999972,100.0,28.842,28.377,43.855000000000004,43.461,0.0,0.0,100.0,0.0,0.0,0.0,0.0,3300.4285714285716,3011.1,4067.375,4101.1,304.9585,305.112,315.03325,314.74225,22.0256,20.6608,22.0604,21.5623,314.999998,314.999998,324.999988,324.999988,99.55817142857143,99.50748333333334,99.56917142857142,99.54908571428571,0.05624999999999991,-0.08599999999999985,-0.14649999999999996,0.08050000000000002,-0.03833333333332689,-0.05666666666667197,1.547,1.556,38.66,30.130333333333333,38.878,35.763999999999996,55.602999999999994,35.518,60.116,53.2685,53.561,34.6325,58.674,51.5615,52.719,34.18,58.558,50.952,-0.09599999999999986,-0.06450000000000022,0.09777000000000001,0.110725,0.0,217.16500000000002,217.15,213.95666666666668,213.95666666666668,0.0,0.0
29,0.0,0.0,0.0,1.0,1.0,0.0,0.0,1.0,0.0,100.0,1.0,1.1856,26.0,0.0,0.0,0.0,59.999996,0.0,26.0,26.0,26.0,26.0,-0.023249999999999993,0.26039999999999996,0.012733333333333333,291.565,-2.6318,-2.7439999999999998,-1.5500500000000001,-1.568,-177.59,215.85250000000002,190.356375,0.0,0.0,0.0,0.0,0.05863333333333334,-5.498166666666667,-5.498166666666667,-0.6051000000000001,-0.6993333333333334,-0.024875000000000203,0.8790000000000004,69.499,-0.0235,-0.21655000000000002,-0.05799999999999983,100.0,1.0,1.0,214.18666666666667,0.0,0.0,0.0,0.0,0.0,0.0,0.0,9078.7,0.0,55.0,5.0,250.17000000000002,1.0,0.0,0.0,0.0,0.0,0.0,0.0,0.0,1.4549999999999983,1.4549999999999983,0.0,0.0,1.0,55.0,616.79921,10000.0,85.000001,85.000001,85.000001,85.000001,395.0,0.0,0.0,0.0,1.0,333.33500000000004,51.879999999999995,51.879999999999995,46.555,46.555,34.0,-23.965,24.997999999999998,-30.693333333333335,29.365000000000002,0.0,1781.154,-0.245000000000001,100.0,28.595,28.141,44.274,43.744,0.0,0.0,100.0,0.0,0.0,0.0,0.0,3145.0,3173.2,4202.625,4282.0,305.2575,304.69433333333336,314.55625,314.2955,22.0348,20.6664,22.070999999999998,21.5716,314.999998,314.999998,324.999988,324.999988,99.55817142857143,99.50748333333334,99.56931428571428,99.54924285714286,0.07450000000000001,-0.06925000000000003,-0.13116666666666665,0.09499999999999997,-0.036666666666668846,-0.05333333333332746,1.483,1.4805000000000001,38.718,30.164666666666665,38.944,35.8225,55.589,35.557,60.1555,53.33,53.547,34.6685,58.711,51.6205,52.705,34.2145,58.591499999999996,51.00966666666667,-0.10299999999999998,-0.06050000000000022,0.10998000000000001,0.10231000000000001,0.0,217.54000000000002,217.54000000000002,214.18666666666667,214.18666666666667,0.0,0.0
30,0.0,0.0,0.0,1.0,1.0,0.0,0.0,1.0,0.0,100.0,1.0,1.1856,26.0,0.0,0.0,0.0,59.999996,0.0,26.0,26.0,26.0,26.0,-0.01574999999999993,0.24890000000000012,0.06503333333333335,291.031,-2.6891,-2.627125,-1.52925,-1.6261,-174.25,215.8375,190.331375,0.0,0.0,0.0,0.0,0.060566666666666664,-5.498166666666667,-5.498166666666667,-0.6052000000000001,0.7663333333333334,-0.02312499999999984,0.7119999999999997,69.62100000000001,-0.0131,-0.2187,-0.08999999999999986,100.0,1.0,1.0,214.63333333333333,0.0,0.0,0.0,0.0,0.0,0.0,0.0,9097.5,0.0,55.0,5.0,250.60666666666668,0.0,0.0,0.0,0.0,0.0,0.0,1.0,0.0,1.5030000000000001,1.5030000000000001,0.0,0.0,0.0,55.0,616.79921,10000.0,85.000001,85.000001,85.000001,85.000001,395.0,0.0,0.0,0.0,1.0,333.33500000000004,50.69,50.69,46.921,46.921,34.0,-25.61,24.927999999999997,-29.533333333333335,31.115000000000002,0.0,1781.106,-0.3099999999999987,100.0,29.462,28.931,44.055,43.826,0.0,0.0,100.0,0.0,0.0,0.0,0.0,3339.285714285714,3236.9,4197.375,4268.4,304.6375,304.51666666666665,314.66925,314.289,22.0438,20.6719,22.0808,21.5803,314.999998,314.999998,324.999988,324.999988,99.55818571428571,99.5075,99.56947142857143,99.54938571428572,0.08975,-0.058499999999999996,-0.1183333333333334,0.11233333333333317,-0.03333333333333144,-0.03999999999999915,1.4835,1.4754999999999998,38.774,30.198999999999998,39.004999999999995,35.876999999999995,55.58,35.597,60.1885,53.3855,53.539,34.706,58.7415,51.674,52.695,34.25,58.6195,51.062,-0.10749999999999993,-0.06499999999999995,0.109755,0.109435,0.0,217.94,217.95,214.63333333333333,214.63333333333333,0.0,0.0
31,0.0,0.0,0.0,1.0,1.0,0.0,0.0,1.0,0.0,100.0,1.0,1.1856,26.0,0.0,0.0,0.0,59.999996,0.0,26.0,26.0,26.0,26.0,-0.012375000000000025,0.2553000000000001,0.0012333333333333335,290.939,-2.7605,-2.60175,-1.5762,-1.5185,-170.7,215.82,190.3055,0.0,0.0,0.0,0.0,0.06263333333333335,-5.498166666666667,-5.498166666666667,-0.5904,-0.5453333333333333,-0.016249999999999876,-0.7880000000000003,69.753,-0.0007,-0.22135000000000002,-0.23599999999999977,100.0,1.0,1.0,214.92333333333335,0.0,0.0,0.0,0.0,0.0,0.0,0.0,9109.8,0.0,55.0,5.0,251.08333333333334,1.0,0.0,0.0,0.0,0.0,0.0,1.0,0.0,1.5539999999999985,1.5539999999999985,0.0,0.0,1.0,55.0,616.79921,10000.0,85.000001,85.000001,85.000001,85.000001,395.0,0.0,0.0,0.0,1.0,166.665,51.376,51.376,45.532,45.532,34.0,-24.6675,24.433999999999997,-31.276666666666664,29.3175,0.0,1781.057,-0.34999999999999787,100.0,29.021,29.097,44.620000000000005,44.605000000000004,0.0,0.0,100.0,0.0,0.0,0.0,0.0,3187.142857142857,3172.0,4415.25,4176.3,305.408,304.7663333333333,314.12925,314.43475,22.0531,20.677599999999998,22.0915,21.5898,314.999998,314.999998,324.999988,324.999988,99.5582,99.5075,99.56961428571428,99.54952857142857,0.08725000000000005,-0.050000000000000044,-0.10116666666666663,0.11699999999999999,-0.054999999999999716,-0.03999999999999915,1.46,1.4380000000000002,38.832,30.235,39.072,35.936,55.569,35.6375,60.229,53.448499999999996,53.528,34.743,58.7795,51.7345,52.683,34.2855,58.653999999999996,51.121,-0.11099999999999999,-0.052999999999999936,0.10029,0.10809,0.0,218.335,218.325,214.92333333333335,214.92333333333335,0.0,0.0
32,0.0,0.0,0.0,1.0,1.0,0.0,0.0,1.0,0.0,100.0,1.0,1.1856,26.0,0.0,0.0,0.0,59.999996,0.0,26.0,26.0,26.0,26.0,-0.006249999999999978,0.272,-0.04316666666666667,291.214,-2.6948,-2.707125,-1.6435,-1.526,-167.14,215.805,190.28,0.0,0.0,0.0,0.0,0.06470000000000001,-5.498166666666667,-5.498166666666667,-0.6072000000000001,0.096,-0.035499999999999865,0.23899999999999988,69.88,0.007500000000000001,-0.22870000000000001,-0.2839999999999998,100.0,1.0,1.0,215.44666666666666,0.0,0.0,0.0,0.0,0.0,0.0,0.0,9132.0,0.0,55.0,5.0,251.54333333333335,0.0,0.0,0.0,0.0,0.0,0.0,1.0,0.0,1.6050000000000004,1.6050000000000004,0.0,0.0,0.0,55.0,616.79921,10000.0,85.000001,85.000001,85.000001,85.000001,395.0,0.0,0.0,0.0,1.0,333.33500000000004,51.269999999999996,51.269999999999996,46.57,46.57,34.0,-23.634999999999998,26.054,-29.45,30.0775,0.0,1781.004,-0.375,100.0,29.118,28.967,44.348,44.282,0.0,0.0,100.0,0.0,0.0,0.0,0.0,3191.142857142857,3173.1,4208.875,4258.0,305.1415,304.77566666666667,314.742,314.48175,22.0624,20.6834,22.1019,21.599,314.999998,314.999998,324.999988,324.999988,99.55821428571429,99.5075,99.56975714285714,99.54968571428572,0.10424999999999995,-0.034499999999999975,-0.09216666666666662,0.13000000000000012,-0.03833333333332689,-0.06499999999999773,1.5485,1.5299999999999998,38.89,30.271,39.137,35.994,55.558,35.678,60.263999999999996,53.507,53.518,34.7805,58.8115,51.791,52.672,34.3215,58.683,51.176,-0.11050000000000004,-0.05250000000000021,0.100815,0.11003,0.0,218.715,218.745,215.44666666666666,215.44666666666666,0.0,0.0
33,0.0,0.0,0.0,1.0,1.0,0.0,0.0,1.0,0.0,100.0,1.0,1.1856,26.0,0.0,0.0,0.0,59.999996,0.0,26.0,26.0,26.0,26.0,0.02774999999999994,0.2643,-0.03163333333333333,291.412,-2.7108,-2.6957500000000003,-1.57935,-1.6059999999999999,-163.57,215.7875,190.25325,0.0,0.0,0.0,0.0,0.06676666666666667,-5.498166666666667,-5.498166666666667,-0.6144000000000001,-0.3946666666666667,-0.028750000000000053,0.04699999999999971,70.01,0.0146,-0.21845,-0.20000000000000018,100.0,1.0,1.0,215.8,0.0,0.0,0.0,0.0,0.0,0.0,0.0,9147.0,0.0,55.0,5.0,252.01,1.0,0.0,0.0,0.0,0.0,0.0,1.0,0.0,1.6559999999999988,1.6559999999999988,0.0,0.0,1.0,55.0,616.79921,10000.0,85.000001,85.000001,85.000001,85.000001,395.0,0.0,0.0,0.0,1.0,166.665,51.788,51.788,46.616,46.616,34.0,-23.724999999999998,24.183999999999997,-29.583333333333336,31.1725,0.0,1780.955,-0.41000000000000014,100.0,28.754,28.765,44.198,44.394000000000005,0.0,0.0,100.0,0.0,0.0,0.0,0.0,3181.714285714286,3027.6,4205.875,4235.0,305.3785,305.08933333333334,314.662,314.386,22.0717,20.6889,22.1124,21.6083,314.999998,314.999998,324.999988,324.999988,99.55822857142857,99.50751666666666,99.56991428571429,99.54982857142858,0.09825000000000017,-0.04849999999999999,-0.10499999999999998,0.12583333333333324,-0.04999999999999716,-0.041666666666671404,1.4889999999999999,1.4929999999999999,38.948,30.305999999999997,39.202,36.052,55.547,35.715,60.3,53.567,53.507,34.8145,58.8455,51.8485,52.66,34.3545,58.713499999999996,51.232,-0.11699999999999999,-0.05449999999999999,0.10169500000000001,0.11080000000000001,0.0,219.13,219.13,215.8,215.8,0.0,0.0
34,0.0,0.0,0.0,1.0,1.0,0.0,0.0,1.0,0.0,100.0,1.0,1.1856,26.0,0.0,0.0,0.0,59.999996,0.0,26.0,26.0,26.0,26.0,0.026124999999999954,0.2558,-0.06513333333333333,291.687,-2.7401,-2.68175,-1.64145,-1.5609000000000002,-160.20999999999998,215.775,190.227125,0.0,0.0,0.0,0.0,0.06873333333333334,-5.498166666666667,-5.498166666666667,-0.6408,-0.762,0.0024999999999999467,-0.08699999999999974,70.131,0.019700000000000002,-0.22412500000000002,-0.27200000000000024,100.0,1.0,1.0,216.18666666666667,0.0,0.0,0.0,0.0,0.0,0.0,0.0,9163.4,0.0,55.0,5.0,252.44666666666666,0.0,0.0,0.0,0.0,0.0,0.0,1.0,0.0,1.7040000000000006,1.7040000000000006,0.0,0.0,0.0,55.0,616.79921,10000.0,85.000001,85.000001,85.000001,85.000001,395.0,0.0,0.0,0.0,1.0,333.33500000000004,52.032,52.032,47.287,47.287,34.0,-23.2375,24.439999999999998,-28.46,30.427500000000002,0.0,1780.906,-0.41000000000000014,100.0,28.455,28.469,43.924,44.438,0.0,0.0,100.0,0.0,0.0,0.0,0.0,3131.857142857143,3005.3,4091.375,4195.6,305.3455,305.0846666666667,314.98975,314.45575,22.0803,20.6942,22.1221,21.6171,314.999998,314.999998,324.999988,324.999988,99.55824285714286,99.50751666666666,99.57004285714285,99.54997142857142,0.11100000000000021,-0.03624999999999989,-0.08966666666666656,0.12983333333333325,-0.03999999999999915,-0.051666666666669414,1.5255,1.4975,39.001999999999995,30.33866666666667,39.263,36.1065,55.536,35.7495,60.332,53.6235,53.497,34.8465,58.875,51.903,52.649,34.385,58.74,51.285333333333334,-0.11250000000000004,-0.04850000000000021,0.09996000000000001,0.11053,0.0,219.465,219.495,216.18666666666667,216.18666666666667,0.0,0.0
35,0.0,0.0,0.0,1.0,1.0,0.0,0.0,1.0,0.0,100.0,1.0,1.1856,26.0,0.0,0.0,0.0,59.999996,0.0,26.0,26.0,26.0,26.0,0.011125000000000052,0.25450000000000017,-0.051133333333333336,291.779,-2.7169,-2.62575,-1.6207500000000001,-1.5173999999999999,-156.63,215.76,190.19725,0.0,0.0,0.0,0.0,0.0708,-5.498166666666667,-5.498166666666667,-0.6829000000000001,-0.4533333333333333,-0.009749999999999925,-0.11899999999999977,70.258,0.029300000000000003,-0.23062500000000002,-0.44399999999999995,100.0,1.0,1.0,216.65666666666667,0.0,0.0,0.0,0.0,0.0,0.0,0.0,9183.2,0.0,55.0,5.0,252.90333333333334,1.0,0.0,0.0,0.0,0.0,0.0,1.0,0.0,1.754999999999999,1.754999999999999,0.0,0.0,1.0,55.0,616.79921,10000.0,85.000001,85.000001,85.000001,85.000001,395.0,0.0,0.0,0.0,1.0,333.33500000000004,51.635999999999996,51.635999999999996,46.89,46.89,34.0,-22.6225,27.526,-27.036666666666665,28.817500000000003,0.0,1780.854,-0.3150000000000013,100.0,28.372,28.596,43.8,43.897,0.0,0.0,100.0,0.0,0.0,0.0,0.0,3098.5714285714284,3390.5,4013.375,3994.2,305.4585,304.14433333333335,315.076,315.01325,22.0893,20.7,22.1324,21.6262,314.999998,314.999998,324.999988,324.999988,99.55825714285714,99.50753333333333,99.5702,99.55012857142857,0.11324999999999985,-0.029749999999999943,-0.07883333333333331,0.14949999999999997,-0.03833333333332689,-0.06333333333333258,1.547,1.536,39.058,30.375,39.328,36.164,55.522,35.7885,60.3655,53.68,53.483000000000004,34.8825,58.9065,51.957499999999996,52.634,34.419,58.768,51.33866666666667,-0.10450000000000004,-0.05500000000000016,0.11005500000000001,0.10702500000000001,0.0,219.865,219.905,216.65666666666667,216.65666666666667,0.0,0.0
