,ABS Active,ABS Enabled,AID Allow Tire Blankets,AID Auto Blip,AID Auto Clutch,AID Auto Shift,AID Fuel Rate,AID Ideal Line,AID Mech Damage,AID Stability,AID Tire Wear Rate,Air Density,Air Temp,Ballast,Best Lap Delta,Best Lap Time,Brake Bias,Brake Pos,Brake Temp FL,Brake Temp FR,Brake Temp RL,Brake Temp RR,CG Accel Lateral,CG Accel Longitudinal,CG Accel Vertical,CG Height,Camber FL,Camber FR,Camber RL,Camber RR,Car Coord X,Car Coord Y,Car Coord Z,Car Damage Front,Car Damage Left,Car Damage Rear,Car Damage Right,Car Pos Norm,Caster FL,Caster FR,Chassis Pitch Angle,Chassis Pitch Rate,Chassis Roll Angle,Chassis Roll Rate,Chassis Velocity X,Chassis Velocity Y,Chassis Velocity Z,Chassis Yaw Rate,Clutch Pos,DRS Active,DRS Available,Drive Train Speed,ERS Heat Charging,ERS Is Charging,ERS Max Energy,ERS Power Level,ERS Recovery Level,Engine Brake Setting,Engine Limiter,Engine RPM,Flags,Fuel Level,Gear,Ground Speed,HR Sample Clock,In Pit,KERS Charge,KERS Deployed Energy,KERS Input,KERS Max Energy,LR Sample Clock,Lap Invalidated,Lap Time,Lap Time2,Last Lap Time,Last Sector Time,MR Sample Clock,Max Fuel,Max Power,Max RPM,Max Sus Travel FL,Max Sus Travel FR,Max Sus Travel RL,Max Sus Travel RR,Max Torque,Max Turbo Boost,Num Tires Off Track,Penalties Enabled,Position,Raw Data Sample Rate,Ride Height FL,Ride Height FR,Ride Height RL,Ride Height RR,Road Temp,Self Align Torque FL,Self Align Torque FR,Self Align Torque RL,Self Align Torque RR,Session Lap Count,Session Time Left,Steering Angle,Surface Grip,Suspension Travel FL,Suspension Travel FR,Suspension Travel RL,Suspension Travel RR,TC Active,TC Enabled,Throttle Pos,Tire Dirt Level FL,Tire Dirt Level FR,Tire Dirt Level RL,Tire Dirt Level RR,Tire Load FL,Tire Load FR,Tire Load RL,Tire Load RR,Tire Loaded Radius FL,Tire Loaded Radius FR,Tire Loaded Radius RL,Tire Loaded Radius RR,Tire Pressure FL,Tire Pressure FR,Tire Pressure RL,Tire Pressure RR,Tire Radius FL,Tire Radius FR,Tire Radius RL,Tire Radius RR,Tire Rubber Grip FL,Tire Rubber Grip FR,Tire Rubber Grip RL,Tire Rubber Grip RR,Tire Slip Angle FL,Tire Slip Angle FR,Tire Slip Angle RL,Tire Slip Angle RR,Tire Slip Ratio FL,Tire Slip Ratio FR,Tire Slip Ratio RL,Tire Slip Ratio RR,Tire Temp Core FL,Tire Temp Core FR,Tire Temp Core RL,Tire Temp Core RR,Tire Temp Inner FL,Tire Temp Inner FR,Tire Temp Inner RL,Tire Temp Inner RR,Tire Temp Middle FL,Tire Temp Middle FR,Tire Temp Middle RL,Tire Temp Middle RR,Tire Temp Outer FL,Tire Temp Outer FR,Tire Temp Outer RL,Tire Temp Outer RR,Toe In FL,Toe In FR,Toe In RL,Toe In RR,Turbo Boost,Wheel Angular Speed FL,Wheel Angular Speed FR,Wheel Angular Speed RL,Wheel Angular Speed RR,Wind Direction,Wind Speed
0,0.0,0.0,0.0,1.0,1.0,0.0,0.0,1.0,0.0,100.0,1.0,1.1856,26.0,0.0,0.0,0.0,59.99999,0.0,26.0,26.0,26.0,26.0,-0.1637777777777778,0.30879999999999996,0.0751,294.022,-2.6684,-2.707111111111111,-1.4771,-1.5949,-275.65,216.255,190.987375,0.0,0.0,0.0,0.0,0.0015999999999999348,-5.498166666666667,-5.498166666666667,-0.5468000000000001,1.3056666666666668,-0.05224999999999991,-0.4690000000000001,65.506,-0.10010000000000001,-0.21177500000000002,1.5779999999999994,100.0,1.0,1.0,202.25,0.0,0.0,0.0,0.0,0.0,0.0,0.0,8572.6,0.0,55.0,5.0,235.79000000000002,0.0,0.0,0.0,0.0,0.0,0.0,0.0,0.0,0.0030000000000001137,0.0030000000000001137,0.0,0.0,0.0,55.0,616.79921,10000.0,85.0,85.0,85.0,85.0,395.0,0.0,0.0,0.0,1.0,20.0,52.795,52.795,49.515,49.515,34.0,-28.7175,20.454,-33.97333333333333,21.5975,0.0,1782.949,1.0500000000000007,100.0,27.938,26.623,41.046,40.013,0.0,0.0,100.0,0.0,0.0,0.0,0.0,3039.714285714286,3294.1,4153.5,3984.8,305.6025,304.36775,314.72725,314.91225,21.7741,20.5118,21.7684,21.3116,314.99999,314.99999,324.99998,324.99998,99.55872857142857,99.50716666666666,99.56518571428572,99.54517142857142,-0.06374999999999997,-0.17966666666666664,-0.23333333333333334,-0.008833333333333334,-0.06333333333333258,-0.06666666666666998,1.5156666666666667,1.59,37.088,29.198999999999998,37.052,34.1975,56.236000000000004,34.43,59.071,51.62,54.16,33.619,57.7005,49.9765,53.334,33.198,57.6685,49.400666666666666,0.008500000000000174,-0.15100000000000025,0.10726000000000001,0.11017,0.0,205.32,205.16500000000002,202.25,202.25,0.0,0.0
1,0.0,0.0,0.0,1.0,1.0,0.0,0.0,1.0,0.0,100.0,1.0,1.1856,26.0,0.0,0.0,0.0,59.999996,0.0,26.0,26.0,26.0,26.0,-0.18977777777777782,0.2872000000000001,0.0073750000000000005,293.015,-2.5844,-2.8128888888888888,-1.487,-1.5918,-272.11,216.26,190.966125,0.0,0.0,0.0,0.0,0.003666666666666596,-5.498166666666667,-5.498166666666667,-0.5034000000000001,-0.7926666666666666,-0.10000000000000009,-0.34099999999999997,65.669,-0.1066,-0.20445000000000002,1.7880000000000003,100.0,1.0,1.0,202.44,0.0,0.0,0.0,0.0,0.0,0.0,0.0,8580.7,0.0,55.0,5.0,236.37333333333333,1.0,0.0,0.0,0.0,0.0,0.0,0.0,0.0,0.05699999999999861,0.05699999999999861,0.0,0.0,1.0,55.0,616.79921,10000.0,85.000001,85.000001,85.000001,85.000001,395.0,0.0,0.0,0.0,1.0,166.665,53.436,53.436,48.431,48.431,34.0,-29.424999999999997,16.195999999999998,-36.9,25.835,0.0,1782.895,1.1649999999999991,100.0,28.036,26.714,43.178,41.275,0.0,0.0,100.0,0.0,0.0,0.0,0.0,3152.5714285714284,2647.9,4302.625,4655.0,305.151,306.4195,314.28025,313.256,21.7847,20.5171,21.7799,21.3212,314.999998,314.999998,324.999988,324.999988,99.55874285714286,99.5072,99.56535714285714,99.54532857142857,-0.06400000000000006,-0.19233333333333325,-0.2445,-0.018833333333333334,-0.04333333333332945,-0.026666666666670835,1.4023333333333334,1.482,37.153999999999996,29.232,37.123999999999995,34.257999999999996,56.223,34.475,59.1205,51.6885,54.147,33.6605,57.747,50.042,53.321,33.2375,57.712,49.464666666666666,0.014000000000000234,-0.1625000000000001,0.11391000000000001,0.10312,0.0,205.785,205.62,202.44,202.44,0.0,0.0
2,0.0,0.0,0.0,1.0,1.0,0.0,0.0,1.0,0.0,100.0,1.0,1.1856,26.0,0.0,0.0,0.0,59.999996,0.0,26.0,26.0,26.0,26.0,-0.2092222222222222,0.28880000000000017,-0.07005,293.655,-2.5551,-2.8392222222222223,-1.451,-1.6476,-268.95,216.26,190.948375,0.0,0.0,0.0,0.0,0.005499999999999949,-5.498166666666667,-5.498166666666667,-0.5504,0.17233333333333323,-0.08924999999999983,2.801,65.801,-0.1143,-0.2543,1.9959999999999987,100.0,1.0,1.0,203.32,0.0,0.0,0.0,0.0,0.0,0.0,0.0,8617.9,0.0,55.0,5.0,236.85666666666668,0.0,0.0,0.0,0.0,0.0,0.0,0.0,0.0,0.10500000000000043,0.10500000000000043,0.0,0.0,0.0,55.0,616.79921,10000.0,85.000001,85.000001,85.000001,85.000001,395.0,0.0,0.0,0.0,1.0,333.33500000000004,52.368,52.368,50.171,50.171,34.0,-32.125,18.192,-31.39,18.6325,0.0,1782.845,1.0549999999999997,100.0,28.776,26.649,42.993,40.894999999999996,0.0,0.0,100.0,0.0,0.0,0.0,0.0,3390.285714285714,2905.5,3805.625,3660.1,304.3335,305.664,315.49975,315.85,21.7944,20.5217,21.7897,21.3294,314.999998,314.999998,324.999988,324.999988,99.55874285714286,99.50723333333333,99.56548571428571,99.54544285714286,-0.06899999999999995,-0.19366666666666665,-0.2671666666666667,-0.03133333333333333,-0.04833333333333201,-0.054999999999999716,1.62,1.7015,37.215,29.2605,37.186,34.309,56.215,34.5135,59.158,51.7405,54.14,33.696,57.782,50.092,53.313,33.2715,57.7445,49.513666666666666,0.0034999999999998366,-0.1535000000000002,0.11050000000000001,0.11053500000000001,0.0,206.20499999999998,206.04000000000002,203.32,203.32,0.0,0.0
3,0.0,0.0,0.0,1.0,1.0,0.0,0.0,1.0,0.0,100.0,1.0,1.1856,26.0,0.0,0.0,0.0,59.999996,0.0,26.0,26.0,26.0,26.0,-0.19555555555555548,0.30200000000000005,-0.040075,293.442,-2.6951,-2.724,-1.4837,-1.6181999999999999,-265.59,216.255,190.92875,0.0,0.0,0.0,0.0,0.0074666666666665105,-5.498166666666667,-5.498166666666667,-0.5085000000000001,0.3540000000000001,-0.04237499999999983,-0.9080000000000001,65.95400000000001,-0.12430000000000001,-0.201375,1.5679999999999996,100.0,1.0,1.0,203.45,0.0,0.0,0.0,0.0,0.0,0.0,0.0,8623.6,0.0,55.0,5.0,237.40333333333334,1.0,0.0,0.0,0.0,0.0,0.0,0.0,0.0,0.1559999999999988,0.1559999999999988,0.0,0.0,1.0,55.0,616.79921,10000.0,85.000001,85.000001,85.000001,85.000001,395.0,0.0,0.0,0.0,1.0,166.665,53.619,53.619,48.126,48.126,34.0,-27.362499999999997,16.186,-37.66,22.05,0.0,1782.795,0.8350000000000009,100.0,28.148,26.856,42.724000000000004,41.153,0.0,0.0,100.0,0.0,0.0,0.0,0.0,2907.714285714286,2723.6,4379.75,4199.6,305.958,305.9755,314.18425,314.38175,21.8043,20.5268,21.8002,21.3383,314.999998,314.999998,324.999988,324.999988,99.55875714285715,99.50723333333333,99.56562857142858,99.5456,-0.05824999999999991,-0.19300000000000006,-0.254,-0.03666666666666667,-0.03999999999999915,-0.061666666666667425,1.471,1.5325,37.277,29.292,37.251000000000005,34.3645,56.202,34.5575,59.198499999999996,51.8035,54.126999999999995,33.736,57.82,50.152,53.299,33.31,57.78,49.57233333333333,-0.016000000000000014,-0.137,0.09751000000000001,0.10846000000000001,0.0,206.67000000000002,206.535,203.45,203.45,0.0,0.0
4,0.0,0.0,0.0,1.0,1.0,0.0,0.0,1.0,0.0,100.0,1.0,1.1856,26.0,0.0,0.0,0.0,59.999996,0.0,26.0,26.0,26.0,26.0,-0.18222222222222217,0.27859999999999996,-0.037325000000000004,293.671,-2.6355,-2.766888888888889,-1.5067,-1.6174,-262.42,216.245,190.910125,0.0,0.0,0.0,0.0,0.009299999999999975,-5.498166666666667,-5.498166666666667,-0.5455,-0.773,-0.10199999999999987,-1.649,66.09100000000001,-0.12140000000000001,-0.23855,1.475999999999999,100.0,1.0,1.0,204.04000000000002,0.0,0.0,0.0,0.0,0.0,0.0,0.0,8648.5,0.0,55.0,5.0,237.9,0.0,0.0,0.0,0.0,0.0,0.0,0.0,0.0,0.20400000000000063,0.20400000000000063,0.0,0.0,0.0,55.0,616.79921,10000.0,85.000001,85.000001,85.000001,85.000001,395.0,0.0,0.0,0.0,1.0,333.33500000000004,53.04,53.04,48.813,48.813,34.0,-31.015,17.552,-34.46,19.4775,0.0,1782.746,0.7250000000000014,100.0,27.909,26.712,43.034,41.192,0.0,0.0,100.0,0.0,0.0,0.0,0.0,3302.142857142857,2843.8,4106.375,3660.2,304.927,305.63175,314.79975,315.69925,21.8135,20.5315,21.810200000000002,21.3467,314.999998,314.999998,324.999988,324.999988,99.55875714285715,99.50726666666667,99.56577142857142,99.54572857142857,-0.059499999999999886,-0.18833333333333324,-0.247,-0.015166666666666667,-0.051666666666669414,-0.04833333333333201,1.558,1.5975,37.334,29.3215,37.314,34.4165,56.187,34.5975,59.2385,51.8585,54.114000000000004,33.772999999999996,57.8575,50.205,53.285,33.345,57.815,49.624,-0.018000000000000016,-0.13149999999999995,0.10801500000000001,0.11332500000000001,0.0,207.06,206.92000000000002,204.04000000000002,204.04000000000002,0.0,0.0
5,0.0,0.0,0.0,1.0,1.0,0.0,0.0,1.0,0.0,100.0,1.0,1.1856,26.0,0.0,0.0,0.0,59.999996,0.0,26.0,26.0,26.0,26.0,-0.1704444444444444,0.2903,-0.00185,293.655,-2.6428,-2.7925555555555555,-1.4903,-1.6056,-259.05,216.23000000000002,190.88975,0.0,0.0,0.0,0.0,0.011266666666666536,-5.498166666666667,-5.498166666666667,-0.5362,0.4696666666666667,-0.10225000000000017,1.22,66.238,-0.12010000000000001,-0.2139,1.2559999999999985,100.0,1.0,1.0,204.43666666666667,0.0,0.0,0.0,0.0,0.0,0.0,0.0,8665.3,0.0,55.0,5.0,238.42666666666668,1.0,0.0,0.0,0.0,0.0,0.0,0.0,0.0,0.254999999999999,0.254999999999999,0.0,0.0,1.0,55.0,616.79921,10000.0,85.000001,85.000001,85.000001,85.000001,395.0,0.0,0.0,0.0,1.0,166.665,53.467,53.467,49.010999999999996,49.010999999999996,34.0,-28.45,18.508,-34.67333333333333,22.1125,0.0,1782.697,0.3550000000000004,100.0,28.103,26.46,42.814,40.826,0.0,0.0,100.0,0.0,0.0,0.0,0.0,3128.285714285714,2811.6,4167.0,4087.5,305.238,305.9575,314.6835,314.75975,21.8235,20.5365,21.8207,21.3554,314.999998,314.999998,324.999988,324.999988,99.55877142857143,99.50728333333333,99.56591428571429,99.54585714285714,-0.03374999999999995,-0.15799999999999992,-0.24183333333333334,-0.014166666666666666,-0.03333333333333144,-0.04999999999999716,1.5326666666666666,1.5755,37.397,29.353,37.379000000000005,34.471000000000004,56.176,34.638999999999996,59.278999999999996,51.9155,54.102000000000004,33.8115,57.8955,50.2595,53.272999999999996,33.382,57.85,49.67733333333334,-0.05049999999999999,-0.10250000000000004,0.10634500000000001,0.10690500000000001,0.0,207.535,207.43,204.43666666666667,204.43666666666667,0.0,0.0
6,0.0,0.0,0.0,1.0,1.0,0.0,0.0,1.0,0.0,100.0,1.0,1.1856,26.0,0.0,0.0,0.0,59.999996,0.0,26.0,26.0,26.0,26.0,-0.15300000000000002,0.2863,0.013000000000000001,293.457,-2.6175,-2.763111111111111,-1.5372,-1.6000999999999999,-255.87,216.2125,190.8705,0.0,0.0,0.0,0.0,0.0131,-5.498166666666667,-5.498166666666667,-0.5316000000000001,0.08099999999999996,-0.0807500000000001,0.996,66.376,-0.1087,-0.215675,0.8840000000000003,100.0,1.0,1.0,204.85333333333335,0.0,0.0,0.0,0.0,0.0,0.0,0.0,8683.0,0.0,55.0,5.0,238.92333333333335,0.0,0.0,0.0,0.0,0.0,0.0,0.0,0.0,0.3030000000000008,0.3030000000000008,0.0,0.0,0.0,55.0,616.79921,10000.0,85.000001,85.000001,85.000001,85.000001,395.0,0.0,0.0,0.0,1.0,333.33500000000004,53.116,53.116,48.782,48.782,34.0,-27.5925,20.072,-33.763333333333335,22.6875,0.0,1782.647,0.16000000000000014,100.0,28.001,26.593,42.957,41.256,0.0,0.0,100.0,0.0,0.0,0.0,0.0,3144.857142857143,2961.9,4081.875,4032.2,305.139,305.44525,314.874,314.889,21.8329,20.5413,21.8306,21.3638,314.999998,314.999998,324.999988,324.999988,99.55877142857143,99.5073,99.56604285714286,99.54598571428572,-0.012499999999999956,-0.14300000000000002,-0.22883333333333336,0.0051666666666666675,-0.03166666666666629,-0.036666666666668846,1.5483333333333333,1.575,37.455,29.383,37.441,34.524,56.162,34.678,59.318,51.9735,54.09,33.847,57.932,50.315,53.259,33.416,57.8835,49.73133333333333,-0.06549999999999989,-0.08599999999999985,0.10441,0.107865,0.0,207.93,207.86,204.85333333333335,204.85333333333332,0.0,0.0
7,0.0,0.0,0.0,1.0,1.0,0.0,0.0,1.0,0.0,100.0,1.0,1.1856,26.0,0.0,0.0,0.0,59.999996,0.0,26.0,26.0,26.0,26.0,-0.10988888888888892,0.29000000000000004,0.0117,293.182,-2.5982,-2.7456666666666667,-1.5011999999999999,-1.6366,-252.48,216.19,190.85,0.0,0.0,0.0,0.0,0.015100000000000002,-5.498166666666667,-5.498166666666667,-0.5348,-0.006666666666666599,-0.06674999999999986,-0.09800000000000009,66.522,-0.08650000000000001,-0.22410000000000002,0.5460000000000012,100.0,1.0,1.0,205.26666666666665,0.0,0.0,0.0,0.0,0.0,0.0,0.0,8700.5,0.0,55.0,5.0,239.45,1.0,0.0,0.0,0.0,0.0,0.0,0.0,0.0,0.3539999999999992,0.3539999999999992,0.0,0.0,1.0,55.0,616.79921,10000.0,85.000001,85.000001,85.000001,85.000001,395.0,0.0,0.0,0.0,1.0,166.665,52.795,52.795,48.828,48.828,34.0,-28.035,20.994,-32.59,23.817500000000003,0.0,1782.598,-0.18499999999999872,100.0,27.923000000000002,26.848,42.891,41.659,0.0,0.0,100.0,0.0,0.0,0.0,0.0,3324.857142857143,2936.1,4101.875,4030.4,304.734,305.3595,314.836,314.74475,21.8428,20.5464,21.8411,21.372799999999998,314.999998,314.999998,324.999988,324.999988,99.55877142857143,99.50731666666667,99.5662,99.54612857142857,0.010250000000000092,-0.1156666666666668,-0.20783333333333334,0.012833333333333334,-0.04999999999999716,-0.05333333333332746,1.5206666666666666,1.553,37.518,29.415,37.507,34.58,56.147999999999996,34.718,59.3585,52.0345,54.076,33.884,57.9695,50.373,53.245000000000005,33.451,57.9185,49.788333333333334,-0.08899999999999997,-0.05549999999999988,0.104025,0.11073500000000001,0.0,208.385,208.32999999999998,205.26666666666665,205.26666666666665,0.0,0.0
8,0.0,0.0,0.0,1.0,1.0,0.0,0.0,1.0,0.0,100.0,1.0,1.1856,26.0,0.0,0.0,0.0,59.999996,0.0,26.0,26.0,26.0,26.0,-0.06144444444444441,0.2977000000000001,0.03615,293.457,-2.6829,-2.7315555555555555,-1.4876,-1.5632,-249.07999999999998,216.16500000000002,190.829375,0.0,0.0,0.0,0.0,0.017066666666666563,-5.498166666666667,-5.498166666666667,-0.5352,-0.588,-0.04375000000000018,0.783,66.668,-0.062400000000000004,-0.21407500000000002,-0.017999999999998906,100.0,1.0,1.0,205.64333333333332,0.0,0.0,0.0,0.0,0.0,0.0,0.0,8716.5,0.0,55.0,5.0,239.9766666666667,0.0,0.0,0.0,0.0,0.0,0.0,0.0,0.0,0.40500000000000114,0.40500000000000114,0.0,0.0,0.0,55.0,616.79921,10000.0,85.000001,85.000001,85.000001,85.000001,395.0,0.0,0.0,0.0,1.0,333.33500000000004,53.665,53.665,48.111,48.111,34.0,-23.6925,22.162,-30.68,25.8,0.0,1782.545,-0.33500000000000085,100.0,27.595,26.665,42.927,41.725,0.0,0.0,100.0,0.0,0.0,0.0,0.0,2934.285714285714,2981.0,4137.25,4174.7,305.9005,305.41225,314.64575,314.47725,21.8525,20.5515,21.8516,21.3818,314.999998,314.999998,324.999988,324.999988,99.55878571428572,99.50731666666667,99.56634285714286,99.54628571428572,0.04249999999999998,-0.08799999999999986,-0.16266666666666665,0.049166666666666664,-0.04999999999999716,-0.060000000000002274,1.5103333333333333,1.516,37.578,29.447,37.572,34.635999999999996,56.131,34.757,59.397999999999996,52.095,54.06,33.9195,58.0065,50.431,53.227999999999994,33.485,57.9525,49.845333333333336,-0.09999999999999987,-0.047499999999999876,0.105065,0.09670000000000001,0.0,208.805,208.79500000000002,205.64333333333332,205.64333333333332,0.0,0.0
9,0.0,0.0,0.0,1.0,1.0,0.0,0.0,1.0,0.0,100.0,1.0,1.1856,26.0,0.0,0.0,0.0,59.999996,0.0,26.0,26.0,26.0,26.0,-0.04355555555555557,0.2874000000000001,0.030975000000000003,293.152,-2.6712,-2.734222222222222,-1.5441,-1.5636999999999999,-245.88,216.14249999999998,190.809625,0.0,0.0,0.0,0.0,0.018933333333333358,-5.498166666666667,-5.498166666666667,-0.544,0.6036666666666668,-0.04349999999999987,0.861,66.80199999999999,-0.0378,-0.21807500000000002,-0.15000000000000036,100.0,1.0,1.0,206.20666666666668,0.0,0.0,0.0,0.0,0.0,0.0,0.0,8740.3,0.0,55.0,5.0,240.45666666666668,1.0,0.0,0.0,0.0,0.0,0.0,0.0,0.0,0.4529999999999994,0.4529999999999994,0.0,0.0,1.0,55.0,616.79921,10000.0,85.000001,85.000001,85.000001,85.000001,395.0,0.0,0.0,0.0,1.0,333.33500000000004,52.399,52.399,49.21,49.21,34.0,-26.134999999999998,24.275999999999996,-28.423333333333332,26.4375,0.0,1782.497,-0.41499999999999915,100.0,28.061,27.129,42.548,41.727000000000004,0.0,0.0,100.0,0.0,0.0,0.0,0.0,3310.5714285714284,3089.9,3957.75,4058.4,304.716,305.0065,315.214,314.83225,21.8617,20.5566,21.8613,21.3901,314.999998,314.999998,324.999988,324.999988,99.55878571428572,99.50733333333334,99.56647142857143,99.54641428571429,0.0665,-0.06299999999999994,-0.14366666666666666,0.08516666666666667,-0.04833333333333201,-0.04833333333333201,1.5779999999999998,1.5795,37.635999999999996,29.4785,37.632999999999996,34.6885,56.117999999999995,34.7945,59.4325,52.15,54.048,33.954,58.0385,50.4845,53.215,33.518,57.982,49.897333333333336,-0.11299999999999999,-0.04400000000000004,0.10748500000000001,0.10541,0.0,209.23000000000002,209.22500000000002,206.20666666666668,206.20666666666668,0.0,0.0
10,0.0,0.0,0.0,1.0,1.0,0.0,0.0,1.0,0.0,100.0,1.0,1.1856,26.0,0.0,0.0,0.0,59.999996,0.0,26.0,26.0,26.0,26.0,-0.007555555555555538,0.2945,-0.00365,292.953,-2.6538,-2.7061111111111114,-1.5293999999999999,-1.5394,-242.47,216.115,190.788875,0.0,0.0,0.0,0.0,0.02089999999999992,-5.498166666666667,-5.498166666666667,-0.518,-0.35066666666666657,0.0003750000000000142,0.41000000000000003,66.949,-0.0149,-0.206875,-0.41600000000000037,100.0,1.0,1.0,206.43333333333334,0.0,0.0,0.0,0.0,0.0,0.0,0.0,8750.0,0.0,55.0,5.0,240.98666666666668,0.0,0.0,0.0,0.0,0.0,0.0,1.0,0.0,0.5040000000000013,0.5040000000000013,0.0,0.0,0.0,55.0,616.79921,10000.0,85.000001,85.000001,85.000001,85.000001,395.0,0.0,0.0,0.0,1.0,333.33500000000004,53.452,53.452,47.607,47.607,34.0,-21.465,22.404,-31.066666666666663,28.995,0.0,1782.446,-0.5899999999999999,100.0,27.796,27.316,42.852000000000004,42.632,0.0,0.0,100.0,0.0,0.0,0.0,0.0,2892.142857142857,2855.6,4329.375,4277.1,306.0675,305.593,314.27825,314.15625,21.8714,20.561799999999998,21.8719,21.3993,314.999998,314.999998,324.999988,324.999988,99.5588,99.50735,99.56661428571428,99.54655714285714,0.08199999999999985,-0.05400000000000005,-0.1265,0.09433333333333332,-0.05666666666667197,-0.03166666666666629,1.4809999999999999,1.4635,37.696,29.511499999999998,37.699,34.7455,56.105000000000004,34.8315,59.473,52.2145,54.035,33.9885,58.076499999999996,50.546,53.202,33.551,58.016999999999996,49.95733333333334,-0.12450000000000006,-0.03100000000000014,0.111085,0.10723,0.0,209.66500000000002,209.67000000000002,206.43333333333334,206.43333333333334,0.0,0.0
11,0.0,0.0,0.0,1.0,1.0,0.0,0.0,1.0,0.0,100.0,1.0,1.1856,26.0,0.0,0.0,0.0,59.999996,0.0,26.0,26.0,26.0,26.0,0.026999999999999913,0.272,-0.06280000000000001,293.503,-2.6986,-2.6915555555555555,-1.5856,-1.5286,-239.05,216.0875,190.768125,0.0,0.0,0.0,0.0,0.022599999999999953,-5.498166666666667,-5.498166666666667,-0.5621,-0.29466666666666663,0.028000000000000025,0.33499999999999996,67.087,0.0068000000000000005,-0.237875,-0.629999999999999,100.0,1.0,1.0,207.17333333333335,0.0,0.0,0.0,0.0,0.0,0.0,0.0,8781.3,0.0,55.0,5.0,241.48666666666668,1.0,0.0,0.0,0.0,0.0,0.0,1.0,0.0,0.5549999999999997,0.5549999999999997,0.0,0.0,1.0,55.0,616.79921,10000.0,85.000001,85.000001,85.000001,85.000001,395.0,0.0,0.0,0.0,1.0,333.33500000000004,52.78,52.78,49.271,49.271,34.0,-22.0775,26.468,-24.5,26.8975,0.0,1782.395,-0.5899999999999999,100.0,27.652,27.403,42.413,42.518,0.0,0.0,100.0,0.0,0.0,0.0,0.0,3011.4285714285716,3176.9,3685.5,3867.6000000000004,305.647,304.74575,315.89725,315.2565,21.8809,20.5672,21.8822,21.4083,314.999998,314.999998,324.999988,324.999988,99.55881428571429,99.50735,99.56675714285714,99.54668571428572,0.10349999999999993,-0.020333333333333314,-0.10283333333333333,0.13783333333333334,-0.03833333333332689,-0.07166666666666544,1.6396666666666666,1.6145,37.756,29.545,37.763999999999996,34.802,56.091,34.869,59.5075,52.274,54.021,34.022999999999996,58.109,50.603,53.187,33.5845,58.046,50.013666666666666,-0.12549999999999994,-0.028999999999999915,0.11375,0.11371500000000001,0.0,210.055,210.12,207.17333333333335,207.17333333333335,0.0,0.0
12,0.0,0.0,0.0,1.0,1.0,0.0,0.0,1.0,0.0,100.0,1.0,1.1856,26.0,0.0,0.0,0.0,59.999996,0.0,26.0,26.0,26.0,26.0,0.04488888888888898,0.2872000000000001,0.014825000000000001,292.892,-2.7523,-2.687222222222222,-1.5474999999999999,-1.5295,-235.82,216.0625,190.747375,0.0,0.0,0.0,0.0,0.025466666666666526,-5.498166666666667,-5.498166666666667,-0.5474,0.31499999999999995,0.016000000000000014,0.7050000000000001,67.224,0.0252,-0.207675,-0.7219999999999995,100.0,1.0,1.0,207.36,0.0,0.0,0.0,0.0,0.0,0.0,0.0,8789.3,0.0,55.0,5.0,241.97666666666666,0.0,0.0,0.0,0.0,0.0,0.0,1.0,0.0,0.602999999999998,0.602999999999998,0.0,0.0,0.0,55.0,616.79921,10000.0,85.000001,85.000001,85.000001,85.000001,395.0,0.0,0.0,0.0,1.0,333.33500000000004,52.75,52.75,47.928,47.928,34.0,-22.025,27.362000000000002,-26.449999999999996,31.6,0.0,1782.348,-0.6499999999999986,100.0,27.588,27.603,42.377,42.424,0.0,0.0,100.0,0.0,0.0,0.0,0.0,3031.4285714285716,3194.0,4174.125,4228.1,305.5915,304.72075,314.657,314.41275,21.8899,20.572400000000002,21.892,21.4168,314.999998,314.999998,324.999988,324.999988,99.55882857142858,99.50735,99.5669,99.54682857142858,0.12024999999999997,-0.0016666666666667052,-0.06433333333333333,0.16,-0.026666666666670835,-0.05333333333332746,1.541,1.5,37.812,29.5775,37.825,34.8545,56.078,34.905,59.5435,52.3305,54.01,34.056,58.141999999999996,50.658,53.174,33.616,58.076499999999996,50.06733333333334,-0.12450000000000006,-0.022499999999999964,0.09882,0.10633000000000001,0.0,210.49,210.56,207.36,207.36,0.0,0.0
13,0.0,0.0,0.0,1.0,1.0,0.0,0.0,1.0,0.0,100.0,1.0,1.1856,26.0,0.0,0.0,0.0,59.999996,0.0,26.0,26.0,26.0,26.0,0.0802222222222222,0.28780000000000006,0.036325,292.526,-2.7377,-2.672777777777778,-1.6216,-1.5098,-232.39,216.0375,190.725625,0.0,0.0,0.0,0.0,0.026766666666666605,-5.498166666666667,-5.498166666666667,-0.5394,-0.056333333333333346,0.01924999999999999,-0.542,67.367,0.033600000000000005,-0.21602500000000002,-0.7720000000000002,100.0,1.0,1.0,207.73666666666668,0.0,0.0,0.0,0.0,0.0,0.0,0.0,8805.2,0.0,55.0,5.0,242.49333333333334,1.0,0.0,0.0,0.0,0.0,0.0,1.0,0.0,0.6539999999999999,0.6539999999999999,0.0,0.0,1.0,55.0,616.79921,10000.0,85.000001,85.000001,85.000001,85.000001,395.0,0.0,0.0,0.0,1.0,333.33500000000004,52.46,52.46,47.882,47.882,34.0,-21.8175,26.674,-28.153333333333336,30.8625,0.0,1782.296,-0.8649999999999984,100.0,27.694,27.957,42.49,43.066,0.0,0.0,100.0,0.0,0.0,0.0,0.0,3163.857142857143,3079.7,4228.875,4287.4,305.339,304.88025,314.6035,314.16075,21.8996,20.5779,21.9026,21.426,314.999998,314.999998,324.999988,324.999988,99.55884285714286,99.50735,99.56704285714285,99.54697142857142,0.1432500000000001,0.006666666666666821,-0.06683333333333333,0.13766666666666666,-0.054999999999999716,-0.03833333333332689,1.4996666666666667,1.4925,37.873000000000005,29.612000000000002,37.891,34.9125,56.068,34.943,59.582,52.3945,54.0,34.091499999999996,58.178,50.7195,53.164,33.6495,58.1095,50.12766666666667,-0.14649999999999985,-0.007000000000000117,0.10679000000000001,0.10366,0.0,210.96,210.985,207.73666666666668,207.73666666666668,0.0,0.0
14,0.0,0.0,0.0,1.0,1.0,0.0,0.0,1.0,0.0,100.0,1.0,1.1856,26.0,0.0,0.0,0.0,59.999996,0.0,26.0,26.0,26.0,26.0,0.08444444444444432,0.2735000000000001,-0.013250000000000001,292.801,-2.7301,-2.623,-1.5958,-1.5152999999999999,-228.95,216.015,190.704375,0.0,0.0,0.0,0.0,0.028766666666666607,-5.498166666666667,-5.498166666666667,-0.5485,-0.1193333333333334,0.049250000000000016,1.401,67.507,0.0483,-0.227975,-1.0460000000000003,100.0,1.0,1.0,208.26333333333332,0.0,0.0,0.0,0.0,0.0,0.0,0.0,8827.6,0.0,55.0,5.0,242.99333333333334,0.0,0.0,0.0,0.0,0.0,0.0,1.0,0.0,0.7049999999999983,0.7049999999999983,0.0,0.0,0.0,55.0,616.79921,10000.0,85.000001,85.000001,85.000001,85.000001,395.0,0.0,0.0,0.0,1.0,333.33500000000004,52.643,52.643,48.126,48.126,34.0,-19.6925,28.311999999999998,-24.976666666666667,32.3725,0.0,1782.245,-0.9499999999999993,100.0,27.733,27.811,42.536,43.146,0.0,0.0,100.0,0.0,0.0,0.0,0.0,2931.5714285714284,3247.8,3963.5,4209.0,305.835,304.56625,315.14325,314.456,21.9092,20.5835,21.913,21.4351,314.999998,314.999998,324.999988,324.999988,99.55885714285715,99.50736666666667,99.56718571428571,99.54711428571429,0.1532499999999999,0.022333333333333094,-0.054,0.18366666666666667,-0.045000000000001705,-0.04833333333333201,1.5506666666666666,1.5195,37.932,29.6465,37.956,34.9695,56.058,34.981,59.6185,52.457,53.989999999999995,34.1265,58.2115,50.7795,53.153,33.683,58.14,50.18633333333334,-0.14500000000000002,-0.0045000000000001705,0.109325,0.11098000000000001,0.0,211.35500000000002,211.42000000000002,208.26333333333332,208.26333333333332,0.0,0.0
15,0.0,0.0,0.0,1.0,1.0,0.0,0.0,1.0,0.0,100.0,1.0,1.1856,26.0,0.0,0.0,0.0,59.999996,0.0,26.0,26.0,26.0,26.0,0.10499999999999998,0.28049999999999997,0.014,292.862,-2.7074,-2.5745555555555555,-1.6294,-1.4535,-225.71,215.995,190.684125,0.0,0.0,0.0,0.0,0.0306333333333334,-5.498166666666667,-5.498166666666667,-0.5399,0.2893333333333332,0.082125,1.091,67.638,0.0626,-0.2091,-1.1679999999999993,100.0,1.0,1.0,208.65333333333334,0.0,0.0,0.0,0.0,0.0,0.0,0.0,8844.0,0.0,55.0,5.0,243.47,1.0,0.0,0.0,0.0,0.0,0.0,1.0,0.0,0.7530000000000001,0.7530000000000001,0.0,0.0,1.0,55.0,616.79921,10000.0,85.000001,85.000001,85.000001,85.000001,395.0,0.0,0.0,0.0,1.0,333.33500000000004,52.841,52.841,48.233000000000004,48.233000000000004,34.0,-17.6675,28.146,-24.009999999999998,33.557500000000005,0.0,1782.197,-0.9899999999999984,100.0,27.691,27.855,42.264,43.198,0.0,0.0,100.0,0.0,0.0,0.0,0.0,2800.0,3231.0,3941.375,4394.0,306.209,304.6035,315.242,314.03575,21.9182,20.5887,21.9227,21.4437,314.999998,314.999998,324.999988,324.999988,99.55887142857142,99.50736666666667,99.56731428571429,99.54725714285715,0.17425000000000024,0.032333333333333325,-0.030166666666666668,0.19,-0.04333333333332945,-0.045000000000001705,1.5543333333333333,1.5105,37.989000000000004,29.679499999999997,38.016999999999996,35.0235,56.049,35.0175,59.6515,52.516,53.980999999999995,34.16,58.242,50.8365,53.141999999999996,33.7155,58.167500000000004,50.242333333333335,-0.15300000000000002,-0.002000000000000224,0.10885500000000001,0.10307000000000001,0.0,211.785,211.85500000000002,208.65333333333334,208.65333333333334,0.0,0.0
16,0.0,0.0,0.0,1.0,1.0,0.0,0.0,1.0,0.0,100.0,1.0,1.1856,26.0,0.0,0.0,0.0,59.999996,0.0,26.0,26.0,26.0,26.0,0.11877777777777787,0.26680000000000015,-0.013000000000000001,292.847,-2.7992,-2.5895555555555556,-1.6,-1.5147,-222.05,215.97750000000002,190.66075,0.0,0.0,0.0,0.0,0.03276666666666661,-5.498166666666667,-5.498166666666667,-0.5627,-0.688,0.06787499999999991,0.12,67.787,0.0728,-0.22690000000000002,-1.2299999999999995,100.0,1.0,1.0,209.12333333333333,0.0,0.0,0.0,0.0,0.0,0.0,0.0,8863.9,0.0,55.0,5.0,244.00333333333333,0.0,0.0,0.0,0.0,0.0,0.0,1.0,0.0,0.8069999999999986,0.8069999999999986,0.0,0.0,0.0,55.0,616.79921,10000.0,85.000001,85.000001,85.000001,85.000001,395.0,0.0,0.0,0.0,1.0,166.665,52.628,52.628,47.989,47.989,34.0,-19.4975,29.756,-23.22,33.260000000000005,0.0,1782.144,-0.9400000000000013,100.0,27.326,27.982,42.479,43.353,0.0,0.0,100.0,0.0,0.0,0.0,0.0,2987.714285714286,3327.9,3905.75,4143.9,305.863,304.36625,315.295,314.562,21.9279,20.5946,21.933799999999998,21.4534,314.999998,314.999998,324.999988,324.999988,99.5589,99.50736666666667,99.56747142857142,99.54741428571428,0.17825000000000024,0.045333333333333226,-0.02716666666666667,0.2115,-0.041666666666671404,-0.046666666666666856,1.5616666666666665,1.516,38.05,29.7165,38.086,35.084,56.035,35.0595,59.691,52.582,53.968,34.199,58.278999999999996,50.9,53.128,33.753,58.201,50.305,-0.15399999999999991,-0.000500000000000167,0.11124,0.10897000000000001,0.0,212.20499999999998,212.275,209.12333333333333,209.12333333333333,0.0,0.0
17,0.0,0.0,0.0,1.0,1.0,0.0,0.0,1.0,0.0,100.0,1.0,1.1856,26.0,0.0,0.0,0.0,59.999996,0.0,26.0,26.0,26.0,26.0,0.11544444444444446,0.2957000000000001,-0.03205,292.526,-2.7607,-2.5677777777777777,-1.6384,-1.4752999999999998,-218.8,215.9625,190.639375,0.0,0.0,0.0,0.0,0.03466666666666651,-5.498166666666667,-5.498166666666667,-0.5513,0.5270000000000001,0.04812499999999997,0.708,67.917,0.07880000000000001,-0.20747500000000002,-1.21,100.0,1.0,1.0,209.4766666666667,0.0,0.0,0.0,0.0,0.0,0.0,0.0,8879.0,0.0,55.0,5.0,244.47333333333336,1.0,0.0,0.0,0.0,0.0,0.0,1.0,0.0,0.8550000000000004,0.8550000000000004,0.0,0.0,1.0,55.0,616.79921,10000.0,85.000001,85.000001,85.000001,85.000001,395.0,0.0,0.0,0.0,1.0,166.665,52.429,52.429,47.867,47.867,34.0,-19.185,27.908,-25.116666666666667,33.6525,0.0,1782.097,-0.9600000000000009,100.0,27.865,28.259,42.278,43.309,0.0,0.0,100.0,0.0,0.0,0.0,0.0,2985.4285714285716,3165.5,4193.75,4311.4,305.748,304.81575,314.72075,314.2785,21.9369,20.6,21.9435,21.462,314.999998,314.999998,324.999988,324.999988,99.55891428571428,99.50736666666667,99.5676,99.54755714285714,0.18000000000000016,0.044333333333333336,-0.0155,0.20116666666666666,-0.03166666666666629,-0.061666666666667425,1.5573333333333332,1.511,38.105999999999995,29.75,38.147,35.1375,56.028,35.0985,59.724000000000004,52.6405,53.96,34.235,58.3095,50.956,53.120000000000005,33.7875,58.2285,50.36,-0.15300000000000002,-0.0024999999999999467,0.10568500000000002,0.10568500000000002,0.0,212.63,212.73000000000002,209.4766666666667,209.4766666666667,0.0,0.0
18,0.0,0.0,0.0,1.0,1.0,0.0,0.0,1.0,0.0,100.0,1.0,1.1856,26.0,0.0,0.0,0.0,59.999996,0.0,26.0,26.0,26.0,26.0,0.13188888888888894,0.27480000000000016,-0.007425,292.435,-2.8024,-2.5323333333333333,-1.6571,-1.4207,-215.32999999999998,215.95,190.617,0.0,0.0,0.0,0.0,0.036666666666666514,-5.498166666666667,-5.498166666666667,-0.5619000000000001,-0.488,0.07262499999999994,-0.2250000000000001,68.056,0.08370000000000001,-0.224975,-1.1979999999999995,100.0,1.0,1.0,209.91333333333333,0.0,0.0,0.0,0.0,0.0,0.0,0.0,8897.4,0.0,55.0,5.0,244.97333333333336,0.0,0.0,0.0,0.0,0.0,0.0,1.0,0.0,0.9059999999999988,0.9059999999999988,0.0,0.0,0.0,55.0,616.79921,10000.0,85.000001,85.000001,85.000001,85.000001,395.0,0.0,0.0,0.0,1.0,166.665,52.231,52.231,47.714,47.714,34.0,-20.655,29.268,-24.776666666666664,32.332499999999996,0.0,1782.045,-0.745000000000001,100.0,27.442,28.314,42.516,43.798,0.0,0.0,100.0,0.0,0.0,0.0,0.0,3116.0,3307.5,4049.5,4203.4,305.5875,304.273,315.064,314.43875,21.9463,20.6056,21.9541,21.4713,314.999998,314.999998,324.999988,324.999988,99.55894285714285,99.50738333333334,99.56774285714286,99.5477,0.17275000000000018,0.046333333333333115,-0.024833333333333332,0.20683333333333334,-0.051666666666669414,-0.03999999999999915,1.5670000000000002,1.5105,38.164,29.785,38.213,35.195499999999996,56.018,35.1385,59.762,52.704499999999996,53.951,34.272,58.3445,51.018,53.108999999999995,33.823,58.2605,50.42066666666666,-0.15149999999999997,-0.00649999999999995,0.10719500000000001,0.11414,0.0,213.04000000000002,213.115,209.91333333333333,209.91333333333333,0.0,0.0
19,0.0,0.0,0.0,1.0,1.0,0.0,0.0,1.0,0.0,100.0,1.0,1.1856,26.0,0.0,0.0,0.0,59.999996,0.0,26.0,26.0,26.0,26.0,0.10155555555555562,0.2914000000000001,0.03245,291.992,-2.7683,-2.5265555555555554,-1.6627,-1.4122,-212.06,215.9425,190.59575,0.0,0.0,0.0,0.0,0.03856666666666653,-5.498166666666667,-5.498166666666667,-0.5513,0.8486666666666667,0.07099999999999995,-0.9410000000000001,68.185,0.0908,-0.21152500000000002,-0.902000000000001,100.0,1.0,1.0,210.3,0.0,0.0,0.0,0.0,0.0,0.0,0.0,8913.8,0.0,55.0,5.0,245.43666666666667,1.0,0.0,0.0,0.0,0.0,0.0,1.0,0.0,0.9540000000000006,0.9540000000000006,0.0,0.0,1.0,55.0,616.79921,10000.0,85.000001,85.000001,85.000001,85.000001,395.0,0.0,0.0,0.0,1.0,166.665,51.682,51.682,47.607,47.607,34.0,-22.572499999999998,27.201999999999998,-26.263333333333335,33.2825,0.0,1781.997,-0.134999999999998,100.0,27.998,28.732,42.313,43.761,0.0,0.0,100.0,0.0,0.0,0.0,0.0,3163.142857142857,3282.7,4213.25,4363.7,305.335,304.24925,314.73525,314.1095,21.9552,20.6111,21.9638,21.4799,314.999998,314.999998,324.999988,324.999988,99.55895714285714,99.50738333333334,99.56788571428571,99.54784285714285,0.1339999999999999,0.002666666666666817,-0.02783333333333333,0.20066666666666666,-0.04999999999999716,-0.054999999999999716,1.5406666666666666,1.5125,38.22,29.819499999999998,38.274,35.2495,56.01,35.1775,59.794,52.7635,53.943,34.3085,58.3745,51.075,53.1,33.858000000000004,58.2875,50.47666666666667,-0.09299999999999997,-0.06150000000000011,0.11604,0.102055,0.0,213.47500000000002,213.57,210.3,210.3,0.0,0.0
20,0.0,0.0,0.0,1.0,1.0,0.0,0.0,1.0,0.0,100.0,1.0,1.1856,26.0,0.0,0.0,0.0,59.999996,0.0,26.0,26.0,26.0,26.0,0.0795555555555556,0.27570000000000006,0.02095,292.328,-2.7967,-2.6127777777777776,-1.5733000000000001,-1.5511,-208.57999999999998,215.9375,190.5735,0.0,0.0,0.0,0.0,0.04059999999999997,-5.498166666666667,-5.498166666666667,-0.5534,-1.151,0.05612499999999998,0.19199999999999995,68.324,0.07740000000000001,-0.221,-0.26399999999999935,100.0,1.0,1.0,210.61333333333334,0.0,0.0,0.0,0.0,0.0,0.0,0.0,8927.2,0.0,55.0,5.0,245.94,0.0,0.0,0.0,0.0,0.0,0.0,0.0,0.0,1.004999999999999,1.004999999999999,0.0,0.0,0.0,55.0,616.79921,10000.0,85.000001,85.000001,85.000001,85.000001,395.0,0.0,0.0,0.0,1.0,166.665,52.872,52.872,46.875,46.875,34.0,-21.1175,25.584000000000003,-25.39333333333333,35.225,0.0,1781.946,0.240000000000002,100.0,27.588,28.127,43.149,43.995000000000005,0.0,0.0,100.0,0.0,0.0,0.0,0.0,2861.857142857143,3181.4,4161.375,4315.1,306.212,304.79275,314.6245,314.0605,21.9644,20.6167,21.9745,21.4893,314.999998,314.999998,324.999988,324.999988,99.55897142857143,99.5074,99.56802857142857,99.548,0.11450000000000005,-0.024666666666666615,-0.03283333333333334,0.19966666666666666,-0.05333333333332746,-0.041666666666671404,1.483,1.4669999999999999,38.278,29.8545,38.34,35.308,55.995999999999995,35.2155,59.834,52.828,53.929,34.3435,58.411500000000004,51.137,53.085,33.8915,58.321,50.538,-0.06099999999999994,-0.09650000000000025,0.10820500000000001,0.10985,0.0,213.905,213.91500000000002,210.61333333333334,210.61333333333334,0.0,0.0
21,0.0,0.0,0.0,1.0,1.0,0.0,0.0,1.0,0.0,100.0,1.0,1.1856,26.0,0.0,0.0,0.0,59.999996,0.0,26.0,26.0,26.0,26.0,0.02644444444444427,0.2723,-0.078225,292.709,-2.6892,-2.6846666666666668,-1.6227,-1.5239,-205.29,215.935,190.55175,0.0,0.0,0.0,0.0,0.04249999999999998,-5.498166666666667,-5.498166666666667,-0.5779000000000001,0.46366666666666667,0.02212499999999995,-0.16300000000000003,68.449,0.0426,-0.2253,0.2940000000000005,100.0,1.0,1.0,211.25333333333333,0.0,0.0,0.0,0.0,0.0,0.0,0.0,8954.2,0.0,55.0,5.0,246.38666666666666,1.0,0.0,0.0,0.0,0.0,0.0,0.0,0.0,1.0530000000000008,1.0530000000000008,0.0,0.0,1.0,55.0,616.79921,10000.0,85.000001,85.000001,85.000001,85.000001,395.0,0.0,0.0,0.0,1.0,166.665,52.322,52.322,48.355000000000004,48.355000000000004,34.0,-22.4925,25.742,-26.36,28.4575,0.0,1781.899,0.28500000000000014,100.0,28.054,28.163,42.616,43.419,0.0,0.0,100.0,0.0,0.0,0.0,0.0,3029.142857142857,3159.7,3976.125,3986.3,305.5485,304.7705,315.267,315.0385,21.973399999999998,20.622,21.9842,21.497700000000002,314.999998,314.999998,324.999988,324.999988,99.55898571428571,99.5074,99.56815714285715,99.54812857142858,0.09799999999999986,-0.03433333333333333,-0.07866666666666668,0.14866666666666667,-0.03833333333332689,-0.05333333333332746,1.5876666666666668,1.588,38.333,29.8875,38.400999999999996,35.361,55.983999999999995,35.253,59.8645,52.8825,53.918,34.378,58.439499999999995,51.1895,53.073,33.9245,58.3465,50.589333333333336,-0.05899999999999994,-0.09799999999999986,0.108255,0.10141000000000001,0.0,214.325,214.29500000000002,211.25333333333333,211.25333333333333,0.0,0.0
22,0.0,0.0,0.0,1.0,1.0,0.0,0.0,1.0,0.0,100.0,1.0,1.1856,26.0,0.0,0.0,0.0,59.999996,0.0,26.0,26.0,26.0,26.0,-0.0022222222222221255,0.25029999999999997,0.027600000000000003,292.13,-2.6572,-2.7046666666666668,-1.601,-1.529,-201.8,215.93,190.528,0.0,0.0,0.0,0.0,0.044533333333333314,-5.498166666666667,-5.498166666666667,-0.5567,0.12400000000000011,0.008124999999999938,-0.8049999999999999,68.588,0.0083,-0.204925,0.6240000000000006,100.0,1.0,1.0,211.46,0.0,0.0,0.0,0.0,0.0,0.0,0.0,8963.0,0.0,55.0,5.0,246.88666666666666,0.0,0.0,0.0,0.0,0.0,0.0,0.0,0.0,1.1039999999999992,1.1039999999999992,0.0,0.0,0.0,55.0,616.79921,10000.0,85.000001,85.000001,85.000001,85.000001,395.0,0.0,0.0,0.0,1.0,166.665,52.338,52.338,47.165,47.165,34.0,-23.95,23.136,-31.593333333333334,28.6,0.0,1781.847,0.27500000000000213,100.0,28.109,28.265,43.157,43.576,0.0,0.0,100.0,0.0,0.0,0.0,0.0,3078.142857142857,3017.8,4298.5,4248.8,305.5405,304.992,314.485,314.34725,21.9828,20.6276,21.994799999999998,21.5069,314.999998,314.999998,324.999988,324.999988,99.55898571428571,99.5074,99.5683,99.54828571428571,0.06325000000000003,-0.07666666666666666,-0.1235,0.09683333333333333,-0.045000000000001705,-0.04333333333332945,1.4766666666666666,1.4835,38.393,29.9225,38.468,35.4185,55.971000000000004,35.292500000000004,59.903999999999996,52.944,53.905,34.414500000000004,58.4765,51.249,53.059,33.96,58.3805,50.647666666666666,-0.05349999999999988,-0.10000000000000009,0.11017,0.105075,0.0,214.775,214.715,211.46,211.46,0.0,0.0
23,0.0,0.0,0.0,1.0,1.0,0.0,0.0,1.0,0.0,100.0,1.0,1.1856,26.0,0.0,0.0,0.0,59.999996,0.0,26.0,26.0,26.0,26.0,-0.04399999999999993,0.2603,-0.01065,292.099,-2.6675,-2.675222222222222,-1.5171000000000001,-1.6108,-198.3,215.9275,190.5045,0.0,0.0,0.0,0.0,0.046566666666666534,-5.498166666666667,-5.498166666666667,-0.5746,-0.30033333333333334,-0.007000000000000117,0.45999999999999996,68.72200000000001,-0.0159,-0.23087500000000002,0.6739999999999995,100.0,1.0,1.0,211.97,0.0,0.0,0.0,0.0,0.0,0.0,0.0,8984.7,0.0,55.0,5.0,247.37333333333333,1.0,0.0,0.0,0.0,0.0,0.0,0.0,0.0,1.1550000000000011,1.1550000000000011,0.0,0.0,1.0,55.0,616.79921,10000.0,85.000001,85.000001,85.000001,85.000001,395.0,0.0,0.0,0.0,1.0,333.33500000000004,51.712,51.712,48.065,48.065,34.0,-26.5225,23.402,-28.006666666666668,27.565,0.0,1781.796,0.3150000000000013,100.0,28.586,28.075,43.594,43.626,0.0,0.0,100.0,0.0,0.0,0.0,0.0,3277.0,3141.0,3944.125,4001.6000000000004,304.799,304.907,315.1795,314.9045,21.9924,20.6332,22.0054,21.5162,314.999998,314.999998,324.999988,324.999988,99.559,99.50741666666667,99.56845714285714,99.54842857142857,0.052999999999999936,-0.08133333333333326,-0.13566666666666666,0.09766666666666668,-0.03833333333332689,-0.04833333333333201,1.522,1.5425,38.452,29.9575,38.534,35.476,55.957,35.333,59.942,53.004999999999995,53.891999999999996,34.452,58.512,51.3075,53.045,33.996,58.4125,50.70466666666667,-0.05549999999999988,-0.10199999999999987,0.1057,0.111545,0.0,215.16,215.11,211.97,211.97,0.0,0.0
24,0.0,0.0,0.0,1.0,1.0,0.0,0.0,1.0,0.0,100.0,1.0,1.1856,26.0,0.0,0.0,0.0,59.999996,0.0,26.0,26.0,26.0,26.0,-0.05266666666666664,0.27049999999999996,-0.064925,292.374,-2.6816,-2.695222222222222,-1.5545,-1.556,-195.0,215.9225,190.482,0.0,0.0,0.0,0.0,0.04849999999999999,-5.498166666666667,-5.498166666666667,-0.5777,-0.5543333333333333,-0.00550000000000006,0.952,68.85,-0.029400000000000003,-0.216375,0.5520000000000014,100.0,1.0,1.0,212.28,0.0,0.0,0.0,0.0,0.0,0.0,0.0,8997.7,0.0,55.0,5.0,247.82999999999998,0.0,0.0,0.0,0.0,0.0,0.0,0.0,0.0,1.2029999999999994,1.2029999999999994,0.0,0.0,0.0,55.0,616.79921,10000.0,85.000001,85.000001,85.000001,85.000001,395.0,0.0,0.0,0.0,1.0,166.665,52.902,52.902,47.073,47.073,34.0,-23.83,21.714000000000002,-32.07,27.365000000000002,0.0,1781.748,0.254999999999999,100.0,28.352,27.717,43.687,43.397999999999996,0.0,0.0,100.0,0.0,0.0,0.0,0.0,2937.4285714285716,2970.3,4290.375,4143.1,305.8755,305.464,314.36275,314.6525,22.0012,20.6383,22.0153,21.5248,314.999998,314.999998,324.999988,324.999988,99.559,99.50743333333334,99.5686,99.54855714285715,0.04249999999999998,-0.09033333333333315,-0.14200000000000002,0.0855,-0.045000000000001705,-0.036666666666668846,1.476,1.513,38.507999999999996,29.9895,38.596000000000004,35.5295,55.943,35.37,59.978,53.0605,53.878,34.486,58.545500000000004,51.361000000000004,53.031,34.0285,58.443,50.757,-0.05349999999999988,-0.09350000000000014,0.10714000000000001,0.10899,0.0,215.57999999999998,215.5,212.28,212.28,0.0,0.0
25,0.0,0.0,0.0,1.0,1.0,0.0,0.0,1.0,0.0,100.0,1.0,1.1856,26.0,0.0,0.0,0.0,59.999996,0.0,26.0,26.0,26.0,26.0,-0.0461111111111111,0.26470000000000016,-0.0497,292.374,-2.7439,-2.6612222222222224,-1.5606,-1.5674,-191.48000000000002,215.91750000000002,190.45675,0.0,0.0,0.0,0.0,0.05053333333333332,-5.498166666666667,-5.498166666666667,-0.6113000000000001,-0.03500000000000003,-0.013875000000000082,-1.1800000000000002,68.982,-0.0366,-0.2253,0.5600000000000005,100.0,1.0,1.0,212.82333333333332,0.0,0.0,0.0,0.0,0.0,0.0,0.0,9020.9,0.0,55.0,5.0,248.30666666666667,1.0,0.0,0.0,0.0,0.0,0.0,0.0,0.0,1.2540000000000013,1.2540000000000013,0.0,0.0,1.0,55.0,616.79921,10000.0,85.000001,85.000001,85.000001,85.000001,395.0,0.0,0.0,0.0,1.0,166.665,51.941,51.941,47.958,47.958,34.0,-28.5,23.114,-29.573333333333338,24.91,0.0,1781.697,0.21499999999999986,100.0,28.187,28.021,43.403,43.095,0.0,0.0,100.0,0.0,0.0,0.0,0.0,3347.142857142857,3177.7,3990.25,3979.2,304.95,304.662,315.223,315.039,22.0106,20.6438,22.0257,21.5338,314.999998,314.999998,324.999988,324.999988,99.55901428571428,99.50743333333334,99.56872857142857,99.5487,0.030749999999999833,-0.09566666666666679,-0.1555,0.0645,-0.03333333333333144,-0.061666666666667425,1.5583333333333333,1.5875,38.566,30.024,38.661,35.586,55.926,35.411,60.0135,53.117,53.861999999999995,34.524,58.5785,51.4155,53.013999999999996,34.064499999999995,58.473,50.81033333333333,-0.062000000000000055,-0.08950000000000014,0.110835,0.09948000000000001,0.0,215.97500000000002,215.925,212.82333333333332,212.82333333333332,0.0,0.0
26,0.0,0.0,0.0,1.0,1.0,0.0,0.0,1.0,0.0,100.0,1.0,1.1856,26.0,0.0,0.0,0.0,59.999996,0.0,26.0,26.0,26.0,26.0,-0.07033333333333336,0.2793000000000001,0.07455,291.183,-2.6814,-2.748666666666667,-1.601,-1.5657999999999999,-187.95999999999998,215.9125,190.430875,0.0,0.0,0.0,0.0,0.05259999999999998,-5.498166666666667,-5.498166666666667,-0.5705,0.7403333333333333,-0.03462500000000013,0.641,69.118,-0.0398,-0.19492500000000001,0.4720000000000013,100.0,1.0,1.0,212.9766666666667,0.0,0.0,0.0,0.0,0.0,0.0,0.0,9027.3,0.0,55.0,5.0,248.79666666666668,0.0,0.0,0.0,0.0,0.0,0.0,0.0,0.0,1.3049999999999997,1.3049999999999997,0.0,0.0,0.0,55.0,616.79921,10000.0,85.000001,85.000001,85.000001,85.000001,395.0,0.0,0.0,0.0,1.0,333.33500000000004,51.437,51.437,46.234,46.234,34.0,-26.0075,23.317999999999998,-35.78333333333333,29.5975,0.0,1781.646,0.08999999999999986,100.0,29.234,28.497,43.992000000000004,43.355000000000004,0.0,0.0,100.0,0.0,0.0,0.0,0.0,3194.4285714285716,3099.5,4555.75,4489.8,305.0645,304.92925,313.829,313.8445,22.0203,20.6496,22.0364,21.543,314.999998,314.999998,324.999988,324.999988,99.55901428571428,99.50745,99.5689,99.54885714285714,0.05025000000000013,-0.09366666666666679,-0.151,0.06916666666666667,-0.01999999999999602,-0.060000000000002274,1.434,1.4545,38.626999999999995,30.0595,38.727000000000004,35.644,55.914,35.454499999999996,60.054,53.178,53.851,34.564,58.6165,51.474000000000004,53.001999999999995,34.103,58.5075,50.867333333333335,-0.07899999999999996,-0.08499999999999996,0.11045,0.10660000000000001,0.0,216.41,216.385,212.9766666666667,212.9766666666667,0.0,0.0
27,0.0,0.0,0.0,1.0,1.0,0.0,0.0,1.0,0.0,100.0,1.0,1.1856,26.0,0.0,0.0,0.0,59.999996,0.0,26.0,26.0,26.0,26.0,-0.052888888888888874,0.25980000000000003,-0.006475000000000001,291.626,-2.6466,-2.7168888888888887,-1.5914000000000001,-1.6395,-184.64,215.9025,190.407875,0.0,0.0,0.0,0.0,0.05453333333333332,-5.498166666666667,-5.498166666666667,-0.5967,-1.08,-0.03362500000000024,0.772,69.242,-0.036000000000000004,-0.242675,0.2840000000000007,100.0,1.0,1.0,213.46333333333334,0.0,0.0,0.0,0.0,0.0,0.0,0.0,9047.9,0.0,55.0,5.0,249.25,1.0,0.0,0.0,0.0,0.0,0.0,0.0,0.0,1.352999999999998,1.352999999999998,0.0,0.0,1.0,55.0,616.79921,10000.0,85.000001,85.000001,85.000001,85.000001,395.0,0.0,0.0,0.0,1.0,333.33500000000004,51.788,51.788,46.677,46.677,34.0,-24.8975,23.573999999999998,-31.18,27.885,0.0,1781.598,0.019999999999999574,100.0,28.937,28.258,44.644,43.928,0.0,0.0,100.0,0.0,0.0,0.0,0.0,3116.285714285714,3151.5,4122.125,4100.3,305.3035,304.8915,314.78275,314.6615,22.0292,20.6548,22.0465,21.5519,314.999998,314.999998,324.999988,324.999988,99.55902857142857,99.50746666666667,99.56902857142857,99.549,0.05149999999999988,-0.08833333333333315,-0.146,0.07566666666666667,-0.045000000000001705,-0.041666666666671404,1.495,1.4965,38.682,30.092,38.791,35.699,55.9,35.4925,60.0925,53.236000000000004,53.838,34.599000000000004,58.6525,51.5295,52.986999999999995,34.1365,58.5405,50.92166666666667,-0.07299999999999995,-0.08499999999999996,0.11243500000000001,0.10413000000000001,0.0,216.755,216.71,213.46333333333334,213.46333333333334,0.0,0.0
28,0.0,0.0,0.0,1.0,1.0,0.0,0.0,1.0,0.0,100.0,1.0,1.1856,26.0,0.0,0.0,0.0,59.999996,0.0,26.0,26.0,26.0,26.0,-0.031888888888888856,0.25560000000000005,-0.054775000000000004,291.916,-2.6816,-2.6959999999999997,-1.5439,-1.5979999999999999,-181.1,215.89499999999998,190.3825,0.0,0.0,0.0,0.0,0.05656666666666654,-5.498166666666667,-5.498166666666667,-0.6029,0.6393333333333333,-0.038000000000000256,-0.4770000000000001,69.372,-0.031400000000000004,-0.21912500000000001,0.30400000000000027,100.0,1.0,1.0,213.98333333333335,0.0,0.0,0.0,0.0,0.0,0.0,0.0,9069.9,0.0,55.0,5.0,249.71333333333334,0.0,0.0,0.0,0.0,0.0,0.0,0.0,0.0,1.404,1.404,0.0,0.0,0.0,55.0,616.79921,10000.0,85.000001,85.000001,85.000001,85.000001,395.0,0.0,0.0,0.0,1.0,333.33500000000004,51.727000000000004,51.727000000000004,47.653,47.653,34.0,-26.447499999999998,22.38,-29.990000000000002,26.8225,0.0,1781.546,-0.08999999999999986,100.0,28.861,28.395,43.825,43.445,0.0,0.0,100.0,0.0,0.0,0.0,0.0,3302.857142857143,3005.9,4075.25,4095.1000000000004,304.9575,305.12675,315.01725,314.75675,22.0388,20.6604,22.0568,21.5609,314.999998,314.999998,324.999988,324.999988,99.55904285714286,99.50748333333334,99.56917142857142,99.54914285714285,0.05750000000000011,-0.08799999999999986,-0.15133333333333335,0.07383333333333333,-0.04333333333332945,-0.06666666666666998,1.5456666666666665,1.56,38.742000000000004,30.127000000000002,38.855000000000004,35.7555,55.887,35.533500000000004,60.126,53.292,53.825,34.637,58.6835,51.5835,52.974000000000004,34.1725,58.569,50.974333333333334,-0.09149999999999991,-0.07399999999999984,0.10553000000000001,0.10478000000000001,0.0,217.2,217.175,213.98333333333335,213.98333333333335,0.0,0.0
29,0.0,0.0,0.0,1.0,1.0,0.0,0.0,1.0,0.0,100.0,1.0,1.1856,26.0,0.0,0.0,0.0,59.999996,0.0,26.0,26.0,26.0,26.0,-0.028000000000000025,0.2642,0.015775,291.55,-2.6294,-2.744111111111111,-1.5495,-1.5697,-177.56,215.8825,190.356125,0.0,0.0,0.0,0.0,0.058633333333333315,-5.498166666666667,-5.498166666666667,-0.6055,-0.6873333333333334,-0.025374999999999925,0.861,69.507,-0.028,-0.21677500000000002,0.09999999999999964,100.0,1.0,1.0,214.21,0.0,0.0,0.0,0.0,0.0,0.0,0.0,9079.5,0.0,55.0,5.0,250.2,1.0,0.0,0.0,0.0,0.0,0.0,0.0,0.0,1.4549999999999983,1.4549999999999983,0.0,0.0,1.0,55.0,616.79921,10000.0,85.000001,85.000001,85.000001,85.000001,395.0,0.0,0.0,0.0,1.0,333.33500000000004,51.804,51.804,46.524,46.524,34.0,-24.1925,24.714,-30.453333333333333,29.385,0.0,1781.495,-0.17999999999999972,100.0,28.614,28.131999999999998,44.269,43.712,0.0,0.0,100.0,0.0,0.0,0.0,0.0,3161.714285714286,3181.5,4215.625,4294.1,305.211,304.66375,314.5255,314.26475,22.048099999999998,20.6659,22.0674,21.5702,314.999998,314.999998,324.999988,324.999988,99.55904285714286,99.50748333333334,99.56934285714286,99.54928571428572,0.07224999999999993,-0.07766666666666677,-0.1245,0.09183333333333334,-0.01666666666666572,-0.05666666666667197,1.478,1.468,38.8,30.162,38.921,35.814,55.872,35.573,60.166,53.3535,53.811,34.6735,58.721000000000004,51.6425,52.959,34.207499999999996,58.603,51.032,-0.09499999999999997,-0.06550000000000011,0.0984,0.112335,0.0,217.555,217.55,214.21,214.21,0.0,0.0
30,0.0,0.0,0.0,1.0,1.0,0.0,0.0,1.0,0.0,100.0,1.0,1.1856,26.0,0.0,0.0,0.0,59.999996,0.0,26.0,26.0,26.0,26.0,-0.02055555555555555,0.26370000000000005,0.06275,291.122,-2.6852,-2.6334444444444447,-1.5229,-1.6295,-174.22,215.8725,190.331125,0.0,0.0,0.0,0.0,0.060566666666666547,-5.498166666666667,-5.498166666666667,-0.602,0.772,-0.030124999999999957,0.611,69.628,-0.0222,-0.21855000000000002,0.05600000000000094,100.0,1.0,1.0,214.65333333333334,0.0,0.0,0.0,0.0,0.0,0.0,0.0,9098.3,0.0,55.0,5.0,250.63666666666666,0.0,0.0,0.0,0.0,0.0,0.0,1.0,0.0,1.5030000000000001,1.5030000000000001,0.0,0.0,0.0,55.0,616.79921,10000.0,85.000001,85.000001,85.000001,85.000001,395.0,0.0,0.0,0.0,1.0,333.33500000000004,50.827,50.827,47.012,47.012,34.0,-25.93,24.564,-29.516666666666666,30.56,0.0,1781.446,-0.28500000000000014,100.0,29.426000000000002,28.865000000000002,44.039,43.739000000000004,0.0,0.0,100.0,0.0,0.0,0.0,0.0,3348.857142857143,3201.0,4216.125,4260.6,304.622,304.6385,314.623,314.30375,22.0572,20.6714,22.0772,21.5789,314.999998,314.999998,324.999988,324.999988,99.55905714285714,99.5075,99.56947142857143,99.54944285714285,0.08400000000000007,-0.06066666666666665,-0.11766666666666667,0.10266666666666667,-0.04999999999999716,-0.045000000000001705,1.496,1.48,38.857,30.195999999999998,38.983000000000004,35.8685,55.861999999999995,35.6155,60.201,53.4125,53.801,34.7125,58.7535,51.6995,52.948,34.245,58.6325,51.08733333333333,-0.11250000000000004,-0.06050000000000022,0.103995,0.11114500000000001,0.0,217.98000000000002,217.97,214.65333333333334,214.65333333333334,0.0,0.0
31,0.0,0.0,0.0,1.0,1.0,0.0,0.0,1.0,0.0,100.0,1.0,1.1856,26.0,0.0,0.0,0.0,59.999996,0.0,26.0,26.0,26.0,26.0,-0.029444444444444384,0.25480000000000014,0.0009750000000000001,291.061,-2.7552,-2.608111111111111,-1.5718,-1.6227,-170.67000000000002,215.86,190.305375,0.0,0.0,0.0,0.0,0.06263333333333332,-5.498166666666667,-5.498166666666667,-0.5900000000000001,-0.5333333333333333,-0.021500000000000075,-0.736,69.76,-0.0115,-0.21955000000000002,-0.11999999999999922,100.0,1.0,1.0,214.96,0.0,0.0,0.0,0.0,0.0,0.0,0.0,9111.4,0.0,55.0,5.0,251.11,1.0,0.0,0.0,0.0,0.0,0.0,1.0,0.0,1.5539999999999985,1.5539999999999985,0.0,0.0,1.0,55.0,616.79921,10000.0,85.000001,85.000001,85.000001,85.000001,395.0,0.0,0.0,0.0,1.0,166.665,51.483000000000004,51.483000000000004,45.578,45.578,34.0,-25.27,23.53,-32.620000000000005,30.21,0.0,1781.398,-0.29499999999999815,100.0,28.962,29.0,44.622,44.497,0.0,0.0,100.0,0.0,0.0,0.0,0.0,3193.0,3145.5,4415.5,4202.3,305.3925,304.85725,314.1285,314.5075,22.0665,20.6771,22.088,21.5884,314.999998,314.999998,324.999988,324.999988,99.55905714285714,99.5075,99.56961428571428,99.54957142857143,0.07374999999999998,-0.06666666666666665,-0.12616666666666668,0.106,-0.04999999999999716,-0.04833333333333201,1.4603333333333333,1.4445,38.916,30.232,39.05,35.9275,55.849999999999994,35.6535,60.2395,53.4715,53.79,34.748,58.789500000000004,51.756,52.936,34.278999999999996,58.6655,51.14266666666666,-0.10399999999999987,-0.06150000000000011,0.10792,0.11421,0.0,218.36,218.36,214.96,214.96,0.0,0.0
32,0.0,0.0,0.0,1.0,1.0,0.0,0.0,1.0,0.0,100.0,1.0,1.1856,26.0,0.0,0.0,0.0,59.999996,0.0,26.0,26.0,26.0,26.0,-0.018888888888888844,0.2772000000000001,-0.04055,291.229,-2.6873,-2.715111111111111,-1.6369,-1.5322,-167.11,215.8475,190.27975,0.0,0.0,0.0,0.0,0.06469999999999998,-5.498166666666667,-5.498166666666667,-0.6063000000000001,0.1160000000000001,-0.04312499999999986,0.16200000000000003,69.888,-0.0029000000000000002,-0.226,-0.1639999999999997,100.0,1.0,1.0,215.47333333333333,0.0,0.0,0.0,0.0,0.0,0.0,0.0,9133.1,0.0,55.0,5.0,251.57,0.0,0.0,0.0,0.0,0.0,0.0,1.0,0.0,1.6050000000000004,1.6050000000000004,0.0,0.0,0.0,55.0,616.79921,10000.0,85.000001,85.000001,85.000001,85.000001,395.0,0.0,0.0,0.0,1.0,333.33500000000004,51.269999999999996,51.269999999999996,46.539,46.539,34.0,-24.325,25.228,-30.46666666666666,29.3975,0.0,1781.345,-0.28999999999999915,100.0,29.13,28.874,44.418,44.225,0.0,0.0,100.0,0.0,0.0,0.0,0.0,3213.714285714286,3174.1,4222.375,4245.9,305.08,304.775,314.711,314.51175,22.0759,20.6829,22.098399999999998,21.5976,314.999998,314.999998,324.999988,324.999988,99.55907142857143,99.5075,99.56977142857143,99.54972857142857,0.09200000000000008,-0.05600000000000005,-0.1105,0.11783333333333333,-0.041666666666671404,-0.04333333333332945,1.54,1.535,38.974000000000004,30.268,39.114999999999995,35.985,55.838,35.6945,60.2745,53.53,53.778,34.786,58.822,51.8125,52.923,34.315,58.695,51.19766666666666,-0.10650000000000004,-0.06499999999999995,0.10461000000000001,0.107215,0.0,218.76,218.75,215.47333333333333,215.47333333333333,0.0,0.0
33,0.0,0.0,0.0,1.0,1.0,0.0,0.0,1.0,0.0,100.0,1.0,1.1856,26.0,0.0,0.0,0.0,59.999996,0.0,26.0,26.0,26.0,26.0,0.0,0.2663,-0.04095,291.382,-2.6954,-2.7103333333333333,-1.5661,-1.6125,-163.75,215.8375,190.254625,0.0,0.0,0.0,0.0,0.06666666666666654,-5.498166666666667,-5.498166666666667,-0.6125,-0.386,-0.0378750000000001,1.401,70.01,0.0022,-0.21845,-0.15399999999999991,100.0,1.0,1.0,215.7733333333333,0.0,0.0,0.0,0.0,0.0,0.0,0.0,9145.9,0.0,55.0,5.0,252.01,1.0,0.0,0.0,0.0,0.0,0.0,1.0,0.0,1.6529999999999987,1.6529999999999987,0.0,0.0,1.0,55.0,616.79921,10000.0,85.000001,85.000001,85.000001,85.000001,395.0,0.0,0.0,0.0,1.0,333.33500000000004,51.819,51.819,46.494,46.494,34.0,-22.915,24.775999999999996,-29.60333333333333,31.1925,0.0,1781.297,-0.3200000000000003,100.0,28.946,28.565,44.384,44.231,0.0,0.0,100.0,0.0,0.0,0.0,0.0,3094.142857142857,3103.6,4216.25,4295.4,305.47,305.013,314.58525,314.30975,22.084600000000002,20.6881,22.1083,21.6064,314.999998,314.999998,324.999988,324.999988,99.55908571428571,99.50751666666666,99.56991428571429,99.54987142857142,0.10099999999999998,-0.04966666666666675,-0.106,0.116,-0.03999999999999915,-0.04833333333333201,1.4903333333333333,1.4885,39.028999999999996,30.3005,39.177,36.04,55.826,35.730000000000004,60.309,53.586,53.766999999999996,34.8185,58.8545,51.8665,52.911,34.3465,58.724000000000004,51.25033333333333,-0.10850000000000004,-0.05799999999999983,0.10856500000000001,0.10709,0.0,219.125,219.125,215.7733333333333,215.7733333333333,0.0,0.0
34,0.0,0.0,0.0,1.0,1.0,0.0,0.0,1.0,0.0,100.0,1.0,1.1856,26.0,0.0,0.0,0.0,59.999996,0.0,26.0,26.0,26.0,26.0,0.002888888888888941,0.24439999999999995,-0.057975000000000006,291.885,-2.733,-2.6284444444444444,-1.6395,-1.5648,-159.97,215.825,190.22525,0.0,0.0,0.0,0.0,0.06886666666666652,-5.498166666666667,-5.498166666666667,-0.6435000000000001,-0.7196666666666667,-0.0012500000000001954,1.003,70.146,0.0071,-0.224675,-0.15600000000000058,100.0,1.0,1.0,216.25333333333333,0.0,0.0,0.0,0.0,0.0,0.0,0.0,9166.2,0.0,55.0,5.0,252.49666666666667,0.0,0.0,0.0,0.0,0.0,0.0,1.0,0.0,1.7070000000000007,1.7070000000000007,0.0,0.0,0.0,55.0,616.79921,10000.0,85.000001,85.000001,85.000001,85.000001,395.0,0.0,0.0,0.0,1.0,166.665,52.292,52.292,47.318,47.318,34.0,-22.375,24.314,-28.863333333333337,30.150000000000002,0.0,1781.244,-0.3049999999999997,100.0,28.573,28.232,43.956,44.215,0.0,0.0,100.0,0.0,0.0,0.0,0.0,2968.857142857143,3073.8,4052.5,4202.1,305.695,305.08325,315.06425,314.50075,22.0943,20.694,22.1192,21.6162,314.999998,314.999998,324.999988,324.999988,99.5591,99.50753333333333,99.57007142857142,99.55002857142857,0.10050000000000026,-0.03733333333333322,-0.1045,0.12566666666666668,-0.04833333333333201,-0.046666666666666856,1.5273333333333334,1.5175,39.09,30.3375,39.245000000000005,36.1015,55.812,35.7695,60.345,53.6495,53.754000000000005,34.855000000000004,58.888,51.9275,52.897,34.381,58.754,51.31,-0.10599999999999987,-0.05149999999999988,0.109075,0.10896000000000002,0.0,219.55,219.51999999999998,216.25333333333333,216.25333333333333,0.0,0.0
35,0.0,0.0,0.0,1.0,1.0,0.0,0.0,1.0,0.0,100.0,1.0,1.1856,26.0,0.0,0.0,0.0,59.999996,0.0,26.0,26.0,26.0,26.0,0.005222222222222239,0.2570000000000001,-0.060675,291.824,-2.7089,-2.6365555555555558,-1.6111,-1.5266,-156.6,215.8125,190.196875,0.0,0.0,0.0,0.0,0.0708333333333333,-5.498166666666667,-5.498166666666667,-0.6843,-0.4643333333333334,-0.019124999999999837,-0.15300000000000002,70.265,0.014,-0.23037500000000002,-0.26399999999999935,100.0,1.0,1.0,216.68,0.0,0.0,0.0,0.0,0.0,0.0,0.0,9184.2,0.0,55.0,5.0,252.93,1.0,0.0,0.0,0.0,0.0,0.0,1.0,0.0,1.754999999999999,1.754999999999999,0.0,0.0,1.0,55.0,616.79921,10000.0,85.000001,85.000001,85.000001,85.000001,395.0,0.0,0.0,0.0,1.0,166.665,51.650999999999996,51.650999999999996,46.997,46.997,34.0,-23.745,27.058,-27.229999999999997,28.080000000000002,0.0,1781.197,-0.21499999999999986,100.0,28.386,28.517,43.772999999999996,43.741,0.0,0.0,100.0,0.0,0.0,0.0,0.0,3136.142857142857,3373.3,4025.75,3964.2,305.3515,304.205,315.045,315.08925,22.1028,20.6994,22.1289,21.6248,314.999998,314.999998,324.999988,324.999988,99.55911428571429,99.50753333333333,99.5702,99.55017142857143,0.09350000000000014,-0.03866666666666663,-0.08333333333333333,0.13766666666666666,-0.04999999999999716,-0.060000000000002274,1.5473333333333334,1.539,39.143,30.371499999999997,39.306,36.155,55.798,35.806,60.376999999999995,53.702,53.739999999999995,34.888999999999996,58.917500000000004,51.978,52.882,34.4135,58.7805,51.35933333333333,-0.09499999999999997,-0.06099999999999994,0.10431000000000001,0.10482000000000001,0.0,219.89499999999998,219.91500000000002,216.68,216.68,0.0,0.0
36,0.0,0.0,0.0,1.0,1.0,0.0,0.0,1.0,0.0,100.0,1.0,1.1856,26.0,0.0,0.0,0.0,59.999996,0.0,26.0,26.0,26.0,26.0,0.020333333333333314,0.2561,0.048875,290.817,-2.6377,-2.6703333333333332,-1.5604,-1.5840999999999998,-153.01,215.8025,190.165375,0.0,0.0,0.0,0.0,0.07289999999999996,-5.498166666666667,-5.498166666666667,-0.6646000000000001,0.29866666666666686,-0.061125000000000096,-1.2109999999999999,70.395,0.0142,-0.202575,0.041999999999999815,100.0,1.0,1.0,216.85000000000002,0.0,0.0,0.0,0.0,0.0,0.0,0.0,9191.5,0.0,55.0,5.0,253.39333333333335,0.0,0.0,0.0,0.0,0.0,0.0,1.0,0.0,1.806000000000001,1.806000000000001,0.0,0.0,0.0,55.0,616.79921,10000.0,85.000001,85.000001,85.000001,85.000001,395.0,0.0,0.0,0.0,1.0,166.665,51.224000000000004,51.224000000000004,46.173,46.173,34.0,-23.5675,24.701999999999998,-31.623333333333335,33.685,0.0,1781.145,-0.16000000000000014,100.0,28.953,29.018,43.92,44.17,0.0,0.0,100.0,0.0,0.0,0.0,0.0,3199.285714285714,3140.8,4488.375,4509.4,305.011,304.74575,314.048,313.74075,22.112099999999998,20.7053,22.1394,21.6341,314.999998,314.999998,324.999988,324.999988,99.55912857142857,99.50753333333333,99.57035714285715,99.55031428571428,0.09850000000000003,-0.05566666666666675,-0.09983333333333333,0.12816666666666665,-0.03166666666666629,-0.02833333333332888,1.4266666666666667,1.437,39.201,30.408,39.370999999999995,36.213499999999996,55.787,35.847,60.4135,53.762,53.730000000000004,34.9265,58.952,52.036,52.870000000000005,34.45,58.8115,51.416,-0.09699999999999998,-0.0754999999999999,0.10885,0.11098500000000001,0.0,220.32999999999998,220.32999999999998,216.85000000000002,216.85000000000002,0.0,0.0
