,ABS Active,ABS Enabled,AID Allow Tire Blankets,AID Auto Blip,AID Auto Clutch,AID Auto Shift,AID Fuel Rate,AID Ideal Line,AID Mech Damage,AID Stability,AID Tire Wear Rate,Air Density,Air Temp,Ballast,Best Lap Delta,Best Lap Time,Brake Bias,Brake Pos,Brake Temp FL,Brake Temp FR,Brake Temp RL,Brake Temp RR,CG Accel Lateral,CG Accel Longitudinal,CG Accel Vertical,CG Height,Camber FL,Camber FR,Camber RL,Camber RR,Car Coord X,Car Coord Y,Car Coord Z,Car Damage Front,Car Damage Left,Car Damage Rear,Car Damage Right,Car Pos Norm,Caster FL,Caster FR,Chassis Pitch Angle,Chassis Pitch Rate,Chassis Roll Angle,Chassis Roll Rate,Chassis Velocity X,Chassis Velocity Y,Chassis Velocity Z,Chassis Yaw Rate,Clutch Pos,DRS Active,DRS Available,Drive Train Speed,ERS Heat Charging,ERS Is Charging,ERS Max Energy,ERS Power Level,ERS Recovery Level,Engine Brake Setting,Engine Limiter,Engine RPM,Flags,Fuel Level,Gear,Ground Speed,HR Sample Clock,In Pit,KERS Charge,KERS Deployed Energy,KERS Input,KERS Max Energy,LR Sample Clock,Lap Invalidated,Lap Time,Lap Time2,Last Lap Time,Last Sector Time,MR Sample Clock,Max Fuel,Max Power,Max RPM,Max Sus Travel FL,Max Sus Travel FR,Max Sus Travel RL,Max Sus Travel RR,Max Torque,Max Turbo Boost,Num Tires Off Track,Penalties Enabled,Position,Raw Data Sample Rate,Ride Height FL,Ride Height FR,Ride Height RL,Ride Height RR,Road Temp,Self Align Torque FL,Self Align Torque FR,Self Align Torque RL,Self Align Torque RR,Session Lap Count,Session Time Left,Steering Angle,Surface Grip,Suspension Travel FL,Suspension Travel FR,Suspension Travel RL,Suspension Travel RR,TC Active,TC Enabled,Throttle Pos,Tire Dirt Level FL,Tire Dirt Level FR,Tire Dirt Level RL,Tire Dirt Level RR,Tire Load FL,Tire Load FR,Tire Load RL,Tire Load RR,Tire Loaded Radius FL,Tire Loaded Radius FR,Tire Loaded Radius RL,Tire Loaded Radius RR,Tire Pressure FL,Tire Pressure FR,Tire Pressure RL,Tire Pressure RR,Tire Radius FL,Tire Radius FR,Tire Radius RL,Tire Radius RR,Tire Rubber Grip FL,Tire Rubber Grip FR,Tire Rubber Grip RL,Tire Rubber Grip RR,Tire Slip Angle FL,Tire Slip Angle FR,Tire Slip Angle RL,Tire Slip Angle RR,Tire Slip Ratio FL,Tire Slip Ratio FR,Tire Slip Ratio RL,Tire Slip Ratio RR,Tire Temp Core FL,Tire Temp Core FR,Tire Temp Core RL,Tire Temp Core RR,Tire Temp Inner FL,Tire Temp Inner FR,Tire Temp Inner RL,Tire Temp Inner RR,Tire Temp Middle FL,Tire Temp Middle FR,Tire Temp Middle RL,Tire Temp Middle RR,Tire Temp Outer FL,Tire Temp Outer FR,Tire Temp Outer RL,Tire Temp Outer RR,Toe In FL,Toe In FR,Toe In RL,Toe In RR,Turbo Boost,Wheel Angular Speed FL,Wheel Angular Speed FR,Wheel Angular Speed RL,Wheel Angular Speed RR,Wind Direction,Wind Speed
0,0.0,0.0,0.0,1.0,1.0,0.0,0.0,1.0,0.0,100.0,1.0,1.1856,26.0,0.0,0.0,0.0,59.99999,0.0,26.0,26.0,26.0,26.0,-0.030874999999999986,0.3016000000000001,0.08153333333333335,293.274,-2.7944,-2.622333333333333,-1.5617,-1.5087,-275.78,215.4325,190.988,0.0,0.0,0.0,0.0,0.0015333333333333865,-5.498166666666667,-5.498166666666667,-0.5647,1.5246666666666668,0.0024999999999999467,0.201,65.542,-0.0273,-0.222525,-0.05799999999999983,100.0,1.0,1.0,202.35,0.0,0.0,0.0,0.0,0.0,0.0,0.0,8576.8,0.0,55.0,5.0,235.92333333333335,0.0,0.0,0.0,0.0,0.0,0.0,0.0,0.0,0.0030000000000001137,0.0030000000000001137,0.0,0.0,0.0,55.0,616.79921,10000.0,85.0,85.0,85.0,85.0,395.0,0.0,0.0,0.0,1.0,20.0,51.056,51.056,49.149,49.149,34.0,-29.3675,32.558,-28.673333333333332,25.915,0.0,1782.976,0.15500000000000114,100.0,27.324,27.07,40.511,40.224000000000004,0.0,0.0,100.0,0.0,0.0,0.0,0.0,3351.142857142857,4234.5,4000.375,4105.1,304.549,301.76733333333334,315.107,314.66525,21.7739,20.5147,21.7742,21.3157,314.99999,314.99999,324.99998,324.99998,99.55891428571428,99.50723333333333,99.56564285714286,99.54544285714286,0.030749999999999833,-0.07166666666666677,-0.13849999999999996,0.08166666666666678,-0.04999999999999716,-0.06833333333332803,1.5895,1.5709999999999997,37.087,29.216666666666665,37.089,34.2235,56.308,34.4925,59.2265,51.7235,54.227999999999994,33.6715,57.85,50.073,53.402,33.243,57.817,49.49433333333333,-0.0694999999999999,-0.07750000000000012,0.10712,0.10162,0.0,205.335,205.36,202.35000000000002,202.35,0.0,0.0
1,0.0,0.0,0.0,1.0,1.0,0.0,0.0,1.0,0.0,100.0,1.0,1.1856,26.0,0.0,0.0,0.0,59.999996,0.0,26.0,26.0,26.0,26.0,-0.047250000000000014,0.35360000000000014,0.20040000000000002,292.175,-2.6368,-2.6932222222222224,-1.6023,-1.5219,-272.43,215.435,190.967875,0.0,0.0,0.0,0.0,0.003466666666666507,-5.498166666666667,-5.498166666666667,-0.4713,-1.0793333333333333,-0.04437500000000005,-0.018000000000000002,65.7,-0.0175,-0.16785,0.46799999999999997,100.0,1.0,1.0,202.23333333333335,0.0,0.0,0.0,0.0,0.0,0.0,0.0,8571.9,0.0,55.0,5.0,236.48666666666668,1.0,0.0,0.0,0.0,0.0,0.0,0.0,0.0,0.053999999999998494,0.053999999999998494,0.0,0.0,1.0,55.0,616.79921,10000.0,85.000001,85.000001,85.000001,85.000001,395.0,0.0,0.0,0.0,1.0,333.33500000000004,54.092,54.092,46.89,46.89,34.0,-22.655,17.026,-38.72333333333333,39.0275,0.0,1782.923,0.33999999999999986,100.0,27.586,27.403,42.461,42.631,0.0,0.0,100.0,0.0,0.0,0.0,0.0,2870.0,2459.6,4894.125,5667.6,306.1865,306.967,312.75733333333335,310.95225,21.7838,20.5198,21.7851,21.3251,314.999998,314.999998,324.999988,324.999988,99.55892857142857,99.50725,99.56578571428571,99.54558571428572,0.039750000000000174,-0.10233333333333317,-0.13116666666666665,0.07299999999999995,-0.030000000000001137,-0.013333333333328312,1.285,1.3289999999999997,37.149,29.249000000000002,37.157,34.2815,56.292,34.5315,59.274,51.792,54.213,33.707499999999996,57.8945,50.1385,53.385,33.2775,57.8585,49.55866666666667,-0.05249999999999999,-0.0990000000000002,0.10284000000000001,0.09946500000000001,0.0,205.835,205.79500000000002,202.23333333333335,202.23333333333335,0.0,0.0
2,0.0,0.0,0.0,1.0,1.0,0.0,0.0,1.0,0.0,100.0,1.0,1.1856,26.0,0.0,0.0,0.0,59.999996,0.0,26.0,26.0,26.0,26.0,-0.08124999999999993,0.2841,0.0357,293.762,-2.6724,-2.643666666666667,-1.5761,-1.5081,-268.88,215.44,190.948,0.0,0.0,0.0,0.0,0.00553333333333339,-5.498166666666667,-5.498166666666667,-0.5794,0.5926666666666667,-0.0022500000000000853,2.0100000000000002,65.843,-0.0194,-0.27115,0.726,100.0,1.0,1.0,203.70333333333332,0.0,0.0,0.0,0.0,0.0,0.0,0.0,8634.2,0.0,55.0,5.0,237.00666666666666,0.0,0.0,0.0,0.0,0.0,0.0,0.0,0.0,0.10800000000000054,0.10800000000000054,0.0,0.0,0.0,55.0,616.79921,10000.0,85.000001,85.000001,85.000001,85.000001,395.0,0.0,0.0,0.0,1.0,166.665,51.743,51.743,50.629,50.629,34.0,-28.5425,22.722,-24.92666666666667,19.7,0.0,1782.871,0.5,100.0,28.153,27.584,41.86,41.803,0.0,0.0,100.0,0.0,0.0,0.0,0.0,3361.857142857143,3235.4,3499.625,3402.4,304.5765,304.4563333333333,316.31666666666666,316.47,21.7945,20.5253,21.7961,21.3341,314.999998,314.999998,324.999988,324.999988,99.55894285714285,99.50726666666667,99.56592857142857,99.54572857142857,0.02375000000000016,-0.10999999999999988,-0.16316666666666657,0.07866666666666666,-0.07333333333333059,-0.051666666666669414,1.75,1.8024999999999998,37.215,29.28333333333333,37.226,34.338499999999996,56.277,34.573499999999996,59.31,51.8455,54.199,33.746,57.9275,50.1905,53.370999999999995,33.314499999999995,57.888999999999996,49.60966666666667,-0.04149999999999987,-0.11500000000000021,0.11346,0.10866,0.0,206.305,206.22,203.70333333333332,203.70333333333332,0.0,0.0
3,0.0,0.0,0.0,1.0,1.0,0.0,0.0,1.0,0.0,100.0,1.0,1.1856,26.0,0.0,0.0,0.0,59.999996,0.0,26.0,26.0,26.0,26.0,-0.06312499999999999,0.32120000000000015,0.13103333333333333,292.908,-2.6871,-2.6786666666666665,-1.5545,-1.4809999999999999,-265.71,215.44,190.92875,0.0,0.0,0.0,0.0,0.007399999999999962,-5.498166666666667,-5.498166666666667,-0.5,0.4116666666666667,0.010375000000000023,-1.542,65.992,-0.0332,-0.18482500000000002,0.6820000000000004,100.0,1.0,1.0,203.46666666666667,0.0,0.0,0.0,0.0,0.0,0.0,0.0,8624.2,0.0,55.0,5.0,237.54000000000002,1.0,0.0,0.0,0.0,0.0,0.0,0.0,0.0,0.1559999999999988,0.1559999999999988,0.0,0.0,1.0,55.0,616.79921,10000.0,85.000001,85.000001,85.000001,85.000001,395.0,0.0,0.0,0.0,1.0,166.665,53.314,53.314,47.455,47.455,34.0,-23.7575,20.716,-33.63333333333333,28.5425,0.0,1782.822,0.5899999999999999,100.0,27.799,27.512,42.106,42.184,0.0,0.0,100.0,0.0,0.0,0.0,0.0,2845.857142857143,2956.0,4508.5,4416.1,306.26,305.3913333333333,313.833,313.75775,21.8036,20.5304,21.806,21.3427,314.999998,314.999998,324.999988,324.999988,99.55894285714285,99.50726666666667,99.56605714285715,99.54585714285714,0.015750000000000153,-0.1096666666666668,-0.1323333333333333,0.08099999999999996,-0.04333333333332945,-0.04999999999999716,1.413,1.4565000000000001,37.272,29.314666666666668,37.287,34.391999999999996,56.26,34.613,59.347,51.908500000000004,54.182,33.7825,57.962,50.251,53.354,33.3495,57.920500000000004,49.669333333333334,-0.03249999999999997,-0.12049999999999983,0.10157500000000001,0.11353,0.0,206.76,206.72,203.46666666666667,203.46666666666667,0.0,0.0
4,0.0,0.0,0.0,1.0,1.0,0.0,0.0,1.0,0.0,100.0,1.0,1.1856,26.0,0.0,0.0,0.0,59.999996,0.0,26.0,26.0,26.0,26.0,-0.09237499999999998,0.28880000000000017,-0.06546666666666666,293.289,-2.6722,-2.7494444444444444,-1.4947,-1.5946,-262.54,215.44,190.9105,0.0,0.0,0.0,0.0,0.009233333333333316,-5.498166666666667,-5.498166666666667,-0.5309,-0.9166666666666666,-0.04187500000000011,0.279,66.129,-0.0429,-0.23550000000000001,0.976,100.0,1.0,1.0,204.09666666666666,0.0,0.0,0.0,0.0,0.0,0.0,0.0,8650.8,0.0,55.0,5.0,238.03333333333333,0.0,0.0,0.0,0.0,0.0,0.0,0.0,0.0,0.20400000000000063,0.20400000000000063,0.0,0.0,0.0,55.0,616.79921,10000.0,85.000001,85.000001,85.000001,85.000001,395.0,0.0,0.0,0.0,1.0,333.33500000000004,52.933,52.933,48.706,48.706,34.0,-26.634999999999998,20.61,-29.75,23.752499999999998,0.0,1782.774,0.629999999999999,100.0,27.911,27.193,42.912,42.253,0.0,0.0,100.0,0.0,0.0,0.0,0.0,3113.857142857143,2926.5,4027.0,3877.1000000000004,305.292,305.552,314.98,315.194,21.8128,20.5352,21.8161,21.3512,314.999998,314.999998,324.999988,324.999988,99.55894285714285,99.50728333333333,99.5662,99.54598571428572,0.012249999999999872,-0.11966666666666681,-0.16733333333333333,0.049833333333333174,-0.036666666666668846,-0.01833333333333087,1.5445,1.5884999999999998,37.33,29.344666666666665,37.351,34.4445,56.244,34.65,59.3865,51.9645,54.167,33.8165,57.999,50.305,53.338,33.382,57.954499999999996,49.721666666666664,-0.03049999999999997,-0.12700000000000022,0.10797500000000002,0.10384,0.0,207.13,207.06,204.0966666666667,204.09666666666666,0.0,0.0
5,0.0,0.0,0.0,1.0,1.0,0.0,0.0,1.0,0.0,100.0,1.0,1.1856,26.0,0.0,0.0,0.0,59.999996,0.0,26.0,26.0,26.0,26.0,-0.07924999999999993,0.2996000000000001,-0.04006666666666667,293.61,-2.6482,-2.697888888888889,-1.5428000000000002,-1.5756999999999999,-259.17,215.4375,190.89075,0.0,0.0,0.0,0.0,0.011199999999999988,-5.498166666666667,-5.498166666666667,-0.541,0.5313333333333334,-0.030625000000000124,-0.379,66.273,-0.060700000000000004,-0.2281,1.0439999999999996,100.0,1.0,1.0,204.64666666666668,0.0,0.0,0.0,0.0,0.0,0.0,0.0,8674.2,0.0,55.0,5.0,238.55333333333334,1.0,0.0,0.0,0.0,0.0,0.0,0.0,0.0,0.254999999999999,0.254999999999999,0.0,0.0,1.0,55.0,616.79921,10000.0,85.000001,85.000001,85.000001,85.000001,395.0,0.0,0.0,0.0,1.0,333.33500000000004,53.055,53.055,49.149,49.149,34.0,-27.035,19.845999999999997,-30.42,23.2375,0.0,1782.722,0.19000000000000128,100.0,27.745,27.239,42.449,41.745000000000005,0.0,0.0,100.0,0.0,0.0,0.0,0.0,3140.714285714286,2902.8,3943.25,3909.9,305.3285,305.4363333333333,315.2746666666667,315.1525,21.8227,20.540399999999998,21.8265,21.3599,314.999998,314.999998,324.999988,324.999988,99.55895714285714,99.5073,99.56634285714286,99.54612857142857,0.00024999999999986144,-0.1279999999999999,-0.1925,0.04299999999999993,-0.051666666666669414,-0.05333333333332746,1.6005,1.63,37.391999999999996,29.377333333333333,37.416,34.4995,56.229,34.691,59.4235,52.0215,54.153,33.854,58.033500000000004,50.3595,53.322,33.4185,57.9865,49.775,-0.04800000000000004,-0.10250000000000004,0.108545,0.111015,0.0,207.635,207.56,204.64666666666668,204.64666666666668,0.0,0.0
6,0.0,0.0,0.0,1.0,1.0,0.0,0.0,1.0,0.0,100.0,1.0,1.1856,26.0,0.0,0.0,0.0,59.999996,0.0,26.0,26.0,26.0,26.0,-0.09350000000000003,0.2964,-0.024433333333333335,293.411,-2.6752,-2.775555555555556,-1.4892,-1.5621,-255.78,215.4325,190.870125,0.0,0.0,0.0,0.0,0.013166666666666549,-5.498166666666667,-5.498166666666667,-0.5289,-0.314,-0.04637499999999983,0.496,66.423,-0.0671,-0.20725000000000002,0.7820000000000009,100.0,1.0,1.0,204.91,0.0,0.0,0.0,0.0,0.0,0.0,0.0,8685.4,0.0,55.0,5.0,239.09333333333333,0.0,0.0,0.0,0.0,0.0,0.0,0.0,0.0,0.30600000000000094,0.30600000000000094,0.0,0.0,0.0,55.0,616.79921,10000.0,85.000001,85.000001,85.000001,85.000001,395.0,0.0,0.0,0.0,1.0,166.665,53.467,53.467,48.569,48.569,34.0,-26.915,20.426,-31.82666666666666,25.322499999999998,0.0,1782.673,0.34499999999999886,100.0,27.593,26.737000000000002,42.723,41.781,0.0,0.0,100.0,0.0,0.0,0.0,0.0,3107.857142857143,2867.9,4165.125,4119.6,305.3495,305.733,314.614,314.64375,21.8325,20.5455,21.8371,21.3689,314.999998,314.999998,324.999988,324.999988,99.55895714285714,99.50731666666667,99.56648571428572,99.54627142857143,0.003750000000000142,-0.11766666666666681,-0.1805,0.050999999999999934,-0.054999999999999716,-0.045000000000001705,1.5075,1.5434999999999999,37.453,29.409333333333336,37.482,34.5555,56.211,34.7295,59.463499999999996,52.083,54.135999999999996,33.89,58.071,50.4185,53.305,33.4525,58.0205,49.833,-0.047499999999999876,-0.09650000000000025,0.103415,0.11767500000000002,0.0,208.075,208.01,204.91,204.91,0.0,0.0
7,0.0,0.0,0.0,1.0,1.0,0.0,0.0,1.0,0.0,100.0,1.0,1.1856,26.0,0.0,0.0,0.0,59.999996,0.0,26.0,26.0,26.0,26.0,-0.083125,0.2955000000000001,-0.012133333333333333,293.396,-2.6204,-2.773888888888889,-1.5409000000000002,-1.6104,-252.59,215.4275,190.85075,0.0,0.0,0.0,0.0,0.015033333333333343,-5.498166666666667,-5.498166666666667,-0.535,0.14033333333333334,-0.039124999999999854,1.106,66.55799999999999,-0.0717,-0.21780000000000002,0.5899999999999999,100.0,1.0,1.0,205.41,0.0,0.0,0.0,0.0,0.0,0.0,0.0,8706.6,0.0,55.0,5.0,239.57999999999998,1.0,0.0,0.0,0.0,0.0,0.0,0.0,0.0,0.3539999999999992,0.3539999999999992,0.0,0.0,1.0,55.0,616.79921,10000.0,85.000001,85.000001,85.000001,85.000001,395.0,0.0,0.0,0.0,1.0,166.665,53.116,53.116,48.629999999999995,48.629999999999995,34.0,-25.165,22.18,-31.953333333333333,24.5825,0.0,1782.625,-0.129999999999999,100.0,27.881,26.896,42.722,41.766,0.0,0.0,100.0,0.0,0.0,0.0,0.0,3073.285714285714,2973.5,4101.875,4008.2,305.3725,305.3736666666667,314.83233333333334,314.9095,21.8418,20.5504,21.847,21.377299999999998,314.999998,314.999998,324.999988,324.999988,99.55895714285714,99.50731666666667,99.56661428571428,99.5464,0.028500000000000192,-0.09666666666666668,-0.18599999999999994,0.04200000000000004,-0.046666666666666856,-0.07166666666666544,1.5405,1.5715,37.510999999999996,29.439999999999998,37.544,34.608000000000004,56.198,34.768,59.5,52.138999999999996,54.123000000000005,33.925,58.105000000000004,50.472,53.291,33.486,58.052,49.885333333333335,-0.08250000000000002,-0.06450000000000022,0.107435,0.10859,0.0,208.485,208.46,205.41,205.41,0.0,0.0
8,0.0,0.0,0.0,1.0,1.0,0.0,0.0,1.0,0.0,100.0,1.0,1.1856,26.0,0.0,0.0,0.0,59.999996,0.0,26.0,26.0,26.0,26.0,-0.04562500000000003,0.2953000000000001,-0.029300000000000003,293.442,-2.67,-2.705,-1.5544,-1.6029,-249.19,215.41750000000002,190.830125,0.0,0.0,0.0,0.0,0.016999999999999904,-5.498166666666667,-5.498166666666667,-0.5366000000000001,-0.12066666666666667,-0.03237500000000004,-1.106,66.703,-0.0606,-0.22045,0.2839999999999998,100.0,1.0,1.0,205.85000000000002,0.0,0.0,0.0,0.0,0.0,0.0,0.0,8725.2,0.0,55.0,5.0,240.10333333333335,0.0,0.0,0.0,0.0,0.0,0.0,0.0,0.0,0.40500000000000114,0.40500000000000114,0.0,0.0,0.0,55.0,616.79921,10000.0,85.000001,85.000001,85.000001,85.000001,395.0,0.0,0.0,0.0,1.0,166.665,53.268,53.268,48.447,48.447,34.0,-25.5275,21.694000000000003,-31.046666666666667,24.697499999999998,0.0,1782.573,-0.19500000000000028,100.0,27.44,27.127,42.67,42.006,0.0,0.0,100.0,0.0,0.0,0.0,0.0,3118.285714285714,2943.8,4085.5,3954.2,305.471,305.303,314.931,314.94675,21.8516,20.5557,21.8575,21.3863,314.999998,314.999998,324.999988,324.999988,99.55895714285714,99.50733333333334,99.56677142857143,99.54654285714285,0.03374999999999995,-0.09233333333333316,-0.17033333333333334,0.051166666666666805,-0.05666666666667197,-0.046666666666666856,1.5585,1.561,37.572,29.473,37.61,34.664500000000004,56.182,34.8075,59.539,52.1995,54.108000000000004,33.9615,58.1415,50.53,53.275,33.521,58.085499999999996,49.94233333333334,-0.09050000000000002,-0.059499999999999886,0.102735,0.10308500000000001,0.0,208.93,208.89499999999998,205.85000000000002,205.85000000000002,0.0,0.0
9,0.0,0.0,0.0,1.0,1.0,0.0,0.0,1.0,0.0,100.0,1.0,1.1856,26.0,0.0,0.0,0.0,59.999996,0.0,26.0,26.0,26.0,26.0,-0.03374999999999995,0.2892000000000001,-0.010566666666666667,293.289,-2.6709,-2.7215555555555557,-1.5171999999999999,-1.5617999999999999,-245.99,215.4075,190.8105,0.0,0.0,0.0,0.0,0.018866666666666587,-5.498166666666667,-5.498166666666667,-0.5346000000000001,0.15166666666666667,-0.04225000000000012,-0.631,66.839,-0.0451,-0.21350000000000002,0.11600000000000055,100.0,1.0,1.0,206.24666666666667,0.0,0.0,0.0,0.0,0.0,0.0,0.0,8742.0,0.0,55.0,5.0,240.59,1.0,0.0,0.0,0.0,0.0,0.0,0.0,0.0,0.4529999999999994,0.4529999999999994,0.0,0.0,1.0,55.0,616.79921,10000.0,85.000001,85.000001,85.000001,85.000001,395.0,0.0,0.0,0.0,1.0,166.665,53.024,53.024,48.644999999999996,48.644999999999996,34.0,-26.09,22.254,-30.03666666666666,25.697499999999998,0.0,1782.526,-0.3249999999999993,100.0,27.571,27.096,42.583,42.013,0.0,0.0,100.0,0.0,0.0,0.0,0.0,3217.4285714285716,2948.9,4096.75,4059.6000000000004,305.157,305.3093333333333,314.893,314.73975,21.8608,20.5607,21.8674,21.3947,314.999998,314.999998,324.999988,324.999988,99.55897142857143,99.50735,99.5669,99.54667142857143,0.04375000000000018,-0.08266666666666667,-0.15533333333333332,0.06583333333333319,-0.041666666666671404,-0.03999999999999915,1.535,1.5455,37.629999999999995,29.503999999999998,37.671,34.717,56.168,34.844,59.5755,52.2555,54.094,33.9955,58.175,50.5835,53.260999999999996,33.5535,58.1165,49.995,-0.09749999999999992,-0.05149999999999988,0.10432500000000001,0.10620500000000001,0.0,209.335,209.32999999999998,206.24666666666667,206.24666666666667,0.0,0.0
10,0.0,0.0,0.0,1.0,1.0,0.0,0.0,1.0,0.0,100.0,1.0,1.1856,26.0,0.0,0.0,0.0,59.999996,0.0,26.0,26.0,26.0,26.0,-0.015000000000000013,0.28869999999999996,0.0008666666666666666,293.182,-2.6825,-2.6942222222222223,-1.558,-1.5448,-242.37,215.39499999999998,190.7885,0.0,0.0,0.0,0.0,0.020966666666666578,-5.498166666666667,-5.498166666666667,-0.5299,-0.24866666666666667,-0.014499999999999957,-0.036000000000000004,66.992,-0.028800000000000003,-0.2122,-0.1479999999999997,100.0,1.0,1.0,206.64666666666668,0.0,0.0,0.0,0.0,0.0,0.0,0.0,8759.0,0.0,55.0,5.0,241.14,0.0,0.0,0.0,0.0,0.0,0.0,1.0,0.0,0.5069999999999979,0.5069999999999979,0.0,0.0,0.0,55.0,616.79921,10000.0,85.000001,85.000001,85.000001,85.000001,395.0,0.0,0.0,0.0,1.0,166.665,53.253,53.253,48.355000000000004,48.355000000000004,34.0,-24.259999999999998,22.502000000000002,-30.436666666666667,27.55,0.0,1782.472,-0.41499999999999915,100.0,27.489,27.093,42.634,42.314,0.0,0.0,100.0,0.0,0.0,0.0,0.0,3099.285714285714,2946.9,4143.5,4211.1,305.5145,305.3306666666667,314.7776666666667,314.35025,21.8712,20.5663,21.8786,21.4043,314.999998,314.999998,324.999988,324.999988,99.55897142857143,99.50735,99.56705714285714,99.54682857142858,0.06300000000000017,-0.06966666666666677,-0.1423333333333333,0.0798333333333332,-0.041666666666671404,-0.04833333333333201,1.5165,1.505,37.695,29.539,37.741,34.777,56.153,34.884,59.6165,52.320499999999996,54.08,34.0325,58.213499999999996,50.646,53.245999999999995,33.588499999999996,58.152,50.056,-0.10999999999999988,-0.04200000000000026,0.11128,0.10302000000000001,0.0,209.79500000000002,209.81,206.64666666666668,206.64666666666668,0.0,0.0
11,0.0,0.0,0.0,1.0,1.0,0.0,0.0,1.0,0.0,100.0,1.0,1.1856,26.0,0.0,0.0,0.0,59.999996,0.0,26.0,26.0,26.0,26.0,0.01200000000000001,0.27890000000000015,-0.044000000000000004,293.488,-2.7048,-2.693666666666667,-1.5636999999999999,-1.5215999999999998,-239.16,215.385,190.76875,0.0,0.0,0.0,0.0,0.022599999999999953,-5.498166666666667,-5.498166666666667,-0.5496,-0.339,0.007500000000000062,-0.299,67.125,-0.0122,-0.22437500000000002,-0.2779999999999996,100.0,1.0,1.0,207.15666666666667,0.0,0.0,0.0,0.0,0.0,0.0,0.0,8780.6,0.0,55.0,5.0,241.62,1.0,0.0,0.0,0.0,0.0,0.0,1.0,0.0,0.5549999999999997,0.5549999999999997,0.0,0.0,1.0,55.0,616.79921,10000.0,85.000001,85.000001,85.000001,85.000001,395.0,0.0,0.0,0.0,1.0,333.33500000000004,53.284,53.284,48.859,48.859,34.0,-24.4,23.689999999999998,-27.673333333333332,26.895,0.0,1782.422,-0.6799999999999997,100.0,27.226,27.097,42.44,42.348,0.0,0.0,100.0,0.0,0.0,0.0,0.0,3113.285714285714,3016.2,3941.25,4035.4,305.4915,305.1243333333333,315.27166666666665,314.8135,21.8803,20.5713,21.8884,21.4128,314.999998,314.999998,324.999988,324.999988,99.55898571428571,99.50736666666667,99.56718571428571,99.54697142857142,0.06700000000000017,-0.05499999999999994,-0.1243333333333334,0.1056666666666668,-0.06666666666666998,-0.03999999999999915,1.5614999999999999,1.564,37.751999999999995,29.570333333333334,37.803,34.83,56.138999999999996,34.9195,59.6505,52.376999999999995,54.067,34.065,58.245,50.7005,53.232,33.62,58.1805,50.10933333333333,-0.11299999999999999,-0.0365000000000002,0.108965,0.104395,0.0,210.21,210.2,207.15666666666667,207.15666666666667,0.0,0.0
12,0.0,0.0,0.0,1.0,1.0,0.0,0.0,1.0,0.0,100.0,1.0,1.1856,26.0,0.0,0.0,0.0,59.999996,0.0,26.0,26.0,26.0,26.0,0.003375000000000128,0.30010000000000003,-0.0002,293.152,-2.7088,-2.6764444444444444,-1.5674000000000001,-1.5316999999999998,-235.93,215.375,190.74825,0.0,0.0,0.0,0.0,0.025466666666666526,-5.498166666666667,-5.498166666666667,-0.5425,0.41933333333333334,0.01574999999999993,-0.5750000000000001,67.259,0.0031000000000000003,-0.205075,-0.36799999999999944,100.0,1.0,1.0,207.51666666666665,0.0,0.0,0.0,0.0,0.0,0.0,0.0,8795.8,0.0,55.0,5.0,242.10333333333335,0.0,0.0,0.0,0.0,0.0,0.0,1.0,0.0,0.602999999999998,0.602999999999998,0.0,0.0,0.0,55.0,616.79921,10000.0,85.000001,85.000001,85.000001,85.000001,395.0,0.0,0.0,0.0,1.0,333.33500000000004,52.994,52.994,48.325,48.325,34.0,-24.94,23.616,-28.366666666666667,28.8925,0.0,1782.375,-0.41499999999999915,100.0,27.325,27.451,42.266,42.359,0.0,0.0,100.0,0.0,0.0,0.0,0.0,3109.5714285714284,3070.2,4117.5,4174.2,305.483,304.93233333333336,314.883,314.50075,21.8894,20.5764,21.8982,21.4213,314.999998,314.999998,324.999988,324.999988,99.55898571428571,99.50736666666667,99.56732857142858,99.5471,0.05525000000000002,-0.06633333333333313,-0.10716666666666663,0.1180000000000001,-0.045000000000001705,-0.04833333333333201,1.5494999999999999,1.5350000000000001,37.809,29.602666666666664,37.864000000000004,34.882999999999996,56.126999999999995,34.9555,59.6845,52.4335,54.055,34.098,58.277,50.754999999999995,53.219,33.652,58.2095,50.16266666666667,-0.08799999999999986,-0.05900000000000016,0.10942500000000001,0.10755,0.0,210.625,210.66,207.51666666666665,207.51666666666665,0.0,0.0
13,0.0,0.0,0.0,1.0,1.0,0.0,0.0,1.0,0.0,100.0,1.0,1.1856,26.0,0.0,0.0,0.0,59.999996,0.0,26.0,26.0,26.0,26.0,0.03337499999999993,0.2821,0.0233,292.816,-2.6908,-2.6943333333333332,-1.5603,-1.5436999999999999,-232.5,215.3625,190.7265,0.0,0.0,0.0,0.0,0.026699999999999946,-5.498166666666667,-5.498166666666667,-0.5369,-0.24633333333333335,0.01200000000000001,1.026,67.402,0.011000000000000001,-0.21235,-0.39399999999999924,100.0,1.0,1.0,207.87,0.0,0.0,0.0,0.0,0.0,0.0,0.0,8810.8,0.0,55.0,5.0,242.62,1.0,0.0,0.0,0.0,0.0,0.0,1.0,0.0,0.6539999999999999,0.6539999999999999,0.0,0.0,1.0,55.0,616.79921,10000.0,85.000001,85.000001,85.000001,85.000001,395.0,0.0,0.0,0.0,1.0,333.33500000000004,52.872,52.872,48.019,48.019,34.0,-22.0025,25.93,-27.923333333333332,31.2525,0.0,1782.324,-0.495000000000001,100.0,27.697,27.43,42.722,42.736000000000004,0.0,0.0,100.0,0.0,0.0,0.0,0.0,3021.285714285714,3123.0,4118.125,4299.6,305.5665,304.955,314.754,314.2345,21.899,20.5819,21.9088,21.4305,314.999998,314.999998,324.999988,324.999988,99.559,99.50736666666667,99.56747142857142,99.54724285714286,0.10725000000000007,-0.020333333333333314,-0.09466666666666657,0.13583333333333325,-0.03333333333333144,-0.06499999999999773,1.519,1.4834999999999998,37.869,29.636666666666667,37.93,34.9405,56.114000000000004,34.9935,59.7235,52.4965,54.043,34.1335,58.313,50.8155,53.206,33.6855,58.2425,50.222,-0.11850000000000005,-0.035499999999999865,0.11272000000000001,0.10955000000000001,0.0,211.035,211.09,207.87,207.87,0.0,0.0
14,0.0,0.0,0.0,1.0,1.0,0.0,0.0,1.0,0.0,100.0,1.0,1.1856,26.0,0.0,0.0,0.0,59.999996,0.0,26.0,26.0,26.0,26.0,0.059374999999999956,0.2824,-0.03396666666666667,293.076,-2.6902,-2.703333333333333,-1.5703,-1.5381,-229.05,215.35250000000002,190.70525,0.0,0.0,0.0,0.0,0.028699999999999948,-5.498166666666667,-5.498166666666667,-0.5502,-0.032,0.023499999999999854,-0.28,67.541,0.017400000000000002,-0.225025,-0.40200000000000014,100.0,1.0,1.0,208.4,0.0,0.0,0.0,0.0,0.0,0.0,0.0,8833.4,0.0,55.0,5.0,243.12,0.0,0.0,0.0,0.0,0.0,0.0,1.0,0.0,0.7049999999999983,0.7049999999999983,0.0,0.0,0.0,55.0,616.79921,10000.0,85.000001,85.000001,85.000001,85.000001,395.0,0.0,0.0,0.0,1.0,333.33500000000004,52.856,52.856,48.447,48.447,34.0,-22.7425,24.88,-26.576666666666668,28.73,0.0,1782.273,-0.4800000000000004,100.0,27.547,27.748,42.521,42.878,0.0,0.0,100.0,0.0,0.0,0.0,0.0,3086.4285714285716,3016.5,3994.25,4074.5,305.5575,305.0543333333333,315.15566666666666,314.728,21.9087,20.5874,21.9193,21.4396,314.999998,314.999998,324.999988,324.999988,99.55901428571428,99.50738333333334,99.56761428571428,99.54738571428571,0.09799999999999986,-0.030000000000000027,-0.09050000000000002,0.12983333333333325,-0.046666666666666856,-0.061666666666667425,1.5554999999999999,1.5474999999999999,37.929,29.671,37.995999999999995,34.9975,56.102000000000004,35.0315,59.76,52.557,54.031,34.168,58.347,50.8735,53.193,33.719,58.2735,50.278999999999996,-0.11450000000000005,-0.038000000000000256,0.10565000000000001,0.108045,0.0,211.495,211.505,208.4,208.4,0.0,0.0
15,0.0,0.0,0.0,1.0,1.0,0.0,0.0,1.0,0.0,100.0,1.0,1.1856,26.0,0.0,0.0,0.0,59.999996,0.0,26.0,26.0,26.0,26.0,0.05862499999999993,0.28090000000000015,-0.016633333333333337,292.892,-2.6792,-2.6784444444444446,-1.5603,-1.5579,-225.81,215.345,190.684625,0.0,0.0,0.0,0.0,0.03059999999999996,-5.498166666666667,-5.498166666666667,-0.5433,0.22533333333333336,0.03137499999999993,-0.796,67.674,0.0229,-0.21245,-0.40200000000000014,100.0,1.0,1.0,208.76,0.0,0.0,0.0,0.0,0.0,0.0,0.0,8848.5,0.0,55.0,5.0,243.59666666666666,1.0,0.0,0.0,0.0,0.0,0.0,1.0,0.0,0.7530000000000001,0.7530000000000001,0.0,0.0,1.0,55.0,616.79921,10000.0,85.000001,85.000001,85.000001,85.000001,395.0,0.0,0.0,0.0,1.0,166.665,52.811,52.811,48.172,48.172,34.0,-22.4425,24.543999999999997,-26.813333333333333,29.9425,0.0,1782.225,-0.39000000000000057,100.0,27.575,27.874,42.418,42.987,0.0,0.0,100.0,0.0,0.0,0.0,0.0,3068.857142857143,3010.4,4105.625,4134.0,305.6105,305.04566666666665,314.90433333333334,314.5385,21.9177,20.5926,21.9291,21.4482,314.999998,314.999998,324.999988,324.999988,99.55902857142857,99.50738333333334,99.56774285714286,99.54752857142857,0.09925000000000006,-0.03266666666666662,-0.08016666666666661,0.1343333333333332,-0.04833333333333201,-0.051666666666669414,1.5505,1.5150000000000001,37.986000000000004,29.703666666666663,38.057,35.051,56.09,35.067,59.794,52.615,54.019,34.201,58.3785,50.9295,53.181,33.7505,58.302,50.333666666666666,-0.10699999999999998,-0.046499999999999986,0.10014,0.105815,0.0,211.91500000000002,211.935,208.76,208.76,0.0,0.0
16,0.0,0.0,0.0,1.0,1.0,0.0,0.0,1.0,0.0,100.0,1.0,1.1856,26.0,0.0,0.0,0.0,59.999996,0.0,26.0,26.0,26.0,26.0,0.04062499999999991,0.27770000000000006,-0.0009333333333333334,292.725,-2.7415,-2.629777777777778,-1.5369000000000002,-1.5547,-222.35,215.3375,190.662625,0.0,0.0,0.0,0.0,0.03259999999999996,-5.498166666666667,-5.498166666666667,-0.5522,-0.3773333333333333,0.02475000000000005,0.28700000000000003,67.814,0.028800000000000003,-0.22375,-0.41799999999999926,100.0,1.0,1.0,209.17333333333335,0.0,0.0,0.0,0.0,0.0,0.0,0.0,8866.1,0.0,55.0,5.0,244.10333333333335,0.0,0.0,0.0,0.0,0.0,0.0,1.0,0.0,0.8039999999999985,0.8039999999999985,0.0,0.0,0.0,55.0,616.79921,10000.0,85.000001,85.000001,85.000001,85.000001,395.0,0.0,0.0,0.0,1.0,333.33500000000004,52.521,52.521,47.913,47.913,34.0,-22.7475,26.556,-26.21,30.135,0.0,1782.173,-0.28999999999999915,100.0,27.614,27.759,42.758,43.045,0.0,0.0,100.0,0.0,0.0,0.0,0.0,3078.285714285714,3237.7,4037.125,4095.7,305.4645,304.579,314.97333333333336,314.6835,21.9272,20.5981,21.9397,21.4574,314.999998,314.999998,324.999988,324.999988,99.55904285714286,99.50738333333334,99.56788571428571,99.54767142857143,0.1107499999999999,-0.01866666666666661,-0.08050000000000002,0.14566666666666683,-0.041666666666671404,-0.051666666666669414,1.5215,1.5,38.045,29.738333333333333,38.123000000000005,35.1085,56.076,35.1055,59.8315,52.6765,54.006,34.2365,58.4135,50.989,53.167,33.7845,58.334,50.391999999999996,-0.10149999999999992,-0.053999999999999826,0.11221500000000001,0.10036500000000001,0.0,212.315,212.345,209.17333333333335,209.17333333333335,0.0,0.0
17,0.0,0.0,0.0,1.0,1.0,0.0,0.0,1.0,0.0,100.0,1.0,1.1856,26.0,0.0,0.0,0.0,59.999996,0.0,26.0,26.0,26.0,26.0,0.035250000000000004,0.27380000000000004,0.0317,292.465,-2.6711,-2.6063333333333336,-1.5543,-1.5147,-218.89,215.32999999999998,190.640375,0.0,0.0,0.0,0.0,0.034599999999999964,-5.498166666666667,-5.498166666666667,-0.5505,0.20233333333333334,0.002874999999999961,-1.012,67.953,0.0273,-0.21675,-0.19200000000000017,100.0,1.0,1.0,209.56666666666666,0.0,0.0,0.0,0.0,0.0,0.0,0.0,8882.7,0.0,55.0,5.0,244.60000000000002,1.0,0.0,0.0,0.0,0.0,0.0,1.0,0.0,0.8550000000000004,0.8550000000000004,0.0,0.0,1.0,55.0,616.79921,10000.0,85.000001,85.000001,85.000001,85.000001,395.0,0.0,0.0,0.0,1.0,333.33500000000004,52.353,52.353,47.607,47.607,34.0,-23.0675,25.174,-28.35333333333333,29.8225,0.0,1782.122,-0.21000000000000085,100.0,27.762,28.039,42.652,43.106,0.0,0.0,100.0,0.0,0.0,0.0,0.0,3135.285714285714,3135.8,4244.625,4183.8,305.335,304.70733333333334,314.553,314.46075,21.936799999999998,20.6037,21.9501,21.4665,314.999998,314.999998,324.999988,324.999988,99.55905714285714,99.5074,99.56802857142857,99.54781428571428,0.09850000000000003,-0.028999999999999915,-0.08633333333333337,0.13516666666666666,-0.045000000000001705,-0.04999999999999716,1.5125,1.5055,38.105000000000004,29.773333333333333,38.188,35.1655,56.064,35.144,59.868,52.737,53.995000000000005,34.2725,58.4475,51.047,53.153999999999996,33.819,58.365,50.44866666666667,-0.09050000000000002,-0.05900000000000016,0.107645,0.106685,0.0,212.78,212.8,209.56666666666666,209.56666666666666,0.0,0.0
18,0.0,0.0,0.0,1.0,1.0,0.0,0.0,1.0,0.0,100.0,1.0,1.1856,26.0,0.0,0.0,0.0,59.999996,0.0,26.0,26.0,26.0,26.0,0.040750000000000064,0.28680000000000017,0.05216666666666667,292.435,-2.6608,-2.740222222222222,-1.5365,-1.4822,-215.63,215.325,190.61925,0.0,0.0,0.0,0.0,0.03649999999999998,-5.498166666666667,-5.498166666666667,-0.5591,-0.3826666666666667,0.0015000000000000568,-0.641,68.084,0.022000000000000002,-0.22357500000000002,-0.1459999999999999,100.0,1.0,1.0,209.93333333333334,0.0,0.0,0.0,0.0,0.0,0.0,0.0,8898.3,0.0,55.0,5.0,245.07333333333332,0.0,0.0,0.0,0.0,0.0,0.0,1.0,0.0,0.9029999999999987,0.9029999999999987,0.0,0.0,0.0,55.0,616.79921,10000.0,85.000001,85.000001,85.000001,85.000001,395.0,0.0,0.0,0.0,1.0,333.33500000000004,52.444,52.444,47.684,47.684,34.0,-23.4975,25.538,-27.939999999999998,29.56,0.0,1782.075,-0.22499999999999787,100.0,27.696,27.938,42.843,43.265,0.0,0.0,100.0,0.0,0.0,0.0,0.0,3161.5714285714284,3088.6,4162.375,4259.3,305.327,304.763,314.71433333333334,314.2705,21.9457,20.6089,21.96,21.4751,314.999998,314.999998,324.999988,324.999988,99.55907142857143,99.5074,99.56817142857143,99.54795714285714,0.08999999999999986,-0.040999999999999925,-0.09416666666666662,0.1253333333333333,-0.05333333333332746,-0.03499999999999659,1.5045,1.491,38.16,29.805666666666667,38.25,35.2195,56.052,35.179,59.9035,52.7945,53.983000000000004,34.3045,58.4805,51.1025,53.141,33.85,58.394999999999996,50.50333333333333,-0.09349999999999992,-0.06300000000000017,0.10382000000000001,0.10539000000000001,0.0,213.18,213.155,209.93333333333334,209.93333333333334,0.0,0.0
19,0.0,0.0,0.0,1.0,1.0,0.0,0.0,1.0,0.0,100.0,1.0,1.1856,26.0,0.0,0.0,0.0,59.999996,0.0,26.0,26.0,26.0,26.0,0.040124999999999966,0.27760000000000007,0.03986666666666667,292.236,-2.6365,-2.7073333333333336,-1.5365,-1.6049,-212.14999999999998,215.3175,190.5965,0.0,0.0,0.0,0.0,0.03853333333333331,-5.498166666666667,-5.498166666666667,-0.5536,0.586,0.01387499999999986,0.8250000000000001,68.22,0.0164,-0.21657500000000002,-0.15200000000000014,100.0,1.0,1.0,210.38666666666666,0.0,0.0,0.0,0.0,0.0,0.0,0.0,8917.6,0.0,55.0,5.0,245.56666666666666,1.0,0.0,0.0,0.0,0.0,0.0,1.0,0.0,0.9540000000000006,0.9540000000000006,0.0,0.0,1.0,55.0,616.79921,10000.0,85.000001,85.000001,85.000001,85.000001,395.0,0.0,0.0,0.0,1.0,333.33500000000004,52.016999999999996,52.016999999999996,47.821,47.821,34.0,-22.62,25.89,-26.79,31.650000000000002,0.0,1782.024,-0.16000000000000014,100.0,28.412,28.225,42.884,43.219,0.0,0.0,100.0,0.0,0.0,0.0,0.0,3052.142857142857,3156.4,4091.75,4273.5,305.4395,304.723,314.873,314.24825,21.9552,20.6146,21.9705,21.4843,314.999998,314.999998,324.999988,324.999988,99.55908571428571,99.5074,99.56831428571428,99.5481,0.08924999999999983,-0.03633333333333311,-0.08233333333333337,0.1306666666666667,-0.03499999999999659,-0.051666666666669414,1.5015,1.5030000000000001,38.22,29.841,38.315,35.2765,56.04,35.219,59.939,52.855000000000004,53.972,34.341499999999996,58.5135,51.1605,53.129000000000005,33.885,58.4245,50.56033333333333,-0.08899999999999997,-0.06499999999999995,0.10293500000000001,0.10269,0.0,213.625,213.63,210.38666666666666,210.38666666666666,0.0,0.0
20,0.0,0.0,0.0,1.0,1.0,0.0,0.0,1.0,0.0,100.0,1.0,1.1856,26.0,0.0,0.0,0.0,59.999996,0.0,26.0,26.0,26.0,26.0,0.028874999999999984,0.2623,-0.014933333333333335,292.313,-2.7081,-2.643666666666667,-1.5241,-1.5874,-208.67000000000002,215.3125,190.574,0.0,0.0,0.0,0.0,0.04056666666666653,-5.498166666666667,-5.498166666666667,-0.5533,-0.6853333333333333,0.011374999999999913,-0.96,68.358,0.014100000000000001,-0.22407500000000002,-0.0420000000000007,100.0,1.0,1.0,210.78333333333333,0.0,0.0,0.0,0.0,0.0,0.0,0.0,8934.3,0.0,55.0,5.0,246.06333333333333,0.0,0.0,0.0,0.0,0.0,0.0,0.0,0.0,1.004999999999999,1.004999999999999,0.0,0.0,0.0,55.0,616.79921,10000.0,85.000001,85.000001,85.000001,85.000001,395.0,0.0,0.0,0.0,1.0,333.33500000000004,52.46,52.46,47.348,47.348,34.0,-23.78,23.822000000000003,-28.336666666666666,29.545,0.0,1781.973,-0.14499999999999957,100.0,27.901,28.171,43.319,43.756,0.0,0.0,100.0,0.0,0.0,0.0,0.0,3119.857142857143,3035.2,4150.875,4068.6000000000004,305.5085,305.05,314.759,314.6375,21.9647,20.6201,21.981099999999998,21.4936,314.999998,314.999998,324.999988,324.999988,99.55908571428571,99.5074,99.56845714285714,99.54824285714285,0.08400000000000007,-0.04699999999999993,-0.10516666666666663,0.12516666666666687,-0.04333333333332945,-0.04333333333332945,1.4829999999999999,1.4905,38.278999999999996,29.875666666666667,38.382,35.335,56.025999999999996,35.257,59.9775,52.917500000000004,53.958,34.376999999999995,58.5495,51.2205,53.114999999999995,33.919,58.457499999999996,50.619,-0.09099999999999997,-0.06499999999999995,0.11001000000000001,0.11038500000000001,0.0,214.0,214.025,210.78333333333333,210.78333333333333,0.0,0.0
21,0.0,0.0,0.0,1.0,1.0,0.0,0.0,1.0,0.0,100.0,1.0,1.1856,26.0,0.0,0.0,0.0,59.999996,0.0,26.0,26.0,26.0,26.0,0.023500000000000076,0.2722,-0.04336666666666667,292.587,-2.724,-2.6245555555555558,-1.5715,-1.5295,-205.38,215.31,190.5525,0.0,0.0,0.0,0.0,0.04246666666666654,-5.498166666666667,-5.498166666666667,-0.5734,-0.05,0.0035000000000000586,-0.657,68.485,0.0097,-0.22565000000000002,0.0,100.0,1.0,1.0,211.29333333333335,0.0,0.0,0.0,0.0,0.0,0.0,0.0,8955.9,0.0,55.0,5.0,246.51666666666665,1.0,0.0,0.0,0.0,0.0,0.0,0.0,0.0,1.0530000000000008,1.0530000000000008,0.0,0.0,1.0,55.0,616.79921,10000.0,85.000001,85.000001,85.000001,85.000001,395.0,0.0,0.0,0.0,1.0,333.33500000000004,52.383,52.383,48.05,48.05,34.0,-24.8325,24.302,-27.516666666666666,27.805,0.0,1781.925,-0.21000000000000085,100.0,27.9,27.999,43.034,43.356,0.0,0.0,100.0,0.0,0.0,0.0,0.0,3215.285714285714,3087.6,4039.625,4017.0,305.2255,304.93466666666666,315.08366666666666,314.91575,21.9736,20.6253,21.9909,21.5021,314.999998,314.999998,324.999988,324.999988,99.5591,99.50741666666667,99.5686,99.54837142857143,0.08300000000000018,-0.04133333333333322,-0.10233333333333339,0.12400000000000011,-0.045000000000001705,-0.04833333333333201,1.5625,1.552,38.335,29.90833333333333,38.443,35.3885,56.013999999999996,35.293,60.0105,52.972,53.946,34.41,58.579499999999996,51.2735,53.102000000000004,33.951,58.485,50.67066666666666,-0.08749999999999991,-0.052999999999999936,0.10364500000000001,0.10788,0.0,214.41500000000002,214.425,211.29333333333335,211.29333333333335,0.0,0.0
22,0.0,0.0,0.0,1.0,1.0,0.0,0.0,1.0,0.0,100.0,1.0,1.1856,26.0,0.0,0.0,0.0,59.999996,0.0,26.0,26.0,26.0,26.0,0.005249999999999977,0.28600000000000003,0.004933333333333334,292.175,-2.7577,-2.664777777777778,-1.5997,-1.4975999999999998,-201.89,215.305,190.52875,0.0,0.0,0.0,0.0,0.044499999999999984,-5.498166666666667,-5.498166666666667,-0.5585,0.126,0.01012499999999994,1.058,68.622,0.0061,-0.2005,-0.1739999999999995,100.0,1.0,1.0,211.55333333333334,0.0,0.0,0.0,0.0,0.0,0.0,0.0,8967.0,0.0,55.0,5.0,247.01333333333332,0.0,0.0,0.0,0.0,0.0,0.0,0.0,0.0,1.1039999999999992,1.1039999999999992,0.0,0.0,0.0,55.0,616.79921,10000.0,85.000001,85.000001,85.000001,85.000001,395.0,0.0,0.0,0.0,1.0,166.665,52.444,52.444,47.195,47.195,34.0,-23.6025,25.342,-30.116666666666667,30.8575,0.0,1781.875,-0.29499999999999815,100.0,28.119,27.892,43.230000000000004,43.271,0.0,0.0,100.0,0.0,0.0,0.0,0.0,3072.5714285714284,3174.7,4263.5,4396.7,305.5365,304.865,314.483,314.0705,21.9831,20.6309,22.0014,21.5113,314.999998,314.999998,324.999988,324.999988,99.55911428571429,99.50741666666667,99.56874285714285,99.54852857142858,0.09224999999999994,-0.03933333333333322,-0.10033333333333339,0.12616666666666676,-0.046666666666666856,-0.054999999999999716,1.4849999999999999,1.487,38.394,29.943333333333335,38.509,35.446,56.001000000000005,35.332,60.0475,53.0325,53.934,34.446,58.6145,51.3315,53.088,33.985,58.5165,50.727666666666664,-0.09799999999999986,-0.05449999999999999,0.10716,0.10984500000000001,0.0,214.86,214.875,211.55333333333334,211.55333333333334,0.0,0.0
23,0.0,0.0,0.0,1.0,1.0,0.0,0.0,1.0,0.0,100.0,1.0,1.1856,26.0,0.0,0.0,0.0,59.999996,0.0,26.0,26.0,26.0,26.0,0.006250000000000089,0.27760000000000007,0.019733333333333335,292.007,-2.6563,-2.687444444444444,-1.6400000000000001,-1.5392,-198.18,215.3025,190.50375,0.0,0.0,0.0,0.0,0.04666666666666652,-5.498166666666667,-5.498166666666667,-0.5722,-0.29033333333333333,0.008874999999999966,0.713,68.765,0.0057,-0.22475,-0.20199999999999996,100.0,1.0,1.0,212.01999999999998,0.0,0.0,0.0,0.0,0.0,0.0,0.0,8986.7,0.0,55.0,5.0,247.52666666666664,1.0,0.0,0.0,0.0,0.0,0.0,0.0,0.0,1.1580000000000013,1.1580000000000013,0.0,0.0,1.0,55.0,616.79921,10000.0,85.000001,85.000001,85.000001,85.000001,395.0,0.0,0.0,0.0,1.0,166.665,52.032,52.032,47.318,47.318,34.0,-22.9325,25.418,-30.269999999999996,29.935,0.0,1781.821,-0.3249999999999993,100.0,28.376,28.081,43.449,43.574,0.0,0.0,100.0,0.0,0.0,0.0,0.0,3129.0,3160.2,4232.875,4238.6,305.2245,304.79766666666666,314.5953333333333,314.4275,21.9932,20.6369,22.0126,21.5212,314.999998,314.999998,324.999988,324.999988,99.55911428571429,99.50743333333334,99.5689,99.54868571428571,0.10150000000000015,-0.04200000000000004,-0.10083333333333333,0.12433333333333318,-0.041666666666671404,-0.054999999999999716,1.5145,1.5124999999999997,38.458,29.980666666666664,38.579,35.5075,55.988,35.3735,60.087,53.0975,53.921,34.4845,58.6515,51.3945,53.075,34.022,58.55,50.789,-0.10599999999999987,-0.05500000000000016,0.11175500000000001,0.10731,0.0,215.29000000000002,215.265,212.01999999999998,212.01999999999998,0.0,0.0
24,0.0,0.0,0.0,1.0,1.0,0.0,0.0,1.0,0.0,100.0,1.0,1.1856,26.0,0.0,0.0,0.0,59.999996,0.0,26.0,26.0,26.0,26.0,0.024124999999999952,0.27,-0.05673333333333334,292.435,-2.7053,-2.69,-1.5484,-1.5577999999999999,-194.87,215.2975,190.481125,0.0,0.0,0.0,0.0,0.048566666666666536,-5.498166666666667,-5.498166666666667,-0.5867,-0.41733333333333333,0.016750000000000043,1.1380000000000001,68.891,0.0088,-0.2243,-0.26399999999999935,100.0,1.0,1.0,212.43666666666667,0.0,0.0,0.0,0.0,0.0,0.0,0.0,9004.4,0.0,55.0,5.0,247.98333333333335,0.0,0.0,0.0,0.0,0.0,0.0,0.0,0.0,1.2059999999999995,1.2059999999999995,0.0,0.0,0.0,55.0,616.79921,10000.0,85.000001,85.000001,85.000001,85.000001,395.0,0.0,0.0,0.0,1.0,166.665,52.628,52.628,47.501,47.501,34.0,-22.09,25.036,-27.229999999999997,29.55,0.0,1781.773,-0.29499999999999815,100.0,28.166,27.847,43.397999999999996,43.493,0.0,0.0,100.0,0.0,0.0,0.0,0.0,2969.142857142857,3107.9,4083.375,4142.6,305.782,305.00333333333333,314.864,314.63475,22.0021,20.6421,22.0224,21.5298,314.999998,314.999998,324.999988,324.999988,99.55912857142857,99.50743333333334,99.56902857142857,99.54881428571429,0.09750000000000014,-0.03866666666666663,-0.09033333333333338,0.12616666666666676,-0.04333333333332945,-0.04333333333332945,1.5374999999999999,1.5070000000000001,38.513,30.012999999999998,38.64,35.5615,55.974999999999994,35.408500000000004,60.121,53.1535,53.909,34.516999999999996,58.6825,51.448,53.062,34.053,58.5785,50.84133333333333,-0.10349999999999993,-0.05799999999999983,0.10326500000000001,0.108115,0.0,215.66,215.675,212.43666666666667,212.43666666666667,0.0,0.0
25,0.0,0.0,0.0,1.0,1.0,0.0,0.0,1.0,0.0,100.0,1.0,1.1856,26.0,0.0,0.0,0.0,59.999996,0.0,26.0,26.0,26.0,26.0,0.03112500000000007,0.266,-0.017766666666666667,292.16,-2.6893,-2.656,-1.5944,-1.5519,-191.36,215.29500000000002,190.455875,0.0,0.0,0.0,0.0,0.05063333333333331,-5.498166666666667,-5.498166666666667,-0.5997,0.18666666666666665,0.02224999999999988,-0.877,69.025,0.0117,-0.21702500000000002,-0.2060000000000004,100.0,1.0,1.0,212.88666666666666,0.0,0.0,0.0,0.0,0.0,0.0,0.0,9023.5,0.0,55.0,5.0,248.46333333333334,1.0,0.0,0.0,0.0,0.0,0.0,0.0,0.0,1.256999999999998,1.256999999999998,0.0,0.0,1.0,55.0,616.79921,10000.0,85.000001,85.000001,85.000001,85.000001,395.0,0.0,0.0,0.0,1.0,166.665,51.849000000000004,51.849000000000004,47.668,47.668,34.0,-24.4125,26.066,-28.233333333333334,29.0875,0.0,1781.722,-0.3049999999999997,100.0,28.0,28.248,43.07,43.413,0.0,0.0,100.0,0.0,0.0,0.0,0.0,3257.142857142857,3235.6,4092.375,4118.4,305.041,304.4146666666667,315.00733333333335,314.6415,22.011499999999998,20.6477,22.0328,21.539,314.999998,314.999998,324.999988,324.999988,99.55914285714286,99.50745,99.56917142857142,99.54897142857143,0.09525000000000006,-0.040999999999999925,-0.10083333333333333,0.12383333333333324,-0.01999999999999602,-0.041666666666671404,1.542,1.537,38.572,30.048333333333332,38.705,35.6185,55.962,35.448,60.1555,53.212,53.897,34.553,58.715,51.5045,53.048,34.088,58.6075,50.89666666666667,-0.10650000000000004,-0.058499999999999996,0.11036000000000001,0.10809,0.0,216.065,216.07999999999998,212.88666666666666,212.88666666666666,0.0,0.0
26,0.0,0.0,0.0,1.0,1.0,0.0,0.0,1.0,0.0,100.0,1.0,1.1856,26.0,0.0,0.0,0.0,59.999996,0.0,26.0,26.0,26.0,26.0,0.02400000000000002,0.2753000000000001,0.06646666666666666,291.397,-2.7098,-2.656,-1.5563,-1.5548,-187.82999999999998,215.29500000000002,190.430375,0.0,0.0,0.0,0.0,0.05266666666666653,-5.498166666666667,-5.498166666666667,-0.5733,0.203,0.013374999999999915,1.0070000000000001,69.16,0.013600000000000001,-0.20167500000000002,-0.28000000000000025,100.0,1.0,1.0,213.10666666666668,0.0,0.0,0.0,0.0,0.0,0.0,0.0,9032.8,0.0,55.0,5.0,248.95,0.0,0.0,0.0,0.0,0.0,0.0,0.0,0.0,1.3079999999999998,1.3079999999999998,0.0,0.0,0.0,55.0,616.79921,10000.0,85.000001,85.000001,85.000001,85.000001,395.0,0.0,0.0,0.0,1.0,166.665,51.712,51.712,46.677,46.677,34.0,-23.52,25.618,-29.869999999999997,33.31,0.0,1781.671,-0.3200000000000003,100.0,28.755,28.434,43.658,43.829,0.0,0.0,100.0,0.0,0.0,0.0,0.0,3163.857142857143,3189.7,4377.125,4482.9,305.2145,304.8326666666667,314.194,313.78225,22.021,20.6535,22.0435,21.5484,314.999998,314.999998,324.999988,324.999988,99.55917142857143,99.50745,99.56932857142857,99.54911428571428,0.10450000000000026,-0.03400000000000003,-0.08633333333333337,0.1343333333333332,-0.04999999999999716,-0.054999999999999716,1.447,1.4365,38.632,30.084333333333333,38.772,35.677,55.952,35.4875,60.194,53.2745,53.887,34.59,58.7505,51.5645,53.037,34.1235,58.64,50.955666666666666,-0.10850000000000004,-0.05750000000000011,0.10577,0.10988500000000001,0.0,216.525,216.53,213.10666666666668,213.10666666666668,0.0,0.0
27,0.0,0.0,0.0,1.0,1.0,0.0,0.0,1.0,0.0,100.0,1.0,1.1856,26.0,0.0,0.0,0.0,59.999996,0.0,26.0,26.0,26.0,26.0,0.03049999999999997,0.2558,-0.031433333333333334,291.794,-2.7603,-2.6606666666666667,-1.6191,-1.5323,-184.72,215.29250000000002,190.408625,0.0,0.0,0.0,0.0,0.05446666666666655,-5.498166666666667,-5.498166666666667,-0.5966,-0.7773333333333334,0.024375000000000036,-0.586,69.276,0.0143,-0.2348,-0.25,100.0,1.0,1.0,213.58333333333331,0.0,0.0,0.0,0.0,0.0,0.0,0.0,9053.0,0.0,55.0,5.0,249.36666666666667,1.0,0.0,0.0,0.0,0.0,0.0,0.0,0.0,1.352999999999998,1.352999999999998,0.0,0.0,1.0,55.0,616.79921,10000.0,85.000001,85.000001,85.000001,85.000001,395.0,0.0,0.0,0.0,1.0,333.33500000000004,51.926,51.926,46.692,46.692,34.0,-24.0625,25.064,-29.57333333333333,28.6675,0.0,1781.623,-0.35999999999999943,100.0,28.297,28.64,43.938,44.224000000000004,0.0,0.0,100.0,0.0,0.0,0.0,0.0,3152.714285714286,3132.2,4168.625,4100.4,305.4835,304.721,314.7943333333333,314.733,22.0293,20.6585,22.0528,21.5566,314.999998,314.999998,324.999988,324.999988,99.55917142857143,99.50745,99.56947142857143,99.54925714285714,0.09425000000000017,-0.04366666666666674,-0.10483333333333333,0.12200000000000011,-0.04333333333332945,-0.03999999999999915,1.5205,1.5044999999999997,38.683,30.115666666666666,38.83,35.729,55.94,35.5245,60.2295,53.3315,53.875,34.624,58.783500000000004,51.6195,53.024,34.156,58.67,51.00966666666667,-0.10999999999999988,-0.05049999999999999,0.11109500000000001,0.10246000000000001,0.0,216.835,216.84,213.58333333333331,213.58333333333331,0.0,0.0
28,0.0,0.0,0.0,1.0,1.0,0.0,0.0,1.0,0.0,100.0,1.0,1.1856,26.0,0.0,0.0,0.0,59.999996,0.0,26.0,26.0,26.0,26.0,0.026375000000000037,0.26249999999999996,-0.03153333333333333,291.946,-2.6856,-2.652333333333333,-1.6311,-1.5649,-181.18,215.29250000000002,190.38325,0.0,0.0,0.0,0.0,0.056533333333333324,-5.498166666666667,-5.498166666666667,-0.5996,0.489,0.007125000000000048,0.29,69.406,0.0173,-0.21765,-0.3460000000000001,100.0,1.0,1.0,214.07,0.0,0.0,0.0,0.0,0.0,0.0,0.0,9073.6,0.0,55.0,5.0,249.83666666666664,0.0,0.0,0.0,0.0,0.0,0.0,0.0,0.0,1.404,1.404,0.0,0.0,0.0,55.0,616.79921,10000.0,85.000001,85.000001,85.000001,85.000001,395.0,0.0,0.0,0.0,1.0,333.33500000000004,51.879999999999995,51.879999999999995,47.302,47.302,34.0,-22.1925,26.348,-28.053333333333335,30.63,0.0,1781.572,-0.34999999999999787,100.0,28.553,28.48,43.511,43.78,0.0,0.0,100.0,0.0,0.0,0.0,0.0,3065.5714285714284,3208.1,4103.75,4145.3,305.461,304.6813333333333,314.9683333333333,314.664,22.0387,20.6643,22.0632,21.5658,314.999998,314.999998,324.999988,324.999988,99.55918571428572,99.50746666666667,99.56961428571428,99.54941428571429,0.11175000000000024,-0.02299999999999991,-0.08533333333333337,0.14766666666666683,-0.045000000000001705,-0.051666666666669414,1.5465,1.533,38.742000000000004,30.151666666666664,38.894999999999996,35.786500000000004,55.928,35.5635,60.263,53.3895,53.864000000000004,34.6605,58.814499999999995,51.6755,53.012,34.1905,58.698,51.064,-0.10850000000000004,-0.04850000000000021,0.10451500000000001,0.11308000000000001,0.0,217.28,217.3,214.07,214.07,0.0,0.0
29,0.0,0.0,0.0,1.0,1.0,0.0,0.0,1.0,0.0,100.0,1.0,1.1856,26.0,0.0,0.0,0.0,59.999996,0.0,26.0,26.0,26.0,26.0,0.03649999999999998,0.2661,-0.023266666666666668,291.809,-2.7524,-2.5856666666666666,-1.6049,-1.5501,-177.43,215.29250000000002,190.355375,0.0,0.0,0.0,0.0,0.058699999999999974,-5.498166666666667,-5.498166666666667,-0.6046,-0.7086666666666667,0.0029999999999998916,0.745,69.548,0.018000000000000002,-0.21452500000000002,-0.37399999999999967,100.0,1.0,1.0,214.35333333333335,0.0,0.0,0.0,0.0,0.0,0.0,0.0,9085.7,0.0,55.0,5.0,250.34666666666666,1.0,0.0,0.0,0.0,0.0,0.0,0.0,0.0,1.4579999999999984,1.4579999999999984,0.0,0.0,1.0,55.0,616.79921,10000.0,85.000001,85.000001,85.000001,85.000001,395.0,0.0,0.0,0.0,1.0,166.665,52.246,52.246,46.921,46.921,34.0,-23.115,26.0,-28.089999999999996,31.93,0.0,1781.521,-0.4349999999999987,100.0,28.236,28.178,43.884,44.024,0.0,0.0,100.0,0.0,0.0,0.0,0.0,3127.4285714285716,3229.7,4153.625,4316.4,305.4965,304.87033333333335,314.75,314.216,22.0485,20.6702,22.0743,21.5757,314.999998,314.999998,324.999988,324.999988,99.5592,99.50746666666667,99.56975714285714,99.54955714285714,0.11149999999999993,-0.014000000000000012,-0.0781666666666666,0.14149999999999996,-0.05333333333332746,-0.041666666666671404,1.4965,1.479,38.803,30.189,38.965,35.8485,55.915,35.601,60.301,53.451,53.851,34.695,58.85,51.735,52.998999999999995,34.224000000000004,58.730000000000004,51.122,-0.11549999999999994,-0.044500000000000206,0.102315,0.10635000000000001,0.0,217.695,217.695,214.35333333333335,214.35333333333335,0.0,0.0
30,0.0,0.0,0.0,1.0,1.0,0.0,0.0,1.0,0.0,100.0,1.0,1.1856,26.0,0.0,0.0,0.0,59.999996,0.0,26.0,26.0,26.0,26.0,0.047125000000000083,0.256,-0.0001666666666666667,291.138,-2.7239,-2.651222222222222,-1.65,-1.4655,-174.09,215.29250000000002,190.3305,0.0,0.0,0.0,0.0,0.060666666666666536,-5.498166666666667,-5.498166666666667,-0.6053000000000001,0.8423333333333334,0.005749999999999922,0.903,69.669,0.0175,-0.2159,-0.3700000000000001,100.0,1.0,1.0,214.82666666666665,0.0,0.0,0.0,0.0,0.0,0.0,0.0,9105.6,0.0,55.0,5.0,250.78,0.0,0.0,0.0,0.0,0.0,0.0,1.0,0.0,1.5060000000000002,1.5060000000000002,0.0,0.0,0.0,55.0,616.79921,10000.0,85.000001,85.000001,85.000001,85.000001,395.0,0.0,0.0,0.0,1.0,166.665,50.598,50.598,46.967,46.967,34.0,-24.2125,28.424,-29.1,30.395,0.0,1781.472,-0.509999999999998,100.0,29.16,28.904,43.626,43.916,0.0,0.0,100.0,0.0,0.0,0.0,0.0,3304.857142857143,3389.2,4242.375,4296.0,304.682,303.94933333333336,314.7076666666667,314.46375,22.0576,20.6758,22.0841,21.5844,314.999998,314.999998,324.999988,324.999988,99.55921428571429,99.50746666666667,99.5699,99.5497,0.12199999999999989,-0.020333333333333314,-0.07916666666666661,0.14666666666666672,-0.04833333333333201,-0.05666666666667197,1.539,1.5124999999999997,38.86,30.223666666666666,39.025999999999996,35.9025,55.907,35.6395,60.333,53.5065,53.844,34.7305,58.8795,51.788,52.989999999999995,34.257999999999996,58.7565,51.17433333333334,-0.12250000000000005,-0.04300000000000015,0.102245,0.10833000000000001,0.0,218.09,218.10000000000002,214.82666666666665,214.82666666666665,0.0,0.0
31,0.0,0.0,0.0,1.0,1.0,0.0,0.0,1.0,0.0,100.0,1.0,1.1856,26.0,0.0,0.0,0.0,59.999996,0.0,26.0,26.0,26.0,26.0,0.04962500000000003,0.26639999999999997,0.056900000000000006,290.649,-2.7719,-2.624,-1.647,-1.5403,-170.74,215.29500000000002,190.306,0.0,0.0,0.0,0.0,0.06259999999999999,-5.498166666666667,-5.498166666666667,-0.5854,-0.308,0.019625000000000004,1.0,69.794,0.0216,-0.216725,-0.4379999999999997,100.0,1.0,1.0,214.98000000000002,0.0,0.0,0.0,0.0,0.0,0.0,0.0,9112.2,0.0,55.0,5.0,251.23333333333335,1.0,0.0,0.0,0.0,0.0,0.0,1.0,0.0,1.5539999999999985,1.5539999999999985,0.0,0.0,1.0,55.0,616.79921,10000.0,85.000001,85.000001,85.000001,85.000001,395.0,0.0,0.0,0.0,1.0,333.33500000000004,51.117,51.117,45.486,45.486,34.0,-23.0175,27.592,-30.636666666666663,33.915,0.0,1781.424,-0.46999999999999886,100.0,29.052,29.05,44.39,44.659,0.0,0.0,100.0,0.0,0.0,0.0,0.0,3123.285714285714,3374.6,4380.75,4518.3,305.39,304.25966666666665,314.11266666666666,313.6245,22.0664,20.6813,22.0942,21.5934,314.999998,314.999998,324.999988,324.999988,99.55922857142858,99.50748333333334,99.57004285714285,99.54984285714286,0.12024999999999997,-0.022333333333333316,-0.0711666666666666,0.13883333333333336,-0.036666666666668846,-0.045000000000001705,1.4275,1.412,38.915,30.258,39.089,35.959,55.897,35.677,60.3705,53.567,53.834,34.7655,58.915,51.8465,52.979,34.2915,58.7885,51.231,-0.121,-0.04499999999999993,0.10508,0.10795,0.0,218.45,218.485,214.98000000000002,214.98000000000002,0.0,0.0
32,0.0,0.0,0.0,1.0,1.0,0.0,0.0,1.0,0.0,100.0,1.0,1.1856,26.0,0.0,0.0,0.0,59.999996,0.0,26.0,26.0,26.0,26.0,0.06475000000000009,0.2602,-0.0201,291.351,-2.7043,-2.6737777777777776,-1.5932,-1.6156,-167.18,215.3,190.280625,0.0,0.0,0.0,0.0,0.06466666666666654,-5.498166666666667,-5.498166666666667,-0.6064,-0.34500000000000003,-0.0011250000000000426,-1.08,69.92099999999999,0.028,-0.23397500000000002,-0.4639999999999995,100.0,1.0,1.0,215.55333333333334,0.0,0.0,0.0,0.0,0.0,0.0,0.0,9136.5,0.0,55.0,5.0,251.69,0.0,0.0,0.0,0.0,0.0,0.0,1.0,0.0,1.6050000000000004,1.6050000000000004,0.0,0.0,0.0,55.0,616.79921,10000.0,85.000001,85.000001,85.000001,85.000001,395.0,0.0,0.0,0.0,1.0,333.33500000000004,51.559,51.559,46.631,46.631,34.0,-22.68,25.436,-27.983333333333327,32.05,0.0,1781.371,-0.4349999999999987,100.0,28.731,29.106,44.176,44.655,0.0,0.0,100.0,0.0,0.0,0.0,0.0,3163.4285714285716,3097.2,4117.125,4211.7,305.3845,304.8496666666667,314.88,314.37575,22.0756,20.6871,22.1047,21.6028,314.999998,314.999998,324.999988,324.999988,99.55925714285715,99.50748333333334,99.5702,99.55,0.11825000000000019,-0.02966666666666673,-0.08683333333333332,0.14366666666666683,-0.04333333333332945,-0.05666666666667197,1.511,1.5095,38.972,30.294333333333334,39.153999999999996,36.0175,55.885,35.7185,60.407,53.629999999999995,53.822,34.8035,58.948499999999996,51.907,52.966,34.328,58.819,51.290333333333336,-0.11749999999999994,-0.04899999999999993,0.11094500000000002,0.10404000000000001,0.0,218.84,218.86,215.55333333333334,215.55333333333334,0.0,0.0
33,0.0,0.0,0.0,1.0,1.0,0.0,0.0,1.0,0.0,100.0,1.0,1.1856,26.0,0.0,0.0,0.0,59.999996,0.0,26.0,26.0,26.0,26.0,0.03825000000000012,0.25560000000000005,-0.0791,291.641,-2.7134,-2.6484444444444444,-1.5965,-1.5814,-163.61,215.305,190.254,0.0,0.0,0.0,0.0,0.06673333333333331,-5.498166666666667,-5.498166666666667,-0.6154000000000001,-0.131,-0.0006249999999998757,1.05,70.05,0.0302,-0.215675,-0.4560000000000004,100.0,1.0,1.0,215.97,0.0,0.0,0.0,0.0,0.0,0.0,0.0,9154.2,0.0,55.0,5.0,252.15333333333334,1.0,0.0,0.0,0.0,0.0,0.0,1.0,0.0,1.6559999999999988,1.6559999999999988,0.0,0.0,1.0,55.0,616.79921,10000.0,85.000001,85.000001,85.000001,85.000001,395.0,0.0,0.0,0.0,1.0,166.665,51.879999999999995,51.879999999999995,46.997,46.997,34.0,-21.71,25.612000000000002,-27.29,31.505,0.0,1781.323,-0.46499999999999986,100.0,28.673000000000002,28.693,43.987,44.317,0.0,0.0,100.0,0.0,0.0,0.0,0.0,3065.142857142857,3130.5,4077.0,4225.9,305.5135,305.009,314.978,314.4895,22.0848,20.6928,22.115099999999998,21.612000000000002,314.999998,314.999998,324.999988,324.999988,99.55927142857144,99.50748333333334,99.57034285714286,99.55014285714286,0.1280000000000001,-0.020000000000000018,-0.07983333333333331,0.14383333333333326,-0.051666666666669414,-0.045000000000001705,1.5235,1.5070000000000001,39.03,30.329666666666668,39.219,36.075,55.873999999999995,35.7535,60.439499999999995,53.6845,53.812,34.836,58.979,51.96,52.955,34.359,58.846000000000004,51.34166666666667,-0.11949999999999994,-0.04999999999999982,0.11039000000000002,0.10667000000000001,0.0,219.255,219.26,215.97,215.97,0.0,0.0
34,0.0,0.0,0.0,1.0,1.0,0.0,0.0,1.0,0.0,100.0,1.0,1.1856,26.0,0.0,0.0,0.0,59.999996,0.0,26.0,26.0,26.0,26.0,0.04525000000000001,0.25039999999999996,-0.07413333333333334,291.84,-2.6703,-2.670888888888889,-1.6329,-1.5219,-160.24,215.31,190.227625,0.0,0.0,0.0,0.0,0.06869999999999998,-5.498166666666667,-5.498166666666667,-0.6396000000000001,-0.8220000000000001,0.021499999999999853,0.9,70.17099999999999,0.0297,-0.219925,-0.45399999999999974,100.0,1.0,1.0,216.2866666666667,0.0,0.0,0.0,0.0,0.0,0.0,0.0,9167.6,0.0,55.0,5.0,252.59,0.0,0.0,0.0,0.0,0.0,0.0,1.0,0.0,1.7040000000000006,1.7040000000000006,0.0,0.0,0.0,55.0,616.79921,10000.0,85.000001,85.000001,85.000001,85.000001,395.0,0.0,0.0,0.0,1.0,166.665,52.444,52.444,46.997,46.997,34.0,-20.43,25.394,-27.97,31.5225,0.0,1781.274,-0.5,100.0,28.353,28.379,43.879,44.434,0.0,0.0,100.0,0.0,0.0,0.0,0.0,2944.5714285714284,3052.1,4107.875,4292.7,305.905,305.113,314.91066666666666,314.36075,22.0934,20.698,22.1249,21.6208,314.999998,314.999998,324.999988,324.999988,99.55928571428572,99.50748333333334,99.57048571428571,99.55028571428572,0.125,-0.016000000000000014,-0.07866666666666666,0.14916666666666667,-0.02833333333332888,-0.04999999999999716,1.525,1.5055,39.084,30.362666666666666,39.281,36.129999999999995,55.861999999999995,35.7875,60.472,53.742,53.8,34.8675,59.009,52.015,52.942,34.388999999999996,58.873,51.39566666666666,-0.11650000000000005,-0.04400000000000004,0.10967,0.11362000000000001,0.0,219.59,219.62,216.28666666666666,216.2866666666667,0.0,0.0
35,0.0,0.0,0.0,1.0,1.0,0.0,0.0,1.0,0.0,100.0,1.0,1.1856,26.0,0.0,0.0,0.0,59.999996,0.0,26.0,26.0,26.0,26.0,0.056499999999999995,0.23829999999999996,-0.06673333333333334,291.809,-2.8061,-2.6494444444444443,-1.5412,-1.5792,-156.66,215.3175,190.19775,0.0,0.0,0.0,0.0,0.07079999999999997,-5.498166666666667,-5.498166666666667,-0.6761,-0.041,-0.0009999999999998899,-1.35,70.297,0.0329,-0.22525,-0.3639999999999999,100.0,1.0,1.0,216.79333333333335,0.0,0.0,0.0,0.0,0.0,0.0,0.0,9189.1,0.0,55.0,5.0,253.04333333333335,1.0,0.0,0.0,0.0,0.0,0.0,1.0,0.0,1.754999999999999,1.754999999999999,0.0,0.0,1.0,55.0,616.79921,10000.0,85.000001,85.000001,85.000001,85.000001,395.0,0.0,0.0,0.0,1.0,333.33500000000004,51.697,51.697,46.936,46.936,34.0,-24.5225,26.894,-26.306666666666672,29.3975,0.0,1781.222,-0.29499999999999815,100.0,28.1,28.838,43.555,44.03,0.0,0.0,100.0,0.0,0.0,0.0,0.0,3193.5714285714284,3269.3,4095.625,3999.0,305.3035,304.34,315.04,315.06925,22.1024,20.7039,22.1353,21.63,314.999998,314.999998,324.999988,324.999988,99.55928571428572,99.5075,99.57062857142857,99.55042857142857,0.10475000000000012,-0.02833333333333332,-0.07766666666666666,0.14733333333333332,-0.051666666666669414,-0.04833333333333201,1.558,1.5495,39.14,30.39933333333333,39.345,36.1875,55.848,35.827,60.5045,53.798,53.787,34.903999999999996,59.039,52.069,52.928,34.424,58.9,51.44833333333334,-0.10349999999999993,-0.05449999999999999,0.10105000000000001,0.10751000000000001,0.0,220.01,220.025,216.79333333333335,216.79333333333335,0.0,0.0
36,0.0,0.0,0.0,1.0,1.0,0.0,0.0,1.0,0.0,100.0,1.0,1.1856,26.0,0.0,0.0,0.0,59.999996,0.0,26.0,26.0,26.0,26.0,0.04937499999999995,0.26560000000000006,0.013900000000000001,291.168,-2.6548,-2.7078888888888892,-1.6518000000000002,-1.5894,-153.28,215.325,190.1685,0.0,0.0,0.0,0.0,0.07273333333333332,-5.498166666666667,-5.498166666666667,-0.6604,0.076,-0.04037500000000005,-1.283,70.42,0.027200000000000002,-0.20247500000000002,-0.22200000000000042,100.0,1.0,1.0,216.94,0.0,0.0,0.0,0.0,0.0,0.0,0.0,9195.4,0.0,55.0,5.0,253.48333333333335,0.0,0.0,0.0,0.0,0.0,0.0,1.0,0.0,1.8030000000000008,1.8030000000000008,0.0,0.0,0.0,55.0,616.79921,10000.0,85.000001,85.000001,85.000001,85.000001,395.0,0.0,0.0,0.0,1.0,333.33500000000004,51.743,51.743,46.326,46.326,34.0,-22.645,24.72,-31.75,33.72,0.0,1781.175,-0.259999999999998,100.0,28.652,28.873,43.78,44.316,0.0,0.0,100.0,0.0,0.0,0.0,0.0,3129.4285714285716,3014.9,4457.375,4405.1,305.329,305.006,314.12266666666665,313.96825,22.1112,20.7094,22.1452,21.6389,314.999998,314.999998,324.999988,324.999988,99.55931428571428,99.5075,99.57077142857143,99.55058571428572,0.1067499999999999,-0.038999999999999924,-0.08450000000000002,0.14450000000000007,-0.05333333333332746,-0.041666666666671404,1.457,1.448,39.195,30.433666666666667,39.407,36.243,55.839,35.8635,60.539,53.855000000000004,53.778,34.938,59.071,52.1245,52.918,34.457,58.929,51.50233333333333,-0.09999999999999987,-0.06000000000000005,0.109545,0.11299000000000001,0.0,220.41500000000002,220.41,216.94,216.94,0.0,0.0
