,ABS Active,ABS Enabled,AID Allow Tire Blankets,AID Auto Blip,AID Auto Clutch,AID Auto Shift,AID Fuel Rate,AID Ideal Line,AID Mech Damage,AID Stability,AID Tire Wear Rate,Air Density,Air Temp,Ballast,Best Lap Delta,Best Lap Time,Brake Bias,Brake Pos,Brake Temp FL,Brake Temp FR,Brake Temp RL,Brake Temp RR,CG Accel Lateral,CG Accel Longitudinal,CG Accel Vertical,CG Height,Camber FL,Camber FR,Camber RL,Camber RR,Car Coord X,Car Coord Y,Car Coord Z,Car Damage Front,Car Damage Left,Car Damage Rear,Car Damage Right,Car Pos Norm,Caster FL,Caster FR,Chassis Pitch Angle,Chassis Pitch Rate,Chassis Roll Angle,Chassis Roll Rate,Chassis Velocity X,Chassis Velocity Y,Chassis Velocity Z,Chassis Yaw Rate,Clutch Pos,DRS Active,DRS Available,Drive Train Speed,ERS Heat Charging,ERS Is Charging,ERS Max Energy,ERS Power Level,ERS Recovery Level,Engine Brake Setting,Engine Limiter,Engine RPM,Flags,Fuel Level,Gear,Ground Speed,HR Sample Clock,In Pit,KERS Charge,KERS Deployed Energy,KERS Input,KERS Max Energy,LR Sample Clock,Lap Invalidated,Lap Time,Lap Time2,Last Lap Time,Last Sector Time,MR Sample Clock,Max Fuel,Max Power,Max RPM,Max Sus Travel FL,Max Sus Travel FR,Max Sus Travel RL,Max Sus Travel RR,Max Torque,Max Turbo Boost,Num Tires Off Track,Penalties Enabled,Position,Raw Data Sample Rate,Ride Height FL,Ride Height FR,Ride Height RL,Ride Height RR,Road Temp,Self Align Torque FL,Self Align Torque FR,Self Align Torque RL,Self Align Torque RR,Session Lap Count,Session Time Left,Steering Angle,Surface Grip,Suspension Travel FL,Suspension Travel FR,Suspension Travel RL,Suspension Travel RR,TC Active,TC Enabled,Throttle Pos,Tire Dirt Level FL,Tire Dirt Level FR,Tire Dirt Level RL,Tire Dirt Level RR,Tire Load FL,Tire Load FR,Tire Load RL,Tire Load RR,Tire Loaded Radius FL,Tire Loaded Radius FR,Tire Loaded Radius RL,Tire Loaded Radius RR,Tire Pressure FL,Tire Pressure FR,Tire Pressure RL,Tire Pressure RR,Tire Radius FL,Tire Radius FR,Tire Radius RL,Tire Radius RR,Tire Rubber Grip FL,Tire Rubber Grip FR,Tire Rubber Grip RL,Tire Rubber Grip RR,Tire Slip Angle FL,Tire Slip Angle FR,Tire Slip Angle RL,Tire Slip Angle RR,Tire Slip Ratio FL,Tire Slip Ratio FR,Tire Slip Ratio RL,Tire Slip Ratio RR,Tire Temp Core FL,Tire Temp Core FR,Tire Temp Core RL,Tire Temp Core RR,Tire Temp Inner FL,Tire Temp Inner FR,Tire Temp Inner RL,Tire Temp Inner RR,Tire Temp Middle FL,Tire Temp Middle FR,Tire Temp Middle RL,Tire Temp Middle RR,Tire Temp Outer FL,Tire Temp Outer FR,Tire Temp Outer RL,Tire Temp Outer RR,Toe In FL,Toe In FR,Toe In RL,Toe In RR,Turbo Boost,Wheel Angular Speed FL,Wheel Angular Speed FR,Wheel Angular Speed RL,Wheel Angular Speed RR,Wind Direction,Wind Speed
0,0.0,0.0,0.0,1.0,1.0,0.0,0.0,1.0,0.0,100.0,1.0,1.1856,26.0,0.0,0.0,0.0,59.99999,0.0,26.0,26.0,26.0,26.0,-0.076875,0.29410000000000003,0.040150000000000005,293.9,-2.7223,-2.652375,-1.5184,-1.5553,-275.57,216.29250000000002,190.986875,0.0,0.0,0.0,0.0,0.0016333333333333755,-5.498166666666667,-5.498166666666667,-0.5453,1.477,-0.007000000000000117,-1.472,65.507,-0.032,-0.211175,0.944,100.0,1.0,1.0,202.22333333333333,0.0,0.0,0.0,0.0,0.0,0.0,0.0,8571.5,0.0,55.0,5.0,235.79333333333335,0.0,0.0,0.0,0.0,0.0,0.0,0.0,0.0,0.006000000000000227,0.006000000000000227,0.0,0.0,0.0,55.0,616.79921,10000.0,85.0,85.0,85.0,85.0,395.0,0.0,0.0,0.0,1.0,20.0,52.719,52.719,49.362,49.362,34.0,-26.25,23.268,-30.856666666666666,24.384999999999998,0.0,1782.92,0.7349999999999994,100.0,27.45,27.213,40.507,40.669,0.0,0.0,100.0,0.0,0.0,0.0,0.0,3024.0,3316.8,4201.75,3984.4,305.694,304.168,314.68175,314.86675,21.7846,20.514499999999998,21.7742,21.318,314.99999,314.99999,324.99998,324.99998,99.5592,99.50716666666666,99.56522857142858,99.54538571428571,0.00533333333333319,-0.1146666666666667,-0.15533333333333335,0.05583333333333334,-0.04999999999999716,-0.06142857142857139,1.535,1.587,37.153999999999996,29.216,37.089,34.2375,56.370999999999995,34.471000000000004,59.079,51.678,54.283,33.6315,57.705,50.032,53.451,33.183,57.6685,49.455666666666666,-0.015499999999999958,-0.13149999999999995,0.10768000000000001,0.09969000000000001,0.0,205.29000000000002,205.22500000000002,202.22333333333333,202.22333333333333,0.0,0.0
1,0.0,0.0,0.0,1.0,1.0,0.0,0.0,1.0,0.0,100.0,1.0,1.1856,26.0,0.0,0.0,0.0,59.999996,0.0,26.0,26.0,26.0,26.0,-0.110625,0.31530000000000014,-0.02145,292.969,-2.636,-2.7625,-1.5261,-1.5506,-272.23,216.28750000000002,190.96675,0.0,0.0,0.0,0.0,0.0035999999999999366,-5.498166666666667,-5.498166666666667,-0.496,-0.7025000000000001,-0.05266666666666664,-0.02400000000000002,65.662,-0.049800000000000004,-0.196225,1.4079999999999995,100.0,1.0,1.0,202.38333333333333,0.0,0.0,0.0,0.0,0.0,0.0,0.0,8578.3,0.0,55.0,5.0,236.35333333333335,1.0,0.0,0.0,0.0,0.0,0.0,0.0,0.0,0.05699999999999861,0.05699999999999861,0.0,0.0,1.0,55.0,616.79921,10000.0,85.000001,85.000001,85.000001,85.000001,395.0,0.0,0.0,0.0,1.0,333.33500000000004,53.528,53.528,48.203,48.203,34.0,-26.299999999999997,18.278,-34.233333333333334,29.7525,0.0,1782.867,0.8399999999999999,100.0,27.679000000000002,27.034,42.683,41.789,0.0,0.0,100.0,0.0,0.0,0.0,0.0,3035.857142857143,2698.5,4346.125,4731.9,305.503,306.26725,314.144,313.07375,21.7946,20.5196,21.785,21.3271,314.999998,314.999998,324.999988,324.999988,99.5592,99.5072,99.56538571428571,99.54551428571429,-0.006000000000000005,-0.135,-0.17466666666666666,0.044833333333333336,-0.030000000000001137,-0.058571428571426054,1.4013333333333333,1.462,37.216,29.247500000000002,37.156,34.2945,56.354,34.510999999999996,59.124,51.743,54.266999999999996,33.6685,57.7475,50.0945,53.434,33.2185,57.7085,49.516666666666666,-0.007000000000000006,-0.14200000000000013,0.097475,0.11331000000000001,0.0,205.72,205.64,202.38333333333333,202.38333333333333,0.0,0.0
2,0.0,0.0,0.0,1.0,1.0,0.0,0.0,1.0,0.0,100.0,1.0,1.1856,26.0,0.0,0.0,0.0,59.999996,0.0,26.0,26.0,26.0,26.0,-0.148,0.2982,-0.0651,293.716,-2.6127,-2.785625,-1.49915,-1.5977000000000001,-268.68,216.28,190.946875,0.0,0.0,0.0,0.0,0.005666666666666598,-5.498166666666667,-5.498166666666667,-0.5509000000000001,0.355,-0.03544444444444439,2.499,65.812,-0.07490000000000001,-0.25470000000000004,1.532,100.0,1.0,1.0,203.36,0.0,0.0,0.0,0.0,0.0,0.0,0.0,8619.8,0.0,55.0,5.0,236.89333333333332,0.0,0.0,0.0,0.0,0.0,0.0,0.0,0.0,0.11100000000000065,0.11100000000000065,0.0,0.0,0.0,55.0,616.79921,10000.0,85.000001,85.000001,85.000001,85.000001,395.0,0.0,0.0,0.0,1.0,166.665,52.368,52.368,50.247,50.247,34.0,-29.049999999999997,20.817999999999998,-28.766666666666666,20.552500000000002,0.0,1782.814,0.6900000000000013,100.0,28.432,26.961,42.41,41.305,0.0,0.0,100.0,0.0,0.0,0.0,0.0,3252.285714285714,3051.7,3695.125,3758.2,304.7605,305.19025,315.7885,315.60475,21.8054,20.5249,21.796,21.3363,314.999998,314.999998,324.999988,324.999988,99.55921428571429,99.50721666666666,99.56551428571429,99.54565714285714,-0.020333333333333314,-0.1459999999999999,-0.221,0.010833333333333334,-0.061666666666667425,-0.0714285714285694,1.6416666666666666,1.711,37.284,29.2805,37.224999999999994,34.352000000000004,56.341,34.5535,59.1635,51.803,54.254000000000005,33.707499999999996,57.7845,50.152,53.42,33.256,57.742,49.57333333333334,-0.022499999999999964,-0.12850000000000006,0.10788,0.10729000000000001,0.0,206.23000000000002,206.085,203.36,203.36,0.0,0.0
3,0.0,0.0,0.0,1.0,1.0,0.0,0.0,1.0,0.0,100.0,1.0,1.1856,26.0,0.0,0.0,0.0,59.999996,0.0,26.0,26.0,26.0,26.0,-0.139625,0.30730000000000013,-0.0327,293.51800000000003,-2.7294,-2.691125,-1.5096,-1.5911,-265.71,216.26999999999998,190.9295,0.0,0.0,0.0,0.0,0.007399999999999962,-5.498166666666667,-5.498166666666667,-0.5087,0.5389999999999999,-0.01200000000000001,-0.9460000000000002,65.947,-0.0864,-0.19975,1.234,100.0,1.0,1.0,203.45,0.0,0.0,0.0,0.0,0.0,0.0,0.0,8623.6,0.0,55.0,5.0,237.38,1.0,0.0,0.0,0.0,0.0,0.0,0.0,0.0,0.1559999999999988,0.1559999999999988,0.0,0.0,1.0,55.0,616.79921,10000.0,85.000001,85.000001,85.000001,85.000001,395.0,0.0,0.0,0.0,1.0,166.665,53.65,53.65,48.203,48.203,34.0,-25.7725,17.802,-35.736666666666665,24.1075,0.0,1782.77,0.5899999999999999,100.0,27.859,27.069,42.301,41.43,0.0,0.0,100.0,0.0,0.0,0.0,0.0,2864.714285714286,2765.2,4358.0,4200.7,306.096,305.83775,314.24525,314.397,21.814,20.5295,21.8052,21.3442,314.999998,314.999998,324.999988,324.999988,99.55921428571429,99.50723333333333,99.56565714285715,99.54578571428571,-0.020333333333333314,-0.1519999999999999,-0.21583333333333335,0.008166666666666666,-0.04333333333332945,-0.030000000000001137,1.48,1.5305,37.338,29.308999999999997,37.283,34.400999999999996,56.325,34.5905,59.198499999999996,51.858000000000004,54.239000000000004,33.742,57.817,50.205,53.405,33.2885,57.7725,49.625,-0.03600000000000003,-0.11650000000000005,0.105205,0.108505,0.0,206.62,206.51999999999998,203.45,203.45,0.0,0.0
4,0.0,0.0,0.0,1.0,1.0,0.0,0.0,1.0,0.0,100.0,1.0,1.1856,26.0,0.0,0.0,0.0,59.999996,0.0,26.0,26.0,26.0,26.0,-0.146625,0.29090000000000016,-0.030325,293.655,-2.6609,-2.744875,-1.52715,-1.5965,-262.35,216.255,190.90975,0.0,0.0,0.0,0.0,0.009333333333333305,-5.498166666666667,-5.498166666666667,-0.5445,-0.8285,-0.07533333333333347,-0.5310000000000001,66.093,-0.0862,-0.236775,1.0540000000000003,100.0,1.0,1.0,204.05,0.0,0.0,0.0,0.0,0.0,0.0,0.0,8648.9,0.0,55.0,5.0,237.90666666666667,0.0,0.0,0.0,0.0,0.0,0.0,0.0,0.0,0.20700000000000074,0.20700000000000074,0.0,0.0,0.0,55.0,616.79921,10000.0,85.000001,85.000001,85.000001,85.000001,395.0,0.0,0.0,0.0,1.0,333.33500000000004,53.085,53.085,48.843,48.843,34.0,-28.552500000000002,20.54,-31.61,21.185000000000002,0.0,1782.718,0.5899999999999999,100.0,27.748,26.712,42.858000000000004,41.458,0.0,0.0,100.0,0.0,0.0,0.0,0.0,3205.4285714285716,2990.4,4032.375,3695.9,305.1105,305.3565,314.92175,315.638,21.8237,20.5346,21.8158,21.353,314.999998,314.999998,324.999988,324.999988,99.55921428571429,99.50725,99.5658,99.54592857142858,-0.016666666666666607,-0.133,-0.1955,0.02383333333333333,-0.045000000000001705,-0.05714285714285694,1.555,1.611,37.397999999999996,29.341,37.349000000000004,34.4565,56.307,34.6315,59.2405,51.917,54.222,33.78,57.856,50.260999999999996,53.387,33.325,57.8085,49.68033333333334,-0.02949999999999997,-0.1140000000000001,0.10319500000000001,0.10527,0.0,207.05,206.96,204.05,204.05,0.0,0.0
5,0.0,0.0,0.0,1.0,1.0,0.0,0.0,1.0,0.0,100.0,1.0,1.1856,26.0,0.0,0.0,0.0,59.999996,0.0,26.0,26.0,26.0,26.0,-0.129875,0.2964,-0.006875,293.64,-2.6741,-2.76325,-1.5108000000000001,-1.5848,-258.97,216.235,190.889375,0.0,0.0,0.0,0.0,0.011299999999999977,-5.498166666666667,-5.498166666666667,-0.535,0.40249999999999997,-0.0822222222222222,-0.351,66.24000000000001,-0.08660000000000001,-0.2129,1.064,100.0,1.0,1.0,204.43333333333334,0.0,0.0,0.0,0.0,0.0,0.0,0.0,8665.2,0.0,55.0,5.0,238.43333333333334,1.0,0.0,0.0,0.0,0.0,0.0,0.0,0.0,0.2579999999999991,0.2579999999999991,0.0,0.0,1.0,55.0,616.79921,10000.0,85.000001,85.000001,85.000001,85.000001,395.0,0.0,0.0,0.0,1.0,333.33500000000004,53.452,53.452,48.92,48.92,34.0,-28.447499999999998,18.966,-34.07,22.5925,0.0,1782.665,0.28000000000000114,100.0,27.731,26.757,42.554,41.254,0.0,0.0,100.0,0.0,0.0,0.0,0.0,3203.4285714285716,2762.6,4201.125,4036.5,305.208,305.9265,314.66825,314.80575,21.8337,20.5396,21.8263,21.3618,314.999998,314.999998,324.999988,324.999988,99.55922857142858,99.50726666666667,99.56594285714286,99.54607142857142,-0.014333333333333309,-0.1346666666666667,-0.21916666666666665,0.004666666666666667,-0.05333333333332746,-0.02571428571428669,1.529,1.5635,37.461,29.372999999999998,37.414,34.510999999999996,56.293,34.6725,59.28,51.9745,54.208,33.817499999999995,57.8935,50.316,53.373000000000005,33.361,57.843,49.734,-0.05499999999999994,-0.09549999999999992,0.110935,0.10754000000000001,0.0,207.54500000000002,207.425,204.43333333333334,204.43333333333334,0.0,0.0
6,0.0,0.0,0.0,1.0,1.0,0.0,0.0,1.0,0.0,100.0,1.0,1.1856,26.0,0.0,0.0,0.0,59.999996,0.0,26.0,26.0,26.0,26.0,-0.09975,0.30510000000000015,-0.0102,293.427,-2.6436,-2.737375,-1.55585,-1.5828,-255.79,216.215,190.87,0.0,0.0,0.0,0.0,0.013166666666666549,-5.498166666666667,-5.498166666666667,-0.5305,0.07050000000000001,-0.062444444444444525,-0.43900000000000006,66.378,-0.083,-0.21445,0.7960000000000003,100.0,1.0,1.0,204.85666666666668,0.0,0.0,0.0,0.0,0.0,0.0,0.0,8683.1,0.0,55.0,5.0,238.93333333333334,0.0,0.0,0.0,0.0,0.0,0.0,0.0,0.0,0.30600000000000094,0.30600000000000094,0.0,0.0,0.0,55.0,616.79921,10000.0,85.000001,85.000001,85.000001,85.000001,395.0,0.0,0.0,0.0,1.0,333.33500000000004,53.131,53.131,48.706,48.706,34.0,-27.7175,20.316,-33.39333333333333,23.1475,0.0,1782.617,0.10000000000000142,100.0,27.668,26.889,42.698,41.619,0.0,0.0,100.0,0.0,0.0,0.0,0.0,3209.0,2906.3,4121.625,3989.0,305.139,305.445,314.8435,314.9195,21.843,20.5445,21.836199999999998,21.3702,314.999998,314.999998,324.999988,324.999988,99.55922857142858,99.50728333333333,99.56607142857143,99.5462,-0.0006666666666665932,-0.125,-0.209,0.02266666666666667,-0.054999999999999716,-0.048571428571428044,1.5356666666666667,1.5705,37.519,29.403,37.476,34.564,56.278,34.710499999999996,59.318,52.032,54.194,33.852000000000004,57.929,50.3715,53.358000000000004,33.3945,57.876,49.788,-0.07050000000000001,-0.07650000000000001,0.11345000000000001,0.11524500000000001,0.0,207.96,207.87,204.85666666666668,204.85666666666668,0.0,0.0
7,0.0,0.0,0.0,1.0,1.0,0.0,0.0,1.0,0.0,100.0,1.0,1.1856,26.0,0.0,0.0,0.0,59.999996,0.0,26.0,26.0,26.0,26.0,-0.066375,0.2865,0.014875000000000001,293.274,-2.6165,-2.747875,-1.5175,-1.6214,-252.2,216.19,190.848375,0.0,0.0,0.0,0.0,0.015233333333333321,-5.498166666666667,-5.498166666666667,-0.5338,0.040999999999999925,-0.04899999999999993,-0.2410000000000001,66.533,-0.0661,-0.22345,0.3639999999999999,100.0,1.0,1.0,205.31333333333333,0.0,0.0,0.0,0.0,0.0,0.0,0.0,8702.5,0.0,55.0,5.0,239.48666666666668,1.0,0.0,0.0,0.0,0.0,0.0,0.0,0.0,0.35999999999999943,0.35999999999999943,0.0,0.0,1.0,55.0,616.79921,10000.0,85.000001,85.000001,85.000001,85.000001,395.0,0.0,0.0,0.0,1.0,166.665,52.887,52.887,48.843,48.843,34.0,-26.689999999999998,21.607999999999997,-30.93,24.990000000000002,0.0,1782.565,-0.1999999999999993,100.0,27.792,26.987000000000002,42.713,41.883,0.0,0.0,100.0,0.0,0.0,0.0,0.0,3241.714285714286,2922.7,4055.875,4010.5,304.978,305.314,314.95725,314.80475,21.8535,20.55,21.8473,21.3797,314.999998,314.999998,324.999988,324.999988,99.55922857142858,99.5073,99.56622857142857,99.54634285714286,0.02666666666666684,-0.10033333333333316,-0.18116666666666667,0.042333333333333334,-0.051666666666669414,-0.04571428571428271,1.547,1.547,37.584,29.4375,37.546,34.6235,56.262,34.751999999999995,59.36,52.0965,54.179,33.8905,57.968,50.433,53.342,33.431,57.912,49.848333333333336,-0.09299999999999997,-0.05449999999999999,0.10443500000000001,0.10917500000000001,0.0,208.41,208.36,205.31333333333333,205.31333333333333,0.0,0.0
8,0.0,0.0,0.0,1.0,1.0,0.0,0.0,1.0,0.0,100.0,1.0,1.1856,26.0,0.0,0.0,0.0,59.999996,0.0,26.0,26.0,26.0,26.0,-0.042875,0.29069999999999996,-0.033925000000000004,293.457,-2.6983,-2.7135,-1.499,-1.5762,-249.0,216.16500000000002,190.829,0.0,0.0,0.0,0.0,0.017100000000000004,-5.498166666666667,-5.498166666666667,-0.535,-0.5130000000000001,-0.034222222222222154,-0.4990000000000001,66.67,-0.0472,-0.21475,0.02400000000000002,100.0,1.0,1.0,205.66,0.0,0.0,0.0,0.0,0.0,0.0,0.0,8717.2,0.0,55.0,5.0,239.98333333333335,0.0,0.0,0.0,0.0,0.0,0.0,0.0,0.0,0.40800000000000125,0.40800000000000125,0.0,0.0,0.0,55.0,616.79921,10000.0,85.000001,85.000001,85.000001,85.000001,395.0,0.0,0.0,0.0,1.0,166.665,53.68,53.68,48.126,48.126,34.0,-24.1575,21.684,-30.74,26.377499999999998,0.0,1782.518,-0.34499999999999886,100.0,27.376,26.905,42.725,41.999,0.0,0.0,100.0,0.0,0.0,0.0,0.0,2979.4285714285716,2901.4,4178.0,4094.9,305.8695,305.473,314.63025,314.584,21.8625,20.5548,21.8572,21.3882,314.999998,314.999998,324.999988,324.999988,99.55922857142858,99.5073,99.56635714285714,99.54647142857142,0.04166666666666696,-0.08399999999999985,-0.15666666666666665,0.067,-0.02833333333332888,-0.054285714285711606,1.5183333333333333,1.5265,37.641,29.4675,37.608000000000004,34.676,56.245999999999995,34.788,59.3975,52.153,54.164,33.924,58.0025,50.4875,53.326,33.463,57.944,49.901666666666664,-0.09699999999999998,-0.04600000000000004,0.10610000000000001,0.11543500000000001,0.0,208.8,208.79500000000002,205.66,205.66,0.0,0.0
9,0.0,0.0,0.0,1.0,1.0,0.0,0.0,1.0,0.0,100.0,1.0,1.1856,26.0,0.0,0.0,0.0,59.999996,0.0,26.0,26.0,26.0,26.0,-0.02775,0.2914000000000001,0.041425000000000003,293.076,-2.6217,-2.722375,-1.5545499999999999,-1.5556,-245.6,216.14,190.807875,0.0,0.0,0.0,0.0,0.019066666666666565,-5.498166666666667,-5.498166666666667,-0.5393,0.7444999999999999,-0.032222222222222374,0.893,66.812,-0.028800000000000003,-0.21375000000000002,-0.18200000000000038,100.0,1.0,1.0,206.21,0.0,0.0,0.0,0.0,0.0,0.0,0.0,8740.5,0.0,55.0,5.0,240.49666666666667,1.0,0.0,0.0,0.0,0.0,0.0,0.0,0.0,0.45899999999999963,0.45899999999999963,0.0,0.0,1.0,55.0,616.79921,10000.0,85.000001,85.000001,85.000001,85.000001,395.0,0.0,0.0,0.0,1.0,166.665,52.383,52.383,49.072,49.072,34.0,-24.695,24.746000000000002,-28.786666666666665,27.3,0.0,1782.467,-0.5749999999999993,100.0,28.045,27.211,42.439,41.916,0.0,0.0,100.0,0.0,0.0,0.0,0.0,3251.142857142857,3092.3,4017.375,4122.4,304.8225,304.99075,315.10625,314.69425,21.8724,20.560200000000002,21.8676,21.397100000000002,314.999998,314.999998,324.999988,324.999988,99.55924285714286,99.50731666666667,99.5665,99.54662857142857,0.07766666666666655,-0.04933333333333323,-0.13816666666666666,0.09383333333333332,-0.045000000000001705,-0.06714285714285495,1.572,1.571,37.702,29.5015,37.672,34.732,56.233000000000004,34.8275,59.4335,52.2125,54.150999999999996,33.96,58.036500000000004,50.5445,53.313,33.4975,57.9745,49.95733333333334,-0.11749999999999994,-0.033500000000000085,0.10966000000000001,0.11275500000000001,0.0,209.275,209.26999999999998,206.21,206.21,0.0,0.0
10,0.0,0.0,0.0,1.0,1.0,0.0,0.0,1.0,0.0,100.0,1.0,1.1856,26.0,0.0,0.0,0.0,59.999996,0.0,26.0,26.0,26.0,26.0,0.0105,0.29720000000000013,0.051175000000000005,292.969,-2.6606,-2.710125,-1.53415,-1.5361,-242.39,216.1125,190.788375,0.0,0.0,0.0,0.0,0.02093333333333336,-5.498166666666667,-5.498166666666667,-0.5198,-0.5449999999999999,0.00922222222222202,1.787,66.951,-0.006200000000000001,-0.20570000000000002,-0.597999999999999,100.0,1.0,1.0,206.43666666666667,0.0,0.0,0.0,0.0,0.0,0.0,0.0,8750.0,0.0,55.0,5.0,240.99333333333334,0.0,0.0,0.0,0.0,0.0,0.0,1.0,0.0,0.5069999999999979,0.5069999999999979,0.0,0.0,0.0,55.0,616.79921,10000.0,85.000001,85.000001,85.000001,85.000001,395.0,0.0,0.0,0.0,1.0,333.33500000000004,53.482,53.482,47.592,47.592,34.0,-20.349999999999998,23.857999999999997,-29.099999999999998,30.650000000000002,0.0,1782.416,-0.5749999999999993,100.0,27.806,27.15,42.926,42.617000000000004,0.0,0.0,100.0,0.0,0.0,0.0,0.0,2808.714285714286,2971.4,4241.5,4339.0,306.2045,305.44025,314.40025,314.09525,21.8815,20.5651,21.8776,21.4058,314.999998,314.999998,324.999988,324.999988,99.55925714285715,99.50731666666667,99.56664285714285,99.54677142857143,0.09699999999999998,-0.03866666666666663,-0.101,0.11800000000000001,-0.03999999999999915,-0.05285714285714249,1.486,1.4625,37.759,29.532,37.735,34.786,56.219,34.8635,59.475,52.275999999999996,54.138,33.9935,58.0745,50.606,53.299,33.53,58.01,50.01733333333333,-0.12349999999999994,-0.026999999999999913,0.10908000000000001,0.10775000000000001,0.0,209.655,209.7,206.43666666666667,206.43666666666667,0.0,0.0
11,0.0,0.0,0.0,1.0,1.0,0.0,0.0,1.0,0.0,100.0,1.0,1.1856,26.0,0.0,0.0,0.0,59.999996,0.0,26.0,26.0,26.0,26.0,0.054125,0.26639999999999997,-0.09475,293.51800000000003,-2.709,-2.6825,-1.5925,-1.5229,-238.97,216.085,190.767625,0.0,0.0,0.0,0.0,0.022599999999999953,-5.498166666666667,-5.498166666666667,-0.5608000000000001,-0.16399999999999992,0.032444444444444276,-0.6419999999999999,67.089,0.015000000000000001,-0.23685,-0.5899999999999999,100.0,1.0,1.0,207.18666666666667,0.0,0.0,0.0,0.0,0.0,0.0,0.0,8781.8,0.0,55.0,5.0,241.49333333333334,1.0,0.0,0.0,0.0,0.0,0.0,1.0,0.0,0.5579999999999998,0.5579999999999998,0.0,0.0,1.0,55.0,616.79921,10000.0,85.000001,85.000001,85.000001,85.000001,395.0,0.0,0.0,0.0,1.0,333.33500000000004,52.826,52.826,49.24,49.24,34.0,-22.6375,25.742,-24.436666666666664,27.07,0.0,1782.365,-0.5999999999999979,100.0,27.419,27.55,42.327,42.620000000000005,0.0,0.0,100.0,0.0,0.0,0.0,0.0,3089.142857142857,3095.5,3705.75,3858.6,305.555,304.82175,315.88175,315.25625,21.8911,20.5706,21.8879,21.4147,314.999998,314.999998,324.999988,324.999988,99.55927142857144,99.50731666666667,99.56678571428571,99.5469,0.10466666666666669,-0.022333333333333316,-0.097,0.14333333333333334,-0.03166666666666629,-0.04714285714285893,1.642,1.608,37.819,29.566,37.799,34.842,56.206,34.8995,59.5065,52.332,54.125,34.0265,58.104,50.6595,53.285,33.5615,58.036500000000004,50.07,-0.123,-0.02750000000000008,0.109645,0.111255,0.0,210.065,210.10000000000002,207.18666666666667,207.18666666666667,0.0,0.0
12,0.0,0.0,0.0,1.0,1.0,0.0,0.0,1.0,0.0,100.0,1.0,1.1856,26.0,0.0,0.0,0.0,59.999996,0.0,26.0,26.0,26.0,26.0,0.060875,0.29110000000000014,0.03005,292.938,-2.7621,-2.6799999999999997,-1.5524499999999999,-1.5241,-235.75,216.06,190.746875,0.0,0.0,0.0,0.0,0.025466666666666526,-5.498166666666667,-5.498166666666667,-0.5447000000000001,0.2855,0.016555555555555657,-0.9210000000000003,67.226,0.031,-0.20547500000000002,-0.6619999999999999,100.0,1.0,1.0,207.36333333333334,0.0,0.0,0.0,0.0,0.0,0.0,0.0,8789.3,0.0,55.0,5.0,241.98666666666668,0.0,0.0,0.0,0.0,0.0,0.0,1.0,0.0,0.6059999999999981,0.6059999999999981,0.0,0.0,0.0,55.0,616.79921,10000.0,85.000001,85.000001,85.000001,85.000001,395.0,0.0,0.0,0.0,1.0,333.33500000000004,52.841,52.841,47.897,47.897,34.0,-22.8975,26.006,-27.316666666666663,30.2325,0.0,1782.318,-0.6449999999999996,100.0,27.295,27.716,42.255,42.594,0.0,0.0,100.0,0.0,0.0,0.0,0.0,3131.857142857143,3091.3,4241.875,4170.4,305.47,304.858,314.58075,314.47375,21.9001,20.5757,21.8977,21.4232,314.999998,314.999998,324.999988,324.999988,99.55928571428572,99.50731666666667,99.56691428571429,99.54702857142857,0.11733333333333373,-0.013666666666666716,-0.07,0.14300000000000002,-0.05333333333332746,-0.04571428571428271,1.5226666666666666,1.505,37.876000000000005,29.598,37.861000000000004,34.894999999999996,56.194,34.935,59.542,52.388999999999996,54.113,34.0595,58.1375,50.7145,53.272,33.593,58.067,50.124,-0.12649999999999995,-0.02950000000000008,0.10285000000000001,0.10017500000000001,0.0,210.505,210.555,207.36333333333334,207.36333333333334,0.0,0.0
13,0.0,0.0,0.0,1.0,1.0,0.0,0.0,1.0,0.0,100.0,1.0,1.1856,26.0,0.0,0.0,0.0,59.999996,0.0,26.0,26.0,26.0,26.0,0.079375,0.2895000000000001,0.055425,292.587,-2.7346,-2.67675,-1.58905,-1.5096,-232.32,216.035,190.725125,0.0,0.0,0.0,0.0,0.026799999999999935,-5.498166666666667,-5.498166666666667,-0.5386000000000001,-0.08099999999999996,0.023555555555555552,1.1280000000000001,67.369,0.0388,-0.2144,-0.8360000000000003,100.0,1.0,1.0,207.75333333333333,0.0,0.0,0.0,0.0,0.0,0.0,0.0,8805.8,0.0,55.0,5.0,242.5,1.0,0.0,0.0,0.0,0.0,0.0,1.0,0.0,0.657,0.657,0.0,0.0,1.0,55.0,616.79921,10000.0,85.000001,85.000001,85.000001,85.000001,395.0,0.0,0.0,0.0,1.0,333.33500000000004,52.536,52.536,47.928,47.928,34.0,-21.0875,28.018,-26.136666666666663,33.2475,0.0,1782.267,-0.8200000000000003,100.0,27.785,27.738,42.567,42.972,0.0,0.0,100.0,0.0,0.0,0.0,0.0,3054.142857142857,3184.4,4143.0,4359.1,305.491,304.743,314.69525,314.08425,21.9098,20.5812,21.9082,21.4324,314.999998,314.999998,324.999988,324.999988,99.5593,99.50731666666667,99.56705714285714,99.54718571428572,0.1436666666666664,0.019000000000000128,-0.049,0.17183333333333334,-0.03166666666666629,-0.058571428571426054,1.516,1.482,37.936,29.6325,37.927,34.9525,56.183,34.973,59.5805,52.4525,54.102999999999994,34.095,58.173,50.7755,53.260999999999996,33.626999999999995,58.0995,50.184,-0.14100000000000001,-0.007500000000000062,0.099945,0.11339,0.0,210.95,210.99,207.75333333333333,207.75333333333333,0.0,0.0
14,0.0,0.0,0.0,1.0,1.0,0.0,0.0,1.0,0.0,100.0,1.0,1.1856,26.0,0.0,0.0,0.0,59.999996,0.0,26.0,26.0,26.0,26.0,0.09775,0.2825,-0.01105,292.816,-2.7433,-2.61225,-1.6017000000000001,-1.5097,-228.88,216.0125,190.703875,0.0,0.0,0.0,0.0,0.028799999999999937,-5.498166666666667,-5.498166666666667,-0.5491,-0.1765000000000001,0.05288888888888876,-0.12300000000000022,67.508,0.0468,-0.22840000000000002,-0.927999999999999,100.0,1.0,1.0,208.2733333333333,0.0,0.0,0.0,0.0,0.0,0.0,0.0,8828.0,0.0,55.0,5.0,243.00333333333333,0.0,0.0,0.0,0.0,0.0,0.0,1.0,0.0,0.7079999999999984,0.7079999999999984,0.0,0.0,0.0,55.0,616.79921,10000.0,85.000001,85.000001,85.000001,85.000001,395.0,0.0,0.0,0.0,1.0,333.33500000000004,52.643,52.643,48.141,48.141,34.0,-20.485,27.59,-25.733333333333334,31.025000000000002,0.0,1782.216,-1.0150000000000006,100.0,27.515,27.993,42.406,43.285,0.0,0.0,100.0,0.0,0.0,0.0,0.0,3030.285714285714,3169.3,3991.125,4159.4,305.7435,304.627,315.143,314.5015,21.9194,20.5867,21.9187,21.4415,314.999998,314.999998,324.999988,324.999988,99.55931428571428,99.50733333333334,99.5672,99.54732857142857,0.1506666666666665,0.02066666666666661,-0.06483333333333333,0.16616666666666666,-0.04333333333332945,-0.054285714285711606,1.55,1.5314999999999999,37.995999999999995,29.667,37.992000000000004,35.0095,56.173,35.010999999999996,59.6165,52.515,54.093,34.129999999999995,58.2065,50.835499999999996,53.25,33.661,58.129999999999995,50.243,-0.15949999999999998,0.0020000000000000018,0.11183000000000001,0.10970500000000001,0.0,211.35500000000002,211.44,208.2733333333333,208.2733333333333,0.0,0.0
15,0.0,0.0,0.0,1.0,1.0,0.0,0.0,1.0,0.0,100.0,1.0,1.1856,26.0,0.0,0.0,0.0,59.999996,0.0,26.0,26.0,26.0,26.0,0.1205,0.2913000000000001,-0.042175000000000004,292.847,-2.7133,-2.5718750000000004,-1.6255000000000002,-1.453,-225.63,215.9925,190.683625,0.0,0.0,0.0,0.0,0.03069999999999995,-5.498166666666667,-5.498166666666667,-0.5394,0.29100000000000004,0.08033333333333315,-0.3450000000000002,67.64,0.0616,-0.2097,-1.162,100.0,1.0,1.0,208.66,0.0,0.0,0.0,0.0,0.0,0.0,0.0,8844.3,0.0,55.0,5.0,243.47666666666666,1.0,0.0,0.0,0.0,0.0,0.0,1.0,0.0,0.7560000000000002,0.7560000000000002,0.0,0.0,1.0,55.0,616.79921,10000.0,85.000001,85.000001,85.000001,85.000001,395.0,0.0,0.0,0.0,1.0,333.33500000000004,52.856,52.856,48.172,48.172,34.0,-18.7025,27.336,-24.52,32.79,0.0,1782.167,-1.004999999999999,100.0,27.534,28.039,42.185,43.366,0.0,0.0,100.0,0.0,0.0,0.0,0.0,2880.285714285714,3133.4,3989.75,4329.1,306.1325,304.72575,315.181,314.112,21.9283,20.592,21.9284,21.4501,314.999998,314.999998,324.999988,324.999988,99.55932857142857,99.50733333333334,99.56734285714286,99.54745714285714,0.16066666666666674,0.031333333333333435,-0.035166666666666666,0.18466666666666667,-0.05333333333332746,-0.05142857142857338,1.5466666666666666,1.514,38.052,29.7,38.053,35.0635,56.164,35.0475,59.6495,52.574,54.084,34.164,58.237,50.8925,53.239999999999995,33.6935,58.1575,50.29866666666666,-0.15549999999999997,0.0050000000000000044,0.09916000000000001,0.11095000000000001,0.0,211.79000000000002,211.86,208.66,208.66,0.0,0.0
16,0.0,0.0,0.0,1.0,1.0,0.0,0.0,1.0,0.0,100.0,1.0,1.1856,26.0,0.0,0.0,0.0,59.999996,0.0,26.0,26.0,26.0,26.0,0.137625,0.27280000000000015,-0.044675,292.786,-2.8047,-2.583875,-1.5991,-1.5144000000000002,-221.98,215.975,190.660125,0.0,0.0,0.0,0.0,0.03283333333333338,-5.498166666666667,-5.498166666666667,-0.5626,-0.6640000000000001,0.06611111111111101,-1.093,67.788,0.0752,-0.2267,-1.1559999999999997,100.0,1.0,1.0,209.12666666666667,0.0,0.0,0.0,0.0,0.0,0.0,0.0,8864.1,0.0,55.0,5.0,244.01,0.0,0.0,0.0,0.0,0.0,0.0,1.0,0.0,0.8099999999999987,0.8099999999999987,0.0,0.0,0.0,55.0,616.79921,10000.0,85.000001,85.000001,85.000001,85.000001,395.0,0.0,0.0,0.0,1.0,166.665,52.536,52.536,47.974000000000004,47.974000000000004,34.0,-20.8925,28.924,-23.053333333333335,32.57,0.0,1782.116,-0.9050000000000011,100.0,27.237000000000002,28.158,42.457,43.501,0.0,0.0,100.0,0.0,0.0,0.0,0.0,3081.4285714285716,3242.6,3936.0,4093.9,305.7255,304.44225,315.2795,314.638,21.9381,20.5979,21.9395,21.4598,314.999998,314.999998,324.999988,324.999988,99.55934285714285,99.50735,99.56748571428571,99.54761428571429,0.16066666666666674,0.04200000000000026,-0.021333333333333333,0.20633333333333334,-0.036666666666668846,-0.04714285714285893,1.566,1.525,38.113,29.737000000000002,38.122,35.124,56.149,35.0895,59.689499999999995,52.6395,54.071,34.2025,58.274,50.9555,53.225,33.731,58.191,50.361000000000004,-0.14949999999999997,-0.00550000000000006,0.104205,0.115845,0.0,212.195,212.29500000000002,209.12666666666667,209.12666666666667,0.0,0.0
17,0.0,0.0,0.0,1.0,1.0,0.0,0.0,1.0,0.0,100.0,1.0,1.1856,26.0,0.0,0.0,0.0,59.999996,0.0,26.0,26.0,26.0,26.0,0.122125,0.29510000000000014,-0.006900000000000001,292.358,-2.7599,-2.566125,-1.6403500000000002,-1.4783,-218.51,215.96,190.637625,0.0,0.0,0.0,0.0,0.03483333333333338,-5.498166666666667,-5.498166666666667,-0.5481,0.45599999999999996,0.048666666666666636,0.861,67.928,0.07930000000000001,-0.20485,-1.1720000000000006,100.0,1.0,1.0,209.47333333333333,0.0,0.0,0.0,0.0,0.0,0.0,0.0,8878.8,0.0,55.0,5.0,244.51,1.0,0.0,0.0,0.0,0.0,0.0,1.0,0.0,0.8610000000000007,0.8610000000000007,0.0,0.0,1.0,55.0,616.79921,10000.0,85.000001,85.000001,85.000001,85.000001,395.0,0.0,0.0,0.0,1.0,166.665,52.383,52.383,47.577,47.577,34.0,-18.965,28.262,-26.06,35.0175,0.0,1782.064,-0.9849999999999994,100.0,27.867,28.262999999999998,42.396,43.414,0.0,0.0,100.0,0.0,0.0,0.0,0.0,2998.857142857143,3184.5,4267.875,4382.7,305.7015,304.76925,314.52225,314.0955,21.9477,20.6036,21.9499,21.469,314.999998,314.999998,324.999988,324.999988,99.55937142857142,99.50735,99.56762857142857,99.54777142857142,0.18766666666666643,0.04899999999999993,-0.02,0.21133333333333335,-0.030000000000001137,-0.04999999999999716,1.531,1.491,38.173,29.7725,38.187,35.181,56.141999999999996,35.1305,59.725,52.701499999999996,54.063,34.2405,58.307,51.0155,53.216,33.7675,58.221000000000004,50.419666666666664,-0.15349999999999997,-0.006000000000000005,0.11176000000000001,0.105605,0.0,212.67000000000002,212.755,209.47333333333333,209.47333333333333,0.0,0.0
18,0.0,0.0,0.0,1.0,1.0,0.0,0.0,1.0,0.0,100.0,1.0,1.1856,26.0,0.0,0.0,0.0,59.999996,0.0,26.0,26.0,26.0,26.0,0.11950000000000001,0.29610000000000003,-0.008825000000000001,292.358,-2.7959,-2.5398750000000003,-1.65735,-1.4213,-215.25,215.95,190.6165,0.0,0.0,0.0,0.0,0.036733333333333396,-5.498166666666667,-5.498166666666667,-0.5608000000000001,-0.46650000000000014,0.07422222222222219,1.087,68.05799999999999,0.0821,-0.224425,-1.322,100.0,1.0,1.0,209.91,0.0,0.0,0.0,0.0,0.0,0.0,0.0,8897.4,0.0,55.0,5.0,244.98000000000002,0.0,0.0,0.0,0.0,0.0,0.0,1.0,0.0,0.9089999999999989,0.9089999999999989,0.0,0.0,0.0,55.0,616.79921,10000.0,85.000001,85.000001,85.000001,85.000001,395.0,0.0,0.0,0.0,1.0,166.665,52.2,52.2,47.607,47.607,34.0,-19.1475,31.032,-24.086666666666666,32.7525,0.0,1782.017,-1.3049999999999997,100.0,27.625,28.16,42.664,43.794,0.0,0.0,100.0,0.0,0.0,0.0,0.0,3015.0,3418.6,4012.5,4253.3,305.7095,304.09,315.0945,314.3775,21.9565,20.6089,21.9598,21.4777,314.999998,314.999998,324.999988,324.999988,99.5594,99.50735,99.56775714285715,99.54791428571428,0.19266666666666676,0.06366666666666676,-0.014,0.20783333333333334,-0.03833333333332689,-0.0628571428571405,1.5516666666666667,1.5150000000000001,38.227999999999994,29.805500000000002,38.248000000000005,35.2355,56.132,35.1685,59.76,52.7615,54.054,34.275999999999996,58.3395,51.073499999999996,53.206,33.8015,58.2505,50.476333333333336,-0.16949999999999998,0.017000000000000015,0.10394500000000001,0.10773,0.0,213.03,213.135,209.91,209.91,0.0,0.0
19,0.0,0.0,0.0,1.0,1.0,0.0,0.0,1.0,0.0,100.0,1.0,1.1856,26.0,0.0,0.0,0.0,59.999996,0.0,26.0,26.0,26.0,26.0,0.17225000000000001,0.2873000000000001,0.053925,291.885,-2.7202,-2.632625,-1.67665,-1.4019,-211.78,215.9425,190.593875,0.0,0.0,0.0,0.0,0.0387333333333334,-5.498166666666667,-5.498166666666667,-0.5471,0.808,0.0855555555555556,-0.5110000000000001,68.196,0.0916,-0.2093,-1.6420000000000003,100.0,1.0,1.0,210.28333333333333,0.0,0.0,0.0,0.0,0.0,0.0,0.0,8913.1,0.0,55.0,5.0,245.47333333333336,1.0,0.0,0.0,0.0,0.0,0.0,1.0,0.0,0.9600000000000009,0.9600000000000009,0.0,0.0,1.0,55.0,616.79921,10000.0,85.000001,85.000001,85.000001,85.000001,395.0,0.0,0.0,0.0,1.0,166.665,51.757999999999996,51.757999999999996,47.302,47.302,34.0,-17.419999999999998,31.11,-25.353333333333335,35.665,0.0,1781.966,-1.5549999999999997,100.0,27.936,28.867,42.333,43.949,0.0,0.0,100.0,0.0,0.0,0.0,0.0,3061.285714285714,3229.4,4241.0,4485.6,305.5795,304.25025,314.65925,313.78925,21.966,20.6147,21.9701,21.4869,314.999998,314.999998,324.999988,324.999988,99.55941428571428,99.50736666666667,99.56791428571428,99.54805714285715,0.22266666666666657,0.07900000000000018,-0.0026666666666666666,0.22283333333333336,-0.045000000000001705,-0.04999999999999716,1.5323333333333333,1.4865,38.287,29.842,38.313,35.293,56.126000000000005,35.2125,59.7945,52.8245,54.048,34.317,58.3715,51.1345,53.198,33.8405,58.2795,50.53633333333333,-0.19999999999999996,0.04349999999999998,0.09814500000000001,0.11107500000000001,0.0,213.5,213.60500000000002,210.28333333333333,210.28333333333333,0.0,0.0
20,0.0,0.0,0.0,1.0,1.0,0.0,0.0,1.0,0.0,100.0,1.0,1.1856,26.0,0.0,0.0,0.0,59.999996,0.0,26.0,26.0,26.0,26.0,0.214125,0.2574000000000001,0.042975,292.358,-2.8246,-2.582,-1.61135,-1.5141,-208.29,215.9375,190.571625,0.0,0.0,0.0,0.0,0.04076666666666651,-5.498166666666667,-5.498166666666667,-0.5594,-1.3125,0.09866666666666668,0.53,68.334,0.10640000000000001,-0.226525,-2.0919999999999996,100.0,1.0,1.0,210.66666666666669,0.0,0.0,0.0,0.0,0.0,0.0,0.0,8929.4,0.0,55.0,5.0,245.97333333333336,0.0,0.0,0.0,0.0,0.0,0.0,0.0,0.0,1.0109999999999992,1.0109999999999992,0.0,0.0,0.0,55.0,616.79921,10000.0,85.000001,85.000001,85.000001,85.000001,395.0,0.0,0.0,0.0,1.0,166.665,52.673,52.673,47.104,47.104,34.0,-15.695,32.42,-21.596666666666664,37.4225,0.0,1781.914,-1.8150000000000013,100.0,27.417,28.4,42.832,44.336,0.0,0.0,100.0,0.0,0.0,0.0,0.0,2804.142857142857,3307.3,3992.625,4312.3,306.411,304.3945,315.036,314.12,21.975,20.6204,21.9806,21.496299999999998,314.999998,314.999998,324.999988,324.999988,99.55944285714286,99.50738333333334,99.56805714285714,99.54821428571428,0.2443333333333335,0.11433333333333362,0.022833333333333334,0.2515,-0.026666666666670835,-0.05571428571428072,1.5386666666666666,1.4449999999999998,38.344,29.877499999999998,38.379000000000005,35.352000000000004,56.116,35.256,59.833,52.89,54.037,34.357,58.407,51.1975,53.187,33.8795,58.312,50.598333333333336,-0.21899999999999997,0.06599999999999995,0.10329,0.11094000000000001,0.0,213.84,214.0,210.66666666666669,210.66666666666669,0.0,0.0
21,0.0,0.0,0.0,1.0,1.0,0.0,0.0,1.0,0.0,100.0,1.0,1.1856,26.0,0.0,0.0,0.0,59.999996,0.0,26.0,26.0,26.0,26.0,0.218,0.2771000000000001,-0.073975,292.603,-2.752,-2.621,-1.6825999999999999,-1.4668,-205.22,215.94,190.551125,0.0,0.0,0.0,0.0,0.04256666666666653,-5.498166666666667,-5.498166666666667,-0.5801000000000001,0.5155000000000001,0.08722222222222209,-0.9130000000000003,68.45,0.1268,-0.22712500000000002,-2.136,100.0,1.0,1.0,211.25666666666666,0.0,0.0,0.0,0.0,0.0,0.0,0.0,8954.4,0.0,55.0,5.0,246.39333333333335,1.0,0.0,0.0,0.0,0.0,0.0,0.0,0.0,1.056000000000001,1.056000000000001,0.0,0.0,1.0,55.0,616.79921,10000.0,85.000001,85.000001,85.000001,85.000001,395.0,0.0,0.0,0.0,1.0,333.33500000000004,52.139,52.139,48.294,48.294,34.0,-18.18,30.214,-20.866666666666664,34.462500000000006,0.0,1781.867,-1.0700000000000003,100.0,27.572,28.822,42.019999999999996,43.998000000000005,0.0,0.0,100.0,0.0,0.0,0.0,0.0,3008.4285714285716,3216.8,3911.5,4084.2,305.7945,304.402,315.46525,314.76375,21.9833,20.6256,21.9895,21.5043,314.999998,314.999998,324.999988,324.999988,99.55947142857143,99.5074,99.56818571428572,99.54834285714286,0.20299999999999985,0.06700000000000017,0.034666666666666665,0.2656666666666667,-0.041666666666671404,-0.044285714285713595,1.6326666666666667,1.5525,38.394999999999996,29.91,38.435,35.402,56.11,35.297,59.8605,52.943,54.032,34.394999999999996,58.4325,51.2485,53.18,33.916,58.3345,50.649,-0.16600000000000004,0.005499999999999949,0.10805500000000001,0.103745,0.0,214.235,214.4,211.25666666666666,211.25666666666666,0.0,0.0
22,0.0,0.0,0.0,1.0,1.0,0.0,0.0,1.0,0.0,100.0,1.0,1.1856,26.0,0.0,0.0,0.0,59.999996,0.0,26.0,26.0,26.0,26.0,0.15887500000000002,0.25839999999999996,0.006625000000000001,292.16,-2.7307,-2.62975,-1.66485,-1.4663,-201.72,215.9475,190.5275,0.0,0.0,0.0,0.0,0.04459999999999997,-5.498166666666667,-5.498166666666667,-0.5574,0.08550000000000002,0.08644444444444432,0.774,68.589,0.1345,-0.20775000000000002,-0.9420000000000002,100.0,1.0,1.0,211.45666666666668,0.0,0.0,0.0,0.0,0.0,0.0,0.0,8962.9,0.0,55.0,5.0,246.89,0.0,0.0,0.0,0.0,0.0,0.0,0.0,0.0,1.1069999999999993,1.1069999999999993,0.0,0.0,0.0,55.0,616.79921,10000.0,85.000001,85.000001,85.000001,85.000001,395.0,0.0,0.0,0.0,1.0,333.33500000000004,52.338,52.338,47.15,47.15,34.0,-18.9975,27.844,-23.2,37.8425,0.0,1781.816,0.35999999999999943,100.0,27.809,28.662,42.542,44.159,0.0,0.0,100.0,0.0,0.0,0.0,0.0,2800.714285714286,3247.7,4142.0,4422.9,306.198,304.4565,314.77475,313.99625,21.9925,20.6314,22.0,21.5137,314.999998,314.999998,324.999988,324.999988,99.5595,99.5074,99.56832857142857,99.54848571428572,0.14700000000000024,0.005666666666666931,0.025666666666666667,0.2576666666666667,-0.03833333333332689,-0.04142857142857537,1.5073333333333334,1.475,38.453,29.945999999999998,38.5,35.460499999999996,56.099999999999994,35.338,59.899,53.0085,54.021,34.433,58.468,51.3115,53.169,33.9525,58.3665,50.71066666666667,-0.058499999999999996,-0.09949999999999992,0.10246000000000001,0.11456000000000001,0.0,214.7,214.79000000000002,211.45666666666668,211.45666666666668,0.0,0.0
23,0.0,0.0,0.0,1.0,1.0,0.0,0.0,1.0,0.0,100.0,1.0,1.1856,26.0,0.0,0.0,0.0,59.999996,0.0,26.0,26.0,26.0,26.0,0.084375,0.25340000000000007,-0.041425000000000003,292.16,-2.7447,-2.599625,-1.5704,-1.5528,-198.22,215.95749999999998,190.504,0.0,0.0,0.0,0.0,0.046633333333333304,-5.498166666666667,-5.498166666666667,-0.5769000000000001,-0.21150000000000002,0.05600000000000005,-1.185,68.72200000000001,0.0926,-0.233825,0.41600000000000037,100.0,1.0,1.0,211.98000000000002,0.0,0.0,0.0,0.0,0.0,0.0,0.0,8985.0,0.0,55.0,5.0,247.37666666666667,1.0,0.0,0.0,0.0,0.0,0.0,0.0,0.0,1.1580000000000013,1.1580000000000013,0.0,0.0,1.0,55.0,616.79921,10000.0,85.000001,85.000001,85.000001,85.000001,395.0,0.0,0.0,0.0,1.0,333.33500000000004,51.712,51.712,48.187,48.187,34.0,-24.79,24.584,-23.61,30.92,0.0,1781.765,0.8200000000000003,100.0,28.039,28.731,42.742000000000004,44.3,0.0,0.0,100.0,0.0,0.0,0.0,0.0,3238.142857142857,3149.9,3933.25,3984.1000000000004,305.089,304.662,315.28625,314.88925,22.0019,20.6371,22.0105,21.523,314.999998,314.999998,324.999988,324.999988,99.5595,99.5074,99.56847142857143,99.54864285714285,0.09533333333333349,-0.04499999999999993,-0.037,0.18383333333333335,-0.03166666666666629,-0.05714285714285694,1.5306666666666666,1.5455,38.512,29.982,38.565,35.5185,56.087,35.3775,59.935,53.0715,54.009,34.4695,58.5015,51.3725,53.155,33.988,58.3965,50.77033333333333,-0.017000000000000015,-0.14450000000000007,0.09659500000000001,0.112295,0.0,215.16,215.14499999999998,211.98000000000002,211.98000000000002,0.0,0.0
24,0.0,0.0,0.0,1.0,1.0,0.0,0.0,1.0,0.0,100.0,1.0,1.1856,26.0,0.0,0.0,0.0,59.999996,0.0,26.0,26.0,26.0,26.0,-0.006500000000000001,0.28049999999999997,0.010700000000000001,292.389,-2.7373,-2.6365,-1.5893000000000002,-1.5183,-194.92000000000002,215.9675,190.4815,0.0,0.0,0.0,0.0,0.04853333333333332,-5.498166666666667,-5.498166666666667,-0.5792,-0.5025,0.03533333333333322,-0.6600000000000001,68.851,0.0375,-0.21615,1.0540000000000003,100.0,1.0,1.0,212.26999999999998,0.0,0.0,0.0,0.0,0.0,0.0,0.0,8997.3,0.0,55.0,5.0,247.83666666666664,0.0,0.0,0.0,0.0,0.0,0.0,0.0,0.0,1.2059999999999995,1.2059999999999995,0.0,0.0,0.0,55.0,616.79921,10000.0,85.000001,85.000001,85.000001,85.000001,395.0,0.0,0.0,0.0,1.0,333.33500000000004,52.887,52.887,47.089,47.089,34.0,-23.905,21.107999999999997,-30.73,28.235,0.0,1781.718,0.990000000000002,100.0,27.886,28.296,43.049,43.952,0.0,0.0,100.0,0.0,0.0,0.0,0.0,2961.5714285714284,2938.0,4353.0,4112.2,305.967,305.41825,314.30175,314.68275,22.0107,20.6423,22.0203,21.5316,314.999998,314.999998,324.999988,324.999988,99.55951428571429,99.5074,99.56861428571429,99.54878571428571,0.052999999999999936,-0.09033333333333315,-0.10166666666666667,0.11666666666666667,-0.05333333333332746,-0.03999999999999915,1.4929999999999999,1.5215,38.567,30.014499999999998,38.626999999999995,35.5725,56.072,35.414,59.97,53.128,53.995000000000005,34.5035,58.534,51.427,53.14,34.0205,58.426,50.824,-0.0024999999999999467,-0.15900000000000003,0.10976000000000001,0.10102000000000001,0.0,215.59,215.505,212.26999999999998,212.26999999999998,0.0,0.0
25,0.0,0.0,0.0,1.0,1.0,0.0,0.0,1.0,0.0,100.0,1.0,1.1856,26.0,0.0,0.0,0.0,59.999996,0.0,26.0,26.0,26.0,26.0,-0.076625,0.26900000000000013,-0.071425,292.343,-2.7622,-2.6418749999999998,-1.5716999999999999,-1.5549,-191.39999999999998,215.98000000000002,190.456125,0.0,0.0,0.0,0.0,0.05059999999999998,-5.498166666666667,-5.498166666666667,-0.6133000000000001,-0.019000000000000128,0.004444444444444251,-0.677,68.982,-0.022000000000000002,-0.22717500000000002,1.4900000000000002,100.0,1.0,1.0,212.84333333333333,0.0,0.0,0.0,0.0,0.0,0.0,0.0,9021.7,0.0,55.0,5.0,248.31,1.0,0.0,0.0,0.0,0.0,0.0,0.0,0.0,1.256999999999998,1.256999999999998,0.0,0.0,1.0,55.0,616.79921,10000.0,85.000001,85.000001,85.000001,85.000001,395.0,0.0,0.0,0.0,1.0,333.33500000000004,51.865,51.865,47.989,47.989,34.0,-28.185000000000002,22.54,-29.5,25.5225,0.0,1781.667,1.0,100.0,28.21,28.122,43.167,43.302,0.0,0.0,100.0,0.0,0.0,0.0,0.0,3244.4285714285716,3291.1,3973.125,3959.5,305.087,304.47975,315.22275,315.085,22.0201,20.6479,22.0307,21.5407,314.999998,314.999998,324.999988,324.999988,99.55952857142857,99.50741666666667,99.56875714285714,99.54892857142858,0.02400000000000002,-0.1206666666666667,-0.1515,0.08466666666666667,-0.04833333333333201,-0.06714285714285495,1.5416666666666667,1.608,38.625,30.049500000000002,38.692,35.629,56.055,35.4565,60.0045,53.185,53.979,34.543,58.566,51.482,53.123000000000005,34.058,58.4555,50.87733333333333,-0.0034999999999999476,-0.16349999999999998,0.10664000000000001,0.11742000000000001,0.0,216.01999999999998,215.89,212.84333333333333,212.84333333333333,0.0,0.0
26,0.0,0.0,0.0,1.0,1.0,0.0,0.0,1.0,0.0,100.0,1.0,1.1856,26.0,0.0,0.0,0.0,59.999996,0.0,26.0,26.0,26.0,26.0,-0.12475,0.26680000000000015,0.065725,291.153,-2.6709,-2.758,-1.5871,-1.5841,-187.88,215.99,190.430375,0.0,0.0,0.0,0.0,0.05263333333333331,-5.498166666666667,-5.498166666666667,-0.5701,0.7184999999999999,-0.055111111111111555,-1.4130000000000003,69.119,-0.0718,-0.1955,1.6839999999999993,100.0,1.0,1.0,212.99,0.0,0.0,0.0,0.0,0.0,0.0,0.0,9027.9,0.0,55.0,5.0,248.8,0.0,0.0,0.0,0.0,0.0,0.0,0.0,0.0,1.3079999999999998,1.3079999999999998,0.0,0.0,0.0,55.0,616.79921,10000.0,85.000001,85.000001,85.000001,85.000001,395.0,0.0,0.0,0.0,1.0,333.33500000000004,51.422,51.422,46.173,46.173,34.0,-29.775,20.061999999999998,-39.553333333333335,26.122500000000002,0.0,1781.615,0.7800000000000011,100.0,29.167,28.615000000000002,44.032,43.458,0.0,0.0,100.0,0.0,0.0,0.0,0.0,3347.142857142857,2950.3,4672.625,4358.4,304.804,305.204,313.63025,314.0885,22.0299,20.6536,22.0413,21.5499,314.999998,314.999998,324.999988,324.999988,99.55952857142857,99.50743333333334,99.56891428571429,99.54908571428571,-0.008333333333333304,-0.14866666666666672,-0.20016666666666666,0.021500000000000002,-0.051666666666669414,-0.034285714285715585,1.4100000000000001,1.4785,38.687,30.085,38.757999999999996,35.6865,56.042,35.501999999999995,60.0465,53.2445,53.966,34.585,58.605000000000004,51.539500000000004,53.108999999999995,34.0985,58.491,50.93366666666667,-0.025499999999999967,-0.14149999999999996,0.100525,0.11244000000000001,0.0,216.5,216.345,212.99,212.99,0.0,0.0
27,0.0,0.0,0.0,1.0,1.0,0.0,0.0,1.0,0.0,100.0,1.0,1.1856,26.0,0.0,0.0,0.0,59.999996,0.0,26.0,26.0,26.0,26.0,-0.13225,0.25480000000000014,-0.008725,291.58,-2.6131,-2.748875,-1.5580500000000002,-1.6743000000000001,-184.56,215.9975,190.40725,0.0,0.0,0.0,0.0,0.05456666666666654,-5.498166666666667,-5.498166666666667,-0.5969,-1.0605000000000002,-0.07411111111111124,-0.8900000000000001,69.243,-0.09630000000000001,-0.2422,1.5079999999999991,100.0,1.0,1.0,213.47333333333333,0.0,0.0,0.0,0.0,0.0,0.0,0.0,9048.4,0.0,55.0,5.0,249.25,1.0,0.0,0.0,0.0,0.0,0.0,0.0,0.0,1.355999999999998,1.355999999999998,0.0,0.0,1.0,55.0,616.79921,10000.0,85.000001,85.000001,85.000001,85.000001,395.0,0.0,0.0,0.0,1.0,333.33500000000004,51.743,51.743,46.646,46.646,34.0,-29.7,19.296,-35.78333333333333,23.3475,0.0,1781.568,0.6849999999999987,100.0,29.018,28.225,44.919,43.822,0.0,0.0,100.0,0.0,0.0,0.0,0.0,3320.285714285714,2964.6,4230.375,3964.6000000000004,304.8755,305.289,314.5995,314.936,22.038899999999998,20.6587,22.0515,21.5587,314.999998,314.999998,324.999988,324.999988,99.55952857142857,99.50745,99.56905714285715,99.54921428571429,-0.02499999999999991,-0.16466666666666674,-0.22533333333333336,-0.0008333333333333334,-0.045000000000001705,-0.048571428571428044,1.476,1.5285,38.742999999999995,30.116500000000002,38.822,35.7415,56.027,35.542,60.0865,53.3015,53.952,34.622,58.643,51.594,53.095,34.134,58.525999999999996,50.986666666666665,-0.025000000000000022,-0.13149999999999995,0.100815,0.10754500000000002,0.0,216.79500000000002,216.66500000000002,213.47333333333333,213.47333333333333,0.0,0.0
28,0.0,0.0,0.0,1.0,1.0,0.0,0.0,1.0,0.0,100.0,1.0,1.1856,26.0,0.0,0.0,0.0,59.999996,0.0,26.0,26.0,26.0,26.0,-0.160375,0.2631000000000001,-0.063525,291.885,-2.6332,-2.745125,-1.5026000000000002,-1.6393,-181.03,216.0,190.381875,0.0,0.0,0.0,0.0,0.05663333333333331,-5.498166666666667,-5.498166666666667,-0.6003000000000001,0.6559999999999999,-0.08088888888888857,0.712,69.373,-0.1119,-0.2152,1.3520000000000003,100.0,1.0,1.0,213.9766666666667,0.0,0.0,0.0,0.0,0.0,0.0,0.0,9069.7,0.0,55.0,5.0,249.71666666666667,0.0,0.0,0.0,0.0,0.0,0.0,0.0,0.0,1.407,1.407,0.0,0.0,0.0,55.0,616.79921,10000.0,85.000001,85.000001,85.000001,85.000001,395.0,0.0,0.0,0.0,1.0,333.33500000000004,51.788,51.788,47.501,47.501,34.0,-29.244999999999997,19.644,-34.46666666666667,23.259999999999998,0.0,1781.517,0.45500000000000185,100.0,29.306,27.917,44.359,43.044,0.0,0.0,100.0,0.0,0.0,0.0,0.0,3272.4285714285716,3000.9,4157.75,4078.2,304.8655,305.34125,314.833,314.83375,22.0486,20.6641,22.061799999999998,21.5676,314.999998,314.999998,324.999988,324.999988,99.55952857142857,99.50748333333334,99.5692,99.54935714285715,-0.016666666666666607,-0.15833333333333321,-0.23450000000000001,-0.0021666666666666666,-0.054999999999999716,-0.04999999999999716,1.5183333333333333,1.567,38.804,30.151,38.885999999999996,35.798,56.013999999999996,35.586,60.1225,53.3565,53.94,34.6625,58.6765,51.6465,53.081,34.1725,58.5565,51.038,-0.051999999999999935,-0.11699999999999999,0.10513000000000002,0.11153,0.0,217.25,217.12,213.9766666666667,213.9766666666667,0.0,0.0
29,0.0,0.0,0.0,1.0,1.0,0.0,0.0,1.0,0.0,100.0,1.0,1.1856,26.0,0.0,0.0,0.0,59.999996,0.0,26.0,26.0,26.0,26.0,-0.149125,0.2654000000000001,0.045675,291.504,-2.577,-2.795875,-1.5361,-1.6163,-177.48000000000002,216.0,190.3555,0.0,0.0,0.0,0.0,0.058666666666666534,-5.498166666666667,-5.498166666666667,-0.6068,-0.7324999999999999,-0.08233333333333359,-0.7560000000000002,69.508,-0.1085,-0.217475,1.0660000000000007,100.0,1.0,1.0,214.22,0.0,0.0,0.0,0.0,0.0,0.0,0.0,9080.0,0.0,55.0,5.0,250.20333333333335,1.0,0.0,0.0,0.0,0.0,0.0,0.0,0.0,1.4579999999999984,1.4579999999999984,0.0,0.0,1.0,55.0,616.79921,10000.0,85.000001,85.000001,85.000001,85.000001,395.0,0.0,0.0,0.0,1.0,333.33500000000004,51.697,51.697,46.585,46.585,34.0,-30.2175,19.978,-36.54666666666667,23.335,0.0,1781.465,0.379999999999999,100.0,28.88,27.937,44.717,43.356,0.0,0.0,100.0,0.0,0.0,0.0,0.0,3406.714285714286,2999.3,4329.5,4135.4,304.646,305.061,314.342,314.585,22.058,20.6695,22.072499999999998,21.5769,314.999998,314.999998,324.999988,324.999988,99.55952857142857,99.5075,99.56935714285714,99.54951428571428,-0.02499999999999991,-0.16766666666666663,-0.22383333333333336,-0.009166666666666667,-0.041666666666671404,-0.04999999999999716,1.458,1.4975,38.863,30.1845,38.953,35.8555,55.997,35.6285,60.165,53.416,53.924,34.701499999999996,58.716499999999996,51.704,53.065,34.21,58.5935,51.093666666666664,-0.05349999999999999,-0.1080000000000001,0.10074000000000001,0.10331000000000001,0.0,217.60500000000002,217.51,214.22,214.22,0.0,0.0
30,0.0,0.0,0.0,1.0,1.0,0.0,0.0,1.0,0.0,100.0,1.0,1.1856,26.0,0.0,0.0,0.0,59.999996,0.0,26.0,26.0,26.0,26.0,-0.1395,0.26649999999999996,0.055325000000000006,291.092,-2.6269,-2.7891250000000003,-1.47565,-1.6784,-173.94,215.995,190.328875,0.0,0.0,0.0,0.0,0.060733333333333306,-5.498166666666667,-5.498166666666667,-0.6011000000000001,0.7815,-0.0822222222222222,1.0539999999999998,69.637,-0.09960000000000001,-0.21527500000000002,0.9560000000000004,100.0,1.0,1.0,214.67000000000002,0.0,0.0,0.0,0.0,0.0,0.0,0.0,9099.1,0.0,55.0,5.0,250.66666666666666,0.0,0.0,0.0,0.0,0.0,0.0,1.0,0.0,1.5090000000000003,1.5090000000000003,0.0,0.0,0.0,55.0,616.79921,10000.0,85.000001,85.000001,85.000001,85.000001,395.0,0.0,0.0,0.0,1.0,166.665,50.858000000000004,50.858000000000004,46.875,46.875,34.0,-29.997500000000002,21.518,-34.79666666666667,25.875,0.0,1781.416,0.1750000000000007,100.0,29.94,28.442,44.647,43.256,0.0,0.0,100.0,0.0,0.0,0.0,0.0,3427.4285714285716,3126.5,4316.25,4186.7,304.3915,305.06325,314.36325,314.50175,22.0679,20.6752,22.083,21.586100000000002,314.999998,314.999998,324.999988,324.999988,99.55954285714286,99.50751666666666,99.56951428571429,99.54965714285714,0.0013333333333331865,-0.1443333333333332,-0.20866666666666667,0.015666666666666666,-0.04833333333333201,-0.04999999999999716,1.4586666666666668,1.5025,38.924,30.22,39.019,35.913,55.986000000000004,35.674,60.203,53.4735,53.914,34.744,58.751999999999995,51.759,53.054,34.2505,58.626,51.147333333333336,-0.06999999999999995,-0.10549999999999993,0.10060500000000001,0.11248000000000001,0.0,218.05,217.97500000000002,214.67000000000002,214.67000000000002,0.0,0.0
31,0.0,0.0,0.0,1.0,1.0,0.0,0.0,1.0,0.0,100.0,1.0,1.1856,26.0,0.0,0.0,0.0,59.999996,0.0,26.0,26.0,26.0,26.0,-0.117,0.2619,-0.003425,291.031,-2.6993,-2.6654999999999998,-1.5676999999999999,-1.6657000000000002,-170.59,215.9875,190.30475,0.0,0.0,0.0,0.0,0.06269999999999998,-5.498166666666667,-5.498166666666667,-0.5915,-0.728,-0.06977777777777794,0.5920000000000001,69.761,-0.0819,-0.22190000000000001,0.45999999999999996,100.0,1.0,1.0,214.94666666666666,0.0,0.0,0.0,0.0,0.0,0.0,0.0,9110.7,0.0,55.0,5.0,251.11666666666667,1.0,0.0,0.0,0.0,0.0,0.0,1.0,0.0,1.5569999999999986,1.5569999999999986,0.0,0.0,1.0,55.0,616.79921,10000.0,85.000001,85.000001,85.000001,85.000001,395.0,0.0,0.0,0.0,1.0,333.33500000000004,51.513999999999996,51.513999999999996,45.578,45.578,34.0,-27.560000000000002,20.942,-35.696666666666665,27.7225,0.0,1781.368,0.15500000000000114,100.0,29.466,28.517,45.248000000000005,43.858000000000004,0.0,0.0,100.0,0.0,0.0,0.0,0.0,3188.4285714285716,3143.5,4424.0,4285.3,305.285,305.07175,314.0815,314.355,22.0768,20.6805,22.0931,21.595,314.999998,314.999998,324.999988,324.999988,99.55954285714286,99.50753333333333,99.56965714285714,99.5498,0.01200000000000001,-0.133,-0.17983333333333335,0.03766666666666667,-0.03333333333333144,-0.05285714285714249,1.4513333333333334,1.456,38.980000000000004,30.253,39.082,35.9685,55.971000000000004,35.715,60.2435,53.531,53.899,34.7815,58.79,51.814,53.039,34.286500000000004,58.661,51.201,-0.07650000000000001,-0.09400000000000008,0.09956000000000001,0.10665000000000001,0.0,218.37,218.325,214.94666666666666,214.94666666666666,0.0,0.0
32,0.0,0.0,0.0,1.0,1.0,0.0,0.0,1.0,0.0,100.0,1.0,1.1856,26.0,0.0,0.0,0.0,59.999996,0.0,26.0,26.0,26.0,26.0,-0.091375,0.26550000000000007,-0.049425000000000004,291.306,-2.6391999999999998,-2.7015000000000002,-1.59315,-1.5727,-167.03,215.97750000000002,190.279125,0.0,0.0,0.0,0.0,0.06476666666666653,-5.498166666666667,-5.498166666666667,-0.6101,0.21699999999999997,-0.09322222222222232,-0.8570000000000002,69.888,-0.06570000000000001,-0.2298,0.54,100.0,1.0,1.0,215.50666666666666,0.0,0.0,0.0,0.0,0.0,0.0,0.0,9134.6,0.0,55.0,5.0,251.57,0.0,0.0,0.0,0.0,0.0,0.0,1.0,0.0,1.6080000000000005,1.6080000000000005,0.0,0.0,0.0,55.0,616.79921,10000.0,85.000001,85.000001,85.000001,85.000001,395.0,0.0,0.0,0.0,1.0,333.33500000000004,51.193,51.193,46.738,46.738,34.0,-28.7125,20.934,-34.129999999999995,25.189999999999998,0.0,1781.315,0.08999999999999986,100.0,29.36,28.729,44.71,43.734,0.0,0.0,100.0,0.0,0.0,0.0,0.0,3412.0,3009.9,4262.5,4117.3,304.652,305.1415,314.66475,314.80125,22.0863,20.6861,22.1035,21.6041,314.999998,314.999998,324.999988,324.999988,99.55955714285714,99.50755,99.5698,99.54994285714285,0.02200000000000024,-0.12433333333333318,-0.1865,0.04616666666666667,-0.03999999999999915,-0.04142857142857537,1.5326666666666666,1.5434999999999999,39.039,30.288,39.147,36.025999999999996,55.957,35.7585,60.2795,53.587,53.885999999999996,34.822,58.824,51.8685,53.024,34.325,58.6915,51.25366666666667,-0.07750000000000001,-0.09450000000000003,0.11046500000000001,0.10061,0.0,218.78,218.73000000000002,215.50666666666666,215.50666666666666,0.0,0.0
33,0.0,0.0,0.0,1.0,1.0,0.0,0.0,1.0,0.0,100.0,1.0,1.1856,26.0,0.0,0.0,0.0,59.999996,0.0,26.0,26.0,26.0,26.0,-0.073125,0.25460000000000016,-0.01205,291.428,-2.6559,-2.75325,-1.5324,-1.5848,-163.45999999999998,215.965,190.252375,0.0,0.0,0.0,0.0,0.0668333333333333,-5.498166666666667,-5.498166666666667,-0.6125,-0.46399999999999997,-0.0778888888888889,1.456,70.019,-0.0533,-0.216475,0.30400000000000027,100.0,1.0,1.0,215.78,0.0,0.0,0.0,0.0,0.0,0.0,0.0,9146.1,0.0,55.0,5.0,252.04000000000002,1.0,0.0,0.0,0.0,0.0,0.0,1.0,0.0,1.658999999999999,1.658999999999999,0.0,0.0,1.0,55.0,616.79921,10000.0,85.000001,85.000001,85.000001,85.000001,395.0,0.0,0.0,0.0,1.0,166.665,51.894999999999996,51.894999999999996,46.57,46.57,34.0,-25.355,22.564,-32.42666666666666,27.9125,0.0,1781.266,-0.0799999999999983,100.0,29.214,28.240000000000002,44.762,43.74,0.0,0.0,100.0,0.0,0.0,0.0,0.0,3139.857142857143,3014.5,4230.625,4330.4,305.302,305.31825,314.52475,314.2635,22.0957,20.6916,22.114,21.6134,314.999998,314.999998,324.999988,324.999988,99.55955714285714,99.50756666666666,99.56995714285715,99.5501,0.04700000000000015,-0.09233333333333316,-0.16283333333333336,0.058833333333333335,-0.03999999999999915,-0.06142857142857139,1.466,1.487,39.098,30.322499999999998,39.213,36.084,55.942,35.798,60.318,53.6465,53.872,34.858000000000004,58.86,51.925,53.009,34.3595,58.7245,51.309,-0.09150000000000003,-0.07350000000000012,0.10904000000000001,0.10598,0.0,219.17000000000002,219.15,215.78,215.78,0.0,0.0
34,0.0,0.0,0.0,1.0,1.0,0.0,0.0,1.0,0.0,100.0,1.0,1.1856,26.0,0.0,0.0,0.0,59.999996,0.0,26.0,26.0,26.0,26.0,-0.06225,0.25270000000000015,-0.05405,291.824,-2.6694,-2.7048750000000004,-1.5974,-1.6026,-160.1,215.9525,190.226125,0.0,0.0,0.0,0.0,0.06879999999999997,-5.498166666666667,-5.498166666666667,-0.6445000000000001,-0.7295,-0.04444444444444429,1.163,70.139,-0.039900000000000005,-0.227025,0.22799999999999976,100.0,1.0,1.0,216.23666666666668,0.0,0.0,0.0,0.0,0.0,0.0,0.0,9165.5,0.0,55.0,5.0,252.47333333333336,0.0,0.0,0.0,0.0,0.0,0.0,1.0,0.0,1.7070000000000007,1.7070000000000007,0.0,0.0,0.0,55.0,616.79921,10000.0,85.000001,85.000001,85.000001,85.000001,395.0,0.0,0.0,0.0,1.0,333.33500000000004,52.078,52.078,47.424,47.424,34.0,-24.875,22.424,-30.456666666666663,27.7775,0.0,1781.218,-0.08999999999999986,100.0,28.95,28.018,44.41,43.85,0.0,0.0,100.0,0.0,0.0,0.0,0.0,3099.285714285714,3036.5,4049.375,4157.9,305.283,305.266,315.06475,314.60775,22.1044,20.6967,22.1238,21.6222,314.999998,314.999998,324.999988,324.999988,99.55955714285714,99.50758333333333,99.5701,99.55022857142858,0.056333333333333346,-0.08966666666666678,-0.14816666666666667,0.07833333333333332,-0.030000000000001137,-0.06428571428571672,1.5296666666666667,1.5305,39.153,30.3545,39.274,36.1385,55.927,35.8345,60.3505,53.701,53.858000000000004,34.8915,58.8905,51.978,52.995000000000005,34.391999999999996,58.751999999999995,51.36033333333333,-0.09199999999999997,-0.07099999999999995,0.10248,0.109575,0.0,219.525,219.51,216.23666666666668,216.23666666666668,0.0,0.0
35,0.0,0.0,0.0,1.0,1.0,0.0,0.0,1.0,0.0,100.0,1.0,1.1856,26.0,0.0,0.0,0.0,59.999996,0.0,26.0,26.0,26.0,26.0,-0.038875,0.2511000000000001,-0.072325,291.748,-2.6783,-2.6803749999999997,-1.56925,-1.6089,-156.51999999999998,215.935,190.196125,0.0,0.0,0.0,0.0,0.07086666666666652,-5.498166666666667,-5.498166666666667,-0.6852,-0.33000000000000007,-0.05033333333333356,-0.9340000000000002,70.266,-0.0274,-0.22887500000000002,0.11000000000000032,100.0,1.0,1.0,216.68666666666667,0.0,0.0,0.0,0.0,0.0,0.0,0.0,9184.5,0.0,55.0,5.0,252.93333333333334,1.0,0.0,0.0,0.0,0.0,0.0,1.0,0.0,1.7579999999999991,1.7579999999999991,0.0,0.0,1.0,55.0,616.79921,10000.0,85.000001,85.000001,85.000001,85.000001,395.0,0.0,0.0,0.0,1.0,333.33500000000004,51.544,51.544,46.997,46.997,34.0,-25.735,24.992,-29.566666666666666,26.575000000000003,0.0,1781.166,-0.120000000000001,100.0,28.592,28.462,44.077,43.511,0.0,0.0,100.0,0.0,0.0,0.0,0.0,3255.5714285714284,3267.2,4054.375,3949.8,305.0915,304.403,315.0295,315.10425,22.1135,20.7024,22.1341,21.6313,314.999998,314.999998,324.999988,324.999988,99.55957142857143,99.50758333333333,99.57025714285714,99.55038571428571,0.06400000000000006,-0.07566666666666677,-0.1375,0.08750000000000001,-0.045000000000001705,-0.04142857142857537,1.5486666666666666,1.5505,39.209,30.39,39.338,36.195499999999996,55.91,35.8745,60.385,53.7565,53.842,34.929,58.9225,52.031,52.977999999999994,34.4275,58.781,51.412,-0.09299999999999997,-0.06899999999999995,0.10724500000000001,0.10140500000000001,0.0,219.91,219.89499999999998,216.68666666666667,216.68666666666667,0.0,0.0
36,0.0,0.0,0.0,1.0,1.0,0.0,0.0,1.0,0.0,100.0,1.0,1.1856,26.0,0.0,0.0,0.0,59.999996,0.0,26.0,26.0,26.0,26.0,-0.035625000000000004,0.2663,0.062625,290.771,-2.7314,-2.6414999999999997,-1.53945,-1.6058,-153.14,215.92000000000002,190.166375,0.0,0.0,0.0,0.0,0.0728333333333333,-5.498166666666667,-5.498166666666667,-0.6642,0.32299999999999995,-0.08766666666666634,-1.3010000000000002,70.388,-0.018500000000000003,-0.199375,0.2240000000000002,100.0,1.0,1.0,216.81666666666666,0.0,0.0,0.0,0.0,0.0,0.0,0.0,9190.1,0.0,55.0,5.0,253.37,0.0,0.0,0.0,0.0,0.0,0.0,1.0,0.0,1.806000000000001,1.806000000000001,0.0,0.0,0.0,55.0,616.79921,10000.0,85.000001,85.000001,85.000001,85.000001,395.0,0.0,0.0,0.0,1.0,333.33500000000004,51.193,51.193,46.126999999999995,46.126999999999995,34.0,-27.525,23.078,-33.92,32.085,0.0,1781.118,-0.125,100.0,29.095,28.859,44.202,43.874,0.0,0.0,100.0,0.0,0.0,0.0,0.0,3426.285714285714,3085.8,4555.875,4505.7,304.715,304.9605,313.88075,313.7565,22.1223,20.7079,22.144,21.6401,314.999998,314.999998,324.999988,324.999988,99.55957142857143,99.5076,99.5704,99.55052857142857,0.06766666666666676,-0.07499999999999996,-0.13416666666666666,0.09533333333333333,-0.03833333333332689,-0.03999999999999915,1.4246666666666665,1.4385,39.265,30.424,39.4,36.2505,55.899,35.914,60.42,53.8125,53.831,34.9655,58.9555,52.085,52.966,34.4625,58.811,51.464666666666666,-0.09299999999999997,-0.07350000000000012,0.112905,0.11445500000000002,0.0,220.32999999999998,220.29500000000002,216.81666666666666,216.81666666666666,0.0,0.0
