,ABS Active,ABS Enabled,AID Allow Tire Blankets,AID Auto Blip,AID Auto Clutch,AID Auto Shift,AID Fuel Rate,AID Ideal Line,AID Mech Damage,AID Stability,AID Tire Wear Rate,Air Density,Air Temp,Ballast,Best Lap Delta,Best Lap Time,Brake Bias,Brake Pos,Brake Temp FL,Brake Temp FR,Brake Temp RL,Brake Temp RR,CG Accel Lateral,CG Accel Longitudinal,CG Accel Vertical,CG Height,Camber FL,Camber FR,Camber RL,Camber RR,Car Coord X,Car Coord Y,Car Coord Z,Car Damage Front,Car Damage Left,Car Damage Rear,Car Damage Right,Car Pos Norm,Caster FL,Caster FR,Chassis Pitch Angle,Chassis Pitch Rate,Chassis Roll Angle,Chassis Roll Rate,Chassis Velocity X,Chassis Velocity Y,Chassis Velocity Z,Chassis Yaw Rate,Clutch Pos,DRS Active,DRS Available,Drive Train Speed,ERS Heat Charging,ERS Is Charging,ERS Max Energy,ERS Power Level,ERS Recovery Level,Engine Brake Setting,Engine Limiter,Engine RPM,Flags,Fuel Level,Gear,Ground Speed,HR Sample Clock,In Pit,KERS Charge,KERS Deployed Energy,KERS Input,KERS Max Energy,LR Sample Clock,Lap Invalidated,Lap Time,Lap Time2,Last Lap Time,Last Sector Time,MR Sample Clock,Max Fuel,Max Power,Max RPM,Max Sus Travel FL,Max Sus Travel FR,Max Sus Travel RL,Max Sus Travel RR,Max Torque,Max Turbo Boost,Num Tires Off Track,Penalties Enabled,Position,Raw Data Sample Rate,Ride Height FL,Ride Height FR,Ride Height RL,Ride Height RR,Road Temp,Self Align Torque FL,Self Align Torque FR,Self Align Torque RL,Self Align Torque RR,Session Lap Count,Session Time Left,Steering Angle,Surface Grip,Suspension Travel FL,Suspension Travel FR,Suspension Travel RL,Suspension Travel RR,TC Active,TC Enabled,Throttle Pos,Tire Dirt Level FL,Tire Dirt Level FR,Tire Dirt Level RL,Tire Dirt Level RR,Tire Load FL,Tire Load FR,Tire Load RL,Tire Load RR,Tire Loaded Radius FL,Tire Loaded Radius FR,Tire Loaded Radius RL,Tire Loaded Radius RR,Tire Pressure FL,Tire Pressure FR,Tire Pressure RL,Tire Pressure RR,Tire Radius FL,Tire Radius FR,Tire Radius RL,Tire Radius RR,Tire Rubber Grip FL,Tire Rubber Grip FR,Tire Rubber Grip RL,Tire Rubber Grip RR,Tire Slip Angle FL,Tire Slip Angle FR,Tire Slip Angle RL,Tire Slip Angle RR,Tire Slip Ratio FL,Tire Slip Ratio FR,Tire Slip Ratio RL,Tire Slip Ratio RR,Tire Temp Core FL,Tire Temp Core FR,Tire Temp Core RL,Tire Temp Core RR,Tire Temp Inner FL,Tire Temp Inner FR,Tire Temp Inner RL,Tire Temp Inner RR,Tire Temp Middle FL,Tire Temp Middle FR,Tire Temp Middle RL,Tire Temp Middle RR,Tire Temp Outer FL,Tire Temp Outer FR,Tire Temp Outer RL,Tire Temp Outer RR,Toe In FL,Toe In FR,Toe In RL,Toe In RR,Turbo Boost,Wheel Angular Speed FL,Wheel Angular Speed FR,Wheel Angular Speed RL,Wheel Angular Speed RR,Wind Direction,Wind Speed
0,0.0,0.0,0.0,1.0,1.0,0.0,0.0,1.0,0.0,100.0,1.0,1.1856,26.0,0.0,0.0,0.0,59.99999,0.0,26.0,26.0,26.0,26.0,-0.11522222222222211,0.29370000000000007,-0.002166666666666667,294.22,-2.7021,-2.6806666666666668,-1.5005000000000002,-1.5731000000000002,-275.78,216.2775,190.988375,0.0,0.0,0.0,0.0,0.0015333333333333865,-5.498166666666667,-5.498166666666667,-0.5496,1.1336666666666666,-0.027111111111111086,-0.99,65.51,-0.0596,-0.214125,1.2599999999999998,100.0,1.0,1.0,202.26666666666665,0.0,0.0,0.0,0.0,0.0,0.0,0.0,8573.3,0.0,55.0,5.0,235.80333333333334,0.0,0.0,0.0,0.0,0.0,0.0,0.0,0.0,0.0030000000000001137,0.0030000000000001137,0.0,0.0,0.0,55.0,616.79921,10000.0,85.0,85.0,85.0,85.0,395.0,0.0,0.0,0.0,1.0,20.0,53.009,53.009,49.835,49.835,34.0,-27.7725,21.494,-31.256666666666668,23.137500000000003,0.0,1783.312,0.9800000000000004,100.0,27.421,26.63,40.681,40.297,0.0,0.0,100.0,0.0,0.0,0.0,0.0,3046.0,3281.4,4095.75,3952.3,305.6025,304.336,314.925,314.942,21.7805,20.5093,21.7715,21.3168,314.99999,314.99999,324.99998,324.99998,99.55908571428571,99.50715,99.56517142857143,99.54534285714286,-0.030999999999999917,-0.15133333333333332,-0.1901666666666666,0.03183333333333338,-0.04999999999999716,-0.04333333333332945,1.5715,1.6025,37.128,29.183,37.072,34.230000000000004,56.361000000000004,34.442499999999995,59.0615,51.6545,54.272,33.6125,57.6885,50.010999999999996,53.437,33.172,57.6515,49.435,0.0004999999999999449,-0.15149999999999997,0.10533000000000001,0.11349000000000001,0.0,205.305,205.20499999999998,202.26666666666665,202.26666666666665,0.0,0.0
1,0.0,0.0,0.0,1.0,1.0,0.0,0.0,1.0,0.0,100.0,1.0,1.1856,26.0,0.0,0.0,0.0,59.999996,0.0,26.0,26.0,26.0,26.0,-0.15666666666666662,0.31010000000000004,0.04003333333333333,293.182,-2.6324,-2.787333333333333,-1.50595,-1.5606,-272.44,216.2775,190.968,0.0,0.0,0.0,0.0,0.003466666666666507,-5.498166666666667,-5.498166666666667,-0.4954,-0.28633333333333333,-0.07100000000000017,0.03200000000000003,65.66499999999999,-0.0748,-0.191025,1.5899999999999999,100.0,1.0,1.0,202.4,0.0,0.0,0.0,0.0,0.0,0.0,0.0,8578.9,0.0,55.0,5.0,236.36333333333334,1.0,0.0,0.0,0.0,0.0,0.0,0.0,0.0,0.053999999999998494,0.053999999999998494,0.0,0.0,1.0,55.0,616.79921,10000.0,85.000001,85.000001,85.000001,85.000001,395.0,0.0,0.0,0.0,1.0,166.665,53.665,53.665,48.385999999999996,48.385999999999996,34.0,-27.765,17.3,-36.776666666666664,27.66,0.0,1783.264,0.9400000000000013,100.0,27.717,26.795,42.518,41.230000000000004,0.0,0.0,100.0,0.0,0.0,0.0,0.0,3065.285714285714,2639.9,4451.875,4695.6,305.3655,306.43466666666666,313.93,313.1955,21.790399999999998,20.5144,21.7824,21.3259,314.999998,314.999998,324.999988,324.999988,99.5591,99.50718333333333,99.56532857142857,99.54548571428572,-0.03400000000000003,-0.15500000000000003,-0.2081666666666666,0.01416666666666666,-0.046666666666666856,-0.00999999999999801,1.3915,1.4685000000000001,37.19,29.215,37.14,34.286500000000004,56.346000000000004,34.4845,59.108000000000004,51.7185,54.257,33.6515,57.732,50.072,53.422,33.2095,57.692,49.49466666666667,0.0040000000000000036,-0.14700000000000024,0.10535000000000001,0.11082000000000002,0.0,205.765,205.615,202.4,202.4,0.0,0.0
2,0.0,0.0,0.0,1.0,1.0,0.0,0.0,1.0,0.0,100.0,1.0,1.1856,26.0,0.0,0.0,0.0,59.999996,0.0,26.0,26.0,26.0,26.0,-0.15400000000000003,0.29180000000000006,-0.0328,293.808,-2.5891,-2.812333333333333,-1.47405,-1.621,-269.08,216.2725,190.94925,0.0,0.0,0.0,0.0,0.005433333333333401,-5.498166666666667,-5.498166666666667,-0.5524,-0.14200000000000002,-0.06466666666666665,1.521,65.806,-0.0902,-0.25815,1.7240000000000002,100.0,1.0,1.0,203.34,0.0,0.0,0.0,0.0,0.0,0.0,0.0,8618.8,0.0,55.0,5.0,236.87333333333333,0.0,0.0,0.0,0.0,0.0,0.0,0.0,0.0,0.10500000000000043,0.10500000000000043,0.0,0.0,0.0,55.0,616.79921,10000.0,85.000001,85.000001,85.000001,85.000001,395.0,0.0,0.0,0.0,1.0,333.33500000000004,52.49,52.49,50.354,50.354,34.0,-31.9125,19.016,-29.953333333333333,18.585,0.0,1783.211,0.8599999999999994,100.0,28.293,26.826,42.592,41.199,0.0,0.0,100.0,0.0,0.0,0.0,0.0,3443.4285714285716,2884.1,3765.75,3592.3,304.349,305.618,315.60625,315.987,21.8006,20.5193,21.7928,21.334699999999998,314.999998,314.999998,324.999988,324.999988,99.55911428571429,99.5072,99.56547142857143,99.54561428571428,-0.050000000000000044,-0.16599999999999993,-0.24083333333333334,-0.016666666666666607,-0.060000000000002274,-0.045000000000001705,1.653,1.7000000000000002,37.254000000000005,29.246000000000002,37.205,34.341499999999996,56.335,34.5245,59.1465,51.775999999999996,54.245999999999995,33.688,57.768,50.126999999999995,53.41,33.244,57.7255,49.54866666666666,-0.009499999999999953,-0.14049999999999985,0.105495,0.10855000000000001,0.0,206.22500000000002,206.04500000000002,203.34,203.34,0.0,0.0
3,0.0,0.0,0.0,1.0,1.0,0.0,0.0,1.0,0.0,100.0,1.0,1.1856,26.0,0.0,0.0,0.0,59.999996,0.0,26.0,26.0,26.0,26.0,-0.16022222222222215,0.30300000000000016,-0.03586666666666667,293.533,-2.7157,-2.7061111111111114,-1.49675,-1.6,-265.92,216.265,190.93075,0.0,0.0,0.0,0.0,0.0072666666666665325,-5.498166666666667,-5.498166666666667,-0.5108,0.7130000000000001,-0.02444444444444427,-0.76,65.95,-0.10300000000000001,-0.201075,1.4120000000000008,100.0,1.0,1.0,203.4766666666667,0.0,0.0,0.0,0.0,0.0,0.0,0.0,8624.7,0.0,55.0,5.0,237.38666666666666,1.0,0.0,0.0,0.0,0.0,0.0,0.0,0.0,0.1529999999999987,0.1529999999999987,0.0,0.0,1.0,55.0,616.79921,10000.0,85.000001,85.000001,85.000001,85.000001,395.0,0.0,0.0,0.0,1.0,333.33500000000004,53.543,53.543,48.325,48.325,34.0,-27.0825,17.398,-36.57,22.98,0.0,1783.163,0.6550000000000011,100.0,27.958,26.974,42.325,41.167,0.0,0.0,100.0,0.0,0.0,0.0,0.0,2933.142857142857,2757.6,4370.5,4175.2,305.8665,305.852,314.214,314.47275,21.8099,20.5242,21.802599999999998,21.343,314.999998,314.999998,324.999988,324.999988,99.55911428571429,99.50721666666666,99.5656,99.54575714285714,-0.038000000000000034,-0.16433333333333322,-0.23316666666666663,-0.010333333333333306,-0.06499999999999773,-0.01666666666666572,1.484,1.549,37.312,29.276,37.266,34.394,56.321,34.565,59.1835,51.834,54.233000000000004,33.7255,57.8025,50.1825,53.396,33.28,57.7575,49.603,-0.028000000000000025,-0.121,0.10533500000000001,0.10963500000000001,0.0,206.68,206.555,203.4766666666667,203.4766666666667,0.0,0.0
4,0.0,0.0,0.0,1.0,1.0,0.0,0.0,1.0,0.0,100.0,1.0,1.1856,26.0,0.0,0.0,0.0,59.999996,0.0,26.0,26.0,26.0,26.0,-0.1581111111111111,0.26480000000000015,-0.012533333333333334,293.686,-2.6528,-2.753111111111111,-1.5191,-1.6043,-262.36,216.25,190.909875,0.0,0.0,0.0,0.0,0.009333333333333305,-5.498166666666667,-5.498166666666667,-0.5453,-0.7786666666666666,-0.08700000000000019,-1.6430000000000002,66.105,-0.10110000000000001,-0.23755,1.2699999999999996,100.0,1.0,1.0,204.07666666666665,0.0,0.0,0.0,0.0,0.0,0.0,0.0,8650.1,0.0,55.0,5.0,237.94666666666666,0.0,0.0,0.0,0.0,0.0,0.0,0.0,0.0,0.20700000000000074,0.20700000000000074,0.0,0.0,0.0,55.0,616.79921,10000.0,85.000001,85.000001,85.000001,85.000001,395.0,0.0,0.0,0.0,1.0,166.665,53.085,53.085,48.859,48.859,34.0,-30.314999999999998,18.324,-33.266666666666666,19.975,0.0,1783.111,0.6099999999999994,100.0,27.719,26.797,42.849000000000004,41.328,0.0,0.0,100.0,0.0,0.0,0.0,0.0,3293.4285714285716,2868.5,4090.75,3674.1,304.972,305.5543333333333,314.845,315.668,21.8202,20.5295,21.8139,21.3524,314.999998,314.999998,324.999988,324.999988,99.55911428571429,99.50723333333333,99.56574285714285,99.5459,-0.04200000000000004,-0.17066666666666674,-0.22216666666666662,-0.0028333333333333544,-0.045000000000001705,-0.051666666666669414,1.554,1.5985,37.376000000000005,29.3095,37.337,34.453,56.302,34.609,59.2285,51.8965,54.216,33.766,57.845,50.2425,53.378,33.319,57.797,49.662,-0.02849999999999997,-0.121,0.10178000000000001,0.10473500000000001,0.0,207.095,206.98000000000002,204.07666666666665,204.07666666666665,0.0,0.0
5,0.0,0.0,0.0,1.0,1.0,0.0,0.0,1.0,0.0,100.0,1.0,1.1856,26.0,0.0,0.0,0.0,59.999996,0.0,26.0,26.0,26.0,26.0,-0.14177777777777778,0.2881,-0.03013333333333333,293.716,-2.6627,-2.7750000000000004,-1.5003000000000002,-1.5942,-259.18,216.235,190.890625,0.0,0.0,0.0,0.0,0.011199999999999988,-5.498166666666667,-5.498166666666667,-0.5378000000000001,0.44666666666666677,-0.09266666666666667,-0.29200000000000004,66.243,-0.1005,-0.215725,1.1639999999999997,100.0,1.0,1.0,204.46333333333334,0.0,0.0,0.0,0.0,0.0,0.0,0.0,8666.5,0.0,55.0,5.0,238.44333333333333,1.0,0.0,0.0,0.0,0.0,0.0,0.0,0.0,0.254999999999999,0.254999999999999,0.0,0.0,1.0,55.0,616.79921,10000.0,85.000001,85.000001,85.000001,85.000001,395.0,0.0,0.0,0.0,1.0,166.665,53.467,53.467,49.103,49.103,34.0,-28.95,18.125999999999998,-34.13333333333333,22.0075,0.0,1783.063,0.3550000000000004,100.0,27.823,26.706,42.567,41.044,0.0,0.0,100.0,0.0,0.0,0.0,0.0,3218.857142857143,2735.1,4182.875,4007.5,305.1465,306.018,314.7135,314.8815,21.8297,20.5343,21.8237,21.3607,314.999998,314.999998,324.999988,324.999988,99.55911428571429,99.50725,99.56588571428571,99.54602857142856,-0.024666666666666615,-0.15333333333333332,-0.22766666666666657,-0.004833333333333356,-0.03166666666666629,-0.05833333333333002,1.5374999999999999,1.573,37.436,29.3395,37.397999999999996,34.504,56.29,34.647999999999996,59.266,51.95,54.204,33.802,57.879999999999995,50.294,53.364999999999995,33.353,57.829499999999996,49.712,-0.046499999999999986,-0.10150000000000015,0.10760000000000002,0.10926000000000001,0.0,207.54000000000002,207.45499999999998,204.46333333333334,204.46333333333334,0.0,0.0
6,0.0,0.0,0.0,1.0,1.0,0.0,0.0,1.0,0.0,100.0,1.0,1.1856,26.0,0.0,0.0,0.0,59.999996,0.0,26.0,26.0,26.0,26.0,-0.124,0.2882,-0.013300000000000001,293.488,-2.6356,-2.7495555555555558,-1.54855,-1.6278000000000001,-256.0,216.215,190.87125,0.0,0.0,0.0,0.0,0.013033333333333341,-5.498166666666667,-5.498166666666667,-0.5313,0.06266666666666687,-0.07077777777777783,-0.4159999999999999,66.381,-0.092,-0.21515,0.8260000000000005,100.0,1.0,1.0,204.85333333333335,0.0,0.0,0.0,0.0,0.0,0.0,0.0,8683.0,0.0,55.0,5.0,238.94333333333333,0.0,0.0,0.0,0.0,0.0,0.0,0.0,0.0,0.3030000000000008,0.3030000000000008,0.0,0.0,0.0,55.0,616.79921,10000.0,85.000001,85.000001,85.000001,85.000001,395.0,0.0,0.0,0.0,1.0,166.665,53.131,53.131,48.798,48.798,34.0,-28.1175,19.762,-33.71,22.5225,0.0,1783.014,0.02500000000000213,100.0,27.711,26.8,42.725,41.46,0.0,0.0,100.0,0.0,0.0,0.0,0.0,3239.4285714285716,2882.5,4114.625,3964.2,305.0775,305.5063333333333,314.859,314.93575,21.839,20.5391,21.8336,21.3691,314.999998,314.999998,324.999988,324.999988,99.55912857142857,99.50726666666667,99.56602857142857,99.54615714285714,-0.005666666666666709,-0.137,-0.21899999999999997,0.0001666666666666483,-0.05666666666667197,-0.03999999999999915,1.538,1.561,37.494,29.369500000000002,37.46,34.557,56.275,34.686,59.3045,52.007999999999996,54.19,33.837,57.916,50.3495,53.351,33.3865,57.8625,49.766,-0.0695,-0.0794999999999999,0.106785,0.107615,0.0,207.95499999999998,207.865,204.85333333333335,204.85333333333332,0.0,0.0
7,0.0,0.0,0.0,1.0,1.0,0.0,0.0,1.0,0.0,100.0,1.0,1.1856,26.0,0.0,0.0,0.0,59.999996,0.0,26.0,26.0,26.0,26.0,-0.09444444444444444,0.29090000000000016,0.04536666666666667,293.198,-2.6055,-2.7404444444444445,-1.50855,-1.5747,-252.61,216.1925,190.850875,0.0,0.0,0.0,0.0,0.014999999999999902,-5.498166666666667,-5.498166666666667,-0.5347000000000001,-0.05399999999999994,-0.05544444444444441,1.142,66.527,-0.0748,-0.2227,0.41000000000000014,100.0,1.0,1.0,205.27666666666667,0.0,0.0,0.0,0.0,0.0,0.0,0.0,8700.9,0.0,55.0,5.0,239.46666666666667,1.0,0.0,0.0,0.0,0.0,0.0,0.0,0.0,0.3539999999999992,0.3539999999999992,0.0,0.0,1.0,55.0,616.79921,10000.0,85.000001,85.000001,85.000001,85.000001,395.0,0.0,0.0,0.0,1.0,333.33500000000004,52.795,52.795,48.843,48.843,34.0,-26.4925,22.592,-31.36,25.380000000000003,0.0,1782.962,-0.21999999999999886,100.0,27.935,26.697,42.832,41.641,0.0,0.0,100.0,0.0,0.0,0.0,0.0,3237.714285714286,3050.0,4062.25,4122.8,304.8405,305.176,314.86625,314.652,21.8489,20.5443,21.8442,21.3781,314.999998,314.999998,324.999988,324.999988,99.55912857142857,99.50728333333333,99.56617142857142,99.5463,0.032333333333333325,-0.09433333333333316,-0.1861666666666666,0.048833333333333284,-0.030000000000001137,-0.045000000000001705,1.5195,1.545,37.556,29.402,37.525999999999996,34.6135,56.26,34.726,59.3445,52.069,54.175,33.8735,57.953,50.408,53.335,33.422,57.897,49.82333333333334,-0.09799999999999998,-0.05650000000000022,0.10979000000000001,0.112975,0.0,208.37,208.34,205.27666666666667,205.27666666666667,0.0,0.0
8,0.0,0.0,0.0,1.0,1.0,0.0,0.0,1.0,0.0,100.0,1.0,1.1856,26.0,0.0,0.0,0.0,59.999996,0.0,26.0,26.0,26.0,26.0,-0.04799999999999993,0.29190000000000005,-0.0244,293.457,-2.683,-2.719888888888889,-1.4938,-1.5550000000000002,-249.21,216.16500000000002,190.83025,0.0,0.0,0.0,0.0,0.016999999999999904,-5.498166666666667,-5.498166666666667,-0.5341,-0.3993333333333333,-0.03822222222222216,-0.44900000000000007,66.673,-0.054,-0.213375,0.02200000000000024,100.0,1.0,1.0,205.66,0.0,0.0,0.0,0.0,0.0,0.0,0.0,8717.2,0.0,55.0,5.0,239.99333333333334,0.0,0.0,0.0,0.0,0.0,0.0,0.0,0.0,0.40500000000000114,0.40500000000000114,0.0,0.0,0.0,55.0,616.79921,10000.0,85.000001,85.000001,85.000001,85.000001,395.0,0.0,0.0,0.0,1.0,333.33500000000004,53.741,53.741,48.096000000000004,48.096000000000004,34.0,-24.2025,21.364,-31.36,25.985,0.0,1782.91,-0.33999999999999986,100.0,27.397,26.847,42.686,41.855000000000004,0.0,0.0,100.0,0.0,0.0,0.0,0.0,2978.857142857143,2880.2,4248.375,4146.6,305.855,305.534,314.49225,314.52175,21.8586,20.5495,21.8547,21.3871,314.999998,314.999998,324.999988,324.999988,99.55912857142857,99.5073,99.56631428571428,99.54644285714286,0.03766666666666696,-0.08899999999999997,-0.15833333333333333,0.058499999999999996,-0.06333333333333258,-0.05666666666667197,1.515,1.5175,37.616,29.4345,37.592,34.6695,56.242999999999995,34.7645,59.384,52.129,54.159,33.909,57.99,50.4655,53.319,33.4555,57.931,49.879666666666665,-0.09899999999999998,-0.046499999999999986,0.10458,0.11499000000000001,0.0,208.825,208.81,205.66,205.66,0.0,0.0
9,0.0,0.0,0.0,1.0,1.0,0.0,0.0,1.0,0.0,100.0,1.0,1.1856,26.0,0.0,0.0,0.0,59.999996,0.0,26.0,26.0,26.0,26.0,-0.02444444444444449,0.28080000000000016,-0.0199,293.213,-2.6849,-2.7221111111111114,-1.55305,-1.556,-246.01,216.14,190.810375,0.0,0.0,0.0,0.0,0.01883333333333337,-5.498166666666667,-5.498166666666667,-0.5438000000000001,0.5130000000000001,-0.03766666666666696,-0.44199999999999995,66.807,-0.0334,-0.21882500000000002,-0.10200000000000031,100.0,1.0,1.0,206.20666666666668,0.0,0.0,0.0,0.0,0.0,0.0,0.0,8740.4,0.0,55.0,5.0,240.4766666666667,1.0,0.0,0.0,0.0,0.0,0.0,0.0,0.0,0.4529999999999994,0.4529999999999994,0.0,0.0,1.0,55.0,616.79921,10000.0,85.000001,85.000001,85.000001,85.000001,395.0,0.0,0.0,0.0,1.0,333.33500000000004,52.475,52.475,49.179,49.179,34.0,-26.884999999999998,23.732,-28.97,25.990000000000002,0.0,1782.863,-0.509999999999998,100.0,27.767,27.277,42.389,41.862,0.0,0.0,100.0,0.0,0.0,0.0,0.0,3374.285714285714,3009.5,3986.625,4019.1000000000004,304.685,305.0826666666667,315.1835,314.86275,21.8679,20.5545,21.8644,21.3955,314.999998,314.999998,324.999988,324.999988,99.55914285714286,99.5073,99.56644285714286,99.54657142857143,0.061666666666666536,-0.06033333333333313,-0.1486666666666666,0.0818333333333332,-0.060000000000002274,-0.041666666666671404,1.5805,1.5675,37.675,29.466,37.653,34.722,56.230999999999995,34.8015,59.4185,52.185,54.147,33.9435,58.022,50.519,53.306,33.4885,57.96,49.932,-0.11299999999999999,-0.039000000000000146,0.107935,0.105135,0.0,209.25,209.23000000000002,206.20666666666668,206.20666666666668,0.0,0.0
10,0.0,0.0,0.0,1.0,1.0,0.0,0.0,1.0,0.0,100.0,1.0,1.1856,26.0,0.0,0.0,0.0,59.999996,0.0,26.0,26.0,26.0,26.0,0.000888888888888939,0.2983,0.05133333333333334,292.969,-2.6539,-2.715111111111111,-1.5888,-1.5390000000000001,-242.6,216.1125,190.789625,0.0,0.0,0.0,0.0,0.02083333333333337,-5.498166666666667,-5.498166666666667,-0.518,-0.3443333333333334,0.003555555555555534,1.808,66.95400000000001,-0.0134,-0.205175,-0.47999999999999954,100.0,1.0,1.0,206.44,0.0,0.0,0.0,0.0,0.0,0.0,0.0,8750.3,0.0,55.0,5.0,241.00333333333333,0.0,0.0,0.0,0.0,0.0,0.0,1.0,0.0,0.5040000000000013,0.5040000000000013,0.0,0.0,0.0,55.0,616.79921,10000.0,85.000001,85.000001,85.000001,85.000001,395.0,0.0,0.0,0.0,1.0,333.33500000000004,53.436,53.436,47.684,47.684,34.0,-20.8425,23.936,-30.616666666666667,29.965,0.0,1782.812,-0.634999999999998,100.0,27.872,27.134,42.835,42.511,0.0,0.0,100.0,0.0,0.0,0.0,0.0,2837.142857142857,2966.3,4304.25,4341.3,306.0975,305.44033333333334,314.3075,314.09475,21.8777,20.5598,21.875,21.4047,314.999998,314.999998,324.999988,324.999988,99.55915714285715,99.5073,99.56658571428571,99.54672857142857,0.08966666666666656,-0.036666666666666625,-0.10649999999999993,0.10533333333333328,-0.03833333333332689,-0.046666666666666856,1.492,1.474,37.736000000000004,29.499000000000002,37.719,34.7795,56.218,34.839,59.459,52.2485,54.135,33.9775,58.06,50.5805,53.293,33.5215,57.995,49.992,-0.128,-0.028000000000000025,0.098595,0.10203000000000001,0.0,209.67000000000002,209.695,206.44,206.44,0.0,0.0
11,0.0,0.0,0.0,1.0,1.0,0.0,0.0,1.0,0.0,100.0,1.0,1.1856,26.0,0.0,0.0,0.0,59.999996,0.0,26.0,26.0,26.0,26.0,0.04588888888888887,0.26290000000000013,-0.1033,293.51800000000003,-2.7072,-2.6822222222222223,-1.5538500000000002,-1.5239,-239.18,216.0875,190.769,0.0,0.0,0.0,0.0,0.022599999999999953,-5.498166666666667,-5.498166666666667,-0.5614,-0.32966666666666666,0.031888888888888856,-0.5469999999999999,67.092,0.0061,-0.23925000000000002,-0.6039999999999992,100.0,1.0,1.0,207.18333333333334,0.0,0.0,0.0,0.0,0.0,0.0,0.0,8781.8,0.0,55.0,5.0,241.50333333333333,1.0,0.0,0.0,0.0,0.0,0.0,1.0,0.0,0.5549999999999997,0.5549999999999997,0.0,0.0,1.0,55.0,616.79921,10000.0,85.000001,85.000001,85.000001,85.000001,395.0,0.0,0.0,0.0,1.0,333.33500000000004,52.826,52.826,49.286,49.286,34.0,-23.0175,25.631999999999998,-24.22,26.7825,0.0,1782.761,-0.620000000000001,100.0,27.477,27.539,42.353,42.593,0.0,0.0,100.0,0.0,0.0,0.0,0.0,3077.285714285714,3092.0,3679.0,3866.4,305.5855,304.837,315.898,315.226,21.8873,20.5652,21.8853,21.4138,314.999998,314.999998,324.999988,324.999988,99.55917142857143,99.50731666666667,99.56672857142857,99.54685714285715,0.09299999999999997,-0.02400000000000002,-0.10433333333333339,0.1333333333333333,-0.061666666666667425,-0.06499999999999773,1.6245,1.5885,37.796,29.533,37.783,34.836,56.203,34.8765,59.4935,52.3085,54.120999999999995,34.0125,58.092,50.638,53.278,33.5545,58.0245,50.04866666666666,-0.118,-0.02200000000000024,0.11288500000000001,0.105425,0.0,210.095,210.125,207.18333333333334,207.18333333333334,0.0,0.0
12,0.0,0.0,0.0,1.0,1.0,0.0,0.0,1.0,0.0,100.0,1.0,1.1856,26.0,0.0,0.0,0.0,59.999996,0.0,26.0,26.0,26.0,26.0,0.049111111111111105,0.28880000000000017,0.0318,292.953,-2.7611,-2.679333333333333,-1.55115,-1.5261,-235.95,216.0625,190.748125,0.0,0.0,0.0,0.0,0.025466666666666526,-5.498166666666667,-5.498166666666667,-0.547,0.33133333333333326,0.015222222222222026,-0.927,67.229,0.025400000000000002,-0.20655,-0.702,100.0,1.0,1.0,207.37666666666667,0.0,0.0,0.0,0.0,0.0,0.0,0.0,8789.9,0.0,55.0,5.0,241.99666666666667,0.0,0.0,0.0,0.0,0.0,0.0,1.0,0.0,0.602999999999998,0.602999999999998,0.0,0.0,0.0,55.0,616.79921,10000.0,85.000001,85.000001,85.000001,85.000001,395.0,0.0,0.0,0.0,1.0,166.665,52.841,52.841,47.974000000000004,47.974000000000004,34.0,-23.599999999999998,25.582,-28.106666666666662,30.04,0.0,1782.715,-0.4250000000000007,100.0,27.325,27.711,42.21,42.545,0.0,0.0,100.0,0.0,0.0,0.0,0.0,3135.0,3086.1,4241.375,4156.6,305.4695,304.873,314.5805,314.51925,21.8963,20.5704,21.8951,21.4222,314.999998,314.999998,324.999988,324.999988,99.55917142857143,99.50731666666667,99.56685714285715,99.54698571428571,0.10133333333333372,-0.022666666666666613,-0.08533333333333337,0.14116666666666666,-0.036666666666668846,-0.04833333333333201,1.527,1.5030000000000001,37.852000000000004,29.564999999999998,37.844,34.888999999999996,56.19,34.912,59.528999999999996,52.365,54.108999999999995,34.045500000000004,58.125,50.692499999999995,53.265,33.5865,58.0545,50.102000000000004,-0.11149999999999993,-0.03600000000000003,0.113155,0.10173000000000001,0.0,210.51,210.57999999999998,207.37666666666667,207.37666666666667,0.0,0.0
13,0.0,0.0,0.0,1.0,1.0,0.0,0.0,1.0,0.0,100.0,1.0,1.1856,26.0,0.0,0.0,0.0,59.999996,0.0,26.0,26.0,26.0,26.0,0.06966666666666677,0.28490000000000015,0.0523,292.557,-2.734,-2.674555555555556,-1.6209,-1.5094,-232.51999999999998,216.0375,190.726375,0.0,0.0,0.0,0.0,0.026699999999999946,-5.498166666666667,-5.498166666666667,-0.5386000000000001,-0.03733333333333333,0.023666666666666725,1.108,67.37100000000001,0.035500000000000004,-0.21352500000000002,-0.8579999999999997,100.0,1.0,1.0,207.75333333333333,0.0,0.0,0.0,0.0,0.0,0.0,0.0,8805.9,0.0,55.0,5.0,242.51,1.0,0.0,0.0,0.0,0.0,0.0,1.0,0.0,0.6539999999999999,0.6539999999999999,0.0,0.0,1.0,55.0,616.79921,10000.0,85.000001,85.000001,85.000001,85.000001,395.0,0.0,0.0,0.0,1.0,166.665,52.49,52.49,47.882,47.882,34.0,-21.0975,27.758,-26.943333333333335,32.8,0.0,1782.664,-0.754999999999999,100.0,27.817,27.774,42.578,42.941,0.0,0.0,100.0,0.0,0.0,0.0,0.0,3048.4285714285716,3184.6,4157.5,4365.2,305.5065,304.74266666666665,314.69475,314.069,21.906,20.576,21.9056,21.4314,314.999998,314.999998,324.999988,324.999988,99.5592,99.50731666666667,99.56701428571428,99.54714285714286,0.14233333333333364,0.0129999999999999,-0.0538333333333334,0.16266666666666674,-0.041666666666671404,-0.061666666666667425,1.509,1.4845,37.912,29.6,37.91,34.9465,56.18,34.9505,59.568,52.4285,54.098,34.0805,58.161,50.7535,53.253,33.6205,58.0875,50.162,-0.14100000000000001,-0.013500000000000068,0.09921500000000001,0.11114500000000001,0.0,210.95,211.015,207.75333333333333,207.75333333333333,0.0,0.0
14,0.0,0.0,0.0,1.0,1.0,0.0,0.0,1.0,0.0,100.0,1.0,1.1856,26.0,0.0,0.0,0.0,59.999996,0.0,26.0,26.0,26.0,26.0,0.0712222222222223,0.2764,-0.010866666666666667,292.801,-2.7357,-2.6189999999999998,-1.6268,-1.5182,-229.07999999999998,216.0125,190.705125,0.0,0.0,0.0,0.0,0.028699999999999948,-5.498166666666667,-5.498166666666667,-0.5483,-0.17399999999999993,0.04366666666666674,-0.2650000000000001,67.511,0.047900000000000005,-0.228075,-0.71,100.0,1.0,1.0,208.26999999999998,0.0,0.0,0.0,0.0,0.0,0.0,0.0,8827.8,0.0,55.0,5.0,243.01333333333332,0.0,0.0,0.0,0.0,0.0,0.0,1.0,0.0,0.7049999999999983,0.7049999999999983,0.0,0.0,0.0,55.0,616.79921,10000.0,85.000001,85.000001,85.000001,85.000001,395.0,0.0,0.0,0.0,1.0,333.33500000000004,52.628,52.628,48.126,48.126,34.0,-21.83,26.107999999999997,-26.133333333333333,30.8825,0.0,1782.612,-0.46499999999999986,100.0,27.58,27.947,42.459,43.252,0.0,0.0,100.0,0.0,0.0,0.0,0.0,3059.857142857143,3135.5,4047.375,4140.5,305.6515,304.734,315.0355,314.54725,21.9156,20.5815,21.916,21.4406,314.999998,314.999998,324.999988,324.999988,99.55921428571429,99.50731666666667,99.56715714285714,99.54728571428572,0.12333333333333352,-0.008333333333333304,-0.0595,0.16333333333333333,-0.04999999999999716,-0.045000000000001705,1.5675,1.518,37.972,29.6345,37.974999999999994,35.0035,56.169,34.988,59.6045,52.491,54.087,34.1155,58.195,50.8135,53.241,33.6535,58.118,50.221000000000004,-0.118,-0.03750000000000009,0.10619,0.10773500000000001,0.0,211.38,211.435,208.26999999999998,208.26999999999998,0.0,0.0
15,0.0,0.0,0.0,1.0,1.0,0.0,0.0,1.0,0.0,100.0,1.0,1.1856,26.0,0.0,0.0,0.0,59.999996,0.0,26.0,26.0,26.0,26.0,0.0712222222222223,0.29059999999999997,-0.0303,292.847,-2.7009,-2.5861111111111112,-1.6159,-1.4677,-225.84,215.9925,190.684875,0.0,0.0,0.0,0.0,0.03056666666666652,-5.498166666666667,-5.498166666666667,-0.5405,0.31099999999999994,0.06366666666666676,-0.31200000000000006,67.643,0.0528,-0.211675,-0.46999999999999975,100.0,1.0,1.0,208.67333333333335,0.0,0.0,0.0,0.0,0.0,0.0,0.0,8844.9,0.0,55.0,5.0,243.48666666666668,1.0,0.0,0.0,0.0,0.0,0.0,1.0,0.0,0.7530000000000001,0.7530000000000001,0.0,0.0,1.0,55.0,616.79921,10000.0,85.000001,85.000001,85.000001,85.000001,395.0,0.0,0.0,0.0,1.0,166.665,52.78,52.78,48.263999999999996,48.263999999999996,34.0,-21.3,24.914,-26.126666666666665,31.2225,0.0,1782.564,-0.16499999999999915,100.0,27.653,27.915,42.29,43.185,0.0,0.0,100.0,0.0,0.0,0.0,0.0,2949.4285714285716,3090.0,4021.375,4271.5,305.918,304.86333333333334,315.10425,314.26425,21.9245,20.5867,21.9258,21.4491,314.999998,314.999998,324.999988,324.999988,99.55922857142858,99.50731666666667,99.56728571428572,99.54742857142857,0.10833333333333339,-0.020000000000000018,-0.06433333333333335,0.16199999999999992,-0.051666666666669414,-0.041666666666671404,1.5414999999999999,1.5225,38.028,29.667,38.036,35.057,56.157,35.0235,59.638,52.549,54.077,34.1485,58.226,50.8695,53.230000000000004,33.6855,58.1465,50.275999999999996,-0.09099999999999997,-0.058499999999999996,0.10747000000000001,0.10507000000000001,0.0,211.82999999999998,211.84,208.67333333333335,208.67333333333335,0.0,0.0
16,0.0,0.0,0.0,1.0,1.0,0.0,0.0,1.0,0.0,100.0,1.0,1.1856,26.0,0.0,0.0,0.0,59.999996,0.0,26.0,26.0,26.0,26.0,0.043333333333333224,0.28380000000000005,-0.0262,292.908,-2.7846,-2.632888888888889,-1.57795,-1.4751,-222.39,215.9725,190.662875,0.0,0.0,0.0,0.0,0.03256666666666652,-5.498166666666667,-5.498166666666667,-0.5583,-0.7443333333333333,0.04400000000000004,0.013000000000000012,67.78399999999999,0.0454,-0.22325,-0.22999999999999954,100.0,1.0,1.0,209.09,0.0,0.0,0.0,0.0,0.0,0.0,0.0,8862.6,0.0,55.0,5.0,243.99333333333334,0.0,0.0,0.0,0.0,0.0,0.0,1.0,0.0,0.8039999999999985,0.8039999999999985,0.0,0.0,0.0,55.0,616.79921,10000.0,85.000001,85.000001,85.000001,85.000001,395.0,0.0,0.0,0.0,1.0,333.33500000000004,52.856,52.856,47.867,47.867,34.0,-22.2525,25.92,-25.053333333333335,30.105,0.0,1782.512,0.0,100.0,27.393,27.748,42.741,43.156,0.0,0.0,100.0,0.0,0.0,0.0,0.0,2965.285714285714,3220.1,3978.375,4131.5,305.8935,304.6426666666667,315.12725,314.638,21.933799999999998,20.5923,21.9363,21.4583,314.999998,314.999998,324.999988,324.999988,99.55922857142858,99.50731666666667,99.56742857142856,99.54757142857143,0.10566666666666658,-0.030000000000000027,-0.057499999999999996,0.1641666666666668,-0.030000000000001137,-0.061666666666667425,1.5394999999999999,1.534,38.086,29.7015,38.102000000000004,35.114,56.141,35.0615,59.676,52.6105,54.061,34.184,58.2615,50.929,53.213,33.7195,58.179,50.334,-0.07650000000000001,-0.07750000000000012,0.10492000000000001,0.10506000000000001,0.0,212.22500000000002,212.24,209.09,209.09,0.0,0.0
17,0.0,0.0,0.0,1.0,1.0,0.0,0.0,1.0,0.0,100.0,1.0,1.1856,26.0,0.0,0.0,0.0,59.999996,0.0,26.0,26.0,26.0,26.0,0.025333333333333208,0.28700000000000014,-0.00036666666666666667,292.618,-2.7288,-2.6005555555555557,-1.6037,-1.5114,-218.92000000000002,215.95499999999998,190.640375,0.0,0.0,0.0,0.0,0.034599999999999964,-5.498166666666667,-5.498166666666667,-0.55,0.5216666666666667,0.005111111111111066,-0.944,67.922,0.025900000000000003,-0.20467500000000002,0.18799999999999883,100.0,1.0,1.0,209.51,0.0,0.0,0.0,0.0,0.0,0.0,0.0,8880.4,0.0,55.0,5.0,244.49,1.0,0.0,0.0,0.0,0.0,0.0,1.0,0.0,0.8550000000000004,0.8550000000000004,0.0,0.0,1.0,55.0,616.79921,10000.0,85.000001,85.000001,85.000001,85.000001,395.0,0.0,0.0,0.0,1.0,333.33500000000004,52.551,52.551,47.974000000000004,47.974000000000004,34.0,-24.1725,23.034,-28.626666666666665,29.712500000000002,0.0,1782.46,-0.015000000000000568,100.0,27.885,28.112000000000002,42.535,43.09,0.0,0.0,100.0,0.0,0.0,0.0,0.0,3165.142857142857,2971.9,4258.875,4153.3,305.3955,305.289,314.59875,314.5835,21.9434,20.5979,21.9467,21.4673,314.999998,314.999998,324.999988,324.999988,99.55925714285715,99.50733333333334,99.56757142857143,99.54771428571429,0.08766666666666634,-0.04133333333333322,-0.07983333333333331,0.14266666666666672,-0.045000000000001705,-0.051666666666669414,1.5354999999999999,1.534,38.146,29.7365,38.167,35.171,56.129999999999995,35.101,59.7115,52.670500000000004,54.05,34.22,58.2945,50.9865,53.201,33.7545,58.209,50.39066666666667,-0.07399999999999995,-0.07500000000000018,0.10054500000000001,0.11424000000000001,0.0,212.70499999999998,212.70499999999998,209.51,209.51,0.0,0.0
18,0.0,0.0,0.0,1.0,1.0,0.0,0.0,1.0,0.0,100.0,1.0,1.1856,26.0,0.0,0.0,0.0,59.999996,0.0,26.0,26.0,26.0,26.0,-0.006000000000000005,0.2742,-0.028233333333333333,292.542,-2.7489,-2.588888888888889,-1.6085,-1.4687000000000001,-215.66,215.9375,190.619125,0.0,0.0,0.0,0.0,0.03649999999999998,-5.498166666666667,-5.498166666666667,-0.5581,-0.5823333333333334,0.01577777777777789,-0.3880000000000001,68.053,0.0094,-0.220475,0.19599999999999973,100.0,1.0,1.0,209.89333333333332,0.0,0.0,0.0,0.0,0.0,0.0,0.0,8896.6,0.0,55.0,5.0,244.96333333333334,0.0,0.0,0.0,0.0,0.0,0.0,1.0,0.0,0.9029999999999987,0.9029999999999987,0.0,0.0,0.0,55.0,616.79921,10000.0,85.000001,85.000001,85.000001,85.000001,395.0,0.0,0.0,0.0,1.0,333.33500000000004,52.49,52.49,47.729,47.729,34.0,-24.725,24.124000000000002,-29.689999999999998,27.045,0.0,1782.413,-0.0799999999999983,100.0,27.757,27.87,43.033,43.387,0.0,0.0,100.0,0.0,0.0,0.0,0.0,3179.857142857143,3134.2,4130.25,4094.8,305.4035,304.854,314.866,314.71375,21.9523,20.603,21.956699999999998,21.476,314.999998,314.999998,324.999988,324.999988,99.55925714285715,99.50733333333334,99.56771428571429,99.54785714285714,0.08099999999999996,-0.045666666666666744,-0.11849999999999994,0.11099999999999999,-0.046666666666666856,-0.036666666666668846,1.535,1.534,38.202,29.769,38.229,35.225,56.117000000000004,35.135999999999996,59.7485,52.729,54.038,34.253,58.329,51.043,53.188,33.7855,58.2405,50.446,-0.08250000000000002,-0.06800000000000006,0.104815,0.111005,0.0,213.07999999999998,213.04500000000002,209.89333333333332,209.89333333333332,0.0,0.0
19,0.0,0.0,0.0,1.0,1.0,0.0,0.0,1.0,0.0,100.0,1.0,1.1856,26.0,0.0,0.0,0.0,59.999996,0.0,26.0,26.0,26.0,26.0,-0.02388888888888885,0.29280000000000017,0.016166666666666666,292.053,-2.7053,-2.591333333333333,-1.61245,-1.4624000000000001,-212.19,215.91750000000002,190.596625,0.0,0.0,0.0,0.0,0.03849999999999998,-5.498166666666667,-5.498166666666667,-0.553,0.8306666666666669,0.016222222222222138,0.738,68.19,0.0018000000000000002,-0.213225,0.1460000000000008,100.0,1.0,1.0,210.33666666666667,0.0,0.0,0.0,0.0,0.0,0.0,0.0,8915.4,0.0,55.0,5.0,245.45333333333335,1.0,0.0,0.0,0.0,0.0,0.0,1.0,0.0,0.9540000000000006,0.9540000000000006,0.0,0.0,1.0,55.0,616.79921,10000.0,85.000001,85.000001,85.000001,85.000001,395.0,0.0,0.0,0.0,1.0,333.33500000000004,51.650999999999996,51.650999999999996,47.684,47.684,34.0,-24.825,25.148,-29.68,29.2575,0.0,1782.362,-0.054999999999999716,100.0,28.549,28.172,42.939,43.112,0.0,0.0,100.0,0.0,0.0,0.0,0.0,3179.0,3281.0,4192.375,4313.6,305.105,304.448,314.71925,314.307,21.962,20.6087,21.9671,21.4851,314.999998,314.999998,324.999988,324.999988,99.55927142857144,99.50735,99.56785714285714,99.548,0.07799999999999985,-0.05166666666666675,-0.10633333333333339,0.1246666666666667,-0.054999999999999716,-0.046666666666666856,1.53,1.54,38.263,29.804499999999997,38.294,35.282,56.105000000000004,35.177,59.7845,52.789,54.027,34.2905,58.3625,51.1005,53.176,33.822,58.2705,50.50233333333333,-0.07950000000000002,-0.07350000000000012,0.10027000000000001,0.11340000000000001,0.0,213.54500000000002,213.535,210.33666666666667,210.33666666666667,0.0,0.0
20,0.0,0.0,0.0,1.0,1.0,0.0,0.0,1.0,0.0,100.0,1.0,1.1856,26.0,0.0,0.0,0.0,59.999996,0.0,26.0,26.0,26.0,26.0,-0.015222222222222137,0.2711000000000001,-0.02206666666666667,292.297,-2.7472,-2.6580000000000004,-1.5366,-1.4753,-208.70999999999998,215.9,190.57425,0.0,0.0,0.0,0.0,0.04053333333333331,-5.498166666666667,-5.498166666666667,-0.5517000000000001,-0.984,0.007333333333333192,-0.9930000000000001,68.33,-0.0038,-0.220025,0.10200000000000031,100.0,1.0,1.0,210.60000000000002,0.0,0.0,0.0,0.0,0.0,0.0,0.0,8926.6,0.0,55.0,5.0,245.96,0.0,0.0,0.0,0.0,0.0,0.0,0.0,0.0,1.004999999999999,1.004999999999999,0.0,0.0,0.0,55.0,616.79921,10000.0,85.000001,85.000001,85.000001,85.000001,395.0,0.0,0.0,0.0,1.0,333.33500000000004,52.887,52.887,46.86,46.86,34.0,-23.7625,22.844,-30.116666666666667,29.0375,0.0,1782.31,-0.03500000000000014,100.0,27.845,27.98,43.511,43.559,0.0,0.0,100.0,0.0,0.0,0.0,0.0,2999.4285714285716,2983.9,4284.375,4313.4,305.9065,305.2196666666667,314.411,314.13475,21.9714,20.6142,21.9778,21.4944,314.999998,314.999998,324.999988,324.999988,99.55928571428572,99.50735,99.568,99.54814285714286,0.06566666666666654,-0.06233333333333313,-0.11299999999999999,0.10749999999999993,-0.04333333333332945,-0.021666666666668277,1.4765,1.4735,38.321,29.8385,38.361000000000004,35.34,56.089,35.2155,59.8255,52.8515,54.010999999999996,34.326,58.4005,51.161,53.16,33.856,58.3055,50.56166666666667,-0.07750000000000001,-0.06899999999999995,0.10427000000000002,0.10350500000000001,0.0,213.925,213.91,210.60000000000002,210.60000000000002,0.0,0.0
21,0.0,0.0,0.0,1.0,1.0,0.0,0.0,1.0,0.0,100.0,1.0,1.1856,26.0,0.0,0.0,0.0,59.999996,0.0,26.0,26.0,26.0,26.0,-0.0022222222222221255,0.2703,-0.07676666666666666,292.709,-2.6534,-2.7215555555555557,-1.5949499999999999,-1.5528,-205.42000000000002,215.8825,190.552625,0.0,0.0,0.0,0.0,0.04243333333333332,-5.498166666666667,-5.498166666666667,-0.5786,0.39166666666666683,-0.014666666666666828,-0.948,68.45400000000001,-0.010100000000000001,-0.22675,0.22600000000000087,100.0,1.0,1.0,211.2733333333333,0.0,0.0,0.0,0.0,0.0,0.0,0.0,8955.1,0.0,55.0,5.0,246.40666666666667,1.0,0.0,0.0,0.0,0.0,0.0,0.0,0.0,1.0530000000000008,1.0530000000000008,0.0,0.0,1.0,55.0,616.79921,10000.0,85.000001,85.000001,85.000001,85.000001,395.0,0.0,0.0,0.0,1.0,333.33500000000004,52.292,52.292,48.400999999999996,48.400999999999996,34.0,-24.69,23.772,-28.479999999999997,26.02,0.0,1782.263,-0.125,100.0,28.143,28.045,42.994,43.075,0.0,0.0,100.0,0.0,0.0,0.0,0.0,3207.285714285714,3010.0,3995.5,3938.1,305.182,305.07533333333333,315.2515,315.12975,21.9804,20.6194,21.9875,21.5028,314.999998,314.999998,324.999988,324.999988,99.55928571428572,99.50736666666667,99.56814285714286,99.54828571428571,0.07133333333333347,-0.06066666666666665,-0.1273333333333333,0.09883333333333333,-0.051666666666669414,-0.05333333333332746,1.5895,1.6,38.378,29.871499999999997,38.422,35.393,56.076,35.253,59.8565,52.905,53.998999999999995,34.361000000000004,58.4295,51.2125,53.147,33.8895,58.332,50.612,-0.08699999999999997,-0.06599999999999984,0.10615000000000001,0.10697000000000001,0.0,214.35000000000002,214.325,211.2733333333333,211.2733333333333,0.0,0.0
22,0.0,0.0,0.0,1.0,1.0,0.0,0.0,1.0,0.0,100.0,1.0,1.1856,26.0,0.0,0.0,0.0,59.999996,0.0,26.0,26.0,26.0,26.0,-0.0022222222222221255,0.26449999999999996,0.0051,292.145,-2.6317,-2.728888888888889,-1.5893000000000002,-1.5918,-201.93,215.8625,190.528875,0.0,0.0,0.0,0.0,0.04446666666666654,-5.498166666666667,-5.498166666666667,-0.5563,0.16199999999999992,-0.004222222222222349,1.29,68.593,-0.0128,-0.204075,0.09399999999999942,100.0,1.0,1.0,211.47333333333333,0.0,0.0,0.0,0.0,0.0,0.0,0.0,8963.5,0.0,55.0,5.0,246.90666666666667,0.0,0.0,0.0,0.0,0.0,0.0,0.0,0.0,1.1039999999999992,1.1039999999999992,0.0,0.0,0.0,55.0,616.79921,10000.0,85.000001,85.000001,85.000001,85.000001,395.0,0.0,0.0,0.0,1.0,333.33500000000004,52.322,52.322,47.134,47.134,34.0,-22.2375,24.799999999999997,-31.046666666666667,29.9975,0.0,1782.213,-0.23999999999999844,100.0,28.408,27.995,43.446,43.224000000000004,0.0,0.0,100.0,0.0,0.0,0.0,0.0,2977.857142857143,3094.3,4229.5,4304.2,305.6315,304.9456666666667,314.56125,314.2415,21.99,20.6249,21.9981,21.512,314.999998,314.999998,324.999988,324.999988,99.5593,99.50736666666667,99.56828571428571,99.54842857142857,0.08333333333333348,-0.05233333333333312,-0.12516666666666665,0.09783333333333322,-0.02833333333332888,-0.060000000000002274,1.4735,1.4825,38.438,29.906,38.488,35.4505,56.063,35.292500000000004,59.8965,52.966,53.986999999999995,34.3975,58.467,51.271,53.132999999999996,33.9245,58.366,50.669333333333334,-0.10150000000000003,-0.06000000000000005,0.107425,0.10372,0.0,214.785,214.765,211.47333333333333,211.47333333333333,0.0,0.0
23,0.0,0.0,0.0,1.0,1.0,0.0,0.0,1.0,0.0,100.0,1.0,1.1856,26.0,0.0,0.0,0.0,59.999996,0.0,26.0,26.0,26.0,26.0,0.003444444444444583,0.2533000000000001,-0.04816666666666667,292.114,-2.6734,-2.6692222222222224,-1.5230000000000001,-1.6013000000000002,-198.43,215.8425,190.505375,0.0,0.0,0.0,0.0,0.046499999999999986,-5.498166666666667,-5.498166666666667,-0.5756,-0.3576666666666666,-0.0040000000000000036,-0.685,68.727,-0.0091,-0.232275,0.06400000000000006,100.0,1.0,1.0,211.9766666666667,0.0,0.0,0.0,0.0,0.0,0.0,0.0,8984.9,0.0,55.0,5.0,247.39333333333335,1.0,0.0,0.0,0.0,0.0,0.0,0.0,0.0,1.1550000000000011,1.1550000000000011,0.0,0.0,1.0,55.0,616.79921,10000.0,85.000001,85.000001,85.000001,85.000001,395.0,0.0,0.0,0.0,1.0,333.33500000000004,51.727000000000004,51.727000000000004,48.035,48.035,34.0,-26.205,23.682000000000002,-27.496666666666663,28.1125,0.0,1782.162,-0.19500000000000028,100.0,28.372,28.259,43.508,43.627,0.0,0.0,100.0,0.0,0.0,0.0,0.0,3384.857142857143,3067.9,3957.25,4007.9,304.752,304.93666666666667,315.21,314.813,21.9996,20.6305,22.0086,21.5213,314.999998,314.999998,324.999988,324.999988,99.55931428571428,99.50738333333334,99.56844285714286,99.54857142857144,0.07533333333333347,-0.06333333333333324,-0.123,0.10650000000000004,-0.054999999999999716,-0.036666666666668846,1.521,1.526,38.497,29.941,38.554,35.507999999999996,56.05,35.332,59.9335,53.0275,53.974000000000004,34.434,58.5015,51.3305,53.120000000000005,33.9595,58.397999999999996,50.727333333333334,-0.09850000000000003,-0.06550000000000011,0.104275,0.1091,0.0,215.17000000000002,215.135,211.9766666666667,211.9766666666667,0.0,0.0
24,0.0,0.0,0.0,1.0,1.0,0.0,0.0,1.0,0.0,100.0,1.0,1.1856,26.0,0.0,0.0,0.0,59.999996,0.0,26.0,26.0,26.0,26.0,-0.006666666666666599,0.27960000000000007,-0.047433333333333334,292.358,-2.6964,-2.6766666666666667,-1.56715,-1.5423,-195.12,215.825,190.482875,0.0,0.0,0.0,0.0,0.04843333333333333,-5.498166666666667,-5.498166666666667,-0.5787,-0.3523333333333334,0.006555555555555648,-0.09400000000000008,68.855,-0.0041,-0.21727500000000002,-0.043999999999999595,100.0,1.0,1.0,212.29000000000002,0.0,0.0,0.0,0.0,0.0,0.0,0.0,8998.2,0.0,55.0,5.0,247.85000000000002,0.0,0.0,0.0,0.0,0.0,0.0,0.0,0.0,1.2029999999999994,1.2029999999999994,0.0,0.0,0.0,55.0,616.79921,10000.0,85.000001,85.000001,85.000001,85.000001,395.0,0.0,0.0,0.0,1.0,166.665,52.811,52.811,47.119,47.119,34.0,-22.6725,22.497999999999998,-31.17,28.14,0.0,1782.114,-0.2699999999999996,100.0,28.198999999999998,27.999,43.406,43.534,0.0,0.0,100.0,0.0,0.0,0.0,0.0,2995.714285714286,2920.9,4334.375,4133.0,305.83,305.4476666666667,314.347,314.62125,22.008499999999998,20.6357,22.0184,21.5299,314.999998,314.999998,324.999988,324.999988,99.55931428571428,99.50738333333334,99.56857142857143,99.54871428571428,0.08366666666666678,-0.06033333333333313,-0.12083333333333335,0.10383333333333322,-0.036666666666668846,-0.03499999999999659,1.521,1.508,38.553,29.973,38.614999999999995,35.562,56.037,35.368,59.9685,53.0835,53.962,34.467,58.534,51.3845,53.107,33.991,58.4275,50.78,-0.10350000000000004,-0.05600000000000005,0.11096,0.10387500000000001,0.0,215.56,215.55,212.29000000000002,212.29000000000002,0.0,0.0
25,0.0,0.0,0.0,1.0,1.0,0.0,0.0,1.0,0.0,100.0,1.0,1.1856,26.0,0.0,0.0,0.0,59.999996,0.0,26.0,26.0,26.0,26.0,-0.009000000000000008,0.26180000000000003,-0.05773333333333334,292.328,-2.7662,-2.638333333333333,-1.585,-1.5436,-191.61,215.805,190.457625,0.0,0.0,0.0,0.0,0.05046666666666655,-5.498166666666667,-5.498166666666667,-0.6103000000000001,-0.10299999999999998,0.01577777777777789,0.19099999999999995,68.987,0.0021000000000000003,-0.225225,-0.2079999999999993,100.0,1.0,1.0,212.83333333333331,0.0,0.0,0.0,0.0,0.0,0.0,0.0,9021.2,0.0,55.0,5.0,248.32666666666665,1.0,0.0,0.0,0.0,0.0,0.0,0.0,0.0,1.2540000000000013,1.2540000000000013,0.0,0.0,1.0,55.0,616.79921,10000.0,85.000001,85.000001,85.000001,85.000001,395.0,0.0,0.0,0.0,1.0,166.665,51.926,51.926,47.882,47.882,34.0,-24.7975,26.322000000000003,-26.803333333333335,28.2075,0.0,1782.063,-0.28000000000000114,100.0,28.179,28.078,43.263,43.298,0.0,0.0,100.0,0.0,0.0,0.0,0.0,3188.142857142857,3323.7,3927.625,4066.6000000000004,305.256,304.371,315.32975,314.85575,22.0178,20.6413,22.0288,21.539,314.999998,314.999998,324.999988,324.999988,99.55932857142857,99.5074,99.56871428571428,99.54885714285714,0.08933333333333371,-0.043333333333333224,-0.10250000000000004,0.12166666666666681,-0.045000000000001705,-0.05333333333332746,1.5685,1.5615,38.611000000000004,30.008,38.68,35.619,56.022,35.407,60.0035,53.1415,53.948,34.503,58.5665,51.44,53.091,34.025999999999996,58.4565,50.834666666666664,-0.10199999999999998,-0.05650000000000022,0.10447000000000001,0.10658000000000001,0.0,215.965,215.97,212.83333333333331,212.83333333333331,0.0,0.0
26,0.0,0.0,0.0,1.0,1.0,0.0,0.0,1.0,0.0,100.0,1.0,1.1856,26.0,0.0,0.0,0.0,59.999996,0.0,26.0,26.0,26.0,26.0,0.005222222222222239,0.2825,0.07306666666666667,291.168,-2.7215,-2.7084444444444444,-1.6336,-1.5332,-188.09,215.785,190.431875,0.0,0.0,0.0,0.0,0.05253333333333332,-5.498166666666667,-5.498166666666667,-0.5728,0.7516666666666667,-0.0021111111111111747,-0.778,69.124,0.0078000000000000005,-0.1976,-0.11399999999999988,100.0,1.0,1.0,213.0,0.0,0.0,0.0,0.0,0.0,0.0,0.0,9028.3,0.0,55.0,5.0,248.81666666666666,0.0,0.0,0.0,0.0,0.0,0.0,0.0,0.0,1.3049999999999997,1.3049999999999997,0.0,0.0,0.0,55.0,616.79921,10000.0,85.000001,85.000001,85.000001,85.000001,395.0,0.0,0.0,0.0,1.0,333.33500000000004,51.361000000000004,51.361000000000004,46.295,46.295,34.0,-24.2475,24.712,-33.96,31.67,0.0,1782.011,-0.33999999999999986,100.0,28.865000000000002,28.902,43.541,43.746,0.0,0.0,100.0,0.0,0.0,0.0,0.0,3255.857142857143,3076.1,4573.125,4466.3,305.0645,304.8063333333333,313.8745,313.81375,22.0275,20.647100000000002,22.0393,21.5483,314.999998,314.999998,324.999988,324.999988,99.55934285714285,99.5074,99.56887142857143,99.54901428571429,0.10533333333333372,-0.05233333333333312,-0.11083333333333334,0.1136666666666668,-0.02833333333332888,-0.051666666666669414,1.443,1.4355,38.672,30.0445,38.745999999999995,35.677,56.013,35.448499999999996,60.042,53.2035,53.938,34.5415,58.6025,51.4995,53.081,34.0625,58.4895,50.89266666666666,-0.11699999999999999,-0.05549999999999988,0.11039000000000002,0.10680500000000001,0.0,216.4,216.41500000000002,213.0,213.0,0.0,0.0
27,0.0,0.0,0.0,1.0,1.0,0.0,0.0,1.0,0.0,100.0,1.0,1.1856,26.0,0.0,0.0,0.0,59.999996,0.0,26.0,26.0,26.0,26.0,0.026999999999999913,0.2491000000000001,-0.020766666666666666,291.55,-2.6939,-2.6694444444444443,-1.6284,-1.6022,-184.76999999999998,215.765,190.40875,0.0,0.0,0.0,0.0,0.054433333333333334,-5.498166666666667,-5.498166666666667,-0.5937,-1.0403333333333333,0.004444444444444251,-0.7130000000000001,69.248,0.0114,-0.2401,-0.2160000000000002,100.0,1.0,1.0,213.45333333333332,0.0,0.0,0.0,0.0,0.0,0.0,0.0,9047.6,0.0,55.0,5.0,249.26666666666665,1.0,0.0,0.0,0.0,0.0,0.0,0.0,0.0,1.352999999999998,1.352999999999998,0.0,0.0,1.0,55.0,616.79921,10000.0,85.000001,85.000001,85.000001,85.000001,395.0,0.0,0.0,0.0,1.0,333.33500000000004,51.804,51.804,46.524,46.524,34.0,-23.3825,24.816000000000003,-29.46333333333333,30.4025,0.0,1781.964,-0.4250000000000007,100.0,28.501,28.721,44.237,44.435,0.0,0.0,100.0,0.0,0.0,0.0,0.0,3143.142857142857,3103.8,4165.5,4104.0,305.426,304.82933333333335,314.7525,314.57025,22.0362,20.6524,22.0493,21.5572,314.999998,314.999998,324.999988,324.999988,99.55935714285714,99.5074,99.56901428571429,99.54914285714285,0.09633333333333338,-0.044333333333333114,-0.09750000000000003,0.13050000000000006,-0.041666666666671404,-0.04333333333332945,1.4985,1.4815,38.727000000000004,30.0775,38.808,35.7325,56.0,35.4845,60.079499999999996,53.2625,53.927,34.575,58.6375,51.5565,53.068,34.095,58.5215,50.94833333333334,-0.10999999999999999,-0.052999999999999936,0.101665,0.10884,0.0,216.74,216.755,213.45333333333332,213.45333333333332,0.0,0.0
28,0.0,0.0,0.0,1.0,1.0,0.0,0.0,1.0,0.0,100.0,1.0,1.1856,26.0,0.0,0.0,0.0,59.999996,0.0,26.0,26.0,26.0,26.0,0.019333333333333425,0.26090000000000013,-0.05316666666666667,291.916,-2.7035,-2.671222222222222,-1.5721500000000002,-1.5668000000000002,-181.23000000000002,215.7475,190.3835,0.0,0.0,0.0,0.0,0.056499999999999995,-5.498166666666667,-5.498166666666667,-0.6033000000000001,0.5956666666666668,-0.0005555555555556424,0.769,69.377,0.018000000000000002,-0.220725,-0.3719999999999999,100.0,1.0,1.0,214.01,0.0,0.0,0.0,0.0,0.0,0.0,0.0,9071.1,0.0,55.0,5.0,249.73000000000002,0.0,0.0,0.0,0.0,0.0,0.0,0.0,0.0,1.404,1.404,0.0,0.0,0.0,55.0,616.79921,10000.0,85.000001,85.000001,85.000001,85.000001,395.0,0.0,0.0,0.0,1.0,333.33500000000004,51.712,51.712,47.638,47.638,34.0,-22.7075,26.222,-26.43,29.5225,0.0,1781.912,-0.46000000000000085,100.0,28.728,28.468,43.574,43.805,0.0,0.0,100.0,0.0,0.0,0.0,0.0,3141.285714285714,3185.8,3985.375,4129.0,305.263,304.7443333333333,315.18475,314.726,22.0457,20.6581,22.0595,21.5663,314.999998,314.999998,324.999988,324.999988,99.55937142857142,99.50741666666667,99.56914285714285,99.5493,0.11766666666666659,-0.02499999999999991,-0.08716666666666661,0.13000000000000012,-0.04333333333332945,-0.051666666666669414,1.559,1.548,38.786,30.113500000000002,38.872,35.789500000000004,55.989000000000004,35.524,60.112,53.3195,53.916,34.6115,58.668,51.6115,53.057,34.1295,58.5485,51.002,-0.11949999999999994,-0.04499999999999993,0.108395,0.10086500000000001,0.0,217.2,217.2,214.01,214.01,0.0,0.0
29,0.0,0.0,0.0,1.0,1.0,0.0,0.0,1.0,0.0,100.0,1.0,1.1856,26.0,0.0,0.0,0.0,59.999996,0.0,26.0,26.0,26.0,26.0,0.05044444444444429,0.2599,0.04706666666666667,291.595,-2.6727,-2.701777777777778,-1.5814,-1.5417,-177.69,215.73000000000002,190.357125,0.0,0.0,0.0,0.0,0.058566666666666545,-5.498166666666667,-5.498166666666667,-0.6033000000000001,-0.696,0.008777777777777773,-0.558,69.512,0.0245,-0.214175,-0.39399999999999924,100.0,1.0,1.0,214.22,0.0,0.0,0.0,0.0,0.0,0.0,0.0,9080.0,0.0,55.0,5.0,250.21666666666667,1.0,0.0,0.0,0.0,0.0,0.0,0.0,0.0,1.4549999999999983,1.4549999999999983,0.0,0.0,1.0,55.0,616.79921,10000.0,85.000001,85.000001,85.000001,85.000001,395.0,0.0,0.0,0.0,1.0,333.33500000000004,51.987,51.987,46.509,46.509,34.0,-22.66,25.826,-29.199999999999996,31.802500000000002,0.0,1781.861,-0.4400000000000013,100.0,28.145,28.514,43.777,44.18,0.0,0.0,100.0,0.0,0.0,0.0,0.0,3153.0,3135.1,4257.25,4286.1,305.44,304.6623333333333,314.51,314.2035,22.0549,20.6638,22.0701,21.5757,314.999998,314.999998,324.999988,324.999988,99.55938571428571,99.50741666666667,99.5693,99.54944285714285,0.10899999999999999,-0.036666666666666625,-0.08833333333333337,0.1423333333333332,-0.04833333333333201,-0.045000000000001705,1.4805,1.458,38.843,30.1485,38.938,35.848,55.976,35.5615,60.150999999999996,53.3815,53.903,34.646,58.704,51.671,53.043,34.163,58.5815,51.06,-0.11549999999999994,-0.046499999999999986,0.1044,0.10831,0.0,217.57999999999998,217.585,214.22,214.22,0.0,0.0
30,0.0,0.0,0.0,1.0,1.0,0.0,0.0,1.0,0.0,100.0,1.0,1.1856,26.0,0.0,0.0,0.0,59.999996,0.0,26.0,26.0,26.0,26.0,0.05488888888888899,0.25639999999999996,0.039900000000000005,291.061,-2.7258,-2.5922222222222224,-1.5545499999999999,-1.5967,-174.35,215.7125,190.332125,0.0,0.0,0.0,0.0,0.0605,-5.498166666666667,-5.498166666666667,-0.6066,0.7466666666666668,0.003666666666666707,-0.94,69.633,0.029500000000000002,-0.22095,-0.4299999999999997,100.0,1.0,1.0,214.68,0.0,0.0,0.0,0.0,0.0,0.0,0.0,9099.5,0.0,55.0,5.0,250.65666666666667,0.0,0.0,0.0,0.0,0.0,0.0,1.0,0.0,1.5030000000000001,1.5030000000000001,0.0,0.0,0.0,55.0,616.79921,10000.0,85.000001,85.000001,85.000001,85.000001,395.0,0.0,0.0,0.0,1.0,333.33500000000004,50.613,50.613,47.028,47.028,34.0,-24.7975,26.052,-27.626666666666665,31.285,0.0,1781.813,-0.4250000000000007,100.0,28.993,29.271,43.617000000000004,44.208,0.0,0.0,100.0,0.0,0.0,0.0,0.0,3414.0,3223.5,4176.5,4192.5,304.5765,304.3183333333333,314.79025,314.39475,22.0639,20.6694,22.0798,21.5844,314.999998,314.999998,324.999988,324.999988,99.5594,99.50741666666667,99.56944285714286,99.54958571428571,0.1243333333333334,-0.02933333333333321,-0.08183333333333331,0.1353333333333333,-0.045000000000001705,-0.054999999999999716,1.498,1.4929999999999999,38.899,30.183500000000002,38.998999999999995,35.9025,55.968,35.6005,60.183,53.438,53.894999999999996,34.682,58.734,51.7255,53.034,34.1975,58.608000000000004,51.11333333333333,-0.12549999999999994,-0.04899999999999993,0.10727500000000001,0.10522000000000001,0.0,217.96,217.995,214.68,214.68,0.0,0.0
31,0.0,0.0,0.0,1.0,1.0,0.0,0.0,1.0,0.0,100.0,1.0,1.1856,26.0,0.0,0.0,0.0,59.999996,0.0,26.0,26.0,26.0,26.0,0.0427777777777778,0.25480000000000014,0.022366666666666667,290.878,-2.774,-2.571888888888889,-1.59925,-1.4955,-170.59,215.695,190.30475,0.0,0.0,0.0,0.0,0.06269999999999998,-5.498166666666667,-5.498166666666667,-0.5895,-0.5366666666666666,0.011777777777777887,-0.728,69.773,0.0335,-0.22057500000000002,-0.35599999999999987,100.0,1.0,1.0,214.98333333333335,0.0,0.0,0.0,0.0,0.0,0.0,0.0,9112.4,0.0,55.0,5.0,251.15666666666667,1.0,0.0,0.0,0.0,0.0,0.0,1.0,0.0,1.5569999999999986,1.5569999999999986,0.0,0.0,1.0,55.0,616.79921,10000.0,85.000001,85.000001,85.000001,85.000001,395.0,0.0,0.0,0.0,1.0,166.665,51.193,51.193,45.593,45.593,34.0,-23.595,26.27,-29.53666666666666,30.675,0.0,1781.76,-0.5,100.0,28.749,29.27,44.32,44.903,0.0,0.0,100.0,0.0,0.0,0.0,0.0,3213.857142857143,3274.8,4354.625,4220.6,305.346,304.39866666666666,314.28075,314.32675,22.0737,20.6755,22.091,21.5945,314.999998,314.999998,324.999988,324.999988,99.55941428571428,99.50743333333334,99.5696,99.54975714285715,0.11966666666666637,-0.024333333333333318,-0.0731666666666666,0.14166666666666683,-0.04999999999999716,-0.041666666666671404,1.4575,1.4415,38.961,30.222,39.069,35.9655,55.956,35.6425,60.225,53.5045,53.884,34.721000000000004,58.772999999999996,51.79,53.022,34.235,58.644,51.17633333333333,-0.12249999999999994,-0.047499999999999876,0.09685500000000001,0.10937000000000001,0.0,218.385,218.405,214.98333333333335,214.98333333333335,0.0,0.0
32,0.0,0.0,0.0,1.0,1.0,0.0,0.0,1.0,0.0,100.0,1.0,1.1856,26.0,0.0,0.0,0.0,59.999996,0.0,26.0,26.0,26.0,26.0,0.050999999999999934,0.26550000000000007,-0.036033333333333334,291.245,-2.7279,-2.674,-1.65475,-1.5006,-167.23000000000002,215.6825,190.28075,0.0,0.0,0.0,0.0,0.06463333333333332,-5.498166666666667,-5.498166666666667,-0.6054,-0.09266666666666656,-0.009444444444444589,-1.1960000000000002,69.893,0.0327,-0.22825,-0.4379999999999997,100.0,1.0,1.0,215.48000000000002,0.0,0.0,0.0,0.0,0.0,0.0,0.0,9133.4,0.0,55.0,5.0,251.58666666666664,0.0,0.0,0.0,0.0,0.0,0.0,1.0,0.0,1.6050000000000004,1.6050000000000004,0.0,0.0,0.0,55.0,616.79921,10000.0,85.000001,85.000001,85.000001,85.000001,395.0,0.0,0.0,0.0,1.0,333.33500000000004,51.361000000000004,51.361000000000004,46.539,46.539,34.0,-23.2775,26.272,-28.863333333333337,31.2,0.0,1781.711,-0.5300000000000011,100.0,28.737000000000002,29.221,44.07,44.667,0.0,0.0,100.0,0.0,0.0,0.0,0.0,3234.142857142857,3116.5,4223.625,4249.3,305.2175,304.7896666666667,314.7415,314.43575,22.0824,20.681,22.1008,21.6032,314.999998,314.999998,324.999988,324.999988,99.55942857142857,99.50743333333334,99.56974285714286,99.54988571428571,0.12233333333333363,-0.014000000000000012,-0.0761666666666666,0.15583333333333327,-0.051666666666669414,-0.05333333333332746,1.541,1.508,39.015,30.2565,39.129999999999995,36.019999999999996,55.946,35.6795,60.2575,53.561,53.873999999999995,34.7555,58.803,51.844,53.01,34.268,58.671,51.22933333333333,-0.125,-0.04349999999999987,0.10334000000000002,0.110115,0.0,218.75,218.79500000000002,215.48000000000002,215.48000000000002,0.0,0.0
33,0.0,0.0,0.0,1.0,1.0,0.0,0.0,1.0,0.0,100.0,1.0,1.1856,26.0,0.0,0.0,0.0,59.999996,0.0,26.0,26.0,26.0,26.0,0.05077777777777781,0.26249999999999996,-0.0171,291.458,-2.7293,-2.674666666666667,-1.592,-1.585,-163.88,215.67000000000002,190.25575,0.0,0.0,0.0,0.0,0.06659999999999999,-5.498166666666667,-5.498166666666667,-0.6146,-0.33333333333333337,-0.01088888888888917,0.06799999999999995,70.015,0.034300000000000004,-0.218225,-0.4239999999999995,100.0,1.0,1.0,215.82333333333332,0.0,0.0,0.0,0.0,0.0,0.0,0.0,9148.0,0.0,55.0,5.0,252.02666666666664,1.0,0.0,0.0,0.0,0.0,0.0,1.0,0.0,1.6529999999999987,1.6529999999999987,0.0,0.0,1.0,55.0,616.79921,10000.0,85.000001,85.000001,85.000001,85.000001,395.0,0.0,0.0,0.0,1.0,333.33500000000004,51.788,51.788,46.646,46.646,34.0,-22.634999999999998,25.28,-28.28,31.7775,0.0,1781.663,-0.5249999999999986,100.0,28.589,28.951999999999998,43.977000000000004,44.536,0.0,0.0,100.0,0.0,0.0,0.0,0.0,3154.285714285714,3058.4,4196.625,4214.1,305.4695,304.997,314.70625,314.4615,22.0911,20.6863,22.110599999999998,21.6119,314.999998,314.999998,324.999988,324.999988,99.55944285714286,99.50743333333334,99.56987142857143,99.55002857142857,0.12166666666666659,-0.02400000000000002,-0.08066666666666666,0.14816666666666678,-0.036666666666668846,-0.03833333333332689,1.509,1.504,39.07,30.2895,39.191,36.0745,55.936,35.714,60.291,53.617,53.864000000000004,34.7875,58.8345,51.897999999999996,53.0,34.298500000000004,58.699,51.281666666666666,-0.12649999999999995,-0.04400000000000004,0.1052,0.11184500000000001,0.0,219.125,219.15,215.82333333333332,215.82333333333332,0.0,0.0
34,0.0,0.0,0.0,1.0,1.0,0.0,0.0,1.0,0.0,100.0,1.0,1.1856,26.0,0.0,0.0,0.0,59.999996,0.0,26.0,26.0,26.0,26.0,0.05877777777777782,0.2501,-0.0409,291.718,-2.6768,-2.664555555555556,-1.66385,-1.5443,-160.09,215.6575,190.226125,0.0,0.0,0.0,0.0,0.06879999999999997,-5.498166666666667,-5.498166666666667,-0.6433,-0.8516666666666667,0.022222222222222143,-0.14800000000000013,70.151,0.0378,-0.223475,-0.44599999999999973,100.0,1.0,1.0,216.24333333333334,0.0,0.0,0.0,0.0,0.0,0.0,0.0,9165.8,0.0,55.0,5.0,252.51666666666665,0.0,0.0,0.0,0.0,0.0,0.0,1.0,0.0,1.7070000000000007,1.7070000000000007,0.0,0.0,0.0,55.0,616.79921,10000.0,85.000001,85.000001,85.000001,85.000001,395.0,0.0,0.0,0.0,1.0,166.665,52.048,52.048,47.195,47.195,34.0,-21.64,25.406,-28.019999999999996,31.145,0.0,1781.61,-0.5,100.0,28.35,28.675,43.738,44.604,0.0,0.0,100.0,0.0,0.0,0.0,0.0,3126.4285714285716,3072.0,4104.625,4191.4,305.5245,305.06533333333334,314.973,314.455,22.1008,20.6923,22.1215,21.6219,314.999998,314.999998,324.999988,324.999988,99.55947142857143,99.50743333333334,99.57002857142857,99.5502,0.1283333333333334,-0.01866666666666661,-0.07233333333333336,0.14949999999999997,-0.041666666666671404,-0.051666666666669414,1.5125,1.513,39.129999999999995,30.3265,39.259,36.1365,55.923,35.7525,60.326499999999996,53.6815,53.852000000000004,34.823,58.867,51.96,52.986000000000004,34.332499999999996,58.7285,51.342333333333336,-0.123,-0.04150000000000009,0.10533500000000001,0.10819000000000001,0.0,219.54000000000002,219.56,216.24333333333334,216.24333333333334,0.0,0.0
35,0.0,0.0,0.0,1.0,1.0,0.0,0.0,1.0,0.0,100.0,1.0,1.1856,26.0,0.0,0.0,0.0,59.999996,0.0,26.0,26.0,26.0,26.0,0.043333333333333224,0.2411000000000001,-0.06683333333333334,291.702,-2.7321,-2.6085555555555557,-1.6314000000000002,-1.5070000000000001,-156.51,215.64499999999998,190.19625,0.0,0.0,0.0,0.0,0.07086666666666652,-5.498166666666667,-5.498166666666667,-0.6825,-0.2666666666666666,0.004555555555555646,-0.127,70.277,0.0436,-0.231625,-0.5439999999999996,100.0,1.0,1.0,216.70333333333332,0.0,0.0,0.0,0.0,0.0,0.0,0.0,9185.3,0.0,55.0,5.0,252.97333333333336,1.0,0.0,0.0,0.0,0.0,0.0,1.0,0.0,1.7579999999999991,1.7579999999999991,0.0,0.0,1.0,55.0,616.79921,10000.0,85.000001,85.000001,85.000001,85.000001,395.0,0.0,0.0,0.0,1.0,166.665,51.559,51.559,46.799,46.799,34.0,-21.947499999999998,28.692,-25.939999999999998,29.815,0.0,1781.559,-0.3099999999999987,100.0,28.28,28.808,43.641999999999996,44.058,0.0,0.0,100.0,0.0,0.0,0.0,0.0,3071.285714285714,3425.5,4009.875,4041.1000000000004,305.5185,304.02066666666667,315.09025,314.9055,22.1099,20.6981,22.1318,21.631,314.999998,314.999998,324.999988,324.999988,99.55948571428571,99.50745,99.57017142857143,99.55034285714285,0.12766666666666637,-0.008333333333333304,-0.05466666666666664,0.16383333333333328,-0.04833333333333201,-0.054999999999999716,1.544,1.5305,39.187,30.363,39.324,36.194,55.909,35.7915,60.36,53.738,53.839,34.859,58.8985,52.0145,52.972,34.3675,58.7565,51.396,-0.10199999999999998,-0.05600000000000005,0.10029,0.11321500000000001,0.0,219.93,219.97,216.70333333333332,216.70333333333332,0.0,0.0
