,ABS Active,ABS Enabled,AID Allow Tire Blankets,AID Auto Blip,AID Auto Clutch,AID Auto Shift,AID Fuel Rate,AID Ideal Line,AID Mech Damage,AID Stability,AID Tire Wear Rate,Air Density,Air Temp,Ballast,Best Lap Delta,Best Lap Time,Brake Bias,Brake Pos,Brake Temp FL,Brake Temp FR,Brake Temp RL,Brake Temp RR,CG Accel Lateral,CG Accel Longitudinal,CG Accel Vertical,CG Height,Camber FL,Camber FR,Camber RL,Camber RR,Car Coord X,Car Coord Y,Car Coord Z,Car Damage Front,Car Damage Left,Car Damage Rear,Car Damage Right,Car Pos Norm,Caster FL,Caster FR,Chassis Pitch Angle,Chassis Pitch Rate,Chassis Roll Angle,Chassis Roll Rate,Chassis Velocity X,Chassis Velocity Y,Chassis Velocity Z,Chassis Yaw Rate,Clutch Pos,DRS Active,DRS Available,Drive Train Speed,ERS Heat Charging,ERS Is Charging,ERS Max Energy,ERS Power Level,ERS Recovery Level,Engine Brake Setting,Engine Limiter,Engine RPM,Flags,Fuel Level,Gear,Ground Speed,HR Sample Clock,In Pit,KERS Charge,KERS Deployed Energy,KERS Input,KERS Max Energy,LR Sample Clock,Lap Invalidated,Lap Time,Lap Time2,Last Lap Time,Last Sector Time,MR Sample Clock,Max Fuel,Max Power,Max RPM,Max Sus Travel FL,Max Sus Travel FR,Max Sus Travel RL,Max Sus Travel RR,Max Torque,Max Turbo Boost,Num Tires Off Track,Penalties Enabled,Position,Raw Data Sample Rate,Ride Height FL,Ride Height FR,Ride Height RL,Ride Height RR,Road Temp,Self Align Torque FL,Self Align Torque FR,Self Align Torque RL,Self Align Torque RR,Session Lap Count,Session Time Left,Steering Angle,Surface Grip,Suspension Travel FL,Suspension Travel FR,Suspension Travel RL,Suspension Travel RR,TC Active,TC Enabled,Throttle Pos,Tire Dirt Level FL,Tire Dirt Level FR,Tire Dirt Level RL,Tire Dirt Level RR,Tire Load FL,Tire Load FR,Tire Load RL,Tire Load RR,Tire Loaded Radius FL,Tire Loaded Radius FR,Tire Loaded Radius RL,Tire Loaded Radius RR,Tire Pressure FL,Tire Pressure FR,Tire Pressure RL,Tire Pressure RR,Tire Radius FL,Tire Radius FR,Tire Radius RL,Tire Radius RR,Tire Rubber Grip FL,Tire Rubber Grip FR,Tire Rubber Grip RL,Tire Rubber Grip RR,Tire Slip Angle FL,Tire Slip Angle FR,Tire Slip Angle RL,Tire Slip Angle RR,Tire Slip Ratio FL,Tire Slip Ratio FR,Tire Slip Ratio RL,Tire Slip Ratio RR,Tire Temp Core FL,Tire Temp Core FR,Tire Temp Core RL,Tire Temp Core RR,Tire Temp Inner FL,Tire Temp Inner FR,Tire Temp Inner RL,Tire Temp Inner RR,Tire Temp Middle FL,Tire Temp Middle FR,Tire Temp Middle RL,Tire Temp Middle RR,Tire Temp Outer FL,Tire Temp Outer FR,Tire Temp Outer RL,Tire Temp Outer RR,Toe In FL,Toe In FR,Toe In RL,Toe In RR,Turbo Boost,Wheel Angular Speed FL,Wheel Angular Speed FR,Wheel Angular Speed RL,Wheel Angular Speed RR,Wind Direction,Wind Speed
0,0.0,0.0,0.0,1.0,1.0,0.0,0.0,1.0,0.0,100.0,1.0,1.1856,26.0,0.0,0.0,0.0,59.99999,0.0,26.0,26.0,26.0,26.0,-0.03744444444444439,0.29370000000000007,0.2155,293.106,-2.7898,-2.6204,-1.55725,-1.5127000000000002,-275.61,215.5275,190.987,0.0,0.0,0.0,0.0,0.0016333333333333332,-5.498166666666667,-5.498166666666667,-0.5583,2.0736666666666665,-0.004375000000000018,-1.1629999999999998,65.495,-0.03179999999999994,-0.22157500000000002,0.09600000000000009,100.0,1.0,1.0,202.20333333333332,0.0,0.0,0.0,0.0,0.0,0.0,0.0,8570.7,0.0,55.0,5.0,235.75,0.0,0.0,0.0,0.0,0.0,0.0,0.0,0.0,0.0030000000000001137,0.0030000000000001137,0.0,0.0,0.0,55.0,616.79921,10000.0,85.0,85.0,85.0,85.0,395.0,0.0,0.0,0.0,1.0,20.0,50.797,50.797,48.599000000000004,48.599000000000004,34.0,-29.8925,32.094,-30.59,26.4775,0.0,1783.543,0.240000000000002,100.0,27.372,27.409,40.347,40.141999999999996,0.0,0.0,100.0,0.0,0.0,0.0,0.0,3354.4285714285716,4299.9,4153.555555555556,4102.7,304.673,301.43425,314.7895,314.59225,21.833125,20.5245,21.7596,21.303,314.99999,314.99999,324.99998,324.99998,99.5623,99.50751666666666,99.56471428571429,99.54471428571429,0.015750000000000153,-0.09099999999999997,-0.14816666666666656,0.08740000000000014,-0.05833333333333002,-0.07166666666666544,1.5345,1.537,37.457,29.2785,36.998000000000005,34.1435,57.455,34.704499999999996,58.908,51.4655,55.272999999999996,33.846000000000004,57.539500000000004,49.835,54.387,33.388999999999996,57.501999999999995,49.266,-0.056499999999999995,-0.09349999999999992,0.11023000000000001,0.11125000000000002,0.0,205.24,205.22500000000002,202.20333333333332,202.20333333333332,0.0,0.0
1,0.0,0.0,0.0,1.0,1.0,0.0,0.0,1.0,0.0,100.0,1.0,1.1856,26.0,0.0,0.0,0.0,59.999996,0.0,26.0,26.0,26.0,26.0,-0.07944444444444443,0.31800000000000006,0.21616666666666667,292.404,-2.6891,-2.7069,-1.59725,-1.4515,-272.07,215.54250000000002,190.966125,0.0,0.0,0.0,0.0,0.0037,-5.498166666666667,-5.498166666666667,-0.4823,-2.3663333333333334,-0.05149999999999988,-0.5459999999999998,65.663,-0.028799999999999937,-0.19365000000000002,0.6699999999999999,100.0,1.0,1.0,202.14666666666668,0.0,0.0,0.0,0.0,0.0,0.0,0.0,8568.3,0.0,55.0,5.0,236.35666666666668,1.0,0.0,0.0,0.0,0.0,0.0,0.0,0.0,0.05699999999999861,0.05699999999999861,0.0,0.0,1.0,55.0,616.79921,10000.0,85.000001,85.000001,85.000001,85.000001,395.0,0.0,0.0,0.0,1.0,166.665,54.291,54.291,47.531,47.531,34.0,-23.53,16.884,-37.39,31.8325,0.0,1783.49,0.45500000000000185,100.0,27.552,26.982,42.623000000000005,43.539,0.0,0.0,100.0,0.0,0.0,0.0,0.0,2842.857142857143,2462.3,4687.444444444444,4926.0,306.252,307.00125,313.249,311.7915,21.843625,20.5298,21.7712,21.3129,314.999998,314.999998,324.999988,324.999988,99.5623,99.50753333333333,99.56488571428571,99.54487142857143,0.022499999999999964,-0.10899999999999999,-0.14483333333333337,0.056400000000000006,-0.04833333333333201,-0.041666666666671404,1.3115,1.32,37.522999999999996,29.311,37.07,34.2055,57.433,34.7425,58.96,51.54,55.251999999999995,33.8815,57.588,49.9065,54.366,33.423,57.547,49.336333333333336,-0.035499999999999976,-0.10949999999999993,0.105175,0.10639000000000001,0.0,205.675,205.64,202.14666666666668,202.14666666666668,0.0,0.0
2,0.0,0.0,0.0,1.0,1.0,0.0,0.0,1.0,0.0,100.0,1.0,1.1856,26.0,0.0,0.0,0.0,59.999996,0.0,26.0,26.0,26.0,26.0,-0.07933333333333337,0.29520000000000013,-0.0979,293.945,-2.6345,-2.6550000000000002,-1.5652,-1.5150000000000001,-268.92,215.5525,190.948375,0.0,0.0,0.0,0.0,0.005533333333333334,-5.498166666666667,-5.498166666666667,-0.5804,0.662,-0.012249999999999872,1.593,65.788,-0.03520000000000001,-0.2741,0.9720000000000013,100.0,1.0,1.0,203.53,0.0,0.0,0.0,0.0,0.0,0.0,0.0,8626.9,0.0,55.0,5.0,236.81,0.0,0.0,0.0,0.0,0.0,0.0,0.0,0.0,0.10500000000000043,0.10500000000000043,0.0,0.0,0.0,55.0,616.79921,10000.0,85.000001,85.000001,85.000001,85.000001,395.0,0.0,0.0,0.0,1.0,333.33500000000004,51.894999999999996,51.894999999999996,50.888,50.888,34.0,-29.2125,21.218,-25.053333333333335,18.7075,0.0,1783.441,0.5599999999999987,100.0,28.184,27.535,41.772999999999996,41.554,0.0,0.0,100.0,0.0,0.0,0.0,0.0,3381.285714285714,3110.3,3501.8888888888887,3364.3,304.5485,304.7195,316.31975,316.5495,21.853375,20.5347,21.7809,21.3207,314.999998,314.999998,324.999988,324.999988,99.56231428571428,99.50755,99.565,99.54498571428572,0.00550000000000006,-0.1266666666666667,-0.17233333333333334,0.057599999999999874,-0.051666666666669414,-0.05666666666667197,1.7810000000000001,1.7945,37.584,29.342,37.129999999999995,34.2545,57.418,34.7805,58.992,51.585,55.238,33.9165,57.6175,49.95,54.351,33.4565,57.5745,49.37866666666667,-0.03849999999999998,-0.1200000000000001,0.100385,0.11152000000000001,0.0,206.14499999999998,206.035,203.53,203.53,0.0,0.0
3,0.0,0.0,0.0,1.0,1.0,0.0,0.0,1.0,0.0,100.0,1.0,1.1856,26.0,0.0,0.0,0.0,59.999996,0.0,26.0,26.0,26.0,26.0,-0.09211111111111103,0.3022,-0.026500000000000003,293.076,-2.66,-2.6834,-1.5466,-1.4847000000000001,-265.76,215.56,190.929125,0.0,0.0,0.0,0.0,0.007366666666666667,-5.498166666666667,-5.498166666666667,-0.5023,0.684,0.001874999999999849,-2.3040000000000003,65.937,-0.05019999999999991,-0.188675,0.8060000000000009,100.0,1.0,1.0,203.31,0.0,0.0,0.0,0.0,0.0,0.0,0.0,8617.6,0.0,55.0,5.0,237.34333333333333,1.0,0.0,0.0,0.0,0.0,0.0,0.0,0.0,0.1529999999999987,0.1529999999999987,0.0,0.0,1.0,55.0,616.79921,10000.0,85.000001,85.000001,85.000001,85.000001,395.0,0.0,0.0,0.0,1.0,333.33500000000004,53.36,53.36,47.638,47.638,34.0,-24.55,19.156,-35.45333333333333,26.11,0.0,1783.392,0.6449999999999996,100.0,27.792,27.537,41.955,41.949,0.0,0.0,100.0,0.0,0.0,0.0,0.0,2877.285714285714,2842.6,4537.0,4328.7,306.187,305.578,313.8055,313.94375,21.86275,20.5398,21.7907,21.3292,314.999998,314.999998,324.999988,324.999988,99.56231428571428,99.50756666666666,99.56514285714286,99.54512857142858,-0.00275000000000003,-0.1313333333333333,-0.16500000000000004,0.048799999999999955,-0.045000000000001705,-0.03499999999999659,1.434,1.462,37.641999999999996,29.3735,37.192,34.307,57.397999999999996,34.820499999999996,59.0305,51.6485,55.219,33.953,57.653,50.0105,54.331,33.492,57.607,49.43833333333333,-0.02200000000000002,-0.12450000000000006,0.10620500000000001,0.101745,0.0,206.60500000000002,206.525,203.31,203.31,0.0,0.0
4,0.0,0.0,0.0,1.0,1.0,0.0,0.0,1.0,0.0,100.0,1.0,1.1856,26.0,0.0,0.0,0.0,59.999996,0.0,26.0,26.0,26.0,26.0,-0.11422222222222211,0.29400000000000004,-0.055,293.442,-2.6478,-2.7628,-1.48155,-1.6029,-262.39,215.5675,190.90975,0.0,0.0,0.0,0.0,0.009333333333333334,-5.498166666666667,-5.498166666666667,-0.5321,-0.8716666666666667,-0.052750000000000075,0.30900000000000016,66.083,-0.0605,-0.23625000000000002,1.1959999999999997,100.0,1.0,1.0,203.96,0.0,0.0,0.0,0.0,0.0,0.0,0.0,8645.1,0.0,55.0,5.0,237.87,0.0,0.0,0.0,0.0,0.0,0.0,0.0,0.0,0.20400000000000063,0.20400000000000063,0.0,0.0,0.0,55.0,616.79921,10000.0,85.000001,85.000001,85.000001,85.000001,395.0,0.0,0.0,0.0,1.0,166.665,53.085,53.085,48.751999999999995,48.751999999999995,34.0,-27.6475,19.832,-30.57,23.3475,0.0,1783.343,0.6649999999999991,100.0,27.853,26.965,42.88,42.004,0.0,0.0,100.0,0.0,0.0,0.0,0.0,3129.5714285714284,2918.5,4059.0,3852.6000000000004,305.264,305.5865,314.89125,315.25775,21.872875,20.5449,21.8014,21.3381,314.999998,314.999998,324.999988,324.999988,99.56231428571428,99.50758333333333,99.56528571428571,99.54527142857143,-0.0129999999999999,-0.1399999999999999,-0.1815,0.043400000000000105,-0.030000000000001137,-0.06333333333333258,1.544,1.593,37.705,29.4055,37.259,34.363,57.379000000000005,34.8595,59.073499999999996,51.7085,55.201,33.9895,57.6935,50.068,54.312,33.5265,57.6445,49.49466666666667,-0.017000000000000015,-0.13000000000000012,0.10498,0.10702,0.0,207.0,206.91,203.96,203.96,0.0,0.0
5,0.0,0.0,0.0,1.0,1.0,0.0,0.0,1.0,0.0,100.0,1.0,1.1856,26.0,0.0,0.0,0.0,59.999996,0.0,26.0,26.0,26.0,26.0,-0.09344444444444444,0.2948000000000002,-0.04456666666666667,293.762,-2.67,-2.7125,-1.5204,-1.5927,-259.02,215.57,190.89,0.0,0.0,0.0,0.0,0.011300000000000001,-5.498166666666667,-5.498166666666667,-0.5379,0.55,-0.03987499999999988,-0.484,66.22800000000001,-0.08189999999999997,-0.224525,1.2620000000000005,100.0,1.0,1.0,204.51,0.0,0.0,0.0,0.0,0.0,0.0,0.0,8668.5,0.0,55.0,5.0,238.39,1.0,0.0,0.0,0.0,0.0,0.0,0.0,0.0,0.254999999999999,0.254999999999999,0.0,0.0,1.0,55.0,616.79921,10000.0,85.000001,85.000001,85.000001,85.000001,395.0,0.0,0.0,0.0,1.0,333.33500000000004,53.253,53.253,49.301,49.301,34.0,-27.825,19.77,-31.306666666666665,21.755000000000003,0.0,1783.29,0.254999999999999,100.0,27.638,26.963,42.391999999999996,41.486000000000004,0.0,0.0,100.0,0.0,0.0,0.0,0.0,3163.857142857143,2869.7,3954.6666666666665,3914.9,305.27,305.54625,315.247,315.12475,21.883,20.5501,21.811799999999998,21.3467,314.999998,314.999998,324.999988,324.999988,99.56231428571428,99.50758333333333,99.56544285714286,99.54541428571429,-0.007500000000000062,-0.1263333333333332,-0.21399999999999997,0.008000000000000007,-0.060000000000002274,-0.07166666666666544,1.585,1.64,37.769,29.438000000000002,37.324,34.417,57.36,34.9025,59.114,51.7695,55.183,34.028999999999996,57.731,50.1265,54.294,33.564499999999995,57.6795,49.552,-0.04849999999999999,-0.09400000000000008,0.10193,0.10871000000000001,0.0,207.51,207.42000000000002,204.51,204.51,0.0,0.0
6,0.0,0.0,0.0,1.0,1.0,0.0,0.0,1.0,0.0,100.0,1.0,1.1856,26.0,0.0,0.0,0.0,59.999996,0.0,26.0,26.0,26.0,26.0,-0.12211111111111106,0.2955000000000001,0.005833333333333334,293.533,-2.6945,-2.7957,-1.5098500000000001,-1.5743,-255.63,215.5725,190.86925,0.0,0.0,0.0,0.0,0.013266666666666666,-5.498166666666667,-5.498166666666667,-0.5262,-0.28800000000000003,-0.06099999999999994,0.556,66.377,-0.08579999999999999,-0.20450000000000002,0.8840000000000003,100.0,1.0,1.0,204.77666666666667,0.0,0.0,0.0,0.0,0.0,0.0,0.0,8679.8,0.0,55.0,5.0,238.92666666666668,0.0,0.0,0.0,0.0,0.0,0.0,0.0,0.0,0.30600000000000094,0.30600000000000094,0.0,0.0,0.0,55.0,616.79921,10000.0,85.000001,85.000001,85.000001,85.000001,395.0,0.0,0.0,0.0,1.0,166.665,53.65,53.65,48.522999999999996,48.522999999999996,34.0,-27.82,19.752000000000002,-33.46,24.1125,0.0,1783.241,0.4299999999999997,100.0,27.556,26.445,42.781,41.57,0.0,0.0,100.0,0.0,0.0,0.0,0.0,3115.5714285714284,2859.0,4207.333333333333,4099.3,305.3525,305.782,314.4945,314.69225,21.893,20.5552,21.822400000000002,21.3556,314.999998,314.999998,324.999988,324.999988,99.56232857142857,99.5076,99.56557142857143,99.54554285714286,-0.011749999999999927,-0.137,-0.1985,0.027200000000000113,-0.060000000000002274,-0.05666666666667197,1.5015,1.5345,37.832,29.47,37.39,34.473,57.341,34.939,59.153999999999996,51.8275,55.165,34.0625,57.7685,50.1825,54.275999999999996,33.5965,57.714,49.60633333333333,-0.040000000000000036,-0.10400000000000009,0.10867,0.10515500000000001,0.0,207.95499999999998,207.865,204.77666666666667,204.77666666666667,0.0,0.0
7,0.0,0.0,0.0,1.0,1.0,0.0,0.0,1.0,0.0,100.0,1.0,1.1856,26.0,0.0,0.0,0.0,59.999996,0.0,26.0,26.0,26.0,26.0,-0.09177777777777785,0.29310000000000014,-0.010933333333333333,293.488,-2.6075,-2.7901,-1.5607,-1.621,-252.44,215.57,190.85,0.0,0.0,0.0,0.0,0.0151,-5.498166666666667,-5.498166666666667,-0.5333,0.13733333333333334,-0.05125000000000002,1.1850000000000005,66.512,-0.08479999999999999,-0.2165,0.7240000000000002,100.0,1.0,1.0,205.2866666666667,0.0,0.0,0.0,0.0,0.0,0.0,0.0,8701.3,0.0,55.0,5.0,239.41666666666669,1.0,0.0,0.0,0.0,0.0,0.0,0.0,0.0,0.3539999999999992,0.3539999999999992,0.0,0.0,1.0,55.0,616.79921,10000.0,85.000001,85.000001,85.000001,85.000001,395.0,0.0,0.0,0.0,1.0,166.665,53.238,53.238,48.782,48.782,34.0,-25.8175,21.588,-32.696666666666665,23.9775,0.0,1783.193,-0.019999999999999574,100.0,27.874,26.697,42.784,41.59,0.0,0.0,100.0,0.0,0.0,0.0,0.0,3103.4285714285716,2939.7,4087.0,3986.4,305.299,305.4835,314.8655,314.95775,21.902625,20.5601,21.8323,21.364,314.999998,314.999998,324.999988,324.999988,99.56232857142857,99.50761666666666,99.56571428571428,99.54567142857142,0.017749999999999932,-0.1076666666666668,-0.1978333333333333,0.03059999999999996,-0.041666666666671404,-0.07166666666666544,1.5285,1.575,37.891999999999996,29.500999999999998,37.452,34.525,57.325,34.977000000000004,59.1915,51.884,55.15,34.0975,57.804,50.236000000000004,54.26,33.629999999999995,57.7465,49.659,-0.07750000000000001,-0.07200000000000006,0.10580500000000001,0.111435,0.0,208.345,208.305,205.2866666666667,205.2866666666667,0.0,0.0
8,0.0,0.0,0.0,1.0,1.0,0.0,0.0,1.0,0.0,100.0,1.0,1.1856,26.0,0.0,0.0,0.0,59.999996,0.0,26.0,26.0,26.0,26.0,-0.05977777777777782,0.27970000000000006,-0.02696666666666667,293.549,-2.6943,-2.7163,-1.5408,-1.6106,-249.05,215.5675,190.829375,0.0,0.0,0.0,0.0,0.017066666666666667,-5.498166666666667,-5.498166666666667,-0.5366000000000001,-0.21833333333333335,-0.040999999999999925,-1.0379999999999998,66.658,-0.07119999999999993,-0.21895,0.41999999999999993,100.0,1.0,1.0,205.71333333333334,0.0,0.0,0.0,0.0,0.0,0.0,0.0,8719.4,0.0,55.0,5.0,239.94,0.0,0.0,0.0,0.0,0.0,0.0,0.0,0.0,0.40500000000000114,0.40500000000000114,0.0,0.0,0.0,55.0,616.79921,10000.0,85.000001,85.000001,85.000001,85.000001,395.0,0.0,0.0,0.0,1.0,333.33500000000004,53.406,53.406,48.553,48.553,34.0,-26.7175,20.939999999999998,-31.286666666666665,24.315,0.0,1783.142,-0.049999999999998934,100.0,27.365,26.943,42.71,41.856,0.0,0.0,100.0,0.0,0.0,0.0,0.0,3134.285714285714,2924.0,4062.4444444444443,3951.5,305.443,305.38225,314.97975,314.9495,21.912625,20.5654,21.8428,21.3729,314.999998,314.999998,324.999988,324.999988,99.56232857142857,99.50763333333333,99.56584285714285,99.54582857142857,0.014750000000000263,-0.10899999999999999,-0.18199999999999994,0.04059999999999997,-0.04333333333332945,-0.04833333333333201,1.543,1.544,37.954,29.534,37.516999999999996,34.581,57.306,35.0165,59.232,51.945,55.131,34.1335,57.841499999999996,50.295,54.241,33.664500000000004,57.781,49.71666666666667,-0.07699999999999996,-0.06699999999999995,0.10151500000000001,0.11130500000000002,0.0,208.79000000000002,208.75,205.71333333333334,205.71333333333334,0.0,0.0
9,0.0,0.0,0.0,1.0,1.0,0.0,0.0,1.0,0.0,100.0,1.0,1.1856,26.0,0.0,0.0,0.0,59.999996,0.0,26.0,26.0,26.0,26.0,-0.04066666666666663,0.2873000000000001,-0.004233333333333334,293.274,-2.6151999999999997,-2.7311,-1.5408,-1.5676,-245.85,215.5625,190.809625,0.0,0.0,0.0,0.0,0.018933333333333337,-5.498166666666667,-5.498166666666667,-0.5341,0.24766666666666667,-0.04999999999999982,-0.5800000000000001,66.794,-0.05889999999999995,-0.211875,0.2400000000000002,100.0,1.0,1.0,206.11666666666667,0.0,0.0,0.0,0.0,0.0,0.0,0.0,8736.5,0.0,55.0,5.0,240.43,1.0,0.0,0.0,0.0,0.0,0.0,0.0,0.0,0.4529999999999994,0.4529999999999994,0.0,0.0,1.0,55.0,616.79921,10000.0,85.000001,85.000001,85.000001,85.000001,395.0,0.0,0.0,0.0,1.0,166.665,52.994,52.994,48.721000000000004,48.721000000000004,34.0,-26.475,21.915999999999997,-31.286666666666665,24.9775,0.0,1783.095,-0.23000000000000043,100.0,27.669,27.047,42.641999999999996,41.873000000000005,0.0,0.0,100.0,0.0,0.0,0.0,0.0,3251.857142857143,2929.8,4095.6666666666665,4058.5,305.068,305.37325,314.8955,314.7425,21.92225,20.5704,21.8526,21.3813,314.999998,314.999998,324.999988,324.999988,99.56232857142857,99.50765,99.56598571428572,99.54595714285715,0.03100000000000014,-0.08866666666666667,-0.17466666666666664,0.05159999999999987,-0.06333333333333258,-0.041666666666671404,1.5355,1.5565,38.013999999999996,29.564999999999998,37.579,34.632999999999996,57.289,35.053,59.269,52.0015,55.116,34.167500000000004,57.876,50.349000000000004,54.225,33.6975,57.813,49.769666666666666,-0.09650000000000003,-0.052000000000000046,0.109475,0.10475500000000001,0.0,209.23000000000002,209.18,206.11666666666667,206.11666666666667,0.0,0.0
10,0.0,0.0,0.0,1.0,1.0,0.0,0.0,1.0,0.0,100.0,1.0,1.1856,26.0,0.0,0.0,0.0,59.999996,0.0,26.0,26.0,26.0,26.0,-0.034222222222222154,0.2892000000000001,0.010466666666666668,293.182,-2.6717,-2.7092,-1.5042499999999999,-1.553,-242.43,215.555,190.788875,0.0,0.0,0.0,0.0,0.020933333333333335,-5.498166666666667,-5.498166666666667,-0.5279,-0.257,-0.019874999999999865,1.649,66.939,-0.04399999999999993,-0.2106,-0.02400000000000002,100.0,1.0,1.0,206.47333333333333,0.0,0.0,0.0,0.0,0.0,0.0,0.0,8751.6,0.0,55.0,5.0,240.95,0.0,0.0,0.0,0.0,0.0,0.0,1.0,0.0,0.5040000000000013,0.5040000000000013,0.0,0.0,0.0,55.0,616.79921,10000.0,85.000001,85.000001,85.000001,85.000001,395.0,0.0,0.0,0.0,1.0,166.665,53.329,53.329,48.325,48.325,34.0,-23.8025,22.78,-29.663333333333334,27.9175,0.0,1783.043,-0.33000000000000007,100.0,27.765,26.864,42.863,42.141,0.0,0.0,100.0,0.0,0.0,0.0,0.0,2989.857142857143,3007.1,4105.333333333333,4266.0,305.67,305.3495,314.781,314.30775,21.93225,20.5757,21.8631,21.3903,314.999998,314.999998,324.999988,324.999988,99.56234285714285,99.50766666666667,99.56612857142858,99.54608571428571,0.0535000000000001,-0.07333333333333325,-0.14549999999999996,0.07940000000000014,-0.03833333333332689,-0.05333333333332746,1.5135,1.513,38.076,29.598,37.644,34.689499999999995,57.272,35.091,59.3095,52.064,55.099000000000004,34.2025,57.914,50.409,54.208,33.7305,57.848,49.828,-0.10449999999999993,-0.04699999999999993,0.09820500000000001,0.11241500000000001,0.0,209.64,209.635,206.47333333333333,206.47333333333333,0.0,0.0
11,0.0,0.0,0.0,1.0,1.0,0.0,0.0,1.0,0.0,100.0,1.0,1.1856,26.0,0.0,0.0,0.0,59.999996,0.0,26.0,26.0,26.0,26.0,-0.0013333333333332975,0.2824,-0.05126666666666667,293.503,-2.6834,-2.6997,-1.56235,-1.525,-239.01999999999998,215.5475,190.767875,0.0,0.0,0.0,0.0,0.022600000000000002,-5.498166666666667,-5.498166666666667,-0.5503,-0.244,0.0016249999999999876,-0.41900000000000004,67.08,-0.028899999999999926,-0.2245,-0.14200000000000035,100.0,1.0,1.0,207.04000000000002,0.0,0.0,0.0,0.0,0.0,0.0,0.0,8775.6,0.0,55.0,5.0,241.46,1.0,0.0,0.0,0.0,0.0,0.0,1.0,0.0,0.5549999999999997,0.5549999999999997,0.0,0.0,1.0,55.0,616.79921,10000.0,85.000001,85.000001,85.000001,85.000001,395.0,0.0,0.0,0.0,1.0,333.33500000000004,53.268,53.268,48.903999999999996,48.903999999999996,34.0,-24.6025,23.305999999999997,-28.506666666666664,25.785,0.0,1782.991,-0.4299999999999997,100.0,27.313,27.084,42.484,42.268,0.0,0.0,100.0,0.0,0.0,0.0,0.0,3125.0,3000.2,3928.3333333333335,4004.6000000000004,305.479,305.173,315.3045,314.892,21.942125,20.581,21.8735,21.3993,314.999998,314.999998,324.999988,324.999988,99.56234285714285,99.50766666666667,99.56627142857143,99.54622857142857,0.06050000000000022,-0.06233333333333313,-0.14616666666666656,0.08899999999999997,-0.060000000000002274,-0.03499999999999659,1.576,1.5795,38.138,29.6315,37.709,34.7455,57.253,35.1285,59.3465,52.1245,55.082,34.237,57.948499999999996,50.467,54.19,33.763999999999996,57.8795,49.885,-0.10549999999999993,-0.040999999999999925,0.11094000000000001,0.10549000000000001,0.0,210.07,210.05,207.04000000000002,207.04000000000002,0.0,0.0
12,0.0,0.0,0.0,1.0,1.0,0.0,0.0,1.0,0.0,100.0,1.0,1.1856,26.0,0.0,0.0,0.0,59.999996,0.0,26.0,26.0,26.0,26.0,0.001777777777777878,0.2943,0.010400000000000001,293.137,-2.714,-2.6907,-1.5415,-1.5449000000000002,-235.79,215.54000000000002,190.747375,0.0,0.0,0.0,0.0,0.025466666666666665,-5.498166666666667,-5.498166666666667,-0.5422,0.3806666666666667,0.002375000000000016,-0.6280000000000001,67.215,-0.011699999999999933,-0.20520000000000002,-0.20999999999999996,100.0,1.0,1.0,207.37,0.0,0.0,0.0,0.0,0.0,0.0,0.0,8789.6,0.0,55.0,5.0,241.94333333333333,0.0,0.0,0.0,0.0,0.0,0.0,1.0,0.0,0.602999999999998,0.602999999999998,0.0,0.0,0.0,55.0,616.79921,10000.0,85.000001,85.000001,85.000001,85.000001,395.0,0.0,0.0,0.0,1.0,166.665,52.979,52.979,48.263999999999996,48.263999999999996,34.0,-25.0875,23.682000000000002,-29.276666666666664,27.84,0.0,1782.944,-0.3249999999999993,100.0,27.397,27.371,42.368,42.292,0.0,0.0,100.0,0.0,0.0,0.0,0.0,3141.142857142857,3046.8,4162.777777777777,4145.6,305.4095,305.01125,314.7635,314.56475,21.951375,20.586199999999998,21.8833,21.4077,314.999998,314.999998,324.999988,324.999988,99.56235714285714,99.50768333333333,99.56641428571429,99.54635714285715,0.060249999999999915,-0.062000000000000055,-0.124,0.09959999999999991,-0.05666666666667197,-0.04833333333333201,1.5445,1.5494999999999999,38.196,29.6635,37.769999999999996,34.798,57.238,35.164,59.382,52.1815,55.067,34.2705,57.9815,50.5215,54.174,33.795500000000004,57.91,49.93866666666666,-0.08999999999999997,-0.05449999999999999,0.109035,0.10644500000000001,0.0,210.505,210.515,207.37,207.37,0.0,0.0
13,0.0,0.0,0.0,1.0,1.0,0.0,0.0,1.0,0.0,100.0,1.0,1.1856,26.0,0.0,0.0,0.0,59.999996,0.0,26.0,26.0,26.0,26.0,0.028999999999999915,0.27870000000000017,0.02843333333333333,292.816,-2.6792,-2.7072000000000003,-1.56785,-1.5532,-232.36,215.5325,190.72575,0.0,0.0,0.0,0.0,0.02676666666666667,-5.498166666666667,-5.498166666666667,-0.5367000000000001,-0.21533333333333335,0.001374999999999904,1.138,67.358,-0.0041999999999999815,-0.212325,-0.32399999999999984,100.0,1.0,1.0,207.73000000000002,0.0,0.0,0.0,0.0,0.0,0.0,0.0,8804.9,0.0,55.0,5.0,242.46,1.0,0.0,0.0,0.0,0.0,0.0,1.0,0.0,0.6539999999999999,0.6539999999999999,0.0,0.0,1.0,55.0,616.79921,10000.0,85.000001,85.000001,85.000001,85.000001,395.0,0.0,0.0,0.0,1.0,333.33500000000004,52.887,52.887,48.035,48.035,34.0,-22.25,25.823999999999998,-28.516666666666666,30.445,0.0,1782.892,-0.3149999999999995,100.0,27.795,27.343,42.818,42.613,0.0,0.0,100.0,0.0,0.0,0.0,0.0,3037.5714285714284,3104.1,4121.0,4297.2,305.538,305.01875,314.7415,314.237,21.96125,20.5917,21.8938,21.4168,314.999998,314.999998,324.999988,324.999988,99.56235714285714,99.50768333333333,99.56655714285715,99.54651428571428,0.10250000000000004,-0.020999999999999908,-0.10333333333333339,0.121,-0.046666666666666856,-0.046666666666666856,1.5170000000000001,1.5095,38.257999999999996,29.698,37.836,34.855000000000004,57.222,35.202,59.4225,52.2445,55.052,34.3055,58.019,50.582499999999996,54.158,33.829,57.9445,49.998,-0.11099999999999999,-0.030000000000000027,0.10671000000000001,0.108255,0.0,210.925,210.94,207.73000000000002,207.73000000000002,0.0,0.0
14,0.0,0.0,0.0,1.0,1.0,0.0,0.0,1.0,0.0,100.0,1.0,1.1856,26.0,0.0,0.0,0.0,59.999996,0.0,26.0,26.0,26.0,26.0,0.016444444444444484,0.28259999999999996,-0.023033333333333336,293.076,-2.6983,-2.7135,-1.5653000000000001,-1.5434999999999999,-228.72,215.5225,190.703125,0.0,0.0,0.0,0.0,0.028900000000000002,-5.498166666666667,-5.498166666666667,-0.5497000000000001,-0.009000000000000001,0.01837500000000003,0.9329999999999998,67.506,0.0044999999999999485,-0.2243,-0.3620000000000001,100.0,1.0,1.0,208.29000000000002,0.0,0.0,0.0,0.0,0.0,0.0,0.0,8828.7,0.0,55.0,5.0,242.99333333333334,0.0,0.0,0.0,0.0,0.0,0.0,1.0,0.0,0.7079999999999984,0.7079999999999984,0.0,0.0,0.0,55.0,616.79921,10000.0,85.000001,85.000001,85.000001,85.000001,395.0,0.0,0.0,0.0,1.0,166.665,52.887,52.887,48.431,48.431,34.0,-22.54,25.426000000000002,-26.81,28.9325,0.0,1782.839,-0.3849999999999998,100.0,27.758,27.512999999999998,42.673,42.685,0.0,0.0,100.0,0.0,0.0,0.0,0.0,2986.0,3106.1,3950.1111111111113,4146.3,305.697,304.96475,315.2035,314.608,21.971625,20.5975,21.9048,21.4264,314.999998,314.999998,324.999988,324.999988,99.56237142857142,99.50768333333333,99.5667,99.54665714285714,0.08950000000000014,-0.03433333333333333,-0.10316666666666663,0.12280000000000002,-0.03833333333332689,-0.05333333333332746,1.561,1.5554999999999999,38.323,29.7345,37.905,34.915,57.205,35.242,59.4615,52.3095,55.036,34.342,58.0555,50.644999999999996,54.141,33.8645,57.978,50.059333333333335,-0.10299999999999998,-0.04299999999999993,0.10422500000000001,0.106995,0.0,211.38,211.4,208.29000000000002,208.29000000000002,0.0,0.0
15,0.0,0.0,0.0,1.0,1.0,0.0,0.0,1.0,0.0,100.0,1.0,1.1856,26.0,0.0,0.0,0.0,59.999996,0.0,26.0,26.0,26.0,26.0,0.028999999999999915,0.2773000000000001,-0.0076,292.999,-2.6949,-2.689,-1.5752000000000002,-1.5614,-225.48,215.51749999999998,190.682625,0.0,0.0,0.0,0.0,0.03076666666666667,-5.498166666666667,-5.498166666666667,-0.5413,0.20433333333333334,0.029749999999999943,0.7119999999999997,67.638,0.010199999999999987,-0.20977500000000002,-0.3520000000000003,100.0,1.0,1.0,208.65666666666667,0.0,0.0,0.0,0.0,0.0,0.0,0.0,8844.1,0.0,55.0,5.0,243.47,1.0,0.0,0.0,0.0,0.0,0.0,1.0,0.0,0.7560000000000002,0.7560000000000002,0.0,0.0,1.0,55.0,616.79921,10000.0,85.000001,85.000001,85.000001,85.000001,395.0,0.0,0.0,0.0,1.0,166.665,52.948,52.948,48.218,48.218,34.0,-21.695,24.997999999999998,-26.946666666666665,30.645,0.0,1782.791,-0.3100000000000005,100.0,27.763,27.576999999999998,42.55,42.777,0.0,0.0,100.0,0.0,0.0,0.0,0.0,2933.285714285714,3081.7,4036.0,4208.0,305.857,305.03275,314.99825,314.434,21.980875,20.6027,21.9146,21.435,314.999998,314.999998,324.999988,324.999988,99.56238571428571,99.5077,99.56684285714286,99.5468,0.09775,-0.03466666666666662,-0.08683333333333332,0.13640000000000008,-0.03999999999999915,-0.04999999999999716,1.5335,1.509,38.379999999999995,29.767,37.966,34.9685,57.19,35.277,59.4965,52.368,55.022,34.375,58.088,50.701499999999996,54.126000000000005,33.896,58.0075,50.114666666666665,-0.10099999999999998,-0.050000000000000044,0.103635,0.11302500000000001,0.0,211.79500000000002,211.82,208.65666666666667,208.65666666666667,0.0,0.0
16,0.0,0.0,0.0,1.0,1.0,0.0,0.0,1.0,0.0,100.0,1.0,1.1856,26.0,0.0,0.0,0.0,59.999996,0.0,26.0,26.0,26.0,26.0,0.022111111111111192,0.26890000000000014,0.002033333333333333,292.816,-2.7535,-2.6343,-1.55435,-1.5575999999999999,-222.23,215.51,190.661875,0.0,0.0,0.0,0.0,0.03266666666666667,-5.498166666666667,-5.498166666666667,-0.5545,-0.434,0.020874999999999977,0.1589999999999998,67.77,0.012299999999999978,-0.22387500000000002,-0.21799999999999908,100.0,1.0,1.0,209.05,0.0,0.0,0.0,0.0,0.0,0.0,0.0,8860.9,0.0,55.0,5.0,243.94666666666666,0.0,0.0,0.0,0.0,0.0,0.0,1.0,0.0,0.8039999999999985,0.8039999999999985,0.0,0.0,0.0,55.0,616.79921,10000.0,85.000001,85.000001,85.000001,85.000001,395.0,0.0,0.0,0.0,1.0,166.665,52.612,52.612,47.958,47.958,34.0,-23.8175,26.036,-26.656666666666666,29.73,0.0,1782.743,-0.254999999999999,100.0,27.585,27.668,42.811,42.948,0.0,0.0,100.0,0.0,0.0,0.0,0.0,3089.142857142857,3225.9,4018.0,4087.3,305.467,304.6275,315.02125,314.701,21.99,20.6079,21.9244,21.4435,314.999998,314.999998,324.999988,324.999988,99.5624,99.5077,99.56697142857143,99.54694285714285,0.09050000000000002,-0.028666666666666618,-0.08916666666666662,0.13979999999999992,-0.04999999999999716,-0.05333333333332746,1.5395,1.516,38.437,29.799500000000002,38.028,35.022,57.174,35.3125,59.533,52.4265,55.007,34.4075,58.122,50.7575,54.11,33.9275,58.039,50.169333333333334,-0.09299999999999997,-0.05249999999999999,0.10422500000000001,0.10927,0.0,212.19,212.21,209.05,209.05,0.0,0.0
17,0.0,0.0,0.0,1.0,1.0,0.0,0.0,1.0,0.0,100.0,1.0,1.1856,26.0,0.0,0.0,0.0,59.999996,0.0,26.0,26.0,26.0,26.0,0.015666666666666718,0.2876000000000001,0.027700000000000002,292.48,-2.7164,-2.6183,-1.59395,-1.5226000000000002,-218.76999999999998,215.505,190.639625,0.0,0.0,0.0,0.0,0.0347,-5.498166666666667,-5.498166666666667,-0.5495,0.20866666666666667,-0.007124999999999826,-1.0589999999999997,67.91,0.0121,-0.2126,-0.15200000000000014,100.0,1.0,1.0,209.42666666666668,0.0,0.0,0.0,0.0,0.0,0.0,0.0,8876.8,0.0,55.0,5.0,244.44666666666666,1.0,0.0,0.0,0.0,0.0,0.0,1.0,0.0,0.8550000000000004,0.8550000000000004,0.0,0.0,1.0,55.0,616.79921,10000.0,85.000001,85.000001,85.000001,85.000001,395.0,0.0,0.0,0.0,1.0,333.33500000000004,52.383,52.383,47.638,47.638,34.0,-24.9325,23.924,-31.016666666666666,29.195,0.0,1782.69,-0.17999999999999972,100.0,27.815,27.924,42.711,42.962,0.0,0.0,100.0,0.0,0.0,0.0,0.0,3238.142857142857,3078.7,4344.333333333333,4197.8,305.168,304.9085,314.4015,314.4475,21.999875,20.6135,21.9348,21.4526,314.999998,314.999998,324.999988,324.999988,99.56241428571428,99.5077,99.56712857142857,99.54708571428571,0.08400000000000007,-0.04833333333333312,-0.11249999999999993,0.1197999999999999,-0.046666666666666856,-0.04999999999999716,1.52,1.507,38.498999999999995,29.8345,38.093,35.0785,57.159,35.351,59.571,52.487,54.992000000000004,34.443,58.1575,50.816,54.095,33.9615,58.071,50.22666666666667,-0.09799999999999998,-0.05600000000000005,0.11101000000000001,0.103785,0.0,212.64499999999998,212.655,209.42666666666668,209.42666666666668,0.0,0.0
18,0.0,0.0,0.0,1.0,1.0,0.0,0.0,1.0,0.0,100.0,1.0,1.1856,26.0,0.0,0.0,0.0,59.999996,0.0,26.0,26.0,26.0,26.0,0.028555555555555667,0.28310000000000013,0.03423333333333333,292.419,-2.6417,-2.7455,-1.49685,-1.4851,-215.3,215.5,190.617125,0.0,0.0,0.0,0.0,0.0367,-5.498166666666667,-5.498166666666667,-0.5611,-0.319,0.0011250000000000426,0.9299999999999997,68.049,0.01100000000000012,-0.226025,-0.15200000000000014,100.0,1.0,1.0,209.83666666666667,0.0,0.0,0.0,0.0,0.0,0.0,0.0,8894.3,0.0,55.0,5.0,244.94666666666666,0.0,0.0,0.0,0.0,0.0,0.0,1.0,0.0,0.9059999999999988,0.9059999999999988,0.0,0.0,0.0,55.0,616.79921,10000.0,85.000001,85.000001,85.000001,85.000001,395.0,0.0,0.0,0.0,1.0,166.665,52.322,52.322,47.729,47.729,34.0,-23.065,26.156,-26.656666666666666,30.2325,0.0,1782.642,-0.1399999999999988,100.0,27.967,27.755,43.018,43.052,0.0,0.0,100.0,0.0,0.0,0.0,0.0,3087.857142857143,3197.2,4075.1111111111113,4297.5,305.39,304.58225,314.8385,314.257,22.009625,20.6191,21.9453,21.4617,314.999998,314.999998,324.999988,324.999988,99.56242857142857,99.50771666666667,99.56727142857143,99.54722857142858,0.08625000000000016,-0.04800000000000004,-0.09266666666666656,0.1342000000000001,-0.041666666666671404,-0.05666666666667197,1.5175,1.5005,38.56,29.869,38.158,35.135999999999996,57.141999999999996,35.3885,59.6095,52.549,54.977000000000004,34.4775,58.1935,50.8755,54.078,33.9945,58.104,50.285,-0.08650000000000002,-0.06950000000000012,0.10562,0.105645,0.0,213.05,213.055,209.83666666666667,209.83666666666667,0.0,0.0
19,0.0,0.0,0.0,1.0,1.0,0.0,0.0,1.0,0.0,100.0,1.0,1.1856,26.0,0.0,0.0,0.0,59.999996,0.0,26.0,26.0,26.0,26.0,0.022222222222222143,0.27960000000000007,0.050333333333333334,292.145,-2.6476,-2.7094,-1.5258,-1.6059999999999999,-212.03,215.495,190.59575,0.0,0.0,0.0,0.0,0.0386,-5.498166666666667,-5.498166666666667,-0.5511,0.6326666666666666,0.011249999999999982,0.7480000000000002,68.178,0.00649999999999995,-0.214725,-0.0420000000000007,100.0,1.0,1.0,210.24,0.0,0.0,0.0,0.0,0.0,0.0,0.0,8911.3,0.0,55.0,5.0,245.41333333333336,1.0,0.0,0.0,0.0,0.0,0.0,1.0,0.0,0.9540000000000006,0.9540000000000006,0.0,0.0,1.0,55.0,616.79921,10000.0,85.000001,85.000001,85.000001,85.000001,395.0,0.0,0.0,0.0,1.0,166.665,52.002,52.002,47.699,47.699,34.0,-23.0225,25.106,-28.05,32.019999999999996,0.0,1782.593,-0.11999999999999922,100.0,28.479,28.183,42.945,43.127,0.0,0.0,100.0,0.0,0.0,0.0,0.0,3067.714285714286,3148.0,4141.777777777777,4349.8,305.412,304.74125,314.73875,314.0375,22.018875,20.6244,21.9551,21.4703,314.999998,314.999998,324.999988,324.999988,99.56242857142857,99.50771666666667,99.5674,99.54737142857142,0.08550000000000013,-0.05366666666666675,-0.10050000000000003,0.12240000000000006,-0.041666666666671404,-0.054999999999999716,1.491,1.4835,38.617999999999995,29.9025,38.219,35.189,57.128,35.4255,59.6435,52.6065,54.963,34.512,58.2255,50.931,54.065,34.028,58.132999999999996,50.339666666666666,-0.08650000000000002,-0.06950000000000012,0.10258,0.11074,0.0,213.49,213.485,210.24,210.24,0.0,0.0
20,0.0,0.0,0.0,1.0,1.0,0.0,0.0,1.0,0.0,100.0,1.0,1.1856,26.0,0.0,0.0,0.0,59.999996,0.0,26.0,26.0,26.0,26.0,0.014666666666666606,0.26249999999999996,-0.008066666666666668,292.343,-2.718,-2.6612999999999998,-1.5299,-1.5914000000000001,-208.55,215.4925,190.57325,0.0,0.0,0.0,0.0,0.040633333333333334,-5.498166666666667,-5.498166666666667,-0.5556,-0.8506666666666667,0.00550000000000006,-0.9889999999999999,68.316,-0.00019999999999997797,-0.22637500000000002,0.10999999999999943,100.0,1.0,1.0,210.64,0.0,0.0,0.0,0.0,0.0,0.0,0.0,8928.3,0.0,55.0,5.0,245.91,0.0,0.0,0.0,0.0,0.0,0.0,0.0,0.0,1.004999999999999,1.004999999999999,0.0,0.0,0.0,55.0,616.79921,10000.0,85.000001,85.000001,85.000001,85.000001,395.0,0.0,0.0,0.0,1.0,333.33500000000004,52.505,52.505,47.333,47.333,34.0,-24.3325,23.262,-29.136666666666663,28.2925,0.0,1782.541,-0.16499999999999915,100.0,27.906,28.086,43.423,43.67,0.0,0.0,100.0,0.0,0.0,0.0,0.0,3140.4285714285716,3014.0,4157.444444444444,4062.4,305.4805,305.114,314.731,314.64,22.028624999999998,20.6299,21.9656,21.4795,314.999998,314.999998,324.999988,324.999988,99.56244285714286,99.50773333333333,99.56755714285714,99.54751428571429,0.07750000000000012,-0.05966666666666676,-0.11849999999999994,0.10120000000000018,-0.04999999999999716,-0.02499999999999858,1.4935,1.5005,38.679,29.936999999999998,38.285,35.247,57.111000000000004,35.463499999999996,59.684,52.6695,54.947,34.547,58.263,50.9915,54.047,34.0615,58.167500000000004,50.398666666666664,-0.09250000000000003,-0.06699999999999995,0.10877500000000001,0.102855,0.0,213.89,213.86,210.64,210.64,0.0,0.0
21,0.0,0.0,0.0,1.0,1.0,0.0,0.0,1.0,0.0,100.0,1.0,1.1856,26.0,0.0,0.0,0.0,59.999996,0.0,26.0,26.0,26.0,26.0,0.0033333333333334103,0.2722,-0.0369,292.603,-2.7106,-2.6689,-1.5765500000000001,-1.5470000000000002,-205.26999999999998,215.4875,190.55175,0.0,0.0,0.0,0.0,0.04253333333333333,-5.498166666666667,-5.498166666666667,-0.5735,0.10633333333333334,-0.006375000000000242,-0.6859999999999999,68.44200000000001,-0.0025999999999999357,-0.22362500000000002,-0.019999999999999574,100.0,1.0,1.0,211.16333333333333,0.0,0.0,0.0,0.0,0.0,0.0,0.0,8950.4,0.0,55.0,5.0,246.36333333333334,1.0,0.0,0.0,0.0,0.0,0.0,0.0,0.0,1.0530000000000008,1.0530000000000008,0.0,0.0,1.0,55.0,616.79921,10000.0,85.000001,85.000001,85.000001,85.000001,395.0,0.0,0.0,0.0,1.0,333.33500000000004,52.383,52.383,48.05,48.05,34.0,-25.2075,24.066000000000003,-28.72,26.485,0.0,1782.493,-0.21999999999999886,100.0,27.985,27.964,43.052,43.203,0.0,0.0,100.0,0.0,0.0,0.0,0.0,3227.142857142857,3050.2,4070.777777777778,3999.1000000000004,305.2125,305.0595,315.00975,314.94875,22.03775,20.6352,21.9753,21.488,314.999998,314.999998,324.999988,324.999988,99.56245714285714,99.50773333333333,99.56768571428572,99.54764285714286,0.07450000000000001,-0.048666666666666636,-0.12083333333333335,0.0968,-0.04333333333332945,-0.03999999999999915,1.5715000000000001,1.5715,38.736000000000004,29.97,38.346000000000004,35.3,57.096000000000004,35.499,59.717,52.7245,54.933,34.5805,58.2935,51.044,54.032,34.093,58.195499999999996,50.45033333333333,-0.09750000000000003,-0.0605,0.11039500000000001,0.10415500000000001,0.0,214.29000000000002,214.275,211.16333333333333,211.16333333333333,0.0,0.0
22,0.0,0.0,0.0,1.0,1.0,0.0,0.0,1.0,0.0,100.0,1.0,1.1856,26.0,0.0,0.0,0.0,59.999996,0.0,26.0,26.0,26.0,26.0,-0.005111111111111066,0.27770000000000006,0.005433333333333333,292.16,-2.7753,-2.6313,-1.5989499999999999,-1.5303,-201.57,215.48250000000002,190.526625,0.0,0.0,0.0,0.0,0.044666666666666674,-5.498166666666667,-5.498166666666667,-0.5572,-0.032,0.004375000000000018,-0.6240000000000001,68.589,-0.0017999999999999128,-0.20072500000000001,-0.03000000000000025,100.0,1.0,1.0,211.44333333333333,0.0,0.0,0.0,0.0,0.0,0.0,0.0,8962.4,0.0,55.0,5.0,246.89,0.0,0.0,0.0,0.0,0.0,0.0,0.0,0.0,1.1069999999999993,1.1069999999999993,0.0,0.0,0.0,55.0,616.79921,10000.0,85.000001,85.000001,85.000001,85.000001,395.0,0.0,0.0,0.0,1.0,166.665,52.475,52.475,47.18,47.18,34.0,-25.3525,23.514000000000003,-31.853333333333335,29.8175,0.0,1782.44,-0.2400000000000002,100.0,27.954,27.996,43.195,43.352000000000004,0.0,0.0,100.0,0.0,0.0,0.0,0.0,3177.142857142857,3056.9,4320.222222222223,4357.5,305.4475,305.035,314.424,314.0575,22.048125,20.6411,21.9864,21.497700000000002,314.999998,314.999998,324.999988,324.999988,99.56247142857143,99.50773333333333,99.56784285714286,99.5478,0.07224999999999993,-0.055333333333333234,-0.12583333333333335,0.10159999999999991,-0.045000000000001705,-0.046666666666666856,1.4835,1.4789999999999999,38.801,30.006999999999998,38.415,35.3605,57.079,35.54,59.757999999999996,52.789500000000004,54.917,34.618,58.332,51.1065,54.015,34.129,58.231,50.51166666666667,-0.09499999999999997,-0.056499999999999995,0.10856500000000001,0.09996000000000001,0.0,214.74,214.755,211.44333333333333,211.44333333333333,0.0,0.0
23,0.0,0.0,0.0,1.0,1.0,0.0,0.0,1.0,0.0,100.0,1.0,1.1856,26.0,0.0,0.0,0.0,59.999996,0.0,26.0,26.0,26.0,26.0,-0.0021111111111110636,0.27560000000000007,-0.0397,292.114,-2.6581,-2.6676,-1.6497000000000002,-1.5079,-198.26999999999998,215.47750000000002,190.5045,0.0,0.0,0.0,0.0,0.0466,-5.498166666666667,-5.498166666666667,-0.5730000000000001,-0.22866666666666666,0.0020000000000000018,-0.677,68.715,-0.0036999999999999256,-0.22415000000000002,-0.012000000000000455,100.0,1.0,1.0,211.91,0.0,0.0,0.0,0.0,0.0,0.0,0.0,8982.1,0.0,55.0,5.0,247.34666666666666,1.0,0.0,0.0,0.0,0.0,0.0,0.0,0.0,1.1550000000000011,1.1550000000000011,0.0,0.0,1.0,55.0,616.79921,10000.0,85.000001,85.000001,85.000001,85.000001,395.0,0.0,0.0,0.0,1.0,166.665,51.941,51.941,47.668,47.668,34.0,-24.965,24.144,-30.503333333333334,28.0025,0.0,1782.392,-0.2699999999999996,100.0,28.213,28.181,43.336,43.528999999999996,0.0,0.0,100.0,0.0,0.0,0.0,0.0,3294.4285714285716,3075.8,4193.777777777777,4125.1,304.892,304.9215,314.76525,314.6435,22.05725,20.6464,21.996299999999998,21.5064,314.999998,314.999998,324.999988,324.999988,99.56247142857143,99.50775,99.56797142857143,99.54794285714286,0.08550000000000013,-0.05366666666666675,-0.11349999999999993,0.1140000000000001,-0.04999999999999716,-0.03833333333332689,1.536,1.5345,38.858000000000004,30.0405,38.477000000000004,35.415,57.064,35.576499999999996,59.7935,52.8475,54.903,34.652,58.365,51.1625,54.001000000000005,34.161500000000004,58.260999999999996,50.56633333333333,-0.10499999999999998,-0.06000000000000005,0.10450000000000001,0.11028,0.0,215.135,215.12,211.91,211.91,0.0,0.0
24,0.0,0.0,0.0,1.0,1.0,0.0,0.0,1.0,0.0,100.0,1.0,1.1856,26.0,0.0,0.0,0.0,59.999996,0.0,26.0,26.0,26.0,26.0,0.0024444444444444713,0.2904,-0.019,292.435,-2.6845,-2.6698,-1.5443500000000001,-1.5390000000000001,-194.97,215.475,190.481875,0.0,0.0,0.0,0.0,0.0485,-5.498166666666667,-5.498166666666667,-0.5841000000000001,-0.358,0.01012499999999994,-0.3009999999999997,68.842,-0.00019999999999997797,-0.22187500000000002,-0.1200000000000001,100.0,1.0,1.0,212.26333333333332,0.0,0.0,0.0,0.0,0.0,0.0,0.0,8997.1,0.0,55.0,5.0,247.80666666666667,0.0,0.0,0.0,0.0,0.0,0.0,0.0,0.0,1.2029999999999994,1.2029999999999994,0.0,0.0,0.0,55.0,616.79921,10000.0,85.000001,85.000001,85.000001,85.000001,395.0,0.0,0.0,0.0,1.0,333.33500000000004,52.765,52.765,47.424,47.424,34.0,-23.2775,23.184,-29.586666666666666,28.4075,0.0,1782.343,-0.27999999999999936,100.0,28.032,27.972,43.277,43.480000000000004,0.0,0.0,100.0,0.0,0.0,0.0,0.0,3064.285714285714,2970.5,4229.666666666667,4143.0,305.6635,305.28075,314.562,314.5915,22.066375,20.651699999999998,22.0061,21.515,314.999998,314.999998,324.999988,324.999988,99.56248571428571,99.50775,99.56811428571429,99.54808571428572,0.08099999999999996,-0.05333333333333323,-0.11383333333333334,0.10899999999999999,-0.041666666666671404,-0.041666666666671404,1.5255,1.5145,38.914,30.073,38.538,35.4685,57.049,35.6115,59.829,52.9045,54.888,34.684,58.397999999999996,51.2175,53.985,34.192499999999995,58.2905,50.62,-0.09699999999999998,-0.0535000000000001,0.10568000000000001,0.10475500000000001,0.0,215.51,215.51999999999998,212.26333333333332,212.26333333333332,0.0,0.0
25,0.0,0.0,0.0,1.0,1.0,0.0,0.0,1.0,0.0,100.0,1.0,1.1856,26.0,0.0,0.0,0.0,59.999996,0.0,26.0,26.0,26.0,26.0,0.01388888888888884,0.2704,-0.0187,292.191,-2.6843,-2.6494,-1.5878999999999999,-1.5358,-191.25,215.47,190.455125,0.0,0.0,0.0,0.0,0.05066666666666667,-5.498166666666667,-5.498166666666667,-0.6021000000000001,0.162,0.01649999999999996,-0.9299999999999997,68.983,0.0040999999999999925,-0.21912500000000001,-0.15799999999999947,100.0,1.0,1.0,212.77666666666667,0.0,0.0,0.0,0.0,0.0,0.0,0.0,9018.9,0.0,55.0,5.0,248.31,1.0,0.0,0.0,0.0,0.0,0.0,0.0,0.0,1.256999999999998,1.256999999999998,0.0,0.0,1.0,55.0,616.79921,10000.0,85.000001,85.000001,85.000001,85.000001,395.0,0.0,0.0,0.0,1.0,166.665,51.788,51.788,47.821,47.821,34.0,-25.3775,25.79,-28.856666666666666,28.4525,0.0,1782.29,-0.2699999999999996,100.0,28.007,28.167,43.051,43.282,0.0,0.0,100.0,0.0,0.0,0.0,0.0,3314.285714285714,3254.0,4076.5555555555557,4102.6,304.8915,304.386,315.04025,314.67425,22.076375,20.6577,22.0171,21.5246,314.999998,314.999998,324.999988,324.999988,99.56248571428571,99.50776666666667,99.56827142857144,99.54824285714285,0.0847500000000001,-0.04933333333333323,-0.11716666666666664,0.11759999999999993,-0.05833333333333002,-0.036666666666668846,1.5350000000000001,1.531,38.977999999999994,30.110500000000002,38.607,35.5285,57.032,35.6525,59.8665,52.967,54.872,34.722,58.433,51.2775,53.968,34.229,58.3225,50.679,-0.09899999999999998,-0.062000000000000055,0.11588500000000002,0.10898500000000001,0.0,215.965,215.97,212.77666666666667,212.77666666666667,0.0,0.0
26,0.0,0.0,0.0,1.0,1.0,0.0,0.0,1.0,0.0,100.0,1.0,1.1856,26.0,0.0,0.0,0.0,59.999996,0.0,26.0,26.0,26.0,26.0,0.022111111111111192,0.28290000000000015,0.0563,291.458,-2.678,-2.7307,-1.5498500000000002,-1.5583,-187.93,215.4675,190.431125,0.0,0.0,0.0,0.0,0.0526,-5.498166666666667,-5.498166666666667,-0.5731,0.39966666666666667,0.004124999999999934,-0.6970000000000001,69.111,0.006399999999999961,-0.2006,-0.1559999999999997,100.0,1.0,1.0,212.96,0.0,0.0,0.0,0.0,0.0,0.0,0.0,9026.5,0.0,55.0,5.0,248.77333333333334,0.0,0.0,0.0,0.0,0.0,0.0,0.0,0.0,1.3049999999999997,1.3049999999999997,0.0,0.0,0.0,55.0,616.79921,10000.0,85.000001,85.000001,85.000001,85.000001,395.0,0.0,0.0,0.0,1.0,333.33500000000004,51.834,51.834,46.646,46.646,34.0,-24.205,24.218,-31.946666666666665,32.197500000000005,0.0,1782.24,-0.29999999999999893,100.0,28.623,28.605,43.456,43.691,0.0,0.0,100.0,0.0,0.0,0.0,0.0,3231.714285714286,2985.6,4497.444444444444,4458.2,305.1725,305.12725,313.938,313.7845,22.085625,20.6631,22.027,21.5333,314.999998,314.999998,324.999988,324.999988,99.56251428571429,99.50776666666667,99.56841428571428,99.54837142857143,0.09200000000000008,-0.04733333333333323,-0.10633333333333339,0.11660000000000004,-0.061666666666667425,-0.03833333333332689,1.428,1.4375,39.035,30.1445,38.669,35.5835,57.019,35.69,59.9035,53.0265,54.86,34.757,58.468,51.3345,53.955,34.2625,58.3545,50.73466666666667,-0.10250000000000004,-0.0535000000000001,0.11019500000000002,0.11292500000000001,0.0,216.385,216.38,212.96,212.96,0.0,0.0
27,0.0,0.0,0.0,1.0,1.0,0.0,0.0,1.0,0.0,100.0,1.0,1.1856,26.0,0.0,0.0,0.0,59.999996,0.0,26.0,26.0,26.0,26.0,0.031222222222222262,0.25839999999999996,-0.03696666666666667,291.931,-2.7519,-2.6625,-1.6083500000000002,-1.6151,-184.61,215.465,190.408,0.0,0.0,0.0,0.0,0.054533333333333336,-5.498166666666667,-5.498166666666667,-0.596,-0.8843333333333334,0.012375000000000025,-0.5960000000000001,69.235,0.009400000000000075,-0.237025,-0.17600000000000016,100.0,1.0,1.0,213.46333333333334,0.0,0.0,0.0,0.0,0.0,0.0,0.0,9047.9,0.0,55.0,5.0,249.22,1.0,0.0,0.0,0.0,0.0,0.0,0.0,0.0,1.352999999999998,1.352999999999998,0.0,0.0,1.0,55.0,616.79921,10000.0,85.000001,85.000001,85.000001,85.000001,395.0,0.0,0.0,0.0,1.0,166.665,52.063,52.063,46.783,46.783,34.0,-24.1425,24.408,-29.636666666666663,28.9025,0.0,1782.195,-0.27999999999999936,100.0,28.27,28.539,43.887,44.079,0.0,0.0,100.0,0.0,0.0,0.0,0.0,3142.5714285714284,3111.2,4171.111111111111,4010.1000000000004,305.5475,304.815,314.78175,314.8295,22.0945,20.6685,22.037,21.5421,314.999998,314.999998,324.999988,324.999988,99.56252857142857,99.50776666666667,99.56855714285714,99.54851428571429,0.0887500000000001,-0.05433333333333312,-0.10816666666666663,0.11699999999999999,-0.051666666666669414,-0.05666666666667197,1.5170000000000001,1.5065,39.091,30.177999999999997,38.730999999999995,35.638,57.004000000000005,35.726,59.941,53.0845,54.846000000000004,34.79,58.5025,51.3905,53.94,34.2945,58.385999999999996,50.78933333333333,-0.10099999999999998,-0.06000000000000005,0.10557000000000001,0.109655,0.0,216.715,216.73000000000002,213.46333333333334,213.46333333333334,0.0,0.0
28,0.0,0.0,0.0,1.0,1.0,0.0,0.0,1.0,0.0,100.0,1.0,1.1856,26.0,0.0,0.0,0.0,59.999996,0.0,26.0,26.0,26.0,26.0,0.03344444444444439,0.2695000000000001,-0.0553,292.007,-2.6842,-2.6558,-1.6224,-1.5684,-180.87,215.4625,190.381,0.0,0.0,0.0,0.0,0.0567,-5.498166666666667,-5.498166666666667,-0.6009,0.5743333333333334,0.0008749999999999591,-0.9809999999999999,69.373,0.008399999999999963,-0.21452500000000002,-0.17799999999999905,100.0,1.0,1.0,213.95666666666668,0.0,0.0,0.0,0.0,0.0,0.0,0.0,9068.8,0.0,55.0,5.0,249.71666666666667,0.0,0.0,0.0,0.0,0.0,0.0,0.0,0.0,1.407,1.407,0.0,0.0,0.0,55.0,616.79921,10000.0,85.000001,85.000001,85.000001,85.000001,395.0,0.0,0.0,0.0,1.0,166.665,51.971000000000004,51.971000000000004,47.287,47.287,34.0,-23.1475,24.503999999999998,-29.7,29.14,0.0,1782.141,-0.3699999999999992,100.0,28.429000000000002,28.559,43.353,43.693,0.0,0.0,100.0,0.0,0.0,0.0,0.0,3140.714285714286,3069.8,4212.777777777777,4131.1,305.4025,304.8975,314.78675,314.6655,22.10475,20.674599999999998,22.0479,21.5517,314.999998,314.999998,324.999988,324.999988,99.56252857142857,99.50778333333334,99.56871428571428,99.54867142857142,0.10075000000000012,-0.04299999999999993,-0.10416666666666663,0.1197999999999999,-0.07166666666666544,-0.04999999999999716,1.5465,1.543,39.153999999999996,30.216,38.799,35.698,56.989000000000004,35.766999999999996,59.9765,53.147,54.831,34.8285,58.5355,51.4505,53.924,34.331,58.4155,50.848,-0.11299999999999999,-0.04899999999999993,0.10655,0.103025,0.0,217.195,217.185,213.95666666666668,213.95666666666668,0.0,0.0
29,0.0,0.0,0.0,1.0,1.0,0.0,0.0,1.0,0.0,100.0,1.0,1.1856,26.0,0.0,0.0,0.0,59.999996,0.0,26.0,26.0,26.0,26.0,0.03433333333333333,0.2531000000000001,-0.019733333333333335,291.885,-2.7484,-2.7231,-1.60045,-1.5531000000000001,-177.32999999999998,215.46,190.354625,0.0,0.0,0.0,0.0,0.05876666666666667,-5.498166666666667,-5.498166666666667,-0.6064,-0.7016666666666667,-0.0012500000000001954,0.7800000000000002,69.508,0.009600000000000053,-0.216,-0.3120000000000003,100.0,1.0,1.0,214.23333333333335,0.0,0.0,0.0,0.0,0.0,0.0,0.0,9080.5,0.0,55.0,5.0,250.2,1.0,0.0,0.0,0.0,0.0,0.0,0.0,0.0,1.4579999999999984,1.4579999999999984,0.0,0.0,1.0,55.0,616.79921,10000.0,85.000001,85.000001,85.000001,85.000001,395.0,0.0,0.0,0.0,1.0,166.665,52.292,52.292,47.043,47.043,34.0,-23.45,25.451999999999998,-28.843333333333334,31.4375,0.0,1782.09,-0.40000000000000036,100.0,28.287,28.192,43.862,43.908,0.0,0.0,100.0,0.0,0.0,0.0,0.0,3133.285714285714,3092.7,4137.0,4306.9,305.514,305.02925,314.78325,314.23375,22.114125,20.6802,22.0585,21.561,314.999998,314.999998,324.999988,324.999988,99.56254285714286,99.50778333333334,99.56885714285714,99.54882857142857,0.10375000000000023,-0.033666666666666734,-0.09550000000000003,0.13319999999999999,-0.03999999999999915,-0.046666666666666856,1.486,1.4769999999999999,39.214,30.2515,38.864999999999995,35.7565,56.972,35.804,60.016,53.209,54.815,34.8625,58.572,51.5105,53.908,34.364,58.449,50.906333333333336,-0.10949999999999993,-0.0475000000000001,0.10719000000000001,0.10775000000000001,0.0,217.555,217.575,214.23333333333335,214.23333333333335,0.0,0.0
30,0.0,0.0,0.0,1.0,1.0,0.0,0.0,1.0,0.0,100.0,1.0,1.1856,26.0,0.0,0.0,0.0,59.999996,0.0,26.0,26.0,26.0,26.0,0.04800000000000004,0.24970000000000003,0.0061,291.26,-2.7258,-2.6001000000000003,-1.6384500000000002,-1.6009,-174.2,215.46,190.33125,0.0,0.0,0.0,0.0,0.0606,-5.498166666666667,-5.498166666666667,-0.6071000000000001,0.79,-0.00012500000000015277,-0.5009999999999999,69.62,0.012499999999999956,-0.21910000000000002,-0.3039999999999994,100.0,1.0,1.0,214.69666666666666,0.0,0.0,0.0,0.0,0.0,0.0,0.0,9100.2,0.0,55.0,5.0,250.60666666666668,0.0,0.0,0.0,0.0,0.0,0.0,1.0,0.0,1.5030000000000001,1.5030000000000001,0.0,0.0,0.0,55.0,616.79921,10000.0,85.000001,85.000001,85.000001,85.000001,395.0,0.0,0.0,0.0,1.0,333.33500000000004,50.583,50.583,47.226,47.226,34.0,-25.697499999999998,26.234,-29.713333333333335,29.5675,0.0,1782.043,-0.379999999999999,100.0,29.031,29.082,43.53,43.961,0.0,0.0,100.0,0.0,0.0,0.0,0.0,3394.4285714285716,3288.9,4184.222222222223,4072.4,304.578,304.12,314.9095,314.715,22.122875,20.6855,22.0676,21.5691,314.999998,314.999998,324.999988,324.999988,99.56255714285714,99.50778333333334,99.56898571428572,99.54895714285715,0.10450000000000026,-0.04033333333333311,-0.10433333333333339,0.12480000000000002,-0.054999999999999716,-0.04833333333333201,1.526,1.517,39.268,30.2845,38.922,35.807,56.962,35.8405,60.0465,53.2615,54.806,34.896,58.601,51.561,53.897,34.396,58.475,50.956,-0.11499999999999999,-0.05249999999999999,0.10822000000000001,0.10521000000000001,0.0,217.95,217.96,214.69666666666666,214.69666666666666,0.0,0.0
31,0.0,0.0,0.0,1.0,1.0,0.0,0.0,1.0,0.0,100.0,1.0,1.1856,26.0,0.0,0.0,0.0,59.999996,0.0,26.0,26.0,26.0,26.0,0.021666666666666723,0.25070000000000014,0.06153333333333334,290.802,-2.7624,-2.6330999999999998,-1.6377000000000002,-1.5003000000000002,-170.64999999999998,215.46,190.305375,0.0,0.0,0.0,0.0,0.06266666666666666,-5.498166666666667,-5.498166666666667,-0.5875,-0.4033333333333333,0.009500000000000064,0.8220000000000001,69.754,0.017300000000000093,-0.21960000000000002,-0.3279999999999994,100.0,1.0,1.0,214.89666666666668,0.0,0.0,0.0,0.0,0.0,0.0,0.0,9108.7,0.0,55.0,5.0,251.08666666666664,1.0,0.0,0.0,0.0,0.0,0.0,1.0,0.0,1.5539999999999985,1.5539999999999985,0.0,0.0,1.0,55.0,616.79921,10000.0,85.000001,85.000001,85.000001,85.000001,395.0,0.0,0.0,0.0,1.0,166.665,51.163,51.163,45.653999999999996,45.653999999999996,34.0,-23.259999999999998,26.876,-30.123333333333335,32.535,0.0,1781.993,-0.41499999999999915,100.0,29.053,29.026,44.432,44.626999999999995,0.0,0.0,100.0,0.0,0.0,0.0,0.0,3132.0,3353.0,4322.444444444444,4418.2,305.408,304.33875,314.267,313.90125,22.132375,20.6914,22.0782,21.5786,314.999998,314.999998,324.999988,324.999988,99.56257142857143,99.5078,99.56914285714285,99.54911428571428,0.11425000000000018,-0.03533333333333322,-0.07433333333333336,0.14280000000000004,-0.023333333333326323,-0.061666666666667425,1.434,1.4255,39.328,30.320999999999998,38.989000000000004,35.8665,56.948,35.879999999999995,60.0875,53.326,54.792,34.933,58.638999999999996,51.623,53.882999999999996,34.431,58.5095,51.016333333333336,-0.11149999999999993,-0.05499999999999994,0.102775,0.111045,0.0,218.315,218.36,214.89666666666668,214.89666666666668,0.0,0.0
32,0.0,0.0,0.0,1.0,1.0,0.0,0.0,1.0,0.0,100.0,1.0,1.1856,26.0,0.0,0.0,0.0,59.999996,0.0,26.0,26.0,26.0,26.0,0.04899999999999993,0.2721,-0.022733333333333335,291.306,-2.6936,-2.6883,-1.58095,-1.5544,-167.07999999999998,215.46,190.279875,0.0,0.0,0.0,0.0,0.06473333333333334,-5.498166666666667,-5.498166666666667,-0.6059,-0.24433333333333335,-0.012750000000000039,-1.02,69.882,0.020199999999999996,-0.231525,-0.2999999999999998,100.0,1.0,1.0,215.42000000000002,0.0,0.0,0.0,0.0,0.0,0.0,0.0,9130.8,0.0,55.0,5.0,251.54666666666668,0.0,0.0,0.0,0.0,0.0,0.0,1.0,0.0,1.6050000000000004,1.6050000000000004,0.0,0.0,0.0,55.0,616.79921,10000.0,85.000001,85.000001,85.000001,85.000001,395.0,0.0,0.0,0.0,1.0,166.665,51.544,51.544,46.555,46.555,34.0,-23.3075,25.18,-28.053333333333335,31.4225,0.0,1781.943,-0.3899999999999988,100.0,28.743,29.037,44.191,44.557,0.0,0.0,100.0,0.0,0.0,0.0,0.0,3191.5714285714284,3082.4,4155.0,4285.5,305.3105,304.8975,314.7755,314.31475,22.142,20.6972,22.0886,21.5879,314.999998,314.999998,324.999988,324.999988,99.56258571428572,99.5078,99.56928571428571,99.54925714285714,0.1080000000000001,-0.035666666666666735,-0.08583333333333332,0.139,-0.05333333333332746,-0.03499999999999659,1.5145,1.506,39.387,30.3575,39.054,35.924,56.934,35.919,60.123,53.385999999999996,54.778999999999996,34.969,58.672,51.681,53.867999999999995,34.466,58.539500000000004,51.07266666666666,-0.11149999999999993,-0.056499999999999995,0.10383500000000001,0.10411000000000001,0.0,218.72,218.72500000000002,215.42000000000002,215.42000000000002,0.0,0.0
33,0.0,0.0,0.0,1.0,1.0,0.0,0.0,1.0,0.0,100.0,1.0,1.1856,26.0,0.0,0.0,0.0,59.999996,0.0,26.0,26.0,26.0,26.0,0.040999999999999925,0.25439999999999996,-0.047,291.611,-2.725,-2.6947,-1.588,-1.5905,-163.73000000000002,215.4625,190.254875,0.0,0.0,0.0,0.0,0.06666666666666667,-5.498166666666667,-5.498166666666667,-0.6144000000000001,-0.266,-0.012750000000000039,-0.11399999999999988,70.003,0.01990000000000003,-0.215675,-0.2579999999999991,100.0,1.0,1.0,215.80666666666667,0.0,0.0,0.0,0.0,0.0,0.0,0.0,9147.3,0.0,55.0,5.0,251.98333333333335,1.0,0.0,0.0,0.0,0.0,0.0,1.0,0.0,1.6529999999999987,1.6529999999999987,0.0,0.0,1.0,55.0,616.79921,10000.0,85.000001,85.000001,85.000001,85.000001,395.0,0.0,0.0,0.0,1.0,333.33500000000004,51.91,51.91,46.89,46.89,34.0,-23.655,24.612000000000002,-28.48,30.715,0.0,1781.893,-0.42499999999999893,100.0,28.576999999999998,28.797,44.01,44.335,0.0,0.0,100.0,0.0,0.0,0.0,0.0,3179.5714285714284,3015.0,4145.222222222223,4190.1,305.4095,305.1355,314.844,314.50775,22.150875,20.7025,22.098399999999998,21.5965,314.999998,314.999998,324.999988,324.999988,99.5626,99.50781666666667,99.56942857142857,99.5494,0.1030000000000002,-0.03466666666666662,-0.09483333333333333,0.13080000000000003,-0.054999999999999716,-0.045000000000001705,1.518,1.5085,39.443,30.391,39.114999999999995,35.978,56.92,35.953,60.1565,53.442,54.766,35.0005,58.703,51.7345,53.854,34.4965,58.567499999999995,51.125,-0.11349999999999993,-0.050999999999999934,0.10207000000000001,0.10912000000000001,0.0,219.11,219.11,215.80666666666667,215.80666666666667,0.0,0.0
34,0.0,0.0,0.0,1.0,1.0,0.0,0.0,1.0,0.0,100.0,1.0,1.1856,26.0,0.0,0.0,0.0,59.999996,0.0,26.0,26.0,26.0,26.0,0.03977777777777791,0.2573000000000001,-0.07103333333333334,291.824,-2.6611,-2.6761,-1.6238000000000001,-1.5270000000000001,-160.14999999999998,215.4625,190.226875,0.0,0.0,0.0,0.0,0.06876666666666667,-5.498166666666667,-5.498166666666667,-0.6414000000000001,-0.8326666666666667,0.0129999999999999,0.9350000000000005,70.132,0.020100000000000007,-0.221675,-0.3200000000000003,100.0,1.0,1.0,216.18,0.0,0.0,0.0,0.0,0.0,0.0,0.0,9163.1,0.0,55.0,5.0,252.44666666666666,0.0,0.0,0.0,0.0,0.0,0.0,1.0,0.0,1.7040000000000006,1.7040000000000006,0.0,0.0,0.0,55.0,616.79921,10000.0,85.000001,85.000001,85.000001,85.000001,395.0,0.0,0.0,0.0,1.0,333.33500000000004,52.338,52.338,47.15,47.15,34.0,-21.3025,24.68,-28.166666666666664,31.355,0.0,1781.842,-0.41999999999999993,100.0,28.461,28.381,43.911,44.338,0.0,0.0,100.0,0.0,0.0,0.0,0.0,3006.5714285714284,3031.4,4104.666666666667,4254.4,305.7395,305.1765,314.913,314.4095,22.16025,20.7082,22.1088,21.6058,314.999998,314.999998,324.999988,324.999988,99.56261428571429,99.50781666666667,99.56957142857142,99.54955714285714,0.11474999999999991,-0.030000000000000027,-0.08533333333333337,0.15000000000000013,-0.026666666666670835,-0.041666666666671404,1.5230000000000001,1.505,39.501999999999995,30.426000000000002,39.18,36.036500000000004,56.903999999999996,35.989,60.1915,53.503,54.751000000000005,35.033500000000004,58.7355,51.7935,53.839,34.528,58.597,51.18266666666666,-0.10749999999999993,-0.04800000000000004,0.10578000000000001,0.11229000000000001,0.0,219.47500000000002,219.485,216.18,216.18,0.0,0.0
35,0.0,0.0,0.0,1.0,1.0,0.0,0.0,1.0,0.0,100.0,1.0,1.1856,26.0,0.0,0.0,0.0,59.999996,0.0,26.0,26.0,26.0,26.0,0.04422222222222216,0.25880000000000014,-0.07763333333333335,291.733,-2.7186,-2.6614,-1.6188500000000001,-1.5175,-156.36,215.4675,190.195125,0.0,0.0,0.0,0.0,0.07096666666666666,-5.498166666666667,-5.498166666666667,-0.6797000000000001,-0.07233333333333333,-0.007000000000000117,-0.16999999999999993,70.266,0.022800000000000153,-0.227575,-0.3539999999999992,100.0,1.0,1.0,216.67333333333335,0.0,0.0,0.0,0.0,0.0,0.0,0.0,9183.9,0.0,55.0,5.0,252.93333333333334,1.0,0.0,0.0,0.0,0.0,0.0,1.0,0.0,1.7579999999999991,1.7579999999999991,0.0,0.0,1.0,55.0,616.79921,10000.0,85.000001,85.000001,85.000001,85.000001,395.0,0.0,0.0,0.0,1.0,166.665,51.666,51.666,46.738,46.738,34.0,-22.8825,27.862000000000002,-27.313333333333333,29.1275,0.0,1781.789,-0.24499999999999922,100.0,28.332,28.741,43.693,43.879,0.0,0.0,100.0,0.0,0.0,0.0,0.0,3068.4285714285716,3392.2,4046.1111111111113,4079.0,305.534,304.11325,314.999,314.81425,22.170125,20.7144,22.1196,21.6155,314.999998,314.999998,324.999988,324.999988,99.56262857142858,99.50781666666667,99.56972857142857,99.54971428571429,0.1030000000000002,-0.030999999999999917,-0.07966666666666666,0.1412,-0.026666666666670835,-0.041666666666671404,1.5455,1.5365,39.563,30.465,39.248000000000005,36.0965,56.887,36.03,60.2275,53.5635,54.733999999999995,35.072,58.769,51.8515,53.821,34.565,58.626999999999995,51.239666666666665,-0.09750000000000003,-0.06000000000000005,0.107285,0.10593500000000002,0.0,219.89499999999998,219.905,216.67333333333335,216.67333333333335,0.0,0.0
