,ABS Active,ABS Enabled,AID Allow Tire Blankets,AID Auto Blip,AID Auto Clutch,AID Auto Shift,AID Fuel Rate,AID Ideal Line,AID Mech Damage,AID Stability,AID Tire Wear Rate,Air Density,Air Temp,Ballast,Best Lap Delta,Best Lap Time,Brake Bias,Brake Pos,Brake Temp FL,Brake Temp FR,Brake Temp RL,Brake Temp RR,CG Accel Lateral,CG Accel Longitudinal,CG Accel Vertical,CG Height,Camber FL,Camber FR,Camber RL,Camber RR,Car Coord X,Car Coord Y,Car Coord Z,Car Damage Front,Car Damage Left,Car Damage Rear,Car Damage Right,Car Pos Norm,Caster FL,Caster FR,Chassis Pitch Angle,Chassis Pitch Rate,Chassis Roll Angle,Chassis Roll Rate,Chassis Velocity X,Chassis Velocity Y,Chassis Velocity Z,Chassis Yaw Rate,Clutch Pos,DRS Active,DRS Available,Drive Train Speed,ERS Heat Charging,ERS Is Charging,ERS Max Energy,ERS Power Level,ERS Recovery Level,Engine Brake Setting,Engine Limiter,Engine RPM,Flags,Fuel Level,Gear,Ground Speed,HR Sample Clock,In Pit,KERS Charge,KERS Deployed Energy,KERS Input,KERS Max Energy,LR Sample Clock,Lap Invalidated,Lap Time,Lap Time2,Last Lap Time,Last Sector Time,MR Sample Clock,Max Fuel,Max Power,Max RPM,Max Sus Travel FL,Max Sus Travel FR,Max Sus Travel RL,Max Sus Travel RR,Max Torque,Max Turbo Boost,Num Tires Off Track,Penalties Enabled,Position,Raw Data Sample Rate,Ride Height FL,Ride Height FR,Ride Height RL,Ride Height RR,Road Temp,Self Align Torque FL,Self Align Torque FR,Self Align Torque RL,Self Align Torque RR,Session Lap Count,Session Time Left,Steering Angle,Surface Grip,Suspension Travel FL,Suspension Travel FR,Suspension Travel RL,Suspension Travel RR,TC Active,TC Enabled,Throttle Pos,Tire Dirt Level FL,Tire Dirt Level FR,Tire Dirt Level RL,Tire Dirt Level RR,Tire Load FL,Tire Load FR,Tire Load RL,Tire Load RR,Tire Loaded Radius FL,Tire Loaded Radius FR,Tire Loaded Radius RL,Tire Loaded Radius RR,Tire Pressure FL,Tire Pressure FR,Tire Pressure RL,Tire Pressure RR,Tire Radius FL,Tire Radius FR,Tire Radius RL,Tire Radius RR,Tire Rubber Grip FL,Tire Rubber Grip FR,Tire Rubber Grip RL,Tire Rubber Grip RR,Tire Slip Angle FL,Tire Slip Angle FR,Tire Slip Angle RL,Tire Slip Angle RR,Tire Slip Ratio FL,Tire Slip Ratio FR,Tire Slip Ratio RL,Tire Slip Ratio RR,Tire Temp Core FL,Tire Temp Core FR,Tire Temp Core RL,Tire Temp Core RR,Tire Temp Inner FL,Tire Temp Inner FR,Tire Temp Inner RL,Tire Temp Inner RR,Tire Temp Middle FL,Tire Temp Middle FR,Tire Temp Middle RL,Tire Temp Middle RR,Tire Temp Outer FL,Tire Temp Outer FR,Tire Temp Outer RL,Tire Temp Outer RR,Toe In FL,Toe In FR,Toe In RL,Toe In RR,Turbo Boost,Wheel Angular Speed FL,Wheel Angular Speed FR,Wheel Angular Speed RL,Wheel Angular Speed RR,Wind Direction,Wind Speed
0,0.0,0.0,0.0,1.0,1.0,0.0,0.0,1.0,0.0,100.0,1.0,1.1856,26.0,0.0,0.0,0.0,59.99999,0.0,26.0,26.0,26.0,26.0,-0.09144444444444444,0.3016000000000001,0.098375,293.854,-2.7134,-2.4805,-1.50885,-1.5375,-275.57,216.06,190.986875,0.0,0.0,0.0,0.0,0.0016333333333333755,-5.498166666666667,-5.498166666666667,-0.5431,2.0935,-0.014888888888889174,-1.044,65.498,-0.0413,-0.20935,0.7360000000000007,100.0,1.0,1.0,202.21,0.0,0.0,0.0,0.0,0.0,0.0,0.0,8571.0,0.0,55.0,5.0,235.76333333333332,0.0,0.0,0.0,0.0,0.0,0.0,0.0,0.0,0.006000000000000227,0.006000000000000227,0.0,0.0,0.0,55.0,616.79921,10000.0,85.0,85.0,85.0,85.0,395.0,0.0,0.0,0.0,1.0,20.0,52.505,52.505,49.179,49.179,34.0,-26.77,22.136,-30.596666666666664,25.3075,0.0,1783.488,0.7699999999999996,100.0,27.454,27.035,40.51,40.272,0.0,0.0,100.0,0.0,0.0,0.0,0.0,3024.714285714286,3491.6,4189.0,4056.2,305.5875,303.60633333333334,314.682,314.7295,21.7905,20.5181,21.7593,21.3032,314.99999,314.99999,324.99998,324.99998,99.5597,99.50733333333334,99.56471428571429,99.54472857142858,-0.005749999999999922,-0.129,-0.15433333333333335,0.068,-0.051666666666669414,-0.06833333333332803,1.5335,1.569,37.191,29.238333333333333,36.995000000000005,34.144999999999996,56.566,34.567,58.9045,51.454,54.454,33.7205,57.536500000000004,49.822,53.604,33.2685,57.5005,49.251,-0.017000000000000015,-0.13250000000000006,0.10379000000000001,0.11135,0.0,205.26999999999998,205.215,202.21,202.21,0.0,0.0
1,0.0,0.0,0.0,1.0,1.0,0.0,0.0,1.0,0.0,100.0,1.0,1.1856,26.0,0.0,0.0,0.0,59.999996,0.0,26.0,26.0,26.0,26.0,-0.13044444444444447,0.32330000000000014,0.22755,293.076,-2.6463,-2.8086,-1.5147,-1.3771,-272.22,216.065,190.966875,0.0,0.0,0.0,0.0,0.0035999999999999366,-5.498166666666667,-5.498166666666667,-0.48910000000000003,-1.4105,-0.06311111111111156,-0.586,65.656,-0.053700000000000005,-0.18882500000000002,1.3800000000000008,100.0,1.0,1.0,202.28333333333333,0.0,0.0,0.0,0.0,0.0,0.0,0.0,8574.0,0.0,55.0,5.0,236.32999999999998,1.0,0.0,0.0,0.0,0.0,0.0,0.0,0.0,0.05699999999999861,0.05699999999999861,0.0,0.0,1.0,55.0,616.79921,10000.0,85.000001,85.000001,85.000001,85.000001,395.0,0.0,0.0,0.0,1.0,333.33500000000004,54.062,54.062,48.218,48.218,34.0,-27.302500000000002,17.544,-35.75666666666666,27.552500000000002,0.0,1783.436,0.8550000000000004,100.0,27.296,26.741,42.565,41.816,0.0,0.0,100.0,0.0,0.0,0.0,0.0,3095.857142857143,2575.7,4481.25,4843.5,305.504,306.72566666666665,313.81025,312.71225,21.8004,20.5231,21.7702,21.3124,314.999998,314.999998,324.999988,324.999988,99.55971428571429,99.50736666666667,99.56487142857142,99.54488571428571,-0.01949999999999985,-0.1356666666666666,-0.18033333333333335,0.04,-0.036666666666668846,-0.03833333333332689,1.3815,1.419,37.251999999999995,29.269333333333336,37.064,34.202,56.548,34.6055,58.952,51.521,54.437,33.756,57.581,49.8865,53.587,33.303,57.542500000000004,49.31433333333334,0.0004999999999999449,-0.13949999999999996,0.100165,0.11212000000000001,0.0,205.685,205.59,202.28333333333333,202.28333333333333,0.0,0.0
2,0.0,0.0,0.0,1.0,1.0,0.0,0.0,1.0,0.0,100.0,1.0,1.1856,26.0,0.0,0.0,0.0,59.999996,0.0,26.0,26.0,26.0,26.0,-0.12388888888888894,0.2852000000000001,-0.079,294.022,-2.6122,-2.773,-1.4904,-1.6246,-268.67,216.065,190.947,0.0,0.0,0.0,0.0,0.005666666666666598,-5.498166666666667,-5.498166666666667,-0.5598000000000001,0.657,-0.04144444444444417,1.5020000000000002,65.803,-0.0734,-0.25855,1.6080000000000005,100.0,1.0,1.0,203.43666666666667,0.0,0.0,0.0,0.0,0.0,0.0,0.0,8623.0,0.0,55.0,5.0,236.86,0.0,0.0,0.0,0.0,0.0,0.0,0.0,0.0,0.11100000000000065,0.11100000000000065,0.0,0.0,0.0,55.0,616.79921,10000.0,85.000001,85.000001,85.000001,85.000001,395.0,0.0,0.0,0.0,1.0,166.665,52.46,52.46,50.751,50.751,34.0,-30.585,19.842,-28.563333333333333,19.22,0.0,1783.383,0.8350000000000009,100.0,28.204,26.928,42.089,41.014,0.0,0.0,100.0,0.0,0.0,0.0,0.0,3370.0,2971.9,3648.5,3622.2,304.5625,305.26666666666665,315.955,315.95425,21.8113,20.5285,21.7811,21.3214,314.999998,314.999998,324.999988,324.999988,99.55971428571429,99.50738333333334,99.56501428571428,99.54501428571429,-0.03249999999999997,-0.15599999999999992,-0.23550000000000001,-0.0033333333333333335,-0.07166666666666544,-0.051666666666669414,1.682,1.745,37.32,29.302999999999997,37.132,34.259,56.535,34.6485,58.9905,51.579,54.424,33.795500000000004,57.617,49.942499999999995,53.573,33.3405,57.5755,49.369,-0.018000000000000016,-0.13800000000000012,0.111185,0.09955000000000001,0.0,206.22500000000002,206.05,203.43666666666667,203.43666666666667,0.0,0.0
3,0.0,0.0,0.0,1.0,1.0,0.0,0.0,1.0,0.0,100.0,1.0,1.1856,26.0,0.0,0.0,0.0,59.999996,0.0,26.0,26.0,26.0,26.0,-0.15111111111111108,0.3054000000000001,0.11230000000000001,293.503,-2.6299,-2.7028,-1.4939,-1.5875,-265.71,216.0625,190.929375,0.0,0.0,0.0,0.0,0.007399999999999962,-5.498166666666667,-5.498166666666667,-0.5057,0.46950000000000003,-0.02244444444444449,-0.06699999999999995,65.94,-0.08700000000000001,-0.191525,1.3239999999999998,100.0,1.0,1.0,203.40666666666667,0.0,0.0,0.0,0.0,0.0,0.0,0.0,8621.7,0.0,55.0,5.0,237.35000000000002,1.0,0.0,0.0,0.0,0.0,0.0,0.0,0.0,0.1559999999999988,0.1559999999999988,0.0,0.0,1.0,55.0,616.79921,10000.0,85.000001,85.000001,85.000001,85.000001,395.0,0.0,0.0,0.0,1.0,166.665,53.619,53.619,48.172,48.172,34.0,-26.5425,17.758,-35.266666666666666,24.785,0.0,1783.339,0.9050000000000011,100.0,27.874,26.798000000000002,42.307,41.179,0.0,0.0,100.0,0.0,0.0,0.0,0.0,2931.5714285714284,2857.2,4392.25,4256.7,305.942,305.7463333333333,314.07775,314.3215,21.8199,20.5331,21.790399999999998,21.3293,314.999998,314.999998,324.999988,324.999988,99.55972857142856,99.5074,99.56514285714286,99.54515714285715,-0.04525000000000001,-0.16799999999999993,-0.20283333333333334,0.016,-0.03833333333332689,-0.051666666666669414,1.483,1.5305,37.373999999999995,29.331666666666663,37.19,34.308,56.519999999999996,34.686,59.027,51.635999999999996,54.41,33.8305,57.650999999999996,49.997,53.559,33.374,57.607,49.422333333333334,-0.0004999999999999449,-0.13949999999999996,0.10441,0.107895,0.0,206.63,206.525,203.40666666666667,203.40666666666667,0.0,0.0
4,0.0,0.0,0.0,1.0,1.0,0.0,0.0,1.0,0.0,100.0,1.0,1.1856,26.0,0.0,0.0,0.0,59.999996,0.0,26.0,26.0,26.0,26.0,-0.14755555555555555,0.28790000000000004,0.00125,293.625,-2.6574999999999998,-2.7871,-1.43485,-1.5986,-262.34,216.055,190.90975,0.0,0.0,0.0,0.0,0.009333333333333305,-5.498166666666667,-5.498166666666667,-0.5409,-0.8725,-0.08333333333333348,-1.5350000000000001,66.086,-0.09680000000000001,-0.23575000000000002,1.5999999999999996,100.0,1.0,1.0,203.98000000000002,0.0,0.0,0.0,0.0,0.0,0.0,0.0,8646.0,0.0,55.0,5.0,237.88,0.0,0.0,0.0,0.0,0.0,0.0,0.0,0.0,0.20700000000000074,0.20700000000000074,0.0,0.0,0.0,55.0,616.79921,10000.0,85.000001,85.000001,85.000001,85.000001,395.0,0.0,0.0,0.0,1.0,333.33500000000004,53.162,53.162,48.691,48.691,34.0,-30.9675,18.47,-33.663333333333334,20.4825,0.0,1783.287,0.9499999999999993,100.0,27.64,26.73,42.82,41.46,0.0,0.0,100.0,0.0,0.0,0.0,0.0,3308.4285714285716,2864.3,4211.875,3702.7,304.9425,305.5713333333333,314.601,315.578,21.8297,20.5381,21.801,21.3381,314.999998,314.999998,324.999988,324.999988,99.55972857142856,99.50741666666667,99.56528571428571,99.54528571428571,-0.05274999999999985,-0.17333333333333312,-0.231,0.0051666666666666675,-0.04999999999999716,-0.036666666666668846,1.5554999999999999,1.5950000000000002,37.436,29.363333333333333,37.256,34.3635,56.503,34.7275,59.070499999999996,51.696,54.394,33.8685,57.6915,50.054,53.542,33.4105,57.644999999999996,49.47866666666667,0.0015000000000000568,-0.14600000000000013,0.102925,0.10966500000000001,0.0,207.05,206.885,203.98000000000002,203.98000000000002,0.0,0.0
5,0.0,0.0,0.0,1.0,1.0,0.0,0.0,1.0,0.0,100.0,1.0,1.1856,26.0,0.0,0.0,0.0,59.999996,0.0,26.0,26.0,26.0,26.0,-0.17666666666666664,0.3043,-0.018925,293.686,-2.6639,-2.7653,-1.5041,-1.6305,-258.97,216.04500000000002,190.8895,0.0,0.0,0.0,0.0,0.011299999999999977,-5.498166666666667,-5.498166666666667,-0.537,0.4825,-0.08844444444444433,0.804,66.232,-0.1063,-0.21730000000000002,1.4580000000000002,100.0,1.0,1.0,204.43333333333334,0.0,0.0,0.0,0.0,0.0,0.0,0.0,8665.2,0.0,55.0,5.0,238.40666666666667,1.0,0.0,0.0,0.0,0.0,0.0,0.0,0.0,0.2579999999999991,0.2579999999999991,0.0,0.0,1.0,55.0,616.79921,10000.0,85.000001,85.000001,85.000001,85.000001,395.0,0.0,0.0,0.0,1.0,333.33500000000004,53.375,53.375,49.118,49.118,34.0,-29.049999999999997,18.497999999999998,-33.989999999999995,22.1025,0.0,1783.234,0.5650000000000013,100.0,27.958,26.533,42.637,40.971000000000004,0.0,0.0,100.0,0.0,0.0,0.0,0.0,3142.4285714285716,2856.4,4125.625,4046.5,305.193,305.7896666666667,314.79025,314.85125,21.8398,20.5433,21.8114,21.3468,314.999998,314.999998,324.999988,324.999988,99.55974285714285,99.50743333333334,99.56544285714286,99.54542857142857,-0.03949999999999987,-0.16233333333333322,-0.23466666666666666,-0.014833333333333334,-0.05333333333332746,-0.03499999999999659,1.5510000000000002,1.5899999999999999,37.498999999999995,29.395333333333333,37.321,34.417500000000004,56.489000000000004,34.7715,59.113,51.757,54.381,33.909,57.7315,50.1125,53.528,33.4495,57.682,49.536,-0.02200000000000002,-0.12050000000000005,0.10184000000000001,0.10739000000000001,0.0,207.525,207.405,204.43333333333334,204.43333333333334,0.0,0.0
6,0.0,0.0,0.0,1.0,1.0,0.0,0.0,1.0,0.0,100.0,1.0,1.1856,26.0,0.0,0.0,0.0,59.999996,0.0,26.0,26.0,26.0,26.0,-0.1604444444444444,0.2832000000000001,0.0022500000000000003,293.564,-2.6191,-2.8147,-1.5324499999999999,-1.5924,-255.79,216.03,190.870125,0.0,0.0,0.0,0.0,0.013166666666666549,-5.498166666666667,-5.498166666666667,-0.5284,0.0535,-0.08488888888888857,0.9020000000000001,66.37100000000001,-0.1086,-0.2102,1.202,100.0,1.0,1.0,204.8,0.0,0.0,0.0,0.0,0.0,0.0,0.0,8680.8,0.0,55.0,5.0,238.90333333333334,0.0,0.0,0.0,0.0,0.0,0.0,0.0,0.0,0.30600000000000094,0.30600000000000094,0.0,0.0,0.0,55.0,616.79921,10000.0,85.000001,85.000001,85.000001,85.000001,395.0,0.0,0.0,0.0,1.0,333.33500000000004,53.391,53.391,48.706,48.706,34.0,-28.177500000000002,19.432,-34.596666666666664,22.9125,0.0,1783.186,0.46000000000000085,100.0,27.823999999999998,26.44,42.835,41.161,0.0,0.0,100.0,0.0,0.0,0.0,0.0,3128.5714285714284,2887.9,4179.0,4057.9,305.2,305.645,314.6155,314.81375,21.8492,20.548,21.8214,21.3551,314.999998,314.999998,324.999988,324.999988,99.55974285714285,99.50745,99.56557142857143,99.54555714285715,-0.030249999999999888,-0.1563333333333332,-0.22416666666666665,0.0075,-0.036666666666668846,-0.06333333333333258,1.5225,1.5660000000000003,37.558,29.425333333333334,37.382999999999996,34.4695,56.476,34.81,59.153,51.815,54.367999999999995,33.9445,57.769,50.168,53.513999999999996,33.483000000000004,57.716499999999996,49.59,-0.03500000000000003,-0.10899999999999999,0.10612,0.11011000000000001,0.0,207.935,207.85500000000002,204.8,204.8,0.0,0.0
7,0.0,0.0,0.0,1.0,1.0,0.0,0.0,1.0,0.0,100.0,1.0,1.1856,26.0,0.0,0.0,0.0,59.999996,0.0,26.0,26.0,26.0,26.0,-0.1253333333333334,0.2882,0.009550000000000001,293.488,-2.5916,-2.8048,-1.4957500000000001,-1.6324,-252.2,216.01,190.8485,0.0,0.0,0.0,0.0,0.015233333333333321,-5.498166666666667,-5.498166666666667,-0.5359,0.0945,-0.06744444444444442,1.1550000000000002,66.524,-0.10310000000000001,-0.22390000000000002,0.9440000000000008,100.0,1.0,1.0,205.30666666666667,0.0,0.0,0.0,0.0,0.0,0.0,0.0,8702.3,0.0,55.0,5.0,239.46,1.0,0.0,0.0,0.0,0.0,0.0,0.0,0.0,0.35999999999999943,0.35999999999999943,0.0,0.0,1.0,55.0,616.79921,10000.0,85.000001,85.000001,85.000001,85.000001,395.0,0.0,0.0,0.0,1.0,166.665,53.07,53.07,49.025999999999996,49.025999999999996,34.0,-27.015,20.826,-31.773333333333333,23.25,0.0,1783.135,0.045000000000001705,100.0,28.038,26.618,42.835,41.4,0.0,0.0,100.0,0.0,0.0,0.0,0.0,3141.714285714286,2956.6,4017.0,3994.0,305.115,305.407,314.98775,314.927,21.8598,20.5535,21.8325,21.3645,314.999998,314.999998,324.999988,324.999988,99.55974285714285,99.50746666666667,99.56571428571428,99.54571428571428,-0.00374999999999992,-0.1336666666666666,-0.2105,0.011833333333333335,-0.045000000000001705,-0.060000000000002274,1.5474999999999999,1.5775000000000001,37.623999999999995,29.459333333333333,37.453,34.5285,56.461,34.851,59.1935,51.876,54.354,33.9825,57.807,50.2265,53.5,33.5195,57.751999999999995,49.647,-0.06999999999999995,-0.08099999999999996,0.099595,0.11680000000000001,0.0,208.41,208.31,205.30666666666667,205.30666666666667,0.0,0.0
8,0.0,0.0,0.0,1.0,1.0,0.0,0.0,1.0,0.0,100.0,1.0,1.1856,26.0,0.0,0.0,0.0,59.999996,0.0,26.0,26.0,26.0,26.0,-0.10177777777777786,0.28770000000000007,0.022025,293.564,-2.6724,-2.7392000000000003,-1.47645,-1.6240999999999999,-249.0,215.99,190.829125,0.0,0.0,0.0,0.0,0.017100000000000004,-5.498166666666667,-5.498166666666667,-0.5375,-0.4855,-0.0555555555555558,0.675,66.662,-0.0877,-0.21795,0.43599999999999994,100.0,1.0,1.0,205.65,0.0,0.0,0.0,0.0,0.0,0.0,0.0,8716.8,0.0,55.0,5.0,239.95333333333332,0.0,0.0,0.0,0.0,0.0,0.0,0.0,0.0,0.40800000000000125,0.40800000000000125,0.0,0.0,0.0,55.0,616.79921,10000.0,85.000001,85.000001,85.000001,85.000001,395.0,0.0,0.0,0.0,1.0,333.33500000000004,53.604,53.604,48.385999999999996,48.385999999999996,34.0,-25.5625,21.107999999999997,-31.78,24.9175,0.0,1783.084,-0.03999999999999915,100.0,27.583,26.561,42.899,41.511,0.0,0.0,100.0,0.0,0.0,0.0,0.0,2995.285714285714,2978.9,4090.0,4102.8,305.687,305.42833333333334,314.76775,314.6455,21.869,20.5583,21.8424,21.3729,314.999998,314.999998,324.999988,324.999988,99.55974285714285,99.50748333333334,99.56587142857143,99.54584285714286,0.009250000000000203,-0.11533333333333329,-0.196,0.028833333333333332,-0.05333333333332746,-0.07333333333333059,1.5060000000000002,1.5505,37.681,29.489666666666665,37.515,34.5805,56.443,34.8905,59.2345,51.9365,54.337,34.0185,57.8455,50.285,53.482,33.554,57.7875,49.704,-0.07350000000000001,-0.06350000000000011,0.10593000000000001,0.10424000000000001,0.0,208.8,208.76,205.65,205.65,0.0,0.0
9,0.0,0.0,0.0,1.0,1.0,0.0,0.0,1.0,0.0,100.0,1.0,1.1856,26.0,0.0,0.0,0.0,59.999996,0.0,26.0,26.0,26.0,26.0,-0.07844444444444443,0.27890000000000015,0.035175000000000005,293.304,-2.5955,-2.761,-1.5282499999999999,-1.5752000000000002,-245.8,215.9675,190.80925,0.0,0.0,0.0,0.0,0.018966666666666576,-5.498166666666667,-5.498166666666667,-0.5396000000000001,0.5955,-0.06099999999999994,0.95,66.79599999999999,-0.0689,-0.214725,0.3100000000000005,100.0,1.0,1.0,206.17000000000002,0.0,0.0,0.0,0.0,0.0,0.0,0.0,8738.8,0.0,55.0,5.0,240.43666666666667,1.0,0.0,0.0,0.0,0.0,0.0,0.0,0.0,0.4559999999999995,0.4559999999999995,0.0,0.0,1.0,55.0,616.79921,10000.0,85.000001,85.000001,85.000001,85.000001,395.0,0.0,0.0,0.0,1.0,333.33500000000004,52.704,52.704,49.194,49.194,34.0,-26.564999999999998,22.528,-30.403333333333332,25.475,0.0,1783.037,-0.22500000000000142,100.0,28.055,26.854,42.611000000000004,41.479,0.0,0.0,100.0,0.0,0.0,0.0,0.0,3262.142857142857,3016.2,4017.5,4073.4,304.808,305.2513333333333,315.04725,314.8025,21.8784,20.563299999999998,21.8521,21.3812,314.999998,314.999998,324.999988,324.999988,99.55975714285714,99.5075,99.566,99.54597142857143,0.03275000000000006,-0.09433333333333316,-0.17433333333333334,0.059166666666666666,-0.03833333333332689,-0.054999999999999716,1.5465,1.5550000000000002,37.739999999999995,29.521,37.576,34.6325,56.43,34.926,59.2685,51.989,54.325,34.0515,57.876999999999995,50.335,53.469,33.585499999999996,57.8165,49.753,-0.09599999999999997,-0.05899999999999994,0.09764,0.11610500000000001,0.0,209.235,209.195,206.17000000000002,206.17000000000002,0.0,0.0
10,0.0,0.0,0.0,1.0,1.0,0.0,0.0,1.0,0.0,100.0,1.0,1.1856,26.0,0.0,0.0,0.0,59.999996,0.0,26.0,26.0,26.0,26.0,-0.04677777777777781,0.27760000000000007,-0.024875,293.213,-2.6754,-2.7364,-1.50765,-1.5493999999999999,-242.39,215.94,190.7885,0.0,0.0,0.0,0.0,0.02093333333333336,-5.498166666666667,-5.498166666666667,-0.5224,-0.47700000000000004,-0.022222222222222143,0.30400000000000005,66.94200000000001,-0.0468,-0.20852500000000002,-0.0420000000000007,100.0,1.0,1.0,206.43333333333334,0.0,0.0,0.0,0.0,0.0,0.0,0.0,8750.0,0.0,55.0,5.0,240.96333333333334,0.0,0.0,0.0,0.0,0.0,0.0,1.0,0.0,0.5069999999999979,0.5069999999999979,0.0,0.0,0.0,55.0,616.79921,10000.0,85.000001,85.000001,85.000001,85.000001,395.0,0.0,0.0,0.0,1.0,333.33500000000004,53.589,53.589,48.004,48.004,34.0,-23.6825,21.102,-32.22,26.615000000000002,0.0,1782.986,-0.3500000000000014,100.0,27.695,26.990000000000002,42.879,42.229,0.0,0.0,100.0,0.0,0.0,0.0,0.0,2983.0,2822.7,4265.0,4214.3,305.853,305.71566666666666,314.446,314.32375,21.8883,20.5685,21.8627,21.3903,314.999998,314.999998,324.999988,324.999988,99.55975714285714,99.5075,99.56614285714285,99.54611428571428,0.04999999999999982,-0.08666666666666667,-0.16583333333333333,0.059833333333333336,-0.03333333333333144,-0.046666666666666856,1.4889999999999999,1.4980000000000002,37.802,29.553333333333335,37.641999999999996,34.689499999999995,56.415,34.963499999999996,59.3105,52.0525,54.31,34.086,57.916,50.3955,53.454,33.6185,57.8525,49.812666666666665,-0.10649999999999993,-0.044499999999999984,0.10894000000000001,0.10315500000000001,0.0,209.65,209.655,206.43333333333334,206.43333333333334,0.0,0.0
11,0.0,0.0,0.0,1.0,1.0,0.0,0.0,1.0,0.0,100.0,1.0,1.1856,26.0,0.0,0.0,0.0,59.999996,0.0,26.0,26.0,26.0,26.0,-0.01766666666666661,0.27670000000000017,-0.0644,293.625,-2.6797,-2.7187,-1.5630000000000002,-1.5219,-238.97,215.9125,190.76775,0.0,0.0,0.0,0.0,0.022599999999999953,-5.498166666666667,-5.498166666666667,-0.5581,-0.0815,0.004111111111110954,0.6120000000000001,67.082,-0.022000000000000002,-0.231625,-0.2839999999999998,100.0,1.0,1.0,207.12333333333333,0.0,0.0,0.0,0.0,0.0,0.0,0.0,8779.2,0.0,55.0,5.0,241.46666666666667,1.0,0.0,0.0,0.0,0.0,0.0,1.0,0.0,0.5579999999999998,0.5579999999999998,0.0,0.0,1.0,55.0,616.79921,10000.0,85.000001,85.000001,85.000001,85.000001,395.0,0.0,0.0,0.0,1.0,333.33500000000004,53.07,53.07,49.254999999999995,49.254999999999995,34.0,-23.6575,24.628,-26.136666666666663,25.595,0.0,1782.936,-0.375,100.0,27.586,27.066,42.494,42.108000000000004,0.0,0.0,100.0,0.0,0.0,0.0,0.0,3046.857142857143,3108.1,3780.25,3930.6000000000004,305.509,304.975,315.65375,315.14975,21.8979,20.5739,21.873,21.3992,314.999998,314.999998,324.999988,324.999988,99.55977142857142,99.5075,99.56628571428571,99.54625714285714,0.07050000000000001,-0.05466666666666664,-0.125,0.10250000000000001,-0.03166666666666629,-0.06333333333333258,1.609,1.6179999999999999,37.861999999999995,29.587,37.706,34.745,56.399,35.001999999999995,59.346000000000004,52.112,54.295,34.1215,57.9495,50.453,53.438,33.6525,57.882999999999996,49.86866666666667,-0.10399999999999998,-0.04499999999999993,0.108435,0.10227000000000001,0.0,210.06,210.085,207.12333333333333,207.12333333333333,0.0,0.0
12,0.0,0.0,0.0,1.0,1.0,0.0,0.0,1.0,0.0,100.0,1.0,1.1856,26.0,0.0,0.0,0.0,59.999996,0.0,26.0,26.0,26.0,26.0,0.0031111111111110645,0.28300000000000014,0.0193,293.106,-2.701,-2.7092,-1.5349,-1.5712000000000002,-235.75,215.8875,190.747,0.0,0.0,0.0,0.0,0.025466666666666526,-5.498166666666667,-5.498166666666667,-0.544,0.3115,-0.0040000000000000036,0.7830000000000001,67.218,-0.0021000000000000003,-0.20535,-0.30600000000000005,100.0,1.0,1.0,207.36,0.0,0.0,0.0,0.0,0.0,0.0,0.0,8789.3,0.0,55.0,5.0,241.95666666666665,0.0,0.0,0.0,0.0,0.0,0.0,1.0,0.0,0.6059999999999981,0.6059999999999981,0.0,0.0,0.0,55.0,616.79921,10000.0,85.000001,85.000001,85.000001,85.000001,395.0,0.0,0.0,0.0,1.0,166.665,52.948,52.948,48.157,48.157,34.0,-23.5475,25.43,-28.299999999999997,30.165,0.0,1782.889,-0.370000000000001,100.0,27.524,27.22,42.445,42.086,0.0,0.0,100.0,0.0,0.0,0.0,0.0,3064.142857142857,3137.5,4172.625,4196.8,305.4395,304.9046666666667,314.65725,314.48925,21.907,20.579,21.8828,21.4076,314.999998,314.999998,324.999988,324.999988,99.55977142857142,99.50751666666666,99.56642857142857,99.5464,0.08199999999999985,-0.038999999999999924,-0.10300000000000001,0.1275,-0.045000000000001705,-0.04833333333333201,1.5420000000000003,1.508,37.919,29.619,37.766999999999996,34.7975,56.385,35.038,59.3825,52.169,54.281,34.155,57.9835,50.507999999999996,53.424,33.6845,57.914500000000004,49.922666666666665,-0.09899999999999998,-0.04600000000000004,0.11081,0.11178,0.0,210.51999999999998,210.51,207.36,207.36,0.0,0.0
13,0.0,0.0,0.0,1.0,1.0,0.0,0.0,1.0,0.0,100.0,1.0,1.1856,26.0,0.0,0.0,0.0,59.999996,0.0,26.0,26.0,26.0,26.0,0.0301111111111112,0.28390000000000004,0.037450000000000004,292.74,-2.6878,-2.6952,-1.5714000000000001,-1.5565,-232.32,215.86,190.725375,0.0,0.0,0.0,0.0,0.026799999999999935,-5.498166666666667,-5.498166666666667,-0.5385,-0.164,0.00044444444444424747,-0.382,67.361,0.0058000000000000005,-0.214625,-0.25399999999999956,100.0,1.0,1.0,207.73000000000002,0.0,0.0,0.0,0.0,0.0,0.0,0.0,8804.8,0.0,55.0,5.0,242.47,1.0,0.0,0.0,0.0,0.0,0.0,1.0,0.0,0.657,0.657,0.0,0.0,1.0,55.0,616.79921,10000.0,85.000001,85.000001,85.000001,85.000001,395.0,0.0,0.0,0.0,1.0,166.665,52.673,52.673,48.05,48.05,34.0,-23.4425,24.832,-28.983333333333334,30.5575,0.0,1782.836,-0.504999999999999,100.0,27.67,27.634,42.583,42.745000000000005,0.0,0.0,100.0,0.0,0.0,0.0,0.0,3172.285714285714,3030.8,4213.375,4249.0,305.2785,305.049,314.60425,314.25275,21.9167,20.5845,21.8933,21.4167,314.999998,314.999998,324.999988,324.999988,99.55978571428571,99.50751666666666,99.56655714285715,99.54652857142857,0.09925000000000006,-0.03166666666666673,-0.098,0.12533333333333332,-0.04999999999999716,-0.06499999999999773,1.5060000000000002,1.4860000000000002,37.979,29.653,37.833,34.8545,56.372,35.0755,59.422,52.233000000000004,54.269,34.189499999999995,58.0205,50.5695,53.41,33.718,57.948,49.98266666666667,-0.11599999999999999,-0.03849999999999998,0.09786500000000001,0.11139,0.0,210.935,210.965,207.73000000000002,207.73000000000002,0.0,0.0
14,0.0,0.0,0.0,1.0,1.0,0.0,0.0,1.0,0.0,100.0,1.0,1.1856,26.0,0.0,0.0,0.0,59.999996,0.0,26.0,26.0,26.0,26.0,0.027888888888888852,0.2884,-0.016875,292.923,-2.7077999999999998,-2.7037,-1.5744,-1.5369000000000002,-228.88,215.83249999999998,190.704,0.0,0.0,0.0,0.0,0.028799999999999937,-5.498166666666667,-5.498166666666667,-0.5502,-0.0665,0.026000000000000023,1.0950000000000002,67.501,0.0158,-0.22795,-0.5020000000000007,100.0,1.0,1.0,208.25,0.0,0.0,0.0,0.0,0.0,0.0,0.0,8826.9,0.0,55.0,5.0,242.97666666666666,0.0,0.0,0.0,0.0,0.0,0.0,1.0,0.0,0.7079999999999984,0.7079999999999984,0.0,0.0,0.0,55.0,616.79921,10000.0,85.000001,85.000001,85.000001,85.000001,395.0,0.0,0.0,0.0,1.0,333.33500000000004,52.673,52.673,48.263999999999996,48.263999999999996,34.0,-21.7225,26.646,-25.729999999999997,29.9375,0.0,1782.785,-0.5199999999999996,100.0,27.78,27.648,42.620000000000005,42.799,0.0,0.0,100.0,0.0,0.0,0.0,0.0,2978.5714285714284,3175.2,3960.875,4168.7,305.6975,304.7056666666667,315.1585,314.54775,21.9264,20.59,21.9037,21.4258,314.999998,314.999998,324.999988,324.999988,99.5598,99.50753333333333,99.5667,99.54667142857143,0.10950000000000015,-0.02066666666666661,-0.07683333333333334,0.13816666666666666,-0.046666666666666856,-0.06333333333333258,1.5665,1.5314999999999999,38.04,29.687333333333335,37.897999999999996,34.911,56.358999999999995,35.113,59.4595,52.295,54.257,34.2245,58.055,50.629,53.397,33.751,57.9795,50.041,-0.11699999999999999,-0.030999999999999917,0.10397,0.109755,0.0,211.36,211.39,208.25,208.25,0.0,0.0
15,0.0,0.0,0.0,1.0,1.0,0.0,0.0,1.0,0.0,100.0,1.0,1.1856,26.0,0.0,0.0,0.0,59.999996,0.0,26.0,26.0,26.0,26.0,0.04255555555555568,0.2773000000000001,0.01585,292.862,-2.7119999999999997,-2.6691000000000003,-1.59575,-1.5424,-225.63,215.8075,190.683625,0.0,0.0,0.0,0.0,0.03069999999999995,-5.498166666666667,-5.498166666666667,-0.541,0.2495,0.04788888888888887,0.7490000000000001,67.633,0.027,-0.20985,-0.5599999999999996,100.0,1.0,1.0,208.62333333333333,0.0,0.0,0.0,0.0,0.0,0.0,0.0,8842.8,0.0,55.0,5.0,243.45,1.0,0.0,0.0,0.0,0.0,0.0,1.0,0.0,0.7560000000000002,0.7560000000000002,0.0,0.0,1.0,55.0,616.79921,10000.0,85.000001,85.000001,85.000001,85.000001,395.0,0.0,0.0,0.0,1.0,333.33500000000004,52.826,52.826,48.172,48.172,34.0,-20.775,26.298000000000002,-26.123333333333335,32.4775,0.0,1782.737,-0.4499999999999993,100.0,27.807,27.717,42.479,42.906,0.0,0.0,100.0,0.0,0.0,0.0,0.0,2880.714285714286,3151.0,3993.5,4337.5,306.0095,304.7733333333333,315.1055,314.09875,21.9354,20.5952,21.9134,21.4343,314.999998,314.999998,324.999988,324.999988,99.55981428571428,99.50753333333333,99.56682857142857,99.54681428571429,0.11275000000000013,-0.015666666666666718,-0.07183333333333333,0.15433333333333335,-0.026666666666670835,-0.045000000000001705,1.5325000000000002,1.516,38.096000000000004,29.72,37.959,34.9645,56.347,35.147999999999996,59.4935,52.354,54.245000000000005,34.257,58.0865,50.6855,53.384,33.7825,58.0085,50.096666666666664,-0.11599999999999999,-0.04049999999999998,0.10275000000000001,0.11635000000000001,0.0,211.78,211.805,208.62333333333333,208.62333333333333,0.0,0.0
16,0.0,0.0,0.0,1.0,1.0,0.0,0.0,1.0,0.0,100.0,1.0,1.1856,26.0,0.0,0.0,0.0,59.999996,0.0,26.0,26.0,26.0,26.0,0.057222222222222285,0.2659,-0.01535,292.831,-2.774,-2.6155,-1.568,-1.544,-222.18,215.7825,190.6615,0.0,0.0,0.0,0.0,0.03269999999999995,-5.498166666666667,-5.498166666666667,-0.5593,-0.5985,0.03111111111111109,-1.194,67.773,0.0351,-0.226025,-0.4399999999999995,100.0,1.0,1.0,209.06666666666666,0.0,0.0,0.0,0.0,0.0,0.0,0.0,8861.5,0.0,55.0,5.0,243.95666666666665,0.0,0.0,0.0,0.0,0.0,0.0,1.0,0.0,0.8069999999999986,0.8069999999999986,0.0,0.0,0.0,55.0,616.79921,10000.0,85.000001,85.000001,85.000001,85.000001,395.0,0.0,0.0,0.0,1.0,333.33500000000004,52.628,52.628,47.958,47.958,34.0,-23.435,25.646,-26.04,29.9125,0.0,1782.685,-0.33500000000000085,100.0,27.344,27.897,42.67,43.125,0.0,0.0,100.0,0.0,0.0,0.0,0.0,3147.857142857143,3152.8,4028.875,4055.3,305.4825,304.68833333333333,315.067,314.70075,21.9449,20.6007,21.9239,21.4434,314.999998,314.999998,324.999988,324.999988,99.55982857142857,99.50753333333333,99.56697142857143,99.54697142857142,0.10975000000000001,-0.022333333333333316,-0.0725,0.1505,-0.04333333333332945,-0.03833333333332689,1.5265,1.5155000000000003,38.155,29.754333333333335,38.024,35.021,56.332,35.1855,59.5325,52.4155,54.230999999999995,34.2915,58.123,50.745,53.369,33.8155,58.0415,50.155,-0.10649999999999993,-0.050999999999999934,0.10483500000000001,0.11243500000000001,0.0,212.185,212.20499999999998,209.06666666666666,209.06666666666666,0.0,0.0
17,0.0,0.0,0.0,1.0,1.0,0.0,0.0,1.0,0.0,100.0,1.0,1.1856,26.0,0.0,0.0,0.0,59.999996,0.0,26.0,26.0,26.0,26.0,0.038000000000000034,0.2993000000000001,0.027225000000000003,292.389,-2.7304,-2.6012,-1.6084,-1.5096,-218.51999999999998,215.755,190.63775,0.0,0.0,0.0,0.0,0.03483333333333338,-5.498166666666667,-5.498166666666667,-0.5478000000000001,0.3325,0.008000000000000007,-0.813,67.92099999999999,0.0332,-0.2074,-0.26399999999999935,100.0,1.0,1.0,209.44,0.0,0.0,0.0,0.0,0.0,0.0,0.0,8877.4,0.0,55.0,5.0,244.48333333333335,1.0,0.0,0.0,0.0,0.0,0.0,1.0,0.0,0.8610000000000007,0.8610000000000007,0.0,0.0,1.0,55.0,616.79921,10000.0,85.000001,85.000001,85.000001,85.000001,395.0,0.0,0.0,0.0,1.0,166.665,52.399,52.399,47.531,47.531,34.0,-23.4125,24.904,-30.029999999999998,30.995,0.0,1782.632,-0.33500000000000085,100.0,27.8,28.062,42.575,43.1,0.0,0.0,100.0,0.0,0.0,0.0,0.0,3194.0,3070.1,4380.0,4275.1,305.289,304.9533333333333,314.3095,314.264,21.9551,20.6067,21.9348,21.453,314.999998,314.999998,324.999988,324.999988,99.55984285714285,99.50753333333333,99.56712857142857,99.54711428571429,0.11175000000000024,-0.018333333333333313,-0.08516666666666667,0.14416666666666667,-0.04999999999999716,-0.045000000000001705,1.5215,1.5,38.219,29.791666666666664,38.093,35.081,56.319,35.226,59.5715,52.481,54.219,34.329,58.159,50.808,53.355999999999995,33.8515,58.0745,50.21666666666667,-0.10699999999999998,-0.05049999999999999,0.11220000000000001,0.10610000000000001,0.0,212.695,212.7,209.44,209.44,0.0,0.0
18,0.0,0.0,0.0,1.0,1.0,0.0,0.0,1.0,0.0,100.0,1.0,1.1856,26.0,0.0,0.0,0.0,59.999996,0.0,26.0,26.0,26.0,26.0,0.02677777777777779,0.27990000000000004,0.00185,292.389,-2.7478,-2.5871,-1.6122,-1.4637,-215.45999999999998,215.735,190.618,0.0,0.0,0.0,0.0,0.036599999999999966,-5.498166666666667,-5.498166666666667,-0.5603,-0.4585,0.02388888888888885,0.972,68.043,0.0303,-0.22305,-0.3099999999999996,100.0,1.0,1.0,209.84333333333333,0.0,0.0,0.0,0.0,0.0,0.0,0.0,8894.5,0.0,55.0,5.0,244.92666666666668,0.0,0.0,0.0,0.0,0.0,0.0,1.0,0.0,0.9059999999999988,0.9059999999999988,0.0,0.0,0.0,55.0,616.79921,10000.0,85.000001,85.000001,85.000001,85.000001,395.0,0.0,0.0,0.0,1.0,166.665,52.231,52.231,47.638,47.638,34.0,-23.145,27.206,-27.39,30.555,0.0,1782.588,-0.3550000000000004,100.0,27.814,27.834,42.93,43.278999999999996,0.0,0.0,100.0,0.0,0.0,0.0,0.0,3126.857142857143,3329.0,4111.5,4238.1,305.3585,304.38166666666666,314.8365,314.4095,21.9635,20.6115,21.9441,21.461,314.999998,314.999998,324.999988,324.999988,99.55985714285714,99.50755,99.56725714285714,99.54724285714286,0.1120000000000001,-0.012333333333333307,-0.07383333333333333,0.1565,-0.02833333333332888,-0.04999999999999716,1.533,1.5085000000000002,38.272,29.822,38.150999999999996,35.1315,56.308,35.2585,59.6055,52.536,54.207,34.359,58.191,50.861000000000004,53.344,33.881,58.1035,50.26866666666667,-0.10350000000000004,-0.0515000000000001,0.10388000000000001,0.11397000000000002,0.0,213.01999999999998,213.03,209.84333333333333,209.84333333333333,0.0,0.0
19,0.0,0.0,0.0,1.0,1.0,0.0,0.0,1.0,0.0,100.0,1.0,1.1856,26.0,0.0,0.0,0.0,59.999996,0.0,26.0,26.0,26.0,26.0,0.03299999999999992,0.29400000000000004,0.07390000000000001,291.992,-2.6702,-2.6836,-1.5439,-1.4501,-211.98000000000002,215.7125,190.595375,0.0,0.0,0.0,0.0,0.0386333333333333,-5.498166666666667,-5.498166666666667,-0.55,0.751,0.026888888888888962,-0.808,68.181,0.029,-0.212975,-0.274,100.0,1.0,1.0,210.23333333333335,0.0,0.0,0.0,0.0,0.0,0.0,0.0,8911.1,0.0,55.0,5.0,245.42000000000002,1.0,0.0,0.0,0.0,0.0,0.0,1.0,0.0,0.9570000000000007,0.9570000000000007,0.0,0.0,1.0,55.0,616.79921,10000.0,85.000001,85.000001,85.000001,85.000001,395.0,0.0,0.0,0.0,1.0,333.33500000000004,51.865,51.865,47.485,47.485,34.0,-22.8525,25.778,-28.356666666666662,31.0325,0.0,1782.537,-0.3299999999999983,100.0,28.217,28.475,42.706,43.406,0.0,0.0,100.0,0.0,0.0,0.0,0.0,3164.714285714286,3119.7,4245.25,4419.2,305.2745,304.61833333333334,314.55525,313.943,21.9732,20.6173,21.9544,21.4701,314.999998,314.999998,324.999988,324.999988,99.55987142857143,99.50755,99.5674,99.5474,0.10875000000000012,-0.03200000000000003,-0.08766666666666667,0.1385,-0.04999999999999716,-0.03333333333333144,1.495,1.4995000000000003,38.332,29.858,38.215,35.1885,56.297,35.2985,59.6415,52.598,54.197,34.396,58.2245,50.920500000000004,53.332,33.916,58.134,50.327333333333335,-0.10350000000000004,-0.05699999999999994,0.11108000000000001,0.10583000000000001,0.0,213.495,213.505,210.23333333333335,210.23333333333335,0.0,0.0
20,0.0,0.0,0.0,1.0,1.0,0.0,0.0,1.0,0.0,100.0,1.0,1.1856,26.0,0.0,0.0,0.0,59.999996,0.0,26.0,26.0,26.0,26.0,0.04499999999999993,0.25849999999999995,0.013250000000000001,292.343,-2.7598,-2.6487,-1.5455,-1.5761,-208.5,215.6925,190.573,0.0,0.0,0.0,0.0,0.0406333333333333,-5.498166666666667,-5.498166666666667,-0.5554,-1.03,0.024777777777777787,0.486,68.319,0.026600000000000002,-0.224925,-0.274,100.0,1.0,1.0,210.62666666666667,0.0,0.0,0.0,0.0,0.0,0.0,0.0,8927.7,0.0,55.0,5.0,245.92000000000002,0.0,0.0,0.0,0.0,0.0,0.0,0.0,0.0,1.0079999999999991,1.0079999999999991,0.0,0.0,0.0,55.0,616.79921,10000.0,85.000001,85.000001,85.000001,85.000001,395.0,0.0,0.0,0.0,1.0,333.33500000000004,52.658,52.658,47.18,47.18,34.0,-21.96,25.817999999999998,-26.35,31.552500000000002,0.0,1782.485,-0.28999999999999915,100.0,27.872,27.955,43.437,43.708,0.0,0.0,100.0,0.0,0.0,0.0,0.0,2976.4285714285716,3157.7,4095.75,4195.1,305.831,304.86966666666666,314.7925,314.381,21.982599999999998,20.6228,21.965,21.4794,314.999998,314.999998,324.999988,324.999988,99.55987142857143,99.50756666666666,99.56755714285714,99.54754285714286,0.11149999999999993,-0.021333333333333204,-0.06883333333333333,0.14533333333333334,-0.02499999999999858,-0.05333333333332746,1.4965000000000002,1.471,38.391,29.892333333333333,38.281,35.246,56.281,35.335499999999996,59.6815,52.661500000000004,54.182,34.43,58.2615,50.982,53.317,33.949,58.1685,50.38733333333333,-0.10199999999999998,-0.052000000000000046,0.09786,0.10819000000000001,0.0,213.865,213.9,210.62666666666667,210.62666666666667,0.0,0.0
21,0.0,0.0,0.0,1.0,1.0,0.0,0.0,1.0,0.0,100.0,1.0,1.1856,26.0,0.0,0.0,0.0,59.999996,0.0,26.0,26.0,26.0,26.0,0.012111111111111184,0.28,-0.07162500000000001,292.633,-2.7268,-2.653,-1.61505,-1.5347,-205.22,215.6725,190.551375,0.0,0.0,0.0,0.0,0.04256666666666653,-5.498166666666667,-5.498166666666667,-0.5746,0.2915,0.010444444444444256,0.43500000000000005,68.444,0.0218,-0.22237500000000002,-0.2599999999999998,100.0,1.0,1.0,211.18666666666667,0.0,0.0,0.0,0.0,0.0,0.0,0.0,8951.5,0.0,55.0,5.0,246.37333333333333,1.0,0.0,0.0,0.0,0.0,0.0,0.0,0.0,1.056000000000001,1.056000000000001,0.0,0.0,1.0,55.0,616.79921,10000.0,85.000001,85.000001,85.000001,85.000001,395.0,0.0,0.0,0.0,1.0,333.33500000000004,52.399,52.399,48.096000000000004,48.096000000000004,34.0,-22.75,25.902,-26.839999999999996,28.927500000000002,0.0,1782.436,-0.35999999999999943,100.0,28.042,27.979,42.883,43.268,0.0,0.0,100.0,0.0,0.0,0.0,0.0,3080.285714285714,3172.5,4032.375,4046.8,305.456,304.83033333333333,315.10025,314.887,21.9916,20.6281,21.9746,21.4878,314.999998,314.999998,324.999988,324.999988,99.55988571428571,99.50756666666666,99.56768571428572,99.54767142857143,0.10875000000000012,-0.023666666666666725,-0.0805,0.14416666666666667,-0.030000000000001137,-0.061666666666667425,1.5855000000000001,1.58,38.447,29.925666666666665,38.341,35.299,56.269999999999996,35.3715,59.713499999999996,52.716499999999996,54.171,34.463499999999996,58.2915,51.035,53.305,33.981,58.195,50.43933333333334,-0.10150000000000003,-0.052000000000000046,0.10347500000000001,0.10813500000000001,0.0,214.29500000000002,214.305,211.18666666666667,211.18666666666667,0.0,0.0
22,0.0,0.0,0.0,1.0,1.0,0.0,0.0,1.0,0.0,100.0,1.0,1.1856,26.0,0.0,0.0,0.0,59.999996,0.0,26.0,26.0,26.0,26.0,0.016555555555555657,0.2783,-0.0056500000000000005,292.221,-2.7838,-2.6175,-1.6109499999999999,-1.5186000000000002,-201.51999999999998,215.65,190.52625,0.0,0.0,0.0,0.0,0.04469999999999996,-5.498166666666667,-5.498166666666667,-0.5572,-0.0855,0.02022222222222214,1.0510000000000002,68.59100000000001,0.019100000000000002,-0.202525,-0.27200000000000024,100.0,1.0,1.0,211.44,0.0,0.0,0.0,0.0,0.0,0.0,0.0,8962.2,0.0,55.0,5.0,246.9,0.0,0.0,0.0,0.0,0.0,0.0,0.0,0.0,1.1099999999999994,1.1099999999999994,0.0,0.0,0.0,55.0,616.79921,10000.0,85.000001,85.000001,85.000001,85.000001,395.0,0.0,0.0,0.0,1.0,166.665,52.612,52.612,47.165,47.165,34.0,-22.315,25.415999999999997,-29.009999999999998,32.25,0.0,1782.384,-0.4499999999999993,100.0,28.048000000000002,27.997,43.184,43.434,0.0,0.0,100.0,0.0,0.0,0.0,0.0,2985.0,3162.4,4227.0,4431.2,305.8285,304.928,314.56125,313.96575,22.0016,20.634,21.9857,21.4976,314.999998,314.999998,324.999988,324.999988,99.5599,99.50756666666666,99.56784285714286,99.54784285714285,0.10950000000000015,-0.023333333333333206,-0.08366666666666667,0.13933333333333334,-0.02833333333332888,-0.06333333333333258,1.5,1.4805000000000001,38.51,29.962666666666664,38.411,35.36,56.256,35.411500000000004,59.7545,52.783,54.158,34.5005,58.329499999999996,51.0985,53.291,34.0165,58.2305,50.501666666666665,-0.10999999999999999,-0.046499999999999986,0.10250500000000001,0.11123500000000001,0.0,214.72500000000002,214.78,211.44,211.44,0.0,0.0
23,0.0,0.0,0.0,1.0,1.0,0.0,0.0,1.0,0.0,100.0,1.0,1.1856,26.0,0.0,0.0,0.0,59.999996,0.0,26.0,26.0,26.0,26.0,0.02155555555555555,0.2563,-0.02065,292.145,-2.6906,-2.656,-1.66175,-1.4959,-198.22,215.6325,190.504125,0.0,0.0,0.0,0.0,0.046633333333333304,-5.498166666666667,-5.498166666666667,-0.5745,-0.176,0.017444444444444374,0.653,68.717,0.0206,-0.22640000000000002,-0.3420000000000005,100.0,1.0,1.0,211.95666666666668,0.0,0.0,0.0,0.0,0.0,0.0,0.0,8984.0,0.0,55.0,5.0,247.35333333333335,1.0,0.0,0.0,0.0,0.0,0.0,0.0,0.0,1.1580000000000013,1.1580000000000013,0.0,0.0,1.0,55.0,616.79921,10000.0,85.000001,85.000001,85.000001,85.000001,395.0,0.0,0.0,0.0,1.0,166.665,51.834,51.834,47.867,47.867,34.0,-23.06,26.45,-28.14333333333333,29.2075,0.0,1782.336,-0.4250000000000007,100.0,28.325,28.155,43.239000000000004,43.617000000000004,0.0,0.0,100.0,0.0,0.0,0.0,0.0,3194.857142857143,3211.5,4060.25,4128.7,305.0595,304.67766666666665,315.03925,314.719,22.0106,20.6394,21.9956,21.5063,314.999998,314.999998,324.999988,324.999988,99.55991428571429,99.50756666666666,99.56797142857143,99.54797142857143,0.11775000000000002,-0.021333333333333204,-0.08633333333333333,0.14200000000000002,-0.03999999999999915,-0.060000000000002274,1.5505,1.532,38.566,29.996000000000002,38.472,35.414,56.245000000000005,35.448,59.789500000000004,52.841,54.147,34.534,58.362,51.1545,53.278999999999996,34.049,58.2595,50.556666666666665,-0.11599999999999999,-0.04249999999999998,0.10554500000000001,0.1038,0.0,215.12,215.13,211.95666666666668,211.95666666666668,0.0,0.0
24,0.0,0.0,0.0,1.0,1.0,0.0,0.0,1.0,0.0,100.0,1.0,1.1856,26.0,0.0,0.0,0.0,59.999996,0.0,26.0,26.0,26.0,26.0,0.025333333333333208,0.27449999999999997,-0.0451,292.45,-2.7191,-2.6612,-1.54995,-1.5237,-194.92000000000002,215.615,190.481625,0.0,0.0,0.0,0.0,0.04853333333333332,-5.498166666666667,-5.498166666666667,-0.5826,-0.47200000000000003,0.030111111111110977,1.258,68.845,0.0262,-0.22062500000000002,-0.41000000000000014,100.0,1.0,1.0,212.26666666666665,0.0,0.0,0.0,0.0,0.0,0.0,0.0,8997.2,0.0,55.0,5.0,247.81333333333333,0.0,0.0,0.0,0.0,0.0,0.0,0.0,0.0,1.2059999999999995,1.2059999999999995,0.0,0.0,0.0,55.0,616.79921,10000.0,85.000001,85.000001,85.000001,85.000001,395.0,0.0,0.0,0.0,1.0,333.33500000000004,52.826,52.826,47.318,47.318,34.0,-20.9725,25.189999999999998,-26.96666666666666,30.775000000000002,0.0,1782.288,-0.3500000000000014,100.0,28.046,27.889,43.252,43.555,0.0,0.0,100.0,0.0,0.0,0.0,0.0,2896.142857142857,3101.7,4162.625,4225.1,305.9835,305.0516666666667,314.6385,314.454,22.0194,20.6446,22.0053,21.5149,314.999998,314.999998,324.999988,324.999988,99.55994285714286,99.50758333333333,99.56811428571429,99.54811428571429,0.11324999999999985,-0.02633333333333332,-0.07116666666666667,0.1445,-0.036666666666668846,-0.05833333333333002,1.5255,1.4905,38.620999999999995,30.028666666666666,38.533,35.468,56.232,35.482,59.8245,52.8985,54.135,34.566,58.3945,51.21,53.266,34.079499999999996,58.289500000000004,50.611000000000004,-0.10799999999999998,-0.05049999999999999,0.09855000000000001,0.10906500000000001,0.0,215.505,215.54500000000002,212.26666666666665,212.26666666666665,0.0,0.0
25,0.0,0.0,0.0,1.0,1.0,0.0,0.0,1.0,0.0,100.0,1.0,1.1856,26.0,0.0,0.0,0.0,59.999996,0.0,26.0,26.0,26.0,26.0,0.036222222222222156,0.2679,-0.013275,292.16,-2.7793,-2.6228,-1.6332499999999999,-1.529,-191.2,215.5975,190.45475,0.0,0.0,0.0,0.0,0.05069999999999997,-5.498166666666667,-5.498166666666667,-0.6049,0.186,0.030777777777777793,0.07600000000000007,68.985,0.029300000000000003,-0.21987500000000001,-0.4039999999999999,100.0,1.0,1.0,212.79333333333335,0.0,0.0,0.0,0.0,0.0,0.0,0.0,9019.6,0.0,55.0,5.0,248.32,1.0,0.0,0.0,0.0,0.0,0.0,0.0,0.0,1.259999999999998,1.259999999999998,0.0,0.0,1.0,55.0,616.79921,10000.0,85.000001,85.000001,85.000001,85.000001,395.0,0.0,0.0,0.0,1.0,166.665,51.650999999999996,51.650999999999996,47.836,47.836,34.0,-24.335,28.234,-26.386666666666663,30.1175,0.0,1782.234,-0.375,100.0,28.084,28.221,42.955,43.396,0.0,0.0,100.0,0.0,0.0,0.0,0.0,3250.0,3373.5,4012.5,4126.0,305.0275,304.17266666666666,315.162,314.674,22.0293,20.6506,22.0163,21.5245,314.999998,314.999998,324.999988,324.999988,99.55995714285714,99.50758333333333,99.56827142857144,99.54827142857143,0.1160000000000001,-0.009333333333333194,-0.068,0.1495,-0.046666666666666856,-0.046666666666666856,1.5659999999999998,1.5260000000000002,38.683,30.066333333333333,38.602000000000004,35.528,56.218,35.522999999999996,59.861,52.9615,54.120999999999995,34.604,58.429,51.271,53.251000000000005,34.116,58.32,50.67033333333333,-0.10549999999999993,-0.04849999999999999,0.09816000000000001,0.10720500000000001,0.0,215.95,215.95499999999998,212.79333333333335,212.79333333333335,0.0,0.0
26,0.0,0.0,0.0,1.0,1.0,0.0,0.0,1.0,0.0,100.0,1.0,1.1856,26.0,0.0,0.0,0.0,59.999996,0.0,26.0,26.0,26.0,26.0,0.042444444444444285,0.278,0.0859,291.275,-2.6923,-2.7132,-1.56405,-1.5141,-187.89,215.58249999999998,190.430625,0.0,0.0,0.0,0.0,0.05263333333333331,-5.498166666666667,-5.498166666666667,-0.5724,0.482,0.024222222222222145,0.8920000000000001,69.114,0.0286,-0.20025,-0.39200000000000035,100.0,1.0,1.0,212.94666666666666,0.0,0.0,0.0,0.0,0.0,0.0,0.0,9026.0,0.0,55.0,5.0,248.78,0.0,0.0,0.0,0.0,0.0,0.0,0.0,0.0,1.3079999999999998,1.3079999999999998,0.0,0.0,0.0,55.0,616.79921,10000.0,85.000001,85.000001,85.000001,85.000001,395.0,0.0,0.0,0.0,1.0,333.33500000000004,51.62,51.62,46.341,46.341,34.0,-22.255,26.622,-29.453333333333333,34.485,0.0,1782.185,-0.41499999999999915,100.0,28.791,28.704,43.485,43.864000000000004,0.0,0.0,100.0,0.0,0.0,0.0,0.0,3091.4285714285716,3161.3,4476.25,4575.3,305.3855,304.761,313.9375,313.60125,22.0383,20.6561,22.0262,21.5333,314.999998,314.999998,324.999988,324.999988,99.55995714285714,99.50758333333333,99.5684,99.54841428571429,0.11675000000000013,-0.020333333333333314,-0.06366666666666666,0.15133333333333335,-0.02833333333332888,-0.051666666666669414,1.456,1.4224999999999999,38.739000000000004,30.100666666666665,38.664,35.583,56.208,35.5605,59.8985,53.0215,54.111999999999995,34.6385,58.463499999999996,51.3285,53.241,34.149,58.352000000000004,50.72666666666667,-0.11199999999999999,-0.0495000000000001,0.098165,0.109325,0.0,216.375,216.39499999999998,212.94666666666666,212.94666666666666,0.0,0.0
27,0.0,0.0,0.0,1.0,1.0,0.0,0.0,1.0,0.0,100.0,1.0,1.1856,26.0,0.0,0.0,0.0,59.999996,0.0,26.0,26.0,26.0,26.0,0.039111111111111097,0.2571000000000001,-0.049100000000000005,291.824,-2.7093,-2.652,-1.6205,-1.6073,-184.57,215.5675,190.4075,0.0,0.0,0.0,0.0,0.05456666666666654,-5.498166666666667,-5.498166666666667,-0.5967,-0.971,0.024666666666666615,0.552,69.238,0.0273,-0.24005,-0.40200000000000014,100.0,1.0,1.0,213.46333333333334,0.0,0.0,0.0,0.0,0.0,0.0,0.0,9047.9,0.0,55.0,5.0,249.23000000000002,1.0,0.0,0.0,0.0,0.0,0.0,0.0,0.0,1.355999999999998,1.355999999999998,0.0,0.0,1.0,55.0,616.79921,10000.0,85.000001,85.000001,85.000001,85.000001,395.0,0.0,0.0,0.0,1.0,333.33500000000004,52.002,52.002,46.707,46.707,34.0,-21.0625,26.902,-27.693333333333335,30.8125,0.0,1782.136,-0.4349999999999987,100.0,28.426000000000002,28.576,43.947,44.317,0.0,0.0,100.0,0.0,0.0,0.0,0.0,2961.4285714285716,3235.4,4096.5,4071.2,305.793,304.61633333333333,314.88875,314.738,22.0471,20.6615,22.0362,21.5421,314.999998,314.999998,324.999988,324.999988,99.55997142857143,99.50758333333333,99.56854285714286,99.54854285714286,0.12274999999999991,-0.015333333333333199,-0.07783333333333332,0.148,-0.04999999999999716,-0.04833333333333201,1.5175,1.5030000000000001,38.794,30.134333333333334,38.726,35.638,56.196,35.5965,59.935,53.0805,54.099999999999994,34.6715,58.4975,51.3855,53.227999999999994,34.181,58.382999999999996,50.782333333333334,-0.11499999999999999,-0.045500000000000096,0.100735,0.105465,0.0,216.71,216.73000000000002,213.46333333333334,213.46333333333334,0.0,0.0
28,0.0,0.0,0.0,1.0,1.0,0.0,0.0,1.0,0.0,100.0,1.0,1.1856,26.0,0.0,0.0,0.0,59.999996,0.0,26.0,26.0,26.0,26.0,0.05711111111111111,0.27570000000000006,-0.0654,291.977,-2.6923,-2.6471999999999998,-1.6323500000000002,-1.5609000000000002,-181.03,215.5525,190.382125,0.0,0.0,0.0,0.0,0.05663333333333331,-5.498166666666667,-5.498166666666667,-0.6023000000000001,0.6215,0.010777777777777775,-0.744,69.367,0.029500000000000002,-0.21707500000000002,-0.3779999999999992,100.0,1.0,1.0,213.97,0.0,0.0,0.0,0.0,0.0,0.0,0.0,9069.3,0.0,55.0,5.0,249.69666666666666,0.0,0.0,0.0,0.0,0.0,0.0,0.0,0.0,1.407,1.407,0.0,0.0,0.0,55.0,616.79921,10000.0,85.000001,85.000001,85.000001,85.000001,395.0,0.0,0.0,0.0,1.0,333.33500000000004,51.865,51.865,47.501,47.501,34.0,-22.75,25.422,-28.116666666666667,29.815,0.0,1782.087,-0.46999999999999886,100.0,28.412,28.665,43.274,43.879,0.0,0.0,100.0,0.0,0.0,0.0,0.0,3164.0,3109.0,4123.25,4112.7,305.341,304.80566666666664,315.00025,314.69625,22.0565,20.6673,22.0464,21.551099999999998,314.999998,314.999998,324.999988,324.999988,99.55998571428572,99.50758333333333,99.5687,99.5487,0.11525000000000007,-0.026666666666666616,-0.08650000000000001,0.13833333333333334,-0.060000000000002274,-0.03833333333332689,1.5590000000000002,1.5470000000000002,38.852999999999994,30.170333333333332,38.79,35.6945,56.185,35.635,59.9685,53.138999999999996,54.09,34.707499999999996,58.5285,51.4415,53.216,34.2155,58.4105,50.83733333333333,-0.11699999999999999,-0.045500000000000096,0.11138500000000001,0.11028,0.0,217.175,217.175,213.97,213.97,0.0,0.0
29,0.0,0.0,0.0,1.0,1.0,0.0,0.0,1.0,0.0,100.0,1.0,1.1856,26.0,0.0,0.0,0.0,59.999996,0.0,26.0,26.0,26.0,26.0,0.055333333333333234,0.24960000000000004,-0.00445,291.794,-2.6741,-2.7036,-1.5825,-1.5379,-177.49,215.54000000000002,190.35575,0.0,0.0,0.0,0.0,0.058666666666666534,-5.498166666666667,-5.498166666666667,-0.6043000000000001,-0.6745,0.014555555555555655,0.855,69.502,0.0328,-0.21477500000000002,-0.5199999999999996,100.0,1.0,1.0,214.21,0.0,0.0,0.0,0.0,0.0,0.0,0.0,9079.6,0.0,55.0,5.0,250.18,1.0,0.0,0.0,0.0,0.0,0.0,0.0,0.0,1.4579999999999984,1.4579999999999984,0.0,0.0,1.0,55.0,616.79921,10000.0,85.000001,85.000001,85.000001,85.000001,395.0,0.0,0.0,0.0,1.0,166.665,52.231,52.231,46.753,46.753,34.0,-20.7625,26.742,-27.273333333333333,32.945,0.0,1782.036,-0.5,100.0,28.201,28.337,43.775999999999996,44.097,0.0,0.0,100.0,0.0,0.0,0.0,0.0,3004.857142857143,3161.8,4136.5,4343.1,305.7,304.7853333333333,314.724,314.143,22.0658,20.6729,22.057,21.5605,314.999998,314.999998,324.999988,324.999988,99.56001428571429,99.5076,99.56884285714285,99.54884285714286,0.12975000000000003,-0.015333333333333199,-0.068,0.15733333333333335,-0.051666666666669414,-0.03499999999999659,1.4705,1.4569999999999999,38.911,30.205666666666666,38.855999999999995,35.753,56.171,35.672,60.0075,53.202,54.077,34.742,58.565,51.502,53.202,34.2485,58.444,50.89633333333333,-0.12,-0.04150000000000009,0.10356000000000001,0.10622000000000001,0.0,217.54000000000002,217.55,214.21,214.21,0.0,0.0
30,0.0,0.0,0.0,1.0,1.0,0.0,0.0,1.0,0.0,100.0,1.0,1.1856,26.0,0.0,0.0,0.0,59.999996,0.0,26.0,26.0,26.0,26.0,0.053444444444444406,0.2538,0.001325,291.245,-2.6929,-2.5846999999999998,-1.6508,-1.4574,-173.94,215.53,190.32925,0.0,0.0,0.0,0.0,0.060733333333333306,-5.498166666666667,-5.498166666666667,-0.6027,0.9075,0.010888888888888948,-0.605,69.63,0.0363,-0.214975,-0.5139999999999993,100.0,1.0,1.0,214.70666666666668,0.0,0.0,0.0,0.0,0.0,0.0,0.0,9100.6,0.0,55.0,5.0,250.64333333333335,0.0,0.0,0.0,0.0,0.0,0.0,1.0,0.0,1.5090000000000003,1.5090000000000003,0.0,0.0,0.0,55.0,616.79921,10000.0,85.000001,85.000001,85.000001,85.000001,395.0,0.0,0.0,0.0,1.0,166.665,50.766,50.766,46.951,46.951,34.0,-23.68,26.268,-29.64333333333333,29.765,0.0,1781.985,-0.48999999999999844,100.0,29.004,29.264,43.474000000000004,44.132000000000005,0.0,0.0,100.0,0.0,0.0,0.0,0.0,3305.0,3226.1,4269.0,4185.7,304.8525,304.348,314.695,314.66475,22.0754,20.6789,22.0674,21.5697,314.999998,314.999998,324.999988,324.999988,99.56002857142857,99.5076,99.56898571428572,99.549,0.12250000000000005,-0.02200000000000002,-0.08600000000000001,0.153,-0.05666666666667197,-0.051666666666669414,1.5335,1.5025,38.971000000000004,30.243000000000002,38.921,35.8105,56.162,35.713,60.042500000000004,53.2625,54.068,34.7795,58.5975,51.56,53.193,34.2845,58.473,50.95333333333333,-0.12249999999999994,-0.046499999999999986,0.113985,0.10842500000000001,0.0,217.97,218.01,214.70666666666668,214.70666666666668,0.0,0.0
31,0.0,0.0,0.0,1.0,1.0,0.0,0.0,1.0,0.0,100.0,1.0,1.1856,26.0,0.0,0.0,0.0,59.999996,0.0,26.0,26.0,26.0,26.0,0.052888888888888985,0.2570000000000001,0.044825000000000004,290.817,-2.7825,-2.6136,-1.6067,-1.4883,-170.6,215.51999999999998,190.305,0.0,0.0,0.0,0.0,0.06269999999999998,-5.498166666666667,-5.498166666666667,-0.5888,-0.442,0.01922222222222203,-0.725,69.756,0.0398,-0.22130000000000002,-0.4579999999999993,100.0,1.0,1.0,214.91666666666669,0.0,0.0,0.0,0.0,0.0,0.0,0.0,9109.5,0.0,55.0,5.0,251.09666666666666,1.0,0.0,0.0,0.0,0.0,0.0,1.0,0.0,1.5569999999999986,1.5569999999999986,0.0,0.0,1.0,55.0,616.79921,10000.0,85.000001,85.000001,85.000001,85.000001,395.0,0.0,0.0,0.0,1.0,333.33500000000004,51.117,51.117,45.685,45.685,34.0,-23.5475,27.189999999999998,-29.873333333333335,31.6575,0.0,1781.935,-0.495000000000001,100.0,28.761,29.298000000000002,44.204,44.900999999999996,0.0,0.0,100.0,0.0,0.0,0.0,0.0,3225.0,3295.3,4343.875,4315.9,305.301,304.3226666666667,314.29725,314.06875,22.0842,20.6844,22.0774,21.5786,314.999998,314.999998,324.999988,324.999988,99.56004285714286,99.5076,99.56912857142858,99.54914285714285,0.125,-0.01766666666666672,-0.0775,0.14533333333333334,-0.05833333333333002,-0.02833333333332888,1.4415,1.4330000000000003,39.025999999999996,30.27766666666667,38.983999999999995,35.866,56.152,35.7495,60.0805,53.323499999999996,54.058,34.814,58.632999999999996,51.619,53.182,34.317499999999995,58.5055,51.010666666666665,-0.122,-0.044499999999999984,0.109685,0.10188000000000001,0.0,218.345,218.35000000000002,214.91666666666669,214.91666666666669,0.0,0.0
32,0.0,0.0,0.0,1.0,1.0,0.0,0.0,1.0,0.0,100.0,1.0,1.1856,26.0,0.0,0.0,0.0,59.999996,0.0,26.0,26.0,26.0,26.0,0.06466666666666687,0.26890000000000014,-0.028300000000000002,291.275,-2.7023,-2.6777,-1.59115,-1.5437,-167.04,215.51,190.2795,0.0,0.0,0.0,0.0,0.06476666666666653,-5.498166666666667,-5.498166666666667,-0.6063000000000001,-0.2095,0.0016666666666667052,0.27500000000000013,69.884,0.0407,-0.23192500000000002,-0.5620000000000003,100.0,1.0,1.0,215.42333333333335,0.0,0.0,0.0,0.0,0.0,0.0,0.0,9131.0,0.0,55.0,5.0,251.55666666666667,0.0,0.0,0.0,0.0,0.0,0.0,1.0,0.0,1.6080000000000005,1.6080000000000005,0.0,0.0,0.0,55.0,616.79921,10000.0,85.000001,85.000001,85.000001,85.000001,395.0,0.0,0.0,0.0,1.0,333.33500000000004,51.528999999999996,51.528999999999996,46.539,46.539,34.0,-21.235,27.352,-25.89333333333333,33.370000000000005,0.0,1781.885,-0.5,100.0,28.832,29.023,44.136,44.632000000000005,0.0,0.0,100.0,0.0,0.0,0.0,0.0,3055.285714285714,3208.0,4100.625,4360.0,305.524,304.66866666666664,314.85175,314.19275,22.0935,20.6903,22.0878,21.5879,314.999998,314.999998,324.999988,324.999988,99.56005714285715,99.50761666666666,99.56928571428571,99.5493,0.1352500000000001,-0.00533333333333319,-0.049,0.166,-0.01833333333333087,-0.05833333333333002,1.5175,1.4955000000000003,39.085,30.314333333333334,39.049,35.924,56.14,35.7885,60.116,53.384,54.047,34.85,58.666,51.6775,53.169,34.352000000000004,58.535,51.068,-0.12,-0.045500000000000096,0.10194500000000001,0.109075,0.0,218.695,218.75,215.42333333333335,215.42333333333335,0.0,0.0
33,0.0,0.0,0.0,1.0,1.0,0.0,0.0,1.0,0.0,100.0,1.0,1.1856,26.0,0.0,0.0,0.0,59.999996,0.0,26.0,26.0,26.0,26.0,0.064888888888889,0.2572000000000001,-0.045225,291.611,-2.7209,-2.6841,-1.5994000000000002,-1.5796999999999999,-163.47,215.5025,190.252875,0.0,0.0,0.0,0.0,0.0668333333333333,-5.498166666666667,-5.498166666666667,-0.6153000000000001,-0.257,-0.0009999999999998899,-0.09799999999999998,70.012,0.0374,-0.21630000000000002,-0.38200000000000056,100.0,1.0,1.0,215.84333333333333,0.0,0.0,0.0,0.0,0.0,0.0,0.0,9148.8,0.0,55.0,5.0,252.01666666666665,1.0,0.0,0.0,0.0,0.0,0.0,1.0,0.0,1.658999999999999,1.658999999999999,0.0,0.0,1.0,55.0,616.79921,10000.0,85.000001,85.000001,85.000001,85.000001,395.0,0.0,0.0,0.0,1.0,166.665,51.88,51.88,46.967,46.967,34.0,-22.45,25.398,-27.240000000000002,32.065,0.0,1781.835,-0.5549999999999997,100.0,28.495,28.828,43.837,44.507000000000005,0.0,0.0,100.0,0.0,0.0,0.0,0.0,3153.142857142857,3044.0,4123.25,4202.9,305.44,305.028,314.87475,314.47675,22.1028,20.696,22.0982,21.5971,314.999998,314.999998,324.999988,324.999988,99.56007142857143,99.50761666666666,99.56942857142857,99.54944285714285,0.12475000000000014,-0.020000000000000018,-0.07016666666666667,0.156,-0.046666666666666856,-0.045000000000001705,1.5095,1.4935,39.143,30.35,39.114,35.9815,56.129000000000005,35.8255,60.1515,53.4435,54.036,34.884,58.699,51.7345,53.157,34.3845,58.564499999999995,51.124,-0.127,-0.043500000000000094,0.10585000000000001,0.11363000000000001,0.0,219.115,219.14,215.84333333333333,215.84333333333333,0.0,0.0
34,0.0,0.0,0.0,1.0,1.0,0.0,0.0,1.0,0.0,100.0,1.0,1.1856,26.0,0.0,0.0,0.0,59.999996,0.0,26.0,26.0,26.0,26.0,0.06033333333333335,0.27180000000000004,-0.07295,291.855,-2.679,-2.6671,-1.63625,-1.5162,-160.11,215.4975,190.2265,0.0,0.0,0.0,0.0,0.06876666666666653,-5.498166666666667,-5.498166666666667,-0.6415000000000001,-0.896,0.02288888888888896,-0.281,70.134,0.0392,-0.221725,-0.516,100.0,1.0,1.0,216.18333333333334,0.0,0.0,0.0,0.0,0.0,0.0,0.0,9163.3,0.0,55.0,5.0,252.45666666666665,0.0,0.0,0.0,0.0,0.0,0.0,1.0,0.0,1.7070000000000007,1.7070000000000007,0.0,0.0,0.0,55.0,616.79921,10000.0,85.000001,85.000001,85.000001,85.000001,395.0,0.0,0.0,0.0,1.0,333.33500000000004,52.338,52.338,47.165,47.165,34.0,-21.455,25.332,-28.046666666666667,30.7725,0.0,1781.786,-0.5549999999999997,100.0,28.187,28.509,43.683,44.544,0.0,0.0,100.0,0.0,0.0,0.0,0.0,3081.142857142857,3040.8,4131.0,4202.0,305.6785,305.15833333333336,314.89775,314.4705,22.1115,20.7013,22.108,21.6058,314.999998,314.999998,324.999988,324.999988,99.5601,99.50761666666666,99.56957142857142,99.54958571428571,0.12449999999999983,-0.013666666666666716,-0.07683333333333334,0.1495,-0.03833333333332689,-0.045000000000001705,1.5245000000000002,1.5125000000000002,39.197,30.383,39.175,36.036500000000004,56.116,35.859,60.184,53.5015,54.024,34.915,58.729,51.7905,53.144999999999996,34.414500000000004,58.592,51.178333333333335,-0.12549999999999994,-0.038000000000000034,0.10974,0.10533000000000001,0.0,219.47500000000002,219.495,216.18333333333334,216.18333333333334,0.0,0.0
35,0.0,0.0,0.0,1.0,1.0,0.0,0.0,1.0,0.0,100.0,1.0,1.1856,26.0,0.0,0.0,0.0,59.999996,0.0,26.0,26.0,26.0,26.0,0.07899999999999996,0.25340000000000007,-0.02715,291.779,-2.7337,-2.6099,-1.6290499999999999,-1.5072,-156.31,215.4925,190.19475,0.0,0.0,0.0,0.0,0.07099999999999995,-5.498166666666667,-5.498166666666667,-0.6803,-0.117,0.0013333333333331865,-1.3519999999999999,70.268,0.045700000000000005,-0.226025,-0.5579999999999998,100.0,1.0,1.0,216.69,0.0,0.0,0.0,0.0,0.0,0.0,0.0,9184.8,0.0,55.0,5.0,252.94,1.0,0.0,0.0,0.0,0.0,0.0,1.0,0.0,1.7609999999999992,1.7609999999999992,0.0,0.0,1.0,55.0,616.79921,10000.0,85.000001,85.000001,85.000001,85.000001,395.0,0.0,0.0,0.0,1.0,166.665,51.666,51.666,46.844,46.844,34.0,-22.7225,27.588,-27.153333333333336,30.3225,0.0,1781.733,-0.3200000000000003,100.0,28.054000000000002,28.914,43.452,44.001000000000005,0.0,0.0,100.0,0.0,0.0,0.0,0.0,3145.857142857143,3332.8,4059.0,4045.3,305.473,304.1433333333333,315.02925,314.85975,22.1211,20.7075,22.1189,21.6155,314.999998,314.999998,324.999988,324.999988,99.56011428571429,99.50761666666666,99.56972857142857,99.54974285714286,0.1200000000000001,-0.01766666666666672,-0.0735,0.17266666666666666,-0.04999999999999716,-0.04999999999999716,1.548,1.532,39.257,30.422333333333334,39.243,36.0965,56.102000000000004,35.9005,60.22,53.562,54.01,34.9535,58.763,51.8485,53.129000000000005,34.451499999999996,58.622,51.23533333333333,-0.10799999999999998,-0.056499999999999995,0.11485000000000001,0.11797500000000001,0.0,219.905,219.935,216.69,216.69,0.0,0.0
36,0.0,0.0,0.0,1.0,1.0,0.0,0.0,1.0,0.0,100.0,1.0,1.1856,26.0,0.0,0.0,0.0,59.999996,0.0,26.0,26.0,26.0,26.0,0.06188888888888888,0.25849999999999995,0.026875,291.153,-2.6626,-2.7015000000000002,-1.6561,-1.5503,-152.94,215.49,190.16525,0.0,0.0,0.0,0.0,0.07296666666666651,-5.498166666666667,-5.498166666666667,-0.663,0.033,-0.03733333333333322,-1.3519999999999999,70.39,0.040600000000000004,-0.20322500000000002,-0.25,100.0,1.0,1.0,216.85000000000002,0.0,0.0,0.0,0.0,0.0,0.0,0.0,9191.5,0.0,55.0,5.0,253.38,0.0,0.0,0.0,0.0,0.0,0.0,1.0,0.0,1.809000000000001,1.809000000000001,0.0,0.0,0.0,55.0,616.79921,10000.0,85.000001,85.000001,85.000001,85.000001,395.0,0.0,0.0,0.0,1.0,166.665,51.772999999999996,51.772999999999996,46.356,46.356,34.0,-21.265,25.195999999999998,-30.919999999999998,34.519999999999996,0.0,1781.685,-0.26500000000000057,100.0,28.684,29.022,43.706,44.446,0.0,0.0,100.0,0.0,0.0,0.0,0.0,3037.857142857143,3038.0,4405.125,4478.8,305.5915,304.96233333333333,314.262,313.787,22.1299,20.7131,22.1287,21.624299999999998,314.999998,314.999998,324.999988,324.999988,99.56012857142858,99.50761666666666,99.56985714285715,99.54988571428571,0.12300000000000022,-0.030333333333333323,-0.07633333333333334,0.15666666666666665,-0.036666666666668846,-0.04833333333333201,1.4485000000000001,1.4410000000000003,39.312,30.456666666666663,39.305,36.152,56.091,35.937,60.254999999999995,53.6205,54.0,34.9875,58.795,51.9055,53.117999999999995,34.484,58.6515,51.291,-0.10649999999999993,-0.062000000000000055,0.10361500000000001,0.11850000000000001,0.0,220.31,220.325,216.85000000000002,216.85000000000002,0.0,0.0
