,ABS Active,ABS Enabled,AID Allow Tire Blankets,AID Auto Blip,AID Auto Clutch,AID Auto Shift,AID Fuel Rate,AID Ideal Line,AID Mech Damage,AID Stability,AID Tire Wear Rate,Air Density,Air Temp,Ballast,Best Lap Delta,Best Lap Time,Brake Bias,Brake Pos,Brake Temp FL,Brake Temp FR,Brake Temp RL,Brake Temp RR,CG Accel Lateral,CG Accel Longitudinal,CG Accel Vertical,CG Height,Camber FL,Camber FR,Camber RL,Camber RR,Car Coord X,Car Coord Y,Car Coord Z,Car Damage Front,Car Damage Left,Car Damage Rear,Car Damage Right,Car Pos Norm,Caster FL,Caster FR,Chassis Pitch Angle,Chassis Pitch Rate,Chassis Roll Angle,Chassis Roll Rate,Chassis Velocity X,Chassis Velocity Y,Chassis Velocity Z,Chassis Yaw Rate,Clutch Pos,DRS Active,DRS Available,Drive Train Speed,ERS Heat Charging,ERS Is Charging,ERS Max Energy,ERS Power Level,ERS Recovery Level,Engine Brake Setting,Engine Limiter,Engine RPM,Flags,Fuel Level,Gear,Ground Speed,HR Sample Clock,In Pit,KERS Charge,KERS Deployed Energy,KERS Input,KERS Max Energy,LR Sample Clock,Lap Invalidated,Lap Time,Lap Time2,Last Lap Time,Last Sector Time,MR Sample Clock,Max Fuel,Max Power,Max RPM,Max Sus Travel FL,Max Sus Travel FR,Max Sus Travel RL,Max Sus Travel RR,Max Torque,Max Turbo Boost,Num Tires Off Track,Penalties Enabled,Position,Raw Data Sample Rate,Ride Height FL,Ride Height FR,Ride Height RL,Ride Height RR,Road Temp,Self Align Torque FL,Self Align Torque FR,Self Align Torque RL,Self Align Torque RR,Session Lap Count,Session Time Left,Steering Angle,Surface Grip,Suspension Travel FL,Suspension Travel FR,Suspension Travel RL,Suspension Travel RR,TC Active,TC Enabled,Throttle Pos,Tire Dirt Level FL,Tire Dirt Level FR,Tire Dirt Level RL,Tire Dirt Level RR,Tire Load FL,Tire Load FR,Tire Load RL,Tire Load RR,Tire Loaded Radius FL,Tire Loaded Radius FR,Tire Loaded Radius RL,Tire Loaded Radius RR,Tire Pressure FL,Tire Pressure FR,Tire Pressure RL,Tire Pressure RR,Tire Radius FL,Tire Radius FR,Tire Radius RL,Tire Radius RR,Tire Rubber Grip FL,Tire Rubber Grip FR,Tire Rubber Grip RL,Tire Rubber Grip RR,Tire Slip Angle FL,Tire Slip Angle FR,Tire Slip Angle RL,Tire Slip Angle RR,Tire Slip Ratio FL,Tire Slip Ratio FR,Tire Slip Ratio RL,Tire Slip Ratio RR,Tire Temp Core FL,Tire Temp Core FR,Tire Temp Core RL,Tire Temp Core RR,Tire Temp Inner FL,Tire Temp Inner FR,Tire Temp Inner RL,Tire Temp Inner RR,Tire Temp Middle FL,Tire Temp Middle FR,Tire Temp Middle RL,Tire Temp Middle RR,Tire Temp Outer FL,Tire Temp Outer FR,Tire Temp Outer RL,Tire Temp Outer RR,Toe In FL,Toe In FR,Toe In RL,Toe In RR,Turbo Boost,Wheel Angular Speed FL,Wheel Angular Speed FR,Wheel Angular Speed RL,Wheel Angular Speed RR,Wind Direction,Wind Speed
0,0.0,0.0,0.0,1.0,1.0,0.0,0.0,1.0,0.0,100.0,1.0,1.1856,26.0,0.0,0.0,0.0,59.99999,0.0,26.0,26.0,26.0,26.0,-0.06477777777777782,0.2973000000000001,0.057,294.083,-2.72575,-2.65375,-1.52275,-1.5521,-275.69,216.2975,190.98775,0.0,0.0,0.0,0.0,0.0015666666666666667,-5.498166666666667,-5.498166666666667,-0.5492,1.0236666666666667,-0.0006666666666665932,-0.4059999999999999,65.49000000000001,-0.033,-0.213675,0.9420000000000011,100.0,1.0,1.0,202.20333333333332,0.0,0.0,0.0,0.0,0.0,0.0,0.0,8570.6,0.0,55.0,5.0,235.73333333333335,0.0,0.0,0.0,0.0,0.0,0.0,0.0,0.0,0.0030000000000001137,0.0030000000000001137,0.0,0.0,0.0,55.0,616.79921,10000.0,85.0,85.0,85.0,85.0,395.0,0.0,0.0,0.0,1.0,20.0,52.841,52.841,49.667,49.667,34.0,-25.78,24.336666666666666,-29.349999999999998,25.095,0.0,1783.426,0.7850000000000001,100.0,27.486,26.907,40.567,40.597,0.0,0.0,100.0,0.0,0.0,0.0,0.0,2955.4285714285716,3398.4,4040.75,3998.8,305.879,304.06266666666664,315.00275,314.86725,21.7835,20.5148,21.7686,21.3107,314.99999,314.99999,324.99998,324.99998,99.55921428571429,99.50721666666666,99.56517142857143,99.54508571428572,0.0009999999999998899,-0.10299999999999998,-0.153,0.07,-0.06833333333332803,-0.05571428571428072,1.5605,1.5915,37.147,29.217666666666666,37.054,34.1915,56.381,34.5025,59.0615,51.5535,54.287,33.661500000000004,57.689499999999995,49.917,53.45,33.213,57.6545,49.34433333333333,-0.01200000000000001,-0.1260000000000001,0.10478000000000001,0.11063,0.0,205.23000000000002,205.14,202.20333333333332,202.20333333333332,0.0,0.0
1,0.0,0.0,0.0,1.0,1.0,0.0,0.0,1.0,0.0,100.0,1.0,1.1856,26.0,0.0,0.0,0.0,59.999996,0.0,26.0,26.0,26.0,26.0,-0.10777777777777786,0.3067,0.15960000000000002,293.03,-2.6378,-2.761875,-1.5267,-1.5462,-272.35,216.29250000000002,190.967375,0.0,0.0,0.0,0.0,0.0035333333333333336,-5.498166666666667,-5.498166666666667,-0.5011,-0.5086666666666667,-0.05333333333333368,-0.7949999999999999,65.644,-0.0475,-0.194725,1.3680000000000003,100.0,1.0,1.0,202.37333333333333,0.0,0.0,0.0,0.0,0.0,0.0,0.0,8577.9,0.0,55.0,5.0,236.2866666666667,1.0,0.0,0.0,0.0,0.0,0.0,0.0,0.0,0.053999999999998494,0.053999999999998494,0.0,0.0,1.0,55.0,616.79921,10000.0,85.000001,85.000001,85.000001,85.000001,395.0,0.0,0.0,0.0,1.0,166.665,53.375,53.375,48.37,48.37,34.0,-27.46,18.221666666666668,-35.08333333333333,29.1275,0.0,1783.376,0.8949999999999996,100.0,27.6,27.122,42.5,41.587,0.0,0.0,100.0,0.0,0.0,0.0,0.0,3162.0,2708.9,4357.5,4680.9,305.2745,306.207,314.17475,313.1965,21.7934,20.52,21.7793,21.3197,314.999998,314.999998,324.999988,324.999988,99.55921428571429,99.50723333333333,99.56531428571428,99.54521428571428,-0.007749999999999924,-0.1393333333333333,-0.1885,0.0415,-0.03499999999999659,-0.054285714285711606,1.384,1.456,37.209,29.249666666666666,37.120999999999995,34.248,56.364999999999995,34.5435,59.107,51.618,54.272,33.6995,57.7315,49.9785,53.433,33.2495,57.694,49.404666666666664,-0.008499999999999952,-0.14149999999999996,0.10424000000000001,0.11366000000000001,0.0,205.69,205.595,202.37333333333333,202.37333333333333,0.0,0.0
2,0.0,0.0,0.0,1.0,1.0,0.0,0.0,1.0,0.0,100.0,1.0,1.1856,26.0,0.0,0.0,0.0,59.999996,0.0,26.0,26.0,26.0,26.0,-0.15422222222222215,0.2955000000000001,-0.08170000000000001,293.655,-2.59915,-2.794375,-1.4875500000000001,-1.6091,-268.99,216.285,190.948625,0.0,0.0,0.0,0.0,0.0054666666666666665,-5.498166666666667,-5.498166666666667,-0.5504,0.042,-0.047222222222222054,2.526,65.787,-0.069,-0.25655,1.5739999999999998,100.0,1.0,1.0,203.24666666666667,0.0,0.0,0.0,0.0,0.0,0.0,0.0,8614.9,0.0,55.0,5.0,236.80333333333334,0.0,0.0,0.0,0.0,0.0,0.0,0.0,0.0,0.10500000000000043,0.10500000000000043,0.0,0.0,0.0,55.0,616.79921,10000.0,85.000001,85.000001,85.000001,85.000001,395.0,0.0,0.0,0.0,1.0,333.33500000000004,52.383,52.383,50.14,50.14,34.0,-29.814999999999998,20.07333333333333,-29.286666666666665,20.3425,0.0,1783.322,0.6649999999999991,100.0,28.457,27.036,42.536,41.388,0.0,0.0,100.0,0.0,0.0,0.0,0.0,3309.0,2951.7,3776.5,3685.7,304.594,305.49733333333336,315.562,315.775,21.8036,20.5249,21.7898,21.3285,314.999998,314.999998,324.999988,324.999988,99.55921428571429,99.50725,99.56545714285714,99.54535714285714,-0.027499999999999858,-0.14666666666666672,-0.21616666666666667,0.0135,-0.041666666666671404,-0.04999999999999716,1.6265,1.7065000000000001,37.272,29.280666666666665,37.186,34.303,56.352000000000004,34.582499999999996,59.144999999999996,51.676,54.259,33.7355,57.7675,50.0345,53.42,33.283500000000004,57.727000000000004,49.45933333333333,-0.014000000000000012,-0.13400000000000012,0.10405,0.10876000000000001,0.0,206.14,205.985,203.24666666666667,203.24666666666667,0.0,0.0
3,0.0,0.0,0.0,1.0,1.0,0.0,0.0,1.0,0.0,100.0,1.0,1.1856,26.0,0.0,0.0,0.0,59.999996,0.0,26.0,26.0,26.0,26.0,-0.13355555555555554,0.3166,-0.025333333333333336,293.442,-2.7312,-2.6879999999999997,-1.5141,-1.5884,-265.64,216.2725,190.929,0.0,0.0,0.0,0.0,0.0074333333333333335,-5.498166666666667,-5.498166666666667,-0.5098,0.4553333333333333,-0.008888888888888946,-1.0310000000000001,65.939,-0.08460000000000001,-0.20192500000000002,1.1920000000000002,100.0,1.0,1.0,203.42333333333335,0.0,0.0,0.0,0.0,0.0,0.0,0.0,8622.4,0.0,55.0,5.0,237.35000000000002,1.0,0.0,0.0,0.0,0.0,0.0,0.0,0.0,0.1559999999999988,0.1559999999999988,0.0,0.0,1.0,55.0,616.79921,10000.0,85.000001,85.000001,85.000001,85.000001,395.0,0.0,0.0,0.0,1.0,166.665,53.574,53.574,48.157,48.157,34.0,-25.735,17.791666666666668,-35.22,24.330000000000002,0.0,1783.272,0.6099999999999994,100.0,27.872,27.14,42.359,41.525999999999996,0.0,0.0,100.0,0.0,0.0,0.0,0.0,2867.5714285714284,2784.3,4333.375,4203.0,306.096,305.77733333333333,314.3065,314.38225,21.8134,20.5301,21.8002,21.3374,314.999998,314.999998,324.999988,324.999988,99.55922857142858,99.50726666666667,99.5656,99.5455,-0.01849999999999996,-0.15533333333333332,-0.21033333333333334,0.0145,-0.026666666666670835,-0.03857142857143003,1.4889999999999999,1.5594999999999999,37.334,29.313000000000002,37.251000000000005,34.3585,56.335,34.6245,59.1845,51.7385,54.242999999999995,33.774,57.804,50.0945,53.403999999999996,33.321,57.7605,49.518,-0.03300000000000003,-0.12200000000000011,0.10566,0.10868000000000001,0.0,206.61,206.5,203.42333333333335,203.42333333333335,0.0,0.0
4,0.0,0.0,0.0,1.0,1.0,0.0,0.0,1.0,0.0,100.0,1.0,1.1856,26.0,0.0,0.0,0.0,59.999996,0.0,26.0,26.0,26.0,26.0,-0.13488888888888895,0.2862,-0.012133333333333333,293.61,-2.6669,-2.7353750000000003,-1.5306000000000002,-1.5928,-262.47,216.2575,190.910375,0.0,0.0,0.0,0.0,0.009266666666666668,-5.498166666666667,-5.498166666666667,-0.5433,-0.7823333333333334,-0.07422222222222219,-1.814,66.076,-0.0858,-0.23592500000000002,1.1620000000000008,100.0,1.0,1.0,203.9766666666667,0.0,0.0,0.0,0.0,0.0,0.0,0.0,8645.9,0.0,55.0,5.0,237.8466666666667,0.0,0.0,0.0,0.0,0.0,0.0,0.0,0.0,0.20400000000000063,0.20400000000000063,0.0,0.0,0.0,55.0,616.79921,10000.0,85.000001,85.000001,85.000001,85.000001,395.0,0.0,0.0,0.0,1.0,333.33500000000004,53.101,53.101,48.721000000000004,48.721000000000004,34.0,-29.3425,19.163333333333334,-33.20666666666666,20.7225,0.0,1783.223,0.5899999999999999,100.0,27.651,26.913,42.746,41.547,0.0,0.0,100.0,0.0,0.0,0.0,0.0,3252.4285714285716,2885.8,4119.75,3695.2,305.0965,305.495,314.7705,315.609,21.822499999999998,20.5349,21.810200000000002,21.3457,314.999998,314.999998,324.999988,324.999988,99.55922857142858,99.5073,99.56572857142856,99.54562857142857,-0.026499999999999968,-0.14933333333333332,-0.2115,0.013333333333333334,-0.05833333333333002,-0.03714285714285381,1.5494999999999999,1.597,37.391,29.343,37.314,34.4105,56.318,34.6635,59.2235,51.794,54.227000000000004,33.81,57.841,50.1475,53.385999999999996,33.355000000000004,57.795,49.57033333333334,-0.02949999999999997,-0.11650000000000005,0.10877,0.10945500000000001,0.0,207.0,206.885,203.9766666666667,203.9766666666667,0.0,0.0
5,0.0,0.0,0.0,1.0,1.0,0.0,0.0,1.0,0.0,100.0,1.0,1.1856,26.0,0.0,0.0,0.0,59.999996,0.0,26.0,26.0,26.0,26.0,-0.138,0.30279999999999996,-0.0149,293.671,-2.66985,-2.7658750000000003,-1.50895,-1.5871,-259.09,216.24,190.89,0.0,0.0,0.0,0.0,0.011233333333333333,-5.498166666666667,-5.498166666666667,-0.5366000000000001,0.465,-0.08000000000000007,1.104,66.223,-0.0869,-0.21507500000000002,1.0,100.0,1.0,1.0,204.38666666666666,0.0,0.0,0.0,0.0,0.0,0.0,0.0,8663.2,0.0,55.0,5.0,238.37333333333333,1.0,0.0,0.0,0.0,0.0,0.0,0.0,0.0,0.254999999999999,0.254999999999999,0.0,0.0,1.0,55.0,616.79921,10000.0,85.000001,85.000001,85.000001,85.000001,395.0,0.0,0.0,0.0,1.0,166.665,53.452,53.452,49.025999999999996,49.025999999999996,34.0,-27.2825,19.58833333333333,-32.67,23.5275,0.0,1783.174,0.19500000000000028,100.0,27.936,26.66,42.597,41.119,0.0,0.0,100.0,0.0,0.0,0.0,0.0,3088.285714285714,2842.0,4130.375,4079.7,305.3615,305.8516666666667,314.776,314.776,21.8326,20.54,21.8206,21.3544,314.999998,314.999998,324.999988,324.999988,99.55922857142858,99.5073,99.56587142857143,99.54577142857143,-0.009500000000000064,-0.1306666666666667,-0.20583333333333334,0.0185,-0.05333333333332746,-0.06857142857143117,1.5565,1.569,37.454,29.375,37.379000000000005,34.465,56.304,34.704,59.2635,51.8515,54.213,33.8475,57.878,50.2025,53.372,33.391,57.829,49.624,-0.05599999999999994,-0.09650000000000003,0.10505500000000001,0.11155500000000002,0.0,207.495,207.4,204.38666666666666,204.38666666666666,0.0,0.0
6,0.0,0.0,0.0,1.0,1.0,0.0,0.0,1.0,0.0,100.0,1.0,1.1856,26.0,0.0,0.0,0.0,59.999996,0.0,26.0,26.0,26.0,26.0,-0.11488888888888893,0.2815000000000001,0.0092,293.457,-2.6396,-2.7428749999999997,-1.55415,-1.5826,-255.91,216.22,190.87075,0.0,0.0,0.0,0.0,0.0131,-5.498166666666667,-5.498166666666667,-0.5313,0.088,-0.06077777777777804,0.9170000000000003,66.362,-0.08320000000000001,-0.2152,0.75,100.0,1.0,1.0,204.81333333333333,0.0,0.0,0.0,0.0,0.0,0.0,0.0,8681.3,0.0,55.0,5.0,238.87,0.0,0.0,0.0,0.0,0.0,0.0,0.0,0.0,0.3030000000000008,0.3030000000000008,0.0,0.0,0.0,55.0,616.79921,10000.0,85.000001,85.000001,85.000001,85.000001,395.0,0.0,0.0,0.0,1.0,333.33500000000004,53.131,53.131,48.798,48.798,34.0,-26.395,21.298333333333332,-32.666666666666664,24.18,0.0,1783.125,0.010000000000001563,100.0,27.848,26.731,42.737,41.474000000000004,0.0,0.0,100.0,0.0,0.0,0.0,0.0,3118.142857142857,2998.9,4063.125,4042.4,305.262,305.32433333333336,314.92075,314.8595,21.8419,20.5448,21.8305,21.3629,314.999998,314.999998,324.999988,324.999988,99.55922857142858,99.50731666666667,99.56601428571429,99.5459,0.0129999999999999,-0.11599999999999988,-0.203,0.037,-0.03999999999999915,-0.048571428571428044,1.5235,1.565,37.512,29.405,37.44,34.518,56.289,34.742,59.3015,51.91,54.199,33.8825,57.9135,50.2585,53.357,33.4245,57.862,49.678333333333335,-0.07350000000000001,-0.08200000000000007,0.11130500000000002,0.114125,0.0,207.885,207.82,204.81333333333333,204.81333333333333,0.0,0.0
7,0.0,0.0,0.0,1.0,1.0,0.0,0.0,1.0,0.0,100.0,1.0,1.1856,26.0,0.0,0.0,0.0,59.999996,0.0,26.0,26.0,26.0,26.0,-0.08177777777777784,0.28370000000000006,0.046533333333333336,293.213,-2.6098,-2.729875,-1.5161,-1.6235,-252.32,216.195,190.849125,0.0,0.0,0.0,0.0,0.015166666666666667,-5.498166666666667,-5.498166666666667,-0.5344,0.02733333333333333,-0.04822222222222239,1.158,66.516,-0.0669,-0.22382500000000002,0.3200000000000003,100.0,1.0,1.0,205.24666666666667,0.0,0.0,0.0,0.0,0.0,0.0,0.0,8699.7,0.0,55.0,5.0,239.43,1.0,0.0,0.0,0.0,0.0,0.0,0.0,0.0,0.3569999999999993,0.3569999999999993,0.0,0.0,1.0,55.0,616.79921,10000.0,85.000001,85.000001,85.000001,85.000001,395.0,0.0,0.0,0.0,1.0,166.665,52.795,52.795,48.828,48.828,34.0,-25.5375,22.689999999999998,-30.523333333333333,25.6475,0.0,1783.072,-0.22500000000000142,100.0,27.961,26.838,42.771,41.748000000000005,0.0,0.0,100.0,0.0,0.0,0.0,0.0,3168.4285714285716,3041.8,4032.625,4087.2,305.025,305.14666666666665,314.94325,314.684,21.8524,20.5503,21.8416,21.3724,314.999998,314.999998,324.999988,324.999988,99.55922857142858,99.50733333333334,99.56615714285714,99.54605714285714,0.0405000000000002,-0.08966666666666678,-0.17366666666666666,0.044333333333333336,-0.05333333333332746,-0.0714285714285694,1.5275,1.5365,37.577,29.439333333333334,37.51,34.5775,56.272999999999996,34.783500000000004,59.344,51.9745,54.184,33.920500000000004,57.953,50.320499999999996,53.341,33.461,57.8985,49.739333333333335,-0.09550000000000003,-0.05449999999999999,0.10354500000000001,0.10225000000000001,0.0,208.345,208.335,205.24666666666667,205.24666666666667,0.0,0.0
8,0.0,0.0,0.0,1.0,1.0,0.0,0.0,1.0,0.0,100.0,1.0,1.1856,26.0,0.0,0.0,0.0,59.999996,0.0,26.0,26.0,26.0,26.0,-0.05077777777777781,0.2994000000000001,0.036000000000000004,293.442,-2.6964,-2.716625,-1.49835,-1.5527000000000002,-249.13,216.17000000000002,190.82975,0.0,0.0,0.0,0.0,0.017033333333333334,-5.498166666666667,-5.498166666666667,-0.5351,-0.5416666666666666,-0.03177777777777768,0.7890000000000001,66.654,-0.046700000000000005,-0.21432500000000002,-0.07000000000000028,100.0,1.0,1.0,205.60666666666668,0.0,0.0,0.0,0.0,0.0,0.0,0.0,8714.9,0.0,55.0,5.0,239.92333333333335,0.0,0.0,0.0,0.0,0.0,0.0,0.0,0.0,0.40500000000000114,0.40500000000000114,0.0,0.0,0.0,55.0,616.79921,10000.0,85.000001,85.000001,85.000001,85.000001,395.0,0.0,0.0,0.0,1.0,166.665,53.68,53.68,48.08,48.08,34.0,-23.445,22.689999999999998,-30.116666666666664,27.0575,0.0,1783.024,-0.35999999999999943,100.0,27.501,26.764,42.772999999999996,41.874,0.0,0.0,100.0,0.0,0.0,0.0,0.0,2913.142857142857,2999.6,4149.125,4175.6,305.9625,305.352,314.616,314.478,21.8615,20.5552,21.8515,21.3808,314.999998,314.999998,324.999988,324.999988,99.55924285714286,99.50735,99.5663,99.54618571428571,0.04674999999999985,-0.07566666666666677,-0.14683333333333334,0.0755,-0.05333333333332746,-0.05142857142856627,1.513,1.5135,37.634,29.47,37.572,34.6305,56.257,34.8195,59.381,52.0315,54.169,33.9535,57.9875,50.375,53.325,33.4925,57.9305,49.79266666666666,-0.10150000000000003,-0.04899999999999993,0.0995,0.109035,0.0,208.755,208.745,205.60666666666668,205.60666666666668,0.0,0.0
9,0.0,0.0,0.0,1.0,1.0,0.0,0.0,1.0,0.0,100.0,1.0,1.1856,26.0,0.0,0.0,0.0,59.999996,0.0,26.0,26.0,26.0,26.0,-0.027555555555555555,0.2816000000000001,0.027800000000000002,293.182,-2.68275,-2.720875,-1.55545,-1.5519,-245.92000000000002,216.14499999999998,190.809875,0.0,0.0,0.0,0.0,0.0189,-5.498166666666667,-5.498166666666667,-0.5436,0.588,-0.032222222222222374,0.7320000000000002,66.787,-0.0286,-0.21775,-0.16000000000000014,100.0,1.0,1.0,206.15,0.0,0.0,0.0,0.0,0.0,0.0,0.0,8738.0,0.0,55.0,5.0,240.40333333333334,1.0,0.0,0.0,0.0,0.0,0.0,0.0,0.0,0.4529999999999994,0.4529999999999994,0.0,0.0,1.0,55.0,616.79921,10000.0,85.000001,85.000001,85.000001,85.000001,395.0,0.0,0.0,0.0,1.0,166.665,52.429,52.429,49.21,49.21,34.0,-25.495,24.663333333333334,-28.29,26.517500000000002,0.0,1782.976,-0.5150000000000006,100.0,27.938,27.194,42.412,41.872,0.0,0.0,100.0,0.0,0.0,0.0,0.0,3282.714285714286,3108.8,3950.5,4062.8,304.808,304.9463333333333,315.23025,314.818,21.8708,20.560200000000002,21.8612,21.3892,314.999998,314.999998,324.999988,324.999988,99.55925714285715,99.50735,99.56642857142857,99.54631428571429,0.07725000000000026,-0.05433333333333312,-0.13916666666666666,0.0885,-0.03999999999999915,-0.05857142857143316,1.5795,1.5755,37.692,29.501333333333335,37.632999999999996,34.6825,56.244,34.8565,59.415,52.0875,54.156,33.988,58.0195,50.429,53.313,33.5255,57.9595,49.845333333333336,-0.11449999999999994,-0.04150000000000009,0.11263500000000001,0.10837000000000001,0.0,209.18,209.185,206.15,206.15,0.0,0.0
10,0.0,0.0,0.0,1.0,1.0,0.0,0.0,1.0,0.0,100.0,1.0,1.1856,26.0,0.0,0.0,0.0,59.999996,0.0,26.0,26.0,26.0,26.0,0.005444444444444585,0.29390000000000005,-0.004333333333333334,292.938,-2.66045,-2.698125,-1.5348000000000002,-1.5350000000000001,-242.51,216.1175,190.789125,0.0,0.0,0.0,0.0,0.020866666666666665,-5.498166666666667,-5.498166666666667,-0.5175000000000001,-0.34600000000000003,0.006222222222222129,0.4039999999999999,66.934,-0.0089,-0.206075,-0.4579999999999993,100.0,1.0,1.0,206.38333333333333,0.0,0.0,0.0,0.0,0.0,0.0,0.0,8747.8,0.0,55.0,5.0,240.93333333333334,0.0,0.0,0.0,0.0,0.0,0.0,1.0,0.0,0.5040000000000013,0.5040000000000013,0.0,0.0,0.0,55.0,616.79921,10000.0,85.000001,85.000001,85.000001,85.000001,395.0,0.0,0.0,0.0,1.0,166.665,53.452,53.452,47.592,47.592,34.0,-21.075,22.80833333333333,-30.693333333333335,29.1325,0.0,1782.925,-0.6449999999999996,100.0,27.736,27.364,42.759,42.733000000000004,0.0,0.0,100.0,0.0,0.0,0.0,0.0,2895.285714285714,2864.6,4340.25,4270.8,306.068,305.56333333333333,314.24875,314.1725,21.8805,20.5655,21.8718,21.3984,314.999998,314.999998,324.999988,324.999988,99.55925714285715,99.50735,99.56658571428571,99.54645714285714,0.09350000000000014,-0.044333333333333114,-0.11633333333333333,0.09966666666666667,-0.046666666666666856,-0.03714285714285381,1.4795,1.471,37.753,29.534333333333336,37.699,34.74,56.230999999999995,34.893,59.456,52.1515,54.144,34.0215,58.0575,50.4905,53.299,33.558,57.9945,49.90566666666666,-0.128,-0.025500000000000078,0.10695500000000001,0.10416,0.0,209.62,209.635,206.38333333333333,206.38333333333333,0.0,0.0
11,0.0,0.0,0.0,1.0,1.0,0.0,0.0,1.0,0.0,100.0,1.0,1.1856,26.0,0.0,0.0,0.0,59.999996,0.0,26.0,26.0,26.0,26.0,0.036555555555555674,0.2714000000000001,-0.06743333333333335,293.51800000000003,-2.70545,-2.686875,-1.5911,-1.5241,-239.1,216.09,190.7685,0.0,0.0,0.0,0.0,0.022600000000000002,-5.498166666666667,-5.498166666666667,-0.5614,-0.291,0.033666666666666734,0.3420000000000001,67.07300000000001,0.0128,-0.238425,-0.6899999999999995,100.0,1.0,1.0,207.12666666666667,0.0,0.0,0.0,0.0,0.0,0.0,0.0,8779.3,0.0,55.0,5.0,241.43333333333334,1.0,0.0,0.0,0.0,0.0,0.0,1.0,0.0,0.5549999999999997,0.5549999999999997,0.0,0.0,1.0,55.0,616.79921,10000.0,85.000001,85.000001,85.000001,85.000001,395.0,0.0,0.0,0.0,1.0,333.33500000000004,52.826,52.826,49.286,49.286,34.0,-21.509999999999998,26.638333333333335,-24.116666666666664,27.4175,0.0,1782.873,-0.6950000000000003,100.0,27.568,27.426000000000002,42.375,42.564,0.0,0.0,100.0,0.0,0.0,0.0,0.0,3003.714285714286,3186.6,3677.625,3884.9,305.663,304.71566666666666,315.9135,315.2115,21.89,20.5709,21.8821,21.4074,314.999998,314.999998,324.999988,324.999988,99.55927142857144,99.50736666666667,99.56671428571428,99.5466,0.11699999999999999,-0.0173333333333332,-0.09333333333333332,0.1465,-0.03999999999999915,-0.05571428571428072,1.6305,1.6115,37.813,29.567999999999998,37.763,34.7965,56.217,34.9305,59.4905,52.2115,54.129999999999995,34.0565,58.0895,50.548,53.284,33.591499999999996,58.0235,49.96233333333333,-0.129,-0.02400000000000002,0.111935,0.10699000000000002,0.0,210.01999999999998,210.075,207.12666666666667,207.12666666666667,0.0,0.0
12,0.0,0.0,0.0,1.0,1.0,0.0,0.0,1.0,0.0,100.0,1.0,1.1856,26.0,0.0,0.0,0.0,59.999996,0.0,26.0,26.0,26.0,26.0,0.04444444444444429,0.2864,0.0098,292.984,-2.7586,-2.681375,-1.5522,-1.5241,-235.87,216.065,190.74775,0.0,0.0,0.0,0.0,0.025466666666666665,-5.498166666666667,-5.498166666666667,-0.5466,0.314,0.02022222222222214,0.6259999999999999,67.21000000000001,0.0325,-0.207175,-0.7800000000000002,100.0,1.0,1.0,207.32999999999998,0.0,0.0,0.0,0.0,0.0,0.0,0.0,8787.9,0.0,55.0,5.0,241.92666666666668,0.0,0.0,0.0,0.0,0.0,0.0,1.0,0.0,0.602999999999998,0.602999999999998,0.0,0.0,0.0,55.0,616.79921,10000.0,85.000001,85.000001,85.000001,85.000001,395.0,0.0,0.0,0.0,1.0,166.665,52.856,52.856,47.989,47.989,34.0,-22.08,27.085,-26.349999999999998,31.6875,0.0,1782.825,-0.6099999999999994,100.0,27.458,27.547,42.295,42.441,0.0,0.0,100.0,0.0,0.0,0.0,0.0,3015.0,3194.9,4161.875,4222.5,305.6385,304.72133333333335,314.68825,314.42875,21.899,20.5761,21.8919,21.4159,314.999998,314.999998,324.999988,324.999988,99.55928571428572,99.50736666666667,99.56685714285715,99.54674285714286,0.11724999999999985,-0.006666666666666599,-0.06266666666666666,0.16466666666666666,-0.041666666666671404,-0.03999999999999915,1.5365,1.5035,37.869,29.60033333333333,37.825,34.849000000000004,56.204,34.966,59.525999999999996,52.2685,54.119,34.0895,58.1225,50.603,53.272,33.623,58.0535,50.016,-0.12049999999999994,-0.03200000000000003,0.105675,0.10769500000000001,0.0,210.45499999999998,210.51,207.32999999999998,207.32999999999998,0.0,0.0
13,0.0,0.0,0.0,1.0,1.0,0.0,0.0,1.0,0.0,100.0,1.0,1.1856,26.0,0.0,0.0,0.0,59.999996,0.0,26.0,26.0,26.0,26.0,0.07544444444444443,0.2742,0.05543333333333334,292.603,-2.73795,-2.675,-1.5911,-1.5076,-232.24,216.0375,190.72475,0.0,0.0,0.0,0.0,0.026833333333333334,-5.498166666666667,-5.498166666666667,-0.5384,-0.08133333333333333,0.025333333333333208,1.045,67.361,0.0402,-0.2147,-0.7999999999999998,100.0,1.0,1.0,207.73000000000002,0.0,0.0,0.0,0.0,0.0,0.0,0.0,8804.9,0.0,55.0,5.0,242.47,1.0,0.0,0.0,0.0,0.0,0.0,1.0,0.0,0.657,0.657,0.0,0.0,1.0,55.0,616.79921,10000.0,85.000001,85.000001,85.000001,85.000001,395.0,0.0,0.0,0.0,1.0,166.665,52.536,52.536,47.928,47.928,34.0,-20.7275,27.946666666666665,-26.503333333333334,33.192499999999995,0.0,1782.773,-0.8299999999999983,100.0,27.75,27.741,42.534,42.959,0.0,0.0,100.0,0.0,0.0,0.0,0.0,3048.4285714285716,3184.1,4135.75,4367.7,305.507,304.74333333333334,314.711,314.05425,21.9092,20.5819,21.9031,21.4256,314.999998,314.999998,324.999988,324.999988,99.55931428571428,99.50736666666667,99.567,99.54688571428571,0.15174999999999983,0.01766666666666694,-0.056,0.1685,-0.030000000000001137,-0.07000000000000028,1.5125,1.4715,37.933,29.637,37.894,34.91,56.193,35.0065,59.567,52.3365,54.108000000000004,34.1265,58.1605,50.6685,53.26,33.658500000000004,58.088,50.080333333333336,-0.14249999999999996,-0.016000000000000014,0.10322,0.11091500000000001,0.0,210.91500000000002,210.985,207.73000000000002,207.73000000000002,0.0,0.0
14,0.0,0.0,0.0,1.0,1.0,0.0,0.0,1.0,0.0,100.0,1.0,1.1856,26.0,0.0,0.0,0.0,59.999996,0.0,26.0,26.0,26.0,26.0,0.08522222222222209,0.28180000000000005,-0.011466666666666668,292.847,-2.73345,-2.62,-1.62985,-1.5135,-229.0,216.01749999999998,190.70475,0.0,0.0,0.0,0.0,0.028733333333333333,-5.498166666666667,-5.498166666666667,-0.5485,-0.16,0.05111111111111111,1.375,67.492,0.049300000000000004,-0.228025,-0.9859999999999998,100.0,1.0,1.0,208.22,0.0,0.0,0.0,0.0,0.0,0.0,0.0,8825.7,0.0,55.0,5.0,242.94333333333333,0.0,0.0,0.0,0.0,0.0,0.0,1.0,0.0,0.7049999999999983,0.7049999999999983,0.0,0.0,0.0,55.0,616.79921,10000.0,85.000001,85.000001,85.000001,85.000001,395.0,0.0,0.0,0.0,1.0,166.665,52.643,52.643,48.141,48.141,34.0,-19.7175,28.48,-25.09,32.335,0.0,1782.724,-0.9800000000000004,100.0,27.69,27.79,42.497,43.141999999999996,0.0,0.0,100.0,0.0,0.0,0.0,0.0,2933.5714285714284,3248.3,3969.375,4208.1,305.836,304.56733333333335,315.1585,314.45675,21.9182,20.5871,21.9129,21.4342,314.999998,314.999998,324.999988,324.999988,99.55931428571428,99.50736666666667,99.56714285714285,99.54702857142857,0.15375000000000005,0.027000000000000135,-0.04766666666666666,0.18466666666666667,-0.03999999999999915,-0.06714285714285495,1.559,1.5345,37.989000000000004,29.669333333333334,37.956,34.964,56.184,35.042,59.601,52.3955,54.098,34.1595,58.192,50.725,53.248999999999995,33.69,58.117,50.135999999999996,-0.15049999999999997,-0.0024999999999999467,0.11050000000000001,0.1121,0.0,211.305,211.39,208.22,208.22,0.0,0.0
15,0.0,0.0,0.0,1.0,1.0,0.0,0.0,1.0,0.0,100.0,1.0,1.1856,26.0,0.0,0.0,0.0,59.999996,0.0,26.0,26.0,26.0,26.0,0.10499999999999998,0.28,0.0092,292.877,-2.7103,-2.576125,-1.6308,-1.4516,-225.76,215.9975,190.684375,0.0,0.0,0.0,0.0,0.030600000000000002,-5.498166666666667,-5.498166666666667,-0.5406000000000001,0.319,0.0835555555555556,1.1230000000000002,67.624,0.060500000000000005,-0.20997500000000002,-1.1820000000000004,100.0,1.0,1.0,208.61333333333334,0.0,0.0,0.0,0.0,0.0,0.0,0.0,8842.4,0.0,55.0,5.0,243.41666666666666,1.0,0.0,0.0,0.0,0.0,0.0,1.0,0.0,0.7530000000000001,0.7530000000000001,0.0,0.0,1.0,55.0,616.79921,10000.0,85.000001,85.000001,85.000001,85.000001,395.0,0.0,0.0,0.0,1.0,166.665,52.811,52.811,48.263999999999996,48.263999999999996,34.0,-17.88,28.441666666666666,-24.096666666666664,33.6725,0.0,1782.676,-1.004999999999999,100.0,27.68,27.865000000000002,42.227000000000004,43.181,0.0,0.0,100.0,0.0,0.0,0.0,0.0,2803.285714285714,3231.7,3935.125,4388.0,306.1945,304.60433333333333,315.258,314.05175,21.9271,20.5923,21.9226,21.4428,314.999998,314.999998,324.999988,324.999988,99.55934285714285,99.50738333333334,99.56727142857143,99.54717142857143,0.17025000000000023,0.039000000000000146,-0.0335,0.1935,-0.03999999999999915,-0.044285714285713595,1.5655,1.5085,38.045,29.701999999999998,38.016999999999996,35.0175,56.174,35.0785,59.634,52.455,54.089,34.193,58.2225,50.7825,53.239000000000004,33.7225,58.1445,50.192,-0.15400000000000003,0.0,0.10538000000000002,0.11495000000000001,0.0,211.73000000000002,211.81,208.61333333333334,208.61333333333334,0.0,0.0
16,0.0,0.0,0.0,1.0,1.0,0.0,0.0,1.0,0.0,100.0,1.0,1.1856,26.0,0.0,0.0,0.0,59.999996,0.0,26.0,26.0,26.0,26.0,0.13422222222222224,0.2754000000000001,-0.044333333333333336,292.908,-2.8068,-2.609375,-1.60115,-1.4524,-222.31,215.98000000000002,190.662375,0.0,0.0,0.0,0.0,0.032633333333333334,-5.498166666666667,-5.498166666666667,-0.5598000000000001,-0.7166666666666667,0.06788888888888889,-1.0190000000000001,67.765,0.0738,-0.224825,-1.202,100.0,1.0,1.0,209.04000000000002,0.0,0.0,0.0,0.0,0.0,0.0,0.0,8860.5,0.0,55.0,5.0,243.92333333333335,0.0,0.0,0.0,0.0,0.0,0.0,1.0,0.0,0.8039999999999985,0.8039999999999985,0.0,0.0,0.0,55.0,616.79921,10000.0,85.000001,85.000001,85.000001,85.000001,395.0,0.0,0.0,0.0,1.0,333.33500000000004,52.826,52.826,47.897,47.897,34.0,-20.3675,28.13,-23.666666666666664,32.1425,0.0,1782.623,-0.9100000000000001,100.0,27.13,28.093,42.418,43.412,0.0,0.0,100.0,0.0,0.0,0.0,0.0,3001.714285714286,3175.2,3979.625,4134.5,305.926,304.5973333333333,315.189,314.57775,21.9364,20.5979,21.9332,21.451999999999998,314.999998,314.999998,324.999988,324.999988,99.55935714285714,99.50738333333334,99.56742857142856,99.54732857142857,0.15949999999999998,0.032333333333333325,-0.02783333333333333,0.20716666666666667,-0.03166666666666629,-0.047142857142851824,1.5775,1.5155,38.102000000000004,29.737000000000002,38.082,35.075,56.16,35.12,59.674,52.521,54.076,34.232,58.2595,50.846000000000004,53.225,33.76,58.178,50.254666666666665,-0.14449999999999996,-0.009500000000000064,0.11226000000000001,0.11215000000000001,0.0,212.125,212.20499999999998,209.04000000000002,209.04000000000002,0.0,0.0
17,0.0,0.0,0.0,1.0,1.0,0.0,0.0,1.0,0.0,100.0,1.0,1.1856,26.0,0.0,0.0,0.0,59.999996,0.0,26.0,26.0,26.0,26.0,0.12377777777777776,0.2845,-0.033933333333333336,292.603,-2.76225,-2.567875,-1.6393,-1.4765000000000001,-218.85,215.965,190.639875,0.0,0.0,0.0,0.0,0.034633333333333335,-5.498166666666667,-5.498166666666667,-0.5505,0.562,0.049111111111111105,0.7229999999999999,67.903,0.0779,-0.20627500000000001,-1.1739999999999995,100.0,1.0,1.0,209.44666666666666,0.0,0.0,0.0,0.0,0.0,0.0,0.0,8877.6,0.0,55.0,5.0,244.42333333333335,1.0,0.0,0.0,0.0,0.0,0.0,1.0,0.0,0.8550000000000004,0.8550000000000004,0.0,0.0,1.0,55.0,616.79921,10000.0,85.000001,85.000001,85.000001,85.000001,395.0,0.0,0.0,0.0,1.0,166.665,52.521,52.521,47.943,47.943,34.0,-18.995,28.001666666666665,-24.86,33.822500000000005,0.0,1782.574,-1.0099999999999998,100.0,27.801,28.234,42.255,43.294,0.0,0.0,100.0,0.0,0.0,0.0,0.0,2975.4285714285716,3147.5,4170.25,4300.1,305.779,304.87766666666664,314.78225,314.3095,21.9459,20.6036,21.9435,21.461100000000002,314.999998,314.999998,324.999988,324.999988,99.55938571428571,99.5074,99.56755714285714,99.54745714285714,0.18325000000000014,0.05166666666666675,-0.013666666666666666,0.20683333333333334,-0.030000000000001137,-0.06285714285714761,1.5545,1.518,38.162,29.772666666666666,38.147,35.132,56.153,35.159,59.7065,52.579499999999996,54.068,34.2675,58.29,50.9025,53.216,33.7945,58.2055,50.31,-0.15549999999999997,0.0050000000000000044,0.10511000000000001,0.10738,0.0,212.59,212.69,209.44666666666666,209.44666666666666,0.0,0.0
18,0.0,0.0,0.0,1.0,1.0,0.0,0.0,1.0,0.0,100.0,1.0,1.1856,26.0,0.0,0.0,0.0,59.999996,0.0,26.0,26.0,26.0,26.0,0.12433333333333318,0.26660000000000017,-0.018733333333333334,292.572,-2.79665,-2.540375,-1.6560000000000001,-1.4208,-215.59,215.9525,190.61875,0.0,0.0,0.0,0.0,0.036533333333333334,-5.498166666666667,-5.498166666666667,-0.5588000000000001,-0.5583333333333333,0.07433333333333314,1.146,68.03399999999999,0.079,-0.22105000000000002,-1.2560000000000002,100.0,1.0,1.0,209.85000000000002,0.0,0.0,0.0,0.0,0.0,0.0,0.0,8894.8,0.0,55.0,5.0,244.89333333333335,0.0,0.0,0.0,0.0,0.0,0.0,1.0,0.0,0.9029999999999987,0.9029999999999987,0.0,0.0,0.0,55.0,616.79921,10000.0,85.000001,85.000001,85.000001,85.000001,395.0,0.0,0.0,0.0,1.0,333.33500000000004,52.505,52.505,47.775,47.775,34.0,-18.685,30.131666666666668,-23.946666666666665,32.572500000000005,0.0,1782.525,-1.2449999999999992,100.0,27.556,28.076,42.6,43.731,0.0,0.0,100.0,0.0,0.0,0.0,0.0,2956.857142857143,3347.0,3993.125,4225.8,305.9085,304.36633333333333,315.14175,314.44,21.9547,20.6089,21.9534,21.4699,314.999998,314.999998,324.999988,324.999988,99.5594,99.5074,99.5677,99.5476,0.1927500000000002,0.06199999999999983,-0.014666666666666666,0.20866666666666667,-0.03166666666666629,-0.04999999999999716,1.554,1.5065,38.217,29.805666666666667,38.209,35.1865,56.143,35.1965,59.742,52.64,54.059,34.3025,58.323,50.961,53.206,33.828,58.2355,50.367333333333335,-0.16849999999999998,0.017000000000000015,0.10911000000000001,0.11219000000000001,0.0,212.97,213.035,209.85000000000002,209.85000000000002,0.0,0.0
19,0.0,0.0,0.0,1.0,1.0,0.0,0.0,1.0,0.0,100.0,1.0,1.1856,26.0,0.0,0.0,0.0,59.999996,0.0,26.0,26.0,26.0,26.0,0.1543333333333332,0.29069999999999996,0.05056666666666667,291.931,-2.7162,-2.527125,-1.6729,-1.4021,-211.91,215.945,190.594875,0.0,0.0,0.0,0.0,0.03866666666666667,-5.498166666666667,-5.498166666666667,-0.5499,0.8493333333333334,0.0858888888888889,0.9359999999999999,68.179,0.0889,-0.21100000000000002,-1.6579999999999995,100.0,1.0,1.0,210.25666666666666,0.0,0.0,0.0,0.0,0.0,0.0,0.0,8912.0,0.0,55.0,5.0,245.41666666666666,1.0,0.0,0.0,0.0,0.0,0.0,1.0,0.0,0.9570000000000007,0.9570000000000007,0.0,0.0,1.0,55.0,616.79921,10000.0,85.000001,85.000001,85.000001,85.000001,395.0,0.0,0.0,0.0,1.0,166.665,51.666,51.666,47.455,47.455,34.0,-17.075,31.666666666666668,-24.686666666666664,35.575,0.0,1782.473,-1.5199999999999996,100.0,28.091,28.659,42.339,43.748000000000005,0.0,0.0,100.0,0.0,0.0,0.0,0.0,2994.714285714286,3415.8,4163.625,4495.2,305.596,304.00533333333334,314.782,313.851,21.9648,20.615099999999998,21.9644,21.4796,314.999998,314.999998,324.999988,324.999988,99.55942857142857,99.5074,99.56784285714286,99.54775714285714,0.22325000000000017,0.07833333333333359,-0.0005,0.22266666666666665,-0.02833333333332888,-0.054285714285711606,1.536,1.4895,38.28,29.84433333333333,38.277,35.2475,56.137,35.243,59.778999999999996,52.707,54.053,34.346000000000004,58.357,51.0255,53.198,33.8695,58.266,50.431,-0.20299999999999996,0.030000000000000027,0.10310000000000001,0.10941000000000001,0.0,213.435,213.56,210.25666666666666,210.25666666666666,0.0,0.0
20,0.0,0.0,0.0,1.0,1.0,0.0,0.0,1.0,0.0,100.0,1.0,1.1856,26.0,0.0,0.0,0.0,59.999996,0.0,26.0,26.0,26.0,26.0,0.18266666666666675,0.28469999999999995,0.05153333333333334,292.297,-2.8256,-2.579625,-1.60865,-1.4028,-208.63,215.9425,190.57375,0.0,0.0,0.0,0.0,0.04056666666666667,-5.498166666666667,-5.498166666666667,-0.5535,-1.2096666666666667,0.0972222222222221,0.6019999999999999,68.31,0.1046,-0.21982500000000002,-1.9859999999999998,100.0,1.0,1.0,210.55,0.0,0.0,0.0,0.0,0.0,0.0,0.0,8924.4,0.0,55.0,5.0,245.89,0.0,0.0,0.0,0.0,0.0,0.0,0.0,0.0,1.004999999999999,1.004999999999999,0.0,0.0,0.0,55.0,616.79921,10000.0,85.000001,85.000001,85.000001,85.000001,395.0,0.0,0.0,0.0,1.0,166.665,52.856,52.856,46.875,46.875,34.0,-16.4425,30.721666666666668,-22.336666666666666,36.692499999999995,0.0,1782.424,-1.045,100.0,27.438,28.348,42.828,44.245000000000005,0.0,0.0,100.0,0.0,0.0,0.0,0.0,2744.5714285714284,3278.9,4089.375,4482.3,306.5955,304.48766666666666,314.7935,313.78475,21.973399999999998,20.6204,21.9743,21.4884,314.999998,314.999998,324.999988,324.999988,99.55944285714286,99.50741666666667,99.56797142857143,99.5479,0.21550000000000002,0.0813333333333337,0.022166666666666668,0.23750000000000002,-0.045000000000001705,-0.054285714285711606,1.5095,1.4435,38.334,29.877666666666666,38.34,35.303,56.126999999999995,35.283,59.816,52.769,54.043,34.3825,58.391,51.085499999999996,53.187,33.905,58.2975,50.489666666666665,-0.1795,0.023499999999999965,0.10921000000000002,0.10382500000000001,0.0,213.785,213.92000000000002,210.55,210.55,0.0,0.0
21,0.0,0.0,0.0,1.0,1.0,0.0,0.0,1.0,0.0,100.0,1.0,1.1856,26.0,0.0,0.0,0.0,59.999996,0.0,26.0,26.0,26.0,26.0,0.14522222222222214,0.2653000000000001,-0.060366666666666666,292.648,-2.7371,-2.63625,-1.665,-1.4825,-205.35,215.9425,190.552125,0.0,0.0,0.0,0.0,0.04246666666666667,-5.498166666666667,-5.498166666666667,-0.5809000000000001,0.4836666666666667,0.07066666666666666,-0.1279999999999999,68.434,0.1189,-0.22855,-1.3939999999999992,100.0,1.0,1.0,211.21666666666667,0.0,0.0,0.0,0.0,0.0,0.0,0.0,8952.7,0.0,55.0,5.0,246.33666666666664,1.0,0.0,0.0,0.0,0.0,0.0,0.0,0.0,1.0530000000000008,1.0530000000000008,0.0,0.0,1.0,55.0,616.79921,10000.0,85.000001,85.000001,85.000001,85.000001,395.0,0.0,0.0,0.0,1.0,166.665,52.124,52.124,48.385999999999996,48.385999999999996,34.0,-19.732499999999998,28.926666666666666,-21.296666666666667,33.305,0.0,1782.375,-0.004999999999999005,100.0,27.796,28.548000000000002,42.165,43.832,0.0,0.0,100.0,0.0,0.0,0.0,0.0,2964.142857142857,3284.0,3898.375,4041.1000000000004,305.749,304.37333333333333,315.466,314.90175,21.9823,20.6259,21.9839,21.497,314.999998,314.999998,324.999988,324.999988,99.55947142857143,99.50743333333334,99.56811428571429,99.54804285714286,0.16049999999999986,0.02200000000000024,0.02066666666666667,0.24966666666666668,-0.026666666666670835,-0.06571428571428584,1.625,1.5725,38.388999999999996,29.912,38.399,35.356,56.117999999999995,35.323,59.8455,52.8255,54.034,34.42,58.4185,51.14,53.177,33.941,58.322,50.54366666666667,-0.09399999999999997,-0.06750000000000012,0.10934500000000001,0.10338000000000001,0.0,214.21,214.32999999999998,211.21666666666667,211.21666666666667,0.0,0.0
22,0.0,0.0,0.0,1.0,1.0,0.0,0.0,1.0,0.0,100.0,1.0,1.1856,26.0,0.0,0.0,0.0,59.999996,0.0,26.0,26.0,26.0,26.0,0.09533333333333327,0.26980000000000004,-0.0061,292.13,-2.70815,-2.651375,-1.64505,-1.4882,-201.64999999999998,215.9475,190.526875,0.0,0.0,0.0,0.0,0.04463333333333333,-5.498166666666667,-5.498166666666667,-0.5573,0.04066666666666666,0.06122222222222207,0.754,68.582,0.09620000000000001,-0.206825,-0.03799999999999937,100.0,1.0,1.0,211.43333333333334,0.0,0.0,0.0,0.0,0.0,0.0,0.0,8961.9,0.0,55.0,5.0,246.86666666666667,0.0,0.0,0.0,0.0,0.0,0.0,0.0,0.0,1.1069999999999993,1.1069999999999993,0.0,0.0,0.0,55.0,616.79921,10000.0,85.000001,85.000001,85.000001,85.000001,395.0,0.0,0.0,0.0,1.0,166.665,52.353,52.353,47.119,47.119,34.0,-20.6875,26.098333333333333,-25.843333333333334,35.0125,0.0,1782.323,0.6000000000000014,100.0,27.966,28.504,42.823,43.969,0.0,0.0,100.0,0.0,0.0,0.0,0.0,2846.5714285714284,3195.1,4171.0,4396.4,306.0605,304.641,314.699,314.05775,21.9922,20.632,21.9951,21.5068,314.999998,314.999998,324.999988,324.999988,99.5595,99.50743333333334,99.56827142857144,99.5482,0.10924999999999985,-0.02733333333333321,-0.022833333333333334,0.20450000000000002,-0.046666666666666856,-0.05285714285714249,1.4849999999999999,1.4865,38.451,29.949666666666666,38.469,35.417500000000004,56.105000000000004,35.3645,59.8865,52.8935,54.021,34.4585,58.4565,51.2055,53.163,33.978,58.3565,50.60766666666667,-0.029000000000000026,-0.127,0.109905,0.10509,0.0,214.72500000000002,214.73000000000002,211.43333333333334,211.43333333333334,0.0,0.0
23,0.0,0.0,0.0,1.0,1.0,0.0,0.0,1.0,0.0,100.0,1.0,1.1856,26.0,0.0,0.0,0.0,59.999996,0.0,26.0,26.0,26.0,26.0,0.015111111111111075,0.2611000000000001,-0.015266666666666666,292.053,-2.70815,-2.63225,-1.5468000000000002,-1.5794000000000001,-198.36,215.95499999999998,190.504875,0.0,0.0,0.0,0.0,0.046533333333333336,-5.498166666666667,-5.498166666666667,-0.5766,-0.36133333333333334,0.028666666666666618,-0.08599999999999985,68.708,0.0499,-0.234075,0.798,100.0,1.0,1.0,211.91333333333333,0.0,0.0,0.0,0.0,0.0,0.0,0.0,8982.3,0.0,55.0,5.0,247.32333333333332,1.0,0.0,0.0,0.0,0.0,0.0,0.0,0.0,1.1550000000000011,1.1550000000000011,0.0,0.0,1.0,55.0,616.79921,10000.0,85.000001,85.000001,85.000001,85.000001,395.0,0.0,0.0,0.0,1.0,333.33500000000004,51.62,51.62,48.019,48.019,34.0,-25.697499999999998,24.215,-25.59,29.900000000000002,0.0,1782.273,0.8599999999999994,100.0,28.374,28.425,43.196,44.056,0.0,0.0,100.0,0.0,0.0,0.0,0.0,3259.0,3204.5,3943.5,4020.1000000000004,304.9815,304.69433333333336,315.18075,314.84475,22.0011,20.6373,22.005,21.5155,314.999998,314.999998,324.999988,324.999988,99.5595,99.50743333333334,99.5684,99.54834285714286,0.07299999999999995,-0.06633333333333313,-0.078,0.1495,-0.051666666666669414,-0.05571428571428072,1.5105,1.542,38.507,29.983333333333334,38.531,35.472,56.092,35.4025,59.921,52.9525,54.009,34.4935,58.4885,51.262,53.15,34.0115,58.3855,50.663333333333334,-0.01749999999999996,-0.14900000000000002,0.107615,0.10547500000000001,0.0,215.14499999999998,215.06,211.91333333333333,211.91333333333333,0.0,0.0
24,0.0,0.0,0.0,1.0,1.0,0.0,0.0,1.0,0.0,100.0,1.0,1.1856,26.0,0.0,0.0,0.0,59.999996,0.0,26.0,26.0,26.0,26.0,-0.05266666666666664,0.2813000000000001,-0.10360000000000001,292.313,-2.7028,-2.67125,-1.56715,-1.5443,-195.06,215.96,190.482375,0.0,0.0,0.0,0.0,0.04846666666666667,-5.498166666666667,-5.498166666666667,-0.5777,-0.47800000000000004,0.011222222222222022,0.6480000000000001,68.836,-0.0004,-0.21702500000000002,1.1820000000000004,100.0,1.0,1.0,212.23000000000002,0.0,0.0,0.0,0.0,0.0,0.0,0.0,8995.7,0.0,55.0,5.0,247.78,0.0,0.0,0.0,0.0,0.0,0.0,0.0,0.0,1.2029999999999994,1.2029999999999994,0.0,0.0,0.0,55.0,616.79921,10000.0,85.000001,85.000001,85.000001,85.000001,395.0,0.0,0.0,0.0,1.0,333.33500000000004,52.826,52.826,47.043,47.043,34.0,-24.0475,20.956666666666667,-31.509999999999998,27.7275,0.0,1782.224,0.8599999999999994,100.0,28.308,28.051000000000002,43.456,43.692,0.0,0.0,100.0,0.0,0.0,0.0,0.0,2911.857142857143,2949.1,4320.875,4115.8,305.9525,305.5106666666667,314.287,314.714,22.009999999999998,20.6425,22.0149,21.5241,314.999998,314.999998,324.999988,324.999988,99.5595,99.50745,99.56854285714286,99.54848571428572,0.035499999999999865,-0.09999999999999987,-0.12516666666666668,0.101,-0.041666666666671404,-0.03142857142857025,1.4985,1.533,38.563,30.015333333333334,38.593,35.5255,56.077,35.439499999999995,59.9565,53.007999999999996,53.995000000000005,34.528,58.522,51.3155,53.135,34.0445,58.4155,50.715666666666664,-0.008000000000000007,-0.14450000000000007,0.10289000000000001,0.1165,0.0,215.55,215.445,212.23000000000002,212.23000000000002,0.0,0.0
25,0.0,0.0,0.0,1.0,1.0,0.0,0.0,1.0,0.0,100.0,1.0,1.1856,26.0,0.0,0.0,0.0,59.999996,0.0,26.0,26.0,26.0,26.0,-0.07755555555555549,0.2691000000000001,-0.0432,292.343,-2.7515,-2.652,-1.56285,-1.5657,-191.54,215.9675,190.457125,0.0,0.0,0.0,0.0,0.0505,-5.498166666666667,-5.498166666666667,-0.6137,-0.07,-0.010111111111111182,-1.688,68.968,-0.0488,-0.2283,1.427999999999999,100.0,1.0,1.0,212.78333333333333,0.0,0.0,0.0,0.0,0.0,0.0,0.0,9019.2,0.0,55.0,5.0,248.25666666666666,1.0,0.0,0.0,0.0,0.0,0.0,0.0,0.0,1.2540000000000013,1.2540000000000013,0.0,0.0,1.0,55.0,616.79921,10000.0,85.000001,85.000001,85.000001,85.000001,395.0,0.0,0.0,0.0,1.0,166.665,51.894999999999996,51.894999999999996,47.913,47.913,34.0,-30.002499999999998,21.178333333333335,-30.693333333333335,23.57,0.0,1782.175,0.7800000000000011,100.0,28.216,28.204,43.34,43.242000000000004,0.0,0.0,100.0,0.0,0.0,0.0,0.0,3341.5714285714284,3161.9,4011.625,3941.1000000000004,304.9815,304.70933333333335,315.178,315.13125,22.0194,20.648,22.0253,21.5331,314.999998,314.999998,324.999988,324.999988,99.55951428571429,99.50746666666667,99.56868571428572,99.54862857142857,-0.0029999999999998916,-0.1343333333333332,-0.17350000000000002,0.044833333333333336,-0.05333333333332746,-0.03999999999999915,1.549,1.604,38.620999999999995,30.049999999999997,38.658,35.582,56.059,35.4815,59.9925,53.065,53.977999999999994,34.567,58.555,51.3705,53.117000000000004,34.082,58.446,50.769333333333336,-0.023499999999999965,-0.14200000000000013,0.10057500000000001,0.10419500000000001,0.0,215.965,215.82999999999998,212.78333333333333,212.78333333333333,0.0,0.0
26,0.0,0.0,0.0,1.0,1.0,0.0,0.0,1.0,0.0,100.0,1.0,1.1856,26.0,0.0,0.0,0.0,59.999996,0.0,26.0,26.0,26.0,26.0,-0.1396666666666666,0.27300000000000013,0.07276666666666666,291.153,-2.65535,-2.770125,-1.5776,-1.5903,-188.01999999999998,215.97,190.43125,0.0,0.0,0.0,0.0,0.052566666666666664,-5.498166666666667,-5.498166666666667,-0.5720000000000001,0.8190000000000001,-0.060555555555555696,0.22299999999999986,69.104,-0.07780000000000001,-0.196575,1.3100000000000005,100.0,1.0,1.0,212.95,0.0,0.0,0.0,0.0,0.0,0.0,0.0,9026.1,0.0,55.0,5.0,248.74666666666667,0.0,0.0,0.0,0.0,0.0,0.0,0.0,0.0,1.3049999999999997,1.3049999999999997,0.0,0.0,0.0,55.0,616.79921,10000.0,85.000001,85.000001,85.000001,85.000001,395.0,0.0,0.0,0.0,1.0,166.665,51.315,51.315,46.234,46.234,34.0,-28.66,21.05166666666667,-38.54,26.945,0.0,1782.124,0.5700000000000003,100.0,29.46,28.45,44.156,43.211,0.0,0.0,100.0,0.0,0.0,0.0,0.0,3256.142857142857,3063.8,4601.75,4412.4,304.8815,305.0373333333333,313.72275,314.0435,22.0292,20.6537,22.036,21.5423,314.999998,314.999998,324.999988,324.999988,99.55951428571429,99.50748333333334,99.56884285714285,99.54877142857143,-0.0015000000000000568,-0.1443333333333332,-0.19666666666666666,0.0285,-0.04833333333333201,-0.057142857142849834,1.4224999999999999,1.471,38.682,30.08566666666667,38.724999999999994,35.6395,56.046,35.527,60.034,53.125,53.966,34.609,58.594,51.428,53.104,34.122,58.4815,50.82566666666666,-0.03649999999999998,-0.12949999999999995,0.10908500000000002,0.10438000000000001,0.0,216.425,216.32,212.95,212.95,0.0,0.0
27,0.0,0.0,0.0,1.0,1.0,0.0,0.0,1.0,0.0,100.0,1.0,1.1856,26.0,0.0,0.0,0.0,59.999996,0.0,26.0,26.0,26.0,26.0,-0.128,0.24870000000000014,-0.008066666666666668,291.519,-2.6136,-2.749375,-1.5601500000000001,-1.6718000000000002,-184.7,215.97,190.40825,0.0,0.0,0.0,0.0,0.0545,-5.498166666666667,-5.498166666666667,-0.5964,-1.0943333333333334,-0.06833333333333336,0.7840000000000003,69.22800000000001,-0.0883,-0.24315,1.1660000000000004,100.0,1.0,1.0,213.41666666666669,0.0,0.0,0.0,0.0,0.0,0.0,0.0,9045.9,0.0,55.0,5.0,249.19666666666666,1.0,0.0,0.0,0.0,0.0,0.0,0.0,0.0,1.352999999999998,1.352999999999998,0.0,0.0,1.0,55.0,616.79921,10000.0,85.000001,85.000001,85.000001,85.000001,395.0,0.0,0.0,0.0,1.0,333.33500000000004,51.682,51.682,46.616,46.616,34.0,-27.695,20.468333333333334,-34.3,25.1175,0.0,1782.074,0.4750000000000014,100.0,29.234,28.094,45.016999999999996,43.694,0.0,0.0,100.0,0.0,0.0,0.0,0.0,3206.285714285714,3082.6,4169.125,4068.1000000000004,305.029,305.122,314.66175,314.739,22.0381,20.6588,22.0461,21.551099999999998,314.999998,314.999998,324.999988,324.999988,99.55951428571429,99.5075,99.56898571428572,99.54891428571429,0.00024999999999986144,-0.15366666666666662,-0.20350000000000001,0.02,-0.03999999999999915,-0.05142857142856627,1.4605,1.5145,38.738,30.117333333333335,38.788,35.6945,56.031,35.567,60.0745,53.182,53.951,34.6455,58.632,51.483000000000004,53.089,34.1575,58.5165,50.879,-0.04699999999999993,-0.123,0.109725,0.11180500000000002,0.0,216.73000000000002,216.63,213.41666666666669,213.41666666666669,0.0,0.0
28,0.0,0.0,0.0,1.0,1.0,0.0,0.0,1.0,0.0,100.0,1.0,1.1856,26.0,0.0,0.0,0.0,59.999996,0.0,26.0,26.0,26.0,26.0,-0.11277777777777775,0.2721,-0.04516666666666667,291.87,-2.6445,-2.731,-1.51105,-1.6311,-181.17000000000002,215.9675,190.382875,0.0,0.0,0.0,0.0,0.05653333333333334,-5.498166666666667,-5.498166666666667,-0.6019,0.6496666666666666,-0.07433333333333358,-0.589,69.358,-0.0959,-0.2182,1.1240000000000006,100.0,1.0,1.0,213.93333333333334,0.0,0.0,0.0,0.0,0.0,0.0,0.0,9067.8,0.0,55.0,5.0,249.66333333333336,0.0,0.0,0.0,0.0,0.0,0.0,0.0,0.0,1.404,1.404,0.0,0.0,0.0,55.0,616.79921,10000.0,85.000001,85.000001,85.000001,85.000001,395.0,0.0,0.0,0.0,1.0,166.665,51.743,51.743,47.531,47.531,34.0,-29.775,19.491666666666667,-33.32333333333334,23.805,0.0,1782.024,0.28500000000000014,100.0,29.139,28.179000000000002,44.231,43.181,0.0,0.0,100.0,0.0,0.0,0.0,0.0,3364.5714285714284,2925.8,4143.875,4052.8,304.775,305.38733333333334,314.8505,314.86475,22.0477,20.6643,22.0564,21.5601,314.999998,314.999998,324.999988,324.999988,99.55952857142857,99.50751666666666,99.56914285714285,99.54907142857142,-0.010499999999999954,-0.14966666666666661,-0.21266666666666667,0.012833333333333334,-0.04999999999999716,-0.0357142857142847,1.528,1.563,38.798,30.151666666666664,38.852999999999994,35.7505,56.016999999999996,35.61,60.1095,53.238,53.938,34.6855,58.665,51.536500000000004,53.075,34.195499999999996,58.5465,50.931,-0.058499999999999996,-0.10650000000000004,0.10682000000000001,0.11545000000000001,0.0,217.195,217.07999999999998,213.93333333333334,213.93333333333334,0.0,0.0
29,0.0,0.0,0.0,1.0,1.0,0.0,0.0,1.0,0.0,100.0,1.0,1.1856,26.0,0.0,0.0,0.0,59.999996,0.0,26.0,26.0,26.0,26.0,-0.1303333333333333,0.25870000000000015,0.0073,291.458,-2.58285,-2.7893749999999997,-1.5458500000000002,-1.6102,-177.63,215.9625,190.3565,0.0,0.0,0.0,0.0,0.058600000000000006,-5.498166666666667,-5.498166666666667,-0.6055,-0.7483333333333334,-0.06844444444444431,0.8740000000000001,69.493,-0.0906,-0.2174,0.726,100.0,1.0,1.0,214.17333333333335,0.0,0.0,0.0,0.0,0.0,0.0,0.0,9078.1,0.0,55.0,5.0,250.14666666666665,1.0,0.0,0.0,0.0,0.0,0.0,0.0,0.0,1.4549999999999983,1.4549999999999983,0.0,0.0,1.0,55.0,616.79921,10000.0,85.000001,85.000001,85.000001,85.000001,395.0,0.0,0.0,0.0,1.0,166.665,51.682,51.682,46.417,46.417,34.0,-27.585,22.266666666666666,-34.99666666666667,26.47,0.0,1781.974,0.125,100.0,28.948999999999998,27.86,44.732,43.369,0.0,0.0,100.0,0.0,0.0,0.0,0.0,3265.5714285714284,3137.4,4273.875,4223.4,304.8755,304.81733333333335,314.3735,314.4335,22.0571,20.6697,22.0671,21.5694,314.999998,314.999998,324.999988,324.999988,99.55952857142857,99.50753333333333,99.56928571428571,99.54921428571429,0.008999999999999897,-0.1343333333333332,-0.19883333333333333,0.03966666666666666,-0.03166666666666629,-0.030000000000001137,1.4555,1.492,38.857,30.185666666666666,38.919,35.8085,56.0,35.6515,60.1515,53.298,53.922,34.7235,58.704499999999996,51.5945,53.058,34.232,58.583,50.98733333333333,-0.07350000000000001,-0.09099999999999997,0.10801500000000001,0.115875,0.0,217.54500000000002,217.46,214.17333333333335,214.17333333333335,0.0,0.0
30,0.0,0.0,0.0,1.0,1.0,0.0,0.0,1.0,0.0,100.0,1.0,1.1856,26.0,0.0,0.0,0.0,59.999996,0.0,26.0,26.0,26.0,26.0,-0.09788888888888891,0.2553000000000001,0.0262,291.10699999999997,-2.64795,-2.66975,-1.4915,-1.6633,-174.07999999999998,215.9525,190.33,0.0,0.0,0.0,0.0,0.06066666666666667,-5.498166666666667,-5.498166666666667,-0.6021000000000001,0.8353333333333334,-0.06899999999999995,-0.6039999999999999,69.622,-0.0772,-0.216725,0.6560000000000006,100.0,1.0,1.0,214.63,0.0,0.0,0.0,0.0,0.0,0.0,0.0,9097.4,0.0,55.0,5.0,250.61333333333334,0.0,0.0,0.0,0.0,0.0,0.0,1.0,0.0,1.5060000000000002,1.5060000000000002,0.0,0.0,0.0,55.0,616.79921,10000.0,85.000001,85.000001,85.000001,85.000001,395.0,0.0,0.0,0.0,1.0,166.665,50.873,50.873,46.921,46.921,34.0,-29.7125,20.316666666666666,-34.27666666666667,26.665,0.0,1781.923,0.010000000000001563,100.0,29.654,28.73,44.418,43.506,0.0,0.0,100.0,0.0,0.0,0.0,0.0,3489.0,2988.3,4329.125,4156.2,304.3625,305.12766666666664,314.40975,314.48725,22.0669,20.6754,22.0776,21.5785,314.999998,314.999998,324.999988,324.999988,99.55952857142857,99.50755,99.56944285714286,99.54935714285715,0.020500000000000185,-0.1299999999999999,-0.19666666666666666,0.036166666666666666,-0.04333333333332945,-0.05142857142856627,1.4789999999999999,1.4929999999999999,38.918,30.221333333333334,38.985,35.866,55.988,35.696,60.1885,53.3565,53.911,34.7645,58.739,51.65,53.046,34.2715,58.6145,51.041666666666664,-0.08599999999999997,-0.08650000000000002,0.11439500000000001,0.11235500000000001,0.0,217.97500000000002,217.94,214.63,214.63,0.0,0.0
31,0.0,0.0,0.0,1.0,1.0,0.0,0.0,1.0,0.0,100.0,1.0,1.1856,26.0,0.0,0.0,0.0,59.999996,0.0,26.0,26.0,26.0,26.0,-0.0835555555555555,0.2602,0.006733333333333333,291.061,-2.71765,-2.745375,-1.5815000000000001,-1.6521,-170.73000000000002,215.9425,190.30575,0.0,0.0,0.0,0.0,0.0626,-5.498166666666667,-5.498166666666667,-0.5879,-0.5383333333333333,-0.056333333333333346,-0.7529999999999999,69.747,-0.0618,-0.21745,0.33999999999999986,100.0,1.0,1.0,214.89333333333332,0.0,0.0,0.0,0.0,0.0,0.0,0.0,9108.6,0.0,55.0,5.0,251.06333333333333,1.0,0.0,0.0,0.0,0.0,0.0,1.0,0.0,1.5539999999999985,1.5539999999999985,0.0,0.0,1.0,55.0,616.79921,10000.0,85.000001,85.000001,85.000001,85.000001,395.0,0.0,0.0,0.0,1.0,166.665,51.605000000000004,51.605000000000004,45.486,45.486,34.0,-26.9525,21.688333333333333,-35.35666666666667,28.005,0.0,1781.875,-0.10999999999999943,100.0,29.205,28.75,45.025999999999996,44.141999999999996,0.0,0.0,100.0,0.0,0.0,0.0,0.0,3220.5714285714284,2989.3,4494.5,4217.6,305.332,305.1356666666667,314.00625,314.46275,22.0757,20.6807,22.087699999999998,21.5874,314.999998,314.999998,324.999988,324.999988,99.55952857142857,99.50756666666666,99.56958571428571,99.5495,0.03275000000000006,-0.11333333333333329,-0.16083333333333336,0.05566666666666666,-0.04833333333333201,-0.04571428571428271,1.4565,1.464,38.973,30.254666666666665,39.048,35.9215,55.973,35.736,60.2285,53.414500000000004,53.897,34.8015,58.7765,51.706,53.032,34.3065,58.649,51.096333333333334,-0.09350000000000003,-0.07400000000000007,0.09871,0.10825000000000001,0.0,218.32999999999998,218.305,214.89333333333332,214.89333333333332,0.0,0.0
32,0.0,0.0,0.0,1.0,1.0,0.0,0.0,1.0,0.0,100.0,1.0,1.1856,26.0,0.0,0.0,0.0,59.999996,0.0,26.0,26.0,26.0,26.0,-0.0768888888888889,0.2641,-0.05056666666666667,291.321,-2.65405,-2.747125,-1.6099,-1.5590000000000002,-167.17000000000002,215.93,190.280125,0.0,0.0,0.0,0.0,0.06466666666666666,-5.498166666666667,-5.498166666666667,-0.6085,0.16333333333333336,-0.07422222222222219,0.20699999999999985,69.873,-0.0463,-0.22912500000000002,0.1720000000000006,100.0,1.0,1.0,215.46333333333334,0.0,0.0,0.0,0.0,0.0,0.0,0.0,9132.7,0.0,55.0,5.0,251.51666666666665,0.0,0.0,0.0,0.0,0.0,0.0,1.0,0.0,1.6050000000000004,1.6050000000000004,0.0,0.0,0.0,55.0,616.79921,10000.0,85.000001,85.000001,85.000001,85.000001,395.0,0.0,0.0,0.0,1.0,333.33500000000004,51.224000000000004,51.224000000000004,46.692,46.692,34.0,-26.125,23.776666666666667,-31.45,26.805,0.0,1781.823,-0.14499999999999957,100.0,29.339,28.67,44.677,43.875,0.0,0.0,100.0,0.0,0.0,0.0,0.0,3278.857142857143,3134.8,4189.0,4143.0,304.882,304.898,314.803,314.77175,22.0852,20.6865,22.0981,21.5966,314.999998,314.999998,324.999988,324.999988,99.55954285714286,99.50758333333333,99.56974285714286,99.54964285714286,0.058499999999999996,-0.08833333333333315,-0.14266666666666666,0.07816666666666668,-0.036666666666668846,-0.05857142857143316,1.5385,1.544,39.033,30.290333333333333,39.113,35.9785,55.96,35.778,60.263999999999996,53.472,53.884,34.841,58.81,51.7615,53.018,34.344,58.679,51.15,-0.09899999999999998,-0.06800000000000006,0.1005,0.10726500000000001,0.0,218.715,218.715,215.46333333333334,215.46333333333334,0.0,0.0
33,0.0,0.0,0.0,1.0,1.0,0.0,0.0,1.0,0.0,100.0,1.0,1.1856,26.0,0.0,0.0,0.0,59.999996,0.0,26.0,26.0,26.0,26.0,-0.05133333333333334,0.25980000000000003,-0.03916666666666667,291.397,-2.66715,-2.737875,-1.5722,-1.5737999999999999,-163.82,215.91500000000002,190.255125,0.0,0.0,0.0,0.0,0.06663333333333334,-5.498166666666667,-5.498166666666667,-0.6098,-0.364,-0.06555555555555559,1.2800000000000002,69.997,-0.0317,-0.214225,0.07399999999999984,100.0,1.0,1.0,215.71666666666667,0.0,0.0,0.0,0.0,0.0,0.0,0.0,9143.4,0.0,55.0,5.0,251.96333333333334,1.0,0.0,0.0,0.0,0.0,0.0,1.0,0.0,1.6529999999999987,1.6529999999999987,0.0,0.0,1.0,55.0,616.79921,10000.0,85.000001,85.000001,85.000001,85.000001,395.0,0.0,0.0,0.0,1.0,166.665,51.926,51.926,46.402,46.402,34.0,-24.7,23.116666666666667,-32.416666666666664,28.767500000000002,0.0,1781.776,-0.19000000000000128,100.0,29.094,28.369,44.63,43.919,0.0,0.0,100.0,0.0,0.0,0.0,0.0,3121.142857142857,3038.4,4290.125,4312.1,305.409,305.2126666666667,314.46325,314.28025,22.0941,20.6916,22.108,21.6053,314.999998,314.999998,324.999988,324.999988,99.55955714285714,99.50758333333333,99.56987142857143,99.54978571428572,0.05900000000000016,-0.08133333333333326,-0.1455,0.0795,-0.03166666666666629,-0.03857142857143003,1.4815,1.4914999999999998,39.088,30.322666666666667,39.175,36.033500000000004,55.947,35.814499999999995,60.2995,53.528,53.870999999999995,34.874,58.843,51.8155,53.004000000000005,34.376,58.709,51.202666666666666,-0.09199999999999997,-0.06699999999999995,0.11069000000000001,0.10232000000000001,0.0,219.095,219.065,215.71666666666667,215.71666666666667,0.0,0.0
34,0.0,0.0,0.0,1.0,1.0,0.0,0.0,1.0,0.0,100.0,1.0,1.1856,26.0,0.0,0.0,0.0,59.999996,0.0,26.0,26.0,26.0,26.0,-0.0357777777777778,0.2471000000000001,-0.04996666666666667,291.84,-2.6906499999999998,-2.714375,-1.61375,-1.5862,-160.03,215.8975,190.225625,0.0,0.0,0.0,0.0,0.06883333333333334,-5.498166666666667,-5.498166666666667,-0.6444000000000001,-0.7416666666666667,-0.02588888888888885,1.2200000000000002,70.132,-0.018600000000000002,-0.22592500000000001,0.0039999999999995595,100.0,1.0,1.0,216.22,0.0,0.0,0.0,0.0,0.0,0.0,0.0,9164.8,0.0,55.0,5.0,252.44666666666666,0.0,0.0,0.0,0.0,0.0,0.0,1.0,0.0,1.7070000000000007,1.7070000000000007,0.0,0.0,0.0,55.0,616.79921,10000.0,85.000001,85.000001,85.000001,85.000001,395.0,0.0,0.0,0.0,1.0,166.665,52.17,52.17,47.394,47.394,34.0,-23.525,23.821666666666665,-29.786666666666665,28.78,0.0,1781.722,-0.23499999999999943,100.0,28.764,28.026,44.228,43.980000000000004,0.0,0.0,100.0,0.0,0.0,0.0,0.0,3044.285714285714,3070.4,4034.125,4178.0,305.4515,305.09933333333333,315.09575,314.5625,22.1039,20.6975,22.119,21.615099999999998,314.999998,314.999998,324.999988,324.999988,99.55955714285714,99.5076,99.57004285714285,99.54994285714285,0.08050000000000024,-0.06666666666666665,-0.13183333333333336,0.098,-0.036666666666668846,-0.05142857142856627,1.5165,1.5205,39.149,30.359333333333332,39.244,36.0945,55.931,35.8545,60.336,53.591,53.857,34.911,58.876999999999995,51.8755,52.989000000000004,34.411500000000004,58.74,51.26133333333333,-0.09850000000000003,-0.05899999999999994,0.11367500000000001,0.105105,0.0,219.495,219.49,216.22,216.22,0.0,0.0
35,0.0,0.0,0.0,1.0,1.0,0.0,0.0,1.0,0.0,100.0,1.0,1.1856,26.0,0.0,0.0,0.0,59.999996,0.0,26.0,26.0,26.0,26.0,-0.022888888888888848,0.24550000000000005,-0.04713333333333333,291.855,-2.7468,-2.653375,-1.5822500000000002,-1.5969,-156.66,215.8825,190.1975,0.0,0.0,0.0,0.0,0.0708,-5.498166666666667,-5.498166666666667,-0.6829000000000001,-0.4543333333333333,-0.033444444444444166,-0.050999999999999934,70.251,-0.007200000000000001,-0.229475,-0.12799999999999923,100.0,1.0,1.0,216.63333333333333,0.0,0.0,0.0,0.0,0.0,0.0,0.0,9182.2,0.0,55.0,5.0,252.88,1.0,0.0,0.0,0.0,0.0,0.0,1.0,0.0,1.754999999999999,1.754999999999999,0.0,0.0,1.0,55.0,616.79921,10000.0,85.000001,85.000001,85.000001,85.000001,395.0,0.0,0.0,0.0,1.0,333.33500000000004,51.757999999999996,51.757999999999996,46.967,46.967,34.0,-25.11,26.126666666666665,-28.39,27.7525,0.0,1781.672,-0.18499999999999872,100.0,28.43,28.325,43.965,43.592,0.0,0.0,100.0,0.0,0.0,0.0,0.0,3188.857142857143,3343.8,4036.875,3974.9,305.3195,304.2973333333333,315.0155,315.04425,22.1125,20.7029,22.1287,21.6237,314.999998,314.999998,324.999988,324.999988,99.55957142857143,99.5076,99.57017142857143,99.55008571428571,0.07799999999999985,-0.056333333333333124,-0.11183333333333333,0.10983333333333332,-0.054999999999999716,-0.03999999999999915,1.543,1.5405,39.203,30.393,39.304,36.147999999999996,55.916,35.8915,60.3685,53.6435,53.842,34.945499999999996,58.907,51.9265,52.973,34.4445,58.766999999999996,51.31066666666666,-0.09299999999999997,-0.06750000000000012,0.10575000000000001,0.10609500000000001,0.0,219.865,219.85500000000002,216.63333333333333,216.63333333333333,0.0,0.0
36,0.0,0.0,0.0,1.0,1.0,0.0,0.0,1.0,0.0,100.0,1.0,1.1856,26.0,0.0,0.0,0.0,59.999996,0.0,26.0,26.0,26.0,26.0,-0.005111111111111066,0.2723,0.046200000000000005,290.833,-2.6436,-2.68325,-1.5502,-1.5931000000000002,-153.07999999999998,215.865,190.166,0.0,0.0,0.0,0.0,0.07286666666666666,-5.498166666666667,-5.498166666666667,-0.6626000000000001,0.292,-0.0734444444444442,-1.272,70.382,-0.0002,-0.19865000000000002,0.043999999999999595,100.0,1.0,1.0,216.7866666666667,0.0,0.0,0.0,0.0,0.0,0.0,0.0,9188.8,0.0,55.0,5.0,253.35000000000002,0.0,0.0,0.0,0.0,0.0,0.0,1.0,0.0,1.806000000000001,1.806000000000001,0.0,0.0,0.0,55.0,616.79921,10000.0,85.000001,85.000001,85.000001,85.000001,395.0,0.0,0.0,0.0,1.0,166.665,51.254,51.254,46.219,46.219,34.0,-24.72,24.391666666666666,-32.39666666666666,32.535,0.0,1781.623,-0.19500000000000028,100.0,28.915,28.856,44.052,44.007000000000005,0.0,0.0,100.0,0.0,0.0,0.0,0.0,3285.0,3107.2,4511.0,4508.5,304.7675,304.85366666666664,313.988,313.74175,22.1219,20.7088,22.1391,21.633,314.999998,314.999998,324.999988,324.999988,99.55957142857143,99.50761666666666,99.57032857142858,99.55022857142858,0.09074999999999989,-0.058333333333333126,-0.113,0.10716666666666667,-0.041666666666671404,-0.04285714285714448,1.4375,1.4525000000000001,39.262,30.429666666666666,39.370000000000005,36.2065,55.903999999999996,35.9325,60.405,53.7035,53.831,34.9835,58.9415,51.984,52.961,34.481,58.798,51.367333333333335,-0.10050000000000003,-0.0645,0.10801000000000001,0.10080000000000001,0.0,220.305,220.29000000000002,216.78666666666666,216.7866666666667,0.0,0.0
