,ABS Active,ABS Enabled,AID Allow Tire Blankets,AID Auto Blip,AID Auto Clutch,AID Auto Shift,AID Fuel Rate,AID Ideal Line,AID Mech Damage,AID Stability,AID Tire Wear Rate,Air Density,Air Temp,Ballast,Best Lap Delta,Best Lap Time,Brake Bias,Brake Pos,Brake Temp FL,Brake Temp FR,Brake Temp RL,Brake Temp RR,CG Accel Lateral,CG Accel Longitudinal,CG Accel Vertical,CG Height,Camber FL,Camber FR,Camber RL,Camber RR,Car Coord X,Car Coord Y,Car Coord Z,Car Damage Front,Car Damage Left,Car Damage Rear,Car Damage Right,Car Pos Norm,Caster FL,Caster FR,Chassis Pitch Angle,Chassis Pitch Rate,Chassis Roll Angle,Chassis Roll Rate,Chassis Velocity X,Chassis Velocity Y,Chassis Velocity Z,Chassis Yaw Rate,Clutch Pos,DRS Active,DRS Available,Drive Train Speed,ERS Heat Charging,ERS Is Charging,ERS Max Energy,ERS Power Level,ERS Recovery Level,Engine Brake Setting,Engine Limiter,Engine RPM,Flags,Fuel Level,Gear,Ground Speed,HR Sample Clock,In Pit,KERS Charge,KERS Deployed Energy,KERS Input,KERS Max Energy,LR Sample Clock,Lap Invalidated,Lap Time,Lap Time2,Last Lap Time,Last Sector Time,MR Sample Clock,Max Fuel,Max Power,Max RPM,Max Sus Travel FL,Max Sus Travel FR,Max Sus Travel RL,Max Sus Travel RR,Max Torque,Max Turbo Boost,Num Tires Off Track,Penalties Enabled,Position,Raw Data Sample Rate,Ride Height FL,Ride Height FR,Ride Height RL,Ride Height RR,Road Temp,Self Align Torque FL,Self Align Torque FR,Self Align Torque RL,Self Align Torque RR,Session Lap Count,Session Time Left,Steering Angle,Surface Grip,Suspension Travel FL,Suspension Travel FR,Suspension Travel RL,Suspension Travel RR,TC Active,TC Enabled,Throttle Pos,Tire Dirt Level FL,Tire Dirt Level FR,Tire Dirt Level RL,Tire Dirt Level RR,Tire Load FL,Tire Load FR,Tire Load RL,Tire Load RR,Tire Loaded Radius FL,Tire Loaded Radius FR,Tire Loaded Radius RL,Tire Loaded Radius RR,Tire Pressure FL,Tire Pressure FR,Tire Pressure RL,Tire Pressure RR,Tire Radius FL,Tire Radius FR,Tire Radius RL,Tire Radius RR,Tire Rubber Grip FL,Tire Rubber Grip FR,Tire Rubber Grip RL,Tire Rubber Grip RR,Tire Slip Angle FL,Tire Slip Angle FR,Tire Slip Angle RL,Tire Slip Angle RR,Tire Slip Ratio FL,Tire Slip Ratio FR,Tire Slip Ratio RL,Tire Slip Ratio RR,Tire Temp Core FL,Tire Temp Core FR,Tire Temp Core RL,Tire Temp Core RR,Tire Temp Inner FL,Tire Temp Inner FR,Tire Temp Inner RL,Tire Temp Inner RR,Tire Temp Middle FL,Tire Temp Middle FR,Tire Temp Middle RL,Tire Temp Middle RR,Tire Temp Outer FL,Tire Temp Outer FR,Tire Temp Outer RL,Tire Temp Outer RR,Toe In FL,Toe In FR,Toe In RL,Toe In RR,Turbo Boost,Wheel Angular Speed FL,Wheel Angular Speed FR,Wheel Angular Speed RL,Wheel Angular Speed RR,Wind Direction,Wind Speed
0,0.0,0.0,0.0,1.0,1.0,0.0,0.0,1.0,0.0,100.0,1.0,1.1856,26.0,0.0,0.0,0.0,59.99999,0.0,26.0,26.0,26.0,26.0,-0.085,0.30790000000000006,0.0386,293.976,-2.71575,-2.663777777777778,-1.5131999999999999,-1.5611000000000002,-275.62,216.3,190.987125,0.0,0.0,0.0,0.0,0.0016333333333333755,-5.498166666666667,-5.498166666666667,-0.5485,1.4613333333333334,-0.011777777777777665,-0.262,65.483,-0.0363,-0.21595,0.9700000000000006,100.0,1.0,1.0,202.17333333333335,0.0,0.0,0.0,0.0,0.0,0.0,0.0,8569.4,0.0,55.0,5.0,235.70666666666668,0.0,0.0,0.0,0.0,0.0,0.0,0.0,0.0,0.0030000000000001137,0.0030000000000001137,0.0,0.0,0.0,55.0,616.79921,10000.0,85.0,85.0,85.0,85.0,395.0,0.0,0.0,0.0,1.0,20.0,52.704,52.704,49.515,49.515,34.0,-26.862499999999997,23.972,-30.566666666666663,25.22,0.0,1783.583,0.8099999999999987,100.0,27.321,26.923000000000002,40.562,40.436,0.0,0.0,100.0,0.0,0.0,0.0,0.0,3068.4285714285716,3403.4,4134.375,4016.9,305.4205,304.017,314.7745,314.83725,21.7612,20.5134,21.7787,21.2979,314.99999,314.99999,324.99998,324.99998,99.55795714285715,99.50726666666667,99.56561428571429,99.54461428571429,0.0045000000000001705,-0.1146666666666667,-0.16083333333333336,0.0665,-0.045000000000001705,-0.06333333333333258,1.5345,1.574,37.007,29.209,37.117000000000004,34.1115,55.958,34.4325,59.1995,51.4065,53.900999999999996,33.635,57.8255,49.7745,53.085,33.228,57.793,49.202,-0.009499999999999953,-0.135,0.10452,0.11046,0.0,205.22,205.14499999999998,202.17333333333335,202.17333333333335,0.0,0.0
1,0.0,0.0,0.0,1.0,1.0,0.0,0.0,1.0,0.0,100.0,1.0,1.1856,26.0,0.0,0.0,0.0,59.999996,0.0,26.0,26.0,26.0,26.0,-0.11812500000000001,0.30820000000000003,-0.007125,293.106,-2.6386,-2.7622222222222224,-1.5311,-1.5481,-272.08,216.29500000000002,190.966,0.0,0.0,0.0,0.0,0.0036999999999999256,-5.498166666666667,-5.498166666666667,-0.49710000000000004,-0.7216666666666667,-0.051000000000000156,-0.502,65.646,-0.0545,-0.19985,1.3940000000000001,100.0,1.0,1.0,202.38,0.0,0.0,0.0,0.0,0.0,0.0,0.0,8578.1,0.0,55.0,5.0,236.29333333333335,1.0,0.0,0.0,0.0,0.0,0.0,0.0,0.0,0.05699999999999861,0.05699999999999861,0.0,0.0,1.0,55.0,616.79921,10000.0,85.000001,85.000001,85.000001,85.000001,395.0,0.0,0.0,0.0,1.0,166.665,53.711,53.711,48.385999999999996,48.385999999999996,34.0,-26.27,18.058,-33.333333333333336,29.69,0.0,1783.531,0.8850000000000016,100.0,27.534,26.91,42.828,41.8,0.0,0.0,100.0,0.0,0.0,0.0,0.0,3005.714285714286,2700.5,4209.5,4722.5,305.595,306.23775,314.52575,313.07425,21.7716,20.5188,21.7902,21.3075,314.999998,314.999998,324.999988,324.999988,99.55797142857143,99.50728333333333,99.56577142857142,99.54477142857142,-0.012750000000000039,-0.1419999999999999,-0.18366666666666667,0.04533333333333334,-0.01833333333333087,-0.030000000000001137,1.4135,1.4605000000000001,37.072,29.2425,37.189,34.172,55.942,34.475,59.2465,51.4765,53.885999999999996,33.674,57.8695,49.841499999999996,53.068,33.2655,57.8335,49.26833333333333,-0.0040000000000000036,-0.14400000000000013,0.10527,0.11505000000000001,0.0,205.675,205.555,202.38,202.38,0.0,0.0
2,0.0,0.0,0.0,1.0,1.0,0.0,0.0,1.0,0.0,100.0,1.0,1.1856,26.0,0.0,0.0,0.0,59.999996,0.0,26.0,26.0,26.0,26.0,-0.134125,0.3103,-0.00715,293.686,-2.60385,-2.7936666666666667,-1.4889000000000001,-1.6080999999999999,-268.72,216.28750000000002,190.947125,0.0,0.0,0.0,0.0,0.005633333333333379,-5.498166666666667,-5.498166666666667,-0.5463,0.1446666666666666,-0.04888888888888854,1.679,65.788,-0.0762,-0.245125,1.6600000000000001,100.0,1.0,1.0,203.26333333333332,0.0,0.0,0.0,0.0,0.0,0.0,0.0,8615.6,0.0,55.0,5.0,236.81,0.0,0.0,0.0,0.0,0.0,0.0,0.0,0.0,0.10800000000000054,0.10800000000000054,0.0,0.0,0.0,55.0,616.79921,10000.0,85.000001,85.000001,85.000001,85.000001,395.0,0.0,0.0,0.0,1.0,166.665,52.49,52.49,50.125,50.125,34.0,-30.3925,19.694,-29.703333333333333,19.99666666666667,0.0,1783.479,0.7349999999999994,100.0,28.223,26.993,42.563,41.345,0.0,0.0,100.0,0.0,0.0,0.0,0.0,3381.4285714285716,2919.3,3767.75,3733.5,304.5325,305.512,315.62275,315.63725,21.7817,20.523699999999998,21.8006,21.3162,314.999998,314.999998,324.999988,324.999988,99.55797142857143,99.5073,99.5659,99.54491428571428,-0.028000000000000025,-0.1523333333333332,-0.229,-0.0023333333333333335,-0.02833333333332888,-0.061666666666667425,1.6315,1.6915,37.135999999999996,29.273,37.254000000000005,34.2265,55.93,34.513999999999996,59.283500000000004,51.533500000000004,53.875,33.71,57.903999999999996,49.896,53.056,33.2995,57.8655,49.321666666666665,-0.019499999999999962,-0.13400000000000012,0.110825,0.11193000000000002,0.0,206.14499999999998,206.015,203.26333333333332,203.26333333333332,0.0,0.0
3,0.0,0.0,0.0,1.0,1.0,0.0,0.0,1.0,0.0,100.0,1.0,1.1856,26.0,0.0,0.0,0.0,59.999996,0.0,26.0,26.0,26.0,26.0,-0.145,0.30010000000000003,0.07655,293.396,-2.7273,-2.693777777777778,-1.5114,-1.5926,-265.76,216.2775,190.929625,0.0,0.0,0.0,0.0,0.0073666666666665215,-5.498166666666667,-5.498166666666667,-0.5088,0.3543333333333334,-0.012222222222222356,0.47100000000000003,65.923,-0.0888,-0.200075,1.1839999999999993,100.0,1.0,1.0,203.38333333333333,0.0,0.0,0.0,0.0,0.0,0.0,0.0,8620.7,0.0,55.0,5.0,237.29000000000002,1.0,0.0,0.0,0.0,0.0,0.0,0.0,0.0,0.1529999999999987,0.1529999999999987,0.0,0.0,1.0,55.0,616.79921,10000.0,85.000001,85.000001,85.000001,85.000001,395.0,0.0,0.0,0.0,1.0,333.33500000000004,53.482,53.482,48.096000000000004,48.096000000000004,34.0,-25.725,18.99,-34.92,24.92,0.0,1783.432,0.5700000000000003,100.0,27.942,26.928,42.551,41.381,0.0,0.0,100.0,0.0,0.0,0.0,0.0,2872.5714285714284,2916.7,4272.0,4279.4,305.99,305.56475,314.36875,314.2615,21.790399999999998,20.5283,21.8098,21.3241,314.999998,314.999998,324.999988,324.999988,99.55797142857143,99.50731666666667,99.56604285714286,99.54505714285715,-0.014499999999999957,-0.14666666666666672,-0.21233333333333335,0.012833333333333334,-0.026666666666670835,-0.061666666666667425,1.469,1.5105,37.19,29.301499999999997,37.311,34.2755,55.915,34.554,59.320499999999996,51.5935,53.86,33.747,57.939,49.9535,53.042,33.335,57.8975,49.378,-0.034499999999999975,-0.11850000000000005,0.10985,0.10493000000000001,0.0,206.565,206.465,203.38333333333333,203.38333333333333,0.0,0.0
4,0.0,0.0,0.0,1.0,1.0,0.0,0.0,1.0,0.0,100.0,1.0,1.1856,26.0,0.0,0.0,0.0,59.999996,0.0,26.0,26.0,26.0,26.0,-0.14875,0.28310000000000013,-0.051175000000000005,293.701,-2.6569,-2.749111111111111,-1.5236,-1.6019,-262.2,216.2625,190.908875,0.0,0.0,0.0,0.0,0.009433333333333294,-5.498166666666667,-5.498166666666667,-0.545,-0.7016666666666669,-0.07911111111111158,-0.47900000000000004,66.077,-0.0872,-0.2391,1.120000000000001,100.0,1.0,1.0,204.01999999999998,0.0,0.0,0.0,0.0,0.0,0.0,0.0,8647.7,0.0,55.0,5.0,237.85333333333335,0.0,0.0,0.0,0.0,0.0,0.0,0.0,0.0,0.20700000000000074,0.20700000000000074,0.0,0.0,0.0,55.0,616.79921,10000.0,85.000001,85.000001,85.000001,85.000001,395.0,0.0,0.0,0.0,1.0,166.665,53.101,53.101,48.935,48.935,34.0,-28.75,19.982,-31.586666666666666,21.043333333333333,0.0,1783.38,0.6000000000000014,100.0,27.735,26.686,42.854,41.416,0.0,0.0,100.0,0.0,0.0,0.0,0.0,3219.285714285714,2979.0,4009.75,3670.8,305.035,305.38825,314.9835,315.69975,21.8006,20.5337,21.8211,21.3334,314.999998,314.999998,324.999988,324.999988,99.55797142857143,99.50733333333334,99.56618571428571,99.54518571428571,-0.018000000000000016,-0.14533333333333331,-0.20083333333333334,0.022333333333333334,-0.05666666666667197,-0.061666666666667425,1.5585,1.596,37.254000000000005,29.3355,37.382,34.334,55.899,34.596000000000004,59.3615,51.6525,53.845,33.7855,57.977000000000004,50.0105,53.025,33.3715,57.933,49.43366666666667,-0.030000000000000027,-0.123,0.10272500000000001,0.10724,0.0,207.0,206.905,204.01999999999998,204.01999999999998,0.0,0.0
5,0.0,0.0,0.0,1.0,1.0,0.0,0.0,1.0,0.0,100.0,1.0,1.1856,26.0,0.0,0.0,0.0,59.999996,0.0,26.0,26.0,26.0,26.0,-0.12712500000000002,0.30990000000000006,-0.0067,293.686,-2.6764,-2.764111111111111,-1.5099,-1.5855000000000001,-258.82,216.2425,190.8885,0.0,0.0,0.0,0.0,0.011399999999999966,-5.498166666666667,-5.498166666666667,-0.5335,0.32099999999999995,-0.0818888888888889,-0.183,66.226,-0.0897,-0.210425,1.0939999999999994,100.0,1.0,1.0,204.38333333333333,0.0,0.0,0.0,0.0,0.0,0.0,0.0,8663.1,0.0,55.0,5.0,238.38333333333333,1.0,0.0,0.0,0.0,0.0,0.0,0.0,0.0,0.2579999999999991,0.2579999999999991,0.0,0.0,1.0,55.0,616.79921,10000.0,85.000001,85.000001,85.000001,85.000001,395.0,0.0,0.0,0.0,1.0,166.665,53.558,53.558,48.95,48.95,34.0,-28.377499999999998,18.86,-34.230000000000004,22.44,0.0,1783.329,0.27500000000000213,100.0,27.653,26.673000000000002,42.524,41.188,0.0,0.0,100.0,0.0,0.0,0.0,0.0,3194.0,2757.0,4210.25,4051.0,305.224,305.9585,314.63875,314.761,21.8105,20.5387,21.8315,21.3422,314.999998,314.999998,324.999988,324.999988,99.55798571428572,99.50735,99.56632857142857,99.54532857142857,-0.014499999999999957,-0.1359999999999999,-0.22033333333333335,0.0006666666666666666,-0.03499999999999659,-0.04833333333333201,1.5310000000000001,1.579,37.316,29.366999999999997,37.447,34.3885,55.885,34.635999999999996,59.4015,51.711,53.832,33.8225,58.013999999999996,50.0665,53.010999999999996,33.407,57.9675,49.488,-0.052999999999999936,-0.09549999999999992,0.106215,0.10257500000000001,0.0,207.48000000000002,207.375,204.38333333333333,204.38333333333333,0.0,0.0
6,0.0,0.0,0.0,1.0,1.0,0.0,0.0,1.0,0.0,100.0,1.0,1.1856,26.0,0.0,0.0,0.0,59.999996,0.0,26.0,26.0,26.0,26.0,-0.12175,0.2781,0.011575,293.51800000000003,-2.6378,-2.744222222222222,-1.5519,-1.5825,-255.84,216.225,190.870375,0.0,0.0,0.0,0.0,0.01313333333333333,-5.498166666666667,-5.498166666666667,-0.5314,0.08366666666666656,-0.06211111111111123,0.893,66.355,-0.0843,-0.21407500000000002,0.7120000000000015,100.0,1.0,1.0,204.78333333333333,0.0,0.0,0.0,0.0,0.0,0.0,0.0,8680.0,0.0,55.0,5.0,238.8466666666667,0.0,0.0,0.0,0.0,0.0,0.0,0.0,0.0,0.3030000000000008,0.3030000000000008,0.0,0.0,0.0,55.0,616.79921,10000.0,85.000001,85.000001,85.000001,85.000001,395.0,0.0,0.0,0.0,1.0,333.33500000000004,53.177,53.177,48.813,48.813,34.0,-26.395,21.305999999999997,-32.60666666666667,23.46666666666667,0.0,1783.283,0.07499999999999929,100.0,27.773,26.654,42.706,41.396,0.0,0.0,100.0,0.0,0.0,0.0,0.0,3108.5714285714284,3002.7,4065.75,4047.0,305.2475,305.3245,314.92125,314.84475,21.8192,20.5433,21.8409,21.3501,314.999998,314.999998,324.999988,324.999988,99.55798571428572,99.50735,99.56645714285715,99.54544285714286,0.011249999999999982,-0.1166666666666667,-0.20266666666666666,0.0235,-0.03166666666666629,-0.04833333333333201,1.5295,1.5805,37.370000000000005,29.3955,37.504999999999995,34.438,55.872,34.672,59.436,51.766,53.819,33.855000000000004,58.0465,50.119,52.998000000000005,33.438,57.9975,49.53966666666666,-0.07399999999999995,-0.07699999999999996,0.104275,0.10159000000000001,0.0,207.86,207.79500000000002,204.78333333333333,204.78333333333333,0.0,0.0
7,0.0,0.0,0.0,1.0,1.0,0.0,0.0,1.0,0.0,100.0,1.0,1.1856,26.0,0.0,0.0,0.0,59.999996,0.0,26.0,26.0,26.0,26.0,-0.075875,0.28780000000000006,0.0217,293.243,-2.61255,-2.731222222222222,-1.5122,-1.6252,-252.45,216.2,190.849875,0.0,0.0,0.0,0.0,0.015100000000000002,-5.498166666666667,-5.498166666666667,-0.535,-0.024333333333333318,-0.053444444444444184,-0.195,66.501,-0.0666,-0.22395,0.42600000000000016,100.0,1.0,1.0,205.2,0.0,0.0,0.0,0.0,0.0,0.0,0.0,8697.7,0.0,55.0,5.0,239.37333333333333,1.0,0.0,0.0,0.0,0.0,0.0,0.0,0.0,0.3539999999999992,0.3539999999999992,0.0,0.0,1.0,55.0,616.79921,10000.0,85.000001,85.000001,85.000001,85.000001,395.0,0.0,0.0,0.0,1.0,333.33500000000004,52.826,52.826,48.903999999999996,48.903999999999996,34.0,-27.015,21.682,-31.5,24.933333333333334,0.0,1783.232,-0.2049999999999983,100.0,27.778,26.881,42.653999999999996,41.752,0.0,0.0,100.0,0.0,0.0,0.0,0.0,3298.714285714286,2963.3,4104.5,4032.5,304.8115,305.269,314.83725,314.73075,21.829,20.5484,21.851399999999998,21.359,314.999998,314.999998,324.999988,324.999988,99.55798571428572,99.50736666666667,99.5666,99.54558571428572,0.03025000000000011,-0.1016666666666668,-0.18316666666666667,0.03716666666666667,-0.05333333333332746,-0.036666666666668846,1.5275,1.5514999999999999,37.431,29.427500000000002,37.571,34.494,55.858000000000004,34.7115,59.4755,51.8275,53.806,33.8915,58.0835,50.178,52.983999999999995,33.473,58.0315,49.59733333333333,-0.09099999999999997,-0.06150000000000011,0.10305,0.10626000000000001,0.0,208.305,208.26,205.2,205.2,0.0,0.0
8,0.0,0.0,0.0,1.0,1.0,0.0,0.0,1.0,0.0,100.0,1.0,1.1856,26.0,0.0,0.0,0.0,59.999996,0.0,26.0,26.0,26.0,26.0,-0.04225,0.29500000000000015,0.027725,293.51800000000003,-2.6949,-2.7176666666666667,-1.4986000000000002,-1.5504,-249.06,216.175,190.829375,0.0,0.0,0.0,0.0,0.017066666666666563,-5.498166666666667,-5.498166666666667,-0.5357000000000001,-0.5516666666666667,-0.03200000000000003,0.8290000000000001,66.647,-0.047400000000000005,-0.214675,-0.06200000000000028,100.0,1.0,1.0,205.59,0.0,0.0,0.0,0.0,0.0,0.0,0.0,8714.2,0.0,55.0,5.0,239.9,0.0,0.0,0.0,0.0,0.0,0.0,0.0,0.0,0.40500000000000114,0.40500000000000114,0.0,0.0,0.0,55.0,616.79921,10000.0,85.000001,85.000001,85.000001,85.000001,395.0,0.0,0.0,0.0,1.0,166.665,53.711,53.711,48.172,48.172,34.0,-23.2425,22.704,-30.233333333333334,27.13,0.0,1783.182,-0.3500000000000014,100.0,27.461,26.731,42.748000000000005,41.81,0.0,0.0,100.0,0.0,0.0,0.0,0.0,2909.5714285714284,2995.4,4125.75,4173.5,305.963,305.3675,314.6775,314.47825,21.8385,20.5536,21.8619,21.368,314.999998,314.999998,324.999988,324.999988,99.558,99.50738333333334,99.56674285714286,99.54572857142857,0.05074999999999985,-0.07466666666666666,-0.15316666666666667,0.078,-0.041666666666671404,-0.05833333333333002,1.5130000000000001,1.5145,37.491,29.46,37.637,34.55,55.842,34.75,59.515,51.888999999999996,53.791,33.9265,58.12,50.2365,52.968,33.5065,58.065,49.655,-0.09999999999999998,-0.04049999999999998,0.10548,0.108935,0.0,208.72500000000002,208.735,205.59,205.59,0.0,0.0
9,0.0,0.0,0.0,1.0,1.0,0.0,0.0,1.0,0.0,100.0,1.0,1.1856,26.0,0.0,0.0,0.0,59.999996,0.0,26.0,26.0,26.0,26.0,-0.019375,0.29679999999999995,-0.016225,293.137,-2.6294,-2.718,-1.5556,-1.5503,-245.65,216.1475,190.80825,0.0,0.0,0.0,0.0,0.019066666666666565,-5.498166666666667,-5.498166666666667,-0.5404,0.716,-0.03288888888888897,-0.325,66.789,-0.0258,-0.2147,-0.16000000000000014,100.0,1.0,1.0,206.15,0.0,0.0,0.0,0.0,0.0,0.0,0.0,8738.0,0.0,55.0,5.0,240.41,1.0,0.0,0.0,0.0,0.0,0.0,0.0,0.0,0.4559999999999995,0.4559999999999995,0.0,0.0,1.0,55.0,616.79921,10000.0,85.000001,85.000001,85.000001,85.000001,395.0,0.0,0.0,0.0,1.0,166.665,52.46,52.46,49.21,49.21,34.0,-25.685,23.71,-28.603333333333335,26.516666666666666,0.0,1783.132,-0.504999999999999,100.0,27.836,27.325,42.3,41.93,0.0,0.0,100.0,0.0,0.0,0.0,0.0,3343.857142857143,2997.3,4036.125,4061.6000000000004,304.687,305.114,315.1075,314.77175,21.848300000000002,20.559,21.8724,21.3769,314.999998,314.999998,324.999988,324.999988,99.558,99.5074,99.56688571428572,99.54587142857143,0.0717500000000002,-0.057666666666666755,-0.13283333333333336,0.08716666666666667,-0.051666666666669414,-0.054999999999999716,1.581,1.5594999999999999,37.552,29.493499999999997,37.702,34.6055,55.83,34.789,59.5505,51.948499999999996,53.778999999999996,33.9625,58.1535,50.294,52.956,33.541,58.0955,49.711,-0.11649999999999994,-0.03550000000000009,0.10522500000000001,0.11202500000000001,0.0,209.185,209.19,206.15,206.15,0.0,0.0
10,0.0,0.0,0.0,1.0,1.0,0.0,0.0,1.0,0.0,100.0,1.0,1.1856,26.0,0.0,0.0,0.0,59.999996,0.0,26.0,26.0,26.0,26.0,0.0053750000000000004,0.28459999999999996,-0.0082,292.984,-2.66215,-2.698888888888889,-1.5351,-1.5339,-242.44,216.1225,190.78875,0.0,0.0,0.0,0.0,0.02093333333333336,-5.498166666666667,-5.498166666666667,-0.5179,-0.40366666666666684,0.0067777777777777715,0.325,66.92699999999999,-0.0054,-0.20647500000000002,-0.4479999999999995,100.0,1.0,1.0,206.35666666666668,0.0,0.0,0.0,0.0,0.0,0.0,0.0,8746.8,0.0,55.0,5.0,240.91,0.0,0.0,0.0,0.0,0.0,0.0,1.0,0.0,0.5040000000000013,0.5040000000000013,0.0,0.0,0.0,55.0,616.79921,10000.0,85.000001,85.000001,85.000001,85.000001,395.0,0.0,0.0,0.0,1.0,333.33500000000004,53.482,53.482,47.638,47.638,34.0,-21.224999999999998,22.618,-30.233333333333334,29.37,0.0,1783.082,-0.5799999999999983,100.0,27.688,27.322,42.742000000000004,42.69,0.0,0.0,100.0,0.0,0.0,0.0,0.0,2887.4285714285716,2864.8,4329.5,4272.9,306.084,305.564,314.27975,314.15775,21.8573,20.5639,21.8824,21.3855,314.999998,314.999998,324.999988,324.999988,99.55801428571428,99.5074,99.56702857142857,99.546,0.08850000000000025,-0.04933333333333323,-0.10983333333333332,0.10416666666666667,-0.046666666666666856,-0.04333333333332945,1.4825,1.474,37.608000000000004,29.5245,37.765,34.6595,55.819,34.823499999999996,59.589,52.0095,53.768,33.9945,58.189,50.353,52.944,33.5715,58.1285,49.76866666666667,-0.12549999999999994,-0.033500000000000085,0.10383500000000001,0.11024500000000001,0.0,209.595,209.615,206.35666666666668,206.35666666666668,0.0,0.0
11,0.0,0.0,0.0,1.0,1.0,0.0,0.0,1.0,0.0,100.0,1.0,1.1856,26.0,0.0,0.0,0.0,59.999996,0.0,26.0,26.0,26.0,26.0,0.027125,0.2651000000000001,-0.073425,293.549,-2.7055,-2.685777777777778,-1.5904,-1.5239,-239.03,216.095,190.768,0.0,0.0,0.0,0.0,0.022599999999999953,-5.498166666666667,-5.498166666666667,-0.5622,-0.236,0.03355555555555556,0.34900000000000003,67.066,0.0142,-0.23850000000000002,-0.6499999999999995,100.0,1.0,1.0,207.10666666666668,0.0,0.0,0.0,0.0,0.0,0.0,0.0,8778.5,0.0,55.0,5.0,241.41,1.0,0.0,0.0,0.0,0.0,0.0,1.0,0.0,0.5549999999999997,0.5549999999999997,0.0,0.0,1.0,55.0,616.79921,10000.0,85.000001,85.000001,85.000001,85.000001,395.0,0.0,0.0,0.0,1.0,333.33500000000004,52.841,52.841,49.332,49.332,34.0,-21.8775,26.572000000000003,-23.876666666666665,26.91,0.0,1783.032,-0.5949999999999989,100.0,27.568,27.423000000000002,42.337,42.538,0.0,0.0,100.0,0.0,0.0,0.0,0.0,2999.714285714286,3185.7,3674.5,3872.3,305.663,304.71625,315.929,315.2425,21.8667,20.5693,21.8928,21.3945,314.999998,314.999998,324.999988,324.999988,99.55802857142857,99.5074,99.56715714285714,99.54614285714285,0.10775000000000023,-0.018999999999999906,-0.08916666666666667,0.13833333333333334,-0.04333333333332945,-0.05833333333333002,1.6360000000000001,1.613,37.667,29.558500000000002,37.83,34.7155,55.805,34.8615,59.623,52.07,53.754999999999995,34.0295,58.2205,50.411,52.93,33.605000000000004,58.157,49.82533333333333,-0.122,-0.030000000000000027,0.10587,0.10140500000000001,0.0,210.01,210.04500000000002,207.10666666666668,207.10666666666668,0.0,0.0
12,0.0,0.0,0.0,1.0,1.0,0.0,0.0,1.0,0.0,100.0,1.0,1.1856,26.0,0.0,0.0,0.0,59.999996,0.0,26.0,26.0,26.0,26.0,0.0635,0.28659999999999997,0.033575,292.938,-2.76445,-2.678888888888889,-1.5575,-1.5227,-235.6,216.0675,190.746,0.0,0.0,0.0,0.0,0.025466666666666526,-5.498166666666667,-5.498166666666667,-0.5453,0.29300000000000004,0.017777777777777892,-0.809,67.212,0.030000000000000002,-0.206425,-0.6339999999999995,100.0,1.0,1.0,207.32,0.0,0.0,0.0,0.0,0.0,0.0,0.0,8787.5,0.0,55.0,5.0,241.93333333333334,0.0,0.0,0.0,0.0,0.0,0.0,1.0,0.0,0.6059999999999981,0.6059999999999981,0.0,0.0,0.0,55.0,616.79921,10000.0,85.000001,85.000001,85.000001,85.000001,395.0,0.0,0.0,0.0,1.0,166.665,52.811,52.811,47.943,47.943,34.0,-23.11,26.234,-27.933333333333334,30.63,0.0,1782.982,-0.5650000000000013,100.0,27.303,27.73,42.198,42.559,0.0,0.0,100.0,0.0,0.0,0.0,0.0,3131.4285714285716,3105.0,4248.5,4178.8,305.455,304.81275,314.56625,314.444,21.8762,20.5748,21.9032,21.4035,314.999998,314.999998,324.999988,324.999988,99.55804285714285,99.5074,99.5673,99.54628571428572,0.11299999999999999,-0.011333333333333195,-0.07966666666666668,0.1505,-0.04833333333333201,-0.030000000000001137,1.5310000000000001,1.513,37.726,29.5925,37.894999999999996,34.7715,55.793,34.8995,59.6605,52.1315,53.742999999999995,34.064499999999995,58.2555,50.47,52.917,33.6385,58.1885,49.88333333333333,-0.121,-0.02950000000000008,0.10633500000000001,0.10572500000000001,0.0,210.47500000000002,210.515,207.32,207.32,0.0,0.0
13,0.0,0.0,0.0,1.0,1.0,0.0,0.0,1.0,0.0,100.0,1.0,1.1856,26.0,0.0,0.0,0.0,59.999996,0.0,26.0,26.0,26.0,26.0,0.083375,0.27670000000000017,0.03295,292.587,-2.73945,-2.6693333333333333,-1.6244,-1.5061,-232.37,216.04500000000002,190.7255,0.0,0.0,0.0,0.0,0.026766666666666605,-5.498166666666667,-5.498166666666667,-0.5388000000000001,-0.07233333333333336,0.02211111111111097,-0.56,67.346,0.038400000000000004,-0.2144,-0.8179999999999996,100.0,1.0,1.0,207.68333333333334,0.0,0.0,0.0,0.0,0.0,0.0,0.0,8802.9,0.0,55.0,5.0,242.41333333333336,1.0,0.0,0.0,0.0,0.0,0.0,1.0,0.0,0.6539999999999999,0.6539999999999999,0.0,0.0,1.0,55.0,616.79921,10000.0,85.000001,85.000001,85.000001,85.000001,395.0,0.0,0.0,0.0,1.0,333.33500000000004,52.536,52.536,47.928,47.928,34.0,-21.6325,26.778,-28.073333333333334,31.633333333333336,0.0,1782.931,-0.8299999999999983,100.0,27.604,27.914,42.425,43.06,0.0,0.0,100.0,0.0,0.0,0.0,0.0,3152.5714285714284,3084.5,4223.625,4290.1,305.3705,304.866,314.61975,314.14675,21.8852,20.58,21.9132,21.4121,314.999998,314.999998,324.999988,324.999988,99.55805714285714,99.5074,99.56744285714285,99.54642857142858,0.14575000000000005,0.0086666666666666,-0.06666666666666668,0.15133333333333335,-0.036666666666668846,-0.041666666666671404,1.5135,1.4775,37.782,29.625,37.957,34.826,55.784,34.935,59.698499999999996,52.196,53.733999999999995,34.0995,58.2905,50.532,52.907,33.672,58.219,49.94433333333333,-0.14900000000000002,-0.006000000000000005,0.10559,0.10334000000000002,0.0,210.87,210.93,207.68333333333334,207.68333333333334,0.0,0.0
14,0.0,0.0,0.0,1.0,1.0,0.0,0.0,1.0,0.0,100.0,1.0,1.1856,26.0,0.0,0.0,0.0,59.999996,0.0,26.0,26.0,26.0,26.0,0.093,0.27990000000000004,-0.01005,292.831,-2.738,-2.610333333333333,-1.6013000000000002,-1.5091999999999999,-228.73,216.01999999999998,190.703,0.0,0.0,0.0,0.0,0.028899999999999926,-5.498166666666667,-5.498166666666667,-0.549,-0.139,0.05255555555555569,-0.158,67.494,0.0519,-0.22795,-0.9639999999999995,100.0,1.0,1.0,208.22333333333333,0.0,0.0,0.0,0.0,0.0,0.0,0.0,8825.8,0.0,55.0,5.0,242.95,0.0,0.0,0.0,0.0,0.0,0.0,1.0,0.0,0.7079999999999984,0.7079999999999984,0.0,0.0,0.0,55.0,616.79921,10000.0,85.000001,85.000001,85.000001,85.000001,395.0,0.0,0.0,0.0,1.0,166.665,52.658,52.658,48.141,48.141,34.0,-20.6475,27.345999999999997,-25.376666666666665,31.09,0.0,1782.88,-0.9250000000000007,100.0,27.489,27.993,42.391,43.266,0.0,0.0,100.0,0.0,0.0,0.0,0.0,3020.285714285714,3173.1,3987.25,4162.4,305.7595,304.6125,315.159,314.48725,21.8953,20.5859,21.9243,21.4218,314.999998,314.999998,324.999988,324.999988,99.55807142857142,99.50741666666667,99.56758571428571,99.54658571428571,0.14400000000000013,0.014000000000000234,-0.06,0.16683333333333333,-0.054999999999999716,-0.041666666666671404,1.5685,1.527,37.845,29.6615,38.027,34.885999999999996,55.774,34.9755,59.7345,52.259,53.724999999999994,34.135,58.324,50.5925,52.896,33.706,58.251,50.004,-0.14749999999999996,-0.009500000000000064,0.10931500000000001,0.10395000000000001,0.0,211.32,211.385,208.22333333333333,208.22333333333333,0.0,0.0
15,0.0,0.0,0.0,1.0,1.0,0.0,0.0,1.0,0.0,100.0,1.0,1.1856,26.0,0.0,0.0,0.0,59.999996,0.0,26.0,26.0,26.0,26.0,0.111625,0.2955000000000001,0.010875000000000001,292.862,-2.70965,-2.5748888888888892,-1.6304,-1.4529,-225.69,216.0025,190.684,0.0,0.0,0.0,0.0,0.03066666666666651,-5.498166666666667,-5.498166666666667,-0.5395,0.30533333333333335,0.08277777777777784,1.082,67.618,0.0646,-0.20850000000000002,-1.177999999999999,100.0,1.0,1.0,208.58666666666667,0.0,0.0,0.0,0.0,0.0,0.0,0.0,8841.3,0.0,55.0,5.0,243.39333333333335,1.0,0.0,0.0,0.0,0.0,0.0,1.0,0.0,0.7530000000000001,0.7530000000000001,0.0,0.0,1.0,55.0,616.79921,10000.0,85.000001,85.000001,85.000001,85.000001,395.0,0.0,0.0,0.0,1.0,166.665,52.826,52.826,48.203,48.203,34.0,-17.6475,28.348,-24.35,33.53333333333333,0.0,1782.834,-0.9699999999999989,100.0,27.67,27.853,42.25,43.217,0.0,0.0,100.0,0.0,0.0,0.0,0.0,2791.857142857143,3231.3,3942.375,4391.1,306.2255,304.605,315.24325,314.037,21.9036,20.5908,21.9334,21.4298,314.999998,314.999998,324.999988,324.999988,99.55808571428571,99.50741666666667,99.56771428571429,99.54671428571429,0.1735000000000002,0.03699999999999992,-0.037333333333333336,0.19033333333333335,-0.036666666666668846,-0.060000000000002274,1.563,1.5145,37.897999999999996,29.6925,38.084,34.9365,55.766999999999996,35.01,59.765,52.315,53.717,34.1665,58.352000000000004,50.6465,52.888,33.7365,58.2765,50.057,-0.15200000000000002,0.0010000000000000009,0.11286500000000001,0.10366,0.0,211.71,211.79500000000002,208.58666666666667,208.58666666666667,0.0,0.0
16,0.0,0.0,0.0,1.0,1.0,0.0,0.0,1.0,0.0,100.0,1.0,1.1856,26.0,0.0,0.0,0.0,59.999996,0.0,26.0,26.0,26.0,26.0,0.132625,0.27290000000000014,-0.053775,292.892,-2.8078,-2.608,-1.6002,-1.4538,-222.24,215.985,190.662,0.0,0.0,0.0,0.0,0.03266666666666651,-5.498166666666667,-5.498166666666667,-0.5607,-0.7226666666666668,0.06722222222222207,-1.055,67.758,0.0776,-0.22535000000000002,-1.2039999999999997,100.0,1.0,1.0,209.01666666666665,0.0,0.0,0.0,0.0,0.0,0.0,0.0,8859.4,0.0,55.0,5.0,243.9,0.0,0.0,0.0,0.0,0.0,0.0,1.0,0.0,0.8039999999999985,0.8039999999999985,0.0,0.0,0.0,55.0,616.79921,10000.0,85.000001,85.000001,85.000001,85.000001,395.0,0.0,0.0,0.0,1.0,166.665,52.78,52.78,47.928,47.928,34.0,-19.884999999999998,28.314,-23.613333333333337,31.883333333333336,0.0,1782.783,-0.875,100.0,27.176,28.109,42.451,43.43,0.0,0.0,100.0,0.0,0.0,0.0,0.0,3007.0,3179.9,3969.0,4132.0,305.8965,304.58225,315.22025,314.5785,21.9128,20.5964,21.9439,21.439,314.999998,314.999998,324.999988,324.999988,99.5581,99.50741666666667,99.56785714285714,99.54685714285715,0.17200000000000015,0.035666666666666735,-0.02783333333333333,0.203,-0.05666666666667197,-0.03833333333332689,1.5645,1.524,37.955,29.7275,38.149,34.9935,55.754000000000005,35.0495,59.8025,52.378,53.705,34.203,58.387,50.707499999999996,52.875,33.7715,58.308,50.11666666666667,-0.15300000000000002,-0.007000000000000117,0.11058000000000001,0.11061000000000001,0.0,212.10000000000002,212.19,209.01666666666665,209.01666666666665,0.0,0.0
17,0.0,0.0,0.0,1.0,1.0,0.0,0.0,1.0,0.0,100.0,1.0,1.1856,26.0,0.0,0.0,0.0,59.999996,0.0,26.0,26.0,26.0,26.0,0.097125,0.2843,-0.03155,292.526,-2.76545,-2.563888888888889,-1.6399,-1.4765000000000001,-218.78,215.97,190.639375,0.0,0.0,0.0,0.0,0.03466666666666651,-5.498166666666667,-5.498166666666667,-0.5506,0.5469999999999999,0.04844444444444429,0.592,67.897,0.08310000000000001,-0.20645000000000002,-1.04,100.0,1.0,1.0,209.41666666666669,0.0,0.0,0.0,0.0,0.0,0.0,0.0,8876.4,0.0,55.0,5.0,244.4,1.0,0.0,0.0,0.0,0.0,0.0,1.0,0.0,0.8550000000000004,0.8550000000000004,0.0,0.0,1.0,55.0,616.79921,10000.0,85.000001,85.000001,85.000001,85.000001,395.0,0.0,0.0,0.0,1.0,166.665,52.46,52.46,47.867,47.867,34.0,-20.505,26.554000000000002,-25.6,33.946666666666665,0.0,1782.732,-0.4499999999999993,100.0,27.819,28.262,42.272,43.321,0.0,0.0,100.0,0.0,0.0,0.0,0.0,2987.0,3153.9,4196.0,4314.7,305.734,304.84775,314.72175,314.26425,21.9223,20.6021,21.9542,21.4481,314.999998,314.999998,324.999988,324.999988,99.55814285714285,99.50743333333334,99.568,99.547,0.15074999999999994,0.014666666666666828,-0.02316666666666667,0.20666666666666667,-0.045000000000001705,-0.054999999999999716,1.546,1.5150000000000001,38.013999999999996,29.762999999999998,38.214,35.0505,55.747,35.09,59.837,52.4405,53.698,34.241,58.419,50.7675,52.866,33.8075,58.337,50.175666666666665,-0.11099999999999999,-0.04200000000000004,0.11374500000000001,0.10594,0.0,212.57999999999998,212.64499999999998,209.41666666666669,209.41666666666669,0.0,0.0
18,0.0,0.0,0.0,1.0,1.0,0.0,0.0,1.0,0.0,100.0,1.0,1.1856,26.0,0.0,0.0,0.0,59.999996,0.0,26.0,26.0,26.0,26.0,0.080125,0.2763,-0.0005250000000000001,292.435,-2.79505,-2.541333333333333,-1.6441,-1.4318,-215.32,215.95749999999998,190.617,0.0,0.0,0.0,0.0,0.036699999999999955,-5.498166666666667,-5.498166666666667,-0.5611,-0.476,0.057333333333333236,-0.617,68.035,0.07730000000000001,-0.223925,-0.3959999999999999,100.0,1.0,1.0,209.85000000000002,0.0,0.0,0.0,0.0,0.0,0.0,0.0,8894.8,0.0,55.0,5.0,244.9,0.0,0.0,0.0,0.0,0.0,0.0,1.0,0.0,0.9059999999999988,0.9059999999999988,0.0,0.0,0.0,55.0,616.79921,10000.0,85.000001,85.000001,85.000001,85.000001,395.0,0.0,0.0,0.0,1.0,166.665,52.277,52.277,47.684,47.684,34.0,-23.357499999999998,26.43,-25.763333333333335,30.91,0.0,1782.681,0.07000000000000028,100.0,27.482,28.21,42.609,43.731,0.0,0.0,100.0,0.0,0.0,0.0,0.0,3154.285714285714,3271.4,4097.125,4157.1,305.466,304.38175,314.9585,314.54675,21.9317,20.6077,21.9648,21.4573,314.999998,314.999998,324.999988,324.999988,99.55814285714285,99.50743333333334,99.56814285714286,99.54715714285715,0.11699999999999999,-0.0129999999999999,-0.03916666666666666,0.18516666666666667,-0.03833333333332689,-0.03999999999999915,1.548,1.5215,38.073,29.798000000000002,38.28,35.108000000000004,55.735,35.128,59.8745,52.5045,53.687,34.275999999999996,58.454,50.829499999999996,52.854,33.841,58.3685,50.236666666666665,-0.07450000000000001,-0.08000000000000007,0.105465,0.10952500000000001,0.0,212.995,213.025,209.85000000000002,209.85000000000002,0.0,0.0
19,0.0,0.0,0.0,1.0,1.0,0.0,0.0,1.0,0.0,100.0,1.0,1.1856,26.0,0.0,0.0,0.0,59.999996,0.0,26.0,26.0,26.0,26.0,0.027,0.28200000000000003,0.044375000000000005,291.931,-2.68665,-2.668333333333333,-1.6400000000000001,-1.4363000000000001,-211.84,215.9475,190.594375,0.0,0.0,0.0,0.0,0.03869999999999996,-5.498166666666667,-5.498166666666667,-0.548,0.8363333333333334,0.046222222222222165,0.36,68.173,0.0555,-0.20965,0.038000000000000256,100.0,1.0,1.0,210.2266666666667,0.0,0.0,0.0,0.0,0.0,0.0,0.0,8910.7,0.0,55.0,5.0,245.39333333333335,1.0,0.0,0.0,0.0,0.0,0.0,1.0,0.0,0.9570000000000007,0.9570000000000007,0.0,0.0,1.0,55.0,616.79921,10000.0,85.000001,85.000001,85.000001,85.000001,395.0,0.0,0.0,0.0,1.0,166.665,51.743,51.743,47.363,47.363,34.0,-22.6125,26.926,-28.423333333333336,31.746666666666666,0.0,1782.629,0.254999999999999,100.0,28.306,28.418,42.673,43.498000000000005,0.0,0.0,100.0,0.0,0.0,0.0,0.0,3059.857142857143,3264.6,4251.25,4427.4,305.3965,304.31425,314.569,314.00425,21.9412,20.6134,21.9752,21.4664,314.999998,314.999998,324.999988,324.999988,99.55817142857143,99.50743333333334,99.56828571428571,99.5473,0.10199999999999987,-0.030000000000000027,-0.06333333333333334,0.15583333333333335,-0.05333333333332746,-0.060000000000002274,1.5,1.4994999999999998,38.132999999999996,29.834,38.345,35.165,55.724999999999994,35.1685,59.9095,52.567,53.677,34.3135,58.4865,50.8895,52.843,33.876999999999995,58.397999999999996,50.29566666666666,-0.05899999999999994,-0.09549999999999992,0.104675,0.10602500000000001,0.0,213.505,213.48000000000002,210.2266666666667,210.2266666666667,0.0,0.0
20,0.0,0.0,0.0,1.0,1.0,0.0,0.0,1.0,0.0,100.0,1.0,1.1856,26.0,0.0,0.0,0.0,59.999996,0.0,26.0,26.0,26.0,26.0,0.006,0.2701,0.010775,292.328,-2.76545,-2.641888888888889,-1.5488,-1.5772,-208.57,215.94,190.573375,0.0,0.0,0.0,0.0,0.04059999999999997,-5.498166666666667,-5.498166666666667,-0.5527000000000001,-1.1246666666666667,0.025666666666666726,0.127,68.304,0.0281,-0.22032500000000002,0.3520000000000003,100.0,1.0,1.0,210.55666666666667,0.0,0.0,0.0,0.0,0.0,0.0,0.0,8924.7,0.0,55.0,5.0,245.86666666666667,0.0,0.0,0.0,0.0,0.0,0.0,0.0,0.0,1.004999999999999,1.004999999999999,0.0,0.0,0.0,55.0,616.79921,10000.0,85.000001,85.000001,85.000001,85.000001,395.0,0.0,0.0,0.0,1.0,166.665,52.887,52.887,46.875,46.875,34.0,-23.115,24.032,-28.393333333333334,31.976666666666667,0.0,1782.583,0.40500000000000114,100.0,27.742,27.938,43.457,43.717,0.0,0.0,100.0,0.0,0.0,0.0,0.0,2926.857142857143,3109.4,4194.375,4276.4,305.999,305.02375,314.5495,314.15325,21.9499,20.6185,21.9853,21.4751,314.999998,314.999998,324.999988,324.999988,99.55817142857143,99.50745,99.56842857142857,99.54744285714285,0.07224999999999993,-0.052000000000000046,-0.08883333333333333,0.13866666666666666,-0.02833333333332888,-0.060000000000002274,1.465,1.472,38.187,29.866,38.408,35.2195,55.711,35.204499999999996,59.947,52.627,53.663,34.3465,58.5215,50.947,52.828,33.909,58.43,50.352333333333334,-0.04149999999999998,-0.10499999999999998,0.110905,0.10659,0.0,213.86,213.835,210.55666666666667,210.55666666666667,0.0,0.0
21,0.0,0.0,0.0,1.0,1.0,0.0,0.0,1.0,0.0,100.0,1.0,1.1856,26.0,0.0,0.0,0.0,59.999996,0.0,26.0,26.0,26.0,26.0,-0.010750000000000001,0.27470000000000017,-0.052700000000000004,292.709,-2.7128,-2.6673333333333336,-1.5958,-1.5518,-205.07999999999998,215.93,190.550375,0.0,0.0,0.0,0.0,0.0426333333333333,-5.498166666666667,-5.498166666666667,-0.5753,0.5213333333333333,-0.012666666666666604,-1.215,68.437,-0.0033,-0.2197,0.7000000000000011,100.0,1.0,1.0,211.20333333333332,0.0,0.0,0.0,0.0,0.0,0.0,0.0,8952.1,0.0,55.0,5.0,246.34333333333336,1.0,0.0,0.0,0.0,0.0,0.0,0.0,0.0,1.056000000000001,1.056000000000001,0.0,0.0,1.0,55.0,616.79921,10000.0,85.000001,85.000001,85.000001,85.000001,395.0,0.0,0.0,0.0,1.0,166.665,52.429,52.429,48.218,48.218,34.0,-25.8325,22.424,-29.836666666666666,25.79,0.0,1782.532,0.33500000000000085,100.0,28.05,28.024,42.866,43.139,0.0,0.0,100.0,0.0,0.0,0.0,0.0,3207.4285714285716,3012.4,4093.375,3949.9,305.258,305.1515,315.02375,315.1005,21.9594,20.6241,21.9956,21.484,314.999998,314.999998,324.999988,324.999988,99.55818571428571,99.50745,99.56857142857143,99.54758571428572,0.05575000000000019,-0.08033333333333315,-0.1355,0.09233333333333334,-0.054999999999999716,-0.041666666666671404,1.5675000000000001,1.5965,38.245999999999995,29.901,38.472,35.2755,55.698,35.245,59.980000000000004,52.6845,53.650999999999996,34.384,58.552,51.0025,52.815,33.9445,58.457499999999996,50.406333333333336,-0.05699999999999994,-0.10699999999999998,0.10978,0.10783500000000001,0.0,214.32,214.25,211.20333333333332,211.20333333333332,0.0,0.0
22,0.0,0.0,0.0,1.0,1.0,0.0,0.0,1.0,0.0,100.0,1.0,1.1856,26.0,0.0,0.0,0.0,59.999996,0.0,26.0,26.0,26.0,26.0,-0.051375000000000004,0.27380000000000004,-0.0046,292.206,-2.62785,-2.735333333333333,-1.5817999999999999,-1.5504,-201.59,215.92000000000002,190.5265,0.0,0.0,0.0,0.0,0.04466666666666652,-5.498166666666667,-5.498166666666667,-0.556,-0.033333333333333215,-0.012222222222222356,0.9410000000000001,68.576,-0.026500000000000003,-0.20392500000000002,0.6460000000000008,100.0,1.0,1.0,211.41333333333333,0.0,0.0,0.0,0.0,0.0,0.0,0.0,8961.0,0.0,55.0,5.0,246.84666666666666,0.0,0.0,0.0,0.0,0.0,0.0,0.0,0.0,1.1069999999999993,1.1069999999999993,0.0,0.0,0.0,55.0,616.79921,10000.0,85.000001,85.000001,85.000001,85.000001,395.0,0.0,0.0,0.0,1.0,166.665,52.536,52.536,47.104,47.104,34.0,-23.384999999999998,22.898,-32.04333333333334,28.37,0.0,1782.481,0.22500000000000142,100.0,28.367,27.878,43.555,43.235,0.0,0.0,100.0,0.0,0.0,0.0,0.0,2959.142857142857,3047.0,4240.25,4332.7,305.709,305.13025,314.53175,314.21075,21.9688,20.6296,22.0062,21.4932,314.999998,314.999998,324.999988,324.999988,99.55818571428571,99.50746666666667,99.56871428571428,99.54772857142858,0.04974999999999996,-0.08833333333333315,-0.14416666666666667,0.0775,-0.04333333333332945,-0.04333333333332945,1.4745,1.4985,38.305,29.935000000000002,38.539,35.333,55.684,35.285,60.019999999999996,52.7465,53.638,34.421,58.5895,51.062,52.801,33.980000000000004,58.492,50.464666666666666,-0.06099999999999994,-0.10050000000000003,0.10664000000000001,0.09989,0.0,214.745,214.67000000000002,211.41333333333333,211.41333333333333,0.0,0.0
23,0.0,0.0,0.0,1.0,1.0,0.0,0.0,1.0,0.0,100.0,1.0,1.1856,26.0,0.0,0.0,0.0,59.999996,0.0,26.0,26.0,26.0,26.0,-0.057875,0.2552000000000001,-0.004175,292.13,-2.6513999999999998,-2.693777777777778,-1.5039,-1.6223,-198.29,215.91,190.5045,0.0,0.0,0.0,0.0,0.046599999999999975,-5.498166666666667,-5.498166666666667,-0.5752,-0.27766666666666673,-0.024333333333333318,0.536,68.702,-0.038900000000000004,-0.230725,0.6959999999999997,100.0,1.0,1.0,211.91333333333333,0.0,0.0,0.0,0.0,0.0,0.0,0.0,8982.2,0.0,55.0,5.0,247.3,1.0,0.0,0.0,0.0,0.0,0.0,0.0,0.0,1.1550000000000011,1.1550000000000011,0.0,0.0,1.0,55.0,616.79921,10000.0,85.000001,85.000001,85.000001,85.000001,395.0,0.0,0.0,0.0,1.0,333.33500000000004,51.743,51.743,48.096000000000004,48.096000000000004,34.0,-26.92,22.945999999999998,-28.846666666666664,26.866666666666667,0.0,1782.43,0.19000000000000128,100.0,28.681,27.954,43.739000000000004,43.403999999999996,0.0,0.0,100.0,0.0,0.0,0.0,0.0,3298.714285714286,3118.3,3947.25,3999.4,304.724,304.984,315.18075,314.90575,21.9777,20.6348,22.0162,21.5019,314.999998,314.999998,324.999988,324.999988,99.55818571428571,99.50748333333334,99.56887142857143,99.54788571428571,0.045500000000000096,-0.09133333333333327,-0.15533333333333335,0.0805,-0.04833333333333201,-0.04333333333332945,1.5135,1.5385,38.361000000000004,29.9675,38.601,35.387,55.671,35.326499999999996,60.0575,52.807,53.625,34.459,58.6245,51.1205,52.788,34.0165,58.5235,50.52133333333333,-0.06699999999999995,-0.09299999999999997,0.10963500000000001,0.11078,0.0,215.115,215.05,211.91333333333333,211.91333333333333,0.0,0.0
24,0.0,0.0,0.0,1.0,1.0,0.0,0.0,1.0,0.0,100.0,1.0,1.1856,26.0,0.0,0.0,0.0,59.999996,0.0,26.0,26.0,26.0,26.0,-0.068,0.27870000000000017,-0.059025,292.419,-2.67145,-2.706444444444444,-1.5459,-1.5636,-194.99,215.8975,190.482,0.0,0.0,0.0,0.0,0.04849999999999999,-5.498166666666667,-5.498166666666667,-0.5785,-0.5640000000000001,-0.014000000000000234,1.067,68.83,-0.042800000000000005,-0.2165,0.44399999999999906,100.0,1.0,1.0,212.21333333333334,0.0,0.0,0.0,0.0,0.0,0.0,0.0,8994.9,0.0,55.0,5.0,247.76333333333332,0.0,0.0,0.0,0.0,0.0,0.0,0.0,0.0,1.2029999999999994,1.2029999999999994,0.0,0.0,0.0,55.0,616.79921,10000.0,85.000001,85.000001,85.000001,85.000001,395.0,0.0,0.0,0.0,1.0,166.665,52.917,52.917,47.134,47.134,34.0,-23.8325,21.706,-32.52333333333333,26.35666666666667,0.0,1782.384,0.06500000000000128,100.0,28.413,27.669,43.765,43.268,0.0,0.0,100.0,0.0,0.0,0.0,0.0,2945.142857142857,2953.7,4280.125,4135.0,305.8465,305.52625,314.3945,314.66875,21.9865,20.6399,22.0261,21.5104,314.999998,314.999998,324.999988,324.999988,99.5582,99.50748333333334,99.569,99.54801428571429,0.04200000000000026,-0.08899999999999997,-0.15666666666666665,0.0655,-0.04833333333333201,-0.03833333333332689,1.5015,1.5135,38.416,29.999499999999998,38.663,35.4405,55.658,35.3605,60.091499999999996,52.86,53.613,34.4905,58.656,51.171,52.774,34.047,58.5525,50.571,-0.07450000000000001,-0.07850000000000001,0.10220000000000001,0.10873000000000001,0.0,215.51,215.445,212.21333333333334,212.21333333333334,0.0,0.0
25,0.0,0.0,0.0,1.0,1.0,0.0,0.0,1.0,0.0,100.0,1.0,1.1856,26.0,0.0,0.0,0.0,59.999996,0.0,26.0,26.0,26.0,26.0,-0.042875,0.27190000000000003,-0.06392500000000001,292.313,-2.7401,-2.6644444444444444,-1.5593,-1.5659,-191.48000000000002,215.885,190.456625,0.0,0.0,0.0,0.0,0.05053333333333332,-5.498166666666667,-5.498166666666667,-0.6127,-0.05499999999999994,-0.014777777777777779,-1.012,68.962,-0.0395,-0.22617500000000001,0.39200000000000124,100.0,1.0,1.0,212.76666666666665,0.0,0.0,0.0,0.0,0.0,0.0,0.0,9018.4,0.0,55.0,5.0,248.23666666666668,1.0,0.0,0.0,0.0,0.0,0.0,0.0,0.0,1.2540000000000013,1.2540000000000013,0.0,0.0,1.0,55.0,616.79921,10000.0,85.000001,85.000001,85.000001,85.000001,395.0,0.0,0.0,0.0,1.0,166.665,51.834,51.834,47.943,47.943,34.0,-28.115000000000002,23.25,-29.099999999999998,25.733333333333334,0.0,1782.333,0.045000000000001705,100.0,28.274,28.072,43.403,43.03,0.0,0.0,100.0,0.0,0.0,0.0,0.0,3349.285714285714,3186.3,3990.375,3994.5,304.921,304.6325,315.22425,314.99425,21.9958,20.6454,22.0365,21.5195,314.999998,314.999998,324.999988,324.999988,99.5582,99.5075,99.56914285714285,99.54815714285715,0.03925000000000001,-0.09499999999999997,-0.147,0.07816666666666668,-0.045000000000001705,-0.05333333333332746,1.5705,1.575,38.474000000000004,30.034,38.727999999999994,35.4965,55.641999999999996,35.4015,60.1265,52.917,53.598,34.5285,58.6885,51.2265,52.759,34.083,58.582,50.625,-0.07599999999999996,-0.08750000000000013,0.095255,0.11180000000000001,0.0,215.91,215.865,212.76666666666665,212.76666666666665,0.0,0.0
26,0.0,0.0,0.0,1.0,1.0,0.0,0.0,1.0,0.0,100.0,1.0,1.1856,26.0,0.0,0.0,0.0,59.999996,0.0,26.0,26.0,26.0,26.0,-0.060875,0.27649999999999997,0.0819,291.138,-2.68285,-2.741777777777778,-1.6061,-1.5605,-187.95999999999998,215.87,190.430875,0.0,0.0,0.0,0.0,0.05259999999999998,-5.498166666666667,-5.498166666666667,-0.5724,0.735,-0.02911111111111131,0.792,69.099,-0.036000000000000004,-0.197975,0.24799999999999933,100.0,1.0,1.0,212.91333333333333,0.0,0.0,0.0,0.0,0.0,0.0,0.0,9024.5,0.0,55.0,5.0,248.72666666666666,0.0,0.0,0.0,0.0,0.0,0.0,0.0,0.0,1.3049999999999997,1.3049999999999997,0.0,0.0,0.0,55.0,616.79921,10000.0,85.000001,85.000001,85.000001,85.000001,395.0,0.0,0.0,0.0,1.0,166.665,51.346000000000004,51.346000000000004,46.234,46.234,34.0,-25.3075,23.674,-35.5,30.046666666666667,0.0,1782.283,-0.14000000000000057,100.0,29.272,28.59,43.956,43.369,0.0,0.0,100.0,0.0,0.0,0.0,0.0,3190.5714285714284,3116.0,4556.875,4515.5,305.0655,304.8845,313.83025,313.7695,22.0054,20.6512,22.0471,21.5287,314.999998,314.999998,324.999988,324.999988,99.55821428571429,99.5075,99.5693,99.5483,0.06550000000000011,-0.08699999999999997,-0.14466666666666667,0.07416666666666667,-0.041666666666671404,-0.07166666666666544,1.438,1.448,38.534,30.07,38.794,35.5545,55.632,35.445,60.166,52.979,53.588,34.5685,58.726,51.286,52.748000000000005,34.121,58.616,50.683,-0.09550000000000003,-0.07550000000000012,0.10519,0.10111500000000001,0.0,216.365,216.34,212.91333333333333,212.91333333333333,0.0,0.0
27,0.0,0.0,0.0,1.0,1.0,0.0,0.0,1.0,0.0,100.0,1.0,1.1856,26.0,0.0,0.0,0.0,59.999996,0.0,26.0,26.0,26.0,26.0,-0.023,0.24930000000000008,-0.016900000000000002,291.611,-2.65555,-2.705888888888889,-1.5994000000000002,-1.6308,-184.64,215.85500000000002,190.407875,0.0,0.0,0.0,0.0,0.05453333333333332,-5.498166666666667,-5.498166666666667,-0.597,-1.0423333333333331,-0.024666666666666615,0.8320000000000001,69.223,-0.026600000000000002,-0.243575,0.08200000000000074,100.0,1.0,1.0,213.40666666666667,0.0,0.0,0.0,0.0,0.0,0.0,0.0,9045.5,0.0,55.0,5.0,249.17666666666668,1.0,0.0,0.0,0.0,0.0,0.0,0.0,0.0,1.352999999999998,1.352999999999998,0.0,0.0,1.0,55.0,616.79921,10000.0,85.000001,85.000001,85.000001,85.000001,395.0,0.0,0.0,0.0,1.0,333.33500000000004,51.772999999999996,51.772999999999996,46.631,46.631,34.0,-23.8925,24.292,-30.106666666666666,28.92,0.0,1782.233,-0.19000000000000128,100.0,28.909,28.358,44.566,43.998000000000005,0.0,0.0,100.0,0.0,0.0,0.0,0.0,3083.714285714286,3160.5,4111.25,4098.3,305.3965,304.862,314.8145,314.66275,22.0142,20.6564,22.0572,21.5375,314.999998,314.999998,324.999988,324.999988,99.55821428571429,99.50751666666666,99.56944285714286,99.54844285714286,0.06974999999999998,-0.07099999999999995,-0.1245,0.0985,-0.04333333333332945,-0.05666666666667197,1.494,1.494,38.589,30.1025,38.857,35.6095,55.619,35.4825,60.204,53.0375,53.576,34.603,58.760999999999996,51.342,52.733999999999995,34.153999999999996,58.6485,50.738,-0.09399999999999997,-0.0685,0.10255,0.11164500000000001,0.0,216.68,216.66500000000002,213.40666666666667,213.40666666666667,0.0,0.0
28,0.0,0.0,0.0,1.0,1.0,0.0,0.0,1.0,0.0,100.0,1.0,1.1856,26.0,0.0,0.0,0.0,59.999996,0.0,26.0,26.0,26.0,26.0,-0.0063750000000000005,0.2623,-0.05625,291.931,-2.68305,-2.691222222222222,-1.5550000000000002,-1.5861,-181.1,215.8375,190.3825,0.0,0.0,0.0,0.0,0.05656666666666654,-5.498166666666667,-5.498166666666667,-0.6023000000000001,0.6553333333333333,-0.0257777777777779,-0.447,69.35300000000001,-0.0183,-0.218125,0.04800000000000004,100.0,1.0,1.0,213.92666666666668,0.0,0.0,0.0,0.0,0.0,0.0,0.0,9067.6,0.0,55.0,5.0,249.64333333333335,0.0,0.0,0.0,0.0,0.0,0.0,0.0,0.0,1.404,1.404,0.0,0.0,0.0,55.0,616.79921,10000.0,85.000001,85.000001,85.000001,85.000001,395.0,0.0,0.0,0.0,1.0,333.33500000000004,51.727,51.727,47.653,47.653,34.0,-25.465,23.619999999999997,-29.186666666666664,27.716666666666665,0.0,1782.182,-0.3299999999999983,100.0,28.761,28.464,43.730000000000004,43.582,0.0,0.0,100.0,0.0,0.0,0.0,0.0,3275.285714285714,3033.7,4045.375,4105.3,305.0355,305.036,315.095,314.7275,22.023699999999998,20.662,22.0674,21.5465,314.999998,314.999998,324.999988,324.999988,99.55822857142857,99.50753333333333,99.56958571428571,99.54858571428572,0.07325000000000026,-0.06299999999999994,-0.137,0.09216666666666667,-0.045000000000001705,-0.036666666666668846,1.539,1.549,38.647999999999996,30.1375,38.922,35.666,55.608000000000004,35.522999999999996,60.2365,53.095,53.565,34.64,58.7915,51.3975,52.723,34.189499999999995,58.6755,50.792,-0.10599999999999998,-0.05600000000000005,0.11179000000000001,0.10631000000000002,0.0,217.13,217.10000000000002,213.92666666666668,213.92666666666668,0.0,0.0
29,0.0,0.0,0.0,1.0,1.0,0.0,0.0,1.0,0.0,100.0,1.0,1.1856,26.0,0.0,0.0,0.0,59.999996,0.0,26.0,26.0,26.0,26.0,0.002375,0.2573000000000001,0.019200000000000002,291.641,-2.6471999999999998,-2.7284444444444444,-1.5601,-1.5628000000000002,-177.35,215.8175,190.3545,0.0,0.0,0.0,0.0,0.05876666666666652,-5.498166666666667,-5.498166666666667,-0.6072000000000001,-0.7376666666666667,-0.01622222222222236,-0.597,69.495,-0.0043,-0.21887500000000001,-0.2060000000000004,100.0,1.0,1.0,214.19333333333333,0.0,0.0,0.0,0.0,0.0,0.0,0.0,9078.8,0.0,55.0,5.0,250.15666666666667,1.0,0.0,0.0,0.0,0.0,0.0,0.0,0.0,1.4579999999999984,1.4579999999999984,0.0,0.0,1.0,55.0,616.79921,10000.0,85.000001,85.000001,85.000001,85.000001,395.0,0.0,0.0,0.0,1.0,166.665,51.926,51.926,46.722,46.722,34.0,-24.1775,24.578,-29.466666666666665,29.53,0.0,1782.13,-0.33999999999999986,100.0,28.374,28.389,44.073,43.966,0.0,0.0,100.0,0.0,0.0,0.0,0.0,3222.4285714285716,3063.1,4198.25,4226.8,305.212,304.8925,314.663,314.3415,22.0335,20.6679,22.0787,21.5564,314.999998,314.999998,324.999988,324.999988,99.55824285714286,99.50753333333333,99.56974285714286,99.54874285714286,0.08325000000000005,-0.05600000000000005,-0.10916666666666668,0.105,-0.03333333333333144,-0.05333333333332746,1.49,1.4695,38.709,30.174500000000002,38.992000000000004,35.7275,55.593,35.5635,60.278,53.1605,53.551,34.6775,58.83,51.460499999999996,52.708,34.2255,58.711,50.85333333333333,-0.10999999999999999,-0.052000000000000046,0.102455,0.10684500000000001,0.0,217.51,217.54500000000002,214.19333333333333,214.19333333333333,0.0,0.0
30,0.0,0.0,0.0,1.0,1.0,0.0,0.0,1.0,0.0,100.0,1.0,1.1856,26.0,0.0,0.0,0.0,59.999996,0.0,26.0,26.0,26.0,26.0,0.010625,0.27080000000000015,0.069925,291.153,-2.70165,-2.617222222222222,-1.5378,-1.6146,-174.22,215.8025,190.33125,0.0,0.0,0.0,0.0,0.060566666666666547,-5.498166666666667,-5.498166666666667,-0.6054,0.7613333333333333,-0.01188888888888906,0.684,69.60900000000001,0.0053,-0.219475,-0.23599999999999977,100.0,1.0,1.0,214.60333333333335,0.0,0.0,0.0,0.0,0.0,0.0,0.0,9096.2,0.0,55.0,5.0,250.56666666666666,0.0,0.0,0.0,0.0,0.0,0.0,1.0,0.0,1.5030000000000001,1.5030000000000001,0.0,0.0,0.0,55.0,616.79921,10000.0,85.000001,85.000001,85.000001,85.000001,395.0,0.0,0.0,0.0,1.0,333.33500000000004,50.735,50.735,47.058,47.058,34.0,-25.0775,25.588,-27.86,31.886666666666667,0.0,1782.083,-0.379999999999999,100.0,29.29,28.95,43.86,43.856,0.0,0.0,100.0,0.0,0.0,0.0,0.0,3330.857142857143,3259.9,4167.75,4255.3,304.669,304.44125,314.746,314.32,22.0419,20.6731,22.0878,21.5646,314.999998,314.999998,324.999988,324.999988,99.55825714285714,99.50755,99.56987142857143,99.54887142857143,0.10199999999999987,-0.046333333333333115,-0.0915,0.1335,-0.03499999999999659,-0.060000000000002274,1.5145,1.4885,38.762,30.207,39.049,35.7785,55.586,35.601,60.308,53.214,53.544,34.712,58.858000000000004,51.5115,52.7,34.2585,58.736,50.903666666666666,-0.11499999999999999,-0.05600000000000005,0.10050500000000001,0.11423000000000001,0.0,217.9,217.93,214.60333333333335,214.60333333333335,0.0,0.0
31,0.0,0.0,0.0,1.0,1.0,0.0,0.0,1.0,0.0,100.0,1.0,1.1856,26.0,0.0,0.0,0.0,59.999996,0.0,26.0,26.0,26.0,26.0,0.004875,0.246,0.00915,290.97,-2.76865,-2.5940000000000003,-1.5862,-1.6054,-170.45999999999998,215.785,190.303875,0.0,0.0,0.0,0.0,0.06276666666666653,-5.498166666666667,-5.498166666666667,-0.5926,-0.6023333333333334,-0.0013333333333331865,0.671,69.749,0.014100000000000001,-0.224,-0.3719999999999999,100.0,1.0,1.0,214.93,0.0,0.0,0.0,0.0,0.0,0.0,0.0,9110.2,0.0,55.0,5.0,251.07333333333332,1.0,0.0,0.0,0.0,0.0,0.0,1.0,0.0,1.5569999999999986,1.5569999999999986,0.0,0.0,1.0,55.0,616.79921,10000.0,85.000001,85.000001,85.000001,85.000001,395.0,0.0,0.0,0.0,1.0,166.665,51.208,51.208,45.746,45.746,34.0,-23.19,26.954,-29.38,32.150000000000006,0.0,1782.03,-0.4549999999999983,100.0,28.990000000000002,28.962,44.527,44.532,0.0,0.0,100.0,0.0,0.0,0.0,0.0,3134.4285714285716,3369.0,4251.0,4292.9,305.4085,304.30925,314.44975,314.34025,22.0517,20.6792,22.0991,21.5746,314.999998,314.999998,324.999988,324.999988,99.55827142857143,99.50755,99.57002857142857,99.54902857142856,0.11649999999999983,-0.028000000000000025,-0.088,0.13383333333333333,-0.03833333333332689,-0.04999999999999716,1.468,1.4475,38.823,30.244999999999997,39.119,35.841,55.574,35.643,60.3495,53.281,53.533,34.751,58.897,51.576,52.687,34.296,58.7715,50.96666666666667,-0.12049999999999994,-0.04899999999999993,0.109215,0.10347500000000001,0.0,218.31,218.305,214.93,214.93,0.0,0.0
32,0.0,0.0,0.0,1.0,1.0,0.0,0.0,1.0,0.0,100.0,1.0,1.1856,26.0,0.0,0.0,0.0,59.999996,0.0,26.0,26.0,26.0,26.0,0.032375,0.26639999999999997,-0.013850000000000001,291.199,-2.677,-2.7007777777777777,-1.6503999999999999,-1.5171000000000001,-166.89999999999998,215.76749999999998,190.27825,0.0,0.0,0.0,0.0,0.0648333333333333,-5.498166666666667,-5.498166666666667,-0.6067,0.012333333333333307,-0.02911111111111131,-0.965,69.877,0.0219,-0.227525,-0.39200000000000035,100.0,1.0,1.0,215.40666666666667,0.0,0.0,0.0,0.0,0.0,0.0,0.0,9130.3,0.0,55.0,5.0,251.53,0.0,0.0,0.0,0.0,0.0,0.0,1.0,0.0,1.6080000000000005,1.6080000000000005,0.0,0.0,0.0,55.0,616.79921,10000.0,85.000001,85.000001,85.000001,85.000001,395.0,0.0,0.0,0.0,1.0,166.665,51.391999999999996,51.391999999999996,46.432,46.432,34.0,-23.375,25.302,-30.676666666666666,31.216666666666665,0.0,1781.979,-0.4250000000000007,100.0,28.857,29.107,44.135,44.413,0.0,0.0,100.0,0.0,0.0,0.0,0.0,3223.857142857143,3076.1,4315.0,4301.1,305.158,304.91275,314.5295,314.29975,22.0611,20.685,22.1095,21.5838,314.999998,314.999998,324.999988,324.999988,99.55828571428572,99.50756666666666,99.57017142857143,99.54918571428571,0.10924999999999985,-0.03400000000000003,-0.0935,0.14233333333333334,-0.03999999999999915,-0.054999999999999716,1.5025,1.4994999999999998,38.882,30.2815,39.184,35.8985,55.564,35.6825,60.3845,53.3405,53.522999999999996,34.7875,58.929,51.634,52.677,34.331,58.8005,51.022999999999996,-0.118,-0.04499999999999993,0.11155500000000002,0.106605,0.0,218.715,218.74,215.40666666666667,215.40666666666667,0.0,0.0
33,0.0,0.0,0.0,1.0,1.0,0.0,0.0,1.0,0.0,100.0,1.0,1.1856,26.0,0.0,0.0,0.0,59.999996,0.0,26.0,26.0,26.0,26.0,0.04775,0.26470000000000016,-0.031825,291.489,-2.72315,-2.684,-1.5872000000000002,-1.5955,-163.54,215.7525,190.253125,0.0,0.0,0.0,0.0,0.06679999999999997,-5.498166666666667,-5.498166666666667,-0.6162000000000001,-0.41766666666666685,-0.017555555555555546,0.124,69.999,0.027600000000000003,-0.2197,-0.3379999999999992,100.0,1.0,1.0,215.76666666666665,0.0,0.0,0.0,0.0,0.0,0.0,0.0,9145.6,0.0,55.0,5.0,251.97,1.0,0.0,0.0,0.0,0.0,0.0,1.0,0.0,1.6559999999999988,1.6559999999999988,0.0,0.0,1.0,55.0,616.79921,10000.0,85.000001,85.000001,85.000001,85.000001,395.0,0.0,0.0,0.0,1.0,166.665,51.772999999999996,51.772999999999996,46.738,46.738,34.0,-22.685,24.894,-28.509999999999998,31.336666666666666,0.0,1781.932,-0.4349999999999987,100.0,28.66,28.84,44.046,44.414,0.0,0.0,100.0,0.0,0.0,0.0,0.0,3153.5714285714284,3044.7,4163.25,4233.0,305.4105,305.04425,314.7695,314.38675,22.0697,20.6903,22.1193,21.5925,314.999998,314.999998,324.999988,324.999988,99.5583,99.50756666666666,99.57031428571429,99.54932857142857,0.12024999999999997,-0.032333333333333325,-0.09033333333333333,0.13166666666666665,-0.051666666666669414,-0.03833333333332689,1.502,1.488,38.936,30.314,39.245999999999995,35.953,55.554,35.717,60.417500000000004,53.3975,53.513,34.8195,58.96,51.6885,52.666,34.3615,58.828,51.07633333333334,-0.11949999999999994,-0.052999999999999936,0.10877,0.10443500000000001,0.0,219.085,219.085,215.76666666666665,215.76666666666665,0.0,0.0
34,0.0,0.0,0.0,1.0,1.0,0.0,0.0,1.0,0.0,100.0,1.0,1.1856,26.0,0.0,0.0,0.0,59.999996,0.0,26.0,26.0,26.0,26.0,0.051250000000000004,0.2610000000000001,-0.04795,291.718,-2.7493,-2.671111111111111,-1.6484,-1.552,-160.18,215.7375,190.226875,0.0,0.0,0.0,0.0,0.06873333333333331,-5.498166666666667,-5.498166666666667,-0.6451,-0.7853333333333332,0.013555555555555543,-0.214,70.12,0.0352,-0.22485000000000002,-0.3959999999999999,100.0,1.0,1.0,216.16,0.0,0.0,0.0,0.0,0.0,0.0,0.0,9162.2,0.0,55.0,5.0,252.40666666666667,0.0,0.0,0.0,0.0,0.0,0.0,1.0,0.0,1.7040000000000006,1.7040000000000006,0.0,0.0,0.0,55.0,616.79921,10000.0,85.000001,85.000001,85.000001,85.000001,395.0,0.0,0.0,0.0,1.0,333.33500000000004,52.016999999999996,52.016999999999996,47.302,47.302,34.0,-22.86,24.71,-28.31,30.650000000000002,0.0,1781.881,-0.40500000000000114,100.0,28.418,28.568,43.823,44.465,0.0,0.0,100.0,0.0,0.0,0.0,0.0,3124.5714285714284,3011.5,4074.5,4193.1,305.392,305.07025,315.036,314.4415,22.0783,20.6955,22.129,21.6013,314.999998,314.999998,324.999988,324.999988,99.55831428571429,99.50756666666666,99.57047142857142,99.54947142857142,0.11925000000000008,-0.028666666666666618,-0.08700000000000001,0.13783333333333334,-0.05833333333333002,-0.041666666666671404,1.5165,1.513,38.989000000000004,30.347,39.306,36.007999999999996,55.543,35.7535,60.4505,53.4585,53.501999999999995,34.8535,58.9905,51.7475,52.653999999999996,34.3935,58.8555,51.134,-0.11149999999999993,-0.0475000000000001,0.106395,0.10498,0.0,219.445,219.45499999999998,216.16,216.16,0.0,0.0
35,0.0,0.0,0.0,1.0,1.0,0.0,0.0,1.0,0.0,100.0,1.0,1.1856,26.0,0.0,0.0,0.0,59.999996,0.0,26.0,26.0,26.0,26.0,0.02825,0.25450000000000017,-0.054775000000000004,291.733,-2.72485,-2.6163333333333334,-1.6276000000000002,-1.512,-156.6,215.7225,190.197,0.0,0.0,0.0,0.0,0.0708333333333333,-5.498166666666667,-5.498166666666667,-0.6833,-0.3823333333333332,-0.0007777777777779882,0.077,70.247,0.0402,-0.23195000000000002,-0.4660000000000002,100.0,1.0,1.0,216.61666666666667,0.0,0.0,0.0,0.0,0.0,0.0,0.0,9181.5,0.0,55.0,5.0,252.86333333333334,1.0,0.0,0.0,0.0,0.0,0.0,1.0,0.0,1.754999999999999,1.754999999999999,0.0,0.0,1.0,55.0,616.79921,10000.0,85.000001,85.000001,85.000001,85.000001,395.0,0.0,0.0,0.0,1.0,333.33500000000004,51.59,51.59,46.86,46.86,34.0,-21.9375,28.18,-26.409999999999997,29.726666666666667,0.0,1781.831,-0.3249999999999993,100.0,28.357,28.725,43.677,43.955,0.0,0.0,100.0,0.0,0.0,0.0,0.0,3077.0,3410.2,4024.625,4022.1000000000004,305.5045,304.08375,315.04625,314.93775,22.0872,20.7013,22.1394,21.6104,314.999998,314.999998,324.999988,324.999988,99.55832857142858,99.50756666666666,99.57061428571429,99.54962857142857,0.12674999999999992,-0.01766666666666672,-0.06316666666666666,0.163,-0.03833333333332689,-0.046666666666666856,1.5525,1.5175,39.045,30.383499999999998,39.370999999999995,36.065,55.53,35.79,60.482,53.512,53.489999999999995,34.887,59.019999999999996,51.799,52.641,34.426,58.882,51.184333333333335,-0.10999999999999999,-0.05449999999999999,0.098845,0.10910500000000001,0.0,219.845,219.85500000000002,216.61666666666667,216.61666666666667,0.0,0.0
36,0.0,0.0,0.0,1.0,1.0,0.0,0.0,1.0,0.0,100.0,1.0,1.1856,26.0,0.0,0.0,0.0,59.999996,0.0,26.0,26.0,26.0,26.0,0.0385,0.262,0.056600000000000004,290.909,-2.65095,-2.6525555555555558,-1.578,-1.5489000000000002,-153.23,215.71,190.1675,0.0,0.0,0.0,0.0,0.07279999999999998,-5.498166666666667,-5.498166666666667,-0.6654,0.2806666666666666,-0.0385555555555559,0.097,70.369,0.038,-0.20375000000000001,-0.28000000000000025,100.0,1.0,1.0,216.7866666666667,0.0,0.0,0.0,0.0,0.0,0.0,0.0,9188.8,0.0,55.0,5.0,253.30333333333334,0.0,0.0,0.0,0.0,0.0,0.0,1.0,0.0,1.8030000000000008,1.8030000000000008,0.0,0.0,0.0,55.0,616.79921,10000.0,85.000001,85.000001,85.000001,85.000001,395.0,0.0,0.0,0.0,1.0,166.665,51.208,51.208,46.402,46.402,34.0,-22.075,27.2,-29.093333333333334,35.06666666666666,0.0,1781.784,-0.26500000000000057,100.0,28.913,28.921,43.786,44.141999999999996,0.0,0.0,100.0,0.0,0.0,0.0,0.0,3150.857142857143,3269.1,4375.0,4539.9,305.057,304.534,314.24775,313.72725,22.0958,20.7069,22.1492,21.6192,314.999998,314.999998,324.999988,324.999988,99.55834285714286,99.50758333333333,99.57075714285715,99.54977142857143,0.12749999999999995,-0.016666666666666607,-0.06716666666666667,0.15766666666666665,-0.03166666666666629,-0.05333333333332746,1.451,1.426,39.099000000000004,30.418,39.432,36.12,55.521,35.828,60.515,53.57,53.482,34.922,59.051,51.855000000000004,52.631,34.4595,58.9095,51.239,-0.10350000000000004,-0.06550000000000011,0.1082,0.10877,0.0,220.245,220.26999999999998,216.7866666666667,216.7866666666667,0.0,0.0
