,ABS Active,ABS Enabled,AID Allow Tire Blankets,AID Auto Blip,AID Auto Clutch,AID Auto Shift,AID Fuel Rate,AID Ideal Line,AID Mech Damage,AID Stability,AID Tire Wear Rate,Air Density,Air Temp,Ballast,Best Lap Delta,Best Lap Time,Brake Bias,Brake Pos,Brake Temp FL,Brake Temp FR,Brake Temp RL,Brake Temp RR,CG Accel Lateral,CG Accel Longitudinal,CG Accel Vertical,CG Height,Camber FL,Camber FR,Camber RL,Camber RR,Car Coord X,Car Coord Y,Car Coord Z,Car Damage Front,Car Damage Left,Car Damage Rear,Car Damage Right,Car Pos Norm,Caster FL,Caster FR,Chassis Pitch Angle,Chassis Pitch Rate,Chassis Roll Angle,Chassis Roll Rate,Chassis Velocity X,Chassis Velocity Y,Chassis Velocity Z,Chassis Yaw Rate,Clutch Pos,DRS Active,DRS Available,Drive Train Speed,ERS Heat Charging,ERS Is Charging,ERS Max Energy,ERS Power Level,ERS Recovery Level,Engine Brake Setting,Engine Limiter,Engine RPM,Flags,Fuel Level,Gear,Ground Speed,HR Sample Clock,In Pit,KERS Charge,KERS Deployed Energy,KERS Input,KERS Max Energy,LR Sample Clock,Lap Invalidated,Lap Time,Lap Time2,Last Lap Time,Last Sector Time,MR Sample Clock,Max Fuel,Max Power,Max RPM,Max Sus Travel FL,Max Sus Travel FR,Max Sus Travel RL,Max Sus Travel RR,Max Torque,Max Turbo Boost,Num Tires Off Track,Penalties Enabled,Position,Raw Data Sample Rate,Ride Height FL,Ride Height FR,Ride Height RL,Ride Height RR,Road Temp,Self Align Torque FL,Self Align Torque FR,Self Align Torque RL,Self Align Torque RR,Session Lap Count,Session Time Left,Steering Angle,Surface Grip,Suspension Travel FL,Suspension Travel FR,Suspension Travel RL,Suspension Travel RR,TC Active,TC Enabled,Throttle Pos,Tire Dirt Level FL,Tire Dirt Level FR,Tire Dirt Level RL,Tire Dirt Level RR,Tire Load FL,Tire Load FR,Tire Load RL,Tire Load RR,Tire Loaded Radius FL,Tire Loaded Radius FR,Tire Loaded Radius RL,Tire Loaded Radius RR,Tire Pressure FL,Tire Pressure FR,Tire Pressure RL,Tire Pressure RR,Tire Radius FL,Tire Radius FR,Tire Radius RL,Tire Radius RR,Tire Rubber Grip FL,Tire Rubber Grip FR,Tire Rubber Grip RL,Tire Rubber Grip RR,Tire Slip Angle FL,Tire Slip Angle FR,Tire Slip Angle RL,Tire Slip Angle RR,Tire Slip Ratio FL,Tire Slip Ratio FR,Tire Slip Ratio RL,Tire Slip Ratio RR,Tire Temp Core FL,Tire Temp Core FR,Tire Temp Core RL,Tire Temp Core RR,Tire Temp Inner FL,Tire Temp Inner FR,Tire Temp Inner RL,Tire Temp Inner RR,Tire Temp Middle FL,Tire Temp Middle FR,Tire Temp Middle RL,Tire Temp Middle RR,Tire Temp Outer FL,Tire Temp Outer FR,Tire Temp Outer RL,Tire Temp Outer RR,Toe In FL,Toe In FR,Toe In RL,Toe In RR,Turbo Boost,Wheel Angular Speed FL,Wheel Angular Speed FR,Wheel Angular Speed RL,Wheel Angular Speed RR,Wind Direction,Wind Speed
0,0.0,0.0,0.0,1.0,1.0,0.0,0.0,1.0,0.0,0.0,1.0,1.1856,26.0,0.0,0.0,0.0,59.99999,0.0,26.0,26.0,26.0,26.0,-0.07622222222222219,0.3199000000000001,0.025125,293.976,-2.7249,-2.6491249999999997,-1.5222,-1.5526,-275.52,216.28750000000002,190.986625,0.0,0.0,0.0,0.0,0.0016666666666666668,-5.498166666666667,-5.498166666666667,-0.5449,1.297,-0.004666666666666597,-1.443,65.494,-0.03399999999999992,-0.2106,1.0520000000000005,100.0,1.0,1.0,202.21666666666667,0.0,0.0,0.0,0.0,0.0,0.0,0.0,8571.3,0.0,55.0,5.0,235.74666666666667,0.0,0.0,0.0,0.0,0.0,0.0,0.0,0.0,0.006000000000000227,0.006000000000000227,0.0,0.0,0.0,55.0,616.79921,10000.0,85.0,85.0,85.0,85.0,395.0,0.0,0.0,0.0,1.0,20.0,52.75,52.75,49.408,49.408,34.0,-26.565,23.134,-30.346666666666664,24.1125,0.0,1783.698,0.8249999999999993,100.0,27.393,27.141,40.545,40.644999999999996,0.0,0.0,100.0,0.0,0.0,0.0,0.0,3008.285714285714,3344.4,4141.888888888889,3963.7,305.7555,304.09275,314.8195,314.913,21.795,20.5136,21.7659,21.311799999999998,314.99999,314.99999,324.99998,324.99998,99.5598,99.50723333333333,99.56487142857142,99.54514285714286,-0.006666666666666599,-0.1213333333333333,-0.15516666666666656,0.05233333333333334,-0.03833333333332689,-0.060000000000002274,1.5396666666666667,1.564,37.219,29.21,37.037,34.199,56.585,34.513999999999996,58.9555,51.582,54.479,33.6725,57.586,49.943,53.635,33.223,57.55,49.36933333333333,-0.013499999999999956,-0.13749999999999996,0.10441,0.10966000000000001,0.0,205.26,205.17000000000002,202.21666666666667,202.21666666666667,0.0,0.0
1,0.0,0.0,0.0,1.0,1.0,0.0,0.0,1.0,0.0,0.0,1.0,1.1856,26.0,0.0,0.0,0.0,59.999996,0.0,26.0,26.0,26.0,26.0,-0.11577777777777776,0.30100000000000016,-0.016550000000000002,293.045,-2.63685,-2.763625,-1.5256,-1.5486,-272.18,216.2825,190.9665,0.0,0.0,0.0,0.0,0.003633333333333334,-5.498166666666667,-5.498166666666667,-0.5014000000000001,-0.677,-0.052999999999999936,-0.23199999999999998,65.649,-0.0512999999999999,-0.202025,1.37,100.0,1.0,1.0,202.37666666666667,0.0,0.0,0.0,0.0,0.0,0.0,0.0,8578.0,0.0,55.0,5.0,236.30333333333334,1.0,0.0,0.0,0.0,0.0,0.0,0.0,0.0,0.05699999999999861,0.05699999999999861,0.0,0.0,1.0,55.0,616.79921,10000.0,85.000001,85.000001,85.000001,85.000001,395.0,0.0,0.0,0.0,1.0,111.11,53.482,53.482,48.400999999999996,48.400999999999996,34.0,-26.485,18.387999999999998,-34.55666666666667,29.28,0.0,1783.648,0.8850000000000016,100.0,27.701999999999998,27.051000000000002,42.537,41.713,0.0,0.0,100.0,0.0,0.0,0.0,0.0,3048.0,2718.0,4323.222222222223,4700.7,305.4735,306.19175,314.205,313.15025,21.8049,20.5187,21.776699999999998,21.3209,314.999998,314.999998,324.999988,324.999988,99.5598,99.50725,99.56501428571428,99.54528571428571,-0.007333333333333192,-0.13666666666666671,-0.1855,0.04266666666666685,-0.07833333333332604,-0.03833333333332689,1.4026666666666667,1.478,37.281,29.241999999999997,37.104,34.256,56.568,34.5545,59.001,51.647,54.462,33.7095,57.629,50.0055,53.617999999999995,33.259,57.59,49.43066666666667,-0.0050000000000000044,-0.14600000000000013,0.10623500000000001,0.10190500000000001,0.0,205.71,205.57999999999998,202.37666666666667,202.37666666666667,0.0,0.0
2,0.0,0.0,0.0,1.0,1.0,0.0,0.0,1.0,0.0,0.0,1.0,1.1856,26.0,0.0,0.0,0.0,59.999996,0.0,26.0,26.0,26.0,26.0,-0.13088888888888894,0.28869999999999996,-0.031200000000000002,293.73199999999997,-2.60865,-2.787375,-1.492,-1.6036000000000001,-268.83,216.275,190.94775,0.0,0.0,0.0,0.0,0.005566666666666667,-5.498166666666667,-5.498166666666667,-0.5517000000000001,0.16749999999999998,-0.04355555555555579,1.661,65.791,-0.07119999999999993,-0.2554,1.5979999999999999,100.0,1.0,1.0,203.29000000000002,0.0,0.0,0.0,0.0,0.0,0.0,0.0,8616.7,0.0,55.0,5.0,236.82,0.0,0.0,0.0,0.0,0.0,0.0,0.0,0.0,0.10800000000000054,0.10800000000000054,0.0,0.0,0.0,55.0,616.79921,10000.0,85.000001,85.000001,85.000001,85.000001,395.0,0.0,0.0,0.0,1.0,166.665,52.383,52.383,50.293,50.293,34.0,-30.5425,19.715999999999998,-29.419999999999998,20.490000000000002,0.0,1783.596,0.6799999999999997,100.0,28.301000000000002,27.093,42.383,41.318,0.0,0.0,100.0,0.0,0.0,0.0,0.0,3375.142857142857,2931.0,3745.222222222222,3698.1,304.5635,305.451,315.66825,315.7285,21.8152,20.523699999999998,21.7872,21.3296,314.999998,314.999998,324.999988,324.999988,99.55981428571428,99.50726666666667,99.56515714285715,99.54541428571429,-0.03133333333333321,-0.15300000000000002,-0.22550000000000003,0.014833333333333476,-0.04999999999999716,-0.05833333333333002,1.6219999999999999,1.695,37.345,29.273,37.17,34.3105,56.555,34.594,59.039500000000004,51.7035,54.45,33.746,57.665,50.0595,53.605000000000004,33.294,57.623,49.483666666666664,-0.015000000000000013,-0.13250000000000006,0.108865,0.108365,0.0,206.14499999999998,206.005,203.29000000000002,203.29000000000002,0.0,0.0
3,0.0,0.0,0.0,1.0,1.0,0.0,0.0,1.0,0.0,0.0,1.0,1.1856,26.0,0.0,0.0,0.0,59.999996,0.0,26.0,26.0,26.0,26.0,-0.13388888888888895,0.31330000000000013,0.08017500000000001,293.503,-2.72735,-2.69475,-1.5104000000000002,-1.5929,-265.47,216.2625,190.928,0.0,0.0,0.0,0.0,0.007533333333333333,-5.498166666666667,-5.498166666666667,-0.5097,0.10799999999999998,-0.011111111111111072,-0.017000000000000015,65.944,-0.08679999999999999,-0.199825,1.2039999999999997,100.0,1.0,1.0,203.43666666666667,0.0,0.0,0.0,0.0,0.0,0.0,0.0,8622.9,0.0,55.0,5.0,237.36333333333334,1.0,0.0,0.0,0.0,0.0,0.0,0.0,0.0,0.15899999999999892,0.15899999999999892,0.0,0.0,1.0,55.0,616.79921,10000.0,85.000001,85.000001,85.000001,85.000001,395.0,0.0,0.0,0.0,1.0,166.665,53.665,53.665,48.157,48.157,34.0,-25.2975,18.406,-34.78,25.085,0.0,1783.544,0.620000000000001,100.0,27.875,26.882,42.456,41.383,0.0,0.0,100.0,0.0,0.0,0.0,0.0,2826.857142857143,2880.3,4275.444444444444,4274.1,306.188,305.6855,314.35225,314.26025,21.825,20.5289,21.7976,21.3386,314.999998,314.999998,324.999988,324.999988,99.55981428571428,99.50728333333333,99.5653,99.54555714285715,-0.01766666666666672,-0.15399999999999991,-0.2101666666666666,0.017333333333333423,-0.03999999999999915,-0.05666666666667197,1.4809999999999999,1.5350000000000001,37.406,29.305500000000002,37.235,34.366,56.537,34.635999999999996,59.079499999999996,51.7665,54.433,33.785,57.702,50.12,53.588,33.331,57.6575,49.543,-0.02849999999999997,-0.12450000000000006,0.10948500000000001,0.10682000000000001,0.0,206.60500000000002,206.53,203.43666666666667,203.43666666666667,0.0,0.0
4,0.0,0.0,0.0,1.0,1.0,0.0,0.0,1.0,0.0,0.0,1.0,1.1856,26.0,0.0,0.0,0.0,59.999996,0.0,26.0,26.0,26.0,26.0,-0.13222222222222213,0.2896000000000001,-0.008925,293.716,-2.65745,-2.74525,-1.5215,-1.6018,-262.1,216.2475,190.90825,0.0,0.0,0.0,0.0,0.0095,-5.498166666666667,-5.498166666666667,-0.5475,-0.5955000000000001,-0.08333333333333348,-1.54,66.089,-0.08709999999999996,-0.239175,1.2020000000000008,100.0,1.0,1.0,204.06,0.0,0.0,0.0,0.0,0.0,0.0,0.0,8649.3,0.0,55.0,5.0,237.89,0.0,0.0,0.0,0.0,0.0,0.0,0.0,0.0,0.21000000000000085,0.21000000000000085,0.0,0.0,0.0,55.0,616.79921,10000.0,85.000001,85.000001,85.000001,85.000001,395.0,0.0,0.0,0.0,1.0,166.665,52.994,52.994,49.042,49.042,34.0,-30.1325,19.162,-32.333333333333336,20.795,0.0,1783.493,0.5949999999999989,100.0,27.666,26.863,42.705,41.36,0.0,0.0,100.0,0.0,0.0,0.0,0.0,3335.4285714285716,2885.3,4061.4444444444443,3654.3,304.8515,305.49375,314.9215,315.72925,21.8348,20.534,21.8082,21.3474,314.999998,314.999998,324.999988,324.999988,99.55982857142857,99.5073,99.56544285714286,99.5457,-0.02633333333333332,-0.15133333333333332,-0.2111666666666666,0.020000000000000018,-0.060000000000002274,-0.02833333333332888,1.5816666666666666,1.611,37.467,29.3375,37.301,34.421,56.519,34.6775,59.1215,51.8245,54.416,33.823,57.7415,50.1755,53.57,33.3675,57.694,49.59733333333333,-0.026000000000000023,-0.11850000000000005,0.10380500000000001,0.10759,0.0,207.03,206.935,204.06,204.06,0.0,0.0
5,0.0,0.0,0.0,1.0,1.0,0.0,0.0,1.0,0.0,0.0,1.0,1.1856,26.0,0.0,0.0,0.0,59.999996,0.0,26.0,26.0,26.0,26.0,-0.13722222222222213,0.3033000000000001,0.006525,293.61,-2.67185,-2.76675,-1.5110000000000001,-1.5838,-258.73,216.23000000000002,190.887875,0.0,0.0,0.0,0.0,0.011466666666666668,-5.498166666666667,-5.498166666666667,-0.5346000000000001,0.366,-0.0778888888888889,1.214,66.237,-0.08979999999999999,-0.2124,0.976,100.0,1.0,1.0,204.41333333333333,0.0,0.0,0.0,0.0,0.0,0.0,0.0,8664.3,0.0,55.0,5.0,238.42000000000002,1.0,0.0,0.0,0.0,0.0,0.0,0.0,0.0,0.26099999999999923,0.26099999999999923,0.0,0.0,1.0,55.0,616.79921,10000.0,85.000001,85.000001,85.000001,85.000001,395.0,0.0,0.0,0.0,1.0,166.665,53.467,53.467,48.92,48.92,34.0,-27.244999999999997,20.144000000000002,-33.486666666666665,23.89,0.0,1783.442,0.17999999999999972,100.0,27.891,26.572,42.6,41.093,0.0,0.0,100.0,0.0,0.0,0.0,0.0,3096.857142857143,2873.6,4168.333333333333,4133.8,305.345,305.759,314.66875,314.6385,21.8448,20.5391,21.8187,21.3561,314.999998,314.999998,324.999988,324.999988,99.55982857142857,99.50731666666667,99.56558571428572,99.54584285714286,-0.006000000000000005,-0.123,-0.21183333333333332,0.016833333333333478,-0.026666666666670835,-0.04833333333333201,1.5336666666666667,1.543,37.53,29.369,37.367000000000004,34.4755,56.504000000000005,34.7175,59.161500000000004,51.882999999999996,54.402,33.86,57.778999999999996,50.2315,53.555,33.403,57.729,49.652,-0.05499999999999994,-0.08400000000000007,0.11260500000000001,0.111615,0.0,207.51999999999998,207.44,204.41333333333333,204.41333333333333,0.0,0.0
6,0.0,0.0,0.0,1.0,1.0,0.0,0.0,1.0,0.0,0.0,1.0,1.1856,26.0,0.0,0.0,0.0,59.999996,0.0,26.0,26.0,26.0,26.0,-0.1143333333333334,0.2922,-0.0066,293.472,-2.63955,-2.794,-1.5528,-1.5823,-255.74,216.21,190.86975,0.0,0.0,0.0,0.0,0.0132,-5.498166666666667,-5.498166666666667,-0.5318,0.05799999999999994,-0.0645555555555557,-0.504,66.366,-0.08389999999999997,-0.21575,0.774,100.0,1.0,1.0,204.81333333333333,0.0,0.0,0.0,0.0,0.0,0.0,0.0,8681.3,0.0,55.0,5.0,238.89,0.0,0.0,0.0,0.0,0.0,0.0,0.0,0.0,0.30600000000000094,0.30600000000000094,0.0,0.0,0.0,55.0,616.79921,10000.0,85.000001,85.000001,85.000001,85.000001,395.0,0.0,0.0,0.0,1.0,166.665,53.146,53.146,48.782,48.782,34.0,-27.47,20.456,-33.489999999999995,23.02,0.0,1783.398,0.010000000000001563,100.0,27.685,26.872,42.613,41.516,0.0,0.0,100.0,0.0,0.0,0.0,0.0,3206.285714285714,2873.8,4131.888888888889,3991.9,305.1555,305.47725,314.81375,314.90525,21.8536,20.5436,21.8279,21.364,314.999998,314.999998,324.999988,324.999988,99.55982857142857,99.50731666666667,99.56571428571428,99.54595714285715,0.003666666666666707,-0.1286666666666667,-0.20883333333333332,0.019166666666666554,-0.060000000000002274,-0.05333333333332746,1.528,1.5625,37.585,29.3975,37.425,34.525,56.489999999999995,34.753,59.1975,51.937,54.388,33.8925,57.8125,50.283500000000004,53.541,33.434,57.76,49.702666666666666,-0.07399999999999995,-0.07600000000000007,0.10380500000000001,0.10736000000000001,0.0,207.91500000000002,207.835,204.81333333333333,204.81333333333333,0.0,0.0
7,0.0,0.0,0.0,1.0,1.0,0.0,0.0,1.0,0.0,0.0,1.0,1.1856,26.0,0.0,0.0,0.0,59.999996,0.0,26.0,26.0,26.0,26.0,-0.08377777777777784,0.2923,0.048425,293.243,-2.61045,-2.733375,-1.5127000000000002,-1.6237,-252.36,216.1875,190.849375,0.0,0.0,0.0,0.0,0.015166666666666667,-5.498166666666667,-5.498166666666667,-0.5354,0.04749999999999999,-0.04899999999999993,1.137,66.512,-0.0675,-0.22460000000000002,0.34799999999999986,100.0,1.0,1.0,205.24333333333334,0.0,0.0,0.0,0.0,0.0,0.0,0.0,8699.5,0.0,55.0,5.0,239.41333333333333,1.0,0.0,0.0,0.0,0.0,0.0,0.0,0.0,0.3569999999999993,0.3569999999999993,0.0,0.0,1.0,55.0,616.79921,10000.0,85.000001,85.000001,85.000001,85.000001,395.0,0.0,0.0,0.0,1.0,111.11,52.795,52.795,48.874,48.874,34.0,-25.6875,22.494,-30.356666666666666,25.54,0.0,1783.348,-0.19500000000000028,100.0,27.957,26.815,42.737,41.681,0.0,0.0,100.0,0.0,0.0,0.0,0.0,3174.5714285714284,3045.8,4027.0,4087.4,305.0095,305.132,314.95875,314.68425,21.8635,20.5488,21.8384,21.373,314.999998,314.999998,324.999988,324.999988,99.55982857142857,99.50733333333334,99.56587142857143,99.5461,0.03866666666666685,-0.09599999999999986,-0.17299999999999993,0.04249999999999998,-0.046666666666666856,-0.06333333333333258,1.5323333333333333,1.539,37.647,29.43,37.489999999999995,34.581,56.474000000000004,34.792500000000004,59.2375,51.998,54.373000000000005,33.929,57.85,50.342,53.525,33.469,57.7945,49.76,-0.09350000000000003,-0.05899999999999994,0.10133500000000001,0.10384,0.0,208.34,208.3,205.24333333333334,205.24333333333334,0.0,0.0
8,0.0,0.0,0.0,1.0,1.0,0.0,0.0,1.0,0.0,0.0,1.0,1.1856,26.0,0.0,0.0,0.0,59.999996,0.0,26.0,26.0,26.0,26.0,-0.037555555555555564,0.2874000000000001,0.0309,293.51800000000003,-2.6949,-2.72375,-1.4969999999999999,-1.5766,-248.76,216.16,190.8275,0.0,0.0,0.0,0.0,0.017233333333333337,-5.498166666666667,-5.498166666666667,-0.5383,-0.6525000000000001,-0.03255555555555567,0.692,66.666,-0.04619999999999991,-0.21685000000000001,-0.06400000000000006,100.0,1.0,1.0,205.67000000000002,0.0,0.0,0.0,0.0,0.0,0.0,0.0,8717.6,0.0,55.0,5.0,239.97,0.0,0.0,0.0,0.0,0.0,0.0,0.0,0.0,0.41100000000000136,0.41100000000000136,0.0,0.0,0.0,55.0,616.79921,10000.0,85.000001,85.000001,85.000001,85.000001,395.0,0.0,0.0,0.0,1.0,166.665,53.589,53.589,48.309,48.309,34.0,-23.7575,23.07,-29.34,27.052500000000002,0.0,1783.292,-0.3500000000000014,100.0,27.457,26.754,42.735,41.84,0.0,0.0,100.0,0.0,0.0,0.0,0.0,2964.285714285714,3024.3,4066.6666666666665,4117.8,305.8695,305.29,314.82875,314.59925,21.8738,20.5543,21.8496,21.3824,314.999998,314.999998,324.999988,324.999988,99.55984285714285,99.50735,99.56601428571429,99.54625714285714,0.04899999999999993,-0.07299999999999995,-0.14683333333333337,0.07816666666666672,-0.04999999999999716,-0.06333333333333258,1.5150000000000001,1.5235,37.711,29.4645,37.56,34.64,56.456,34.832499999999996,59.2795,52.0625,54.355999999999995,33.966,57.8895,50.4035,53.507,33.5045,57.8305,49.82033333333334,-0.09950000000000003,-0.04200000000000004,0.107505,0.11104000000000001,0.0,208.8,208.79500000000002,205.67000000000002,205.67000000000002,0.0,0.0
9,0.0,0.0,0.0,1.0,1.0,0.0,0.0,1.0,0.0,0.0,1.0,1.1856,26.0,0.0,0.0,0.0,59.999996,0.0,26.0,26.0,26.0,26.0,-0.016111111111111076,0.29390000000000005,-0.018125000000000002,293.137,-2.6874000000000002,-2.7186250000000003,-1.5544,-1.5537,-245.76,216.135,190.808875,0.0,0.0,0.0,0.0,0.019,-5.498166666666667,-5.498166666666667,-0.5423,0.6645,-0.034222222222222154,-0.379,66.792,-0.028999999999999915,-0.2175,-0.09799999999999986,100.0,1.0,1.0,206.16,0.0,0.0,0.0,0.0,0.0,0.0,0.0,8738.3,0.0,55.0,5.0,240.42000000000002,1.0,0.0,0.0,0.0,0.0,0.0,0.0,0.0,0.4559999999999995,0.4559999999999995,0.0,0.0,1.0,55.0,616.79921,10000.0,85.000001,85.000001,85.000001,85.000001,395.0,0.0,0.0,0.0,1.0,111.11,52.368,52.368,49.194,49.194,34.0,-26.65,23.772,-28.473333333333333,26.330000000000002,0.0,1783.249,-0.5150000000000006,100.0,27.857,27.348,42.345,41.932,0.0,0.0,100.0,0.0,0.0,0.0,0.0,3377.285714285714,3007.0,3992.222222222222,4031.9,304.671,305.0835,315.169,314.833,21.8826,20.5591,21.8587,21.3903,314.999998,314.999998,324.999988,324.999988,99.55984285714285,99.50735,99.56614285714285,99.54638571428572,0.06833333333333336,-0.05800000000000005,-0.13816666666666666,0.08833333333333337,-0.045000000000001705,-0.054999999999999716,1.5923333333333334,1.5815000000000001,37.766,29.494,37.617000000000004,34.689,56.444,34.8675,59.312,52.1145,54.344,33.998,57.9195,50.454,53.495000000000005,33.535,57.858000000000004,49.86933333333333,-0.11249999999999993,-0.03649999999999998,0.09897,0.111085,0.0,209.19,209.20499999999998,206.16,206.16,0.0,0.0
10,0.0,0.0,0.0,1.0,1.0,0.0,0.0,1.0,0.0,0.0,1.0,1.1856,26.0,0.0,0.0,0.0,59.999996,0.0,26.0,26.0,26.0,26.0,0.016000000000000014,0.2861,-0.040400000000000005,293.045,-2.7058,-2.700625,-1.5399,-1.5448,-242.15,216.10750000000002,190.786875,0.0,0.0,0.0,0.0,0.0211,-5.498166666666667,-5.498166666666667,-0.5204,-0.6134999999999999,0.010444444444444256,0.31699999999999995,66.947,-0.010199999999999987,-0.20975000000000002,-0.4560000000000004,100.0,1.0,1.0,206.43333333333334,0.0,0.0,0.0,0.0,0.0,0.0,0.0,8749.9,0.0,55.0,5.0,240.98000000000002,0.0,0.0,0.0,0.0,0.0,0.0,1.0,0.0,0.509999999999998,0.509999999999998,0.0,0.0,0.0,55.0,616.79921,10000.0,85.000001,85.000001,85.000001,85.000001,395.0,0.0,0.0,0.0,1.0,166.665,53.543,53.543,47.668,47.668,34.0,-21.1875,22.988,-30.43,29.3475,0.0,1783.194,-0.634999999999998,100.0,27.648,27.32,42.815,42.766999999999996,0.0,0.0,100.0,0.0,0.0,0.0,0.0,2872.857142857143,2874.4,4272.666666666667,4241.9,306.189,305.5475,314.43075,314.2325,21.8929,20.5647,21.8699,21.4,314.999998,314.999998,324.999988,324.999988,99.55985714285714,99.50736666666667,99.56628571428571,99.54652857142857,0.09399999999999986,-0.04166666666666674,-0.12166666666666659,0.10650000000000004,-0.03999999999999915,-0.030000000000001137,1.484,1.489,37.831,29.529,37.687,34.7495,56.429,34.906,59.3555,52.1825,54.33,34.033500000000004,57.96,50.519,53.480000000000004,33.5695,57.8955,49.93333333333334,-0.126,-0.02300000000000013,0.10927500000000001,0.10676000000000001,0.0,209.64,209.66500000000002,206.43333333333334,206.43333333333334,0.0,0.0
11,0.0,0.0,0.0,1.0,1.0,0.0,0.0,1.0,0.0,0.0,1.0,1.1856,26.0,0.0,0.0,0.0,59.999996,0.0,26.0,26.0,26.0,26.0,0.04588888888888887,0.27449999999999997,-0.09725,293.533,-2.70805,-2.68325,-1.5889,-1.5242,-238.93,216.07999999999998,190.767375,0.0,0.0,0.0,0.0,0.022600000000000002,-5.498166666666667,-5.498166666666667,-0.5614,-0.15349999999999997,0.030444444444444274,-0.706,67.077,0.011400000000000077,-0.236375,-0.6579999999999995,100.0,1.0,1.0,207.14333333333332,0.0,0.0,0.0,0.0,0.0,0.0,0.0,8780.1,0.0,55.0,5.0,241.45,1.0,0.0,0.0,0.0,0.0,0.0,1.0,0.0,0.5579999999999998,0.5579999999999998,0.0,0.0,1.0,55.0,616.79921,10000.0,85.000001,85.000001,85.000001,85.000001,395.0,0.0,0.0,0.0,1.0,166.665,52.841,52.841,49.286,49.286,34.0,-23.065,25.588,-24.45,26.4325,0.0,1783.146,-0.7199999999999989,100.0,27.43,27.544,42.274,42.582,0.0,0.0,100.0,0.0,0.0,0.0,0.0,3091.285714285714,3085.8,3716.1111111111113,3852.2,305.5555,304.85275,315.85175,315.272,21.9019,20.5698,21.8795,21.4084,314.999998,314.999998,324.999988,324.999988,99.55987142857143,99.50736666666667,99.56642857142857,99.54665714285714,0.09466666666666645,-0.02400000000000002,-0.09650000000000003,0.1313333333333333,-0.036666666666668846,-0.05333333333332746,1.6440000000000001,1.619,37.887,29.561,37.747,34.8025,56.415,34.941,59.3875,52.2385,54.317,34.0665,57.9895,50.573,53.465,33.6005,57.9225,49.986333333333334,-0.12249999999999994,-0.02400000000000002,0.103815,0.105065,0.0,210.03,210.07999999999998,207.14333333333332,207.14333333333332,0.0,0.0
12,0.0,0.0,0.0,1.0,1.0,0.0,0.0,1.0,0.0,0.0,1.0,1.1856,26.0,0.0,0.0,0.0,59.999996,0.0,26.0,26.0,26.0,26.0,0.054111111111111,0.29520000000000013,0.0318,292.923,-2.7639,-2.6795,-1.5568,-1.5248,-235.71,216.0575,190.746625,0.0,0.0,0.0,0.0,0.025466666666666665,-5.498166666666667,-5.498166666666667,-0.5454,0.30499999999999994,0.017111111111111077,-0.862,67.214,0.03059999999999996,-0.205925,-0.6679999999999993,100.0,1.0,1.0,207.33333333333331,0.0,0.0,0.0,0.0,0.0,0.0,0.0,8788.2,0.0,55.0,5.0,241.94333333333333,0.0,0.0,0.0,0.0,0.0,0.0,1.0,0.0,0.6059999999999981,0.6059999999999981,0.0,0.0,0.0,55.0,616.79921,10000.0,85.000001,85.000001,85.000001,85.000001,395.0,0.0,0.0,0.0,1.0,333.33500000000004,52.826,52.826,47.928,47.928,34.0,-23.794999999999998,25.552,-27.933333333333334,30.875,0.0,1783.096,-0.375,100.0,27.326999999999998,27.709,42.235,42.566,0.0,0.0,100.0,0.0,0.0,0.0,0.0,3127.0,3099.8,4235.222222222223,4176.0,305.486,304.8285,314.5965,314.459,21.911,20.575,21.8893,21.4168,314.999998,314.999998,324.999988,324.999988,99.55987142857143,99.50736666666667,99.56655714285715,99.5468,0.09633333333333338,-0.026666666666666616,-0.08183333333333331,0.15450000000000008,-0.05333333333332746,-0.05333333333332746,1.5293333333333332,1.504,37.944,29.5935,37.808,34.855000000000004,56.402,34.9765,59.424,52.295500000000004,54.304,34.099000000000004,58.0235,50.628,53.452,33.6325,57.9535,50.04,-0.10350000000000004,-0.045500000000000096,0.11164,0.110865,0.0,210.47,210.51,207.33333333333331,207.33333333333331,0.0,0.0
13,0.0,0.0,0.0,1.0,1.0,0.0,0.0,1.0,0.0,0.0,1.0,1.1856,26.0,0.0,0.0,0.0,59.999996,0.0,26.0,26.0,26.0,26.0,0.06800000000000006,0.2875000000000001,0.054675,292.587,-2.735,-2.677625,-1.5897999999999999,-1.5424,-232.26999999999998,216.0325,190.724875,0.0,0.0,0.0,0.0,0.026833333333333334,-5.498166666666667,-5.498166666666667,-0.5383,-0.08600000000000008,0.023333333333333206,1.0950000000000002,67.357,0.03520000000000012,-0.2142,-0.7960000000000003,100.0,1.0,1.0,207.71333333333334,0.0,0.0,0.0,0.0,0.0,0.0,0.0,8804.1,0.0,55.0,5.0,242.45666666666665,1.0,0.0,0.0,0.0,0.0,0.0,1.0,0.0,0.657,0.657,0.0,0.0,1.0,55.0,616.79921,10000.0,85.000001,85.000001,85.000001,85.000001,395.0,0.0,0.0,0.0,1.0,166.665,52.551,52.551,47.913,47.913,34.0,-20.7575,27.939999999999998,-26.79,33.3975,0.0,1783.046,-0.879999999999999,100.0,27.774,27.725,42.564,42.951,0.0,0.0,100.0,0.0,0.0,0.0,0.0,3050.5714285714284,3184.3,4141.111111111111,4362.1,305.5075,304.74375,314.696,314.06975,21.9206,20.5805,21.8998,21.426,314.999998,314.999998,324.999988,324.999988,99.5599,99.50738333333334,99.5667,99.54694285714285,0.1506666666666665,0.016999999999999904,-0.06133333333333335,0.1645000000000001,-0.04333333333332945,-0.05333333333332746,1.5143333333333333,1.477,38.004000000000005,29.628,37.873999999999995,34.9125,56.391,35.015,59.4625,52.36,54.294,34.1345,58.0595,50.69,53.44,33.666,57.9865,50.10066666666667,-0.14749999999999996,-0.008000000000000007,0.10815000000000001,0.1106,0.0,210.91500000000002,210.95,207.71333333333334,207.71333333333334,0.0,0.0
14,0.0,0.0,0.0,1.0,1.0,0.0,0.0,1.0,0.0,0.0,1.0,1.1856,26.0,0.0,0.0,0.0,59.999996,0.0,26.0,26.0,26.0,26.0,0.09366666666666679,0.27680000000000016,-0.0102,292.831,-2.74205,-2.612375,-1.6,-1.51,-228.84,216.0075,190.703625,0.0,0.0,0.0,0.0,0.028833333333333332,-5.498166666666667,-5.498166666666667,-0.5489,-0.16900000000000004,0.051444444444444404,-0.129,67.49600000000001,0.04600000000000004,-0.22812500000000002,-0.984,100.0,1.0,1.0,208.23333333333335,0.0,0.0,0.0,0.0,0.0,0.0,0.0,8826.2,0.0,55.0,5.0,242.96,0.0,0.0,0.0,0.0,0.0,0.0,1.0,0.0,0.7079999999999984,0.7079999999999984,0.0,0.0,0.0,55.0,616.79921,10000.0,85.000001,85.000001,85.000001,85.000001,395.0,0.0,0.0,0.0,1.0,166.665,52.628,52.628,48.126,48.126,34.0,-20.599999999999998,27.57,-25.496666666666666,30.8125,0.0,1782.996,-0.995000000000001,100.0,27.5,27.971,42.412,43.269999999999996,0.0,0.0,100.0,0.0,0.0,0.0,0.0,3037.285714285714,3168.6,3989.0,4158.1,305.7285,304.6275,315.14375,314.50225,21.9302,20.586,21.9102,21.4351,314.999998,314.999998,324.999988,324.999988,99.55991428571429,99.50738333333334,99.56684285714286,99.54708571428571,0.14900000000000002,0.020333333333333314,-0.061999999999999944,0.16149999999999998,-0.036666666666668846,-0.04999999999999716,1.5646666666666667,1.5250000000000001,38.064,29.6625,37.939,34.9695,56.379999999999995,35.0525,59.499,52.4225,54.283,34.1695,58.0935,50.75,53.429,33.7,58.0175,50.159666666666666,-0.15649999999999997,0.0030000000000000027,0.108895,0.10369,0.0,211.32,211.405,208.23333333333335,208.23333333333335,0.0,0.0
15,0.0,0.0,0.0,1.0,1.0,0.0,0.0,1.0,0.0,0.0,1.0,1.1856,26.0,0.0,0.0,0.0,59.999996,0.0,26.0,26.0,26.0,26.0,0.1233333333333333,0.28570000000000007,-0.051425000000000005,292.847,-2.71375,-2.57225,-1.6252,-1.4537,-225.59,215.99,190.683375,0.0,0.0,0.0,0.0,0.0307,-5.498166666666667,-5.498166666666667,-0.5388000000000001,0.274,0.08000000000000007,-0.34099999999999997,67.628,0.06289999999999996,-0.20885,-1.186,100.0,1.0,1.0,208.62,0.0,0.0,0.0,0.0,0.0,0.0,0.0,8842.7,0.0,55.0,5.0,243.43333333333334,1.0,0.0,0.0,0.0,0.0,0.0,1.0,0.0,0.7560000000000002,0.7560000000000002,0.0,0.0,1.0,55.0,616.79921,10000.0,85.000001,85.000001,85.000001,85.000001,395.0,0.0,0.0,0.0,1.0,333.33500000000004,52.887,52.887,48.141,48.141,34.0,-18.645,27.268,-24.58,32.8775,0.0,1782.946,-0.9800000000000004,100.0,27.55,28.015,42.191,43.348,0.0,0.0,100.0,0.0,0.0,0.0,0.0,2859.142857142857,3132.9,3987.0,4339.3,306.1945,304.72625,315.18175,314.08225,21.9392,20.5913,21.9199,21.4437,314.999998,314.999998,324.999988,324.999988,99.55994285714286,99.50738333333334,99.56697142857143,99.54722857142858,0.15833333333333366,0.03000000000000025,-0.03649999999999998,0.1838333333333333,-0.03999999999999915,-0.05666666666667197,1.5446666666666666,1.5065,38.120000000000005,29.6955,37.998999999999995,35.022999999999996,56.370000000000005,35.089,59.5325,52.4815,54.272999999999996,34.203,58.1245,50.807,53.418,33.7325,58.045,50.215666666666664,-0.15249999999999997,0.0030000000000000027,0.10803000000000001,0.10974,0.0,211.745,211.82999999999998,208.62,208.62,0.0,0.0
16,0.0,0.0,0.0,1.0,1.0,0.0,0.0,1.0,0.0,0.0,1.0,1.1856,26.0,0.0,0.0,0.0,59.999996,0.0,26.0,26.0,26.0,26.0,0.11855555555555575,0.27300000000000013,-0.0044,292.816,-2.8007,-2.585375,-1.5987,-1.5154,-222.14,215.9725,190.66125,0.0,0.0,0.0,0.0,0.03273333333333333,-5.498166666666667,-5.498166666666667,-0.5625,-0.7695000000000001,0.06777777777777771,0.09600000000000009,67.769,0.07630000000000003,-0.22617500000000001,-1.2539999999999996,100.0,1.0,1.0,209.06,0.0,0.0,0.0,0.0,0.0,0.0,0.0,8861.3,0.0,55.0,5.0,243.94,0.0,0.0,0.0,0.0,0.0,0.0,1.0,0.0,0.8069999999999986,0.8069999999999986,0.0,0.0,0.0,55.0,616.79921,10000.0,85.000001,85.000001,85.000001,85.000001,395.0,0.0,0.0,0.0,1.0,166.665,52.628,52.628,47.943,47.943,34.0,-19.6525,29.348,-22.826666666666664,33.49,0.0,1782.896,-0.870000000000001,100.0,27.374,27.984,42.521,43.379,0.0,0.0,100.0,0.0,0.0,0.0,0.0,2955.0,3313.0,3913.6666666666665,4145.8,305.941,304.38325,315.29575,314.533,21.9485,20.5969,21.9303,21.4528,314.999998,314.999998,324.999988,324.999988,99.55995714285714,99.5074,99.56712857142857,99.54737142857142,0.16966666666666663,0.03966666666666674,-0.01966666666666661,0.2148333333333332,-0.03833333333332689,-0.05833333333333002,1.5716666666666668,1.5175,38.178,29.7305,38.064,35.0805,56.355999999999995,35.1285,59.571,52.544,54.26,34.24,58.16,50.867,53.403,33.7675,58.0775,50.27466666666667,-0.14649999999999996,-0.009000000000000119,0.10682000000000001,0.10769500000000001,0.0,212.14,212.22500000000002,209.06,209.06,0.0,0.0
17,0.0,0.0,0.0,1.0,1.0,0.0,0.0,1.0,0.0,0.0,1.0,1.1856,26.0,0.0,0.0,0.0,59.999996,0.0,26.0,26.0,26.0,26.0,0.11322222222222211,0.2841,0.010175,292.343,-2.75995,-2.566125,-1.6396000000000002,-1.4778,-218.48,215.95499999999998,190.637375,0.0,0.0,0.0,0.0,0.03486666666666667,-5.498166666666667,-5.498166666666667,-0.5494,0.44599999999999995,0.0494444444444444,0.9830000000000001,67.916,0.08130000000000015,-0.207175,-1.146,100.0,1.0,1.0,209.43,0.0,0.0,0.0,0.0,0.0,0.0,0.0,8877.0,0.0,55.0,5.0,244.46666666666667,1.0,0.0,0.0,0.0,0.0,0.0,1.0,0.0,0.8610000000000007,0.8610000000000007,0.0,0.0,1.0,55.0,616.79921,10000.0,85.000001,85.000001,85.000001,85.000001,395.0,0.0,0.0,0.0,1.0,166.665,52.353,52.353,47.607,47.607,34.0,-19.375,28.426000000000002,-25.8,35.655,0.0,1782.842,-0.9750000000000014,100.0,27.901,28.308,42.373000000000005,43.370000000000005,0.0,0.0,100.0,0.0,0.0,0.0,0.0,3008.4285714285716,3194.2,4270.222222222223,4400.3,305.6715,304.73925,314.508,314.0505,21.9587,20.602899999999998,21.9412,21.4625,314.999998,314.999998,324.999988,324.999988,99.55997142857143,99.5074,99.56727142857143,99.54754285714286,0.18000000000000016,0.050666666666666416,-0.014833333333333365,0.21833333333333327,-0.03999999999999915,-0.04333333333332945,1.5276666666666667,1.473,38.242000000000004,29.7685,38.132999999999996,35.1405,56.347,35.172,59.609,52.61,54.251000000000005,34.28,58.195,50.9305,53.393,33.806,58.1095,50.33733333333333,-0.15000000000000002,-0.0044999999999999485,0.10600000000000001,0.10831500000000001,0.0,212.64499999999998,212.72,209.43,209.43,0.0,0.0
18,0.0,0.0,0.0,1.0,1.0,0.0,0.0,1.0,0.0,0.0,1.0,1.1856,26.0,0.0,0.0,0.0,59.999996,0.0,26.0,26.0,26.0,26.0,0.11922222222222212,0.27760000000000007,-0.028625,292.435,-2.8016,-2.534125,-1.6566,-1.4223,-215.42000000000002,215.945,190.617625,0.0,0.0,0.0,0.0,0.03663333333333333,-5.498166666666667,-5.498166666666667,-0.561,-0.5205,0.07111111111111112,-0.362,68.038,0.08150000000000013,-0.2242,-1.0679999999999996,100.0,1.0,1.0,209.86333333333334,0.0,0.0,0.0,0.0,0.0,0.0,0.0,8895.3,0.0,55.0,5.0,244.91,0.0,0.0,0.0,0.0,0.0,0.0,1.0,0.0,0.9059999999999988,0.9059999999999988,0.0,0.0,0.0,55.0,616.79921,10000.0,85.000001,85.000001,85.000001,85.000001,395.0,0.0,0.0,0.0,1.0,166.665,52.292,52.292,47.684,47.684,34.0,-21.4575,28.189999999999998,-24.81,32.1875,0.0,1782.797,-0.5749999999999993,100.0,27.485,28.313,42.557,43.827,0.0,0.0,100.0,0.0,0.0,0.0,0.0,3092.857142857143,3284.3,4047.8888888888887,4195.4,305.6645,304.3505,315.065,314.455,21.967,20.6079,21.950499999999998,21.4707,314.999998,314.999998,324.999988,324.999988,99.55998571428572,99.5074,99.5674,99.54767142857143,0.15033333333333365,0.02666666666666684,-0.025000000000000022,0.2048333333333332,-0.03999999999999915,-0.04999999999999716,1.5566666666666666,1.5095,38.294,29.799500000000002,38.19,35.1915,56.337,35.2065,59.641999999999996,52.6665,54.242000000000004,34.312,58.226,50.985,53.382999999999996,33.837,58.1375,50.39066666666667,-0.12849999999999995,-0.025500000000000078,0.10916000000000001,0.10547000000000001,0.0,212.99,213.06,209.86333333333334,209.86333333333334,0.0,0.0
19,0.0,0.0,0.0,1.0,1.0,0.0,0.0,1.0,0.0,0.0,1.0,1.1856,26.0,0.0,0.0,0.0,59.999996,0.0,26.0,26.0,26.0,26.0,0.07144444444444442,0.29600000000000004,0.042175000000000004,291.916,-2.70255,-2.5389999999999997,-1.654,-1.4206,-211.94,215.9375,190.595,0.0,0.0,0.0,0.0,0.03863333333333333,-5.498166666666667,-5.498166666666667,-0.5497000000000001,0.8585,0.06388888888888888,0.43500000000000005,68.175,0.08240000000000003,-0.21095,-0.6459999999999999,100.0,1.0,1.0,210.24666666666667,0.0,0.0,0.0,0.0,0.0,0.0,0.0,8911.6,0.0,55.0,5.0,245.4,1.0,0.0,0.0,0.0,0.0,0.0,1.0,0.0,0.9570000000000007,0.9570000000000007,0.0,0.0,1.0,55.0,616.79921,10000.0,85.000001,85.000001,85.000001,85.000001,395.0,0.0,0.0,0.0,1.0,166.665,51.650999999999996,51.650999999999996,47.44,47.44,34.0,-21.71,27.509999999999998,-26.099999999999998,33.79,0.0,1782.746,0.03999999999999915,100.0,28.237000000000002,28.568,42.494,43.658,0.0,0.0,100.0,0.0,0.0,0.0,0.0,3049.0,3367.1,4213.777777777777,4437.6,305.4425,304.15875,314.66,313.9885,21.9766,20.6137,21.9608,21.4798,314.999998,314.999998,324.999988,324.999988,99.56001428571429,99.5074,99.56754285714285,99.54781428571428,0.1243333333333334,-0.006333333333333302,-0.02416666666666656,0.19599999999999995,-0.045000000000001705,-0.04999999999999716,1.524,1.5045,38.354,29.8355,38.254999999999995,35.249,56.327,35.2475,59.677,52.729,54.232,34.35,58.2585,51.045500000000004,53.372,33.8735,58.167,50.45,-0.07850000000000001,-0.07699999999999996,0.10865500000000002,0.10219,0.0,213.47500000000002,213.5,210.24666666666667,210.24666666666667,0.0,0.0
20,0.0,0.0,0.0,1.0,1.0,0.0,0.0,1.0,0.0,0.0,1.0,1.1856,26.0,0.0,0.0,0.0,59.999996,0.0,26.0,26.0,26.0,26.0,0.05511111111111111,0.26780000000000004,-0.014275000000000001,292.343,-2.79005,-2.6165000000000003,-1.5662,-1.5591,-208.45999999999998,215.93,190.572625,0.0,0.0,0.0,0.0,0.04066666666666667,-5.498166666666667,-5.498166666666667,-0.5557,-1.141,0.043333333333333224,-1.323,68.315,0.059700000000000086,-0.2243,0.13400000000000034,100.0,1.0,1.0,210.59,0.0,0.0,0.0,0.0,0.0,0.0,0.0,8926.1,0.0,55.0,5.0,245.90666666666667,0.0,0.0,0.0,0.0,0.0,0.0,0.0,0.0,1.0079999999999991,1.0079999999999991,0.0,0.0,0.0,55.0,616.79921,10000.0,85.000001,85.000001,85.000001,85.000001,395.0,0.0,0.0,0.0,1.0,166.665,52.78,52.78,46.967,46.967,34.0,-22.87,23.814,-27.213333333333335,32.535,0.0,1782.694,0.4750000000000014,100.0,27.584,28.272,43.163,44.013999999999996,0.0,0.0,100.0,0.0,0.0,0.0,0.0,2970.285714285714,3062.6,4206.333333333333,4192.2,306.014,304.97675,314.61,314.29,21.9859,20.6192,21.9714,21.4891,314.999998,314.999998,324.999988,324.999988,99.56001428571429,99.50741666666667,99.56768571428572,99.54797142857143,0.08966666666666656,-0.046666666666666634,-0.0638333333333333,0.16766666666666685,-0.046666666666666856,-0.03166666666666629,1.4786666666666666,1.486,38.412,29.8705,38.321,35.307,56.311,35.285,59.7175,52.793,54.216,34.3845,58.296,51.107,53.355000000000004,33.907,58.201499999999996,50.510666666666665,-0.04499999999999993,-0.11149999999999993,0.10738,0.11424500000000001,0.0,213.88,213.86,210.59,210.59,0.0,0.0
21,0.0,0.0,0.0,1.0,1.0,0.0,0.0,1.0,0.0,0.0,1.0,1.1856,26.0,0.0,0.0,0.0,59.999996,0.0,26.0,26.0,26.0,26.0,-0.005666666666666598,0.28690000000000015,-0.026775,292.557,-2.7249499999999998,-2.65225,-1.6051000000000002,-1.5417,-204.76999999999998,215.925,190.548125,0.0,0.0,0.0,0.0,0.042833333333333334,-5.498166666666667,-5.498166666666667,-0.5740000000000001,0.6145,-0.0012222222222222356,-1.34,68.456,0.018399999999999972,-0.21655000000000002,0.7060000000000004,100.0,1.0,1.0,211.21666666666667,0.0,0.0,0.0,0.0,0.0,0.0,0.0,8952.7,0.0,55.0,5.0,246.41333333333336,1.0,0.0,0.0,0.0,0.0,0.0,0.0,0.0,1.0620000000000012,1.0620000000000012,0.0,0.0,1.0,55.0,616.79921,10000.0,85.000001,85.000001,85.000001,85.000001,395.0,0.0,0.0,0.0,1.0,111.11,52.277,52.277,47.989,47.989,34.0,-25.64,22.91,-29.48,27.017500000000002,0.0,1782.642,0.4299999999999997,100.0,28.028,28.211,42.726,43.272,0.0,0.0,100.0,0.0,0.0,0.0,0.0,3200.285714285714,3053.9,4169.0,4006.9,305.287,305.01325,314.84025,314.96275,21.996,20.6252,21.9822,21.4986,314.999998,314.999998,324.999988,324.999988,99.56004285714286,99.50741666666667,99.56782857142858,99.54811428571429,0.061666666666666536,-0.07433333333333314,-0.11216666666666664,0.1100000000000001,-0.061666666666667425,-0.05333333333332746,1.5583333333333333,1.584,38.474999999999994,29.9075,38.388999999999996,35.3665,56.296,35.3275,59.753,52.854,54.202,34.4245,58.329,51.166,53.34,33.945,58.231,50.568,-0.04499999999999993,-0.11699999999999999,0.10862500000000001,0.106755,0.0,214.39499999999998,214.32,211.21666666666667,211.21666666666667,0.0,0.0
22,0.0,0.0,0.0,1.0,1.0,0.0,0.0,1.0,0.0,0.0,1.0,1.1856,26.0,0.0,0.0,0.0,59.999996,0.0,26.0,26.0,26.0,26.0,-0.037666666666666626,0.26080000000000014,-0.005350000000000001,292.145,-2.6364,-2.724875,-1.5872000000000002,-1.5428000000000002,-201.69,215.92000000000002,190.52725,0.0,0.0,0.0,0.0,0.0446,-5.498166666666667,-5.498166666666667,-0.5563,0.05599999999999994,-0.004111111111110954,0.907,68.578,-0.012899999999999912,-0.204025,0.75,100.0,1.0,1.0,211.41666666666669,0.0,0.0,0.0,0.0,0.0,0.0,0.0,8961.2,0.0,55.0,5.0,246.85333333333335,0.0,0.0,0.0,0.0,0.0,0.0,0.0,0.0,1.1069999999999993,1.1069999999999993,0.0,0.0,0.0,55.0,616.79921,10000.0,85.000001,85.000001,85.000001,85.000001,395.0,0.0,0.0,0.0,1.0,111.11,52.414,52.414,47.089,47.089,34.0,-23.31,22.966,-31.566666666666666,28.42,0.0,1782.598,0.39000000000000057,100.0,28.382,28.002,43.468,43.325,0.0,0.0,100.0,0.0,0.0,0.0,0.0,2966.5714285714284,3071.2,4238.222222222223,4332.0,305.6935,305.0385,314.5315,314.226,22.0045,20.6301,21.9916,21.5068,314.999998,314.999998,324.999988,324.999988,99.56004285714286,99.50743333333334,99.56797142857143,99.54824285714285,0.05566666666666675,-0.08999999999999986,-0.13383333333333336,0.08050000000000002,-0.041666666666671404,-0.045000000000001705,1.4713333333333334,1.5005,38.528,29.938000000000002,38.447,35.417500000000004,56.283,35.363,59.789,52.908500000000004,54.189,34.457,58.363,51.218,53.327,33.9765,58.262,50.61933333333333,-0.046499999999999986,-0.1120000000000001,0.109225,0.10240500000000001,0.0,214.76,214.68,211.41666666666669,211.41666666666669,0.0,0.0
23,0.0,0.0,0.0,1.0,1.0,0.0,0.0,1.0,0.0,0.0,1.0,1.1856,26.0,0.0,0.0,0.0,59.999996,0.0,26.0,26.0,26.0,26.0,-0.05499999999999994,0.24960000000000004,-0.045025,292.16,-2.65325,-2.6875,-1.504,-1.6204,-198.18,215.91500000000002,190.50375,0.0,0.0,0.0,0.0,0.04663333333333333,-5.498166666666667,-5.498166666666667,-0.5760000000000001,-0.19799999999999995,-0.023777777777777676,-0.77,68.712,-0.03399999999999992,-0.232125,0.9179999999999993,100.0,1.0,1.0,211.96,0.0,0.0,0.0,0.0,0.0,0.0,0.0,8984.2,0.0,55.0,5.0,247.33666666666664,1.0,0.0,0.0,0.0,0.0,0.0,0.0,0.0,1.1580000000000013,1.1580000000000013,0.0,0.0,1.0,55.0,616.79921,10000.0,85.000001,85.000001,85.000001,85.000001,395.0,0.0,0.0,0.0,1.0,166.665,51.697,51.697,48.172,48.172,34.0,-28.475,21.798,-29.263333333333335,25.1575,0.0,1782.546,0.365000000000002,100.0,28.613,28.15,43.611000000000004,43.507,0.0,0.0,100.0,0.0,0.0,0.0,0.0,3385.857142857143,3019.9,3978.3333333333335,3912.5,304.6315,305.0905,315.1645,315.07275,22.0141,20.6356,22.0021,21.516,314.999998,314.999998,324.999988,324.999988,99.56004285714286,99.50745,99.56811428571429,99.5484,0.026333333333333098,-0.10233333333333317,-0.16066666666666662,0.05983333333333318,-0.04333333333332945,-0.04333333333332945,1.5176666666666667,1.55,38.588,29.973,38.513,35.475,56.268,35.4045,59.827,52.9685,54.175,34.495,58.3985,51.275999999999996,53.312,34.013,58.2945,50.676,-0.04949999999999999,-0.10400000000000009,0.10373500000000001,0.10508500000000001,0.0,215.15,215.07,211.96,211.96,0.0,0.0
24,0.0,0.0,0.0,1.0,1.0,0.0,0.0,1.0,0.0,0.0,1.0,1.1856,26.0,0.0,0.0,0.0,59.999996,0.0,26.0,26.0,26.0,26.0,-0.07422222222222219,0.2632000000000001,-0.052325,292.419,-2.6727499999999997,-2.7033750000000003,-1.5474,-1.5632000000000001,-194.68,215.9075,190.47975,0.0,0.0,0.0,0.0,0.0487,-5.498166666666667,-5.498166666666667,-0.5815,-0.7010000000000001,-0.014333333333333087,0.9850000000000001,68.848,-0.0492999999999999,-0.21795,0.7439999999999998,100.0,1.0,1.0,212.2733333333333,0.0,0.0,0.0,0.0,0.0,0.0,0.0,8997.5,0.0,55.0,5.0,247.82666666666665,0.0,0.0,0.0,0.0,0.0,0.0,0.0,0.0,1.2089999999999996,1.2089999999999996,0.0,0.0,0.0,55.0,616.79921,10000.0,85.000001,85.000001,85.000001,85.000001,395.0,0.0,0.0,0.0,1.0,166.665,52.887,52.887,47.104,47.104,34.0,-24.4925,21.092,-32.849999999999994,26.2575,0.0,1782.494,0.23499999999999943,100.0,28.418,27.656,43.82,43.230000000000004,0.0,0.0,100.0,0.0,0.0,0.0,0.0,2937.4285714285716,2981.4,4249.222222222223,4152.7,305.9065,305.449,314.46975,314.622,22.023600000000002,20.641,22.0126,21.5251,314.999998,314.999998,324.999988,324.999988,99.56005714285715,99.50745,99.56827142857144,99.54854285714286,0.023333333333333428,-0.10899999999999999,-0.16649999999999998,0.06033333333333335,-0.04833333333333201,-0.04833333333333201,1.4823333333333335,1.508,38.647999999999996,30.0065,38.579,35.532,56.251000000000005,35.4435,59.8665,53.0275,54.159,34.5315,58.435,51.333,53.295,34.048,58.328,50.73133333333333,-0.05599999999999994,-0.09850000000000003,0.107575,0.11321500000000001,0.0,215.575,215.5,212.2733333333333,212.2733333333333,0.0,0.0
25,0.0,0.0,0.0,1.0,1.0,0.0,0.0,1.0,0.0,0.0,1.0,1.1856,26.0,0.0,0.0,0.0,59.999996,0.0,26.0,26.0,26.0,26.0,-0.08877777777777784,0.2715000000000001,-0.064675,292.313,-2.724,-2.676875,-1.5492,-1.5762,-191.37,215.8975,190.455875,0.0,0.0,0.0,0.0,0.0506,-5.498166666666667,-5.498166666666667,-0.6127,0.016000000000000014,-0.023777777777777676,-0.19699999999999995,68.97200000000001,-0.05579999999999996,-0.2255,0.6280000000000001,100.0,1.0,1.0,212.80333333333334,0.0,0.0,0.0,0.0,0.0,0.0,0.0,9020.0,0.0,55.0,5.0,248.27333333333334,1.0,0.0,0.0,0.0,0.0,0.0,0.0,0.0,1.256999999999998,1.256999999999998,0.0,0.0,1.0,55.0,616.79921,10000.0,85.000001,85.000001,85.000001,85.000001,395.0,0.0,0.0,0.0,1.0,111.11,51.804,51.804,48.004,48.004,34.0,-28.325,23.662,-29.746666666666666,24.685000000000002,0.0,1782.448,0.17999999999999972,100.0,28.463,27.865000000000002,43.497,42.909,0.0,0.0,100.0,0.0,0.0,0.0,0.0,3303.0,3263.1,3972.5555555555557,3977.9,304.905,304.5555,315.2235,315.04,22.0325,20.6463,22.0223,21.5336,314.999998,314.999998,324.999988,324.999988,99.56005714285715,99.50746666666667,99.5684,99.54867142857142,0.026333333333333098,-0.09899999999999998,-0.16466666666666663,0.05683333333333329,-0.036666666666668846,-0.04333333333332945,1.5623333333333334,1.5785,38.703,30.039,38.638999999999996,35.585,56.233999999999995,35.483000000000004,59.9,53.081,54.143,34.568,58.466499999999996,51.384,53.278999999999996,34.082499999999996,58.357,50.781333333333336,-0.061999999999999944,-0.09250000000000003,0.10481000000000001,0.10591,0.0,215.935,215.89,212.80333333333334,212.80333333333334,0.0,0.0
26,0.0,0.0,0.0,1.0,1.0,0.0,0.0,1.0,0.0,0.0,1.0,1.1856,26.0,0.0,0.0,0.0,59.999996,0.0,26.0,26.0,26.0,26.0,-0.0822222222222222,0.27760000000000007,0.0766,291.122,-2.6767,-2.75225,-1.5949,-1.5735999999999999,-187.85,215.885,190.430125,0.0,0.0,0.0,0.0,0.05266666666666667,-5.498166666666667,-5.498166666666667,-0.5705,0.6705,-0.04444444444444429,-0.657,69.10900000000001,-0.054199999999999915,-0.19667500000000002,0.5839999999999996,100.0,1.0,1.0,212.93,0.0,0.0,0.0,0.0,0.0,0.0,0.0,9025.4,0.0,55.0,5.0,248.76333333333332,0.0,0.0,0.0,0.0,0.0,0.0,0.0,0.0,1.3079999999999998,1.3079999999999998,0.0,0.0,0.0,55.0,616.79921,10000.0,85.000001,85.000001,85.000001,85.000001,395.0,0.0,0.0,0.0,1.0,166.665,51.422,51.422,46.158,46.158,34.0,-27.545,21.706,-37.55666666666667,28.675,0.0,1782.396,-0.030000000000001137,100.0,29.184,28.64,44.028,43.391999999999996,0.0,0.0,100.0,0.0,0.0,0.0,0.0,3315.4285714285716,2966.2,4654.888888888889,4469.4,304.897,305.1735,313.662,313.8445,22.0423,20.6519,22.032899999999998,21.5428,314.999998,314.999998,324.999988,324.999988,99.56007142857143,99.50748333333334,99.56855714285714,99.54881428571429,0.03533333333333344,-0.11033333333333317,-0.1678333333333334,0.05283333333333329,-0.041666666666671404,-0.03999999999999915,1.423,1.4525000000000001,38.763999999999996,30.0745,38.706,35.6425,56.222,35.5265,59.9415,53.1415,54.131,34.608000000000004,58.5055,51.442499999999995,53.266,34.121,58.3925,50.83866666666667,-0.08299999999999996,-0.08650000000000002,0.105205,0.11164,0.0,216.41,216.35000000000002,212.93,212.93,0.0,0.0
27,0.0,0.0,0.0,1.0,1.0,0.0,0.0,1.0,0.0,0.0,1.0,1.1856,26.0,0.0,0.0,0.0,59.999996,0.0,26.0,26.0,26.0,26.0,-0.04788888888888887,0.2522,-0.064475,291.84,-2.67495,-2.7155,-1.5958999999999999,-1.6416,-184.11,215.8725,190.404125,0.0,0.0,0.0,0.0,0.05483333333333334,-5.498166666666667,-5.498166666666667,-0.6047,-0.946,-0.04022222222222238,-0.623,69.248,-0.0474,-0.247375,0.33999999999999986,100.0,1.0,1.0,213.57,0.0,0.0,0.0,0.0,0.0,0.0,0.0,9052.5,0.0,55.0,5.0,249.26666666666665,1.0,0.0,0.0,0.0,0.0,0.0,0.0,0.0,1.3619999999999983,1.3619999999999983,0.0,0.0,1.0,55.0,616.79921,10000.0,85.000001,85.000001,85.000001,85.000001,395.0,0.0,0.0,0.0,1.0,111.11,51.743,51.743,47.073,47.073,34.0,-26.8375,22.282,-30.93,25.817500000000003,0.0,1782.342,-0.120000000000001,100.0,28.779,28.434,44.565,43.881,0.0,0.0,100.0,0.0,0.0,0.0,0.0,3288.285714285714,3035.5,3984.1111111111113,3920.1000000000004,305.1335,305.0285,315.1485,315.0865,22.0523,20.6578,22.0441,21.5527,314.999998,314.999998,324.999988,324.999988,99.56007142857143,99.5075,99.56871428571428,99.54898571428572,0.04066666666666663,-0.10066666666666668,-0.16949999999999998,0.0665,-0.054999999999999716,-0.03166666666666629,1.527,1.545,38.827,30.1115,38.775999999999996,35.704499999999996,56.205,35.5695,59.984,53.206,54.114999999999995,34.6475,58.545,51.5045,53.248999999999995,34.159,58.429,50.898666666666664,-0.08950000000000002,-0.07250000000000001,0.10700000000000001,0.11597500000000001,0.0,216.765,216.72500000000002,213.57,213.57,0.0,0.0
28,0.0,0.0,0.0,1.0,1.0,0.0,0.0,1.0,0.0,0.0,1.0,1.1856,26.0,0.0,0.0,0.0,59.999996,0.0,26.0,26.0,26.0,26.0,-0.04922222222222217,0.2681,-0.0449,291.87,-2.63295,-2.7106250000000003,-1.5386000000000002,-1.5997,-180.99,215.85750000000002,190.381625,0.0,0.0,0.0,0.0,0.05663333333333334,-5.498166666666667,-5.498166666666667,-0.6012000000000001,0.723,-0.03733333333333322,0.9510000000000001,69.363,-0.04039999999999999,-0.21615,0.17600000000000016,100.0,1.0,1.0,213.95,0.0,0.0,0.0,0.0,0.0,0.0,0.0,9068.6,0.0,55.0,5.0,249.68,0.0,0.0,0.0,0.0,0.0,0.0,0.0,0.0,1.407,1.407,0.0,0.0,0.0,55.0,616.79921,10000.0,85.000001,85.000001,85.000001,85.000001,395.0,0.0,0.0,0.0,1.0,166.665,51.743,51.743,47.562,47.562,34.0,-24.81,23.604,-29.57,27.2625,0.0,1782.296,-0.1999999999999993,100.0,29.063,28.227,43.954,43.375,0.0,0.0,100.0,0.0,0.0,0.0,0.0,3166.285714285714,3107.5,4072.0,4139.9,305.127,305.005,315.047,314.68175,22.0607,20.6628,22.0532,21.5607,314.999998,314.999998,324.999988,324.999988,99.56007142857143,99.5075,99.56884285714285,99.54911428571428,0.06199999999999983,-0.07766666666666677,-0.14600000000000002,0.07516666666666683,-0.030000000000001137,-0.061666666666667425,1.551,1.5485,38.879999999999995,30.1425,38.832,35.754,56.193,35.605000000000004,60.0145,53.256,54.104,34.6805,58.573499999999996,51.5525,53.236999999999995,34.191,58.454499999999996,50.94566666666667,-0.09750000000000003,-0.06499999999999995,0.104715,0.10861000000000001,0.0,217.17000000000002,217.15,213.95,213.95,0.0,0.0
29,0.0,0.0,0.0,1.0,1.0,0.0,0.0,1.0,0.0,0.0,1.0,1.1856,26.0,0.0,0.0,0.0,59.999996,0.0,26.0,26.0,26.0,26.0,-0.027888888888888852,0.2571000000000001,-0.01535,291.656,-2.62865,-2.74625,-1.5485,-1.5708,-177.24,215.8425,190.35375,0.0,0.0,0.0,0.0,0.05883333333333334,-5.498166666666667,-5.498166666666667,-0.608,-0.726,-0.026555555555555888,0.847,69.505,-0.02639999999999998,-0.21910000000000002,-0.05999999999999961,100.0,1.0,1.0,214.23333333333335,0.0,0.0,0.0,0.0,0.0,0.0,0.0,9080.6,0.0,55.0,5.0,250.19333333333333,1.0,0.0,0.0,0.0,0.0,0.0,0.0,0.0,1.4609999999999985,1.4609999999999985,0.0,0.0,1.0,55.0,616.79921,10000.0,85.000001,85.000001,85.000001,85.000001,395.0,0.0,0.0,0.0,1.0,166.665,51.941,51.941,46.829,46.829,34.0,-24.02,24.573999999999998,-29.8,29.3525,0.0,1782.242,-0.2699999999999996,100.0,28.654,28.143,44.3,43.774,0.0,0.0,100.0,0.0,0.0,0.0,0.0,3139.0,3129.3,4127.444444444444,4258.2,305.2875,304.87725,314.754,314.356,22.0706,20.6686,22.0643,21.5705,314.999998,314.999998,324.999988,324.999988,99.56008571428572,99.50751666666666,99.56901428571429,99.54925714285714,0.07166666666666677,-0.06866666666666665,-0.128,0.09749999999999992,-0.04833333333333201,-0.05833333333333002,1.4833333333333334,1.4805,38.941,30.179000000000002,38.902,35.816,56.176,35.6465,60.0565,53.321,54.088,34.719,58.613,51.615,53.22,34.2275,58.4905,51.00633333333333,-0.10099999999999998,-0.05950000000000011,0.09977000000000001,0.10865000000000001,0.0,217.565,217.55,214.23333333333335,214.23333333333335,0.0,0.0
30,0.0,0.0,0.0,1.0,1.0,0.0,0.0,1.0,0.0,0.0,1.0,1.1856,26.0,0.0,0.0,0.0,59.999996,0.0,26.0,26.0,26.0,26.0,-0.01244444444444448,0.2511000000000001,0.0485,291.199,-2.6485,-2.629,-1.5263,-1.6231,-173.89999999999998,215.825,190.32875,0.0,0.0,0.0,0.0,0.06076666666666666,-5.498166666666667,-5.498166666666667,-0.6008,0.8634999999999999,-0.02388888888888907,0.9470000000000001,69.626,-0.014999999999999902,-0.2144,-0.08799999999999919,100.0,1.0,1.0,214.67333333333335,0.0,0.0,0.0,0.0,0.0,0.0,0.0,9099.2,0.0,55.0,5.0,250.63,0.0,0.0,0.0,0.0,0.0,0.0,1.0,0.0,1.5090000000000003,1.5090000000000003,0.0,0.0,0.0,55.0,616.79921,10000.0,85.000001,85.000001,85.000001,85.000001,395.0,0.0,0.0,0.0,1.0,166.665,50.842,50.842,47.043,47.043,34.0,-24.4675,24.594,-29.54,29.81,0.0,1782.196,-0.3299999999999983,100.0,29.51,28.879,44.027,43.791,0.0,0.0,100.0,0.0,0.0,0.0,0.0,3285.142857142857,3178.0,4190.666666666667,4186.9,304.745,304.71475,314.68375,314.502,22.0797,20.6742,22.0741,21.5792,314.999998,314.999998,324.999988,324.999988,99.5601,99.50753333333333,99.56914285714285,99.54941428571429,0.09699999999999998,-0.05400000000000005,-0.12083333333333335,0.10383333333333322,-0.046666666666666856,-0.054999999999999716,1.4906666666666668,1.4935,38.998000000000005,30.2135,38.963,35.87,56.167,35.6865,60.09,53.3765,54.079,34.7555,58.644,51.6685,53.21,34.2625,58.519,51.05866666666667,-0.11399999999999999,-0.05499999999999994,0.10541,0.105495,0.0,217.985,217.98000000000002,214.67333333333335,214.67333333333335,0.0,0.0
31,0.0,0.0,0.0,1.0,1.0,0.0,0.0,1.0,0.0,0.0,1.0,1.1856,26.0,0.0,0.0,0.0,59.999996,0.0,26.0,26.0,26.0,26.0,-0.019444444444444486,0.25570000000000004,0.011250000000000001,290.97,-2.75665,-2.606125,-1.5767,-1.6179999999999999,-170.56,215.81,190.304625,0.0,0.0,0.0,0.0,0.0627,-5.498166666666667,-5.498166666666667,-0.5907,-0.5975000000000001,-0.0129999999999999,0.6890000000000001,69.751,0.000600000000000156,-0.22137500000000002,-0.29600000000000026,100.0,1.0,1.0,214.93666666666667,0.0,0.0,0.0,0.0,0.0,0.0,0.0,9110.3,0.0,55.0,5.0,251.07999999999998,1.0,0.0,0.0,0.0,0.0,0.0,1.0,0.0,1.5569999999999986,1.5569999999999986,0.0,0.0,1.0,55.0,616.79921,10000.0,85.000001,85.000001,85.000001,85.000001,395.0,0.0,0.0,0.0,1.0,111.11,51.285,51.285,45.609,45.609,34.0,-23.9875,25.61,-30.66,31.82,0.0,1782.147,-0.34499999999999886,100.0,29.087,28.87,44.694,44.509,0.0,0.0,100.0,0.0,0.0,0.0,0.0,3130.142857142857,3320.7,4302.777777777777,4266.6,305.439,304.4765,314.31225,314.4165,22.0886,20.6796,22.0841,21.5881,314.999998,314.999998,324.999988,324.999988,99.5601,99.50753333333333,99.56928571428571,99.54955714285714,0.0950000000000002,-0.04966666666666675,-0.10583333333333333,0.12816666666666676,-0.045000000000001705,-0.03333333333333144,1.4686666666666666,1.4375,39.054,30.247500000000002,39.025999999999996,35.926,56.153999999999996,35.7245,60.1285,53.4355,54.067,34.791,58.68,51.7255,53.197,34.2965,58.552,51.114333333333335,-0.11199999999999999,-0.06099999999999994,0.11131,0.111445,0.0,218.31,218.315,214.93666666666667,214.93666666666667,0.0,0.0
32,0.0,0.0,0.0,1.0,1.0,0.0,0.0,1.0,0.0,0.0,1.0,1.1856,26.0,0.0,0.0,0.0,59.999996,0.0,26.0,26.0,26.0,26.0,0.019777777777777894,0.27100000000000013,-0.008075,291.183,-2.6696,-2.7032499999999997,-1.6451,-1.5246,-167.0,215.79250000000002,190.279,0.0,0.0,0.0,0.0,0.06476666666666667,-5.498166666666667,-5.498166666666667,-0.6053000000000001,0.050999999999999934,-0.03600000000000003,-0.806,69.879,0.009100000000000108,-0.22535000000000002,-0.23399999999999999,100.0,1.0,1.0,215.42666666666668,0.0,0.0,0.0,0.0,0.0,0.0,0.0,9131.1,0.0,55.0,5.0,251.53666666666666,0.0,0.0,0.0,0.0,0.0,0.0,1.0,0.0,1.6080000000000005,1.6080000000000005,0.0,0.0,0.0,55.0,616.79921,10000.0,85.000001,85.000001,85.000001,85.000001,395.0,0.0,0.0,0.0,1.0,166.665,51.346000000000004,51.346000000000004,46.448,46.448,34.0,-23.919999999999998,24.875999999999998,-30.693333333333335,30.1225,0.0,1782.095,-0.40500000000000114,100.0,28.917,29.049,44.29,44.397000000000006,0.0,0.0,100.0,0.0,0.0,0.0,0.0,3258.285714285714,3081.1,4285.444444444444,4273.5,305.066,304.91275,314.59,314.39075,22.098,20.6854,22.0945,21.5974,314.999998,314.999998,324.999988,324.999988,99.56012857142858,99.50753333333333,99.56942857142857,99.54968571428572,0.10266666666666646,-0.045333333333333226,-0.10099999999999998,0.1260000000000001,-0.041666666666671404,-0.03999999999999915,1.514,1.5150000000000001,39.111999999999995,30.2835,39.09,35.9835,56.141999999999996,35.7645,60.164500000000004,53.4945,54.055,34.828,58.713499999999996,51.782,53.184,34.332,58.582,51.169333333333334,-0.11399999999999999,-0.055500000000000105,0.106855,0.112615,0.0,218.73000000000002,218.73000000000002,215.42666666666668,215.42666666666668,0.0,0.0
33,0.0,0.0,0.0,1.0,1.0,0.0,0.0,1.0,0.0,0.0,1.0,1.1856,26.0,0.0,0.0,0.0,59.999996,0.0,26.0,26.0,26.0,26.0,0.02722222222222226,0.2639,-0.019875,291.382,-2.7145,-2.691,-1.5807,-1.6019,-163.64,215.7775,190.253875,0.0,0.0,0.0,0.0,0.06673333333333334,-5.498166666666667,-5.498166666666667,-0.6147,-0.4175,-0.021666666666666945,-0.010000000000000009,70.002,0.013500000000000068,-0.21752500000000002,-0.22200000000000042,100.0,1.0,1.0,215.75333333333333,0.0,0.0,0.0,0.0,0.0,0.0,0.0,9145.0,0.0,55.0,5.0,251.98000000000002,1.0,0.0,0.0,0.0,0.0,0.0,1.0,0.0,1.6559999999999988,1.6559999999999988,0.0,0.0,1.0,55.0,616.79921,10000.0,85.000001,85.000001,85.000001,85.000001,395.0,0.0,0.0,0.0,1.0,166.665,51.772999999999996,51.772999999999996,46.57,46.57,34.0,-23.6775,24.442,-29.22,31.087500000000002,0.0,1782.046,-0.4549999999999983,100.0,28.694,28.808,44.199,44.448,0.0,0.0,100.0,0.0,0.0,0.0,0.0,3187.4285714285716,3033.3,4216.555555555556,4239.7,305.379,305.07475,314.662,314.3715,22.1068,20.6907,22.1043,21.6061,314.999998,314.999998,324.999988,324.999988,99.56012857142858,99.50755,99.56958571428571,99.54985714285715,0.10133333333333372,-0.04233333333333311,-0.09833333333333338,0.12400000000000011,-0.04999999999999716,-0.054999999999999716,1.5083333333333333,1.488,39.167,30.316499999999998,39.152,36.038,56.129000000000005,35.8015,60.2005,53.5545,54.043,34.862,58.747,51.84,53.171,34.365,58.6125,51.226,-0.11699999999999999,-0.04699999999999993,0.10446000000000001,0.10682000000000001,0.0,219.10500000000002,219.10500000000002,215.75333333333333,215.75333333333333,0.0,0.0
34,0.0,0.0,0.0,1.0,1.0,0.0,0.0,1.0,0.0,0.0,1.0,1.1856,26.0,0.0,0.0,0.0,59.999996,0.0,26.0,26.0,26.0,26.0,0.020888888888888957,0.25160000000000005,-0.056325,291.779,-2.7394,-2.690875,-1.6419000000000001,-1.5591,-160.07,215.7625,190.226,0.0,0.0,0.0,0.0,0.0688,-5.498166666666667,-5.498166666666667,-0.6423,-0.6805000000000001,0.005666666666666709,1.0230000000000001,70.129,0.02110000000000012,-0.22495,-0.39999999999999947,100.0,1.0,1.0,216.19666666666666,0.0,0.0,0.0,0.0,0.0,0.0,0.0,9163.8,0.0,55.0,5.0,252.44,0.0,0.0,0.0,0.0,0.0,0.0,1.0,0.0,1.7070000000000007,1.7070000000000007,0.0,0.0,0.0,55.0,616.79921,10000.0,85.000001,85.000001,85.000001,85.000001,395.0,0.0,0.0,0.0,1.0,111.11,52.124,52.124,47.256,47.256,34.0,-21.89,25.762,-28.3,30.86,0.0,1781.997,-0.4349999999999987,100.0,28.587,28.352,43.942,44.345,0.0,0.0,100.0,0.0,0.0,0.0,0.0,2989.857142857143,3131.4,4051.777777777778,4218.4,305.6205,304.99025,315.0505,314.456,22.116,20.6963,22.1146,21.6154,314.999998,314.999998,324.999988,324.999988,99.56014285714286,99.50755,99.56972857142857,99.54998571428571,0.11833333333333362,-0.026000000000000023,-0.09216666666666662,0.13716666666666666,-0.046666666666666856,-0.04333333333332945,1.525,1.508,39.224999999999994,30.3515,39.216,36.096000000000004,56.117000000000004,35.835499999999996,60.2325,53.6115,54.031,34.894,58.777,51.8945,53.158,34.394999999999996,58.638999999999996,51.279333333333334,-0.11449999999999994,-0.04800000000000004,0.110765,0.10618500000000002,0.0,219.47,219.495,216.19666666666666,216.19666666666666,0.0,0.0
35,0.0,0.0,0.0,1.0,1.0,0.0,0.0,1.0,0.0,0.0,1.0,1.1856,26.0,0.0,0.0,0.0,59.999996,0.0,26.0,26.0,26.0,26.0,0.028444444444444272,0.25429999999999997,-0.081775,291.809,-2.7169,-2.6423750000000004,-1.6178,-1.5184,-156.28,215.745,190.194125,0.0,0.0,0.0,0.0,0.07100000000000001,-5.498166666666667,-5.498166666666667,-0.6825,-0.20300000000000007,-0.010333333333333083,-0.07899999999999996,70.264,0.030200000000000005,-0.22705,-0.47799999999999976,100.0,1.0,1.0,216.69,0.0,0.0,0.0,0.0,0.0,0.0,0.0,9184.7,0.0,55.0,5.0,252.92333333333335,1.0,0.0,0.0,0.0,0.0,0.0,1.0,0.0,1.7609999999999992,1.7609999999999992,0.0,0.0,1.0,55.0,616.79921,10000.0,85.000001,85.000001,85.000001,85.000001,395.0,0.0,0.0,0.0,1.0,111.11,51.62,51.62,46.982,46.982,34.0,-22.285,28.398,-26.386666666666663,29.0675,0.0,1781.942,-0.3150000000000013,100.0,28.363,28.673000000000002,43.708,43.847,0.0,0.0,100.0,0.0,0.0,0.0,0.0,3077.285714285714,3419.9,3964.777777777778,4008.0,305.519,304.067,315.21275,314.99725,22.1256,20.7024,22.1254,21.625,314.999998,314.999998,324.999988,324.999988,99.56017142857142,99.50756666666666,99.56987142857143,99.55014285714286,0.11733333333333373,-0.020000000000000018,-0.07599999999999996,0.15316666666666667,-0.03833333333332689,-0.05333333333332746,1.5583333333333333,1.544,39.285,30.39,39.284,36.1565,56.101,35.8765,60.2685,53.671,54.016,34.932,58.8105,51.952,53.141999999999996,34.4315,58.669,51.33533333333334,-0.10649999999999993,-0.05400000000000005,0.10783500000000001,0.10730500000000001,0.0,219.89,219.92000000000002,216.69,216.69,0.0,0.0
36,0.0,0.0,0.0,1.0,1.0,0.0,0.0,1.0,0.0,0.0,1.0,1.1856,26.0,0.0,0.0,0.0,59.999996,0.0,26.0,26.0,26.0,26.0,0.05777777777777793,0.2613000000000001,0.06280000000000001,290.985,-2.6456,-2.7175000000000002,-1.5703,-1.5744,-152.9,215.73250000000002,190.164625,0.0,0.0,0.0,0.0,0.07296666666666667,-5.498166666666667,-5.498166666666667,-0.6637000000000001,0.14649999999999996,-0.04688888888888876,0.30699999999999994,70.387,0.02950000000000008,-0.2026,-0.23399999999999999,100.0,1.0,1.0,216.81666666666666,0.0,0.0,0.0,0.0,0.0,0.0,0.0,9190.1,0.0,55.0,5.0,253.36666666666667,0.0,0.0,0.0,0.0,0.0,0.0,1.0,0.0,1.809000000000001,1.809000000000001,0.0,0.0,0.0,55.0,616.79921,10000.0,85.000001,85.000001,85.000001,85.000001,395.0,0.0,0.0,0.0,1.0,166.665,51.513999999999996,51.513999999999996,46.249,46.249,34.0,-21.035,26.607999999999997,-29.12,35.582499999999996,0.0,1781.896,-0.2749999999999986,100.0,28.938,28.875,43.925,44.22,0.0,0.0,100.0,0.0,0.0,0.0,0.0,3009.5714285714284,3178.1,4355.777777777777,4577.7,305.4695,304.688,314.26275,313.64975,22.1344,20.708,22.1353,21.6339,314.999998,314.999998,324.999988,324.999988,99.56018571428571,99.50756666666666,99.57002857142857,99.5503,0.1246666666666667,-0.02733333333333321,-0.07166666666666666,0.15466666666666673,-0.03833333333332689,-0.051666666666669414,1.4466666666666668,1.4345,39.34,30.424500000000002,39.345,36.2115,56.09,35.9135,60.3035,53.729,54.006,34.966499999999996,58.8425,52.007999999999996,53.131,34.465,58.698499999999996,51.39,-0.10499999999999998,-0.0605,0.10636000000000001,0.10801500000000001,0.0,220.29500000000002,220.31,216.81666666666666,216.81666666666666,0.0,0.0
