,ABS Active,ABS Enabled,AID Allow Tire Blankets,AID Auto Blip,AID Auto Clutch,AID Auto Shift,AID Fuel Rate,AID Ideal Line,AID Mech Damage,AID Stability,AID Tire Wear Rate,Air Density,Air Temp,Ballast,Best Lap Delta,Best Lap Time,Brake Bias,Brake Pos,Brake Temp FL,Brake Temp FR,Brake Temp RL,Brake Temp RR,CG Accel Lateral,CG Accel Longitudinal,CG Accel Vertical,CG Height,Camber FL,Camber FR,Camber RL,Camber RR,Car Coord X,Car Coord Y,Car Coord Z,Car Damage Front,Car Damage Left,Car Damage Rear,Car Damage Right,Car Pos Norm,Caster FL,Caster FR,Chassis Pitch Angle,Chassis Pitch Rate,Chassis Roll Angle,Chassis Roll Rate,Chassis Velocity X,Chassis Velocity Y,Chassis Velocity Z,Chassis Yaw Rate,Clutch Pos,DRS Active,DRS Available,Drive Train Speed,ERS Heat Charging,ERS Is Charging,ERS Max Energy,ERS Power Level,ERS Recovery Level,Engine Brake Setting,Engine Limiter,Engine RPM,Flags,Fuel Level,Gear,Ground Speed,HR Sample Clock,In Pit,KERS Charge,KERS Deployed Energy,KERS Input,KERS Max Energy,LR Sample Clock,Lap Invalidated,Lap Time,Lap Time2,Last Lap Time,Last Sector Time,MR Sample Clock,Max Fuel,Max Power,Max RPM,Max Sus Travel FL,Max Sus Travel FR,Max Sus Travel RL,Max Sus Travel RR,Max Torque,Max Turbo Boost,Num Tires Off Track,Penalties Enabled,Position,Raw Data Sample Rate,Ride Height FL,Ride Height FR,Ride Height RL,Ride Height RR,Road Temp,Self Align Torque FL,Self Align Torque FR,Self Align Torque RL,Self Align Torque RR,Session Lap Count,Session Time Left,Steering Angle,Surface Grip,Suspension Travel FL,Suspension Travel FR,Suspension Travel RL,Suspension Travel RR,TC Active,TC Enabled,Throttle Pos,Tire Dirt Level FL,Tire Dirt Level FR,Tire Dirt Level RL,Tire Dirt Level RR,Tire Load FL,Tire Load FR,Tire Load RL,Tire Load RR,Tire Loaded Radius FL,Tire Loaded Radius FR,Tire Loaded Radius RL,Tire Loaded Radius RR,Tire Pressure FL,Tire Pressure FR,Tire Pressure RL,Tire Pressure RR,Tire Radius FL,Tire Radius FR,Tire Radius RL,Tire Radius RR,Tire Rubber Grip FL,Tire Rubber Grip FR,Tire Rubber Grip RL,Tire Rubber Grip RR,Tire Slip Angle FL,Tire Slip Angle FR,Tire Slip Angle RL,Tire Slip Angle RR,Tire Slip Ratio FL,Tire Slip Ratio FR,Tire Slip Ratio RL,Tire Slip Ratio RR,Tire Temp Core FL,Tire Temp Core FR,Tire Temp Core RL,Tire Temp Core RR,Tire Temp Inner FL,Tire Temp Inner FR,Tire Temp Inner RL,Tire Temp Inner RR,Tire Temp Middle FL,Tire Temp Middle FR,Tire Temp Middle RL,Tire Temp Middle RR,Tire Temp Outer FL,Tire Temp Outer FR,Tire Temp Outer RL,Tire Temp Outer RR,Toe In FL,Toe In FR,Toe In RL,Toe In RR,Turbo Boost,Wheel Angular Speed FL,Wheel Angular Speed FR,Wheel Angular Speed RL,Wheel Angular Speed RR,Wind Direction,Wind Speed
0,0.0,0.0,0.0,1.0,1.0,0.0,0.0,1.0,0.0,0.0,1.0,1.1856,26.0,0.0,0.0,0.0,59.99999,0.0,26.0,26.0,26.0,26.0,-0.017555555555555546,0.3024,0.128975,293.045,-2.7385,-2.47,-1.5534,-1.5150000000000001,-275.44,215.57,190.986,0.0,0.0,0.0,0.0,0.0017333333333333333,-5.498166666666667,-5.498166666666667,-0.5515,2.3000000000000003,-0.007249999999999979,-0.612,65.531,-0.028900000000000002,-0.22005000000000002,0.14200000000000124,100.0,1.0,1.0,202.2866666666667,0.0,0.0,0.0,0.0,0.0,0.0,0.0,8574.2,0.0,55.0,5.0,235.88333333333333,0.0,0.0,0.0,0.0,0.0,0.0,0.0,0.0,0.006000000000000227,0.006000000000000227,0.0,0.0,0.0,55.0,616.79921,10000.0,85.0,85.0,85.0,85.0,395.0,0.0,0.0,0.0,1.0,20.0,50.797,50.797,48.325,48.325,34.0,-28.112499999999997,28.742,-28.773333333333333,27.12,0.0,1783.565,0.35999999999999943,100.0,27.459,27.637,40.532,40.121,0.0,0.0,100.0,0.0,0.0,0.0,0.0,3251.714285714286,4064.1000000000004,4119.625,4140.8,304.8235,301.49833333333333,314.81825,314.575,21.7714,20.5124,21.7667,21.3093,314.99999,314.99999,324.99998,324.99998,99.55865714285714,99.50716666666666,99.56502857142857,99.54508571428572,0.02499999999999991,-0.09299999999999997,-0.118,0.09683333333333333,-0.05333333333332746,-0.047142857142851824,1.54,1.5550000000000002,37.071,29.202666666666666,37.042,34.183,56.2,34.464,59.007999999999996,51.563,54.125,33.6475,57.637,49.9255,53.298,33.222,57.601,49.353,-0.05349999999999999,-0.09800000000000009,0.09314000000000001,0.11633,0.0,205.32999999999998,205.31,202.2866666666667,202.2866666666667,0.0,0.0
1,0.0,0.0,0.0,1.0,1.0,0.0,0.0,1.0,0.0,0.0,1.0,1.1856,26.0,0.0,0.0,0.0,59.999996,0.0,26.0,26.0,26.0,26.0,-0.08633333333333337,0.3238000000000001,0.22987500000000002,292.465,-2.6525,-2.7032,-1.5979,-1.3844,-272.09,215.5725,190.966125,0.0,0.0,0.0,0.0,0.0036666666666666666,-5.498166666666667,-5.498166666666667,-0.4823,-2.137666666666667,-0.050124999999999975,-0.64,65.689,-0.027100000000000003,-0.19115000000000001,0.6379999999999999,100.0,1.0,1.0,202.23333333333335,0.0,0.0,0.0,0.0,0.0,0.0,0.0,8571.9,0.0,55.0,5.0,236.45,1.0,0.0,0.0,0.0,0.0,0.0,0.0,0.0,0.05699999999999861,0.05699999999999861,0.0,0.0,1.0,55.0,616.79921,10000.0,85.000001,85.000001,85.000001,85.000001,395.0,0.0,0.0,0.0,1.0,166.665,54.291,54.291,47.592,47.592,34.0,-23.0925,17.157999999999998,-37.47,31.677500000000002,0.0,1783.512,0.38500000000000156,100.0,27.429,26.978,42.492000000000004,43.374,0.0,0.0,100.0,0.0,0.0,0.0,0.0,2867.4285714285716,2472.0,4696.25,5123.3,306.1585,306.9533333333333,313.24675,311.75225,21.7811,20.5173,21.7776,21.3187,314.999998,314.999998,324.999988,324.999988,99.55865714285714,99.5072,99.56517142857143,99.54522857142857,0.03200000000000003,-0.10299999999999998,-0.14300000000000002,0.0601666666666667,-0.04999999999999716,-0.030000000000001137,1.2873333333333332,1.3445,37.132,29.233,37.11,34.242,56.182,34.4995,59.056,51.634,54.108000000000004,33.6805,57.682,49.9935,53.281,33.254,57.643,49.419666666666664,-0.041999999999999926,-0.10450000000000004,0.103315,0.10747000000000001,0.0,205.775,205.73000000000002,202.23333333333335,202.23333333333335,0.0,0.0
2,0.0,0.0,0.0,1.0,1.0,0.0,0.0,1.0,0.0,0.0,1.0,1.1856,26.0,0.0,0.0,0.0,59.999996,0.0,26.0,26.0,26.0,26.0,-0.10111111111111104,0.2912000000000001,-0.112625,294.037,-2.6423,-2.6505,-1.5748,-1.5051999999999999,-268.74,215.5725,190.94725,0.0,0.0,0.0,0.0,0.005633333333333334,-5.498166666666667,-5.498166666666667,-0.5746,0.9356666666666669,-0.0016250000000002096,2.649,65.824,-0.0316,-0.26585000000000003,0.8499999999999996,100.0,1.0,1.0,203.61666666666667,0.0,0.0,0.0,0.0,0.0,0.0,0.0,8630.6,0.0,55.0,5.0,236.93666666666667,0.0,0.0,0.0,0.0,0.0,0.0,0.0,0.0,0.10800000000000054,0.10800000000000054,0.0,0.0,0.0,55.0,616.79921,10000.0,85.000001,85.000001,85.000001,85.000001,395.0,0.0,0.0,0.0,1.0,333.33500000000004,52.094,52.094,50.873,50.873,34.0,-27.427500000000002,21.938,-25.046666666666667,19.3675,0.0,1783.461,0.5300000000000011,100.0,28.196,27.362000000000002,41.699,41.424,0.0,0.0,100.0,0.0,0.0,0.0,0.0,3228.857142857143,3165.0,3491.5,3451.6,304.8215,304.702,316.33325,316.3645,21.7913,20.5225,21.7878,21.3271,314.999998,314.999998,324.999988,324.999988,99.55865714285714,99.50721666666666,99.56531428571428,99.54535714285714,0.01750000000000007,-0.11533333333333329,-0.17049999999999998,0.06333333333333324,-0.04833333333333201,-0.08714285714285097,1.7726666666666666,1.806,37.195,29.265666666666668,37.174,34.294,56.169,34.54,59.092,51.682,54.096000000000004,33.718,57.7155,50.043,53.268,33.292,57.672,49.468333333333334,-0.040000000000000036,-0.11949999999999994,0.10848500000000001,0.10600000000000001,0.0,206.235,206.175,203.61666666666667,203.61666666666667,0.0,0.0
3,0.0,0.0,0.0,1.0,1.0,0.0,0.0,1.0,0.0,0.0,1.0,1.1856,26.0,0.0,0.0,0.0,59.999996,0.0,26.0,26.0,26.0,26.0,-0.07811111111111102,0.32210000000000005,0.165625,293.091,-2.659,-2.6891,-1.546,-1.4862,-265.57,215.57,190.928125,0.0,0.0,0.0,0.0,0.0074666666666666675,-5.498166666666667,-5.498166666666667,-0.5021,0.34133333333333327,0.0021249999999999325,-1.306,65.973,-0.0432,-0.187375,0.718,100.0,1.0,1.0,203.44,0.0,0.0,0.0,0.0,0.0,0.0,0.0,8623.0,0.0,55.0,5.0,237.47,1.0,0.0,0.0,0.0,0.0,0.0,0.0,0.0,0.1559999999999988,0.1559999999999988,0.0,0.0,1.0,55.0,616.79921,10000.0,85.000001,85.000001,85.000001,85.000001,395.0,0.0,0.0,0.0,1.0,166.665,53.329,53.329,47.653,47.653,34.0,-24.07,20.272,-34.013333333333335,27.415,0.0,1783.415,0.6900000000000013,100.0,27.747,27.326999999999998,42.082,41.96,0.0,0.0,100.0,0.0,0.0,0.0,0.0,2889.4285714285716,2952.9,4479.625,4312.5,306.1085,305.4236666666667,313.87925,314.06325,21.8003,20.5275,21.7976,21.3356,314.999998,314.999998,324.999988,324.999988,99.55865714285714,99.50723333333333,99.56544285714286,99.5455,0.013250000000000206,-0.1213333333333333,-0.14816666666666656,0.07566666666666677,-0.04333333333332945,-0.06285714285714761,1.4446666666666668,1.4659999999999997,37.251999999999995,29.297,37.235,34.3475,56.152,34.58,59.1285,51.7455,54.079,33.754999999999995,57.749,50.1005,53.251000000000005,33.325,57.705,49.525,-0.028000000000000025,-0.12850000000000006,0.10713,0.10806500000000001,0.0,206.71,206.64499999999998,203.44,203.44,0.0,0.0
4,0.0,0.0,0.0,1.0,1.0,0.0,0.0,1.0,0.0,0.0,1.0,1.1856,26.0,0.0,0.0,0.0,59.999996,0.0,26.0,26.0,26.0,26.0,-0.10733333333333339,0.29069999999999996,-0.04825,293.503,-2.651,-2.7567,-1.4823,-1.5991,-262.01,215.565,190.907625,0.0,0.0,0.0,0.0,0.009533333333333333,-5.498166666666667,-5.498166666666667,-0.535,-0.7456666666666667,-0.052000000000000046,0.506,66.126,-0.0546,-0.237825,1.1300000000000008,100.0,1.0,1.0,204.11,0.0,0.0,0.0,0.0,0.0,0.0,0.0,8651.4,0.0,55.0,5.0,238.02666666666667,0.0,0.0,0.0,0.0,0.0,0.0,0.0,0.0,0.21000000000000085,0.21000000000000085,0.0,0.0,0.0,55.0,616.79921,10000.0,85.000001,85.000001,85.000001,85.000001,395.0,0.0,0.0,0.0,1.0,166.665,53.146,53.146,48.813,48.813,34.0,-27.205,20.95,-30.656666666666666,23.247500000000002,0.0,1783.362,0.629999999999999,100.0,27.737000000000002,26.853,42.808,41.92,0.0,0.0,100.0,0.0,0.0,0.0,0.0,3128.857142857143,2955.4,4056.625,3847.0,305.231,305.477,314.9035,315.28525,21.8107,20.5329,21.8089,21.3451,314.999998,314.999998,324.999988,324.999988,99.55867142857143,99.50723333333333,99.5656,99.54564285714285,-0.0017499999999999183,-0.1186666666666667,-0.1845,0.0431666666666668,-0.045000000000001705,-0.06142857142857139,1.554,1.589,37.317,29.330666666666666,37.305,34.4065,56.135,34.6225,59.173,51.8085,54.063,33.794,57.791,50.161,53.233000000000004,33.3625,57.7435,49.584,-0.020000000000000018,-0.12149999999999994,0.10622500000000001,0.10712500000000001,0.0,207.14,207.05,204.11,204.11,0.0,0.0
5,0.0,0.0,0.0,1.0,1.0,0.0,0.0,1.0,0.0,0.0,1.0,1.1856,26.0,0.0,0.0,0.0,59.999996,0.0,26.0,26.0,26.0,26.0,-0.08833333333333337,0.3042,-0.050475,293.808,-2.6751,-2.7351,-1.5213,-1.581,-258.63,215.56,190.88775,0.0,0.0,0.0,0.0,0.0115,-5.498166666666667,-5.498166666666667,-0.5341,0.5726666666666669,-0.03750000000000009,-0.62,66.272,-0.07060000000000001,-0.2185,1.064,100.0,1.0,1.0,204.61333333333334,0.0,0.0,0.0,0.0,0.0,0.0,0.0,8672.9,0.0,55.0,5.0,238.55,1.0,0.0,0.0,0.0,0.0,0.0,0.0,0.0,0.26099999999999923,0.26099999999999923,0.0,0.0,1.0,55.0,616.79921,10000.0,85.000001,85.000001,85.000001,85.000001,395.0,0.0,0.0,0.0,1.0,166.665,53.467,53.467,49.225,49.225,34.0,-27.03,19.701999999999998,-31.133333333333333,22.725,0.0,1783.308,0.3000000000000007,100.0,27.512,26.891,42.312,41.501,0.0,0.0,100.0,0.0,0.0,0.0,0.0,3102.0,2850.6,3984.125,3971.8,305.4505,305.5593333333333,315.18375,314.985,21.8205,20.5381,21.8192,21.3538,314.999998,314.999998,324.999988,324.999988,99.55867142857143,99.50725,99.56574285714285,99.54578571428571,-0.0035000000000000586,-0.1299999999999999,-0.20366666666666666,0.022166666666666668,-0.061666666666667425,-0.06857142857143117,1.5813333333333333,1.633,37.378,29.363,37.370000000000005,34.4615,56.119,34.6655,59.213,51.87,54.047,33.8335,57.828,50.22,53.217,33.4,57.7775,49.641999999999996,-0.04749999999999999,-0.10250000000000004,0.10568500000000002,0.105145,0.0,207.65,207.54000000000002,204.61333333333334,204.61333333333334,0.0,0.0
6,0.0,0.0,0.0,1.0,1.0,0.0,0.0,1.0,0.0,0.0,1.0,1.1856,26.0,0.0,0.0,0.0,59.999996,0.0,26.0,26.0,26.0,26.0,-0.11144444444444446,0.29190000000000005,0.0118,293.594,-2.7021,-2.7889,-1.5162,-1.5668000000000002,-255.64,215.55,190.869375,0.0,0.0,0.0,0.0,0.013233333333333335,-5.498166666666667,-5.498166666666667,-0.526,-0.268,-0.054625000000000146,0.662,66.40299999999999,-0.07100000000000001,-0.20372500000000002,0.7479999999999993,100.0,1.0,1.0,204.86,0.0,0.0,0.0,0.0,0.0,0.0,0.0,8683.3,0.0,55.0,5.0,239.0233333333333,0.0,0.0,0.0,0.0,0.0,0.0,0.0,0.0,0.30600000000000094,0.30600000000000094,0.0,0.0,0.0,55.0,616.79921,10000.0,85.000001,85.000001,85.000001,85.000001,395.0,0.0,0.0,0.0,1.0,166.665,53.741,53.741,48.615,48.615,34.0,-27.185000000000002,20.355999999999998,-33.10333333333333,24.9625,0.0,1783.263,0.23499999999999943,100.0,27.426,26.385,42.661,41.558,0.0,0.0,100.0,0.0,0.0,0.0,0.0,3101.714285714286,2875.9,4196.375,4115.2,305.366,305.719,314.52375,314.6605,21.8291,20.5426,21.8285,21.3617,314.999998,314.999998,324.999988,324.999988,99.55867142857143,99.50726666666667,99.56587142857143,99.5459,0.0015000000000000568,-0.12366666666666681,-0.19033333333333335,0.04183333333333339,-0.036666666666668846,-0.054285714285711606,1.4843333333333333,1.5145,37.432,29.391,37.428,34.510999999999996,56.105000000000004,34.6975,59.2475,51.921,54.034,33.863,57.86,50.269,53.203,33.4285,57.8075,49.68933333333334,-0.04799999999999993,-0.09800000000000009,0.11137500000000002,0.10993000000000001,0.0,208.005,207.95499999999998,204.86,204.86,0.0,0.0
7,0.0,0.0,0.0,1.0,1.0,0.0,0.0,1.0,0.0,0.0,1.0,1.1856,26.0,0.0,0.0,0.0,59.999996,0.0,26.0,26.0,26.0,26.0,-0.08877777777777784,0.2854000000000001,-0.01855,293.564,-2.6698,-2.7796000000000003,-1.5707,-1.5467,-252.05,215.5375,190.847625,0.0,0.0,0.0,0.0,0.015333333333333334,-5.498166666666667,-5.498166666666667,-0.5324,0.1060000000000001,-0.04037500000000005,1.276,66.556,-0.0707,-0.21380000000000002,0.5600000000000005,100.0,1.0,1.0,205.4,0.0,0.0,0.0,0.0,0.0,0.0,0.0,8706.2,0.0,55.0,5.0,239.57333333333332,1.0,0.0,0.0,0.0,0.0,0.0,0.0,0.0,0.35999999999999943,0.35999999999999943,0.0,0.0,1.0,55.0,616.79921,10000.0,85.000001,85.000001,85.000001,85.000001,395.0,0.0,0.0,0.0,1.0,111.11,53.391,53.391,48.706,48.706,34.0,-25.275,22.064,-32.10333333333333,23.9625,0.0,1783.212,-0.0799999999999983,100.0,27.718,26.701,42.705,41.614000000000004,0.0,0.0,100.0,0.0,0.0,0.0,0.0,3060.142857142857,2940.5,4099.0,4022.6000000000004,305.433,305.496,314.8325,314.939,21.8396,20.5481,21.8396,21.3712,314.999998,314.999998,324.999988,324.999988,99.55867142857143,99.50728333333333,99.56602857142857,99.54605714285714,0.03275000000000006,-0.09333333333333327,-0.18299999999999994,0.045500000000000096,-0.041666666666671404,-0.06571428571428584,1.5566666666666666,1.565,37.497,29.425666666666665,37.497,34.57,56.089,34.7405,59.289500000000004,51.984,54.019,33.902,57.8995,50.329499999999996,53.188,33.466,57.8435,49.748666666666665,-0.08899999999999997,-0.06299999999999994,0.1053,0.11556000000000001,0.0,208.485,208.43,205.4,205.4,0.0,0.0
8,0.0,0.0,0.0,1.0,1.0,0.0,0.0,1.0,0.0,0.0,1.0,1.1856,26.0,0.0,0.0,0.0,59.999996,0.0,26.0,26.0,26.0,26.0,-0.05944444444444441,0.2855000000000001,-0.02,293.533,-2.6955,-2.7127,-1.5453999999999999,-1.6038999999999999,-248.86,215.525,190.828125,0.0,0.0,0.0,0.0,0.0172,-5.498166666666667,-5.498166666666667,-0.5378000000000001,-0.16166666666666663,-0.03212500000000018,0.38,66.693,-0.058300000000000005,-0.219975,0.21199999999999974,100.0,1.0,1.0,205.82,0.0,0.0,0.0,0.0,0.0,0.0,0.0,8724.0,0.0,55.0,5.0,240.06333333333333,0.0,0.0,0.0,0.0,0.0,0.0,0.0,0.0,0.40800000000000125,0.40800000000000125,0.0,0.0,0.0,55.0,616.79921,10000.0,85.000001,85.000001,85.000001,85.000001,395.0,0.0,0.0,0.0,1.0,333.33500000000004,53.345,53.345,48.538,48.538,34.0,-25.0275,22.799999999999997,-29.990000000000002,25.7825,0.0,1783.161,-0.16499999999999915,100.0,27.498,26.876,42.679,41.803,0.0,0.0,100.0,0.0,0.0,0.0,0.0,3028.0,3047.8,4019.25,4005.4,305.593,305.16633333333334,315.023,314.9015,21.8487,20.5531,21.8494,21.3797,314.999998,314.999998,324.999988,324.999988,99.55867142857143,99.5073,99.56615714285714,99.54618571428571,0.035250000000000004,-0.08366666666666678,-0.16116666666666657,0.06666666666666687,-0.03833333333332689,-0.054285714285711606,1.5546666666666666,1.561,37.554,29.456666666666663,37.559,34.623,56.074,34.7775,59.326499999999996,52.042,54.004999999999995,33.9365,57.934,50.385,53.173,33.499,57.8755,49.803,-0.08899999999999997,-0.05750000000000011,0.10590500000000001,0.11254000000000002,0.0,208.89,208.86,205.82,205.82,0.0,0.0
9,0.0,0.0,0.0,1.0,1.0,0.0,0.0,1.0,0.0,0.0,1.0,1.1856,26.0,0.0,0.0,0.0,59.999996,0.0,26.0,26.0,26.0,26.0,-0.023666666666666614,0.28600000000000003,-0.0063750000000000005,293.228,-2.6234,-2.7193,-1.5458,-1.5582,-245.45,215.51,190.80725,0.0,0.0,0.0,0.0,0.019166666666666665,-5.498166666666667,-5.498166666666667,-0.5337000000000001,0.2550000000000001,-0.04112500000000008,-0.61,66.837,-0.0441,-0.21245,0.06799999999999962,100.0,1.0,1.0,206.24,0.0,0.0,0.0,0.0,0.0,0.0,0.0,8741.8,0.0,55.0,5.0,240.58333333333331,1.0,0.0,0.0,0.0,0.0,0.0,0.0,0.0,0.45899999999999963,0.45899999999999963,0.0,0.0,1.0,55.0,616.79921,10000.0,85.000001,85.000001,85.000001,85.000001,395.0,0.0,0.0,0.0,1.0,166.665,52.948,52.948,48.615,48.615,34.0,-25.6625,22.546,-30.799999999999997,26.3475,0.0,1783.111,-0.370000000000001,100.0,27.615,27.169,42.522,41.997,0.0,0.0,100.0,0.0,0.0,0.0,0.0,3225.4285714285716,2960.7,4128.875,4088.1000000000004,305.1415,305.264,314.84675,314.6635,21.8585,20.5583,21.8599,21.3886,314.999998,314.999998,324.999988,324.999988,99.55868571428572,99.5073,99.5663,99.54632857142857,0.044500000000000206,-0.07733333333333325,-0.15816666666666657,0.07433333333333336,-0.05333333333332746,-0.057142857142849834,1.5350000000000001,1.5354999999999999,37.616,29.489666666666665,37.623999999999995,34.679,56.06,34.817,59.3655,52.102000000000004,53.991,33.9725,57.9705,50.442499999999995,53.158,33.533500000000004,57.908500000000004,49.85966666666667,-0.10199999999999998,-0.04499999999999993,0.11064500000000001,0.111195,0.0,209.34,209.32999999999998,206.24,206.24,0.0,0.0
10,0.0,0.0,0.0,1.0,1.0,0.0,0.0,1.0,0.0,0.0,1.0,1.1856,26.0,0.0,0.0,0.0,59.999996,0.0,26.0,26.0,26.0,26.0,-0.018111111111111078,0.2881,0.012425,293.198,-2.6843,-2.6941,-1.5110000000000001,-1.5391,-242.04,215.495,190.7865,0.0,0.0,0.0,0.0,0.021166666666666667,-5.498166666666667,-5.498166666666667,-0.5309,-0.30933333333333335,-0.007124999999999826,1.51,66.982,-0.0279,-0.21375000000000002,-0.19399999999999995,100.0,1.0,1.0,206.61,0.0,0.0,0.0,0.0,0.0,0.0,0.0,8757.4,0.0,55.0,5.0,241.10333333333335,0.0,0.0,0.0,0.0,0.0,0.0,1.0,0.0,0.509999999999998,0.509999999999998,0.0,0.0,0.0,55.0,616.79921,10000.0,85.000001,85.000001,85.000001,85.000001,395.0,0.0,0.0,0.0,1.0,166.665,53.299,53.299,48.355000000000004,48.355000000000004,34.0,-23.015,23.706,-28.43,28.655,0.0,1783.061,-0.41499999999999915,100.0,27.616,26.957,42.699,42.266999999999996,0.0,0.0,100.0,0.0,0.0,0.0,0.0,2964.5714285714284,3061.1,4075.25,4266.6,305.729,305.16366666666664,314.86975,314.29,21.8682,20.5636,21.8704,21.3977,314.999998,314.999998,324.999988,324.999988,99.5587,99.50731666666667,99.56644285714286,99.54647142857142,0.06950000000000012,-0.06000000000000005,-0.1263333333333334,0.09533333333333327,-0.05666666666667197,-0.034285714285715585,1.5306666666666666,1.505,37.676,29.522666666666666,37.69,34.736,56.046,34.8545,59.405,52.164500000000004,53.977999999999994,34.0075,58.0075,50.5025,53.144,33.5665,57.943,49.918,-0.10999999999999999,-0.04049999999999998,0.10346500000000002,0.112445,0.0,209.775,209.76,206.61,206.61,0.0,0.0
11,0.0,0.0,0.0,1.0,1.0,0.0,0.0,1.0,0.0,0.0,1.0,1.1856,26.0,0.0,0.0,0.0,59.999996,0.0,26.0,26.0,26.0,26.0,-0.0003333333333332966,0.28170000000000006,-0.0308,293.457,-2.6914,-2.6902,-1.5706,-1.5171000000000001,-238.82,215.48000000000002,190.766625,0.0,0.0,0.0,0.0,0.022600000000000002,-5.498166666666667,-5.498166666666667,-0.5508000000000001,-0.16566666666666663,0.014499999999999957,0.81,67.114,-0.0146,-0.22315000000000002,-0.39399999999999924,100.0,1.0,1.0,207.13666666666666,0.0,0.0,0.0,0.0,0.0,0.0,0.0,8779.7,0.0,55.0,5.0,241.58333333333334,1.0,0.0,0.0,0.0,0.0,0.0,1.0,0.0,0.5579999999999998,0.5579999999999998,0.0,0.0,1.0,55.0,616.79921,10000.0,85.000001,85.000001,85.000001,85.000001,395.0,0.0,0.0,0.0,1.0,166.665,53.207,53.207,48.843,48.843,34.0,-22.787499999999998,25.310000000000002,-27.1,27.77,0.0,1783.011,-0.495000000000001,100.0,27.365,27.059,42.425,42.321,0.0,0.0,100.0,0.0,0.0,0.0,0.0,2999.0,3137.2,3887.5,4095.0,305.6445,304.9116666666667,315.3635,314.7375,21.8772,20.5686,21.8801,21.4062,314.999998,314.999998,324.999988,324.999988,99.55871428571429,99.50731666666667,99.56658571428571,99.54661428571428,0.08375000000000021,-0.03733333333333322,-0.1203333333333334,0.11650000000000005,-0.03999999999999915,-0.06285714285714761,1.5766666666666667,1.5635,37.733000000000004,29.554000000000002,37.751000000000005,34.789,56.033,34.89,59.439,52.221000000000004,53.965,34.04,58.039,50.557,53.129999999999995,33.598,57.972,49.971666666666664,-0.11599999999999999,-0.03249999999999997,0.10877,0.10985,0.0,210.16500000000002,210.185,207.13666666666666,207.13666666666666,0.0,0.0
12,0.0,0.0,0.0,1.0,1.0,0.0,0.0,1.0,0.0,0.0,1.0,1.1856,26.0,0.0,0.0,0.0,59.999996,0.0,26.0,26.0,26.0,26.0,0.025222222222222257,0.29280000000000017,0.017625000000000002,293.015,-2.725,-2.6795,-1.5514000000000001,-1.5354,-235.39,215.4625,190.74475,0.0,0.0,0.0,0.0,0.025466666666666665,-5.498166666666667,-5.498166666666667,-0.5397000000000001,0.3460000000000001,0.012249999999999872,-0.874,67.258,0.0012000000000000001,-0.20342500000000002,-0.35999999999999943,100.0,1.0,1.0,207.47,0.0,0.0,0.0,0.0,0.0,0.0,0.0,8793.9,0.0,55.0,5.0,242.09666666666666,0.0,0.0,0.0,0.0,0.0,0.0,1.0,0.0,0.6089999999999982,0.6089999999999982,0.0,0.0,0.0,55.0,616.79921,10000.0,85.000001,85.000001,85.000001,85.000001,395.0,0.0,0.0,0.0,1.0,166.665,52.933,52.933,48.096000000000004,48.096000000000004,34.0,-23.96,24.302,-29.026666666666664,28.89,0.0,1782.961,-0.00999999999999801,100.0,27.346,27.541,42.299,42.479,0.0,0.0,100.0,0.0,0.0,0.0,0.0,3102.5714285714284,3081.8,4171.5,4213.8,305.5135,304.88666666666666,314.74625,314.3795,21.8869,20.5741,21.8905,21.4152,314.999998,314.999998,324.999988,324.999988,99.55871428571429,99.50731666666667,99.56671428571428,99.54674285714286,0.08000000000000007,-0.05266666666666664,-0.11483333333333334,0.10899999999999999,-0.060000000000002274,-0.04142857142856826,1.5413333333333332,1.5215,37.793,29.588,37.816,34.845,56.019999999999996,34.9285,59.4765,52.2825,53.953,34.0755,58.074,50.6155,53.117000000000004,33.632,58.004,50.029333333333334,-0.09699999999999998,-0.0605,0.10821000000000001,0.10572000000000001,0.0,210.635,210.64499999999998,207.47,207.47,0.0,0.0
13,0.0,0.0,0.0,1.0,1.0,0.0,0.0,1.0,0.0,0.0,1.0,1.1856,26.0,0.0,0.0,0.0,59.999996,0.0,26.0,26.0,26.0,26.0,0.04055555555555568,0.2865,0.014150000000000001,292.831,-2.6997999999999998,-2.6853,-1.584,-1.5394999999999999,-232.16,215.4475,190.7245,0.0,0.0,0.0,0.0,0.0269,-5.498166666666667,-5.498166666666667,-0.5385,-0.29666666666666663,0.013125000000000053,-0.41000000000000003,67.391,0.0109,-0.215475,-0.48799999999999955,100.0,1.0,1.0,207.8466666666667,0.0,0.0,0.0,0.0,0.0,0.0,0.0,8809.9,0.0,55.0,5.0,242.57999999999998,1.0,0.0,0.0,0.0,0.0,0.0,1.0,0.0,0.657,0.657,0.0,0.0,1.0,55.0,616.79921,10000.0,85.000001,85.000001,85.000001,85.000001,395.0,0.0,0.0,0.0,1.0,333.33500000000004,52.826,52.826,48.065,48.065,34.0,-22.8375,24.854,-28.526666666666664,30.2,0.0,1782.911,-0.46499999999999986,100.0,27.533,27.622,42.6,42.888,0.0,0.0,100.0,0.0,0.0,0.0,0.0,3109.857142857143,3041.2,4138.125,4241.3,305.4905,305.01666666666665,314.785,314.28075,21.896,20.5792,21.9004,21.4239,314.999998,314.999998,324.999988,324.999988,99.55872857142857,99.50731666666667,99.56685714285715,99.54688571428571,0.10225000000000017,-0.03133333333333321,-0.09899999999999998,0.12416666666666676,-0.04833333333333201,-0.044285714285713595,1.5223333333333335,1.4849999999999999,37.849999999999994,29.619999999999997,37.878,34.899,56.009,34.964,59.513999999999996,52.341499999999996,53.942,34.1085,58.109,50.6725,53.105000000000004,33.6635,58.0355,50.085,-0.11949999999999994,-0.033500000000000085,0.10511000000000001,0.10976000000000001,0.0,211.035,211.035,207.8466666666667,207.8466666666667,0.0,0.0
14,0.0,0.0,0.0,1.0,1.0,0.0,0.0,1.0,0.0,0.0,1.0,1.1856,26.0,0.0,0.0,0.0,59.999996,0.0,26.0,26.0,26.0,26.0,0.03966666666666674,0.2673000000000001,-0.027775,293.076,-2.7116,-2.7015000000000002,-1.5766,-1.534,-228.72,215.435,190.703125,0.0,0.0,0.0,0.0,0.028900000000000002,-5.498166666666667,-5.498166666666667,-0.5497000000000001,0.02300000000000013,0.02837500000000004,0.924,67.531,0.021400000000000002,-0.22335000000000002,-0.556,100.0,1.0,1.0,208.37666666666667,0.0,0.0,0.0,0.0,0.0,0.0,0.0,8832.3,0.0,55.0,5.0,243.08333333333334,0.0,0.0,0.0,0.0,0.0,0.0,1.0,0.0,0.7079999999999984,0.7079999999999984,0.0,0.0,0.0,55.0,616.79921,10000.0,85.000001,85.000001,85.000001,85.000001,395.0,0.0,0.0,0.0,1.0,333.33500000000004,52.917,52.917,48.447,48.447,34.0,-21.544999999999998,26.03,-25.71,30.6,0.0,1782.861,-0.504999999999999,100.0,27.653,27.597,42.535,42.816,0.0,0.0,100.0,0.0,0.0,0.0,0.0,2958.142857142857,3119.9,3941.0,4154.4,305.7565,304.917,315.2325,314.59125,21.9055,20.5847,21.910800000000002,21.4329,314.999998,314.999998,324.999988,324.999988,99.55874285714286,99.50733333333334,99.56701428571428,99.54702857142857,0.11025000000000018,-0.020333333333333314,-0.07850000000000001,0.15466666666666673,-0.046666666666666856,-0.044285714285713595,1.5533333333333332,1.5310000000000001,37.91,29.654333333333334,37.943,34.956,55.995999999999995,35.004,59.5525,52.4065,53.929,34.1455,58.1445,50.735,53.092,33.699,58.068,50.146,-0.11099999999999999,-0.03600000000000003,0.10468000000000001,0.116915,0.0,211.45499999999998,211.47500000000002,208.37666666666667,208.37666666666667,0.0,0.0
15,0.0,0.0,0.0,1.0,1.0,0.0,0.0,1.0,0.0,0.0,1.0,1.1856,26.0,0.0,0.0,0.0,59.999996,0.0,26.0,26.0,26.0,26.0,0.05877777777777782,0.26880000000000015,-0.032,293.03,-2.7072,-2.6741,-1.5843,-1.5519,-225.26999999999998,215.42000000000002,190.68125,0.0,0.0,0.0,0.0,0.0309,-5.498166666666667,-5.498166666666667,-0.5421,0.11966666666666681,0.035374999999999934,-0.877,67.672,0.028200000000000003,-0.20945,-0.4679999999999991,100.0,1.0,1.0,208.76,0.0,0.0,0.0,0.0,0.0,0.0,0.0,8848.6,0.0,55.0,5.0,243.59,1.0,0.0,0.0,0.0,0.0,0.0,1.0,0.0,0.7590000000000003,0.7590000000000003,0.0,0.0,1.0,55.0,616.79921,10000.0,85.000001,85.000001,85.000001,85.000001,395.0,0.0,0.0,0.0,1.0,166.665,53.009,53.009,48.233000000000004,48.233000000000004,34.0,-22.2275,24.46,-27.626666666666665,30.4525,0.0,1782.811,-0.384999999999998,100.0,27.443,27.807,42.343,42.972,0.0,0.0,100.0,0.0,0.0,0.0,0.0,3025.857142857143,2977.6,4142.5,4117.1,305.733,305.16766666666666,314.918,314.569,21.9151,20.5902,21.9213,21.442,314.999998,314.999998,324.999988,324.999988,99.55875714285715,99.50733333333334,99.56714285714285,99.54717142857143,0.10150000000000015,-0.025333333333333208,-0.08650000000000002,0.14783333333333326,-0.04333333333332945,-0.030000000000001137,1.549,1.5055,37.969,29.688666666666666,38.007999999999996,35.013,55.983999999999995,35.039500000000004,59.587,52.465,53.918,34.1785,58.1765,50.7915,53.08,33.7305,58.0975,50.20166666666667,-0.10649999999999993,-0.043500000000000094,0.10508500000000001,0.11137000000000001,0.0,211.91,211.91500000000002,208.76,208.76,0.0,0.0
16,0.0,0.0,0.0,1.0,1.0,0.0,0.0,1.0,0.0,0.0,1.0,1.1856,26.0,0.0,0.0,0.0,59.999996,0.0,26.0,26.0,26.0,26.0,0.03544444444444439,0.2694000000000001,-0.00745,292.77,-2.664,-2.6267,-1.5799,-1.5526,-221.82,215.4075,190.65925,0.0,0.0,0.0,0.0,0.0329,-5.498166666666667,-5.498166666666667,-0.5553,-0.20633333333333337,0.026249999999999885,0.247,67.811,0.0284,-0.2258,-0.33999999999999986,100.0,1.0,1.0,209.20333333333332,0.0,0.0,0.0,0.0,0.0,0.0,0.0,8867.3,0.0,55.0,5.0,244.09333333333336,0.0,0.0,0.0,0.0,0.0,0.0,1.0,0.0,0.8099999999999987,0.8099999999999987,0.0,0.0,0.0,55.0,616.79921,10000.0,85.000001,85.000001,85.000001,85.000001,395.0,0.0,0.0,0.0,1.0,166.665,52.399,52.399,48.035,48.035,34.0,-21.735,26.976,-25.993333333333332,29.85,0.0,1782.761,-0.36499999999999844,100.0,27.671,27.843,42.661,43.004,0.0,0.0,100.0,0.0,0.0,0.0,0.0,3046.285714285714,3275.4,3999.25,4063.1000000000004,305.481,304.4723333333333,315.07925,314.78925,21.924599999999998,20.5958,21.9318,21.4512,314.999998,314.999998,324.999988,324.999988,99.55877142857143,99.50733333333334,99.56728571428572,99.54731428571428,0.11324999999999985,-0.01633333333333331,-0.0728333333333333,0.15000000000000013,-0.04999999999999716,-0.057142857142849834,1.5433333333333334,1.532,38.028999999999996,29.723666666666666,38.073,35.07,55.971000000000004,35.078,59.625,52.527,53.906,34.214,58.212,50.851,53.066,33.7645,58.129999999999995,50.26,-0.10050000000000003,-0.052000000000000046,0.10548500000000001,0.10784,0.0,212.32,212.335,209.20333333333332,209.20333333333332,0.0,0.0
17,0.0,0.0,0.0,1.0,1.0,0.0,0.0,1.0,0.0,0.0,1.0,1.1856,26.0,0.0,0.0,0.0,59.999996,0.0,26.0,26.0,26.0,26.0,0.04655555555555568,0.2763,0.0315,292.542,-2.6314,-2.7124,-1.508,-1.5143,-218.56,215.3975,190.63825,0.0,0.0,0.0,0.0,0.034800000000000005,-5.498166666666667,-5.498166666666667,-0.5504,0.14800000000000013,0.00275000000000003,0.505,67.943,0.0258,-0.21715,-0.3379999999999992,100.0,1.0,1.0,209.5233333333333,0.0,0.0,0.0,0.0,0.0,0.0,0.0,8881.0,0.0,55.0,5.0,244.56666666666666,1.0,0.0,0.0,0.0,0.0,0.0,1.0,0.0,0.8580000000000005,0.8580000000000005,0.0,0.0,1.0,55.0,616.79921,10000.0,85.000001,85.000001,85.000001,85.000001,395.0,0.0,0.0,0.0,1.0,333.33500000000004,52.46,52.46,47.668,47.668,34.0,-21.4,26.226,-26.949999999999996,31.11,0.0,1782.711,-0.3000000000000007,100.0,27.876,27.912,42.686,42.993,0.0,0.0,100.0,0.0,0.0,0.0,0.0,3009.285714285714,3143.6,4170.0,4289.2,305.564,304.7253333333333,314.64575,314.29325,21.9335,20.601,21.9416,21.4598,314.999998,314.999998,324.999988,324.999988,99.55878571428572,99.50735,99.56742857142856,99.54745714285714,0.10775000000000023,-0.02733333333333321,-0.08033333333333337,0.14416666666666678,-0.026666666666670835,-0.04999999999999716,1.4969999999999999,1.495,38.085,29.756333333333334,38.135,35.1235,55.959,35.1165,59.6625,52.588,53.894,34.2495,58.247,50.91,53.054,33.798500000000004,58.161500000000004,50.318,-0.09999999999999998,-0.05449999999999999,0.10963,0.10407000000000001,0.0,212.74,212.755,209.5233333333333,209.5233333333333,0.0,0.0
18,0.0,0.0,0.0,1.0,1.0,0.0,0.0,1.0,0.0,0.0,1.0,1.1856,26.0,0.0,0.0,0.0,59.999996,0.0,26.0,26.0,26.0,26.0,0.05699999999999994,0.2641,0.008175,292.664,-2.6569,-2.7333,-1.5418,-1.5803,-215.09,215.3875,190.615875,0.0,0.0,0.0,0.0,0.036833333333333336,-5.498166666666667,-5.498166666666667,-0.5630000000000001,-0.31433333333333335,0.006999999999999895,-0.651,68.081,0.0201,-0.22740000000000002,-0.1899999999999995,100.0,1.0,1.0,209.98333333333335,0.0,0.0,0.0,0.0,0.0,0.0,0.0,8900.4,0.0,55.0,5.0,245.06666666666666,0.0,0.0,0.0,0.0,0.0,0.0,1.0,0.0,0.9089999999999989,0.9089999999999989,0.0,0.0,0.0,55.0,616.79921,10000.0,85.000001,85.000001,85.000001,85.000001,395.0,0.0,0.0,0.0,1.0,166.665,52.521,52.521,48.096000000000004,48.096000000000004,34.0,-22.9175,25.076,-27.21333333333333,29.9625,0.0,1782.661,-0.26500000000000057,100.0,27.701,28.0,42.726,43.26,0.0,0.0,100.0,0.0,0.0,0.0,0.0,3133.285714285714,3040.6,4046.0,4100.4,305.419,304.93066666666664,315.004,314.562,21.943,20.6065,21.9521,21.4689,314.999998,314.999998,324.999988,324.999988,99.55878571428572,99.50735,99.56757142857143,99.5476,0.09650000000000025,-0.03933333333333322,-0.09750000000000003,0.131,-0.060000000000002274,-0.04571428571428271,1.5083333333333333,1.4975,38.144,29.790666666666667,38.2,35.1805,55.947,35.152,59.6975,52.646,53.882999999999996,34.282,58.2795,50.966,53.041,33.83,58.1915,50.37266666666667,-0.10099999999999998,-0.05400000000000005,0.110545,0.10662500000000001,0.0,213.16500000000002,213.17000000000002,209.98333333333335,209.98333333333335,0.0,0.0
19,0.0,0.0,0.0,1.0,1.0,0.0,0.0,1.0,0.0,0.0,1.0,1.1856,26.0,0.0,0.0,0.0,59.999996,0.0,26.0,26.0,26.0,26.0,0.028555555555555667,0.26570000000000005,0.007200000000000001,292.435,-2.729,-2.7065,-1.5392000000000001,-1.6009,-211.62,215.3775,190.593,0.0,0.0,0.0,0.0,0.03883333333333333,-5.498166666666667,-5.498166666666667,-0.5491,0.5283333333333333,0.01662499999999989,0.773,68.218,0.019200000000000002,-0.21077500000000002,-0.20999999999999996,100.0,1.0,1.0,210.4,0.0,0.0,0.0,0.0,0.0,0.0,0.0,8918.2,0.0,55.0,5.0,245.56,1.0,0.0,0.0,0.0,0.0,0.0,1.0,0.0,0.9600000000000009,0.9600000000000009,0.0,0.0,1.0,55.0,616.79921,10000.0,85.000001,85.000001,85.000001,85.000001,395.0,0.0,0.0,0.0,1.0,166.665,52.292,52.292,47.897,47.897,34.0,-22.95,24.869999999999997,-27.303333333333335,31.2175,0.0,1782.611,-0.17999999999999972,100.0,28.338,28.183,42.831,43.225,0.0,0.0,100.0,0.0,0.0,0.0,0.0,3039.142857142857,3071.1,4089.375,4213.5,305.621,305.0283333333333,314.873,314.40075,21.9526,20.612099999999998,21.9625,21.478,314.999998,314.999998,324.999988,324.999988,99.5588,99.50735,99.56771428571429,99.54775714285714,0.09450000000000003,-0.040000000000000036,-0.09250000000000003,0.13383333333333325,-0.03833333333332689,-0.057142857142849834,1.509,1.5030000000000001,38.204,29.825666666666663,38.265,35.2375,55.936,35.1915,59.734,52.707499999999996,53.872,34.3185,58.3135,51.025,53.03,33.865,58.2225,50.43033333333334,-0.09250000000000003,-0.0645,0.11374000000000001,0.10246000000000001,0.0,213.61,213.635,210.4,210.4,0.0,0.0
20,0.0,0.0,0.0,1.0,1.0,0.0,0.0,1.0,0.0,0.0,1.0,1.1856,26.0,0.0,0.0,0.0,59.999996,0.0,26.0,26.0,26.0,26.0,0.024111111111111194,0.24740000000000006,-0.033175,292.419,-2.707,-2.6452,-1.6133000000000002,-1.5847,-208.34,215.37,190.571875,0.0,0.0,0.0,0.0,0.04073333333333334,-5.498166666666667,-5.498166666666667,-0.5576,-0.7203333333333333,0.01587499999999986,0.65,68.348,0.0164,-0.2272,-0.1200000000000001,100.0,1.0,1.0,210.78,0.0,0.0,0.0,0.0,0.0,0.0,0.0,8934.2,0.0,55.0,5.0,246.02666666666664,0.0,0.0,0.0,0.0,0.0,0.0,0.0,0.0,1.0079999999999991,1.0079999999999991,0.0,0.0,0.0,55.0,616.79921,10000.0,85.000001,85.000001,85.000001,85.000001,395.0,0.0,0.0,0.0,1.0,333.33500000000004,52.46,52.46,47.455,47.455,34.0,-22.1875,25.198,-28.46,29.455000000000002,0.0,1782.561,-0.2049999999999983,100.0,28.046,27.987000000000002,43.384,43.63,0.0,0.0,100.0,0.0,0.0,0.0,0.0,3006.285714285714,3168.6,4064.375,4064.6000000000004,305.6615,304.837,314.911,314.774,21.9614,20.6173,21.9724,21.4867,314.999998,314.999998,324.999988,324.999988,99.55881428571429,99.50736666666667,99.56784285714286,99.54788571428571,0.1027499999999999,-0.03766666666666674,-0.09833333333333338,0.13050000000000006,-0.04333333333332945,-0.054285714285711606,1.5070000000000001,1.5114999999999998,38.259,29.858333333333334,38.328,35.292,55.923,35.2275,59.7715,52.7665,53.86,34.352000000000004,58.348,51.0815,53.016,33.897,58.254,50.486000000000004,-0.09399999999999997,-0.06150000000000011,0.11292500000000001,0.100275,0.0,213.97500000000002,213.99,210.78,210.78,0.0,0.0
21,0.0,0.0,0.0,1.0,1.0,0.0,0.0,1.0,0.0,0.0,1.0,1.1856,26.0,0.0,0.0,0.0,59.999996,0.0,26.0,26.0,26.0,26.0,0.028000000000000025,0.272,-0.02785,292.45,-2.7254,-2.6551,-1.5731000000000002,-1.5272999999999999,-204.85,215.36,190.548875,0.0,0.0,0.0,0.0,0.04276666666666667,-5.498166666666667,-5.498166666666667,-0.5732,0.15799999999999992,0.004874999999999963,-0.67,68.483,0.0137,-0.2227,-0.08199999999999985,100.0,1.0,1.0,211.26999999999998,0.0,0.0,0.0,0.0,0.0,0.0,0.0,8955.0,0.0,55.0,5.0,246.51,1.0,0.0,0.0,0.0,0.0,0.0,0.0,0.0,1.059000000000001,1.059000000000001,0.0,0.0,1.0,55.0,616.79921,10000.0,85.000001,85.000001,85.000001,85.000001,395.0,0.0,0.0,0.0,1.0,166.665,52.185,52.185,47.958,47.958,34.0,-24.6075,25.08,-27.82,28.4175,0.0,1782.511,-0.28500000000000014,100.0,27.956,28.076999999999998,42.974000000000004,43.347,0.0,0.0,100.0,0.0,0.0,0.0,0.0,3221.857142857143,3136.1,4063.125,4067.6000000000004,305.195,304.75166666666667,315.03825,314.79375,21.9709,20.6229,21.9828,21.4958,314.999998,314.999998,324.999988,324.999988,99.55882857142858,99.50736666666667,99.568,99.54802857142857,0.08999999999999986,-0.040999999999999925,-0.10433333333333339,0.12850000000000006,-0.06833333333332803,-0.03142857142857025,1.5630000000000002,1.5524999999999998,38.318,29.893,38.391999999999996,35.3485,55.911,35.266,59.8065,52.8255,53.848,34.3875,58.381,51.1385,53.003,33.931,58.283500000000004,50.541666666666664,-0.09950000000000003,-0.05750000000000011,0.10839000000000001,0.10978,0.0,214.425,214.405,211.26999999999998,211.26999999999998,0.0,0.0
22,0.0,0.0,0.0,1.0,1.0,0.0,0.0,1.0,0.0,0.0,1.0,1.1856,26.0,0.0,0.0,0.0,59.999996,0.0,26.0,26.0,26.0,26.0,0.021666666666666723,0.27970000000000006,0.034050000000000004,291.992,-2.7637,-2.6568,-1.5793,-1.5230000000000001,-201.35,215.35250000000002,190.525125,0.0,0.0,0.0,0.0,0.0448,-5.498166666666667,-5.498166666666667,-0.5583,-0.057666666666666644,0.01587499999999986,0.927,68.62100000000001,0.0078000000000000005,-0.20350000000000001,-0.19200000000000017,100.0,1.0,1.0,211.52666666666667,0.0,0.0,0.0,0.0,0.0,0.0,0.0,8965.9,0.0,55.0,5.0,247.00666666666666,0.0,0.0,0.0,0.0,0.0,0.0,0.0,0.0,1.1099999999999994,1.1099999999999994,0.0,0.0,0.0,55.0,616.79921,10000.0,85.000001,85.000001,85.000001,85.000001,395.0,0.0,0.0,0.0,1.0,166.665,52.185,52.185,47.134,47.134,34.0,-23.725,26.206,-29.516666666666666,31.695,0.0,1782.461,-0.384999999999998,100.0,28.121,27.994,43.265,43.43,0.0,0.0,100.0,0.0,0.0,0.0,0.0,3128.142857142857,3228.9,4263.625,4422.0,305.3535,304.667,314.48325,313.9345,21.9803,20.6285,21.9933,21.505,314.999998,314.999998,324.999988,324.999988,99.55884285714286,99.50736666666667,99.56814285714286,99.54818571428571,0.1027499999999999,-0.02966666666666673,-0.09383333333333332,0.12816666666666676,-0.04333333333332945,-0.05142857142856627,1.4703333333333333,1.48,38.376999999999995,29.927999999999997,38.458,35.406,55.897999999999996,35.3045,59.845,52.8875,53.836,34.423,58.4165,51.198,52.991,33.965,58.316,50.6,-0.10449999999999993,-0.043500000000000094,0.10218,0.108185,0.0,214.835,214.85500000000002,211.52666666666667,211.52666666666667,0.0,0.0
23,0.0,0.0,0.0,1.0,1.0,0.0,0.0,1.0,0.0,0.0,1.0,1.1856,26.0,0.0,0.0,0.0,59.999996,0.0,26.0,26.0,26.0,26.0,0.004222222222222127,0.27190000000000003,0.014750000000000001,292.023,-2.6621,-2.6832000000000003,-1.6432,-1.5352000000000001,-198.06,215.3475,190.503,0.0,0.0,0.0,0.0,0.046733333333333335,-5.498166666666667,-5.498166666666667,-0.5742,-0.2736666666666666,0.010750000000000037,0.706,68.747,0.009000000000000001,-0.22595,-0.274,100.0,1.0,1.0,211.97,0.0,0.0,0.0,0.0,0.0,0.0,0.0,8984.7,0.0,55.0,5.0,247.46333333333334,1.0,0.0,0.0,0.0,0.0,0.0,0.0,0.0,1.1580000000000013,1.1580000000000013,0.0,0.0,1.0,55.0,616.79921,10000.0,85.000001,85.000001,85.000001,85.000001,395.0,0.0,0.0,0.0,1.0,333.33500000000004,52.063,52.063,47.348,47.348,34.0,-22.925,25.567999999999998,-30.106666666666662,30.3975,0.0,1782.411,-0.370000000000001,100.0,28.346,28.108,43.397999999999996,43.591,0.0,0.0,100.0,0.0,0.0,0.0,0.0,3114.714285714286,3164.5,4219.25,4243.6,305.272,304.783,314.62675,314.41325,21.9892,20.6338,22.0032,21.5137,314.999998,314.999998,324.999988,324.999988,99.55885714285715,99.50738333333334,99.56828571428571,99.54832857142857,0.10000000000000009,-0.03833333333333311,-0.09950000000000003,0.13283333333333336,-0.03166666666666629,-0.06142857142857139,1.5190000000000001,1.5074999999999998,38.432,29.961,38.519999999999996,35.460499999999996,55.885999999999996,35.3435,59.8825,52.949,53.825,34.459,58.451499999999996,51.2575,52.977999999999994,33.9995,58.348,50.658,-0.10649999999999993,-0.05249999999999999,0.10765500000000001,0.11482,0.0,215.195,215.235,211.97,211.97,0.0,0.0
24,0.0,0.0,0.0,1.0,1.0,0.0,0.0,1.0,0.0,0.0,1.0,1.1856,26.0,0.0,0.0,0.0,59.999996,0.0,26.0,26.0,26.0,26.0,0.03488888888888897,0.2773000000000001,-0.06330000000000001,292.511,-2.7155,-2.6806,-1.5538,-1.5522,-194.55,215.34,190.478875,0.0,0.0,0.0,0.0,0.04876666666666667,-5.498166666666667,-5.498166666666667,-0.5875,-0.383,0.019749999999999934,-0.221,68.881,0.0106,-0.2223,-0.20399999999999974,100.0,1.0,1.0,212.42333333333335,0.0,0.0,0.0,0.0,0.0,0.0,0.0,9003.8,0.0,55.0,5.0,247.94666666666666,0.0,0.0,0.0,0.0,0.0,0.0,0.0,0.0,1.2089999999999996,1.2089999999999996,0.0,0.0,0.0,55.0,616.79921,10000.0,85.000001,85.000001,85.000001,85.000001,395.0,0.0,0.0,0.0,1.0,166.665,52.734,52.734,47.638,47.638,34.0,-22.849999999999998,23.822000000000003,-27.776666666666664,29.2975,0.0,1782.361,-0.36499999999999844,100.0,27.948,28.029,43.224000000000004,43.573,0.0,0.0,100.0,0.0,0.0,0.0,0.0,3050.142857142857,2994.2,4103.5,4104.9,305.721,305.172,314.89475,314.6655,21.9985,20.6392,22.0137,21.5228,314.999998,314.999998,324.999988,324.999988,99.55887142857142,99.50738333333334,99.56841428571428,99.54845714285715,0.09350000000000014,-0.04600000000000004,-0.09833333333333338,0.12916666666666687,-0.04333333333332945,-0.04285714285714448,1.534,1.5255,38.491,29.995333333333335,38.585,35.5175,55.873999999999995,35.3785,59.9165,53.0055,53.813,34.4915,58.483000000000004,51.3115,52.966,34.0305,58.3765,50.711,-0.10499999999999998,-0.052000000000000046,0.10207500000000001,0.109145,0.0,215.64,215.635,212.42333333333335,212.42333333333335,0.0,0.0
25,0.0,0.0,0.0,1.0,1.0,0.0,0.0,1.0,0.0,0.0,1.0,1.1856,26.0,0.0,0.0,0.0,59.999996,0.0,26.0,26.0,26.0,26.0,0.02722222222222226,0.2784,0.009300000000000001,292.13,-2.683,-2.6603,-1.5929,-1.5507,-191.03,215.335,190.4535,0.0,0.0,0.0,0.0,0.050800000000000005,-5.498166666666667,-5.498166666666667,-0.6003000000000001,0.28866666666666685,0.02400000000000002,0.226,69.015,0.013800000000000002,-0.217125,-0.3260000000000005,100.0,1.0,1.0,212.85333333333335,0.0,0.0,0.0,0.0,0.0,0.0,0.0,9022.1,0.0,55.0,5.0,248.42666666666668,1.0,0.0,0.0,0.0,0.0,0.0,0.0,0.0,1.259999999999998,1.259999999999998,0.0,0.0,1.0,55.0,616.79921,10000.0,85.000001,85.000001,85.000001,85.000001,395.0,0.0,0.0,0.0,1.0,166.665,51.743,51.743,47.592,47.592,34.0,-23.41,27.146,-27.386666666666663,29.9675,0.0,1782.311,-0.379999999999999,100.0,28.188,28.194,43.096000000000004,43.322,0.0,0.0,100.0,0.0,0.0,0.0,0.0,3183.857142857143,3322.6,4076.625,4162.7,305.148,304.24833333333333,314.99275,314.59625,22.0079,20.6449,22.024,21.5319,314.999998,314.999998,324.999988,324.999988,99.55888571428571,99.5074,99.56857142857143,99.54861428571428,0.10475000000000012,-0.03299999999999992,-0.08650000000000002,0.13516666666666666,-0.015000000000000568,-0.06285714285714761,1.5503333333333333,1.5310000000000001,38.549,30.031,38.65,35.5745,55.861999999999995,35.418,59.951499999999996,53.065,53.801,34.528,58.516,51.369,52.952,34.066,58.406,50.766999999999996,-0.10599999999999998,-0.05400000000000005,0.107005,0.10275000000000001,0.0,216.035,216.065,212.85333333333335,212.85333333333335,0.0,0.0
26,0.0,0.0,0.0,1.0,1.0,0.0,0.0,1.0,0.0,0.0,1.0,1.1856,26.0,0.0,0.0,0.0,59.999996,0.0,26.0,26.0,26.0,26.0,0.03988888888888886,0.274,0.05895,291.382,-2.7162,-2.6485000000000003,-1.5592000000000001,-1.5526,-187.51,215.32999999999998,190.428,0.0,0.0,0.0,0.0,0.052866666666666666,-5.498166666666667,-5.498166666666667,-0.5733,0.125,0.012750000000000039,-0.503,69.151,0.0183,-0.2043,-0.29799999999999915,100.0,1.0,1.0,213.07999999999998,0.0,0.0,0.0,0.0,0.0,0.0,0.0,9031.7,0.0,55.0,5.0,248.91666666666666,0.0,0.0,0.0,0.0,0.0,0.0,0.0,0.0,1.311,1.311,0.0,0.0,0.0,55.0,616.79921,10000.0,85.000001,85.000001,85.000001,85.000001,395.0,0.0,0.0,0.0,1.0,166.665,51.650999999999996,51.650999999999996,46.57,46.57,34.0,-23.7125,25.136,-30.683333333333337,32.09,0.0,1782.26,-0.375,100.0,28.635,28.647,43.568,43.991,0.0,0.0,100.0,0.0,0.0,0.0,0.0,3190.857142857143,3108.1,4433.875,4391.0,305.187,304.84833333333336,314.1335,313.92025,22.0174,20.6507,22.0346,21.5413,314.999998,314.999998,324.999988,324.999988,99.5589,99.5074,99.56871428571428,99.54875714285714,0.10524999999999984,-0.032333333333333325,-0.09366666666666656,0.1263333333333332,-0.051666666666669414,-0.034285714285715585,1.4476666666666667,1.4415,38.608999999999995,30.066666666666666,38.716,35.632999999999996,55.852000000000004,35.457499999999996,59.991,53.128,53.791,34.564499999999995,58.5525,51.4295,52.942,34.101,58.439499999999995,50.82633333333334,-0.11649999999999994,-0.050000000000000044,0.10691,0.10175500000000001,0.0,216.48000000000002,216.49,213.07999999999998,213.07999999999998,0.0,0.0
27,0.0,0.0,0.0,1.0,1.0,0.0,0.0,1.0,0.0,0.0,1.0,1.1856,26.0,0.0,0.0,0.0,59.999996,0.0,26.0,26.0,26.0,26.0,0.01855555555555566,0.2599,-0.052950000000000004,291.809,-2.7616,-2.6617,-1.6225,-1.5308000000000002,-184.39,215.325,190.406375,0.0,0.0,0.0,0.0,0.05466666666666667,-5.498166666666667,-5.498166666666667,-0.5981000000000001,-0.7796666666666666,0.027125000000000066,0.85,69.266,0.0224,-0.23855,-0.38399999999999945,100.0,1.0,1.0,213.57,0.0,0.0,0.0,0.0,0.0,0.0,0.0,9052.5,0.0,55.0,5.0,249.33333333333334,1.0,0.0,0.0,0.0,0.0,0.0,0.0,0.0,1.355999999999998,1.355999999999998,0.0,0.0,1.0,55.0,616.79921,10000.0,85.000001,85.000001,85.000001,85.000001,395.0,0.0,0.0,0.0,1.0,166.665,51.941,51.941,46.814,46.814,34.0,-22.975,26.262,-27.493333333333332,30.2775,0.0,1782.215,-0.3550000000000004,100.0,28.435,28.506,43.951,44.117000000000004,0.0,0.0,100.0,0.0,0.0,0.0,0.0,3049.5714285714284,3229.5,4045.5,4166.1,305.591,304.61466666666666,314.919,314.5965,22.0257,20.6557,22.0439,21.549500000000002,314.999998,314.999998,324.999988,324.999988,99.5589,99.5074,99.56884285714285,99.5489,0.10424999999999995,-0.03166666666666673,-0.07983333333333331,0.14349999999999996,-0.03333333333333144,-0.04285714285714448,1.5273333333333334,1.504,38.66,30.098,38.775,35.6845,55.841,35.492,60.0245,53.182,53.781,34.5965,58.584,51.4815,52.93,34.1315,58.468,50.87733333333333,-0.10549999999999993,-0.05750000000000011,0.10477,0.10496000000000001,0.0,216.805,216.815,213.57,213.57,0.0,0.0
28,0.0,0.0,0.0,1.0,1.0,0.0,0.0,1.0,0.0,0.0,1.0,1.1856,26.0,0.0,0.0,0.0,59.999996,0.0,26.0,26.0,26.0,26.0,0.04322222222222227,0.26470000000000016,-0.0438,291.931,-2.6938,-2.6461,-1.6325,-1.5606,-180.86,215.3225,190.380875,0.0,0.0,0.0,0.0,0.05673333333333334,-5.498166666666667,-5.498166666666667,-0.6,0.506,0.009874999999999856,-1.08,69.397,0.023,-0.21457500000000002,-0.3099999999999996,100.0,1.0,1.0,214.01,0.0,0.0,0.0,0.0,0.0,0.0,0.0,9071.1,0.0,55.0,5.0,249.8,0.0,0.0,0.0,0.0,0.0,0.0,0.0,0.0,1.407,1.407,0.0,0.0,0.0,55.0,616.79921,10000.0,85.000001,85.000001,85.000001,85.000001,395.0,0.0,0.0,0.0,1.0,166.665,51.971000000000004,51.971000000000004,47.089,47.089,34.0,-22.6225,25.061999999999998,-29.206666666666663,30.1325,0.0,1782.163,-0.41499999999999915,100.0,28.333,28.65,43.323,43.825,0.0,0.0,100.0,0.0,0.0,0.0,0.0,3115.142857142857,3091.3,4249.25,4142.3,305.4625,304.81966666666665,314.69425,314.634,22.0351,20.6614,22.0542,21.5586,314.999998,314.999998,324.999988,324.999988,99.55892857142857,99.5074,99.569,99.54904285714285,0.10924999999999985,-0.032333333333333325,-0.08533333333333337,0.13800000000000012,-0.05333333333332746,-0.05142857142856627,1.5396666666666667,1.5255,38.719,30.133666666666667,38.839,35.7415,55.83,35.5315,60.0585,53.2405,53.769999999999996,34.632999999999996,58.6155,51.538,52.919,34.166,58.4965,50.93266666666666,-0.11399999999999999,-0.0475000000000001,0.09887000000000001,0.11012000000000001,0.0,217.245,217.265,214.01,214.01,0.0,0.0
29,0.0,0.0,0.0,1.0,1.0,0.0,0.0,1.0,0.0,0.0,1.0,1.1856,26.0,0.0,0.0,0.0,59.999996,0.0,26.0,26.0,26.0,26.0,0.0341111111111112,0.24409999999999998,-0.0315,291.794,-2.7577,-2.5817,-1.6067,-1.5663,-177.31,215.32,190.3545,0.0,0.0,0.0,0.0,0.05876666666666667,-5.498166666666667,-5.498166666666667,-0.6092000000000001,-0.7353333333333333,0.004750000000000032,0.8250000000000001,69.531,0.021500000000000002,-0.21695,-0.36599999999999966,100.0,1.0,1.0,214.31,0.0,0.0,0.0,0.0,0.0,0.0,0.0,9083.8,0.0,55.0,5.0,250.28333333333336,1.0,0.0,0.0,0.0,0.0,0.0,0.0,0.0,1.4579999999999984,1.4579999999999984,0.0,0.0,1.0,55.0,616.79921,10000.0,85.000001,85.000001,85.000001,85.000001,395.0,0.0,0.0,0.0,1.0,166.665,52.109,52.109,46.982,46.982,34.0,-23.185,26.474,-27.846666666666664,32.192499999999995,0.0,1782.111,-0.504999999999999,100.0,28.233,28.221,43.793,44.022000000000006,0.0,0.0,100.0,0.0,0.0,0.0,0.0,3152.5714285714284,3278.0,4138.125,4290.5,305.406,304.71866666666665,314.78175,314.24825,22.0443,20.667,22.064799999999998,21.568,314.999998,314.999998,324.999988,324.999988,99.55894285714285,99.50741666666667,99.56915714285714,99.5492,0.11624999999999996,-0.0129999999999999,-0.07533333333333336,0.1463333333333332,-0.03999999999999915,-0.04571428571428271,1.4906666666666668,1.4855,38.777,30.169,38.905,35.7995,55.817,35.571,60.099000000000004,53.306,53.757999999999996,34.6695,58.653,51.601,52.905,34.201499999999996,58.531,50.99433333333333,-0.12049999999999994,-0.04299999999999993,0.10051,0.10466,0.0,217.625,217.65,214.31,214.31,0.0,0.0
30,0.0,0.0,0.0,1.0,1.0,0.0,0.0,1.0,0.0,0.0,1.0,1.1856,26.0,0.0,0.0,0.0,59.999996,0.0,26.0,26.0,26.0,26.0,0.025333333333333208,0.2639,0.035300000000000005,291.092,-2.7317,-2.6407,-1.6572,-1.4604,-173.97,215.32,190.3295,0.0,0.0,0.0,0.0,0.06073333333333334,-5.498166666666667,-5.498166666666667,-0.6048,0.909,0.011500000000000066,0.809,69.652,0.022500000000000003,-0.21625,-0.49600000000000044,100.0,1.0,1.0,214.75,0.0,0.0,0.0,0.0,0.0,0.0,0.0,9102.4,0.0,55.0,5.0,250.72,0.0,0.0,0.0,0.0,0.0,0.0,1.0,0.0,1.5060000000000002,1.5060000000000002,0.0,0.0,0.0,55.0,616.79921,10000.0,85.000001,85.000001,85.000001,85.000001,395.0,0.0,0.0,0.0,1.0,166.665,50.613,50.613,46.829,46.829,34.0,-23.91,27.926000000000002,-29.976666666666667,30.755,0.0,1782.065,-0.5500000000000007,100.0,29.191,29.05,43.573,43.987,0.0,0.0,100.0,0.0,0.0,0.0,0.0,3262.142857142857,3363.4,4272.125,4334.5,304.8205,304.02633333333335,314.633,314.343,22.0533,20.6726,22.0746,21.5766,314.999998,314.999998,324.999988,324.999988,99.55895714285714,99.50741666666667,99.56928571428571,99.54932857142857,0.12199999999999989,-0.023333333333333206,-0.08799999999999997,0.14716666666666667,-0.046666666666666856,-0.05571428571428072,1.5263333333333335,1.5025,38.833,30.203666666666663,38.966,35.854,55.81,35.6075,60.1295,53.359,53.751000000000005,34.7035,58.6815,51.652,52.897,34.2335,58.5565,51.044,-0.12549999999999994,-0.046499999999999986,0.10434500000000001,0.11270000000000001,0.0,218.03,218.065,214.75,214.75,0.0,0.0
31,0.0,0.0,0.0,1.0,1.0,0.0,0.0,1.0,0.0,0.0,1.0,1.1856,26.0,0.0,0.0,0.0,59.999996,0.0,26.0,26.0,26.0,26.0,0.04655555555555568,0.25060000000000016,0.073925,290.726,-2.7102,-2.6872,-1.6531,-1.5356,-170.42000000000002,215.32,190.30375,0.0,0.0,0.0,0.0,0.06280000000000001,-5.498166666666667,-5.498166666666667,-0.5875,-0.374,0.020750000000000046,-0.686,69.785,0.026000000000000002,-0.22162500000000002,-0.42600000000000016,100.0,1.0,1.0,214.99333333333334,0.0,0.0,0.0,0.0,0.0,0.0,0.0,9112.8,0.0,55.0,5.0,251.19666666666666,1.0,0.0,0.0,0.0,0.0,0.0,1.0,0.0,1.5569999999999986,1.5569999999999986,0.0,0.0,1.0,55.0,616.79921,10000.0,85.000001,85.000001,85.000001,85.000001,395.0,0.0,0.0,0.0,1.0,166.665,50.995,50.995,45.593,45.593,34.0,-22.572499999999998,27.554,-31.163333333333334,32.4975,0.0,1782.012,-0.5350000000000001,100.0,28.861,29.312,44.293,44.872,0.0,0.0,100.0,0.0,0.0,0.0,0.0,3167.142857142857,3273.3,4342.75,4350.3,305.301,304.21666666666664,314.311,313.9755,22.0627,20.6784,22.0853,21.586100000000002,314.999998,314.999998,324.999988,324.999988,99.55897142857143,99.50741666666667,99.56942857142857,99.54948571428571,0.12424999999999997,-0.02499999999999991,-0.08833333333333337,0.14166666666666683,-0.041666666666671404,-0.028571428571432023,1.4366666666666668,1.4314999999999998,38.891999999999996,30.240000000000002,39.033,35.9135,55.8,35.647,60.17,53.423500000000004,53.741,34.74,58.719,51.714,52.885999999999996,34.269,58.5905,51.10466666666667,-0.12649999999999995,-0.038999999999999924,0.10618000000000001,0.11185,0.0,218.425,218.435,214.99333333333334,214.99333333333334,0.0,0.0
32,0.0,0.0,0.0,1.0,1.0,0.0,0.0,1.0,0.0,0.0,1.0,1.1856,26.0,0.0,0.0,0.0,59.999996,0.0,26.0,26.0,26.0,26.0,0.0755555555555556,0.24860000000000015,-0.057675000000000004,291.519,-2.7051,-2.6743,-1.5924,-1.6156000000000001,-166.64,215.32,190.27675,0.0,0.0,0.0,0.0,0.06496666666666667,-5.498166666666667,-5.498166666666667,-0.6079,-0.3433333333333334,-0.0008750000000001812,-1.083,69.919,0.0313,-0.2316,-0.5039999999999996,100.0,1.0,1.0,215.57666666666665,0.0,0.0,0.0,0.0,0.0,0.0,0.0,9137.5,0.0,55.0,5.0,251.68333333333334,0.0,0.0,0.0,0.0,0.0,0.0,1.0,0.0,1.6110000000000007,1.6110000000000007,0.0,0.0,0.0,55.0,616.79921,10000.0,85.000001,85.000001,85.000001,85.000001,395.0,0.0,0.0,0.0,1.0,166.665,51.650999999999996,51.650999999999996,46.829,46.829,34.0,-22.06,25.612000000000002,-26.546666666666667,31.3,0.0,1781.96,-0.48499999999999943,100.0,28.651,29.08,44.071,44.711,0.0,0.0,100.0,0.0,0.0,0.0,0.0,3110.142857142857,3090.8,4021.25,4115.0,305.5225,304.87966666666665,315.109,314.59,22.072499999999998,20.6845,22.0963,21.596,314.999998,314.999998,324.999988,324.999988,99.55898571428571,99.50743333333334,99.56958571428571,99.54964285714286,0.12300000000000022,-0.023666666666666725,-0.07599999999999996,0.14483333333333337,-0.051666666666669414,-0.03999999999999915,1.5306666666666666,1.4985,38.953,30.278333333333336,39.102000000000004,35.975,55.788,35.6885,60.207,53.4865,53.730000000000004,34.778,58.7535,51.775,52.873000000000005,34.3055,58.6215,51.164,-0.121,-0.045500000000000096,0.10756500000000001,0.10211,0.0,218.835,218.86,215.57666666666665,215.57666666666665,0.0,0.0
33,0.0,0.0,0.0,1.0,1.0,0.0,0.0,1.0,0.0,0.0,1.0,1.1856,26.0,0.0,0.0,0.0,59.999996,0.0,26.0,26.0,26.0,26.0,0.05566666666666675,0.25170000000000003,-0.072325,291.626,-2.7179,-2.6461,-1.6005,-1.5801,-163.5,215.3225,190.253125,0.0,0.0,0.0,0.0,0.0668,-5.498166666666667,-5.498166666666667,-0.6155,-0.16600000000000004,0.0022499999999998632,1.07,70.032,0.034800000000000005,-0.2152,-0.5099999999999998,100.0,1.0,1.0,215.91333333333333,0.0,0.0,0.0,0.0,0.0,0.0,0.0,9151.8,0.0,55.0,5.0,252.09,1.0,0.0,0.0,0.0,0.0,0.0,1.0,0.0,1.6559999999999988,1.6559999999999988,0.0,0.0,1.0,55.0,616.79921,10000.0,85.000001,85.000001,85.000001,85.000001,395.0,0.0,0.0,0.0,1.0,166.665,51.849000000000004,51.849000000000004,46.982,46.982,34.0,-21.62,26.136,-26.630000000000003,31.765,0.0,1781.914,-0.48999999999999844,100.0,28.648,28.67,43.951,44.385000000000005,0.0,0.0,100.0,0.0,0.0,0.0,0.0,3061.0,3165.2,4060.875,4230.0,305.5305,304.903,314.98,314.47525,22.0806,20.6895,22.1055,21.6041,314.999998,314.999998,324.999988,324.999988,99.559,99.50743333333334,99.56971428571428,99.54977142857143,0.1302500000000002,-0.014666666666666606,-0.06833333333333336,0.14900000000000002,-0.041666666666671404,-0.04571428571428271,1.5333333333333334,1.5135,39.004000000000005,30.309666666666665,39.159,36.0255,55.778,35.721000000000004,60.238,53.5385,53.72,34.8085,58.7825,51.825,52.863,34.3345,58.6475,51.212666666666664,-0.11849999999999994,-0.04600000000000004,0.10727,0.103315,0.0,219.185,219.215,215.91333333333333,215.91333333333333,0.0,0.0
34,0.0,0.0,0.0,1.0,1.0,0.0,0.0,1.0,0.0,0.0,1.0,1.1856,26.0,0.0,0.0,0.0,59.999996,0.0,26.0,26.0,26.0,26.0,0.06099999999999994,0.25780000000000003,-0.08555,291.87,-2.6761,-2.6719,-1.6337000000000002,-1.5187,-159.92000000000002,215.3275,190.225,0.0,0.0,0.0,0.0,0.0689,-5.498166666666667,-5.498166666666667,-0.643,-0.9623333333333334,0.020624999999999893,-0.292,70.162,0.037200000000000004,-0.2212,-0.4579999999999993,100.0,1.0,1.0,216.26666666666665,0.0,0.0,0.0,0.0,0.0,0.0,0.0,9166.8,0.0,55.0,5.0,252.55666666666667,0.0,0.0,0.0,0.0,0.0,0.0,1.0,0.0,1.7070000000000007,1.7070000000000007,0.0,0.0,0.0,55.0,616.79921,10000.0,85.000001,85.000001,85.000001,85.000001,395.0,0.0,0.0,0.0,1.0,166.665,52.475,52.475,47.073,47.073,34.0,-21.625,25.148,-28.39333333333333,31.1,0.0,1781.862,-0.47499999999999787,100.0,28.179,28.473,43.769,44.513000000000005,0.0,0.0,100.0,0.0,0.0,0.0,0.0,3036.857142857143,3030.2,4146.375,4233.6,305.799,305.20233333333334,314.8655,314.3925,22.0897,20.6951,22.1159,21.6134,314.999998,314.999998,324.999988,324.999988,99.55901428571428,99.50743333333334,99.56987142857143,99.54992857142857,0.11149999999999993,-0.01633333333333331,-0.08133333333333337,0.14883333333333337,-0.04999999999999716,-0.04285714285714448,1.5193333333333334,1.5030000000000001,39.06,30.34433333333333,39.224000000000004,36.084,55.765,35.757,60.272999999999996,53.5995,53.708,34.842,58.815,51.884,52.849999999999994,34.3665,58.6765,51.27033333333333,-0.11199999999999999,-0.04249999999999998,0.10307500000000001,0.109725,0.0,219.57999999999998,219.57999999999998,216.26666666666665,216.26666666666665,0.0,0.0
35,0.0,0.0,0.0,1.0,1.0,0.0,0.0,1.0,0.0,0.0,1.0,1.1856,26.0,0.0,0.0,0.0,59.999996,0.0,26.0,26.0,26.0,26.0,0.05355555555555558,0.2611000000000001,-0.074825,291.718,-2.8035,-2.653,-1.5411000000000001,-1.5805,-156.34,215.33249999999998,190.195,0.0,0.0,0.0,0.0,0.07096666666666666,-5.498166666666667,-5.498166666666667,-0.6778000000000001,0.04600000000000004,0.0003750000000000142,-0.112,70.288,0.0375,-0.22437500000000002,-0.4239999999999995,100.0,1.0,1.0,216.74333333333334,0.0,0.0,0.0,0.0,0.0,0.0,0.0,9187.0,0.0,55.0,5.0,253.01,1.0,0.0,0.0,0.0,0.0,0.0,1.0,0.0,1.7579999999999991,1.7579999999999991,0.0,0.0,1.0,55.0,616.79921,10000.0,85.000001,85.000001,85.000001,85.000001,395.0,0.0,0.0,0.0,1.0,166.665,51.635999999999996,51.635999999999996,46.844,46.844,34.0,-23.2375,28.422,-25.53333333333333,30.8825,0.0,1781.811,-0.3150000000000013,100.0,28.283,28.775,43.58,43.933,0.0,0.0,100.0,0.0,0.0,0.0,0.0,3088.0,3384.1,4095.5,4110.8,305.4565,304.142,314.99475,314.82575,22.0987,20.701,22.1262,21.6225,314.999998,314.999998,324.999988,324.999988,99.55904285714286,99.50743333333334,99.57001428571428,99.55008571428571,0.11649999999999983,-0.015333333333333199,-0.061999999999999944,0.15749999999999997,-0.041666666666671404,-0.048571428571428044,1.5606666666666666,1.5499999999999998,39.117000000000004,30.381333333333334,39.289,36.141,55.751999999999995,35.797,60.3065,53.656,53.695,34.8785,58.846000000000004,51.9385,52.836,34.402,58.704499999999996,51.32366666666667,-0.10350000000000004,-0.05600000000000005,0.10463000000000001,0.10277000000000001,0.0,219.97500000000002,220.01,216.74333333333334,216.74333333333334,0.0,0.0
36,0.0,0.0,0.0,1.0,1.0,0.0,0.0,1.0,0.0,0.0,1.0,1.1856,26.0,0.0,0.0,0.0,59.999996,0.0,26.0,26.0,26.0,26.0,0.05788888888888888,0.2553000000000001,-0.014775,291.336,-2.6586,-2.7065,-1.6447,-1.5910000000000002,-152.75,215.34,190.163875,0.0,0.0,0.0,0.0,0.07306666666666667,-5.498166666666667,-5.498166666666667,-0.6626000000000001,-0.31133333333333335,-0.041625000000000245,-1.332,70.418,0.031900000000000005,-0.20395000000000002,-0.28799999999999937,100.0,1.0,1.0,216.92000000000002,0.0,0.0,0.0,0.0,0.0,0.0,0.0,9194.4,0.0,55.0,5.0,253.48000000000002,0.0,0.0,0.0,0.0,0.0,0.0,1.0,0.0,1.809000000000001,1.809000000000001,0.0,0.0,0.0,55.0,616.79921,10000.0,85.000001,85.000001,85.000001,85.000001,395.0,0.0,0.0,0.0,1.0,166.665,52.292,52.292,46.126999999999995,46.126999999999995,34.0,-20.5225,23.75,-32.63333333333333,33.5475,0.0,1781.761,-0.2699999999999996,100.0,28.545,28.829,43.844,44.443,0.0,0.0,100.0,0.0,0.0,0.0,0.0,2931.142857142857,2886.7,4539.875,4424.3,305.941,305.3143333333333,314.059,313.90775,22.1079,20.7068,22.1367,21.631999999999998,314.999998,314.999998,324.999988,324.999988,99.55904285714286,99.50745,99.57017142857143,99.55022857142858,0.11799999999999988,-0.03533333333333322,-0.09216666666666662,0.13616666666666677,-0.04833333333333201,-0.028571428571432023,1.4513333333333334,1.4329999999999998,39.174,30.417333333333332,39.354,36.1995,55.742000000000004,35.835499999999996,60.344,53.718,53.685,34.914500000000004,58.881,51.998,52.825,34.436,58.736,51.382,-0.10749999999999993,-0.05499999999999994,0.111905,0.10393000000000001,0.0,220.4,220.39499999999998,216.92000000000002,216.92000000000002,0.0,0.0
