,ABS Active,ABS Enabled,AID Allow Tire Blankets,AID Auto Blip,AID Auto Clutch,AID Auto Shift,AID Fuel Rate,AID Ideal Line,AID Mech Damage,AID Stability,AID Tire Wear Rate,Air Density,Air Temp,Ballast,Best Lap Delta,Best Lap Time,Brake Bias,Brake Pos,Brake Temp FL,Brake Temp FR,Brake Temp RL,Brake Temp RR,CG Accel Lateral,CG Accel Longitudinal,CG Accel Vertical,CG Height,Camber FL,Camber FR,Camber RL,Camber RR,Car Coord X,Car Coord Y,Car Coord Z,Car Damage Front,Car Damage Left,Car Damage Rear,Car Damage Right,Car Pos Norm,Caster FL,Caster FR,Chassis Pitch Angle,Chassis Pitch Rate,Chassis Roll Angle,Chassis Roll Rate,Chassis Velocity X,Chassis Velocity Y,Chassis Velocity Z,Chassis Yaw Rate,Clutch Pos,DRS Active,DRS Available,Drive Train Speed,ERS Heat Charging,ERS Is Charging,ERS Max Energy,ERS Power Level,ERS Recovery Level,Engine Brake Setting,Engine Limiter,Engine RPM,Flags,Fuel Level,Gear,Ground Speed,HR Sample Clock,In Pit,KERS Charge,KERS Deployed Energy,KERS Input,KERS Max Energy,LR Sample Clock,Lap Invalidated,Lap Time,Lap Time2,Last Lap Time,Last Sector Time,MR Sample Clock,Max Fuel,Max Power,Max RPM,Max Sus Travel FL,Max Sus Travel FR,Max Sus Travel RL,Max Sus Travel RR,Max Torque,Max Turbo Boost,Num Tires Off Track,Penalties Enabled,Position,Raw Data Sample Rate,Ride Height FL,Ride Height FR,Ride Height RL,Ride Height RR,Road Temp,Self Align Torque FL,Self Align Torque FR,Self Align Torque RL,Self Align Torque RR,Session Lap Count,Session Time Left,Steering Angle,Surface Grip,Suspension Travel FL,Suspension Travel FR,Suspension Travel RL,Suspension Travel RR,TC Active,TC Enabled,Throttle Pos,Tire Dirt Level FL,Tire Dirt Level FR,Tire Dirt Level RL,Tire Dirt Level RR,Tire Load FL,Tire Load FR,Tire Load RL,Tire Load RR,Tire Loaded Radius FL,Tire Loaded Radius FR,Tire Loaded Radius RL,Tire Loaded Radius RR,Tire Pressure FL,Tire Pressure FR,Tire Pressure RL,Tire Pressure RR,Tire Radius FL,Tire Radius FR,Tire Radius RL,Tire Radius RR,Tire Rubber Grip FL,Tire Rubber Grip FR,Tire Rubber Grip RL,Tire Rubber Grip RR,Tire Slip Angle FL,Tire Slip Angle FR,Tire Slip Angle RL,Tire Slip Angle RR,Tire Slip Ratio FL,Tire Slip Ratio FR,Tire Slip Ratio RL,Tire Slip Ratio RR,Tire Temp Core FL,Tire Temp Core FR,Tire Temp Core RL,Tire Temp Core RR,Tire Temp Inner FL,Tire Temp Inner FR,Tire Temp Inner RL,Tire Temp Inner RR,Tire Temp Middle FL,Tire Temp Middle FR,Tire Temp Middle RL,Tire Temp Middle RR,Tire Temp Outer FL,Tire Temp Outer FR,Tire Temp Outer RL,Tire Temp Outer RR,Toe In FL,Toe In FR,Toe In RL,Toe In RR,Turbo Boost,Wheel Angular Speed FL,Wheel Angular Speed FR,Wheel Angular Speed RL,Wheel Angular Speed RR,Wind Direction,Wind Speed
0,0.0,0.0,0.0,1.0,1.0,0.0,0.0,1.0,0.0,0.0,1.0,1.1856,26.0,0.0,0.0,0.0,59.99999,0.0,26.0,26.0,26.0,26.0,-0.036333333333333336,0.30490000000000017,0.2253,293.06,-2.741,-2.467,-1.5550000000000002,-1.5137,-275.49,215.58249999999998,190.98625,0.0,0.0,0.0,0.0,0.0017000000000000001,-5.498166666666667,-5.498166666666667,-0.5546,2.127,-0.009333333333333194,-1.463,65.521,-0.0298,-0.22095,0.14200000000000035,100.0,1.0,1.0,202.27666666666667,0.0,0.0,0.0,0.0,0.0,0.0,0.0,8573.8,0.0,55.0,5.0,235.8466666666667,0.0,0.0,0.0,0.0,0.0,0.0,0.0,0.0,0.006000000000000227,0.006000000000000227,0.0,0.0,0.0,55.0,616.79921,10000.0,85.0,85.0,85.0,85.0,395.0,0.0,0.0,0.0,1.0,20.0,50.797,50.797,48.462,48.462,34.0,-29.072499999999998,28.57,-30.36,25.8575,0.0,1783.581,0.1999999999999993,100.0,27.363,27.599,40.383,40.167,0.0,0.0,100.0,0.0,0.0,0.0,0.0,3338.285714285714,4067.1000000000004,4180.777777777777,4084.6000000000004,304.7015,301.51433333333335,314.72725,314.6365,21.7642,20.5079,21.7749,21.308799999999998,314.99999,314.99999,324.99998,324.99998,99.55824285714286,99.50706666666666,99.56534285714285,99.54501428571429,0.019333333333333425,-0.09533333333333327,-0.139,0.07720000000000016,-0.03333333333333144,-0.06333333333333258,1.532,1.529,37.025999999999996,29.174333333333333,37.093,34.18,56.063,34.3665,59.1055,51.551,53.998999999999995,33.574,57.734,49.9125,53.178,33.1685,57.7,49.33866666666667,-0.058499999999999996,-0.09250000000000003,0.10500000000000001,0.10486000000000001,0.0,205.3,205.29000000000002,202.27666666666667,202.27666666666667,0.0,0.0
1,0.0,0.0,0.0,1.0,1.0,0.0,0.0,1.0,0.0,0.0,1.0,1.1856,26.0,0.0,0.0,0.0,59.999996,0.0,26.0,26.0,26.0,26.0,-0.08066666666666668,0.31910000000000016,0.17167500000000002,292.48,-2.6509,-2.7028,-1.5977000000000001,-1.3828,-272.15,215.585,190.9665,0.0,0.0,0.0,0.0,0.003633333333333334,-5.498166666666667,-5.498166666666667,-0.48150000000000004,-1.9875000000000003,-0.05033333333333356,-0.31000000000000005,65.679,-0.0229,-0.19012500000000002,0.6079999999999997,100.0,1.0,1.0,202.20666666666668,0.0,0.0,0.0,0.0,0.0,0.0,0.0,8570.7,0.0,55.0,5.0,236.41333333333333,1.0,0.0,0.0,0.0,0.0,0.0,0.0,0.0,0.05699999999999861,0.05699999999999861,0.0,0.0,1.0,55.0,616.79921,10000.0,85.000001,85.000001,85.000001,85.000001,395.0,0.0,0.0,0.0,1.0,166.665,54.275999999999996,54.275999999999996,47.592,47.592,34.0,-22.8825,16.99,-37.39666666666667,32.265,0.0,1783.528,0.46499999999999986,100.0,27.54,27.026,42.472,43.201,0.0,0.0,100.0,0.0,0.0,0.0,0.0,2829.857142857143,2461.7,4703.0,5157.200000000001,306.22,306.98466666666667,313.232,311.692,21.7739,20.5127,21.785899999999998,21.3181,314.999998,314.999998,324.999988,324.999988,99.55824285714286,99.50706666666666,99.5655,99.54517142857142,0.029666666666666952,-0.10533333333333328,-0.1416,0.06420000000000003,-0.011666666666670267,-0.04999999999999716,1.298,1.3245,37.087,29.204666666666668,37.162,34.2385,56.046,34.4025,59.1535,51.621,53.983000000000004,33.6075,57.778999999999996,49.980000000000004,53.161,33.201,57.742,49.404666666666664,-0.038000000000000034,-0.10949999999999993,0.10579500000000001,0.10469500000000001,0.0,205.72500000000002,205.715,202.20666666666668,202.20666666666668,0.0,0.0
2,0.0,0.0,0.0,1.0,1.0,0.0,0.0,1.0,0.0,0.0,1.0,1.1856,26.0,0.0,0.0,0.0,59.999996,0.0,26.0,26.0,26.0,26.0,-0.08833333333333333,0.28590000000000004,-0.255875,294.022,-2.6464,-2.6408,-1.54065,-1.498,-268.59,215.585,190.946375,0.0,0.0,0.0,0.0,0.0057,-5.498166666666667,-5.498166666666667,-0.5732,1.385,0.0013333333333331865,2.0600000000000005,65.82300000000001,-0.028800000000000003,-0.26382500000000003,0.9220000000000006,100.0,1.0,1.0,203.61,0.0,0.0,0.0,0.0,0.0,0.0,0.0,8630.3,0.0,55.0,5.0,236.93333333333334,0.0,0.0,0.0,0.0,0.0,0.0,0.0,0.0,0.11100000000000065,0.11100000000000065,0.0,0.0,0.0,55.0,616.79921,10000.0,85.000001,85.000001,85.000001,85.000001,395.0,0.0,0.0,0.0,1.0,166.665,52.094,52.094,50.873,50.873,34.0,-27.25,20.854,-25.24,19.485,0.0,1783.476,0.5850000000000009,100.0,28.314,27.593,41.592,41.364000000000004,0.0,0.0,100.0,0.0,0.0,0.0,0.0,3198.0,3057.5,3531.1111111111113,3482.3,304.9125,304.86966666666666,316.27225,316.28825,21.7846,20.5183,21.7967,21.326999999999998,314.999998,314.999998,324.999988,324.999988,99.55824285714286,99.5071,99.56565714285715,99.5453,0.015333333333333421,-0.1226666666666667,-0.1752,0.06180000000000008,-0.03833333333332689,-0.054999999999999716,1.7555,1.7925,37.153,29.238999999999997,37.229,34.294,56.032,34.446,59.189499999999995,51.673,53.97,33.6475,57.812,50.03,53.147,33.239,57.772,49.454,-0.03849999999999998,-0.121,0.10528000000000001,0.10429500000000001,0.0,206.245,206.16,203.61,203.61,0.0,0.0
3,0.0,0.0,0.0,1.0,1.0,0.0,0.0,1.0,0.0,0.0,1.0,1.1856,26.0,0.0,0.0,0.0,59.999996,0.0,26.0,26.0,26.0,26.0,-0.08677777777777777,0.31530000000000014,0.028725,293.045,-2.6507,-2.689,-1.51255,-1.4932,-265.43,215.58249999999998,190.92725,0.0,0.0,0.0,0.0,0.007566666666666668,-5.498166666666667,-5.498166666666667,-0.5024000000000001,0.3325,-0.005444444444444585,-2.066,65.97200000000001,-0.0424,-0.19057500000000002,0.7779999999999996,100.0,1.0,1.0,203.43333333333334,0.0,0.0,0.0,0.0,0.0,0.0,0.0,8622.8,0.0,55.0,5.0,237.46666666666667,1.0,0.0,0.0,0.0,0.0,0.0,0.0,0.0,0.15899999999999892,0.15899999999999892,0.0,0.0,1.0,55.0,616.79921,10000.0,85.000001,85.000001,85.000001,85.000001,395.0,0.0,0.0,0.0,1.0,111.11,53.253,53.253,47.607,47.607,34.0,-24.59,19.247999999999998,-34.989999999999995,26.240000000000002,0.0,1783.428,0.7300000000000004,100.0,27.841,27.557,42.155,42.053,0.0,0.0,100.0,0.0,0.0,0.0,0.0,2929.5714285714284,2837.4,4531.888888888889,4231.5,306.0015,305.62166666666667,313.80325,314.21625,21.793599999999998,20.5232,21.8066,21.3356,314.999998,314.999998,324.999988,324.999988,99.55825714285714,99.5071,99.56578571428571,99.54544285714286,0.0076666666666667105,-0.1283333333333332,-0.1658,0.06299999999999994,-0.03499999999999659,-0.046666666666666856,1.431,1.4689999999999999,37.21,29.270333333333333,37.291,34.3475,56.015,34.4865,59.228,51.737,53.953,33.6845,57.848,50.091,53.129999999999995,33.2745,57.8055,49.513999999999996,-0.02400000000000002,-0.1280000000000001,0.11294000000000001,0.10279500000000001,0.0,206.70499999999998,206.635,203.43333333333334,203.43333333333334,0.0,0.0
4,0.0,0.0,0.0,1.0,1.0,0.0,0.0,1.0,0.0,0.0,1.0,1.1856,26.0,0.0,0.0,0.0,59.999996,0.0,26.0,26.0,26.0,26.0,-0.11033333333333332,0.28500000000000014,-0.054925,293.381,-2.6513999999999998,-2.753,-1.4626000000000001,-1.5998,-262.06,215.57999999999998,190.907875,0.0,0.0,0.0,0.0,0.0095,-5.498166666666667,-5.498166666666667,-0.5378000000000001,-0.7795000000000001,-0.05011111111111122,0.5209999999999999,66.117,-0.0536,-0.23997500000000002,1.1579999999999995,100.0,1.0,1.0,204.08333333333331,0.0,0.0,0.0,0.0,0.0,0.0,0.0,8650.4,0.0,55.0,5.0,237.99333333333334,0.0,0.0,0.0,0.0,0.0,0.0,0.0,0.0,0.21000000000000085,0.21000000000000085,0.0,0.0,0.0,55.0,616.79921,10000.0,85.000001,85.000001,85.000001,85.000001,395.0,0.0,0.0,0.0,1.0,166.665,52.917,52.917,48.737,48.737,34.0,-27.285,20.594,-30.376666666666665,23.84,0.0,1783.376,0.6649999999999991,100.0,27.914,27.049,42.839,42.013,0.0,0.0,100.0,0.0,0.0,0.0,0.0,3139.285714285714,2973.9,4063.8888888888887,3840.0,305.201,305.41633333333334,314.88875,315.301,21.8034,20.5283,21.8173,21.3444,314.999998,314.999998,324.999988,324.999988,99.55825714285714,99.50711666666666,99.56592857142857,99.54557142857144,-0.0013333333333331865,-0.1299999999999999,-0.18280000000000002,0.056599999999999984,-0.054999999999999716,-0.045000000000001705,1.553,1.5915,37.271,29.302,37.358000000000004,34.403,55.998999999999995,34.5265,59.2695,51.796,53.938,33.7215,57.8875,50.147999999999996,53.114000000000004,33.3095,57.841499999999996,49.56933333333333,-0.019499999999999962,-0.13250000000000006,0.10913500000000001,0.11276000000000001,0.0,207.11,207.005,204.08333333333331,204.08333333333331,0.0,0.0
5,0.0,0.0,0.0,1.0,1.0,0.0,0.0,1.0,0.0,0.0,1.0,1.1856,26.0,0.0,0.0,0.0,59.999996,0.0,26.0,26.0,26.0,26.0,-0.10122222222222223,0.2913000000000001,-0.018075,293.686,-2.6696999999999997,-2.7395,-1.5223,-1.5823,-258.49,215.5725,190.88675,0.0,0.0,0.0,0.0,0.011600000000000001,-5.498166666666667,-5.498166666666667,-0.5357000000000001,0.6259999999999999,-0.03777777777777791,0.5619999999999998,66.271,-0.0722,-0.2184,1.0220000000000002,100.0,1.0,1.0,204.5966666666667,0.0,0.0,0.0,0.0,0.0,0.0,0.0,8672.1,0.0,55.0,5.0,238.54333333333335,1.0,0.0,0.0,0.0,0.0,0.0,0.0,0.0,0.26399999999999935,0.26399999999999935,0.0,0.0,1.0,55.0,616.79921,10000.0,85.000001,85.000001,85.000001,85.000001,395.0,0.0,0.0,0.0,1.0,111.11,53.345,53.345,49.072,49.072,34.0,-25.5675,21.054000000000002,-30.816666666666666,24.05,0.0,1783.323,0.3099999999999987,100.0,27.786,26.863,42.415,41.488,0.0,0.0,100.0,0.0,0.0,0.0,0.0,2991.5714285714284,2950.8,3984.1111111111113,4044.1000000000004,305.6025,305.43666666666667,315.13825,314.8635,21.8139,20.5338,21.8283,21.3537,314.999998,314.999998,324.999988,324.999988,99.55825714285714,99.50713333333333,99.56607142857143,99.54572857142857,0.010000000000000231,-0.11233333333333317,-0.19519999999999998,0.03720000000000012,-0.03999999999999915,-0.061666666666667425,1.5825,1.601,37.337,29.336333333333336,37.427,34.460499999999996,55.983000000000004,34.57,59.3095,51.8575,53.923,33.7615,57.9245,50.207,53.098,33.348,57.8755,49.62733333333333,-0.04899999999999993,-0.09400000000000008,0.11178,0.10297,0.0,207.64499999999998,207.555,204.5966666666667,204.59666666666666,0.0,0.0
6,0.0,0.0,0.0,1.0,1.0,0.0,0.0,1.0,0.0,0.0,1.0,1.1856,26.0,0.0,0.0,0.0,59.999996,0.0,26.0,26.0,26.0,26.0,-0.10955555555555556,0.28910000000000013,0.026875,293.488,-2.706,-2.7831,-1.5152,-1.5687,-255.5,215.5625,190.8685,0.0,0.0,0.0,0.0,0.013333333333333334,-5.498166666666667,-5.498166666666667,-0.5278,-0.2925,-0.057222222222222285,-0.8220000000000001,66.402,-0.0712,-0.20647500000000002,0.8639999999999999,100.0,1.0,1.0,204.86333333333334,0.0,0.0,0.0,0.0,0.0,0.0,0.0,8683.4,0.0,55.0,5.0,239.01999999999998,0.0,0.0,0.0,0.0,0.0,0.0,0.0,0.0,0.30900000000000105,0.30900000000000105,0.0,0.0,0.0,55.0,616.79921,10000.0,85.000001,85.000001,85.000001,85.000001,395.0,0.0,0.0,0.0,1.0,166.665,53.558,53.558,48.584,48.584,34.0,-28.627499999999998,19.204,-33.61333333333333,23.72,0.0,1783.277,0.20500000000000185,100.0,27.408,26.691,42.639,41.766,0.0,0.0,100.0,0.0,0.0,0.0,0.0,3217.285714285714,2766.5,4248.888888888889,4045.9,305.1985,305.87166666666667,314.493,314.75175,21.822499999999998,20.5382,21.8376,21.3616,314.999998,314.999998,324.999988,324.999988,99.55825714285714,99.50715,99.5662,99.54584285714286,-0.010000000000000009,-0.1343333333333332,-0.19619999999999999,0.026000000000000023,-0.07166666666666544,-0.041666666666671404,1.5125,1.5265,37.39,29.363999999999997,37.485,34.51,55.969,34.605000000000004,59.3465,51.911500000000004,53.909,33.7935,57.959,50.2585,53.084,33.3785,57.9075,49.678,-0.051999999999999935,-0.09549999999999992,0.10764000000000001,0.10283500000000001,0.0,208.01999999999998,207.935,204.86333333333334,204.86333333333334,0.0,0.0
7,0.0,0.0,0.0,1.0,1.0,0.0,0.0,1.0,0.0,0.0,1.0,1.1856,26.0,0.0,0.0,0.0,59.999996,0.0,26.0,26.0,26.0,26.0,-0.08433333333333333,0.2905,-0.017625000000000002,293.503,-2.6757,-2.7715,-1.57365,-1.5455999999999999,-251.91,215.55,190.84675,0.0,0.0,0.0,0.0,0.0154,-5.498166666666667,-5.498166666666667,-0.5336000000000001,0.11549999999999994,-0.04144444444444417,-0.18799999999999994,66.555,-0.06910000000000001,-0.21527500000000002,0.6040000000000001,100.0,1.0,1.0,205.39333333333332,0.0,0.0,0.0,0.0,0.0,0.0,0.0,8705.8,0.0,55.0,5.0,239.57,1.0,0.0,0.0,0.0,0.0,0.0,0.0,0.0,0.36299999999999955,0.36299999999999955,0.0,0.0,1.0,55.0,616.79921,10000.0,85.000001,85.000001,85.000001,85.000001,395.0,0.0,0.0,0.0,1.0,111.11,53.314,53.314,48.676,48.676,34.0,-26.89,20.664,-33.2,22.795,0.0,1783.224,-0.0799999999999983,100.0,27.617,26.933,42.603,41.718,0.0,0.0,100.0,0.0,0.0,0.0,0.0,3167.285714285714,2834.9,4166.666666666667,3988.9,305.296,305.633,314.741,314.9545,21.8329,20.5438,21.8487,21.371,314.999998,314.999998,324.999988,324.999988,99.55827142857143,99.50715,99.56635714285714,99.546,0.014666666666666828,-0.10933333333333328,-0.19240000000000002,0.026799999999999935,-0.060000000000002274,-0.03166666666666629,1.5465,1.577,37.456,29.398333333333333,37.555,34.569,55.954,34.6475,59.388,51.975,53.894999999999996,33.833,57.9975,50.3195,53.068,33.416,57.9435,49.73733333333333,-0.07999999999999996,-0.06699999999999995,0.10366500000000001,0.10088000000000001,0.0,208.5,208.42000000000002,205.39333333333332,205.39333333333332,0.0,0.0
8,0.0,0.0,0.0,1.0,1.0,0.0,0.0,1.0,0.0,0.0,1.0,1.1856,26.0,0.0,0.0,0.0,59.999996,0.0,26.0,26.0,26.0,26.0,-0.05177777777777778,0.29200000000000004,-0.023075000000000002,293.51800000000003,-2.6962,-2.7086,-1.54745,-1.6041,-248.72,215.5375,190.82725,0.0,0.0,0.0,0.0,0.017266666666666666,-5.498166666666667,-5.498166666666667,-0.5387000000000001,-0.14100000000000001,-0.03488888888888875,-1.063,66.691,-0.057100000000000005,-0.220675,0.30600000000000005,100.0,1.0,1.0,205.82999999999998,0.0,0.0,0.0,0.0,0.0,0.0,0.0,8724.4,0.0,55.0,5.0,240.06,0.0,0.0,0.0,0.0,0.0,0.0,0.0,0.0,0.41100000000000136,0.41100000000000136,0.0,0.0,0.0,55.0,616.79921,10000.0,85.000001,85.000001,85.000001,85.000001,395.0,0.0,0.0,0.0,1.0,166.665,53.284,53.284,48.584,48.584,34.0,-26.3425,21.564,-30.80666666666667,24.8475,0.0,1783.174,-0.14499999999999957,100.0,27.352,27.062,42.605000000000004,41.891,0.0,0.0,100.0,0.0,0.0,0.0,0.0,3144.857142857143,2948.2,4061.3333333333335,3933.0,305.425,305.28833333333336,314.99225,315.008,21.842,20.5487,21.8586,21.3795,314.999998,314.999998,324.999988,324.999988,99.55827142857143,99.50716666666666,99.56648571428572,99.54612857142857,0.02499999999999991,-0.09699999999999998,-0.1718,0.05820000000000003,-0.05333333333332746,-0.04833333333333201,1.556,1.571,37.512,29.429333333333332,37.616,34.6215,55.939,34.6855,59.4245,52.0325,53.879999999999995,33.8675,58.032,50.3745,53.054,33.4495,57.9745,49.791333333333334,-0.08399999999999996,-0.0605,0.10829000000000001,0.10687500000000001,0.0,208.89499999999998,208.86,205.82999999999998,205.82999999999998,0.0,0.0
9,0.0,0.0,0.0,1.0,1.0,0.0,0.0,1.0,0.0,0.0,1.0,1.1856,26.0,0.0,0.0,0.0,59.999996,0.0,26.0,26.0,26.0,26.0,-0.03355555555555556,0.29600000000000004,0.01305,293.274,-2.6202,-2.7253,-1.5473,-1.5590000000000002,-245.71,215.525,190.808875,0.0,0.0,0.0,0.0,0.019033333333333336,-5.498166666666667,-5.498166666666667,-0.5337000000000001,0.27949999999999986,-0.040777777777778024,0.815,66.819,-0.0458,-0.21225000000000002,0.03399999999999981,100.0,1.0,1.0,206.18333333333334,0.0,0.0,0.0,0.0,0.0,0.0,0.0,8739.4,0.0,55.0,5.0,240.51999999999998,1.0,0.0,0.0,0.0,0.0,0.0,0.0,0.0,0.4559999999999995,0.4559999999999995,0.0,0.0,1.0,55.0,616.79921,10000.0,85.000001,85.000001,85.000001,85.000001,395.0,0.0,0.0,0.0,1.0,166.665,52.979,52.979,48.721000000000004,48.721000000000004,34.0,-24.4375,23.676,-29.536666666666665,26.705,0.0,1783.128,-0.33500000000000085,100.0,27.76,26.981,42.606,41.857,0.0,0.0,100.0,0.0,0.0,0.0,0.0,3118.4285714285716,3053.8,4057.222222222222,4140.5,305.265,305.15833333333336,314.9695,314.61875,21.8506,20.5534,21.8678,21.3874,314.999998,314.999998,324.999988,324.999988,99.55827142857143,99.50718333333333,99.56662857142857,99.54625714285714,0.05500000000000016,-0.06600000000000006,-0.145,0.07679999999999998,-0.046666666666666856,-0.046666666666666856,1.5485,1.5554999999999999,37.566,29.458666666666666,37.674,34.671,55.926,34.722,59.461,52.089,53.867999999999995,33.9015,58.0655,50.429,53.04,33.4815,58.006,49.84466666666667,-0.10150000000000003,-0.04600000000000004,0.09627500000000001,0.11026000000000001,0.0,209.285,209.26,206.18333333333334,206.18333333333334,0.0,0.0
10,0.0,0.0,0.0,1.0,1.0,0.0,0.0,1.0,0.0,0.0,1.0,1.1856,26.0,0.0,0.0,0.0,59.999996,0.0,26.0,26.0,26.0,26.0,-0.002444444444444445,0.28790000000000004,0.00135,293.182,-2.6863,-2.6938,-1.5148000000000001,-1.5417,-242.3,215.5075,190.788,0.0,0.0,0.0,0.0,0.021,-5.498166666666667,-5.498166666666667,-0.5297000000000001,-0.3115000000000001,-0.012111111111110962,0.01100000000000012,66.964,-0.030600000000000002,-0.212875,-0.1039999999999992,100.0,1.0,1.0,206.55666666666667,0.0,0.0,0.0,0.0,0.0,0.0,0.0,8755.1,0.0,55.0,5.0,241.04000000000002,0.0,0.0,0.0,0.0,0.0,0.0,1.0,0.0,0.5069999999999979,0.5069999999999979,0.0,0.0,0.0,55.0,616.79921,10000.0,85.000001,85.000001,85.000001,85.000001,395.0,0.0,0.0,0.0,1.0,166.665,53.284,53.284,48.34,48.34,34.0,-24.4375,22.625999999999998,-30.14,27.580000000000002,0.0,1783.078,-0.4450000000000003,100.0,27.479,27.127,42.644999999999996,42.383,0.0,0.0,100.0,0.0,0.0,0.0,0.0,3089.285714285714,2942.3,4142.111111111111,4196.1,305.547,305.348,314.77925,314.3825,21.8603,20.5586,21.8784,21.3964,314.999998,314.999998,324.999988,324.999988,99.55828571428572,99.50718333333333,99.56677142857143,99.5464,0.05699999999999994,-0.06499999999999995,-0.1482,0.08420000000000005,-0.054999999999999716,-0.046666666666666856,1.5165,1.517,37.626999999999995,29.491333333333333,37.739999999999995,34.7275,55.913,34.757999999999996,59.498,52.1475,53.855999999999995,33.934,58.1,50.485,53.028,33.513,58.0375,49.9,-0.11149999999999993,-0.03649999999999998,0.10271500000000001,0.10847000000000001,0.0,209.72500000000002,209.71,206.55666666666667,206.55666666666667,0.0,0.0
11,0.0,0.0,0.0,1.0,1.0,0.0,0.0,1.0,0.0,0.0,1.0,1.1856,26.0,0.0,0.0,0.0,59.999996,0.0,26.0,26.0,26.0,26.0,-0.0067777777777777775,0.2843,-0.032,293.472,-2.6888,-2.6936,-1.5674000000000001,-1.5171999999999999,-238.88,215.4925,190.767,0.0,0.0,0.0,0.0,0.022600000000000002,-5.498166666666667,-5.498166666666667,-0.551,-0.1995,0.011888888888888838,0.7930000000000001,67.105,-0.0148,-0.22437500000000002,-0.35999999999999943,100.0,1.0,1.0,207.10333333333335,0.0,0.0,0.0,0.0,0.0,0.0,0.0,8778.3,0.0,55.0,5.0,241.55,1.0,0.0,0.0,0.0,0.0,0.0,1.0,0.0,0.5579999999999998,0.5579999999999998,0.0,0.0,1.0,55.0,616.79921,10000.0,85.000001,85.000001,85.000001,85.000001,395.0,0.0,0.0,0.0,1.0,166.665,53.223,53.223,48.859,48.859,34.0,-22.675,25.086,-26.89,27.1025,0.0,1783.027,-0.5350000000000001,100.0,27.386,27.029,42.425,42.271,0.0,0.0,100.0,0.0,0.0,0.0,0.0,2998.5714285714284,3128.2,3893.5555555555557,4087.2,305.6455,304.94233333333335,315.349,314.75325,21.869799999999998,20.5639,21.8888,21.4054,314.999998,314.999998,324.999988,324.999988,99.55828571428572,99.5072,99.5669,99.54654285714285,0.08566666666666656,-0.04133333333333322,-0.1154,0.10499999999999998,-0.03833333333332689,-0.036666666666668846,1.573,1.5695,37.686,29.52466666666667,37.805,34.784,55.899,34.796,59.534,52.2085,53.842,33.969,58.1335,50.5435,53.013,33.5465,58.068,49.95733333333334,-0.11399999999999999,-0.033500000000000085,0.10851000000000001,0.10548,0.0,210.13,210.15,207.10333333333335,207.10333333333335,0.0,0.0
12,0.0,0.0,0.0,1.0,1.0,0.0,0.0,1.0,0.0,0.0,1.0,1.1856,26.0,0.0,0.0,0.0,59.999996,0.0,26.0,26.0,26.0,26.0,0.029777777777777778,0.2954000000000001,0.01835,293.045,-2.7224,-2.6806,-1.54995,-1.5349,-235.45,215.475,190.745125,0.0,0.0,0.0,0.0,0.025466666666666665,-5.498166666666667,-5.498166666666667,-0.5415,0.35749999999999993,0.011444444444444368,-0.6990000000000001,67.248,0.0021000000000000003,-0.205575,-0.3779999999999992,100.0,1.0,1.0,207.45,0.0,0.0,0.0,0.0,0.0,0.0,0.0,8793.1,0.0,55.0,5.0,242.06666666666666,0.0,0.0,0.0,0.0,0.0,0.0,1.0,0.0,0.6089999999999982,0.6089999999999982,0.0,0.0,0.0,55.0,616.79921,10000.0,85.000001,85.000001,85.000001,85.000001,395.0,0.0,0.0,0.0,1.0,166.665,52.902,52.902,48.157,48.157,34.0,-23.705,24.85,-28.349999999999998,29.1675,0.0,1782.976,-0.054999999999999716,100.0,27.372,27.517,42.285,42.415,0.0,0.0,100.0,0.0,0.0,0.0,0.0,3104.5714285714284,3086.4,4160.0,4203.1,305.499,304.872,314.77725,314.4105,21.8794,20.5694,21.8992,21.4144,314.999998,314.999998,324.999988,324.999988,99.5583,99.5072,99.56704285714285,99.54668571428572,0.08566666666666656,-0.040999999999999925,-0.1046,0.11620000000000008,-0.041666666666671404,-0.03999999999999915,1.548,1.523,37.745999999999995,29.558666666666667,37.870000000000005,34.84,55.885999999999996,34.8345,59.571,52.269,53.83,34.0045,58.1685,50.602000000000004,53.0,33.5805,58.1,50.01433333333333,-0.10250000000000004,-0.04699999999999993,0.10125500000000001,0.11196,0.0,210.59,210.61,207.45,207.45,0.0,0.0
13,0.0,0.0,0.0,1.0,1.0,0.0,0.0,1.0,0.0,0.0,1.0,1.1856,26.0,0.0,0.0,0.0,59.999996,0.0,26.0,26.0,26.0,26.0,0.045,0.27390000000000003,0.002925,292.847,-2.7004,-2.6861,-1.5977000000000001,-1.5413000000000001,-231.82,215.45749999999998,190.722375,0.0,0.0,0.0,0.0,0.027100000000000003,-5.498166666666667,-5.498166666666667,-0.5402,-0.3254999999999999,0.012333333333333307,-0.6519999999999999,67.399,0.0142,-0.217875,-0.48599999999999977,100.0,1.0,1.0,207.87333333333333,0.0,0.0,0.0,0.0,0.0,0.0,0.0,8811.0,0.0,55.0,5.0,242.60666666666668,1.0,0.0,0.0,0.0,0.0,0.0,1.0,0.0,0.6630000000000003,0.6630000000000003,0.0,0.0,1.0,55.0,616.79921,10000.0,85.000001,85.000001,85.000001,85.000001,395.0,0.0,0.0,0.0,1.0,111.11,52.826,52.826,48.08,48.08,34.0,-22.985,24.988,-28.633333333333333,30.135,0.0,1782.924,-0.4499999999999993,100.0,27.522,27.655,42.591,42.906,0.0,0.0,100.0,0.0,0.0,0.0,0.0,3116.5714285714284,3044.6,4136.777777777777,4206.3,305.505,305.001,314.82975,314.3115,21.8896,20.5751,21.9103,21.4241,314.999998,314.999998,324.999988,324.999988,99.55831428571429,99.50721666666666,99.5672,99.54684285714286,0.0993333333333335,-0.028999999999999915,-0.09740000000000001,0.1282000000000001,-0.05666666666667197,-0.041666666666671404,1.506,1.502,37.81,29.594666666666665,37.94,34.900999999999996,55.873999999999995,34.8745,59.6125,52.3365,53.818,34.0415,58.2065,50.6665,52.986999999999995,33.616,58.135,50.077666666666666,-0.12,-0.033500000000000085,0.10927,0.10799500000000001,0.0,211.05,211.06,207.87333333333333,207.87333333333333,0.0,0.0
14,0.0,0.0,0.0,1.0,1.0,0.0,0.0,1.0,0.0,0.0,1.0,1.1856,26.0,0.0,0.0,0.0,59.999996,0.0,26.0,26.0,26.0,26.0,0.04388888888888889,0.274,-0.030375000000000003,293.06,-2.7111,-2.7005,-1.5806,-1.5333,-228.38,215.4425,190.700875,0.0,0.0,0.0,0.0,0.0291,-5.498166666666667,-5.498166666666667,-0.5503,0.018000000000000016,0.02966666666666673,0.9210000000000003,67.538,0.024200000000000003,-0.22237500000000002,-0.5539999999999994,100.0,1.0,1.0,208.39666666666668,0.0,0.0,0.0,0.0,0.0,0.0,0.0,8833.2,0.0,55.0,5.0,243.11,0.0,0.0,0.0,0.0,0.0,0.0,1.0,0.0,0.7139999999999986,0.7139999999999986,0.0,0.0,0.0,55.0,616.79921,10000.0,85.000001,85.000001,85.000001,85.000001,395.0,0.0,0.0,0.0,1.0,111.11,52.887,52.887,48.507999999999996,48.507999999999996,34.0,-22.075,25.902,-25.966666666666665,29.8125,0.0,1782.873,-0.4800000000000004,100.0,27.659,27.576,42.527,42.782,0.0,0.0,100.0,0.0,0.0,0.0,0.0,3032.857142857143,3100.8,3967.6666666666665,4133.8,305.663,304.978,315.201,314.60675,21.8991,20.5806,21.9207,21.4332,314.999998,314.999998,324.999988,324.999988,99.55832857142858,99.50721666666666,99.56734285714286,99.54698571428571,0.10866666666666669,-0.01866666666666661,-0.07959999999999999,0.14240000000000008,-0.03833333333332689,-0.06499999999999773,1.557,1.5365,37.869,29.628666666666668,38.004999999999995,34.957499999999996,55.861999999999995,34.9125,59.6485,52.397,53.807,34.077,58.24,50.725,52.974000000000004,33.6495,58.1655,50.135,-0.10899999999999999,-0.03600000000000003,0.110115,0.10545500000000001,0.0,211.48000000000002,211.515,208.39666666666668,208.39666666666668,0.0,0.0
15,0.0,0.0,0.0,1.0,1.0,0.0,0.0,1.0,0.0,0.0,1.0,1.1856,26.0,0.0,0.0,0.0,59.999996,0.0,26.0,26.0,26.0,26.0,0.06744444444444445,0.276,-0.029075,293.015,-2.7087,-2.6736,-1.5854,-1.5513,-225.34,215.43,190.681625,0.0,0.0,0.0,0.0,0.03086666666666667,-5.498166666666667,-5.498166666666667,-0.5424,0.15300000000000002,0.03644444444444428,-0.8440000000000001,67.663,0.029400000000000003,-0.210325,-0.4399999999999995,100.0,1.0,1.0,208.73333333333335,0.0,0.0,0.0,0.0,0.0,0.0,0.0,8847.5,0.0,55.0,5.0,243.55666666666667,1.0,0.0,0.0,0.0,0.0,0.0,1.0,0.0,0.7590000000000003,0.7590000000000003,0.0,0.0,1.0,55.0,616.79921,10000.0,85.000001,85.000001,85.000001,85.000001,395.0,0.0,0.0,0.0,1.0,166.665,52.979,52.979,48.263999999999996,48.263999999999996,34.0,-22.18,24.578,-26.823333333333334,30.6375,0.0,1782.828,-0.370000000000001,100.0,27.457,27.819,42.334,42.959,0.0,0.0,100.0,0.0,0.0,0.0,0.0,3033.5714285714284,2989.1,4081.6666666666665,4131.3,305.733,305.12266666666665,314.966,314.539,21.9075,20.5855,21.9299,21.4412,314.999998,314.999998,324.999988,324.999988,99.55834285714286,99.50721666666666,99.56747142857142,99.54711428571429,0.10400000000000009,-0.025333333333333208,-0.0776,0.14979999999999993,-0.03999999999999915,-0.045000000000001705,1.5495,1.513,37.922,29.659,38.062,35.0075,55.852000000000004,34.946,59.6805,52.4525,53.797,34.108000000000004,58.269999999999996,50.778,52.963,33.6795,58.192499999999995,50.187,-0.10449999999999993,-0.0495000000000001,0.10187,0.11447000000000002,0.0,211.88,211.885,208.73333333333335,208.73333333333335,0.0,0.0
16,0.0,0.0,0.0,1.0,1.0,0.0,0.0,1.0,0.0,0.0,1.0,1.1856,26.0,0.0,0.0,0.0,59.999996,0.0,26.0,26.0,26.0,26.0,0.050222222222222224,0.2671000000000001,-0.0105,292.755,-2.6658,-2.6242,-1.5827,-1.5510000000000002,-221.88,215.41750000000002,190.659625,0.0,0.0,0.0,0.0,0.03286666666666667,-5.498166666666667,-5.498166666666667,-0.5556,-0.26049999999999995,0.028666666666666618,0.28800000000000026,67.80199999999999,0.027800000000000002,-0.22605,-0.3639999999999999,100.0,1.0,1.0,209.17666666666668,0.0,0.0,0.0,0.0,0.0,0.0,0.0,8866.2,0.0,55.0,5.0,244.06,0.0,0.0,0.0,0.0,0.0,0.0,1.0,0.0,0.8099999999999987,0.8099999999999987,0.0,0.0,0.0,55.0,616.79921,10000.0,85.000001,85.000001,85.000001,85.000001,395.0,0.0,0.0,0.0,1.0,166.665,52.383,52.383,48.019,48.019,34.0,-21.6175,27.36,-25.919999999999998,30.1,0.0,1782.777,-0.384999999999998,100.0,27.629,27.846,42.659,43.028999999999996,0.0,0.0,100.0,0.0,0.0,0.0,0.0,3061.0,3282.5,3993.1111111111113,4068.6000000000004,305.436,304.457,315.095,314.7745,21.917,20.591,21.9404,21.4504,314.999998,314.999998,324.999988,324.999988,99.55835714285715,99.50721666666666,99.56761428571428,99.54725714285715,0.11933333333333351,-0.008333333333333304,-0.0718,0.15399999999999991,-0.054999999999999716,-0.03166666666666629,1.548,1.5275,37.980999999999995,29.693666666666665,38.128,35.064499999999995,55.839,34.985,59.7185,52.513999999999996,53.785,34.1435,58.305,50.8375,52.95,33.713499999999996,58.2245,50.245333333333335,-0.10549999999999993,-0.044499999999999984,0.10460000000000001,0.10911000000000001,0.0,212.285,212.3,209.17666666666668,209.17666666666668,0.0,0.0
17,0.0,0.0,0.0,1.0,1.0,0.0,0.0,1.0,0.0,0.0,1.0,1.1856,26.0,0.0,0.0,0.0,59.999996,0.0,26.0,26.0,26.0,26.0,0.049666666666666665,0.29310000000000014,0.041425000000000003,292.557,-2.6367,-2.708,-1.51055,-1.572,-218.42000000000002,215.4075,190.637375,0.0,0.0,0.0,0.0,0.0349,-5.498166666666667,-5.498166666666667,-0.5503,0.14050000000000007,0.00377777777777788,-1.052,67.94200000000001,0.027700000000000002,-0.21677500000000002,-0.2860000000000005,100.0,1.0,1.0,209.51999999999998,0.0,0.0,0.0,0.0,0.0,0.0,0.0,8880.8,0.0,55.0,5.0,244.56333333333333,1.0,0.0,0.0,0.0,0.0,0.0,1.0,0.0,0.8610000000000007,0.8610000000000007,0.0,0.0,1.0,55.0,616.79921,10000.0,85.000001,85.000001,85.000001,85.000001,395.0,0.0,0.0,0.0,1.0,166.665,52.551,52.551,47.684,47.684,34.0,-22.31,24.65,-27.533333333333335,30.925,0.0,1782.726,-0.254999999999999,100.0,27.706,28.073,42.586,43.113,0.0,0.0,100.0,0.0,0.0,0.0,0.0,3094.4285714285716,3017.3,4233.111111111111,4210.6,305.4885,304.954,314.58475,314.34025,21.9265,20.5966,21.9509,21.4595,314.999998,314.999998,324.999988,324.999988,99.55837142857143,99.50723333333333,99.56775714285715,99.5474,0.09966666666666635,-0.04033333333333311,-0.0848,0.13440000000000007,-0.054999999999999716,-0.054999999999999716,1.5165,1.4975,38.04,29.728666666666665,38.193,35.1215,55.828,35.0235,59.7555,52.5755,53.774,34.1795,58.3395,50.897,52.938,33.748,58.256,50.303333333333335,-0.09899999999999998,-0.06350000000000011,0.10219500000000001,0.10770500000000001,0.0,212.74,212.765,209.51999999999998,209.51999999999998,0.0,0.0
18,0.0,0.0,0.0,1.0,1.0,0.0,0.0,1.0,0.0,0.0,1.0,1.1856,26.0,0.0,0.0,0.0,59.999996,0.0,26.0,26.0,26.0,26.0,0.044222222222222225,0.27900000000000014,0.026475000000000002,292.511,-2.6527,-2.7404,-1.5030999999999999,-1.582,-215.36,215.3975,190.6175,0.0,0.0,0.0,0.0,0.03666666666666667,-5.498166666666667,-5.498166666666667,-0.5613,-0.3294999999999999,0.008333333333333304,0.8050000000000002,68.064,0.024,-0.22625,-0.2239999999999993,100.0,1.0,1.0,209.89333333333332,0.0,0.0,0.0,0.0,0.0,0.0,0.0,8896.6,0.0,55.0,5.0,245.00333333333333,0.0,0.0,0.0,0.0,0.0,0.0,1.0,0.0,0.9059999999999988,0.9059999999999988,0.0,0.0,0.0,55.0,616.79921,10000.0,85.000001,85.000001,85.000001,85.000001,395.0,0.0,0.0,0.0,1.0,111.11,52.444,52.444,47.867,47.867,34.0,-22.215,26.58,-25.873333333333335,31.7575,0.0,1782.681,-0.2699999999999996,100.0,27.856,27.844,42.842,43.144999999999996,0.0,0.0,100.0,0.0,0.0,0.0,0.0,3044.857142857143,3171.3,4054.0,4242.7,305.496,304.673,314.89875,314.27325,21.9348,20.601399999999998,21.9601,21.4675,314.999998,314.999998,324.999988,324.999988,99.55838571428572,99.50723333333333,99.56788571428571,99.54752857142857,0.0993333333333335,-0.030333333333333323,-0.079,0.1422000000000001,-0.045000000000001705,-0.06833333333332803,1.5185,1.4969999999999999,38.093,29.758666666666667,38.251000000000005,35.172,55.817,35.057,59.7885,52.629999999999995,53.763,34.21,58.3705,50.949,52.927,33.7775,58.284,50.355000000000004,-0.09199999999999997,-0.05899999999999994,0.10647500000000001,0.10592000000000001,0.0,213.11,213.11,209.89333333333332,209.89333333333332,0.0,0.0
19,0.0,0.0,0.0,1.0,1.0,0.0,0.0,1.0,0.0,0.0,1.0,1.1856,26.0,0.0,0.0,0.0,59.999996,0.0,26.0,26.0,26.0,26.0,0.041444444444444443,0.2631000000000001,-0.02705,292.48,-2.6875999999999998,-2.6997999999999998,-1.54125,-1.5981,-211.48000000000002,215.385,190.592125,0.0,0.0,0.0,0.0,0.038933333333333334,-5.498166666666667,-5.498166666666667,-0.5486,0.476,0.01577777777777789,-0.704,68.217,0.0158,-0.20985,-0.10200000000000031,100.0,1.0,1.0,210.41,0.0,0.0,0.0,0.0,0.0,0.0,0.0,8918.5,0.0,55.0,5.0,245.55333333333334,1.0,0.0,0.0,0.0,0.0,0.0,1.0,0.0,0.963000000000001,0.963000000000001,0.0,0.0,1.0,55.0,616.79921,10000.0,85.000001,85.000001,85.000001,85.000001,395.0,0.0,0.0,0.0,1.0,111.11,52.322,52.322,47.928,47.928,34.0,-23.2275,23.936,-28.19,30.0025,0.0,1782.624,-0.23499999999999943,100.0,28.152,28.334,42.724000000000004,43.346000000000004,0.0,0.0,100.0,0.0,0.0,0.0,0.0,3107.714285714286,2973.4,4141.111111111111,4117.5,305.516,305.18,314.827,314.55325,21.9455,20.6076,21.9718,21.4777,314.999998,314.999998,324.999988,324.999988,99.5584,99.50723333333333,99.56804285714286,99.5477,0.0903333333333336,-0.04366666666666674,-0.1034,0.1257999999999999,-0.05666666666667197,-0.015000000000000568,1.517,1.509,38.159,29.797666666666665,38.323,35.236,55.805,35.1015,59.8285,52.698499999999996,53.751000000000005,34.251,58.4075,51.015,52.914,33.8165,58.318,50.419333333333334,-0.09399999999999997,-0.056499999999999995,0.10462500000000001,0.11536500000000001,0.0,213.63,213.595,210.41,210.41,0.0,0.0
20,0.0,0.0,0.0,1.0,1.0,0.0,0.0,1.0,0.0,0.0,1.0,1.1856,26.0,0.0,0.0,0.0,59.999996,0.0,26.0,26.0,26.0,26.0,0.010888888888888889,0.2643,-0.056075,292.465,-2.7077,-2.6457,-1.61265,-1.534,-207.99,215.3775,190.569625,0.0,0.0,0.0,0.0,0.04096666666666667,-5.498166666666667,-5.498166666666667,-0.5606,-0.6335000000000002,0.015666666666666718,0.5699999999999998,68.355,0.0132,-0.22875,-0.15200000000000014,100.0,1.0,1.0,210.82999999999998,0.0,0.0,0.0,0.0,0.0,0.0,0.0,8936.3,0.0,55.0,5.0,246.05,0.0,0.0,0.0,0.0,0.0,0.0,0.0,0.0,1.0139999999999993,1.0139999999999993,0.0,0.0,0.0,55.0,616.79921,10000.0,85.000001,85.000001,85.000001,85.000001,395.0,0.0,0.0,0.0,1.0,111.11,52.444,52.444,47.531,47.531,34.0,-22.294999999999998,25.352,-27.57,28.765,0.0,1782.573,-0.2749999999999986,100.0,27.975,27.964,43.33,43.578,0.0,0.0,100.0,0.0,0.0,0.0,0.0,3014.857142857143,3183.4,4026.777777777778,4072.1000000000004,305.631,304.77566666666667,315.0165,314.8175,21.9549,20.6132,21.9823,21.487000000000002,314.999998,314.999998,324.999988,324.999988,99.55841428571429,99.50723333333333,99.56818571428572,99.54784285714285,0.10233333333333361,-0.038000000000000034,-0.0898,0.13159999999999994,-0.054999999999999716,-0.036666666666668846,1.5354999999999999,1.524,38.218,29.832333333333334,38.39,35.2935,55.791,35.14,59.8675,52.7605,53.739000000000004,34.287,58.4435,51.075,52.9,33.851,58.351,50.478,-0.09599999999999997,-0.058499999999999996,0.102995,0.102315,0.0,214.0,213.995,210.82999999999998,210.82999999999998,0.0,0.0
21,0.0,0.0,0.0,1.0,1.0,0.0,0.0,1.0,0.0,0.0,1.0,1.1856,26.0,0.0,0.0,0.0,59.999996,0.0,26.0,26.0,26.0,26.0,0.003444444444444445,0.2733000000000001,-0.04675,292.557,-2.723,-2.6592000000000002,-1.5723500000000001,-1.5277,-205.12,215.37,190.55075,0.0,0.0,0.0,0.0,0.042633333333333336,-5.498166666666667,-5.498166666666667,-0.5732,0.028999999999999915,0.007222222222222241,0.617,68.46600000000001,0.0118,-0.22415000000000002,-0.15200000000000014,100.0,1.0,1.0,211.21666666666667,0.0,0.0,0.0,0.0,0.0,0.0,0.0,8952.8,0.0,55.0,5.0,246.45,1.0,0.0,0.0,0.0,0.0,0.0,0.0,0.0,1.056000000000001,1.056000000000001,0.0,0.0,1.0,55.0,616.79921,10000.0,85.000001,85.000001,85.000001,85.000001,395.0,0.0,0.0,0.0,1.0,166.665,52.322,52.322,48.019,48.019,34.0,-23.5225,25.576,-26.733333333333334,28.32,0.0,1782.529,-0.2699999999999996,100.0,28.041,27.848,43.033,43.277,0.0,0.0,100.0,0.0,0.0,0.0,0.0,3107.5714285714284,3210.5,4013.0,4073.2,305.3635,304.7223333333333,315.10025,314.8255,21.9626,20.6177,21.9909,21.4944,314.999998,314.999998,324.999988,324.999988,99.55841428571429,99.50725,99.5683,99.54795714285714,0.09566666666666634,-0.04066666666666663,-0.0906,0.12640000000000007,-0.046666666666666856,-0.06333333333333258,1.577,1.5505,38.266,29.860666666666667,38.443,35.34,55.781,35.172,59.896,52.8095,53.729,34.316,58.4705,51.122,52.89,33.879,58.375,50.524,-0.09499999999999997,-0.06000000000000005,0.10243000000000001,0.09940500000000001,0.0,214.36,214.38,211.21666666666667,211.21666666666667,0.0,0.0
22,0.0,0.0,0.0,1.0,1.0,0.0,0.0,1.0,0.0,0.0,1.0,1.1856,26.0,0.0,0.0,0.0,59.999996,0.0,26.0,26.0,26.0,26.0,0.013666666666666666,0.27670000000000017,0.02535,292.114,-2.7678,-2.6541,-1.57795,-1.5241,-201.62,215.3625,190.527,0.0,0.0,0.0,0.0,0.04463333333333333,-5.498166666666667,-5.498166666666667,-0.5584,0.02200000000000002,0.011888888888888838,-0.5609999999999999,68.604,0.011000000000000001,-0.20165,-0.16000000000000014,100.0,1.0,1.0,211.48333333333335,0.0,0.0,0.0,0.0,0.0,0.0,0.0,8963.9,0.0,55.0,5.0,246.94666666666666,0.0,0.0,0.0,0.0,0.0,0.0,0.0,0.0,1.1069999999999993,1.1069999999999993,0.0,0.0,0.0,55.0,616.79921,10000.0,85.000001,85.000001,85.000001,85.000001,395.0,0.0,0.0,0.0,1.0,166.665,52.353,52.353,47.18,47.18,34.0,-24.46,24.689999999999998,-30.16,30.7825,0.0,1782.478,-0.36499999999999844,100.0,27.914,28.104,43.096000000000004,43.455,0.0,0.0,100.0,0.0,0.0,0.0,0.0,3195.285714285714,3091.3,4310.444444444444,4355.0,305.355,304.912,314.42375,314.07175,21.972,20.6233,22.0014,21.5036,314.999998,314.999998,324.999988,324.999988,99.55842857142858,99.50725,99.56845714285714,99.54811428571429,0.09466666666666645,-0.03966666666666674,-0.1014,0.12200000000000011,-0.06499999999999773,-0.041666666666671404,1.4875,1.4895,38.325,29.895666666666664,38.507999999999996,35.3975,55.769999999999996,35.210499999999996,59.934,52.8705,53.718,34.352000000000004,58.5055,51.1805,52.878,33.913,58.407,50.58166666666666,-0.10899999999999999,-0.045500000000000096,0.10541500000000001,0.109005,0.0,214.81,214.79500000000002,211.48333333333335,211.48333333333335,0.0,0.0
23,0.0,0.0,0.0,1.0,1.0,0.0,0.0,1.0,0.0,0.0,1.0,1.1856,26.0,0.0,0.0,0.0,59.999996,0.0,26.0,26.0,26.0,26.0,0.0057777777777777775,0.25880000000000014,0.026500000000000003,292.023,-2.6637,-2.6812,-1.6454,-1.5338,-198.12,215.35500000000002,190.503375,0.0,0.0,0.0,0.0,0.046700000000000005,-5.498166666666667,-5.498166666666667,-0.5724,-0.2560000000000002,0.014666666666666606,0.7610000000000001,68.739,0.0126,-0.2242,-0.29600000000000026,100.0,1.0,1.0,211.95,0.0,0.0,0.0,0.0,0.0,0.0,0.0,8983.7,0.0,55.0,5.0,247.43,1.0,0.0,0.0,0.0,0.0,0.0,0.0,0.0,1.1580000000000013,1.1580000000000013,0.0,0.0,1.0,55.0,616.79921,10000.0,85.000001,85.000001,85.000001,85.000001,395.0,0.0,0.0,0.0,1.0,333.33500000000004,52.032,52.032,47.379,47.379,34.0,-22.9525,25.838,-30.286666666666665,30.515,0.0,1782.427,-0.34499999999999886,100.0,28.325,28.104,43.368,43.623000000000005,0.0,0.0,100.0,0.0,0.0,0.0,0.0,3118.4285714285716,3173.7,4214.666666666667,4244.1,305.257,304.753,314.64275,314.414,21.9814,20.6289,22.0119,21.5129,314.999998,314.999998,324.999988,324.999988,99.55844285714285,99.50726666666667,99.5686,99.54825714285714,0.10033333333333339,-0.033666666666666734,-0.1024,0.13400000000000012,-0.03333333333333144,-0.045000000000001705,1.5115,1.4905,38.384,29.930666666666667,38.574,35.4555,55.757999999999996,35.25,59.9715,52.9325,53.707,34.388,58.5405,51.2405,52.864999999999995,33.948,58.4385,50.64,-0.10449999999999993,-0.05400000000000005,0.108005,0.10979000000000001,0.0,215.18,215.2,211.95,211.95,0.0,0.0
24,0.0,0.0,0.0,1.0,1.0,0.0,0.0,1.0,0.0,0.0,1.0,1.1856,26.0,0.0,0.0,0.0,59.999996,0.0,26.0,26.0,26.0,26.0,0.03766666666666667,0.26170000000000004,-0.05525,292.511,-2.7188,-2.6773,-1.55675,-1.549,-194.61,215.3475,190.479375,0.0,0.0,0.0,0.0,0.04873333333333334,-5.498166666666667,-5.498166666666667,-0.5874,-0.4075000000000002,0.022444444444444267,-0.31299999999999994,68.873,0.0152,-0.223,-0.25,100.0,1.0,1.0,212.38666666666666,0.0,0.0,0.0,0.0,0.0,0.0,0.0,9002.4,0.0,55.0,5.0,247.91666666666666,0.0,0.0,0.0,0.0,0.0,0.0,0.0,0.0,1.2089999999999996,1.2089999999999996,0.0,0.0,0.0,55.0,616.79921,10000.0,85.000001,85.000001,85.000001,85.000001,395.0,0.0,0.0,0.0,1.0,166.665,52.734,52.734,47.623,47.623,34.0,-22.9875,24.116,-27.743333333333336,29.16,0.0,1782.376,-0.33500000000000085,100.0,27.9,28.017,43.206,43.603,0.0,0.0,100.0,0.0,0.0,0.0,0.0,3052.142857142857,3009.6,4105.777777777777,4108.8,305.7215,305.11133333333333,314.8955,314.65075,21.9908,20.6344,22.0223,21.522100000000002,314.999998,314.999998,324.999988,324.999988,99.55845714285714,99.50726666666667,99.56874285714285,99.5484,0.09100000000000019,-0.04200000000000004,-0.0968,0.12540000000000018,-0.04333333333332945,-0.041666666666671404,1.5405,1.511,38.442,29.965,38.638999999999996,35.513,55.745000000000005,35.2875,60.0075,52.9925,53.695,34.423,58.574,51.298,52.852000000000004,33.981,58.469,50.696333333333335,-0.10549999999999993,-0.050000000000000044,0.098625,0.10659,0.0,215.61,215.61,212.38666666666666,212.38666666666666,0.0,0.0
25,0.0,0.0,0.0,1.0,1.0,0.0,0.0,1.0,0.0,0.0,1.0,1.1856,26.0,0.0,0.0,0.0,59.999996,0.0,26.0,26.0,26.0,26.0,0.052000000000000005,0.26039999999999996,-0.0072250000000000005,292.114,-2.6867,-2.6557,-1.59415,-1.5506,-190.89,215.34,190.4525,0.0,0.0,0.0,0.0,0.0509,-5.498166666666667,-5.498166666666667,-0.5986,0.33599999999999985,0.022222222222222143,-0.9530000000000001,69.014,0.0182,-0.21530000000000002,-0.24399999999999977,100.0,1.0,1.0,212.85000000000002,0.0,0.0,0.0,0.0,0.0,0.0,0.0,9021.9,0.0,55.0,5.0,248.42333333333335,1.0,0.0,0.0,0.0,0.0,0.0,0.0,0.0,1.2629999999999981,1.2629999999999981,0.0,0.0,1.0,55.0,616.79921,10000.0,85.000001,85.000001,85.000001,85.000001,395.0,0.0,0.0,0.0,1.0,111.11,51.804,51.804,47.562,47.562,34.0,-24.16,26.204,-28.153333333333336,29.8675,0.0,1782.324,-0.3500000000000014,100.0,28.026,28.354,42.992000000000004,43.415,0.0,0.0,100.0,0.0,0.0,0.0,0.0,3270.0,3213.0,4149.666666666667,4120.0,305.0415,304.43066666666664,314.87075,314.64225,22.0007,20.6404,22.0332,21.5317,314.999998,314.999998,324.999988,324.999988,99.55845714285714,99.50726666666667,99.5689,99.54855714285715,0.10166666666666657,-0.03433333333333333,-0.089,0.13840000000000008,-0.061666666666667425,-0.030000000000001137,1.5305,1.527,38.504000000000005,30.002666666666666,38.708,35.573499999999996,55.733000000000004,35.329499999999996,60.0445,53.055,53.682,34.4615,58.6085,51.3585,52.839,34.018,58.5,50.75566666666667,-0.10649999999999993,-0.050000000000000044,0.100235,0.11504,0.0,216.06,216.065,212.85000000000002,212.85000000000002,0.0,0.0
26,0.0,0.0,0.0,1.0,1.0,0.0,0.0,1.0,0.0,0.0,1.0,1.1856,26.0,0.0,0.0,0.0,59.999996,0.0,26.0,26.0,26.0,26.0,0.03144444444444444,0.2672000000000001,0.0646,291.412,-2.7138,-2.6511,-1.55965,-1.549,-187.78,215.3375,190.43,0.0,0.0,0.0,0.0,0.052700000000000004,-5.498166666666667,-5.498166666666667,-0.5739000000000001,0.18700000000000006,0.018111111111110967,0.919,69.134,0.0177,-0.203125,-0.32200000000000006,100.0,1.0,1.0,213.02666666666667,0.0,0.0,0.0,0.0,0.0,0.0,0.0,9029.5,0.0,55.0,5.0,248.85666666666668,0.0,0.0,0.0,0.0,0.0,0.0,0.0,0.0,1.3079999999999998,1.3079999999999998,0.0,0.0,0.0,55.0,616.79921,10000.0,85.000001,85.000001,85.000001,85.000001,395.0,0.0,0.0,0.0,1.0,166.665,51.682,51.682,46.692,46.692,34.0,-23.1425,26.22,-29.986666666666665,33.650000000000006,0.0,1782.278,-0.3949999999999996,100.0,28.738,28.474,43.578,43.816,0.0,0.0,100.0,0.0,0.0,0.0,0.0,3148.142857142857,3201.1,4376.333333333333,4490.3,305.262,304.78833333333336,314.19575,313.7535,22.009,20.6454,22.0426,21.54,314.999998,314.999998,324.999988,324.999988,99.55848571428571,99.50728333333333,99.56902857142857,99.54868571428571,0.11033333333333362,-0.021333333333333204,-0.0872,0.14000000000000012,-0.03166666666666629,-0.045000000000001705,1.4415,1.4275,38.557,30.034,38.766,35.625,55.724000000000004,35.3645,60.0785,53.1115,53.674,34.494,58.6405,51.4125,52.83,34.0495,58.5295,50.80866666666667,-0.11399999999999999,-0.04849999999999999,0.108935,0.11540500000000001,0.0,216.43,216.45,213.02666666666667,213.02666666666667,0.0,0.0
27,0.0,0.0,0.0,1.0,1.0,0.0,0.0,1.0,0.0,0.0,1.0,1.1856,26.0,0.0,0.0,0.0,59.999996,0.0,26.0,26.0,26.0,26.0,0.03688888888888889,0.2583,-0.02555,291.87,-2.7633,-2.6593999999999998,-1.6193,-1.5310000000000001,-184.25,215.33249999999998,190.405375,0.0,0.0,0.0,0.0,0.05473333333333334,-5.498166666666667,-5.498166666666667,-0.6003000000000001,-0.7395,0.023333333333333206,-0.542,69.265,0.0199,-0.23950000000000002,-0.3039999999999994,100.0,1.0,1.0,213.57666666666665,0.0,0.0,0.0,0.0,0.0,0.0,0.0,9052.8,0.0,55.0,5.0,249.32999999999998,1.0,0.0,0.0,0.0,0.0,0.0,0.0,0.0,1.3589999999999982,1.3589999999999982,0.0,0.0,1.0,55.0,616.79921,10000.0,85.000001,85.000001,85.000001,85.000001,395.0,0.0,0.0,0.0,1.0,166.665,51.91,51.91,47.028,47.028,34.0,-23.845,25.15,-27.993333333333336,29.545,0.0,1782.226,-0.39000000000000057,100.0,28.240000000000002,28.627,43.826,44.14,0.0,0.0,100.0,0.0,0.0,0.0,0.0,3196.142857142857,3129.4,4045.4444444444443,4115.3,305.377,304.7366666666667,314.99525,314.67275,22.0183,20.6511,22.0531,21.5493,314.999998,314.999998,324.999988,324.999988,99.5585,99.50728333333333,99.56918571428571,99.54884285714286,0.1080000000000001,-0.04033333333333311,-0.09240000000000001,0.1374000000000002,-0.046666666666666856,-0.02833333333332888,1.526,1.516,38.614999999999995,30.069333333333333,38.832,35.683,55.713,35.4035,60.1165,53.1725,53.663,34.5305,58.6755,51.4715,52.818,34.084,58.5615,50.86633333333333,-0.12149999999999994,-0.05449999999999999,0.10559,0.11359000000000001,0.0,216.8,216.805,213.57666666666665,213.57666666666665,0.0,0.0
28,0.0,0.0,0.0,1.0,1.0,0.0,0.0,1.0,0.0,0.0,1.0,1.1856,26.0,0.0,0.0,0.0,59.999996,0.0,26.0,26.0,26.0,26.0,0.05,0.27100000000000013,-0.0529,291.901,-2.692,-2.648,-1.63205,-1.5615,-180.92000000000002,215.3275,190.381375,0.0,0.0,0.0,0.0,0.056666666666666664,-5.498166666666667,-5.498166666666667,-0.6003000000000001,0.5245,0.008999999999999897,-1.093,69.388,0.0238,-0.214675,-0.35599999999999987,100.0,1.0,1.0,213.99333333333334,0.0,0.0,0.0,0.0,0.0,0.0,0.0,9070.4,0.0,55.0,5.0,249.76999999999998,0.0,0.0,0.0,0.0,0.0,0.0,0.0,0.0,1.407,1.407,0.0,0.0,0.0,55.0,616.79921,10000.0,85.000001,85.000001,85.000001,85.000001,395.0,0.0,0.0,0.0,1.0,166.665,51.894999999999996,51.894999999999996,47.119,47.119,34.0,-22.8675,25.095999999999997,-28.88,30.0625,0.0,1782.179,-0.41000000000000014,100.0,28.385,28.663,43.387,43.835,0.0,0.0,100.0,0.0,0.0,0.0,0.0,3127.4285714285716,3105.6,4221.222222222223,4142.1,305.417,304.8043333333333,314.77075,314.63425,22.0271,20.6565,22.0628,21.5579,314.999998,314.999998,324.999988,324.999988,99.55851428571428,99.5073,99.56931428571428,99.54898571428572,0.10599999999999987,-0.03433333333333333,-0.0836,0.13779999999999992,-0.054999999999999716,-0.036666666666668846,1.538,1.5405,38.67,30.103,38.891999999999996,35.737,55.702,35.441,60.147999999999996,53.228,53.653,34.565,58.704499999999996,51.5245,52.807,34.117,58.5875,50.91833333333334,-0.10999999999999999,-0.04849999999999999,0.10378000000000001,0.10638,0.0,217.22500000000002,217.23000000000002,213.99333333333334,213.99333333333334,0.0,0.0
29,0.0,0.0,0.0,1.0,1.0,0.0,0.0,1.0,0.0,0.0,1.0,1.1856,26.0,0.0,0.0,0.0,59.999996,0.0,26.0,26.0,26.0,26.0,0.04388888888888889,0.2518,-0.046525000000000004,291.687,-2.7588,-2.5754,-1.60955,-1.5643,-177.17000000000002,215.325,190.353375,0.0,0.0,0.0,0.0,0.058866666666666664,-5.498166666666667,-5.498166666666667,-0.608,-0.7095000000000002,0.00477777777777777,-0.6639999999999999,69.529,0.024300000000000002,-0.218775,-0.33000000000000007,100.0,1.0,1.0,214.31666666666666,0.0,0.0,0.0,0.0,0.0,0.0,0.0,9084.1,0.0,55.0,5.0,250.28,1.0,0.0,0.0,0.0,0.0,0.0,0.0,0.0,1.4609999999999985,1.4609999999999985,0.0,0.0,1.0,55.0,616.79921,10000.0,85.000001,85.000001,85.000001,85.000001,395.0,0.0,0.0,0.0,1.0,166.665,51.865,51.865,46.967,46.967,34.0,-24.509999999999998,25.766,-28.849999999999998,30.7975,0.0,1782.126,-0.4800000000000004,100.0,28.136,28.422,43.751,44.150999999999996,0.0,0.0,100.0,0.0,0.0,0.0,0.0,3303.142857142857,3208.1,4178.222222222223,4210.0,305.131,304.68833333333333,314.76625,314.35475,22.0369,20.662399999999998,22.073999999999998,21.5678,314.999998,314.999998,324.999988,324.999988,99.55851428571428,99.5073,99.56947142857143,99.54914285714285,0.1113333333333335,-0.020000000000000018,-0.0898,0.13140000000000018,-0.05333333333332746,-0.03999999999999915,1.498,1.484,38.730999999999995,30.14,38.962,35.7985,55.69,35.481,60.1885,53.293,53.641,34.6015,58.7425,51.5875,52.793,34.1525,58.6215,50.980000000000004,-0.11849999999999994,-0.040000000000000036,0.10619,0.10543500000000001,0.0,217.635,217.64499999999998,214.31666666666666,214.31666666666666,0.0,0.0
30,0.0,0.0,0.0,1.0,1.0,0.0,0.0,1.0,0.0,0.0,1.0,1.1856,26.0,0.0,0.0,0.0,59.999996,0.0,26.0,26.0,26.0,26.0,0.039,0.24970000000000003,0.0066,291.122,-2.7301,-2.6449,-1.6561,-1.4633,-174.04,215.325,190.330125,0.0,0.0,0.0,0.0,0.06066666666666667,-5.498166666666667,-5.498166666666667,-0.605,0.8999999999999999,0.009444444444444366,0.7920000000000003,69.643,0.027800000000000002,-0.21580000000000002,-0.5339999999999998,100.0,1.0,1.0,214.75,0.0,0.0,0.0,0.0,0.0,0.0,0.0,9102.4,0.0,55.0,5.0,250.68666666666667,0.0,0.0,0.0,0.0,0.0,0.0,1.0,0.0,1.5060000000000002,1.5060000000000002,0.0,0.0,0.0,55.0,616.79921,10000.0,85.000001,85.000001,85.000001,85.000001,395.0,0.0,0.0,0.0,1.0,166.665,50.598,50.598,46.936,46.936,34.0,-23.599999999999998,28.132,-29.423333333333336,30.3575,0.0,1782.079,-0.4750000000000014,100.0,29.164,28.999,43.609,43.956,0.0,0.0,100.0,0.0,0.0,0.0,0.0,3276.0,3372.6,4236.888888888889,4306.5,304.76,303.9963333333333,314.7245,314.43475,22.0454,20.6676,22.0831,21.5759,314.999998,314.999998,324.999988,324.999988,99.55854285714285,99.5073,99.56961428571428,99.54927142857143,0.13100000000000023,-0.021666666666666723,-0.08420000000000001,0.1452,-0.046666666666666856,-0.046666666666666856,1.5310000000000001,1.5175,38.783,30.172666666666665,39.019,35.8495,55.683,35.5175,60.2185,53.346000000000004,53.634,34.6355,58.7705,51.6385,52.786,34.1845,58.647,51.029333333333334,-0.129,-0.04600000000000004,0.11198000000000001,0.10093500000000001,0.0,218.01,218.035,214.75,214.75,0.0,0.0
31,0.0,0.0,0.0,1.0,1.0,0.0,0.0,1.0,0.0,0.0,1.0,1.1856,26.0,0.0,0.0,0.0,59.999996,0.0,26.0,26.0,26.0,26.0,0.053,0.24419999999999997,0.039575,290.833,-2.71,-2.6893,-1.6529500000000001,-1.5343,-170.28,215.325,190.30275,0.0,0.0,0.0,0.0,0.06286666666666667,-5.498166666666667,-5.498166666666667,-0.5881000000000001,-0.3860000000000001,0.024555555555555664,0.8239999999999998,69.783,0.031100000000000003,-0.223425,-0.4900000000000002,100.0,1.0,1.0,215.01,0.0,0.0,0.0,0.0,0.0,0.0,0.0,9113.5,0.0,55.0,5.0,251.19333333333333,1.0,0.0,0.0,0.0,0.0,0.0,1.0,0.0,1.5599999999999987,1.5599999999999987,0.0,0.0,1.0,55.0,616.79921,10000.0,85.000001,85.000001,85.000001,85.000001,395.0,0.0,0.0,0.0,1.0,166.665,51.086,51.086,45.7,45.7,34.0,-21.59,28.522,-29.45,32.64,0.0,1782.026,-0.48999999999999844,100.0,28.98,29.182000000000002,44.379,44.769999999999996,0.0,0.0,100.0,0.0,0.0,0.0,0.0,3038.142857142857,3347.2,4231.666666666667,4375.7,305.5145,304.156,314.494,314.00575,22.0552,20.6738,22.0944,21.586,314.999998,314.999998,324.999988,324.999988,99.55855714285714,99.5073,99.56977142857143,99.54942857142858,0.12666666666666648,-0.014999999999999902,-0.07200000000000001,0.14300000000000002,-0.026666666666670835,-0.05333333333332746,1.4355,1.4315,38.845,30.211333333333336,39.09,35.9125,55.673,35.56,60.2605,53.414,53.623999999999995,34.675,58.8095,51.704,52.774,34.2225,58.6825,51.093333333333334,-0.118,-0.04499999999999993,0.10393000000000001,0.105135,0.0,218.41500000000002,218.43,215.01,215.01,0.0,0.0
32,0.0,0.0,0.0,1.0,1.0,0.0,0.0,1.0,0.0,0.0,1.0,1.1856,26.0,0.0,0.0,0.0,59.999996,0.0,26.0,26.0,26.0,26.0,0.065,0.25950000000000006,-0.056625,291.412,-2.7076000000000002,-2.6751,-1.59645,-1.6128,-166.92000000000002,215.325,190.27875,0.0,0.0,0.0,0.0,0.06483333333333334,-5.498166666666667,-5.498166666666667,-0.6072000000000001,-0.2825000000000002,0.005444444444444363,0.21799999999999997,69.903,0.0316,-0.23292500000000002,-0.49600000000000044,100.0,1.0,1.0,215.50666666666666,0.0,0.0,0.0,0.0,0.0,0.0,0.0,9134.6,0.0,55.0,5.0,251.62666666666667,0.0,0.0,0.0,0.0,0.0,0.0,1.0,0.0,1.6080000000000005,1.6080000000000005,0.0,0.0,0.0,55.0,616.79921,10000.0,85.000001,85.000001,85.000001,85.000001,395.0,0.0,0.0,0.0,1.0,166.665,51.62,51.62,46.738,46.738,34.0,-21.0625,26.832,-26.58,32.2225,0.0,1781.978,-0.495000000000001,100.0,28.816,29.003,44.131,44.664,0.0,0.0,100.0,0.0,0.0,0.0,0.0,3029.142857142857,3184.3,4032.8888888888887,4228.5,305.599,304.7436666666667,315.0335,314.40725,22.0639,20.6792,22.1042,21.5948,314.999998,314.999998,324.999988,324.999988,99.55857142857143,99.50731666666667,99.56991428571429,99.54957142857143,0.13533333333333353,-0.011666666666666714,-0.0714,0.1474000000000002,-0.03499999999999659,-0.054999999999999716,1.5185,1.5145,38.899,30.245333333333335,39.150999999999996,35.9675,55.662,35.597,60.2935,53.4705,53.614000000000004,34.709,58.84,51.7585,52.763,34.254999999999995,58.7095,51.14666666666667,-0.123,-0.04400000000000004,0.10816,0.10017000000000001,0.0,218.78,218.815,215.50666666666666,215.50666666666666,0.0,0.0
33,0.0,0.0,0.0,1.0,1.0,0.0,0.0,1.0,0.0,0.0,1.0,1.1856,26.0,0.0,0.0,0.0,59.999996,0.0,26.0,26.0,26.0,26.0,0.05366666666666667,0.25429999999999997,-0.077975,291.626,-2.7180999999999997,-2.6412,-1.60155,-1.5794000000000001,-163.57,215.3275,190.253625,0.0,0.0,0.0,0.0,0.06676666666666667,-5.498166666666667,-5.498166666666667,-0.616,-0.1665000000000001,0.003666666666666707,0.9809999999999999,70.024,0.0317,-0.215925,-0.45999999999999996,100.0,1.0,1.0,215.89666666666668,0.0,0.0,0.0,0.0,0.0,0.0,0.0,9151.0,0.0,55.0,5.0,252.06,1.0,0.0,0.0,0.0,0.0,0.0,1.0,0.0,1.6559999999999988,1.6559999999999988,0.0,0.0,1.0,55.0,616.79921,10000.0,85.000001,85.000001,85.000001,85.000001,395.0,0.0,0.0,0.0,1.0,111.11,51.849000000000004,51.849000000000004,46.982,46.982,34.0,-21.4425,25.782,-27.226666666666663,32.0125,0.0,1781.931,-0.509999999999998,100.0,28.658,28.739,43.931,44.393,0.0,0.0,100.0,0.0,0.0,0.0,0.0,3055.5714285714284,3148.5,4075.777777777778,4222.7,305.546,304.94933333333336,314.9795,314.49075,22.072499999999998,20.6845,22.114,21.6034,314.999998,314.999998,324.999988,324.999988,99.55858571428571,99.50731666666667,99.57004285714285,99.54971428571429,0.133,-0.018333333333333313,-0.078,0.15500000000000003,-0.03333333333333144,-0.04999999999999716,1.532,1.5105,38.953,30.278333333333336,39.212,36.0215,55.652,35.632,60.326,53.525999999999996,53.605000000000004,34.7415,58.8705,51.8115,52.753,34.286,58.737,51.19866666666667,-0.121,-0.04499999999999993,0.11138,0.10941000000000001,0.0,219.15,219.19,215.89666666666668,215.89666666666668,0.0,0.0
34,0.0,0.0,0.0,1.0,1.0,0.0,0.0,1.0,0.0,0.0,1.0,1.1856,26.0,0.0,0.0,0.0,59.999996,0.0,26.0,26.0,26.0,26.0,0.05566666666666666,0.26370000000000005,-0.0745,291.84,-2.6761,-2.6729,-1.6324,-1.5194,-159.99,215.33249999999998,190.225625,0.0,0.0,0.0,0.0,0.06886666666666666,-5.498166666666667,-5.498166666666667,-0.6435000000000001,-0.9660000000000002,0.020000000000000018,-0.29499999999999993,70.154,0.0346,-0.222525,-0.4560000000000004,100.0,1.0,1.0,216.23666666666668,0.0,0.0,0.0,0.0,0.0,0.0,0.0,9165.5,0.0,55.0,5.0,252.52666666666664,0.0,0.0,0.0,0.0,0.0,0.0,1.0,0.0,1.7070000000000007,1.7070000000000007,0.0,0.0,0.0,55.0,616.79921,10000.0,85.000001,85.000001,85.000001,85.000001,395.0,0.0,0.0,0.0,1.0,166.665,52.399,52.399,47.058,47.058,34.0,-21.775,25.144,-28.513333333333335,31.245,0.0,1781.878,-0.495000000000001,100.0,28.186,28.509,43.765,44.522999999999996,0.0,0.0,100.0,0.0,0.0,0.0,0.0,3063.0,3031.2,4154.555555555556,4219.3,305.7235,305.20233333333334,314.851,314.42375,22.0816,20.6901,22.1244,21.6128,314.999998,314.999998,324.999988,324.999988,99.5586,99.50731666666667,99.57018571428571,99.54987142857142,0.11266666666666669,-0.016666666666666607,-0.08159999999999999,0.1534000000000002,-0.04333333333332945,-0.026666666666670835,1.5070000000000001,1.4989999999999999,39.01,30.313333333333333,39.277,36.08,55.64,35.6685,60.361,53.587,53.593,34.775,58.9025,51.8705,52.739999999999995,34.318,58.766,51.256,-0.11649999999999994,-0.04049999999999998,0.10233,0.11367500000000001,0.0,219.54000000000002,219.555,216.23666666666668,216.23666666666668,0.0,0.0
35,0.0,0.0,0.0,1.0,1.0,0.0,0.0,1.0,0.0,0.0,1.0,1.1856,26.0,0.0,0.0,0.0,59.999996,0.0,26.0,26.0,26.0,26.0,0.07011111111111111,0.25,-0.04635,291.718,-2.8045,-2.6512000000000002,-1.62485,-1.5784,-156.2,215.3375,190.193875,0.0,0.0,0.0,0.0,0.07106666666666667,-5.498166666666667,-5.498166666666667,-0.6766,0.12549999999999994,-0.002000000000000224,-1.3860000000000001,70.287,0.0362,-0.222275,-0.37399999999999967,100.0,1.0,1.0,216.73333333333335,0.0,0.0,0.0,0.0,0.0,0.0,0.0,9186.6,0.0,55.0,5.0,253.00666666666666,1.0,0.0,0.0,0.0,0.0,0.0,1.0,0.0,1.7609999999999992,1.7609999999999992,0.0,0.0,1.0,55.0,616.79921,10000.0,85.000001,85.000001,85.000001,85.000001,395.0,0.0,0.0,0.0,1.0,166.665,51.682,51.682,46.814,46.814,34.0,-23.72,27.02,-27.403333333333336,30.52,0.0,1781.826,-0.3200000000000003,100.0,28.098,28.916,43.496,43.976,0.0,0.0,100.0,0.0,0.0,0.0,0.0,3174.5714285714284,3281.3,4095.5555555555557,4119.4,305.365,304.2796666666667,314.95175,314.765,22.0911,20.6963,22.1353,21.6225,314.999998,314.999998,324.999988,324.999988,99.55861428571428,99.50731666666667,99.57035714285715,99.55002857142857,0.11833333333333362,-0.028999999999999915,-0.0746,0.14759999999999995,-0.03999999999999915,-0.06666666666666998,1.5590000000000002,1.546,39.07,30.352,39.346000000000004,36.1405,55.626999999999995,35.711,60.396,53.647,53.58,34.814,58.935,51.9285,52.726,34.356,58.795,51.312666666666665,-0.11049999999999993,-0.06000000000000005,0.10778000000000001,0.10647000000000001,0.0,219.97500000000002,220.015,216.73333333333335,216.73333333333335,0.0,0.0
36,0.0,0.0,0.0,1.0,1.0,0.0,0.0,1.0,0.0,0.0,1.0,1.1856,26.0,0.0,0.0,0.0,59.999996,0.0,26.0,26.0,26.0,26.0,0.05477777777777778,0.2654000000000001,0.031900000000000005,291.275,-2.6519,-2.7138,-1.6518000000000002,-1.589,-153.03,215.3425,190.166375,0.0,0.0,0.0,0.0,0.0729,-5.498166666666667,-5.498166666666667,-0.661,-0.09549999999999992,-0.03733333333333322,0.351,70.402,0.029900000000000003,-0.20215,-0.31400000000000006,100.0,1.0,1.0,216.88666666666666,0.0,0.0,0.0,0.0,0.0,0.0,0.0,9193.0,0.0,55.0,5.0,253.42000000000002,0.0,0.0,0.0,0.0,0.0,0.0,1.0,0.0,1.806000000000001,1.806000000000001,0.0,0.0,0.0,55.0,616.79921,10000.0,85.000001,85.000001,85.000001,85.000001,395.0,0.0,0.0,0.0,1.0,166.665,51.987,51.987,46.341,46.341,34.0,-20.53,25.77,-30.5,34.6375,0.0,1781.781,-0.28999999999999915,100.0,28.77,28.67,43.891,44.275,0.0,0.0,100.0,0.0,0.0,0.0,0.0,2945.714285714286,3105.6,4363.777777777777,4484.1,305.742,304.96133333333336,314.26125,313.8625,22.0992,20.7014,22.1446,21.6308,314.999998,314.999998,324.999988,324.999988,99.55862857142857,99.50731666666667,99.57048571428571,99.55015714285715,0.12333333333333352,-0.02833333333333332,-0.0742,0.15080000000000005,-0.02833333333332888,-0.046666666666666856,1.4545,1.453,39.120000000000005,30.384,39.403999999999996,36.192499999999995,55.619,35.745,60.428,53.702,53.572,34.846000000000004,58.9655,51.9815,52.717,34.385999999999996,58.8225,51.364666666666665,-0.10649999999999993,-0.05800000000000005,0.10756,0.10958500000000002,0.0,220.32999999999998,220.36,216.88666666666666,216.88666666666666,0.0,0.0
