,ABS Active,ABS Enabled,AID Allow Tire Blankets,AID Auto Blip,AID Auto Clutch,AID Auto Shift,AID Fuel Rate,AID Ideal Line,AID Mech Damage,AID Stability,AID Tire Wear Rate,Air Density,Air Temp,Ballast,Best Lap Delta,Best Lap Time,Brake Bias,Brake Pos,Brake Temp FL,Brake Temp FR,Brake Temp RL,Brake Temp RR,CG Accel Lateral,CG Accel Longitudinal,CG Accel Vertical,CG Height,Camber FL,Camber FR,Camber RL,Camber RR,Car Coord X,Car Coord Y,Car Coord Z,Car Damage Front,Car Damage Left,Car Damage Rear,Car Damage Right,Car Pos Norm,Caster FL,Caster FR,Chassis Pitch Angle,Chassis Pitch Rate,Chassis Roll Angle,Chassis Roll Rate,Chassis Velocity X,Chassis Velocity Y,Chassis Velocity Z,Chassis Yaw Rate,Clutch Pos,DRS Active,DRS Available,Drive Train Speed,ERS Heat Charging,ERS Is Charging,ERS Max Energy,ERS Power Level,ERS Recovery Level,Engine Brake Setting,Engine Limiter,Engine RPM,Flags,Fuel Level,Gear,Ground Speed,HR Sample Clock,In Pit,KERS Charge,KERS Deployed Energy,KERS Input,KERS Max Energy,LR Sample Clock,Lap Invalidated,Lap Time,Lap Time2,Last Lap Time,Last Sector Time,MR Sample Clock,Max Fuel,Max Power,Max RPM,Max Sus Travel FL,Max Sus Travel FR,Max Sus Travel RL,Max Sus Travel RR,Max Torque,Max Turbo Boost,Num Tires Off Track,Penalties Enabled,Position,Raw Data Sample Rate,Ride Height FL,Ride Height FR,Ride Height RL,Ride Height RR,Road Temp,Self Align Torque FL,Self Align Torque FR,Self Align Torque RL,Self Align Torque RR,Session Lap Count,Session Time Left,Steering Angle,Surface Grip,Suspension Travel FL,Suspension Travel FR,Suspension Travel RL,Suspension Travel RR,TC Active,TC Enabled,Throttle Pos,Tire Dirt Level FL,Tire Dirt Level FR,Tire Dirt Level RL,Tire Dirt Level RR,Tire Load FL,Tire Load FR,Tire Load RL,Tire Load RR,Tire Loaded Radius FL,Tire Loaded Radius FR,Tire Loaded Radius RL,Tire Loaded Radius RR,Tire Pressure FL,Tire Pressure FR,Tire Pressure RL,Tire Pressure RR,Tire Radius FL,Tire Radius FR,Tire Radius RL,Tire Radius RR,Tire Rubber Grip FL,Tire Rubber Grip FR,Tire Rubber Grip RL,Tire Rubber Grip RR,Tire Slip Angle FL,Tire Slip Angle FR,Tire Slip Angle RL,Tire Slip Angle RR,Tire Slip Ratio FL,Tire Slip Ratio FR,Tire Slip Ratio RL,Tire Slip Ratio RR,Tire Temp Core FL,Tire Temp Core FR,Tire Temp Core RL,Tire Temp Core RR,Tire Temp Inner FL,Tire Temp Inner FR,Tire Temp Inner RL,Tire Temp Inner RR,Tire Temp Middle FL,Tire Temp Middle FR,Tire Temp Middle RL,Tire Temp Middle RR,Tire Temp Outer FL,Tire Temp Outer FR,Tire Temp Outer RL,Tire Temp Outer RR,Toe In FL,Toe In FR,Toe In RL,Toe In RR,Turbo Boost,Wheel Angular Speed FL,Wheel Angular Speed FR,Wheel Angular Speed RL,Wheel Angular Speed RR,Wind Direction,Wind Speed
0,0.0,0.0,0.0,1.0,1.0,0.0,0.0,1.0,0.0,0.0,1.0,1.1856,26.0,0.0,0.0,0.0,59.99999,0.0,26.0,26.0,26.0,26.0,-0.07499999999999996,0.3255000000000001,0.09146666666666667,293.823,-2.7157999999999998,-2.6535,-1.51465,-1.55575,-275.55,216.28750000000002,190.986625,0.0,0.0,0.0,0.0,0.0016666666666666668,-5.498166666666667,-5.498166666666667,-0.5492,1.6426666666666667,-0.008500000000000174,-0.7430000000000001,65.505,-0.0388,-0.21535,0.9779999999999998,100.0,1.0,1.0,202.22333333333333,0.0,0.0,0.0,0.0,0.0,0.0,0.0,8571.5,0.0,55.0,5.0,235.7866666666667,0.0,0.0,0.0,0.0,0.0,0.0,0.0,0.0,0.006000000000000227,0.006000000000000227,0.0,0.0,0.0,55.0,616.79921,10000.0,85.0,85.0,85.0,85.0,395.0,0.0,0.0,0.0,1.0,20.0,52.475,52.475,49.376999999999995,49.376999999999995,34.0,-25.947499999999998,23.636,-30.4,25.22,0.0,1783.697,0.7600000000000016,100.0,27.754,27.267,40.47,40.478,0.0,0.0,100.0,0.0,0.0,0.0,0.0,2995.857142857143,3395.0,4188.5,4035.9,305.7245,304.0155,314.651,314.79025,21.8099,20.5144,21.7774,21.3193,314.99999,314.99999,324.99998,324.99998,99.56074285714286,99.50728333333333,99.56534285714285,99.54537142857143,0.006750000000000034,-0.11849999999999994,-0.14883333333333335,0.0655,-0.04333333333332945,-0.06666666666666998,1.545,1.5815000000000001,37.312,29.215,37.108999999999995,34.2455,56.913,34.5415,59.1095,51.6795,54.781,33.698499999999996,57.7365,50.035,53.925,33.2495,57.701,49.459,-0.01849999999999996,-0.13500000000000023,0.0989,0.11059000000000001,0.0,205.3,205.23000000000002,202.22333333333333,202.22333333333333,0.0,0.0
1,0.0,0.0,0.0,1.0,1.0,0.0,0.0,1.0,0.0,0.0,1.0,1.1856,26.0,0.0,0.0,0.0,59.999996,0.0,26.0,26.0,26.0,26.0,-0.10812500000000003,0.3042,0.18633333333333332,292.984,-2.6311,-2.768375,-1.52065,-1.5538750000000001,-272.2,216.28,190.966625,0.0,0.0,0.0,0.0,0.003633333333333334,-5.498166666666667,-5.498166666666667,-0.4998,-1.0213333333333334,-0.05874999999999986,-0.595,65.661,-0.054900000000000004,-0.20055,1.3840000000000003,100.0,1.0,1.0,202.36333333333334,0.0,0.0,0.0,0.0,0.0,0.0,0.0,8577.5,0.0,55.0,5.0,236.3466666666667,1.0,0.0,0.0,0.0,0.0,0.0,0.0,0.0,0.05699999999999861,0.05699999999999861,0.0,0.0,1.0,55.0,616.79921,10000.0,85.000001,85.000001,85.000001,85.000001,395.0,0.0,0.0,0.0,1.0,166.665,53.452,53.452,48.294,48.294,34.0,-27.39,18.004,-35.50333333333334,28.9625,0.0,1783.646,0.8599999999999994,100.0,27.624,27.062,42.512,41.736000000000004,0.0,0.0,100.0,0.0,0.0,0.0,0.0,3155.142857142857,2692.7,4413.75,4697.8,305.335,306.283,313.9916666666667,313.1355,21.8199,20.5195,21.7883,21.3284,314.999998,314.999998,324.999988,324.999988,99.56075714285714,99.5073,99.5655,99.54551428571429,-0.010000000000000009,-0.14249999999999996,-0.187,0.034,-0.03499999999999659,-0.061666666666667425,1.3929999999999998,1.4489999999999998,37.373999999999995,29.246499999999997,37.177,34.3025,56.894999999999996,34.581,59.156,51.7445,54.763,33.735,57.78,50.0975,53.907,33.2845,57.7415,49.52033333333333,-0.008499999999999952,-0.13900000000000023,0.10587500000000001,0.10501,0.0,205.72500000000002,205.615,202.36333333333334,202.36333333333334,0.0,0.0
2,0.0,0.0,0.0,1.0,1.0,0.0,0.0,1.0,0.0,0.0,1.0,1.1856,26.0,0.0,0.0,0.0,59.999996,0.0,26.0,26.0,26.0,26.0,-0.12412499999999993,0.29900000000000015,-0.05193333333333334,293.793,-2.6151,-2.7785,-1.4995,-1.593375,-268.65,216.2725,190.94675,0.0,0.0,0.0,0.0,0.005666666666666667,-5.498166666666667,-5.498166666666667,-0.5546,0.482,-0.036375000000000046,1.428,65.81,-0.0737,-0.258325,1.5440000000000005,100.0,1.0,1.0,203.38,0.0,0.0,0.0,0.0,0.0,0.0,0.0,8620.5,0.0,55.0,5.0,236.88666666666666,0.0,0.0,0.0,0.0,0.0,0.0,0.0,0.0,0.11100000000000065,0.11100000000000065,0.0,0.0,0.0,55.0,616.79921,10000.0,85.000001,85.000001,85.000001,85.000001,395.0,0.0,0.0,0.0,1.0,166.665,52.353,52.353,50.461,50.461,34.0,-29.810000000000002,19.97,-28.85,19.97,0.0,1783.591,0.6950000000000003,100.0,28.344,27.144,42.231,41.197,0.0,0.0,100.0,0.0,0.0,0.0,0.0,3341.857142857143,2965.9,3696.75,3732.1,304.6695,305.29675,315.8186666666667,315.65025,21.8309,20.5248,21.7993,21.337699999999998,314.999998,314.999998,324.999988,324.999988,99.56075714285714,99.50731666666667,99.56564285714286,99.54565714285714,-0.021499999999999964,-0.15274999999999994,-0.22466666666666665,0.0023333333333333335,-0.04999999999999716,-0.05333333333332746,1.6494999999999997,1.7075,37.443,29.28,37.245000000000005,34.3605,56.879999999999995,34.6235,59.195,51.804,54.748999999999995,33.7745,57.8165,50.1545,53.891999999999996,33.322,57.775,49.576,-0.02849999999999997,-0.13200000000000012,0.10665000000000001,0.10037000000000001,0.0,206.20499999999998,206.07999999999998,203.38,203.38,0.0,0.0
3,0.0,0.0,0.0,1.0,1.0,0.0,0.0,1.0,0.0,0.0,1.0,1.1856,26.0,0.0,0.0,0.0,59.999996,0.0,26.0,26.0,26.0,26.0,-0.14212499999999995,0.3022,0.09986666666666667,293.533,-2.7235,-2.696625,-1.5076,-1.592625,-265.69,216.2625,190.929375,0.0,0.0,0.0,0.0,0.0074,-5.498166666666667,-5.498166666666667,-0.5094000000000001,0.33,-0.012375000000000025,0.123,65.945,-0.08320000000000001,-0.19737500000000002,1.152000000000001,100.0,1.0,1.0,203.43666666666667,0.0,0.0,0.0,0.0,0.0,0.0,0.0,8623.0,0.0,55.0,5.0,237.37333333333333,1.0,0.0,0.0,0.0,0.0,0.0,0.0,0.0,0.1559999999999988,0.1559999999999988,0.0,0.0,1.0,55.0,616.79921,10000.0,85.000001,85.000001,85.000001,85.000001,395.0,0.0,0.0,0.0,1.0,166.665,53.65,53.65,48.218,48.218,34.0,-25.585,18.395999999999997,-35.28,24.8,0.0,1783.547,0.6649999999999991,100.0,27.956,26.901,42.346000000000004,41.29,0.0,0.0,100.0,0.0,0.0,0.0,0.0,2837.5714285714284,2864.8,4317.125,4256.4,306.1575,305.73075,314.2606666666667,314.321,21.8396,20.5294,21.8085,21.3455,314.999998,314.999998,324.999988,324.999988,99.56075714285714,99.50733333333334,99.56577142857142,99.54578571428571,-0.02300000000000002,-0.15200000000000002,-0.2135,0.014333333333333335,-0.07333333333333059,-0.051666666666669414,1.4874999999999998,1.5274999999999999,37.497,29.308500000000002,37.303,34.4095,56.864000000000004,34.661,59.230000000000004,51.859,54.733999999999995,33.8085,57.8495,50.207,53.876000000000005,33.355000000000004,57.8055,49.628,-0.02200000000000002,-0.125,0.11464,0.10894500000000001,0.0,206.635,206.55,203.43666666666667,203.43666666666667,0.0,0.0
4,0.0,0.0,0.0,1.0,1.0,0.0,0.0,1.0,0.0,0.0,1.0,1.1856,26.0,0.0,0.0,0.0,59.999996,0.0,26.0,26.0,26.0,26.0,-0.13687499999999997,0.27900000000000014,-0.006566666666666668,293.686,-2.657,-2.746875,-1.51885,-1.60175,-261.92,216.245,190.90725,0.0,0.0,0.0,0.0,0.009600000000000001,-5.498166666666667,-5.498166666666667,-0.5498000000000001,-0.486,-0.08412500000000023,-1.4050000000000002,66.108,-0.0819,-0.240075,1.216000000000001,100.0,1.0,1.0,204.12333333333333,0.0,0.0,0.0,0.0,0.0,0.0,0.0,8652.0,0.0,55.0,5.0,237.96333333333334,0.0,0.0,0.0,0.0,0.0,0.0,0.0,0.0,0.21300000000000097,0.21300000000000097,0.0,0.0,0.0,55.0,616.79921,10000.0,85.000001,85.000001,85.000001,85.000001,395.0,0.0,0.0,0.0,1.0,111.11,52.872,52.872,49.103,49.103,34.0,-30.6625,19.122,-32.016666666666666,20.4725,0.0,1783.491,0.5749999999999993,100.0,27.699,26.896,42.713,41.324,0.0,0.0,100.0,0.0,0.0,0.0,0.0,3369.857142857143,2904.4,4029.0,3653.9,304.7435,305.432,315.01166666666666,315.74325,21.8506,20.5351,21.8203,21.3554,314.999998,314.999998,324.999988,324.999988,99.56077142857143,99.50735,99.56592857142857,99.54592857142858,-0.02949999999999997,-0.15649999999999997,-0.211,0.0145,-0.05833333333333002,-0.051666666666669414,1.573,1.6295000000000002,37.566,29.3445,37.376999999999995,34.4715,56.843,34.707,59.2765,51.923500000000004,54.714,33.851,57.893,50.2695,53.855999999999995,33.3955,57.8455,49.68866666666666,-0.02299999999999991,-0.12300000000000022,0.10733000000000001,0.10320000000000001,0.0,207.10500000000002,207.0,204.12333333333333,204.12333333333333,0.0,0.0
5,0.0,0.0,0.0,1.0,1.0,0.0,0.0,1.0,0.0,0.0,1.0,1.1856,26.0,0.0,0.0,0.0,59.999996,0.0,26.0,26.0,26.0,26.0,-0.12462499999999999,0.3144,0.0056,293.564,-2.6761,-2.761375,-1.513,-1.5845,-258.75,216.22750000000002,190.888,0.0,0.0,0.0,0.0,0.011433333333333334,-5.498166666666667,-5.498166666666667,-0.5347000000000001,0.35133333333333333,-0.08000000000000007,-0.2670000000000001,66.248,-0.08660000000000001,-0.2132,1.0820000000000007,100.0,1.0,1.0,204.44666666666666,0.0,0.0,0.0,0.0,0.0,0.0,0.0,8665.8,0.0,55.0,5.0,238.46,1.0,0.0,0.0,0.0,0.0,0.0,0.0,0.0,0.26099999999999923,0.26099999999999923,0.0,0.0,1.0,55.0,616.79921,10000.0,85.000001,85.000001,85.000001,85.000001,395.0,0.0,0.0,0.0,1.0,166.665,53.421,53.421,48.859,48.859,34.0,-28.36,19.16,-34.61333333333334,23.085,0.0,1783.443,0.16499999999999915,100.0,27.77,26.772,42.522999999999996,41.243,0.0,0.0,100.0,0.0,0.0,0.0,0.0,3201.285714285714,2777.8,4236.375,4070.8,305.2225,305.88075,314.57666666666665,314.71425,21.8601,20.5399,21.8301,21.3637,314.999998,314.999998,324.999988,324.999988,99.56077142857143,99.50736666666667,99.56605714285715,99.54607142857142,-0.012249999999999983,-0.13224999999999998,-0.21933333333333335,0.007833333333333333,-0.054999999999999716,-0.07000000000000028,1.5015,1.54,37.626000000000005,29.374499999999998,37.438,34.5235,56.828,34.7445,59.314,51.9785,54.7,33.885999999999996,57.928,50.322,53.841,33.429,57.878,49.74,-0.05499999999999994,-0.08999999999999986,0.108215,0.10697500000000001,0.0,207.57,207.47500000000002,204.44666666666666,204.44666666666666,0.0,0.0
6,0.0,0.0,0.0,1.0,1.0,0.0,0.0,1.0,0.0,0.0,1.0,1.1856,26.0,0.0,0.0,0.0,59.999996,0.0,26.0,26.0,26.0,26.0,-0.10575000000000001,0.30610000000000004,0.00036666666666666667,293.442,-2.6414999999999997,-2.79375,-1.5556,-1.579625,-255.56,216.20749999999998,190.868625,0.0,0.0,0.0,0.0,0.013300000000000001,-5.498166666666667,-5.498166666666667,-0.5314,0.06833333333333333,-0.06287500000000001,-0.546,66.385,-0.08120000000000001,-0.215625,0.7400000000000002,100.0,1.0,1.0,204.86666666666667,0.0,0.0,0.0,0.0,0.0,0.0,0.0,8683.6,0.0,55.0,5.0,238.95666666666668,0.0,0.0,0.0,0.0,0.0,0.0,0.0,0.0,0.30900000000000105,0.30900000000000105,0.0,0.0,0.0,55.0,616.79921,10000.0,85.000001,85.000001,85.000001,85.000001,395.0,0.0,0.0,0.0,1.0,166.665,53.177,53.177,48.721000000000004,48.721000000000004,34.0,-27.335,20.518,-32.95666666666666,22.66,0.0,1783.394,0.019999999999999574,100.0,27.695,26.914,42.646,41.564,0.0,0.0,100.0,0.0,0.0,0.0,0.0,3191.285714285714,2861.5,4141.875,4011.1000000000004,305.215,305.5215,314.7973333333333,314.858,21.8695,20.5448,21.8401,21.3722,314.999998,314.999998,324.999988,324.999988,99.56077142857143,99.50738333333334,99.5662,99.5462,0.0035000000000000586,-0.124,-0.198,0.01,-0.041666666666671404,-0.01999999999999602,1.5539999999999998,1.5590000000000002,37.684,29.405,37.5,34.576499999999996,56.812,34.7825,59.352000000000004,52.036,54.685,33.920500000000004,57.963,50.376999999999995,53.825,33.462,57.9105,49.794,-0.07099999999999995,-0.0754999999999999,0.10132500000000001,0.10530500000000001,0.0,207.965,207.875,204.86666666666667,204.86666666666667,0.0,0.0
7,0.0,0.0,0.0,1.0,1.0,0.0,0.0,1.0,0.0,0.0,1.0,1.1856,26.0,0.0,0.0,0.0,59.999996,0.0,26.0,26.0,26.0,26.0,-0.0695,0.2793000000000001,0.039433333333333334,293.274,-2.6107,-2.751875,-1.5150000000000001,-1.621625,-252.17,216.1825,190.84825,0.0,0.0,0.0,0.0,0.015266666666666666,-5.498166666666667,-5.498166666666667,-0.5351,0.10400000000000001,-0.04737500000000017,1.17,66.531,-0.065,-0.2248,0.31400000000000006,100.0,1.0,1.0,205.31,0.0,0.0,0.0,0.0,0.0,0.0,0.0,8702.4,0.0,55.0,5.0,239.48000000000002,1.0,0.0,0.0,0.0,0.0,0.0,0.0,0.0,0.35999999999999943,0.35999999999999943,0.0,0.0,1.0,55.0,616.79921,10000.0,85.000001,85.000001,85.000001,85.000001,395.0,0.0,0.0,0.0,1.0,166.665,52.856,52.856,48.874,48.874,34.0,-25.295,22.656,-30.119999999999997,25.5,0.0,1783.345,-0.259999999999998,100.0,27.995,26.862000000000002,42.766999999999996,41.734,0.0,0.0,100.0,0.0,0.0,0.0,0.0,3138.5714285714284,3022.0,4006.125,4069.3,305.1305,305.177,315.0183333333333,314.74375,21.8795,20.55,21.8506,21.3812,314.999998,314.999998,324.999988,324.999988,99.56077142857143,99.5074,99.56634285714286,99.54634285714286,0.040000000000000036,-0.09199999999999997,-0.1715,0.04633333333333334,-0.03833333333332689,-0.06499999999999773,1.5350000000000001,1.5554999999999999,37.747,29.4375,37.566,34.6325,56.796,34.8215,59.391,52.097,54.669,33.957,58.0,50.4355,53.809,33.4965,57.9445,49.851,-0.09450000000000003,-0.05799999999999983,0.10559,0.11023000000000001,0.0,208.39499999999998,208.365,205.31,205.31,0.0,0.0
8,0.0,0.0,0.0,1.0,1.0,0.0,0.0,1.0,0.0,0.0,1.0,1.1856,26.0,0.0,0.0,0.0,59.999996,0.0,26.0,26.0,26.0,26.0,-0.037374999999999936,0.29500000000000015,0.0263,293.488,-2.6943,-2.718,-1.49835,-1.575,-248.98,216.1575,190.828875,0.0,0.0,0.0,0.0,0.017133333333333334,-5.498166666666667,-5.498166666666667,-0.5361,-0.5903333333333334,-0.03224999999999989,0.738,66.669,-0.0459,-0.21545,-0.1039999999999992,100.0,1.0,1.0,205.65666666666667,0.0,0.0,0.0,0.0,0.0,0.0,0.0,8717.1,0.0,55.0,5.0,239.9766666666667,0.0,0.0,0.0,0.0,0.0,0.0,0.0,0.0,0.40800000000000125,0.40800000000000125,0.0,0.0,0.0,55.0,616.79921,10000.0,85.000001,85.000001,85.000001,85.000001,395.0,0.0,0.0,0.0,1.0,166.665,53.65,53.65,48.157,48.157,34.0,-23.3,22.887999999999998,-30.07333333333333,27.305,0.0,1783.296,-0.3550000000000004,100.0,27.486,26.756,42.786,41.848,0.0,0.0,100.0,0.0,0.0,0.0,0.0,2922.285714285714,3005.2,4108.5,4161.0,305.9465,305.336,314.722,314.4925,21.8887,20.5549,21.8604,21.3897,314.999998,314.999998,324.999988,324.999988,99.56077142857143,99.5074,99.56648571428572,99.54647142857142,0.05225000000000013,-0.07224999999999993,-0.15383333333333335,0.0765,-0.054999999999999716,-0.054999999999999716,1.5215,1.5215,37.804,29.468,37.628,34.6855,56.778,34.8575,59.4285,52.1535,54.653,33.9895,58.0345,50.49,53.792,33.528,57.9765,49.904333333333334,-0.10349999999999993,-0.04400000000000004,0.11239,0.10515500000000001,0.0,208.805,208.79000000000002,205.65666666666667,205.65666666666667,0.0,0.0
9,0.0,0.0,0.0,1.0,1.0,0.0,0.0,1.0,0.0,0.0,1.0,1.1856,26.0,0.0,0.0,0.0,59.999996,0.0,26.0,26.0,26.0,26.0,-0.024625000000000008,0.28259999999999996,0.03136666666666667,293.167,-2.6821,-2.72325,-1.5517500000000002,-1.555625,-245.76999999999998,216.1325,190.809,0.0,0.0,0.0,0.0,0.018966666666666666,-5.498166666666667,-5.498166666666667,-0.5418000000000001,0.6653333333333333,-0.03337499999999993,0.922,66.80199999999999,-0.025400000000000002,-0.21605000000000002,-0.18399999999999928,100.0,1.0,1.0,206.19333333333333,0.0,0.0,0.0,0.0,0.0,0.0,0.0,8739.8,0.0,55.0,5.0,240.45666666666668,1.0,0.0,0.0,0.0,0.0,0.0,0.0,0.0,0.4559999999999995,0.4559999999999995,0.0,0.0,1.0,55.0,616.79921,10000.0,85.000001,85.000001,85.000001,85.000001,395.0,0.0,0.0,0.0,1.0,111.11,52.444,52.444,49.225,49.225,34.0,-25.295,24.906,-27.433333333333337,26.805,0.0,1783.248,-0.4800000000000004,100.0,27.975,27.171,42.396,41.845,0.0,0.0,100.0,0.0,0.0,0.0,0.0,3288.4285714285716,3095.1,3969.75,4079.2,304.792,304.991,315.1836666666667,314.7865,21.898,20.5599,21.8702,21.3981,314.999998,314.999998,324.999988,324.999988,99.56078571428571,99.5074,99.56661428571428,99.5466,0.08299999999999996,-0.04599999999999993,-0.11916666666666667,0.09083333333333334,-0.03499999999999659,-0.051666666666669414,1.584,1.5745,37.863,29.499499999999998,37.689,34.738,56.765,34.894,59.4625,52.209,54.64,34.0235,58.066,50.543,53.778,33.5605,58.004999999999995,49.95633333333333,-0.11799999999999988,-0.03600000000000003,0.10064500000000001,0.10441500000000001,0.0,209.22,209.24,206.19333333333333,206.19333333333333,0.0,0.0
10,0.0,0.0,0.0,1.0,1.0,0.0,0.0,1.0,0.0,0.0,1.0,1.1856,26.0,0.0,0.0,0.0,59.999996,0.0,26.0,26.0,26.0,26.0,0.016625000000000112,0.2781,-0.0167,293.045,-2.6678,-2.70025,-1.53755,-1.53075,-242.36,216.10500000000002,190.78825,0.0,0.0,0.0,0.0,0.020966666666666668,-5.498166666666667,-5.498166666666667,-0.5191,-0.47433333333333333,0.01024999999999987,0.33599999999999997,66.949,-0.0056,-0.2078,-0.46200000000000063,100.0,1.0,1.0,206.43666666666667,0.0,0.0,0.0,0.0,0.0,0.0,0.0,8750.1,0.0,55.0,5.0,240.98666666666668,0.0,0.0,0.0,0.0,0.0,0.0,1.0,0.0,0.5069999999999979,0.5069999999999979,0.0,0.0,0.0,55.0,616.79921,10000.0,85.000001,85.000001,85.000001,85.000001,395.0,0.0,0.0,0.0,1.0,166.665,53.528,53.528,47.684,47.684,34.0,-21.134999999999998,22.776,-30.486666666666665,29.450000000000003,0.0,1783.195,-0.5949999999999989,100.0,27.639,27.334,42.72,42.696,0.0,0.0,100.0,0.0,0.0,0.0,0.0,2873.142857142857,2867.0,4300.5,4270.2,306.1435,305.56275,314.3546666666667,314.1715,21.907899999999998,20.5652,21.8808,21.4073,314.999998,314.999998,324.999988,324.999988,99.5608,99.50741666666667,99.56675714285714,99.54674285714286,0.08899999999999997,-0.04574999999999996,-0.11783333333333333,0.1075,-0.054999999999999716,-0.04999999999999716,1.4735,1.4849999999999999,37.924,29.5325,37.754999999999995,34.795500000000004,56.75,34.9305,59.503,52.272999999999996,54.626000000000005,34.057,58.104,50.6045,53.763,33.593,58.04,50.016333333333336,-0.12399999999999989,-0.026499999999999968,0.10172,0.10595500000000001,0.0,209.66500000000002,209.685,206.43666666666667,206.43666666666667,0.0,0.0
11,0.0,0.0,0.0,1.0,1.0,0.0,0.0,1.0,0.0,0.0,1.0,1.1856,26.0,0.0,0.0,0.0,59.999996,0.0,26.0,26.0,26.0,26.0,0.06062499999999993,0.2801,-0.09856666666666666,293.549,-2.7129,-2.683375,-1.58865,-1.521875,-238.74,216.0775,190.76625,0.0,0.0,0.0,0.0,0.022600000000000002,-5.498166666666667,-5.498166666666667,-0.5618000000000001,-0.003,0.03112500000000007,-0.808,67.096,0.014,-0.23485,-0.6099999999999994,100.0,1.0,1.0,207.20333333333332,0.0,0.0,0.0,0.0,0.0,0.0,0.0,8782.7,0.0,55.0,5.0,241.51666666666665,1.0,0.0,0.0,0.0,0.0,0.0,1.0,0.0,0.5609999999999999,0.5609999999999999,0.0,0.0,1.0,55.0,616.79921,10000.0,85.000001,85.000001,85.000001,85.000001,395.0,0.0,0.0,0.0,1.0,166.665,52.856,52.856,49.301,49.301,34.0,-22.4025,25.854,-24.366666666666667,27.1125,0.0,1783.141,-0.7049999999999983,100.0,27.412,27.582,42.164,42.527,0.0,0.0,100.0,0.0,0.0,0.0,0.0,3094.857142857143,3079.0,3764.125,3872.8,305.5545,304.86725,315.774,315.24,21.9181,20.571,21.8917,21.4168,314.999998,314.999998,324.999988,324.999988,99.56081428571429,99.50741666666667,99.56691428571429,99.5469,0.1120000000000001,-0.016000000000000014,-0.08633333333333333,0.14266666666666666,-0.054999999999999716,-0.07499999999999574,1.6345,1.609,37.988,29.5685,37.823,34.855000000000004,56.733999999999995,34.9705,59.539,52.335499999999996,54.61,34.094,58.1375,50.665,53.747,33.6285,58.07,50.07566666666666,-0.1299999999999999,-0.020000000000000018,0.103315,0.10501,0.0,210.10000000000002,210.14499999999998,207.20333333333332,207.20333333333332,0.0,0.0
12,0.0,0.0,0.0,1.0,1.0,0.0,0.0,1.0,0.0,0.0,1.0,1.1856,26.0,0.0,0.0,0.0,59.999996,0.0,26.0,26.0,26.0,26.0,0.05712500000000009,0.28070000000000017,0.0347,292.908,-2.7637,-2.678125,-1.55745,-1.5235,-235.51999999999998,216.0525,190.7455,0.0,0.0,0.0,0.0,0.025466666666666665,-5.498166666666667,-5.498166666666667,-0.5447000000000001,0.28500000000000003,0.01862499999999989,-0.8009999999999999,67.233,0.0303,-0.20622500000000002,-0.6799999999999997,100.0,1.0,1.0,207.38333333333333,0.0,0.0,0.0,0.0,0.0,0.0,0.0,8790.2,0.0,55.0,5.0,242.01,0.0,0.0,0.0,0.0,0.0,0.0,1.0,0.0,0.6089999999999982,0.6089999999999982,0.0,0.0,0.0,55.0,616.79921,10000.0,85.000001,85.000001,85.000001,85.000001,395.0,0.0,0.0,0.0,1.0,166.665,52.765,52.765,47.913,47.913,34.0,-23.0125,26.216,-27.726666666666667,30.795,0.0,1783.094,-0.6550000000000011,100.0,27.317,27.751,42.206,42.586,0.0,0.0,100.0,0.0,0.0,0.0,0.0,3137.714285714286,3105.4,4247.625,4188.8,305.454,304.8115,314.56533333333334,314.42775,21.9273,20.5762,21.9016,21.4253,314.999998,314.999998,324.999988,324.999988,99.56082857142857,99.50743333333334,99.56704285714285,99.54702857142857,0.11650000000000005,-0.011499999999999955,-0.0745,0.15016666666666667,-0.060000000000002274,-0.04833333333333201,1.5124999999999997,1.4975,38.045,29.601,37.885,34.908500000000004,56.72,35.0055,59.575,52.393,54.597,34.1265,58.171,50.72,53.733000000000004,33.66,58.101,50.129666666666665,-0.12399999999999989,-0.02300000000000013,0.10645500000000001,0.108105,0.0,210.55,210.59,207.38333333333333,207.38333333333333,0.0,0.0
13,0.0,0.0,0.0,1.0,1.0,0.0,0.0,1.0,0.0,0.0,1.0,1.1856,26.0,0.0,0.0,0.0,59.999996,0.0,26.0,26.0,26.0,26.0,0.07150000000000012,0.2833000000000001,0.055266666666666665,292.557,-2.7023,-2.674,-1.5907,-1.538875,-232.09,216.0275,190.72375,0.0,0.0,0.0,0.0,0.026933333333333333,-5.498166666666667,-5.498166666666667,-0.5396000000000001,-0.113,0.02487499999999998,1.025,67.376,0.0396,-0.21665,-0.8499999999999996,100.0,1.0,1.0,207.7733333333333,0.0,0.0,0.0,0.0,0.0,0.0,0.0,8806.8,0.0,55.0,5.0,242.52333333333334,1.0,0.0,0.0,0.0,0.0,0.0,1.0,0.0,0.6600000000000001,0.6600000000000001,0.0,0.0,1.0,55.0,616.79921,10000.0,85.000001,85.000001,85.000001,85.000001,395.0,0.0,0.0,0.0,1.0,166.665,52.475,52.475,47.943,47.943,34.0,-20.4025,27.93,-26.27666666666667,33.260000000000005,0.0,1783.044,-0.8399999999999999,100.0,27.821,27.786,42.57,43.016,0.0,0.0,100.0,0.0,0.0,0.0,0.0,3040.714285714286,3189.0,4120.125,4357.7,305.507,304.7275,314.756,314.08375,21.937,20.5817,21.9121,21.4346,314.999998,314.999998,324.999988,324.999988,99.56084285714286,99.50743333333334,99.56718571428571,99.54718571428572,0.15100000000000002,0.016000000000000014,-0.05516666666666666,0.16416666666666666,-0.04833333333333201,-0.05833333333333002,1.524,1.4794999999999998,38.105999999999995,29.6355,37.951,34.966,56.709,35.0435,59.613,52.457,54.586,34.161500000000004,58.2065,50.781,53.721000000000004,33.6935,58.1335,50.19,-0.14149999999999996,-0.01100000000000012,0.1028,0.10602,0.0,210.97,211.01,207.7733333333333,207.7733333333333,0.0,0.0
14,0.0,0.0,0.0,1.0,1.0,0.0,0.0,1.0,0.0,0.0,1.0,1.1856,26.0,0.0,0.0,0.0,59.999996,0.0,26.0,26.0,26.0,26.0,0.07987499999999992,0.28390000000000004,-0.008466666666666667,292.786,-2.7352,-2.6155,-1.5992000000000002,-1.5113750000000001,-228.85,216.005,190.70375,0.0,0.0,0.0,0.0,0.028833333333333332,-5.498166666666667,-5.498166666666667,-0.549,-0.09833333333333333,0.05325000000000002,1.332,67.507,0.0497,-0.228275,-1.0199999999999996,100.0,1.0,1.0,208.26333333333332,0.0,0.0,0.0,0.0,0.0,0.0,0.0,8827.5,0.0,55.0,5.0,242.99666666666667,0.0,0.0,0.0,0.0,0.0,0.0,1.0,0.0,0.7079999999999984,0.7079999999999984,0.0,0.0,0.0,55.0,616.79921,10000.0,85.000001,85.000001,85.000001,85.000001,395.0,0.0,0.0,0.0,1.0,166.665,52.582,52.582,48.096000000000004,48.096000000000004,34.0,-19.5625,28.684,-24.45666666666667,32.0125,0.0,1782.995,-0.9499999999999993,100.0,27.726,27.883,42.545,43.199,0.0,0.0,100.0,0.0,0.0,0.0,0.0,2931.857142857143,3265.2,3941.625,4223.2,305.85,304.505,315.204,314.4255,21.9462,20.5869,21.9219,21.4432,314.999998,314.999998,324.999988,324.999988,99.56085714285715,99.50743333333334,99.56732857142858,99.54731428571428,0.15749999999999997,0.02849999999999997,-0.04716666666666666,0.17566666666666667,-0.030000000000001137,-0.04833333333333201,1.5659999999999998,1.525,38.164,29.668,38.012,35.019999999999996,56.698,35.079,59.647,52.515,54.576,34.1945,58.238,50.8375,53.709,33.725,58.162,50.245,-0.14900000000000002,-0.0030000000000001137,0.10468000000000001,0.11164,0.0,211.35500000000002,211.425,208.26333333333332,208.26333333333332,0.0,0.0
15,0.0,0.0,0.0,1.0,1.0,0.0,0.0,1.0,0.0,0.0,1.0,1.1856,26.0,0.0,0.0,0.0,59.999996,0.0,26.0,26.0,26.0,26.0,0.10675000000000012,0.2841,0.016366666666666665,292.816,-2.7153,-2.5711250000000003,-1.6285500000000002,-1.452,-225.61,215.985,190.683375,0.0,0.0,0.0,0.0,0.0307,-5.498166666666667,-5.498166666666667,-0.5393,0.24566666666666667,0.08537499999999998,0.952,67.639,0.060700000000000004,-0.208575,-1.1679999999999993,100.0,1.0,1.0,208.65333333333334,0.0,0.0,0.0,0.0,0.0,0.0,0.0,8844.1,0.0,55.0,5.0,243.47,1.0,0.0,0.0,0.0,0.0,0.0,1.0,0.0,0.7560000000000002,0.7560000000000002,0.0,0.0,1.0,55.0,616.79921,10000.0,85.000001,85.000001,85.000001,85.000001,395.0,0.0,0.0,0.0,1.0,166.665,52.826,52.826,48.126,48.126,34.0,-17.815,28.268,-24.21333333333333,34.2425,0.0,1782.947,-1.0,100.0,27.696,27.928,42.266,43.278999999999996,0.0,0.0,100.0,0.0,0.0,0.0,0.0,2772.5714285714284,3240.7,3934.375,4417.9,306.3155,304.57375,315.25733333333335,313.97475,21.9553,20.5921,21.9317,21.4518,314.999998,314.999998,324.999988,324.999988,99.56088571428572,99.50743333333334,99.56745714285714,99.54745714285714,0.16674999999999995,0.03374999999999995,-0.034666666666666665,0.19733333333333336,-0.026666666666670835,-0.07666666666666799,1.5430000000000001,1.495,38.22,29.701,38.073,35.074,56.687,35.1155,59.68,52.5745,54.565,34.2285,58.268,50.8945,53.698,33.7575,58.189,50.301,-0.15500000000000003,-0.0009999999999998899,0.10431000000000001,0.11026000000000001,0.0,211.785,211.85500000000002,208.65333333333334,208.65333333333334,0.0,0.0
16,0.0,0.0,0.0,1.0,1.0,0.0,0.0,1.0,0.0,0.0,1.0,1.1856,26.0,0.0,0.0,0.0,59.999996,0.0,26.0,26.0,26.0,26.0,0.1160000000000001,0.27590000000000003,-0.007233333333333333,292.801,-2.7991,-2.5871250000000003,-1.59765,-1.516125,-221.95,215.9675,190.66,0.0,0.0,0.0,0.0,0.03283333333333333,-5.498166666666667,-5.498166666666667,-0.5640000000000001,-0.62,0.0665,0.08499999999999996,67.787,0.07400000000000001,-0.2281,-1.2579999999999991,100.0,1.0,1.0,209.13,0.0,0.0,0.0,0.0,0.0,0.0,0.0,8864.2,0.0,55.0,5.0,244.00666666666666,0.0,0.0,0.0,0.0,0.0,0.0,1.0,0.0,0.8099999999999987,0.8099999999999987,0.0,0.0,0.0,55.0,616.79921,10000.0,85.000001,85.000001,85.000001,85.000001,395.0,0.0,0.0,0.0,1.0,166.665,52.49,52.49,48.035,48.035,34.0,-20.145,29.823999999999998,-22.64666666666667,32.894999999999996,0.0,1782.893,-0.8900000000000006,100.0,27.387,28.027,42.486000000000004,43.39,0.0,0.0,100.0,0.0,0.0,0.0,0.0,3020.4285714285716,3344.2,3891.625,4123.6,305.771,304.30525,315.3403333333333,314.62275,21.9652,20.5981,21.9427,21.4615,314.999998,314.999998,324.999988,324.999988,99.5609,99.50745,99.5676,99.5476,0.16925000000000012,0.04325000000000001,-0.0195,0.20866666666666667,-0.03166666666666629,-0.04999999999999716,1.5785,1.5244999999999997,38.282,29.738,38.141999999999996,35.1345,56.672,35.1575,59.7195,52.6395,54.551,34.2675,58.305,50.957499999999996,53.682,33.795,58.2225,50.363,-0.14549999999999996,-0.00550000000000006,0.105535,0.10746000000000001,0.0,212.195,212.28,209.13,209.13,0.0,0.0
17,0.0,0.0,0.0,1.0,1.0,0.0,0.0,1.0,0.0,0.0,1.0,1.1856,26.0,0.0,0.0,0.0,59.999996,0.0,26.0,26.0,26.0,26.0,0.11812500000000004,0.30180000000000007,0.02686666666666667,292.358,-2.7646,-2.5626249999999997,-1.6404,-1.476875,-218.49,215.9525,190.637375,0.0,0.0,0.0,0.0,0.034833333333333334,-5.498166666666667,-5.498166666666667,-0.5479,0.439,0.04612499999999997,-0.6160000000000001,67.92699999999999,0.0799,-0.20515,-1.097999999999999,100.0,1.0,1.0,209.46,0.0,0.0,0.0,0.0,0.0,0.0,0.0,8878.2,0.0,55.0,5.0,244.50666666666666,1.0,0.0,0.0,0.0,0.0,0.0,1.0,0.0,0.8610000000000007,0.8610000000000007,0.0,0.0,1.0,55.0,616.79921,10000.0,85.000001,85.000001,85.000001,85.000001,395.0,0.0,0.0,0.0,1.0,166.665,52.382999999999996,52.382999999999996,47.546,47.546,34.0,-20.4,27.275999999999996,-26.6,34.0475,0.0,1782.844,-0.9649999999999999,100.0,27.697,28.387,42.287,43.505,0.0,0.0,100.0,0.0,0.0,0.0,0.0,3114.857142857143,3102.2,4343.25,4325.6,305.549,304.86075,314.41566666666665,314.15675,21.9748,20.6038,21.9531,21.4706,314.999998,314.999998,324.999988,324.999988,99.56091428571429,99.50745,99.56774285714286,99.54775714285714,0.17149999999999999,0.04049999999999998,-0.021500000000000002,0.20083333333333334,-0.045000000000001705,-0.05333333333332746,1.5339999999999998,1.4845000000000002,38.343,29.774,38.207,35.1915,56.662,35.198,59.754999999999995,52.701499999999996,54.541,34.305,58.338,51.0175,53.672,33.831,58.2525,50.42166666666667,-0.15549999999999997,-0.000500000000000167,0.10318500000000001,0.10343500000000001,0.0,212.66,212.76,209.46,209.46,0.0,0.0
18,0.0,0.0,0.0,1.0,1.0,0.0,0.0,1.0,0.0,0.0,1.0,1.1856,26.0,0.0,0.0,0.0,59.999996,0.0,26.0,26.0,26.0,26.0,0.14100000000000001,0.2823,-0.008866666666666667,292.389,-2.8006,-2.53375,-1.6595,-1.420125,-215.23000000000002,215.9425,190.616375,0.0,0.0,0.0,0.0,0.03673333333333333,-5.498166666666667,-5.498166666666667,-0.5615,-0.5093333333333333,0.07387499999999991,-0.2370000000000001,68.057,0.08170000000000001,-0.22485000000000002,-1.2560000000000002,100.0,1.0,1.0,209.91,0.0,0.0,0.0,0.0,0.0,0.0,0.0,8897.3,0.0,55.0,5.0,244.97666666666666,0.0,0.0,0.0,0.0,0.0,0.0,1.0,0.0,0.9089999999999989,0.9089999999999989,0.0,0.0,0.0,55.0,616.79921,10000.0,85.000001,85.000001,85.000001,85.000001,395.0,0.0,0.0,0.0,1.0,166.665,52.185,52.185,47.653,47.653,34.0,-20.215,29.939999999999998,-24.546666666666667,32.457499999999996,0.0,1782.795,-1.1600000000000001,100.0,27.441,28.3,42.543,43.826,0.0,0.0,100.0,0.0,0.0,0.0,0.0,3124.4285714285716,3334.2,4049.875,4214.9,305.572,304.18175,315.064,314.408,21.9837,20.6091,21.963,21.4794,314.999998,314.999998,324.999988,324.999988,99.56094285714286,99.50745,99.56788571428571,99.5479,0.18375000000000008,0.05499999999999994,-0.0195,0.20716666666666667,-0.045000000000001705,-0.04999999999999716,1.5675,1.5145,38.397999999999996,29.807000000000002,38.268,35.246,56.652,35.236,59.79,52.7615,54.531,34.34,58.3705,51.075,53.66,33.865,58.282,50.47833333333333,-0.16749999999999998,0.012499999999999956,0.10162,0.10841500000000001,0.0,213.04500000000002,213.10500000000002,209.91,209.91,0.0,0.0
19,0.0,0.0,0.0,1.0,1.0,0.0,0.0,1.0,0.0,0.0,1.0,1.1856,26.0,0.0,0.0,0.0,59.999996,0.0,26.0,26.0,26.0,26.0,0.11862499999999998,0.28869999999999996,0.04796666666666667,291.962,-2.7195,-2.5252499999999998,-1.6666,-1.408125,-211.95999999999998,215.935,190.595125,0.0,0.0,0.0,0.0,0.03863333333333333,-5.498166666666667,-5.498166666666667,-0.55,0.8326666666666667,0.07587499999999991,-0.861,68.186,0.09090000000000001,-0.2111,-1.112,100.0,1.0,1.0,210.2866666666667,0.0,0.0,0.0,0.0,0.0,0.0,0.0,8913.2,0.0,55.0,5.0,245.43666666666667,1.0,0.0,0.0,0.0,0.0,0.0,1.0,0.0,0.9570000000000007,0.9570000000000007,0.0,0.0,1.0,55.0,616.79921,10000.0,85.000001,85.000001,85.000001,85.000001,395.0,0.0,0.0,0.0,1.0,166.665,51.682,51.682,47.485,47.485,34.0,-21.325,27.694000000000003,-25.876666666666672,34.1475,0.0,1782.745,-0.41000000000000014,100.0,27.972,28.766,42.29,43.793,0.0,0.0,100.0,0.0,0.0,0.0,0.0,3119.714285714286,3302.1,4232.25,4416.3,305.412,304.188,314.68966666666665,313.97225,21.9928,20.6146,21.9727,21.488,314.999998,314.999998,324.999988,324.999988,99.56095714285715,99.50746666666667,99.56801428571428,99.54802857142857,0.1452500000000001,0.009749999999999925,-0.0165,0.20666666666666667,-0.036666666666668846,-0.046666666666666856,1.537,1.496,38.455,29.8415,38.329,35.3,56.643,35.2755,59.822,52.820499999999996,54.522999999999996,34.376999999999995,58.4,51.132,53.650999999999996,33.9005,58.3085,50.534333333333336,-0.11299999999999999,-0.047499999999999876,0.11128500000000001,0.10286500000000001,0.0,213.465,213.56,210.2866666666667,210.2866666666667,0.0,0.0
20,0.0,0.0,0.0,1.0,1.0,0.0,0.0,1.0,0.0,0.0,1.0,1.1856,26.0,0.0,0.0,0.0,59.999996,0.0,26.0,26.0,26.0,26.0,0.09275000000000011,0.27300000000000013,-0.015966666666666667,292.419,-2.8025,-2.60575,-1.57395,-1.5495,-208.26999999999998,215.93,190.5715,0.0,0.0,0.0,0.0,0.0408,-5.498166666666667,-5.498166666666667,-0.5589000000000001,-1.153,0.054749999999999854,-1.306,68.333,0.08320000000000001,-0.2265,-0.25200000000000067,100.0,1.0,1.0,210.66333333333333,0.0,0.0,0.0,0.0,0.0,0.0,0.0,8929.3,0.0,55.0,5.0,245.97333333333336,0.0,0.0,0.0,0.0,0.0,0.0,0.0,0.0,1.0109999999999992,1.0109999999999992,0.0,0.0,0.0,55.0,616.79921,10000.0,85.000001,85.000001,85.000001,85.000001,395.0,0.0,0.0,0.0,1.0,166.665,52.75,52.75,47.18,47.18,34.0,-22.52,24.747999999999998,-25.17666666666667,32.89,0.0,1782.692,0.379999999999999,100.0,27.422,28.304000000000002,42.984,44.108000000000004,0.0,0.0,100.0,0.0,0.0,0.0,0.0,2994.142857142857,3101.0,4134.875,4155.6,305.9675,304.8535,314.77666666666664,314.4405,22.0027,20.6206,21.9839,21.4979,314.999998,314.999998,324.999988,324.999988,99.56097142857143,99.50746666666667,99.56817142857143,99.5482,0.10549999999999993,-0.03049999999999997,-0.035,0.18616666666666667,-0.04833333333333201,-0.041666666666671404,1.4945,1.4885000000000002,38.516999999999996,29.8785,38.399,35.362,56.626000000000005,35.3155,59.864,52.8885,54.506,34.4135,58.439,51.1975,53.632999999999996,33.936,58.344,50.59866666666667,-0.04699999999999993,-0.10400000000000009,0.10965000000000001,0.09958,0.0,213.91500000000002,213.93,210.66333333333333,210.66333333333333,0.0,0.0
21,0.0,0.0,0.0,1.0,1.0,0.0,0.0,1.0,0.0,0.0,1.0,1.1856,26.0,0.0,0.0,0.0,59.999996,0.0,26.0,26.0,26.0,26.0,0.020625000000000115,0.27960000000000007,-0.07853333333333334,292.679,-2.6943,-2.681875,-1.62365,-1.524,-205.19,215.9275,190.551125,0.0,0.0,0.0,0.0,0.04256666666666667,-5.498166666666667,-5.498166666666667,-0.5770000000000001,0.507,0.02287499999999998,-0.15300000000000002,68.45,0.0509,-0.22312500000000002,0.3439999999999994,100.0,1.0,1.0,211.24,0.0,0.0,0.0,0.0,0.0,0.0,0.0,8953.7,0.0,55.0,5.0,246.39,1.0,0.0,0.0,0.0,0.0,0.0,0.0,0.0,1.056000000000001,1.056000000000001,0.0,0.0,1.0,55.0,616.79921,10000.0,85.000001,85.000001,85.000001,85.000001,395.0,0.0,0.0,0.0,1.0,111.11,52.322,52.322,48.248,48.248,34.0,-22.6775,25.076,-26.21666666666667,29.2175,0.0,1782.648,0.5,100.0,28.051,28.195,42.597,43.418,0.0,0.0,100.0,0.0,0.0,0.0,0.0,3023.714285714286,3144.4,4014.5,4013.0,305.579,304.81625,315.17566666666664,314.9775,22.0111,20.6256,21.9929,21.5058,314.999998,314.999998,324.999988,324.999988,99.56098571428572,99.50748333333334,99.5683,99.54832857142857,0.09375,-0.04599999999999993,-0.06966666666666667,0.159,-0.036666666666668846,-0.054999999999999716,1.5915,1.5819999999999999,38.57,29.91,38.456,35.411500000000004,56.613,35.3505,59.891999999999996,52.939,54.494,34.4465,58.465,51.2465,53.620999999999995,33.967,58.3675,50.64666666666667,-0.04249999999999998,-0.11949999999999994,0.10638,0.105825,0.0,214.32999999999998,214.3,211.24,211.24,0.0,0.0
22,0.0,0.0,0.0,1.0,1.0,0.0,0.0,1.0,0.0,0.0,1.0,1.1856,26.0,0.0,0.0,0.0,59.999996,0.0,26.0,26.0,26.0,26.0,-0.011499999999999955,0.27790000000000004,-0.0158,292.175,-2.6539,-2.708375,-1.6028,-1.532875,-201.49,215.925,190.525875,0.0,0.0,0.0,0.0,0.04473333333333333,-5.498166666666667,-5.498166666666667,-0.5568000000000001,-0.02866666666666667,0.009749999999999925,0.599,68.596,0.0054,-0.205025,0.7840000000000007,100.0,1.0,1.0,211.48666666666668,0.0,0.0,0.0,0.0,0.0,0.0,0.0,8964.2,0.0,55.0,5.0,246.92000000000002,0.0,0.0,0.0,0.0,0.0,0.0,0.0,0.0,1.1099999999999994,1.1099999999999994,0.0,0.0,0.0,55.0,616.79921,10000.0,85.000001,85.000001,85.000001,85.000001,395.0,0.0,0.0,0.0,1.0,166.665,52.536,52.536,47.073,47.073,34.0,-23.0575,23.404,-30.976666666666667,29.8675,0.0,1782.594,0.5,100.0,28.223,28.083,43.32,43.538,0.0,0.0,100.0,0.0,0.0,0.0,0.0,2923.5714285714284,3073.5,4244.5,4318.6,305.845,305.03775,314.5303333333333,314.195,22.0213,20.6315,22.0041,21.5156,314.999998,314.999998,324.999988,324.999988,99.561,99.50748333333334,99.56845714285714,99.54848571428572,0.05525000000000002,-0.07624999999999993,-0.11750000000000001,0.1095,-0.03999999999999915,-0.07000000000000028,1.4695,1.4914999999999998,38.632999999999996,29.947,38.525999999999996,35.4725,56.597,35.393,59.9335,53.0045,54.479,34.4855,58.504,51.309,53.604,34.0045,58.403,50.708,-0.030999999999999917,-0.11799999999999988,0.10312500000000001,0.10594,0.0,214.805,214.745,211.48666666666668,211.48666666666668,0.0,0.0
23,0.0,0.0,0.0,1.0,1.0,0.0,0.0,1.0,0.0,0.0,1.0,1.1856,26.0,0.0,0.0,0.0,59.999996,0.0,26.0,26.0,26.0,26.0,-0.056499999999999995,0.258,-0.014266666666666667,292.16,-2.6605,-2.683125,-1.5109,-1.6151250000000001,-198.2,215.9225,190.503875,0.0,0.0,0.0,0.0,0.04663333333333333,-5.498166666666667,-5.498166666666667,-0.5750000000000001,-0.25533333333333336,-0.013749999999999929,0.28400000000000003,68.72200000000001,-0.026500000000000003,-0.23090000000000002,0.9779999999999998,100.0,1.0,1.0,211.99,0.0,0.0,0.0,0.0,0.0,0.0,0.0,8985.5,0.0,55.0,5.0,247.37333333333333,1.0,0.0,0.0,0.0,0.0,0.0,0.0,0.0,1.1580000000000013,1.1580000000000013,0.0,0.0,1.0,55.0,616.79921,10000.0,85.000001,85.000001,85.000001,85.000001,395.0,0.0,0.0,0.0,1.0,166.665,51.712,51.712,48.141,48.141,34.0,-27.02,22.52,-28.403333333333336,26.2925,0.0,1782.544,0.4750000000000014,100.0,28.668,28.054000000000002,43.613,43.58,0.0,0.0,100.0,0.0,0.0,0.0,0.0,3277.285714285714,3127.9,3936.75,3955.3,304.814,304.9525,315.2096666666667,315.0265,22.0304,20.6368,22.0141,21.5242,314.999998,314.999998,324.999988,324.999988,99.561,99.5075,99.5686,99.54862857142857,0.040999999999999925,-0.10075,-0.1465,0.07866666666666668,-0.061666666666667425,-0.04999999999999716,1.5135,1.5430000000000001,38.69,29.98,38.588,35.5265,56.582,35.4315,59.969,53.061,54.464,34.521,58.537,51.3635,53.589,34.039,58.433,50.760999999999996,-0.04049999999999998,-0.121,0.10430500000000001,0.11054000000000001,0.0,215.195,215.10500000000002,211.99,211.99,0.0,0.0
24,0.0,0.0,0.0,1.0,1.0,0.0,0.0,1.0,0.0,0.0,1.0,1.1856,26.0,0.0,0.0,0.0,59.999996,0.0,26.0,26.0,26.0,26.0,-0.07787500000000003,0.27670000000000017,-0.027133333333333332,292.389,-2.6781,-2.698,-1.5479,-1.562875,-194.69,215.91750000000002,190.479875,0.0,0.0,0.0,0.0,0.04866666666666667,-5.498166666666667,-5.498166666666667,-0.5811000000000001,-0.5966666666666667,-0.014750000000000263,-0.15799999999999992,68.858,-0.048400000000000006,-0.21695,0.9320000000000004,100.0,1.0,1.0,212.29666666666668,0.0,0.0,0.0,0.0,0.0,0.0,0.0,8998.4,0.0,55.0,5.0,247.86333333333334,0.0,0.0,0.0,0.0,0.0,0.0,0.0,0.0,1.2089999999999996,1.2089999999999996,0.0,0.0,0.0,55.0,616.79921,10000.0,85.000001,85.000001,85.000001,85.000001,395.0,0.0,0.0,0.0,1.0,111.11,52.902,52.902,47.089,47.089,34.0,-25.2775,20.19,-33.93666666666667,25.252499999999998,0.0,1782.495,0.370000000000001,100.0,28.268,27.846,43.693,43.362,0.0,0.0,100.0,0.0,0.0,0.0,0.0,3018.0,2884.3,4329.0,4100.3,305.7835,305.601,314.3623333333333,314.71275,22.04,20.6421,22.0246,21.5334,314.999998,314.999998,324.999988,324.999988,99.56101428571428,99.5075,99.56874285714285,99.54877142857143,0.020750000000000046,-0.11449999999999994,-0.17616666666666667,0.049166666666666664,-0.061666666666667425,-0.02833333333332888,1.496,1.5259999999999998,38.75,30.0135,38.653999999999996,35.5835,56.564,35.471000000000004,60.007999999999996,53.119,54.448,34.5575,58.573499999999996,51.4195,53.571,34.074,58.466499999999996,50.816,-0.050999999999999934,-0.10499999999999998,0.10730500000000001,0.10856500000000001,0.0,215.62,215.51,212.29666666666668,212.29666666666668,0.0,0.0
25,0.0,0.0,0.0,1.0,1.0,0.0,0.0,1.0,0.0,0.0,1.0,1.1856,26.0,0.0,0.0,0.0,59.999996,0.0,26.0,26.0,26.0,26.0,-0.08637499999999998,0.2570000000000001,-0.04996666666666667,292.252,-2.7311,-2.6715,-1.5502500000000001,-1.57575,-191.38,215.9125,190.455875,0.0,0.0,0.0,0.0,0.0506,-5.498166666666667,-5.498166666666667,-0.6112000000000001,0.04033333333333334,-0.02574999999999994,-1.339,68.982,-0.0585,-0.225025,0.822000000000001,100.0,1.0,1.0,212.82999999999998,0.0,0.0,0.0,0.0,0.0,0.0,0.0,9021.2,0.0,55.0,5.0,248.31,1.0,0.0,0.0,0.0,0.0,0.0,0.0,0.0,1.256999999999998,1.256999999999998,0.0,0.0,1.0,55.0,616.79921,10000.0,85.000001,85.000001,85.000001,85.000001,395.0,0.0,0.0,0.0,1.0,166.665,51.772999999999996,51.772999999999996,47.913,47.913,34.0,-29.795,22.046,-31.113333333333337,24.002499999999998,0.0,1782.445,0.3200000000000003,100.0,28.299,28.04,43.488,43.022999999999996,0.0,0.0,100.0,0.0,0.0,0.0,0.0,3411.285714285714,3169.0,4016.0,3964.7,304.7515,304.677,315.162,315.0395,22.049,20.6474,22.034399999999998,21.5418,314.999998,314.999998,324.999988,324.999988,99.56101428571428,99.50751666666666,99.56888571428571,99.54891428571429,0.01475000000000004,-0.12049999999999994,-0.18466666666666667,0.0455,-0.05666666666667197,-0.02499999999999858,1.5495,1.5909999999999997,38.806,30.046,38.715,35.6365,56.546,35.513,60.043,53.1755,54.43,34.5965,58.606,51.474000000000004,53.554,34.111000000000004,58.496,50.869,-0.058499999999999996,-0.10599999999999987,0.11169000000000001,0.10501,0.0,216.01,215.89499999999998,212.82999999999998,212.82999999999998,0.0,0.0
26,0.0,0.0,0.0,1.0,1.0,0.0,0.0,1.0,0.0,0.0,1.0,1.1856,26.0,0.0,0.0,0.0,59.999996,0.0,26.0,26.0,26.0,26.0,-0.10699999999999998,0.27290000000000014,0.08353333333333333,291.122,-2.6656,-2.762875,-1.5918,-1.57875,-187.86,215.9025,190.430125,0.0,0.0,0.0,0.0,0.05266666666666667,-5.498166666666667,-5.498166666666667,-0.5700000000000001,0.672,-0.04787499999999989,0.743,69.119,-0.0616,-0.196275,0.6799999999999997,100.0,1.0,1.0,212.97,0.0,0.0,0.0,0.0,0.0,0.0,0.0,9027.0,0.0,55.0,5.0,248.8,0.0,0.0,0.0,0.0,0.0,0.0,0.0,0.0,1.3079999999999998,1.3079999999999998,0.0,0.0,0.0,55.0,616.79921,10000.0,85.000001,85.000001,85.000001,85.000001,395.0,0.0,0.0,0.0,1.0,166.665,51.437,51.437,46.126999999999995,46.126999999999995,34.0,-26.79,22.355999999999998,-37.54,28.7425,0.0,1782.396,0.125,100.0,29.377,28.447,44.199,43.293,0.0,0.0,100.0,0.0,0.0,0.0,0.0,3218.5714285714284,3057.8,4602.125,4514.0,305.003,305.0815,313.7223333333333,313.82875,22.058799999999998,20.6531,22.045,21.551099999999998,314.999998,314.999998,324.999988,324.999988,99.56101428571428,99.50753333333333,99.56902857142857,99.54904285714285,0.034499999999999975,-0.11024999999999996,-0.17466666666666666,0.048,-0.04333333333332945,-0.041666666666671404,1.4169999999999998,1.443,38.867999999999995,30.0815,38.782,35.6945,56.533,35.5545,60.082499999999996,53.2325,54.418,34.6345,58.643,51.528999999999996,53.54,34.1475,58.53,50.922333333333334,-0.0685,-0.09200000000000008,0.10774,0.10673500000000001,0.0,216.445,216.375,212.97,212.97,0.0,0.0
27,0.0,0.0,0.0,1.0,1.0,0.0,0.0,1.0,0.0,0.0,1.0,1.1856,26.0,0.0,0.0,0.0,59.999996,0.0,26.0,26.0,26.0,26.0,-0.07874999999999999,0.2491000000000001,-0.03276666666666667,291.626,-2.6355,-2.72875,-1.58305,-1.64875,-184.54,215.89499999999998,190.407125,0.0,0.0,0.0,0.0,0.054566666666666666,-5.498166666666667,-5.498166666666667,-0.5984,-1.059,-0.045250000000000234,0.774,69.243,-0.0557,-0.24430000000000002,0.41000000000000014,100.0,1.0,1.0,213.48000000000002,0.0,0.0,0.0,0.0,0.0,0.0,0.0,9048.7,0.0,55.0,5.0,249.25,1.0,0.0,0.0,0.0,0.0,0.0,0.0,0.0,1.355999999999998,1.355999999999998,0.0,0.0,1.0,55.0,616.79921,10000.0,85.000001,85.000001,85.000001,85.000001,395.0,0.0,0.0,0.0,1.0,166.665,51.757999999999996,51.757999999999996,46.677,46.677,34.0,-25.4375,22.636,-32.22666666666667,26.567500000000003,0.0,1782.347,0.07499999999999929,100.0,29.05,28.219,44.807,43.859,0.0,0.0,100.0,0.0,0.0,0.0,0.0,3136.857142857143,3132.8,4106.625,4041.9,305.2575,304.95275,314.8283333333333,314.81375,22.0678,20.6583,22.0551,21.5599,314.999998,314.999998,324.999988,324.999988,99.56101428571428,99.50755,99.56917142857142,99.54918571428571,0.04125000000000001,-0.10875000000000001,-0.17166666666666666,0.0585,-0.03999999999999915,-0.05666666666667197,1.4945,1.5185,38.924,30.113999999999997,38.845,35.7495,56.516999999999996,35.593,60.121,53.29,54.403,34.67,58.679,51.5835,53.524,34.1815,58.563,50.976,-0.08099999999999996,-0.08700000000000019,0.10920500000000001,0.10800000000000001,0.0,216.76999999999998,216.71,213.48000000000002,213.48000000000002,0.0,0.0
28,0.0,0.0,0.0,1.0,1.0,0.0,0.0,1.0,0.0,0.0,1.0,1.1856,26.0,0.0,0.0,0.0,59.999996,0.0,26.0,26.0,26.0,26.0,-0.047250000000000014,0.26870000000000016,-0.0572,291.87,-2.6606,-2.703125,-1.5342,-1.605375,-181.0,215.8825,190.38175,0.0,0.0,0.0,0.0,0.05663333333333334,-5.498166666666667,-5.498166666666667,-0.6015,0.6486666666666666,-0.046875,-0.44100000000000006,69.373,-0.0478,-0.21707500000000002,0.4480000000000004,100.0,1.0,1.0,213.9766666666667,0.0,0.0,0.0,0.0,0.0,0.0,0.0,9069.6,0.0,55.0,5.0,249.71666666666667,0.0,0.0,0.0,0.0,0.0,0.0,0.0,0.0,1.407,1.407,0.0,0.0,0.0,55.0,616.79921,10000.0,85.000001,85.000001,85.000001,85.000001,395.0,0.0,0.0,0.0,1.0,111.11,51.697,51.697,47.562,47.562,34.0,-27.310000000000002,21.71,-30.810000000000002,26.200000000000003,0.0,1782.298,-0.015000000000000568,100.0,28.951999999999998,28.356,43.945,43.383,0.0,0.0,100.0,0.0,0.0,0.0,0.0,3318.0,2983.9,4130.375,4091.6000000000004,304.927,305.203,314.955,314.74225,22.0775,20.6638,22.0654,21.5689,314.999998,314.999998,324.999988,324.999988,99.56102857142857,99.50756666666666,99.56931428571428,99.54932857142857,0.037250000000000005,-0.10099999999999998,-0.1615,0.059500000000000004,-0.046666666666666856,-0.04999999999999716,1.5354999999999999,1.556,38.985,30.149,38.909,35.806,56.501999999999995,35.634,60.155,53.346000000000004,54.388999999999996,34.7085,58.710499999999996,51.6375,53.509,34.218,58.591499999999996,51.028333333333336,-0.08349999999999991,-0.0714999999999999,0.102595,0.103925,0.0,217.215,217.17000000000002,213.9766666666667,213.9766666666667,0.0,0.0
29,0.0,0.0,0.0,1.0,1.0,0.0,0.0,1.0,0.0,0.0,1.0,1.1856,26.0,0.0,0.0,0.0,59.999996,0.0,26.0,26.0,26.0,26.0,-0.040000000000000036,0.2550000000000001,0.012266666666666667,291.656,-2.6241,-2.7483750000000002,-1.5427,-1.572875,-177.25,215.8675,190.35375,0.0,0.0,0.0,0.0,0.05883333333333334,-5.498166666666667,-5.498166666666667,-0.6088,-0.714,-0.03675000000000006,-0.6480000000000001,69.515,-0.0386,-0.22035000000000002,0.1620000000000008,100.0,1.0,1.0,214.26333333333332,0.0,0.0,0.0,0.0,0.0,0.0,0.0,9081.9,0.0,55.0,5.0,250.22666666666666,1.0,0.0,0.0,0.0,0.0,0.0,0.0,0.0,1.4609999999999985,1.4609999999999985,0.0,0.0,1.0,55.0,616.79921,10000.0,85.000001,85.000001,85.000001,85.000001,395.0,0.0,0.0,0.0,1.0,166.665,51.879999999999995,51.879999999999995,46.799,46.799,34.0,-25.68,22.812,-31.733333333333334,27.0375,0.0,1782.242,-0.16999999999999815,100.0,28.587,28.277,44.289,43.787,0.0,0.0,100.0,0.0,0.0,0.0,0.0,3270.0,3022.1,4192.875,4184.4,305.0885,305.029,314.677,314.46225,22.0875,20.6697,22.0767,21.5788,314.999998,314.999998,324.999988,324.999988,99.56102857142857,99.50758333333333,99.56948571428572,99.54948571428571,0.054750000000000076,-0.09350000000000003,-0.15733333333333335,0.06366666666666666,-0.045000000000001705,-0.036666666666668846,1.4815,1.4889999999999999,39.047,30.185499999999998,38.979,35.8675,56.483999999999995,35.6755,60.197,53.41,54.372,34.747,58.75,51.699,53.491,34.254999999999995,58.6275,51.08833333333333,-0.09949999999999992,-0.06700000000000017,0.10965000000000001,0.10785000000000002,0.0,217.595,217.57,214.26333333333332,214.26333333333332,0.0,0.0
30,0.0,0.0,0.0,1.0,1.0,0.0,0.0,1.0,0.0,0.0,1.0,1.1856,26.0,0.0,0.0,0.0,59.999996,0.0,26.0,26.0,26.0,26.0,-0.03025,0.2541,0.06756666666666666,291.077,-2.677,-2.639875,-1.51685,-1.6345,-174.12,215.85250000000002,190.330375,0.0,0.0,0.0,0.0,0.06063333333333334,-5.498166666666667,-5.498166666666667,-0.6032000000000001,0.838,-0.035250000000000004,0.78,69.629,-0.026600000000000002,-0.21685000000000001,0.06400000000000006,100.0,1.0,1.0,214.66333333333333,0.0,0.0,0.0,0.0,0.0,0.0,0.0,9098.8,0.0,55.0,5.0,250.63666666666666,0.0,0.0,0.0,0.0,0.0,0.0,1.0,0.0,1.5060000000000002,1.5060000000000002,0.0,0.0,0.0,55.0,616.79921,10000.0,85.000001,85.000001,85.000001,85.000001,395.0,0.0,0.0,0.0,1.0,333.33500000000004,50.766,50.766,46.951,46.951,34.0,-26.22,23.9,-30.14,29.72,0.0,1782.196,-0.21499999999999986,100.0,29.557,28.835,44.182,43.745000000000005,0.0,0.0,100.0,0.0,0.0,0.0,0.0,3369.714285714286,3190.3,4218.25,4221.7,304.576,304.669,314.623,314.4105,22.0962,20.6749,22.0858,21.587,314.999998,314.999998,324.999988,324.999988,99.56104285714285,99.50758333333333,99.56961428571428,99.54962857142857,0.08000000000000007,-0.07499999999999996,-0.12966666666666665,0.092,-0.03333333333333144,-0.05666666666667197,1.4804999999999997,1.479,39.101,30.218,39.036,35.9185,56.474000000000004,35.714,60.228,53.4615,54.361999999999995,34.782,58.778999999999996,51.7485,53.480999999999995,34.289,58.653999999999996,51.137,-0.10399999999999987,-0.06950000000000012,0.104275,0.11023000000000001,0.0,217.98000000000002,217.985,214.66333333333333,214.66333333333333,0.0,0.0
31,0.0,0.0,0.0,1.0,1.0,0.0,0.0,1.0,0.0,0.0,1.0,1.1856,26.0,0.0,0.0,0.0,59.999996,0.0,26.0,26.0,26.0,26.0,-0.027874999999999983,0.2573000000000001,-0.0123,290.939,-2.753,-2.607625,-1.5721500000000002,-1.6227500000000001,-170.57,215.8375,190.304625,0.0,0.0,0.0,0.0,0.0627,-5.498166666666667,-5.498166666666667,-0.5895,-0.5690000000000001,-0.02200000000000024,-0.645,69.761,-0.015300000000000001,-0.22030000000000002,-0.05999999999999961,100.0,1.0,1.0,214.95333333333332,0.0,0.0,0.0,0.0,0.0,0.0,0.0,9111.0,0.0,55.0,5.0,251.11333333333334,1.0,0.0,0.0,0.0,0.0,0.0,1.0,0.0,1.5569999999999986,1.5569999999999986,0.0,0.0,1.0,55.0,616.79921,10000.0,85.000001,85.000001,85.000001,85.000001,395.0,0.0,0.0,0.0,1.0,111.11,51.346000000000004,51.346000000000004,45.532,45.532,34.0,-25.2775,23.994,-32.449999999999996,30.73,0.0,1782.147,-0.3049999999999997,100.0,29.044,29.017,44.723,44.504999999999995,0.0,0.0,100.0,0.0,0.0,0.0,0.0,3202.5714285714284,3182.5,4384.375,4250.5,305.3615,304.71975,314.20466666666664,314.3855,22.1056,20.6806,22.0965,21.5964,314.999998,314.999998,324.999988,324.999988,99.56104285714285,99.50758333333333,99.56977142857143,99.54977142857143,0.07574999999999998,-0.06374999999999997,-0.12816666666666665,0.10866666666666668,-0.036666666666668846,-0.03833333333332689,1.4609999999999999,1.4585,39.16,30.253999999999998,39.102999999999994,35.9775,56.459,35.7545,60.269,53.524,54.348,34.8195,58.817,51.8085,53.466,34.325,58.689,51.19533333333334,-0.10650000000000004,-0.053999999999999826,0.10608000000000001,0.11393,0.0,218.35000000000002,218.36,214.95333333333332,214.95333333333332,0.0,0.0
32,0.0,0.0,0.0,1.0,1.0,0.0,0.0,1.0,0.0,0.0,1.0,1.1856,26.0,0.0,0.0,0.0,59.999996,0.0,26.0,26.0,26.0,26.0,-0.00824999999999998,0.2692000000000001,-0.03983333333333333,291.183,-2.6516,-2.7192499999999997,-1.6345,-1.534375,-167.0,215.8225,190.279,0.0,0.0,0.0,0.0,0.06476666666666667,-5.498166666666667,-5.498166666666667,-0.6067,0.11166666666666668,-0.04587500000000011,0.33199999999999996,69.888,-0.0038,-0.22717500000000002,-0.23599999999999977,100.0,1.0,1.0,215.46666666666667,0.0,0.0,0.0,0.0,0.0,0.0,0.0,9132.8,0.0,55.0,5.0,251.57,0.0,0.0,0.0,0.0,0.0,0.0,1.0,0.0,1.6080000000000005,1.6080000000000005,0.0,0.0,0.0,55.0,616.79921,10000.0,85.000001,85.000001,85.000001,85.000001,395.0,0.0,0.0,0.0,1.0,166.665,51.3,51.3,46.494,46.494,34.0,-23.5375,25.52,-30.15,30.330000000000002,0.0,1782.095,-0.33500000000000085,100.0,29.156,28.877,44.446,44.219,0.0,0.0,100.0,0.0,0.0,0.0,0.0,3199.857142857143,3149.9,4246.5,4271.8,305.0655,304.85125,314.6503333333333,314.451,22.115099999999998,20.6864,22.1069,21.6057,314.999998,314.999998,324.999988,324.999988,99.56107142857142,99.5076,99.56991428571429,99.54991428571428,0.10075000000000012,-0.04425000000000001,-0.1005,0.12916666666666665,-0.04333333333332945,-0.04833333333333201,1.5354999999999999,1.5154999999999998,39.219,30.29,39.168,36.0355,56.445,35.7945,60.304,53.582,54.335,34.8565,58.8495,51.8645,53.452,34.3605,58.718,51.25,-0.11050000000000004,-0.05750000000000011,0.10569500000000001,0.11016500000000001,0.0,218.76,218.76,215.46666666666667,215.46666666666667,0.0,0.0
33,0.0,0.0,0.0,1.0,1.0,0.0,0.0,1.0,0.0,0.0,1.0,1.1856,26.0,0.0,0.0,0.0,59.999996,0.0,26.0,26.0,26.0,26.0,0.01737499999999992,0.25950000000000006,-0.04373333333333333,291.443,-2.7079,-2.698875,-1.5758,-1.607,-163.44,215.805,190.25225,0.0,0.0,0.0,0.0,0.06683333333333334,-5.498166666666667,-5.498166666666667,-0.6144000000000001,-0.4416666666666667,-0.03200000000000003,0.16400000000000003,70.018,0.006,-0.2175,-0.1899999999999995,100.0,1.0,1.0,215.82,0.0,0.0,0.0,0.0,0.0,0.0,0.0,9147.8,0.0,55.0,5.0,252.04000000000002,1.0,0.0,0.0,0.0,0.0,0.0,1.0,0.0,1.658999999999999,1.658999999999999,0.0,0.0,1.0,55.0,616.79921,10000.0,85.000001,85.000001,85.000001,85.000001,395.0,0.0,0.0,0.0,1.0,111.11,51.804,51.804,46.677,46.677,34.0,-23.84,23.927999999999997,-29.606666666666662,30.735,0.0,1782.045,-0.36499999999999844,100.0,28.795,28.729,44.263,44.354,0.0,0.0,100.0,0.0,0.0,0.0,0.0,3165.0,3017.6,4179.375,4228.6,305.394,305.13475,314.72266666666667,314.35625,22.1245,20.692,22.1174,21.615,314.999998,314.999998,324.999988,324.999988,99.56108571428571,99.50761666666666,99.57007142857142,99.55007142857143,0.09375,-0.05249999999999999,-0.111,0.116,-0.061666666666667425,-0.03833333333332689,1.495,1.4794999999999998,39.278,30.325,39.233999999999995,36.0935,56.432,35.8315,60.34,53.6415,54.322,34.891,58.8835,51.922,53.438,34.393,58.7485,51.30566666666667,-0.11299999999999999,-0.05549999999999988,0.10848500000000001,0.10792,0.0,219.175,219.14,215.82,215.82,0.0,0.0
34,0.0,0.0,0.0,1.0,1.0,0.0,0.0,1.0,0.0,0.0,1.0,1.1856,26.0,0.0,0.0,0.0,59.999996,0.0,26.0,26.0,26.0,26.0,0.025374999999999925,0.2562,-0.0526,291.702,-2.7372,-2.62,-1.64005,-1.564375,-160.07,215.79000000000002,190.226,0.0,0.0,0.0,0.0,0.0688,-5.498166666666667,-5.498166666666667,-0.6437,-0.8230000000000001,-0.0006249999999998757,-0.16599999999999993,70.139,0.0122,-0.22545,-0.21200000000000063,100.0,1.0,1.0,216.23000000000002,0.0,0.0,0.0,0.0,0.0,0.0,0.0,9165.2,0.0,55.0,5.0,252.47333333333336,0.0,0.0,0.0,0.0,0.0,0.0,1.0,0.0,1.7070000000000007,1.7070000000000007,0.0,0.0,0.0,55.0,616.79921,10000.0,85.000001,85.000001,85.000001,85.000001,395.0,0.0,0.0,0.0,1.0,166.665,52.032,52.032,47.241,47.241,34.0,-23.2925,23.848,-28.96333333333333,30.045,0.0,1781.996,-0.375,100.0,28.546,28.511,43.999,44.407,0.0,0.0,100.0,0.0,0.0,0.0,0.0,3110.4285714285716,3024.0,4069.125,4167.6,305.467,305.09875,315.05,314.5165,22.1333,20.6973,22.1271,21.6237,314.999998,314.999998,324.999988,324.999988,99.5611,99.50761666666666,99.5702,99.55021428571429,0.10400000000000009,-0.03974999999999995,-0.10350000000000001,0.12733333333333333,-0.04833333333333201,-0.04833333333333201,1.5225,1.5145,39.333,30.358,39.294,36.147999999999996,56.418,35.866,60.3715,53.698,54.309,34.923,58.9125,51.976,53.424,34.424,58.775,51.358666666666664,-0.11299999999999999,-0.04999999999999982,0.10938500000000001,0.11153500000000001,0.0,219.515,219.515,216.23000000000002,216.23000000000002,0.0,0.0
35,0.0,0.0,0.0,1.0,1.0,0.0,0.0,1.0,0.0,0.0,1.0,1.1856,26.0,0.0,0.0,0.0,59.999996,0.0,26.0,26.0,26.0,26.0,0.013749999999999929,0.25649999999999995,-0.07300000000000001,291.702,-2.7108,-2.62875,-1.61565,-1.5225,-156.49,215.775,190.196,0.0,0.0,0.0,0.0,0.0709,-5.498166666666667,-5.498166666666667,-0.684,-0.3146666666666667,-0.013875000000000082,0.028000000000000025,70.266,0.0205,-0.231075,-0.3620000000000001,100.0,1.0,1.0,216.67333333333335,0.0,0.0,0.0,0.0,0.0,0.0,0.0,9183.9,0.0,55.0,5.0,252.93333333333334,1.0,0.0,0.0,0.0,0.0,0.0,1.0,0.0,1.7579999999999991,1.7579999999999991,0.0,0.0,1.0,55.0,616.79921,10000.0,85.000001,85.000001,85.000001,85.000001,395.0,0.0,0.0,0.0,1.0,111.11,51.528999999999996,51.528999999999996,46.89,46.89,34.0,-23.0,27.677999999999997,-26.89333333333333,28.439999999999998,0.0,1781.947,-0.3000000000000007,100.0,28.494,28.688,43.834,43.89,0.0,0.0,100.0,0.0,0.0,0.0,0.0,3110.0,3399.4,4003.375,3994.2,305.4275,304.11325,315.106,315.028,22.1424,20.7031,22.1374,21.6329,314.999998,314.999998,324.999988,324.999988,99.5611,99.50761666666666,99.57035714285715,99.55035714285714,0.10624999999999996,-0.029000000000000026,-0.08,0.14166666666666666,-0.03999999999999915,-0.05666666666667197,1.5594999999999999,1.5465,39.39,30.3945,39.358999999999995,36.2055,56.402,35.9045,60.4055,53.7535,54.294,34.959,58.9445,52.03,53.408,34.4585,58.803,51.41133333333333,-0.10450000000000004,-0.05650000000000022,0.10684500000000001,0.10525000000000001,0.0,219.9,219.925,216.67333333333335,216.67333333333335,0.0,0.0
36,0.0,0.0,0.0,1.0,1.0,0.0,0.0,1.0,0.0,0.0,1.0,1.1856,26.0,0.0,0.0,0.0,59.999996,0.0,26.0,26.0,26.0,26.0,0.046499999999999986,0.2623,0.045233333333333334,290.924,-2.6439,-2.718375,-1.5681,-1.57775,-152.91,215.76,190.164625,0.0,0.0,0.0,0.0,0.07296666666666667,-5.498166666666667,-5.498166666666667,-0.6632,0.20500000000000002,-0.05437499999999984,-1.275,70.396,0.023200000000000002,-0.20245000000000002,-0.1479999999999997,100.0,1.0,1.0,216.8466666666667,0.0,0.0,0.0,0.0,0.0,0.0,0.0,9191.4,0.0,55.0,5.0,253.4,0.0,0.0,0.0,0.0,0.0,0.0,1.0,0.0,1.809000000000001,1.809000000000001,0.0,0.0,0.0,55.0,616.79921,10000.0,85.000001,85.000001,85.000001,85.000001,395.0,0.0,0.0,0.0,1.0,166.665,51.453,51.453,46.173,46.173,34.0,-22.48,25.308,-30.526666666666664,34.144999999999996,0.0,1781.894,-0.23999999999999844,100.0,28.888,29.059,43.906,44.315,0.0,0.0,100.0,0.0,0.0,0.0,0.0,3115.714285714286,3071.0,4446.0,4521.1,305.3165,304.8245,314.14,313.71025,22.1518,20.709,22.1479,21.6422,314.999998,314.999998,324.999988,324.999988,99.56111428571428,99.50763333333333,99.5705,99.55051428571429,0.10725000000000007,-0.03974999999999995,-0.08533333333333333,0.13566666666666666,-0.046666666666666856,-0.04833333333333201,1.4369999999999998,1.435,39.449,30.430999999999997,39.424,36.263999999999996,56.39,35.9445,60.442,53.814,54.282,34.996,58.978,52.088499999999996,53.394999999999996,34.494,58.834,51.468333333333334,-0.09799999999999986,-0.0674999999999999,0.10513000000000002,0.11014000000000002,0.0,220.32999999999998,220.345,216.8466666666667,216.8466666666667,0.0,0.0
