,ABS Active,ABS Enabled,AID Allow Tire Blankets,AID Auto Blip,AID Auto Clutch,AID Auto Shift,AID Fuel Rate,AID Ideal Line,AID Mech Damage,AID Stability,AID Tire Wear Rate,Air Density,Air Temp,Ballast,Best Lap Delta,Best Lap Time,Brake Bias,Brake Pos,Brake Temp FL,Brake Temp FR,Brake Temp RL,Brake Temp RR,CG Accel Lateral,CG Accel Longitudinal,CG Accel Vertical,CG Height,Camber FL,Camber FR,Camber RL,Camber RR,Car Coord X,Car Coord Y,Car Coord Z,Car Damage Front,Car Damage Left,Car Damage Rear,Car Damage Right,Car Pos Norm,Caster FL,Caster FR,Chassis Pitch Angle,Chassis Pitch Rate,Chassis Roll Angle,Chassis Roll Rate,Chassis Velocity X,Chassis Velocity Y,Chassis Velocity Z,Chassis Yaw Rate,Clutch Pos,DRS Active,DRS Available,Drive Train Speed,ERS Heat Charging,ERS Is Charging,ERS Max Energy,ERS Power Level,ERS Recovery Level,Engine Brake Setting,Engine Limiter,Engine RPM,Flags,Fuel Level,Gear,Ground Speed,HR Sample Clock,In Pit,KERS Charge,KERS Deployed Energy,KERS Input,KERS Max Energy,LR Sample Clock,Lap Invalidated,Lap Time,Lap Time2,Last Lap Time,Last Sector Time,MR Sample Clock,Max Fuel,Max Power,Max RPM,Max Sus Travel FL,Max Sus Travel FR,Max Sus Travel RL,Max Sus Travel RR,Max Torque,Max Turbo Boost,Num Tires Off Track,Penalties Enabled,Position,Raw Data Sample Rate,Ride Height FL,Ride Height FR,Ride Height RL,Ride Height RR,Road Temp,Self Align Torque FL,Self Align Torque FR,Self Align Torque RL,Self Align Torque RR,Session Lap Count,Session Time Left,Steering Angle,Surface Grip,Suspension Travel FL,Suspension Travel FR,Suspension Travel RL,Suspension Travel RR,TC Active,TC Enabled,Throttle Pos,Tire Dirt Level FL,Tire Dirt Level FR,Tire Dirt Level RL,Tire Dirt Level RR,Tire Load FL,Tire Load FR,Tire Load RL,Tire Load RR,Tire Loaded Radius FL,Tire Loaded Radius FR,Tire Loaded Radius RL,Tire Loaded Radius RR,Tire Pressure FL,Tire Pressure FR,Tire Pressure RL,Tire Pressure RR,Tire Radius FL,Tire Radius FR,Tire Radius RL,Tire Radius RR,Tire Rubber Grip FL,Tire Rubber Grip FR,Tire Rubber Grip RL,Tire Rubber Grip RR,Tire Slip Angle FL,Tire Slip Angle FR,Tire Slip Angle RL,Tire Slip Angle RR,Tire Slip Ratio FL,Tire Slip Ratio FR,Tire Slip Ratio RL,Tire Slip Ratio RR,Tire Temp Core FL,Tire Temp Core FR,Tire Temp Core RL,Tire Temp Core RR,Tire Temp Inner FL,Tire Temp Inner FR,Tire Temp Inner RL,Tire Temp Inner RR,Tire Temp Middle FL,Tire Temp Middle FR,Tire Temp Middle RL,Tire Temp Middle RR,Tire Temp Outer FL,Tire Temp Outer FR,Tire Temp Outer RL,Tire Temp Outer RR,Toe In FL,Toe In FR,Toe In RL,Toe In RR,Turbo Boost,Wheel Angular Speed FL,Wheel Angular Speed FR,Wheel Angular Speed RL,Wheel Angular Speed RR,Wind Direction,Wind Speed
0,0.0,0.0,0.0,1.0,1.0,0.0,0.0,1.0,0.0,0.0,1.0,1.1856,26.0,0.0,0.0,0.0,59.99999,0.0,26.0,26.0,26.0,26.0,-0.129,0.29090000000000016,0.0762,294.128,-2.7014,-2.684,-1.49475,-1.5771000000000002,-275.8,216.2775,190.988375,0.0,0.0,0.0,0.0,0.0015333333333333865,-5.498166666666667,-5.498166666666667,-0.553,1.21,-0.03200000000000003,-1.2590000000000003,65.48400000000001,-0.061000000000000006,-0.21710000000000002,1.218,100.0,1.0,1.0,202.19666666666666,0.0,0.0,0.0,0.0,0.0,0.0,0.0,8570.4,0.0,55.0,5.0,235.71333333333334,0.0,0.0,0.0,0.0,0.0,0.0,0.0,0.0,0.0030000000000001137,0.0030000000000001137,0.0,0.0,0.0,55.0,616.79921,10000.0,85.0,85.0,85.0,85.0,395.0,0.0,0.0,0.0,1.0,20.0,52.856,52.856,49.866,49.866,34.0,-29.5075,21.894,-32.2,22.92,0.0,1783.719,0.9050000000000011,100.0,27.234,26.671,40.623,40.272999999999996,0.0,0.0,100.0,0.0,0.0,0.0,0.0,3201.0,3301.9,4135.75,3937.4,305.1765,304.2615,314.835,314.974,21.7612,20.5082,21.7667,21.309,314.99999,314.99999,324.99998,324.99998,99.55804285714285,99.50713333333333,99.56495714285714,99.54504285714286,-0.03475000000000006,-0.14725,-0.2015,0.028333333333333332,-0.05333333333332746,-0.06499999999999773,1.5485,1.603,37.007999999999996,29.176000000000002,37.042,34.1815,55.980999999999995,34.403,58.982,51.543,53.924,33.597,57.6155,49.9055,53.108000000000004,33.1795,57.582499999999996,49.33133333333333,0.000500000000000167,-0.14650000000000007,0.11473000000000001,0.10930000000000001,0.0,205.24,205.14,202.19666666666666,202.19666666666666,0.0,0.0
1,0.0,0.0,0.0,1.0,1.0,0.0,0.0,1.0,0.0,0.0,1.0,1.1856,26.0,0.0,0.0,0.0,59.999996,0.0,26.0,26.0,26.0,26.0,-0.13322222222222213,0.30180000000000007,0.1597,293.167,-2.6268,-2.780444444444444,-1.51895,-1.5589,-272.26,216.2775,190.967,0.0,0.0,0.0,0.0,0.0035999999999999366,-5.498166666666667,-5.498166666666667,-0.4948,-0.6380000000000001,-0.06711111111111157,-0.7539999999999996,65.648,-0.07200000000000001,-0.191275,1.5440000000000005,100.0,1.0,1.0,202.38666666666666,0.0,0.0,0.0,0.0,0.0,0.0,0.0,8578.4,0.0,55.0,5.0,236.3,1.0,0.0,0.0,0.0,0.0,0.0,0.0,0.0,0.05699999999999861,0.05699999999999861,0.0,0.0,1.0,55.0,616.79921,10000.0,85.000001,85.000001,85.000001,85.000001,395.0,0.0,0.0,0.0,1.0,166.665,53.772,53.772,48.37,48.37,34.0,-28.105,17.035999999999998,-35.1,27.3975,0.0,1783.665,1.0,100.0,27.493,26.783,42.953,41.458,0.0,0.0,100.0,0.0,0.0,0.0,0.0,3130.142857142857,2644.9,4251.75,4709.5,305.3815,306.4205,314.434,313.11975,21.7717,20.5136,21.7781,21.3186,314.999998,314.999998,324.999988,324.999988,99.55805714285714,99.50716666666666,99.56511428571429,99.5452,-0.034499999999999975,-0.16174999999999995,-0.2125,0.008333333333333335,-0.061666666666667425,-0.03333333333333144,1.4035,1.4735,37.073,29.209666666666664,37.113,34.2415,55.966,34.4475,59.0305,51.612,53.91,33.638,57.6605,49.971000000000004,53.093,33.219,57.625,49.39566666666666,0.0015000000000000568,-0.1499999999999999,0.10890000000000001,0.09905000000000001,0.0,205.72,205.57999999999998,202.38666666666666,202.38666666666666,0.0,0.0
2,0.0,0.0,0.0,1.0,1.0,0.0,0.0,1.0,0.0,0.0,1.0,1.1856,26.0,0.0,0.0,0.0,59.999996,0.0,26.0,26.0,26.0,26.0,-0.16000000000000003,0.2814000000000001,0.0074333333333333335,293.686,-2.5924,-2.8098888888888887,-1.47785,-1.619,-268.71,216.2725,190.947,0.0,0.0,0.0,0.0,0.005633333333333379,-5.498166666666667,-5.498166666666667,-0.5461,0.11499999999999999,-0.061555555555555586,1.8340000000000005,65.799,-0.0902,-0.24365,1.8020000000000014,100.0,1.0,1.0,203.29666666666668,0.0,0.0,0.0,0.0,0.0,0.0,0.0,8617.0,0.0,55.0,5.0,236.8466666666667,0.0,0.0,0.0,0.0,0.0,0.0,0.0,0.0,0.11100000000000065,0.11100000000000065,0.0,0.0,0.0,55.0,616.79921,10000.0,85.000001,85.000001,85.000001,85.000001,395.0,0.0,0.0,0.0,1.0,111.11,52.505,52.505,50.125,50.125,34.0,-31.2775,18.842,-30.28,19.655,0.0,1783.612,0.745000000000001,100.0,28.282,26.842,42.675,41.169,0.0,0.0,100.0,0.0,0.0,0.0,0.0,3405.4285714285716,2906.2,3779.0,3736.5,304.4565,305.5725,315.5915,315.63675,21.7824,20.5187,21.7891,21.3278,314.999998,314.999998,324.999988,324.999988,99.55805714285714,99.50718333333333,99.56527142857144,99.54532857142857,-0.044499999999999984,-0.1735,-0.24333333333333335,-0.013333333333333334,-0.09666666666667112,-0.04833333333333201,1.6360000000000001,1.6865,37.14,29.241999999999997,37.182,34.299,55.955,34.4895,59.071,51.6725,53.9,33.6765,57.698499999999996,50.0295,53.082,33.2555,57.66,49.452666666666666,-0.018000000000000016,-0.1379999999999999,0.10899500000000001,0.10760000000000002,0.0,206.215,206.035,203.29666666666668,203.29666666666668,0.0,0.0
3,0.0,0.0,0.0,1.0,1.0,0.0,0.0,1.0,0.0,0.0,1.0,1.1856,26.0,0.0,0.0,0.0,59.999996,0.0,26.0,26.0,26.0,26.0,-0.1627777777777778,0.3087,0.0796,293.396,-2.7155,-2.7057777777777776,-1.502,-1.6017000000000001,-265.74,216.265,190.929625,0.0,0.0,0.0,0.0,0.0073666666666665215,-5.498166666666667,-5.498166666666667,-0.5104000000000001,0.352,-0.02011111111111097,0.4850000000000003,65.934,-0.1012,-0.2006,1.3420000000000005,100.0,1.0,1.0,203.40666666666667,0.0,0.0,0.0,0.0,0.0,0.0,0.0,8621.7,0.0,55.0,5.0,237.32999999999998,1.0,0.0,0.0,0.0,0.0,0.0,0.0,0.0,0.1559999999999988,0.1559999999999988,0.0,0.0,1.0,55.0,616.79921,10000.0,85.000001,85.000001,85.000001,85.000001,395.0,0.0,0.0,0.0,1.0,166.665,53.467,53.467,48.126,48.126,34.0,-26.645,18.494,-35.75,23.7775,0.0,1783.565,0.6799999999999997,100.0,27.998,26.832,42.629,41.241,0.0,0.0,100.0,0.0,0.0,0.0,0.0,2901.857142857143,2901.5,4282.875,4264.4,305.898,305.61025,314.3375,314.3065,21.791,20.5233,21.7983,21.3357,314.999998,314.999998,324.999988,324.999988,99.55807142857142,99.5072,99.56538571428571,99.54545714285715,-0.03325,-0.15849999999999997,-0.22966666666666666,-0.006833333333333333,-0.041666666666671404,-0.054999999999999716,1.478,1.5365,37.194,29.270333333333333,37.239999999999995,34.348,55.943,34.5275,59.1065,51.728,53.887,33.712,57.732,50.082499999999996,53.069,33.289,57.691,49.504999999999995,-0.02849999999999997,-0.12199999999999989,0.10980000000000001,0.10726500000000001,0.0,206.615,206.48000000000002,203.40666666666667,203.40666666666667,0.0,0.0
4,0.0,0.0,0.0,1.0,1.0,0.0,0.0,1.0,0.0,0.0,1.0,1.1856,26.0,0.0,0.0,0.0,59.999996,0.0,26.0,26.0,26.0,26.0,-0.1661111111111111,0.2945,-0.022466666666666666,293.686,-2.6558,-2.7495555555555558,-1.5229,-1.6024,-262.57,216.2525,190.911125,0.0,0.0,0.0,0.0,0.009199999999999986,-5.498166666666667,-5.498166666666667,-0.5406000000000001,-0.917,-0.08177777777777795,-0.7909999999999995,66.072,-0.09870000000000001,-0.23592500000000002,1.1799999999999997,100.0,1.0,1.0,203.95333333333332,0.0,0.0,0.0,0.0,0.0,0.0,0.0,8644.8,0.0,55.0,5.0,237.82999999999998,0.0,0.0,0.0,0.0,0.0,0.0,0.0,0.0,0.20400000000000063,0.20400000000000063,0.0,0.0,0.0,55.0,616.79921,10000.0,85.000001,85.000001,85.000001,85.000001,395.0,0.0,0.0,0.0,1.0,166.665,53.238,53.238,48.66,48.66,34.0,-28.725,19.27,-32.8275,20.5275,0.0,1783.519,0.6700000000000017,100.0,27.758,26.633,42.976,41.417,0.0,0.0,100.0,0.0,0.0,0.0,0.0,3172.142857142857,2944.5,4079.625,3712.2,305.2185,305.4955,314.78625,315.579,21.8001,20.5281,21.8083,21.3441,314.999998,314.999998,324.999988,324.999988,99.55807142857142,99.50721666666666,99.56552857142857,99.5456,-0.03049999999999997,-0.15625,-0.2125,0.0036666666666666666,-0.054999999999999716,-0.07499999999999574,1.5615,1.587,37.251000000000005,29.300333333333334,37.302,34.4005,55.927,34.567,59.1465,51.7845,53.873000000000005,33.748,57.769,50.137,53.053,33.324,57.7255,49.558,-0.024499999999999966,-0.121,0.09939,0.10152000000000001,0.0,206.995,206.9,203.95333333333332,203.95333333333332,0.0,0.0
5,0.0,0.0,0.0,1.0,1.0,0.0,0.0,1.0,0.0,0.0,1.0,1.1856,26.0,0.0,0.0,0.0,59.999996,0.0,26.0,26.0,26.0,26.0,-0.14755555555555555,0.3035000000000001,-0.011166666666666668,293.716,-2.6627,-2.7777777777777777,-1.5026000000000002,-1.5942,-259.0,216.235,190.889625,0.0,0.0,0.0,0.0,0.011299999999999977,-5.498166666666667,-5.498166666666667,-0.5345,0.4075,-0.08788888888888868,1.1550000000000002,66.227,-0.09960000000000001,-0.2114,1.1039999999999992,100.0,1.0,1.0,204.40333333333334,0.0,0.0,0.0,0.0,0.0,0.0,0.0,8663.9,0.0,55.0,5.0,238.38666666666666,1.0,0.0,0.0,0.0,0.0,0.0,0.0,0.0,0.2579999999999991,0.2579999999999991,0.0,0.0,1.0,55.0,616.79921,10000.0,85.000001,85.000001,85.000001,85.000001,395.0,0.0,0.0,0.0,1.0,166.665,53.543,53.543,49.010999999999996,49.010999999999996,34.0,-27.740000000000002,19.112000000000002,-33.4875,23.130000000000003,0.0,1783.466,0.3550000000000004,100.0,27.914,26.486,42.695,41.014,0.0,0.0,100.0,0.0,0.0,0.0,0.0,3098.5714285714284,2827.7,4142.125,4085.2,305.3305,305.8965,314.745,314.7605,21.8106,20.5334,21.8194,21.3532,314.999998,314.999998,324.999988,324.999988,99.55807142857142,99.50723333333333,99.56568571428572,99.54574285714286,-0.02024999999999988,-0.14249999999999996,-0.21983333333333335,0.008833333333333334,-0.046666666666666856,-0.03499999999999659,1.536,1.5819999999999999,37.316,29.334,37.370999999999995,34.458,55.914,34.6105,59.189,51.845,53.86,33.788,57.809,50.1945,53.039,33.362,57.7625,49.614666666666665,-0.045499999999999874,-0.0990000000000002,0.11027500000000001,0.11342500000000001,0.0,207.505,207.41,204.40333333333334,204.40333333333334,0.0,0.0
6,0.0,0.0,0.0,1.0,1.0,0.0,0.0,1.0,0.0,0.0,1.0,1.1856,26.0,0.0,0.0,0.0,59.999996,0.0,26.0,26.0,26.0,26.0,-0.12222222222222212,0.3076000000000001,-0.014700000000000001,293.503,-2.6330999999999998,-2.7494444444444444,-1.5477500000000002,-1.6294,-256.02,216.2175,190.871375,0.0,0.0,0.0,0.0,0.013033333333333341,-5.498166666666667,-5.498166666666667,-0.5312,0.03949999999999998,-0.07188888888888867,-0.49099999999999966,66.357,-0.09480000000000001,-0.21415,0.9079999999999995,100.0,1.0,1.0,204.7866666666667,0.0,0.0,0.0,0.0,0.0,0.0,0.0,8680.2,0.0,55.0,5.0,238.85333333333335,0.0,0.0,0.0,0.0,0.0,0.0,0.0,0.0,0.3030000000000008,0.3030000000000008,0.0,0.0,0.0,55.0,616.79921,10000.0,85.000001,85.000001,85.000001,85.000001,395.0,0.0,0.0,0.0,1.0,166.665,53.162,53.162,48.828,48.828,34.0,-28.395,19.742,-33.7625,22.72,0.0,1783.419,0.125,100.0,27.67,26.753,42.71,41.44,0.0,0.0,100.0,0.0,0.0,0.0,0.0,3247.857142857143,2882.0,4119.0,3962.1000000000004,305.0485,305.50775,314.84475,314.93675,21.8193,20.5379,21.8287,21.3612,314.999998,314.999998,324.999988,324.999988,99.55808571428571,99.50725,99.56581428571428,99.54587142857143,-0.010499999999999954,-0.13724999999999998,-0.2205,0.006,-0.051666666666669414,-0.03333333333333144,1.548,1.5899999999999999,37.370999999999995,29.362000000000002,37.429,34.507,55.900999999999996,34.6465,59.225,51.8995,53.848,33.821,57.843,50.247,53.027,33.3935,57.7935,49.665333333333336,-0.062000000000000055,-0.08199999999999985,0.105035,0.11009000000000001,0.0,207.87,207.785,204.7866666666667,204.7866666666667,0.0,0.0
7,0.0,0.0,0.0,1.0,1.0,0.0,0.0,1.0,0.0,0.0,1.0,1.1856,26.0,0.0,0.0,0.0,59.999996,0.0,26.0,26.0,26.0,26.0,-0.1002222222222221,0.2862,0.0507,293.213,-2.6892,-2.7416666666666667,-1.5063,-1.5753,-252.63,216.1925,190.851,0.0,0.0,0.0,0.0,0.014999999999999902,-5.498166666666667,-5.498166666666667,-0.5348,-0.0535000000000001,-0.056888888888888545,1.1520000000000001,66.503,-0.0791,-0.22287500000000002,0.41999999999999993,100.0,1.0,1.0,205.19666666666666,0.0,0.0,0.0,0.0,0.0,0.0,0.0,8697.6,0.0,55.0,5.0,239.38,1.0,0.0,0.0,0.0,0.0,0.0,0.0,0.0,0.3539999999999992,0.3539999999999992,0.0,0.0,1.0,55.0,616.79921,10000.0,85.000001,85.000001,85.000001,85.000001,395.0,0.0,0.0,0.0,1.0,166.665,52.826,52.826,48.859,48.859,34.0,-27.5875,22.43,-31.6375,25.0575,0.0,1783.367,-0.23000000000000043,100.0,27.929,26.681,42.832,41.603,0.0,0.0,100.0,0.0,0.0,0.0,0.0,3272.5714285714284,3045.4,4066.75,4122.0,304.8255,305.193,314.85275,314.6535,21.8292,20.5431,21.8391,21.3701,314.999998,314.999998,324.999988,324.999988,99.55808571428571,99.50726666666667,99.56595714285714,99.546,0.03000000000000025,-0.09750000000000003,-0.19183333333333336,0.042333333333333334,-0.03833333333332689,-0.03999999999999915,1.5225,1.5385,37.432,29.394333333333336,37.495000000000005,34.563,55.887,34.686,59.2655,51.961,53.834,33.8575,57.8805,50.3055,53.012,33.4285,57.8285,49.723,-0.09599999999999986,-0.05900000000000016,0.10874500000000001,0.10894000000000001,0.0,208.315,208.25,205.19666666666666,205.19666666666666,0.0,0.0
8,0.0,0.0,0.0,1.0,1.0,0.0,0.0,1.0,0.0,0.0,1.0,1.1856,26.0,0.0,0.0,0.0,59.999996,0.0,26.0,26.0,26.0,26.0,-0.05222222222222217,0.2862,-0.02586666666666667,293.472,-2.6787,-2.7199999999999998,-1.4917500000000001,-1.5556,-249.24,216.16750000000002,190.830375,0.0,0.0,0.0,0.0,0.016966666666666574,-5.498166666666667,-5.498166666666667,-0.5342,-0.40149999999999997,-0.04055555555555568,-0.4239999999999995,66.649,-0.0565,-0.21350000000000002,0.02400000000000002,100.0,1.0,1.0,205.58666666666667,0.0,0.0,0.0,0.0,0.0,0.0,0.0,8714.1,0.0,55.0,5.0,239.90333333333334,0.0,0.0,0.0,0.0,0.0,0.0,0.0,0.0,0.40500000000000114,0.40500000000000114,0.0,0.0,0.0,55.0,616.79921,10000.0,85.000001,85.000001,85.000001,85.000001,395.0,0.0,0.0,0.0,1.0,166.665,53.711,53.711,48.08,48.08,34.0,-24.0525,21.272,-31.6425,25.6475,0.0,1783.317,-0.3550000000000004,100.0,27.447,26.849,42.699,41.822,0.0,0.0,100.0,0.0,0.0,0.0,0.0,2974.857142857143,2871.1,4252.625,4145.0,305.856,305.56575,314.4785,314.52325,21.8388,20.5483,21.8496,21.379,314.999998,314.999998,324.999988,324.999988,99.55808571428571,99.50728333333333,99.5661,99.54614285714285,0.03949999999999987,-0.08924999999999994,-0.163,0.05216666666666667,-0.03833333333332689,-0.03166666666666629,1.509,1.518,37.492999999999995,29.426666666666666,37.56,34.619,55.870999999999995,34.725,59.3055,52.0215,53.819,33.893,57.918,50.3635,52.997,33.4625,57.863,49.779666666666664,-0.10399999999999987,-0.04249999999999998,0.09749000000000001,0.10501500000000001,0.0,208.745,208.72,205.58666666666667,205.58666666666667,0.0,0.0
9,0.0,0.0,0.0,1.0,1.0,0.0,0.0,1.0,0.0,0.0,1.0,1.1856,26.0,0.0,0.0,0.0,59.999996,0.0,26.0,26.0,26.0,26.0,-0.040000000000000036,0.2822,0.03376666666666667,293.152,-2.6802,-2.7264444444444447,-1.55145,-1.5585,-245.82999999999998,216.14249999999998,190.809375,0.0,0.0,0.0,0.0,0.018933333333333358,-5.498166666666667,-5.498166666666667,-0.5431,0.633,-0.03611111111111098,0.8529999999999998,66.791,-0.033,-0.216975,-0.18599999999999994,100.0,1.0,1.0,206.17000000000002,0.0,0.0,0.0,0.0,0.0,0.0,0.0,8738.8,0.0,55.0,5.0,240.41666666666669,1.0,0.0,0.0,0.0,0.0,0.0,0.0,0.0,0.4559999999999995,0.4559999999999995,0.0,0.0,1.0,55.0,616.79921,10000.0,85.000001,85.000001,85.000001,85.000001,395.0,0.0,0.0,0.0,1.0,166.665,52.399,52.399,49.194,49.194,34.0,-25.8825,24.482,-28.495,26.87,0.0,1783.266,-0.5249999999999986,100.0,27.985,27.157,42.429,41.796,0.0,0.0,100.0,0.0,0.0,0.0,0.0,3297.714285714286,3102.5,3968.375,4077.0,304.747,304.9615,315.18425,314.78725,21.8486,20.5536,21.86,21.3879,314.999998,314.999998,324.999988,324.999988,99.5581,99.50728333333333,99.56624285714285,99.54628571428572,0.07125000000000004,-0.05874999999999997,-0.14116666666666666,0.09116666666666667,-0.054999999999999716,-0.054999999999999716,1.5775000000000001,1.566,37.554,29.460333333333335,37.625,34.6745,55.858000000000004,34.7645,59.342,52.081,53.807,33.9295,57.952,50.420500000000004,52.983000000000004,33.497,57.894,49.83566666666667,-0.11749999999999994,-0.035499999999999865,0.11232500000000001,0.10470000000000002,0.0,209.195,209.2,206.17000000000002,206.17000000000002,0.0,0.0
10,0.0,0.0,0.0,1.0,1.0,0.0,0.0,1.0,0.0,0.0,1.0,1.1856,26.0,0.0,0.0,0.0,59.999996,0.0,26.0,26.0,26.0,26.0,0.004888888888888943,0.29390000000000005,-0.009433333333333334,292.984,-2.6603,-2.700222222222222,-1.53375,-1.5372,-242.42000000000002,216.115,190.788625,0.0,0.0,0.0,0.0,0.02093333333333336,-5.498166666666667,-5.498166666666667,-0.5185000000000001,-0.40600000000000014,0.004555555555555646,0.38200000000000056,66.937,-0.0106,-0.2074,-0.44599999999999973,100.0,1.0,1.0,206.40666666666667,0.0,0.0,0.0,0.0,0.0,0.0,0.0,8748.8,0.0,55.0,5.0,240.94666666666666,0.0,0.0,0.0,0.0,0.0,0.0,1.0,0.0,0.5069999999999979,0.5069999999999979,0.0,0.0,0.0,55.0,616.79921,10000.0,85.000001,85.000001,85.000001,85.000001,395.0,0.0,0.0,0.0,1.0,166.665,53.467,53.467,47.638,47.638,34.0,-21.2225,22.759999999999998,-30.939999999999998,29.975,0.0,1783.216,-0.5850000000000009,100.0,27.749,27.337,42.804,42.693,0.0,0.0,100.0,0.0,0.0,0.0,0.0,2881.857142857143,2859.9,4315.875,4263.5,306.0985,305.5785,314.30925,314.18725,21.8582,20.5589,21.8706,21.397100000000002,314.999998,314.999998,324.999988,324.999988,99.5581,99.5073,99.56638571428572,99.54642857142858,0.08700000000000019,-0.044749999999999956,-0.1255,0.11583333333333333,-0.06499999999999773,-0.054999999999999716,1.4855,1.4755,37.614000000000004,29.493000000000002,37.691,34.732,55.846000000000004,34.8015,59.3835,52.144999999999996,53.795,33.964,57.9905,50.482,52.971000000000004,33.53,57.9295,49.896,-0.11949999999999994,-0.02499999999999991,0.113765,0.117885,0.0,209.635,209.66500000000002,206.40666666666667,206.40666666666667,0.0,0.0
11,0.0,0.0,0.0,1.0,1.0,0.0,0.0,1.0,0.0,0.0,1.0,1.1856,26.0,0.0,0.0,0.0,59.999996,0.0,26.0,26.0,26.0,26.0,0.030000000000000027,0.27870000000000017,-0.0641,293.472,-2.7013,-2.6895555555555557,-1.5876000000000001,-1.5270000000000001,-239.01,216.0875,190.767875,0.0,0.0,0.0,0.0,0.022599999999999953,-5.498166666666667,-5.498166666666667,-0.5627,-0.25350000000000006,0.03022222222222215,0.2679999999999998,67.076,0.010700000000000001,-0.23822500000000002,-0.6459999999999999,100.0,1.0,1.0,207.14,0.0,0.0,0.0,0.0,0.0,0.0,0.0,8779.9,0.0,55.0,5.0,241.44666666666666,1.0,0.0,0.0,0.0,0.0,0.0,1.0,0.0,0.5579999999999998,0.5579999999999998,0.0,0.0,1.0,55.0,616.79921,10000.0,85.000001,85.000001,85.000001,85.000001,395.0,0.0,0.0,0.0,1.0,166.665,52.734,52.734,49.254999999999995,49.254999999999995,34.0,-22.16,26.182000000000002,-24.099999999999998,26.9425,0.0,1783.163,-0.5199999999999996,100.0,27.671,27.473,42.394,42.545,0.0,0.0,100.0,0.0,0.0,0.0,0.0,3008.5714285714284,3181.5,3686.625,3873.7,305.6475,304.731,315.89775,315.24175,21.8677,20.5643,21.8809,21.4061,314.999998,314.999998,324.999988,324.999988,99.55811428571428,99.5073,99.56652857142858,99.54657142857143,0.10150000000000015,-0.02774999999999994,-0.09333333333333332,0.139,-0.046666666666666856,-0.04833333333333201,1.6415,1.6265,37.673,29.527,37.754999999999995,34.788,55.832,34.8395,59.418,52.205,53.782,33.999,58.0225,50.54,52.957,33.5635,57.9585,49.952666666666666,-0.11799999999999988,-0.03699999999999992,0.111695,0.107435,0.0,210.03,210.065,207.14,207.14,0.0,0.0
12,0.0,0.0,0.0,1.0,1.0,0.0,0.0,1.0,0.0,0.0,1.0,1.1856,26.0,0.0,0.0,0.0,59.999996,0.0,26.0,26.0,26.0,26.0,0.031444444444444386,0.29500000000000015,0.018600000000000002,292.862,-2.7524,-2.684111111111111,-1.5453999999999999,-1.5307,-235.78,216.0625,190.747,0.0,0.0,0.0,0.0,0.025466666666666526,-5.498166666666667,-5.498166666666667,-0.5476,0.3165,0.014222222222222136,0.6040000000000001,67.213,0.027,-0.20795000000000002,-0.5599999999999996,100.0,1.0,1.0,207.32333333333332,0.0,0.0,0.0,0.0,0.0,0.0,0.0,8787.7,0.0,55.0,5.0,241.94,0.0,0.0,0.0,0.0,0.0,0.0,1.0,0.0,0.6059999999999981,0.6059999999999981,0.0,0.0,0.0,55.0,616.79921,10000.0,85.000001,85.000001,85.000001,85.000001,395.0,0.0,0.0,0.0,1.0,166.665,52.673,52.673,47.913,47.913,34.0,-23.197499999999998,25.816000000000003,-26.425,31.39,0.0,1783.117,-0.030000000000001137,100.0,27.644,27.637,42.405,42.461,0.0,0.0,100.0,0.0,0.0,0.0,0.0,3039.714285714286,3198.5,4179.875,4221.1,305.562,304.7065,314.6425,314.42875,21.8766,20.5695,21.8906,21.4145,314.999998,314.999998,324.999988,324.999988,99.55812857142857,99.5073,99.56667142857142,99.5467,0.09425000000000017,-0.038250000000000006,-0.06333333333333334,0.15816666666666665,-0.06499999999999773,-0.07000000000000028,1.5385,1.514,37.729,29.559333333333335,37.817,34.8405,55.82,34.8755,59.454,52.262,53.769999999999996,34.032,58.056,50.595,52.944,33.5955,57.9895,50.00633333333333,-0.08850000000000002,-0.06199999999999983,0.10409500000000001,0.10995500000000001,0.0,210.49,210.53,207.32333333333332,207.32333333333332,0.0,0.0
13,0.0,0.0,0.0,1.0,1.0,0.0,0.0,1.0,0.0,0.0,1.0,1.1856,26.0,0.0,0.0,0.0,59.999996,0.0,26.0,26.0,26.0,26.0,0.0411111111111111,0.2813000000000001,0.040400000000000005,292.511,-2.7289,-2.680555555555556,-1.61205,-1.5194,-232.35,216.0375,190.72525,0.0,0.0,0.0,0.0,0.026799999999999935,-5.498166666666667,-5.498166666666667,-0.5394,-0.07299999999999995,0.0076666666666667105,-0.7569999999999997,67.356,0.028300000000000002,-0.216375,-0.28200000000000003,100.0,1.0,1.0,207.71333333333334,0.0,0.0,0.0,0.0,0.0,0.0,0.0,8804.2,0.0,55.0,5.0,242.45,1.0,0.0,0.0,0.0,0.0,0.0,1.0,0.0,0.657,0.657,0.0,0.0,1.0,55.0,616.79921,10000.0,85.000001,85.000001,85.000001,85.000001,395.0,0.0,0.0,0.0,1.0,166.665,52.444,52.444,47.867,47.867,34.0,-23.63,25.14,-29.38,30.7175,0.0,1783.066,-0.28500000000000014,100.0,27.79,27.931,42.571,43.007,0.0,0.0,100.0,0.0,0.0,0.0,0.0,3183.857142857143,3049.5,4259.75,4267.2,305.278,304.97275,314.52775,314.20725,21.8862,20.575,21.9012,21.4237,314.999998,314.999998,324.999988,324.999988,99.55814285714285,99.50731666666667,99.5668,99.54685714285715,0.10450000000000026,-0.026000000000000023,-0.08716666666666667,0.13533333333333333,-0.04999999999999716,-0.045000000000001705,1.4929999999999999,1.4875,37.789,29.593666666666664,37.882,34.897999999999996,55.809,34.914,59.493,52.326,53.76,34.068,58.0925,50.656,52.933,33.6295,58.0225,50.06666666666666,-0.10799999999999987,-0.04700000000000015,0.11278500000000001,0.10672500000000001,0.0,210.93,210.945,207.71333333333334,207.71333333333334,0.0,0.0
14,0.0,0.0,0.0,1.0,1.0,0.0,0.0,1.0,0.0,0.0,1.0,1.1856,26.0,0.0,0.0,0.0,59.999996,0.0,26.0,26.0,26.0,26.0,0.03111111111111109,0.27459999999999996,-0.018166666666666668,292.847,-2.7187,-2.633888888888889,-1.57895,-1.5297,-228.91,216.0125,190.704125,0.0,0.0,0.0,0.0,0.028799999999999937,-5.498166666666667,-5.498166666666667,-0.5499,-0.13000000000000012,0.03211111111111098,1.2530000000000001,67.49600000000001,0.027800000000000002,-0.23005,-0.25200000000000067,100.0,1.0,1.0,208.23000000000002,0.0,0.0,0.0,0.0,0.0,0.0,0.0,8826.2,0.0,55.0,5.0,242.95666666666665,0.0,0.0,0.0,0.0,0.0,0.0,1.0,0.0,0.7079999999999984,0.7079999999999984,0.0,0.0,0.0,55.0,616.79921,10000.0,85.000001,85.000001,85.000001,85.000001,395.0,0.0,0.0,0.0,1.0,166.665,52.597,52.597,48.172,48.172,34.0,-22.075,25.822000000000003,-25.9075,30.46,0.0,1783.014,-0.21000000000000085,100.0,27.843,27.723,42.637,42.975,0.0,0.0,100.0,0.0,0.0,0.0,0.0,2970.714285714286,3213.2,3980.5,4170.7,305.7125,304.67425,315.098,314.54825,21.895699999999998,20.5805,21.9116,21.4328,314.999998,314.999998,324.999988,324.999988,99.55815714285714,99.50731666666667,99.56694285714286,99.547,0.10124999999999984,-0.03049999999999997,-0.07366666666666667,0.15,-0.023333333333326323,-0.05666666666667197,1.5425,1.5314999999999999,37.848,29.628,37.948,34.955,55.798,34.952,59.5305,52.3875,53.748000000000005,34.103,58.126999999999995,50.7155,52.92,33.663,58.054,50.12466666666667,-0.08899999999999997,-0.06450000000000022,0.10214500000000001,0.10284000000000001,0.0,211.35000000000002,211.38,208.23000000000002,208.23000000000002,0.0,0.0
15,0.0,0.0,0.0,1.0,1.0,0.0,0.0,1.0,0.0,0.0,1.0,1.1856,26.0,0.0,0.0,0.0,59.999996,0.0,26.0,26.0,26.0,26.0,0.036222222222222156,0.28790000000000004,-0.030000000000000002,292.862,-2.6856999999999998,-2.5988888888888892,-1.6034000000000002,-1.4798,-225.87,215.9925,190.685125,0.0,0.0,0.0,0.0,0.03056666666666652,-5.498166666666667,-5.498166666666667,-0.5413,0.345,0.049222222222222056,-0.3780000000000001,67.619,0.0256,-0.2119,-0.1120000000000001,100.0,1.0,1.0,208.60666666666668,0.0,0.0,0.0,0.0,0.0,0.0,0.0,8842.0,0.0,55.0,5.0,243.4,1.0,0.0,0.0,0.0,0.0,0.0,1.0,0.0,0.7530000000000001,0.7530000000000001,0.0,0.0,1.0,55.0,616.79921,10000.0,85.000001,85.000001,85.000001,85.000001,395.0,0.0,0.0,0.0,1.0,333.33500000000004,52.765,52.765,48.294,48.294,34.0,-22.1325,23.91,-27.3,29.375,0.0,1782.968,-0.1999999999999993,100.0,27.776,27.844,42.403,43.043,0.0,0.0,100.0,0.0,0.0,0.0,0.0,2982.0,3061.0,4040.75,4246.3,305.8125,304.9565,315.05975,314.3265,21.9041,20.5853,21.9208,21.4408,314.999998,314.999998,324.999988,324.999988,99.55817142857143,99.50731666666667,99.56707142857142,99.54712857142857,0.09175000000000022,-0.04049999999999998,-0.08816666666666667,0.12933333333333336,-0.046666666666666856,-0.036666666666668846,1.544,1.5350000000000001,37.900999999999996,29.65833333333333,38.004999999999995,35.004999999999995,55.787,34.9855,59.5625,52.442,53.738,34.134,58.1565,50.768,52.91,33.693,58.081,50.176,-0.09050000000000002,-0.06000000000000005,0.10386500000000001,0.10893000000000001,0.0,211.76,211.74,208.60666666666668,208.60666666666668,0.0,0.0
16,0.0,0.0,0.0,1.0,1.0,0.0,0.0,1.0,0.0,0.0,1.0,1.1856,26.0,0.0,0.0,0.0,59.999996,0.0,26.0,26.0,26.0,26.0,0.02488888888888896,0.2735000000000001,-0.03416666666666667,292.847,-2.7665,-2.620888888888889,-1.5638,-1.4909,-222.22,215.9675,190.66175,0.0,0.0,0.0,0.0,0.03266666666666651,-5.498166666666667,-5.498166666666667,-0.5606,-0.6855,0.024777777777777787,-1.2059999999999995,67.768,0.024200000000000003,-0.22542500000000001,-0.09999999999999964,100.0,1.0,1.0,209.04333333333335,0.0,0.0,0.0,0.0,0.0,0.0,0.0,8860.6,0.0,55.0,5.0,243.93666666666667,0.0,0.0,0.0,0.0,0.0,0.0,1.0,0.0,0.8069999999999986,0.8069999999999986,0.0,0.0,0.0,55.0,616.79921,10000.0,85.000001,85.000001,85.000001,85.000001,395.0,0.0,0.0,0.0,1.0,166.665,52.734,52.734,47.897,47.897,34.0,-24.0925,24.432000000000002,-26.849999999999998,28.3975,0.0,1782.916,-0.05000000000000071,100.0,27.428,27.829,42.8,43.079,0.0,0.0,100.0,0.0,0.0,0.0,0.0,3114.5714285714284,3119.2,4035.875,4080.4,305.574,304.811,315.05175,314.715,21.914,20.5912,21.9319,21.4504,314.999998,314.999998,324.999988,324.999988,99.55817142857143,99.50731666666667,99.56722857142857,99.54728571428572,0.08574999999999999,-0.044749999999999956,-0.09016666666666667,0.13416666666666666,-0.045000000000001705,-0.03833333333332689,1.5465,1.5405,37.962,29.694666666666667,38.074,35.065,55.771,35.0265,59.6035,52.5065,53.723,34.1715,58.195,50.83,52.893,33.729,58.116,50.23733333333333,-0.07800000000000007,-0.07200000000000006,0.10876000000000001,0.10572000000000001,0.0,212.18,212.175,209.04333333333335,209.04333333333335,0.0,0.0
17,0.0,0.0,0.0,1.0,1.0,0.0,0.0,1.0,0.0,0.0,1.0,1.1856,26.0,0.0,0.0,0.0,59.999996,0.0,26.0,26.0,26.0,26.0,-0.009000000000000008,0.2861,-0.0263,292.526,-2.7166,-2.6164444444444444,-1.59645,-1.5192,-218.76,215.945,190.63925,0.0,0.0,0.0,0.0,0.03469999999999995,-5.498166666666667,-5.498166666666667,-0.5495,0.507,-0.0012222222222222356,0.5869999999999997,67.907,0.0148,-0.206025,0.0420000000000007,100.0,1.0,1.0,209.43666666666667,0.0,0.0,0.0,0.0,0.0,0.0,0.0,8877.3,0.0,55.0,5.0,244.43666666666667,1.0,0.0,0.0,0.0,0.0,0.0,1.0,0.0,0.8580000000000005,0.8580000000000005,0.0,0.0,1.0,55.0,616.79921,10000.0,85.000001,85.000001,85.000001,85.000001,395.0,0.0,0.0,0.0,1.0,166.665,52.49,52.49,47.836,47.836,34.0,-23.4325,23.944,-29.505,29.88,0.0,1782.864,-0.129999999999999,100.0,28.137,27.904,42.736000000000004,42.888,0.0,0.0,100.0,0.0,0.0,0.0,0.0,3086.857142857143,3068.9,4271.25,4260.5,305.427,305.1375,314.523,314.4015,21.9236,20.5967,21.9423,21.4595,314.999998,314.999998,324.999988,324.999988,99.55818571428571,99.50733333333334,99.56737142857143,99.54742857142857,0.09175000000000022,-0.03949999999999998,-0.09416666666666668,0.128,-0.03833333333332689,-0.054999999999999716,1.5225,1.53,38.022,29.729666666666667,38.138999999999996,35.1215,55.760999999999996,35.066,59.64,52.5665,53.713,34.208,58.229,50.888,52.882,33.763999999999996,58.147,50.294,-0.08949999999999991,-0.06899999999999995,0.10700000000000001,0.10495000000000002,0.0,212.655,212.655,209.43666666666667,209.43666666666667,0.0,0.0
18,0.0,0.0,0.0,1.0,1.0,0.0,0.0,1.0,0.0,0.0,1.0,1.1856,26.0,0.0,0.0,0.0,59.999996,0.0,26.0,26.0,26.0,26.0,-0.005555555555555536,0.26649999999999996,-0.0354,292.603,-2.7424,-2.594444444444444,-1.60465,-1.4729,-215.7,215.925,190.6195,0.0,0.0,0.0,0.0,0.036466666666666536,-5.498166666666667,-5.498166666666667,-0.5582,-0.5640000000000001,0.011222222222222022,-0.24899999999999967,68.03,0.007200000000000001,-0.22082500000000002,0.08800000000000008,100.0,1.0,1.0,209.83333333333331,0.0,0.0,0.0,0.0,0.0,0.0,0.0,8894.0,0.0,55.0,5.0,244.88,0.0,0.0,0.0,0.0,0.0,0.0,1.0,0.0,0.9029999999999987,0.9029999999999987,0.0,0.0,0.0,55.0,616.79921,10000.0,85.000001,85.000001,85.000001,85.000001,395.0,0.0,0.0,0.0,1.0,333.33500000000004,52.567,52.567,47.806,47.806,34.0,-24.294999999999998,23.872,-29.0125,27.1525,0.0,1782.818,-0.16999999999999815,100.0,27.798000000000002,27.84,43.061,43.304,0.0,0.0,100.0,0.0,0.0,0.0,0.0,3165.285714285714,3113.5,4115.125,4081.9,305.4355,304.93175,314.89775,314.7455,21.9319,20.6015,21.9516,21.4676,314.999998,314.999998,324.999988,324.999988,99.5582,99.50733333333334,99.5675,99.54755714285714,0.08650000000000002,-0.048250000000000015,-0.109,0.1145,-0.04333333333332945,-0.03833333333332689,1.538,1.536,38.074,29.759666666666668,38.198,35.1725,55.748999999999995,35.099000000000004,59.6745,52.6215,53.702,34.239,58.260999999999996,50.941,52.870000000000005,33.7935,58.1765,50.345666666666666,-0.09349999999999992,-0.06499999999999995,0.10394,0.10433500000000001,0.0,213.0,212.98000000000002,209.83333333333331,209.83333333333331,0.0,0.0
19,0.0,0.0,0.0,1.0,1.0,0.0,0.0,1.0,0.0,0.0,1.0,1.1856,26.0,0.0,0.0,0.0,59.999996,0.0,26.0,26.0,26.0,26.0,-0.004222222222222127,0.29180000000000006,0.0502,291.977,-2.6591,-2.5854444444444447,-1.6163500000000002,-1.459,-212.01999999999998,215.9,190.5955,0.0,0.0,0.0,0.0,0.03859999999999997,-5.498166666666667,-5.498166666666667,-0.5505,0.827,0.016111111111110965,-0.6970000000000001,68.175,0.0038,-0.21135,0.02799999999999958,100.0,1.0,1.0,210.24666666666667,0.0,0.0,0.0,0.0,0.0,0.0,0.0,8911.6,0.0,55.0,5.0,245.4,1.0,0.0,0.0,0.0,0.0,0.0,1.0,0.0,0.9570000000000007,0.9570000000000007,0.0,0.0,1.0,55.0,616.79921,10000.0,85.000001,85.000001,85.000001,85.000001,395.0,0.0,0.0,0.0,1.0,166.665,51.682,51.682,47.501,47.501,34.0,-24.18,24.486,-30.945,28.765,0.0,1782.766,-0.1999999999999993,100.0,28.371,28.35,42.859,43.215,0.0,0.0,100.0,0.0,0.0,0.0,0.0,3225.857142857143,3197.9,4284.5,4337.6,305.061,304.5255,314.553,314.1715,21.9421,20.6076,21.9626,21.4772,314.999998,314.999998,324.999988,324.999988,99.55821428571429,99.50735,99.56765714285714,99.5477,0.0887500000000001,-0.05325000000000002,-0.11416666666666668,0.11016666666666668,-0.06666666666666998,-0.03833333333332689,1.512,1.528,38.138,29.797333333333334,38.266,35.2325,55.738,35.1425,59.713,52.686,53.691,34.278999999999996,58.2965,51.003,52.858000000000004,33.832,58.209,50.406666666666666,-0.09699999999999998,-0.06599999999999984,0.10113000000000001,0.10348500000000001,0.0,213.51,213.47,210.24666666666667,210.24666666666667,0.0,0.0
20,0.0,0.0,0.0,1.0,1.0,0.0,0.0,1.0,0.0,0.0,1.0,1.1856,26.0,0.0,0.0,0.0,59.999996,0.0,26.0,26.0,26.0,26.0,0.0016666666666667052,0.26859999999999995,0.032433333333333335,292.343,-2.7457,-2.659111111111111,-1.53635,-1.5867,-208.54,215.8775,190.57325,0.0,0.0,0.0,0.0,0.0406333333333333,-5.498166666666667,-5.498166666666667,-0.5544,-1.154,0.011444444444444368,0.3420000000000005,68.314,0.0037,-0.2225,-0.1299999999999999,100.0,1.0,1.0,210.59,0.0,0.0,0.0,0.0,0.0,0.0,0.0,8926.1,0.0,55.0,5.0,245.90333333333334,0.0,0.0,0.0,0.0,0.0,0.0,0.0,0.0,1.0079999999999991,1.0079999999999991,0.0,0.0,0.0,55.0,616.79921,10000.0,85.000001,85.000001,85.000001,85.000001,395.0,0.0,0.0,0.0,1.0,166.665,52.795,52.795,46.982,46.982,34.0,-22.69,24.7,-28.855,31.2325,0.0,1782.715,-0.19000000000000128,100.0,27.926,27.805,43.604,43.533,0.0,0.0,100.0,0.0,0.0,0.0,0.0,2957.5714285714284,3120.6,4162.0,4248.0,305.9075,304.99225,314.62525,314.229,21.9514,20.613,21.9732,21.4865,314.999998,314.999998,324.999988,324.999988,99.55821428571429,99.50735,99.5678,99.54785714285714,0.08550000000000013,-0.041749999999999954,-0.10683333333333334,0.12566666666666668,-0.036666666666668846,-0.054999999999999716,1.4765000000000001,1.458,38.196,29.831333333333333,38.333,35.2905,55.724000000000004,35.1805,59.7535,52.749,53.677,34.314,58.3345,51.0635,52.844,33.8655,58.244,50.466,-0.09549999999999992,-0.06199999999999983,0.103495,0.109035,0.0,213.86,213.88,210.59,210.59,0.0,0.0
21,0.0,0.0,0.0,1.0,1.0,0.0,0.0,1.0,0.0,0.0,1.0,1.1856,26.0,0.0,0.0,0.0,59.999996,0.0,26.0,26.0,26.0,26.0,-0.011666666666666603,0.2734000000000001,-0.0704,292.709,-2.7071,-2.7213333333333334,-1.5986,-1.5484,-205.26,215.85750000000002,190.5515,0.0,0.0,0.0,0.0,0.04253333333333331,-5.498166666666667,-5.498166666666667,-0.5767,0.44399999999999995,-0.00755555555555576,0.28800000000000026,68.439,0.0037,-0.223,-0.05799999999999983,100.0,1.0,1.0,211.20666666666668,0.0,0.0,0.0,0.0,0.0,0.0,0.0,8952.3,0.0,55.0,5.0,246.35333333333335,1.0,0.0,0.0,0.0,0.0,0.0,0.0,0.0,1.056000000000001,1.056000000000001,0.0,0.0,1.0,55.0,616.79921,10000.0,85.000001,85.000001,85.000001,85.000001,395.0,0.0,0.0,0.0,1.0,166.665,52.368,52.368,48.248,48.248,34.0,-23.7975,24.933999999999997,-27.54,27.7875,0.0,1782.667,-0.2049999999999983,100.0,28.213,27.883,42.981,43.058,0.0,0.0,100.0,0.0,0.0,0.0,0.0,3094.5714285714284,3102.7,4004.75,4001.2,305.411,304.96925,315.1915,315.00875,21.9603,20.6183,21.9829,21.4949,314.999998,314.999998,324.999988,324.999988,99.55822857142857,99.50735,99.56792857142857,99.54798571428572,0.08300000000000018,-0.04799999999999993,-0.10533333333333333,0.12566666666666668,-0.02833333333332888,-0.06333333333333258,1.5995,1.584,38.251999999999995,29.864333333333335,38.393,35.343,55.713,35.218,59.785,52.803,53.667,34.3485,58.364,51.1155,52.832,33.8985,58.269999999999996,50.516666666666666,-0.09450000000000003,-0.06700000000000017,0.10110000000000001,0.10982000000000001,0.0,214.26999999999998,214.29000000000002,211.20666666666668,211.20666666666668,0.0,0.0
22,0.0,0.0,0.0,1.0,1.0,0.0,0.0,1.0,0.0,0.0,1.0,1.1856,26.0,0.0,0.0,0.0,59.999996,0.0,26.0,26.0,26.0,26.0,0.017555555555555546,0.27859999999999996,0.007666666666666667,292.206,-2.6506,-2.712777777777778,-1.6002,-1.5306000000000002,-201.76,215.835,190.52775,0.0,0.0,0.0,0.0,0.04456666666666653,-5.498166666666667,-5.498166666666667,-0.5562,0.051999999999999935,0.005555555555555536,-0.2909999999999995,68.578,0.0015,-0.2038,-0.017999999999999794,100.0,1.0,1.0,211.42000000000002,0.0,0.0,0.0,0.0,0.0,0.0,0.0,8961.3,0.0,55.0,5.0,246.85333333333335,0.0,0.0,0.0,0.0,0.0,0.0,0.0,0.0,1.1069999999999993,1.1069999999999993,0.0,0.0,0.0,55.0,616.79921,10000.0,85.000001,85.000001,85.000001,85.000001,395.0,0.0,0.0,0.0,1.0,166.665,52.475,52.475,47.104,47.104,34.0,-22.715,23.854,-30.715,29.845,0.0,1782.616,-0.3150000000000013,100.0,28.081,28.191,43.256,43.42,0.0,0.0,100.0,0.0,0.0,0.0,0.0,3038.714285714286,2995.6,4271.875,4315.2,305.6635,305.0835,314.5315,314.18,21.9697,20.6238,21.9935,21.5041,314.999998,314.999998,324.999988,324.999988,99.55824285714286,99.50736666666667,99.56808571428571,99.54812857142858,0.08250000000000002,-0.054749999999999965,-0.11266666666666668,0.10966666666666668,-0.045000000000001705,-0.03333333333333144,1.494,1.491,38.311,29.899,38.459,35.4005,55.701,35.2565,59.825,52.865,53.655,34.3845,58.400999999999996,51.175,52.82,33.933,58.304,50.575,-0.10299999999999998,-0.053999999999999826,0.09928500000000001,0.1068,0.0,214.72500000000002,214.70499999999998,211.42000000000002,211.42000000000002,0.0,0.0
23,0.0,0.0,0.0,1.0,1.0,0.0,0.0,1.0,0.0,0.0,1.0,1.1856,26.0,0.0,0.0,0.0,59.999996,0.0,26.0,26.0,26.0,26.0,0.011666666666666714,0.25470000000000015,-0.007566666666666668,292.175,-2.6769,-2.667777777777778,-1.6533,-1.5951,-198.26,215.8125,190.504375,0.0,0.0,0.0,0.0,0.046599999999999975,-5.498166666666667,-5.498166666666667,-0.5758,-0.21900000000000008,0.00477777777777777,0.4939999999999998,68.712,0.0057,-0.23020000000000002,-0.1459999999999999,100.0,1.0,1.0,211.95666666666668,0.0,0.0,0.0,0.0,0.0,0.0,0.0,8984.1,0.0,55.0,5.0,247.33666666666664,1.0,0.0,0.0,0.0,0.0,0.0,0.0,0.0,1.1580000000000013,1.1580000000000013,0.0,0.0,1.0,55.0,616.79921,10000.0,85.000001,85.000001,85.000001,85.000001,395.0,0.0,0.0,0.0,1.0,166.665,51.743,51.743,48.141,48.141,34.0,-24.232499999999998,25.567999999999998,-28.3175,29.1,0.0,1782.563,-0.3049999999999997,100.0,28.475,28.136,43.424,43.585,0.0,0.0,100.0,0.0,0.0,0.0,0.0,3235.285714285714,3183.0,3957.375,4016.0,304.922,304.76975,315.3145,314.87425,21.9792,20.6295,22.0039,21.5133,314.999998,314.999998,324.999988,324.999988,99.55825714285714,99.50736666666667,99.56822857142858,99.54828571428571,0.09675000000000011,-0.038250000000000006,-0.11033333333333332,0.13066666666666665,-0.03333333333333144,-0.051666666666669414,1.5465,1.5434999999999999,38.370000000000005,29.934333333333335,38.525,35.458,55.689,35.296,59.8615,52.9265,53.644,34.420500000000004,58.435,51.2345,52.807,33.968,58.335499999999996,50.632999999999996,-0.09899999999999998,-0.05799999999999983,0.115985,0.11181,0.0,215.10500000000002,215.10000000000002,211.95666666666668,211.95666666666668,0.0,0.0
24,0.0,0.0,0.0,1.0,1.0,0.0,0.0,1.0,0.0,0.0,1.0,1.1856,26.0,0.0,0.0,0.0,59.999996,0.0,26.0,26.0,26.0,26.0,0.015000000000000124,0.2792000000000001,-0.04393333333333333,292.389,-2.7052,-2.671777777777778,-1.5747,-1.5336,-194.95999999999998,215.79000000000002,190.48175,0.0,0.0,0.0,0.0,0.04853333333333332,-5.498166666666667,-5.498166666666667,-0.5806,-0.5389999999999999,0.01855555555555566,1.2560000000000002,68.84,0.0117,-0.218025,-0.2579999999999991,100.0,1.0,1.0,212.25,0.0,0.0,0.0,0.0,0.0,0.0,0.0,8996.5,0.0,55.0,5.0,247.79666666666668,0.0,0.0,0.0,0.0,0.0,0.0,0.0,0.0,1.2059999999999995,1.2059999999999995,0.0,0.0,0.0,55.0,616.79921,10000.0,85.000001,85.000001,85.000001,85.000001,395.0,0.0,0.0,0.0,1.0,166.665,52.826,52.826,47.165,47.165,34.0,-21.3975,24.368,-29.064999999999998,30.025000000000002,0.0,1782.516,-0.34999999999999787,100.0,28.194,27.883,43.425,43.525999999999996,0.0,0.0,100.0,0.0,0.0,0.0,0.0,2898.5714285714284,3047.7,4229.625,4199.8,305.9835,305.22,314.51575,314.5155,21.9879,20.6346,22.0138,21.5219,314.999998,314.999998,324.999988,324.999988,99.55827142857143,99.50736666666667,99.56837142857142,99.54842857142857,0.09949999999999992,-0.03649999999999998,-0.09233333333333334,0.13283333333333336,-0.021666666666668277,-0.06499999999999773,1.494,1.5025,38.424,29.96633333333333,38.586,35.512,55.677,35.331,59.897,52.9835,53.632999999999996,34.453,58.468,51.289,52.795,33.9985,58.365,50.68666666666667,-0.10549999999999993,-0.04999999999999982,0.107865,0.107435,0.0,215.49,215.525,212.25,212.25,0.0,0.0
25,0.0,0.0,0.0,1.0,1.0,0.0,0.0,1.0,0.0,0.0,1.0,1.1856,26.0,0.0,0.0,0.0,59.999996,0.0,26.0,26.0,26.0,26.0,0.018000000000000016,0.2643,-0.06223333333333334,292.358,-2.7775,-2.628,-1.5943,-1.5351,-191.64999999999998,215.76999999999998,190.458,0.0,0.0,0.0,0.0,0.05043333333333333,-5.498166666666667,-5.498166666666667,-0.6105,-0.12749999999999995,0.02588888888888885,0.21799999999999997,68.964,0.0154,-0.225825,-0.3200000000000003,100.0,1.0,1.0,212.76333333333332,0.0,0.0,0.0,0.0,0.0,0.0,0.0,9018.2,0.0,55.0,5.0,248.24666666666667,1.0,0.0,0.0,0.0,0.0,0.0,0.0,0.0,1.2540000000000013,1.2540000000000013,0.0,0.0,1.0,55.0,616.79921,10000.0,85.000001,85.000001,85.000001,85.000001,395.0,0.0,0.0,0.0,1.0,166.665,51.941,51.941,47.897,47.897,34.0,-23.715,26.972,-26.2475,29.0775,0.0,1782.469,-0.34999999999999787,100.0,28.094,28.137999999999998,43.133,43.378,0.0,0.0,100.0,0.0,0.0,0.0,0.0,3159.714285714286,3337.6,3918.625,4070.6000000000004,305.3335,304.3265,315.3465,314.842,21.9966,20.6399,22.0235,21.5304,314.999998,314.999998,324.999988,324.999988,99.55828571428572,99.50738333333334,99.5685,99.54855714285715,0.11050000000000004,-0.029749999999999943,-0.09,0.13933333333333334,-0.04833333333333201,-0.061666666666667425,1.5695000000000001,1.545,38.477999999999994,29.999666666666666,38.647,35.565,55.665,35.3675,59.9295,53.0385,53.620000000000005,34.487,58.4985,51.342,52.782,34.031,58.3925,50.73866666666667,-0.10949999999999993,-0.053999999999999826,0.10579000000000001,0.11079000000000001,0.0,215.885,215.91,212.76333333333332,212.76333333333332,0.0,0.0
26,0.0,0.0,0.0,1.0,1.0,0.0,0.0,1.0,0.0,0.0,1.0,1.1856,26.0,0.0,0.0,0.0,59.999996,0.0,26.0,26.0,26.0,26.0,0.017777777777777892,0.26570000000000005,0.0863,291.199,-2.7276,-2.702111111111111,-1.6407,-1.5261,-187.93,215.7475,190.43075,0.0,0.0,0.0,0.0,0.05259999999999998,-5.498166666666667,-5.498166666666667,-0.5726,0.6255,0.010333333333333306,0.8319999999999999,69.10900000000001,0.0217,-0.1991,-0.30799999999999983,100.0,1.0,1.0,212.93666666666667,0.0,0.0,0.0,0.0,0.0,0.0,0.0,9025.6,0.0,55.0,5.0,248.76333333333332,0.0,0.0,0.0,0.0,0.0,0.0,0.0,0.0,1.3079999999999998,1.3079999999999998,0.0,0.0,0.0,55.0,616.79921,10000.0,85.000001,85.000001,85.000001,85.000001,395.0,0.0,0.0,0.0,1.0,166.665,51.453,51.453,46.295,46.295,34.0,-22.7125,26.08,-31.435000000000002,34.182500000000005,0.0,1782.416,-0.384999999999998,100.0,28.959,28.77,43.567,43.752,0.0,0.0,100.0,0.0,0.0,0.0,0.0,3117.5714285714284,3166.3,4521.125,4556.4,305.294,304.73075,313.90625,313.6625,22.0067,20.6461,22.0347,21.5403,314.999998,314.999998,324.999988,324.999988,99.5583,99.50738333333334,99.56865714285715,99.54871428571428,0.11874999999999991,-0.03249999999999997,-0.07166666666666667,0.1465,-0.03999999999999915,-0.060000000000002274,1.4475,1.4224999999999999,38.542,30.038,38.717,35.6265,55.656,35.411,59.9705,53.1045,53.611999999999995,34.527,58.537,51.406,52.772,34.0695,58.4275,50.801,-0.11450000000000005,-0.05650000000000022,0.09645000000000001,0.11609000000000001,0.0,216.39,216.385,212.93666666666667,212.93666666666667,0.0,0.0
27,0.0,0.0,0.0,1.0,1.0,0.0,0.0,1.0,0.0,0.0,1.0,1.1856,26.0,0.0,0.0,0.0,59.999996,0.0,26.0,26.0,26.0,26.0,0.03155555555555578,0.24680000000000013,-0.02816666666666667,291.687,-2.6975,-2.662,-1.63595,-1.5936,-184.61,215.73000000000002,190.407625,0.0,0.0,0.0,0.0,0.05453333333333332,-5.498166666666667,-5.498166666666667,-0.5967,-1.0015,0.015222222222222026,0.6580000000000004,69.233,0.0219,-0.24227500000000002,-0.41600000000000037,100.0,1.0,1.0,213.44666666666666,0.0,0.0,0.0,0.0,0.0,0.0,0.0,9047.2,0.0,55.0,5.0,249.21333333333334,1.0,0.0,0.0,0.0,0.0,0.0,0.0,0.0,1.355999999999998,1.355999999999998,0.0,0.0,1.0,55.0,616.79921,10000.0,85.000001,85.000001,85.000001,85.000001,395.0,0.0,0.0,0.0,1.0,166.665,51.879999999999995,51.879999999999995,46.631,46.631,34.0,-21.0525,26.689999999999998,-28.197499999999998,30.8125,0.0,1782.367,-0.48999999999999844,100.0,28.566,28.612000000000002,44.15,44.334,0.0,0.0,100.0,0.0,0.0,0.0,0.0,2995.142857142857,3220.4,4079.5,4114.2,305.671,304.6625,314.89,314.6315,22.0154,20.6514,22.0447,21.5491,314.999998,314.999998,324.999988,324.999988,99.5583,99.5074,99.5688,99.54887142857143,0.12725000000000009,-0.019000000000000017,-0.08366666666666667,0.14233333333333334,-0.05333333333332746,-0.04999999999999716,1.5015,1.4885,38.596000000000004,30.071333333333335,38.778999999999996,35.682,55.644999999999996,35.447,60.0075,53.164,53.601,34.5605,58.571,51.4625,52.76,34.1015,58.4585,50.85666666666667,-0.12250000000000005,-0.045500000000000096,0.10860500000000001,0.09956000000000001,0.0,216.71,216.715,213.44666666666666,213.44666666666666,0.0,0.0
28,0.0,0.0,0.0,1.0,1.0,0.0,0.0,1.0,0.0,0.0,1.0,1.1856,26.0,0.0,0.0,0.0,59.999996,0.0,26.0,26.0,26.0,26.0,0.03155555555555578,0.2610000000000001,-0.0511,291.946,-2.7094,-2.663777777777778,-1.57775,-1.5626,-181.28,215.71,190.383875,0.0,0.0,0.0,0.0,0.056466666666666554,-5.498166666666667,-5.498166666666667,-0.6042000000000001,0.5845,0.004999999999999893,0.6740000000000004,69.355,0.030100000000000002,-0.22165,-0.46999999999999975,100.0,1.0,1.0,213.95,0.0,0.0,0.0,0.0,0.0,0.0,0.0,9068.6,0.0,55.0,5.0,249.65,0.0,0.0,0.0,0.0,0.0,0.0,0.0,0.0,1.404,1.404,0.0,0.0,0.0,55.0,616.79921,10000.0,85.000001,85.000001,85.000001,85.000001,395.0,0.0,0.0,0.0,1.0,111.11,51.727000000000004,51.727000000000004,47.684,47.684,34.0,-22.724999999999998,26.366,-25.875,30.7275,0.0,1782.319,-0.41999999999999815,100.0,28.677,28.509999999999998,43.477000000000004,43.841,0.0,0.0,100.0,0.0,0.0,0.0,0.0,3129.285714285714,3194.9,3972.75,4120.7,305.295,304.71525,315.2165,314.7425,22.0242,20.6568,22.0543,21.5576,314.999998,314.999998,324.999988,324.999988,99.55832857142858,99.5074,99.56892857142857,99.549,0.11624999999999996,-0.02200000000000002,-0.07733333333333332,0.15583333333333335,-0.03333333333333144,-0.05333333333332746,1.568,1.5394999999999999,38.650999999999996,30.105333333333334,38.84,35.735,55.635,35.484,60.0385,53.218,53.592,34.5945,58.5995,51.515,52.75,34.134,58.484,50.907666666666664,-0.10999999999999988,-0.0535000000000001,0.11137000000000001,0.10698,0.0,217.11,217.14499999999998,213.95,213.95,0.0,0.0
29,0.0,0.0,0.0,1.0,1.0,0.0,0.0,1.0,0.0,0.0,1.0,1.1856,26.0,0.0,0.0,0.0,59.999996,0.0,26.0,26.0,26.0,26.0,0.062888888888889,0.26470000000000016,0.0526,291.58,-2.6747,-2.698777777777778,-1.5834000000000001,-1.5382,-177.74,215.6925,190.3575,0.0,0.0,0.0,0.0,0.058533333333333326,-5.498166666666667,-5.498166666666667,-0.6052000000000001,-0.6580000000000001,0.01388888888888884,-0.5670000000000002,69.49000000000001,0.0334,-0.21355000000000002,-0.4039999999999999,100.0,1.0,1.0,214.15,0.0,0.0,0.0,0.0,0.0,0.0,0.0,9077.0,0.0,55.0,5.0,250.13666666666666,1.0,0.0,0.0,0.0,0.0,0.0,0.0,0.0,1.4549999999999983,1.4549999999999983,0.0,0.0,1.0,55.0,616.79921,10000.0,85.000001,85.000001,85.000001,85.000001,395.0,0.0,0.0,0.0,1.0,333.33500000000004,51.987,51.987,46.448,46.448,34.0,-22.015,26.614,-28.7275,31.605,0.0,1782.266,-0.504999999999999,100.0,28.172,28.541,43.735,44.213,0.0,0.0,100.0,0.0,0.0,0.0,0.0,3125.714285714286,3138.2,4275.625,4301.4,305.488,304.64875,314.4655,314.189,22.0333,20.6625,22.0649,21.5669,314.999998,314.999998,324.999988,324.999988,99.55834285714286,99.5074,99.56908571428572,99.54915714285714,0.11949999999999994,-0.018000000000000016,-0.07633333333333334,0.1385,-0.054999999999999716,-0.051666666666669414,1.4795,1.465,38.708,30.140333333333334,38.906,35.793,55.622,35.5235,60.079499999999996,53.284,53.58,34.631,58.638,51.5785,52.736999999999995,34.1695,58.519,50.96966666666667,-0.11799999999999988,-0.038000000000000256,0.10858500000000001,0.10240500000000001,0.0,217.51,217.51999999999998,214.15,214.15,0.0,0.0
30,0.0,0.0,0.0,1.0,1.0,0.0,0.0,1.0,0.0,0.0,1.0,1.1856,26.0,0.0,0.0,0.0,59.999996,0.0,26.0,26.0,26.0,26.0,0.053888888888888875,0.2430000000000001,0.05133333333333334,291.138,-2.7285,-2.591666666666667,-1.5558,-1.5944,-174.19,215.675,190.331,0.0,0.0,0.0,0.0,0.06059999999999999,-5.498166666666667,-5.498166666666667,-0.605,0.7975,0.009777777777777885,0.42900000000000027,69.618,0.0386,-0.218625,-0.5899999999999999,100.0,1.0,1.0,214.66333333333333,0.0,0.0,0.0,0.0,0.0,0.0,0.0,9098.8,0.0,55.0,5.0,250.60000000000002,0.0,0.0,0.0,0.0,0.0,0.0,1.0,0.0,1.5060000000000002,1.5060000000000002,0.0,0.0,0.0,55.0,616.79921,10000.0,85.000001,85.000001,85.000001,85.000001,395.0,0.0,0.0,0.0,1.0,166.665,50.644,50.644,47.119,47.119,34.0,-23.5175,27.454,-26.634999999999998,32.697500000000005,0.0,1782.217,-0.4299999999999997,100.0,29.103,29.1,43.614000000000004,44.135999999999996,0.0,0.0,100.0,0.0,0.0,0.0,0.0,3318.142857142857,3327.9,4115.375,4196.7,304.714,304.1965,314.88225,314.45625,22.0428,20.6684,22.0752,21.5762,314.999998,314.999998,324.999988,324.999988,99.55835714285715,99.5074,99.56922857142857,99.5493,0.1379999999999999,-0.014000000000000012,-0.07183333333333333,0.164,-0.030000000000001137,-0.054999999999999716,1.512,1.484,38.766999999999996,30.177666666666667,38.97,35.851,55.616,35.5625,60.1115,53.341,53.573,34.667,58.668,51.632999999999996,52.729,34.204,58.546,51.02333333333333,-0.1279999999999999,-0.04600000000000026,0.10943000000000001,0.11387000000000001,0.0,217.935,217.96,214.66333333333333,214.66333333333333,0.0,0.0
31,0.0,0.0,0.0,1.0,1.0,0.0,0.0,1.0,0.0,0.0,1.0,1.1856,26.0,0.0,0.0,0.0,59.999996,0.0,26.0,26.0,26.0,26.0,0.03955555555555579,0.25540000000000007,0.04373333333333333,290.909,-2.7761,-2.573888888888889,-1.6042,-1.4928,-170.85,215.66,190.30675,0.0,0.0,0.0,0.0,0.06253333333333333,-5.498166666666667,-5.498166666666667,-0.5870000000000001,-0.4610000000000001,0.01911111111111108,0.8090000000000002,69.744,0.0417,-0.21815,-0.47999999999999954,100.0,1.0,1.0,214.87333333333333,0.0,0.0,0.0,0.0,0.0,0.0,0.0,9107.7,0.0,55.0,5.0,251.05,1.0,0.0,0.0,0.0,0.0,0.0,1.0,0.0,1.5539999999999985,1.5539999999999985,0.0,0.0,1.0,55.0,616.79921,10000.0,85.000001,85.000001,85.000001,85.000001,395.0,0.0,0.0,0.0,1.0,166.665,51.407,51.407,45.516999999999996,45.516999999999996,34.0,-21.662499999999998,27.448,-28.857499999999998,33.1075,0.0,1782.168,-0.48999999999999844,100.0,28.828,29.056,44.312,44.797,0.0,0.0,100.0,0.0,0.0,0.0,0.0,3051.5714285714284,3339.4,4349.25,4373.1,305.6375,304.4155,314.19125,314.0235,22.0515,20.6739,22.0853,21.5851,314.999998,314.999998,324.999988,324.999988,99.55837142857143,99.5074,99.56937142857143,99.54944285714285,0.13724999999999987,-0.005750000000000033,-0.05733333333333334,0.1635,-0.03999999999999915,-0.03833333333332689,1.4435,1.4304999999999999,38.822,30.212,39.033,35.907,55.605999999999995,35.6,60.1495,53.4015,53.564,34.701499999999996,58.703,51.6915,52.719,34.237,58.5785,51.080333333333336,-0.121,-0.046499999999999986,0.10370000000000001,0.10682000000000001,0.0,218.29000000000002,218.31,214.87333333333333,214.87333333333333,0.0,0.0
32,0.0,0.0,0.0,1.0,1.0,0.0,0.0,1.0,0.0,0.0,1.0,1.1856,26.0,0.0,0.0,0.0,59.999996,0.0,26.0,26.0,26.0,26.0,0.04488888888888898,0.26960000000000006,-0.0524,291.275,-2.7005,-2.679666666666667,-1.6546500000000002,-1.5467,-167.07999999999998,215.64499999999998,190.27975,0.0,0.0,0.0,0.0,0.06473333333333331,-5.498166666666667,-5.498166666666667,-0.605,-0.08550000000000013,-0.0040000000000000036,0.09299999999999997,69.879,0.043000000000000003,-0.22725,-0.5800000000000001,100.0,1.0,1.0,215.41,0.0,0.0,0.0,0.0,0.0,0.0,0.0,9130.4,0.0,55.0,5.0,251.53666666666666,0.0,0.0,0.0,0.0,0.0,0.0,1.0,0.0,1.6080000000000005,1.6080000000000005,0.0,0.0,0.0,55.0,616.79921,10000.0,85.000001,85.000001,85.000001,85.000001,395.0,0.0,0.0,0.0,1.0,166.665,51.513999999999996,51.513999999999996,46.494,46.494,34.0,-21.197499999999998,27.08,-27.865,32.957499999999996,0.0,1782.114,-0.48999999999999844,100.0,28.781,29.049,44.073,44.605000000000004,0.0,0.0,100.0,0.0,0.0,0.0,0.0,3082.285714285714,3184.9,4214.375,4337.6,305.4175,304.7145,314.7125,314.25375,22.0612,20.6801,22.0963,21.5949,314.999998,314.999998,324.999988,324.999988,99.55838571428572,99.50741666666667,99.56952857142858,99.5496,0.14100000000000001,-0.007750000000000035,-0.056,0.163,-0.02499999999999858,-0.06499999999999773,1.524,1.512,38.882999999999996,30.250666666666667,39.102000000000004,35.968,55.596000000000004,35.6415,60.1865,53.465,53.554,34.74,58.7375,51.753,52.707,34.274,58.609,51.14033333333333,-0.12149999999999994,-0.047499999999999876,0.106105,0.099735,0.0,218.695,218.755,215.41,215.41,0.0,0.0
33,0.0,0.0,0.0,1.0,1.0,0.0,0.0,1.0,0.0,0.0,1.0,1.1856,26.0,0.0,0.0,0.0,59.999996,0.0,26.0,26.0,26.0,26.0,0.06411111111111101,0.25870000000000015,-0.03216666666666667,291.473,-2.735,-2.6705555555555556,-1.595,-1.5808,-163.93,215.6325,190.25625,0.0,0.0,0.0,0.0,0.06656666666666655,-5.498166666666667,-5.498166666666667,-0.6138,-0.3115000000000001,-0.006444444444444475,-0.0129999999999999,69.993,0.0431,-0.216675,-0.40200000000000014,100.0,1.0,1.0,215.75666666666666,0.0,0.0,0.0,0.0,0.0,0.0,0.0,9145.2,0.0,55.0,5.0,251.94666666666666,1.0,0.0,0.0,0.0,0.0,0.0,1.0,0.0,1.6529999999999987,1.6529999999999987,0.0,0.0,1.0,55.0,616.79921,10000.0,85.000001,85.000001,85.000001,85.000001,395.0,0.0,0.0,0.0,1.0,111.11,51.788,51.788,46.585,46.585,34.0,-22.265,25.488,-27.755,32.125,0.0,1782.07,-0.495000000000001,100.0,28.536,28.963,43.921,44.552,0.0,0.0,100.0,0.0,0.0,0.0,0.0,3137.285714285714,3065.8,4203.0,4217.7,305.5015,304.96825,314.6925,314.4475,22.0693,20.6851,22.1055,21.6031,314.999998,314.999998,324.999988,324.999988,99.55841428571429,99.50741666666667,99.56965714285714,99.54974285714286,0.1280000000000001,-0.019749999999999934,-0.06933333333333333,0.1545,-0.04333333333332945,-0.03999999999999915,1.509,1.4945,38.933,30.281666666666666,39.159,36.019,55.587,35.674,60.218,53.5175,53.545,34.769999999999996,58.7665,51.8035,52.698,34.3025,58.6355,51.18966666666667,-0.119,-0.04400000000000004,0.099165,0.11323000000000001,0.0,219.06,219.07,215.75666666666666,215.75666666666666,0.0,0.0
34,0.0,0.0,0.0,1.0,1.0,0.0,0.0,1.0,0.0,0.0,1.0,1.1856,26.0,0.0,0.0,0.0,59.999996,0.0,26.0,26.0,26.0,26.0,0.050000000000000044,0.25649999999999995,-0.0592,291.656,-2.6769,-2.663222222222222,-1.65665,-1.5442,-160.36,215.6225,190.228375,0.0,0.0,0.0,0.0,0.06863333333333332,-5.498166666666667,-5.498166666666667,-0.6401,-0.7230000000000001,0.025333333333333208,0.952,70.122,0.0396,-0.223525,-0.4560000000000004,100.0,1.0,1.0,216.15,0.0,0.0,0.0,0.0,0.0,0.0,0.0,9161.8,0.0,55.0,5.0,252.41,0.0,0.0,0.0,0.0,0.0,0.0,1.0,0.0,1.7040000000000006,1.7040000000000006,0.0,0.0,0.0,55.0,616.79921,10000.0,85.000001,85.000001,85.000001,85.000001,395.0,0.0,0.0,0.0,1.0,166.665,52.016999999999996,52.016999999999996,47.15,47.15,34.0,-20.4275,26.606,-27.2425,32.32,0.0,1782.017,-0.5500000000000007,100.0,28.482,28.543,43.781,44.551,0.0,0.0,100.0,0.0,0.0,0.0,0.0,2985.142857142857,3126.4,4083.125,4270.2,305.6345,304.84125,315.00475,314.3345,22.0784,20.6907,22.1158,21.6124,314.999998,314.999998,324.999988,324.999988,99.55841428571429,99.50741666666667,99.56981428571429,99.54988571428571,0.13775000000000004,-0.0034999999999999476,-0.06216666666666667,0.16016666666666665,-0.02833333333332888,-0.051666666666669414,1.5135,1.5045000000000002,38.989999999999995,30.316666666666666,39.224000000000004,36.0775,55.576,35.710499999999996,60.251999999999995,53.579,53.535,34.804,58.798,51.8625,52.686,34.335,58.6635,51.24766666666667,-0.11699999999999999,-0.040000000000000036,0.098695,0.10565500000000001,0.0,219.445,219.47,216.15,216.15,0.0,0.0
35,0.0,0.0,0.0,1.0,1.0,0.0,0.0,1.0,0.0,0.0,1.0,1.1856,26.0,0.0,0.0,0.0,59.999996,0.0,26.0,26.0,26.0,26.0,0.07133333333333325,0.26170000000000004,-0.07503333333333334,291.733,-2.7328,-2.6101111111111113,-1.6320000000000001,-1.5065,-156.57,215.6125,190.19675,0.0,0.0,0.0,0.0,0.0708333333333333,-5.498166666666667,-5.498166666666667,-0.6814,-0.33350000000000013,0.005666666666666709,-0.04899999999999949,70.256,0.0432,-0.23125,-0.5739999999999998,100.0,1.0,1.0,216.64333333333332,0.0,0.0,0.0,0.0,0.0,0.0,0.0,9182.8,0.0,55.0,5.0,252.89666666666665,1.0,0.0,0.0,0.0,0.0,0.0,1.0,0.0,1.7579999999999991,1.7579999999999991,0.0,0.0,1.0,55.0,616.79921,10000.0,85.000001,85.000001,85.000001,85.000001,395.0,0.0,0.0,0.0,1.0,166.665,51.650999999999996,51.650999999999996,46.799,46.799,34.0,-21.4675,28.794,-25.84,30.3,0.0,1781.964,-0.40500000000000114,100.0,28.245,28.779,43.619,44.057,0.0,0.0,100.0,0.0,0.0,0.0,0.0,3056.714285714286,3408.1,4015.875,4034.8,305.5655,304.083,315.061,314.9065,22.0879,20.6969,22.1267,21.6221,314.999998,314.999998,324.999988,324.999988,99.55842857142858,99.50743333333334,99.56995714285715,99.55004285714286,0.13549999999999995,-0.0024999999999999467,-0.052333333333333336,0.17466666666666666,-0.04333333333332945,-0.054999999999999716,1.557,1.5285,39.049,30.355333333333334,39.292,36.138,55.562,35.7515,60.288,53.6395,53.522,34.842,58.8315,51.921,52.672,34.3715,58.6935,51.30466666666666,-0.119,-0.04800000000000004,0.10168,0.11166500000000001,0.0,219.86,219.9,216.64333333333335,216.64333333333332,0.0,0.0
36,0.0,0.0,0.0,1.0,1.0,0.0,0.0,1.0,0.0,0.0,1.0,1.1856,26.0,0.0,0.0,0.0,59.999996,0.0,26.0,26.0,26.0,26.0,0.05311111111111111,0.2529000000000001,0.055266666666666665,290.985,-2.6555999999999997,-2.7057777777777776,-1.5796000000000001,-1.5474,-153.19,215.60250000000002,190.167375,0.0,0.0,0.0,0.0,0.07279999999999998,-5.498166666666667,-5.498166666666667,-0.6636000000000001,0.244,-0.03500000000000014,0.16000000000000014,70.378,0.0438,-0.202275,-0.3979999999999997,100.0,1.0,1.0,216.82333333333332,0.0,0.0,0.0,0.0,0.0,0.0,0.0,9190.4,0.0,55.0,5.0,253.33333333333334,0.0,0.0,0.0,0.0,0.0,0.0,1.0,0.0,1.806000000000001,1.806000000000001,0.0,0.0,0.0,55.0,616.79921,10000.0,85.000001,85.000001,85.000001,85.000001,395.0,0.0,0.0,0.0,1.0,166.665,51.346000000000004,51.346000000000004,46.402,46.402,34.0,-21.325,27.454,-28.7175,35.692499999999995,0.0,1781.917,-0.25,100.0,28.871,28.893,43.793,44.25,0.0,0.0,100.0,0.0,0.0,0.0,0.0,3084.857142857143,3219.0,4347.5,4530.1,305.2545,304.551,314.308,313.757,22.0966,20.7024,22.136499999999998,21.6308,314.999998,314.999998,324.999988,324.999988,99.55845714285714,99.50743333333334,99.5701,99.5502,0.13324999999999987,-0.014499999999999957,-0.06433333333333333,0.17133333333333334,-0.026666666666670835,-0.04999999999999716,1.4555,1.432,39.102999999999994,30.390333333333334,39.352999999999994,36.192499999999995,55.554,35.789,60.322,53.697,53.513,34.876999999999995,58.863,51.9765,52.662,34.405,58.722,51.359,-0.10299999999999998,-0.05449999999999999,0.10841500000000001,0.10656,0.0,220.275,220.285,216.82333333333332,216.82333333333332,0.0,0.0
