,ABS Active,ABS Enabled,AID Allow Tire Blankets,AID Auto Blip,AID Auto Clutch,AID Auto Shift,AID Fuel Rate,AID Ideal Line,AID Mech Damage,AID Stability,AID Tire Wear Rate,Air Density,Air Temp,Ballast,Best Lap Delta,Best Lap Time,Brake Bias,Brake Pos,Brake Temp FL,Brake Temp FR,Brake Temp RL,Brake Temp RR,CG Accel Lateral,CG Accel Longitudinal,CG Accel Vertical,CG Height,Camber FL,Camber FR,Camber RL,Camber RR,Car Coord X,Car Coord Y,Car Coord Z,Car Damage Front,Car Damage Left,Car Damage Rear,Car Damage Right,Car Pos Norm,Caster FL,Caster FR,Chassis Pitch Angle,Chassis Pitch Rate,Chassis Roll Angle,Chassis Roll Rate,Chassis Velocity X,Chassis Velocity Y,Chassis Velocity Z,Chassis Yaw Rate,Clutch Pos,DRS Active,DRS Available,Drive Train Speed,ERS Heat Charging,ERS Is Charging,ERS Max Energy,ERS Power Level,ERS Recovery Level,Engine Brake Setting,Engine Limiter,Engine RPM,Flags,Fuel Level,Gear,Ground Speed,HR Sample Clock,In Pit,KERS Charge,KERS Deployed Energy,KERS Input,KERS Max Energy,LR Sample Clock,Lap Invalidated,Lap Time,Lap Time2,Last Lap Time,Last Sector Time,MR Sample Clock,Max Fuel,Max Power,Max RPM,Max Sus Travel FL,Max Sus Travel FR,Max Sus Travel RL,Max Sus Travel RR,Max Torque,Max Turbo Boost,Num Tires Off Track,Penalties Enabled,Position,Raw Data Sample Rate,Ride Height FL,Ride Height FR,Ride Height RL,Ride Height RR,Road Temp,Self Align Torque FL,Self Align Torque FR,Self Align Torque RL,Self Align Torque RR,Session Lap Count,Session Time Left,Steering Angle,Surface Grip,Suspension Travel FL,Suspension Travel FR,Suspension Travel RL,Suspension Travel RR,TC Active,TC Enabled,Throttle Pos,Tire Dirt Level FL,Tire Dirt Level FR,Tire Dirt Level RL,Tire Dirt Level RR,Tire Load FL,Tire Load FR,Tire Load RL,Tire Load RR,Tire Loaded Radius FL,Tire Loaded Radius FR,Tire Loaded Radius RL,Tire Loaded Radius RR,Tire Pressure FL,Tire Pressure FR,Tire Pressure RL,Tire Pressure RR,Tire Radius FL,Tire Radius FR,Tire Radius RL,Tire Radius RR,Tire Rubber Grip FL,Tire Rubber Grip FR,Tire Rubber Grip RL,Tire Rubber Grip RR,Tire Slip Angle FL,Tire Slip Angle FR,Tire Slip Angle RL,Tire Slip Angle RR,Tire Slip Ratio FL,Tire Slip Ratio FR,Tire Slip Ratio RL,Tire Slip Ratio RR,Tire Temp Core FL,Tire Temp Core FR,Tire Temp Core RL,Tire Temp Core RR,Tire Temp Inner FL,Tire Temp Inner FR,Tire Temp Inner RL,Tire Temp Inner RR,Tire Temp Middle FL,Tire Temp Middle FR,Tire Temp Middle RL,Tire Temp Middle RR,Tire Temp Outer FL,Tire Temp Outer FR,Tire Temp Outer RL,Tire Temp Outer RR,Toe In FL,Toe In FR,Toe In RL,Toe In RR,Turbo Boost,Wheel Angular Speed FL,Wheel Angular Speed FR,Wheel Angular Speed RL,Wheel Angular Speed RR,Wind Direction,Wind Speed
0,0.0,0.0,0.0,1.0,1.0,0.0,0.0,1.0,0.0,0.0,1.0,1.1856,26.0,0.0,0.0,0.0,59.99999,0.0,26.0,26.0,26.0,26.0,-0.025555555555555554,0.2995000000000001,0.20823333333333335,293.076,-2.7973,-2.611875,-1.5641,-1.5011,-275.71,215.4075,190.987625,0.0,0.0,0.0,0.0,0.0015666666666666667,-5.498166666666667,-5.498166666666667,-0.5662,2.0493333333333337,0.005374999999999908,-0.5819999999999999,65.485,-0.025900000000000003,-0.22562500000000002,-0.09600000000000009,100.0,1.0,1.0,202.18333333333334,0.0,0.0,0.0,0.0,0.0,0.0,0.0,8569.8,0.0,55.0,5.0,235.71666666666667,0.0,0.0,0.0,0.0,0.0,0.0,0.0,0.0,0.0030000000000001137,0.0030000000000001137,0.0,0.0,0.0,55.0,616.79921,10000.0,85.0,85.0,85.0,85.0,395.0,0.0,0.0,0.0,1.0,20.0,50.659,50.659,48.935,48.935,34.0,-30.13,33.368,-29.893333333333334,26.442500000000003,0.0,1783.557,0.10500000000000043,100.0,27.454,27.385,40.243,40.104,0.0,0.0,100.0,0.0,0.0,0.0,0.0,3400.875,4308.5,4111.222222222223,4139.1,304.49,301.43466666666666,314.89675,314.51625,21.7726,20.5126,21.7716,21.3128,314.99999,314.99999,324.99998,324.99998,99.55882857142858,99.50716666666666,99.5652,99.54521428571428,0.02300000000000013,-0.06899999999999995,-0.13949999999999996,0.08533333333333326,-0.045000000000001705,-0.05833333333333002,1.529,1.5433333333333334,37.079,29.203333333333333,37.072,34.205,56.25,34.457,59.0585,51.6215,54.168,33.626,57.6835,49.981,53.337,33.1855,57.6445,49.407333333333334,-0.0695,-0.07950000000000013,0.10918000000000001,0.10631000000000002,0.0,205.22,205.19,202.18333333333334,202.18333333333334,0.0,0.0
1,0.0,0.0,0.0,1.0,1.0,0.0,0.0,1.0,0.0,0.0,1.0,1.1856,26.0,0.0,0.0,0.0,59.999996,0.0,26.0,26.0,26.0,26.0,-0.045777777777777806,0.33720000000000017,0.1772,292.236,-2.6353,-2.700625,-1.6,-1.5272999999999999,-272.37,215.4125,190.96775,0.0,0.0,0.0,0.0,0.0035,-5.498166666666667,-5.498166666666667,-0.4698,-1.5556666666666668,-0.04737500000000017,-0.27,65.646,-0.0164,-0.171825,0.49799999999999933,100.0,1.0,1.0,202.04000000000002,0.0,0.0,0.0,0.0,0.0,0.0,0.0,8563.7,0.0,55.0,5.0,236.29333333333335,1.0,0.0,0.0,0.0,0.0,0.0,0.0,0.0,0.053999999999998494,0.053999999999998494,0.0,0.0,1.0,55.0,616.79921,10000.0,85.000001,85.000001,85.000001,85.000001,395.0,0.0,0.0,0.0,1.0,166.665,54.337,54.337,46.982,46.982,34.0,-22.07,16.942,-38.56,39.735,0.0,1783.508,0.3150000000000013,100.0,27.572,27.256,42.564,42.939,0.0,0.0,100.0,0.0,0.0,0.0,0.0,2804.625,2416.3,4845.444444444444,5622.3,306.389,307.124,312.853,311.00225,21.7823,20.5176,21.7826,21.3222,314.999998,314.999998,324.999988,324.999988,99.55884285714286,99.50718333333333,99.56535714285714,99.54535714285714,0.03874999999999984,-0.09466666666666668,-0.137,0.08299999999999996,-0.03499999999999659,-0.051666666666669414,1.299,1.3086666666666666,37.14,29.235,37.141,34.2635,56.233000000000004,34.495,59.107,51.692,54.150999999999996,33.661,57.729,50.048500000000004,53.319,33.219,57.6875,49.473333333333336,-0.05149999999999999,-0.10250000000000004,0.10965000000000001,0.11355000000000001,0.0,205.62,205.615,202.04000000000002,202.04000000000002,0.0,0.0
2,0.0,0.0,0.0,1.0,1.0,0.0,0.0,1.0,0.0,0.0,1.0,1.1856,26.0,0.0,0.0,0.0,59.999996,0.0,26.0,26.0,26.0,26.0,-0.05644444444444441,0.2984,-0.09213333333333334,293.808,-2.6718,-2.645625,-1.574,-1.5074,-268.82,215.41500000000002,190.947625,0.0,0.0,0.0,0.0,0.005566666666666667,-5.498166666666667,-5.498166666666667,-0.5820000000000001,0.9993333333333334,-0.0031249999999998224,1.7990000000000004,65.788,-0.0212,-0.27075,0.734,100.0,1.0,1.0,203.55,0.0,0.0,0.0,0.0,0.0,0.0,0.0,8627.7,0.0,55.0,5.0,236.80666666666667,0.0,0.0,0.0,0.0,0.0,0.0,0.0,0.0,0.10800000000000054,0.10800000000000054,0.0,0.0,0.0,55.0,616.79921,10000.0,85.000001,85.000001,85.000001,85.000001,395.0,0.0,0.0,0.0,1.0,166.665,51.712,51.712,50.735,50.735,34.0,-28.8675,22.46,-24.893333333333334,19.3775,0.0,1783.452,0.41499999999999915,100.0,28.211,27.697,41.734,41.641,0.0,0.0,100.0,0.0,0.0,0.0,0.0,3367.625,3170.8,3510.8888888888887,3406.3,304.549,304.5056666666667,316.31925,316.47275,21.793,20.523,21.7934,21.3311,314.999998,314.999998,324.999988,324.999988,99.55884285714286,99.5072,99.56548571428571,99.5455,0.0182500000000001,-0.10799999999999987,-0.16400000000000003,0.07166666666666677,-0.061666666666667425,-0.060000000000002274,1.7763333333333335,1.8183333333333334,37.206,29.269,37.209,34.3195,56.219,34.537,59.143,51.744,54.138,33.7,57.762,50.099000000000004,53.305,33.256,57.7175,49.522666666666666,-0.04749999999999999,-0.11149999999999993,0.10658500000000001,0.10375500000000001,0.0,206.14,206.04500000000002,203.55,203.55,0.0,0.0
3,0.0,0.0,0.0,1.0,1.0,0.0,0.0,1.0,0.0,0.0,1.0,1.1856,26.0,0.0,0.0,0.0,59.999996,0.0,26.0,26.0,26.0,26.0,-0.06677777777777782,0.31020000000000003,0.1817,292.862,-2.6835,-2.6835,-1.5529000000000002,-1.4863,-265.46,215.41750000000002,190.92725,0.0,0.0,0.0,0.0,0.007533333333333333,-5.498166666666667,-5.498166666666667,-0.49760000000000004,0.16466666666666666,0.005749999999999922,-1.568,65.946,-0.0334,-0.18455000000000002,0.6060000000000008,100.0,1.0,1.0,203.30666666666667,0.0,0.0,0.0,0.0,0.0,0.0,0.0,8617.4,0.0,55.0,5.0,237.37666666666667,1.0,0.0,0.0,0.0,0.0,0.0,0.0,0.0,0.15899999999999892,0.15899999999999892,0.0,0.0,1.0,55.0,616.79921,10000.0,85.000001,85.000001,85.000001,85.000001,395.0,0.0,0.0,0.0,1.0,111.11,53.253,53.253,47.302,47.302,34.0,-23.6175,20.902,-34.31666666666666,28.425,0.0,1783.403,0.504999999999999,100.0,27.796,27.461,42.216,42.268,0.0,0.0,100.0,0.0,0.0,0.0,0.0,2875.625,2953.6,4540.222222222223,4386.2,306.1715,305.41,313.7295,313.85275,21.8027,20.5284,21.8039,21.3403,314.999998,314.999998,324.999988,324.999988,99.55885714285715,99.50721666666666,99.56564285714286,99.54565714285714,0.026000000000000245,-0.10499999999999998,-0.1396666666666666,0.07966666666666677,-0.01999999999999602,-0.07833333333332604,1.4193333333333333,1.4186666666666667,37.266999999999996,29.302333333333333,37.275,34.3765,56.2,34.579,59.1835,51.812,54.120999999999995,33.7385,57.8,50.164,53.287,33.2935,57.7525,49.587,-0.03949999999999998,-0.11250000000000004,0.10389500000000002,0.11182,0.0,206.57999999999998,206.585,203.30666666666667,203.30666666666667,0.0,0.0
4,0.0,0.0,0.0,1.0,1.0,0.0,0.0,1.0,0.0,0.0,1.0,1.1856,26.0,0.0,0.0,0.0,59.999996,0.0,26.0,26.0,26.0,26.0,-0.07866666666666666,0.28490000000000015,-0.059866666666666665,293.396,-2.6747,-2.7426250000000003,-1.4937,-1.5934,-262.29,215.41750000000002,190.909125,0.0,0.0,0.0,0.0,0.009366666666666667,-5.498166666666667,-5.498166666666667,-0.534,-0.8563333333333334,-0.0402499999999999,0.5449999999999999,66.082,-0.044500000000000005,-0.23977500000000002,0.9920000000000009,100.0,1.0,1.0,203.98666666666668,0.0,0.0,0.0,0.0,0.0,0.0,0.0,8646.2,0.0,55.0,5.0,237.86333333333334,0.0,0.0,0.0,0.0,0.0,0.0,0.0,0.0,0.20700000000000074,0.20700000000000074,0.0,0.0,0.0,55.0,616.79921,10000.0,85.000001,85.000001,85.000001,85.000001,395.0,0.0,0.0,0.0,1.0,166.665,52.994,52.994,48.828,48.828,34.0,-26.5125,20.992,-29.416666666666664,24.3925,0.0,1783.354,0.5100000000000016,100.0,27.861,27.073,42.848,42.196,0.0,0.0,100.0,0.0,0.0,0.0,0.0,3104.875,2965.0,3994.0,3843.0,305.31,305.4483333333333,315.05875,315.28775,21.812,20.5331,21.814,21.3487,314.999998,314.999998,324.999988,324.999988,99.55885714285715,99.50723333333333,99.56577142857142,99.54577142857143,0.014000000000000234,-0.11599999999999988,-0.16749999999999998,0.06966666666666677,-0.030000000000001137,-0.054999999999999716,1.5513333333333335,1.5956666666666668,37.325,29.332333333333334,37.337,34.429,56.185,34.616,59.223,51.8675,54.105999999999995,33.772999999999996,57.837,50.2175,53.272,33.326,57.786500000000004,49.638999999999996,-0.03200000000000003,-0.1180000000000001,0.107825,0.11451000000000001,0.0,206.985,206.94,203.98666666666668,203.98666666666668,0.0,0.0
5,0.0,0.0,0.0,1.0,1.0,0.0,0.0,1.0,0.0,0.0,1.0,1.1856,26.0,0.0,0.0,0.0,59.999996,0.0,26.0,26.0,26.0,26.0,-0.09077777777777785,0.30679999999999996,-0.03383333333333333,293.762,-2.6476,-2.7281250000000004,-1.5444,-1.5745,-258.72,215.41500000000002,190.88825,0.0,0.0,0.0,0.0,0.011466666666666668,-5.498166666666667,-5.498166666666667,-0.5351,0.6133333333333334,-0.027249999999999996,0.5230000000000001,66.236,-0.06280000000000001,-0.217925,0.8520000000000003,100.0,1.0,1.0,204.52666666666667,0.0,0.0,0.0,0.0,0.0,0.0,0.0,8669.1,0.0,55.0,5.0,238.42000000000002,1.0,0.0,0.0,0.0,0.0,0.0,0.0,0.0,0.26099999999999923,0.26099999999999923,0.0,0.0,1.0,55.0,616.79921,10000.0,85.000001,85.000001,85.000001,85.000001,395.0,0.0,0.0,0.0,1.0,111.11,53.436,53.436,49.118,49.118,34.0,-24.435,21.408,-30.573333333333334,24.095,0.0,1783.301,0.120000000000001,100.0,27.658,26.895,42.356,41.578,0.0,0.0,100.0,0.0,0.0,0.0,0.0,2968.0,2954.9,3946.777777777778,4019.4,305.6815,305.4236666666667,315.2315,314.926,21.822400000000002,20.5387,21.8249,21.3579,314.999998,314.999998,324.999988,324.999988,99.55885714285715,99.50723333333333,99.56592857142857,99.54592857142858,0.027750000000000163,-0.10199999999999987,-0.18999999999999995,0.04383333333333317,-0.06333333333333258,-0.05833333333333002,1.5636666666666668,1.604,37.39,29.366666666666667,37.406,34.487,56.169,34.659,59.262,51.9285,54.09,33.8125,57.8735,50.275999999999996,53.254999999999995,33.364,57.82,49.696333333333335,-0.06499999999999995,-0.08699999999999997,0.10537,0.10681500000000001,0.0,207.54000000000002,207.445,204.52666666666667,204.52666666666667,0.0,0.0
6,0.0,0.0,0.0,1.0,1.0,0.0,0.0,1.0,0.0,0.0,1.0,1.1856,26.0,0.0,0.0,0.0,59.999996,0.0,26.0,26.0,26.0,26.0,-0.09077777777777785,0.3024,0.024566666666666667,293.549,-2.6828,-2.7765,-1.4898,-1.5862,-255.74,215.4125,190.87,0.0,0.0,0.0,0.0,0.0132,-5.498166666666667,-5.498166666666667,-0.5276000000000001,-0.3283333333333333,-0.04925000000000024,-0.9209999999999998,66.368,-0.06330000000000001,-0.20445000000000002,0.7879999999999994,100.0,1.0,1.0,204.76,0.0,0.0,0.0,0.0,0.0,0.0,0.0,8679.0,0.0,55.0,5.0,238.89333333333332,0.0,0.0,0.0,0.0,0.0,0.0,0.0,0.0,0.30600000000000094,0.30600000000000094,0.0,0.0,0.0,55.0,616.79921,10000.0,85.000001,85.000001,85.000001,85.000001,395.0,0.0,0.0,0.0,1.0,166.665,53.619,53.619,48.676,48.676,34.0,-28.0375,19.484,-32.82333333333334,24.252499999999998,0.0,1783.254,0.39000000000000057,100.0,27.289,26.698,42.543,41.818,0.0,0.0,100.0,0.0,0.0,0.0,0.0,3213.75,2773.1,4223.888888888889,4034.0,305.216,305.85833333333335,314.55625,314.75425,21.8309,20.5431,21.8342,21.3658,314.999998,314.999998,324.999988,324.999988,99.55887142857142,99.50725,99.56604285714286,99.54605714285714,-0.0017499999999999183,-0.127,-0.1901666666666666,0.033500000000000085,-0.05833333333333002,-0.04999999999999716,1.4889999999999999,1.5393333333333334,37.443,29.394333333333336,37.464,34.536500000000004,56.153,34.693,59.2985,51.9825,54.076,33.844,57.9075,50.3275,53.239999999999995,33.394,57.8515,49.747,-0.04999999999999993,-0.09949999999999992,0.10715000000000001,0.11094000000000001,0.0,207.905,207.84,204.76,204.76,0.0,0.0
7,0.0,0.0,0.0,1.0,1.0,0.0,0.0,1.0,0.0,0.0,1.0,1.1856,26.0,0.0,0.0,0.0,59.999996,0.0,26.0,26.0,26.0,26.0,-0.06433333333333335,0.29100000000000015,-0.004533333333333334,293.503,-2.6836,-2.7695,-1.5439,-1.6065,-252.55,215.4075,190.8505,0.0,0.0,0.0,0.0,0.015033333333333334,-5.498166666666667,-5.498166666666667,-0.5339,0.09933333333333333,-0.03949999999999987,-0.31199999999999983,66.504,-0.06470000000000001,-0.215725,0.6420000000000003,100.0,1.0,1.0,205.24666666666667,0.0,0.0,0.0,0.0,0.0,0.0,0.0,8699.6,0.0,55.0,5.0,239.38333333333333,1.0,0.0,0.0,0.0,0.0,0.0,0.0,0.0,0.3539999999999992,0.3539999999999992,0.0,0.0,1.0,55.0,616.79921,10000.0,85.000001,85.000001,85.000001,85.000001,395.0,0.0,0.0,0.0,1.0,166.665,53.268,53.268,48.721000000000004,48.721000000000004,34.0,-26.98,21.158,-32.873333333333335,23.825000000000003,0.0,1783.208,-0.08999999999999986,100.0,27.567,26.956,42.536,41.784,0.0,0.0,100.0,0.0,0.0,0.0,0.0,3199.0,2859.0,4159.0,3953.5,305.2525,305.54466666666667,314.75925,314.97375,21.8402,20.548,21.8441,21.374200000000002,314.999998,314.999998,324.999988,324.999988,99.55887142857142,99.50726666666667,99.56618571428571,99.54618571428571,0.020000000000000018,-0.10199999999999987,-0.19533333333333336,0.03416666666666668,-0.051666666666669414,-0.026666666666670835,1.546,1.5683333333333334,37.501000000000005,29.424999999999997,37.525,34.589,56.138999999999996,34.731,59.336,52.0385,54.063,33.879,57.942,50.3815,53.226,33.4275,57.8835,49.79933333333334,-0.08150000000000002,-0.0685,0.11030500000000001,0.102345,0.0,208.32999999999998,208.26,205.24666666666667,205.24666666666667,0.0,0.0
8,0.0,0.0,0.0,1.0,1.0,0.0,0.0,1.0,0.0,0.0,1.0,1.1856,26.0,0.0,0.0,0.0,59.999996,0.0,26.0,26.0,26.0,26.0,-0.03966666666666663,0.29000000000000004,-0.0217,293.533,-2.6978,-2.7018750000000002,-1.5548000000000002,-1.5983,-248.95,215.3975,190.82875,0.0,0.0,0.0,0.0,0.017133333333333334,-5.498166666666667,-5.498166666666667,-0.5375,-0.10200000000000001,-0.02950000000000008,-1.0919999999999999,66.657,-0.0562,-0.21987500000000001,0.266,100.0,1.0,1.0,205.72,0.0,0.0,0.0,0.0,0.0,0.0,0.0,8719.7,0.0,55.0,5.0,239.93666666666667,0.0,0.0,0.0,0.0,0.0,0.0,0.0,0.0,0.40800000000000125,0.40800000000000125,0.0,0.0,0.0,55.0,616.79921,10000.0,85.000001,85.000001,85.000001,85.000001,395.0,0.0,0.0,0.0,1.0,166.665,53.314,53.314,48.522999999999996,48.522999999999996,34.0,-25.9175,21.716,-31.04,24.6025,0.0,1783.154,-0.17999999999999972,100.0,27.308,27.087,42.516999999999996,41.912,0.0,0.0,100.0,0.0,0.0,0.0,0.0,3124.625,2952.0,4090.5555555555557,3933.4,305.4735,305.2753333333333,314.91825,315.01,21.8504,20.5536,21.8551,21.3838,314.999998,314.999998,324.999988,324.999988,99.55887142857142,99.50728333333333,99.56634285714286,99.54632857142857,0.03125,-0.09266666666666667,-0.16899999999999993,0.05516666666666681,-0.04833333333333201,-0.05833333333333002,1.557,1.5763333333333334,37.565,29.46,37.594,34.6485,56.123000000000005,34.772999999999996,59.376999999999995,52.103,54.047,33.917500000000004,57.9805,50.4435,53.21,33.4645,57.919,49.86,-0.08650000000000002,-0.05950000000000011,0.105215,0.11140000000000001,0.0,208.785,208.755,205.72,205.72,0.0,0.0
9,0.0,0.0,0.0,1.0,1.0,0.0,0.0,1.0,0.0,0.0,1.0,1.1856,26.0,0.0,0.0,0.0,59.999996,0.0,26.0,26.0,26.0,26.0,-0.03533333333333333,0.2861,0.008866666666666667,293.365,-2.6731,-2.721875,-1.5211000000000001,-1.5566,-245.95,215.39,190.810375,0.0,0.0,0.0,0.0,0.018866666666666667,-5.498166666666667,-5.498166666666667,-0.5349,0.185,-0.03600000000000003,0.7149999999999999,66.785,-0.0453,-0.21327500000000002,0.08000000000000007,100.0,1.0,1.0,206.08333333333331,0.0,0.0,0.0,0.0,0.0,0.0,0.0,8735.1,0.0,55.0,5.0,240.39666666666668,1.0,0.0,0.0,0.0,0.0,0.0,0.0,0.0,0.4529999999999994,0.4529999999999994,0.0,0.0,1.0,55.0,616.79921,10000.0,85.000001,85.000001,85.000001,85.000001,395.0,0.0,0.0,0.0,1.0,166.665,53.085,53.085,48.737,48.737,34.0,-24.585,23.362000000000002,-29.13,26.555,0.0,1783.109,-0.3299999999999983,100.0,27.645,26.924,42.528,41.863,0.0,0.0,100.0,0.0,0.0,0.0,0.0,3101.0,3049.7,4037.4444444444443,4125.6,305.328,305.17566666666664,314.97225,314.6515,21.859,20.5582,21.8643,21.3917,314.999998,314.999998,324.999988,324.999988,99.55887142857142,99.50728333333333,99.56647142857143,99.54644285714286,0.05900000000000016,-0.07200000000000006,-0.14583333333333337,0.07600000000000007,-0.051666666666669414,-0.05833333333333002,1.5476666666666667,1.5466666666666666,37.619,29.488999999999997,37.652,34.698,56.11,34.8075,59.411500000000004,52.156,54.034,33.9495,58.0125,50.494,53.197,33.495,57.948499999999996,49.909666666666666,-0.10250000000000004,-0.05249999999999999,0.09945000000000001,0.109405,0.0,209.175,209.17000000000002,206.08333333333331,206.08333333333331,0.0,0.0
10,0.0,0.0,0.0,1.0,1.0,0.0,0.0,1.0,0.0,0.0,1.0,1.1856,26.0,0.0,0.0,0.0,59.999996,0.0,26.0,26.0,26.0,26.0,-0.021222222222222142,0.29259999999999997,0.0038666666666666667,293.274,-2.682,-2.696625,-1.5563,-1.5443,-242.54,215.38,190.789625,0.0,0.0,0.0,0.0,0.020866666666666665,-5.498166666666667,-5.498166666666667,-0.53,-0.212,-0.015750000000000153,-0.040000000000000036,66.93,-0.033100000000000004,-0.2116,-0.07600000000000051,100.0,1.0,1.0,206.45333333333332,0.0,0.0,0.0,0.0,0.0,0.0,0.0,8750.8,0.0,55.0,5.0,240.92000000000002,0.0,0.0,0.0,0.0,0.0,0.0,1.0,0.0,0.5040000000000013,0.5040000000000013,0.0,0.0,0.0,55.0,616.79921,10000.0,85.000001,85.000001,85.000001,85.000001,395.0,0.0,0.0,0.0,1.0,166.665,53.329,53.329,48.477000000000004,48.477000000000004,34.0,-24.4675,22.604,-30.533333333333335,26.8575,0.0,1783.058,-0.46499999999999986,100.0,27.451,27.039,42.521,42.232,0.0,0.0,100.0,0.0,0.0,0.0,0.0,3102.375,2931.0,4155.0,4186.9,305.503,305.38033333333334,314.751,314.415,21.8688,20.5635,21.8748,21.4008,314.999998,314.999998,324.999988,324.999988,99.55888571428571,99.5073,99.56661428571428,99.5466,0.058499999999999996,-0.06433333333333313,-0.1426666666666666,0.07150000000000012,-0.051666666666669414,-0.03833333333332689,1.5163333333333333,1.516,37.68,29.52166666666667,37.718,34.7545,56.096000000000004,34.845,59.451,52.2175,54.021,33.984,58.0495,50.553,53.183,33.5285,57.9825,49.967666666666666,-0.11249999999999993,-0.03550000000000009,0.10235000000000001,0.10547000000000001,0.0,209.61,209.61,206.45333333333332,206.45333333333332,0.0,0.0
11,0.0,0.0,0.0,1.0,1.0,0.0,0.0,1.0,0.0,0.0,1.0,1.1856,26.0,0.0,0.0,0.0,59.999996,0.0,26.0,26.0,26.0,26.0,0.013666666666666716,0.28310000000000013,-0.0455,293.533,-2.7076000000000002,-2.693375,-1.5596999999999999,-1.5182,-238.92000000000002,215.37,190.767375,0.0,0.0,0.0,0.0,0.022600000000000002,-5.498166666666667,-5.498166666666667,-0.5522,-0.27666666666666667,0.010999999999999899,-0.43199999999999994,67.08,-0.013800000000000002,-0.22460000000000002,-0.30799999999999983,100.0,1.0,1.0,207.01999999999998,0.0,0.0,0.0,0.0,0.0,0.0,0.0,8774.8,0.0,55.0,5.0,241.46,1.0,0.0,0.0,0.0,0.0,0.0,1.0,0.0,0.5579999999999998,0.5579999999999998,0.0,0.0,1.0,55.0,616.79921,10000.0,85.000001,85.000001,85.000001,85.000001,395.0,0.0,0.0,0.0,1.0,166.665,53.268,53.268,48.95,48.95,34.0,-24.2475,23.85,-27.303333333333335,27.195,0.0,1783.002,-0.5749999999999993,100.0,27.181,27.109,42.316,42.265,0.0,0.0,100.0,0.0,0.0,0.0,0.0,3111.875,3027.8,3928.5555555555557,4046.5,305.4945,305.08166666666665,315.305,314.7855,21.879,20.5691,21.8858,21.4103,314.999998,314.999998,324.999988,324.999988,99.5589,99.5073,99.56677142857143,99.54675714285715,0.07100000000000017,-0.05400000000000005,-0.12166666666666659,0.11066666666666669,-0.05333333333332746,-0.054999999999999716,1.5783333333333334,1.5653333333333332,37.744,29.556666666666665,37.786,34.814499999999995,56.08,34.8875,59.4915,52.285,54.006,34.022999999999996,58.0875,50.618,53.166,33.566,58.016999999999996,50.031333333333336,-0.11249999999999993,-0.033500000000000085,0.10324000000000001,0.117665,0.0,210.065,210.06,207.01999999999998,207.01999999999998,0.0,0.0
12,0.0,0.0,0.0,1.0,1.0,0.0,0.0,1.0,0.0,0.0,1.0,1.1856,26.0,0.0,0.0,0.0,59.999996,0.0,26.0,26.0,26.0,26.0,0.00811111111111118,0.28,0.0035,293.198,-2.7006,-2.683625,-1.5639,-1.5333,-235.9,215.36,190.748125,0.0,0.0,0.0,0.0,0.025466666666666665,-5.498166666666667,-5.498166666666667,-0.5434,0.436,0.01649999999999996,0.8799999999999999,67.206,0.0004,-0.206025,-0.44599999999999973,100.0,1.0,1.0,207.3466666666667,0.0,0.0,0.0,0.0,0.0,0.0,0.0,8788.6,0.0,55.0,5.0,241.91333333333336,0.0,0.0,0.0,0.0,0.0,0.0,1.0,0.0,0.602999999999998,0.602999999999998,0.0,0.0,0.0,55.0,616.79921,10000.0,85.000001,85.000001,85.000001,85.000001,395.0,0.0,0.0,0.0,1.0,333.33500000000004,53.009,53.009,48.400999999999996,48.400999999999996,34.0,-23.29,25.242,-27.509999999999998,29.5125,0.0,1782.957,-0.46499999999999986,100.0,27.493,27.28,42.272,42.166,0.0,0.0,100.0,0.0,0.0,0.0,0.0,3001.375,3160.8,4073.6666666666665,4233.9,305.623,304.82866666666666,314.91675,314.428,21.8875,20.5739,21.8949,21.4182,314.999998,314.999998,324.999988,324.999988,99.5589,99.50731666666667,99.56688571428572,99.54687142857144,0.07450000000000001,-0.043333333333333224,-0.09533333333333338,0.1213333333333333,-0.030000000000001137,-0.05666666666667197,1.5343333333333335,1.5293333333333334,37.797,29.586666666666666,37.843,34.864,56.069,34.919,59.522,52.3345,53.995999999999995,34.0525,58.1155,50.666,53.155,33.5935,58.043,50.078,-0.09650000000000003,-0.046499999999999986,0.10505,0.101245,0.0,210.465,210.495,207.3466666666667,207.3466666666667,0.0,0.0
13,0.0,0.0,0.0,1.0,1.0,0.0,0.0,1.0,0.0,0.0,1.0,1.1856,26.0,0.0,0.0,0.0,59.999996,0.0,26.0,26.0,26.0,26.0,0.03644444444444428,0.2741,0.019133333333333336,292.892,-2.691,-2.693,-1.5619,-1.5404,-232.26999999999998,215.35,190.725125,0.0,0.0,0.0,0.0,0.026833333333333334,-5.498166666666667,-5.498166666666667,-0.5394,-0.2666666666666667,0.014624999999999888,1.045,67.357,0.0099,-0.215625,-0.4939999999999998,100.0,1.0,1.0,207.74666666666667,0.0,0.0,0.0,0.0,0.0,0.0,0.0,8805.6,0.0,55.0,5.0,242.45666666666665,1.0,0.0,0.0,0.0,0.0,0.0,1.0,0.0,0.657,0.657,0.0,0.0,1.0,55.0,616.79921,10000.0,85.000001,85.000001,85.000001,85.000001,395.0,0.0,0.0,0.0,1.0,166.665,52.872,52.872,48.141,48.141,34.0,-21.4725,26.31,-27.476666666666663,31.0025,0.0,1782.905,-0.41000000000000014,100.0,27.692,27.43,42.643,42.689,0.0,0.0,100.0,0.0,0.0,0.0,0.0,3001.375,3135.5,4074.3333333333335,4303.7,305.63,304.912,314.8635,314.22175,21.8977,20.5796,21.9061,21.428,314.999998,314.999998,324.999988,324.999988,99.55892857142857,99.50731666666667,99.56704285714285,99.54702857142857,0.1160000000000001,-0.013666666666666716,-0.09150000000000003,0.13216666666666677,-0.03833333333332689,-0.060000000000002274,1.5056666666666667,1.4929999999999999,37.861000000000004,29.622666666666667,37.913,34.925,56.056,34.959,59.5635,52.4015,53.983000000000004,34.0895,58.1545,50.730000000000004,53.141,33.6295,58.0785,50.141,-0.122,-0.026499999999999968,0.106745,0.104525,0.0,210.91,210.95,207.74666666666667,207.74666666666667,0.0,0.0
14,0.0,0.0,0.0,1.0,1.0,0.0,0.0,1.0,0.0,0.0,1.0,1.1856,26.0,0.0,0.0,0.0,59.999996,0.0,26.0,26.0,26.0,26.0,0.0564444444444443,0.27360000000000007,-0.0419,293.152,-2.6911,-2.70125,-1.5695000000000001,-1.5373999999999999,-228.82999999999998,215.34,190.703875,0.0,0.0,0.0,0.0,0.028833333333333332,-5.498166666666667,-5.498166666666667,-0.5508000000000001,-0.0006666666666666666,0.024124999999999952,-0.3809999999999998,67.497,0.02,-0.22455,-0.4299999999999997,100.0,1.0,1.0,208.28333333333333,0.0,0.0,0.0,0.0,0.0,0.0,0.0,8828.4,0.0,55.0,5.0,242.96,0.0,0.0,0.0,0.0,0.0,0.0,1.0,0.0,0.7079999999999984,0.7079999999999984,0.0,0.0,0.0,55.0,616.79921,10000.0,85.000001,85.000001,85.000001,85.000001,395.0,0.0,0.0,0.0,1.0,166.665,52.963,52.963,48.553,48.553,34.0,-22.82,24.454,-26.849999999999998,29.54,0.0,1782.853,-0.4349999999999987,100.0,27.48,27.692,42.428,42.796,0.0,0.0,100.0,0.0,0.0,0.0,0.0,3077.0,3000.9,3988.4444444444443,4084.6000000000004,305.591,305.1023333333333,315.17325,314.69975,21.9073,20.5851,21.9165,21.437,314.999998,314.999998,324.999988,324.999988,99.55892857142857,99.50731666666667,99.56718571428571,99.54717142857143,0.09450000000000003,-0.036666666666666625,-0.09766666666666657,0.14400000000000013,-0.04999999999999716,-0.05333333333332746,1.5563333333333333,1.5386666666666666,37.921,29.657,37.977999999999994,34.9815,56.044,34.997,59.6,52.462,53.971000000000004,34.1245,58.1885,50.788,53.129000000000005,33.663,58.1095,50.198,-0.10949999999999993,-0.04400000000000004,0.11103,0.11758500000000001,0.0,211.35500000000002,211.385,208.28333333333333,208.28333333333333,0.0,0.0
15,0.0,0.0,0.0,1.0,1.0,0.0,0.0,1.0,0.0,0.0,1.0,1.1856,26.0,0.0,0.0,0.0,59.999996,0.0,26.0,26.0,26.0,26.0,0.04488888888888898,0.2884,-0.006333333333333334,293.03,-2.6771,-2.683625,-1.5575999999999999,-1.5571000000000002,-225.79,215.335,190.684625,0.0,0.0,0.0,0.0,0.030600000000000002,-5.498166666666667,-5.498166666666667,-0.5435,0.24666666666666667,0.03312499999999985,0.7349999999999999,67.622,0.025,-0.2119,-0.4720000000000004,100.0,1.0,1.0,208.61,0.0,0.0,0.0,0.0,0.0,0.0,0.0,8842.3,0.0,55.0,5.0,243.41,1.0,0.0,0.0,0.0,0.0,0.0,1.0,0.0,0.7530000000000001,0.7530000000000001,0.0,0.0,1.0,55.0,616.79921,10000.0,85.000001,85.000001,85.000001,85.000001,395.0,0.0,0.0,0.0,1.0,166.665,52.933,52.933,48.309,48.309,34.0,-20.9975,25.664,-26.286666666666665,30.837500000000002,0.0,1782.808,-0.36499999999999844,100.0,27.652,27.615000000000002,42.418,42.76,0.0,0.0,100.0,0.0,0.0,0.0,0.0,2948.125,3101.4,4037.5555555555557,4191.1,305.7815,304.9576666666667,314.999,314.4805,21.9158,20.59,21.9257,21.4451,314.999998,314.999998,324.999988,324.999988,99.55894285714285,99.50731666666667,99.5673,99.5473,0.11399999999999988,-0.021666666666666723,-0.0781666666666666,0.14500000000000002,-0.013333333333328312,-0.07166666666666544,1.5350000000000001,1.5223333333333335,37.974000000000004,29.687333333333335,38.035,35.032,56.033,35.031,59.6325,52.5165,53.96,34.1555,58.2185,50.841,53.117000000000004,33.693,58.1365,50.24933333333333,-0.11049999999999993,-0.04800000000000004,0.10468500000000001,0.108475,0.0,211.735,211.775,208.61,208.61,0.0,0.0
16,0.0,0.0,0.0,1.0,1.0,0.0,0.0,1.0,0.0,0.0,1.0,1.1856,26.0,0.0,0.0,0.0,59.999996,0.0,26.0,26.0,26.0,26.0,0.04777777777777792,0.27360000000000007,-0.0025,292.786,-2.7083,-2.63075,-1.5906,-1.5535,-222.13,215.3275,190.66125,0.0,0.0,0.0,0.0,0.03273333333333333,-5.498166666666667,-5.498166666666667,-0.5531,-0.28,0.025249999999999995,0.3740000000000001,67.77,0.0264,-0.223175,-0.2999999999999998,100.0,1.0,1.0,209.05333333333334,0.0,0.0,0.0,0.0,0.0,0.0,0.0,8861.0,0.0,55.0,5.0,243.94333333333333,0.0,0.0,0.0,0.0,0.0,0.0,1.0,0.0,0.8069999999999986,0.8069999999999986,0.0,0.0,0.0,55.0,616.79921,10000.0,85.000001,85.000001,85.000001,85.000001,395.0,0.0,0.0,0.0,1.0,166.665,52.505,52.505,47.989,47.989,34.0,-22.735,26.56,-26.693333333333335,29.66,0.0,1782.755,-0.3200000000000003,100.0,27.599,27.75,42.681,42.989000000000004,0.0,0.0,100.0,0.0,0.0,0.0,0.0,3071.375,3245.0,4050.6666666666665,4067.9,305.4365,304.5516666666667,315.005,314.76175,21.9258,20.5958,21.936799999999998,21.4548,314.999998,314.999998,324.999988,324.999988,99.55895714285714,99.50731666666667,99.56745714285714,99.54745714285714,0.10375000000000023,-0.020333333333333314,-0.07633333333333336,0.14500000000000002,-0.03333333333333144,-0.060000000000002274,1.5343333333333335,1.537,38.036,29.724,38.105000000000004,35.0925,56.019,35.071,59.673,52.582,53.947,34.193,58.256,50.9035,53.102999999999994,33.729,58.171,50.311,-0.09199999999999997,-0.055500000000000105,0.103595,0.10214000000000001,0.0,212.195,212.2,209.05333333333334,209.05333333333334,0.0,0.0
17,0.0,0.0,0.0,1.0,1.0,0.0,0.0,1.0,0.0,0.0,1.0,1.1856,26.0,0.0,0.0,0.0,59.999996,0.0,26.0,26.0,26.0,26.0,0.05055555555555569,0.27890000000000015,0.039,292.542,-2.6689,-2.7110000000000003,-1.5525,-1.5167000000000002,-218.67000000000002,215.32,190.639,0.0,0.0,0.0,0.0,0.03473333333333333,-5.498166666666667,-5.498166666666667,-0.5501,0.152,0.0009999999999998899,-1.099,67.90899999999999,0.0221,-0.21715,-0.15399999999999991,100.0,1.0,1.0,209.43,0.0,0.0,0.0,0.0,0.0,0.0,0.0,8877.0,0.0,55.0,5.0,244.44333333333333,1.0,0.0,0.0,0.0,0.0,0.0,1.0,0.0,0.8580000000000005,0.8580000000000005,0.0,0.0,1.0,55.0,616.79921,10000.0,85.000001,85.000001,85.000001,85.000001,395.0,0.0,0.0,0.0,1.0,166.665,52.505,52.505,47.684,47.684,34.0,-22.9525,25.162,-28.423333333333336,30.55,0.0,1782.703,-0.23999999999999844,100.0,27.721,28.063,42.655,43.115,0.0,0.0,100.0,0.0,0.0,0.0,0.0,3117.875,3034.7,4226.0,4214.0,305.4135,304.87966666666665,314.60175,314.402,21.935299999999998,20.601399999999998,21.9472,21.4639,314.999998,314.999998,324.999988,324.999988,99.55897142857143,99.50733333333334,99.5676,99.5476,0.09675000000000011,-0.03299999999999992,-0.08999999999999997,0.14400000000000013,-0.051666666666669414,-0.03999999999999915,1.4986666666666668,1.5033333333333334,38.096000000000004,29.758666666666667,38.17,35.1495,56.007,35.11,59.71,52.6425,53.935,34.229,58.2905,50.962,53.09,33.7635,58.2025,50.36866666666667,-0.09299999999999997,-0.05499999999999994,0.10701500000000001,0.11719000000000002,0.0,212.655,212.64499999999998,209.43,209.43,0.0,0.0
18,0.0,0.0,0.0,1.0,1.0,0.0,0.0,1.0,0.0,0.0,1.0,1.1856,26.0,0.0,0.0,0.0,59.999996,0.0,26.0,26.0,26.0,26.0,0.03344444444444439,0.2774000000000001,0.03206666666666667,292.48,-2.6576,-2.74475,-1.5346000000000002,-1.4838,-215.61,215.3175,190.61925,0.0,0.0,0.0,0.0,0.036533333333333334,-5.498166666666667,-5.498166666666667,-0.5596,-0.3433333333333333,0.003249999999999975,0.8370000000000002,68.032,0.0173,-0.224,-0.22599999999999998,100.0,1.0,1.0,209.77666666666667,0.0,0.0,0.0,0.0,0.0,0.0,0.0,8891.6,0.0,55.0,5.0,244.88666666666666,0.0,0.0,0.0,0.0,0.0,0.0,1.0,0.0,0.9029999999999987,0.9029999999999987,0.0,0.0,0.0,55.0,616.79921,10000.0,85.000001,85.000001,85.000001,85.000001,395.0,0.0,0.0,0.0,1.0,333.33500000000004,52.46,52.46,47.745,47.745,34.0,-22.23,26.73,-27.18,30.37,0.0,1782.657,-0.254999999999999,100.0,27.856,27.77,42.921,43.109,0.0,0.0,100.0,0.0,0.0,0.0,0.0,3050.75,3176.1,4082.4444444444443,4322.3,305.482,304.65933333333334,314.8245,314.19725,21.9437,20.6062,21.9565,21.472,314.999998,314.999998,324.999988,324.999988,99.55898571428571,99.50733333333334,99.56772857142857,99.54772857142858,0.10124999999999984,-0.028666666666666618,-0.08999999999999997,0.13250000000000006,-0.02499999999999858,-0.04999999999999716,1.5023333333333333,1.4966666666666666,38.147999999999996,29.788666666666664,38.227999999999994,35.2,55.995000000000005,35.1425,59.7435,52.697,53.924,34.2595,58.3215,51.0145,53.078,33.792500000000004,58.231,50.42,-0.09450000000000003,-0.05600000000000005,0.10806,0.10561000000000001,0.0,213.01,213.015,209.77666666666667,209.77666666666667,0.0,0.0
19,0.0,0.0,0.0,1.0,1.0,0.0,0.0,1.0,0.0,0.0,1.0,1.1856,26.0,0.0,0.0,0.0,59.999996,0.0,26.0,26.0,26.0,26.0,0.046666666666666856,0.274,0.0149,292.313,-2.6388,-2.70775,-1.5333999999999999,-1.6064,-212.14,215.3125,190.5965,0.0,0.0,0.0,0.0,0.038533333333333336,-5.498166666666667,-5.498166666666667,-0.5514,0.5476666666666666,0.01024999999999987,-0.782,68.169,0.0131,-0.21602500000000002,-0.0860000000000003,100.0,1.0,1.0,210.24,0.0,0.0,0.0,0.0,0.0,0.0,0.0,8911.3,0.0,55.0,5.0,245.38,1.0,0.0,0.0,0.0,0.0,0.0,1.0,0.0,0.9540000000000006,0.9540000000000006,0.0,0.0,1.0,55.0,616.79921,10000.0,85.000001,85.000001,85.000001,85.000001,395.0,0.0,0.0,0.0,1.0,333.33500000000004,52.078,52.078,47.852000000000004,47.852000000000004,34.0,-23.465,24.412,-28.03,30.2925,0.0,1782.606,-0.17999999999999972,100.0,28.207,28.328,42.762,43.253,0.0,0.0,100.0,0.0,0.0,0.0,0.0,3158.875,3031.7,4157.888888888889,4191.1,305.306,304.92466666666667,314.7845,314.35825,21.9533,20.6118,21.9669,21.4812,314.999998,314.999998,324.999988,324.999988,99.55898571428571,99.50735,99.56788571428571,99.54788571428571,0.08650000000000002,-0.04899999999999993,-0.09883333333333333,0.11483333333333334,-0.05333333333332746,-0.04333333333332945,1.5046666666666666,1.4916666666666667,38.208,29.823666666666668,38.293,35.2575,55.983000000000004,35.185,59.7815,52.760999999999996,53.912,34.298,58.357,51.076499999999996,53.065,33.829499999999996,58.263,50.480333333333334,-0.09599999999999997,-0.06150000000000011,0.109435,0.10487500000000001,0.0,213.465,213.45499999999998,210.24,210.24,0.0,0.0
20,0.0,0.0,0.0,1.0,1.0,0.0,0.0,1.0,0.0,0.0,1.0,1.1856,26.0,0.0,0.0,0.0,59.999996,0.0,26.0,26.0,26.0,26.0,0.03299999999999992,0.26690000000000014,-0.02946666666666667,292.419,-2.7091,-2.654,-1.6099,-1.5872000000000002,-208.45,215.3075,190.572625,0.0,0.0,0.0,0.0,0.04066666666666667,-5.498166666666667,-5.498166666666667,-0.5556,-0.663,0.011624999999999996,-0.802,68.315,0.008,-0.224825,0.012000000000000455,100.0,1.0,1.0,210.67333333333335,0.0,0.0,0.0,0.0,0.0,0.0,0.0,8929.6,0.0,55.0,5.0,245.90666666666667,0.0,0.0,0.0,0.0,0.0,0.0,0.0,0.0,1.0079999999999991,1.0079999999999991,0.0,0.0,0.0,55.0,616.79921,10000.0,85.000001,85.000001,85.000001,85.000001,395.0,0.0,0.0,0.0,1.0,166.665,52.49,52.49,47.394,47.394,34.0,-24.025,24.012,-29.893333333333334,28.384999999999998,0.0,1782.553,-0.18499999999999872,100.0,27.852,28.116,43.307,43.663,0.0,0.0,100.0,0.0,0.0,0.0,0.0,3118.875,3049.3,4173.888888888889,4013.4,305.511,305.00666666666666,314.80475,314.79175,21.9633,20.6176,21.9781,21.491,314.999998,314.999998,324.999988,324.999988,99.559,99.50735,99.56802857142857,99.54802857142857,0.07825000000000015,-0.04733333333333323,-0.11366666666666658,0.11483333333333334,-0.03999999999999915,-0.03999999999999915,1.513,1.5193333333333334,38.269999999999996,29.86,38.363,35.3185,55.969,35.223,59.821,52.823499999999996,53.899,34.3335,58.394,51.135999999999996,53.051,33.8635,58.2965,50.539,-0.09099999999999997,-0.05899999999999994,0.10247,0.10613,0.0,213.875,213.875,210.67333333333335,210.67333333333335,0.0,0.0
21,0.0,0.0,0.0,1.0,1.0,0.0,0.0,1.0,0.0,0.0,1.0,1.1856,26.0,0.0,0.0,0.0,59.999996,0.0,26.0,26.0,26.0,26.0,-0.0022222222222221255,0.2775000000000001,-0.05473333333333334,292.587,-2.7205,-2.63125,-1.5701,-1.5293999999999999,-205.38,215.305,190.5525,0.0,0.0,0.0,0.0,0.04246666666666667,-5.498166666666667,-5.498166666666667,-0.5735,-0.05733333333333334,0.004249999999999865,0.47299999999999986,68.434,0.0066,-0.22535000000000002,-0.09799999999999898,100.0,1.0,1.0,211.13,0.0,0.0,0.0,0.0,0.0,0.0,0.0,8949.0,0.0,55.0,5.0,246.33333333333334,1.0,0.0,0.0,0.0,0.0,0.0,0.0,0.0,1.0530000000000008,1.0530000000000008,0.0,0.0,1.0,55.0,616.79921,10000.0,85.000001,85.000001,85.000001,85.000001,395.0,0.0,0.0,0.0,1.0,166.665,52.338,52.338,48.035,48.035,34.0,-23.805,24.990000000000002,-27.083333333333336,27.93,0.0,1782.508,-0.1999999999999993,100.0,28.046,27.83,43.095,43.274,0.0,0.0,100.0,0.0,0.0,0.0,0.0,3120.375,3185.9,3999.5555555555557,4047.0,305.3355,304.80066666666664,315.13275,314.88825,21.9716,20.6225,21.9872,21.499,314.999998,314.999998,324.999988,324.999988,99.55901428571428,99.50735,99.56815714285715,99.54815714285715,0.09100000000000019,-0.04299999999999993,-0.10050000000000003,0.123,-0.03333333333333144,-0.04999999999999716,1.5779999999999998,1.5563333333333333,38.322,29.890666666666668,38.42,35.3685,55.957,35.257,59.8515,52.8755,53.888,34.365,58.4225,51.186,53.039,33.8935,58.322,50.588,-0.09599999999999997,-0.0645,0.105815,0.10756500000000001,0.0,214.24,214.26,211.13,211.13,0.0,0.0
22,0.0,0.0,0.0,1.0,1.0,0.0,0.0,1.0,0.0,0.0,1.0,1.1856,26.0,0.0,0.0,0.0,59.999996,0.0,26.0,26.0,26.0,26.0,0.005555555555555536,0.2771000000000001,0.019100000000000002,292.175,-2.7622,-2.658625,-1.6015000000000001,-1.4966,-201.88,215.3025,190.52875,0.0,0.0,0.0,0.0,0.044500000000000005,-5.498166666666667,-5.498166666666667,-0.559,0.117,0.007500000000000062,-0.5579999999999998,68.572,0.0048000000000000004,-0.20145000000000002,-0.09999999999999964,100.0,1.0,1.0,211.4,0.0,0.0,0.0,0.0,0.0,0.0,0.0,8960.4,0.0,55.0,5.0,246.82999999999998,0.0,0.0,0.0,0.0,0.0,0.0,0.0,0.0,1.1039999999999992,1.1039999999999992,0.0,0.0,0.0,55.0,616.79921,10000.0,85.000001,85.000001,85.000001,85.000001,395.0,0.0,0.0,0.0,1.0,166.665,52.414,52.414,47.211,47.211,34.0,-25.05,24.156,-31.456666666666663,29.5125,0.0,1782.457,-0.28999999999999915,100.0,27.937,28.057000000000002,43.099000000000004,43.347,0.0,0.0,100.0,0.0,0.0,0.0,0.0,3190.5,3070.3,4336.111111111111,4335.2,305.3715,304.99033333333335,314.39425,314.1345,21.981,20.628,21.997700000000002,21.5081,314.999998,314.999998,324.999988,324.999988,99.55902857142857,99.50736666666667,99.5683,99.5483,0.07925000000000004,-0.04833333333333312,-0.11599999999999999,0.1096666666666668,-0.041666666666671404,-0.060000000000002274,1.4906666666666668,1.49,38.381,29.925333333333334,38.486000000000004,35.4255,55.945,35.295500000000004,59.8895,52.9355,53.876000000000005,34.400999999999996,58.457499999999996,51.244,53.025999999999996,33.928,58.3545,50.644666666666666,-0.10050000000000003,-0.05699999999999994,0.10864000000000001,0.10429000000000001,0.0,214.70499999999998,214.71,211.4,211.4,0.0,0.0
23,0.0,0.0,0.0,1.0,1.0,0.0,0.0,1.0,0.0,0.0,1.0,1.1856,26.0,0.0,0.0,0.0,59.999996,0.0,26.0,26.0,26.0,26.0,0.014000000000000012,0.2632000000000001,0.008933333333333333,292.038,-2.6612,-2.68525,-1.6387,-1.5386000000000002,-198.18,215.3,190.503875,0.0,0.0,0.0,0.0,0.04666666666666667,-5.498166666666667,-5.498166666666667,-0.5727,-0.247,0.006624999999999881,-0.6989999999999998,68.715,0.006,-0.225525,-0.13999999999999968,100.0,1.0,1.0,211.86666666666667,0.0,0.0,0.0,0.0,0.0,0.0,0.0,8980.3,0.0,55.0,5.0,247.34666666666666,1.0,0.0,0.0,0.0,0.0,0.0,0.0,0.0,1.1580000000000013,1.1580000000000013,0.0,0.0,1.0,55.0,616.79921,10000.0,85.000001,85.000001,85.000001,85.000001,395.0,0.0,0.0,0.0,1.0,111.11,52.048,52.048,47.363,47.363,34.0,-24.11,24.176000000000002,-30.816666666666663,29.25,0.0,1782.405,-0.28999999999999915,100.0,28.216,28.248,43.316,43.628,0.0,0.0,100.0,0.0,0.0,0.0,0.0,3223.75,3050.0,4287.0,4179.5,305.106,304.953,314.53725,314.50675,21.9911,20.634,22.0089,21.5179,314.999998,314.999998,324.999988,324.999988,99.55904285714286,99.50736666666667,99.56845714285714,99.54845714285715,0.09025000000000016,-0.052000000000000046,-0.10483333333333333,0.1180000000000001,-0.051666666666669414,-0.04333333333332945,1.517,1.5006666666666666,38.444,29.962333333333333,38.555,35.487,55.932,35.3375,59.9295,53.001,53.864000000000004,34.439499999999995,58.495,51.307,53.013,33.965,58.3885,50.70633333333333,-0.10599999999999998,-0.062000000000000055,0.10226500000000001,0.10948500000000001,0.0,215.135,215.115,211.86666666666667,211.86666666666667,0.0,0.0
24,0.0,0.0,0.0,1.0,1.0,0.0,0.0,1.0,0.0,0.0,1.0,1.1856,26.0,0.0,0.0,0.0,59.999996,0.0,26.0,26.0,26.0,26.0,0.015000000000000124,0.2772000000000001,-0.04146666666666667,292.435,-2.6839,-2.668,-1.5493999999999999,-1.5572,-195.07999999999998,215.2975,190.482625,0.0,0.0,0.0,0.0,0.04846666666666667,-5.498166666666667,-5.498166666666667,-0.5854,-0.386,0.017125000000000057,1.1230000000000002,68.834,0.006500000000000001,-0.223775,-0.21799999999999908,100.0,1.0,1.0,212.25333333333333,0.0,0.0,0.0,0.0,0.0,0.0,0.0,8996.6,0.0,55.0,5.0,247.77333333333334,0.0,0.0,0.0,0.0,0.0,0.0,0.0,0.0,1.2029999999999994,1.2029999999999994,0.0,0.0,0.0,55.0,616.79921,10000.0,85.000001,85.000001,85.000001,85.000001,395.0,0.0,0.0,0.0,1.0,166.665,52.673,52.673,47.485,47.485,34.0,-21.935,24.578,-28.24,29.105,0.0,1782.358,-0.3099999999999987,100.0,28.184,27.862000000000002,43.347,43.484,0.0,0.0,100.0,0.0,0.0,0.0,0.0,2955.5,3101.3,4123.777777777777,4151.8,305.786,305.05266666666665,314.76075,314.60775,21.999299999999998,20.6388,22.0181,21.526,314.999998,314.999998,324.999988,324.999988,99.55905714285714,99.50736666666667,99.56858571428572,99.54858571428572,0.0950000000000002,-0.04266666666666663,-0.10166666666666657,0.11749999999999994,-0.041666666666671404,-0.06333333333333258,1.5186666666666666,1.5236666666666667,38.495999999999995,29.992666666666665,38.613,35.5375,55.92,35.3705,59.9615,53.0535,53.852999999999994,34.47,58.5245,51.3575,53.001000000000005,33.9945,58.4155,50.75566666666667,-0.10399999999999998,-0.052999999999999936,0.103525,0.09926000000000001,0.0,215.485,215.495,212.25333333333333,212.25333333333333,0.0,0.0
25,0.0,0.0,0.0,1.0,1.0,0.0,0.0,1.0,0.0,0.0,1.0,1.1856,26.0,0.0,0.0,0.0,59.999996,0.0,26.0,26.0,26.0,26.0,0.030333333333333323,0.27049999999999996,-0.020633333333333337,292.191,-2.749,-2.644875,-1.5933000000000002,-1.5512000000000001,-191.57,215.2975,190.457375,0.0,0.0,0.0,0.0,0.0505,-5.498166666666667,-5.498166666666667,-0.6018,0.03066666666666667,0.021499999999999853,-0.883,68.967,0.0097,-0.21925,-0.20199999999999996,100.0,1.0,1.0,212.71666666666667,0.0,0.0,0.0,0.0,0.0,0.0,0.0,9016.2,0.0,55.0,5.0,248.25333333333333,1.0,0.0,0.0,0.0,0.0,0.0,0.0,0.0,1.2540000000000013,1.2540000000000013,0.0,0.0,1.0,55.0,616.79921,10000.0,85.000001,85.000001,85.000001,85.000001,395.0,0.0,0.0,0.0,1.0,166.665,51.849000000000004,51.849000000000004,47.775,47.775,34.0,-25.65,26.084,-28.266666666666666,29.3075,0.0,1782.307,-0.3049999999999997,100.0,27.968,28.211,43.053,43.376,0.0,0.0,100.0,0.0,0.0,0.0,0.0,3317.125,3236.4,4070.6666666666665,4114.6,304.983,304.44866666666667,315.0415,314.645,22.0087,20.6444,22.0284,21.5351,314.999998,314.999998,324.999988,324.999988,99.55905714285714,99.50738333333334,99.56872857142857,99.54874285714286,0.08950000000000014,-0.03733333333333322,-0.10499999999999998,0.12816666666666676,-0.054999999999999716,-0.04999999999999716,1.5403333333333333,1.53,38.554,30.02766666666667,38.678,35.5945,55.907,35.4095,59.9965,53.1125,53.839,34.506,58.5575,51.414,52.986999999999995,34.028999999999996,58.445,50.811,-0.10649999999999993,-0.0515000000000001,0.11248000000000001,0.11037500000000001,0.0,215.89,215.905,212.71666666666667,212.71666666666667,0.0,0.0
26,0.0,0.0,0.0,1.0,1.0,0.0,0.0,1.0,0.0,0.0,1.0,1.1856,26.0,0.0,0.0,0.0,59.999996,0.0,26.0,26.0,26.0,26.0,0.023777777777777898,0.2772000000000001,0.05203333333333334,291.428,-2.7122,-2.649,-1.5565,-1.5523,-187.84,215.29500000000002,190.430375,0.0,0.0,0.0,0.0,0.05266666666666667,-5.498166666666667,-5.498166666666667,-0.5753,0.23933333333333334,0.011749999999999927,-0.601,69.111,0.0128,-0.204525,-0.21200000000000063,100.0,1.0,1.0,212.95666666666668,0.0,0.0,0.0,0.0,0.0,0.0,0.0,9026.5,0.0,55.0,5.0,248.77333333333334,0.0,0.0,0.0,0.0,0.0,0.0,0.0,0.0,1.3079999999999998,1.3079999999999998,0.0,0.0,0.0,55.0,616.79921,10000.0,85.000001,85.000001,85.000001,85.000001,395.0,0.0,0.0,0.0,1.0,166.665,51.636,51.636,46.722,46.722,34.0,-24.724999999999998,24.14,-31.066666666666663,32.3275,0.0,1782.253,-0.29499999999999815,100.0,28.639,28.662,43.486000000000004,43.862,0.0,0.0,100.0,0.0,0.0,0.0,0.0,3271.625,3078.5,4442.222222222223,4421.2,305.0805,304.973,314.12075,313.84625,22.0188,20.6505,22.0396,21.545,314.999998,314.999998,324.999988,324.999988,99.55907142857143,99.5074,99.5689,99.5489,0.09425000000000017,-0.048666666666666636,-0.10050000000000003,0.12549999999999994,-0.05666666666667197,-0.05333333333332746,1.4553333333333334,1.4386666666666668,38.617999999999995,30.065666666666665,38.748000000000005,35.656,55.896,35.452,60.038,53.1785,53.829,34.545500000000004,58.596000000000004,51.4775,52.975,34.067,58.480000000000004,50.873333333333335,-0.10599999999999998,-0.055500000000000105,0.10373,0.11285,0.0,216.38,216.37,212.95666666666668,212.95666666666668,0.0,0.0
27,0.0,0.0,0.0,1.0,1.0,0.0,0.0,1.0,0.0,0.0,1.0,1.1856,26.0,0.0,0.0,0.0,59.999996,0.0,26.0,26.0,26.0,26.0,0.027666666666666728,0.262,-0.055266666666666665,291.84,-2.7561,-2.6658749999999998,-1.6156000000000001,-1.5356,-184.73000000000002,215.29500000000002,190.40875,0.0,0.0,0.0,0.0,0.05446666666666666,-5.498166666666667,-5.498166666666667,-0.5956,-0.7926666666666666,0.023249999999999993,0.7949999999999999,69.227,0.0126,-0.23685,-0.2679999999999998,100.0,1.0,1.0,213.43666666666667,0.0,0.0,0.0,0.0,0.0,0.0,0.0,9046.9,0.0,55.0,5.0,249.19,1.0,0.0,0.0,0.0,0.0,0.0,0.0,0.0,1.352999999999998,1.352999999999998,0.0,0.0,1.0,55.0,616.79921,10000.0,85.000001,85.000001,85.000001,85.000001,395.0,0.0,0.0,0.0,1.0,333.33500000000004,51.941,51.941,46.783,46.783,34.0,-22.662499999999998,25.951999999999998,-28.636666666666663,29.82,0.0,1782.207,-0.33500000000000085,100.0,28.498,28.486,43.957,44.061,0.0,0.0,100.0,0.0,0.0,0.0,0.0,3032.0,3226.0,4112.333333333333,4143.6,305.6545,304.61766666666665,314.8585,314.69025,22.0271,20.6555,22.049,21.5533,314.999998,314.999998,324.999988,324.999988,99.55908571428571,99.5074,99.56902857142857,99.54902857142856,0.10650000000000004,-0.038999999999999924,-0.09433333333333338,0.13766666666666683,-0.030000000000001137,-0.06666666666666998,1.513,1.4993333333333334,38.669,30.097,38.806,35.708,55.885,35.4865,60.0715,53.2325,53.818,34.5775,58.6275,51.53,52.964,34.0975,58.509,50.92433333333334,-0.10899999999999999,-0.05600000000000005,0.11203500000000001,0.10629500000000001,0.0,216.68,216.70499999999998,213.43666666666667,213.43666666666667,0.0,0.0
28,0.0,0.0,0.0,1.0,1.0,0.0,0.0,1.0,0.0,0.0,1.0,1.1856,26.0,0.0,0.0,0.0,59.999996,0.0,26.0,26.0,26.0,26.0,0.04444444444444429,0.27290000000000014,-0.05403333333333334,291.977,-2.6872,-2.651,-1.6298,-1.5634000000000001,-181.19,215.29500000000002,190.383375,0.0,0.0,0.0,0.0,0.05653333333333334,-5.498166666666667,-5.498166666666667,-0.6025,0.5036666666666667,0.0058749999999998526,-1.101,69.357,0.014100000000000001,-0.2192,-0.23399999999999999,100.0,1.0,1.0,213.92666666666668,0.0,0.0,0.0,0.0,0.0,0.0,0.0,9067.5,0.0,55.0,5.0,249.65666666666667,0.0,0.0,0.0,0.0,0.0,0.0,0.0,0.0,1.404,1.404,0.0,0.0,0.0,55.0,616.79921,10000.0,85.000001,85.000001,85.000001,85.000001,395.0,0.0,0.0,0.0,1.0,111.11,51.849000000000004,51.849000000000004,47.348,47.348,34.0,-23.035,24.77,-28.856666666666666,29.2725,0.0,1782.158,-0.384999999999998,100.0,28.397,28.625,43.388,43.758,0.0,0.0,100.0,0.0,0.0,0.0,0.0,3180.625,3100.0,4148.444444444444,4100.9,305.296,304.82166666666666,314.91025,314.7125,22.0365,20.6612,22.0593,21.5624,314.999998,314.999998,324.999988,324.999988,99.5591,99.5074,99.56917142857142,99.54917142857143,0.11050000000000004,-0.04133333333333322,-0.09533333333333338,0.12749999999999995,-0.05333333333332746,-0.05333333333332746,1.5433333333333334,1.5346666666666666,38.727999999999994,30.132666666666665,38.870000000000005,35.765,55.873000000000005,35.525999999999996,60.1055,53.2905,53.807,34.614,58.658500000000004,51.586,52.951,34.1325,58.536500000000004,50.979,-0.11649999999999994,-0.052999999999999936,0.10433500000000001,0.10822000000000001,0.0,217.125,217.15,213.92666666666668,213.92666666666668,0.0,0.0
29,0.0,0.0,0.0,1.0,1.0,0.0,0.0,1.0,0.0,0.0,1.0,1.1856,26.0,0.0,0.0,0.0,59.999996,0.0,26.0,26.0,26.0,26.0,0.039111111111111097,0.26870000000000016,-0.021866666666666666,291.916,-2.6589,-2.72025,-1.5695999999999999,-1.55,-177.64999999999998,215.2975,190.357125,0.0,0.0,0.0,0.0,0.058600000000000006,-5.498166666666667,-5.498166666666667,-0.6029,-0.6513333333333334,0.0020000000000000018,0.891,69.491,0.015700000000000002,-0.21352500000000002,-0.41000000000000014,100.0,1.0,1.0,214.17666666666668,0.0,0.0,0.0,0.0,0.0,0.0,0.0,9078.1,0.0,55.0,5.0,250.14333333333335,1.0,0.0,0.0,0.0,0.0,0.0,0.0,0.0,1.4549999999999983,1.4549999999999983,0.0,0.0,1.0,55.0,616.79921,10000.0,85.000001,85.000001,85.000001,85.000001,395.0,0.0,0.0,0.0,1.0,166.665,52.46,52.46,46.783,46.783,34.0,-21.0875,25.786,-28.536666666666665,31.575,0.0,1782.105,-0.4349999999999987,100.0,28.239,28.174,43.85,43.923,0.0,0.0,100.0,0.0,0.0,0.0,0.0,2974.25,3101.5,4155.0,4338.7,305.792,304.9993333333333,314.6785,314.1585,22.0458,20.6668,22.0698,21.5717,314.999998,314.999998,324.999988,324.999988,99.55911428571429,99.5074,99.56931428571428,99.54932857142857,0.11249999999999982,-0.026999999999999913,-0.09333333333333338,0.1313333333333333,-0.030000000000001137,-0.05833333333333002,1.4856666666666667,1.4783333333333333,38.786,30.167666666666666,38.936,35.823,55.86,35.5635,60.144,53.352000000000004,53.795,34.6485,58.6945,51.644999999999996,52.938,34.166,58.5695,51.037,-0.10949999999999993,-0.04249999999999998,0.11473000000000001,0.10619500000000001,0.0,217.51,217.535,214.17666666666668,214.17666666666668,0.0,0.0
30,0.0,0.0,0.0,1.0,1.0,0.0,0.0,1.0,0.0,0.0,1.0,1.1856,26.0,0.0,0.0,0.0,59.999996,0.0,26.0,26.0,26.0,26.0,0.06611111111111101,0.2459,0.024533333333333334,291.336,-2.6318,-2.726125,-1.6476000000000002,-1.6015000000000001,-174.31,215.2975,190.332125,0.0,0.0,0.0,0.0,0.06053333333333334,-5.498166666666667,-5.498166666666667,-0.6087,0.7263333333333334,0.0036249999999999893,0.7810000000000001,69.612,0.0199,-0.218525,-0.3539999999999992,100.0,1.0,1.0,214.68666666666667,0.0,0.0,0.0,0.0,0.0,0.0,0.0,9099.8,0.0,55.0,5.0,250.57666666666665,0.0,0.0,0.0,0.0,0.0,0.0,1.0,0.0,1.5030000000000001,1.5030000000000001,0.0,0.0,0.0,55.0,616.79921,10000.0,85.000001,85.000001,85.000001,85.000001,395.0,0.0,0.0,0.0,1.0,166.665,50.629,50.629,47.287,47.287,34.0,-24.0,29.276,-28.656666666666666,30.2725,0.0,1782.058,-0.4349999999999987,100.0,29.059,28.804000000000002,43.555,43.894999999999996,0.0,0.0,100.0,0.0,0.0,0.0,0.0,3381.875,3467.8,4150.555555555556,4076.8,304.622,303.91966666666667,314.95525,314.776,22.0548,20.6724,22.0796,21.5804,314.999998,314.999998,324.999988,324.999988,99.55912857142857,99.5074,99.56945714285715,99.54945714285714,0.11575000000000024,-0.028999999999999915,-0.08616666666666661,0.14149999999999996,-0.03166666666666629,-0.06499999999999773,1.5303333333333335,1.5343333333333335,38.842,30.202333333333335,38.997,35.8775,55.852000000000004,35.602000000000004,60.1765,53.4075,53.787,34.684,58.7245,51.698499999999996,52.929,34.2,58.597,51.089,-0.121,-0.05400000000000005,0.102995,0.11318500000000001,0.0,217.905,217.93,214.68666666666667,214.68666666666667,0.0,0.0
31,0.0,0.0,0.0,1.0,1.0,0.0,0.0,1.0,0.0,0.0,1.0,1.1856,26.0,0.0,0.0,0.0,59.999996,0.0,26.0,26.0,26.0,26.0,0.03433333333333333,0.25839999999999996,0.07063333333333334,290.71,-2.7044,-2.6215,-1.6501000000000001,-1.5386000000000002,-170.55,215.3,190.30475,0.0,0.0,0.0,0.0,0.0627,-5.498166666666667,-5.498166666666667,-0.5866,-0.352,0.021625000000000005,0.9510000000000001,69.753,0.0245,-0.219525,-0.42799999999999905,100.0,1.0,1.0,214.88666666666666,0.0,0.0,0.0,0.0,0.0,0.0,0.0,9108.2,0.0,55.0,5.0,251.08666666666664,1.0,0.0,0.0,0.0,0.0,0.0,1.0,0.0,1.5569999999999986,1.5569999999999986,0.0,0.0,1.0,55.0,616.79921,10000.0,85.000001,85.000001,85.000001,85.000001,395.0,0.0,0.0,0.0,1.0,166.665,51.01,51.01,45.563,45.563,34.0,-21.9375,27.806,-30.43,33.7325,0.0,1782.004,-0.46000000000000085,100.0,29.057,29.111,44.411,44.689,0.0,0.0,100.0,0.0,0.0,0.0,0.0,3069.625,3403.8,4310.222222222223,4463.8,305.41,304.15566666666666,314.298,313.77925,22.0647,20.6785,22.0909,21.5905,314.999998,314.999998,324.999988,324.999988,99.55914285714286,99.50741666666667,99.56961428571428,99.54962857142857,0.12400000000000011,-0.023666666666666725,-0.0781666666666666,0.14466666666666672,-0.03999999999999915,-0.045000000000001705,1.4326666666666668,1.4066666666666667,38.903999999999996,30.241,39.068,35.9405,55.841,35.6445,60.219,53.4755,53.775999999999996,34.7235,58.7645,51.763999999999996,52.917,34.238,58.632999999999996,51.153,-0.11699999999999999,-0.05049999999999999,0.097805,0.11130000000000001,0.0,218.32999999999998,218.32999999999998,214.88666666666666,214.88666666666666,0.0,0.0
32,0.0,0.0,0.0,1.0,1.0,0.0,0.0,1.0,0.0,0.0,1.0,1.1856,26.0,0.0,0.0,0.0,59.999996,0.0,26.0,26.0,26.0,26.0,0.05488888888888899,0.26449999999999996,-0.0325,291.321,-2.7016,-2.677125,-1.5929,-1.6162,-167.2,215.305,190.28075,0.0,0.0,0.0,0.0,0.06466666666666666,-5.498166666666667,-5.498166666666667,-0.6065,-0.309,0.0026249999999998774,0.28600000000000003,69.873,0.026000000000000002,-0.23445000000000002,-0.41999999999999993,100.0,1.0,1.0,215.40333333333334,0.0,0.0,0.0,0.0,0.0,0.0,0.0,9130.1,0.0,55.0,5.0,251.51666666666665,0.0,0.0,0.0,0.0,0.0,0.0,1.0,0.0,1.6050000000000004,1.6050000000000004,0.0,0.0,0.0,55.0,616.79921,10000.0,85.000001,85.000001,85.000001,85.000001,395.0,0.0,0.0,0.0,1.0,166.665,51.528999999999996,51.528999999999996,46.6,46.6,34.0,-21.865,26.598,-27.033333333333335,32.945,0.0,1781.957,-0.4499999999999993,100.0,28.88,28.972,44.204,44.568,0.0,0.0,100.0,0.0,0.0,0.0,0.0,3052.375,3197.9,4082.3333333333335,4272.9,305.5245,304.715,314.89825,314.287,22.0734,20.684,22.1007,21.5992,314.999998,314.999998,324.999988,324.999988,99.55915714285715,99.50741666666667,99.56975714285714,99.54977142857143,0.12024999999999997,-0.020333333333333314,-0.0731666666666666,0.15083333333333337,-0.03833333333332689,-0.061666666666667425,1.5186666666666666,1.5,38.958,30.275,39.129,35.995,55.83,35.6815,60.251999999999995,53.532,53.766,34.757999999999996,58.795,51.818,52.906,34.271,58.6605,51.206,-0.11249999999999993,-0.0515000000000001,0.10563000000000002,0.10920500000000001,0.0,218.69,218.73000000000002,215.40333333333334,215.40333333333334,0.0,0.0
33,0.0,0.0,0.0,1.0,1.0,0.0,0.0,1.0,0.0,0.0,1.0,1.1856,26.0,0.0,0.0,0.0,59.999996,0.0,26.0,26.0,26.0,26.0,0.04322222222222227,0.2591000000000001,-0.08423333333333334,291.656,-2.7292,-2.691875,-1.5946,-1.584,-163.84,215.31,190.255875,0.0,0.0,0.0,0.0,0.0666,-5.498166666666667,-5.498166666666667,-0.6158,-0.17633333333333334,-0.0034999999999998366,0.8690000000000002,69.994,0.0261,-0.21882500000000002,-0.4320000000000004,100.0,1.0,1.0,215.80333333333334,0.0,0.0,0.0,0.0,0.0,0.0,0.0,9147.1,0.0,55.0,5.0,251.95333333333335,1.0,0.0,0.0,0.0,0.0,0.0,1.0,0.0,1.6529999999999987,1.6529999999999987,0.0,0.0,1.0,55.0,616.79921,10000.0,85.000001,85.000001,85.000001,85.000001,395.0,0.0,0.0,0.0,1.0,166.665,51.865,51.865,46.982,46.982,34.0,-22.0825,25.52,-27.176666666666666,31.4225,0.0,1781.909,-0.4800000000000004,100.0,28.712,28.734,43.993,44.311,0.0,0.0,100.0,0.0,0.0,0.0,0.0,3075.375,3096.0,4078.6666666666665,4188.2,305.532,305.014,314.96625,314.569,22.082,20.6893,22.110500000000002,21.6079,314.999998,314.999998,324.999988,324.999988,99.55917142857143,99.50743333333334,99.5699,99.5499,0.12349999999999994,-0.02633333333333332,-0.0781666666666666,0.14816666666666678,-0.041666666666671404,-0.060000000000002274,1.5306666666666666,1.5113333333333334,39.013,30.308333333333334,39.19,36.049,55.82,35.716499999999996,60.2845,53.587,53.756,34.7905,58.8255,51.871,52.894,34.302,58.688,51.257666666666665,-0.12149999999999994,-0.04849999999999999,0.10840500000000002,0.11018000000000001,0.0,219.075,219.10000000000002,215.80333333333334,215.80333333333334,0.0,0.0
34,0.0,0.0,0.0,1.0,1.0,0.0,0.0,1.0,0.0,0.0,1.0,1.1856,26.0,0.0,0.0,0.0,59.999996,0.0,26.0,26.0,26.0,26.0,0.05888888888888899,0.24970000000000003,-0.0716,291.855,-2.6698,-2.669625,-1.6297000000000001,-1.5228000000000002,-160.26999999999998,215.3175,190.227875,0.0,0.0,0.0,0.0,0.0687,-5.498166666666667,-5.498166666666667,-0.6404000000000001,-0.8683333333333334,0.017249999999999988,-0.15200000000000014,70.123,0.028800000000000003,-0.21987500000000001,-0.4139999999999997,100.0,1.0,1.0,216.15333333333334,0.0,0.0,0.0,0.0,0.0,0.0,0.0,9161.9,0.0,55.0,5.0,252.42000000000002,0.0,0.0,0.0,0.0,0.0,0.0,1.0,0.0,1.7040000000000006,1.7040000000000006,0.0,0.0,0.0,55.0,616.79921,10000.0,85.000001,85.000001,85.000001,85.000001,395.0,0.0,0.0,0.0,1.0,166.665,52.383,52.383,47.043,47.043,34.0,-21.4,24.122,-28.213333333333335,30.7325,0.0,1781.857,-0.46000000000000085,100.0,28.284,28.568,43.814,44.461,0.0,0.0,100.0,0.0,0.0,0.0,0.0,3040.75,2952.5,4145.0,4227.5,305.786,305.28366666666665,314.868,314.45525,22.0911,20.6949,22.1208,21.6172,314.999998,314.999998,324.999988,324.999988,99.55918571428572,99.50743333333334,99.57004285714285,99.55005714285714,0.1160000000000001,-0.02833333333333332,-0.0781666666666666,0.14183333333333326,-0.04833333333333201,-0.045000000000001705,1.5076666666666667,1.4889999999999999,39.07,30.343,39.254999999999995,36.1075,55.807,35.7525,60.3195,53.6475,53.744,34.823499999999996,58.8575,51.9295,52.882,34.334,58.716499999999996,51.31466666666667,-0.119,-0.043500000000000094,0.10130000000000002,0.10497500000000001,0.0,219.45499999999998,219.465,216.15333333333334,216.15333333333334,0.0,0.0
35,0.0,0.0,0.0,1.0,1.0,0.0,0.0,1.0,0.0,0.0,1.0,1.1856,26.0,0.0,0.0,0.0,59.999996,0.0,26.0,26.0,26.0,26.0,0.07222222222222219,0.2542,-0.050333333333333334,291.702,-2.8019,-2.650875,-1.5383,-1.5814,-156.48000000000002,215.325,190.196125,0.0,0.0,0.0,0.0,0.0709,-5.498166666666667,-5.498166666666667,-0.6793,0.005666666666666667,-0.003375000000000128,-1.353,70.257,0.0328,-0.22687500000000002,-0.347999999999999,100.0,1.0,1.0,216.65666666666667,0.0,0.0,0.0,0.0,0.0,0.0,0.0,9183.2,0.0,55.0,5.0,252.9,1.0,0.0,0.0,0.0,0.0,0.0,1.0,0.0,1.7579999999999991,1.7579999999999991,0.0,0.0,1.0,55.0,616.79921,10000.0,85.000001,85.000001,85.000001,85.000001,395.0,0.0,0.0,0.0,1.0,166.665,51.528999999999996,51.528999999999996,46.89,46.89,34.0,-24.4575,27.114,-25.933333333333334,30.2775,0.0,1781.804,-0.25,100.0,28.22,28.97,43.543,43.988,0.0,0.0,100.0,0.0,0.0,0.0,0.0,3210.75,3283.1,4123.555555555556,4040.5,305.2605,304.28133333333335,314.98125,314.965,22.1007,20.7011,22.1317,21.6269,314.999998,314.999998,324.999988,324.999988,99.5592,99.50743333333334,99.5702,99.55021428571429,0.10875000000000012,-0.026999999999999913,-0.0678333333333333,0.15733333333333333,-0.04999999999999716,-0.03999999999999915,1.5643333333333334,1.553,39.129999999999995,30.381666666666668,39.323,36.168,55.793,35.7945,60.3545,53.707,53.730000000000004,34.8625,58.8905,51.987,52.867000000000004,34.371,58.7465,51.371,-0.10350000000000004,-0.0625,0.1005,0.109505,0.0,219.88,219.89499999999998,216.65666666666667,216.65666666666667,0.0,0.0
