,ABS Active,ABS Enabled,AID Allow Tire Blankets,AID Auto Blip,AID Auto Clutch,AID Auto Shift,AID Fuel Rate,AID Ideal Line,AID Mech Damage,AID Stability,AID Tire Wear Rate,Air Density,Air Temp,Ballast,Best Lap Delta,Best Lap Time,Brake Bias,Brake Pos,Brake Temp FL,Brake Temp FR,Brake Temp RL,Brake Temp RR,CG Accel Lateral,CG Accel Longitudinal,CG Accel Vertical,CG Height,Camber FL,Camber FR,Camber RL,Camber RR,Car Coord X,Car Coord Y,Car Coord Z,Car Damage Front,Car Damage Left,Car Damage Rear,Car Damage Right,Car Pos Norm,Caster FL,Caster FR,Chassis Pitch Angle,Chassis Pitch Rate,Chassis Roll Angle,Chassis Roll Rate,Chassis Velocity X,Chassis Velocity Y,Chassis Velocity Z,Chassis Yaw Rate,Clutch Pos,DRS Active,DRS Available,Drive Train Speed,ERS Heat Charging,ERS Is Charging,ERS Max Energy,ERS Power Level,ERS Recovery Level,Engine Brake Setting,Engine Limiter,Engine RPM,Flags,Fuel Level,Gear,Ground Speed,HR Sample Clock,In Pit,KERS Charge,KERS Deployed Energy,KERS Input,KERS Max Energy,LR Sample Clock,Lap Invalidated,Lap Time,Lap Time2,Last Lap Time,Last Sector Time,MR Sample Clock,Max Fuel,Max Power,Max RPM,Max Sus Travel FL,Max Sus Travel FR,Max Sus Travel RL,Max Sus Travel RR,Max Torque,Max Turbo Boost,Num Tires Off Track,Penalties Enabled,Position,Raw Data Sample Rate,Ride Height FL,Ride Height FR,Ride Height RL,Ride Height RR,Road Temp,Self Align Torque FL,Self Align Torque FR,Self Align Torque RL,Self Align Torque RR,Session Lap Count,Session Time Left,Steering Angle,Surface Grip,Suspension Travel FL,Suspension Travel FR,Suspension Travel RL,Suspension Travel RR,TC Active,TC Enabled,Throttle Pos,Tire Dirt Level FL,Tire Dirt Level FR,Tire Dirt Level RL,Tire Dirt Level RR,Tire Load FL,Tire Load FR,Tire Load RL,Tire Load RR,Tire Loaded Radius FL,Tire Loaded Radius FR,Tire Loaded Radius RL,Tire Loaded Radius RR,Tire Pressure FL,Tire Pressure FR,Tire Pressure RL,Tire Pressure RR,Tire Radius FL,Tire Radius FR,Tire Radius RL,Tire Radius RR,Tire Rubber Grip FL,Tire Rubber Grip FR,Tire Rubber Grip RL,Tire Rubber Grip RR,Tire Slip Angle FL,Tire Slip Angle FR,Tire Slip Angle RL,Tire Slip Angle RR,Tire Slip Ratio FL,Tire Slip Ratio FR,Tire Slip Ratio RL,Tire Slip Ratio RR,Tire Temp Core FL,Tire Temp Core FR,Tire Temp Core RL,Tire Temp Core RR,Tire Temp Inner FL,Tire Temp Inner FR,Tire Temp Inner RL,Tire Temp Inner RR,Tire Temp Middle FL,Tire Temp Middle FR,Tire Temp Middle RL,Tire Temp Middle RR,Tire Temp Outer FL,Tire Temp Outer FR,Tire Temp Outer RL,Tire Temp Outer RR,Toe In FL,Toe In FR,Toe In RL,Toe In RR,Turbo Boost,Wheel Angular Speed FL,Wheel Angular Speed FR,Wheel Angular Speed RL,Wheel Angular Speed RR,Wind Direction,Wind Speed
0,0.0,0.0,0.0,1.0,1.0,0.0,0.0,1.0,0.0,0.0,1.0,1.1856,26.0,0.0,0.0,0.0,59.99999,0.0,26.0,26.0,26.0,26.0,-0.07224999999999993,0.30510000000000015,0.02606666666666667,293.823,-2.71895,-2.65125,-1.5188000000000001,-1.5563,-275.48,216.305,190.98625,0.0,0.0,0.0,0.0,0.0017000000000000001,-5.498166666666667,-5.498166666666667,-0.544,1.552,-0.008000000000000007,-1.544,65.53,-0.034399999999999986,-0.211675,0.976,100.0,1.0,1.0,202.29333333333335,0.0,0.0,0.0,0.0,0.0,0.0,0.0,8574.5,0.0,55.0,5.0,235.87666666666667,0.0,0.0,0.0,0.0,0.0,0.0,0.0,0.0,0.006000000000000227,0.006000000000000227,0.0,0.0,0.0,55.0,616.79921,10000.0,85.0,85.0,85.0,85.0,395.0,0.0,0.0,0.0,1.0,20.0,52.597,52.597,49.225,49.225,34.0,-25.6875,23.082,-30.947499999999998,25.095,0.0,1783.638,0.7199999999999989,100.0,27.688,27.326,40.541,40.671,0.0,0.0,100.0,0.0,0.0,0.0,0.0,2960.875,3327.0,4233.375,3985.7,305.8605,304.1213333333333,314.6195,314.8655,21.7608,20.5056,21.8091,21.3215,314.99999,314.99999,324.99998,324.99998,99.558,99.50698333333334,99.56708571428571,99.54561428571428,0.0030000000000001137,-0.12066666666666659,-0.151,0.06816666666666667,-0.051666666666669414,-0.051666666666669414,1.5295,1.566,37.004999999999995,29.16,37.307,34.2595,55.969,34.298,59.6935,51.772999999999996,53.92,33.5155,58.304,50.1195,53.111999999999995,33.118,58.2725,49.538,-0.013500000000000068,-0.13050000000000006,0.10072,0.10909,0.0,205.365,205.265,202.29333333333335,202.29333333333335,0.0,0.0
1,0.0,0.0,0.0,1.0,1.0,0.0,0.0,1.0,0.0,0.0,1.0,1.1856,26.0,0.0,0.0,0.0,59.999996,0.0,26.0,26.0,26.0,26.0,-0.11312500000000003,0.3118000000000001,0.032600000000000004,292.969,-2.63145,-2.7647500000000003,-1.5269,-1.5516,-272.13,216.3,190.966125,0.0,0.0,0.0,0.0,0.0036666666666666666,-5.498166666666667,-5.498166666666667,-0.5041,-0.7595000000000001,-0.05500000000000016,-0.40200000000000014,65.684,-0.0484,-0.20475000000000002,1.3000000000000007,100.0,1.0,1.0,202.48333333333335,0.0,0.0,0.0,0.0,0.0,0.0,0.0,8582.5,0.0,55.0,5.0,236.43333333333334,1.0,0.0,0.0,0.0,0.0,0.0,0.0,0.0,0.05699999999999861,0.05699999999999861,0.0,0.0,1.0,55.0,616.79921,10000.0,85.000001,85.000001,85.000001,85.000001,395.0,0.0,0.0,0.0,1.0,166.665,53.314,53.314,48.385999999999996,48.385999999999996,34.0,-26.7,18.496,-34.03,29.6375,0.0,1783.588,0.8850000000000016,100.0,27.8,27.137,42.676,41.766,0.0,0.0,100.0,0.0,0.0,0.0,0.0,3067.75,2730.9,4296.875,4688.6,305.41,306.144,314.32525,313.179,21.770699999999998,20.5106,21.82,21.3307,314.999998,314.999998,324.999988,324.999988,99.55801428571428,99.50701666666667,99.56724285714286,99.54575714285714,-0.009333333333333194,-0.137,-0.181,0.04683333333333334,-0.05333333333332746,-0.03499999999999659,1.4050000000000002,1.4473333333333334,37.067,29.191666666666666,37.375,34.317,55.953,34.338499999999996,59.737,51.8375,53.905,33.5525,58.3445,50.1815,53.096000000000004,33.1535,58.31,49.599000000000004,-0.006999999999999895,-0.14749999999999996,0.10905500000000001,0.11291000000000001,0.0,205.8,205.67000000000002,202.48333333333335,202.48333333333335,0.0,0.0
2,0.0,0.0,0.0,1.0,1.0,0.0,0.0,1.0,0.0,0.0,1.0,1.1856,26.0,0.0,0.0,0.0,59.999996,0.0,26.0,26.0,26.0,26.0,-0.13587499999999997,0.3037000000000001,-0.07373333333333335,293.564,-2.61045,-2.7815000000000003,-1.4978,-1.5979999999999999,-268.58,216.29000000000002,190.946125,0.0,0.0,0.0,0.0,0.005733333333333334,-5.498166666666667,-5.498166666666667,-0.5503,0.5165,-0.035250000000000004,2.596,65.83500000000001,-0.07009999999999994,-0.2524,1.556000000000001,100.0,1.0,1.0,203.40666666666667,0.0,0.0,0.0,0.0,0.0,0.0,0.0,8621.6,0.0,55.0,5.0,236.9766666666667,0.0,0.0,0.0,0.0,0.0,0.0,0.0,0.0,0.11100000000000065,0.11100000000000065,0.0,0.0,0.0,55.0,616.79921,10000.0,85.000001,85.000001,85.000001,85.000001,395.0,0.0,0.0,0.0,1.0,166.665,52.231,52.231,50.11,50.11,34.0,-28.92,20.628,-28.84,21.53,0.0,1783.534,0.754999999999999,100.0,28.583,27.155,42.46,41.292,0.0,0.0,100.0,0.0,0.0,0.0,0.0,3237.125,3036.2,3728.625,3826.8,304.79,305.219,315.72675,315.43625,21.781399999999998,20.5159,21.8312,21.3399,314.999998,314.999998,324.999988,324.999988,99.55802857142857,99.50703333333334,99.56738571428572,99.5459,-0.021666666666666723,-0.14700000000000002,-0.21333333333333335,0.02,-0.05333333333332746,-0.07000000000000028,1.6135000000000002,1.6876666666666666,37.134,29.224666666666664,37.445,34.3745,55.941,34.381,59.7745,51.897,53.893,33.592,58.3795,50.2385,53.084,33.191,58.342,49.655,-0.014499999999999957,-0.137,0.10259000000000001,0.10973500000000001,0.0,206.29000000000002,206.18,203.40666666666667,203.40666666666667,0.0,0.0
3,0.0,0.0,0.0,1.0,1.0,0.0,0.0,1.0,0.0,0.0,1.0,1.1856,26.0,0.0,0.0,0.0,59.999996,0.0,26.0,26.0,26.0,26.0,-0.12524999999999997,0.3013000000000001,0.0858,293.381,-2.72595,-2.6942500000000003,-1.5124,-1.5945,-265.42,216.28,190.927625,0.0,0.0,0.0,0.0,0.007566666666666668,-5.498166666666667,-5.498166666666667,-0.5104000000000001,-0.009000000000000001,-0.011249999999999982,-0.13199999999999967,65.979,-0.0826,-0.202375,1.1660000000000004,100.0,1.0,1.0,203.52666666666667,0.0,0.0,0.0,0.0,0.0,0.0,0.0,8626.8,0.0,55.0,5.0,237.49333333333334,1.0,0.0,0.0,0.0,0.0,0.0,0.0,0.0,0.15899999999999892,0.15899999999999892,0.0,0.0,1.0,55.0,616.79921,10000.0,85.000001,85.000001,85.000001,85.000001,395.0,0.0,0.0,0.0,1.0,166.665,53.558,53.558,48.035,48.035,34.0,-25.0275,18.652,-34.817499999999995,25.6675,0.0,1783.486,0.6400000000000006,100.0,27.99,27.001,42.568,41.514,0.0,0.0,100.0,0.0,0.0,0.0,0.0,2824.875,2883.9,4288.625,4276.9,306.2015,305.66833333333335,314.3355,314.24325,21.7906,20.5208,21.8412,21.348399999999998,314.999998,314.999998,324.999988,324.999988,99.55802857142857,99.50705,99.56751428571428,99.54604285714285,-0.01200000000000001,-0.1486666666666666,-0.20533333333333334,0.025333333333333333,-0.04999999999999716,-0.061666666666667425,1.456,1.512,37.191,29.254666666666665,37.507,34.4275,55.925,34.4215,59.8105,51.9565,53.878,33.629,58.4135,50.295500000000004,53.068,33.2265,58.373,49.71066666666667,-0.03149999999999986,-0.12749999999999995,0.104705,0.10893000000000001,0.0,206.715,206.63,203.52666666666667,203.52666666666667,0.0,0.0
4,0.0,0.0,0.0,1.0,1.0,0.0,0.0,1.0,0.0,0.0,1.0,1.1856,26.0,0.0,0.0,0.0,59.999996,0.0,26.0,26.0,26.0,26.0,-0.146625,0.2852000000000001,-0.0329,293.625,-2.65745,-2.74475,-1.5262,-1.6011000000000002,-262.24,216.265,190.909125,0.0,0.0,0.0,0.0,0.0094,-5.498166666666667,-5.498166666666667,-0.5482,-0.7395,-0.07737499999999997,-0.4740000000000002,66.11500000000001,-0.08299999999999996,-0.2409,1.0700000000000003,100.0,1.0,1.0,204.13,0.0,0.0,0.0,0.0,0.0,0.0,0.0,8652.3,0.0,55.0,5.0,237.98666666666668,0.0,0.0,0.0,0.0,0.0,0.0,0.0,0.0,0.20700000000000074,0.20700000000000074,0.0,0.0,0.0,55.0,616.79921,10000.0,85.000001,85.000001,85.000001,85.000001,395.0,0.0,0.0,0.0,1.0,166.665,52.917,52.917,48.935,48.935,34.0,-28.735,20.112000000000002,-31.695,21.1375,0.0,1783.437,0.5949999999999989,100.0,27.882,26.803,42.829,41.435,0.0,0.0,100.0,0.0,0.0,0.0,0.0,3221.375,2997.6,4021.75,3676.0,305.048,305.325,314.96575,315.6975,21.7997,20.5256,21.8513,21.3567,314.999998,314.999998,324.999988,324.999988,99.55802857142857,99.50706666666666,99.56765714285714,99.54617142857143,-0.01766666666666672,-0.14500000000000002,-0.20133333333333334,0.025166666666666667,-0.04999999999999716,-0.051666666666669414,1.576,1.6146666666666667,37.248000000000005,29.284666666666666,37.57,34.4795,55.909,34.460499999999996,59.8475,52.01,53.863,33.665,58.448,50.347,53.052,33.260999999999996,58.4055,49.76133333333333,-0.03249999999999997,-0.121,0.107365,0.10162500000000001,0.0,207.115,207.015,204.13,204.13,0.0,0.0
5,0.0,0.0,0.0,1.0,1.0,0.0,0.0,1.0,0.0,0.0,1.0,1.1856,26.0,0.0,0.0,0.0,59.999996,0.0,26.0,26.0,26.0,26.0,-0.12924999999999998,0.2966,-0.0001666666666666667,293.533,-2.672,-2.7640000000000002,-1.5123,-1.5842,-258.67,216.245,190.8875,0.0,0.0,0.0,0.0,0.0115,-5.498166666666667,-5.498166666666667,-0.5345,0.364,-0.07687500000000025,1.2140000000000004,66.272,-0.0837,-0.21265,0.96,100.0,1.0,1.0,204.49333333333334,0.0,0.0,0.0,0.0,0.0,0.0,0.0,8667.7,0.0,55.0,5.0,238.54666666666668,1.0,0.0,0.0,0.0,0.0,0.0,0.0,0.0,0.26099999999999923,0.26099999999999923,0.0,0.0,1.0,55.0,616.79921,10000.0,85.000001,85.000001,85.000001,85.000001,395.0,0.0,0.0,0.0,1.0,166.665,53.391,53.391,48.828,48.828,34.0,-26.84,20.154,-33.32,23.92,0.0,1783.384,0.245000000000001,100.0,27.918,26.656,42.637,41.155,0.0,0.0,100.0,0.0,0.0,0.0,0.0,3097.75,2870.7,4187.375,4141.2,305.3275,305.75666666666666,314.63675,314.62175,21.810299999999998,20.5309,21.8624,21.366,314.999998,314.999998,324.999988,324.999988,99.55802857142857,99.50708333333333,99.56781428571429,99.54631428571429,0.003666666666666707,-0.12166666666666659,-0.20283333333333334,0.015833333333333335,-0.02833333333332888,-0.036666666666668846,1.5185,1.534,37.314,29.318333333333335,37.64,34.5375,55.894,34.504,59.888,52.0715,53.849000000000004,33.705,58.486,50.4055,53.037,33.299,58.44,49.818666666666665,-0.05600000000000005,-0.09100000000000019,0.10444,0.10115500000000001,0.0,207.62,207.53,204.49333333333334,204.49333333333334,0.0,0.0
6,0.0,0.0,0.0,1.0,1.0,0.0,0.0,1.0,0.0,0.0,1.0,1.1856,26.0,0.0,0.0,0.0,59.999996,0.0,26.0,26.0,26.0,26.0,-0.11262499999999998,0.27960000000000007,0.008266666666666667,293.427,-2.63985,-2.7955,-1.5566,-1.5827,-255.49,216.225,190.868125,0.0,0.0,0.0,0.0,0.013333333333333334,-5.498166666666667,-5.498166666666667,-0.5317000000000001,0.111,-0.059499999999999886,0.9240000000000004,66.40899999999999,-0.07789999999999997,-0.21602500000000002,0.6479999999999997,100.0,1.0,1.0,204.95,0.0,0.0,0.0,0.0,0.0,0.0,0.0,8687.1,0.0,55.0,5.0,239.04000000000002,0.0,0.0,0.0,0.0,0.0,0.0,0.0,0.0,0.30900000000000105,0.30900000000000105,0.0,0.0,0.0,55.0,616.79921,10000.0,85.000001,85.000001,85.000001,85.000001,395.0,0.0,0.0,0.0,1.0,166.665,53.162,53.162,48.691,48.691,34.0,-26.0175,21.387999999999998,-32.4625,24.3825,0.0,1783.336,-0.054999999999999716,100.0,27.861,26.791,42.771,41.508,0.0,0.0,100.0,0.0,0.0,0.0,0.0,3081.125,2963.4,4083.25,4068.5,305.3355,305.3826666666667,314.8875,314.79575,21.8196,20.5358,21.8725,21.3745,314.999998,314.999998,324.999988,324.999988,99.55802857142857,99.5071,99.56794285714285,99.54644285714286,0.014333333333333087,-0.1193333333333334,-0.19433333333333336,0.036000000000000004,-0.04333333333332945,-0.045000000000001705,1.5265,1.5513333333333335,37.372,29.348666666666666,37.703,34.5905,55.881,34.542500000000004,59.924,52.1285,53.836,33.7405,58.519,50.460499999999996,53.024,33.332499999999996,58.4705,49.87233333333333,-0.07250000000000001,-0.07799999999999985,0.10686000000000001,0.10497500000000001,0.0,208.04500000000002,207.97500000000002,204.95,204.95,0.0,0.0
7,0.0,0.0,0.0,1.0,1.0,0.0,0.0,1.0,0.0,0.0,1.0,1.1856,26.0,0.0,0.0,0.0,59.999996,0.0,26.0,26.0,26.0,26.0,-0.06962499999999994,0.2795000000000001,0.046700000000000005,293.213,-2.61135,-2.728625,-1.5161,-1.6217000000000001,-252.29,216.2025,190.848875,0.0,0.0,0.0,0.0,0.0152,-5.498166666666667,-5.498166666666667,-0.5349,0.058,-0.04712499999999986,1.146,66.54599999999999,-0.061899999999999955,-0.22457500000000002,0.34799999999999986,100.0,1.0,1.0,205.35000000000002,0.0,0.0,0.0,0.0,0.0,0.0,0.0,8704.0,0.0,55.0,5.0,239.5366666666667,1.0,0.0,0.0,0.0,0.0,0.0,0.0,0.0,0.3569999999999993,0.3569999999999993,0.0,0.0,1.0,55.0,616.79921,10000.0,85.000001,85.000001,85.000001,85.000001,395.0,0.0,0.0,0.0,1.0,166.665,52.795,52.795,48.843,48.843,34.0,-25.835,22.674,-30.335,26.197499999999998,0.0,1783.288,-0.18499999999999872,100.0,27.979,26.855,42.788,41.763,0.0,0.0,100.0,0.0,0.0,0.0,0.0,3160.875,3044.8,4022.875,4083.7,305.038,305.12966666666665,314.98725,314.6975,21.8288,20.5406,21.8824,21.3829,314.999998,314.999998,324.999988,324.999988,99.55804285714285,99.5071,99.56807142857143,99.54658571428571,0.032333333333333325,-0.09066666666666656,-0.17066666666666666,0.056,-0.036666666666668846,-0.04833333333333201,1.516,1.5356666666666667,37.43,29.378999999999998,37.765,34.6435,55.867999999999995,34.5805,59.9595,52.1855,53.823,33.775,58.5525,50.515,53.01,33.3655,58.501,49.925666666666665,-0.08299999999999996,-0.06300000000000017,0.10560000000000001,0.10586500000000001,0.0,208.44,208.405,205.35000000000002,205.35000000000002,0.0,0.0
8,0.0,0.0,0.0,1.0,1.0,0.0,0.0,1.0,0.0,0.0,1.0,1.1856,26.0,0.0,0.0,0.0,59.999996,0.0,26.0,26.0,26.0,26.0,-0.03474999999999995,0.2825,0.02676666666666667,293.488,-2.69545,-2.723625,-1.4978,-1.5744,-248.7,216.175,190.827125,0.0,0.0,0.0,0.0,0.017266666666666666,-5.498166666666667,-5.498166666666667,-0.5388000000000001,-0.6535,-0.03200000000000003,0.6399999999999997,66.7,-0.042300000000000004,-0.217875,-0.06599999999999984,100.0,1.0,1.0,205.76999999999998,0.0,0.0,0.0,0.0,0.0,0.0,0.0,8721.9,0.0,55.0,5.0,240.09333333333333,0.0,0.0,0.0,0.0,0.0,0.0,0.0,0.0,0.41100000000000136,0.41100000000000136,0.0,0.0,0.0,55.0,616.79921,10000.0,85.000001,85.000001,85.000001,85.000001,395.0,0.0,0.0,0.0,1.0,166.665,53.513,53.513,48.294,48.294,34.0,-23.91,23.508,-28.915,26.84,0.0,1783.235,-0.34999999999999787,100.0,27.478,26.779,42.774,41.913,0.0,0.0,100.0,0.0,0.0,0.0,0.0,2969.625,3036.8,4057.25,4094.7,305.837,305.2423333333333,314.8725,314.6585,21.8389,20.5461,21.8937,21.3925,314.999998,314.999998,324.999988,324.999988,99.55804285714285,99.50711666666666,99.56822857142858,99.54672857142857,0.046666666666666856,-0.06499999999999995,-0.1395,0.07816666666666668,-0.041666666666671404,-0.046666666666666856,1.5150000000000001,1.5236666666666667,37.492999999999995,29.413,37.835,34.703,55.849999999999994,34.621,59.999,52.249,53.807,33.8125,58.5895,50.576,52.992999999999995,33.4015,58.535,49.98533333333333,-0.09299999999999997,-0.040999999999999925,0.10214000000000001,0.105385,0.0,208.885,208.88,205.76999999999998,205.76999999999998,0.0,0.0
9,0.0,0.0,0.0,1.0,1.0,0.0,0.0,1.0,0.0,0.0,1.0,1.1856,26.0,0.0,0.0,0.0,59.999996,0.0,26.0,26.0,26.0,26.0,-0.017000000000000015,0.29280000000000017,-0.014366666666666666,293.106,-2.6877,-2.719125,-1.5569000000000002,-1.5529000000000002,-245.69,216.15,190.8085,0.0,0.0,0.0,0.0,0.019033333333333336,-5.498166666666667,-5.498166666666667,-0.5414,0.7045,-0.033500000000000085,-0.3540000000000001,66.826,-0.02399999999999991,-0.21595,-0.1479999999999997,100.0,1.0,1.0,206.26666666666665,0.0,0.0,0.0,0.0,0.0,0.0,0.0,8742.9,0.0,55.0,5.0,240.54333333333335,1.0,0.0,0.0,0.0,0.0,0.0,0.0,0.0,0.4559999999999995,0.4559999999999995,0.0,0.0,1.0,55.0,616.79921,10000.0,85.000001,85.000001,85.000001,85.000001,395.0,0.0,0.0,0.0,1.0,333.33500000000004,52.383,52.383,49.194,49.194,34.0,-26.607499999999998,23.862000000000002,-29.13,26.3375,0.0,1783.188,-0.46999999999999886,100.0,27.871,27.363,42.358000000000004,41.961,0.0,0.0,100.0,0.0,0.0,0.0,0.0,3378.125,3001.8,4023.5,4054.4,304.653,305.0966666666667,315.151,314.80025,21.8475,20.5508,21.9029,21.4003,314.999998,314.999998,324.999988,324.999988,99.55805714285714,99.50713333333333,99.56835714285714,99.54685714285715,0.06933333333333369,-0.05499999999999994,-0.14400000000000002,0.084,-0.04333333333332945,-0.060000000000002274,1.5655000000000001,1.5636666666666668,37.547,29.442666666666668,37.893,34.751999999999995,55.84,34.656,60.028999999999996,52.3005,53.797,33.8445,58.6175,50.6255,52.982,33.432,58.56,50.034,-0.11199999999999988,-0.03500000000000014,0.11189,0.10415500000000001,0.0,209.3,209.31,206.26666666666665,206.26666666666665,0.0,0.0
10,0.0,0.0,0.0,1.0,1.0,0.0,0.0,1.0,0.0,0.0,1.0,1.1856,26.0,0.0,0.0,0.0,59.999996,0.0,26.0,26.0,26.0,26.0,0.009749999999999925,0.2964,0.05776666666666667,292.999,-2.66255,-2.698625,-1.5390000000000001,-1.5325,-242.28,216.1225,190.78775,0.0,0.0,0.0,0.0,0.021,-5.498166666666667,-5.498166666666667,-0.5219,-0.6355000000000001,0.013749999999999929,1.771,66.97200000000001,-0.0033999999999999586,-0.207625,-0.5360000000000005,100.0,1.0,1.0,206.50333333333333,0.0,0.0,0.0,0.0,0.0,0.0,0.0,8752.9,0.0,55.0,5.0,241.07333333333332,0.0,0.0,0.0,0.0,0.0,0.0,1.0,0.0,0.5069999999999979,0.5069999999999979,0.0,0.0,0.0,55.0,616.79921,10000.0,85.000001,85.000001,85.000001,85.000001,395.0,0.0,0.0,0.0,1.0,333.33500000000004,53.467,53.467,47.623,47.623,34.0,-20.315,23.89,-29.1225,30.8875,0.0,1783.137,-0.5749999999999993,100.0,27.78,27.167,42.919,42.664,0.0,0.0,100.0,0.0,0.0,0.0,0.0,2800.25,2989.5,4218.375,4327.4,306.2335,305.37833333333333,314.47525,314.1245,21.8571,20.5561,21.9136,21.4095,314.999998,314.999998,324.999988,324.999988,99.55805714285714,99.50713333333333,99.5685,99.547,0.09600000000000009,-0.03966666666666663,-0.10333333333333333,0.12516666666666668,-0.04833333333333201,-0.05333333333332746,1.4849999999999999,1.4636666666666667,37.607,29.47533333333333,37.96,34.8095,55.827,34.695,60.070499999999996,52.368,53.784,33.8805,58.656,50.6905,52.968,33.466499999999996,58.5955,50.09733333333333,-0.12250000000000005,-0.033500000000000085,0.10924,0.11581000000000001,0.0,209.735,209.75,206.50333333333333,206.50333333333333,0.0,0.0
11,0.0,0.0,0.0,1.0,1.0,0.0,0.0,1.0,0.0,0.0,1.0,1.1856,26.0,0.0,0.0,0.0,59.999996,0.0,26.0,26.0,26.0,26.0,0.04937499999999995,0.2761,-0.10110000000000001,293.457,-2.7082,-2.681875,-1.5913,-1.5235,-238.86,216.095,190.766875,0.0,0.0,0.0,0.0,0.022600000000000002,-5.498166666666667,-5.498166666666667,-0.5615,-0.078,0.03137499999999993,-0.8120000000000003,67.111,0.01639999999999997,-0.235775,-0.637999999999999,100.0,1.0,1.0,207.24666666666667,0.0,0.0,0.0,0.0,0.0,0.0,0.0,8784.5,0.0,55.0,5.0,241.57,1.0,0.0,0.0,0.0,0.0,0.0,1.0,0.0,0.5579999999999998,0.5579999999999998,0.0,0.0,1.0,55.0,616.79921,10000.0,85.000001,85.000001,85.000001,85.000001,395.0,0.0,0.0,0.0,1.0,166.665,52.765,52.765,49.194,49.194,34.0,-22.255,25.734,-24.439999999999998,26.6725,0.0,1783.088,-0.6099999999999994,100.0,27.484,27.633,42.309,42.650999999999996,0.0,0.0,100.0,0.0,0.0,0.0,0.0,3090.875,3088.3,3732.25,3855.3,305.5385,304.8353333333333,315.8345,315.27,21.8665,20.5615,21.924,21.4185,314.999998,314.999998,324.999988,324.999988,99.55807142857142,99.50713333333333,99.56862857142858,99.54714285714286,0.11366666666666658,-0.021333333333333315,-0.0925,0.136,-0.051666666666669414,-0.045000000000001705,1.6405000000000003,1.6139999999999999,37.666,29.509333333333334,38.025,34.866,55.814,34.7315,60.1005,52.423500000000004,53.772,33.914,58.683,50.7435,52.955,33.4985,58.62,50.14966666666667,-0.12749999999999995,-0.03100000000000014,0.10793000000000001,0.102885,0.0,210.15,210.18,207.24666666666667,207.24666666666667,0.0,0.0
12,0.0,0.0,0.0,1.0,1.0,0.0,0.0,1.0,0.0,0.0,1.0,1.1856,26.0,0.0,0.0,0.0,59.999996,0.0,26.0,26.0,26.0,26.0,0.06412499999999999,0.2845,0.0371,292.847,-2.7603,-2.678875,-1.5573000000000001,-1.5272000000000001,-235.64,216.07,190.746125,0.0,0.0,0.0,0.0,0.025466666666666665,-5.498166666666667,-5.498166666666667,-0.5449,0.28350000000000003,0.016874999999999973,-0.7789999999999999,67.248,0.03069999999999995,-0.20600000000000002,-0.5939999999999994,100.0,1.0,1.0,207.42666666666668,0.0,0.0,0.0,0.0,0.0,0.0,0.0,8792.1,0.0,55.0,5.0,242.06333333333333,0.0,0.0,0.0,0.0,0.0,0.0,1.0,0.0,0.6059999999999981,0.6059999999999981,0.0,0.0,0.0,55.0,616.79921,10000.0,85.000001,85.000001,85.000001,85.000001,395.0,0.0,0.0,0.0,1.0,166.665,52.734,52.734,47.821,47.821,34.0,-22.985,26.15,-27.5875,31.31,0.0,1783.04,-0.6449999999999996,100.0,27.363,27.781,42.313,42.634,0.0,0.0,100.0,0.0,0.0,0.0,0.0,3138.75,3105.1,4254.25,4184.7,305.4375,304.8106666666667,314.5645,314.44225,21.8754,20.5666,21.934,21.427,314.999998,314.999998,324.999988,324.999988,99.55808571428571,99.50713333333333,99.56877142857142,99.54727142857143,0.1163333333333334,-0.013333333333333308,-0.07150000000000001,0.159,-0.046666666666666856,-0.04333333333332945,1.5195000000000003,1.4876666666666667,37.721000000000004,29.541666666666664,38.087,34.919,55.803,34.7675,60.1345,52.4805,53.760999999999996,33.947,58.7155,50.798500000000004,52.944,33.5305,58.6495,50.20333333333333,-0.12149999999999994,-0.028500000000000192,0.10446000000000001,0.11642500000000001,0.0,210.585,210.625,207.42666666666668,207.42666666666668,0.0,0.0
13,0.0,0.0,0.0,1.0,1.0,0.0,0.0,1.0,0.0,0.0,1.0,1.1856,26.0,0.0,0.0,0.0,59.999996,0.0,26.0,26.0,26.0,26.0,0.06499999999999995,0.27580000000000005,0.056966666666666665,292.496,-2.7352,-2.673875,-1.5934,-1.5079,-232.2,216.04500000000002,190.724375,0.0,0.0,0.0,0.0,0.02686666666666667,-5.498166666666667,-5.498166666666667,-0.539,-0.09,0.02574999999999994,1.0250000000000004,67.39,0.03510000000000013,-0.216225,-0.8099999999999996,100.0,1.0,1.0,207.82,0.0,0.0,0.0,0.0,0.0,0.0,0.0,8808.7,0.0,55.0,5.0,242.57333333333332,1.0,0.0,0.0,0.0,0.0,0.0,1.0,0.0,0.657,0.657,0.0,0.0,1.0,55.0,616.79921,10000.0,85.000001,85.000001,85.000001,85.000001,395.0,0.0,0.0,0.0,1.0,333.33500000000004,52.414,52.414,47.836,47.836,34.0,-20.845,28.176000000000002,-26.73,33.04,0.0,1782.988,-0.9149999999999991,100.0,27.838,27.828,42.633,43.056,0.0,0.0,100.0,0.0,0.0,0.0,0.0,3051.75,3192.9,4131.125,4365.0,305.49,304.71066666666667,314.74,314.068,21.884999999999998,20.5722,21.9446,21.4362,314.999998,314.999998,324.999988,324.999988,99.5581,99.50713333333333,99.56891428571429,99.54742857142857,0.14866666666666672,0.02100000000000013,-0.058833333333333335,0.16616666666666666,-0.03166666666666629,-0.03833333333332689,1.4905,1.4696666666666667,37.781,29.576,38.153999999999996,34.9765,55.794,34.806,60.171,52.544,53.751999999999995,33.983000000000004,58.749,50.86,52.933,33.564499999999995,58.6795,50.263666666666666,-0.14749999999999996,-0.008000000000000007,0.10678000000000001,0.10945,0.0,211.005,211.065,207.82,207.82,0.0,0.0
14,0.0,0.0,0.0,1.0,1.0,0.0,0.0,1.0,0.0,0.0,1.0,1.1856,26.0,0.0,0.0,0.0,59.999996,0.0,26.0,26.0,26.0,26.0,0.08987499999999993,0.28180000000000005,-0.007666666666666667,292.801,-2.73225,-2.675,-1.6011000000000002,-1.514,-228.56,216.0225,190.701875,0.0,0.0,0.0,0.0,0.029,-5.498166666666667,-5.498166666666667,-0.5489,-0.079,0.05412499999999998,1.109,67.538,0.04940000000000011,-0.227975,-1.0939999999999994,100.0,1.0,1.0,208.36333333333334,0.0,0.0,0.0,0.0,0.0,0.0,0.0,8831.8,0.0,55.0,5.0,243.10666666666668,0.0,0.0,0.0,0.0,0.0,0.0,1.0,0.0,0.7109999999999985,0.7109999999999985,0.0,0.0,0.0,55.0,616.79921,10000.0,85.000001,85.000001,85.000001,85.000001,395.0,0.0,0.0,0.0,1.0,166.665,52.612,52.612,48.08,48.08,34.0,-19.1425,29.142,-24.5175,32.035,0.0,1782.934,-0.9800000000000004,100.0,27.69,27.905,42.54,43.234,0.0,0.0,100.0,0.0,0.0,0.0,0.0,2907.0,3244.5,3943.75,4197.5,305.909,304.474,315.2475,314.4395,21.895,20.578,21.9558,21.4459,314.999998,314.999998,324.999988,324.999988,99.55811428571428,99.50715,99.56905714285715,99.54757142857143,0.16233333333333366,0.02866666666666684,-0.049,0.1785,-0.03499999999999659,-0.07333333333333059,1.572,1.5236666666666667,37.844,29.612666666666666,38.223,35.037,55.784,34.847,60.207499999999996,52.6095,53.742000000000004,34.0205,58.7825,50.923,52.922,33.601,58.71,50.32566666666666,-0.15300000000000002,-0.0015000000000000568,0.1102,0.11136000000000001,0.0,211.46,211.54000000000002,208.36333333333334,208.36333333333334,0.0,0.0
15,0.0,0.0,0.0,1.0,1.0,0.0,0.0,1.0,0.0,0.0,1.0,1.1856,26.0,0.0,0.0,0.0,59.999996,0.0,26.0,26.0,26.0,26.0,0.11487500000000006,0.27880000000000016,0.029900000000000003,292.816,-2.74695,-2.6332500000000003,-1.6268,-1.514,-225.32,216.0025,190.6815,0.0,0.0,0.0,0.0,0.03086666666666667,-5.498166666666667,-5.498166666666667,-0.5386000000000001,0.17200000000000001,0.08325000000000005,0.6120000000000001,67.67,0.06610000000000005,-0.2068,-1.2560000000000002,100.0,1.0,1.0,208.73000000000002,0.0,0.0,0.0,0.0,0.0,0.0,0.0,8847.4,0.0,55.0,5.0,243.58333333333334,1.0,0.0,0.0,0.0,0.0,0.0,1.0,0.0,0.7590000000000003,0.7590000000000003,0.0,0.0,1.0,55.0,616.79921,10000.0,85.000001,85.000001,85.000001,85.000001,395.0,0.0,0.0,0.0,1.0,166.665,52.872,52.872,48.096000000000004,48.096000000000004,34.0,-17.974999999999998,28.604,-24.009999999999998,35.4275,0.0,1782.888,-0.9349999999999987,100.0,27.65,27.944,42.291,43.352000000000004,0.0,0.0,100.0,0.0,0.0,0.0,0.0,2776.625,3204.5,3987.625,4394.6,306.3435,304.603,315.25425,313.959,21.9039,20.5832,21.9656,21.4546,314.999998,314.999998,324.999988,324.999988,99.55814285714285,99.50715,99.5692,99.54771428571429,0.16866666666666674,0.034666666666666845,-0.025666666666666667,0.20400000000000001,-0.03833333333332689,-0.05666666666667197,1.5415,1.4896666666666667,37.899,29.645,38.285,35.091,55.775,34.884,60.2385,52.669,53.733999999999995,34.0545,58.811,50.980000000000004,52.913,33.6335,58.7355,50.38166666666667,-0.14900000000000002,-0.00649999999999995,0.10450000000000001,0.11213000000000001,0.0,211.87,211.95,208.73000000000002,208.73000000000002,0.0,0.0
16,0.0,0.0,0.0,1.0,1.0,0.0,0.0,1.0,0.0,0.0,1.0,1.1856,26.0,0.0,0.0,0.0,59.999996,0.0,26.0,26.0,26.0,26.0,0.12074999999999991,0.27670000000000017,-0.010233333333333334,292.801,-2.80365,-2.58325,-1.5995,-1.5148000000000001,-222.06,215.985,190.66075,0.0,0.0,0.0,0.0,0.03276666666666667,-5.498166666666667,-5.498166666666667,-0.5626,-0.6910000000000001,0.07000000000000006,0.11099999999999977,67.801,0.07889999999999997,-0.226475,-1.2960000000000003,100.0,1.0,1.0,209.16333333333333,0.0,0.0,0.0,0.0,0.0,0.0,0.0,8865.6,0.0,55.0,5.0,244.05666666666667,0.0,0.0,0.0,0.0,0.0,0.0,1.0,0.0,0.8069999999999986,0.8069999999999986,0.0,0.0,0.0,55.0,616.79921,10000.0,85.000001,85.000001,85.000001,85.000001,395.0,0.0,0.0,0.0,1.0,166.665,52.612,52.612,47.958,47.958,34.0,-19.7475,29.759999999999998,-22.512500000000003,33.650000000000006,0.0,1782.839,-0.8299999999999983,100.0,27.355,28.023,42.53,43.414,0.0,0.0,100.0,0.0,0.0,0.0,0.0,2977.875,3331.8,3901.125,4143.5,305.8925,304.35,315.32475,314.54625,21.9126,20.5885,21.9755,21.4632,314.999998,314.999998,324.999988,324.999988,99.55815714285714,99.50715,99.56934285714286,99.54785714285714,0.17133333333333356,0.04600000000000004,-0.014333333333333335,0.21816666666666668,-0.03333333333333144,-0.04999999999999716,1.5705,1.512,37.954,29.677999999999997,38.347,35.144999999999996,55.763999999999996,34.9215,60.2725,52.7265,53.723,34.0895,58.8425,51.0355,52.900999999999996,33.667,58.763999999999996,50.43633333333334,-0.14300000000000002,-0.008500000000000174,0.10716,0.109465,0.0,212.24,212.325,209.16333333333333,209.16333333333333,0.0,0.0
17,0.0,0.0,0.0,1.0,1.0,0.0,0.0,1.0,0.0,0.0,1.0,1.1856,26.0,0.0,0.0,0.0,59.999996,0.0,26.0,26.0,26.0,26.0,0.1316250000000001,0.2772000000000001,0.020266666666666665,292.389,-2.76735,-2.5608750000000002,-1.6421999999999999,-1.4762,-218.6,215.97,190.638125,0.0,0.0,0.0,0.0,0.03476666666666667,-5.498166666666667,-5.498166666666667,-0.5492,0.439,0.04800000000000004,-0.5969999999999995,67.941,0.08279999999999998,-0.20575000000000002,-1.0779999999999994,100.0,1.0,1.0,209.51999999999998,0.0,0.0,0.0,0.0,0.0,0.0,0.0,8880.8,0.0,55.0,5.0,244.55666666666667,1.0,0.0,0.0,0.0,0.0,0.0,1.0,0.0,0.8580000000000005,0.8580000000000005,0.0,0.0,1.0,55.0,616.79921,10000.0,85.000001,85.000001,85.000001,85.000001,395.0,0.0,0.0,0.0,1.0,333.33500000000004,52.383,52.383,47.684,47.684,34.0,-20.265,27.144,-26.4375,34.18,0.0,1782.786,-0.8949999999999996,100.0,27.683,28.421,42.291,43.494,0.0,0.0,100.0,0.0,0.0,0.0,0.0,3110.375,3095.1,4293.5,4309.9,305.548,304.89033333333333,314.552,314.20125,21.9221,20.5942,21.986,21.4723,314.999998,314.999998,324.999988,324.999988,99.55818571428571,99.50716666666666,99.56947142857143,99.548,0.17399999999999993,0.040000000000000036,-0.024,0.20733333333333334,-0.04333333333332945,-0.041666666666671404,1.5245000000000002,1.4933333333333334,38.013,29.71366666666667,38.412,35.202,55.757,34.963,60.3055,52.7885,53.716,34.128,58.8735,51.095,52.891999999999996,33.704,58.792,50.49466666666667,-0.14849999999999985,-0.008999999999999897,0.10246000000000001,0.11091500000000001,0.0,212.72,212.79500000000002,209.51999999999998,209.51999999999998,0.0,0.0
18,0.0,0.0,0.0,1.0,1.0,0.0,0.0,1.0,0.0,0.0,1.0,1.1856,26.0,0.0,0.0,0.0,59.999996,0.0,26.0,26.0,26.0,26.0,0.13824999999999998,0.28190000000000004,-0.017666666666666667,292.435,-2.80215,-2.534625,-1.6596000000000002,-1.4193,-215.34,215.96,190.617125,0.0,0.0,0.0,0.0,0.03666666666666667,-5.498166666666667,-5.498166666666667,-0.5609000000000001,-0.5045000000000001,0.07362500000000005,-0.23799999999999955,68.07,0.08240000000000003,-0.22395,-1.2139999999999995,100.0,1.0,1.0,209.96,0.0,0.0,0.0,0.0,0.0,0.0,0.0,8899.4,0.0,55.0,5.0,245.02666666666664,0.0,0.0,0.0,0.0,0.0,0.0,1.0,0.0,0.9059999999999988,0.9059999999999988,0.0,0.0,0.0,55.0,616.79921,10000.0,85.000001,85.000001,85.000001,85.000001,395.0,0.0,0.0,0.0,1.0,166.665,52.261,52.261,47.653,47.653,34.0,-19.855,29.652,-24.77,31.7175,0.0,1782.738,-1.1699999999999982,100.0,27.443,28.311,42.576,43.867000000000004,0.0,0.0,100.0,0.0,0.0,0.0,0.0,3098.875,3302.0,4044.125,4193.5,305.632,304.288,315.0935,314.46825,21.9309,20.5995,21.9959,21.481,314.999998,314.999998,324.999988,324.999988,99.5582,99.50716666666666,99.56961428571428,99.54814285714286,0.18766666666666643,0.05600000000000005,-0.02466666666666667,0.1975,-0.03499999999999659,-0.07000000000000028,1.5665,1.5190000000000001,38.068,29.746666666666666,38.474999999999994,35.2565,55.748000000000005,35.0015,60.339,52.848,53.708,34.1635,58.9045,51.153,52.882999999999996,33.738,58.8195,50.55133333333333,-0.16999999999999993,0.013500000000000068,0.10808000000000001,0.10436000000000001,0.0,213.075,213.17000000000002,209.96,209.96,0.0,0.0
19,0.0,0.0,0.0,1.0,1.0,0.0,0.0,1.0,0.0,0.0,1.0,1.1856,26.0,0.0,0.0,0.0,59.999996,0.0,26.0,26.0,26.0,26.0,0.17237499999999994,0.28600000000000003,0.05923333333333334,291.901,-2.72175,-2.632375,-1.5958999999999999,-1.4020000000000001,-211.66,215.9525,190.593125,0.0,0.0,0.0,0.0,0.0388,-5.498166666666667,-5.498166666666667,-0.5463,0.7735,0.08525000000000005,-0.5599999999999996,68.21600000000001,0.09410000000000007,-0.2091,-1.6399999999999997,100.0,1.0,1.0,210.34333333333333,0.0,0.0,0.0,0.0,0.0,0.0,0.0,8915.7,0.0,55.0,5.0,245.55,1.0,0.0,0.0,0.0,0.0,0.0,1.0,0.0,0.9600000000000009,0.9600000000000009,0.0,0.0,1.0,55.0,616.79921,10000.0,85.000001,85.000001,85.000001,85.000001,395.0,0.0,0.0,0.0,1.0,166.665,51.849000000000004,51.849000000000004,47.318,47.318,34.0,-17.5925,30.614,-24.4625,36.004999999999995,0.0,1782.687,-1.5199999999999996,100.0,27.913,28.855,42.341,43.953,0.0,0.0,100.0,0.0,0.0,0.0,0.0,3052.25,3203.8,4217.625,4507.4,305.609,304.3256666666667,314.64475,313.7275,21.941,20.6056,22.006999999999998,21.4908,314.999998,314.999998,324.999988,324.999988,99.55822857142857,99.50718333333333,99.56975714285714,99.5483,0.21733333333333338,0.07400000000000007,-0.0075,0.22133333333333335,-0.054999999999999716,-0.060000000000002274,1.5150000000000001,1.4456666666666667,38.131,29.785333333333334,38.544,35.317499999999995,55.742999999999995,35.049,60.3735,52.914500000000004,53.702,34.207,58.9365,51.217,52.876000000000005,33.78,58.8485,50.614666666666665,-0.1955,0.03649999999999998,0.10957000000000001,0.10577,0.0,213.56,213.675,210.34333333333333,210.34333333333333,0.0,0.0
20,0.0,0.0,0.0,1.0,1.0,0.0,0.0,1.0,0.0,0.0,1.0,1.1856,26.0,0.0,0.0,0.0,59.999996,0.0,26.0,26.0,26.0,26.0,0.17312499999999997,0.2591000000000001,-0.0626,292.343,-2.8311,-2.577,-1.6059,-1.5171000000000001,-208.38,215.95,190.572125,0.0,0.0,0.0,0.0,0.04073333333333334,-5.498166666666667,-5.498166666666667,-0.5573,-1.181,0.09087500000000004,-0.9199999999999999,68.346,0.1069,-0.22535000000000002,-1.5420000000000007,100.0,1.0,1.0,210.69,0.0,0.0,0.0,0.0,0.0,0.0,0.0,8930.4,0.0,55.0,5.0,246.01999999999998,0.0,0.0,0.0,0.0,0.0,0.0,0.0,0.0,1.0079999999999991,1.0079999999999991,0.0,0.0,0.0,55.0,616.79921,10000.0,85.000001,85.000001,85.000001,85.000001,395.0,0.0,0.0,0.0,1.0,111.11,52.75,52.75,47.012,47.012,34.0,-18.9525,28.172,-22.9825,35.935,0.0,1782.639,-0.6550000000000011,100.0,27.365,28.533,42.781,44.397000000000006,0.0,0.0,100.0,0.0,0.0,0.0,0.0,2843.75,3179.8,4106.0,4268.4,306.3645,304.592,314.85225,314.15,21.9495,20.6109,22.017,21.4996,314.999998,314.999998,324.999988,324.999988,99.55825714285714,99.50718333333333,99.56991428571429,99.54844285714286,0.16966666666666663,0.038999999999999924,0.010333333333333335,0.22966666666666666,-0.03499999999999659,-0.03166666666666629,1.5020000000000002,1.4613333333333334,38.184,29.818333333333335,38.605999999999995,35.3725,55.732,35.088,60.408500000000004,52.976,53.692,34.2435,58.969,51.275999999999996,52.864000000000004,33.814499999999995,58.8775,50.672666666666665,-0.1339999999999999,-0.021500000000000075,0.10762500000000001,0.104315,0.0,213.905,214.025,210.69,210.69,0.0,0.0
21,0.0,0.0,0.0,1.0,1.0,0.0,0.0,1.0,0.0,0.0,1.0,1.1856,26.0,0.0,0.0,0.0,59.999996,0.0,26.0,26.0,26.0,26.0,0.09937499999999999,0.28,-0.06716666666666667,292.542,-2.77475,-2.6,-1.6518000000000002,-1.4967000000000001,-204.89,215.95,190.549,0.0,0.0,0.0,0.0,0.04273333333333333,-5.498166666666667,-5.498166666666667,-0.5770000000000001,0.611,0.05549999999999988,-0.10599999999999987,68.479,0.10460000000000003,-0.220725,-0.6820000000000004,100.0,1.0,1.0,211.31333333333333,0.0,0.0,0.0,0.0,0.0,0.0,0.0,8956.8,0.0,55.0,5.0,246.49666666666667,1.0,0.0,0.0,0.0,0.0,0.0,0.0,0.0,1.059000000000001,1.059000000000001,0.0,0.0,1.0,55.0,616.79921,10000.0,85.000001,85.000001,85.000001,85.000001,395.0,0.0,0.0,0.0,1.0,166.665,52.2,52.2,48.08,48.08,34.0,-21.5975,27.122,-23.3825,33.115,0.0,1782.587,0.375,100.0,27.876,28.483,42.282,43.76,0.0,0.0,100.0,0.0,0.0,0.0,0.0,3000.5,3266.2,4045.5,4079.5,305.699,304.50733333333335,315.113,314.8235,21.9588,20.6167,22.0273,21.5087,314.999998,314.999998,324.999988,324.999988,99.55827142857143,99.5072,99.57004285714285,99.54858571428572,0.1296666666666666,-0.005666666666666598,-0.0013333333333333333,0.233,-0.030000000000001137,-0.07833333333332604,1.5899999999999999,1.562,38.242999999999995,29.854666666666667,38.671,35.429,55.722,35.1295,60.439,53.0345,53.682,34.2815,58.9965,51.333,52.854,33.8515,58.902,50.72866666666667,-0.05600000000000005,-0.10000000000000009,0.10595,0.11045,0.0,214.38,214.465,211.31333333333333,211.31333333333333,0.0,0.0
22,0.0,0.0,0.0,1.0,1.0,0.0,0.0,1.0,0.0,0.0,1.0,1.1856,26.0,0.0,0.0,0.0,59.999996,0.0,26.0,26.0,26.0,26.0,0.055749999999999966,0.2679,-0.0131,292.099,-2.6938,-2.667625,-1.6336,-1.4985,-201.6,215.9525,190.526625,0.0,0.0,0.0,0.0,0.044666666666666674,-5.498166666666667,-5.498166666666667,-0.5568000000000001,0.0275,0.047374999999999945,0.7359999999999998,68.61,0.07220000000000004,-0.20647500000000002,0.2760000000000007,100.0,1.0,1.0,211.51,0.0,0.0,0.0,0.0,0.0,0.0,0.0,8965.2,0.0,55.0,5.0,246.96666666666667,0.0,0.0,0.0,0.0,0.0,0.0,0.0,0.0,1.1069999999999993,1.1069999999999993,0.0,0.0,0.0,55.0,616.79921,10000.0,85.000001,85.000001,85.000001,85.000001,395.0,0.0,0.0,0.0,1.0,166.665,52.383,52.383,47.058,47.058,34.0,-21.419999999999998,25.183999999999997,-27.4075,33.015,0.0,1782.539,0.6600000000000001,100.0,28.057,28.398,42.981,43.914,0.0,0.0,100.0,0.0,0.0,0.0,0.0,2864.625,3165.7,4202.125,4380.9,305.9975,304.731,314.6365,314.102,21.9676,20.6221,22.037399999999998,21.5174,314.999998,314.999998,324.999988,324.999988,99.55828571428572,99.5072,99.57018571428571,99.54874285714286,0.09133333333333349,-0.04566666666666663,-0.050166666666666665,0.16733333333333333,-0.046666666666666856,-0.05833333333333002,1.483,1.4866666666666668,38.298,29.887999999999998,38.733999999999995,35.4835,55.711,35.1665,60.474000000000004,53.094,53.671,34.316,59.0295,51.3905,52.842,33.8845,58.932,50.785,-0.027499999999999858,-0.12849999999999984,0.10648,0.10257000000000001,0.0,214.825,214.815,211.51,211.51,0.0,0.0
23,0.0,0.0,0.0,1.0,1.0,0.0,0.0,1.0,0.0,0.0,1.0,1.1856,26.0,0.0,0.0,0.0,59.999996,0.0,26.0,26.0,26.0,26.0,0.007749999999999924,0.25150000000000006,-0.04243333333333334,292.13,-2.6981,-2.64275,-1.5364,-1.5895000000000001,-198.1,215.95749999999998,190.503125,0.0,0.0,0.0,0.0,0.046700000000000005,-5.498166666666667,-5.498166666666667,-0.5760000000000001,-0.14200000000000002,0.014624999999999888,-1.149,68.743,0.02190000000000003,-0.232375,1.0500000000000007,100.0,1.0,1.0,212.06333333333333,0.0,0.0,0.0,0.0,0.0,0.0,0.0,8988.6,0.0,55.0,5.0,247.45,1.0,0.0,0.0,0.0,0.0,0.0,0.0,0.0,1.1580000000000013,1.1580000000000013,0.0,0.0,1.0,55.0,616.79921,10000.0,85.000001,85.000001,85.000001,85.000001,395.0,0.0,0.0,0.0,1.0,166.665,51.666,51.666,48.187,48.187,34.0,-27.09,22.532,-27.0,27.32,0.0,1782.487,0.7850000000000001,100.0,28.368,28.468,43.209,43.991,0.0,0.0,100.0,0.0,0.0,0.0,0.0,3311.75,3077.5,3952.625,3917.0,304.8585,304.8906666666667,315.25425,315.07075,21.977,20.6277,22.048000000000002,21.5266,314.999998,314.999998,324.999988,324.999988,99.55828571428572,99.50721666666666,99.57032857142858,99.54888571428572,0.049666666666666526,-0.08733333333333337,-0.1095,0.112,-0.04999999999999716,-0.03999999999999915,1.508,1.5463333333333333,38.355999999999995,29.923333333333332,38.8,35.5415,55.698,35.208,60.5085,53.155,53.658,34.3545,59.0615,51.448499999999996,52.828,33.921,58.961,50.842,-0.01550000000000007,-0.14300000000000024,0.10655,0.10612500000000001,0.0,215.245,215.15,212.06333333333333,212.06333333333333,0.0,0.0
24,0.0,0.0,0.0,1.0,1.0,0.0,0.0,1.0,0.0,0.0,1.0,1.1856,26.0,0.0,0.0,0.0,59.999996,0.0,26.0,26.0,26.0,26.0,-0.058374999999999955,0.2793000000000001,-0.0051333333333333335,292.374,-2.6995,-2.67675,-1.5632000000000001,-1.5485,-194.8,215.9625,190.480625,0.0,0.0,0.0,0.0,0.048633333333333334,-5.498166666666667,-5.498166666666667,-0.5798,-0.5660000000000001,0.0021249999999999325,-0.32699999999999996,68.87100000000001,-0.021199999999999997,-0.21645,1.193999999999999,100.0,1.0,1.0,212.33333333333331,0.0,0.0,0.0,0.0,0.0,0.0,0.0,9000.1,0.0,55.0,5.0,247.91,0.0,0.0,0.0,0.0,0.0,0.0,0.0,0.0,1.2059999999999995,1.2059999999999995,0.0,0.0,0.0,55.0,616.79921,10000.0,85.000001,85.000001,85.000001,85.000001,395.0,0.0,0.0,0.0,1.0,166.665,52.887,52.887,47.058,47.058,34.0,-25.2775,20.044,-33.21,26.130000000000003,0.0,1782.438,0.740000000000002,100.0,28.17,28.039,43.503,43.644,0.0,0.0,100.0,0.0,0.0,0.0,0.0,2992.125,2892.7,4354.25,4083.6000000000004,305.8435,305.57,314.31575,314.758,21.9858,20.6328,22.058,21.5352,314.999998,314.999998,324.999988,324.999988,99.5583,99.50721666666666,99.57047142857142,99.54901428571429,0.01866666666666683,-0.1153333333333334,-0.1525,0.07216666666666667,-0.05333333333332746,-0.04999999999999716,1.48,1.5226666666666666,38.411,29.955,38.861999999999995,35.595,55.683,35.2455,60.5435,53.21,53.644,34.388999999999996,59.0935,51.5015,52.813,33.954,58.99,50.894,-0.01949999999999985,-0.13750000000000018,0.10599000000000001,0.11000000000000001,0.0,215.66,215.555,212.33333333333331,212.33333333333331,0.0,0.0
25,0.0,0.0,0.0,1.0,1.0,0.0,0.0,1.0,0.0,0.0,1.0,1.1856,26.0,0.0,0.0,0.0,59.999996,0.0,26.0,26.0,26.0,26.0,-0.09350000000000003,0.2592000000000001,-0.02896666666666667,292.175,-2.735,-2.6656250000000004,-1.5513,-1.5755,-191.07,215.965,190.453625,0.0,0.0,0.0,0.0,0.05076666666666667,-5.498166666666667,-5.498166666666667,-0.6123000000000001,0.2755,-0.02312499999999984,-1.6839999999999997,69.011,-0.05689999999999995,-0.2243,1.33,100.0,1.0,1.0,212.92000000000002,0.0,0.0,0.0,0.0,0.0,0.0,0.0,9024.8,0.0,55.0,5.0,248.41333333333336,1.0,0.0,0.0,0.0,0.0,0.0,0.0,0.0,1.259999999999998,1.259999999999998,0.0,0.0,1.0,55.0,616.79921,10000.0,85.000001,85.000001,85.000001,85.000001,395.0,0.0,0.0,0.0,1.0,166.665,51.559,51.559,47.974000000000004,47.974000000000004,34.0,-30.939999999999998,21.604,-31.18,23.8825,0.0,1782.384,0.6700000000000017,100.0,28.377,28.19,43.345,43.086,0.0,0.0,100.0,0.0,0.0,0.0,0.0,3443.5,3204.1,4049.375,3945.2,304.6115,304.59866666666665,315.1145,315.09875,21.9957,20.6387,22.0691,21.5447,314.999998,314.999998,324.999988,324.999988,99.5583,99.50723333333333,99.57061428571429,99.54917142857143,-0.0016666666666667052,-0.1346666666666666,-0.18,0.046,-0.036666666666668846,-0.05333333333332746,1.5525000000000002,1.5883333333333334,38.473,29.991666666666667,38.932,35.6545,55.666,35.2915,60.5785,53.269,53.628,34.4315,59.126999999999995,51.5585,52.796,33.9945,59.019999999999996,50.949666666666666,-0.03049999999999997,-0.1379999999999999,0.09945000000000001,0.11142500000000001,0.0,216.10500000000002,215.995,212.92000000000002,212.92000000000002,0.0,0.0
26,0.0,0.0,0.0,1.0,1.0,0.0,0.0,1.0,0.0,0.0,1.0,1.1856,26.0,0.0,0.0,0.0,59.999996,0.0,26.0,26.0,26.0,26.0,-0.12837500000000002,0.28100000000000014,0.0591,291.122,-2.66235,-2.76675,-1.5814,-1.589,-187.76,215.965,190.429375,0.0,0.0,0.0,0.0,0.052700000000000004,-5.498166666666667,-5.498166666666667,-0.5695,0.6055,-0.06174999999999997,-1.0429999999999997,69.14,-0.07609999999999995,-0.1968,1.218,100.0,1.0,1.0,213.01999999999998,0.0,0.0,0.0,0.0,0.0,0.0,0.0,9029.1,0.0,55.0,5.0,248.87666666666667,0.0,0.0,0.0,0.0,0.0,0.0,0.0,0.0,1.3079999999999998,1.3079999999999998,0.0,0.0,0.0,55.0,616.79921,10000.0,85.000001,85.000001,85.000001,85.000001,395.0,0.0,0.0,0.0,1.0,166.665,51.453,51.453,46.097,46.097,34.0,-29.4225,20.034,-39.5525,26.4075,0.0,1782.337,0.4499999999999993,100.0,29.256,28.560000000000002,44.201,43.369,0.0,0.0,100.0,0.0,0.0,0.0,0.0,3344.0,2920.5,4699.5,4427.9,304.803,305.30966666666666,313.5685,313.94975,22.0048,20.644,22.0793,21.5534,314.999998,314.999998,324.999988,324.999988,99.5583,99.50725,99.57077142857143,99.54931428571429,-0.0033333333333331883,-0.14500000000000002,-0.1975,0.015666666666666666,-0.04333333333332945,-0.03833333333332689,1.42,1.46,38.53,30.02466666666667,38.995999999999995,35.7085,55.655,35.3345,60.6175,53.326,53.617999999999995,34.4705,59.163,51.613,52.785,34.032,59.053,51.00266666666667,-0.047499999999999876,-0.11649999999999983,0.10308500000000001,0.10866500000000001,0.0,216.54000000000002,216.41,213.01999999999998,213.01999999999998,0.0,0.0
27,0.0,0.0,0.0,1.0,1.0,0.0,0.0,1.0,0.0,0.0,1.0,1.1856,26.0,0.0,0.0,0.0,59.999996,0.0,26.0,26.0,26.0,26.0,-0.10012500000000002,0.24490000000000012,-0.03843333333333333,291.672,-2.622,-2.74125,-1.5678,-1.6643,-184.44,215.9625,190.406375,0.0,0.0,0.0,0.0,0.05463333333333334,-5.498166666666667,-5.498166666666667,-0.5996,-1.031,-0.06537499999999996,-0.6280000000000001,69.263,-0.08179999999999998,-0.24535,1.017999999999999,100.0,1.0,1.0,213.56,0.0,0.0,0.0,0.0,0.0,0.0,0.0,9052.0,0.0,55.0,5.0,249.32333333333332,1.0,0.0,0.0,0.0,0.0,0.0,0.0,0.0,1.355999999999998,1.355999999999998,0.0,0.0,1.0,55.0,616.79921,10000.0,85.000001,85.000001,85.000001,85.000001,395.0,0.0,0.0,0.0,1.0,166.665,51.772999999999996,51.772999999999996,46.753,46.753,34.0,-28.525,20.426,-33.75,24.127499999999998,0.0,1782.288,0.39000000000000057,100.0,28.981,28.261,44.884,43.775,0.0,0.0,100.0,0.0,0.0,0.0,0.0,3279.875,2987.2,4124.75,3954.8,304.9965,305.211,314.79775,314.96525,22.0136,20.6491,22.0895,21.5622,314.999998,314.999998,324.999988,324.999988,99.5583,99.50726666666667,99.57091428571428,99.54944285714285,-0.006333333333333302,-0.1403333333333333,-0.20166666666666666,0.018166666666666668,-0.03833333333332689,-0.051666666666669414,1.4825,1.5213333333333334,38.585,30.056666666666665,39.059,35.7635,55.641,35.3745,60.6545,53.382,53.604,34.5075,59.198,51.667,52.769999999999996,34.067499999999995,59.085,51.05533333333334,-0.05699999999999994,-0.10950000000000015,0.10288000000000001,0.10644500000000001,0.0,216.84,216.75,213.56,213.56,0.0,0.0
28,0.0,0.0,0.0,1.0,1.0,0.0,0.0,1.0,0.0,0.0,1.0,1.1856,26.0,0.0,0.0,0.0,59.999996,0.0,26.0,26.0,26.0,26.0,-0.10449999999999993,0.2791000000000001,-0.04816666666666667,291.84,-2.6459,-2.72075,-1.5458,-1.6232,-180.69,215.95749999999998,190.379375,0.0,0.0,0.0,0.0,0.0568,-5.498166666666667,-5.498166666666667,-0.5974,0.664,-0.06674999999999986,-0.492,69.402,-0.08379999999999999,-0.20965,0.9079999999999995,100.0,1.0,1.0,214.03,0.0,0.0,0.0,0.0,0.0,0.0,0.0,9072.0,0.0,55.0,5.0,249.82,0.0,0.0,0.0,0.0,0.0,0.0,0.0,0.0,1.4100000000000001,1.4100000000000001,0.0,0.0,0.0,55.0,616.79921,10000.0,85.000001,85.000001,85.000001,85.000001,395.0,0.0,0.0,0.0,1.0,166.665,51.926,51.926,47.241,47.241,34.0,-28.145,19.924,-34.8375,24.3075,0.0,1782.237,0.16000000000000014,100.0,29.031,28.172,44.161,43.251,0.0,0.0,100.0,0.0,0.0,0.0,0.0,3262.625,2918.5,4281.875,4088.7,304.9875,305.4,314.6325,314.75625,22.0238,20.6549,22.1006,21.5717,314.999998,314.999998,324.999988,324.999988,99.55831428571429,99.5073,99.57107142857143,99.5496,0.005666666666666931,-0.136,-0.20833333333333334,0.0185,-0.046666666666666856,-0.05333333333332746,1.517,1.553,38.647999999999996,30.093,39.129000000000005,35.823,55.626999999999995,35.42,60.69,53.441,53.59,34.5495,59.231,51.7235,52.756,34.1075,59.115,51.11033333333333,-0.07050000000000001,-0.09350000000000014,0.10916000000000001,0.10169500000000001,0.0,217.315,217.245,214.03,214.03,0.0,0.0
29,0.0,0.0,0.0,1.0,1.0,0.0,0.0,1.0,0.0,0.0,1.0,1.1856,26.0,0.0,0.0,0.0,59.999996,0.0,26.0,26.0,26.0,26.0,-0.09350000000000003,0.25950000000000006,0.0405,291.565,-2.59895,-2.774375,-1.5556999999999999,-1.5972,-177.36,215.9475,190.3545,0.0,0.0,0.0,0.0,0.05876666666666667,-5.498166666666667,-5.498166666666667,-0.6081,-0.72,-0.06150000000000011,-0.6159999999999997,69.528,-0.07399999999999995,-0.22,0.5739999999999998,100.0,1.0,1.0,214.28333333333333,0.0,0.0,0.0,0.0,0.0,0.0,0.0,9082.7,0.0,55.0,5.0,250.27333333333334,1.0,0.0,0.0,0.0,0.0,0.0,0.0,0.0,1.4579999999999984,1.4579999999999984,0.0,0.0,1.0,55.0,616.79921,10000.0,85.000001,85.000001,85.000001,85.000001,395.0,0.0,0.0,0.0,1.0,166.665,51.758,51.758,46.692,46.692,34.0,-27.87,21.572000000000003,-34.305,25.485,0.0,1782.187,0.07499999999999929,100.0,28.741,28.108,44.563,43.551,0.0,0.0,100.0,0.0,0.0,0.0,0.0,3348.5,3013.8,4261.375,4160.7,304.813,305.044,314.524,314.52275,22.0326,20.66,22.1107,21.5804,314.999998,314.999998,324.999988,324.999988,99.55831428571429,99.5073,99.57121428571429,99.54974285714286,0.018000000000000238,-0.1273333333333333,-0.18933333333333335,0.0325,-0.06499999999999773,-0.03166666666666629,1.4705,1.496,38.704,30.125,39.192,35.878,55.611999999999995,35.4585,60.7275,53.497,53.576,34.585499999999996,59.266,51.7775,52.741,34.1415,59.1465,51.163,-0.08349999999999991,-0.08800000000000008,0.10397500000000001,0.111835,0.0,217.67000000000002,217.585,214.28333333333333,214.28333333333333,0.0,0.0
30,0.0,0.0,0.0,1.0,1.0,0.0,0.0,1.0,0.0,0.0,1.0,1.1856,26.0,0.0,0.0,0.0,59.999996,0.0,26.0,26.0,26.0,26.0,-0.081125,0.25560000000000005,0.04493333333333333,291.10699999999997,-2.6185,-2.7581249999999997,-1.5027,-1.6514,-173.81,215.9375,190.328,0.0,0.0,0.0,0.0,0.06083333333333334,-5.498166666666667,-5.498166666666667,-0.5994,0.854,-0.05262499999999992,1.1400000000000006,69.657,-0.06419999999999992,-0.21335,0.45999999999999996,100.0,1.0,1.0,214.74,0.0,0.0,0.0,0.0,0.0,0.0,0.0,9102.1,0.0,55.0,5.0,250.73666666666668,0.0,0.0,0.0,0.0,0.0,0.0,1.0,0.0,1.5090000000000003,1.5090000000000003,0.0,0.0,0.0,55.0,616.79921,10000.0,85.000001,85.000001,85.000001,85.000001,395.0,0.0,0.0,0.0,1.0,166.665,50.812,50.812,46.89,46.89,34.0,-27.009999999999998,23.714,-32.004999999999995,27.805,0.0,1782.136,-0.09499999999999886,100.0,29.748,28.645,44.421,43.547,0.0,0.0,100.0,0.0,0.0,0.0,0.0,3339.75,3190.6,4251.75,4183.9,304.5595,304.848,314.545,314.51575,22.0423,20.6657,22.121299999999998,21.5896,314.999998,314.999998,324.999988,324.999988,99.55831428571429,99.50731666666667,99.57135714285714,99.54988571428571,0.04700000000000015,-0.09999999999999998,-0.163,0.059000000000000004,-0.045000000000001705,-0.03999999999999915,1.4875000000000003,1.4953333333333334,38.763999999999996,30.161,39.257999999999996,35.935,55.601,35.5035,60.762,53.555,53.566,34.6265,59.298,51.833,52.730000000000004,34.181,59.176,51.217333333333336,-0.09650000000000003,-0.08150000000000013,0.10186,0.11007000000000002,0.0,218.10000000000002,218.05,214.74,214.74,0.0,0.0
31,0.0,0.0,0.0,1.0,1.0,0.0,0.0,1.0,0.0,0.0,1.0,1.1856,26.0,0.0,0.0,0.0,59.999996,0.0,26.0,26.0,26.0,26.0,-0.059374999999999956,0.24660000000000015,0.031100000000000003,290.894,-2.7284,-2.6346249999999998,-1.5519,-1.6451,-170.25,215.925,190.30225,0.0,0.0,0.0,0.0,0.0629,-5.498166666666667,-5.498166666666667,-0.5929,-0.642,-0.04787499999999989,-0.859,69.789,-0.043399999999999994,-0.22460000000000002,0.17999999999999972,100.0,1.0,1.0,215.05333333333334,0.0,0.0,0.0,0.0,0.0,0.0,0.0,9115.3,0.0,55.0,5.0,251.21333333333334,1.0,0.0,0.0,0.0,0.0,0.0,1.0,0.0,1.5599999999999987,1.5599999999999987,0.0,0.0,1.0,55.0,616.79921,10000.0,85.000001,85.000001,85.000001,85.000001,395.0,0.0,0.0,0.0,1.0,166.665,51.163,51.163,45.685,45.685,34.0,-27.5025,22.784,-33.3225,29.225,0.0,1782.085,-0.0799999999999983,100.0,29.155,28.901,44.977000000000004,44.315,0.0,0.0,100.0,0.0,0.0,0.0,0.0,3310.0,3179.7,4342.875,4264.5,305.0395,304.719,314.34,314.33775,22.0517,20.6714,22.1321,21.5991,314.999998,314.999998,324.999988,324.999988,99.55832857142858,99.50733333333334,99.57151428571429,99.55004285714286,0.04266666666666685,-0.09666666666666657,-0.15683333333333335,0.07233333333333333,-0.03999999999999915,-0.04333333333332945,1.4625,1.461,38.823,30.196333333333335,39.326,35.9945,55.587,35.5465,60.8015,53.616,53.553,34.666,59.335499999999996,51.891999999999996,52.716,34.2185,59.2095,51.27466666666667,-0.08949999999999991,-0.07299999999999995,0.10089500000000001,0.10895500000000001,0.0,218.445,218.41500000000002,215.05333333333334,215.05333333333334,0.0,0.0
32,0.0,0.0,0.0,1.0,1.0,0.0,0.0,1.0,0.0,0.0,1.0,1.1856,26.0,0.0,0.0,0.0,59.999996,0.0,26.0,26.0,26.0,26.0,-0.049250000000000016,0.27249999999999996,-0.022566666666666665,291.122,-2.62805,-2.74975,-1.5474999999999999,-1.5538,-166.69,215.91,190.276625,0.0,0.0,0.0,0.0,0.06496666666666667,-5.498166666666667,-5.498166666666667,-0.6065,0.169,-0.06762500000000005,0.5529999999999999,69.916,-0.03199999999999992,-0.2258,0.1200000000000001,100.0,1.0,1.0,215.51999999999998,0.0,0.0,0.0,0.0,0.0,0.0,0.0,9135.1,0.0,55.0,5.0,251.67333333333335,0.0,0.0,0.0,0.0,0.0,0.0,1.0,0.0,1.6110000000000007,1.6110000000000007,0.0,0.0,0.0,55.0,616.79921,10000.0,85.000001,85.000001,85.000001,85.000001,395.0,0.0,0.0,0.0,1.0,166.665,51.331,51.331,46.356,46.356,34.0,-24.535,23.974,-30.72,28.68,0.0,1782.034,-0.16999999999999815,100.0,29.33,28.73,44.673,44.025999999999996,0.0,0.0,100.0,0.0,0.0,0.0,0.0,3186.5,3112.8,4252.125,4307.9,305.0485,304.95666666666665,314.514,314.3285,22.0612,20.6771,22.1426,21.6083,314.999998,314.999998,324.999988,324.999988,99.55832857142858,99.50735,99.57165714285715,99.55018571428572,0.07200000000000006,-0.07999999999999996,-0.12783333333333333,0.08616666666666667,-0.041666666666671404,-0.06833333333332803,1.5125000000000002,1.5083333333333333,38.882,30.232,39.391,36.0515,55.575,35.588499999999996,60.835499999999996,53.673500000000004,53.541,34.705,59.3665,51.947,52.703,34.2555,59.238,51.32833333333333,-0.09899999999999998,-0.07200000000000006,0.10078000000000001,0.10402000000000002,0.0,218.865,218.85000000000002,215.51999999999998,215.51999999999998,0.0,0.0
33,0.0,0.0,0.0,1.0,1.0,0.0,0.0,1.0,0.0,0.0,1.0,1.1856,26.0,0.0,0.0,0.0,59.999996,0.0,26.0,26.0,26.0,26.0,-0.020499999999999963,0.25639999999999996,-0.03183333333333333,291.367,-2.6861,-2.72075,-1.5574,-1.6239,-163.54,215.8975,190.253,0.0,0.0,0.0,0.0,0.0668,-5.498166666666667,-5.498166666666667,-0.6122000000000001,-0.4495,-0.054749999999999854,0.07200000000000006,70.031,-0.024499999999999966,-0.21625,0.0779999999999994,100.0,1.0,1.0,215.83333333333331,0.0,0.0,0.0,0.0,0.0,0.0,0.0,9148.3,0.0,55.0,5.0,252.08666666666664,1.0,0.0,0.0,0.0,0.0,0.0,1.0,0.0,1.6559999999999988,1.6559999999999988,0.0,0.0,1.0,55.0,616.79921,10000.0,85.000001,85.000001,85.000001,85.000001,395.0,0.0,0.0,0.0,1.0,166.665,51.834,51.834,46.509,46.509,34.0,-24.955,23.052,-31.965,29.445,0.0,1781.99,-0.28500000000000014,100.0,28.919,28.576999999999998,44.515,44.187,0.0,0.0,100.0,0.0,0.0,0.0,0.0,3195.625,2980.7,4253.625,4255.4,305.2855,305.24066666666664,314.5545,314.3395,22.0694,20.682,22.1519,21.6165,314.999998,314.999998,324.999988,324.999988,99.55834285714286,99.50735,99.5718,99.55031428571428,0.06966666666666654,-0.07099999999999995,-0.14666666666666667,0.0845,-0.02499999999999858,-0.03999999999999915,1.4785,1.4833333333333334,38.934,30.262333333333334,39.45,36.103,55.564,35.622,60.8665,53.7255,53.53,34.736000000000004,59.3955,51.997,52.691,34.2855,59.263999999999996,51.377,-0.10599999999999987,-0.05650000000000022,0.10792,0.10767000000000002,0.0,219.19,219.18,215.83333333333331,215.83333333333331,0.0,0.0
34,0.0,0.0,0.0,1.0,1.0,0.0,0.0,1.0,0.0,0.0,1.0,1.1856,26.0,0.0,0.0,0.0,59.999996,0.0,26.0,26.0,26.0,26.0,-0.014499999999999957,0.25540000000000007,-0.10013333333333334,291.87,-2.7036,-2.701,-1.6284,-1.5782,-159.75,215.88,190.223375,0.0,0.0,0.0,0.0,0.069,-5.498166666666667,-5.498166666666667,-0.6468,-0.787,-0.019124999999999837,-0.09299999999999997,70.166,-0.012199999999999989,-0.225825,-0.03200000000000003,100.0,1.0,1.0,216.32,0.0,0.0,0.0,0.0,0.0,0.0,0.0,9169.0,0.0,55.0,5.0,252.57333333333332,0.0,0.0,0.0,0.0,0.0,0.0,1.0,0.0,1.7100000000000009,1.7100000000000009,0.0,0.0,0.0,55.0,616.79921,10000.0,85.000001,85.000001,85.000001,85.000001,395.0,0.0,0.0,0.0,1.0,166.665,52.307,52.307,47.211,47.211,34.0,-23.4875,22.874,-29.905,28.185000000000002,0.0,1781.934,-0.29499999999999815,100.0,28.585,28.314,44.2,44.225,0.0,0.0,100.0,0.0,0.0,0.0,0.0,3062.375,2962.4,4076.625,4119.8,305.587,305.28,315.063,314.652,22.0791,20.6878,22.163,21.6263,314.999998,314.999998,324.999988,324.999988,99.55835714285715,99.50736666666667,99.57195714285714,99.55047142857143,0.08233333333333359,-0.06766666666666665,-0.1255,0.09666666666666668,-0.03833333333332689,-0.03833333333332689,1.532,1.5226666666666666,38.994,30.299,39.519,36.164500000000004,55.55,35.662,60.9005,53.7875,53.516999999999996,34.772999999999996,59.427,52.057,52.677,34.321,59.292,51.43533333333333,-0.10949999999999993,-0.05549999999999988,0.10494500000000001,0.10622500000000001,0.0,219.57999999999998,219.60500000000002,216.32,216.32,0.0,0.0
35,0.0,0.0,0.0,1.0,1.0,0.0,0.0,1.0,0.0,0.0,1.0,1.1856,26.0,0.0,0.0,0.0,59.999996,0.0,26.0,26.0,26.0,26.0,-0.007499999999999951,0.25039999999999996,-0.07206666666666667,291.702,-2.69175,-2.6647499999999997,-1.5991,-1.5381,-156.17000000000002,215.8625,190.193,0.0,0.0,0.0,0.0,0.07106666666666667,-5.498166666666667,-5.498166666666667,-0.6842,-0.136,-0.03362500000000024,-0.1689999999999996,70.293,0.0017000000000000348,-0.22615000000000002,-0.266,100.0,1.0,1.0,216.7866666666667,0.0,0.0,0.0,0.0,0.0,0.0,0.0,9188.9,0.0,55.0,5.0,253.03,1.0,0.0,0.0,0.0,0.0,0.0,1.0,0.0,1.7609999999999992,1.7609999999999992,0.0,0.0,1.0,55.0,616.79921,10000.0,85.000001,85.000001,85.000001,85.000001,395.0,0.0,0.0,0.0,1.0,166.665,51.407,51.407,46.921,46.921,34.0,-23.905,27.31,-27.715,27.14,0.0,1781.885,-0.23999999999999844,100.0,28.603,28.626,43.981,43.703,0.0,0.0,100.0,0.0,0.0,0.0,0.0,3145.75,3407.7,3973.0,3970.1000000000004,305.3035,304.096,315.226,315.10225,22.0881,20.6936,22.1734,21.6354,314.999998,314.999998,324.999988,324.999988,99.55837142857143,99.50736666666667,99.5721,99.55062857142858,0.08833333333333337,-0.04599999999999993,-0.1065,0.11616666666666667,-0.04333333333332945,-0.060000000000002274,1.5545,1.5553333333333335,39.051,30.335,39.584,36.221000000000004,55.535,35.7025,60.9325,53.8425,53.503,34.8105,59.457,52.11,52.662,34.3565,59.319,51.487,-0.09850000000000003,-0.06050000000000022,0.11019000000000001,0.102165,0.0,219.995,220.0,216.78666666666666,216.7866666666667,0.0,0.0
36,0.0,0.0,0.0,1.0,1.0,0.0,0.0,1.0,0.0,0.0,1.0,1.1856,26.0,0.0,0.0,0.0,59.999996,0.0,26.0,26.0,26.0,26.0,0.021500000000000075,0.2592000000000001,0.07376666666666666,290.817,-2.62545,-2.727875,-1.5566,-1.5935000000000001,-152.8,215.8475,190.163375,0.0,0.0,0.0,0.0,0.07303333333333334,-5.498166666666667,-5.498166666666667,-0.6633,0.106,-0.06674999999999986,0.32399999999999984,70.416,0.009400000000000075,-0.203075,-0.09600000000000009,100.0,1.0,1.0,216.89333333333332,0.0,0.0,0.0,0.0,0.0,0.0,0.0,9193.3,0.0,55.0,5.0,253.47,0.0,0.0,0.0,0.0,0.0,0.0,1.0,0.0,1.809000000000001,1.809000000000001,0.0,0.0,0.0,55.0,616.79921,10000.0,85.000001,85.000001,85.000001,85.000001,395.0,0.0,0.0,0.0,1.0,166.665,51.437,51.437,46.051,46.051,34.0,-22.0425,24.747999999999998,-30.7375,34.535,0.0,1781.837,-0.17999999999999972,100.0,29.185,28.872,44.281,44.21,0.0,0.0,100.0,0.0,0.0,0.0,0.0,3037.5,3088.8,4399.875,4601.0,305.376,304.8113333333333,314.17,313.5875,22.0968,20.6991,22.1834,21.6442,314.999998,314.999998,324.999988,324.999988,99.55838571428572,99.50738333333334,99.57224285714285,99.55077142857142,0.10199999999999987,-0.05833333333333335,-0.0945,0.1265,-0.02499999999999858,-0.07000000000000028,1.4135,1.4216666666666666,39.105000000000004,30.369333333333334,39.646,36.2765,55.525999999999996,35.741,60.966,53.8995,53.494,34.846000000000004,59.4885,52.165,52.652,34.3905,59.347,51.54066666666667,-0.09799999999999986,-0.0754999999999999,0.10389000000000001,0.10259000000000001,0.0,220.39,220.41500000000002,216.89333333333335,216.89333333333332,0.0,0.0
