,ABS Active,ABS Enabled,AID Allow Tire Blankets,AID Auto Blip,AID Auto Clutch,AID Auto Shift,AID Fuel Rate,AID Ideal Line,AID Mech Damage,AID Stability,AID Tire Wear Rate,Air Density,Air Temp,Ballast,Best Lap Delta,Best Lap Time,Brake Bias,Brake Pos,Brake Temp FL,Brake Temp FR,Brake Temp RL,Brake Temp RR,CG Accel Lateral,CG Accel Longitudinal,CG Accel Vertical,CG Height,Camber FL,Camber FR,Camber RL,Camber RR,Car Coord X,Car Coord Y,Car Coord Z,Car Damage Front,Car Damage Left,Car Damage Rear,Car Damage Right,Car Pos Norm,Caster FL,Caster FR,Chassis Pitch Angle,Chassis Pitch Rate,Chassis Roll Angle,Chassis Roll Rate,Chassis Velocity X,Chassis Velocity Y,Chassis Velocity Z,Chassis Yaw Rate,Clutch Pos,DRS Active,DRS Available,Drive Train Speed,ERS Heat Charging,ERS Is Charging,ERS Max Energy,ERS Power Level,ERS Recovery Level,Engine Brake Setting,Engine Limiter,Engine RPM,Flags,Fuel Level,Gear,Ground Speed,HR Sample Clock,In Pit,KERS Charge,KERS Deployed Energy,KERS Input,KERS Max Energy,LR Sample Clock,Lap Invalidated,Lap Time,Lap Time2,Last Lap Time,Last Sector Time,MR Sample Clock,Max Fuel,Max Power,Max RPM,Max Sus Travel FL,Max Sus Travel FR,Max Sus Travel RL,Max Sus Travel RR,Max Torque,Max Turbo Boost,Num Tires Off Track,Penalties Enabled,Position,Raw Data Sample Rate,Ride Height FL,Ride Height FR,Ride Height RL,Ride Height RR,Road Temp,Self Align Torque FL,Self Align Torque FR,Self Align Torque RL,Self Align Torque RR,Session Lap Count,Session Time Left,Steering Angle,Surface Grip,Suspension Travel FL,Suspension Travel FR,Suspension Travel RL,Suspension Travel RR,TC Active,TC Enabled,Throttle Pos,Tire Dirt Level FL,Tire Dirt Level FR,Tire Dirt Level RL,Tire Dirt Level RR,Tire Load FL,Tire Load FR,Tire Load RL,Tire Load RR,Tire Loaded Radius FL,Tire Loaded Radius FR,Tire Loaded Radius RL,Tire Loaded Radius RR,Tire Pressure FL,Tire Pressure FR,Tire Pressure RL,Tire Pressure RR,Tire Radius FL,Tire Radius FR,Tire Radius RL,Tire Radius RR,Tire Rubber Grip FL,Tire Rubber Grip FR,Tire Rubber Grip RL,Tire Rubber Grip RR,Tire Slip Angle FL,Tire Slip Angle FR,Tire Slip Angle RL,Tire Slip Angle RR,Tire Slip Ratio FL,Tire Slip Ratio FR,Tire Slip Ratio RL,Tire Slip Ratio RR,Tire Temp Core FL,Tire Temp Core FR,Tire Temp Core RL,Tire Temp Core RR,Tire Temp Inner FL,Tire Temp Inner FR,Tire Temp Inner RL,Tire Temp Inner RR,Tire Temp Middle FL,Tire Temp Middle FR,Tire Temp Middle RL,Tire Temp Middle RR,Tire Temp Outer FL,Tire Temp Outer FR,Tire Temp Outer RL,Tire Temp Outer RR,Toe In FL,Toe In FR,Toe In RL,Toe In RR,Turbo Boost,Wheel Angular Speed FL,Wheel Angular Speed FR,Wheel Angular Speed RL,Wheel Angular Speed RR,Wind Direction,Wind Speed
0,0.0,0.0,0.0,1.0,1.0,0.0,0.0,1.0,0.0,0.0,1.0,1.1856,26.0,0.0,0.0,0.0,59.99999,0.0,26.0,26.0,26.0,26.0,-0.07499999999999996,0.3015000000000001,0.050333333333333334,294.067,-2.7225,-2.65875,-1.5197,-1.5544,-275.63,216.3,190.987375,0.0,0.0,0.0,0.0,0.0016333333333333755,-5.498166666666667,-5.498166666666667,-0.5476,1.1015,-0.0043333333333333,-0.518,65.512,-0.0281,-0.21280000000000002,0.9139999999999997,100.0,1.0,1.0,202.25333333333333,0.0,0.0,0.0,0.0,0.0,0.0,0.0,8572.8,0.0,55.0,5.0,235.81333333333333,0.0,0.0,0.0,0.0,0.0,0.0,0.0,0.0,0.0030000000000001137,0.0030000000000001137,0.0,0.0,0.0,55.0,616.79921,10000.0,85.0,85.0,85.0,85.0,395.0,0.0,0.0,0.0,1.0,20.0,52.826,52.826,49.591,49.591,34.0,-25.9275,24.22,-29.555,24.9075,0.0,1783.436,0.8399999999999999,100.0,27.442,26.897,40.584,40.575,0.0,0.0,100.0,0.0,0.0,0.0,0.0,2976.375,3404.5,4077.125,3988.9,305.8,304.031,314.92525,314.8965,21.7895,20.5146,21.8003,21.3198,314.99999,314.99999,324.99998,324.99998,99.55965714285715,99.50721666666666,99.56664285714285,99.54555714285715,0.0023333333333332984,-0.10799999999999998,-0.152,0.0675,-0.013333333333328312,-0.061666666666667425,1.5676666666666668,1.5979999999999999,37.184,29.216,37.251999999999995,34.2485,56.533,34.4845,59.552,51.763,54.435,33.6445,58.164,50.111000000000004,53.6,33.195499999999996,58.129,49.531333333333336,-0.006000000000000005,-0.13649999999999984,0.10858000000000001,0.10306000000000001,0.0,205.29500000000002,205.21,202.25333333333333,202.25333333333333,0.0,0.0
1,0.0,0.0,0.0,1.0,1.0,0.0,0.0,1.0,0.0,0.0,1.0,1.1856,26.0,0.0,0.0,0.0,59.999996,0.0,26.0,26.0,26.0,26.0,-0.09933333333333338,0.32400000000000007,0.16543333333333332,293.091,-2.641,-2.760125,-1.5312999999999999,-1.5447000000000002,-272.28,216.29500000000002,190.967125,0.0,0.0,0.0,0.0,0.003566666666666607,-5.498166666666667,-5.498166666666667,-0.5005000000000001,-0.548,-0.051000000000000156,-0.8140000000000001,65.666,-0.045200000000000004,-0.19490000000000002,1.4100000000000001,100.0,1.0,1.0,202.44333333333333,0.0,0.0,0.0,0.0,0.0,0.0,0.0,8580.8,0.0,55.0,5.0,236.36666666666667,1.0,0.0,0.0,0.0,0.0,0.0,0.0,0.0,0.053999999999998494,0.053999999999998494,0.0,0.0,1.0,55.0,616.79921,10000.0,85.000001,85.000001,85.000001,85.000001,395.0,0.0,0.0,0.0,1.0,333.33500000000004,53.482,53.482,48.416,48.416,34.0,-27.515,18.444000000000003,-33.71,28.880000000000003,0.0,1783.384,0.9200000000000017,100.0,27.502,27.024,42.64,41.605000000000004,0.0,0.0,100.0,0.0,0.0,0.0,0.0,3146.25,2718.5,4275.625,4694.3,305.335,306.1755,314.40225,313.16425,21.7995,20.5197,21.8111,21.3289,314.999998,314.999998,324.999988,324.999988,99.55965714285715,99.50723333333333,99.5668,99.5457,-0.012666666666666604,-0.135,-0.17816666666666667,0.03833333333333334,-0.05333333333332746,-0.054999999999999716,1.3996666666666666,1.4855,37.247,29.247999999999998,37.32,34.3055,56.516999999999996,34.5255,59.5955,51.827,54.419,33.6825,58.204499999999996,50.172,53.584,33.2315,58.167,49.59166666666667,0.0009999999999998899,-0.14300000000000024,0.10477,0.10723500000000001,0.0,205.75,205.64499999999998,202.44333333333333,202.44333333333333,0.0,0.0
2,0.0,0.0,0.0,1.0,1.0,0.0,0.0,1.0,0.0,0.0,1.0,1.1856,26.0,0.0,0.0,0.0,59.999996,0.0,26.0,26.0,26.0,26.0,-0.15533333333333332,0.2893000000000001,-0.08063333333333333,293.686,-2.5979,-2.7982500000000003,-1.4866000000000001,-1.6118000000000001,-268.93,216.285,190.94825,0.0,0.0,0.0,0.0,0.00553333333333339,-5.498166666666667,-5.498166666666667,-0.5473,0.07250000000000001,-0.04933333333333367,2.526,65.809,-0.06770000000000001,-0.25067500000000004,1.5920000000000005,100.0,1.0,1.0,203.31333333333333,0.0,0.0,0.0,0.0,0.0,0.0,0.0,8617.7,0.0,55.0,5.0,236.88,0.0,0.0,0.0,0.0,0.0,0.0,0.0,0.0,0.10500000000000043,0.10500000000000043,0.0,0.0,0.0,55.0,616.79921,10000.0,85.000001,85.000001,85.000001,85.000001,395.0,0.0,0.0,0.0,1.0,166.665,52.46,52.46,50.095,50.095,34.0,-29.6475,20.228,-29.3325,20.6875,0.0,1783.335,0.6700000000000017,100.0,28.377,26.933,42.564,41.379,0.0,0.0,100.0,0.0,0.0,0.0,0.0,3306.0,2948.8,3796.0,3700.7,304.60833333333335,305.51075,315.5305,315.74325,21.8098,20.5246,21.8217,21.337699999999998,314.999998,314.999998,324.999988,324.999988,99.55967142857143,99.50725,99.56692857142858,99.54584285714286,-0.024666666666666615,-0.14349999999999996,-0.212,0.01633333333333333,-0.04333333333332945,-0.03166666666666629,1.6136666666666666,1.6804999999999999,37.311,29.279,37.385999999999996,34.361,56.503,34.564499999999995,59.632,51.884,54.407,33.718,58.239,50.227000000000004,53.57,33.2655,58.198499999999996,49.64533333333333,-0.014499999999999957,-0.13500000000000023,0.10586000000000001,0.11197000000000001,0.0,206.2,206.055,203.31333333333333,203.31333333333333,0.0,0.0
3,0.0,0.0,0.0,1.0,1.0,0.0,0.0,1.0,0.0,0.0,1.0,1.1856,26.0,0.0,0.0,0.0,59.999996,0.0,26.0,26.0,26.0,26.0,-0.14155555555555555,0.32740000000000014,0.07366666666666667,293.457,-2.7291,-2.69275,-1.5152,-1.5878,-265.77,216.275,190.92975,0.0,0.0,0.0,0.0,0.0073666666666665215,-5.498166666666667,-5.498166666666667,-0.5105000000000001,0.3205,-0.005777777777777882,0.31499999999999995,65.952,-0.083,-0.2003,1.17,100.0,1.0,1.0,203.47,0.0,0.0,0.0,0.0,0.0,0.0,0.0,8624.3,0.0,55.0,5.0,237.39666666666668,1.0,0.0,0.0,0.0,0.0,0.0,0.0,0.0,0.1529999999999987,0.1529999999999987,0.0,0.0,1.0,55.0,616.79921,10000.0,85.000001,85.000001,85.000001,85.000001,395.0,0.0,0.0,0.0,1.0,333.33500000000004,53.543,53.543,48.187,48.187,34.0,-25.509999999999998,18.892,-34.8525,24.705,0.0,1783.285,0.6099999999999994,100.0,27.908,26.922,42.441,41.415,0.0,0.0,100.0,0.0,0.0,0.0,0.0,2857.375,2916.9,4264.75,4244.9,306.06466666666665,305.563,314.3975,314.35125,21.8191,20.5295,21.8316,21.3461,314.999998,314.999998,324.999988,324.999988,99.55967142857143,99.50726666666667,99.56707142857142,99.54597142857143,-0.013000000000000012,-0.14874999999999994,-0.21183333333333335,0.0155,-0.03166666666666629,-0.05333333333332746,1.4746666666666668,1.5274999999999999,37.370000000000005,29.309666666666665,37.448,34.413,56.486999999999995,34.6045,59.667500000000004,51.942499999999995,54.391,33.754999999999995,58.272,50.283,53.554,33.301,58.2285,49.70033333333333,-0.03600000000000003,-0.11850000000000005,0.114625,0.10142000000000001,0.0,206.655,206.54500000000002,203.47,203.47,0.0,0.0
4,0.0,0.0,0.0,1.0,1.0,0.0,0.0,1.0,0.0,0.0,1.0,1.1856,26.0,0.0,0.0,0.0,59.999996,0.0,26.0,26.0,26.0,26.0,-0.13511111111111107,0.28180000000000005,-0.013600000000000001,293.655,-2.6648,-2.738875,-1.5285000000000002,-1.595,-262.4,216.26,190.91,0.0,0.0,0.0,0.0,0.009299999999999975,-5.498166666666667,-5.498166666666667,-0.5439,-0.7324999999999999,-0.07633333333333336,-1.779,66.098,-0.08220000000000001,-0.2363,1.1340000000000003,100.0,1.0,1.0,204.05,0.0,0.0,0.0,0.0,0.0,0.0,0.0,8649.0,0.0,55.0,5.0,237.92333333333335,0.0,0.0,0.0,0.0,0.0,0.0,0.0,0.0,0.20400000000000063,0.20400000000000063,0.0,0.0,0.0,55.0,616.79921,10000.0,85.000001,85.000001,85.000001,85.000001,395.0,0.0,0.0,0.0,1.0,166.665,53.101,53.101,48.766999999999996,48.766999999999996,34.0,-29.325,19.396,-32.7375,21.177500000000002,0.0,1783.236,0.6350000000000016,100.0,27.656,26.905,42.741,41.532,0.0,0.0,100.0,0.0,0.0,0.0,0.0,3263.5,2880.8,4114.875,3674.8,305.0643333333333,305.509,314.7995,315.66825,21.8289,20.5346,21.8423,21.355,314.999998,314.999998,324.999988,324.999988,99.55967142857143,99.5073,99.5672,99.54611428571428,-0.023666666666666614,-0.14349999999999996,-0.20500000000000002,0.02666666666666667,-0.05666666666667197,-0.05666666666667197,1.5653333333333332,1.609,37.43,29.34133333333333,37.515,34.469,56.468,34.646,59.708,52.0005,54.373999999999995,33.793,58.3095,50.339,53.536,33.3375,58.2635,49.754999999999995,-0.03049999999999997,-0.11649999999999983,0.10929000000000001,0.11117500000000001,0.0,207.065,206.97,204.05,204.05,0.0,0.0
5,0.0,0.0,0.0,1.0,1.0,0.0,0.0,1.0,0.0,0.0,1.0,1.1856,26.0,0.0,0.0,0.0,59.999996,0.0,26.0,26.0,26.0,26.0,-0.12377777777777776,0.29790000000000005,-0.008533333333333334,293.64,-2.6779,-2.7592499999999998,-1.5136,-1.5836999999999999,-258.83,216.24,190.8885,0.0,0.0,0.0,0.0,0.011399999999999966,-5.498166666666667,-5.498166666666667,-0.5345,0.33299999999999996,-0.07900000000000018,-0.30499999999999994,66.254,-0.08710000000000001,-0.21252500000000002,1.1159999999999997,100.0,1.0,1.0,204.46,0.0,0.0,0.0,0.0,0.0,0.0,0.0,8666.3,0.0,55.0,5.0,238.48333333333335,1.0,0.0,0.0,0.0,0.0,0.0,0.0,0.0,0.2579999999999991,0.2579999999999991,0.0,0.0,1.0,55.0,616.79921,10000.0,85.000001,85.000001,85.000001,85.000001,395.0,0.0,0.0,0.0,1.0,166.665,53.452,53.452,48.92,48.92,34.0,-28.4225,18.857999999999997,-34.3725,22.7675,0.0,1783.181,0.16499999999999915,100.0,27.701999999999998,26.747,42.516999999999996,41.248000000000005,0.0,0.0,100.0,0.0,0.0,0.0,0.0,3200.125,2773.8,4215.5,4059.1000000000004,305.2223333333333,305.895,314.63725,314.74425,21.8395,20.54,21.8535,21.3643,314.999998,314.999998,324.999988,324.999988,99.55968571428572,99.50731666666667,99.56735714285715,99.54625714285714,-0.013666666666666605,-0.13874999999999993,-0.22016666666666665,0.0055,-0.05833333333333002,-0.03166666666666629,1.5196666666666667,1.5675,37.497,29.375,37.584,34.527,56.453,34.689,59.7485,52.0615,54.358999999999995,33.833,58.3475,50.397,53.519999999999996,33.3755,58.2985,49.812,-0.05699999999999994,-0.09149999999999991,0.10830000000000001,0.10511500000000001,0.0,207.595,207.485,204.46,204.46,0.0,0.0
6,0.0,0.0,0.0,1.0,1.0,0.0,0.0,1.0,0.0,0.0,1.0,1.1856,26.0,0.0,0.0,0.0,59.999996,0.0,26.0,26.0,26.0,26.0,-0.118,0.2905,0.010066666666666668,293.472,-2.6371,-2.7435,-1.5535,-1.5829,-255.84,216.2225,190.870375,0.0,0.0,0.0,0.0,0.01313333333333333,-5.498166666666667,-5.498166666666667,-0.5315,0.08399999999999996,-0.06144444444444419,0.8770000000000002,66.383,-0.0833,-0.2151,0.7020000000000008,100.0,1.0,1.0,204.87,0.0,0.0,0.0,0.0,0.0,0.0,0.0,8683.6,0.0,55.0,5.0,238.95,0.0,0.0,0.0,0.0,0.0,0.0,0.0,0.0,0.3030000000000008,0.3030000000000008,0.0,0.0,0.0,55.0,616.79921,10000.0,85.000001,85.000001,85.000001,85.000001,395.0,0.0,0.0,0.0,1.0,166.665,53.116,53.116,48.798,48.798,34.0,-26.38,21.426,-32.724999999999994,23.502499999999998,0.0,1783.136,-0.004999999999999005,100.0,27.828,26.712,42.725,41.448,0.0,0.0,100.0,0.0,0.0,0.0,0.0,3107.375,3004.4,4069.125,4044.5,305.261,305.323,314.91975,314.85825,21.8482,20.5446,21.8629,21.3723,314.999998,314.999998,324.999988,324.999988,99.55968571428572,99.50731666666667,99.56748571428571,99.54638571428572,0.011333333333333417,-0.11375000000000002,-0.20333333333333334,0.02333333333333333,-0.05666666666667197,-0.05333333333332746,1.526,1.568,37.552,29.403666666666666,37.643,34.577,56.438,34.7245,59.7825,52.1155,54.345,33.8655,58.3795,50.449,53.506,33.407,58.328,49.86233333333333,-0.0734999999999999,-0.07799999999999985,0.105425,0.10659,0.0,207.96,207.88,204.87,204.87,0.0,0.0
7,0.0,0.0,0.0,1.0,1.0,0.0,0.0,1.0,0.0,0.0,1.0,1.1856,26.0,0.0,0.0,0.0,59.999996,0.0,26.0,26.0,26.0,26.0,-0.07533333333333336,0.2953000000000001,0.0211,293.228,-2.6147,-2.729125,-1.5148000000000001,-1.6225,-252.45,216.1975,190.849875,0.0,0.0,0.0,0.0,0.015100000000000002,-5.498166666666667,-5.498166666666667,-0.5352,-0.026999999999999913,-0.05122222222222206,-0.15300000000000002,66.529,-0.0666,-0.22460000000000002,0.42799999999999994,100.0,1.0,1.0,205.28333333333333,0.0,0.0,0.0,0.0,0.0,0.0,0.0,8701.3,0.0,55.0,5.0,239.47333333333333,1.0,0.0,0.0,0.0,0.0,0.0,0.0,0.0,0.3539999999999992,0.3539999999999992,0.0,0.0,1.0,55.0,616.79921,10000.0,85.000001,85.000001,85.000001,85.000001,395.0,0.0,0.0,0.0,1.0,166.665,52.78,52.78,48.874,48.874,34.0,-27.107499999999998,21.834000000000003,-31.4,25.380000000000003,0.0,1783.085,-0.21000000000000085,100.0,27.799,26.943,42.669,41.791,0.0,0.0,100.0,0.0,0.0,0.0,0.0,3297.5,2964.9,4095.75,4042.7,304.825,305.2675,314.86625,314.71375,21.8582,20.5497,21.8735,21.3813,314.999998,314.999998,324.999988,324.999988,99.55968571428572,99.50733333333334,99.56762857142857,99.54652857142857,0.02866666666666684,-0.09750000000000003,-0.182,0.04533333333333334,-0.04999999999999716,-0.05333333333332746,1.5296666666666665,1.553,37.614000000000004,29.435666666666666,37.709,34.632999999999996,56.423,34.763999999999996,59.821,52.176,54.33,33.9015,58.4155,50.507,53.489999999999995,33.4415,58.361,49.919,-0.09050000000000002,-0.0535000000000001,0.1063,0.11000000000000001,0.0,208.4,208.35000000000002,205.28333333333333,205.28333333333333,0.0,0.0
8,0.0,0.0,0.0,1.0,1.0,0.0,0.0,1.0,0.0,0.0,1.0,1.1856,26.0,0.0,0.0,0.0,59.999996,0.0,26.0,26.0,26.0,26.0,-0.05155555555555558,0.3034000000000001,0.028300000000000002,293.488,-2.6961,-2.716,-1.4994,-1.5492,-249.06,216.1725,190.829375,0.0,0.0,0.0,0.0,0.017066666666666563,-5.498166666666667,-5.498166666666667,-0.5359,-0.5549999999999999,-0.03111111111111109,0.7629999999999999,66.675,-0.046200000000000005,-0.21502500000000002,-0.09399999999999942,100.0,1.0,1.0,205.66666666666669,0.0,0.0,0.0,0.0,0.0,0.0,0.0,8717.4,0.0,55.0,5.0,240.0,0.0,0.0,0.0,0.0,0.0,0.0,0.0,0.0,0.40500000000000114,0.40500000000000114,0.0,0.0,0.0,55.0,616.79921,10000.0,85.000001,85.000001,85.000001,85.000001,395.0,0.0,0.0,0.0,1.0,166.665,53.726,53.726,48.172,48.172,34.0,-23.3475,22.924,-30.0925,26.6475,0.0,1783.035,-0.35999999999999943,100.0,27.451999999999998,26.75,42.730000000000004,41.835,0.0,0.0,100.0,0.0,0.0,0.0,0.0,2913.875,3000.6,4129.875,4177.6,305.96133333333336,305.3505,314.67575,314.47675,21.8678,20.5549,21.8841,21.3903,314.999998,314.999998,324.999988,324.999988,99.55968571428572,99.50735,99.56778571428572,99.54665714285714,0.04933333333333323,-0.06999999999999995,-0.1505,0.06833333333333333,-0.05333333333332746,-0.05833333333333002,1.5263333333333335,1.5150000000000001,37.674,29.468333333333334,37.775,34.689499999999995,56.406,34.802,59.859,52.236000000000004,54.314,33.937,58.451,50.5645,53.473,33.4755,58.3935,49.97566666666667,-0.10050000000000003,-0.04200000000000026,0.10300000000000001,0.10347500000000001,0.0,208.82,208.825,205.66666666666669,205.66666666666669,0.0,0.0
9,0.0,0.0,0.0,1.0,1.0,0.0,0.0,1.0,0.0,0.0,1.0,1.1856,26.0,0.0,0.0,0.0,59.999996,0.0,26.0,26.0,26.0,26.0,-0.010444444444444478,0.28080000000000016,-0.011166666666666668,293.137,-2.6292,-2.719125,-1.5535,-1.5539,-245.65,216.14499999999998,190.80825,0.0,0.0,0.0,0.0,0.019066666666666565,-5.498166666666667,-5.498166666666667,-0.5403,0.718,-0.033444444444444166,-0.30800000000000005,66.81700000000001,-0.0241,-0.21480000000000002,-0.1299999999999999,100.0,1.0,1.0,206.23333333333335,0.0,0.0,0.0,0.0,0.0,0.0,0.0,8741.5,0.0,55.0,5.0,240.51,1.0,0.0,0.0,0.0,0.0,0.0,0.0,0.0,0.4559999999999995,0.4559999999999995,0.0,0.0,1.0,55.0,616.79921,10000.0,85.000001,85.000001,85.000001,85.000001,395.0,0.0,0.0,0.0,1.0,166.665,52.444,52.444,49.179,49.179,34.0,-25.9375,23.832,-28.53,27.0075,0.0,1782.983,-0.48499999999999943,100.0,27.843,27.316,42.308,41.938,0.0,0.0,100.0,0.0,0.0,0.0,0.0,3344.0,2997.8,4040.5,4060.2,304.70033333333333,305.1125,315.10575,314.7855,21.8777,20.5603,21.8945,21.3992,314.999998,314.999998,324.999988,324.999988,99.5597,99.50735,99.56791428571428,99.5468,0.06633333333333336,-0.054749999999999965,-0.13116666666666665,0.09583333333333333,-0.03999999999999915,-0.061666666666667425,1.5819999999999999,1.5585,37.736000000000004,29.501666666666665,37.841,34.7455,56.391999999999996,34.841,59.894,52.2945,54.301,33.973,58.483000000000004,50.621,53.459,33.51,58.423,50.03066666666666,-0.11199999999999988,-0.035499999999999865,0.10189500000000001,0.11506000000000001,0.0,209.265,209.285,206.23333333333335,206.23333333333335,0.0,0.0
10,0.0,0.0,0.0,1.0,1.0,0.0,0.0,1.0,0.0,0.0,1.0,1.1856,26.0,0.0,0.0,0.0,59.999996,0.0,26.0,26.0,26.0,26.0,0.00855555555555565,0.2946,-0.007766666666666667,292.984,-2.6626,-2.698375,-1.5361,-1.5323,-242.44,216.1175,190.78875,0.0,0.0,0.0,0.0,0.02093333333333336,-5.498166666666667,-5.498166666666667,-0.5179,-0.4105000000000001,0.008111111111110958,0.3410000000000002,66.955,-0.0076,-0.2064,-0.42600000000000016,100.0,1.0,1.0,206.44,0.0,0.0,0.0,0.0,0.0,0.0,0.0,8750.3,0.0,55.0,5.0,241.01,0.0,0.0,0.0,0.0,0.0,0.0,1.0,0.0,0.5040000000000013,0.5040000000000013,0.0,0.0,0.0,55.0,616.79921,10000.0,85.000001,85.000001,85.000001,85.000001,395.0,0.0,0.0,0.0,1.0,166.665,53.467,53.467,47.623,47.623,34.0,-21.185,23.061999999999998,-30.5425,29.235,0.0,1782.936,-0.6400000000000006,100.0,27.685,27.338,42.757,42.722,0.0,0.0,100.0,0.0,0.0,0.0,0.0,2886.625,2870.4,4321.875,4272.1,306.0973333333333,305.547,314.3085,314.17125,21.8868,20.5652,21.9046,21.407899999999998,314.999998,314.999998,324.999988,324.999988,99.55971428571429,99.50735,99.56805714285714,99.54694285714285,0.08933333333333326,-0.03874999999999995,-0.11683333333333333,0.1015,-0.036666666666668846,-0.036666666666668846,1.4866666666666668,1.467,37.793,29.532666666666664,37.903999999999996,34.7995,56.379000000000005,34.8755,59.931,52.355000000000004,54.289,34.004999999999995,58.518,50.6785,53.446,33.5405,58.454499999999996,50.08733333333333,-0.125,-0.025500000000000078,0.10361500000000001,0.10235000000000001,0.0,209.675,209.685,206.44,206.44,0.0,0.0
11,0.0,0.0,0.0,1.0,1.0,0.0,0.0,1.0,0.0,0.0,1.0,1.1856,26.0,0.0,0.0,0.0,59.999996,0.0,26.0,26.0,26.0,26.0,0.02644444444444427,0.27770000000000006,-0.07026666666666667,293.503,-2.7054,-2.68675,-1.5915,-1.5241,-239.01999999999998,216.09,190.768,0.0,0.0,0.0,0.0,0.022599999999999953,-5.498166666666667,-5.498166666666667,-0.5617,-0.21100000000000008,0.033333333333333215,0.31999999999999984,67.094,0.0125,-0.23795000000000002,-0.6679999999999993,100.0,1.0,1.0,207.18666666666667,0.0,0.0,0.0,0.0,0.0,0.0,0.0,8781.9,0.0,55.0,5.0,241.51,1.0,0.0,0.0,0.0,0.0,0.0,1.0,0.0,0.5549999999999997,0.5549999999999997,0.0,0.0,1.0,55.0,616.79921,10000.0,85.000001,85.000001,85.000001,85.000001,395.0,0.0,0.0,0.0,1.0,333.33500000000004,52.826,52.826,49.286,49.286,34.0,-21.9275,26.738,-23.9325,26.89,0.0,1782.882,-0.7149999999999999,100.0,27.575,27.425,42.363,42.575,0.0,0.0,100.0,0.0,0.0,0.0,0.0,3008.125,3189.9,3685.25,3877.6000000000004,305.64633333333336,304.69925,315.912,315.24075,21.8964,20.5707,21.915,21.417,314.999998,314.999998,324.999988,324.999988,99.55972857142856,99.50736666666667,99.56818571428572,99.54707142857143,0.10833333333333317,-0.016000000000000014,-0.08916666666666667,0.13816666666666666,-0.03999999999999915,-0.05833333333333002,1.6466666666666665,1.626,37.852000000000004,29.566666666666666,37.968,34.856,56.364000000000004,34.913,59.964,52.414,54.274,34.039500000000004,58.548,50.7355,53.431,33.574,58.482,50.14333333333333,-0.125,-0.01949999999999985,0.10556000000000001,0.10584,0.0,210.07999999999998,210.135,207.18666666666667,207.18666666666667,0.0,0.0
12,0.0,0.0,0.0,1.0,1.0,0.0,0.0,1.0,0.0,0.0,1.0,1.1856,26.0,0.0,0.0,0.0,59.999996,0.0,26.0,26.0,26.0,26.0,0.05233333333333334,0.28510000000000013,0.0373,292.892,-2.7621,-2.678375,-1.5575999999999999,-1.5247000000000002,-235.6,216.065,190.745875,0.0,0.0,0.0,0.0,0.025466666666666526,-5.498166666666667,-5.498166666666667,-0.5445,0.2905,0.0173333333333332,-0.8240000000000001,67.239,0.0323,-0.205675,-0.6639999999999997,100.0,1.0,1.0,207.40333333333334,0.0,0.0,0.0,0.0,0.0,0.0,0.0,8791.1,0.0,55.0,5.0,242.03,0.0,0.0,0.0,0.0,0.0,0.0,1.0,0.0,0.6059999999999981,0.6059999999999981,0.0,0.0,0.0,55.0,616.79921,10000.0,85.000001,85.000001,85.000001,85.000001,395.0,0.0,0.0,0.0,1.0,166.665,52.78,52.78,47.867,47.867,34.0,-23.5925,25.646,-28.005,30.822499999999998,0.0,1782.833,-0.4549999999999983,100.0,27.326999999999998,27.745,42.241,42.622,0.0,0.0,100.0,0.0,0.0,0.0,0.0,3135.5,3100.9,4259.125,4177.9,305.45366666666666,304.82675,314.5495,314.45775,21.906,20.5761,21.9255,21.426,314.999998,314.999998,324.999988,324.999988,99.55974285714285,99.50736666666667,99.56834285714285,99.54722857142858,0.10233333333333339,-0.024499999999999966,-0.07883333333333332,0.15166666666666667,-0.06333333333333258,-0.054999999999999716,1.5246666666666666,1.491,37.912,29.601,38.034,34.9125,56.351,34.951,60.0005,52.474000000000004,54.260999999999996,34.0745,58.582499999999996,50.7935,53.417,33.6075,58.513,50.2,-0.10850000000000004,-0.03750000000000009,0.10615000000000001,0.10774500000000001,0.0,210.57,210.60500000000002,207.40333333333334,207.40333333333334,0.0,0.0
13,0.0,0.0,0.0,1.0,1.0,0.0,0.0,1.0,0.0,0.0,1.0,1.1856,26.0,0.0,0.0,0.0,59.999996,0.0,26.0,26.0,26.0,26.0,0.07877777777777784,0.28580000000000005,0.03246666666666667,292.587,-2.7419000000000002,-2.669875,-1.6266,-1.5048,-232.37,216.04000000000002,190.7255,0.0,0.0,0.0,0.0,0.026766666666666605,-5.498166666666667,-5.498166666666667,-0.5386000000000001,-0.08650000000000002,0.02344444444444438,-0.482,67.373,0.039900000000000005,-0.21457500000000002,-0.8020000000000005,100.0,1.0,1.0,207.76,0.0,0.0,0.0,0.0,0.0,0.0,0.0,8806.1,0.0,55.0,5.0,242.51333333333332,1.0,0.0,0.0,0.0,0.0,0.0,1.0,0.0,0.6539999999999999,0.6539999999999999,0.0,0.0,1.0,55.0,616.79921,10000.0,85.000001,85.000001,85.000001,85.000001,395.0,0.0,0.0,0.0,1.0,333.33500000000004,52.521,52.521,47.913,47.913,34.0,-21.939999999999998,27.032,-27.8325,31.815,0.0,1782.783,-0.8599999999999994,100.0,27.599,27.923000000000002,42.461,43.095,0.0,0.0,100.0,0.0,0.0,0.0,0.0,3155.875,3090.7,4215.25,4289.2,305.3693333333333,304.849,314.64875,314.1605,21.9151,20.5813,21.9354,21.4347,314.999998,314.999998,324.999988,324.999988,99.55975714285714,99.50736666666667,99.56847142857143,99.54735714285714,0.1403333333333332,0.013500000000000068,-0.06316666666666666,0.15566666666666665,-0.046666666666666856,-0.03499999999999659,1.5203333333333333,1.4809999999999999,37.969,29.633333333333333,38.096000000000004,34.967,56.341,34.987,60.0355,52.534,54.251000000000005,34.108000000000004,58.6145,50.851,53.406,33.6395,58.542500000000004,50.25666666666667,-0.14749999999999996,-0.000500000000000167,0.10436000000000001,0.107895,0.0,210.945,211.01,207.76,207.76,0.0,0.0
14,0.0,0.0,0.0,1.0,1.0,0.0,0.0,1.0,0.0,0.0,1.0,1.1856,26.0,0.0,0.0,0.0,59.999996,0.0,26.0,26.0,26.0,26.0,0.09644444444444433,0.2804,-0.010066666666666668,292.831,-2.7389,-2.6096250000000003,-1.6023,-1.5089000000000001,-228.73,216.01749999999998,190.703,0.0,0.0,0.0,0.0,0.028899999999999926,-5.498166666666667,-5.498166666666667,-0.5486,-0.13349999999999995,0.05322222222222206,-0.22199999999999998,67.521,0.0528,-0.22755,-1.0020000000000007,100.0,1.0,1.0,208.31,0.0,0.0,0.0,0.0,0.0,0.0,0.0,8829.5,0.0,55.0,5.0,243.04666666666668,0.0,0.0,0.0,0.0,0.0,0.0,1.0,0.0,0.7079999999999984,0.7079999999999984,0.0,0.0,0.0,55.0,616.79921,10000.0,85.000001,85.000001,85.000001,85.000001,395.0,0.0,0.0,0.0,1.0,166.665,52.612,52.612,48.111,48.111,34.0,-20.605,27.740000000000002,-25.3075,31.2225,0.0,1782.73,-0.9450000000000003,100.0,27.481,28.006999999999998,42.407,43.302,0.0,0.0,100.0,0.0,0.0,0.0,0.0,3024.0,3173.1,3986.0,4166.4,305.758,304.611,315.17275,314.48575,21.9253,20.5872,21.9465,21.4444,314.999998,314.999998,324.999988,324.999988,99.55977142857142,99.50736666666667,99.56862857142858,99.54751428571429,0.14600000000000013,0.023749999999999938,-0.057666666666666665,0.16733333333333333,-0.054999999999999716,-0.03999999999999915,1.558,1.5135,38.033,29.67,38.166,35.0275,56.329,35.0275,60.072,52.6,54.239999999999995,34.1455,58.6485,50.914500000000004,53.394,33.6755,58.573,50.318666666666665,-0.1459999999999999,-0.002000000000000224,0.11149500000000001,0.10208500000000001,0.0,211.4,211.46,208.31,208.31,0.0,0.0
15,0.0,0.0,0.0,1.0,1.0,0.0,0.0,1.0,0.0,0.0,1.0,1.1856,26.0,0.0,0.0,0.0,59.999996,0.0,26.0,26.0,26.0,26.0,0.11222222222222222,0.2784,0.0148,292.847,-2.7118,-2.574875,-1.6309,-1.453,-225.68,215.9975,190.683875,0.0,0.0,0.0,0.0,0.03066666666666651,-5.498166666666667,-5.498166666666667,-0.5394,0.259,0.0838888888888889,1.077,67.645,0.0663,-0.209125,-1.2120000000000006,100.0,1.0,1.0,208.67000000000002,0.0,0.0,0.0,0.0,0.0,0.0,0.0,8844.8,0.0,55.0,5.0,243.49333333333334,1.0,0.0,0.0,0.0,0.0,0.0,1.0,0.0,0.7530000000000001,0.7530000000000001,0.0,0.0,1.0,55.0,616.79921,10000.0,85.000001,85.000001,85.000001,85.000001,395.0,0.0,0.0,0.0,1.0,166.665,52.826,52.826,48.172,48.172,34.0,-17.6475,28.458,-23.9025,34.0275,0.0,1782.686,-0.9499999999999993,100.0,27.695,27.892,42.271,43.251,0.0,0.0,100.0,0.0,0.0,0.0,0.0,2787.875,3232.5,3945.25,4394.6,306.2543333333333,304.60325,315.24175,314.0355,21.933799999999998,20.5921,21.9557,21.4525,314.999998,314.999998,324.999988,324.999988,99.55978571428571,99.50738333333334,99.56874285714285,99.54764285714286,0.17333333333333334,0.03974999999999995,-0.02716666666666667,0.19783333333333333,-0.03833333333332689,-0.046666666666666856,1.5563333333333333,1.5025,38.086,29.700666666666663,38.223,35.078,56.32,35.0615,60.1015,52.6545,54.232,34.177,58.676,50.9675,53.384,33.706,58.5975,50.371,-0.15349999999999997,0.0004999999999999449,0.10762500000000001,0.11124500000000001,0.0,211.805,211.865,208.67000000000002,208.67000000000002,0.0,0.0
16,0.0,0.0,0.0,1.0,1.0,0.0,0.0,1.0,0.0,0.0,1.0,1.1856,26.0,0.0,0.0,0.0,59.999996,0.0,26.0,26.0,26.0,26.0,0.13444444444444437,0.2581,-0.0522,292.847,-2.8085,-2.5793749999999998,-1.6014,-1.4525000000000001,-222.23,215.98000000000002,190.661875,0.0,0.0,0.0,0.0,0.03266666666666651,-5.498166666666667,-5.498166666666667,-0.5615,-0.722,0.06911111111111112,-1.014,67.785,0.07880000000000001,-0.22637500000000002,-1.2139999999999995,100.0,1.0,1.0,209.10666666666668,0.0,0.0,0.0,0.0,0.0,0.0,0.0,8863.2,0.0,55.0,5.0,243.99666666666667,0.0,0.0,0.0,0.0,0.0,0.0,1.0,0.0,0.8039999999999985,0.8039999999999985,0.0,0.0,0.0,55.0,616.79921,10000.0,85.000001,85.000001,85.000001,85.000001,395.0,0.0,0.0,0.0,1.0,333.33500000000004,52.719,52.719,47.928,47.928,34.0,-20.1225,28.368,-23.365,32.25,0.0,1782.634,-0.8449999999999989,100.0,27.193,28.157,42.438,43.447,0.0,0.0,100.0,0.0,0.0,0.0,0.0,3010.75,3202.8,3959.5,4136.8,305.8946666666667,304.5495,315.249,314.57675,21.9431,20.5977,21.9663,21.4617,314.999998,314.999998,324.999988,324.999988,99.5598,99.50738333333334,99.5689,99.54778571428571,0.16733333333333333,0.038999999999999924,-0.02333333333333333,0.20766666666666667,-0.07166666666666544,-0.01999999999999602,1.5603333333333333,1.5025,38.144,29.735666666666667,38.289,35.1355,56.306,35.1015,60.138,52.716499999999996,54.218,34.214,58.7095,51.027,53.370000000000005,33.7415,58.628,50.42933333333333,-0.1479999999999999,-0.00550000000000006,0.10912500000000001,0.11077500000000001,0.0,212.195,212.26,209.10666666666668,209.10666666666668,0.0,0.0
17,0.0,0.0,0.0,1.0,1.0,0.0,0.0,1.0,0.0,0.0,1.0,1.1856,26.0,0.0,0.0,0.0,59.999996,0.0,26.0,26.0,26.0,26.0,0.11188888888888893,0.27870000000000017,-0.021400000000000002,292.526,-2.7629,-2.566125,-1.6407,-1.4782,-218.76999999999998,215.965,190.63925,0.0,0.0,0.0,0.0,0.03466666666666651,-5.498166666666667,-5.498166666666667,-0.55,0.562,0.04899999999999993,0.6590000000000003,67.924,0.0828,-0.20597500000000002,-1.146,100.0,1.0,1.0,209.49,0.0,0.0,0.0,0.0,0.0,0.0,0.0,8879.6,0.0,55.0,5.0,244.49666666666667,1.0,0.0,0.0,0.0,0.0,0.0,1.0,0.0,0.8550000000000004,0.8550000000000004,0.0,0.0,1.0,55.0,616.79921,10000.0,85.000001,85.000001,85.000001,85.000001,395.0,0.0,0.0,0.0,1.0,166.665,52.475,52.475,47.836,47.836,34.0,-19.3,27.712,-25.4325,34.435,0.0,1782.584,-0.9499999999999993,100.0,27.831,28.283,42.295,43.338,0.0,0.0,100.0,0.0,0.0,0.0,0.0,2986.25,3154.4,4206.375,4325.4,305.747,304.86125,314.70525,314.24775,21.9527,20.6034,21.9767,21.4709,314.999998,314.999998,324.999988,324.999988,99.55982857142857,99.5074,99.56902857142857,99.54794285714286,0.17833333333333323,0.04249999999999998,-0.018166666666666668,0.212,-0.026666666666670835,-0.061666666666667425,1.545,1.501,38.205,29.771333333333335,38.354,35.193,56.298,35.1425,60.1715,52.778,54.21,34.251999999999995,58.7405,51.0865,53.36,33.778,58.656,50.48766666666667,-0.14700000000000002,-0.013500000000000068,0.11267500000000001,0.10570500000000001,0.0,212.66,212.745,209.49,209.49,0.0,0.0
18,0.0,0.0,0.0,1.0,1.0,0.0,0.0,1.0,0.0,0.0,1.0,1.1856,26.0,0.0,0.0,0.0,59.999996,0.0,26.0,26.0,26.0,26.0,0.1407777777777779,0.2639,-0.011666666666666667,292.419,-2.8006,-2.534,-1.6596000000000002,-1.4189,-215.3,215.95499999999998,190.616875,0.0,0.0,0.0,0.0,0.036699999999999955,-5.498166666666667,-5.498166666666667,-0.5612,-0.5205,0.07377777777777772,-0.18900000000000006,68.062,0.08220000000000001,-0.22440000000000002,-1.2279999999999998,100.0,1.0,1.0,209.93666666666667,0.0,0.0,0.0,0.0,0.0,0.0,0.0,8898.4,0.0,55.0,5.0,244.99333333333334,0.0,0.0,0.0,0.0,0.0,0.0,1.0,0.0,0.9059999999999988,0.9059999999999988,0.0,0.0,0.0,55.0,616.79921,10000.0,85.000001,85.000001,85.000001,85.000001,395.0,0.0,0.0,0.0,1.0,166.665,52.231,52.231,47.668,47.668,34.0,-20.08,29.974,-25.0525,32.260000000000005,0.0,1782.534,-1.2300000000000004,100.0,27.419,28.304000000000002,42.553,43.846000000000004,0.0,0.0,100.0,0.0,0.0,0.0,0.0,3118.75,3312.9,4047.625,4198.0,305.587,304.25775,315.079,314.45375,21.9622,20.609,21.9873,21.4802,314.999998,314.999998,324.999988,324.999988,99.55985714285714,99.5074,99.56917142857142,99.54808571428572,0.18566666666666687,0.06125000000000003,-0.0285,0.20450000000000002,-0.041666666666671404,-0.06666666666666998,1.5523333333333333,1.49,38.263999999999996,29.806333333333335,38.42,35.251,56.288,35.1825,60.207499999999996,52.842,54.2,34.289500000000004,58.774,51.147999999999996,53.349000000000004,33.814,58.686,50.548,-0.16749999999999998,0.0129999999999999,0.10591500000000001,0.11025000000000001,0.0,213.06,213.14499999999998,209.93666666666667,209.93666666666667,0.0,0.0
19,0.0,0.0,0.0,1.0,1.0,0.0,0.0,1.0,0.0,0.0,1.0,1.1856,26.0,0.0,0.0,0.0,59.999996,0.0,26.0,26.0,26.0,26.0,0.1651111111111112,0.2953000000000001,0.028633333333333334,291.992,-2.7721,-2.5215,-1.6747,-1.4001000000000001,-212.03,215.9475,190.595625,0.0,0.0,0.0,0.0,0.03859999999999997,-5.498166666666667,-5.498166666666667,-0.551,0.8335,0.08466666666666667,-0.4829999999999999,68.191,0.091,-0.21100000000000002,-1.5920000000000005,100.0,1.0,1.0,210.31333333333333,0.0,0.0,0.0,0.0,0.0,0.0,0.0,8914.4,0.0,55.0,5.0,245.46,1.0,0.0,0.0,0.0,0.0,0.0,1.0,0.0,0.9540000000000006,0.9540000000000006,0.0,0.0,1.0,55.0,616.79921,10000.0,85.000001,85.000001,85.000001,85.000001,395.0,0.0,0.0,0.0,1.0,333.33500000000004,51.682,51.682,47.562,47.562,34.0,-18.91,30.594,-24.9625,34.265,0.0,1782.484,-1.4849999999999994,100.0,27.916,28.792,42.272999999999996,43.849000000000004,0.0,0.0,100.0,0.0,0.0,0.0,0.0,3133.0,3319.2,4178.75,4403.0,305.426,304.142,314.8265,314.0175,21.9712,20.6145,21.997,21.4889,314.999998,314.999998,324.999988,324.999988,99.55987142857143,99.5074,99.56931428571428,99.54822857142857,0.21033333333333326,0.07350000000000012,-0.005833333333333333,0.2135,-0.03833333333332689,-0.046666666666666856,1.5546666666666666,1.491,38.32,29.840666666666664,38.480999999999995,35.3055,56.282,35.2245,60.238,52.9005,54.194,34.328,58.8025,51.205,53.342,33.851,58.7115,50.604,-0.19399999999999995,0.03299999999999992,0.10552500000000001,0.09895000000000001,0.0,213.48000000000002,213.57999999999998,210.31333333333333,210.31333333333333,0.0,0.0
20,0.0,0.0,0.0,1.0,1.0,0.0,0.0,1.0,0.0,0.0,1.0,1.1856,26.0,0.0,0.0,0.0,59.999996,0.0,26.0,26.0,26.0,26.0,0.19677777777777794,0.2632000000000001,-0.04846666666666667,292.389,-2.8295,-2.576125,-1.6073,-1.5166,-208.35,215.945,190.572,0.0,0.0,0.0,0.0,0.0407333333333334,-5.498166666666667,-5.498166666666667,-0.5572,-1.161,0.0928888888888888,-0.806,68.338,0.1097,-0.22565000000000002,-1.8320000000000007,100.0,1.0,1.0,210.67000000000002,0.0,0.0,0.0,0.0,0.0,0.0,0.0,8929.5,0.0,55.0,5.0,245.99,0.0,0.0,0.0,0.0,0.0,0.0,0.0,0.0,1.0079999999999991,1.0079999999999991,0.0,0.0,0.0,55.0,616.79921,10000.0,85.000001,85.000001,85.000001,85.000001,395.0,0.0,0.0,0.0,1.0,166.665,52.78,52.78,47.073,47.073,34.0,-17.98,28.97,-22.472499999999997,36.46,0.0,1782.43,-0.8649999999999984,100.0,27.269,28.509,42.76,44.385999999999996,0.0,0.0,100.0,0.0,0.0,0.0,0.0,2865.875,3181.6,4080.0,4262.3,306.31933333333336,304.59275,314.91375,314.16575,21.9809,20.6205,22.0082,21.4988,314.999998,314.999998,324.999988,324.999988,99.5599,99.50741666666667,99.56947142857143,99.54838571428571,0.19766666666666666,0.05824999999999991,0.015833333333333335,0.24033333333333334,-0.03999999999999915,-0.036666666666668846,1.5186666666666666,1.455,38.379999999999995,29.878333333333334,38.552,35.3675,56.269999999999996,35.269,60.278,52.9695,54.183,34.3695,58.839,51.2715,53.329,33.891,58.745,50.669333333333334,-0.16199999999999992,0.0029999999999998916,0.10681,0.10916000000000001,0.0,213.86,213.995,210.67000000000002,210.67000000000002,0.0,0.0
21,0.0,0.0,0.0,1.0,1.0,0.0,0.0,1.0,0.0,0.0,1.0,1.1856,26.0,0.0,0.0,0.0,59.999996,0.0,26.0,26.0,26.0,26.0,0.13344444444444448,0.28059999999999996,-0.06783333333333334,292.679,-2.7388,-2.636,-1.665,-1.4832,-205.26999999999998,215.945,190.551625,0.0,0.0,0.0,0.0,0.04253333333333331,-5.498166666666667,-5.498166666666667,-0.5785,0.49849999999999994,0.07088888888888878,-0.1499999999999999,68.45400000000001,0.11960000000000001,-0.225475,-1.2359999999999998,100.0,1.0,1.0,211.2733333333333,0.0,0.0,0.0,0.0,0.0,0.0,0.0,8955.0,0.0,55.0,5.0,246.40666666666667,1.0,0.0,0.0,0.0,0.0,0.0,0.0,0.0,1.0530000000000008,1.0530000000000008,0.0,0.0,1.0,55.0,616.79921,10000.0,85.000001,85.000001,85.000001,85.000001,395.0,0.0,0.0,0.0,1.0,166.665,52.246,52.246,48.309,48.309,34.0,-20.044999999999998,28.544,-21.53,33.385000000000005,0.0,1782.386,0.08500000000000085,100.0,27.737000000000002,28.495,42.192,43.85,0.0,0.0,100.0,0.0,0.0,0.0,0.0,2940.5,3264.8,3916.0,4055.5,305.824,304.433,315.4345,314.87025,21.9892,20.6257,22.0173,21.5068,314.999998,314.999998,324.999988,324.999988,99.55991428571429,99.50743333333334,99.56958571428571,99.54851428571429,0.14900000000000002,0.017749999999999932,0.01916666666666667,0.247,-0.041666666666671404,-0.06666666666666998,1.6136666666666666,1.564,38.432,29.910333333333334,38.608000000000004,35.418,56.260999999999996,35.3065,60.304,53.022,54.174,34.403999999999996,58.863,51.322,53.319,33.924,58.766,50.71933333333333,-0.0794999999999999,-0.07350000000000012,0.10724,0.10714000000000001,0.0,214.29000000000002,214.4,211.2733333333333,211.2733333333333,0.0,0.0
22,0.0,0.0,0.0,1.0,1.0,0.0,0.0,1.0,0.0,0.0,1.0,1.1856,26.0,0.0,0.0,0.0,59.999996,0.0,26.0,26.0,26.0,26.0,0.09899999999999998,0.2599,0.025466666666666665,292.099,-2.7074,-2.65275,-1.6407,-1.4892,-201.76999999999998,215.95,190.52775,0.0,0.0,0.0,0.0,0.04456666666666653,-5.498166666666667,-5.498166666666667,-0.5563,0.12,0.054888888888888765,-0.8859999999999999,68.593,0.0961,-0.20500000000000002,0.07000000000000028,100.0,1.0,1.0,211.47,0.0,0.0,0.0,0.0,0.0,0.0,0.0,8963.4,0.0,55.0,5.0,246.90666666666667,0.0,0.0,0.0,0.0,0.0,0.0,0.0,0.0,1.1039999999999992,1.1039999999999992,0.0,0.0,0.0,55.0,616.79921,10000.0,85.000001,85.000001,85.000001,85.000001,395.0,0.0,0.0,0.0,1.0,166.665,52.307,52.307,47.104,47.104,34.0,-22.12,24.976,-27.0775,33.2375,0.0,1782.335,0.625,100.0,27.808,28.616,42.738,44.079,0.0,0.0,100.0,0.0,0.0,0.0,0.0,2985.75,3103.3,4255.0,4304.0,305.83033333333333,304.71625,314.607,314.20975,21.9986,20.6314,22.0279,21.5161,314.999998,314.999998,324.999988,324.999988,99.55994285714286,99.50743333333334,99.56974285714286,99.54867142857142,0.09800000000000009,-0.03974999999999995,-0.03716666666666667,0.185,-0.060000000000002274,-0.03833333333332689,1.4863333333333333,1.4835,38.491,29.945999999999998,38.674,35.476,56.248999999999995,35.3455,60.341499999999996,53.085499999999996,54.162,34.44,58.897999999999996,51.382999999999996,53.306,33.959,58.7975,50.779333333333334,-0.028000000000000025,-0.129,0.10993000000000001,0.104965,0.0,214.79000000000002,214.76,211.47,211.47,0.0,0.0
23,0.0,0.0,0.0,1.0,1.0,0.0,0.0,1.0,0.0,0.0,1.0,1.1856,26.0,0.0,0.0,0.0,59.999996,0.0,26.0,26.0,26.0,26.0,0.01344444444444437,0.25170000000000003,-0.010733333333333333,292.084,-2.7066,-2.63525,-1.5451000000000001,-1.5813000000000001,-198.26999999999998,215.95499999999998,190.50425,0.0,0.0,0.0,0.0,0.046599999999999975,-5.498166666666667,-5.498166666666667,-0.5756,-0.3295000000000001,0.026888888888888962,0.05699999999999994,68.727,0.0439,-0.23267500000000002,0.8860000000000001,100.0,1.0,1.0,211.98666666666668,0.0,0.0,0.0,0.0,0.0,0.0,0.0,8985.3,0.0,55.0,5.0,247.39333333333335,1.0,0.0,0.0,0.0,0.0,0.0,0.0,0.0,1.1550000000000011,1.1550000000000011,0.0,0.0,1.0,55.0,616.79921,10000.0,85.000001,85.000001,85.000001,85.000001,395.0,0.0,0.0,0.0,1.0,166.665,51.650999999999996,51.650999999999996,48.05,48.05,34.0,-25.675,24.076,-25.79,29.42,0.0,1782.284,0.8249999999999993,100.0,28.376,28.352,43.233000000000004,44.035,0.0,0.0,100.0,0.0,0.0,0.0,0.0,3222.5,3206.9,3931.125,4006.1000000000004,304.9816666666667,304.69275,315.225,314.88925,22.008,20.637,22.0385,21.5254,314.999998,314.999998,324.999988,324.999988,99.55994285714286,99.50743333333334,99.56987142857143,99.54881428571429,0.06866666666666688,-0.07074999999999998,-0.08416666666666667,0.14216666666666666,-0.046666666666666856,-0.03333333333333144,1.5073333333333334,1.542,38.55,29.981666666666666,38.739999999999995,35.534,56.233999999999995,35.385999999999996,60.3765,53.147,54.147999999999996,34.4775,58.9305,51.442499999999995,53.291,33.995,58.827,50.83733333333333,-0.010999999999999899,-0.14700000000000024,0.105855,0.11059000000000001,0.0,215.19,215.115,211.98666666666668,211.98666666666668,0.0,0.0
24,0.0,0.0,0.0,1.0,1.0,0.0,0.0,1.0,0.0,0.0,1.0,1.1856,26.0,0.0,0.0,0.0,59.999996,0.0,26.0,26.0,26.0,26.0,-0.04922222222222217,0.2643,-0.004966666666666667,292.374,-2.7072,-2.6675,-1.5679,-1.5433,-194.76,215.9625,190.480375,0.0,0.0,0.0,0.0,0.048633333333333306,-5.498166666666667,-5.498166666666667,-0.5804,-0.5785,0.008999999999999897,-0.44599999999999995,68.863,-0.011300000000000001,-0.216725,1.2520000000000007,100.0,1.0,1.0,212.31333333333333,0.0,0.0,0.0,0.0,0.0,0.0,0.0,8999.2,0.0,55.0,5.0,247.88,0.0,0.0,0.0,0.0,0.0,0.0,0.0,0.0,1.2059999999999995,1.2059999999999995,0.0,0.0,0.0,55.0,616.79921,10000.0,85.000001,85.000001,85.000001,85.000001,395.0,0.0,0.0,0.0,1.0,166.665,52.887,52.887,47.058,47.058,34.0,-24.7375,20.244,-32.8875,26.060000000000002,0.0,1782.234,0.7750000000000021,100.0,28.137,28.091,43.427,43.706,0.0,0.0,100.0,0.0,0.0,0.0,0.0,2972.0,2903.1,4341.625,4083.4,305.92,305.54,314.3465,314.75825,22.0174,20.6425,22.049,21.5346,314.999998,314.999998,324.999988,324.999988,99.55995714285714,99.50745,99.57002857142857,99.54897142857143,0.028999999999999915,-0.11099999999999999,-0.14733333333333334,0.07416666666666667,-0.04333333333332945,-0.04333333333332945,1.4763333333333333,1.546,38.608999999999995,30.015333333333334,38.806,35.591,56.217,35.425,60.413,53.206,54.132,34.513999999999996,58.9645,51.499,53.274,34.03,58.8575,50.89266666666666,-0.024499999999999966,-0.14100000000000001,0.10594,0.107675,0.0,215.65,215.525,212.31333333333333,212.31333333333333,0.0,0.0
25,0.0,0.0,0.0,1.0,1.0,0.0,0.0,1.0,0.0,0.0,1.0,1.1856,26.0,0.0,0.0,0.0,59.999996,0.0,26.0,26.0,26.0,26.0,-0.1123333333333334,0.268,-0.06576666666666667,292.175,-2.7359,-2.662875,-1.556,-1.574,-191.25,215.9675,190.454875,0.0,0.0,0.0,0.0,0.05066666666666653,-5.498166666666667,-5.498166666666667,-0.6132000000000001,0.09750000000000003,-0.01644444444444426,-0.639,68.995,-0.0529,-0.22562500000000002,1.3279999999999994,100.0,1.0,1.0,212.87333333333333,0.0,0.0,0.0,0.0,0.0,0.0,0.0,9022.9,0.0,55.0,5.0,248.35333333333335,1.0,0.0,0.0,0.0,0.0,0.0,0.0,0.0,1.256999999999998,1.256999999999998,0.0,0.0,1.0,55.0,616.79921,10000.0,85.000001,85.000001,85.000001,85.000001,395.0,0.0,0.0,0.0,1.0,166.665,51.62,51.62,47.913,47.913,34.0,-29.4275,22.192,-30.705,24.377499999999998,0.0,1782.182,0.754999999999999,100.0,28.463,28.08,43.443,43.122,0.0,0.0,100.0,0.0,0.0,0.0,0.0,3324.375,3280.6,3999.375,3974.6000000000004,304.827,304.49375,315.1765,315.054,22.0269,20.648,22.0595,21.5436,314.999998,314.999998,324.999988,324.999988,99.55995714285714,99.50746666666667,99.57017142857143,99.54911428571428,0.009333333333333416,-0.13124999999999998,-0.176,0.05316666666666667,-0.04833333333333201,-0.04333333333332945,1.545,1.595,38.668,30.050333333333334,38.872,35.6475,56.2,35.468,60.4465,53.262,54.114999999999995,34.5535,58.996,51.553,53.257,34.068,58.885999999999996,50.94533333333334,-0.020499999999999963,-0.14000000000000012,0.108105,0.10645,0.0,216.05,215.925,212.87333333333333,212.87333333333333,0.0,0.0
26,0.0,0.0,0.0,1.0,1.0,0.0,0.0,1.0,0.0,0.0,1.0,1.1856,26.0,0.0,0.0,0.0,59.999996,0.0,26.0,26.0,26.0,26.0,-0.13811111111111107,0.28070000000000017,0.05483333333333334,291.077,-2.66,-2.7657499999999997,-1.5808,-1.5903,-187.72,215.97,190.429125,0.0,0.0,0.0,0.0,0.0527333333333333,-5.498166666666667,-5.498166666666667,-0.5691,0.5780000000000001,-0.06199999999999983,-1.115,69.132,-0.0815,-0.197475,1.3659999999999997,100.0,1.0,1.0,212.99666666666667,0.0,0.0,0.0,0.0,0.0,0.0,0.0,9028.1,0.0,55.0,5.0,248.84666666666666,0.0,0.0,0.0,0.0,0.0,0.0,0.0,0.0,1.3079999999999998,1.3079999999999998,0.0,0.0,0.0,55.0,616.79921,10000.0,85.000001,85.000001,85.000001,85.000001,395.0,0.0,0.0,0.0,1.0,166.665,51.453,51.453,46.036,46.036,34.0,-29.585,19.445999999999998,-40.14,25.9575,0.0,1782.131,0.48499999999999943,100.0,29.288,28.59,44.26,43.412,0.0,0.0,100.0,0.0,0.0,0.0,0.0,3343.375,2911.9,4696.5,4438.4,304.8186666666667,305.341,313.56925,313.91975,22.0367,20.6537,22.0703,21.5528,314.999998,314.999998,324.999988,324.999988,99.55995714285714,99.50748333333334,99.57032857142858,99.54925714285714,-0.007333333333333303,-0.15749999999999997,-0.20616666666666666,0.006,-0.04999999999999716,-0.046666666666666856,1.3986666666666667,1.4569999999999999,38.729,30.085333333333335,38.939,35.7055,56.187,35.513,60.4875,53.322,54.102999999999994,34.595,59.0345,51.611000000000004,53.244,34.1075,58.9215,51.002,-0.04299999999999993,-0.12300000000000022,0.10219500000000001,0.10405,0.0,216.51999999999998,216.38,212.99666666666667,212.99666666666667,0.0,0.0
27,0.0,0.0,0.0,1.0,1.0,0.0,0.0,1.0,0.0,0.0,1.0,1.1856,26.0,0.0,0.0,0.0,59.999996,0.0,26.0,26.0,26.0,26.0,-0.12277777777777776,0.24550000000000005,-0.0177,291.58,-2.6116,-2.7516249999999998,-1.5599,-1.6716000000000002,-184.61,215.97,190.407625,0.0,0.0,0.0,0.0,0.05453333333333332,-5.498166666666667,-5.498166666666667,-0.5972000000000001,-1.0779999999999998,-0.06999999999999984,0.714,69.248,-0.0892,-0.24430000000000002,1.0540000000000003,100.0,1.0,1.0,213.48333333333335,0.0,0.0,0.0,0.0,0.0,0.0,0.0,9048.8,0.0,55.0,5.0,249.26666666666665,1.0,0.0,0.0,0.0,0.0,0.0,0.0,0.0,1.352999999999998,1.352999999999998,0.0,0.0,1.0,55.0,616.79921,10000.0,85.000001,85.000001,85.000001,85.000001,395.0,0.0,0.0,0.0,1.0,166.665,51.743,51.743,46.661,46.661,34.0,-27.585,21.016,-33.785,24.82,0.0,1782.086,0.4299999999999997,100.0,29.216,28.07,45.028,43.732,0.0,0.0,100.0,0.0,0.0,0.0,0.0,3202.625,3075.8,4157.375,4023.1000000000004,305.04333333333335,305.136,314.70625,314.85975,22.045099999999998,20.6584,22.0798,21.5611,314.999998,314.999998,324.999988,324.999988,99.55995714285714,99.5075,99.57047142857142,99.5494,0.0016666666666667052,-0.14024999999999999,-0.197,0.0205,-0.04833333333333201,-0.05333333333332746,1.474,1.5085,38.782,30.115333333333332,38.998999999999995,35.757,56.172,35.55,60.5235,53.3745,54.089,34.6295,59.068,51.661500000000004,53.229,34.1405,58.952,51.051,-0.04800000000000004,-0.10899999999999999,0.09964,0.10364000000000001,0.0,216.79500000000002,216.695,213.48333333333335,213.48333333333335,0.0,0.0
28,0.0,0.0,0.0,1.0,1.0,0.0,0.0,1.0,0.0,0.0,1.0,1.1856,26.0,0.0,0.0,0.0,59.999996,0.0,26.0,26.0,26.0,26.0,-0.10977777777777786,0.2713000000000001,-0.05103333333333333,291.901,-2.6461,-2.7315,-1.5108000000000001,-1.6284,-181.07999999999998,215.9675,190.38225,0.0,0.0,0.0,0.0,0.056599999999999984,-5.498166666666667,-5.498166666666667,-0.601,0.641,-0.0725555555555557,-0.46899999999999986,69.378,-0.0926,-0.216875,1.0579999999999998,100.0,1.0,1.0,213.98333333333335,0.0,0.0,0.0,0.0,0.0,0.0,0.0,9070.0,0.0,55.0,5.0,249.73333333333335,0.0,0.0,0.0,0.0,0.0,0.0,0.0,0.0,1.404,1.404,0.0,0.0,0.0,55.0,616.79921,10000.0,85.000001,85.000001,85.000001,85.000001,395.0,0.0,0.0,0.0,1.0,333.33500000000004,51.772999999999996,51.772999999999996,47.546,47.546,34.0,-29.4325,19.672,-33.43,24.259999999999998,0.0,1782.034,0.28000000000000114,100.0,29.124,28.155,44.221000000000004,43.162,0.0,0.0,100.0,0.0,0.0,0.0,0.0,3355.375,2926.8,4165.875,4072.7,304.804,305.38625,314.8785,314.818,22.0549,20.663899999999998,22.0902,21.5701,314.999998,314.999998,324.999988,324.999988,99.55997142857143,99.50751666666666,99.57061428571429,99.54954285714285,-0.004666666666666597,-0.14549999999999996,-0.21233333333333335,0.01933333333333333,-0.030000000000001137,-0.03833333333332689,1.5263333333333335,1.56,38.843,30.14966666666667,39.064,35.813,56.158,35.593,60.5575,53.43,54.075,34.669,59.0995,51.7145,53.215,34.1785,58.981,51.102333333333334,-0.06349999999999989,-0.10199999999999987,0.10408,0.11139,0.0,217.235,217.14499999999998,213.98333333333335,213.98333333333335,0.0,0.0
29,0.0,0.0,0.0,1.0,1.0,0.0,0.0,1.0,0.0,0.0,1.0,1.1856,26.0,0.0,0.0,0.0,59.999996,0.0,26.0,26.0,26.0,26.0,-0.10566666666666658,0.2541,0.04103333333333333,291.565,-2.5918,-2.7815000000000003,-1.5486,-1.6048,-177.32999999999998,215.96,190.35425,0.0,0.0,0.0,0.0,0.05876666666666652,-5.498166666666667,-5.498166666666667,-0.6086,-0.7035,-0.06933333333333369,-0.663,69.519,-0.0815,-0.22057500000000002,0.6920000000000011,100.0,1.0,1.0,214.2733333333333,0.0,0.0,0.0,0.0,0.0,0.0,0.0,9082.2,0.0,55.0,5.0,250.24333333333334,1.0,0.0,0.0,0.0,0.0,0.0,0.0,0.0,1.4579999999999984,1.4579999999999984,0.0,0.0,1.0,55.0,616.79921,10000.0,85.000001,85.000001,85.000001,85.000001,395.0,0.0,0.0,0.0,1.0,166.665,51.758,51.758,46.722,46.722,34.0,-28.74,20.996,-35.057500000000005,25.3,0.0,1781.981,0.1700000000000017,100.0,28.8,28.055,44.599000000000004,43.469,0.0,0.0,100.0,0.0,0.0,0.0,0.0,3368.0,2996.1,4266.875,4142.9,304.7676666666667,305.1055,314.509,314.56875,22.0649,20.6697,22.1016,21.5799,314.999998,314.999998,324.999988,324.999988,99.55997142857143,99.50753333333333,99.57077142857143,99.54968571428572,0.0016666666666667052,-0.13924999999999998,-0.20450000000000002,0.029500000000000002,-0.051666666666669414,-0.036666666666668846,1.4656666666666667,1.4965,38.906,30.185333333333332,39.135,35.8745,56.138999999999996,35.637,60.6,53.4925,54.058,34.7095,59.1395,51.7745,53.196,34.217,59.016999999999996,51.16133333333333,-0.07099999999999995,-0.09200000000000008,0.11257,0.11532,0.0,217.635,217.56,214.2733333333333,214.2733333333333,0.0,0.0
30,0.0,0.0,0.0,1.0,1.0,0.0,0.0,1.0,0.0,0.0,1.0,1.1856,26.0,0.0,0.0,0.0,59.999996,0.0,26.0,26.0,26.0,26.0,-0.0932222222222222,0.2539,0.05813333333333334,291.031,-2.6498,-2.668375,-1.4954,-1.6582,-174.19,215.9525,190.330875,0.0,0.0,0.0,0.0,0.06059999999999999,-5.498166666666667,-5.498166666666667,-0.6038,0.7989999999999999,-0.06144444444444419,0.9239999999999999,69.634,-0.0719,-0.21732500000000002,0.5660000000000007,100.0,1.0,1.0,214.65666666666667,0.0,0.0,0.0,0.0,0.0,0.0,0.0,9098.5,0.0,55.0,5.0,250.65333333333334,0.0,0.0,0.0,0.0,0.0,0.0,1.0,0.0,1.5030000000000001,1.5030000000000001,0.0,0.0,0.0,55.0,616.79921,10000.0,85.000001,85.000001,85.000001,85.000001,395.0,0.0,0.0,0.0,1.0,166.665,50.797,50.797,46.844,46.844,34.0,-28.5875,21.92,-33.06,28.137500000000003,0.0,1781.937,0.045000000000001705,100.0,29.740000000000002,28.621000000000002,44.491,43.441,0.0,0.0,100.0,0.0,0.0,0.0,0.0,3404.375,3131.4,4275.125,4264.0,304.4526666666667,304.86775,314.4855,314.30375,22.0736,20.6747,22.1109,21.588,314.999998,314.999998,324.999988,324.999988,99.55997142857143,99.50755,99.57091428571428,99.54982857142858,0.03166666666666673,-0.11475000000000002,-0.17866666666666667,0.050833333333333335,-0.02833333333332888,-0.054999999999999716,1.463,1.4929999999999999,38.96,30.217,39.193,35.925,56.129000000000005,35.6765,60.631,53.5435,54.048,34.746,59.1685,51.823499999999996,53.185,34.251999999999995,59.0435,51.209,-0.08199999999999985,-0.08650000000000002,0.10373500000000001,0.10999500000000001,0.0,218.025,217.97,214.65666666666667,214.65666666666667,0.0,0.0
31,0.0,0.0,0.0,1.0,1.0,0.0,0.0,1.0,0.0,0.0,1.0,1.1856,26.0,0.0,0.0,0.0,59.999996,0.0,26.0,26.0,26.0,26.0,-0.08466666666666656,0.24839999999999995,-0.0067,290.985,-2.7201,-2.640625,-1.5846,-1.6505,-170.64,215.94,190.305,0.0,0.0,0.0,0.0,0.06266666666666654,-5.498166666666667,-5.498166666666667,-0.5894,-0.5445,-0.05288888888888854,-0.788,69.765,-0.054900000000000004,-0.21905000000000002,0.2860000000000005,100.0,1.0,1.0,214.96,0.0,0.0,0.0,0.0,0.0,0.0,0.0,9111.4,0.0,55.0,5.0,251.13,1.0,0.0,0.0,0.0,0.0,0.0,1.0,0.0,1.5539999999999985,1.5539999999999985,0.0,0.0,1.0,55.0,616.79921,10000.0,85.000001,85.000001,85.000001,85.000001,395.0,0.0,0.0,0.0,1.0,333.33500000000004,51.514,51.514,45.486,45.486,34.0,-27.0175,21.23,-35.815,28.305,0.0,1781.884,-0.03999999999999915,100.0,29.234,28.825,45.019999999999996,44.239000000000004,0.0,0.0,100.0,0.0,0.0,0.0,0.0,3235.25,3068.8,4487.875,4223.3,305.285,305.10125,314.0355,314.4615,22.0831,20.6804,22.1216,21.5975,314.999998,314.999998,324.999988,324.999988,99.55998571428572,99.50756666666666,99.57105714285714,99.54997142857142,0.03499999999999992,-0.11224999999999996,-0.1695,0.06133333333333334,-0.04833333333333201,-0.03999999999999915,1.459,1.468,39.019999999999996,30.252333333333333,39.26,35.9845,56.113,35.719,60.6715,53.6045,54.033,34.785,59.2065,51.8825,53.17,34.289500000000004,59.078,51.266333333333336,-0.08949999999999991,-0.07900000000000018,0.11141000000000001,0.10765500000000001,0.0,218.38,218.365,214.96,214.96,0.0,0.0
32,0.0,0.0,0.0,1.0,1.0,0.0,0.0,1.0,0.0,0.0,1.0,1.1856,26.0,0.0,0.0,0.0,59.999996,0.0,26.0,26.0,26.0,26.0,-0.07033333333333336,0.2721,-0.05043333333333334,291.245,-2.6555,-2.74675,-1.6112000000000002,-1.5586,-167.07999999999998,215.9275,190.279375,0.0,0.0,0.0,0.0,0.06473333333333331,-5.498166666666667,-5.498166666666667,-0.6071000000000001,0.1985,-0.0733333333333337,0.2290000000000001,69.893,-0.0408,-0.2272,0.1979999999999995,100.0,1.0,1.0,215.51,0.0,0.0,0.0,0.0,0.0,0.0,0.0,9134.6,0.0,55.0,5.0,251.58666666666664,0.0,0.0,0.0,0.0,0.0,0.0,1.0,0.0,1.6050000000000004,1.6050000000000004,0.0,0.0,0.0,55.0,616.79921,10000.0,85.000001,85.000001,85.000001,85.000001,395.0,0.0,0.0,0.0,1.0,166.665,51.239,51.239,46.6,46.6,34.0,-26.1525,23.6,-32.345,26.9125,0.0,1781.835,-0.11499999999999844,100.0,29.351,28.688,44.715,43.934,0.0,0.0,100.0,0.0,0.0,0.0,0.0,3274.625,3124.9,4226.125,4180.6,304.89633333333336,304.9275,314.7255,314.679,22.0926,20.6861,22.1321,21.6067,314.999998,314.999998,324.999988,324.999988,99.55998571428572,99.50758333333333,99.57121428571429,99.55012857142857,0.057333333333333236,-0.09024999999999994,-0.15283333333333335,0.07516666666666667,-0.054999999999999716,-0.041666666666671404,1.5373333333333332,1.552,39.079,30.288,39.326,36.042,56.099000000000004,35.7615,60.7055,53.661500000000004,54.019999999999996,34.8245,59.238,51.937,53.156,34.3275,59.107,51.31933333333333,-0.08999999999999986,-0.08099999999999996,0.10772000000000001,0.10409,0.0,218.79000000000002,218.755,215.51,215.51,0.0,0.0
33,0.0,0.0,0.0,1.0,1.0,0.0,0.0,1.0,0.0,0.0,1.0,1.1856,26.0,0.0,0.0,0.0,59.999996,0.0,26.0,26.0,26.0,26.0,-0.03222222222222215,0.26270000000000016,-0.0286,291.382,-2.6783,-2.72875,-1.5512000000000001,-1.6301999999999999,-163.51,215.9125,190.25275,0.0,0.0,0.0,0.0,0.06679999999999997,-5.498166666666667,-5.498166666666667,-0.6117,-0.47750000000000004,-0.06111111111111134,0.19300000000000006,70.023,-0.0273,-0.215375,0.1479999999999997,100.0,1.0,1.0,215.80666666666667,0.0,0.0,0.0,0.0,0.0,0.0,0.0,9147.2,0.0,55.0,5.0,252.05666666666667,1.0,0.0,0.0,0.0,0.0,0.0,1.0,0.0,1.6559999999999988,1.6559999999999988,0.0,0.0,1.0,55.0,616.79921,10000.0,85.000001,85.000001,85.000001,85.000001,395.0,0.0,0.0,0.0,1.0,166.665,51.849000000000004,51.849000000000004,46.509,46.509,34.0,-25.3775,22.299999999999997,-31.58,28.995,0.0,1781.783,-0.1750000000000007,100.0,28.962,28.517,44.599000000000004,44.129999999999995,0.0,0.0,100.0,0.0,0.0,0.0,0.0,3202.125,2965.8,4250.25,4256.1,305.27133333333336,305.3025,314.555,314.34,22.102,20.6915,22.1427,21.616,314.999998,314.999998,324.999988,324.999988,99.56,99.50758333333333,99.57137142857142,99.55027142857143,0.06000000000000005,-0.08750000000000002,-0.14166666666666666,0.0745,-0.06333333333333258,-0.046666666666666856,1.4816666666666667,1.484,39.138,30.322,39.391999999999996,36.1,56.085,35.7995,60.7415,53.7205,54.006,34.8595,59.272,51.9935,53.141,34.361000000000004,59.1375,51.37466666666667,-0.10099999999999998,-0.06850000000000023,0.10417000000000001,0.09956000000000001,0.0,219.185,219.155,215.80666666666667,215.80666666666667,0.0,0.0
34,0.0,0.0,0.0,1.0,1.0,0.0,0.0,1.0,0.0,0.0,1.0,1.1856,26.0,0.0,0.0,0.0,59.999996,0.0,26.0,26.0,26.0,26.0,-0.019777777777777783,0.26180000000000003,-0.06886666666666666,291.733,-2.6946,-2.679125,-1.6172,-1.5866,-160.14999999999998,215.8975,190.2265,0.0,0.0,0.0,0.0,0.06876666666666653,-5.498166666666667,-5.498166666666667,-0.6428,-0.8075000000000001,-0.026333333333333098,-0.006000000000000005,70.143,-0.0177,-0.22610000000000002,0.09200000000000053,100.0,1.0,1.0,216.24333333333334,0.0,0.0,0.0,0.0,0.0,0.0,0.0,9165.8,0.0,55.0,5.0,252.49,0.0,0.0,0.0,0.0,0.0,0.0,1.0,0.0,1.7040000000000006,1.7040000000000006,0.0,0.0,0.0,55.0,616.79921,10000.0,85.000001,85.000001,85.000001,85.000001,395.0,0.0,0.0,0.0,1.0,166.665,52.032,52.032,47.302,47.302,34.0,-24.735,22.936,-30.355,28.4675,0.0,1781.736,-0.23000000000000043,100.0,28.683,28.277,44.261,44.188,0.0,0.0,100.0,0.0,0.0,0.0,0.0,3176.75,3001.5,4071.875,4148.5,305.222,305.22,315.0495,314.562,22.1108,20.6967,22.1525,21.6248,314.999998,314.999998,324.999988,324.999988,99.56,99.5076,99.5715,99.5504,0.07666666666666666,-0.0685,-0.1365,0.09516666666666668,-0.03166666666666629,-0.06333333333333258,1.5183333333333335,1.5265,39.192,30.354666666666667,39.453,36.1545,56.071,35.835499999999996,60.7725,53.7755,53.992999999999995,34.893,59.3005,52.047,53.126999999999995,34.393,59.163,51.42633333333333,-0.10699999999999998,-0.05799999999999983,0.10337,0.105075,0.0,219.525,219.51999999999998,216.24333333333334,216.24333333333334,0.0,0.0
35,0.0,0.0,0.0,1.0,1.0,0.0,0.0,1.0,0.0,0.0,1.0,1.1856,26.0,0.0,0.0,0.0,59.999996,0.0,26.0,26.0,26.0,26.0,-0.0086666666666666,0.2571000000000001,-0.04996666666666667,291.733,-2.6894,-2.653,-1.5998,-1.5976,-156.57,215.88,190.1965,0.0,0.0,0.0,0.0,0.0708333333333333,-5.498166666666667,-5.498166666666667,-0.6842,-0.4395,-0.034666666666666845,-0.121,70.27,-0.0067,-0.2296,-0.1559999999999997,100.0,1.0,1.0,216.69333333333333,0.0,0.0,0.0,0.0,0.0,0.0,0.0,9184.8,0.0,55.0,5.0,252.95,1.0,0.0,0.0,0.0,0.0,0.0,1.0,0.0,1.754999999999999,1.754999999999999,0.0,0.0,1.0,55.0,616.79921,10000.0,85.000001,85.000001,85.000001,85.000001,395.0,0.0,0.0,0.0,1.0,166.665,51.559,51.559,46.921,46.921,34.0,-24.1925,26.064,-28.6825,28.0325,0.0,1781.684,-0.16999999999999815,100.0,28.589,28.459,44.035,43.683,0.0,0.0,100.0,0.0,0.0,0.0,0.0,3166.25,3358.3,4027.625,3966.2,305.27433333333335,304.25075,315.06,315.07375,22.119799999999998,20.7024,22.1629,21.6339,314.999998,314.999998,324.999988,324.999988,99.56001428571429,99.5076,99.57164285714286,99.55055714285714,0.08533333333333326,-0.06099999999999994,-0.11483333333333333,0.11750000000000001,-0.04833333333333201,-0.05666666666667197,1.5453333333333332,1.547,39.248999999999995,30.390333333333334,39.518,36.212,56.054,35.8745,60.805,53.831,53.977000000000004,34.929,59.331,52.1,53.111000000000004,34.428,59.1905,51.47833333333333,-0.09850000000000003,-0.06999999999999984,0.10697500000000001,0.111725,0.0,219.93,219.91500000000002,216.69333333333333,216.69333333333333,0.0,0.0
36,0.0,0.0,0.0,1.0,1.0,0.0,0.0,1.0,0.0,0.0,1.0,1.1856,26.0,0.0,0.0,0.0,59.999996,0.0,26.0,26.0,26.0,26.0,0.0022222222222221255,0.2613000000000001,0.05896666666666667,290.741,-2.6237,-2.68325,-1.5519,-1.5949,-152.98,215.865,190.165,0.0,0.0,0.0,0.0,0.0729333333333333,-5.498166666666667,-5.498166666666667,-0.6641,0.26449999999999996,-0.07411111111111124,-1.189,70.4,0.0014,-0.20217500000000002,0.036000000000000476,100.0,1.0,1.0,216.85000000000002,0.0,0.0,0.0,0.0,0.0,0.0,0.0,9191.5,0.0,55.0,5.0,253.41333333333336,0.0,0.0,0.0,0.0,0.0,0.0,1.0,0.0,1.806000000000001,1.806000000000001,0.0,0.0,0.0,55.0,616.79921,10000.0,85.000001,85.000001,85.000001,85.000001,395.0,0.0,0.0,0.0,1.0,166.665,51.163,51.163,46.051,46.051,34.0,-23.91,24.524,-32.775,33.22,0.0,1781.632,-0.16499999999999915,100.0,29.062,28.978,44.134,44.111000000000004,0.0,0.0,100.0,0.0,0.0,0.0,0.0,3236.75,3127.0,4511.0,4522.0,304.90433333333334,304.79125,314.00225,313.71025,22.1292,20.7083,22.1734,21.6432,314.999998,314.999998,324.999988,324.999988,99.56002857142857,99.50761666666666,99.57181428571428,99.55071428571429,0.09499999999999997,-0.0595,-0.11850000000000001,0.115,-0.061666666666667425,-0.03166666666666629,1.4306666666666668,1.4355,39.307,30.427,39.584,36.2705,56.043,35.916,60.841,53.8905,53.966,34.9675,59.3645,52.1575,53.098,34.4645,59.2205,51.534333333333336,-0.09699999999999998,-0.07200000000000006,0.10925000000000001,0.10967500000000001,0.0,220.37,220.345,216.85000000000002,216.85000000000002,0.0,0.0
