,ABS Active,ABS Enabled,AID Allow Tire Blankets,AID Auto Blip,AID Auto Clutch,AID Auto Shift,AID Fuel Rate,AID Ideal Line,AID Mech Damage,AID Stability,AID Tire Wear Rate,Air Density,Air Temp,Ballast,Best Lap Delta,Best Lap Time,Brake Bias,Brake Pos,Brake Temp FL,Brake Temp FR,Brake Temp RL,Brake Temp RR,CG Accel Lateral,CG Accel Longitudinal,CG Accel Vertical,CG Height,Camber FL,Camber FR,Camber RL,Camber RR,Car Coord X,Car Coord Y,Car Coord Z,Car Damage Front,Car Damage Left,Car Damage Rear,Car Damage Right,Car Pos Norm,Caster FL,Caster FR,Chassis Pitch Angle,Chassis Pitch Rate,Chassis Roll Angle,Chassis Roll Rate,Chassis Velocity X,Chassis Velocity Y,Chassis Velocity Z,Chassis Yaw Rate,Clutch Pos,DRS Active,DRS Available,Drive Train Speed,ERS Heat Charging,ERS Is Charging,ERS Max Energy,ERS Power Level,ERS Recovery Level,Engine Brake Setting,Engine Limiter,Engine RPM,Flags,Fuel Level,Gear,Ground Speed,HR Sample Clock,In Pit,KERS Charge,KERS Deployed Energy,KERS Input,KERS Max Energy,LR Sample Clock,Lap Invalidated,Lap Time,Lap Time2,Last Lap Time,Last Sector Time,MR Sample Clock,Max Fuel,Max Power,Max RPM,Max Sus Travel FL,Max Sus Travel FR,Max Sus Travel RL,Max Sus Travel RR,Max Torque,Max Turbo Boost,Num Tires Off Track,Penalties Enabled,Position,Raw Data Sample Rate,Ride Height FL,Ride Height FR,Ride Height RL,Ride Height RR,Road Temp,Self Align Torque FL,Self Align Torque FR,Self Align Torque RL,Self Align Torque RR,Session Lap Count,Session Time Left,Steering Angle,Surface Grip,Suspension Travel FL,Suspension Travel FR,Suspension Travel RL,Suspension Travel RR,TC Active,TC Enabled,Throttle Pos,Tire Dirt Level FL,Tire Dirt Level FR,Tire Dirt Level RL,Tire Dirt Level RR,Tire Load FL,Tire Load FR,Tire Load RL,Tire Load RR,Tire Loaded Radius FL,Tire Loaded Radius FR,Tire Loaded Radius RL,Tire Loaded Radius RR,Tire Pressure FL,Tire Pressure FR,Tire Pressure RL,Tire Pressure RR,Tire Radius FL,Tire Radius FR,Tire Radius RL,Tire Radius RR,Tire Rubber Grip FL,Tire Rubber Grip FR,Tire Rubber Grip RL,Tire Rubber Grip RR,Tire Slip Angle FL,Tire Slip Angle FR,Tire Slip Angle RL,Tire Slip Angle RR,Tire Slip Ratio FL,Tire Slip Ratio FR,Tire Slip Ratio RL,Tire Slip Ratio RR,Tire Temp Core FL,Tire Temp Core FR,Tire Temp Core RL,Tire Temp Core RR,Tire Temp Inner FL,Tire Temp Inner FR,Tire Temp Inner RL,Tire Temp Inner RR,Tire Temp Middle FL,Tire Temp Middle FR,Tire Temp Middle RL,Tire Temp Middle RR,Tire Temp Outer FL,Tire Temp Outer FR,Tire Temp Outer RL,Tire Temp Outer RR,Toe In FL,Toe In FR,Toe In RL,Toe In RR,Turbo Boost,Wheel Angular Speed FL,Wheel Angular Speed FR,Wheel Angular Speed RL,Wheel Angular Speed RR,Wind Direction,Wind Speed
0,0.0,1.0,0.0,1.0,1.0,0.0,0.0,1.0,0.0,100.0,1.0,1.1856,26.0,0.0,0.0,0.0,51.99999,0.0,26.0,26.0,26.0,26.0,-0.028555555555555556,0.2948000000000002,0.212425,293.121,-2.7923999999999998,-2.6156,-1.5601500000000001,-1.5032,-275.75,215.4025,190.987875,0.0,0.0,0.0,0.0,0.0015333333333333334,-5.498166666666667,-5.498166666666667,-0.5690000000000001,2.1856666666666666,0.0032222222222222374,-0.5750000000000002,65.47,-0.025599999999999956,-0.22885,-0.09799999999999898,100.0,1.0,1.0,202.12666666666667,0.0,0.0,0.0,0.0,0.0,0.0,0.0,8567.5,0.0,55.0,5.0,235.66,0.0,0.0,0.0,0.0,0.0,0.0,0.0,0.0,0.0030000000000001137,0.0030000000000001137,0.0,0.0,0.0,55.0,616.79921,10000.0,85.0,85.0,85.0,85.0,395.0,0.0,0.0,0.0,1.0,20.0,50.674,50.674,49.072,49.072,34.0,-29.835,32.446,-29.79,26.4175,0.0,1782.95,0.125,100.0,27.519,27.422,40.188,40.025,0.0,1.0,100.0,0.0,0.0,0.0,0.0,3415.857142857143,4254.7,4122.0,4143.3,304.43,301.6186666666667,314.8673333333333,314.502,21.759,20.5108,21.755111111111113,21.2899,314.99999,314.99999,324.99998,324.99998,99.55795714285715,99.50715,99.56468571428572,99.54431428571428,0.03200000000000003,-0.07666666666666666,-0.139,0.0838,-0.041666666666671404,-0.04999999999999716,1.5563333333333333,1.5455000000000005,36.992999999999995,29.192999999999998,36.969,34.062,55.968,34.4045,58.8975,51.365,53.91,33.5955,57.5355,49.733000000000004,53.093,33.175,57.5075,49.16,-0.0774999999999999,-0.08749999999999991,0.10772000000000001,0.10831,0.0,205.16500000000002,205.14,202.12666666666667,202.12666666666667,0.0,0.0
1,0.0,1.0,0.0,1.0,1.0,0.0,0.0,1.0,0.0,100.0,1.0,1.1856,26.0,0.0,0.0,0.0,51.999998,0.0,26.0,26.0,26.0,26.0,-0.04988888888888887,0.32740000000000014,0.1688,292.282,-2.6342,-2.7003,-1.5989,-1.5261,-272.41,215.4075,190.968,0.0,0.0,0.0,0.0,0.0035,-5.498166666666667,-5.498166666666667,-0.4681,-1.5123333333333333,-0.046666666666666856,-0.06700000000000017,65.629,-0.017699999999999938,-0.16867500000000002,0.4800000000000004,100.0,1.0,1.0,202.01,0.0,0.0,0.0,0.0,0.0,0.0,0.0,8562.5,0.0,55.0,5.0,236.2266666666667,1.0,0.0,0.0,0.0,0.0,0.0,0.0,0.0,0.053999999999998494,0.053999999999998494,0.0,0.0,1.0,55.0,616.79921,10000.0,85.000001,85.000001,85.000001,85.000001,395.0,0.0,0.0,0.0,1.0,333.33500000000004,54.352000000000004,54.352000000000004,46.921,46.921,34.0,-21.815,17.066,-38.07,39.49,0.0,1782.899,0.28999999999999915,100.0,27.583,27.269,42.528999999999996,42.813,0.0,1.0,100.0,0.0,0.0,0.0,0.0,2784.285714285714,2413.2,4865.75,5600.0,306.4505,307.13966666666664,312.7923333333333,311.06375,21.768555555555555,20.5159,21.766111111111112,21.2992,314.999998,314.999998,324.999988,324.999988,99.55797142857143,99.50715,99.56484285714286,99.54448571428571,0.040000000000000036,-0.08966666666666678,-0.1276,0.0834,-0.02499999999999858,-0.03833333333332689,1.3083333333333333,1.3115000000000006,37.054,29.224,37.038,34.12,55.951,34.442499999999995,58.9465,51.436,53.894,33.629999999999995,57.582,49.8005,53.076,33.208666666666666,57.5505,49.22633333333333,-0.05049999999999999,-0.09200000000000008,0.10628000000000001,0.11432500000000001,0.0,205.595,205.57,202.01,202.01,0.0,0.0
2,0.0,1.0,0.0,1.0,1.0,0.0,0.0,1.0,0.0,100.0,1.0,1.1856,26.0,0.0,0.0,0.0,51.999998,0.0,26.0,26.0,26.0,26.0,-0.05733333333333335,0.2986,-0.0826,293.808,-2.6709,-2.6476,-1.573,-1.5091,-268.86,215.41,190.948,0.0,0.0,0.0,0.0,0.005566666666666667,-5.498166666666667,-5.498166666666667,-0.5846,0.9266666666666666,-0.004888888888888943,1.676,65.771,-0.020199999999999996,-0.274025,0.7040000000000006,100.0,1.0,1.0,203.51333333333332,0.0,0.0,0.0,0.0,0.0,0.0,0.0,8626.2,0.0,55.0,5.0,236.75,0.0,0.0,0.0,0.0,0.0,0.0,0.0,0.0,0.10800000000000054,0.10800000000000054,0.0,0.0,0.0,55.0,616.79921,10000.0,85.000001,85.000001,85.000001,85.000001,395.0,0.0,0.0,0.0,1.0,166.665,51.635999999999996,51.635999999999996,50.781,50.781,34.0,-29.15,22.402,-24.86,19.4325,0.0,1782.847,0.4349999999999987,100.0,28.224,27.689,41.676,41.623000000000005,0.0,1.0,100.0,0.0,0.0,0.0,0.0,3382.142857142857,3189.1,3505.0,3383.5,304.5045,304.4456666666667,316.32,316.51925,21.779222222222224,20.5213,21.776888888888887,21.3081,314.999998,314.999998,324.999988,324.999988,99.55798571428572,99.50716666666666,99.56498571428571,99.54461428571429,0.015000000000000124,-0.11299999999999999,-0.1648,0.07640000000000001,-0.05833333333333002,-0.060000000000002274,1.7796666666666665,1.8185000000000002,37.120000000000005,29.258499999999998,37.105999999999995,34.176,55.938,34.484,58.983000000000004,51.489,53.881,33.669,57.6155,49.852000000000004,53.062,33.245666666666665,57.5815,49.277,-0.04499999999999993,-0.11299999999999999,0.11249500000000001,0.10895,0.0,206.07,206.0,203.51333333333332,203.51333333333332,0.0,0.0
3,0.0,1.0,0.0,1.0,1.0,0.0,0.0,1.0,0.0,100.0,1.0,1.1856,26.0,0.0,0.0,0.0,51.999998,0.0,26.0,26.0,26.0,26.0,-0.05799999999999994,0.3017000000000001,0.193725,292.892,-2.6929,-2.6710000000000003,-1.56025,-1.4725000000000001,-265.9,215.4125,190.92975,0.0,0.0,0.0,0.0,0.007266666666666668,-5.498166666666667,-5.498166666666667,-0.5005000000000001,0.743,0.018333333333333313,-1.258,65.912,-0.032299999999999995,-0.18207500000000001,0.6140000000000008,100.0,1.0,1.0,203.22,0.0,0.0,0.0,0.0,0.0,0.0,0.0,8613.8,0.0,55.0,5.0,237.25,1.0,0.0,0.0,0.0,0.0,0.0,0.0,0.0,0.1529999999999987,0.1529999999999987,0.0,0.0,1.0,55.0,616.79921,10000.0,85.000001,85.000001,85.000001,85.000001,395.0,0.0,0.0,0.0,1.0,333.33500000000004,53.299,53.299,47.424,47.424,34.0,-22.857499999999998,21.07,-34.45666666666666,29.0925,0.0,1782.8,0.5199999999999996,100.0,27.858,27.559,41.917,42.067,0.0,1.0,100.0,0.0,0.0,0.0,0.0,2787.4285714285716,2984.5,4535.75,4541.9,306.417,305.304,313.7613333333333,313.4725,21.787777777777777,20.5261,21.78611111111111,21.3161,314.999998,314.999998,324.999988,324.999988,99.55798571428572,99.50718333333333,99.56511428571429,99.54474285714285,0.026000000000000245,-0.10466666666666669,-0.1412,0.0762,-0.06666666666666998,-0.026666666666670835,1.4116666666666666,1.4459999999999997,37.173,29.288,37.163,34.226,55.922,34.522,59.0185,51.55,53.867000000000004,33.7035,57.6485,49.9105,53.047,33.278666666666666,57.612,49.33433333333333,-0.04049999999999998,-0.1160000000000001,0.10658500000000001,0.10459500000000001,0.0,206.555,206.48000000000002,203.22,203.22,0.0,0.0
4,0.0,1.0,0.0,1.0,1.0,0.0,0.0,1.0,0.0,100.0,1.0,1.1856,26.0,0.0,0.0,0.0,51.999998,0.0,26.0,26.0,26.0,26.0,-0.08499999999999996,0.27980000000000005,-0.067025,293.411,-2.6749,-2.7415000000000003,-1.49425,-1.5895000000000001,-262.34,215.4125,190.9095,0.0,0.0,0.0,0.0,0.009366666666666667,-5.498166666666667,-5.498166666666667,-0.5349,-0.8773333333333334,-0.03966666666666674,0.45799999999999996,66.06700000000001,-0.04059999999999997,-0.240675,0.9359999999999999,100.0,1.0,1.0,203.93333333333334,0.0,0.0,0.0,0.0,0.0,0.0,0.0,8644.0,0.0,55.0,5.0,237.81,0.0,0.0,0.0,0.0,0.0,0.0,0.0,0.0,0.20700000000000074,0.20700000000000074,0.0,0.0,0.0,55.0,616.79921,10000.0,85.000001,85.000001,85.000001,85.000001,395.0,0.0,0.0,0.0,1.0,166.665,52.963,52.963,48.859,48.859,34.0,-26.815,20.896,-29.006666666666668,24.075,0.0,1782.747,0.625,100.0,27.86,27.11,42.815,42.17,0.0,1.0,100.0,0.0,0.0,0.0,0.0,3112.714285714286,2962.8,3985.375,3837.2,305.281,305.44966666666664,315.075,315.28875,21.798111111111112,20.5314,21.797444444444444,21.3256,314.999998,314.999998,324.999988,324.999988,99.55798571428572,99.5072,99.56525714285715,99.54488571428571,0.008500000000000174,-0.11799999999999988,-0.16219999999999998,0.06540000000000001,-0.03999999999999915,-0.03499999999999659,1.57,1.5995,37.238,29.3215,37.233999999999995,34.285,55.905,34.5635,59.064499999999995,51.614,53.849999999999994,33.742,57.6915,49.972,53.03,33.315666666666665,57.6515,49.394666666666666,-0.025499999999999856,-0.12449999999999983,0.10695,0.10482000000000001,0.0,206.925,206.85500000000002,203.93333333333334,203.93333333333334,0.0,0.0
5,0.0,1.0,0.0,1.0,1.0,0.0,0.0,1.0,0.0,100.0,1.0,1.1856,26.0,0.0,0.0,0.0,51.999998,0.0,26.0,26.0,26.0,26.0,-0.09633333333333338,0.2804,-0.04445,293.73199999999997,-2.6443,-2.7008,-1.5420500000000001,-1.5753,-259.16,215.41,190.890875,0.0,0.0,0.0,0.0,0.0112,-5.498166666666667,-5.498166666666667,-0.5396000000000001,0.6016666666666667,-0.027000000000000135,0.8140000000000001,66.203,-0.05779999999999996,-0.225575,0.9420000000000002,100.0,1.0,1.0,204.44666666666666,0.0,0.0,0.0,0.0,0.0,0.0,0.0,8665.7,0.0,55.0,5.0,238.3,1.0,0.0,0.0,0.0,0.0,0.0,0.0,0.0,0.254999999999999,0.254999999999999,0.0,0.0,1.0,55.0,616.79921,10000.0,85.000001,85.000001,85.000001,85.000001,395.0,0.0,0.0,0.0,1.0,333.33500000000004,53.238,53.238,49.225,49.225,34.0,-25.605,20.962,-29.493333333333332,23.7575,0.0,1782.698,0.16499999999999915,100.0,27.769,26.976,42.402,41.594,0.0,1.0,100.0,0.0,0.0,0.0,0.0,3004.5714285714284,2992.4,3898.375,3943.4,305.5455,305.33366666666666,315.3396666666667,315.11075,21.807333333333332,20.5363,21.807111111111112,21.3337,314.999998,314.999998,324.999988,324.999988,99.558,99.50721666666666,99.5654,99.54501428571429,0.007249999999999979,-0.11433333333333318,-0.1806,0.0502,-0.030000000000001137,-0.03999999999999915,1.6016666666666666,1.6310000000000002,37.296,29.352,37.294,34.336,55.891999999999996,34.602000000000004,59.1,51.6685,53.837,33.7775,57.7245,50.024,53.016,33.349333333333334,57.6815,49.44566666666667,-0.04699999999999993,-0.09549999999999992,0.10410000000000001,0.107185,0.0,207.425,207.325,204.44666666666666,204.44666666666666,0.0,0.0
6,0.0,1.0,0.0,1.0,1.0,0.0,0.0,1.0,0.0,100.0,1.0,1.1856,26.0,0.0,0.0,0.0,51.999998,0.0,26.0,26.0,26.0,26.0,-0.0932222222222222,0.29810000000000003,-0.010750000000000001,293.533,-2.6814999999999998,-2.7775,-1.48945,-1.5611000000000002,-255.98,215.4075,190.871375,0.0,0.0,0.0,0.0,0.013033333333333334,-5.498166666666667,-5.498166666666667,-0.5267000000000001,-0.3066666666666667,-0.04555555555555557,0.46699999999999986,66.344,-0.06159999999999999,-0.20365,0.7240000000000002,100.0,1.0,1.0,204.68333333333334,0.0,0.0,0.0,0.0,0.0,0.0,0.0,8675.7,0.0,55.0,5.0,238.81,0.0,0.0,0.0,0.0,0.0,0.0,0.0,0.0,0.3030000000000008,0.3030000000000008,0.0,0.0,0.0,55.0,616.79921,10000.0,85.000001,85.000001,85.000001,85.000001,395.0,0.0,0.0,0.0,1.0,333.33500000000004,53.635,53.635,48.569,48.569,34.0,-26.8325,20.372,-31.54,25.11,0.0,1782.65,0.370000000000001,100.0,27.469,26.593,42.598,41.726,0.0,1.0,100.0,0.0,0.0,0.0,0.0,3074.285714285714,2873.4,4189.75,4107.6,305.446,305.73766666666666,314.5423333333333,314.66375,21.816333333333333,20.5411,21.817,21.3421,314.999998,314.999998,324.999988,324.999988,99.558,99.50723333333333,99.56554285714286,99.54515714285715,-0.0012499999999999734,-0.12033333333333318,-0.1698,0.048,-0.02499999999999858,-0.05833333333333002,1.4969999999999999,1.5259999999999998,37.352000000000004,29.381999999999998,37.355999999999995,34.388,55.876000000000005,34.6385,59.1385,51.7275,53.822,33.811,57.7605,50.0805,53.0,33.38133333333333,57.715,49.501,-0.04499999999999993,-0.10099999999999998,0.09915500000000001,0.10624000000000001,0.0,207.815,207.775,204.68333333333334,204.68333333333334,0.0,0.0
7,0.0,1.0,0.0,1.0,1.0,0.0,0.0,1.0,0.0,100.0,1.0,1.1856,26.0,0.0,0.0,0.0,51.999998,0.0,26.0,26.0,26.0,26.0,-0.061999999999999944,0.2876000000000001,-0.00355,293.488,-2.6271,-2.7696,-1.5423499999999999,-1.6058,-252.59,215.4025,190.850875,0.0,0.0,0.0,0.0,0.015033333333333334,-5.498166666666667,-5.498166666666667,-0.5351,0.12633333333333333,-0.039111111111111097,-0.2320000000000002,66.488,-0.0665,-0.21715,0.6560000000000006,100.0,1.0,1.0,205.2,0.0,0.0,0.0,0.0,0.0,0.0,0.0,8697.7,0.0,55.0,5.0,239.32999999999998,1.0,0.0,0.0,0.0,0.0,0.0,0.0,0.0,0.3539999999999992,0.3539999999999992,0.0,0.0,1.0,55.0,616.79921,10000.0,85.000001,85.000001,85.000001,85.000001,395.0,0.0,0.0,0.0,1.0,166.665,53.253,53.253,48.766999999999996,48.766999999999996,34.0,-26.3025,21.195999999999998,-32.38333333333333,24.015,0.0,1782.601,-0.129999999999999,100.0,27.602,26.996,42.518,41.769,0.0,1.0,100.0,0.0,0.0,0.0,0.0,3173.285714285714,2863.3,4149.375,3951.0,305.2545,305.53066666666666,314.7753333333333,314.97475,21.82611111111111,20.5463,21.827444444444446,21.351,314.999998,314.999998,324.999988,324.999988,99.558,99.50723333333333,99.56568571428572,99.54528571428571,0.020000000000000018,-0.10199999999999987,-0.187,0.0388,-0.05833333333333002,-0.04833333333333201,1.5373333333333332,1.5715000000000003,37.413,29.4145,37.422,34.444,55.861999999999995,34.679,59.1785,51.7875,53.809,33.848,57.798,50.138,52.986000000000004,33.417,57.7495,49.55733333333333,-0.08099999999999996,-0.06300000000000017,0.10165,0.11446,0.0,208.3,208.22,205.2,205.2,0.0,0.0
8,0.0,1.0,0.0,1.0,1.0,0.0,0.0,1.0,0.0,100.0,1.0,1.1856,26.0,0.0,0.0,0.0,51.999998,0.0,26.0,26.0,26.0,26.0,-0.05255555555555558,0.28510000000000013,-0.01625,293.518,-2.6708,-2.7055,-1.55605,-1.5992000000000002,-249.2,215.39499999999998,190.83025,0.0,0.0,0.0,0.0,0.017,-5.498166666666667,-5.498166666666667,-0.5363,-0.08166666666666668,-0.026222222222222147,0.30499999999999994,66.634,-0.057599999999999985,-0.2192,0.21000000000000085,100.0,1.0,1.0,205.64333333333332,0.0,0.0,0.0,0.0,0.0,0.0,0.0,8716.5,0.0,55.0,5.0,239.85333333333335,0.0,0.0,0.0,0.0,0.0,0.0,0.0,0.0,0.40500000000000114,0.40500000000000114,0.0,0.0,0.0,55.0,616.79921,10000.0,85.000001,85.000001,85.000001,85.000001,395.0,0.0,0.0,0.0,1.0,166.665,53.36,53.36,48.522999999999996,48.522999999999996,34.0,-24.287499999999998,22.646,-30.506666666666668,25.675,0.0,1782.55,-0.21499999999999986,100.0,27.503,26.936,42.617000000000004,41.866,0.0,1.0,100.0,0.0,0.0,0.0,0.0,2988.142857142857,3041.4,4051.25,4005.8,305.658,305.18533333333335,314.98,314.88975,21.83577777777778,20.5516,21.838,21.3599,314.999998,314.999998,324.999988,324.999988,99.558,99.50725,99.56581428571428,99.54542857142857,0.0402499999999999,-0.08466666666666667,-0.1638,0.06620000000000001,-0.041666666666671404,-0.061666666666667425,1.5493333333333332,1.5659999999999998,37.474000000000004,29.447499999999998,37.486999999999995,34.499,55.847,34.7185,59.218,51.8495,53.794,33.885,57.835,50.1975,52.971000000000004,33.452333333333335,57.783500000000004,49.61566666666667,-0.08999999999999986,-0.058499999999999996,0.10542000000000001,0.10863500000000001,0.0,208.70499999999998,208.69,205.64333333333332,205.64333333333332,0.0,0.0
9,0.0,1.0,0.0,1.0,1.0,0.0,0.0,1.0,0.0,100.0,1.0,1.1856,26.0,0.0,0.0,0.0,51.999998,0.0,26.0,26.0,26.0,26.0,-0.02488888888888885,0.29190000000000005,-0.008225,293.32,-2.6767000000000003,-2.718,-1.5434,-1.558,-245.8,215.385,190.809375,0.0,0.0,0.0,0.0,0.018966666666666666,-5.498166666666667,-5.498166666666667,-0.5342,0.16066666666666665,-0.038000000000000256,-0.6520000000000001,66.778,-0.04499999999999993,-0.21250000000000002,0.120000000000001,100.0,1.0,1.0,206.06666666666666,0.0,0.0,0.0,0.0,0.0,0.0,0.0,8734.4,0.0,55.0,5.0,240.37333333333333,1.0,0.0,0.0,0.0,0.0,0.0,0.0,0.0,0.4559999999999995,0.4559999999999995,0.0,0.0,1.0,55.0,616.79921,10000.0,85.000001,85.000001,85.000001,85.000001,395.0,0.0,0.0,0.0,1.0,166.665,53.055,53.055,48.691,48.691,34.0,-25.815,22.504,-30.17,25.885,0.0,1782.498,-0.3550000000000004,100.0,27.515,27.095,42.477000000000004,42.004,0.0,1.0,100.0,0.0,0.0,0.0,0.0,3200.285714285714,2960.6,4101.625,4071.8,305.2065,305.26733333333334,314.896,314.6975,21.845444444444446,20.5568,21.848444444444443,21.3688,314.999998,314.999998,324.999988,324.999988,99.55801428571428,99.50726666666667,99.56595714285714,99.54557142857144,0.047250000000000014,-0.07800000000000007,-0.1514,0.0686,-0.046666666666666856,-0.05333333333332746,1.5396666666666667,1.5415,37.534,29.48,37.553,34.555,55.833,34.757999999999996,59.257999999999996,51.91,53.781,33.921,57.8715,50.2555,52.957,33.486666666666665,57.817499999999995,49.672666666666665,-0.10299999999999998,-0.04850000000000021,0.09843500000000001,0.107865,0.0,209.14499999999998,209.14499999999998,206.06666666666666,206.06666666666666,0.0,0.0
10,0.0,1.0,0.0,1.0,1.0,0.0,0.0,1.0,0.0,100.0,1.0,1.1856,26.0,0.0,0.0,0.0,51.999998,0.0,26.0,26.0,26.0,26.0,-0.022777777777777786,0.2902,0.01105,293.243,-2.6769,-2.7028,-1.55655,-1.5446,-242.39,215.375,190.788625,0.0,0.0,0.0,0.0,0.020966666666666668,-5.498166666666667,-5.498166666666667,-0.53,-0.188,-0.01188888888888906,1.4569999999999999,66.923,-0.030099999999999905,-0.2116,-0.2060000000000004,100.0,1.0,1.0,206.43666666666667,0.0,0.0,0.0,0.0,0.0,0.0,0.0,8750.1,0.0,55.0,5.0,240.89333333333332,0.0,0.0,0.0,0.0,0.0,0.0,1.0,0.0,0.5069999999999979,0.5069999999999979,0.0,0.0,0.0,55.0,616.79921,10000.0,85.000001,85.000001,85.000001,85.000001,395.0,0.0,0.0,0.0,1.0,166.665,53.314,53.314,48.416,48.416,34.0,-23.0125,23.747999999999998,-29.57333333333333,28.365000000000002,0.0,1782.448,-0.4499999999999993,100.0,27.632,26.911,42.649,42.19,0.0,1.0,100.0,0.0,0.0,0.0,0.0,2979.5714285714284,3043.8,4088.5,4264.0,305.671,305.213,314.82733333333334,314.3085,21.85511111111111,20.5621,21.858888888888888,21.3778,314.999998,314.999998,324.999988,324.999988,99.55802857142857,99.50726666666667,99.56611428571429,99.54571428571428,0.0714999999999999,-0.05699999999999994,-0.1338,0.09,-0.041666666666671404,-0.04333333333332945,1.525,1.513,37.595,29.512999999999998,37.617999999999995,34.611,55.82,34.795500000000004,59.2975,51.9725,53.768,33.956,57.909,50.3155,52.944,33.519999999999996,57.852000000000004,49.73133333333333,-0.10699999999999998,-0.03750000000000009,0.10822000000000001,0.11383000000000001,0.0,209.59,209.585,206.43666666666667,206.43666666666667,0.0,0.0
11,0.0,1.0,0.0,1.0,1.0,0.0,0.0,1.0,0.0,100.0,1.0,1.1856,26.0,0.0,0.0,0.0,51.999998,0.0,26.0,26.0,26.0,26.0,0.016444444444444484,0.28669999999999995,-0.042425000000000004,293.518,-2.7077999999999998,-2.6893000000000002,-1.5612,-1.517,-238.97,215.365,190.767625,0.0,0.0,0.0,0.0,0.022600000000000002,-5.498166666666667,-5.498166666666667,-0.5509000000000001,-0.3156666666666667,0.010777777777777775,-0.30900000000000016,67.065,-0.0121,-0.22465000000000002,-0.3099999999999996,100.0,1.0,1.0,206.97,0.0,0.0,0.0,0.0,0.0,0.0,0.0,8772.7,0.0,55.0,5.0,241.40666666666667,1.0,0.0,0.0,0.0,0.0,0.0,1.0,0.0,0.5579999999999998,0.5579999999999998,0.0,0.0,1.0,55.0,616.79921,10000.0,85.000001,85.000001,85.000001,85.000001,395.0,0.0,0.0,0.0,1.0,166.665,53.284,53.284,48.888999999999996,48.888999999999996,34.0,-23.9725,24.366,-27.310000000000002,26.995,0.0,1782.396,-0.7049999999999983,100.0,27.177,27.104,42.333,42.293,0.0,1.0,100.0,0.0,0.0,0.0,0.0,3100.714285714286,3032.2,3929.25,4053.9,305.526,305.067,315.29066666666665,314.756,21.864666666666665,20.5674,21.869333333333334,21.3868,314.999998,314.999998,324.999988,324.999988,99.55802857142857,99.50726666666667,99.56625714285714,99.54585714285714,0.07500000000000018,-0.04133333333333322,-0.12,0.1062,-0.04833333333333201,-0.060000000000002274,1.566,1.5659999999999998,37.653999999999996,29.546,37.683,34.668,55.806,34.8335,59.335,52.033500000000004,53.754999999999995,33.9905,57.944,50.3745,52.929,33.553333333333335,57.8835,49.789,-0.119,-0.028500000000000192,0.10645,0.10949,0.0,210.01,210.04000000000002,206.97,206.97,0.0,0.0
12,0.0,1.0,0.0,1.0,1.0,0.0,0.0,1.0,0.0,100.0,1.0,1.1856,26.0,0.0,0.0,0.0,51.999998,0.0,26.0,26.0,26.0,26.0,-0.004111111111111065,0.2905,-0.00025,293.213,-2.7042,-2.6795,-1.5667499999999999,-1.5304,-235.95,215.35500000000002,190.748375,0.0,0.0,0.0,0.0,0.025466666666666665,-5.498166666666667,-5.498166666666667,-0.544,0.436,0.01911111111111108,0.79,67.191,0.005300000000000082,-0.20722500000000002,-0.5379999999999994,100.0,1.0,1.0,207.31666666666666,0.0,0.0,0.0,0.0,0.0,0.0,0.0,8787.4,0.0,55.0,5.0,241.86,0.0,0.0,0.0,0.0,0.0,0.0,1.0,0.0,0.602999999999998,0.602999999999998,0.0,0.0,0.0,55.0,616.79921,10000.0,85.000001,85.000001,85.000001,85.000001,395.0,0.0,0.0,0.0,1.0,333.33500000000004,52.994,52.994,48.431,48.431,34.0,-23.66,24.945999999999998,-26.839999999999996,29.9025,0.0,1782.349,-0.3550000000000004,100.0,27.473,27.29,42.251,42.218,0.0,1.0,100.0,0.0,0.0,0.0,0.0,2994.714285714286,3168.4,4059.0,4210.5,305.6395,304.799,314.948,314.47425,21.87311111111111,20.5722,21.878444444444444,21.3947,314.999998,314.999998,324.999988,324.999988,99.55804285714285,99.50728333333333,99.56637142857143,99.54598571428572,0.06475000000000009,-0.05133333333333323,-0.0856,0.1326,-0.045000000000001705,-0.05333333333332746,1.5563333333333333,1.5175,37.707,29.576,37.739999999999995,34.717,55.795,34.8675,59.368,52.0875,53.745000000000005,34.022,57.974000000000004,50.426,52.918,33.583333333333336,57.911500000000004,49.84,-0.08450000000000002,-0.05549999999999988,0.10775000000000001,0.10251,0.0,210.42000000000002,210.46,207.31666666666666,207.31666666666666,0.0,0.0
13,0.0,1.0,0.0,1.0,1.0,0.0,0.0,1.0,0.0,100.0,1.0,1.1856,26.0,0.0,0.0,0.0,51.999998,0.0,26.0,26.0,26.0,26.0,0.04877777777777781,0.2814000000000001,0.019950000000000002,292.892,-2.6947,-2.6898,-1.56105,-1.54,-232.51999999999998,215.3475,190.72675,0.0,0.0,0.0,0.0,0.0267,-5.498166666666667,-5.498166666666667,-0.5373,-0.23,0.010444444444444256,-0.5140000000000002,67.334,0.013100000000000112,-0.21250000000000002,-0.3099999999999996,100.0,1.0,1.0,207.67000000000002,0.0,0.0,0.0,0.0,0.0,0.0,0.0,8802.4,0.0,55.0,5.0,242.37333333333333,1.0,0.0,0.0,0.0,0.0,0.0,1.0,0.0,0.6539999999999999,0.6539999999999999,0.0,0.0,1.0,55.0,616.79921,10000.0,85.000001,85.000001,85.000001,85.000001,395.0,0.0,0.0,0.0,1.0,166.665,52.917,52.917,48.08,48.08,34.0,-22.95,25.012,-28.766666666666666,30.0975,0.0,1782.3,-0.47499999999999787,100.0,27.504,27.562,42.549,42.777,0.0,1.0,100.0,0.0,0.0,0.0,0.0,3117.142857142857,3015.6,4175.125,4225.5,305.463,305.0966666666667,314.697,314.31475,21.882666666666665,20.5776,21.889,21.4038,314.999998,314.999998,324.999988,324.999988,99.55805714285714,99.50728333333333,99.56651428571429,99.54612857142857,0.10000000000000009,-0.022333333333333316,-0.10300000000000001,0.1258,-0.03166666666666629,-0.04333333333332945,1.5110000000000001,1.4945000000000004,37.766999999999996,29.61,37.806,34.774,55.783,34.9055,59.408,52.150999999999996,53.733000000000004,34.0575,58.0115,50.4875,52.905,33.617333333333335,57.945499999999996,49.9,-0.11349999999999993,-0.03299999999999992,0.11044000000000001,0.10466500000000001,0.0,210.85000000000002,210.85500000000002,207.67000000000002,207.67000000000002,0.0,0.0
14,0.0,1.0,0.0,1.0,1.0,0.0,0.0,1.0,0.0,100.0,1.0,1.1856,26.0,0.0,0.0,0.0,51.999998,0.0,26.0,26.0,26.0,26.0,0.03400000000000003,0.2834000000000001,-0.02945,293.121,-2.6837,-2.7076000000000002,-1.5681,-1.5378,-229.07999999999998,215.3375,190.705375,0.0,0.0,0.0,0.0,0.0287,-5.498166666666667,-5.498166666666667,-0.5504,-0.025666666666666667,0.02444444444444427,1.0310000000000001,67.474,0.018199999999999994,-0.225,-0.45399999999999974,100.0,1.0,1.0,208.19666666666666,0.0,0.0,0.0,0.0,0.0,0.0,0.0,8824.6,0.0,55.0,5.0,242.88,0.0,0.0,0.0,0.0,0.0,0.0,1.0,0.0,0.7049999999999983,0.7049999999999983,0.0,0.0,0.0,55.0,616.79921,10000.0,85.000001,85.000001,85.000001,85.000001,395.0,0.0,0.0,0.0,1.0,333.33500000000004,52.902,52.902,48.492,48.492,34.0,-21.5275,25.918,-25.663333333333327,29.64,0.0,1782.249,-0.46000000000000085,100.0,27.684,27.548000000000002,42.567,42.698,0.0,1.0,100.0,0.0,0.0,0.0,0.0,2974.714285714286,3110.0,3941.375,4124.8,305.6995,304.951,315.22066666666666,314.65575,21.892222222222223,20.5831,21.899333333333335,21.4129,314.999998,314.999998,324.999988,324.999988,99.55805714285714,99.5073,99.56667142857142,99.54627142857143,0.10775000000000023,-0.02200000000000002,-0.0808,0.14100000000000001,-0.05333333333332746,-0.041666666666671404,1.569,1.5415,37.826,29.6445,37.870999999999995,34.83,55.771,34.9435,59.445,52.213,53.722,34.0925,58.046,50.547,52.893,33.650999999999996,57.977000000000004,49.958,-0.11149999999999993,-0.04349999999999987,0.10097,0.110795,0.0,211.275,211.305,208.19666666666666,208.19666666666666,0.0,0.0
15,0.0,1.0,0.0,1.0,1.0,0.0,0.0,1.0,0.0,100.0,1.0,1.1856,26.0,0.0,0.0,0.0,51.999998,0.0,26.0,26.0,26.0,26.0,0.04866666666666686,0.278,-0.0031000000000000003,292.999,-2.6744,-2.6869,-1.55535,-1.5583,-225.84,215.32999999999998,190.684875,0.0,0.0,0.0,0.0,0.03056666666666667,-5.498166666666667,-5.498166666666667,-0.5444,0.24333333333333335,0.03133333333333321,0.7429999999999999,67.607,0.0233000000000001,-0.21282500000000001,-0.4900000000000002,100.0,1.0,1.0,208.56333333333333,0.0,0.0,0.0,0.0,0.0,0.0,0.0,8840.3,0.0,55.0,5.0,243.35666666666668,1.0,0.0,0.0,0.0,0.0,0.0,1.0,0.0,0.7530000000000001,0.7530000000000001,0.0,0.0,1.0,55.0,616.79921,10000.0,85.000001,85.000001,85.000001,85.000001,395.0,0.0,0.0,0.0,1.0,333.33500000000004,52.856,52.856,48.278999999999996,48.278999999999996,34.0,-21.36,25.874,-26.240000000000002,30.805,0.0,1782.2,-0.3550000000000004,100.0,27.701,27.648,42.433,42.761,0.0,1.0,100.0,0.0,0.0,0.0,0.0,2960.5714285714284,3106.0,4040.875,4181.0,305.737,304.9433333333333,314.98466666666667,314.49675,21.901222222222223,20.5882,21.909111111111113,21.4214,314.999998,314.999998,324.999988,324.999988,99.55808571428571,99.5073,99.5668,99.54641428571429,0.10725000000000007,-0.018333333333333313,-0.07859999999999999,0.1458,-0.04999999999999716,-0.06333333333333258,1.5483333333333333,1.5175,37.882,29.676499999999997,37.932,34.884,55.76,34.9795,59.480000000000004,52.272,53.711,34.1255,58.078,50.6035,52.882,33.68266666666666,58.0065,50.013666666666666,-0.10450000000000004,-0.04700000000000015,0.108795,0.102135,0.0,211.71,211.72,208.56333333333333,208.56333333333333,0.0,0.0
16,0.0,1.0,0.0,1.0,1.0,0.0,0.0,1.0,0.0,100.0,1.0,1.1856,26.0,0.0,0.0,0.0,51.999998,0.0,26.0,26.0,26.0,26.0,0.04888888888888898,0.27649999999999997,-0.004875,292.755,-2.7463,-2.6259,-1.5368,-1.5529000000000002,-222.39,215.325,190.662875,0.0,0.0,0.0,0.0,0.03256666666666667,-5.498166666666667,-5.498166666666667,-0.5522,-0.3496666666666667,0.023777777777777898,-1.036,67.747,0.026900000000000146,-0.22305,-0.28200000000000003,100.0,1.0,1.0,208.97,0.0,0.0,0.0,0.0,0.0,0.0,0.0,8857.4,0.0,55.0,5.0,243.86333333333334,0.0,0.0,0.0,0.0,0.0,0.0,1.0,0.0,0.8039999999999985,0.8039999999999985,0.0,0.0,0.0,55.0,616.79921,10000.0,85.000001,85.000001,85.000001,85.000001,395.0,0.0,0.0,0.0,1.0,333.33500000000004,52.551,52.551,47.958,47.958,34.0,-24.0125,25.372,-26.64333333333333,29.475,0.0,1782.149,-0.28000000000000114,100.0,27.409,27.892,42.612,43.066,0.0,1.0,100.0,0.0,0.0,0.0,0.0,3177.142857142857,3138.9,4089.0,4052.7,305.331,304.70466666666664,314.916,314.7025,21.910555555555554,20.5938,21.919555555555554,21.4305,314.999998,314.999998,324.999988,324.999988,99.55808571428571,99.5073,99.56694285714286,99.54655714285714,0.09775,-0.02933333333333321,-0.0844,0.1404,-0.036666666666668846,-0.045000000000001705,1.5396666666666667,1.5215000000000005,37.941,29.711,37.997,34.941,55.747,35.0175,59.5185,52.3345,53.699,34.161,58.1145,50.6635,52.867999999999995,33.71633333333333,58.039500000000004,50.073,-0.09850000000000003,-0.051000000000000156,0.10291000000000002,0.10867,0.0,212.115,212.15,208.97,208.97,0.0,0.0
17,0.0,1.0,0.0,1.0,1.0,0.0,0.0,1.0,0.0,100.0,1.0,1.1856,26.0,0.0,0.0,0.0,51.999998,0.0,26.0,26.0,26.0,26.0,0.04322222222222227,0.2833000000000001,0.038275,292.511,-2.6687000000000003,-2.712,-1.5502500000000001,-1.5176,-218.72,215.3175,190.639375,0.0,0.0,0.0,0.0,0.0347,-5.498166666666667,-5.498166666666667,-0.5503,0.16366666666666665,-0.000888888888888939,-1.1310000000000002,67.895,0.025100000000000122,-0.2175,-0.2239999999999993,100.0,1.0,1.0,209.38666666666666,0.0,0.0,0.0,0.0,0.0,0.0,0.0,8875.2,0.0,55.0,5.0,244.39333333333335,1.0,0.0,0.0,0.0,0.0,0.0,1.0,0.0,0.8580000000000005,0.8580000000000005,0.0,0.0,1.0,55.0,616.79921,10000.0,85.000001,85.000001,85.000001,85.000001,395.0,0.0,0.0,0.0,1.0,166.665,52.444,52.444,47.638,47.638,34.0,-23.015,25.052,-28.196666666666665,29.8575,0.0,1782.096,-0.1999999999999993,100.0,27.78,28.076,42.687,43.088,0.0,1.0,100.0,0.0,0.0,0.0,0.0,3114.142857142857,3042.9,4229.125,4203.8,305.415,304.85,314.58733333333333,314.41825,21.920666666666666,20.5997,21.930666666666667,21.4401,314.999998,314.999998,324.999988,324.999988,99.5581,99.50731666666667,99.5671,99.5467,0.09450000000000003,-0.038000000000000034,-0.08700000000000001,0.13219999999999998,-0.04333333333332945,-0.03333333333333144,1.513,1.5025000000000004,38.004000000000005,29.747999999999998,38.066,35.001,55.735,35.059,59.5585,52.3995,53.687,34.199,58.1515,50.7265,52.855999999999995,33.753,58.073499999999996,50.13466666666667,-0.09250000000000003,-0.058499999999999996,0.11030500000000001,0.10203000000000001,0.0,212.59,212.61,209.38666666666666,209.38666666666666,0.0,0.0
18,0.0,1.0,0.0,1.0,1.0,0.0,0.0,1.0,0.0,100.0,1.0,1.1856,26.0,0.0,0.0,0.0,51.999998,0.0,26.0,26.0,26.0,26.0,0.03966666666666674,0.27290000000000014,0.040525,292.526,-2.6591,-2.7406,-1.5349,-1.5868,-215.45999999999998,215.315,190.61825,0.0,0.0,0.0,0.0,0.0366,-5.498166666666667,-5.498166666666667,-0.5606,-0.3616666666666667,0.0006666666666665932,-0.5819999999999999,68.025,0.020000000000000018,-0.22505,-0.11799999999999944,100.0,1.0,1.0,209.78,0.0,0.0,0.0,0.0,0.0,0.0,0.0,8891.9,0.0,55.0,5.0,244.86333333333334,0.0,0.0,0.0,0.0,0.0,0.0,1.0,0.0,0.9059999999999988,0.9059999999999988,0.0,0.0,0.0,55.0,616.79921,10000.0,85.000001,85.000001,85.000001,85.000001,395.0,0.0,0.0,0.0,1.0,166.665,52.49,52.49,47.867,47.867,34.0,-23.5625,25.22,-27.689999999999998,30.0675,0.0,1782.049,-0.18499999999999872,100.0,27.725,27.958,42.845,43.242000000000004,0.0,1.0,100.0,0.0,0.0,0.0,0.0,3149.5714285714284,3056.3,4106.875,4163.0,305.3605,304.88866666666667,314.8396666666667,314.3825,21.929555555555556,20.6048,21.940444444444445,21.4487,314.999998,314.999998,324.999988,324.999988,99.55811428571428,99.50731666666667,99.56722857142857,99.54684285714286,0.08574999999999999,-0.040999999999999925,-0.0984,0.1212,-0.051666666666669414,-0.03833333333332689,1.5046666666666666,1.5075000000000003,38.06,29.78,38.128,35.054,55.724000000000004,35.094,59.5945,52.458,53.676,34.2315,58.185,50.783,52.844,33.784,58.104,50.18966666666667,-0.09299999999999997,-0.05650000000000022,0.102855,0.10094500000000001,0.0,213.005,212.985,209.78,209.78,0.0,0.0
19,0.0,1.0,0.0,1.0,1.0,0.0,0.0,1.0,0.0,100.0,1.0,1.1856,26.0,0.0,0.0,0.0,51.999998,0.0,26.0,26.0,26.0,26.0,0.04355555555555557,0.2722,0.030975000000000003,292.221,-2.6405000000000003,-2.7028,-1.53755,-1.6035,-212.19,215.31,190.59675,0.0,0.0,0.0,0.0,0.0385,-5.498166666666667,-5.498166666666667,-0.5535,0.5593333333333333,0.010555555555555651,-0.806,68.155,0.014399999999999968,-0.216675,-0.03399999999999981,100.0,1.0,1.0,210.19,0.0,0.0,0.0,0.0,0.0,0.0,0.0,8909.2,0.0,55.0,5.0,245.32999999999998,1.0,0.0,0.0,0.0,0.0,0.0,1.0,0.0,0.9540000000000006,0.9540000000000006,0.0,0.0,1.0,55.0,616.79921,10000.0,85.000001,85.000001,85.000001,85.000001,395.0,0.0,0.0,0.0,1.0,166.665,51.987,51.987,47.791,47.791,34.0,-23.575,24.28,-28.403333333333336,31.16,0.0,1782.0,-0.14999999999999858,100.0,28.233,28.363,42.777,43.29,0.0,1.0,100.0,0.0,0.0,0.0,0.0,3165.714285714286,3058.7,4161.0,4216.1,305.276,304.83366666666666,314.7703333333333,314.28275,21.938555555555556,20.6101,21.950222222222223,21.4573,314.999998,314.999998,324.999988,324.999988,99.55812857142857,99.50731666666667,99.56737142857143,99.54698571428571,0.08574999999999999,-0.057666666666666755,-0.1042,0.1276,-0.05833333333333002,-0.026666666666670835,1.5026666666666668,1.4889999999999999,38.116,29.813000000000002,38.189,35.108000000000004,55.714,35.132,59.6285,52.5165,53.666,34.2665,58.216499999999996,50.838499999999996,52.833,33.81766666666667,58.132999999999996,50.24433333333333,-0.09099999999999997,-0.07200000000000006,0.10741500000000001,0.10911000000000001,0.0,213.435,213.405,210.19,210.19,0.0,0.0
20,0.0,1.0,0.0,1.0,1.0,0.0,0.0,1.0,0.0,100.0,1.0,1.1856,26.0,0.0,0.0,0.0,51.999998,0.0,26.0,26.0,26.0,26.0,0.021666666666666723,0.2639,-0.0126,292.389,-2.7034000000000002,-2.6606,-1.5202,-1.5892,-208.70999999999998,215.3075,190.574375,0.0,0.0,0.0,0.0,0.04053333333333333,-5.498166666666667,-5.498166666666667,-0.5531,-0.6986666666666667,0.012666666666666604,0.5720000000000001,68.293,0.006299999999999972,-0.22455,-0.0420000000000007,100.0,1.0,1.0,210.57666666666665,0.0,0.0,0.0,0.0,0.0,0.0,0.0,8925.6,0.0,55.0,5.0,245.82999999999998,0.0,0.0,0.0,0.0,0.0,0.0,0.0,0.0,1.004999999999999,1.004999999999999,0.0,0.0,0.0,55.0,616.79921,10000.0,85.000001,85.000001,85.000001,85.000001,395.0,0.0,0.0,0.0,1.0,333.33500000000004,52.536,52.536,47.424,47.424,34.0,-22.5325,24.9,-27.616666666666667,29.7475,0.0,1781.949,-0.21999999999999886,100.0,28.012,27.922,43.382,43.585,0.0,1.0,100.0,0.0,0.0,0.0,0.0,3005.285714285714,3141.0,4079.0,4133.0,305.6495,304.9166666666667,314.83933333333334,314.54975,21.94788888888889,20.6156,21.96088888888889,21.4666,314.999998,314.999998,324.999988,324.999988,99.55814285714285,99.50731666666667,99.5675,99.54712857142857,0.09425000000000017,-0.04233333333333311,-0.1024,0.121,-0.03166666666666629,-0.045000000000001705,1.4929999999999999,1.5010000000000003,38.175,29.8475,38.254999999999995,35.166,55.701,35.170500000000004,59.6685,52.58,53.653999999999996,34.302,58.254,50.9,52.819,33.85166666666667,58.167,50.30433333333333,-0.09299999999999997,-0.06800000000000006,0.11013500000000001,0.103595,0.0,213.8,213.805,210.57666666666665,210.57666666666665,0.0,0.0
21,0.0,1.0,0.0,1.0,1.0,0.0,0.0,1.0,0.0,100.0,1.0,1.1856,26.0,0.0,0.0,0.0,51.999998,0.0,26.0,26.0,26.0,26.0,-0.00022222222222212373,0.27780000000000005,-0.0531,292.664,-2.7168,-2.6345,-1.5671,-1.5301,-205.43,215.3025,190.552875,0.0,0.0,0.0,0.0,0.04243333333333334,-5.498166666666667,-5.498166666666667,-0.5729000000000001,-0.052333333333333336,0.002888888888888941,0.5309999999999999,68.42,0.0052000000000000934,-0.22512500000000002,-0.1200000000000001,100.0,1.0,1.0,211.09,0.0,0.0,0.0,0.0,0.0,0.0,0.0,8947.3,0.0,55.0,5.0,246.28333333333336,1.0,0.0,0.0,0.0,0.0,0.0,0.0,0.0,1.0530000000000008,1.0530000000000008,0.0,0.0,1.0,55.0,616.79921,10000.0,85.000001,85.000001,85.000001,85.000001,395.0,0.0,0.0,0.0,1.0,333.33500000000004,52.46,52.46,48.111,48.111,34.0,-23.645,24.85,-27.116666666666667,27.31,0.0,1781.9,-0.21499999999999986,100.0,28.002,27.762,43.069,43.209,0.0,1.0,100.0,0.0,0.0,0.0,0.0,3107.142857142857,3167.2,4002.25,4043.2,305.3665,304.86266666666666,315.11833333333334,314.889,21.956777777777777,20.6208,21.970555555555556,21.4751,314.999998,314.999998,324.999988,324.999988,99.55815714285714,99.50733333333334,99.56764285714286,99.54725714285715,0.09125000000000005,-0.04299999999999993,-0.1006,0.11220000000000001,-0.041666666666671404,-0.05333333333332746,1.5636666666666668,1.5675,38.230000000000004,29.8795,38.316,35.219,55.689,35.2065,59.702,52.6355,53.643,34.335499999999996,58.285,50.9535,52.807,33.884,58.195,50.35666666666667,-0.09799999999999986,-0.06349999999999989,0.109185,0.09191,0.0,214.215,214.215,211.09,211.09,0.0,0.0
22,0.0,1.0,0.0,1.0,1.0,0.0,0.0,1.0,0.0,100.0,1.0,1.1856,26.0,0.0,0.0,0.0,51.999998,0.0,26.0,26.0,26.0,26.0,0.013555555555555543,0.2882,0.0167,292.252,-2.762,-2.6625,-1.5979999999999999,-1.4977,-201.94,215.3,190.52925,0.0,0.0,0.0,0.0,0.04446666666666667,-5.498166666666667,-5.498166666666667,-0.5583,0.123,0.005444444444444363,-0.4830000000000001,68.55799999999999,0.006399999999999961,-0.19975,-0.10799999999999965,100.0,1.0,1.0,211.35666666666668,0.0,0.0,0.0,0.0,0.0,0.0,0.0,8958.6,0.0,55.0,5.0,246.78,0.0,0.0,0.0,0.0,0.0,0.0,0.0,0.0,1.1039999999999992,1.1039999999999992,0.0,0.0,0.0,55.0,616.79921,10000.0,85.000001,85.000001,85.000001,85.000001,395.0,0.0,0.0,0.0,1.0,333.33500000000004,52.536,52.536,47.272,47.272,34.0,-24.54,24.32,-30.693333333333335,29.62,0.0,1781.849,-0.2749999999999986,100.0,27.884,27.976,43.054,43.275999999999996,0.0,1.0,100.0,0.0,0.0,0.0,0.0,3179.285714285714,3051.4,4339.375,4319.8,305.403,305.052,314.38,314.16575,21.96622222222222,20.6263,21.981,21.4842,314.999998,314.999998,324.999988,324.999988,99.55815714285714,99.50733333333334,99.5678,99.54741428571428,0.08824999999999994,-0.040999999999999925,-0.10300000000000001,0.11420000000000001,-0.045000000000001705,-0.04333333333332945,1.4993333333333334,1.4939999999999998,38.289,29.9145,38.382,35.275999999999996,55.677,35.2455,59.741,52.6965,53.631,34.3715,58.321,51.012,52.795,33.91833333333334,58.228,50.41433333333333,-0.10299999999999998,-0.052999999999999936,0.09539500000000001,0.10773,0.0,214.655,214.655,211.35666666666668,211.35666666666668,0.0,0.0
23,0.0,1.0,0.0,1.0,1.0,0.0,0.0,1.0,0.0,100.0,1.0,1.1856,26.0,0.0,0.0,0.0,51.999998,0.0,26.0,26.0,26.0,26.0,-0.00022222222222212373,0.2771000000000001,0.015550000000000001,292.068,-2.6617,-2.6863,-1.6405500000000002,-1.5366,-198.44,215.2975,190.505625,0.0,0.0,0.0,0.0,0.0465,-5.498166666666667,-5.498166666666667,-0.5716,-0.29633333333333334,0.010555555555555651,0.5939999999999999,68.693,0.006099999999999994,-0.223025,-0.17799999999999905,100.0,1.0,1.0,211.81666666666666,0.0,0.0,0.0,0.0,0.0,0.0,0.0,8978.1,0.0,55.0,5.0,247.26666666666665,1.0,0.0,0.0,0.0,0.0,0.0,0.0,0.0,1.1550000000000011,1.1550000000000011,0.0,0.0,1.0,55.0,616.79921,10000.0,85.000001,85.000001,85.000001,85.000001,395.0,0.0,0.0,0.0,1.0,166.665,52.002,52.002,47.516,47.516,34.0,-23.0175,25.586,-29.943333333333335,29.7775,0.0,1781.8,-0.29499999999999815,100.0,28.286,28.044,43.331,43.477000000000004,0.0,1.0,100.0,0.0,0.0,0.0,0.0,3160.0,3174.9,4193.0,4226.0,305.1225,304.7556666666667,314.691,314.447,21.975555555555555,20.6319,21.991555555555557,21.4935,314.999998,314.999998,324.999988,324.999988,99.55817142857143,99.50735,99.56794285714285,99.54755714285714,0.10650000000000004,-0.040999999999999925,-0.1004,0.125,-0.041666666666671404,-0.05333333333332746,1.5043333333333333,1.5244999999999997,38.347,29.9495,38.447,35.334,55.665,35.285,59.778999999999996,52.7595,53.620000000000005,34.408,58.3565,51.0725,52.782,33.95333333333333,58.2605,50.473333333333336,-0.10799999999999987,-0.05799999999999983,0.10447500000000001,0.10413000000000001,0.0,215.055,215.065,211.81666666666666,211.81666666666666,0.0,0.0
24,0.0,1.0,0.0,1.0,1.0,0.0,0.0,1.0,0.0,100.0,1.0,1.1856,26.0,0.0,0.0,0.0,51.999998,0.0,26.0,26.0,26.0,26.0,0.017777777777777892,0.2772000000000001,-0.04455,292.435,-2.6855,-2.6704,-1.5469,-1.5589,-195.14,215.2975,190.483125,0.0,0.0,0.0,0.0,0.048433333333333335,-5.498166666666667,-5.498166666666667,-0.5861000000000001,-0.377,0.015444444444444372,1.143,68.82,0.00770000000000004,-0.22462500000000002,-0.2239999999999993,100.0,1.0,1.0,212.22,0.0,0.0,0.0,0.0,0.0,0.0,0.0,8995.3,0.0,55.0,5.0,247.72333333333336,0.0,0.0,0.0,0.0,0.0,0.0,0.0,0.0,1.2029999999999994,1.2029999999999994,0.0,0.0,0.0,55.0,616.79921,10000.0,85.000001,85.000001,85.000001,85.000001,395.0,0.0,0.0,0.0,1.0,166.665,52.643,52.643,47.516,47.516,34.0,-21.9675,24.64,-27.939999999999998,29.9025,0.0,1781.751,-0.25,100.0,28.197,27.875,43.306,43.444,0.0,1.0,100.0,0.0,0.0,0.0,0.0,2962.142857142857,3089.9,4144.875,4144.2,305.7565,305.08433333333335,314.7153333333333,314.62325,21.984333333333332,20.6371,22.001333333333335,21.5021,314.999998,314.999998,324.999988,324.999988,99.55818571428571,99.50735,99.56808571428571,99.5477,0.09600000000000009,-0.03933333333333322,-0.09440000000000001,0.13419999999999999,-0.051666666666669414,-0.06499999999999773,1.5313333333333334,1.5225,38.402,29.9815,38.507999999999996,35.388,55.653999999999996,35.320499999999996,59.8135,52.816,53.608999999999995,34.4405,58.388999999999996,51.1275,52.771,33.98466666666667,58.289500000000004,50.527,-0.09949999999999992,-0.0535000000000001,0.10343500000000001,0.11166500000000001,0.0,215.445,215.45,212.22,212.22,0.0,0.0
25,0.0,1.0,0.0,1.0,1.0,0.0,0.0,1.0,0.0,100.0,1.0,1.1856,26.0,0.0,0.0,0.0,51.999998,0.0,26.0,26.0,26.0,26.0,0.0257777777777779,0.27080000000000015,-0.029,292.252,-2.7504,-2.6432,-1.5933000000000002,-1.5495,-191.63,215.29500000000002,190.457875,0.0,0.0,0.0,0.0,0.050466666666666674,-5.498166666666667,-5.498166666666667,-0.6018,0.025666666666666667,0.022777777777777786,-0.8860000000000001,68.953,0.009600000000000053,-0.21932500000000002,-0.16199999999999992,100.0,1.0,1.0,212.67333333333335,0.0,0.0,0.0,0.0,0.0,0.0,0.0,9014.5,0.0,55.0,5.0,248.20333333333335,1.0,0.0,0.0,0.0,0.0,0.0,0.0,0.0,1.2540000000000013,1.2540000000000013,0.0,0.0,1.0,55.0,616.79921,10000.0,85.000001,85.000001,85.000001,85.000001,395.0,0.0,0.0,0.0,1.0,333.33500000000004,51.91,51.91,47.806,47.806,34.0,-25.4775,25.774,-28.153333333333336,28.675,0.0,1781.698,-0.28500000000000014,100.0,27.905,28.195999999999998,43.037,43.332,0.0,1.0,100.0,0.0,0.0,0.0,0.0,3309.714285714286,3232.2,4054.875,4121.4,304.998,304.4646666666667,315.0726666666667,314.61525,21.993666666666666,20.6427,22.011666666666667,21.5112,314.999998,314.999998,324.999988,324.999988,99.55818571428571,99.50735,99.56822857142858,99.54784285714285,0.09200000000000008,-0.04299999999999993,-0.1058,0.1164,-0.03499999999999659,-0.054999999999999716,1.5486666666666666,1.5440000000000005,38.46,30.017,38.573,35.445,55.641,35.36,59.8495,52.876,53.597,34.477000000000004,58.422,51.185,52.757,34.019333333333336,58.3195,50.583333333333336,-0.10250000000000004,-0.05650000000000022,0.10511500000000001,0.10838,0.0,215.85500000000002,215.865,212.67333333333335,212.67333333333335,0.0,0.0
26,0.0,1.0,0.0,1.0,1.0,0.0,0.0,1.0,0.0,100.0,1.0,1.1856,26.0,0.0,0.0,0.0,51.999998,0.0,26.0,26.0,26.0,26.0,0.027555555555555777,0.26870000000000016,0.051225,291.458,-2.7126,-2.6527000000000003,-1.55515,-1.5551,-187.89999999999998,215.29500000000002,190.430875,0.0,0.0,0.0,0.0,0.05263333333333334,-5.498166666666667,-5.498166666666667,-0.5750000000000001,0.23866666666666667,0.00922222222222202,-0.6470000000000002,69.096,0.00890000000000013,-0.203575,-0.16999999999999993,100.0,1.0,1.0,212.92000000000002,0.0,0.0,0.0,0.0,0.0,0.0,0.0,9025.0,0.0,55.0,5.0,248.72,0.0,0.0,0.0,0.0,0.0,0.0,0.0,0.0,1.3079999999999998,1.3079999999999998,0.0,0.0,0.0,55.0,616.79921,10000.0,85.000001,85.000001,85.000001,85.000001,395.0,0.0,0.0,0.0,1.0,166.665,51.712,51.712,46.783,46.783,34.0,-24.9925,24.154,-31.43,31.945,0.0,1781.645,-0.3299999999999983,100.0,28.601,28.607,43.463,43.808,0.0,1.0,100.0,0.0,0.0,0.0,0.0,3274.0,3067.5,4440.625,4429.7,305.0655,305.01933333333335,314.09133333333335,313.8465,22.003666666666668,20.6488,22.02288888888889,21.521,314.999998,314.999998,324.999988,324.999988,99.55821428571429,99.50736666666667,99.56838571428571,99.548,0.0887500000000001,-0.046666666666666634,-0.1058,0.1174,-0.04833333333333201,-0.045000000000001705,1.441,1.436,38.522999999999996,30.054499999999997,38.643,35.506,55.631,35.4025,59.8905,52.943,53.587,34.5165,58.460499999999996,51.2495,52.745999999999995,34.057,58.355000000000004,50.64633333333333,-0.10699999999999998,-0.053999999999999826,0.108255,0.11242,0.0,216.34,216.325,212.92000000000002,212.92000000000002,0.0,0.0
27,0.0,1.0,0.0,1.0,1.0,0.0,0.0,1.0,0.0,100.0,1.0,1.1856,26.0,0.0,0.0,0.0,51.999998,0.0,26.0,26.0,26.0,26.0,0.02011111111111119,0.25350000000000006,-0.0568,291.87,-2.7523,-2.6695,-1.61435,-1.5366,-184.79,215.29250000000002,190.409125,0.0,0.0,0.0,0.0,0.05443333333333334,-5.498166666666667,-5.498166666666667,-0.5946,-0.7723333333333334,0.020777777777777784,0.8360000000000001,69.213,0.011500000000000066,-0.235625,-0.31599999999999984,100.0,1.0,1.0,213.39666666666668,0.0,0.0,0.0,0.0,0.0,0.0,0.0,9045.1,0.0,55.0,5.0,249.14,1.0,0.0,0.0,0.0,0.0,0.0,0.0,0.0,1.352999999999998,1.352999999999998,0.0,0.0,1.0,55.0,616.79921,10000.0,85.000001,85.000001,85.000001,85.000001,395.0,0.0,0.0,0.0,1.0,333.33500000000004,51.987,51.987,46.768,46.768,34.0,-22.6375,26.166,-28.766666666666666,29.26,0.0,1781.6,-0.3249999999999993,100.0,28.475,28.423000000000002,43.954,44.019999999999996,0.0,1.0,100.0,0.0,0.0,0.0,0.0,3027.857142857143,3224.7,4115.25,4127.6,305.6555,304.61833333333334,314.844,314.7215,22.01188888888889,20.6537,22.032222222222224,21.5293,314.999998,314.999998,324.999988,324.999988,99.55821428571429,99.50736666666667,99.56851428571429,99.54812857142858,0.10550000000000015,-0.03466666666666662,-0.09720000000000001,0.13019999999999998,-0.03499999999999659,-0.046666666666666856,1.5156666666666667,1.5065,38.574,30.086,38.701,35.558,55.620000000000005,35.437,59.925,52.998,53.577,34.548,58.493,51.302,52.735,34.087666666666664,58.384,50.698,-0.11149999999999993,-0.05449999999999999,0.10848500000000001,0.10375500000000001,0.0,216.635,216.65,213.39666666666668,213.39666666666668,0.0,0.0
28,0.0,1.0,0.0,1.0,1.0,0.0,0.0,1.0,0.0,100.0,1.0,1.1856,26.0,0.0,0.0,0.0,51.999998,0.0,26.0,26.0,26.0,26.0,0.04133333333333322,0.26150000000000007,-0.05095,292.007,-2.6888,-2.65,-1.63,-1.5615999999999999,-181.25,215.29500000000002,190.383875,0.0,0.0,0.0,0.0,0.0565,-5.498166666666667,-5.498166666666667,-0.6022000000000001,0.4713333333333333,0.006444444444444253,-1.0819999999999999,69.343,0.015600000000000058,-0.219025,-0.2759999999999998,100.0,1.0,1.0,213.88333333333333,0.0,0.0,0.0,0.0,0.0,0.0,0.0,9065.8,0.0,55.0,5.0,249.60666666666668,0.0,0.0,0.0,0.0,0.0,0.0,0.0,0.0,1.404,1.404,0.0,0.0,0.0,55.0,616.79921,10000.0,85.000001,85.000001,85.000001,85.000001,395.0,0.0,0.0,0.0,1.0,166.665,51.91,51.91,47.409,47.409,34.0,-23.575,24.759999999999998,-29.049999999999997,29.2875,0.0,1781.551,-0.34999999999999787,100.0,28.38,28.589,43.361000000000004,43.743,0.0,1.0,100.0,0.0,0.0,0.0,0.0,3174.0,3100.3,4144.0,4102.3,305.3125,304.82233333333335,314.911,314.69825,22.02122222222222,20.6594,22.042444444444445,21.5384,314.999998,314.999998,324.999988,324.999988,99.55822857142857,99.50736666666667,99.56865714285715,99.54828571428571,0.09724999999999984,-0.04166666666666674,-0.099,0.1278,-0.06333333333333258,-0.03333333333333144,1.5386666666666666,1.5339999999999998,38.632,30.121499999999997,38.765,35.615,55.608999999999995,35.4765,59.9595,53.057,53.566,34.585,58.5245,51.359,52.724000000000004,34.123,58.4125,50.75366666666667,-0.10850000000000004,-0.05449999999999999,0.1101,0.105385,0.0,217.085,217.085,213.88333333333333,213.88333333333333,0.0,0.0
29,0.0,1.0,0.0,1.0,1.0,0.0,0.0,1.0,0.0,100.0,1.0,1.1856,26.0,0.0,0.0,0.0,51.999998,0.0,26.0,26.0,26.0,26.0,0.04655555555555568,0.2633000000000001,-0.02535,291.916,-2.7561999999999998,-2.5825,-1.6031,-1.5470000000000002,-177.5,215.29500000000002,190.356,0.0,0.0,0.0,0.0,0.058666666666666666,-5.498166666666667,-5.498166666666667,-0.6053000000000001,-0.7173333333333334,-0.00022222222222234578,-0.8090000000000002,69.485,0.01629999999999998,-0.215475,-0.24600000000000044,100.0,1.0,1.0,214.16666666666669,0.0,0.0,0.0,0.0,0.0,0.0,0.0,9077.8,0.0,55.0,5.0,250.12,1.0,0.0,0.0,0.0,0.0,0.0,0.0,0.0,1.4579999999999984,1.4579999999999984,0.0,0.0,1.0,55.0,616.79921,10000.0,85.000001,85.000001,85.000001,85.000001,395.0,0.0,0.0,0.0,1.0,166.665,52.383,52.383,47.012,47.012,34.0,-24.2425,23.934,-29.876666666666665,30.4175,0.0,1781.496,-0.4499999999999993,100.0,28.006,28.338,43.698,44.027,0.0,1.0,100.0,0.0,0.0,0.0,0.0,3222.285714285714,3075.4,4213.75,4241.7,305.424,305.149,314.67766666666665,314.296,22.031,20.665399999999998,22.053666666666665,21.5483,314.999998,314.999998,324.999988,324.999988,99.55824285714286,99.50738333333334,99.56881428571428,99.54844285714286,0.09925000000000006,-0.03433333333333333,-0.1048,0.12440000000000001,-0.05666666666667197,-0.04333333333332945,1.492,1.4820000000000002,38.693,30.1585,38.835,35.677,55.596000000000004,35.5165,60.001,53.1225,53.553,34.622,58.563,51.4225,52.71,34.15833333333333,58.448,50.815333333333335,-0.11499999999999999,-0.047499999999999876,0.10933000000000001,0.11175500000000001,0.0,217.5,217.5,214.16666666666669,214.16666666666669,0.0,0.0
30,0.0,1.0,0.0,1.0,1.0,0.0,0.0,1.0,0.0,100.0,1.0,1.1856,26.0,0.0,0.0,0.0,51.999998,0.0,26.0,26.0,26.0,26.0,0.05266666666666686,0.256,0.030000000000000002,291.336,-2.6334,-2.7251000000000003,-1.6487500000000002,-1.5992000000000002,-174.38,215.2975,190.332625,0.0,0.0,0.0,0.0,0.060500000000000005,-5.498166666666667,-5.498166666666667,-0.6095,0.6796666666666666,0.004888888888888943,0.7,69.599,0.014700000000000157,-0.218775,-0.3420000000000005,100.0,1.0,1.0,214.64333333333332,0.0,0.0,0.0,0.0,0.0,0.0,0.0,9097.9,0.0,55.0,5.0,250.53,0.0,0.0,0.0,0.0,0.0,0.0,1.0,0.0,1.5030000000000001,1.5030000000000001,0.0,0.0,0.0,55.0,616.79921,10000.0,85.000001,85.000001,85.000001,85.000001,395.0,0.0,0.0,0.0,1.0,333.33500000000004,50.644,50.644,47.363,47.363,34.0,-23.925,29.274,-28.746666666666663,29.875,0.0,1781.45,-0.509999999999998,100.0,29.045,28.784,43.534,43.896,0.0,1.0,100.0,0.0,0.0,0.0,0.0,3363.5714285714284,3464.5,4116.125,4090.8,304.6685,303.9356666666667,315.0323333333333,314.73125,22.03933333333333,20.6705,22.06277777777778,21.5564,314.999998,314.999998,324.999988,324.999988,99.55827142857143,99.50738333333334,99.56894285714286,99.54857142857144,0.11474999999999991,-0.02733333333333321,-0.0938,0.1318,-0.03999999999999915,-0.054999999999999716,1.5366666666666666,1.5330000000000004,38.745999999999995,30.191,38.891999999999996,35.727000000000004,55.59,35.553,60.0315,53.1755,53.547,34.6555,58.591499999999996,51.473,52.702,34.190333333333335,58.4735,50.86533333333333,-0.12399999999999989,-0.04600000000000026,0.10424000000000001,0.10646000000000001,0.0,217.865,217.885,214.64333333333332,214.64333333333332,0.0,0.0
31,0.0,1.0,0.0,1.0,1.0,0.0,0.0,1.0,0.0,100.0,1.0,1.1856,26.0,0.0,0.0,0.0,51.999998,0.0,26.0,26.0,26.0,26.0,0.057666666666666755,0.26990000000000003,0.062275000000000004,290.665,-2.7727,-2.6226000000000003,-1.6457000000000002,-1.5402,-170.82,215.3,190.306625,0.0,0.0,0.0,0.0,0.06256666666666666,-5.498166666666667,-5.498166666666667,-0.5847,-0.2636666666666667,0.014888888888888951,-0.4950000000000001,69.732,0.022599999999999953,-0.214475,-0.3959999999999999,100.0,1.0,1.0,214.79333333333335,0.0,0.0,0.0,0.0,0.0,0.0,0.0,9104.2,0.0,55.0,5.0,251.01,1.0,0.0,0.0,0.0,0.0,0.0,1.0,0.0,1.5539999999999985,1.5539999999999985,0.0,0.0,1.0,55.0,616.79921,10000.0,85.000001,85.000001,85.000001,85.000001,395.0,0.0,0.0,0.0,1.0,333.33500000000004,51.178,51.178,45.456,45.456,34.0,-24.0825,26.084,-31.85,33.05,0.0,1781.399,-0.4450000000000003,100.0,28.872,29.182000000000002,44.3,44.716,0.0,1.0,100.0,0.0,0.0,0.0,0.0,3228.857142857143,3249.7,4466.375,4477.2,305.257,304.4766666666667,313.979,313.6435,22.048666666666666,20.6764,22.073444444444444,21.5659,314.999998,314.999998,324.999988,324.999988,99.55827142857143,99.5074,99.5691,99.54872857142857,0.1120000000000001,-0.03400000000000003,-0.08259999999999999,0.129,-0.04333333333332945,-0.036666666666668846,1.4353333333333333,1.4169999999999998,38.804,30.227,38.959,35.787,55.58,35.593,60.0725,53.24,53.538,34.692499999999995,58.629999999999995,51.5355,52.692,34.226,58.5085,50.92633333333333,-0.123,-0.046499999999999986,0.104635,0.10258,0.0,218.265,218.29000000000002,214.79333333333335,214.79333333333335,0.0,0.0
32,0.0,1.0,0.0,1.0,1.0,0.0,0.0,1.0,0.0,100.0,1.0,1.1856,26.0,0.0,0.0,0.0,51.999998,0.0,26.0,26.0,26.0,26.0,0.044333333333333336,0.2583,-0.041325,291.29,-2.7028,-2.6766,-1.59365,-1.5441,-167.26,215.305,190.28125,0.0,0.0,0.0,0.0,0.06463333333333333,-5.498166666666667,-5.498166666666667,-0.6054,-0.3393333333333333,0.002777777777777768,0.363,69.85900000000001,0.027700000000000058,-0.23395000000000002,-0.4720000000000004,100.0,1.0,1.0,215.36,0.0,0.0,0.0,0.0,0.0,0.0,0.0,9128.3,0.0,55.0,5.0,251.47,0.0,0.0,0.0,0.0,0.0,0.0,1.0,0.0,1.6050000000000004,1.6050000000000004,0.0,0.0,0.0,55.0,616.79921,10000.0,85.000001,85.000001,85.000001,85.000001,395.0,0.0,0.0,0.0,1.0,166.665,51.513999999999996,51.513999999999996,46.509,46.509,34.0,-21.9225,26.444,-26.72333333333333,32.5125,0.0,1781.35,-0.4299999999999997,100.0,28.905,28.995,44.297,44.583,0.0,1.0,100.0,0.0,0.0,0.0,0.0,3050.285714285714,3190.2,4075.5,4329.8,305.5255,304.731,314.899,314.25525,22.05788888888889,20.6822,22.08388888888889,21.5752,314.999998,314.999998,324.999988,324.999988,99.5583,99.5074,99.56924285714285,99.54887142857143,0.11850000000000005,-0.022333333333333316,-0.067,0.154,-0.03833333333332689,-0.05833333333333002,1.5076666666666667,1.4825,38.861999999999995,30.2635,39.024,35.845,55.569,35.632999999999996,60.1085,53.301,53.527,34.7295,58.663,51.594,52.68,34.26133333333333,58.5385,50.983666666666664,-0.11099999999999999,-0.05549999999999988,0.10111,0.10631000000000002,0.0,218.65,218.685,215.36,215.36,0.0,0.0
33,0.0,1.0,0.0,1.0,1.0,0.0,0.0,1.0,0.0,100.0,1.0,1.1856,26.0,0.0,0.0,0.0,51.999998,0.0,26.0,26.0,26.0,26.0,0.044666666666666854,0.2619,-0.079525,291.626,-2.7296,-2.6935000000000002,-1.59395,-1.5852,-163.91,215.31,190.256375,0.0,0.0,0.0,0.0,0.06656666666666666,-5.498166666666667,-5.498166666666667,-0.6152000000000001,-0.14200000000000002,-0.004111111111110954,0.825,69.981,0.026900000000000146,-0.2184,-0.44399999999999995,100.0,1.0,1.0,215.76,0.0,0.0,0.0,0.0,0.0,0.0,0.0,9145.3,0.0,55.0,5.0,251.90333333333334,1.0,0.0,0.0,0.0,0.0,0.0,1.0,0.0,1.6529999999999987,1.6529999999999987,0.0,0.0,1.0,55.0,616.79921,10000.0,85.000001,85.000001,85.000001,85.000001,395.0,0.0,0.0,0.0,1.0,333.33500000000004,51.865,51.865,46.936,46.936,34.0,-22.055,25.784,-27.233333333333334,30.9875,0.0,1781.299,-0.46000000000000085,100.0,28.701999999999998,28.695999999999998,44.013,44.304,0.0,1.0,100.0,0.0,0.0,0.0,0.0,3072.0,3113.4,4082.625,4191.2,305.5325,304.95366666666666,314.95166666666665,314.5545,22.066555555555556,20.6875,22.093555555555554,21.5839,314.999998,314.999998,324.999988,324.999988,99.5583,99.5074,99.56938571428572,99.54901428571429,0.12349999999999994,-0.024666666666666615,-0.0792,0.14,-0.03833333333332689,-0.05666666666667197,1.5336666666666665,1.5220000000000002,38.916,30.2965,39.085,35.899,55.559,35.668,60.1415,53.357,53.518,34.762,58.694,51.647999999999996,52.669,34.29233333333333,58.566,51.036,-0.11949999999999994,-0.04850000000000021,0.11063500000000001,0.10171000000000001,0.0,219.04000000000002,219.06,215.76,215.76,0.0,0.0
34,0.0,1.0,0.0,1.0,1.0,0.0,0.0,1.0,0.0,100.0,1.0,1.1856,26.0,0.0,0.0,0.0,51.999998,0.0,26.0,26.0,26.0,26.0,0.062888888888889,0.2551000000000001,-0.06582500000000001,291.885,-2.6731,-2.6714,-1.62705,-1.5269,-160.32999999999998,215.315,190.228375,0.0,0.0,0.0,0.0,0.06866666666666667,-5.498166666666667,-5.498166666666667,-0.6383,-0.8583333333333334,0.014666666666666606,-0.18800000000000017,70.11,0.02639999999999998,-0.21915,-0.3420000000000005,100.0,1.0,1.0,216.11,0.0,0.0,0.0,0.0,0.0,0.0,0.0,9160.1,0.0,55.0,5.0,252.37,0.0,0.0,0.0,0.0,0.0,0.0,1.0,0.0,1.7040000000000006,1.7040000000000006,0.0,0.0,0.0,55.0,616.79921,10000.0,85.000001,85.000001,85.000001,85.000001,395.0,0.0,0.0,0.0,1.0,166.665,52.444,52.444,47.058,47.058,34.0,-21.412499999999998,24.332,-28.423333333333332,30.462500000000002,0.0,1781.251,-0.46999999999999886,100.0,28.252,28.501,43.84,44.424,0.0,1.0,100.0,0.0,0.0,0.0,0.0,3022.5714285714284,2953.4,4147.625,4220.4,305.743,305.26866666666666,314.85366666666664,314.456,22.075666666666667,20.693,22.104,21.5932,314.999998,314.999998,324.999988,324.999988,99.55832857142858,99.5074,99.56952857142858,99.54917142857143,0.11525000000000007,-0.023666666666666725,-0.0818,0.138,-0.05833333333333002,-0.041666666666671404,1.4969999999999999,1.5030000000000001,38.973,30.3315,39.15,35.957,55.548,35.704499999999996,60.1765,53.4185,53.506,34.795500000000004,58.7265,51.707,52.657,34.324666666666666,58.5955,51.094,-0.11799999999999988,-0.03849999999999998,0.10225500000000001,0.10891,0.0,219.41500000000002,219.44,216.11,216.11,0.0,0.0
35,0.0,1.0,0.0,1.0,1.0,0.0,0.0,1.0,0.0,100.0,1.0,1.1856,26.0,0.0,0.0,0.0,51.999998,0.0,26.0,26.0,26.0,26.0,0.038000000000000034,0.248,-0.10355,291.84,-2.7994,-2.6554,-1.53905,-1.5792000000000002,-156.75,215.3225,190.198625,0.0,0.0,0.0,0.0,0.07073333333333334,-5.498166666666667,-5.498166666666667,-0.679,-0.16333333333333336,-0.00022222222222234578,-0.21799999999999997,70.236,0.029000000000000137,-0.22915000000000002,-0.4139999999999997,100.0,1.0,1.0,216.61666666666667,0.0,0.0,0.0,0.0,0.0,0.0,0.0,9181.5,0.0,55.0,5.0,252.82666666666665,1.0,0.0,0.0,0.0,0.0,0.0,1.0,0.0,1.754999999999999,1.754999999999999,0.0,0.0,1.0,55.0,616.79921,10000.0,85.000001,85.000001,85.000001,85.000001,395.0,0.0,0.0,0.0,1.0,333.33500000000004,51.62,51.62,47.028,47.028,34.0,-23.5325,27.64,-25.06666666666667,29.802500000000002,0.0,1781.198,-0.28500000000000014,100.0,28.289,28.728,43.613,43.915,0.0,1.0,100.0,0.0,0.0,0.0,0.0,3112.142857142857,3358.0,4032.875,3995.5,305.3835,304.2216666666667,315.135,315.10325,22.084666666666667,20.6989,22.11422222222222,21.6023,314.999998,314.999998,324.999988,324.999988,99.55832857142858,99.5074,99.56968571428571,99.54931428571429,0.11350000000000016,-0.02733333333333321,-0.06420000000000001,0.15719999999999998,-0.041666666666671404,-0.060000000000002274,1.5846666666666667,1.5469999999999997,39.028999999999996,30.368000000000002,39.214,36.015,55.535,35.7435,60.210499999999996,53.476,53.494,34.832,58.757999999999996,51.7625,52.644,34.35966666666667,58.624,51.147999999999996,-0.10050000000000003,-0.06349999999999989,0.09729,0.11124500000000001,0.0,219.805,219.845,216.61666666666667,216.61666666666667,0.0,0.0
