,ABS Active,ABS Enabled,AID Allow Tire Blankets,AID Auto Blip,AID Auto Clutch,AID Auto Shift,AID Fuel Rate,AID Ideal Line,AID Mech Damage,AID Stability,AID Tire Wear Rate,Air Density,Air Temp,Ballast,Best Lap Delta,Best Lap Time,Brake Bias,Brake Pos,Brake Temp FL,Brake Temp FR,Brake Temp RL,Brake Temp RR,CG Accel Lateral,CG Accel Longitudinal,CG Accel Vertical,CG Height,Camber FL,Camber FR,Camber RL,Camber RR,Car Coord X,Car Coord Y,Car Coord Z,Car Damage Front,Car Damage Left,Car Damage Rear,Car Damage Right,Car Pos Norm,Caster FL,Caster FR,Chassis Pitch Angle,Chassis Pitch Rate,Chassis Roll Angle,Chassis Roll Rate,Chassis Velocity X,Chassis Velocity Y,Chassis Velocity Z,Chassis Yaw Rate,Clutch Pos,DRS Active,DRS Available,Drive Train Speed,ERS Heat Charging,ERS Is Charging,ERS Max Energy,ERS Power Level,ERS Recovery Level,Engine Brake Setting,Engine Limiter,Engine RPM,Flags,Fuel Level,Gear,Ground Speed,HR Sample Clock,In Pit,KERS Charge,KERS Deployed Energy,KERS Input,KERS Max Energy,LR Sample Clock,Lap Invalidated,Lap Time,Lap Time2,Last Lap Time,Last Sector Time,MR Sample Clock,Max Fuel,Max Power,Max RPM,Max Sus Travel FL,Max Sus Travel FR,Max Sus Travel RL,Max Sus Travel RR,Max Torque,Max Turbo Boost,Num Tires Off Track,Penalties Enabled,Position,Raw Data Sample Rate,Ride Height FL,Ride Height FR,Ride Height RL,Ride Height RR,Road Temp,Self Align Torque FL,Self Align Torque FR,Self Align Torque RL,Self Align Torque RR,Session Lap Count,Session Time Left,Steering Angle,Surface Grip,Suspension Travel FL,Suspension Travel FR,Suspension Travel RL,Suspension Travel RR,TC Active,TC Enabled,Throttle Pos,Tire Dirt Level FL,Tire Dirt Level FR,Tire Dirt Level RL,Tire Dirt Level RR,Tire Load FL,Tire Load FR,Tire Load RL,Tire Load RR,Tire Loaded Radius FL,Tire Loaded Radius FR,Tire Loaded Radius RL,Tire Loaded Radius RR,Tire Pressure FL,Tire Pressure FR,Tire Pressure RL,Tire Pressure RR,Tire Radius FL,Tire Radius FR,Tire Radius RL,Tire Radius RR,Tire Rubber Grip FL,Tire Rubber Grip FR,Tire Rubber Grip RL,Tire Rubber Grip RR,Tire Slip Angle FL,Tire Slip Angle FR,Tire Slip Angle RL,Tire Slip Angle RR,Tire Slip Ratio FL,Tire Slip Ratio FR,Tire Slip Ratio RL,Tire Slip Ratio RR,Tire Temp Core FL,Tire Temp Core FR,Tire Temp Core RL,Tire Temp Core RR,Tire Temp Inner FL,Tire Temp Inner FR,Tire Temp Inner RL,Tire Temp Inner RR,Tire Temp Middle FL,Tire Temp Middle FR,Tire Temp Middle RL,Tire Temp Middle RR,Tire Temp Outer FL,Tire Temp Outer FR,Tire Temp Outer RL,Tire Temp Outer RR,Toe In FL,Toe In FR,Toe In RL,Toe In RR,Turbo Boost,Wheel Angular Speed FL,Wheel Angular Speed FR,Wheel Angular Speed RL,Wheel Angular Speed RR,Wind Direction,Wind Speed
0,0.0,1.0,0.0,1.0,1.0,0.0,0.0,1.0,0.0,100.0,1.0,1.1856,26.0,0.0,0.0,0.0,51.99999,0.0,26.0,26.0,26.0,26.0,-0.06422222222222218,0.2982,0.0217,293.991,-2.72235,-2.6525,-1.5203,-1.5538,-275.66,216.29250000000002,190.987375,0.0,0.0,0.0,0.0,0.0015999999999999348,-5.498166666666667,-5.498166666666667,-0.5478000000000001,1.393,-0.005555555555555536,-1.3370000000000002,65.502,-0.030399999999999983,-0.21300000000000002,0.968,100.0,1.0,1.0,202.23666666666668,0.0,0.0,0.0,0.0,0.0,0.0,0.0,8572.0,0.0,55.0,5.0,235.77666666666667,0.0,0.0,0.0,0.0,0.0,0.0,0.0,0.0,0.0030000000000001137,0.0030000000000001137,0.0,0.0,0.0,55.0,616.79921,10000.0,85.0,85.0,85.0,85.0,395.0,0.0,0.0,0.0,1.0,20.0,52.75,52.75,49.515,49.515,34.0,-25.939999999999998,23.354,-30.613333333333337,25.035,0.0,1782.904,0.7199999999999989,100.0,27.552,27.129,40.464,40.668,0.0,1.0,100.0,0.0,0.0,0.0,0.0,2980.0,3321.4,4163.875,3976.7,305.816,304.168,314.758,314.88175,21.7766,20.5159,21.7488,21.2891,314.99999,314.99999,324.99998,324.99998,99.55867142857143,99.50721666666666,99.56444285714285,99.54434285714285,0.002000000000000224,-0.11333333333333329,-0.1586,0.07020000000000004,-0.061666666666667425,-0.030000000000001137,1.5565,1.5795000000000001,37.104,29.224666666666664,36.93,34.057,56.198,34.439,58.837,51.3675,54.120999999999995,33.61,57.477000000000004,49.734,53.293,33.1715,57.449,49.159666666666666,-0.01949999999999985,-0.13649999999999984,0.11183000000000001,0.10526,0.0,205.3,205.185,202.23666666666668,202.23666666666668,0.0,0.0
1,0.0,1.0,0.0,1.0,1.0,0.0,0.0,1.0,0.0,100.0,1.0,1.1856,26.0,0.0,0.0,0.0,51.999998,0.0,26.0,26.0,26.0,26.0,-0.09277777777777785,0.3195000000000001,0.207375,292.908,-2.6361499999999998,-2.764125,-1.5286,-1.5523,-272.12,216.28750000000002,190.966,0.0,0.0,0.0,0.0,0.003666666666666596,-5.498166666666667,-5.498166666666667,-0.5004000000000001,-0.785,-0.05655555555555569,-1.0859999999999999,65.666,-0.04859999999999998,-0.19705,1.3940000000000001,100.0,1.0,1.0,202.42666666666668,0.0,0.0,0.0,0.0,0.0,0.0,0.0,8580.1,0.0,55.0,5.0,236.36333333333334,1.0,0.0,0.0,0.0,0.0,0.0,0.0,0.0,0.05699999999999861,0.05699999999999861,0.0,0.0,1.0,55.0,616.79921,10000.0,85.000001,85.000001,85.000001,85.000001,395.0,0.0,0.0,0.0,1.0,166.665,53.391,53.391,48.233000000000004,48.233000000000004,34.0,-27.755,18.672,-33.32666666666667,29.495,0.0,1782.851,0.9000000000000021,100.0,27.601,27.076,42.842,41.855000000000004,0.0,1.0,100.0,0.0,0.0,0.0,0.0,3161.857142857143,2726.5,4290.25,4706.8,305.3045,306.145,314.3565,313.1035,21.787,20.5213,21.7602,21.2987,314.999998,314.999998,324.999988,324.999988,99.55867142857143,99.50723333333333,99.5646,99.5445,-0.016249999999999876,-0.1316666666666666,-0.1714,0.04440000000000022,-0.041666666666671404,-0.05333333333332746,1.4205,1.481,37.169,29.258333333333333,37.001000000000005,34.117,56.181,34.4815,58.885,51.4375,54.105000000000004,33.6495,57.522,49.801,53.275999999999996,33.2095,57.491,49.22533333333333,-0.0029999999999998916,-0.1419999999999999,0.09245,0.11291000000000001,0.0,205.735,205.635,202.42666666666668,202.42666666666668,0.0,0.0
2,0.0,1.0,0.0,1.0,1.0,0.0,0.0,1.0,0.0,100.0,1.0,1.1856,26.0,0.0,0.0,0.0,51.999998,0.0,26.0,26.0,26.0,26.0,-0.12,0.27,-0.0086,293.51800000000003,-2.5987,-2.7975000000000003,-1.4865,-1.616,-268.96,216.28,190.94825,0.0,0.0,0.0,0.0,0.005499999999999949,-5.498166666666667,-5.498166666666667,-0.5481,-0.04566666666666667,-0.053777777777777924,1.7530000000000001,65.799,-0.06889999999999996,-0.25205,1.5939999999999994,100.0,1.0,1.0,203.2866666666667,0.0,0.0,0.0,0.0,0.0,0.0,0.0,8616.6,0.0,55.0,5.0,236.84333333333333,0.0,0.0,0.0,0.0,0.0,0.0,0.0,0.0,0.10500000000000043,0.10500000000000043,0.0,0.0,0.0,55.0,616.79921,10000.0,85.000001,85.000001,85.000001,85.000001,395.0,0.0,0.0,0.0,1.0,333.33500000000004,52.277,52.277,49.973,49.973,34.0,-30.1575,20.054000000000002,-29.586666666666666,20.425,0.0,1782.802,0.745000000000001,100.0,28.389,27.131,42.732,41.522,0.0,1.0,100.0,0.0,0.0,0.0,0.0,3422.285714285714,2902.5,3800.375,3680.4,304.4105,305.572,315.5155,315.759,21.796599999999998,20.526,21.77,21.307,314.999998,314.999998,324.999988,324.999988,99.55868571428572,99.50723333333333,99.56472857142857,99.54462857142858,-0.014249999999999874,-0.1403333333333332,-0.2192,0.013000000000000123,-0.045000000000001705,-0.051666666666669414,1.629,1.6975,37.229,29.287333333333336,37.062,34.1685,56.17,34.5185,58.9215,51.4915,54.094,33.683,57.556,49.853,53.263999999999996,33.242,57.5225,49.27633333333333,-0.028000000000000025,-0.12650000000000006,0.104135,0.10580500000000001,0.0,206.185,206.055,203.2866666666667,203.2866666666667,0.0,0.0
3,0.0,1.0,0.0,1.0,1.0,0.0,0.0,1.0,0.0,100.0,1.0,1.1856,26.0,0.0,0.0,0.0,51.999998,0.0,26.0,26.0,26.0,26.0,-0.13755555555555554,0.30190000000000006,-0.0443,293.32,-2.72845,-2.685375,-1.5141,-1.5903,-265.8,216.26999999999998,190.929875,0.0,0.0,0.0,0.0,0.007333333333333303,-5.498166666666667,-5.498166666666667,-0.5105000000000001,0.5593333333333333,-0.008777777777777995,-0.78,65.94200000000001,-0.0837,-0.2033,1.2420000000000009,100.0,1.0,1.0,203.46,0.0,0.0,0.0,0.0,0.0,0.0,0.0,8623.9,0.0,55.0,5.0,237.35666666666668,1.0,0.0,0.0,0.0,0.0,0.0,0.0,0.0,0.1529999999999987,0.1529999999999987,0.0,0.0,1.0,55.0,616.79921,10000.0,85.000001,85.000001,85.000001,85.000001,395.0,0.0,0.0,0.0,1.0,333.33500000000004,53.391,53.391,48.08,48.08,34.0,-26.0125,17.852,-35.406666666666666,24.0175,0.0,1782.754,0.620000000000001,100.0,28.063,27.236,42.465,41.569,0.0,1.0,100.0,0.0,0.0,0.0,0.0,2870.0,2803.1,4329.5,4197.2,306.05,305.7153333333333,314.306,314.397,21.805799999999998,20.5308,21.7798,21.3153,314.999998,314.999998,324.999988,324.999988,99.55868571428572,99.50725,99.56487142857142,99.54475714285714,-0.024499999999999966,-0.15666666666666673,-0.2144,0.008199999999999985,-0.03166666666666629,-0.011666666666670267,1.487,1.5425,37.286,29.317666666666668,37.123000000000005,34.2205,56.153999999999996,34.5585,58.959,51.551,54.079,33.7205,57.591,49.91,53.249,33.2775,57.5545,49.33233333333334,-0.030999999999999917,-0.125,0.10412,0.109475,0.0,206.63,206.525,203.46,203.46,0.0,0.0
4,0.0,1.0,0.0,1.0,1.0,0.0,0.0,1.0,0.0,100.0,1.0,1.1856,26.0,0.0,0.0,0.0,51.999998,0.0,26.0,26.0,26.0,26.0,-0.15300000000000002,0.28900000000000015,-0.019125,293.579,-2.65725,-2.7433750000000003,-1.5277,-1.5996000000000001,-262.43,216.255,190.910125,0.0,0.0,0.0,0.0,0.009299999999999975,-5.498166666666667,-5.498166666666667,-0.5439,-0.8603333333333334,-0.07666666666666666,-0.7450000000000001,66.088,-0.08319999999999994,-0.23745000000000002,1.0920000000000005,100.0,1.0,1.0,204.0233333333333,0.0,0.0,0.0,0.0,0.0,0.0,0.0,8647.8,0.0,55.0,5.0,237.89,0.0,0.0,0.0,0.0,0.0,0.0,0.0,0.0,0.20400000000000063,0.20400000000000063,0.0,0.0,0.0,55.0,616.79921,10000.0,85.000001,85.000001,85.000001,85.000001,395.0,0.0,0.0,0.0,1.0,166.665,53.04,53.04,48.706,48.706,34.0,-28.585,19.97,-31.82,20.8675,0.0,1782.704,0.629999999999999,100.0,27.874,26.805,42.929,41.558,0.0,1.0,100.0,0.0,0.0,0.0,0.0,3189.0,2980.2,4058.375,3689.4,305.1725,305.3876666666667,314.84575,315.6385,21.8154,20.535899999999998,21.7903,21.3241,314.999998,314.999998,324.999988,324.999988,99.5587,99.50726666666667,99.56501428571428,99.5449,-0.022499999999999964,-0.14466666666666672,-0.1958,0.017200000000000104,-0.07499999999999574,-0.06333333333333258,1.568,1.6115,37.347,29.349666666666664,37.19,34.275999999999996,56.137,34.6,59.0015,51.611,54.062,33.7585,57.6305,49.9675,53.231,33.314,57.592,49.388666666666666,-0.020000000000000018,-0.12300000000000022,0.10206000000000001,0.10082500000000001,0.0,207.035,206.94,204.0233333333333,204.0233333333333,0.0,0.0
5,0.0,1.0,0.0,1.0,1.0,0.0,0.0,1.0,0.0,100.0,1.0,1.1856,26.0,0.0,0.0,0.0,51.999998,0.0,26.0,26.0,26.0,26.0,-0.1256666666666666,0.31100000000000017,-0.018075,293.579,-2.6717,-2.764875,-1.5107,-1.5870000000000002,-259.06,216.2375,190.88975,0.0,0.0,0.0,0.0,0.011266666666666536,-5.498166666666667,-5.498166666666667,-0.5355,0.41233333333333333,-0.08244444444444454,-0.18700000000000006,66.235,-0.08799999999999997,-0.21365,1.1099999999999994,100.0,1.0,1.0,204.42333333333335,0.0,0.0,0.0,0.0,0.0,0.0,0.0,8664.7,0.0,55.0,5.0,238.41666666666669,1.0,0.0,0.0,0.0,0.0,0.0,0.0,0.0,0.254999999999999,0.254999999999999,0.0,0.0,1.0,55.0,616.79921,10000.0,85.000001,85.000001,85.000001,85.000001,395.0,0.0,0.0,0.0,1.0,333.33500000000004,53.391,53.391,48.903999999999996,48.903999999999996,34.0,-27.810000000000002,18.854,-33.93666666666667,22.445,0.0,1782.651,0.28000000000000114,100.0,27.864,26.809,42.611000000000004,41.262,0.0,1.0,100.0,0.0,0.0,0.0,0.0,3177.714285714286,2760.3,4189.75,4039.6000000000004,305.269,305.942,314.68375,314.79075,21.8254,20.541,21.8008,21.3328,314.999998,314.999998,324.999988,324.999988,99.5587,99.5073,99.56515714285715,99.54504285714286,-0.005749999999999922,-0.137,-0.22,0.0016000000000000458,-0.04833333333333201,-0.05666666666667197,1.543,1.5775000000000001,37.409,29.381333333333334,37.254999999999995,34.33,56.123000000000005,34.6405,59.042500000000004,51.669,54.049,33.796,57.6685,50.022999999999996,53.217,33.3495,57.626999999999995,49.443,-0.05449999999999999,-0.0950000000000002,0.11098000000000001,0.10395000000000001,0.0,207.54000000000002,207.445,204.42333333333335,204.42333333333335,0.0,0.0
6,0.0,1.0,0.0,1.0,1.0,0.0,0.0,1.0,0.0,100.0,1.0,1.1856,26.0,0.0,0.0,0.0,51.999998,0.0,26.0,26.0,26.0,26.0,-0.11266666666666658,0.28910000000000013,-0.0077,293.365,-2.6414,-2.73925,-1.5545,-1.5825,-255.88,216.2175,190.8705,0.0,0.0,0.0,0.0,0.0131,-5.498166666666667,-5.498166666666667,-0.5313,0.058,-0.06388888888888866,-0.51,66.373,-0.08509999999999995,-0.21557500000000002,0.8399999999999999,100.0,1.0,1.0,204.84333333333333,0.0,0.0,0.0,0.0,0.0,0.0,0.0,8682.5,0.0,55.0,5.0,238.91333333333333,0.0,0.0,0.0,0.0,0.0,0.0,0.0,0.0,0.3030000000000008,0.3030000000000008,0.0,0.0,0.0,55.0,616.79921,10000.0,85.000001,85.000001,85.000001,85.000001,395.0,0.0,0.0,0.0,1.0,333.33500000000004,53.04,53.04,48.691,48.691,34.0,-27.810000000000002,20.162,-33.34,22.8625,0.0,1782.603,0.08999999999999986,100.0,27.751,26.941,42.725,41.646,0.0,1.0,100.0,0.0,0.0,0.0,0.0,3231.4285714285716,2901.2,4123.75,3977.4,305.1085,305.4456666666667,314.8285,314.935,21.834699999999998,20.5458,21.8107,21.3413,314.999998,314.999998,324.999988,324.999988,99.5587,99.5073,99.56528571428571,99.54517142857142,0.0007500000000000284,-0.1286666666666667,-0.20800000000000002,0.018799999999999928,-0.05333333333332746,-0.03499999999999659,1.5375,1.5695000000000001,37.467,29.41133333333333,37.317,34.382999999999996,56.108000000000004,34.679,59.081,51.728,54.035,33.831,57.705,50.079499999999996,53.203,33.382999999999996,57.6605,49.498,-0.0685,-0.0794999999999999,0.107715,0.112015,0.0,207.93,207.845,204.84333333333333,204.84333333333333,0.0,0.0
7,0.0,1.0,0.0,1.0,1.0,0.0,0.0,1.0,0.0,100.0,1.0,1.1856,26.0,0.0,0.0,0.0,51.999998,0.0,26.0,26.0,26.0,26.0,-0.06611111111111112,0.2984,0.018600000000000002,293.182,-2.61265,-2.75,-1.5161,-1.6236000000000002,-252.29,216.1925,190.848875,0.0,0.0,0.0,0.0,0.015199999999999991,-5.498166666666667,-5.498166666666667,-0.5342,0.041666666666666664,-0.05122222222222206,-0.236,66.52799999999999,-0.0686,-0.2243,0.4060000000000006,100.0,1.0,1.0,205.2866666666667,0.0,0.0,0.0,0.0,0.0,0.0,0.0,8701.4,0.0,55.0,5.0,239.47333333333333,1.0,0.0,0.0,0.0,0.0,0.0,0.0,0.0,0.3569999999999993,0.3569999999999993,0.0,0.0,1.0,55.0,616.79921,10000.0,85.000001,85.000001,85.000001,85.000001,395.0,0.0,0.0,0.0,1.0,166.665,52.765,52.765,48.766999999999996,48.766999999999996,34.0,-26.6175,21.742,-31.11,24.4075,0.0,1782.551,-0.23999999999999844,100.0,27.865,27.017,42.76,41.874,0.0,1.0,100.0,0.0,0.0,0.0,0.0,3257.285714285714,2936.7,4071.125,4021.7,304.9175,305.26866666666666,314.912,314.7595,21.8452,20.5513,21.8218,21.3507,314.999998,314.999998,324.999988,324.999988,99.55871428571429,99.50731666666667,99.56544285714286,99.54531428571428,0.03100000000000014,-0.10066666666666668,-0.181,0.02959999999999985,-0.06833333333332803,-0.04999999999999716,1.5314999999999999,1.555,37.532,29.445666666666668,37.385999999999996,34.442,56.093,34.7205,59.124,51.7935,54.021,33.8695,57.745,50.141999999999996,53.187,33.42,57.6975,49.559666666666665,-0.09499999999999997,-0.053999999999999826,0.09619000000000001,0.09881500000000001,0.0,208.39499999999998,208.345,205.2866666666667,205.2866666666667,0.0,0.0
8,0.0,1.0,0.0,1.0,1.0,0.0,0.0,1.0,0.0,100.0,1.0,1.1856,26.0,0.0,0.0,0.0,51.999998,0.0,26.0,26.0,26.0,26.0,-0.04266666666666663,0.2935000000000001,-0.028325000000000003,293.411,-2.6966,-2.714,-1.4987,-1.5543,-249.09,216.16750000000002,190.8295,0.0,0.0,0.0,0.0,0.017066666666666563,-5.498166666666667,-5.498166666666667,-0.5347000000000001,-0.4706666666666667,-0.034666666666666845,-0.42399999999999993,66.666,-0.04789999999999994,-0.214675,-0.05799999999999983,100.0,1.0,1.0,205.65,0.0,0.0,0.0,0.0,0.0,0.0,0.0,8716.8,0.0,55.0,5.0,239.96666666666667,0.0,0.0,0.0,0.0,0.0,0.0,0.0,0.0,0.40500000000000114,0.40500000000000114,0.0,0.0,0.0,55.0,616.79921,10000.0,85.000001,85.000001,85.000001,85.000001,395.0,0.0,0.0,0.0,1.0,166.665,53.65,53.65,48.08,48.08,34.0,-23.81,21.810000000000002,-31.060000000000002,26.502499999999998,0.0,1782.503,-0.34999999999999787,100.0,27.468,26.935,42.724000000000004,41.998000000000005,0.0,1.0,100.0,0.0,0.0,0.0,0.0,2960.4285714285716,2896.2,4200.5,4113.5,305.916,305.48833333333334,314.5695,314.5535,21.8542,20.5562,21.831699999999998,21.359099999999998,314.999998,314.999998,324.999988,324.999988,99.55871428571429,99.50731666666667,99.56557142857143,99.54544285714286,0.04574999999999996,-0.08000000000000007,-0.15919999999999998,0.07180000000000009,-0.041666666666671404,-0.030000000000001137,1.5195,1.5045,37.589,29.476,37.448,34.4945,56.077,34.7565,59.162,51.851,54.006,33.9025,57.7805,50.197,53.172,33.451499999999996,57.730000000000004,49.61366666666667,-0.10349999999999993,-0.04150000000000009,0.09983,0.110685,0.0,208.785,208.76999999999998,205.65,205.65,0.0,0.0
9,0.0,1.0,0.0,1.0,1.0,0.0,0.0,1.0,0.0,100.0,1.0,1.1856,26.0,0.0,0.0,0.0,51.999998,0.0,26.0,26.0,26.0,26.0,-0.017444444444444485,0.2885,-0.021025000000000002,293.121,-2.687,-2.717375,-1.5573000000000001,-1.5548000000000002,-245.89,216.14249999999998,190.809625,0.0,0.0,0.0,0.0,0.018899999999999917,-5.498166666666667,-5.498166666666667,-0.5434,0.5893333333333334,-0.034222222222222154,-0.47,66.799,-0.02939999999999998,-0.21832500000000002,-0.07399999999999984,100.0,1.0,1.0,206.20333333333332,0.0,0.0,0.0,0.0,0.0,0.0,0.0,8740.1,0.0,55.0,5.0,240.44666666666666,1.0,0.0,0.0,0.0,0.0,0.0,0.0,0.0,0.4529999999999994,0.4529999999999994,0.0,0.0,1.0,55.0,616.79921,10000.0,85.000001,85.000001,85.000001,85.000001,395.0,0.0,0.0,0.0,1.0,333.33500000000004,52.382999999999996,52.382999999999996,49.179,49.179,34.0,-26.822499999999998,23.646,-28.986666666666665,26.560000000000002,0.0,1782.453,-0.4499999999999993,100.0,27.835,27.377,42.381,41.959,0.0,1.0,100.0,0.0,0.0,0.0,0.0,3377.5714285714284,3013.4,3983.25,4021.3,304.67,305.06766666666664,315.18375,314.84775,21.8635,20.5612,21.8415,21.3675,314.999998,314.999998,324.999988,324.999988,99.55871428571429,99.50733333333334,99.56571428571428,99.54557142857144,0.06424999999999992,-0.06266666666666665,-0.14780000000000001,0.09340000000000015,-0.046666666666666856,-0.04833333333333201,1.572,1.57,37.647,29.507666666666665,37.509,34.5465,56.065,34.794,59.197,51.9075,53.994,33.937,57.813,50.2515,53.159,33.4845,57.76,49.666666666666664,-0.11699999999999999,-0.040999999999999925,0.11183000000000001,0.11769500000000001,0.0,209.22,209.215,206.20333333333332,206.20333333333332,0.0,0.0
10,0.0,1.0,0.0,1.0,1.0,0.0,0.0,1.0,0.0,100.0,1.0,1.1856,26.0,0.0,0.0,0.0,51.999998,0.0,26.0,26.0,26.0,26.0,0.0032222222222222374,0.30110000000000015,0.0524,292.953,-2.657,-2.703875,-1.5339,-1.5363,-242.48,216.115,190.788875,0.0,0.0,0.0,0.0,0.02089999999999992,-5.498166666666667,-5.498166666666667,-0.5182,-0.4486666666666667,0.007888888888888834,1.8519999999999999,66.946,-0.010199999999999987,-0.20622500000000002,-0.5199999999999996,100.0,1.0,1.0,206.42000000000002,0.0,0.0,0.0,0.0,0.0,0.0,0.0,8749.3,0.0,55.0,5.0,240.97666666666666,0.0,0.0,0.0,0.0,0.0,0.0,1.0,0.0,0.5040000000000013,0.5040000000000013,0.0,0.0,0.0,55.0,616.79921,10000.0,85.000001,85.000001,85.000001,85.000001,395.0,0.0,0.0,0.0,1.0,333.33500000000004,53.436,53.436,47.623,47.623,34.0,-20.465,24.014000000000003,-29.476666666666667,30.39,0.0,1782.402,-0.625,100.0,27.829,27.187,42.875,42.598,0.0,1.0,100.0,0.0,0.0,0.0,0.0,2828.4285714285716,2974.3,4261.5,4341.2,306.128,305.42533333333336,314.3395,314.08,21.8732,20.5665,21.8521,21.3766,314.999998,314.999998,324.999988,324.999988,99.55872857142857,99.50735,99.56585714285714,99.54572857142857,0.09799999999999986,-0.03400000000000003,-0.10640000000000001,0.11340000000000017,-0.03999999999999915,-0.04333333333332945,1.5035,1.468,37.707,29.540333333333333,37.575,34.604,56.053,34.8305,59.239,51.9725,53.982,33.971000000000004,57.852000000000004,50.314,53.146,33.516999999999996,57.795500000000004,49.727666666666664,-0.1259999999999999,-0.020000000000000018,0.10539000000000001,0.11116500000000001,0.0,209.655,209.67000000000002,206.42000000000002,206.42000000000002,0.0,0.0
11,0.0,1.0,0.0,1.0,1.0,0.0,0.0,1.0,0.0,100.0,1.0,1.1856,26.0,0.0,0.0,0.0,51.999998,0.0,26.0,26.0,26.0,26.0,0.05055555555555569,0.2713000000000001,-0.09570000000000001,293.549,-2.7105,-2.682875,-1.5921,-1.5221,-239.06,216.0875,190.76825,0.0,0.0,0.0,0.0,0.022599999999999953,-5.498166666666667,-5.498166666666667,-0.5608000000000001,-0.22966666666666666,0.03311111111111109,-0.6620000000000001,67.08500000000001,0.010700000000000154,-0.237925,-0.6339999999999995,100.0,1.0,1.0,207.16,0.0,0.0,0.0,0.0,0.0,0.0,0.0,8780.7,0.0,55.0,5.0,241.47666666666666,1.0,0.0,0.0,0.0,0.0,0.0,1.0,0.0,0.5549999999999997,0.5549999999999997,0.0,0.0,1.0,55.0,616.79921,10000.0,85.000001,85.000001,85.000001,85.000001,395.0,0.0,0.0,0.0,1.0,333.33500000000004,52.902,52.902,49.316,49.316,34.0,-22.8725,25.65,-24.14666666666666,26.4725,0.0,1782.351,-0.620000000000001,100.0,27.385,27.538,42.278,42.606,0.0,1.0,100.0,0.0,0.0,0.0,0.0,3083.285714285714,3086.8,3699.5,3857.7,305.5705,304.8523333333333,315.88225,315.24125,21.8826,20.5719,21.8624,21.3856,314.999998,314.999998,324.999988,324.999988,99.55874285714286,99.50735,99.566,99.54587142857143,0.09825000000000017,-0.022333333333333316,-0.0922,0.131,-0.060000000000002274,-0.046666666666666856,1.6480000000000001,1.611,37.766999999999996,29.573999999999998,37.64,34.66,56.038,34.868,59.274,52.033,53.968,34.0055,57.8845,50.372,53.132,33.5505,57.8255,49.785,-0.11650000000000005,-0.02300000000000013,0.10937000000000001,0.10498,0.0,210.075,210.09,207.16,207.16,0.0,0.0
12,0.0,1.0,0.0,1.0,1.0,0.0,0.0,1.0,0.0,100.0,1.0,1.1856,26.0,0.0,0.0,0.0,51.999998,0.0,26.0,26.0,26.0,26.0,0.05455555555555569,0.2955000000000001,0.031275000000000004,292.999,-2.7649,-2.679875,-1.5517,-1.5234,-235.84,216.0625,190.7475,0.0,0.0,0.0,0.0,0.025466666666666526,-5.498166666666667,-5.498166666666667,-0.5451,0.3156666666666667,0.017111111111111077,-0.9239999999999999,67.22200000000001,0.029200000000000115,-0.20495000000000002,-0.6979999999999995,100.0,1.0,1.0,207.36333333333334,0.0,0.0,0.0,0.0,0.0,0.0,0.0,8789.3,0.0,55.0,5.0,241.96666666666667,0.0,0.0,0.0,0.0,0.0,0.0,1.0,0.0,0.602999999999998,0.602999999999998,0.0,0.0,0.0,55.0,616.79921,10000.0,85.000001,85.000001,85.000001,85.000001,395.0,0.0,0.0,0.0,1.0,333.33500000000004,52.902,52.902,47.989,47.989,34.0,-22.845,26.04,-28.0,30.314999999999998,0.0,1782.304,-0.6649999999999991,100.0,27.257,27.677,42.19,42.543,0.0,1.0,100.0,0.0,0.0,0.0,0.0,3121.5714285714284,3086.1,4238.75,4167.7,305.5005,304.8736666666667,314.58075,314.47375,21.8916,20.576999999999998,21.8722,21.394,314.999998,314.999998,324.999988,324.999988,99.55875714285715,99.50735,99.56612857142858,99.546,0.11699999999999999,-0.01200000000000001,-0.0844,0.1462000000000001,-0.046666666666666856,-0.06666666666666998,1.535,1.5110000000000001,37.822,29.606333333333332,37.701,34.7125,56.025999999999996,34.903999999999996,59.31,52.0905,53.957,34.0385,57.9185,50.4275,53.119,33.582,57.8565,49.839333333333336,-0.12850000000000006,-0.02499999999999991,0.10991500000000001,0.10818000000000001,0.0,210.5,210.555,207.36333333333334,207.36333333333334,0.0,0.0
13,0.0,1.0,0.0,1.0,1.0,0.0,0.0,1.0,0.0,100.0,1.0,1.1856,26.0,0.0,0.0,0.0,51.999998,0.0,26.0,26.0,26.0,26.0,0.08111111111111113,0.29590000000000005,0.0531,292.603,-2.7354,-2.6745,-1.6221,-1.5063,-232.4,216.0375,190.72575,0.0,0.0,0.0,0.0,0.026766666666666605,-5.498166666666667,-5.498166666666667,-0.5385,-0.08066666666666668,0.024777777777777787,1.111,67.364,0.03770000000000007,-0.21315,-0.8620000000000001,100.0,1.0,1.0,207.73333333333335,0.0,0.0,0.0,0.0,0.0,0.0,0.0,8805.1,0.0,55.0,5.0,242.48333333333335,1.0,0.0,0.0,0.0,0.0,0.0,1.0,0.0,0.6539999999999999,0.6539999999999999,0.0,0.0,1.0,55.0,616.79921,10000.0,85.000001,85.000001,85.000001,85.000001,395.0,0.0,0.0,0.0,1.0,333.33500000000004,52.536,52.536,47.913,47.913,34.0,-20.5025,28.044,-26.743333333333332,32.9075,0.0,1782.252,-0.8249999999999993,100.0,27.748,27.72,42.509,42.932,0.0,1.0,100.0,0.0,0.0,0.0,0.0,3048.142857142857,3190.6,4158.75,4359.7,305.507,304.728,314.67975,314.06925,21.9012,20.5825,21.8827,21.4032,314.999998,314.999998,324.999988,324.999988,99.55877142857143,99.50735,99.56627142857143,99.54614285714285,0.15625,0.01866666666666683,-0.0512,0.16599999999999993,-0.04833333333333201,-0.06333333333333258,1.529,1.4785,37.882,29.640666666666668,37.766999999999996,34.769999999999996,56.016,34.942,59.3495,52.1555,53.947,34.074,57.955,50.49,53.108000000000004,33.616,57.89,49.900666666666666,-0.14900000000000002,-0.010000000000000231,0.09986500000000001,0.10911000000000001,0.0,210.93,210.99,207.73333333333335,207.73333333333335,0.0,0.0
14,0.0,1.0,0.0,1.0,1.0,0.0,0.0,1.0,0.0,100.0,1.0,1.1856,26.0,0.0,0.0,0.0,51.999998,0.0,26.0,26.0,26.0,26.0,0.08888888888888902,0.27090000000000014,-0.012675,292.801,-2.7339,-2.61525,-1.6008,-1.5093,-228.76,216.0125,190.70325,0.0,0.0,0.0,0.0,0.028866666666666596,-5.498166666666667,-5.498166666666667,-0.5494,-0.09266666666666667,0.05499999999999994,1.213,67.512,0.04940000000000011,-0.22840000000000002,-1.0300000000000002,100.0,1.0,1.0,208.2866666666667,0.0,0.0,0.0,0.0,0.0,0.0,0.0,8828.6,0.0,55.0,5.0,243.01333333333332,0.0,0.0,0.0,0.0,0.0,0.0,1.0,0.0,0.7079999999999984,0.7079999999999984,0.0,0.0,0.0,55.0,616.79921,10000.0,85.000001,85.000001,85.000001,85.000001,395.0,0.0,0.0,0.0,1.0,166.665,52.582,52.582,48.126,48.126,34.0,-19.3,28.986,-24.64333333333333,32.24,0.0,1782.2,-0.9600000000000009,100.0,27.68,27.865000000000002,42.46,43.185,0.0,1.0,100.0,0.0,0.0,0.0,0.0,2921.714285714286,3277.4,3945.0,4222.6,305.865,304.459,315.1885,314.41,21.9113,20.5883,21.8938,21.4128,314.999998,314.999998,324.999988,324.999988,99.55878571428572,99.50736666666667,99.56642857142857,99.54631428571429,0.16175000000000006,0.032333333333333325,-0.0494,0.17920000000000003,-0.030000000000001137,-0.05833333333333002,1.555,1.508,37.946,29.677,37.836,34.83,56.004999999999995,34.9825,59.388999999999996,52.2225,53.937,34.1115,57.991,50.5545,53.097,33.652,57.923,49.964,-0.15349999999999997,0.0,0.107935,0.10758500000000001,0.0,211.365,211.45,208.2866666666667,208.2866666666667,0.0,0.0
15,0.0,1.0,0.0,1.0,1.0,0.0,0.0,1.0,0.0,100.0,1.0,1.1856,26.0,0.0,0.0,0.0,51.999998,0.0,26.0,26.0,26.0,26.0,0.11544444444444446,0.29469999999999996,-0.041125,292.847,-2.7136,-2.571625,-1.6303,-1.4523000000000001,-225.72,215.995,190.684125,0.0,0.0,0.0,0.0,0.0306333333333334,-5.498166666666667,-5.498166666666667,-0.54,0.29933333333333334,0.08044444444444432,-0.21399999999999997,67.636,0.06459999999999999,-0.211125,-1.17,100.0,1.0,1.0,208.64333333333332,0.0,0.0,0.0,0.0,0.0,0.0,0.0,8843.6,0.0,55.0,5.0,243.46,1.0,0.0,0.0,0.0,0.0,0.0,1.0,0.0,0.7530000000000001,0.7530000000000001,0.0,0.0,1.0,55.0,616.79921,10000.0,85.000001,85.000001,85.000001,85.000001,395.0,0.0,0.0,0.0,1.0,333.33500000000004,52.841,52.841,48.203,48.203,34.0,-18.5275,27.282,-24.89,32.1575,0.0,1782.153,-0.9600000000000009,100.0,27.571,28.039,42.157,43.333,0.0,1.0,100.0,0.0,0.0,0.0,0.0,2881.285714285714,3129.1,3991.875,4313.2,306.118,304.74133333333333,315.166,314.14275,21.9197,20.5932,21.9029,21.4208,314.999998,314.999998,324.999988,324.999988,99.5588,99.50736666666667,99.56655714285715,99.54644285714286,0.1655000000000002,0.031333333333333435,-0.0414,0.17620000000000013,-0.05666666666667197,-0.045000000000001705,1.5545,1.5150000000000001,37.998000000000005,29.707666666666668,37.893,34.879999999999995,55.997,35.0165,59.420500000000004,52.2785,53.928,34.143,58.0205,50.6085,53.087,33.6825,57.9495,50.016999999999996,-0.15449999999999986,-0.002000000000000224,0.11205500000000002,0.10112,0.0,211.76999999999998,211.82999999999998,208.64333333333332,208.64333333333332,0.0,0.0
16,0.0,1.0,0.0,1.0,1.0,0.0,0.0,1.0,0.0,100.0,1.0,1.1856,26.0,0.0,0.0,0.0,51.999998,0.0,26.0,26.0,26.0,26.0,0.11977777777777776,0.2722,-0.01,292.892,-2.80655,-2.609375,-1.6015000000000001,-1.453,-222.26999999999998,215.97750000000002,190.662125,0.0,0.0,0.0,0.0,0.0326333333333334,-5.498166666666667,-5.498166666666667,-0.5609000000000001,-0.786,0.07166666666666677,0.07699999999999996,67.776,0.07709999999999995,-0.22432500000000002,-1.2599999999999998,100.0,1.0,1.0,209.08333333333331,0.0,0.0,0.0,0.0,0.0,0.0,0.0,8862.2,0.0,55.0,5.0,243.96333333333334,0.0,0.0,0.0,0.0,0.0,0.0,1.0,0.0,0.8039999999999985,0.8039999999999985,0.0,0.0,0.0,55.0,616.79921,10000.0,85.000001,85.000001,85.000001,85.000001,395.0,0.0,0.0,0.0,1.0,166.665,52.765,52.765,47.928,47.928,34.0,-19.41,29.508,-23.056666666666672,32.4875,0.0,1782.104,-0.8649999999999984,100.0,27.315,27.971,42.483000000000004,43.383,0.0,1.0,100.0,0.0,0.0,0.0,0.0,2916.0,3287.5,3916.5,4168.3,306.0625,304.4286666666667,315.28,314.5315,21.9288,20.5988,21.9133,21.4299,314.999998,314.999998,324.999988,324.999988,99.55882857142858,99.50736666666667,99.56668571428571,99.54658571428571,0.1692499999999999,0.043333333333333446,-0.0222,0.20940000000000003,-0.036666666666668846,-0.05833333333333002,1.5615,1.518,38.055,29.742666666666665,37.958,34.937,55.983999999999995,35.0565,59.4595,52.342,53.916,34.18,58.0565,50.669,53.074,33.7175,57.9825,50.077,-0.14649999999999985,-0.00550000000000006,0.11476000000000001,0.11293,0.0,212.16,212.255,209.08333333333331,209.08333333333331,0.0,0.0
17,0.0,1.0,0.0,1.0,1.0,0.0,0.0,1.0,0.0,100.0,1.0,1.1856,26.0,0.0,0.0,0.0,51.999998,0.0,26.0,26.0,26.0,26.0,0.12355555555555564,0.29269999999999996,-0.00042500000000000003,292.526,-2.7657,-2.5629999999999997,-1.6385,-1.4769,-218.81,215.9625,190.6395,0.0,0.0,0.0,0.0,0.03466666666666651,-5.498166666666667,-5.498166666666667,-0.551,0.5386666666666666,0.04555555555555557,-0.7270000000000001,67.914,0.0826,-0.206075,-1.1059999999999999,100.0,1.0,1.0,209.47,0.0,0.0,0.0,0.0,0.0,0.0,0.0,8878.7,0.0,55.0,5.0,244.46333333333334,1.0,0.0,0.0,0.0,0.0,0.0,1.0,0.0,0.8550000000000004,0.8550000000000004,0.0,0.0,1.0,55.0,616.79921,10000.0,85.000001,85.000001,85.000001,85.000001,395.0,0.0,0.0,0.0,1.0,166.665,52.444,52.444,47.867,47.867,34.0,-20.3475,27.006,-25.65,33.072500000000005,0.0,1782.053,-0.8999999999999986,100.0,27.68,28.409,42.173,43.416,0.0,1.0,100.0,0.0,0.0,0.0,0.0,3102.714285714286,3073.7,4258.125,4254.4,305.58,304.9533333333333,314.62925,314.3395,21.9384,20.6045,21.9237,21.439,314.999998,314.999998,324.999988,324.999988,99.55884285714286,99.50736666666667,99.56682857142857,99.54672857142857,0.17074999999999996,0.04133333333333322,-0.018000000000000002,0.19900000000000007,-0.04833333333333201,-0.060000000000002274,1.551,1.518,38.114999999999995,29.778,38.022999999999996,34.9935,55.976,35.0975,59.495,52.4045,53.908,34.218,58.09,50.7295,53.065,33.7545,58.0125,50.13633333333333,-0.14849999999999985,-0.0045000000000001705,0.10539000000000001,0.10745,0.0,212.64,212.715,209.47,209.47,0.0,0.0
18,0.0,1.0,0.0,1.0,1.0,0.0,0.0,1.0,0.0,100.0,1.0,1.1856,26.0,0.0,0.0,0.0,51.999998,0.0,26.0,26.0,26.0,26.0,0.13377777777777777,0.2723,-0.0516,292.511,-2.8011,-2.5365,-1.6583,-1.4211,-215.55,215.95,190.6185,0.0,0.0,0.0,0.0,0.036566666666666525,-5.498166666666667,-5.498166666666667,-0.5592,-0.543,0.0725555555555557,-0.10499999999999998,68.045,0.0826,-0.22215000000000001,-1.1979999999999995,100.0,1.0,1.0,209.88666666666666,0.0,0.0,0.0,0.0,0.0,0.0,0.0,8896.3,0.0,55.0,5.0,244.93333333333334,0.0,0.0,0.0,0.0,0.0,0.0,1.0,0.0,0.9029999999999987,0.9029999999999987,0.0,0.0,0.0,55.0,616.79921,10000.0,85.000001,85.000001,85.000001,85.000001,395.0,0.0,0.0,0.0,1.0,333.33500000000004,52.429,52.429,47.699,47.699,34.0,-19.75,29.396,-24.986666666666665,31.7725,0.0,1782.004,-1.1600000000000001,100.0,27.451,28.266,42.551,43.836,0.0,1.0,100.0,0.0,0.0,0.0,0.0,3057.714285714286,3259.9,4044.375,4186.3,305.756,304.4413333333333,315.06475,314.46975,21.9471,20.6097,21.9336,21.4477,314.999998,314.999998,324.999988,324.999988,99.55887142857142,99.50738333333334,99.56697142857143,99.54687142857144,0.18299999999999983,0.06066666666666665,-0.028399999999999998,0.19840000000000013,-0.046666666666666856,-0.041666666666671404,1.554,1.5055,38.169,29.811,38.085,35.048,55.967,35.1355,59.5315,52.466,53.899,34.253,58.1235,50.7885,53.055,33.788,58.043,50.19433333333333,-0.16599999999999993,0.016000000000000014,0.11091000000000001,0.10418500000000001,0.0,213.0,213.085,209.88666666666666,209.88666666666666,0.0,0.0
19,0.0,1.0,0.0,1.0,1.0,0.0,0.0,1.0,0.0,100.0,1.0,1.1856,26.0,0.0,0.0,0.0,51.999998,0.0,26.0,26.0,26.0,26.0,0.15011111111111108,0.31110000000000015,0.03105,292.023,-2.7684,-2.52725,-1.6727,-1.4014,-212.07,215.9425,190.595875,0.0,0.0,0.0,0.0,0.03856666666666653,-5.498166666666667,-5.498166666666667,-0.5519000000000001,0.8393333333333334,0.08655555555555572,0.918,68.182,0.09140000000000015,-0.212175,-1.6220000000000008,100.0,1.0,1.0,210.29000000000002,0.0,0.0,0.0,0.0,0.0,0.0,0.0,8913.4,0.0,55.0,5.0,245.42666666666668,1.0,0.0,0.0,0.0,0.0,0.0,1.0,0.0,0.9540000000000006,0.9540000000000006,0.0,0.0,1.0,55.0,616.79921,10000.0,85.000001,85.000001,85.000001,85.000001,395.0,0.0,0.0,0.0,1.0,333.33500000000004,51.666,51.666,47.623,47.623,34.0,-17.8925,32.016,-24.273333333333333,35.075,0.0,1781.953,-1.5350000000000001,100.0,28.082,28.636,42.325,43.72,0.0,1.0,100.0,0.0,0.0,0.0,0.0,3032.714285714286,3411.7,4114.125,4443.4,305.549,304.02066666666667,314.903,313.972,21.9566,20.6156,21.9438,21.4568,314.999998,314.999998,324.999988,324.999988,99.55888571428571,99.5074,99.56711428571428,99.54701428571428,0.22025000000000006,0.08733333333333348,-0.0022,0.22560000000000002,-0.036666666666668846,-0.07499999999999574,1.57,1.52,38.229,29.84733333333333,38.149,35.1055,55.961,35.1795,59.5665,52.5295,53.893,34.294,58.156,50.8505,53.047,33.8275,58.0725,50.254999999999995,-0.1944999999999999,0.03349999999999986,0.10629500000000001,0.10831500000000001,0.0,213.445,213.575,210.29000000000002,210.29000000000002,0.0,0.0
20,0.0,1.0,0.0,1.0,1.0,0.0,0.0,1.0,0.0,100.0,1.0,1.1856,26.0,0.0,0.0,0.0,51.999998,0.0,26.0,26.0,26.0,26.0,0.20266666666666677,0.27190000000000003,-0.04445,292.297,-2.8264,-2.5789999999999997,-1.6088,-1.5138,-208.59,215.94,190.5735,0.0,0.0,0.0,0.0,0.04059999999999997,-5.498166666666667,-5.498166666666667,-0.5537000000000001,-1.0656666666666668,0.09511111111111115,-0.627,68.321,0.10450000000000004,-0.22175,-1.968,100.0,1.0,1.0,210.60666666666668,0.0,0.0,0.0,0.0,0.0,0.0,0.0,8926.9,0.0,55.0,5.0,245.93,0.0,0.0,0.0,0.0,0.0,0.0,0.0,0.0,1.004999999999999,1.004999999999999,0.0,0.0,0.0,55.0,616.79921,10000.0,85.000001,85.000001,85.000001,85.000001,395.0,0.0,0.0,0.0,1.0,333.33500000000004,52.826,52.826,46.86,46.86,34.0,-16.0825,30.676000000000002,-23.47,37.125,0.0,1781.901,-1.8200000000000003,100.0,27.332,28.541,42.715,44.353,0.0,1.0,100.0,0.0,0.0,0.0,0.0,2809.0,3170.9,4155.875,4349.9,306.473,304.624,314.71625,313.89275,21.9657,20.6212,21.9544,21.4662,314.999998,314.999998,324.999988,324.999988,99.55891428571428,99.5074,99.56725714285714,99.54717142857143,0.23399999999999999,0.10233333333333361,0.008199999999999999,0.2350000000000001,-0.02833333333332888,-0.04833333333333201,1.4994999999999998,1.4455,38.285,29.882666666666665,38.215,35.164,55.951,35.2225,59.6065,52.5965,53.884,34.334,58.193,50.914500000000004,53.037,33.866,58.106,50.318333333333335,-0.21699999999999986,0.058499999999999996,0.11365000000000001,0.103605,0.0,213.805,213.965,210.60666666666668,210.60666666666668,0.0,0.0
21,0.0,1.0,0.0,1.0,1.0,0.0,0.0,1.0,0.0,100.0,1.0,1.1856,26.0,0.0,0.0,0.0,51.999998,0.0,26.0,26.0,26.0,26.0,0.2282222222222221,0.27590000000000003,-0.07880000000000001,292.633,-2.75195,-2.622125,-1.6824,-1.4658,-205.31,215.9425,190.551875,0.0,0.0,0.0,0.0,0.04249999999999998,-5.498166666666667,-5.498166666666667,-0.5801000000000001,0.4553333333333333,0.0882222222222222,-0.812,68.445,0.125,-0.22805,-2.2,100.0,1.0,1.0,211.25,0.0,0.0,0.0,0.0,0.0,0.0,0.0,8954.1,0.0,55.0,5.0,246.37666666666667,1.0,0.0,0.0,0.0,0.0,0.0,0.0,0.0,1.0530000000000008,1.0530000000000008,0.0,0.0,1.0,55.0,616.79921,10000.0,85.000001,85.000001,85.000001,85.000001,395.0,0.0,0.0,0.0,1.0,333.33500000000004,52.185,52.185,48.37,48.37,34.0,-17.415,30.944,-20.299999999999997,34.365,0.0,1781.854,-1.2800000000000011,100.0,27.54,28.795,42.031,43.997,0.0,1.0,100.0,0.0,0.0,0.0,0.0,3011.714285714286,3222.3,3880.375,4078.3,305.78,304.38733333333334,315.52625,314.76375,21.9744,20.6267,21.9639,21.4748,314.999998,314.999998,324.999988,324.999988,99.55894285714285,99.50741666666667,99.5674,99.54731428571428,0.22100000000000009,0.08300000000000018,0.041,0.26659999999999995,-0.06833333333332803,-0.05833333333333002,1.649,1.563,38.34,29.917,38.274,35.217,55.946,35.2665,59.6365,52.6545,53.878,34.3745,58.221000000000004,50.9705,53.03,33.905,58.131,50.373333333333335,-0.18199999999999994,0.02400000000000002,0.1043,0.10867,0.0,214.24,214.38,211.25,211.25,0.0,0.0
22,0.0,1.0,0.0,1.0,1.0,0.0,0.0,1.0,0.0,100.0,1.0,1.1856,26.0,0.0,0.0,0.0,51.999998,0.0,26.0,26.0,26.0,26.0,0.16344444444444428,0.26870000000000016,-0.000675,292.13,-2.74145,-2.6185,-1.6724,-1.4601,-201.61,215.9475,190.526625,0.0,0.0,0.0,0.0,0.04466666666666652,-5.498166666666667,-5.498166666666667,-0.5575,0.037333333333333336,0.08877777777777784,-0.905,68.592,0.13590000000000013,-0.2071,-1.0020000000000007,100.0,1.0,1.0,211.47,0.0,0.0,0.0,0.0,0.0,0.0,0.0,8963.4,0.0,55.0,5.0,246.90333333333334,0.0,0.0,0.0,0.0,0.0,0.0,0.0,0.0,1.1069999999999993,1.1069999999999993,0.0,0.0,0.0,55.0,616.79921,10000.0,85.000001,85.000001,85.000001,85.000001,395.0,0.0,0.0,0.0,1.0,166.665,52.399,52.399,47.104,47.104,34.0,-19.865,26.602,-24.049999999999997,36.8525,0.0,1781.801,0.26500000000000057,100.0,27.587,28.881,42.419,44.331,0.0,1.0,100.0,0.0,0.0,0.0,0.0,2887.714285714286,3134.2,4204.625,4378.9,306.137,304.624,314.69825,313.996,21.9842,20.6329,21.974899999999998,21.4846,314.999998,314.999998,324.999988,324.999988,99.55897142857143,99.50743333333334,99.56755714285714,99.54747142857143,0.13975000000000026,-0.0006666666666665932,0.0182,0.24619999999999997,-0.045000000000001705,-0.051666666666669414,1.5110000000000001,1.474,38.400999999999996,29.955333333333336,38.343,35.2785,55.935,35.3105,59.678,52.7245,53.867999999999995,34.4155,58.259,51.0385,53.018,33.9445,58.1655,50.44,-0.06299999999999994,-0.09650000000000025,0.103275,0.10985500000000001,0.0,214.72,214.81,211.47,211.47,0.0,0.0
23,0.0,1.0,0.0,1.0,1.0,0.0,0.0,1.0,0.0,100.0,1.0,1.1856,26.0,0.0,0.0,0.0,51.999998,0.0,26.0,26.0,26.0,26.0,0.09422222222222221,0.248,-0.036425,292.053,-2.74765,-2.593375,-1.5753,-1.5498,-198.31,215.95749999999998,190.5045,0.0,0.0,0.0,0.0,0.046566666666666534,-5.498166666666667,-5.498166666666667,-0.5766,-0.2733333333333333,0.06033333333333313,-1.2520000000000002,68.718,0.10109999999999997,-0.234525,0.274,100.0,1.0,1.0,211.95666666666668,0.0,0.0,0.0,0.0,0.0,0.0,0.0,8984.1,0.0,55.0,5.0,247.36,1.0,0.0,0.0,0.0,0.0,0.0,0.0,0.0,1.1550000000000011,1.1550000000000011,0.0,0.0,1.0,55.0,616.79921,10000.0,85.000001,85.000001,85.000001,85.000001,395.0,0.0,0.0,0.0,1.0,166.665,51.62,51.62,48.05,48.05,34.0,-24.925,24.904,-23.68,31.76,0.0,1781.753,0.8049999999999997,100.0,28.009,28.808,42.757,44.432,0.0,1.0,100.0,0.0,0.0,0.0,0.0,3252.5714285714284,3162.0,3958.375,4000.3,305.044,304.6166666666667,315.21025,314.82875,21.993,20.6383,21.9848,21.4933,314.999998,314.999998,324.999988,324.999988,99.55898571428571,99.50743333333334,99.56768571428572,99.54761428571429,0.09575000000000022,-0.038999999999999924,-0.032799999999999996,0.19740000000000002,-0.05833333333333002,-0.03333333333333144,1.524,1.5275,38.456,29.989333333333335,38.405,35.333,55.924,35.348,59.7125,52.7855,53.857,34.4505,58.2915,51.097,53.006,33.9775,58.195,50.49766666666667,-0.021499999999999853,-0.13949999999999996,0.11044500000000002,0.109365,0.0,215.15,215.11,211.95666666666668,211.95666666666668,0.0,0.0
24,0.0,1.0,0.0,1.0,1.0,0.0,0.0,1.0,0.0,100.0,1.0,1.1856,26.0,0.0,0.0,0.0,51.999998,0.0,26.0,26.0,26.0,26.0,0.003555555555555534,0.27980000000000005,0.009225,292.389,-2.74145,-2.63375,-1.5924,-1.5175,-195.01,215.97,190.482125,0.0,0.0,0.0,0.0,0.04849999999999999,-5.498166666666667,-5.498166666666667,-0.5782,-0.4466666666666667,0.040000000000000036,-0.6080000000000001,68.846,0.04610000000000003,-0.215975,1.0359999999999996,100.0,1.0,1.0,212.26999999999998,0.0,0.0,0.0,0.0,0.0,0.0,0.0,8997.3,0.0,55.0,5.0,247.81666666666666,0.0,0.0,0.0,0.0,0.0,0.0,0.0,0.0,1.2029999999999994,1.2029999999999994,0.0,0.0,0.0,55.0,616.79921,10000.0,85.000001,85.000001,85.000001,85.000001,395.0,0.0,0.0,0.0,1.0,166.665,52.887,52.887,47.073,47.073,34.0,-23.8425,21.234,-30.159999999999997,29.067500000000003,0.0,1781.704,1.0199999999999996,100.0,27.88,28.332,42.997,43.999,0.0,1.0,100.0,0.0,0.0,0.0,0.0,2948.0,2936.7,4354.875,4107.7,305.9975,305.41833333333335,314.2865,314.683,22.0018,20.6435,21.9946,21.5019,314.999998,314.999998,324.999988,324.999988,99.55898571428571,99.50743333333334,99.56782857142858,99.54775714285714,0.05250000000000021,-0.08599999999999985,-0.0902,0.13340000000000019,-0.051666666666669414,-0.026666666666670835,1.4905,1.514,38.510999999999996,30.022,38.466,35.387,55.91,35.3845,59.7485,52.8425,53.843,34.484,58.3245,51.1525,52.992000000000004,34.0105,58.225,50.55166666666666,-0.0015000000000000568,-0.15900000000000025,0.10843000000000001,0.10577500000000001,0.0,215.585,215.48000000000002,212.26999999999998,212.26999999999998,0.0,0.0
25,0.0,1.0,0.0,1.0,1.0,0.0,0.0,1.0,0.0,100.0,1.0,1.1856,26.0,0.0,0.0,0.0,51.999998,0.0,26.0,26.0,26.0,26.0,-0.06599999999999995,0.25760000000000005,-0.07465000000000001,292.389,-2.7681,-2.636125,-1.5762,-1.5497,-191.5,215.98250000000002,190.456875,0.0,0.0,0.0,0.0,0.05053333333333332,-5.498166666666667,-5.498166666666667,-0.6128,-0.07633333333333334,0.004222222222222127,-0.7330000000000001,68.97800000000001,-0.017899999999999916,-0.22717500000000002,1.4760000000000009,100.0,1.0,1.0,212.82666666666665,0.0,0.0,0.0,0.0,0.0,0.0,0.0,9021.0,0.0,55.0,5.0,248.29333333333335,1.0,0.0,0.0,0.0,0.0,0.0,0.0,0.0,1.2540000000000013,1.2540000000000013,0.0,0.0,1.0,55.0,616.79921,10000.0,85.000001,85.000001,85.000001,85.000001,395.0,0.0,0.0,0.0,1.0,333.33500000000004,51.956,51.956,47.974000000000004,47.974000000000004,34.0,-28.1425,22.595999999999997,-29.266666666666666,25.465,0.0,1781.652,1.0199999999999996,100.0,28.136,28.13,43.116,43.341,0.0,1.0,100.0,0.0,0.0,0.0,0.0,3214.285714285714,3286.3,3970.5,3979.6000000000004,305.194,304.495,315.223,315.05425,22.0111,20.6491,22.0049,21.5109,314.999998,314.999998,324.999988,324.999988,99.559,99.50745,99.56797142857143,99.54791428571428,0.0182500000000001,-0.11733333333333329,-0.1458,0.08179999999999987,-0.030000000000001137,-0.054999999999999716,1.5405,1.596,38.569,30.056666666666665,38.531,35.443,55.891999999999996,35.4295,59.786,52.903999999999996,53.826,34.5255,58.3595,51.2115,52.974000000000004,34.05,58.2565,50.60966666666667,0.0,-0.1655000000000002,0.10480500000000001,0.10517000000000001,0.0,215.99,215.885,212.82666666666665,212.82666666666665,0.0,0.0
26,0.0,1.0,0.0,1.0,1.0,0.0,0.0,1.0,0.0,100.0,1.0,1.1856,26.0,0.0,0.0,0.0,51.999998,0.0,26.0,26.0,26.0,26.0,-0.12311111111111106,0.2702,0.0568,291.183,-2.6721,-2.757,-1.5852,-1.5829,-187.97,215.995,190.431,0.0,0.0,0.0,0.0,0.05256666666666654,-5.498166666666667,-5.498166666666667,-0.5712,0.7766666666666666,-0.05411111111111122,-1.4380000000000002,69.114,-0.06879999999999997,-0.196,1.7260000000000009,100.0,1.0,1.0,212.99333333333334,0.0,0.0,0.0,0.0,0.0,0.0,0.0,9028.0,0.0,55.0,5.0,248.78333333333336,0.0,0.0,0.0,0.0,0.0,0.0,0.0,0.0,1.3049999999999997,1.3049999999999997,0.0,0.0,0.0,55.0,616.79921,10000.0,85.000001,85.000001,85.000001,85.000001,395.0,0.0,0.0,0.0,1.0,166.665,51.361000000000004,51.361000000000004,46.219,46.219,34.0,-29.975,19.948,-39.54,25.872500000000002,0.0,1781.603,0.8399999999999999,100.0,29.159,28.634,43.943,43.441,0.0,1.0,100.0,0.0,0.0,0.0,0.0,3348.714285714286,2967.6,4660.125,4336.7,304.789,305.144,313.64575,314.1345,22.0208,20.6548,22.0156,21.52,314.999998,314.999998,324.999988,324.999988,99.559,99.50746666666667,99.56812857142857,99.54805714285715,-0.01200000000000001,-0.15466666666666673,-0.202,0.02059999999999995,-0.05333333333332746,-0.046666666666666856,1.404,1.482,38.629999999999995,30.092333333333336,38.597,35.5,55.879999999999995,35.4725,59.826,52.9615,53.815,34.5655,58.397,51.2665,52.961,34.088,58.2915,50.663333333333334,-0.010999999999999899,-0.14800000000000013,0.10269,0.107825,0.0,216.485,216.315,212.99333333333334,212.99333333333334,0.0,0.0
27,0.0,1.0,0.0,1.0,1.0,0.0,0.0,1.0,0.0,100.0,1.0,1.1856,26.0,0.0,0.0,0.0,51.999998,0.0,26.0,26.0,26.0,26.0,-0.13555555555555554,0.24639999999999995,-0.0053,291.534,-2.61585,-2.7483750000000002,-1.5594999999999999,-1.6736,-184.64999999999998,216.0,190.407875,0.0,0.0,0.0,0.0,0.05449999999999999,-5.498166666666667,-5.498166666666667,-0.5955,-1.0543333333333333,-0.0733333333333337,-0.9020000000000001,69.239,-0.09529999999999994,-0.2411,1.5540000000000003,100.0,1.0,1.0,213.46,0.0,0.0,0.0,0.0,0.0,0.0,0.0,9047.8,0.0,55.0,5.0,249.23333333333335,1.0,0.0,0.0,0.0,0.0,0.0,0.0,0.0,1.352999999999998,1.352999999999998,0.0,0.0,1.0,55.0,616.79921,10000.0,85.000001,85.000001,85.000001,85.000001,395.0,0.0,0.0,0.0,1.0,333.33500000000004,51.727000000000004,51.727000000000004,46.646,46.646,34.0,-29.65,18.928,-36.32333333333334,23.54,0.0,1781.554,0.7349999999999994,100.0,29.011,28.224,44.899,43.822,0.0,1.0,100.0,0.0,0.0,0.0,0.0,3327.0,2959.1,4244.0,3987.5,304.845,305.30466666666666,314.554,314.86,22.0298,20.6598,22.0257,21.5288,314.999998,314.999998,324.999988,324.999988,99.559,99.50748333333334,99.56827142857144,99.54818571428571,-0.02124999999999999,-0.17233333333333323,-0.23140000000000002,-0.00019999999999997797,-0.046666666666666856,-0.04999999999999716,1.4609999999999999,1.5270000000000001,38.686,30.124000000000002,38.661,35.555,55.864999999999995,35.513,59.8675,53.019,53.801,34.6025,58.436,51.322,52.947,34.124,58.327,50.717333333333336,-0.03200000000000003,-0.1379999999999999,0.11120500000000001,0.10427000000000002,0.0,216.79000000000002,216.655,213.46,213.46,0.0,0.0
28,0.0,1.0,0.0,1.0,1.0,0.0,0.0,1.0,0.0,100.0,1.0,1.1856,26.0,0.0,0.0,0.0,51.999998,0.0,26.0,26.0,26.0,26.0,-0.16122222222222216,0.26770000000000005,-0.06457500000000001,291.885,-2.6307,-2.746375,-1.5018,-1.6431,-181.12,216.005,190.3825,0.0,0.0,0.0,0.0,0.05656666666666654,-5.498166666666667,-5.498166666666667,-0.6,0.6323333333333334,-0.08322222222222209,0.663,69.368,-0.1119,-0.21577500000000002,1.4139999999999997,100.0,1.0,1.0,213.97,0.0,0.0,0.0,0.0,0.0,0.0,0.0,9069.3,0.0,55.0,5.0,249.7,0.0,0.0,0.0,0.0,0.0,0.0,0.0,0.0,1.404,1.404,0.0,0.0,0.0,55.0,616.79921,10000.0,85.000001,85.000001,85.000001,85.000001,395.0,0.0,0.0,0.0,1.0,166.665,51.819,51.819,47.485,47.485,34.0,-29.6375,19.656,-34.06666666666666,23.27,0.0,1781.504,0.5300000000000011,100.0,29.325,27.924,44.409,43.055,0.0,1.0,100.0,0.0,0.0,0.0,0.0,3277.4285714285716,2992.5,4129.125,4075.5,304.85,305.37166666666667,314.81925,314.84875,22.0394,20.6653,22.036,21.5377,314.999998,314.999998,324.999988,324.999988,99.559,99.5075,99.56841428571428,99.54834285714286,-0.02499999999999991,-0.15666666666666673,-0.231,-0.0023999999999999577,-0.023333333333326323,-0.036666666666668846,1.5265,1.5665,38.745999999999995,30.158,38.725,35.6105,55.852999999999994,35.5575,59.9045,53.0755,53.789,34.6435,58.4705,51.376,52.934,34.163,58.3585,50.769666666666666,-0.04149999999999987,-0.11799999999999988,0.103175,0.110005,0.0,217.215,217.115,213.97,213.97,0.0,0.0
29,0.0,1.0,0.0,1.0,1.0,0.0,0.0,1.0,0.0,100.0,1.0,1.1856,26.0,0.0,0.0,0.0,51.999998,0.0,26.0,26.0,26.0,26.0,-0.1494444444444445,0.2558,0.01875,291.519,-2.5673,-2.80425,-1.5333999999999999,-1.6193,-177.37,216.005,190.354625,0.0,0.0,0.0,0.0,0.058733333333333304,-5.498166666666667,-5.498166666666667,-0.6081,-0.7256666666666667,-0.08277777777777784,0.679,69.51,-0.11209999999999998,-0.21995,1.0660000000000007,100.0,1.0,1.0,214.24666666666667,0.0,0.0,0.0,0.0,0.0,0.0,0.0,9081.1,0.0,55.0,5.0,250.21333333333334,1.0,0.0,0.0,0.0,0.0,0.0,0.0,0.0,1.4579999999999984,1.4579999999999984,0.0,0.0,1.0,55.0,616.79921,10000.0,85.000001,85.000001,85.000001,85.000001,395.0,0.0,0.0,0.0,1.0,166.665,51.712,51.712,46.677,46.677,34.0,-29.235,20.734,-35.42,24.0625,0.0,1781.45,0.41499999999999915,100.0,29.059,27.791,44.851,43.247,0.0,1.0,100.0,0.0,0.0,0.0,0.0,3316.714285714286,3074.3,4229.375,4173.9,304.7375,305.015,314.49425,314.55425,22.0494,20.671,22.0473,21.5475,314.999998,314.999998,324.999988,324.999988,99.55901428571428,99.50753333333333,99.56858571428572,99.54848571428572,-0.02024999999999988,-0.16100000000000003,-0.21980000000000002,0.00019999999999997797,-0.051666666666669414,-0.045000000000001705,1.4565000000000001,1.498,38.809,30.193666666666665,38.796,35.6715,55.837,35.602000000000004,59.95,53.1395,53.774,34.685,58.513,51.437,52.918,34.2025,58.397999999999996,50.82966666666667,-0.050999999999999934,-0.11100000000000021,0.099195,0.11055500000000001,0.0,217.615,217.525,214.24666666666667,214.24666666666667,0.0,0.0
30,0.0,1.0,0.0,1.0,1.0,0.0,0.0,1.0,0.0,100.0,1.0,1.1856,26.0,0.0,0.0,0.0,51.999998,0.0,26.0,26.0,26.0,26.0,-0.1504444444444445,0.2679,0.041850000000000005,291.016,-2.62685,-2.6866250000000003,-1.4755,-1.6993,-174.24,216.0025,190.331125,0.0,0.0,0.0,0.0,0.060566666666666547,-5.498166666666667,-5.498166666666667,-0.6037,0.8253333333333334,-0.08811111111111147,-0.71,69.624,-0.1038,-0.21810000000000002,1.0500000000000007,100.0,1.0,1.0,214.62333333333333,0.0,0.0,0.0,0.0,0.0,0.0,0.0,9097.1,0.0,55.0,5.0,250.62333333333333,0.0,0.0,0.0,0.0,0.0,0.0,1.0,0.0,1.5030000000000001,1.5030000000000001,0.0,0.0,0.0,55.0,616.79921,10000.0,85.000001,85.000001,85.000001,85.000001,395.0,0.0,0.0,0.0,1.0,333.33500000000004,50.827,50.827,46.783,46.783,34.0,-31.4675,19.134,-35.64666666666666,25.46,0.0,1781.404,0.2699999999999996,100.0,29.783,28.636,44.616,43.349000000000004,0.0,1.0,100.0,0.0,0.0,0.0,0.0,3530.4285714285716,2964.9,4390.75,4188.2,304.224,305.204,314.257,314.3805,22.0581,20.676,22.0565,21.5555,314.999998,314.999998,324.999988,324.999988,99.55901428571428,99.50755,99.56871428571428,99.54862857142857,-0.011749999999999927,-0.15733333333333333,-0.2144,-0.00019999999999997797,-0.03333333333333144,-0.04333333333332945,1.4649999999999999,1.498,38.863,30.225,38.852999999999994,35.722,55.827,35.643,59.984,53.191,53.765,34.7225,58.545,51.4865,52.908,34.2385,58.427,50.878,-0.0665,-0.10199999999999987,0.10126,0.10705500000000001,0.0,218.01,217.925,214.62333333333333,214.62333333333333,0.0,0.0
31,0.0,1.0,0.0,1.0,1.0,0.0,0.0,1.0,0.0,100.0,1.0,1.1856,26.0,0.0,0.0,0.0,51.999998,0.0,26.0,26.0,26.0,26.0,-0.11622222222222212,0.2574000000000001,0.00315,291.016,-2.695,-2.7668749999999998,-1.5639,-1.6707,-170.68,215.995,190.305375,0.0,0.0,0.0,0.0,0.06263333333333332,-5.498166666666667,-5.498166666666667,-0.5894,-0.7276666666666667,-0.0735555555555556,0.6499999999999999,69.757,-0.0897,-0.22007500000000002,0.5660000000000007,100.0,1.0,1.0,214.93333333333334,0.0,0.0,0.0,0.0,0.0,0.0,0.0,9110.3,0.0,55.0,5.0,251.10000000000002,1.0,0.0,0.0,0.0,0.0,0.0,1.0,0.0,1.5539999999999985,1.5539999999999985,0.0,0.0,1.0,55.0,616.79921,10000.0,85.000001,85.000001,85.000001,85.000001,395.0,0.0,0.0,0.0,1.0,333.33500000000004,51.544,51.544,45.456,45.456,34.0,-27.2925,21.125999999999998,-36.49333333333334,27.5875,0.0,1781.353,0.15500000000000114,100.0,29.532,28.524,45.351,43.891999999999996,0.0,1.0,100.0,0.0,0.0,0.0,0.0,3162.285714285714,3052.5,4431.0,4269.5,305.3615,305.136,314.0515,314.386,22.0675,20.6815,22.0673,21.5649,314.999998,314.999998,324.999988,324.999988,99.55901428571428,99.50756666666666,99.56887142857143,99.54877142857143,0.01100000000000012,-0.139,-0.19180000000000003,0.03699999999999992,-0.041666666666671404,-0.051666666666669414,1.4275,1.463,38.922,30.259666666666668,38.92,35.7805,55.812,35.6865,60.028,53.253,53.751000000000005,34.763,58.586,51.546,52.893,34.277,58.465,50.936,-0.07600000000000007,-0.09600000000000009,0.10618500000000002,0.112405,0.0,218.35500000000002,218.305,214.93333333333334,214.93333333333334,0.0,0.0
32,0.0,1.0,0.0,1.0,1.0,0.0,0.0,1.0,0.0,100.0,1.0,1.1856,26.0,0.0,0.0,0.0,51.999998,0.0,26.0,26.0,26.0,26.0,-0.10033333333333339,0.26350000000000007,-0.057425000000000004,291.336,-2.6511,-2.7032499999999997,-1.5901,-1.5766,-167.12,215.985,190.27975,0.0,0.0,0.0,0.0,0.06469999999999998,-5.498166666666667,-5.498166666666667,-0.611,0.16833333333333333,-0.09699999999999998,-0.8500000000000001,69.883,-0.07269999999999999,-0.23140000000000002,0.5920000000000005,100.0,1.0,1.0,215.51333333333332,0.0,0.0,0.0,0.0,0.0,0.0,0.0,9134.8,0.0,55.0,5.0,251.55333333333334,0.0,0.0,0.0,0.0,0.0,0.0,1.0,0.0,1.6050000000000004,1.6050000000000004,0.0,0.0,0.0,55.0,616.79921,10000.0,85.000001,85.000001,85.000001,85.000001,395.0,0.0,0.0,0.0,1.0,333.33500000000004,51.178,51.178,46.799,46.799,34.0,-29.035,20.869999999999997,-34.013333333333335,24.945,0.0,1781.301,0.08500000000000085,100.0,29.372,28.731,44.739000000000004,43.682,0.0,1.0,100.0,0.0,0.0,0.0,0.0,3427.142857142857,3001.6,4231.5,4071.0,304.607,305.17266666666666,314.72575,314.908,22.076999999999998,20.6872,22.0777,21.573999999999998,314.999998,314.999998,324.999988,324.999988,99.55902857142857,99.50758333333333,99.56902857142857,99.54891428571429,0.020750000000000046,-0.1246666666666667,-0.19119999999999998,0.04820000000000002,-0.04999999999999716,-0.051666666666669414,1.533,1.555,38.980999999999995,30.295,38.986000000000004,35.8375,55.798,35.7305,60.065,53.3105,53.736999999999995,34.8035,58.621,51.6015,52.879000000000005,34.3155,58.497,50.989333333333335,-0.08050000000000002,-0.08800000000000008,0.10547000000000001,0.11482500000000001,0.0,218.76999999999998,218.715,215.51333333333332,215.51333333333332,0.0,0.0
33,0.0,1.0,0.0,1.0,1.0,0.0,0.0,1.0,0.0,100.0,1.0,1.1856,26.0,0.0,0.0,0.0,51.999998,0.0,26.0,26.0,26.0,26.0,-0.08477777777777784,0.26550000000000007,-0.030625000000000003,291.367,-2.6527,-2.75075,-1.5594999999999999,-1.5864,-163.76999999999998,215.975,190.254625,0.0,0.0,0.0,0.0,0.06666666666666654,-5.498166666666667,-5.498166666666667,-0.6111,-0.36933333333333335,-0.08366666666666678,0.09499999999999997,70.006,-0.06009999999999993,-0.214875,0.41799999999999926,100.0,1.0,1.0,215.75666666666666,0.0,0.0,0.0,0.0,0.0,0.0,0.0,9145.1,0.0,55.0,5.0,251.99666666666667,1.0,0.0,0.0,0.0,0.0,0.0,1.0,0.0,1.6529999999999987,1.6529999999999987,0.0,0.0,1.0,55.0,616.79921,10000.0,85.000001,85.000001,85.000001,85.000001,395.0,0.0,0.0,0.0,1.0,166.665,51.819,51.819,46.371,46.371,34.0,-26.674999999999997,21.201999999999998,-34.64333333333333,26.572499999999998,0.0,1781.255,-0.07000000000000028,100.0,29.156,28.459,44.721000000000004,43.794,0.0,1.0,100.0,0.0,0.0,0.0,0.0,3234.142857142857,2925.3,4350.125,4249.4,305.2255,305.42533333333336,314.371,314.356,22.0858,20.6923,22.0876,21.5827,314.999998,314.999998,324.999988,324.999988,99.55902857142857,99.50758333333333,99.56917142857142,99.54907142857142,0.03025000000000011,-0.11133333333333328,-0.18180000000000002,0.04380000000000006,-0.04999999999999716,-0.04999999999999716,1.479,1.491,39.036,30.326999999999998,39.047,35.891999999999996,55.784,35.7675,60.102000000000004,53.3665,53.724000000000004,34.8375,58.656,51.6555,52.864999999999995,34.3485,58.5285,51.042,-0.09499999999999997,-0.07050000000000001,0.10393500000000001,0.10694500000000001,0.0,219.14,219.115,215.75666666666666,215.75666666666666,0.0,0.0
34,0.0,1.0,0.0,1.0,1.0,0.0,0.0,1.0,0.0,100.0,1.0,1.1856,26.0,0.0,0.0,0.0,51.999998,0.0,26.0,26.0,26.0,26.0,-0.06688888888888889,0.23619999999999997,-0.057175000000000004,291.718,-2.71755,-2.707875,-1.5936,-1.6073,-160.19,215.96,190.226875,0.0,0.0,0.0,0.0,0.06873333333333331,-5.498166666666667,-5.498166666666667,-0.6435000000000001,-0.734,-0.04822222222222239,1.1360000000000001,70.134,-0.04499999999999993,-0.22745,0.25399999999999956,100.0,1.0,1.0,216.22,0.0,0.0,0.0,0.0,0.0,0.0,0.0,9164.8,0.0,55.0,5.0,252.45666666666665,0.0,0.0,0.0,0.0,0.0,0.0,1.0,0.0,1.7040000000000006,1.7040000000000006,0.0,0.0,0.0,55.0,616.79921,10000.0,85.000001,85.000001,85.000001,85.000001,395.0,0.0,0.0,0.0,1.0,166.665,51.956,51.956,47.379,47.379,34.0,-25.6675,22.546,-31.15,27.8375,0.0,1781.204,-0.08500000000000085,100.0,29.017,28.061,44.482,43.826,0.0,1.0,100.0,0.0,0.0,0.0,0.0,3170.4285714285716,3032.4,4062.125,4182.0,305.175,305.296,315.0195,314.532,22.0951,20.6978,22.098,21.592,314.999998,314.999998,324.999988,324.999988,99.55904285714286,99.50761666666666,99.56931428571428,99.54921428571429,0.06050000000000022,-0.08599999999999985,-0.15819999999999998,0.07400000000000007,-0.04333333333332945,-0.036666666666668846,1.5005,1.5245,39.094,30.361,39.112,35.95,55.769,35.8065,60.138,53.4265,53.71,34.8735,58.689,51.713,52.85,34.3825,58.559,51.098333333333336,-0.09799999999999986,-0.0665,0.10619500000000001,0.11120500000000001,0.0,219.51,219.48000000000002,216.22,216.22,0.0,0.0
35,0.0,1.0,0.0,1.0,1.0,0.0,0.0,1.0,0.0,100.0,1.0,1.1856,26.0,0.0,0.0,0.0,51.999998,0.0,26.0,26.0,26.0,26.0,-0.037555555555555564,0.2479,-0.07037500000000001,291.748,-2.7249499999999998,-2.682375,-1.5673,-1.6138,-156.61,215.9425,190.196875,0.0,0.0,0.0,0.0,0.07079999999999997,-5.498166666666667,-5.498166666666667,-0.6861,-0.4093333333333333,-0.053444444444444184,-0.9160000000000001,70.261,-0.031099999999999905,-0.231825,0.12600000000000033,100.0,1.0,1.0,216.67000000000002,0.0,0.0,0.0,0.0,0.0,0.0,0.0,9183.8,0.0,55.0,5.0,252.91666666666666,1.0,0.0,0.0,0.0,0.0,0.0,1.0,0.0,1.754999999999999,1.754999999999999,0.0,0.0,1.0,55.0,616.79921,10000.0,85.000001,85.000001,85.000001,85.000001,395.0,0.0,0.0,0.0,1.0,333.33500000000004,51.544,51.544,46.936,46.936,34.0,-26.54,24.222,-29.65,26.8,0.0,1781.151,-0.10500000000000043,100.0,28.669,28.471,44.115,43.499,0.0,1.0,100.0,0.0,0.0,0.0,0.0,3275.714285714286,3248.5,4075.375,3941.9,305.1505,304.4646666666667,314.96875,315.1045,22.1042,20.7034,22.1083,21.6011,314.999998,314.999998,324.999988,324.999988,99.55904285714286,99.50761666666666,99.56947142857143,99.54935714285715,0.05675000000000008,-0.08933333333333326,-0.136,0.09200000000000008,-0.03166666666666629,-0.07000000000000028,1.5445,1.5495,39.150999999999996,30.396333333333335,39.177,36.0065,55.753,35.8465,60.1735,53.483000000000004,53.695,34.911,58.7225,51.766999999999996,52.834,34.4185,58.589,51.150999999999996,-0.09099999999999997,-0.07299999999999995,0.10293500000000001,0.11271,0.0,219.905,219.89,216.67000000000002,216.67000000000002,0.0,0.0
36,0.0,1.0,0.0,1.0,1.0,0.0,0.0,1.0,0.0,100.0,1.0,1.1856,26.0,0.0,0.0,0.0,51.999998,0.0,26.0,26.0,26.0,26.0,-0.03655555555555556,0.2731000000000001,0.060950000000000004,290.726,-2.7284,-2.6475,-1.5373999999999999,-1.6068,-153.03,215.9275,190.165375,0.0,0.0,0.0,0.0,0.07289999999999996,-5.498166666666667,-5.498166666666667,-0.6645,0.269,-0.0863333333333336,0.18799999999999994,70.391,-0.022699999999999942,-0.2006,0.17799999999999994,100.0,1.0,1.0,216.82333333333332,0.0,0.0,0.0,0.0,0.0,0.0,0.0,9190.3,0.0,55.0,5.0,253.38333333333333,0.0,0.0,0.0,0.0,0.0,0.0,1.0,0.0,1.806000000000001,1.806000000000001,0.0,0.0,0.0,55.0,616.79921,10000.0,85.000001,85.000001,85.000001,85.000001,395.0,0.0,0.0,0.0,1.0,166.665,51.117,51.117,46.126999999999995,46.126999999999995,34.0,-26.1625,24.189999999999998,-32.693333333333335,32.85,0.0,1781.102,-0.16499999999999915,100.0,29.321,28.728,44.347,43.817,0.0,1.0,100.0,0.0,0.0,0.0,0.0,3301.0,3195.1,4474.875,4572.8,304.8235,304.80766666666665,313.9875,313.64975,22.113599999999998,20.7092,22.1188,21.6103,314.999998,314.999998,324.999988,324.999988,99.55905714285714,99.50763333333333,99.56961428571428,99.5495,0.07825000000000015,-0.06766666666666676,-0.125,0.09959999999999991,-0.04999999999999716,-0.04999999999999716,1.434,1.433,39.21,30.432666666666666,39.242,36.064499999999995,55.741,35.888999999999996,60.2115,53.543,53.683,34.95,58.757999999999996,51.825,52.822,34.4555,58.621,51.20766666666667,-0.09799999999999986,-0.07399999999999984,0.10669000000000001,0.11199500000000001,0.0,220.345,220.32,216.82333333333332,216.82333333333332,0.0,0.0
