,ABS Active,ABS Enabled,AID Allow Tire Blankets,AID Auto Blip,AID Auto Clutch,AID Auto Shift,AID Fuel Rate,AID Ideal Line,AID Mech Damage,AID Stability,AID Tire Wear Rate,Air Density,Air Temp,Ballast,Best Lap Delta,Best Lap Time,Brake Bias,Brake Pos,Brake Temp FL,Brake Temp FR,Brake Temp RL,Brake Temp RR,CG Accel Lateral,CG Accel Longitudinal,CG Accel Vertical,CG Height,Camber FL,Camber FR,Camber RL,Camber RR,Car Coord X,Car Coord Y,Car Coord Z,Car Damage Front,Car Damage Left,Car Damage Rear,Car Damage Right,Car Pos Norm,Caster FL,Caster FR,Chassis Pitch Angle,Chassis Pitch Rate,Chassis Roll Angle,Chassis Roll Rate,Chassis Velocity X,Chassis Velocity Y,Chassis Velocity Z,Chassis Yaw Rate,Clutch Pos,DRS Active,DRS Available,Drive Train Speed,ERS Heat Charging,ERS Is Charging,ERS Max Energy,ERS Power Level,ERS Recovery Level,Engine Brake Setting,Engine Limiter,Engine RPM,Flags,Fuel Level,Gear,Ground Speed,HR Sample Clock,In Pit,KERS Charge,KERS Deployed Energy,KERS Input,KERS Max Energy,LR Sample Clock,Lap Invalidated,Lap Time,Lap Time2,Last Lap Time,Last Sector Time,MR Sample Clock,Max Fuel,Max Power,Max RPM,Max Sus Travel FL,Max Sus Travel FR,Max Sus Travel RL,Max Sus Travel RR,Max Torque,Max Turbo Boost,Num Tires Off Track,Penalties Enabled,Position,Raw Data Sample Rate,Ride Height FL,Ride Height FR,Ride Height RL,Ride Height RR,Road Temp,Self Align Torque FL,Self Align Torque FR,Self Align Torque RL,Self Align Torque RR,Session Lap Count,Session Time Left,Steering Angle,Surface Grip,Suspension Travel FL,Suspension Travel FR,Suspension Travel RL,Suspension Travel RR,TC Active,TC Enabled,Throttle Pos,Tire Dirt Level FL,Tire Dirt Level FR,Tire Dirt Level RL,Tire Dirt Level RR,Tire Load FL,Tire Load FR,Tire Load RL,Tire Load RR,Tire Loaded Radius FL,Tire Loaded Radius FR,Tire Loaded Radius RL,Tire Loaded Radius RR,Tire Pressure FL,Tire Pressure FR,Tire Pressure RL,Tire Pressure RR,Tire Radius FL,Tire Radius FR,Tire Radius RL,Tire Radius RR,Tire Rubber Grip FL,Tire Rubber Grip FR,Tire Rubber Grip RL,Tire Rubber Grip RR,Tire Slip Angle FL,Tire Slip Angle FR,Tire Slip Angle RL,Tire Slip Angle RR,Tire Slip Ratio FL,Tire Slip Ratio FR,Tire Slip Ratio RL,Tire Slip Ratio RR,Tire Temp Core FL,Tire Temp Core FR,Tire Temp Core RL,Tire Temp Core RR,Tire Temp Inner FL,Tire Temp Inner FR,Tire Temp Inner RL,Tire Temp Inner RR,Tire Temp Middle FL,Tire Temp Middle FR,Tire Temp Middle RL,Tire Temp Middle RR,Tire Temp Outer FL,Tire Temp Outer FR,Tire Temp Outer RL,Tire Temp Outer RR,Toe In FL,Toe In FR,Toe In RL,Toe In RR,Turbo Boost,Wheel Angular Speed FL,Wheel Angular Speed FR,Wheel Angular Speed RL,Wheel Angular Speed RR,Wind Direction,Wind Speed
0,0.0,1.0,0.0,1.0,1.0,0.0,0.0,1.0,0.0,100.0,1.0,1.1856,26.0,0.0,0.0,0.0,51.99999,0.0,26.0,26.0,26.0,26.0,-0.06122222222222218,0.30320000000000014,0.06266666666666666,293.961,-2.727,-2.6475,-1.5263499999999999,-1.5513,-275.71,216.29250000000002,190.98775,0.0,0.0,0.0,0.0,0.0015666666666666667,-5.498166666666667,-5.498166666666667,-0.5484,1.1280000000000001,0.0017499999999999183,-0.32399999999999984,65.547,-0.027100000000000003,-0.213225,0.9320000000000004,100.0,1.0,1.0,202.38,0.0,0.0,0.0,0.0,0.0,0.0,0.0,8578.1,0.0,55.0,5.0,235.94,0.0,0.0,0.0,0.0,0.0,0.0,0.0,0.0,0.0030000000000001137,0.0030000000000001137,0.0,0.0,0.0,55.0,616.79921,10000.0,85.0,85.0,85.0,85.0,395.0,0.0,0.0,0.0,1.0,20.0,52.75,52.75,49.545,49.545,34.0,-25.3375,23.796,-29.46,25.605,0.0,1782.901,0.8300000000000018,100.0,27.565,27.057,40.659,40.728,0.0,1.0,100.0,0.0,0.0,0.0,0.0,2955.714285714286,3389.4,4054.75,4030.8,305.86,304.08975,314.96875,314.7875,21.7773,20.5112,21.7642,21.2979,314.99999,314.99999,324.99998,324.99998,99.55894285714285,99.5071,99.56521428571429,99.54468571428572,0.013250000000000206,-0.11166666666666658,-0.151,0.075,-0.061666666666667425,-0.05285714285714249,1.5505,1.58,37.108000000000004,29.194666666666667,37.025999999999996,34.1115,56.317,34.4225,59.0925,51.5105,54.230999999999995,33.588499999999996,57.725,49.867,53.4,33.14366666666667,57.6975,49.288333333333334,-0.013500000000000068,-0.1419999999999999,0.10956,0.10365,0.0,205.41500000000002,205.32,202.38,202.38,0.0,0.0
1,0.0,1.0,0.0,1.0,1.0,0.0,0.0,1.0,0.0,100.0,1.0,1.1856,26.0,0.0,0.0,0.0,51.999998,0.0,26.0,26.0,26.0,26.0,-0.10744444444444445,0.3056000000000001,-0.0035666666666666668,292.892,-2.6391999999999998,-2.758375,-1.53125,-1.5469,-272.17,216.28750000000002,190.966375,0.0,0.0,0.0,0.0,0.003633333333333334,-5.498166666666667,-5.498166666666667,-0.5016,-0.645,-0.04925000000000024,-0.23899999999999988,65.711,-0.047400000000000005,-0.20315,1.3600000000000003,100.0,1.0,1.0,202.55666666666667,0.0,0.0,0.0,0.0,0.0,0.0,0.0,8585.7,0.0,55.0,5.0,236.53,1.0,0.0,0.0,0.0,0.0,0.0,0.0,0.0,0.05699999999999861,0.05699999999999861,0.0,0.0,1.0,55.0,616.79921,10000.0,85.000001,85.000001,85.000001,85.000001,395.0,0.0,0.0,0.0,1.0,166.665,53.314,53.314,48.263999999999996,48.263999999999996,34.0,-26.4925,18.712,-34.07,29.12,0.0,1782.847,0.8949999999999996,100.0,27.77,27.172,42.649,41.858000000000004,0.0,1.0,100.0,0.0,0.0,0.0,0.0,3056.285714285714,2740.6,4308.5,4712.7,305.439,306.112,314.24725,313.11625,21.7878,20.5166,21.7756,21.3075,314.999998,314.999998,324.999988,324.999988,99.55895714285714,99.50711666666666,99.56535714285714,99.54484285714285,-0.004999999999999893,-0.132,-0.17716666666666667,0.0395,-0.06333333333333258,-0.04999999999999716,1.3945,1.4806666666666668,37.174,29.228666666666665,37.098,34.172,56.299,34.466,59.1405,51.58,54.214,33.629,57.7695,49.9335,53.382999999999996,33.18233333333333,57.739,49.35366666666667,-0.004999999999999893,-0.14500000000000002,0.107435,0.10376,0.0,205.89499999999998,205.76,202.55666666666667,202.55666666666667,0.0,0.0
2,0.0,1.0,0.0,1.0,1.0,0.0,0.0,1.0,0.0,100.0,1.0,1.1856,26.0,0.0,0.0,0.0,51.999998,0.0,26.0,26.0,26.0,26.0,-0.14388888888888884,0.28510000000000013,-0.08236666666666667,293.625,-2.6003,-2.795375,-1.4898,-1.6099999999999999,-269.01,216.28,190.948625,0.0,0.0,0.0,0.0,0.0054666666666666665,-5.498166666666667,-5.498166666666667,-0.5505,0.029333333333333333,-0.04762500000000003,2.394,65.844,-0.0673,-0.25685,1.5460000000000003,100.0,1.0,1.0,203.44333333333333,0.0,0.0,0.0,0.0,0.0,0.0,0.0,8623.2,0.0,55.0,5.0,237.01,0.0,0.0,0.0,0.0,0.0,0.0,0.0,0.0,0.10500000000000043,0.10500000000000043,0.0,0.0,0.0,55.0,616.79921,10000.0,85.000001,85.000001,85.000001,85.000001,395.0,0.0,0.0,0.0,1.0,333.33500000000004,52.353,52.353,50.125,50.125,34.0,-29.395,20.214,-29.243333333333336,20.5025,0.0,1782.797,0.7950000000000017,100.0,28.474,27.055,42.563,41.463,0.0,1.0,100.0,0.0,0.0,0.0,0.0,3315.5714285714284,2958.9,3778.125,3661.1,304.5755,305.47825,315.55825,315.83225,21.7974,20.5213,21.7855,21.3157,314.999998,314.999998,324.999988,324.999988,99.55895714285714,99.50713333333333,99.5655,99.54497142857143,-0.01649999999999996,-0.14500000000000002,-0.21466666666666667,0.01916666666666667,-0.03999999999999915,-0.047142857142851824,1.6320000000000001,1.6903333333333332,37.233999999999995,29.258,37.16,34.2235,56.287,34.506,59.178,51.6365,54.202,33.6655,57.805,49.9885,53.37,33.217333333333336,57.772,49.407,-0.0129999999999999,-0.14100000000000001,0.10641,0.109905,0.0,206.31,206.16500000000002,203.44333333333333,203.44333333333333,0.0,0.0
3,0.0,1.0,0.0,1.0,1.0,0.0,0.0,1.0,0.0,100.0,1.0,1.1856,26.0,0.0,0.0,0.0,51.999998,0.0,26.0,26.0,26.0,26.0,-0.12655555555555553,0.31020000000000003,0.07026666666666667,293.427,-2.7292,-2.689875,-1.51115,-1.5908,-265.85,216.26999999999998,190.93025,0.0,0.0,0.0,0.0,0.0073,-5.498166666666667,-5.498166666666667,-0.5109,0.42333333333333334,-0.00749999999999984,0.34799999999999986,65.987,-0.08310000000000001,-0.20045000000000002,1.1979999999999995,100.0,1.0,1.0,203.59,0.0,0.0,0.0,0.0,0.0,0.0,0.0,8629.4,0.0,55.0,5.0,237.5233333333333,1.0,0.0,0.0,0.0,0.0,0.0,0.0,0.0,0.1529999999999987,0.1529999999999987,0.0,0.0,1.0,55.0,616.79921,10000.0,85.000001,85.000001,85.000001,85.000001,395.0,0.0,0.0,0.0,1.0,333.33500000000004,53.467,53.467,48.203,48.203,34.0,-25.2375,19.136,-34.269999999999996,25.384999999999998,0.0,1782.75,0.6400000000000006,100.0,28.029,27.011,42.429,41.42,0.0,1.0,100.0,0.0,0.0,0.0,0.0,2855.142857142857,2900.9,4285.625,4231.3,306.0625,305.6065,314.334,314.37925,21.8067,20.5262,21.7954,21.3241,314.999998,314.999998,324.999988,324.999988,99.55895714285714,99.50715,99.56562857142858,99.5451,-0.006249999999999867,-0.1393333333333333,-0.199,0.029,-0.03166666666666629,-0.054285714285711606,1.4875,1.5253333333333332,37.292,29.288666666666664,37.221000000000004,34.2755,56.272,34.5435,59.213,51.692,54.188,33.7,57.8375,50.0415,53.355000000000004,33.25066666666667,57.8015,49.45933333333333,-0.03699999999999992,-0.1200000000000001,0.09807,0.11635000000000001,0.0,206.765,206.66500000000002,203.59,203.59,0.0,0.0
4,0.0,1.0,0.0,1.0,1.0,0.0,0.0,1.0,0.0,100.0,1.0,1.1856,26.0,0.0,0.0,0.0,51.999998,0.0,26.0,26.0,26.0,26.0,-0.1406666666666666,0.2816000000000001,-0.016366666666666665,293.579,-2.6662,-2.7355,-1.5298,-1.5948,-262.48,216.255,190.9105,0.0,0.0,0.0,0.0,0.009266666666666668,-5.498166666666667,-5.498166666666667,-0.5437000000000001,-0.7733333333333334,-0.07474999999999987,-1.888,66.133,-0.0849,-0.23645000000000002,1.138,100.0,1.0,1.0,204.15666666666667,0.0,0.0,0.0,0.0,0.0,0.0,0.0,8653.5,0.0,55.0,5.0,238.05,0.0,0.0,0.0,0.0,0.0,0.0,0.0,0.0,0.20400000000000063,0.20400000000000063,0.0,0.0,0.0,55.0,616.79921,10000.0,85.000001,85.000001,85.000001,85.000001,395.0,0.0,0.0,0.0,1.0,166.665,53.04,53.04,48.691,48.691,34.0,-29.47,19.066,-32.99333333333334,20.8375,0.0,1782.7,0.620000000000001,100.0,27.712,26.951999999999998,42.786,41.564,0.0,1.0,100.0,0.0,0.0,0.0,0.0,3253.0,2890.6,4120.75,3700.3,305.0925,305.47625,314.767,315.59,21.8164,20.5313,21.806,21.333,314.999998,314.999998,324.999988,324.999988,99.55895714285714,99.50716666666666,99.56577142857142,99.54522857142857,-0.02949999999999986,-0.15266666666666662,-0.20750000000000002,0.015,-0.045000000000001705,-0.02571428571428669,1.552,1.6033333333333333,37.352000000000004,29.320333333333334,37.288,34.331,56.253,34.585,59.254999999999995,51.751999999999995,54.171,33.7385,57.8765,50.099000000000004,53.337,33.287333333333336,57.838,49.51566666666667,-0.02400000000000002,-0.12349999999999994,0.10636500000000002,0.102095,0.0,207.185,207.04500000000002,204.15666666666667,204.15666666666667,0.0,0.0
5,0.0,1.0,0.0,1.0,1.0,0.0,0.0,1.0,0.0,100.0,1.0,1.1856,26.0,0.0,0.0,0.0,51.999998,0.0,26.0,26.0,26.0,26.0,-0.13855555555555554,0.2921,-0.015033333333333334,293.64,-2.6675,-2.76825,-1.50745,-1.588,-259.1,216.2375,190.890125,0.0,0.0,0.0,0.0,0.011233333333333333,-5.498166666666667,-5.498166666666667,-0.5368,0.451,-0.08174999999999999,1.1560000000000006,66.28,-0.08850000000000001,-0.21557500000000002,1.0579999999999998,100.0,1.0,1.0,204.56,0.0,0.0,0.0,0.0,0.0,0.0,0.0,8670.5,0.0,55.0,5.0,238.57666666666665,1.0,0.0,0.0,0.0,0.0,0.0,0.0,0.0,0.254999999999999,0.254999999999999,0.0,0.0,1.0,55.0,616.79921,10000.0,85.000001,85.000001,85.000001,85.000001,395.0,0.0,0.0,0.0,1.0,333.33500000000004,53.406,53.406,49.010999999999996,49.010999999999996,34.0,-27.307499999999997,19.549999999999997,-33.07333333333334,23.04,0.0,1782.647,0.33500000000000085,100.0,27.996,26.671,42.631,41.121,0.0,1.0,100.0,0.0,0.0,0.0,0.0,3089.142857142857,2844.4,4136.125,4079.1000000000004,305.358,305.8475,314.757,314.7725,21.8264,20.5364,21.8165,21.3417,314.999998,314.999998,324.999988,324.999988,99.55897142857143,99.50718333333333,99.56591428571429,99.54537142857143,-0.010499999999999954,-0.133,-0.21283333333333335,0.010333333333333335,-0.04833333333333201,-0.024285714285717575,1.552,1.5943333333333334,37.415,29.352333333333334,37.352999999999994,34.3855,56.239000000000004,34.626,59.295,51.8095,54.158,33.775999999999996,57.914,50.153999999999996,53.323,33.32333333333334,57.8725,49.56933333333333,-0.04849999999999999,-0.0950000000000002,0.10507000000000001,0.10365,0.0,207.67000000000002,207.555,204.56,204.56,0.0,0.0
6,0.0,1.0,0.0,1.0,1.0,0.0,0.0,1.0,0.0,100.0,1.0,1.1856,26.0,0.0,0.0,0.0,51.999998,0.0,26.0,26.0,26.0,26.0,-0.12244444444444447,0.28770000000000007,0.011766666666666668,293.411,-2.6365,-2.74275,-1.55415,-1.5832000000000002,-255.92,216.2175,190.87075,0.0,0.0,0.0,0.0,0.0131,-5.498166666666667,-5.498166666666667,-0.5316000000000001,0.09933333333333333,-0.06174999999999997,0.9030000000000005,66.418,-0.08360000000000001,-0.2156,0.726,100.0,1.0,1.0,204.98000000000002,0.0,0.0,0.0,0.0,0.0,0.0,0.0,8688.3,0.0,55.0,5.0,239.07333333333332,0.0,0.0,0.0,0.0,0.0,0.0,0.0,0.0,0.3030000000000008,0.3030000000000008,0.0,0.0,0.0,55.0,616.79921,10000.0,85.000001,85.000001,85.000001,85.000001,395.0,0.0,0.0,0.0,1.0,333.33500000000004,53.07,53.07,48.737,48.737,34.0,-26.9425,21.218,-32.513333333333335,23.6825,0.0,1782.601,-0.004999999999999005,100.0,27.884,26.758,42.787,41.485,0.0,1.0,100.0,0.0,0.0,0.0,0.0,3123.142857142857,2999.8,4064.875,4042.9,305.243,305.32075,314.9175,314.85625,21.8358,20.5412,21.8264,21.3502,314.999998,314.999998,324.999988,324.999988,99.55897142857143,99.5072,99.56605714285715,99.5455,0.000500000000000167,-0.1183333333333334,-0.20016666666666666,0.02733333333333333,-0.04833333333333201,-0.05857142857143316,1.5274999999999999,1.569,37.473,29.382666666666665,37.415,34.4385,56.224999999999994,34.664,59.332499999999996,51.868,54.144,33.811,57.949,50.21,53.308,33.357,57.905,49.624,-0.0674999999999999,-0.08199999999999985,0.10986000000000001,0.10348,0.0,208.07,208.0,204.98000000000002,204.98000000000002,0.0,0.0
7,0.0,1.0,0.0,1.0,1.0,0.0,0.0,1.0,0.0,100.0,1.0,1.1856,26.0,0.0,0.0,0.0,51.999998,0.0,26.0,26.0,26.0,26.0,-0.07544444444444443,0.29410000000000003,0.04716666666666667,293.198,-2.6071999999999997,-2.734125,-1.51315,-1.6258,-252.32999999999998,216.19,190.849125,0.0,0.0,0.0,0.0,0.015166666666666667,-5.498166666666667,-5.498166666666667,-0.5344,0.03166666666666667,-0.051124999999999865,1.1550000000000002,66.572,-0.0653,-0.22382500000000002,0.3460000000000001,100.0,1.0,1.0,205.42333333333335,0.0,0.0,0.0,0.0,0.0,0.0,0.0,8707.2,0.0,55.0,5.0,239.63,1.0,0.0,0.0,0.0,0.0,0.0,0.0,0.0,0.3569999999999993,0.3569999999999993,0.0,0.0,1.0,55.0,616.79921,10000.0,85.000001,85.000001,85.000001,85.000001,395.0,0.0,0.0,0.0,1.0,166.665,52.78,52.78,48.798,48.798,34.0,-25.66,22.576,-30.586666666666666,25.83,0.0,1782.547,-0.17999999999999972,100.0,27.986,26.829,42.809,41.756,0.0,1.0,100.0,0.0,0.0,0.0,0.0,3178.857142857143,3037.8,4040.375,4068.0,304.991,305.15875,314.92475,314.7265,21.8462,20.5467,21.8376,21.3597,314.999998,314.999998,324.999988,324.999988,99.55897142857143,99.50721666666666,99.56621428571428,99.54565714285714,0.03925000000000001,-0.09233333333333338,-0.17466666666666666,0.050333333333333334,-0.046666666666666856,-0.048571428571428044,1.53,1.5376666666666667,37.539,29.417,37.485,34.498,56.209,34.706,59.375,51.933,54.129000000000005,33.85,57.9885,50.2725,53.292,33.394,57.9415,49.685,-0.09250000000000003,-0.05750000000000011,0.101305,0.11221,0.0,208.525,208.47500000000002,205.42333333333335,205.42333333333335,0.0,0.0
8,0.0,1.0,0.0,1.0,1.0,0.0,0.0,1.0,0.0,100.0,1.0,1.1856,26.0,0.0,0.0,0.0,51.999998,0.0,26.0,26.0,26.0,26.0,-0.0411111111111111,0.29170000000000007,0.042633333333333336,293.427,-2.6963,-2.71725,-1.4994,-1.5514999999999999,-249.13,216.16750000000002,190.82975,0.0,0.0,0.0,0.0,0.017033333333333334,-5.498166666666667,-5.498166666666667,-0.5353,-0.5516666666666666,-0.031124999999999847,0.8040000000000003,66.71000000000001,-0.048100000000000004,-0.214375,-0.06200000000000028,100.0,1.0,1.0,205.77666666666667,0.0,0.0,0.0,0.0,0.0,0.0,0.0,8722.1,0.0,55.0,5.0,240.12666666666667,0.0,0.0,0.0,0.0,0.0,0.0,0.0,0.0,0.40500000000000114,0.40500000000000114,0.0,0.0,0.0,55.0,616.79921,10000.0,85.000001,85.000001,85.000001,85.000001,395.0,0.0,0.0,0.0,1.0,333.33500000000004,53.65,53.65,48.08,48.08,34.0,-23.4325,22.862000000000002,-29.963333333333335,27.04,0.0,1782.499,-0.34999999999999787,100.0,27.513,26.762999999999998,42.791,41.863,0.0,1.0,100.0,0.0,0.0,0.0,0.0,2914.4285714285716,3009.2,4138.125,4186.7,305.959,305.318,314.64325,314.444,21.8553,20.5516,21.8475,21.3681,314.999998,314.999998,324.999988,324.999988,99.55898571428571,99.50721666666666,99.56634285714286,99.54578571428571,0.047250000000000014,-0.07366666666666666,-0.14616666666666667,0.0735,-0.03333333333333144,-0.05285714285714249,1.52,1.5083333333333333,37.596000000000004,29.447333333333333,37.547,34.551,56.193,34.742,59.4125,51.9905,54.114000000000004,33.882999999999996,58.0235,50.3275,53.277,33.426,57.9735,49.739,-0.09749999999999992,-0.04499999999999993,0.104495,0.10555500000000001,0.0,208.92000000000002,208.91500000000002,205.77666666666667,205.77666666666667,0.0,0.0
9,0.0,1.0,0.0,1.0,1.0,0.0,0.0,1.0,0.0,100.0,1.0,1.1856,26.0,0.0,0.0,0.0,51.999998,0.0,26.0,26.0,26.0,26.0,-0.03588888888888886,0.2921,0.02936666666666667,293.167,-2.6829,-2.723875,-1.55395,-1.5554999999999999,-245.92000000000002,216.14249999999998,190.809875,0.0,0.0,0.0,0.0,0.0189,-5.498166666666667,-5.498166666666667,-0.543,0.6116666666666667,-0.034499999999999975,0.6989999999999998,66.843,-0.0279,-0.216875,-0.18399999999999928,100.0,1.0,1.0,206.32,0.0,0.0,0.0,0.0,0.0,0.0,0.0,8745.2,0.0,55.0,5.0,240.60666666666668,1.0,0.0,0.0,0.0,0.0,0.0,0.0,0.0,0.4529999999999994,0.4529999999999994,0.0,0.0,1.0,55.0,616.79921,10000.0,85.000001,85.000001,85.000001,85.000001,395.0,0.0,0.0,0.0,1.0,333.33500000000004,52.414,52.414,49.164,49.164,34.0,-25.9175,24.490000000000002,-28.143333333333334,26.42,0.0,1782.451,-0.504999999999999,100.0,27.951999999999998,27.182,42.435,41.857,0.0,1.0,100.0,0.0,0.0,0.0,0.0,3288.285714285714,3103.3,3964.0,4062.7,304.7895,304.95825,315.19625,314.8145,21.8646,20.5566,21.8573,21.3765,314.999998,314.999998,324.999988,324.999988,99.55898571428571,99.50723333333333,99.56647142857143,99.54591428571429,0.06925000000000026,-0.05833333333333335,-0.13416666666666666,0.08733333333333333,-0.04999999999999716,-0.05857142857143316,1.581,1.5896666666666668,37.653999999999996,29.479,37.608000000000004,34.603,56.181,34.7795,59.4465,52.0465,54.102000000000004,33.917500000000004,58.055,50.381,53.263999999999996,33.459,58.0025,49.791666666666664,-0.11149999999999993,-0.0365000000000002,0.10802,0.104355,0.0,209.365,209.36,206.32,206.32,0.0,0.0
10,0.0,1.0,0.0,1.0,1.0,0.0,0.0,1.0,0.0,100.0,1.0,1.1856,26.0,0.0,0.0,0.0,51.999998,0.0,26.0,26.0,26.0,26.0,0.0021111111111111747,0.2957000000000001,-0.0034000000000000002,292.938,-2.6604,-2.7055,-1.5347,-1.5346000000000002,-242.51,216.115,190.789125,0.0,0.0,0.0,0.0,0.020866666666666665,-5.498166666666667,-5.498166666666667,-0.5175000000000001,-0.3606666666666667,0.005624999999999991,0.4119999999999999,66.989,-0.006900000000000001,-0.206075,-0.4720000000000004,100.0,1.0,1.0,206.55333333333334,0.0,0.0,0.0,0.0,0.0,0.0,0.0,8755.0,0.0,55.0,5.0,241.13333333333333,0.0,0.0,0.0,0.0,0.0,0.0,1.0,0.0,0.5040000000000013,0.5040000000000013,0.0,0.0,0.0,55.0,616.79921,10000.0,85.000001,85.000001,85.000001,85.000001,395.0,0.0,0.0,0.0,1.0,333.33500000000004,53.452,53.452,47.607,47.607,34.0,-21.235,22.805999999999997,-30.883333333333333,28.935000000000002,0.0,1782.398,-0.5899999999999999,100.0,27.727,27.337,42.769999999999996,42.712,0.0,1.0,100.0,0.0,0.0,0.0,0.0,2900.142857142857,2869.8,4341.0,4276.0,306.05,305.545,314.24525,314.15375,21.874299999999998,20.5619,21.868,21.3857,314.999998,314.999998,324.999988,324.999988,99.559,99.50723333333333,99.56661428571428,99.54607142857142,0.09074999999999989,-0.04699999999999993,-0.12033333333333333,0.09483333333333333,-0.06833333333332803,-0.06571428571428584,1.4875,1.468,37.715,29.512,37.675,34.6605,56.168,34.8165,59.4875,52.1105,54.09,33.951499999999996,58.0935,50.443,53.251,33.49166666666667,58.0375,49.852333333333334,-0.12549999999999994,-0.027499999999999858,0.11002500000000001,0.10158,0.0,209.79500000000002,209.82,206.55333333333334,206.55333333333334,0.0,0.0
11,0.0,1.0,0.0,1.0,1.0,0.0,0.0,1.0,0.0,100.0,1.0,1.1856,26.0,0.0,0.0,0.0,51.999998,0.0,26.0,26.0,26.0,26.0,0.05011111111111122,0.2753000000000001,-0.09993333333333335,293.472,-2.7081,-2.680625,-1.5916000000000001,-1.5217,-238.89,216.085,190.767125,0.0,0.0,0.0,0.0,0.022600000000000002,-5.498166666666667,-5.498166666666667,-0.5615,-0.11033333333333332,0.03249999999999997,-0.7240000000000002,67.136,0.0142,-0.236125,-0.5979999999999999,100.0,1.0,1.0,207.32333333333332,0.0,0.0,0.0,0.0,0.0,0.0,0.0,8787.7,0.0,55.0,5.0,241.66333333333336,1.0,0.0,0.0,0.0,0.0,0.0,1.0,0.0,0.5579999999999998,0.5579999999999998,0.0,0.0,1.0,55.0,616.79921,10000.0,85.000001,85.000001,85.000001,85.000001,395.0,0.0,0.0,0.0,1.0,166.665,52.78,52.78,49.225,49.225,34.0,-22.6325,25.582,-24.473333333333333,26.875,0.0,1782.346,-0.7149999999999999,100.0,27.485,27.624,42.288,42.634,0.0,1.0,100.0,0.0,0.0,0.0,0.0,3083.0,3090.8,3725.0,3864.2,305.5675,304.83375,315.833,315.238,21.8844,20.5677,21.8789,21.3952,314.999998,314.999998,324.999988,324.999988,99.559,99.50723333333333,99.56677142857143,99.54621428571429,0.10349999999999993,-0.024666666666666615,-0.09516666666666668,0.13866666666666666,-0.04833333333333201,-0.04285714285714448,1.6484999999999999,1.6103333333333334,37.778,29.547666666666665,37.742999999999995,34.72,56.153,34.8565,59.5235,52.1745,54.075,33.9885,58.126999999999995,50.504,53.235,33.527,58.068,49.912333333333336,-0.12549999999999994,-0.028500000000000192,0.10761000000000001,0.11076000000000001,0.0,210.22500000000002,210.26,207.32333333333332,207.32333333333332,0.0,0.0
12,0.0,1.0,0.0,1.0,1.0,0.0,0.0,1.0,0.0,100.0,1.0,1.1856,26.0,0.0,0.0,0.0,51.999998,0.0,26.0,26.0,26.0,26.0,0.04488888888888898,0.28669999999999995,0.012133333333333333,292.892,-2.7583,-2.683,-1.5529000000000002,-1.5259,-235.87,216.0625,190.747625,0.0,0.0,0.0,0.0,0.025466666666666665,-5.498166666666667,-5.498166666666667,-0.5465,0.305,0.018999999999999906,0.5620000000000003,67.265,0.0296,-0.2063,-0.7359999999999998,100.0,1.0,1.0,207.5,0.0,0.0,0.0,0.0,0.0,0.0,0.0,8795.1,0.0,55.0,5.0,242.12333333333333,0.0,0.0,0.0,0.0,0.0,0.0,1.0,0.0,0.602999999999998,0.602999999999998,0.0,0.0,0.0,55.0,616.79921,10000.0,85.000001,85.000001,85.000001,85.000001,395.0,0.0,0.0,0.0,1.0,333.33500000000004,52.765,52.765,47.882,47.882,34.0,-22.2175,26.43,-26.633333333333333,31.9975,0.0,1782.301,-0.4250000000000007,100.0,27.529,27.606,42.372,42.492000000000004,0.0,1.0,100.0,0.0,0.0,0.0,0.0,3027.857142857143,3194.6,4169.75,4226.4,305.6045,304.71825,314.67,314.41025,21.8928,20.5725,21.8882,21.4032,314.999998,314.999998,324.999988,324.999988,99.55901428571428,99.50723333333333,99.5669,99.54634285714286,0.11624999999999996,-0.022666666666666613,-0.06633333333333333,0.16733333333333333,-0.045000000000001705,-0.05857142857143316,1.5314999999999999,1.4803333333333333,37.83,29.578,37.801,34.769999999999996,56.141,34.89,59.5575,52.2285,54.064,34.0195,58.158500000000004,50.556,53.223,33.557,58.097,49.96333333333333,-0.11799999999999988,-0.04400000000000004,0.104885,0.110795,0.0,210.62,210.69,207.5,207.5,0.0,0.0
13,0.0,1.0,0.0,1.0,1.0,0.0,0.0,1.0,0.0,100.0,1.0,1.1856,26.0,0.0,0.0,0.0,51.999998,0.0,26.0,26.0,26.0,26.0,0.0802222222222222,0.2836000000000001,0.03886666666666667,292.511,-2.7382,-2.6736250000000004,-1.6223,-1.509,-232.43,216.0375,190.72575,0.0,0.0,0.0,0.0,0.02673333333333333,-5.498166666666667,-5.498166666666667,-0.5385,-0.067,0.01937499999999992,-0.48299999999999965,67.407,0.037700000000000004,-0.21435,-0.7960000000000003,100.0,1.0,1.0,207.85666666666668,0.0,0.0,0.0,0.0,0.0,0.0,0.0,8810.3,0.0,55.0,5.0,242.63666666666666,1.0,0.0,0.0,0.0,0.0,0.0,1.0,0.0,0.6539999999999999,0.6539999999999999,0.0,0.0,1.0,55.0,616.79921,10000.0,85.000001,85.000001,85.000001,85.000001,395.0,0.0,0.0,0.0,1.0,333.33500000000004,52.444,52.444,47.821,47.821,34.0,-21.419999999999998,26.852,-28.23,31.46,0.0,1782.248,-0.8399999999999999,100.0,27.697,27.959,42.515,43.09,0.0,1.0,100.0,0.0,0.0,0.0,0.0,3160.5714285714284,3081.1,4234.75,4292.7,305.352,304.878,314.58575,314.14325,21.9025,20.578,21.898699999999998,21.412399999999998,314.999998,314.999998,324.999988,324.999988,99.55904285714286,99.50725,99.56704285714285,99.54648571428571,0.15174999999999983,0.010666666666666602,-0.06883333333333333,0.14616666666666667,-0.051666666666669414,-0.03999999999999915,1.5185,1.471,37.89,29.612666666666666,37.867000000000004,34.8275,56.132,34.928,59.596000000000004,52.292500000000004,54.054,34.055,58.194,50.618,53.213,33.591,58.1295,50.024,-0.15399999999999991,-0.01100000000000012,0.10748500000000001,0.10171000000000001,0.0,211.07,211.10000000000002,207.85666666666668,207.85666666666668,0.0,0.0
14,0.0,1.0,0.0,1.0,1.0,0.0,0.0,1.0,0.0,100.0,1.0,1.1856,26.0,0.0,0.0,0.0,51.999998,0.0,26.0,26.0,26.0,26.0,0.07844444444444432,0.27459999999999996,-0.011000000000000001,292.77,-2.7348,-2.6178749999999997,-1.63105,-1.5117,-228.99,216.0125,190.704625,0.0,0.0,0.0,0.0,0.028733333333333333,-5.498166666666667,-5.498166666666667,-0.5488000000000001,-0.122,0.05262499999999992,1.3860000000000001,67.54599999999999,0.0499,-0.22862500000000002,-0.9900000000000002,100.0,1.0,1.0,208.38333333333333,0.0,0.0,0.0,0.0,0.0,0.0,0.0,8832.6,0.0,55.0,5.0,243.14,0.0,0.0,0.0,0.0,0.0,0.0,1.0,0.0,0.7049999999999983,0.7049999999999983,0.0,0.0,0.0,55.0,616.79921,10000.0,85.000001,85.000001,85.000001,85.000001,395.0,0.0,0.0,0.0,1.0,166.665,52.582,52.582,48.065,48.065,34.0,-19.53,28.408,-25.32,32.0275,0.0,1782.199,-0.9400000000000013,100.0,27.758,27.852,42.56,43.197,0.0,1.0,100.0,0.0,0.0,0.0,0.0,2927.857142857143,3261.8,3971.125,4220.3,305.8475,304.51825,315.1555,314.423,21.9121,20.5835,21.9092,21.421599999999998,314.999998,314.999998,324.999988,324.999988,99.55905714285714,99.50725,99.56718571428571,99.54664285714286,0.1575000000000002,0.02200000000000002,-0.051333333333333335,0.1765,-0.02499999999999858,-0.06142857142857139,1.5525,1.5263333333333333,37.95,29.647,37.932,34.8845,56.120999999999995,34.966,59.6325,52.3555,54.044,34.0905,58.228,50.6785,53.202,33.62466666666667,58.16,50.083666666666666,-0.15149999999999997,-0.007000000000000117,0.10795500000000001,0.11130500000000002,0.0,211.47,211.55,208.38333333333333,208.38333333333333,0.0,0.0
15,0.0,1.0,0.0,1.0,1.0,0.0,0.0,1.0,0.0,100.0,1.0,1.1856,26.0,0.0,0.0,0.0,51.999998,0.0,26.0,26.0,26.0,26.0,0.10400000000000009,0.2943,0.0115,292.816,-2.7091,-2.574875,-1.6313,-1.4541,-225.74,215.995,190.68425,0.0,0.0,0.0,0.0,0.030633333333333332,-5.498166666666667,-5.498166666666667,-0.5397000000000001,0.3156666666666667,0.08262499999999995,1.069,67.679,0.062200000000000005,-0.209575,-1.2160000000000002,100.0,1.0,1.0,208.77666666666667,0.0,0.0,0.0,0.0,0.0,0.0,0.0,8849.3,0.0,55.0,5.0,243.61333333333334,1.0,0.0,0.0,0.0,0.0,0.0,1.0,0.0,0.7530000000000001,0.7530000000000001,0.0,0.0,1.0,55.0,616.79921,10000.0,85.000001,85.000001,85.000001,85.000001,395.0,0.0,0.0,0.0,1.0,333.33500000000004,52.811,52.811,48.187,48.187,34.0,-17.8675,28.266,-24.18,33.625,0.0,1782.15,-0.9849999999999994,100.0,27.723,27.902,42.292,43.241,0.0,1.0,100.0,0.0,0.0,0.0,0.0,2799.4285714285716,3227.5,3941.5,4392.5,306.2065,304.61625,315.2395,314.03325,21.9211,20.5888,21.9189,21.4302,314.999998,314.999998,324.999988,324.999988,99.55907142857143,99.50726666666667,99.56732857142858,99.54677142857143,0.1695000000000002,0.03600000000000003,-0.03383333333333333,0.191,-0.03333333333333144,-0.04571428571428271,1.5625,1.5066666666666668,38.007,29.68,37.992999999999995,34.9385,56.111999999999995,35.003,59.665,52.4155,54.035,34.1245,58.257999999999996,50.736000000000004,53.192,33.657666666666664,58.1875,50.14033333333333,-0.15049999999999986,-0.0024999999999999467,0.10591,0.10344,0.0,211.905,211.98000000000002,208.77666666666667,208.77666666666667,0.0,0.0
16,0.0,1.0,0.0,1.0,1.0,0.0,0.0,1.0,0.0,100.0,1.0,1.1856,26.0,0.0,0.0,0.0,51.999998,0.0,26.0,26.0,26.0,26.0,0.12911111111111118,0.2814000000000001,-0.0538,292.862,-2.8047,-2.6096250000000003,-1.60095,-1.4539,-222.29,215.975,190.66225,0.0,0.0,0.0,0.0,0.032633333333333334,-5.498166666666667,-5.498166666666667,-0.5603,-0.7343333333333334,0.06712499999999988,-0.9900000000000002,67.818,0.0753,-0.22540000000000002,-1.2119999999999997,100.0,1.0,1.0,209.2,0.0,0.0,0.0,0.0,0.0,0.0,0.0,8867.2,0.0,55.0,5.0,244.12,0.0,0.0,0.0,0.0,0.0,0.0,1.0,0.0,0.8039999999999985,0.8039999999999985,0.0,0.0,0.0,55.0,616.79921,10000.0,85.000001,85.000001,85.000001,85.000001,395.0,0.0,0.0,0.0,1.0,166.665,52.734,52.734,47.867,47.867,34.0,-20.31,28.188,-23.72,31.5925,0.0,1782.1,-0.8949999999999996,100.0,27.215,28.122,42.481,43.466,0.0,1.0,100.0,0.0,0.0,0.0,0.0,3000.142857142857,3185.9,3973.25,4128.1,305.9225,304.56375,315.20125,314.59,21.9303,20.5944,21.9294,21.4393,314.999998,314.999998,324.999988,324.999988,99.5591,99.50726666666667,99.56745714285714,99.54691428571428,0.16025,0.030999999999999917,-0.029500000000000002,0.198,-0.041666666666671404,-0.06142857142857139,1.573,1.5233333333333332,38.064,29.714666666666666,38.059,34.996,56.099000000000004,35.042500000000004,59.703,52.478,54.022999999999996,34.161,58.2935,50.7965,53.178,33.693,58.2195,50.199666666666666,-0.14449999999999985,-0.00749999999999984,0.11479500000000001,0.10474000000000001,0.0,212.305,212.38,209.2,209.2,0.0,0.0
17,0.0,1.0,0.0,1.0,1.0,0.0,0.0,1.0,0.0,100.0,1.0,1.1856,26.0,0.0,0.0,0.0,51.999998,0.0,26.0,26.0,26.0,26.0,0.12322222222222212,0.2824,-0.0315,292.526,-2.7631,-2.566125,-1.6404,-1.4771,-218.82999999999998,215.96,190.639625,0.0,0.0,0.0,0.0,0.034633333333333335,-5.498166666666667,-5.498166666666667,-0.5505,0.5696666666666667,0.04949999999999988,0.7279999999999998,67.956,0.0789,-0.206425,-1.138,100.0,1.0,1.0,209.60666666666668,0.0,0.0,0.0,0.0,0.0,0.0,0.0,8884.5,0.0,55.0,5.0,244.61333333333334,1.0,0.0,0.0,0.0,0.0,0.0,1.0,0.0,0.8550000000000004,0.8550000000000004,0.0,0.0,1.0,55.0,616.79921,10000.0,85.000001,85.000001,85.000001,85.000001,395.0,0.0,0.0,0.0,1.0,333.33500000000004,52.46,52.46,47.867,47.867,34.0,-19.1175,28.0,-25.096666666666664,34.207499999999996,0.0,1782.048,-0.9549999999999983,100.0,27.84,28.285,42.295,43.331,0.0,1.0,100.0,0.0,0.0,0.0,0.0,2984.5714285714284,3157.3,4189.125,4317.8,305.7455,304.84375,314.7335,314.26075,21.9399,20.6001,21.939799999999998,21.4485,314.999998,314.999998,324.999988,324.999988,99.55911428571429,99.50726666666667,99.5676,99.54707142857143,0.18225000000000025,0.04933333333333323,-0.014333333333333335,0.2105,-0.03999999999999915,-0.06428571428571672,1.5425,1.5093333333333332,38.123999999999995,29.750666666666667,38.123000000000005,35.053,56.091,35.084,59.738,52.5405,54.015,34.1995,58.3255,50.8565,53.169,33.72966666666667,58.249,50.25866666666667,-0.15249999999999986,-0.0045000000000001705,0.10526500000000001,0.11098500000000001,0.0,212.76999999999998,212.86,209.60666666666668,209.60666666666668,0.0,0.0
18,0.0,1.0,0.0,1.0,1.0,0.0,0.0,1.0,0.0,100.0,1.0,1.1856,26.0,0.0,0.0,0.0,51.999998,0.0,26.0,26.0,26.0,26.0,0.11288888888888904,0.27790000000000004,-0.032600000000000004,292.526,-2.796,-2.54125,-1.6560000000000001,-1.4225,-215.56,215.95,190.6185,0.0,0.0,0.0,0.0,0.036533333333333334,-5.498166666666667,-5.498166666666667,-0.5593,-0.5583333333333333,0.07362500000000005,1.1370000000000005,68.087,0.0806,-0.2223,-1.306,100.0,1.0,1.0,210.01333333333332,0.0,0.0,0.0,0.0,0.0,0.0,0.0,8901.7,0.0,55.0,5.0,245.08666666666664,0.0,0.0,0.0,0.0,0.0,0.0,1.0,0.0,0.9029999999999987,0.9029999999999987,0.0,0.0,0.0,55.0,616.79921,10000.0,85.000001,85.000001,85.000001,85.000001,395.0,0.0,0.0,0.0,1.0,333.33500000000004,52.429,52.429,47.729,47.729,34.0,-18.81,30.528,-24.026666666666664,32.485,0.0,1782.0,-1.259999999999998,100.0,27.581,28.096,42.628,43.769,0.0,1.0,100.0,0.0,0.0,0.0,0.0,2971.0,3360.0,3998.5,4218.1,305.86,304.31725,315.123,314.452,21.9487,20.6054,21.9497,21.4572,314.999998,314.999998,324.999988,324.999988,99.55914285714286,99.50728333333333,99.56774285714286,99.54721428571429,0.1924999999999999,0.06766666666666676,-0.016,0.2085,-0.030000000000001137,-0.05857142857143316,1.5625,1.514,38.179,29.783666666666665,38.185,35.1075,56.082,35.122,59.7735,52.601,54.006,34.2345,58.359,50.9155,53.159,33.763666666666666,58.278999999999996,50.31633333333333,-0.16649999999999987,0.014999999999999902,0.10268500000000001,0.10717000000000002,0.0,213.13,213.21,210.01333333333332,210.01333333333332,0.0,0.0
19,0.0,1.0,0.0,1.0,1.0,0.0,0.0,1.0,0.0,100.0,1.0,1.1856,26.0,0.0,0.0,0.0,51.999998,0.0,26.0,26.0,26.0,26.0,0.1607777777777779,0.28080000000000016,0.02766666666666667,292.007,-2.771,-2.5233749999999997,-1.67385,-1.401,-212.09,215.9425,190.595875,0.0,0.0,0.0,0.0,0.03856666666666667,-5.498166666666667,-5.498166666666667,-0.5521,0.8076666666666666,0.08362500000000006,-0.4249999999999998,68.224,0.092,-0.212325,-1.6059999999999999,100.0,1.0,1.0,210.41666666666669,0.0,0.0,0.0,0.0,0.0,0.0,0.0,8918.9,0.0,55.0,5.0,245.57666666666665,1.0,0.0,0.0,0.0,0.0,0.0,1.0,0.0,0.9540000000000006,0.9540000000000006,0.0,0.0,1.0,55.0,616.79921,10000.0,85.000001,85.000001,85.000001,85.000001,395.0,0.0,0.0,0.0,1.0,333.33500000000004,51.635999999999996,51.635999999999996,47.592,47.592,34.0,-18.935,30.84,-25.053333333333335,34.035,0.0,1781.949,-1.5,100.0,27.934,28.776,42.262,43.822,0.0,1.0,100.0,0.0,0.0,0.0,0.0,3142.857142857143,3324.6,4166.875,4382.2,305.3935,304.1245,314.83975,314.06125,21.958199999999998,20.6112,21.96,21.4664,314.999998,314.999998,324.999988,324.999988,99.55917142857143,99.50728333333333,99.56788571428571,99.54735714285714,0.21125000000000016,0.07733333333333325,-0.009666666666666665,0.21433333333333335,-0.030000000000001137,-0.044285714285713595,1.556,1.508,38.239000000000004,29.82,38.25,35.165,56.076,35.166,59.808,52.664500000000004,54.0,34.2755,58.3905,50.9765,53.150999999999996,33.803,58.3075,50.376333333333335,-0.1935,0.03299999999999992,0.10999,0.10784,0.0,213.57,213.685,210.41666666666669,210.41666666666669,0.0,0.0
20,0.0,1.0,0.0,1.0,1.0,0.0,0.0,1.0,0.0,100.0,1.0,1.1856,26.0,0.0,0.0,0.0,51.999998,0.0,26.0,26.0,26.0,26.0,0.1637777777777778,0.27590000000000003,0.054766666666666665,292.267,-2.8273,-2.5791250000000003,-1.60535,-1.5168,-208.6,215.9375,190.5735,0.0,0.0,0.0,0.0,0.040600000000000004,-5.498166666666667,-5.498166666666667,-0.5536,-1.1963333333333332,0.09274999999999989,0.32099999999999973,68.363,0.10640000000000001,-0.22012500000000002,-1.6739999999999995,100.0,1.0,1.0,210.7266666666667,0.0,0.0,0.0,0.0,0.0,0.0,0.0,8931.9,0.0,55.0,5.0,246.07999999999998,0.0,0.0,0.0,0.0,0.0,0.0,0.0,0.0,1.004999999999999,1.004999999999999,0.0,0.0,0.0,55.0,616.79921,10000.0,85.000001,85.000001,85.000001,85.000001,395.0,0.0,0.0,0.0,1.0,333.33500000000004,52.811,52.811,46.829,46.829,34.0,-17.6525,29.232,-22.493333333333332,37.6,0.0,1781.897,-0.7949999999999982,100.0,27.475,28.379,42.886,44.287,0.0,1.0,100.0,0.0,0.0,0.0,0.0,2765.4285714285716,3268.7,4100.25,4399.3,306.531,304.515,314.775,313.84475,21.9674,20.6169,21.9706,21.4757,314.999998,314.999998,324.999988,324.999988,99.55918571428572,99.5073,99.56802857142857,99.54751428571429,0.1887500000000002,0.04833333333333334,0.02016666666666667,0.23466666666666666,-0.041666666666671404,-0.05857142857143316,1.4975,1.437,38.296,29.855666666666664,38.316,35.2235,56.064,35.210499999999996,59.8495,52.7345,53.988,34.3165,58.429,51.044,53.138,33.842666666666666,58.342,50.44266666666667,-0.14700000000000002,-0.014499999999999957,0.10791500000000001,0.102915,0.0,213.96,214.07999999999998,210.7266666666667,210.7266666666667,0.0,0.0
21,0.0,1.0,0.0,1.0,1.0,0.0,0.0,1.0,0.0,100.0,1.0,1.1856,26.0,0.0,0.0,0.0,51.999998,0.0,26.0,26.0,26.0,26.0,0.139,0.28090000000000015,-0.0539,292.587,-2.7799,-2.644125,-1.6528,-1.4963,-205.11,215.94,190.5505,0.0,0.0,0.0,0.0,0.042633333333333336,-5.498166666666667,-5.498166666666667,-0.5784,0.54,0.053625000000000034,-1.354,68.495,0.10890000000000001,-0.22355,-0.742,100.0,1.0,1.0,211.37333333333333,0.0,0.0,0.0,0.0,0.0,0.0,0.0,8959.4,0.0,55.0,5.0,246.55666666666667,1.0,0.0,0.0,0.0,0.0,0.0,0.0,0.0,1.056000000000001,1.056000000000001,0.0,0.0,1.0,55.0,616.79921,10000.0,85.000001,85.000001,85.000001,85.000001,395.0,0.0,0.0,0.0,1.0,166.665,52.2,52.2,48.172,48.172,34.0,-22.61,26.272,-23.259999999999998,32.182500000000005,0.0,1781.847,0.33999999999999986,100.0,27.735,28.637999999999998,42.24,43.829,0.0,1.0,100.0,0.0,0.0,0.0,0.0,3100.714285714286,3131.0,4026.5,4022.7,305.591,304.675,315.18825,314.91375,21.9768,20.622700000000002,21.9808,21.4848,314.999998,314.999998,324.999988,324.999988,99.5592,99.5073,99.56817142857143,99.54765714285715,0.12199999999999989,-0.011666666666666603,-0.004,0.225,-0.05666666666667197,-0.044285714285713595,1.6135000000000002,1.5713333333333332,38.355000000000004,29.892,38.379999999999995,35.28,56.054,35.2485,59.8795,52.7905,53.977999999999994,34.352000000000004,58.4565,51.098,53.128,33.876666666666665,58.367,50.496,-0.06349999999999989,-0.0990000000000002,0.10788,0.10326,0.0,214.445,214.485,211.37333333333333,211.37333333333333,0.0,0.0
22,0.0,1.0,0.0,1.0,1.0,0.0,0.0,1.0,0.0,100.0,1.0,1.1856,26.0,0.0,0.0,0.0,51.999998,0.0,26.0,26.0,26.0,26.0,0.07444444444444431,0.2714000000000001,0.03066666666666667,292.007,-2.6957,-2.662,-1.63385,-1.4986000000000002,-201.82,215.9425,190.528,0.0,0.0,0.0,0.0,0.044533333333333334,-5.498166666666667,-5.498166666666667,-0.5565,0.15233333333333335,0.04699999999999993,-0.7969999999999997,68.626,0.078,-0.20570000000000002,0.3460000000000001,100.0,1.0,1.0,211.57,0.0,0.0,0.0,0.0,0.0,0.0,0.0,8967.7,0.0,55.0,5.0,247.02666666666664,0.0,0.0,0.0,0.0,0.0,0.0,0.0,0.0,1.1039999999999992,1.1039999999999992,0.0,0.0,0.0,55.0,616.79921,10000.0,85.000001,85.000001,85.000001,85.000001,395.0,0.0,0.0,0.0,1.0,166.665,52.185,52.185,47.028,47.028,34.0,-22.8,24.476,-28.439999999999998,32.03,0.0,1781.798,0.6900000000000013,100.0,27.973,28.628,42.874,44.012,0.0,1.0,100.0,0.0,0.0,0.0,0.0,3013.714285714286,3089.1,4273.625,4295.9,305.737,304.7605,314.54375,314.223,21.985599999999998,20.6281,21.9908,21.4935,314.999998,314.999998,324.999988,324.999988,99.55921428571429,99.50731666666667,99.56831428571428,99.5478,0.08499999999999996,-0.05033333333333334,-0.0605,0.16133333333333336,-0.045000000000001705,-0.030000000000001137,1.477,1.487,38.41,29.925333333333334,38.443,35.334,56.041,35.288,59.9185,52.8545,53.966,34.3885,58.493,51.1595,53.114,33.912,58.4,50.556333333333335,-0.026999999999999913,-0.13149999999999995,0.10444500000000001,0.10337500000000001,0.0,214.875,214.835,211.57,211.57,0.0,0.0
23,0.0,1.0,0.0,1.0,1.0,0.0,0.0,1.0,0.0,100.0,1.0,1.1856,26.0,0.0,0.0,0.0,51.999998,0.0,26.0,26.0,26.0,26.0,-0.0033333333333332993,0.2541,-0.0151,292.007,-2.6959,-2.645,-1.53585,-1.5909,-198.32,215.9475,190.5045,0.0,0.0,0.0,0.0,0.04656666666666667,-5.498166666666667,-5.498166666666667,-0.5755,-0.3516666666666667,0.017249999999999988,0.040000000000000036,68.76,0.0251,-0.23342500000000002,0.9779999999999998,100.0,1.0,1.0,212.07999999999998,0.0,0.0,0.0,0.0,0.0,0.0,0.0,8989.4,0.0,55.0,5.0,247.51,1.0,0.0,0.0,0.0,0.0,0.0,0.0,0.0,1.1550000000000011,1.1550000000000011,0.0,0.0,1.0,55.0,616.79921,10000.0,85.000001,85.000001,85.000001,85.000001,395.0,0.0,0.0,0.0,1.0,166.665,51.605000000000004,51.605000000000004,47.989,47.989,34.0,-25.9775,23.84,-26.413333333333334,28.427500000000002,0.0,1781.747,0.7850000000000001,100.0,28.47,28.344,43.357,43.991,0.0,1.0,100.0,0.0,0.0,0.0,0.0,3251.142857142857,3186.9,3956.0,4008.0,304.888,304.752,315.147,314.872,21.9951,20.6337,22.0014,21.5027,314.999998,314.999998,324.999988,324.999988,99.55922857142858,99.50731666666667,99.56845714285714,99.54794285714286,0.06574999999999998,-0.07399999999999995,-0.0945,0.11866666666666667,-0.03499999999999659,-0.04571428571428271,1.499,1.539,38.469,29.96066666666667,38.509,35.391999999999996,56.028,35.326499999999996,59.953,52.913,53.953,34.4245,58.525,51.216,53.101,33.946333333333335,58.4295,50.611666666666665,-0.01849999999999996,-0.14250000000000007,0.10011500000000001,0.10913,0.0,215.29000000000002,215.215,212.07999999999998,212.07999999999998,0.0,0.0
24,0.0,1.0,0.0,1.0,1.0,0.0,0.0,1.0,0.0,100.0,1.0,1.1856,26.0,0.0,0.0,0.0,51.999998,0.0,26.0,26.0,26.0,26.0,-0.06911111111111101,0.26660000000000017,-0.0023,292.358,-2.6967,-2.678,-1.5619,-1.5489000000000002,-194.81,215.95,190.480625,0.0,0.0,0.0,0.0,0.048600000000000004,-5.498166666666667,-5.498166666666667,-0.5797,-0.5503333333333333,0.0016249999999999876,-0.33999999999999986,68.895,-0.0216,-0.21630000000000002,1.2199999999999998,100.0,1.0,1.0,212.42000000000002,0.0,0.0,0.0,0.0,0.0,0.0,0.0,9003.7,0.0,55.0,5.0,247.99666666666667,0.0,0.0,0.0,0.0,0.0,0.0,0.0,0.0,1.2059999999999995,1.2059999999999995,0.0,0.0,0.0,55.0,616.79921,10000.0,85.000001,85.000001,85.000001,85.000001,395.0,0.0,0.0,0.0,1.0,166.665,52.872,52.872,47.058,47.058,34.0,-25.1775,19.688,-32.95666666666666,25.975,0.0,1781.696,0.7199999999999989,100.0,28.19,28.062,43.496,43.653999999999996,0.0,1.0,100.0,0.0,0.0,0.0,0.0,2995.857142857143,2884.9,4353.875,4075.3,305.842,305.599,314.299,314.77175,22.0045,20.6391,22.0119,21.5118,314.999998,314.999998,324.999988,324.999988,99.55922857142858,99.50731666666667,99.5686,99.5481,0.021500000000000075,-0.1233333333333334,-0.148,0.07050000000000001,-0.045000000000001705,-0.03857142857143003,1.472,1.5226666666666668,38.528,29.994333333333334,38.575,35.448499999999996,56.010999999999996,35.3665,59.9915,52.972,53.938,34.461,58.561,51.2725,53.084,33.98133333333333,58.462,50.667,-0.02200000000000002,-0.14100000000000001,0.09905000000000001,0.11105500000000001,0.0,215.735,215.625,212.42000000000002,212.42000000000002,0.0,0.0
25,0.0,1.0,0.0,1.0,1.0,0.0,0.0,1.0,0.0,100.0,1.0,1.1856,26.0,0.0,0.0,0.0,51.999998,0.0,26.0,26.0,26.0,26.0,-0.10777777777777786,0.26690000000000014,-0.06833333333333334,292.191,-2.7356,-2.6652500000000003,-1.5556,-1.5733000000000001,-191.29,215.9525,190.45525,0.0,0.0,0.0,0.0,0.05066666666666667,-5.498166666666667,-5.498166666666667,-0.6128,0.06066666666666667,-0.016999999999999904,-0.5529999999999999,69.027,-0.0582,-0.22537500000000002,1.2539999999999996,100.0,1.0,1.0,212.97,0.0,0.0,0.0,0.0,0.0,0.0,0.0,9027.1,0.0,55.0,5.0,248.47,1.0,0.0,0.0,0.0,0.0,0.0,0.0,0.0,1.256999999999998,1.256999999999998,0.0,0.0,1.0,55.0,616.79921,10000.0,85.000001,85.000001,85.000001,85.000001,395.0,0.0,0.0,0.0,1.0,111.11,51.666,51.666,47.913,47.913,34.0,-29.439999999999998,22.378,-30.766666666666666,24.12,0.0,1781.646,0.6400000000000006,100.0,28.458,28.037,43.469,43.094,0.0,1.0,100.0,0.0,0.0,0.0,0.0,3314.285714285714,3281.3,3993.125,3983.4,304.855,304.492,315.1745,315.0215,22.0139,20.6447,22.0223,21.5208,314.999998,314.999998,324.999988,324.999988,99.55922857142858,99.50735,99.56874285714285,99.54824285714285,0.00649999999999995,-0.128,-0.17883333333333334,0.04683333333333334,-0.03333333333333144,-0.06428571428571672,1.546,1.5936666666666668,38.587,30.029333333333334,38.64,35.504999999999995,55.994,35.4095,60.027,53.028999999999996,53.921,34.5005,58.594,51.3275,53.067,34.019666666666666,58.492,50.720666666666666,-0.03149999999999986,-0.13500000000000023,0.10136500000000001,0.10982000000000001,0.0,216.14499999999998,216.04000000000002,212.97,212.97,0.0,0.0
26,0.0,1.0,0.0,1.0,1.0,0.0,0.0,1.0,0.0,100.0,1.0,1.1856,26.0,0.0,0.0,0.0,51.999998,0.0,26.0,26.0,26.0,26.0,-0.123,0.2662,0.06166666666666667,291.061,-2.6573,-2.769625,-1.5803500000000001,-1.5921,-187.76999999999998,215.9525,190.4295,0.0,0.0,0.0,0.0,0.052700000000000004,-5.498166666666667,-5.498166666666667,-0.5696,0.6,-0.06349999999999989,-1.08,69.164,-0.0782,-0.19712500000000002,1.21,100.0,1.0,1.0,213.10666666666668,0.0,0.0,0.0,0.0,0.0,0.0,0.0,9032.8,0.0,55.0,5.0,248.96,0.0,0.0,0.0,0.0,0.0,0.0,0.0,0.0,1.3079999999999998,1.3079999999999998,0.0,0.0,0.0,55.0,616.79921,10000.0,85.000001,85.000001,85.000001,85.000001,395.0,0.0,0.0,0.0,1.0,111.11,51.391999999999996,51.391999999999996,46.036,46.036,34.0,-29.4925,19.852,-40.04,26.5575,0.0,1781.596,0.4250000000000007,100.0,29.309,28.6,44.251,43.394,0.0,1.0,100.0,0.0,0.0,0.0,0.0,3356.4285714285716,2917.1,4697.375,4424.4,304.771,305.3235,313.55175,313.94825,22.023699999999998,20.6503,22.033,21.53,314.999998,314.999998,324.999988,324.999988,99.55924285714286,99.50736666666667,99.5689,99.54838571428571,-0.0029999999999998916,-0.14933333333333332,-0.20516666666666666,0.017666666666666667,-0.045000000000001705,-0.04999999999999716,1.4055,1.453,38.647999999999996,30.064333333333334,38.707,35.5625,55.982,35.454499999999996,60.0695,53.09,53.909,34.542500000000004,58.6335,51.385999999999996,53.054,34.059333333333335,58.5285,50.77766666666667,-0.044499999999999984,-0.11949999999999994,0.10703000000000001,0.10447000000000001,0.0,216.60500000000002,216.5,213.10666666666668,213.10666666666668,0.0,0.0
27,0.0,1.0,0.0,1.0,1.0,0.0,0.0,1.0,0.0,100.0,1.0,1.1856,26.0,0.0,0.0,0.0,51.999998,0.0,26.0,26.0,26.0,26.0,-0.11011111111111105,0.23350000000000004,-0.05873333333333334,291.733,-2.6146,-2.746875,-1.56565,-1.6677,-184.23000000000002,215.95,190.405,0.0,0.0,0.0,0.0,0.054766666666666665,-5.498166666666667,-5.498166666666667,-0.6026,-0.9766666666666667,-0.06487500000000024,0.7160000000000002,69.294,-0.0857,-0.247375,0.9639999999999995,100.0,1.0,1.0,213.69333333333333,0.0,0.0,0.0,0.0,0.0,0.0,0.0,9057.7,0.0,55.0,5.0,249.43333333333334,1.0,0.0,0.0,0.0,0.0,0.0,0.0,0.0,1.3589999999999982,1.3589999999999982,0.0,0.0,1.0,55.0,616.79921,10000.0,85.000001,85.000001,85.000001,85.000001,395.0,0.0,0.0,0.0,1.0,111.11,51.727000000000004,51.727000000000004,46.875,46.875,34.0,-27.247500000000002,21.332,-32.31666666666666,24.6625,0.0,1781.545,0.3099999999999987,100.0,29.168,28.11,44.956,43.649,0.0,1.0,100.0,0.0,0.0,0.0,0.0,3202.285714285714,3094.2,4009.0,3966.5,305.1305,305.04175,315.009,315.02325,22.0332,20.6557,22.0438,21.5393,314.999998,314.999998,324.999988,324.999988,99.55925714285715,99.50738333333334,99.56905714285715,99.54852857142858,0.006750000000000256,-0.1363333333333333,-0.19566666666666666,0.029500000000000002,-0.041666666666671404,-0.04285714285714448,1.4905,1.5333333333333332,38.708,30.098333333333336,38.774,35.6205,55.965,35.497,60.1105,53.15,53.894,34.5815,58.6725,51.444,53.038,34.097,58.564,50.834,-0.058499999999999996,-0.10749999999999993,0.10194,0.10674000000000002,0.0,216.935,216.85000000000002,213.69333333333333,213.69333333333333,0.0,0.0
28,0.0,1.0,0.0,1.0,1.0,0.0,0.0,1.0,0.0,100.0,1.0,1.1856,26.0,0.0,0.0,0.0,51.999998,0.0,26.0,26.0,26.0,26.0,-0.10277777777777786,0.268,-0.04933333333333333,291.87,-2.6503,-2.72675,-1.5168,-1.6261,-181.11,215.945,190.3825,0.0,0.0,0.0,0.0,0.05656666666666667,-5.498166666666667,-5.498166666666667,-0.6016,0.6526666666666666,-0.06887500000000024,-0.47999999999999954,69.40899999999999,-0.08510000000000001,-0.21795,0.9060000000000006,100.0,1.0,1.0,214.09333333333333,0.0,0.0,0.0,0.0,0.0,0.0,0.0,9074.7,0.0,55.0,5.0,249.84666666666666,0.0,0.0,0.0,0.0,0.0,0.0,0.0,0.0,1.404,1.404,0.0,0.0,0.0,55.0,616.79921,10000.0,85.000001,85.000001,85.000001,85.000001,395.0,0.0,0.0,0.0,1.0,111.11,51.743,51.743,47.531,47.531,34.0,-29.09,19.802,-32.913333333333334,23.9775,0.0,1781.5,0.18499999999999872,100.0,29.11,28.225,44.203,43.253,0.0,1.0,100.0,0.0,0.0,0.0,0.0,3353.857142857143,2936.5,4125.125,4059.3,304.8025,305.3535,314.89325,314.84625,22.0418,20.6606,22.0529,21.5472,314.999998,314.999998,324.999988,324.999988,99.55925714285715,99.5074,99.56918571428571,99.54865714285714,0.0034999999999998366,-0.14300000000000002,-0.20700000000000002,0.0165,-0.04833333333333201,-0.04571428571428271,1.5335,1.5586666666666669,38.760999999999996,30.128666666666668,38.831,35.67,55.953,35.535,60.1415,53.2,53.882999999999996,34.6165,58.701,51.4915,53.025999999999996,34.13033333333333,58.59,50.88066666666667,-0.06800000000000006,-0.10050000000000026,0.10129500000000001,0.10783500000000001,0.0,217.335,217.26999999999998,214.09333333333333,214.09333333333333,0.0,0.0
29,0.0,1.0,0.0,1.0,1.0,0.0,0.0,1.0,0.0,100.0,1.0,1.1856,26.0,0.0,0.0,0.0,51.999998,0.0,26.0,26.0,26.0,26.0,-0.10111111111111104,0.2552000000000001,0.0111,291.489,-2.5924,-2.781625,-1.55435,-1.6022,-177.57,215.9375,190.356125,0.0,0.0,0.0,0.0,0.05863333333333334,-5.498166666666667,-5.498166666666667,-0.6058,-0.7346666666666667,-0.06037500000000007,0.8479999999999999,69.544,-0.07440000000000001,-0.2172,0.49600000000000044,100.0,1.0,1.0,214.32999999999998,0.0,0.0,0.0,0.0,0.0,0.0,0.0,9084.6,0.0,55.0,5.0,250.32999999999998,1.0,0.0,0.0,0.0,0.0,0.0,0.0,0.0,1.4549999999999983,1.4549999999999983,0.0,0.0,1.0,55.0,616.79921,10000.0,85.000001,85.000001,85.000001,85.000001,395.0,0.0,0.0,0.0,1.0,111.11,51.727000000000004,51.727000000000004,46.494,46.494,34.0,-26.99,22.758,-33.57,27.165,0.0,1781.449,0.08500000000000085,100.0,28.897,27.949,44.647999999999996,43.433,0.0,1.0,100.0,0.0,0.0,0.0,0.0,3246.4285714285716,3122.7,4258.375,4235.8,304.949,304.84475,314.41625,314.4,22.0512,20.666,22.0636,21.5565,314.999998,314.999998,324.999988,324.999988,99.55925714285715,99.5074,99.56934285714286,99.54881428571429,0.01949999999999985,-0.119,-0.17400000000000002,0.051833333333333335,-0.03833333333332689,-0.03714285714285381,1.473,1.4743333333333333,38.82,30.162666666666667,38.897,35.728,55.936,35.576,60.183,53.2605,53.867000000000004,34.6545,58.74,51.55,53.009,34.166666666666664,58.6255,50.937333333333335,-0.07650000000000001,-0.08000000000000007,0.09956500000000001,0.111405,0.0,217.695,217.635,214.32999999999998,214.32999999999998,0.0,0.0
30,0.0,1.0,0.0,1.0,1.0,0.0,0.0,1.0,0.0,100.0,1.0,1.1856,26.0,0.0,0.0,0.0,51.999998,0.0,26.0,26.0,26.0,26.0,-0.07499999999999996,0.266,0.015000000000000001,291.046,-2.6605,-2.6563749999999997,-1.5030999999999999,-1.6514,-174.01999999999998,215.925,190.3295,0.0,0.0,0.0,0.0,0.060700000000000004,-5.498166666666667,-5.498166666666667,-0.602,0.841,-0.056375000000000064,-0.5190000000000001,69.673,-0.064,-0.216625,0.5800000000000001,100.0,1.0,1.0,214.7866666666667,0.0,0.0,0.0,0.0,0.0,0.0,0.0,9104.0,0.0,55.0,5.0,250.79666666666668,0.0,0.0,0.0,0.0,0.0,0.0,1.0,0.0,1.5060000000000002,1.5060000000000002,0.0,0.0,0.0,55.0,616.79921,10000.0,85.000001,85.000001,85.000001,85.000001,395.0,0.0,0.0,0.0,1.0,111.11,50.781,50.781,46.89,46.89,34.0,-29.2075,21.042,-32.983333333333334,27.205,0.0,1781.398,-0.07000000000000028,100.0,29.597,28.849,44.352000000000004,43.633,0.0,1.0,100.0,0.0,0.0,0.0,0.0,3483.142857142857,3025.9,4306.0,4167.5,304.3745,305.0025,314.4675,314.45375,22.0609,20.6718,22.073999999999998,21.5656,314.999998,314.999998,324.999988,324.999988,99.55925714285715,99.50743333333334,99.56948571428572,99.54895714285715,0.032500000000000195,-0.1173333333333334,-0.17383333333333334,0.048666666666666664,-0.04833333333333201,-0.04999999999999716,1.482,1.5043333333333333,38.881,30.198666666666668,38.963,35.7855,55.925,35.62,60.219,53.319,53.855000000000004,34.695499999999996,58.774,51.6065,52.997,34.206,58.6565,50.992333333333335,-0.09149999999999991,-0.08000000000000007,0.101915,0.11189500000000001,0.0,218.14,218.095,214.7866666666667,214.7866666666667,0.0,0.0
31,0.0,1.0,0.0,1.0,1.0,0.0,0.0,1.0,0.0,100.0,1.0,1.1856,26.0,0.0,0.0,0.0,51.999998,0.0,26.0,26.0,26.0,26.0,-0.06888888888888889,0.26170000000000004,-0.021533333333333335,290.924,-2.7216,-2.643,-1.54925,-1.6484,-170.45999999999998,215.9125,190.30375,0.0,0.0,0.0,0.0,0.06276666666666667,-5.498166666666667,-5.498166666666667,-0.5906,-0.669,-0.04712499999999986,0.6790000000000003,69.804,-0.046900000000000004,-0.222,0.1479999999999997,100.0,1.0,1.0,215.0966666666667,0.0,0.0,0.0,0.0,0.0,0.0,0.0,9117.2,0.0,55.0,5.0,251.26999999999998,1.0,0.0,0.0,0.0,0.0,0.0,1.0,0.0,1.5569999999999986,1.5569999999999986,0.0,0.0,1.0,55.0,616.79921,10000.0,85.000001,85.000001,85.000001,85.000001,395.0,0.0,0.0,0.0,1.0,166.665,51.346000000000004,51.346000000000004,45.563,45.563,34.0,-26.322499999999998,23.387999999999998,-32.733333333333334,29.69,0.0,1781.346,-0.15500000000000114,100.0,29.299,28.698999999999998,45.120000000000005,44.207,0.0,1.0,100.0,0.0,0.0,0.0,0.0,3189.142857142857,3232.9,4320.875,4287.5,305.252,304.7635,314.263,314.337,22.0703,20.6774,22.0848,21.5751,314.999998,314.999998,324.999988,324.999988,99.55927142857144,99.50743333333334,99.56964285714285,99.54911428571428,0.046250000000000124,-0.08999999999999997,-0.14716666666666667,0.078,-0.036666666666668846,-0.054285714285711606,1.459,1.456,38.94,30.234,39.03,35.844,55.91,35.6625,60.260999999999996,53.3815,53.841,34.7345,58.813,51.666,52.982,34.24333333333333,58.692499999999995,51.050666666666665,-0.09349999999999992,-0.0714999999999999,0.10841500000000001,0.11411,0.0,218.495,218.48000000000002,215.0966666666667,215.0966666666667,0.0,0.0
32,0.0,1.0,0.0,1.0,1.0,0.0,0.0,1.0,0.0,100.0,1.0,1.1856,26.0,0.0,0.0,0.0,51.999998,0.0,26.0,26.0,26.0,26.0,-0.05999999999999994,0.2659,-0.055,291.214,-2.6616,-2.74,-1.61695,-1.5538,-167.11,215.9,190.279625,0.0,0.0,0.0,0.0,0.06470000000000001,-5.498166666666667,-5.498166666666667,-0.6064,0.17666666666666667,-0.06674999999999986,0.30600000000000005,69.923,-0.0354,-0.226325,0.08999999999999986,100.0,1.0,1.0,215.61,0.0,0.0,0.0,0.0,0.0,0.0,0.0,9138.9,0.0,55.0,5.0,251.69666666666666,0.0,0.0,0.0,0.0,0.0,0.0,1.0,0.0,1.6050000000000004,1.6050000000000004,0.0,0.0,0.0,55.0,616.79921,10000.0,85.000001,85.000001,85.000001,85.000001,395.0,0.0,0.0,0.0,1.0,333.33500000000004,51.239,51.239,46.555,46.555,34.0,-25.7125,24.192,-31.93,27.775,0.0,1781.298,-0.2049999999999983,100.0,29.306,28.764,44.7,44.018,0.0,1.0,100.0,0.0,0.0,0.0,0.0,3258.0,3125.7,4213.875,4196.1,304.9405,304.92575,314.739,314.63125,22.0793,20.6828,22.0946,21.5837,314.999998,314.999998,324.999988,324.999988,99.55927142857144,99.50745,99.56977142857143,99.54924285714286,0.06475000000000009,-0.07499999999999996,-0.14516666666666667,0.09066666666666667,-0.05666666666667197,-0.05571428571428072,1.5354999999999999,1.5536666666666668,38.995000000000005,30.267666666666663,39.091,35.897999999999996,55.897,35.702,60.2945,53.436,53.83,34.771,58.844,51.7185,52.97,34.278333333333336,58.7205,51.10166666666667,-0.09749999999999992,-0.0674999999999999,0.11138500000000001,0.10740000000000001,0.0,218.885,218.86,215.61,215.61,0.0,0.0
33,0.0,1.0,0.0,1.0,1.0,0.0,0.0,1.0,0.0,100.0,1.0,1.1856,26.0,0.0,0.0,0.0,51.999998,0.0,26.0,26.0,26.0,26.0,-0.03444444444444439,0.26080000000000014,-0.043533333333333334,291.306,-2.6784,-2.724875,-1.55495,-1.6240999999999999,-163.75,215.885,190.2545,0.0,0.0,0.0,0.0,0.06666666666666667,-5.498166666666667,-5.498166666666667,-0.611,-0.401,-0.05250000000000021,1.4080000000000004,70.04599999999999,-0.025500000000000002,-0.215375,0.012000000000000455,100.0,1.0,1.0,215.87666666666667,0.0,0.0,0.0,0.0,0.0,0.0,0.0,9150.2,0.0,55.0,5.0,252.14,1.0,0.0,0.0,0.0,0.0,0.0,1.0,0.0,1.6529999999999987,1.6529999999999987,0.0,0.0,1.0,55.0,616.79921,10000.0,85.000001,85.000001,85.000001,85.000001,395.0,0.0,0.0,0.0,1.0,333.33500000000004,51.788,51.788,46.356,46.356,34.0,-23.9925,23.546,-31.093333333333334,30.2725,0.0,1781.249,-0.3049999999999997,100.0,29.064,28.524,44.608000000000004,44.099000000000004,0.0,1.0,100.0,0.0,0.0,0.0,0.0,3112.0,3063.4,4243.375,4318.8,305.4215,305.13275,314.52225,314.24675,22.0881,20.688,22.1045,21.5925,314.999998,314.999998,324.999988,324.999988,99.55928571428572,99.50745,99.56992857142858,99.5494,0.07600000000000007,-0.07366666666666666,-0.13233333333333336,0.09183333333333334,-0.04333333333332945,-0.054285714285711606,1.487,1.4853333333333334,39.05,30.299999999999997,39.153,35.953,55.885,35.7375,60.329499999999996,53.4925,53.818,34.804,58.8765,51.772999999999996,52.957,34.31,58.75,51.155,-0.10450000000000004,-0.06000000000000005,0.10454000000000001,0.109215,0.0,219.25,219.25,215.87666666666667,215.87666666666667,0.0,0.0
34,0.0,1.0,0.0,1.0,1.0,0.0,0.0,1.0,0.0,100.0,1.0,1.1856,26.0,0.0,0.0,0.0,51.999998,0.0,26.0,26.0,26.0,26.0,-0.009888888888888947,0.26249999999999996,-0.0711,291.702,-2.6995,-2.6728750000000003,-1.62005,-1.5821,-160.18,215.87,190.22675,0.0,0.0,0.0,0.0,0.06873333333333334,-5.498166666666667,-5.498166666666667,-0.6429,-0.796,-0.021749999999999936,-0.08699999999999974,70.174,-0.0142,-0.22742500000000002,-0.05600000000000005,100.0,1.0,1.0,216.32666666666665,0.0,0.0,0.0,0.0,0.0,0.0,0.0,9169.3,0.0,55.0,5.0,252.60333333333335,0.0,0.0,0.0,0.0,0.0,0.0,1.0,0.0,1.7040000000000006,1.7040000000000006,0.0,0.0,0.0,55.0,616.79921,10000.0,85.000001,85.000001,85.000001,85.000001,395.0,0.0,0.0,0.0,1.0,333.33500000000004,51.987,51.987,47.318,47.318,34.0,-24.4625,23.304000000000002,-29.833333333333336,28.3375,0.0,1781.199,-0.3049999999999997,100.0,28.639,28.359,44.182,44.215,0.0,1.0,100.0,0.0,0.0,0.0,0.0,3181.714285714286,3001.4,4079.0,4149.2,305.19,305.218,315.01725,314.545,22.0973,20.6935,22.1149,21.6018,314.999998,314.999998,324.999988,324.999988,99.55928571428572,99.50746666666667,99.57007142857142,99.54954285714285,0.08499999999999996,-0.05799999999999994,-0.1245,0.093,-0.04833333333333201,-0.05285714285714249,1.521,1.5193333333333332,39.108000000000004,30.334666666666664,39.218,36.010999999999996,55.870999999999995,35.7755,60.3635,53.5525,53.805,34.839,58.908500000000004,51.8305,52.943,34.343333333333334,58.7785,51.211333333333336,-0.11149999999999993,-0.04800000000000004,0.103925,0.10209000000000001,0.0,219.62,219.615,216.32666666666665,216.32666666666665,0.0,0.0
35,0.0,1.0,0.0,1.0,1.0,0.0,0.0,1.0,0.0,100.0,1.0,1.1856,26.0,0.0,0.0,0.0,51.999998,0.0,26.0,26.0,26.0,26.0,0.01388888888888884,0.24650000000000016,-0.0567,291.763,-2.697,-2.661125,-1.60165,-1.5947,-156.38,215.85250000000002,190.195,0.0,0.0,0.0,0.0,0.07093333333333333,-5.498166666666667,-5.498166666666667,-0.6845,-0.224,-0.03224999999999989,-0.9939999999999998,70.30799999999999,0.0,-0.228225,-0.16000000000000014,100.0,1.0,1.0,216.82999999999998,0.0,0.0,0.0,0.0,0.0,0.0,0.0,9190.6,0.0,55.0,5.0,253.08333333333334,1.0,0.0,0.0,0.0,0.0,0.0,1.0,0.0,1.7579999999999991,1.7579999999999991,0.0,0.0,1.0,55.0,616.79921,10000.0,85.000001,85.000001,85.000001,85.000001,395.0,0.0,0.0,0.0,1.0,166.665,51.498,51.498,46.967,46.967,34.0,-24.6725,26.336,-28.08,27.795,0.0,1781.145,-0.22499999999999787,100.0,28.446,28.677,43.886,43.706,0.0,1.0,100.0,0.0,0.0,0.0,0.0,3221.4285714285716,3302.8,4029.875,3950.0,305.211,304.27825,315.103,315.10125,22.1069,20.6996,22.125799999999998,21.6114,314.999998,314.999998,324.999988,324.999988,99.5593,99.50748333333334,99.57024285714286,99.54968571428572,0.08400000000000007,-0.04899999999999993,-0.10433333333333333,0.11766666666666667,-0.04333333333332945,-0.06142857142857139,1.5535,1.5636666666666668,39.168,30.372666666666667,39.286,36.071,55.855000000000004,35.817,60.3995,53.612,53.789,34.8775,58.942,51.888,52.926,34.38033333333333,58.8085,51.266999999999996,-0.09749999999999992,-0.059499999999999886,0.09967000000000001,0.10842500000000001,0.0,220.03,220.05,216.82999999999998,216.82999999999998,0.0,0.0
36,0.0,1.0,0.0,1.0,1.0,0.0,0.0,1.0,0.0,100.0,1.0,1.1856,26.0,0.0,0.0,0.0,51.999998,0.0,26.0,26.0,26.0,26.0,0.0011111111111110628,0.2671000000000001,0.0516,290.771,-2.7451,-2.6793750000000003,-1.557,-1.5849,-153.22,215.8375,190.167125,0.0,0.0,0.0,0.0,0.0728,-5.498166666666667,-5.498166666666667,-0.6645,0.30233333333333334,-0.06337500000000018,0.1280000000000001,70.423,0.0074,-0.20035,-0.10599999999999987,100.0,1.0,1.0,216.93333333333334,0.0,0.0,0.0,0.0,0.0,0.0,0.0,9195.0,0.0,55.0,5.0,253.49666666666667,0.0,0.0,0.0,0.0,0.0,0.0,1.0,0.0,1.8030000000000008,1.8030000000000008,0.0,0.0,0.0,55.0,616.79921,10000.0,85.000001,85.000001,85.000001,85.000001,395.0,0.0,0.0,0.0,1.0,166.665,51.147,51.147,46.173,46.173,34.0,-25.275,25.66,-30.953333333333333,34.025000000000006,0.0,1781.1,-0.21999999999999886,100.0,29.112000000000002,28.841,44.109,43.984,0.0,1.0,100.0,0.0,0.0,0.0,0.0,3296.4285714285716,3232.3,4446.375,4561.3,304.927,304.65275,314.0615,313.69325,22.1152,20.7048,22.1351,21.6196,314.999998,314.999998,324.999988,324.999988,99.55931428571428,99.50748333333334,99.57037142857143,99.54982857142858,0.09750000000000014,-0.04933333333333334,-0.09433333333333332,0.12733333333333333,-0.036666666666668846,-0.047142857142851824,1.442,1.4316666666666669,39.22,30.405,39.344,36.1225,55.845,35.8535,60.432,53.6655,53.78,34.911,58.9725,51.9395,52.916,34.41266666666667,58.8365,51.31766666666667,-0.09999999999999987,-0.06899999999999995,0.11037000000000001,0.103205,0.0,220.425,220.425,216.93333333333334,216.93333333333334,0.0,0.0
