,ABS Active,ABS Enabled,AID Allow Tire Blankets,AID Auto Blip,AID Auto Clutch,AID Auto Shift,AID Fuel Rate,AID Ideal Line,AID Mech Damage,AID Stability,AID Tire Wear Rate,Air Density,Air Temp,Ballast,Best Lap Delta,Best Lap Time,Brake Bias,Brake Pos,Brake Temp FL,Brake Temp FR,Brake Temp RL,Brake Temp RR,CG Accel Lateral,CG Accel Longitudinal,CG Accel Vertical,CG Height,Camber FL,Camber FR,Camber RL,Camber RR,Car Coord X,Car Coord Y,Car Coord Z,Car Damage Front,Car Damage Left,Car Damage Rear,Car Damage Right,Car Pos Norm,Caster FL,Caster FR,Chassis Pitch Angle,Chassis Pitch Rate,Chassis Roll Angle,Chassis Roll Rate,Chassis Velocity X,Chassis Velocity Y,Chassis Velocity Z,Chassis Yaw Rate,Clutch Pos,DRS Active,DRS Available,Drive Train Speed,ERS Heat Charging,ERS Is Charging,ERS Max Energy,ERS Power Level,ERS Recovery Level,Engine Brake Setting,Engine Limiter,Engine RPM,Flags,Fuel Level,Gear,Ground Speed,HR Sample Clock,In Pit,KERS Charge,KERS Deployed Energy,KERS Input,KERS Max Energy,LR Sample Clock,Lap Invalidated,Lap Time,Lap Time2,Last Lap Time,Last Sector Time,MR Sample Clock,Max Fuel,Max Power,Max RPM,Max Sus Travel FL,Max Sus Travel FR,Max Sus Travel RL,Max Sus Travel RR,Max Torque,Max Turbo Boost,Num Tires Off Track,Penalties Enabled,Position,Raw Data Sample Rate,Ride Height FL,Ride Height FR,Ride Height RL,Ride Height RR,Road Temp,Self Align Torque FL,Self Align Torque FR,Self Align Torque RL,Self Align Torque RR,Session Lap Count,Session Time Left,Steering Angle,Surface Grip,Suspension Travel FL,Suspension Travel FR,Suspension Travel RL,Suspension Travel RR,TC Active,TC Enabled,Throttle Pos,Tire Dirt Level FL,Tire Dirt Level FR,Tire Dirt Level RL,Tire Dirt Level RR,Tire Load FL,Tire Load FR,Tire Load RL,Tire Load RR,Tire Loaded Radius FL,Tire Loaded Radius FR,Tire Loaded Radius RL,Tire Loaded Radius RR,Tire Pressure FL,Tire Pressure FR,Tire Pressure RL,Tire Pressure RR,Tire Radius FL,Tire Radius FR,Tire Radius RL,Tire Radius RR,Tire Rubber Grip FL,Tire Rubber Grip FR,Tire Rubber Grip RL,Tire Rubber Grip RR,Tire Slip Angle FL,Tire Slip Angle FR,Tire Slip Angle RL,Tire Slip Angle RR,Tire Slip Ratio FL,Tire Slip Ratio FR,Tire Slip Ratio RL,Tire Slip Ratio RR,Tire Temp Core FL,Tire Temp Core FR,Tire Temp Core RL,Tire Temp Core RR,Tire Temp Inner FL,Tire Temp Inner FR,Tire Temp Inner RL,Tire Temp Inner RR,Tire Temp Middle FL,Tire Temp Middle FR,Tire Temp Middle RL,Tire Temp Middle RR,Tire Temp Outer FL,Tire Temp Outer FR,Tire Temp Outer RL,Tire Temp Outer RR,Toe In FL,Toe In FR,Toe In RL,Toe In RR,Turbo Boost,Wheel Angular Speed FL,Wheel Angular Speed FR,Wheel Angular Speed RL,Wheel Angular Speed RR,Wind Direction,Wind Speed
0,0.0,1.0,0.0,1.0,1.0,0.0,0.0,1.0,0.0,100.0,1.0,1.1856,26.0,0.0,0.0,0.0,51.99999,0.0,26.0,26.0,26.0,26.0,-0.04155555555555557,0.29380000000000006,0.18745,293.396,-2.7923,-2.628,-1.5564,-1.5116,-275.75,215.5125,190.988,0.0,0.0,0.0,0.0,0.0015666666666666051,-5.498166666666667,-5.498166666666667,-0.561,1.642,-0.004222222222222349,-0.592,65.465,-0.03069999999999995,-0.21965,0.04600000000000026,100.0,1.0,1.0,202.11666666666667,0.0,0.0,0.0,0.0,0.0,0.0,0.0,8567.0,0.0,55.0,5.0,235.64333333333332,0.0,0.0,0.0,0.0,0.0,0.0,0.0,0.0,0.0030000000000001137,0.0030000000000001137,0.0,0.0,0.0,55.0,616.79921,10000.0,85.0,85.0,85.0,85.0,395.0,0.0,0.0,0.0,1.0,20.0,51.269999999999996,51.269999999999996,49.103,49.103,34.0,-29.905,31.744,-29.413333333333334,25.965,0.0,1782.863,0.125,100.0,27.146,27.003,40.391999999999996,40.115,0.0,1.0,100.0,0.0,0.0,0.0,0.0,3365.0,4186.5,4073.875,4075.1000000000004,304.614,301.909,314.9745,314.655,21.743,20.5114,21.7605,21.2832,314.99999,314.99999,324.99998,324.99998,99.55704285714286,99.50716666666666,99.5651,99.54411428571429,0.018000000000000238,-0.07966666666666677,-0.1422,0.08200000000000007,-0.060000000000002274,-0.06333333333333258,1.574,1.533,36.894,29.196333333333335,37.003,34.019999999999996,55.644,34.3855,59.0305,51.259,53.623000000000005,33.602000000000004,57.6755,49.65,52.831,33.208666666666666,57.661,49.09766666666667,-0.0645,-0.08550000000000013,0.10563000000000002,0.11476000000000001,0.0,205.14,205.12,202.11666666666667,202.11666666666667,0.0,0.0
1,0.0,1.0,0.0,1.0,1.0,0.0,0.0,1.0,0.0,100.0,1.0,1.1856,26.0,0.0,0.0,0.0,51.999998,0.0,26.0,26.0,26.0,26.0,-0.06833333333333336,0.3277000000000001,0.140575,292.404,-2.6875999999999998,-2.7045000000000003,-1.5942,-1.5267,-272.41,215.515,190.968,0.0,0.0,0.0,0.0,0.0034999999999999476,-5.498166666666667,-5.498166666666667,-0.47190000000000004,-1.21,-0.04988888888888887,0.014,65.624,-0.022499999999999964,-0.17095000000000002,0.5800000000000001,100.0,1.0,1.0,202.01,0.0,0.0,0.0,0.0,0.0,0.0,0.0,8562.4,0.0,55.0,5.0,236.21333333333334,1.0,0.0,0.0,0.0,0.0,0.0,0.0,0.0,0.053999999999998494,0.053999999999998494,0.0,0.0,1.0,55.0,616.79921,10000.0,85.000001,85.000001,85.000001,85.000001,395.0,0.0,0.0,0.0,1.0,166.665,54.306,54.306,47.226,47.226,34.0,-23.134999999999998,17.058,-38.153333333333336,38.754999999999995,0.0,1782.813,0.38500000000000156,100.0,27.482,27.105,42.376,42.557,0.0,1.0,100.0,0.0,0.0,0.0,0.0,2813.714285714286,2443.9,4828.625,5583.9,306.223,307.018,312.9295,311.13975,21.7526,20.5165,21.7714,21.2924,314.999998,314.999998,324.999988,324.999988,99.55704285714286,99.5072,99.56524285714286,99.54427142857143,0.027750000000000163,-0.10033333333333316,-0.13779999999999992,0.0786,-0.021666666666668277,-0.02499999999999858,1.3226666666666669,1.3475000000000001,36.954,29.228,37.071,34.0775,55.629000000000005,34.4245,59.078,51.329499999999996,53.608000000000004,33.638,57.7205,49.7175,52.815,33.243,57.7025,49.163666666666664,-0.03600000000000003,-0.10450000000000026,0.10333500000000001,0.117305,0.0,205.575,205.54500000000002,202.01,202.01,0.0,0.0
2,0.0,1.0,0.0,1.0,1.0,0.0,0.0,1.0,0.0,100.0,1.0,1.1856,26.0,0.0,0.0,0.0,51.999998,0.0,26.0,26.0,26.0,26.0,-0.07966666666666666,0.2855000000000001,0.03645,293.854,-2.6662,-2.65775,-1.5671,-1.5173,-269.06,215.515,190.949125,0.0,0.0,0.0,0.0,0.005433333333333401,-5.498166666666667,-5.498166666666667,-0.5795,0.254,-0.010666666666666824,2.137,65.759,-0.026899999999999924,-0.27282500000000004,0.7999999999999998,100.0,1.0,1.0,203.43333333333334,0.0,0.0,0.0,0.0,0.0,0.0,0.0,8622.8,0.0,55.0,5.0,236.70333333333332,0.0,0.0,0.0,0.0,0.0,0.0,0.0,0.0,0.10500000000000043,0.10500000000000043,0.0,0.0,0.0,55.0,616.79921,10000.0,85.000001,85.000001,85.000001,85.000001,395.0,0.0,0.0,0.0,1.0,333.33500000000004,51.865,51.865,50.735,50.735,34.0,-28.985,22.958,-24.58,19.21,0.0,1782.76,0.4800000000000004,100.0,28.044,27.349,41.918,41.746,0.0,1.0,100.0,0.0,0.0,0.0,0.0,3387.285714285714,3231.1,3480.375,3366.7,304.4905,304.477,316.33725,316.53625,21.7625,20.5216,21.7817,21.3009,314.999998,314.999998,324.999988,324.999988,99.55705714285715,99.50721666666666,99.56538571428571,99.5444,0.018000000000000238,-0.10666666666666669,-0.16300000000000003,0.06920000000000015,-0.06833333333332803,-0.04999999999999716,1.7786666666666668,1.7920000000000003,37.016,29.259999999999998,37.135999999999996,34.1305,55.616,34.463499999999996,59.113,51.381,53.596000000000004,33.674,57.753,49.766999999999996,52.802,33.27766666666666,57.732,49.21233333333333,-0.04049999999999998,-0.11299999999999999,0.10566500000000001,0.10791500000000001,0.0,206.01999999999998,205.94,203.43333333333334,203.43333333333334,0.0,0.0
3,0.0,1.0,0.0,1.0,1.0,0.0,0.0,1.0,0.0,100.0,1.0,1.1856,26.0,0.0,0.0,0.0,51.999998,0.0,26.0,26.0,26.0,26.0,-0.06655555555555548,0.3069000000000002,0.032175,293.03,-2.6833,-2.681875,-1.5486,-1.4833,-265.7,215.515,190.92875,0.0,0.0,0.0,0.0,0.007399999999999962,-5.498166666666667,-5.498166666666667,-0.5003000000000001,0.5994999999999999,0.0040000000000000036,-2.198,65.917,-0.03979999999999995,-0.18595,0.694,100.0,1.0,1.0,203.24333333333334,0.0,0.0,0.0,0.0,0.0,0.0,0.0,8614.8,0.0,55.0,5.0,237.26999999999998,1.0,0.0,0.0,0.0,0.0,0.0,0.0,0.0,0.1559999999999988,0.1559999999999988,0.0,0.0,1.0,55.0,616.79921,10000.0,85.000001,85.000001,85.000001,85.000001,395.0,0.0,0.0,0.0,1.0,166.665,53.36,53.36,47.546,47.546,34.0,-23.912499999999998,19.94,-34.69,27.0925,0.0,1782.711,0.615000000000002,100.0,27.746,27.539,42.004,42.076,0.0,1.0,100.0,0.0,0.0,0.0,0.0,2860.4285714285716,2853.7,4541.5,4349.5,306.2035,305.5485,313.79125,313.9145,21.772100000000002,20.5269,21.7922,21.3099,314.999998,314.999998,324.999988,324.999988,99.55705714285715,99.50721666666666,99.56552857142857,99.54454285714286,0.014250000000000096,-0.11333333333333329,-0.15079999999999993,0.06520000000000015,-0.036666666666668846,-0.04833333333333201,1.4413333333333334,1.468,37.075,29.293333333333333,37.201,34.1865,55.599999999999994,34.506,59.1525,51.448499999999996,53.581,33.713,57.789500000000004,49.832,52.786,33.315,57.766,49.275999999999996,-0.035499999999999976,-0.1160000000000001,0.105995,0.09994000000000001,0.0,206.51,206.485,203.24333333333334,203.24333333333334,0.0,0.0
4,0.0,1.0,0.0,1.0,1.0,0.0,0.0,1.0,0.0,100.0,1.0,1.1856,26.0,0.0,0.0,0.0,51.999998,0.0,26.0,26.0,26.0,26.0,-0.07433333333333336,0.27190000000000003,0.00775,293.396,-2.6733000000000002,-2.751125,-1.4899,-1.5954000000000002,-262.53,215.5125,190.9105,0.0,0.0,0.0,0.0,0.009233333333333316,-5.498166666666667,-5.498166666666667,-0.5306000000000001,-0.9259999999999999,-0.04788888888888909,-0.771,66.053,-0.04499999999999993,-0.233025,1.0499999999999998,100.0,1.0,1.0,203.87333333333333,0.0,0.0,0.0,0.0,0.0,0.0,0.0,8641.5,0.0,55.0,5.0,237.76,0.0,0.0,0.0,0.0,0.0,0.0,0.0,0.0,0.20400000000000063,0.20400000000000063,0.0,0.0,0.0,55.0,616.79921,10000.0,85.000001,85.000001,85.000001,85.000001,395.0,0.0,0.0,0.0,1.0,333.33500000000004,53.04,53.04,48.721000000000004,48.721000000000004,34.0,-28.299999999999997,19.695999999999998,-30.49,23.605,0.0,1782.662,0.629999999999999,100.0,27.696,27.191,42.818,42.209,0.0,1.0,100.0,0.0,0.0,0.0,0.0,3216.142857142857,2847.3,4083.0,3829.5,305.159,305.664,314.893,315.2595,21.7812,20.5317,21.8022,21.3182,314.999998,314.999998,324.999988,324.999988,99.55705714285715,99.50723333333333,99.56565714285715,99.54467142857143,-0.008499999999999952,-0.131,-0.17479999999999996,0.05380000000000007,-0.041666666666671404,-0.07000000000000028,1.5423333333333333,1.597,37.132,29.323,37.263999999999996,34.239,55.585,34.5435,59.193,51.5055,53.567,33.7475,57.827,49.8865,52.772,33.34766666666667,57.8005,49.32933333333334,-0.021499999999999964,-0.12199999999999989,0.107715,0.10975000000000001,0.0,206.92000000000002,206.85500000000002,203.87333333333333,203.87333333333333,0.0,0.0
5,0.0,1.0,0.0,1.0,1.0,0.0,0.0,1.0,0.0,100.0,1.0,1.1856,26.0,0.0,0.0,0.0,51.999998,0.0,26.0,26.0,26.0,26.0,-0.09388888888888891,0.28710000000000013,-0.0285,293.701,-2.6443,-2.7048750000000004,-1.5393,-1.5854,-259.16,215.5075,190.89075,0.0,0.0,0.0,0.0,0.011199999999999988,-5.498166666666667,-5.498166666666667,-0.5404,0.536,-0.03022222222222215,0.915,66.19800000000001,-0.06389999999999996,-0.22740000000000002,1.0179999999999998,100.0,1.0,1.0,204.42333333333335,0.0,0.0,0.0,0.0,0.0,0.0,0.0,8664.7,0.0,55.0,5.0,238.28333333333333,1.0,0.0,0.0,0.0,0.0,0.0,0.0,0.0,0.254999999999999,0.254999999999999,0.0,0.0,1.0,55.0,616.79921,10000.0,85.000001,85.000001,85.000001,85.000001,395.0,0.0,0.0,0.0,1.0,333.33500000000004,53.146,53.146,49.24,49.24,34.0,-25.5325,21.323999999999998,-29.753333333333334,23.78,0.0,1782.612,0.375,100.0,27.788,26.916,42.431,41.549,0.0,1.0,100.0,0.0,0.0,0.0,0.0,3038.0,3009.2,3903.25,3955.2,305.424,305.2885,315.32525,315.0655,21.7909,20.5369,21.8126,21.3269,314.999998,314.999998,324.999988,324.999988,99.55707142857143,99.50725,99.5658,99.54481428571428,0.01750000000000007,-0.1096666666666668,-0.18259999999999998,0.04600000000000004,-0.03333333333333144,-0.051666666666669414,1.5666666666666669,1.6310000000000002,37.193,29.355666666666664,37.329,34.293,55.572,34.5845,59.2305,51.564,53.554,33.785,57.862,49.942499999999995,52.757,33.38366666666667,57.833,49.384,-0.04499999999999993,-0.10199999999999987,0.10591,0.11038,0.0,207.41500000000002,207.315,204.42333333333335,204.42333333333335,0.0,0.0
6,0.0,1.0,0.0,1.0,1.0,0.0,0.0,1.0,0.0,100.0,1.0,1.1856,26.0,0.0,0.0,0.0,51.999998,0.0,26.0,26.0,26.0,26.0,-0.1012222222222221,0.2986,0.027525,293.503,-2.6783,-2.779375,-1.4851,-1.5657,-255.78,215.5,190.870125,0.0,0.0,0.0,0.0,0.013166666666666549,-5.498166666666667,-5.498166666666667,-0.5267000000000001,-0.26049999999999995,-0.05444444444444452,-0.99,66.348,-0.06519999999999992,-0.20470000000000002,0.8239999999999998,100.0,1.0,1.0,204.7,0.0,0.0,0.0,0.0,0.0,0.0,0.0,8676.5,0.0,55.0,5.0,238.82,0.0,0.0,0.0,0.0,0.0,0.0,0.0,0.0,0.30600000000000094,0.30600000000000094,0.0,0.0,0.0,55.0,616.79921,10000.0,85.000001,85.000001,85.000001,85.000001,395.0,0.0,0.0,0.0,1.0,166.665,53.619,53.619,48.522999999999996,48.522999999999996,34.0,-28.4625,19.276,-32.82,23.880000000000003,0.0,1782.561,0.2699999999999996,100.0,27.333,26.749,42.593,41.789,0.0,1.0,100.0,0.0,0.0,0.0,0.0,3205.0,2756.4,4265.375,4033.7,305.2315,305.9055,314.45025,314.77,21.8005,20.5419,21.8231,21.3358,314.999998,314.999998,324.999988,324.999988,99.55707142857143,99.50726666666667,99.56594285714286,99.54495714285714,-0.014999999999999902,-0.1296666666666666,-0.18599999999999994,0.03400000000000003,-0.04333333333332945,-0.03999999999999915,1.5113333333333332,1.5540000000000003,37.253,29.387,37.394,34.349000000000004,55.556,34.6235,59.2715,51.6265,53.539,33.821,57.9,50.001999999999995,52.742000000000004,33.418,57.868,49.44266666666667,-0.04149999999999998,-0.10099999999999998,0.09672000000000001,0.10571000000000001,0.0,207.85500000000002,207.76999999999998,204.7,204.7,0.0,0.0
7,0.0,1.0,0.0,1.0,1.0,0.0,0.0,1.0,0.0,100.0,1.0,1.1856,26.0,0.0,0.0,0.0,51.999998,0.0,26.0,26.0,26.0,26.0,-0.06799999999999995,0.28770000000000007,-0.004,293.488,-2.6259,-2.7705,-1.5413000000000001,-1.6072000000000002,-252.59,215.49,190.850875,0.0,0.0,0.0,0.0,0.015033333333333343,-5.498166666666667,-5.498166666666667,-0.534,0.09950000000000003,-0.04022222222222238,-0.22,66.48400000000001,-0.06979999999999997,-0.21660000000000001,0.6720000000000006,100.0,1.0,1.0,205.18333333333334,0.0,0.0,0.0,0.0,0.0,0.0,0.0,8697.0,0.0,55.0,5.0,239.31333333333333,1.0,0.0,0.0,0.0,0.0,0.0,0.0,0.0,0.3539999999999992,0.3539999999999992,0.0,0.0,1.0,55.0,616.79921,10000.0,85.000001,85.000001,85.000001,85.000001,395.0,0.0,0.0,0.0,1.0,166.665,53.238,53.238,48.766999999999996,48.766999999999996,34.0,-26.0225,21.224,-32.346666666666664,23.7175,0.0,1782.512,-0.120000000000001,100.0,27.614,26.947,42.561,41.784,0.0,1.0,100.0,0.0,0.0,0.0,0.0,3171.5714285714284,2871.4,4131.375,3959.9,305.255,305.5005,314.8215,314.9445,21.8097,20.5468,21.833,21.3442,314.999998,314.999998,324.999988,324.999988,99.55707142857143,99.50726666666667,99.56608571428572,99.54508571428572,0.026000000000000245,-0.10333333333333328,-0.1896,0.03079999999999994,-0.05666666666667197,-0.045000000000001705,1.5350000000000001,1.569,37.311,29.417666666666666,37.456,34.400999999999996,55.544,34.661500000000004,59.3085,51.684,53.527,33.856,57.935,50.057,52.729,33.45133333333334,57.8995,49.49633333333333,-0.08399999999999996,-0.06499999999999995,0.10834,0.105895,0.0,208.275,208.195,205.18333333333334,205.18333333333334,0.0,0.0
8,0.0,1.0,0.0,1.0,1.0,0.0,0.0,1.0,0.0,100.0,1.0,1.1856,26.0,0.0,0.0,0.0,51.999998,0.0,26.0,26.0,26.0,26.0,-0.05888888888888888,0.28770000000000007,-0.01115,293.533,-2.7007,-2.708125,-1.5533000000000001,-1.6008,-249.2,215.48000000000002,190.83025,0.0,0.0,0.0,0.0,0.016999999999999904,-5.498166666666667,-5.498166666666667,-0.5365,-0.13050000000000006,-0.028111111111110976,0.326,66.629,-0.05829999999999991,-0.21962500000000001,0.22200000000000042,100.0,1.0,1.0,205.61666666666667,0.0,0.0,0.0,0.0,0.0,0.0,0.0,8715.3,0.0,55.0,5.0,239.83666666666667,0.0,0.0,0.0,0.0,0.0,0.0,0.0,0.0,0.40500000000000114,0.40500000000000114,0.0,0.0,0.0,55.0,616.79921,10000.0,85.000001,85.000001,85.000001,85.000001,395.0,0.0,0.0,0.0,1.0,333.33500000000004,53.36,53.36,48.553,48.553,34.0,-24.857499999999998,22.782,-30.226666666666663,25.7325,0.0,1782.461,-0.18499999999999872,100.0,27.498,26.882,42.64,41.841,0.0,1.0,100.0,0.0,0.0,0.0,0.0,2996.857142857143,3046.6,4039.125,4027.1000000000004,305.6275,305.1705,315.01125,314.82925,21.8193,20.5521,21.8435,21.3531,314.999998,314.999998,324.999988,324.999988,99.55707142857143,99.50728333333333,99.56622857142857,99.54522857142857,0.034499999999999975,-0.08299999999999996,-0.16059999999999997,0.06340000000000012,-0.03833333333332689,-0.05833333333333002,1.5446666666666669,1.5630000000000002,37.370999999999995,29.450333333333333,37.522,34.457,55.528999999999996,34.701499999999996,59.348,51.746,53.513,33.8925,57.9715,50.1165,52.714,33.486333333333334,57.9335,49.55466666666666,-0.08599999999999997,-0.05750000000000011,0.10859500000000001,0.1096,0.0,208.7,208.66,205.61666666666667,205.61666666666667,0.0,0.0
9,0.0,1.0,0.0,1.0,1.0,0.0,0.0,1.0,0.0,100.0,1.0,1.1856,26.0,0.0,0.0,0.0,51.999998,0.0,26.0,26.0,26.0,26.0,-0.019777777777777783,0.28780000000000006,-0.006050000000000001,293.32,-2.6258,-2.72175,-1.5197,-1.5602,-245.8,215.465,190.809375,0.0,0.0,0.0,0.0,0.018966666666666576,-5.498166666666667,-5.498166666666667,-0.5345,0.19699999999999995,-0.040777777777778024,-0.525,66.774,-0.04269999999999996,-0.21215,0.08000000000000007,100.0,1.0,1.0,206.05,0.0,0.0,0.0,0.0,0.0,0.0,0.0,8733.7,0.0,55.0,5.0,240.35666666666668,1.0,0.0,0.0,0.0,0.0,0.0,0.0,0.0,0.4559999999999995,0.4559999999999995,0.0,0.0,1.0,55.0,616.79921,10000.0,85.000001,85.000001,85.000001,85.000001,395.0,0.0,0.0,0.0,1.0,166.665,53.024,53.024,48.706,48.706,34.0,-25.3425,22.509999999999998,-29.703333333333333,26.26,0.0,1782.411,-0.35999999999999943,100.0,27.525,27.081,42.492000000000004,41.953,0.0,1.0,100.0,0.0,0.0,0.0,0.0,3211.714285714286,2956.5,4093.875,4066.7,305.161,305.28275,314.89675,314.713,21.829,20.5573,21.854,21.362,314.999998,314.999998,324.999988,324.999988,99.55708571428572,99.5073,99.56637142857143,99.54535714285714,0.0495000000000001,-0.07800000000000007,-0.14979999999999993,0.07620000000000005,-0.03833333333332689,-0.05666666666667197,1.5496666666666667,1.541,37.431,29.483333333333334,37.587,34.5125,55.516,34.7405,59.387,51.8065,53.5,33.9285,58.007999999999996,50.1745,52.701,33.52066666666666,57.967,49.611333333333334,-0.10649999999999993,-0.047499999999999876,0.09560500000000001,0.116985,0.0,209.13,209.14,206.05,206.05,0.0,0.0
10,0.0,1.0,0.0,1.0,1.0,0.0,0.0,1.0,0.0,100.0,1.0,1.1856,26.0,0.0,0.0,0.0,51.999998,0.0,26.0,26.0,26.0,26.0,-0.018333333333333313,0.2934000000000001,0.0030250000000000003,293.228,-2.6843,-2.69625,-1.5592000000000001,-1.5423,-242.59,215.4525,190.78975,0.0,0.0,0.0,0.0,0.02083333333333337,-5.498166666666667,-5.498166666666667,-0.5291,-0.20199999999999996,-0.014444444444444482,-0.049,66.91,-0.0250999999999999,-0.21097500000000002,-0.1639999999999997,100.0,1.0,1.0,206.39333333333332,0.0,0.0,0.0,0.0,0.0,0.0,0.0,8748.3,0.0,55.0,5.0,240.8466666666667,0.0,0.0,0.0,0.0,0.0,0.0,1.0,0.0,0.5040000000000013,0.5040000000000013,0.0,0.0,0.0,55.0,616.79921,10000.0,85.000001,85.000001,85.000001,85.000001,395.0,0.0,0.0,0.0,1.0,333.33500000000004,53.299,53.299,48.416,48.416,34.0,-24.3675,22.317999999999998,-30.29,27.19,0.0,1782.36,-0.3999999999999986,100.0,27.485,27.09,42.573,42.285,0.0,1.0,100.0,0.0,0.0,0.0,0.0,3098.0,2930.6,4153.375,4193.0,305.504,305.3815,314.752,314.3855,21.8381,20.5623,21.8639,21.3705,314.999998,314.999998,324.999988,324.999988,99.55708571428572,99.5073,99.5665,99.5455,0.06050000000000022,-0.07099999999999995,-0.13839999999999997,0.07800000000000007,-0.046666666666666856,-0.041666666666671404,1.526,1.5225,37.488,29.514333333333333,37.649,34.5655,55.504999999999995,34.775999999999996,59.424,51.866,53.489000000000004,33.9615,58.042500000000004,50.2315,52.689,33.552,57.9985,49.667,-0.10399999999999998,-0.04150000000000009,0.10489000000000001,0.09913000000000001,0.0,209.55,209.555,206.39333333333332,206.39333333333332,0.0,0.0
11,0.0,1.0,0.0,1.0,1.0,0.0,0.0,1.0,0.0,100.0,1.0,1.1856,26.0,0.0,0.0,0.0,51.999998,0.0,26.0,26.0,26.0,26.0,-0.0086666666666666,0.28490000000000015,-0.0379,293.51800000000003,-2.6888,-2.6950000000000003,-1.565,-1.5206,-239.17000000000002,215.4375,190.768875,0.0,0.0,0.0,0.0,0.022599999999999953,-5.498166666666667,-5.498166666666667,-0.5505,-0.27649999999999997,0.01011111111111096,1.1280000000000001,67.05199999999999,-0.00759999999999994,-0.22445,-0.3540000000000001,100.0,1.0,1.0,206.94666666666666,0.0,0.0,0.0,0.0,0.0,0.0,0.0,8771.7,0.0,55.0,5.0,241.35666666666668,1.0,0.0,0.0,0.0,0.0,0.0,1.0,0.0,0.5549999999999997,0.5549999999999997,0.0,0.0,1.0,55.0,616.79921,10000.0,85.000001,85.000001,85.000001,85.000001,395.0,0.0,0.0,0.0,1.0,333.33500000000004,53.314,53.314,48.888999999999996,48.888999999999996,34.0,-23.0525,24.786,-26.876666666666665,27.7475,0.0,1782.309,-0.33999999999999986,100.0,27.381,26.957,42.473,42.269999999999996,0.0,1.0,100.0,0.0,0.0,0.0,0.0,2993.714285714286,3112.1,3896.25,4070.2,305.648,305.007,315.3215,314.787,21.8476,20.5676,21.874299999999998,21.3794,314.999998,314.999998,324.999988,324.999988,99.5571,99.50731666666667,99.56665714285714,99.54565714285714,0.07525000000000004,-0.04499999999999993,-0.11460000000000004,0.1200000000000001,-0.01999999999999602,-0.06333333333333258,1.571,1.5699999999999998,37.547,29.547666666666665,37.715,34.6215,55.491,34.816,59.463,51.931,53.476,33.9985,58.0785,50.294,52.675,33.58733333333333,58.0315,49.72833333333333,-0.10050000000000003,-0.0405000000000002,0.10372500000000001,0.11218000000000002,0.0,209.95499999999998,209.995,206.94666666666666,206.94666666666666,0.0,0.0
12,0.0,1.0,0.0,1.0,1.0,0.0,0.0,1.0,0.0,100.0,1.0,1.1856,26.0,0.0,0.0,0.0,51.999998,0.0,26.0,26.0,26.0,26.0,-0.0040000000000000036,0.2895000000000001,-0.002775,293.198,-2.7279,-2.676625,-1.5701,-1.5292,-235.95,215.425,190.748375,0.0,0.0,0.0,0.0,0.025466666666666526,-5.498166666666667,-5.498166666666667,-0.5434,0.4105,0.021333333333333204,0.881,67.187,0.006199999999999983,-0.206675,-0.5120000000000005,100.0,1.0,1.0,207.30333333333334,0.0,0.0,0.0,0.0,0.0,0.0,0.0,8786.9,0.0,55.0,5.0,241.84333333333333,0.0,0.0,0.0,0.0,0.0,0.0,1.0,0.0,0.602999999999998,0.602999999999998,0.0,0.0,0.0,55.0,616.79921,10000.0,85.000001,85.000001,85.000001,85.000001,395.0,0.0,0.0,0.0,1.0,333.33500000000004,53.009,53.009,48.385999999999996,48.385999999999996,34.0,-24.4025,24.122,-27.336666666666666,29.95,0.0,1782.263,0.25,100.0,27.457,27.296,42.274,42.261,0.0,1.0,100.0,0.0,0.0,0.0,0.0,2986.4285714285716,3174.8,4052.375,4216.1,305.655,304.78425,314.9635,314.45925,21.8565,20.5727,21.8841,21.3878,314.999998,314.999998,324.999988,324.999988,99.5571,99.50731666666667,99.56678571428571,99.54577142857143,0.04974999999999996,-0.07133333333333325,-0.09560000000000002,0.13340000000000019,-0.03499999999999659,-0.054999999999999716,1.5576666666666668,1.5230000000000001,37.602999999999994,29.579666666666668,37.775999999999996,34.674,55.480999999999995,34.85,59.4955,51.9855,53.466,34.0295,58.109,50.3465,52.664,33.617,58.059,49.779666666666664,-0.061999999999999944,-0.0794999999999999,0.11139,0.11129000000000001,0.0,210.39499999999998,210.44,207.30333333333334,207.30333333333334,0.0,0.0
13,0.0,1.0,0.0,1.0,1.0,0.0,0.0,1.0,0.0,100.0,1.0,1.1856,26.0,0.0,0.0,0.0,51.999998,0.0,26.0,26.0,26.0,26.0,0.05044444444444429,0.2813000000000001,0.022500000000000003,292.877,-2.6941,-2.69225,-1.5588000000000002,-1.541,-232.51999999999998,215.41,190.72675,0.0,0.0,0.0,0.0,0.026699999999999946,-5.498166666666667,-5.498166666666667,-0.5374,-0.21350000000000002,0.008999999999999897,-0.454,67.33,0.010900000000000132,-0.21257500000000001,-0.3460000000000001,100.0,1.0,1.0,207.65666666666667,0.0,0.0,0.0,0.0,0.0,0.0,0.0,8801.8,0.0,55.0,5.0,242.36,1.0,0.0,0.0,0.0,0.0,0.0,1.0,0.0,0.6539999999999999,0.6539999999999999,0.0,0.0,1.0,55.0,616.79921,10000.0,85.000001,85.000001,85.000001,85.000001,395.0,0.0,0.0,0.0,1.0,166.665,52.887,52.887,48.065,48.065,34.0,-22.3475,25.372,-29.03,29.64,0.0,1782.212,-0.5,100.0,27.5,27.576,42.549,42.798,0.0,1.0,100.0,0.0,0.0,0.0,0.0,3122.5714285714284,3011.5,4187.875,4207.9,305.433,305.112,314.66675,314.36075,21.8661,20.5782,21.8947,21.397,314.999998,314.999998,324.999988,324.999988,99.55711428571429,99.50731666666667,99.56692857142858,99.54592857142858,0.11474999999999991,-0.0129999999999999,-0.10699999999999998,0.1197999999999999,-0.054999999999999716,-0.054999999999999716,1.5166666666666668,1.4929999999999999,37.663,29.613666666666667,37.842,34.731,55.469,34.8885,59.535,52.0495,53.455,34.065,58.1455,50.408,52.652,33.650999999999996,58.093,49.839666666666666,-0.12649999999999995,-0.025500000000000078,0.11379500000000001,0.10931500000000001,0.0,210.85500000000002,210.85000000000002,207.65666666666667,207.65666666666667,0.0,0.0
14,0.0,1.0,0.0,1.0,1.0,0.0,0.0,1.0,0.0,100.0,1.0,1.1856,26.0,0.0,0.0,0.0,51.999998,0.0,26.0,26.0,26.0,26.0,0.038555555555555676,0.268,-0.025775000000000003,293.076,-2.7106,-2.7048750000000004,-1.5715,-1.5357,-229.07999999999998,215.3975,190.705375,0.0,0.0,0.0,0.0,0.028699999999999948,-5.498166666666667,-5.498166666666667,-0.5502,-0.050000000000000044,0.027888888888888852,1.114,67.47,0.020499999999999963,-0.22515000000000002,-0.5539999999999994,100.0,1.0,1.0,208.18333333333334,0.0,0.0,0.0,0.0,0.0,0.0,0.0,8824.1,0.0,55.0,5.0,242.86,0.0,0.0,0.0,0.0,0.0,0.0,1.0,0.0,0.7049999999999983,0.7049999999999983,0.0,0.0,0.0,55.0,616.79921,10000.0,85.000001,85.000001,85.000001,85.000001,395.0,0.0,0.0,0.0,1.0,333.33500000000004,52.872,52.872,48.462,48.462,34.0,-21.605,26.274,-25.86,30.240000000000002,0.0,1782.16,-0.48999999999999844,100.0,27.666,27.568,42.533,42.744,0.0,1.0,100.0,0.0,0.0,0.0,0.0,2972.0,3133.5,3951.875,4135.5,305.6995,304.87525,315.19075,314.6255,21.8755,20.5836,21.9051,21.406,314.999998,314.999998,324.999988,324.999988,99.55712857142858,99.50731666666667,99.56707142857142,99.54607142857142,0.11125000000000007,-0.01866666666666661,-0.08139999999999992,0.15059999999999985,-0.03999999999999915,-0.060000000000002274,1.5583333333333333,1.5314999999999999,37.722,29.647666666666666,37.907,34.7875,55.459,34.9265,59.572,52.1115,53.445,34.1,58.18,50.4675,52.64,33.684333333333335,58.124,49.89833333333333,-0.11599999999999999,-0.03750000000000009,0.10415500000000001,0.10804000000000001,0.0,211.26,211.29500000000002,208.18333333333334,208.18333333333334,0.0,0.0
15,0.0,1.0,0.0,1.0,1.0,0.0,0.0,1.0,0.0,100.0,1.0,1.1856,26.0,0.0,0.0,0.0,51.999998,0.0,26.0,26.0,26.0,26.0,0.052999999999999936,0.27580000000000005,0.00335,292.969,-2.7024,-2.6790000000000003,-1.5604,-1.5547,-225.84,215.3875,190.684875,0.0,0.0,0.0,0.0,0.03056666666666652,-5.498166666666667,-5.498166666666667,-0.5444,0.24149999999999994,0.037111111111111095,0.735,67.602,0.02849999999999997,-0.213625,-0.5439999999999996,100.0,1.0,1.0,208.54666666666668,0.0,0.0,0.0,0.0,0.0,0.0,0.0,8839.5,0.0,55.0,5.0,243.34,1.0,0.0,0.0,0.0,0.0,0.0,1.0,0.0,0.7530000000000001,0.7530000000000001,0.0,0.0,1.0,55.0,616.79921,10000.0,85.000001,85.000001,85.000001,85.000001,395.0,0.0,0.0,0.0,1.0,333.33500000000004,52.856,52.856,48.278999999999996,48.278999999999996,34.0,-21.34,25.828,-25.656666666666663,31.705000000000002,0.0,1782.112,-0.379999999999999,100.0,27.67,27.679000000000002,42.405,42.804,0.0,1.0,100.0,0.0,0.0,0.0,0.0,2952.285714285714,3123.7,4035.25,4202.3,305.7525,304.88225,315.00025,314.436,21.8844,20.5888,21.9149,21.4145,314.999998,314.999998,324.999988,324.999988,99.55715714285714,99.50733333333334,99.5672,99.5462,0.1120000000000001,-0.022333333333333316,-0.06659999999999999,0.1594000000000002,-0.046666666666666856,-0.04999999999999716,1.55,1.5074999999999998,37.778,29.680333333333333,37.968,34.841,55.448,34.9625,59.6065,52.171,53.435,34.132999999999996,58.2115,50.5245,52.629000000000005,33.716,58.153,49.95433333333334,-0.10449999999999993,-0.04499999999999993,0.10822500000000002,0.11107500000000001,0.0,211.69,211.715,208.54666666666668,208.54666666666668,0.0,0.0
16,0.0,1.0,0.0,1.0,1.0,0.0,0.0,1.0,0.0,100.0,1.0,1.1856,26.0,0.0,0.0,0.0,51.999998,0.0,26.0,26.0,26.0,26.0,0.05322222222222228,0.2712000000000001,0.00042500000000000003,292.755,-2.7641999999999998,-2.620375,-1.5396,-1.5503,-222.39,215.3775,190.662875,0.0,0.0,0.0,0.0,0.03256666666666652,-5.498166666666667,-5.498166666666667,-0.5521,-0.38349999999999995,0.026222222222222147,-1.085,67.743,0.03249999999999997,-0.222525,-0.3420000000000005,100.0,1.0,1.0,208.95666666666668,0.0,0.0,0.0,0.0,0.0,0.0,0.0,8856.9,0.0,55.0,5.0,243.84666666666666,0.0,0.0,0.0,0.0,0.0,0.0,1.0,0.0,0.8039999999999985,0.8039999999999985,0.0,0.0,0.0,55.0,616.79921,10000.0,85.000001,85.000001,85.000001,85.000001,395.0,0.0,0.0,0.0,1.0,333.33500000000004,52.582,52.582,47.897,47.897,34.0,-24.0275,25.532,-27.169999999999998,29.915,0.0,1782.061,-0.28999999999999915,100.0,27.398,27.903,42.601,43.121,0.0,1.0,100.0,0.0,0.0,0.0,0.0,3158.0,3134.9,4101.875,4057.0,305.3925,304.72075,314.886,314.68775,21.8937,20.5944,21.9254,21.4236,314.999998,314.999998,324.999988,324.999988,99.55715714285714,99.50733333333334,99.56734285714286,99.54634285714286,0.09724999999999984,-0.023666666666666725,-0.08960000000000001,0.1484000000000001,-0.05333333333332746,-0.046666666666666856,1.5130000000000001,1.5125000000000002,37.836,29.714666666666666,38.034,34.897999999999996,55.436,35.0,59.6445,52.234,53.423,34.168,58.2475,50.585499999999996,52.617000000000004,33.74966666666667,58.1855,50.013666666666666,-0.09550000000000003,-0.051000000000000156,0.109505,0.105355,0.0,212.12,212.12,208.95666666666668,208.95666666666668,0.0,0.0
17,0.0,1.0,0.0,1.0,1.0,0.0,0.0,1.0,0.0,100.0,1.0,1.1856,26.0,0.0,0.0,0.0,51.999998,0.0,26.0,26.0,26.0,26.0,0.04588888888888887,0.28480000000000016,0.041350000000000005,292.48,-2.6377,-2.7075,-1.5562,-1.5138,-218.73,215.3675,190.639375,0.0,0.0,0.0,0.0,0.03469999999999995,-5.498166666666667,-5.498166666666667,-0.551,0.15700000000000003,0.004666666666666597,-1.035,67.89,0.029000000000000137,-0.21685000000000001,-0.22599999999999998,100.0,1.0,1.0,209.37333333333333,0.0,0.0,0.0,0.0,0.0,0.0,0.0,8874.6,0.0,55.0,5.0,244.37666666666667,1.0,0.0,0.0,0.0,0.0,0.0,1.0,0.0,0.8580000000000005,0.8580000000000005,0.0,0.0,1.0,55.0,616.79921,10000.0,85.000001,85.000001,85.000001,85.000001,395.0,0.0,0.0,0.0,1.0,166.665,52.338,52.338,47.623,47.623,34.0,-22.4875,25.406,-27.939999999999998,30.3625,0.0,1782.008,-0.19500000000000028,100.0,27.718,28.062,42.617000000000004,43.104,0.0,1.0,100.0,0.0,0.0,0.0,0.0,3130.142857142857,3090.8,4229.625,4210.2,305.3545,304.698,314.5875,314.40325,21.9037,20.6003,21.9364,21.4332,314.999998,314.999998,324.999988,324.999988,99.55717142857142,99.50733333333334,99.5675,99.5465,0.1030000000000002,-0.03966666666666674,-0.08039999999999992,0.14200000000000013,-0.045000000000001705,-0.060000000000002274,1.5113333333333332,1.5034999999999998,37.897999999999996,29.751666666666665,38.102999999999994,34.957499999999996,55.425,35.0415,59.684,52.2995,53.412,34.206,58.284,50.6485,52.605000000000004,33.78633333333333,58.2185,50.07566666666666,-0.09350000000000003,-0.06550000000000011,0.103345,0.11068000000000001,0.0,212.565,212.60000000000002,209.37333333333333,209.37333333333333,0.0,0.0
18,0.0,1.0,0.0,1.0,1.0,0.0,0.0,1.0,0.0,100.0,1.0,1.1856,26.0,0.0,0.0,0.0,51.999998,0.0,26.0,26.0,26.0,26.0,0.023222222222222255,0.28980000000000006,0.0363,292.404,-2.6576,-2.7435,-1.5381,-1.4824,-215.67000000000002,215.36,190.6195,0.0,0.0,0.0,0.0,0.03649999999999998,-5.498166666666667,-5.498166666666667,-0.5607,-0.33299999999999996,0.003555555555555534,0.889,68.013,0.022900000000000142,-0.22440000000000002,-0.20000000000000018,100.0,1.0,1.0,209.7266666666667,0.0,0.0,0.0,0.0,0.0,0.0,0.0,8889.6,0.0,55.0,5.0,244.82,0.0,0.0,0.0,0.0,0.0,0.0,1.0,0.0,0.9029999999999987,0.9029999999999987,0.0,0.0,0.0,55.0,616.79921,10000.0,85.000001,85.000001,85.000001,85.000001,395.0,0.0,0.0,0.0,1.0,333.33500000000004,52.368,52.368,47.653,47.653,34.0,-22.294999999999998,27.076,-27.21,30.66,0.0,1781.961,-0.245000000000001,100.0,27.861,27.816,42.907,43.134,0.0,1.0,100.0,0.0,0.0,0.0,0.0,3065.5714285714284,3207.0,4105.25,4310.6,305.423,304.53875,314.749,314.2135,21.9119,20.6051,21.9457,21.4413,314.999998,314.999998,324.999988,324.999988,99.55718571428571,99.50735,99.56764285714286,99.54664285714286,0.1027499999999999,-0.02833333333333332,-0.08620000000000005,0.1402000000000001,-0.05333333333332746,-0.07166666666666544,1.5053333333333332,1.495,37.949,29.782,38.161,35.007999999999996,55.414,35.077,59.7195,52.3585,53.402,34.239,58.317,50.705,52.593,33.81733333333334,58.2485,50.13133333333333,-0.09250000000000003,-0.05900000000000016,0.10863500000000001,0.108145,0.0,212.94,212.965,209.7266666666667,209.7266666666667,0.0,0.0
19,0.0,1.0,0.0,1.0,1.0,0.0,0.0,1.0,0.0,100.0,1.0,1.1856,26.0,0.0,0.0,0.0,51.999998,0.0,26.0,26.0,26.0,26.0,0.03733333333333322,0.27449999999999997,0.0315,292.313,-2.6404,-2.70575,-1.5377,-1.6002,-211.99,215.35,190.5955,0.0,0.0,0.0,0.0,0.0386333333333333,-5.498166666666667,-5.498166666666667,-0.5516,0.5589999999999999,0.015555555555555545,0.779,68.158,0.016100000000000003,-0.214875,-0.16999999999999993,100.0,1.0,1.0,210.19333333333333,0.0,0.0,0.0,0.0,0.0,0.0,0.0,8909.4,0.0,55.0,5.0,245.34333333333336,1.0,0.0,0.0,0.0,0.0,0.0,1.0,0.0,0.9570000000000007,0.9570000000000007,0.0,0.0,1.0,55.0,616.79921,10000.0,85.000001,85.000001,85.000001,85.000001,395.0,0.0,0.0,0.0,1.0,166.665,52.155,52.155,47.852000000000004,47.852000000000004,34.0,-22.009999999999998,25.392,-27.286666666666665,31.1875,0.0,1781.909,-0.1999999999999993,100.0,28.34,28.186,42.808,43.189,0.0,1.0,100.0,0.0,0.0,0.0,0.0,3028.4285714285716,3128.5,4104.5,4264.6,305.5045,304.8185,314.831,314.252,21.9219,20.611,21.956699999999998,21.4509,314.999998,314.999998,324.999988,324.999988,99.5572,99.50735,99.56778571428572,99.54678571428572,0.09925000000000006,-0.04133333333333322,-0.08979999999999999,0.12540000000000018,-0.03333333333333144,-0.054999999999999716,1.5063333333333333,1.5140000000000002,38.012,29.819,38.229,35.0685,55.403999999999996,35.117,59.7555,52.421,53.391999999999996,34.2755,58.3505,50.765,52.582,33.852666666666664,58.278999999999996,50.18966666666667,-0.09150000000000003,-0.06800000000000006,0.105925,0.101245,0.0,213.425,213.435,210.19333333333333,210.19333333333333,0.0,0.0
20,0.0,1.0,0.0,1.0,1.0,0.0,0.0,1.0,0.0,100.0,1.0,1.1856,26.0,0.0,0.0,0.0,51.999998,0.0,26.0,26.0,26.0,26.0,0.023111111111111082,0.2633000000000001,-0.0063,292.374,-2.7063,-2.645875,-1.5229,-1.5854,-208.72,215.345,190.574375,0.0,0.0,0.0,0.0,0.04053333333333331,-5.498166666666667,-5.498166666666667,-0.5537000000000001,-0.72,0.015333333333333199,0.622,68.289,0.013700000000000045,-0.224475,-0.10200000000000031,100.0,1.0,1.0,210.55333333333334,0.0,0.0,0.0,0.0,0.0,0.0,0.0,8924.6,0.0,55.0,5.0,245.81333333333333,0.0,0.0,0.0,0.0,0.0,0.0,0.0,0.0,1.004999999999999,1.004999999999999,0.0,0.0,0.0,55.0,616.79921,10000.0,85.000001,85.000001,85.000001,85.000001,395.0,0.0,0.0,0.0,1.0,166.665,52.521,52.521,47.409,47.409,34.0,-22.415,24.938,-27.226666666666663,30.13,0.0,1781.862,-0.21000000000000085,100.0,27.981,27.925,43.321,43.586,0.0,1.0,100.0,0.0,0.0,0.0,0.0,3002.857142857143,3147.3,4091.0,4144.5,305.6495,304.9015,314.80925,314.51975,21.9307,20.6162,21.9667,21.459699999999998,314.999998,314.999998,324.999988,324.999988,99.5572,99.50735,99.56791428571428,99.54692857142857,0.09699999999999998,-0.03933333333333322,-0.09260000000000002,0.12659999999999982,-0.03499999999999659,-0.03833333333332689,1.4993333333333332,1.4885000000000002,38.067,29.851333333333336,38.292,35.123,55.393,35.153,59.793,52.481,53.381,34.309,58.385,50.8225,52.57,33.88433333333333,58.311,50.24633333333333,-0.09150000000000003,-0.06550000000000011,0.10502,0.10184000000000001,0.0,213.79500000000002,213.8,210.55333333333334,210.55333333333334,0.0,0.0
21,0.0,1.0,0.0,1.0,1.0,0.0,0.0,1.0,0.0,100.0,1.0,1.1856,26.0,0.0,0.0,0.0,51.999998,0.0,26.0,26.0,26.0,26.0,0.02499999999999991,0.2743,-0.049175,292.618,-2.726,-2.6260000000000003,-1.5724,-1.525,-205.23000000000002,215.3375,190.5515,0.0,0.0,0.0,0.0,0.04256666666666653,-5.498166666666667,-5.498166666666667,-0.5735,0.020000000000000018,0.004555555555555646,-0.657,68.423,0.010700000000000154,-0.224,-0.0779999999999994,100.0,1.0,1.0,211.10333333333335,0.0,0.0,0.0,0.0,0.0,0.0,0.0,8947.8,0.0,55.0,5.0,246.29666666666668,1.0,0.0,0.0,0.0,0.0,0.0,0.0,0.0,1.056000000000001,1.056000000000001,0.0,0.0,1.0,55.0,616.79921,10000.0,85.000001,85.000001,85.000001,85.000001,395.0,0.0,0.0,0.0,1.0,166.665,52.383,52.383,48.08,48.08,34.0,-24.5825,24.224,-27.7,27.6725,0.0,1781.81,-0.259999999999998,100.0,27.82,27.932,42.92,43.269999999999996,0.0,1.0,100.0,0.0,0.0,0.0,0.0,3213.142857142857,3100.7,4044.875,4023.0,305.214,304.87775,315.07225,314.88875,21.94,20.6218,21.977,21.4687,314.999998,314.999998,324.999988,324.999988,99.55721428571428,99.50736666666667,99.56805714285714,99.54707142857143,0.08850000000000025,-0.04699999999999993,-0.1047999999999999,0.12179999999999991,-0.041666666666671404,-0.04833333333333201,1.5573333333333332,1.553,38.125,29.886,38.355999999999995,35.179,55.381,35.1915,59.8285,52.5405,53.370000000000005,34.3445,58.418,50.879999999999995,52.558,33.91833333333334,58.3405,50.30233333333334,-0.09599999999999997,-0.05900000000000016,0.10672000000000001,0.10648500000000001,0.0,214.22,214.22500000000002,211.10333333333335,211.10333333333335,0.0,0.0
22,0.0,1.0,0.0,1.0,1.0,0.0,0.0,1.0,0.0,100.0,1.0,1.1856,26.0,0.0,0.0,0.0,51.999998,0.0,26.0,26.0,26.0,26.0,0.014000000000000012,0.27649999999999997,-0.0039000000000000003,292.252,-2.7651,-2.6571249999999997,-1.6012,-1.5261,-201.94,215.33249999999998,190.52925,0.0,0.0,0.0,0.0,0.04446666666666654,-5.498166666666667,-5.498166666666667,-0.5589000000000001,0.12849999999999995,0.00911111111111107,-0.551,68.553,0.00990000000000002,-0.20040000000000002,-0.14200000000000035,100.0,1.0,1.0,211.35000000000002,0.0,0.0,0.0,0.0,0.0,0.0,0.0,8958.3,0.0,55.0,5.0,246.76333333333332,0.0,0.0,0.0,0.0,0.0,0.0,0.0,0.0,1.1039999999999992,1.1039999999999992,0.0,0.0,0.0,55.0,616.79921,10000.0,85.000001,85.000001,85.000001,85.000001,395.0,0.0,0.0,0.0,1.0,166.665,52.536,52.536,47.272,47.272,34.0,-24.31,24.222,-30.873333333333335,30.2425,0.0,1781.763,-0.3299999999999983,100.0,27.881,28.044,43.021,43.325,0.0,1.0,100.0,0.0,0.0,0.0,0.0,3152.714285714286,3051.8,4328.75,4312.4,305.4645,305.05225,314.41075,314.18125,21.9488,20.627,21.9869,21.4773,314.999998,314.999998,324.999988,324.999988,99.55724285714285,99.50736666666667,99.5682,99.54721428571429,0.08899999999999997,-0.04266666666666663,-0.1067999999999999,0.11820000000000008,-0.036666666666668846,-0.054999999999999716,1.4946666666666668,1.4820000000000002,38.18,29.918666666666667,38.418,35.233000000000004,55.370999999999995,35.228,59.864,52.5985,53.36,34.378,58.451,50.936,52.547,33.95066666666666,58.3705,50.357,-0.10099999999999998,-0.0535000000000001,0.10251,0.10788,0.0,214.635,214.66,211.35000000000002,211.35000000000002,0.0,0.0
23,0.0,1.0,0.0,1.0,1.0,0.0,0.0,1.0,0.0,100.0,1.0,1.1856,26.0,0.0,0.0,0.0,51.999998,0.0,26.0,26.0,26.0,26.0,0.005222222222222239,0.27480000000000016,0.013725000000000001,292.053,-2.6616,-2.6865,-1.6402,-1.5378,-198.44,215.3275,190.505625,0.0,0.0,0.0,0.0,0.046499999999999986,-5.498166666666667,-5.498166666666667,-0.5723,-0.2815000000000001,0.010888888888888948,0.61,68.688,0.011900000000000022,-0.2232,-0.25,100.0,1.0,1.0,211.8,0.0,0.0,0.0,0.0,0.0,0.0,0.0,8977.4,0.0,55.0,5.0,247.25,1.0,0.0,0.0,0.0,0.0,0.0,0.0,0.0,1.1550000000000011,1.1550000000000011,0.0,0.0,1.0,55.0,616.79921,10000.0,85.000001,85.000001,85.000001,85.000001,395.0,0.0,0.0,0.0,1.0,166.665,51.941,51.941,47.531,47.531,34.0,-23.2025,25.869999999999997,-29.13,30.0825,0.0,1781.711,-0.3049999999999997,100.0,28.273,28.069,43.324,43.493,0.0,1.0,100.0,0.0,0.0,0.0,0.0,3178.0,3185.5,4183.375,4213.4,305.0615,304.72575,314.72175,314.4775,21.958199999999998,20.6326,21.9974,21.4865,314.999998,314.999998,324.999988,324.999988,99.55724285714285,99.50736666666667,99.56835714285714,99.54735714285714,0.10575000000000001,-0.036666666666666625,-0.08920000000000006,0.13200000000000012,-0.045000000000001705,-0.054999999999999716,1.5346666666666668,1.516,38.239000000000004,29.954,38.483999999999995,35.2905,55.36,35.266999999999996,59.902,52.661500000000004,53.349000000000004,34.414500000000004,58.486,50.9965,52.536,33.98533333333333,58.4025,50.416333333333334,-0.10599999999999998,-0.0535000000000001,0.10382000000000001,0.111905,0.0,215.04500000000002,215.035,211.8,211.8,0.0,0.0
24,0.0,1.0,0.0,1.0,1.0,0.0,0.0,1.0,0.0,100.0,1.0,1.1856,26.0,0.0,0.0,0.0,51.999998,0.0,26.0,26.0,26.0,26.0,0.02488888888888896,0.2763,-0.04045,292.419,-2.6898,-2.66675,-1.5507,-1.5550000000000002,-195.14,215.3225,190.483125,0.0,0.0,0.0,0.0,0.0484,-5.498166666666667,-5.498166666666667,-0.5853,-0.36850000000000005,0.02022222222222214,1.164,68.815,0.011600000000000055,-0.224225,-0.25200000000000067,100.0,1.0,1.0,212.2,0.0,0.0,0.0,0.0,0.0,0.0,0.0,8994.4,0.0,55.0,5.0,247.70666666666665,0.0,0.0,0.0,0.0,0.0,0.0,0.0,0.0,1.2029999999999994,1.2029999999999994,0.0,0.0,0.0,55.0,616.79921,10000.0,85.000001,85.000001,85.000001,85.000001,395.0,0.0,0.0,0.0,1.0,333.33500000000004,52.658,52.658,47.455,47.455,34.0,-21.505,25.15,-27.753333333333334,30.225,0.0,1781.663,-0.34499999999999886,100.0,28.16,27.899,43.296,43.476,0.0,1.0,100.0,0.0,0.0,0.0,0.0,2954.285714285714,3103.6,4145.0,4173.1,305.7715,305.03875,314.71575,314.5475,21.9669,20.6378,22.0072,21.4951,314.999998,314.999998,324.999988,324.999988,99.55725714285714,99.50738333333334,99.56848571428571,99.5475,0.10625000000000018,-0.02966666666666673,-0.08960000000000001,0.13459999999999983,-0.04833333333333201,-0.06666666666666998,1.528,1.499,38.293,29.986333333333334,38.545,35.3445,55.349999999999994,35.3025,59.936,52.719,53.339,34.447,58.518,51.0515,52.525,34.016666666666666,58.4315,50.470333333333336,-0.10499999999999998,-0.051000000000000156,0.09739,0.11056500000000001,0.0,215.44,215.43,212.2,212.2,0.0,0.0
25,0.0,1.0,0.0,1.0,1.0,0.0,0.0,1.0,0.0,100.0,1.0,1.1856,26.0,0.0,0.0,0.0,51.999998,0.0,26.0,26.0,26.0,26.0,0.02055555555555566,0.2763,-0.0082,292.191,-2.6862,-2.645125,-1.5923,-1.5508000000000002,-191.42000000000002,215.3175,190.456375,0.0,0.0,0.0,0.0,0.05056666666666654,-5.498166666666667,-5.498166666666667,-0.602,0.11249999999999993,0.02544444444444438,0.22,68.957,0.01429999999999998,-0.219025,-0.31599999999999984,100.0,1.0,1.0,212.68333333333334,0.0,0.0,0.0,0.0,0.0,0.0,0.0,9014.9,0.0,55.0,5.0,248.21666666666667,1.0,0.0,0.0,0.0,0.0,0.0,0.0,0.0,1.256999999999998,1.256999999999998,0.0,0.0,1.0,55.0,616.79921,10000.0,85.000001,85.000001,85.000001,85.000001,395.0,0.0,0.0,0.0,1.0,166.665,51.819,51.819,47.775,47.775,34.0,-23.57,27.192,-27.669999999999998,30.0675,0.0,1781.61,-0.34499999999999886,100.0,28.109,28.125,43.065,43.298,0.0,1.0,100.0,0.0,0.0,0.0,0.0,3181.0,3340.7,4035.0,4158.7,305.1065,304.28125,315.08775,314.5845,21.9767,20.6438,22.0182,21.5047,314.999998,314.999998,324.999988,324.999988,99.55727142857143,99.50738333333334,99.56864285714286,99.54765714285715,0.10225000000000017,-0.030333333333333323,-0.09839999999999993,0.13840000000000008,-0.051666666666669414,-0.05666666666667197,1.543,1.5430000000000001,38.354,30.023666666666664,38.614000000000004,35.4045,55.337,35.344,59.973,52.783,53.327,34.4855,58.5525,51.113,52.510999999999996,34.053333333333335,58.4625,50.53033333333333,-0.10399999999999998,-0.053999999999999826,0.11162500000000002,0.109865,0.0,215.87,215.88,212.68333333333334,212.68333333333334,0.0,0.0
26,0.0,1.0,0.0,1.0,1.0,0.0,0.0,1.0,0.0,100.0,1.0,1.1856,26.0,0.0,0.0,0.0,51.999998,0.0,26.0,26.0,26.0,26.0,0.029888888888888854,0.27700000000000014,0.075875,291.473,-2.7098,-2.7285,-1.5543,-1.5538,-188.11,215.315,190.432375,0.0,0.0,0.0,0.0,0.05249999999999999,-5.498166666666667,-5.498166666666667,-0.5758,0.39849999999999997,0.013666666666666716,0.928,69.08500000000001,0.01629999999999998,-0.202075,-0.30600000000000005,100.0,1.0,1.0,212.88666666666666,0.0,0.0,0.0,0.0,0.0,0.0,0.0,9023.6,0.0,55.0,5.0,248.67666666666668,0.0,0.0,0.0,0.0,0.0,0.0,0.0,0.0,1.3049999999999997,1.3049999999999997,0.0,0.0,0.0,55.0,616.79921,10000.0,85.000001,85.000001,85.000001,85.000001,395.0,0.0,0.0,0.0,1.0,166.665,51.757999999999996,51.757999999999996,46.722,46.722,34.0,-23.1725,25.502000000000002,-29.776666666666664,33.915,0.0,1781.562,-0.33999999999999986,100.0,28.736,28.474,43.479,43.649,0.0,1.0,100.0,0.0,0.0,0.0,0.0,3148.4285714285716,3117.2,4402.375,4503.5,305.2495,304.9155,314.10725,313.7555,21.985599999999998,20.6492,22.0281,21.5135,314.999998,314.999998,324.999988,324.999988,99.55728571428571,99.5074,99.56878571428571,99.5478,0.10899999999999999,-0.040000000000000036,-0.08079999999999998,0.14300000000000002,-0.03166666666666629,-0.051666666666669414,1.4423333333333332,1.4315000000000002,38.41,30.057333333333332,38.676,35.459,55.329,35.382,60.01,52.8425,53.319,34.519999999999996,58.5865,51.170500000000004,52.501999999999995,34.086666666666666,58.4935,50.586666666666666,-0.11049999999999993,-0.05600000000000005,0.103845,0.10749500000000001,0.0,216.275,216.29500000000002,212.88666666666666,212.88666666666666,0.0,0.0
27,0.0,1.0,0.0,1.0,1.0,0.0,0.0,1.0,0.0,100.0,1.0,1.1856,26.0,0.0,0.0,0.0,51.999998,0.0,26.0,26.0,26.0,26.0,0.03155555555555578,0.24380000000000002,-0.0483,291.855,-2.7571,-2.665,-1.6174,-1.5317,-184.79,215.31,190.409125,0.0,0.0,0.0,0.0,0.054433333333333334,-5.498166666666667,-5.498166666666667,-0.5939,-0.7895000000000001,0.024777777777777787,0.772,69.208,0.01750000000000007,-0.2353,-0.34999999999999964,100.0,1.0,1.0,213.37666666666667,0.0,0.0,0.0,0.0,0.0,0.0,0.0,9044.2,0.0,55.0,5.0,249.12333333333333,1.0,0.0,0.0,0.0,0.0,0.0,0.0,0.0,1.352999999999998,1.352999999999998,0.0,0.0,1.0,55.0,616.79921,10000.0,85.000001,85.000001,85.000001,85.000001,395.0,0.0,0.0,0.0,1.0,166.665,52.002,52.002,46.753,46.753,34.0,-22.45,26.224,-28.516666666666666,29.7,0.0,1781.512,-0.3550000000000004,100.0,28.441,28.472,43.934,44.078,0.0,1.0,100.0,0.0,0.0,0.0,0.0,3016.0,3225.2,4117.0,4137.0,305.686,304.61825,314.8445,314.6915,21.9943,20.6545,22.0381,21.5223,314.999998,314.999998,324.999988,324.999988,99.5573,99.5074,99.56892857142857,99.54792857142857,0.10850000000000026,-0.03266666666666662,-0.09099999999999997,0.1374000000000002,-0.051666666666669414,-0.05666666666667197,1.5130000000000001,1.495,38.464,30.090666666666664,38.738,35.513999999999996,55.319,35.4185,60.046,52.902,53.31,34.554,58.6205,51.2275,52.492000000000004,34.119,58.5245,50.64233333333333,-0.10599999999999998,-0.05449999999999999,0.10957000000000001,0.10457500000000002,0.0,216.64,216.65,213.37666666666667,213.37666666666667,0.0,0.0
28,0.0,1.0,0.0,1.0,1.0,0.0,0.0,1.0,0.0,100.0,1.0,1.1856,26.0,0.0,0.0,0.0,51.999998,0.0,26.0,26.0,26.0,26.0,0.048555555555555685,0.26750000000000007,-0.0553,292.007,-2.6915,-2.64725,-1.6336,-1.5596,-181.26,215.31,190.383875,0.0,0.0,0.0,0.0,0.056499999999999995,-5.498166666666667,-5.498166666666667,-0.6026,0.473,0.009444444444444366,-1.04,69.339,0.020199999999999996,-0.2197,-0.3099999999999996,100.0,1.0,1.0,213.87666666666667,0.0,0.0,0.0,0.0,0.0,0.0,0.0,9065.5,0.0,55.0,5.0,249.59333333333336,0.0,0.0,0.0,0.0,0.0,0.0,0.0,0.0,1.404,1.404,0.0,0.0,0.0,55.0,616.79921,10000.0,85.000001,85.000001,85.000001,85.000001,395.0,0.0,0.0,0.0,1.0,166.665,51.879999999999995,51.879999999999995,47.44,47.44,34.0,-23.1925,25.287999999999997,-28.763333333333335,29.405,0.0,1781.463,-0.3999999999999986,100.0,28.354,28.626,43.343,43.8,0.0,1.0,100.0,0.0,0.0,0.0,0.0,3175.5714285714284,3105.5,4125.875,4095.6000000000004,305.297,304.80725,314.957,314.7135,22.0036,20.6603,22.0484,21.5313,314.999998,314.999998,324.999988,324.999988,99.55731428571428,99.5074,99.56905714285715,99.54808571428572,0.1067499999999999,-0.02966666666666673,-0.09679999999999989,0.13319999999999999,-0.05666666666667197,-0.04333333333332945,1.5536666666666668,1.548,38.522,30.126666666666665,38.803,35.571,55.309,35.458,60.08,52.9615,53.3,34.5905,58.6515,51.285,52.480999999999995,34.153999999999996,58.552,50.69833333333334,-0.11749999999999994,-0.0495000000000001,0.11148500000000001,0.10026,0.0,217.075,217.095,213.87666666666667,213.87666666666667,0.0,0.0
29,0.0,1.0,0.0,1.0,1.0,0.0,0.0,1.0,0.0,100.0,1.0,1.1856,26.0,0.0,0.0,0.0,51.999998,0.0,26.0,26.0,26.0,26.0,0.058222222222222175,0.27,-0.021175,291.916,-2.7587,-2.713125,-1.6071,-1.5457,-177.51,215.3075,190.356,0.0,0.0,0.0,0.0,0.058666666666666534,-5.498166666666667,-5.498166666666667,-0.605,-0.7110000000000001,0.0031111111111110645,-0.8270000000000001,69.481,0.02059999999999995,-0.21502500000000002,-0.3020000000000005,100.0,1.0,1.0,214.15,0.0,0.0,0.0,0.0,0.0,0.0,0.0,9077.0,0.0,55.0,5.0,250.10666666666668,1.0,0.0,0.0,0.0,0.0,0.0,0.0,0.0,1.4579999999999984,1.4579999999999984,0.0,0.0,1.0,55.0,616.79921,10000.0,85.000001,85.000001,85.000001,85.000001,395.0,0.0,0.0,0.0,1.0,166.665,52.368,52.368,46.982,46.982,34.0,-23.9875,24.784,-29.03,31.155,0.0,1781.409,-0.46000000000000085,100.0,27.999,28.391,43.675,44.077,0.0,1.0,100.0,0.0,0.0,0.0,0.0,3210.4285714285716,2980.6,4221.25,4246.4,305.4545,305.1685,314.66275,314.28125,22.0132,20.6662,22.0596,21.5412,314.999998,314.999998,324.999988,324.999988,99.55731428571428,99.5074,99.56922857142857,99.54824285714285,0.10325000000000006,-0.028000000000000025,-0.08739999999999992,0.1372,-0.036666666666668846,-0.04833333333333201,1.5006666666666668,1.4729999999999999,38.583,30.163666666666664,38.872,35.6325,55.297,35.498,60.121,53.028,53.288,34.6275,58.69,51.3485,52.468,34.189,58.587,50.760666666666665,-0.11449999999999994,-0.03849999999999998,0.106855,0.11341000000000001,0.0,217.485,217.48000000000002,214.15,214.15,0.0,0.0
30,0.0,1.0,0.0,1.0,1.0,0.0,0.0,1.0,0.0,100.0,1.0,1.1856,26.0,0.0,0.0,0.0,51.999998,0.0,26.0,26.0,26.0,26.0,0.06699999999999995,0.26449999999999996,0.034325,291.336,-2.638,-2.721375,-1.6526,-1.5962,-174.38,215.3075,190.332625,0.0,0.0,0.0,0.0,0.0605,-5.498166666666667,-5.498166666666667,-0.6099,0.6755,0.00911111111111107,0.722,69.594,0.020199999999999996,-0.21965,-0.3860000000000001,100.0,1.0,1.0,214.63333333333333,0.0,0.0,0.0,0.0,0.0,0.0,0.0,9097.6,0.0,55.0,5.0,250.51333333333332,0.0,0.0,0.0,0.0,0.0,0.0,1.0,0.0,1.5030000000000001,1.5030000000000001,0.0,0.0,0.0,55.0,616.79921,10000.0,85.000001,85.000001,85.000001,85.000001,395.0,0.0,0.0,0.0,1.0,333.33500000000004,50.629,50.629,47.394,47.394,34.0,-23.7025,29.656,-27.726666666666663,30.650000000000002,0.0,1781.363,-0.48499999999999943,100.0,29.019,28.835,43.516999999999996,43.936,0.0,1.0,100.0,0.0,0.0,0.0,0.0,3364.857142857143,3478.4,4098.625,4107.5,304.654,303.89025,315.07825,314.6855,22.0216,20.6714,22.0688,21.5493,314.999998,314.999998,324.999988,324.999988,99.55734285714286,99.50741666666667,99.56935714285714,99.54837142857143,0.12049999999999983,-0.021666666666666723,-0.0766,0.14459999999999984,-0.04833333333333201,-0.05333333333332746,1.55,1.529,38.635,30.196333333333335,38.93,35.683,55.291,35.534,60.150999999999996,53.081,53.282,34.661,58.718,51.4,52.461,34.221000000000004,58.612,50.81066666666666,-0.12249999999999994,-0.046499999999999986,0.10044,0.11725500000000001,0.0,217.845,217.86,214.63333333333333,214.63333333333333,0.0,0.0
31,0.0,1.0,0.0,1.0,1.0,0.0,0.0,1.0,0.0,100.0,1.0,1.1856,26.0,0.0,0.0,0.0,51.999998,0.0,26.0,26.0,26.0,26.0,0.05755555555555558,0.2659,0.054400000000000004,290.68,-2.7778,-2.618875,-1.6502,-1.5375,-170.82999999999998,215.31,190.306625,0.0,0.0,0.0,0.0,0.06256666666666655,-5.498166666666667,-5.498166666666667,-0.5849,-0.256,0.01866666666666661,-0.558,69.72800000000001,0.02540000000000009,-0.21495,-0.41600000000000037,100.0,1.0,1.0,214.78333333333333,0.0,0.0,0.0,0.0,0.0,0.0,0.0,9103.9,0.0,55.0,5.0,250.99666666666667,1.0,0.0,0.0,0.0,0.0,0.0,1.0,0.0,1.5539999999999985,1.5539999999999985,0.0,0.0,1.0,55.0,616.79921,10000.0,85.000001,85.000001,85.000001,85.000001,395.0,0.0,0.0,0.0,1.0,166.665,51.193,51.193,45.486,45.486,34.0,-23.82,26.29,-32.20666666666666,33.585,0.0,1781.312,-0.504999999999999,100.0,28.825,29.211,44.229,44.731,0.0,1.0,100.0,0.0,0.0,0.0,0.0,3211.5714285714284,3253.1,4461.5,4481.0,305.303,304.462,313.9945,313.6285,22.0308,20.6773,22.0795,21.5587,314.999998,314.999998,324.999988,324.999988,99.55734285714286,99.50741666666667,99.5695,99.54852857142858,0.11549999999999994,-0.02966666666666673,-0.08760000000000001,0.13680000000000003,-0.04833333333333201,-0.041666666666671404,1.4266666666666667,1.3980000000000001,38.693,30.233,38.997,35.742,55.282,35.5745,60.1915,53.1465,53.274,34.698,58.7555,51.4625,52.451,34.25666666666667,58.6465,50.872,-0.12549999999999994,-0.04349999999999987,0.10564000000000001,0.10815500000000002,0.0,218.25,218.26999999999998,214.78333333333333,214.78333333333333,0.0,0.0
32,0.0,1.0,0.0,1.0,1.0,0.0,0.0,1.0,0.0,100.0,1.0,1.1856,26.0,0.0,0.0,0.0,51.999998,0.0,26.0,26.0,26.0,26.0,0.07244444444444431,0.2622,-0.015550000000000001,291.382,-2.7058999999999997,-2.6734999999999998,-1.5935000000000001,-1.6154000000000002,-167.06,215.3125,190.27975,0.0,0.0,0.0,0.0,0.06473333333333331,-5.498166666666667,-5.498166666666667,-0.6065,-0.389,0.0003333333333332966,-1.067,69.863,0.031100000000000128,-0.23345000000000002,-0.46200000000000063,100.0,1.0,1.0,215.38333333333333,0.0,0.0,0.0,0.0,0.0,0.0,0.0,9129.4,0.0,55.0,5.0,251.48000000000002,0.0,0.0,0.0,0.0,0.0,0.0,1.0,0.0,1.6080000000000005,1.6080000000000005,0.0,0.0,0.0,55.0,616.79921,10000.0,85.000001,85.000001,85.000001,85.000001,395.0,0.0,0.0,0.0,1.0,166.665,51.605000000000004,51.605000000000004,46.677,46.677,34.0,-22.3725,25.46,-27.39,32.3475,0.0,1781.258,-0.46000000000000085,100.0,28.651,29.109,44.111000000000004,44.673,0.0,1.0,100.0,0.0,0.0,0.0,0.0,3153.857142857143,3088.4,4103.625,4189.9,305.403,304.8835,314.914,314.40975,22.0405,20.6834,22.0905,21.5686,314.999998,314.999998,324.999988,324.999988,99.55737142857143,99.50743333333334,99.56965714285714,99.54868571428571,0.12349999999999994,-0.026999999999999913,-0.0776,0.15179999999999993,-0.045000000000001705,-0.04833333333333201,1.5106666666666668,1.4935,38.753,30.271333333333335,39.066,35.8035,55.272,35.616,60.229,53.211,53.263999999999996,34.7365,58.7905,51.525,52.44,34.29333333333334,58.6775,50.933,-0.123,-0.04899999999999993,0.104275,0.11010500000000001,0.0,218.67000000000002,218.675,215.38333333333333,215.38333333333333,0.0,0.0
33,0.0,1.0,0.0,1.0,1.0,0.0,0.0,1.0,0.0,100.0,1.0,1.1856,26.0,0.0,0.0,0.0,51.999998,0.0,26.0,26.0,26.0,26.0,0.05155555555555558,0.2592000000000001,-0.073975,291.626,-2.7339,-2.686875,-1.5981,-1.5804,-163.91,215.315,190.256375,0.0,0.0,0.0,0.0,0.06656666666666655,-5.498166666666667,-5.498166666666667,-0.6151,-0.15700000000000003,0.0007777777777777661,0.9440000000000001,69.976,0.030399999999999983,-0.217875,-0.4299999999999997,100.0,1.0,1.0,215.74666666666667,0.0,0.0,0.0,0.0,0.0,0.0,0.0,9144.8,0.0,55.0,5.0,251.88666666666666,1.0,0.0,0.0,0.0,0.0,0.0,1.0,0.0,1.6529999999999987,1.6529999999999987,0.0,0.0,1.0,55.0,616.79921,10000.0,85.000001,85.000001,85.000001,85.000001,395.0,0.0,0.0,0.0,1.0,166.665,51.865,51.865,46.921,46.921,34.0,-21.8675,26.048000000000002,-26.633333333333333,31.5925,0.0,1781.213,-0.495000000000001,100.0,28.67,28.737000000000002,43.973,44.363,0.0,1.0,100.0,0.0,0.0,0.0,0.0,3060.285714285714,3124.3,4082.375,4197.4,305.5635,304.92325,314.95175,314.5395,22.0485,20.6884,22.0997,21.5767,314.999998,314.999998,324.999988,324.999988,99.55738571428572,99.50743333333334,99.5698,99.54881428571429,0.12650000000000006,-0.019333333333333202,-0.06679999999999997,0.1524000000000001,-0.03333333333333144,-0.05833333333333002,1.5373333333333332,1.525,38.803,30.302666666666667,39.123000000000005,35.854,55.263,35.649,60.26,53.2635,53.254999999999995,34.766999999999996,58.819,51.5755,52.43,34.32266666666666,58.703,50.982,-0.11699999999999999,-0.04349999999999987,0.10032500000000001,0.10899,0.0,219.015,219.05,215.74666666666667,215.74666666666667,0.0,0.0
34,0.0,1.0,0.0,1.0,1.0,0.0,0.0,1.0,0.0,100.0,1.0,1.1856,26.0,0.0,0.0,0.0,51.999998,0.0,26.0,26.0,26.0,26.0,0.06522222222222229,0.2639,-0.0666,291.84,-2.6761,-2.669375,-1.6301999999999999,-1.5231,-160.34,215.32,190.228375,0.0,0.0,0.0,0.0,0.06863333333333332,-5.498166666666667,-5.498166666666667,-0.6383,-0.8480000000000001,0.017888888888888843,-0.335,70.106,0.03100000000000014,-0.219725,-0.41799999999999926,100.0,1.0,1.0,216.09,0.0,0.0,0.0,0.0,0.0,0.0,0.0,9159.3,0.0,55.0,5.0,252.35666666666668,0.0,0.0,0.0,0.0,0.0,0.0,1.0,0.0,1.7040000000000006,1.7040000000000006,0.0,0.0,0.0,55.0,616.79921,10000.0,85.000001,85.000001,85.000001,85.000001,395.0,0.0,0.0,0.0,1.0,333.33500000000004,52.399,52.399,47.043,47.043,34.0,-21.2,24.566,-28.406666666666666,30.79,0.0,1781.16,-0.509999999999998,100.0,28.234,28.536,43.775999999999996,44.501000000000005,0.0,1.0,100.0,0.0,0.0,0.0,0.0,3021.4285714285716,2964.6,4161.75,4211.8,305.743,305.2235,314.82325,314.4715,22.0575,20.694,22.1101,21.586,314.999998,314.999998,324.999988,324.999988,99.5574,99.50743333333334,99.56994285714286,99.54897142857143,0.12049999999999983,-0.02066666666666661,-0.07939999999999992,0.1462000000000001,-0.051666666666669414,-0.045000000000001705,1.5103333333333333,1.5,38.858999999999995,30.337666666666664,39.188,35.912,55.253,35.6855,60.295,53.326,53.245000000000005,34.8005,58.8515,51.635,52.419,34.35466666666667,58.732,51.040333333333336,-0.12149999999999994,-0.04200000000000026,0.09717,0.11181500000000001,0.0,219.405,219.42000000000002,216.09,216.09,0.0,0.0
35,0.0,1.0,0.0,1.0,1.0,0.0,0.0,1.0,0.0,100.0,1.0,1.1856,26.0,0.0,0.0,0.0,51.999998,0.0,26.0,26.0,26.0,26.0,0.04488888888888898,0.24670000000000014,-0.10637500000000001,291.87,-2.8025,-2.65175,-1.5423,-1.5782,-156.76,215.325,190.198625,0.0,0.0,0.0,0.0,0.07073333333333331,-5.498166666666667,-5.498166666666667,-0.6784,-0.16949999999999998,0.002555555555555644,-0.14400000000000002,70.232,0.034499999999999975,-0.2291,-0.48799999999999955,100.0,1.0,1.0,216.60666666666668,0.0,0.0,0.0,0.0,0.0,0.0,0.0,9181.1,0.0,55.0,5.0,252.81,1.0,0.0,0.0,0.0,0.0,0.0,1.0,0.0,1.754999999999999,1.754999999999999,0.0,0.0,1.0,55.0,616.79921,10000.0,85.000001,85.000001,85.000001,85.000001,395.0,0.0,0.0,0.0,1.0,166.665,51.682,51.682,47.058,47.058,34.0,-23.2675,28.34,-25.163333333333334,29.72,0.0,1781.112,-0.3150000000000013,100.0,28.253,28.728,43.566,43.932,0.0,1.0,100.0,0.0,0.0,0.0,0.0,3100.0,3358.4,4032.25,3994.1000000000004,305.4145,304.222,315.13525,315.1035,22.0664,20.6999,22.1204,21.5951,314.999998,314.999998,324.999988,324.999988,99.55741428571429,99.50743333333334,99.57008571428571,99.54911428571428,0.11775000000000002,-0.011333333333333195,-0.06340000000000001,0.15700000000000003,-0.046666666666666856,-0.045000000000001705,1.558,1.5585,38.915,30.374333333333333,39.253,35.969,55.241,35.7245,60.3285,53.382999999999996,53.233000000000004,34.837,58.8825,51.6905,52.406,34.38966666666666,58.76,51.09466666666667,-0.10399999999999998,-0.04999999999999982,0.099235,0.10640000000000001,0.0,219.79500000000002,219.82,216.60666666666668,216.60666666666668,0.0,0.0
