,ABS Active,ABS Enabled,AID Allow Tire Blankets,AID Auto Blip,AID Auto Clutch,AID Auto Shift,AID Fuel Rate,AID Ideal Line,AID Mech Damage,AID Stability,AID Tire Wear Rate,Air Density,Air Temp,Ballast,Best Lap Delta,Best Lap Time,Brake Bias,Brake Pos,Brake Temp FL,Brake Temp FR,Brake Temp RL,Brake Temp RR,CG Accel Lateral,CG Accel Longitudinal,CG Accel Vertical,CG Height,Camber FL,Camber FR,Camber RL,Camber RR,Car Coord X,Car Coord Y,Car Coord Z,Car Damage Front,Car Damage Left,Car Damage Rear,Car Damage Right,Car Pos Norm,Caster FL,Caster FR,Chassis Pitch Angle,Chassis Pitch Rate,Chassis Roll Angle,Chassis Roll Rate,Chassis Velocity X,Chassis Velocity Y,Chassis Velocity Z,Chassis Yaw Rate,Clutch Pos,DRS Active,DRS Available,Drive Train Speed,ERS Heat Charging,ERS Is Charging,ERS Max Energy,ERS Power Level,ERS Recovery Level,Engine Brake Setting,Engine Limiter,Engine RPM,Flags,Fuel Level,Gear,Ground Speed,HR Sample Clock,In Pit,KERS Charge,KERS Deployed Energy,KERS Input,KERS Max Energy,LR Sample Clock,Lap Invalidated,Lap Time,Lap Time2,Last Lap Time,Last Sector Time,MR Sample Clock,Max Fuel,Max Power,Max RPM,Max Sus Travel FL,Max Sus Travel FR,Max Sus Travel RL,Max Sus Travel RR,Max Torque,Max Turbo Boost,Num Tires Off Track,Penalties Enabled,Position,Raw Data Sample Rate,Ride Height FL,Ride Height FR,Ride Height RL,Ride Height RR,Road Temp,Self Align Torque FL,Self Align Torque FR,Self Align Torque RL,Self Align Torque RR,Session Lap Count,Session Time Left,Steering Angle,Surface Grip,Suspension Travel FL,Suspension Travel FR,Suspension Travel RL,Suspension Travel RR,TC Active,TC Enabled,Throttle Pos,Tire Dirt Level FL,Tire Dirt Level FR,Tire Dirt Level RL,Tire Dirt Level RR,Tire Load FL,Tire Load FR,Tire Load RL,Tire Load RR,Tire Loaded Radius FL,Tire Loaded Radius FR,Tire Loaded Radius RL,Tire Loaded Radius RR,Tire Pressure FL,Tire Pressure FR,Tire Pressure RL,Tire Pressure RR,Tire Radius FL,Tire Radius FR,Tire Radius RL,Tire Radius RR,Tire Rubber Grip FL,Tire Rubber Grip FR,Tire Rubber Grip RL,Tire Rubber Grip RR,Tire Slip Angle FL,Tire Slip Angle FR,Tire Slip Angle RL,Tire Slip Angle RR,Tire Slip Ratio FL,Tire Slip Ratio FR,Tire Slip Ratio RL,Tire Slip Ratio RR,Tire Temp Core FL,Tire Temp Core FR,Tire Temp Core RL,Tire Temp Core RR,Tire Temp Inner FL,Tire Temp Inner FR,Tire Temp Inner RL,Tire Temp Inner RR,Tire Temp Middle FL,Tire Temp Middle FR,Tire Temp Middle RL,Tire Temp Middle RR,Tire Temp Outer FL,Tire Temp Outer FR,Tire Temp Outer RL,Tire Temp Outer RR,Toe In FL,Toe In FR,Toe In RL,Toe In RR,Turbo Boost,Wheel Angular Speed FL,Wheel Angular Speed FR,Wheel Angular Speed RL,Wheel Angular Speed RR,Wind Direction,Wind Speed
0,0.0,1.0,0.0,1.0,1.0,0.0,0.0,1.0,0.0,100.0,1.0,1.1856,26.0,0.0,0.0,0.0,51.99999,0.0,26.0,26.0,26.0,26.0,-0.056,0.2845,0.026000000000000002,293.762,-2.7171,-2.482125,-1.5241,-1.5375,-275.62,215.89,190.98725,0.0,0.0,0.0,0.0,0.0016333333333333755,-5.498166666666667,-5.498166666666667,-0.551,1.5430000000000001,-0.012777777777777999,-0.466,65.536,-0.0369,-0.21357500000000001,0.5540000000000003,100.0,1.0,1.0,202.35333333333332,0.0,0.0,0.0,0.0,0.0,0.0,0.0,8577.1,0.0,55.0,5.0,235.9,0.0,0.0,0.0,0.0,0.0,0.0,0.0,0.0,0.0030000000000001137,0.0030000000000001137,0.0,0.0,0.0,55.0,616.79921,10000.0,85.0,85.0,85.0,85.0,395.0,0.0,0.0,0.0,1.0,20.0,52.016999999999996,52.016999999999996,49.179,49.179,34.0,-28.445,24.705,-29.903333333333336,24.8125,0.0,1782.887,0.6999999999999993,100.0,27.073,26.832,40.543,40.207,0.0,1.0,100.0,0.0,0.0,0.0,0.0,3191.4285714285716,3746.0,4072.0,4000.9,305.0215,302.719,314.924,314.8795,21.764499999999998,20.5111,21.7581,21.2911,314.99999,314.99999,324.99998,324.99998,99.55835714285715,99.50708333333333,99.56514285714286,99.54445714285714,-0.0020000000000000018,-0.11833333333333318,-0.15700000000000003,0.06800000000000006,-0.06333333333333258,-0.04333333333332945,1.546,1.5806666666666669,37.028,29.194333333333333,36.988,34.0695,56.114999999999995,34.3815,59.065,51.4595,54.053,33.584,57.703,49.818,53.236,33.175,57.6815,49.239333333333335,-0.02299999999999991,-0.12300000000000022,0.10823,0.10499000000000001,0.0,205.37,205.305,202.35333333333332,202.35333333333332,0.0,0.0
1,0.0,1.0,0.0,1.0,1.0,0.0,0.0,1.0,0.0,100.0,1.0,1.1856,26.0,0.0,0.0,0.0,51.999998,0.0,26.0,26.0,26.0,26.0,-0.12712500000000002,0.31089999999999995,0.036125000000000004,293.03,-2.6456,-2.80775,-1.5405,-1.3795,-272.08,215.91,190.96625,0.0,0.0,0.0,0.0,0.0036999999999999256,-5.498166666666667,-5.498166666666667,-0.4903,-1.5070000000000001,-0.05788888888888888,-0.278,65.702,-0.0477,-0.2008,1.1560000000000006,100.0,1.0,1.0,202.38,0.0,0.0,0.0,0.0,0.0,0.0,0.0,8578.1,0.0,55.0,5.0,236.49666666666667,1.0,0.0,0.0,0.0,0.0,0.0,0.0,0.0,0.05699999999999861,0.05699999999999861,0.0,0.0,1.0,55.0,616.79921,10000.0,85.000001,85.000001,85.000001,85.000001,395.0,0.0,0.0,0.0,1.0,166.665,54.275999999999996,54.275999999999996,48.248,48.248,34.0,-25.56,17.285,-36.44333333333333,28.055,0.0,1782.833,0.8000000000000007,100.0,27.403,26.686,42.443,42.321,0.0,1.0,100.0,0.0,0.0,0.0,0.0,2941.142857142857,2540.5,4522.444444444444,4891.700000000001,305.806,306.82966666666664,313.686,312.497,21.775,20.5164,21.7697,21.3009,314.999998,314.999998,324.999988,324.999988,99.55835714285715,99.50711666666666,99.5653,99.54461428571429,-0.010333333333333306,-0.135,-0.17459999999999998,0.03980000000000006,-0.021666666666668277,-0.046666666666666856,1.343,1.4056666666666668,37.094,29.227666666666664,37.061,34.1305,56.098,34.424,59.115,51.532,54.036,33.623,57.75,49.8875,53.219,33.21233333333333,57.7255,49.30766666666666,-0.008000000000000007,-0.14049999999999985,0.10554500000000001,0.11126000000000001,0.0,205.825,205.735,202.38,202.38,0.0,0.0
2,0.0,1.0,0.0,1.0,1.0,0.0,0.0,1.0,0.0,100.0,1.0,1.1856,26.0,0.0,0.0,0.0,51.999998,0.0,26.0,26.0,26.0,26.0,-0.149,0.2673000000000001,-0.0959,294.22,-2.6145,-2.77125,-1.5064000000000002,-1.626,-268.92,215.925,190.948625,0.0,0.0,0.0,0.0,0.00553333333333339,-5.498166666666667,-5.498166666666667,-0.5627,0.31699999999999995,-0.034666666666666845,2.6305,65.831,-0.0639,-0.25995,1.4560000000000004,100.0,1.0,1.0,203.56333333333333,0.0,0.0,0.0,0.0,0.0,0.0,0.0,8628.3,0.0,55.0,5.0,236.96,0.0,0.0,0.0,0.0,0.0,0.0,0.0,0.0,0.10500000000000043,0.10500000000000043,0.0,0.0,0.0,55.0,616.79921,10000.0,85.000001,85.000001,85.000001,85.000001,395.0,0.0,0.0,0.0,1.0,333.33500000000004,52.612,52.612,50.888,50.888,34.0,-29.674999999999997,20.565,-27.176666666666666,19.12,0.0,1782.785,0.8599999999999994,100.0,28.108,26.724,42.044,41.147,0.0,1.0,100.0,0.0,0.0,0.0,0.0,3294.714285714286,3049.6,3606.6666666666665,3465.2,304.6375,305.24966666666666,315.99875,316.3945,21.7845,20.5211,21.7794,21.3089,314.999998,314.999998,324.999988,324.999988,99.55835714285715,99.50713333333333,99.56542857142857,99.54474285714285,-0.024666666666666615,-0.14733333333333332,-0.20739999999999992,0.021200000000000108,-0.04833333333333201,-0.07166666666666544,1.7046666666666668,1.7610000000000001,37.153,29.256999999999998,37.120999999999995,34.1805,56.087,34.462,59.149,51.5805,54.025,33.658500000000004,57.7815,49.9345,53.207,33.246,57.7545,49.35333333333333,-0.008000000000000007,-0.14049999999999985,0.10712500000000001,0.10590500000000001,0.0,206.26999999999998,206.16500000000002,203.56333333333333,203.56333333333333,0.0,0.0
3,0.0,1.0,0.0,1.0,1.0,0.0,0.0,1.0,0.0,100.0,1.0,1.1856,26.0,0.0,0.0,0.0,51.999998,0.0,26.0,26.0,26.0,26.0,-0.150625,0.28880000000000017,0.11887500000000001,293.442,-2.6395,-2.71475,-1.4962,-1.5816,-265.76,215.9375,190.929625,0.0,0.0,0.0,0.0,0.0073666666666665215,-5.498166666666667,-5.498166666666667,-0.5048,0.5760000000000001,-0.015555555555555767,-0.404,65.976,-0.08310000000000001,-0.188725,1.25,100.0,1.0,1.0,203.51,0.0,0.0,0.0,0.0,0.0,0.0,0.0,8626.1,0.0,55.0,5.0,237.48333333333335,1.0,0.0,0.0,0.0,0.0,0.0,0.0,0.0,0.1529999999999987,0.1529999999999987,0.0,0.0,1.0,55.0,616.79921,10000.0,85.000001,85.000001,85.000001,85.000001,395.0,0.0,0.0,0.0,1.0,333.33500000000004,53.574,53.574,48.065,48.065,34.0,-26.2675,18.633333333333333,-35.69,25.0875,0.0,1782.736,0.9250000000000007,100.0,27.737000000000002,26.869,42.222,41.309,0.0,1.0,100.0,0.0,0.0,0.0,0.0,2941.5714285714284,2906.7,4418.888888888889,4260.6,305.894,305.59133333333335,314.03025,314.31975,21.7937,20.526,21.7893,21.3173,314.999998,314.999998,324.999988,324.999988,99.55835714285715,99.50713333333333,99.56557142857143,99.54487142857143,-0.03299999999999992,-0.15799999999999992,-0.20399999999999996,0.021400000000000086,-0.036666666666668846,-0.060000000000002274,1.462,1.5110000000000001,37.211,29.287666666666667,37.183,34.2335,56.072,34.5035,59.1865,51.6415,54.010999999999996,33.6965,57.8165,49.993,53.192,33.282,57.787,49.411,-0.008999999999999897,-0.14250000000000007,0.10751500000000001,0.10809,0.0,206.75,206.65,203.51,203.51,0.0,0.0
4,0.0,1.0,0.0,1.0,1.0,0.0,0.0,1.0,0.0,100.0,1.0,1.1856,26.0,0.0,0.0,0.0,51.999998,0.0,26.0,26.0,26.0,26.0,-0.147875,0.2966,-0.00385,293.655,-2.6639,-2.7883750000000003,-1.4355,-1.5982,-262.39,215.9475,190.91,0.0,0.0,0.0,0.0,0.009333333333333305,-5.498166666666667,-5.498166666666667,-0.5339,-0.8825000000000001,-0.08055555555555571,-1.604,66.123,-0.09390000000000001,-0.23322500000000002,1.6179999999999994,100.0,1.0,1.0,204.07666666666665,0.0,0.0,0.0,0.0,0.0,0.0,0.0,8650.1,0.0,55.0,5.0,238.01666666666665,0.0,0.0,0.0,0.0,0.0,0.0,0.0,0.0,0.20400000000000063,0.20400000000000063,0.0,0.0,0.0,55.0,616.79921,10000.0,85.000001,85.000001,85.000001,85.000001,395.0,0.0,0.0,0.0,1.0,166.665,53.36,53.36,48.676,48.676,34.0,-31.252499999999998,17.855,-33.43333333333334,20.215,0.0,1782.687,1.0,100.0,27.451,26.651,42.855000000000004,41.555,0.0,1.0,100.0,0.0,0.0,0.0,0.0,3302.0,2819.8,4211.666666666667,3747.0,304.9405,305.7063333333333,314.59925,315.439,21.8035,20.5311,21.8,21.3263,314.999998,314.999998,324.999988,324.999988,99.55837142857143,99.50715,99.56571428571428,99.54501428571429,-0.05966666666666676,-0.18133333333333312,-0.22399999999999998,-0.008199999999999985,-0.04333333333332945,-0.036666666666668846,1.5333333333333332,1.5816666666666668,37.272,29.319,37.25,34.289,56.057,34.545,59.230000000000004,51.702,53.997,33.7345,57.857,50.051,53.178,33.319,57.8245,49.467666666666666,0.0030000000000001137,-0.15050000000000008,0.10400500000000001,0.10054500000000001,0.0,207.14499999999998,206.995,204.07666666666665,204.07666666666665,0.0,0.0
5,0.0,1.0,0.0,1.0,1.0,0.0,0.0,1.0,0.0,100.0,1.0,1.1856,26.0,0.0,0.0,0.0,51.999998,0.0,26.0,26.0,26.0,26.0,-0.176875,0.2824,-0.038,293.869,-2.6728,-2.761125,-1.5076,-1.6268,-259.01,215.9525,190.89,0.0,0.0,0.0,0.0,0.011299999999999977,-5.498166666666667,-5.498166666666667,-0.5379,0.4575,-0.08000000000000007,0.8185,66.268,-0.10930000000000001,-0.21680000000000002,1.5200000000000005,100.0,1.0,1.0,204.58333333333331,0.0,0.0,0.0,0.0,0.0,0.0,0.0,8671.6,0.0,55.0,5.0,238.5366666666667,1.0,0.0,0.0,0.0,0.0,0.0,0.0,0.0,0.254999999999999,0.254999999999999,0.0,0.0,1.0,55.0,616.79921,10000.0,85.000001,85.000001,85.000001,85.000001,395.0,0.0,0.0,0.0,1.0,333.33500000000004,53.558,53.558,49.286,49.286,34.0,-29.43,18.351666666666667,-33.46666666666667,21.47,0.0,1782.635,0.5650000000000013,100.0,27.765,26.392,42.596000000000004,40.959,0.0,1.0,100.0,0.0,0.0,0.0,0.0,3130.285714285714,2854.8,4061.6666666666665,3985.4,305.221,305.78766666666667,314.95525,315.001,21.8134,20.5361,21.8105,21.3349,314.999998,314.999998,324.999988,324.999988,99.55837142857143,99.50718333333333,99.56584285714285,99.54515714285715,-0.05066666666666664,-0.16466666666666674,-0.23620000000000008,-0.016000000000000014,-0.045000000000001705,-0.03333333333333144,1.548,1.6246666666666667,37.334,29.350666666666665,37.315,34.3435,56.044,34.587,59.269,51.7595,53.985,33.7735,57.8935,50.1055,53.165,33.355666666666664,57.8585,49.52133333333333,-0.013500000000000068,-0.12150000000000016,0.110935,0.10225500000000001,0.0,207.635,207.505,204.58333333333331,204.58333333333331,0.0,0.0
6,0.0,1.0,0.0,1.0,1.0,0.0,0.0,1.0,0.0,100.0,1.0,1.1856,26.0,0.0,0.0,0.0,51.999998,0.0,26.0,26.0,26.0,26.0,-0.17,0.3104,0.00455,293.533,-2.6194,-2.818125,-1.5306000000000002,-1.5942,-255.82999999999998,215.95499999999998,190.870375,0.0,0.0,0.0,0.0,0.01313333333333333,-5.498166666666667,-5.498166666666667,-0.5256000000000001,0.030000000000000027,-0.08388888888888868,0.686,66.408,-0.11380000000000001,-0.20392500000000002,1.2920000000000007,100.0,1.0,1.0,204.90333333333334,0.0,0.0,0.0,0.0,0.0,0.0,0.0,8685.1,0.0,55.0,5.0,239.04000000000002,0.0,0.0,0.0,0.0,0.0,0.0,0.0,0.0,0.3030000000000008,0.3030000000000008,0.0,0.0,0.0,55.0,616.79921,10000.0,85.000001,85.000001,85.000001,85.000001,395.0,0.0,0.0,0.0,1.0,333.33500000000004,53.528,53.528,48.599000000000004,48.599000000000004,34.0,-28.88,18.786666666666665,-35.75,22.175,0.0,1782.587,0.6099999999999994,100.0,27.739,26.348,42.853,41.172,0.0,1.0,100.0,0.0,0.0,0.0,0.0,3133.5714285714284,2866.5,4235.111111111111,4075.1000000000004,305.183,305.719,314.47625,314.766,21.8227,20.5408,21.8205,21.3433,314.999998,314.999998,324.999988,324.999988,99.55838571428572,99.5072,99.56598571428572,99.54528571428571,-0.046333333333333115,-0.16900000000000004,-0.23399999999999999,-0.009600000000000053,-0.060000000000002274,-0.06333333333333258,1.5010000000000001,1.5616666666666668,37.391999999999996,29.380333333333333,37.378,34.396,56.032,34.6265,59.3085,51.817,53.973,33.8095,57.9305,50.161,53.152,33.39,57.8925,49.57533333333333,-0.026499999999999968,-0.11850000000000005,0.10792500000000001,0.108145,0.0,208.055,207.96,204.90333333333334,204.90333333333334,0.0,0.0
7,0.0,1.0,0.0,1.0,1.0,0.0,0.0,1.0,0.0,100.0,1.0,1.1856,26.0,0.0,0.0,0.0,51.999998,0.0,26.0,26.0,26.0,26.0,-0.130375,0.28690000000000015,0.010325,293.411,-2.588,-2.8095,-1.4904,-1.6401,-252.44,215.9525,190.849875,0.0,0.0,0.0,0.0,0.015100000000000002,-5.498166666666667,-5.498166666666667,-0.5359,-0.0044999999999999485,-0.07666666666666666,-0.2765,66.55199999999999,-0.1131,-0.2238,1.1500000000000004,100.0,1.0,1.0,205.39,0.0,0.0,0.0,0.0,0.0,0.0,0.0,8705.7,0.0,55.0,5.0,239.56,1.0,0.0,0.0,0.0,0.0,0.0,0.0,0.0,0.3539999999999992,0.3539999999999992,0.0,0.0,1.0,55.0,616.79921,10000.0,85.000001,85.000001,85.000001,85.000001,395.0,0.0,0.0,0.0,1.0,333.33500000000004,52.979,52.979,48.965,48.965,34.0,-29.174999999999997,19.641666666666666,-33.79333333333334,21.61,0.0,1782.536,0.16499999999999915,100.0,27.897,26.698999999999998,42.873000000000005,41.451,0.0,1.0,100.0,0.0,0.0,0.0,0.0,3315.4285714285716,2864.1,4097.111111111111,3936.5,304.7925,305.51166666666666,314.849,314.9865,21.8327,20.546,21.8311,21.3523,314.999998,314.999998,324.999988,324.999988,99.55838571428572,99.50721666666666,99.56614285714285,99.54542857142857,-0.020333333333333314,-0.15100000000000002,-0.2367999999999999,-0.017000000000000015,-0.05333333333332746,-0.04833333333333201,1.528,1.569,37.454,29.412333333333336,37.444,34.452,56.019999999999996,34.6685,59.35,51.878,53.961,33.848,57.969,50.2195,53.138999999999996,33.42666666666666,57.9285,49.632333333333335,-0.06549999999999989,-0.08499999999999996,0.10381000000000001,0.10282500000000001,0.0,208.495,208.4,205.39,205.39,0.0,0.0
8,0.0,1.0,0.0,1.0,1.0,0.0,0.0,1.0,0.0,100.0,1.0,1.1856,26.0,0.0,0.0,0.0,51.999998,0.0,26.0,26.0,26.0,26.0,-0.109625,0.28869999999999996,0.007475000000000001,293.503,-2.6658,-2.747875,-1.4682,-1.6325,-249.04,215.9475,190.82925,0.0,0.0,0.0,0.0,0.017100000000000004,-5.498166666666667,-5.498166666666667,-0.5372,-0.43700000000000006,-0.06188888888888888,0.6835,66.69800000000001,-0.0979,-0.21815,0.5540000000000003,100.0,1.0,1.0,205.7733333333333,0.0,0.0,0.0,0.0,0.0,0.0,0.0,8722.0,0.0,55.0,5.0,240.08333333333331,0.0,0.0,0.0,0.0,0.0,0.0,0.0,0.0,0.40500000000000114,0.40500000000000114,0.0,0.0,0.0,55.0,616.79921,10000.0,85.000001,85.000001,85.000001,85.000001,395.0,0.0,0.0,0.0,1.0,333.33500000000004,53.558,53.558,48.325,48.325,34.0,-26.47,20.436666666666667,-31.83,24.305,0.0,1782.484,0.10500000000000043,100.0,27.677,26.565,43.044,41.496,0.0,1.0,100.0,0.0,0.0,0.0,0.0,3020.285714285714,2963.9,4098.0,4083.6000000000004,305.5935,305.47133333333335,314.75025,314.68875,21.8425,20.551099999999998,21.8416,21.3612,314.999998,314.999998,324.999988,324.999988,99.55838571428572,99.50723333333333,99.56628571428571,99.54557142857144,-0.008333333333333304,-0.1306666666666667,-0.19879999999999998,0.017000000000000126,-0.05333333333332746,-0.05333333333332746,1.5183333333333333,1.543,37.515,29.444,37.51,34.5075,56.004000000000005,34.709,59.391,51.9385,53.946,33.8855,58.0075,50.2775,53.123,33.462666666666664,57.964,49.68933333333334,-0.0665,-0.07850000000000001,0.10383500000000001,0.11034000000000001,0.0,208.91,208.87,205.7733333333333,205.7733333333333,0.0,0.0
9,0.0,1.0,0.0,1.0,1.0,0.0,0.0,1.0,0.0,100.0,1.0,1.1856,26.0,0.0,0.0,0.0,51.999998,0.0,26.0,26.0,26.0,26.0,-0.09625,0.2815000000000001,0.0332,293.259,-2.5871,-2.769125,-1.5211000000000001,-1.5853000000000002,-245.82999999999998,215.9375,190.8095,0.0,0.0,0.0,0.0,0.018933333333333358,-5.498166666666667,-5.498166666666667,-0.5385,0.5529999999999999,-0.06744444444444442,0.8785000000000001,66.832,-0.08120000000000001,-0.2141,0.4400000000000004,100.0,1.0,1.0,206.2733333333333,0.0,0.0,0.0,0.0,0.0,0.0,0.0,8743.2,0.0,55.0,5.0,240.56666666666666,1.0,0.0,0.0,0.0,0.0,0.0,0.0,0.0,0.4529999999999994,0.4529999999999994,0.0,0.0,1.0,55.0,616.79921,10000.0,85.000001,85.000001,85.000001,85.000001,395.0,0.0,0.0,0.0,1.0,166.665,52.719,52.719,49.103,49.103,34.0,-27.3575,21.903333333333332,-31.536666666666665,24.4525,0.0,1782.438,-0.09499999999999886,100.0,28.101,26.811,42.753,41.491,0.0,1.0,100.0,0.0,0.0,0.0,0.0,3275.714285714286,2997.3,4041.1111111111113,4059.0,304.76,305.3106666666667,314.984,314.83075,21.8518,20.556,21.8515,21.3696,314.999998,314.999998,324.999988,324.999988,99.55838571428572,99.50725,99.56642857142857,99.5457,0.016000000000000014,-0.10733333333333328,-0.1956,0.0394000000000001,-0.045000000000001705,-0.054999999999999716,1.552,1.5656666666666668,37.574,29.475,37.572,34.56,55.991,34.748,59.427,51.9945,53.933,33.921,58.0415,50.331,53.11,33.49666666666667,57.995,49.74133333333333,-0.08549999999999991,-0.06450000000000022,0.10974500000000001,0.111435,0.0,209.35500000000002,209.29000000000002,206.2733333333333,206.2733333333333,0.0,0.0
10,0.0,1.0,0.0,1.0,1.0,0.0,0.0,1.0,0.0,100.0,1.0,1.1856,26.0,0.0,0.0,0.0,51.999998,0.0,26.0,26.0,26.0,26.0,-0.05825,0.2836000000000001,-0.0162,293.167,-2.6631,-2.74625,-1.4993,-1.5596,-242.42000000000002,215.9275,190.78875,0.0,0.0,0.0,0.0,0.02093333333333336,-5.498166666666667,-5.498166666666667,-0.5221,-0.45850000000000013,-0.03188888888888908,0.29,66.97800000000001,-0.0591,-0.20815,0.11600000000000055,100.0,1.0,1.0,206.55333333333334,0.0,0.0,0.0,0.0,0.0,0.0,0.0,8755.0,0.0,55.0,5.0,241.09333333333333,0.0,0.0,0.0,0.0,0.0,0.0,1.0,0.0,0.5040000000000013,0.5040000000000013,0.0,0.0,0.0,55.0,616.79921,10000.0,85.000001,85.000001,85.000001,85.000001,395.0,0.0,0.0,0.0,1.0,333.33500000000004,53.558,53.558,47.974000000000004,47.974000000000004,34.0,-24.8675,20.335,-33.13333333333333,25.509999999999998,0.0,1782.387,-0.16499999999999915,100.0,27.769,26.948,43.022,42.189,0.0,1.0,100.0,0.0,0.0,0.0,0.0,3022.5714285714284,2803.6,4285.111111111111,4195.9,305.7285,305.7746666666667,314.398,314.36725,21.8616,20.5611,21.8622,21.3787,314.999998,314.999998,324.999988,324.999988,99.5584,99.50726666666667,99.56657142857142,99.54584285714286,0.027000000000000135,-0.10499999999999998,-0.1814,0.038799999999999946,-0.04333333333332945,-0.04999999999999716,1.486,1.4906666666666668,37.635,29.506999999999998,37.638999999999996,34.6165,55.976,34.787,59.4695,52.0575,53.919,33.957,58.0805,50.391,53.095,33.53066666666666,58.0315,49.800666666666665,-0.09250000000000003,-0.05650000000000022,0.11087000000000001,0.10075,0.0,209.765,209.76,206.55333333333334,206.55333333333334,0.0,0.0
11,0.0,1.0,0.0,1.0,1.0,0.0,0.0,1.0,0.0,100.0,1.0,1.1856,26.0,0.0,0.0,0.0,51.999998,0.0,26.0,26.0,26.0,26.0,-0.020875,0.2815000000000001,-0.082225,293.579,-2.6766,-2.7032499999999997,-1.5539,-1.5298,-238.8,215.91500000000002,190.766625,0.0,0.0,0.0,0.0,0.022599999999999953,-5.498166666666667,-5.498166666666667,-0.5571,-0.020000000000000018,-0.0067777777777777715,-0.6970000000000001,67.126,-0.0376,-0.22965000000000002,0.05400000000000027,100.0,1.0,1.0,207.25666666666666,0.0,0.0,0.0,0.0,0.0,0.0,0.0,8784.9,0.0,55.0,5.0,241.62333333333333,1.0,0.0,0.0,0.0,0.0,0.0,1.0,0.0,0.5579999999999998,0.5579999999999998,0.0,0.0,1.0,55.0,616.79921,10000.0,85.000001,85.000001,85.000001,85.000001,395.0,0.0,0.0,0.0,1.0,166.665,53.07,53.07,49.194,49.194,34.0,-25.585,22.961666666666666,-27.886666666666663,23.9525,0.0,1782.332,-0.375,100.0,27.486,27.164,42.556,42.101,0.0,1.0,100.0,0.0,0.0,0.0,0.0,3171.285714285714,3000.9,3845.0,3904.4,305.308,305.155,315.559,315.16225,21.8718,20.5668,21.8732,21.3881,314.999998,314.999998,324.999988,324.999988,99.5584,99.50726666666667,99.56671428571428,99.54598571428572,0.046333333333333115,-0.07233333333333314,-0.15679999999999994,0.06920000000000015,-0.05666666666667197,-0.05333333333332746,1.6236666666666668,1.6153333333333333,37.699,29.542333333333332,37.707,34.676,55.959,34.829,59.507,52.1205,53.903999999999996,33.996,58.1155,50.452,53.079,33.568,58.0635,49.86,-0.09549999999999992,-0.05250000000000021,0.11282,0.10132000000000001,0.0,210.22,210.20499999999998,207.25666666666666,207.25666666666666,0.0,0.0
12,0.0,1.0,0.0,1.0,1.0,0.0,0.0,1.0,0.0,100.0,1.0,1.1856,26.0,0.0,0.0,0.0,51.999998,0.0,26.0,26.0,26.0,26.0,-0.032375,0.2905,0.01745,293.091,-2.692,-2.72025,-1.5237,-1.5824,-235.78,215.9025,190.74725,0.0,0.0,0.0,0.0,0.025466666666666526,-5.498166666666667,-5.498166666666667,-0.5435,0.2925,-0.013666666666666938,0.729,67.254,-0.0227,-0.20497500000000002,-0.06400000000000006,100.0,1.0,1.0,207.47,0.0,0.0,0.0,0.0,0.0,0.0,0.0,8794.0,0.0,55.0,5.0,242.08333333333334,0.0,0.0,0.0,0.0,0.0,0.0,1.0,0.0,0.602999999999998,0.602999999999998,0.0,0.0,0.0,55.0,616.79921,10000.0,85.000001,85.000001,85.000001,85.000001,395.0,0.0,0.0,0.0,1.0,333.33500000000004,52.979,52.979,48.141,48.141,34.0,-24.8425,23.938333333333333,-29.213333333333335,29.315,0.0,1782.286,-0.21999999999999886,100.0,27.572,27.136,42.597,41.995000000000005,0.0,1.0,100.0,0.0,0.0,0.0,0.0,3092.285714285714,3118.3,4179.555555555556,4188.8,305.3455,304.96366666666665,314.63975,314.50225,21.8803,20.5715,21.8825,21.3961,314.999998,314.999998,324.999988,324.999988,99.55841428571429,99.50728333333333,99.56684285714286,99.54611428571428,0.05566666666666675,-0.07266666666666666,-0.12139999999999995,0.1097999999999999,-0.02499999999999858,-0.060000000000002274,1.5296666666666667,1.5130000000000001,37.751999999999995,29.572,37.765,34.7255,55.947,34.864,59.5415,52.174,53.891999999999996,34.0275,58.147999999999996,50.5035,53.066,33.59866666666667,58.093,49.910333333333334,-0.0794999999999999,-0.06899999999999995,0.09650500000000001,0.11295500000000001,0.0,210.61,210.63,207.47,207.47,0.0,0.0
13,0.0,1.0,0.0,1.0,1.0,0.0,0.0,1.0,0.0,100.0,1.0,1.1856,26.0,0.0,0.0,0.0,51.999998,0.0,26.0,26.0,26.0,26.0,-0.003875,0.2863,0.0341,292.694,-2.6684,-2.71325,-1.5551,-1.5724,-232.34,215.89,190.7255,0.0,0.0,0.0,0.0,0.026799999999999935,-5.498166666666667,-5.498166666666667,-0.5382,-0.13850000000000007,-0.012777777777777999,-0.4555,67.397,-0.0189,-0.2129,-0.007999999999999119,100.0,1.0,1.0,207.84,0.0,0.0,0.0,0.0,0.0,0.0,0.0,8809.6,0.0,55.0,5.0,242.60000000000002,1.0,0.0,0.0,0.0,0.0,0.0,1.0,0.0,0.6539999999999999,0.6539999999999999,0.0,0.0,1.0,55.0,616.79921,10000.0,85.000001,85.000001,85.000001,85.000001,395.0,0.0,0.0,0.0,1.0,333.33500000000004,52.673,52.673,48.019,48.019,34.0,-24.419999999999998,23.873333333333335,-30.636666666666667,28.655,0.0,1782.234,-0.4400000000000013,100.0,27.774,27.505,42.762,42.616,0.0,1.0,100.0,0.0,0.0,0.0,0.0,3210.285714285714,2997.3,4245.333333333333,4218.8,305.154,305.15366666666665,314.5255,314.32675,21.89,20.5769,21.8931,21.4052,314.999998,314.999998,324.999988,324.999988,99.55841428571429,99.50728333333333,99.567,99.54627142857143,0.08033333333333337,-0.052000000000000046,-0.128,0.09140000000000015,-0.041666666666671404,-0.04833333333333201,1.502,1.502,37.812,29.605666666666664,37.832,34.7825,55.933,34.9055,59.5835,52.241,53.879000000000005,34.066,58.1865,50.567499999999995,53.052,33.635,58.1285,49.973333333333336,-0.11199999999999988,-0.03949999999999987,0.10333500000000001,0.10666,0.0,211.06,211.05,207.84,207.84,0.0,0.0
14,0.0,1.0,0.0,1.0,1.0,0.0,0.0,1.0,0.0,100.0,1.0,1.1856,26.0,0.0,0.0,0.0,51.999998,0.0,26.0,26.0,26.0,26.0,0.016,0.2744,-0.00885,292.892,-2.6959,-2.713875,-1.5642,-1.5499,-228.7,215.875,190.702875,0.0,0.0,0.0,0.0,0.028899999999999926,-5.498166666666667,-5.498166666666667,-0.5499,-0.12650000000000006,0.009888888888888836,-0.378,67.544,-0.0073,-0.22737500000000002,-0.22999999999999954,100.0,1.0,1.0,208.38666666666666,0.0,0.0,0.0,0.0,0.0,0.0,0.0,8832.8,0.0,55.0,5.0,243.13,0.0,0.0,0.0,0.0,0.0,0.0,1.0,0.0,0.7079999999999984,0.7079999999999984,0.0,0.0,0.0,55.0,616.79921,10000.0,85.000001,85.000001,85.000001,85.000001,395.0,0.0,0.0,0.0,1.0,166.665,52.658,52.658,48.218,48.218,34.0,-24.037499999999998,24.456666666666667,-28.223333333333333,28.017500000000002,0.0,1782.183,-0.370000000000001,100.0,27.737000000000002,27.693,42.749,42.769,0.0,1.0,100.0,0.0,0.0,0.0,0.0,3113.285714285714,3055.7,4019.222222222222,4111.6,305.481,304.90133333333335,315.07975,314.60625,21.900199999999998,20.5826,21.9042,21.4149,314.999998,314.999998,324.999988,324.999988,99.55842857142858,99.5073,99.56714285714285,99.54641428571429,0.07433333333333358,-0.05266666666666664,-0.12039999999999995,0.10559999999999992,-0.04333333333332945,-0.03833333333332689,1.5466666666666669,1.543,37.876000000000005,29.641333333333336,37.900999999999996,34.843,55.921,34.944,59.6205,52.3025,53.866,34.1015,58.2215,50.6265,53.039,33.669,58.16,50.031333333333336,-0.10899999999999999,-0.04349999999999987,0.10659,0.11053,0.0,211.505,211.505,208.38666666666666,208.38666666666666,0.0,0.0
15,0.0,1.0,0.0,1.0,1.0,0.0,0.0,1.0,0.0,100.0,1.0,1.1856,26.0,0.0,0.0,0.0,51.999998,0.0,26.0,26.0,26.0,26.0,0.009625,0.27690000000000015,0.00825,292.816,-2.6954,-2.624375,-1.5827,-1.4968,-225.66,215.8625,190.68375,0.0,0.0,0.0,0.0,0.03066666666666651,-5.498166666666667,-5.498166666666667,-0.5407000000000001,0.26549999999999996,0.033333333333333215,0.8515,67.668,0.0038,-0.20980000000000001,-0.3379999999999992,100.0,1.0,1.0,208.73000000000002,0.0,0.0,0.0,0.0,0.0,0.0,0.0,8847.3,0.0,55.0,5.0,243.57666666666665,1.0,0.0,0.0,0.0,0.0,0.0,1.0,0.0,0.7530000000000001,0.7530000000000001,0.0,0.0,1.0,55.0,616.79921,10000.0,85.000001,85.000001,85.000001,85.000001,395.0,0.0,0.0,0.0,1.0,333.33500000000004,52.811,52.811,48.141,48.141,34.0,-21.9225,24.756666666666668,-27.563333333333336,30.2225,0.0,1782.136,-0.3150000000000013,100.0,27.936,27.592,42.672,42.753,0.0,1.0,100.0,0.0,0.0,0.0,0.0,2917.0,3159.8,4012.1111111111113,4359.2,305.885,304.8313333333333,315.0575,314.1105,21.9086,20.5874,21.9134,21.4229,314.999998,314.999998,324.999988,324.999988,99.55842857142858,99.5073,99.56725714285714,99.54654285714285,0.08866666666666667,-0.04200000000000004,-0.10020000000000007,0.12459999999999982,-0.03833333333332689,-0.054999999999999716,1.5230000000000001,1.5330000000000001,37.929,29.671333333333333,37.959,34.893,55.91,34.978,59.6525,52.3575,53.855999999999995,34.132999999999996,58.251,50.6795,53.027,33.699,58.187,50.083,-0.09450000000000003,-0.05449999999999999,0.10839000000000001,0.10475500000000001,0.0,211.905,211.91500000000002,208.73000000000002,208.73000000000002,0.0,0.0
16,0.0,1.0,0.0,1.0,1.0,0.0,0.0,1.0,0.0,100.0,1.0,1.1856,26.0,0.0,0.0,0.0,51.999998,0.0,26.0,26.0,26.0,26.0,0.022,0.27649999999999997,-0.015225,292.801,-2.7531,-2.63375,-1.5544,-1.5584,-222.0,215.85,190.660375,0.0,0.0,0.0,0.0,0.03279999999999994,-5.498166666666667,-5.498166666666667,-0.5604,-0.5595000000000001,0.01855555555555566,0.1085,67.816,0.011300000000000001,-0.22637500000000002,-0.2400000000000002,100.0,1.0,1.0,209.20333333333332,0.0,0.0,0.0,0.0,0.0,0.0,0.0,8867.3,0.0,55.0,5.0,244.11,0.0,0.0,0.0,0.0,0.0,0.0,1.0,0.0,0.8069999999999986,0.8069999999999986,0.0,0.0,0.0,55.0,616.79921,10000.0,85.000001,85.000001,85.000001,85.000001,395.0,0.0,0.0,0.0,1.0,166.665,52.551,52.551,47.989,47.989,34.0,-23.925,25.921666666666667,-26.263333333333335,29.2325,0.0,1782.084,-0.17999999999999972,100.0,27.63,27.641,42.938,42.899,0.0,1.0,100.0,0.0,0.0,0.0,0.0,3113.4285714285716,3249.8,3965.777777777778,4087.8,305.433,304.594,315.1405,314.71275,21.9185,20.5932,21.924599999999998,21.4325,314.999998,314.999998,324.999988,324.999988,99.55844285714285,99.50731666666667,99.56741428571429,99.54668571428572,0.09066666666666645,-0.03533333333333322,-0.09039999999999992,0.13359999999999994,-0.030000000000001137,-0.054999999999999716,1.5526666666666669,1.5576666666666668,37.991,29.707666666666668,38.028999999999996,34.9535,55.894,35.0185,59.6935,52.422,53.841,34.170500000000004,58.289500000000004,50.742,53.010999999999996,33.73533333333333,58.222,50.144333333333336,-0.08899999999999997,-0.06199999999999983,0.10883000000000001,0.10545500000000001,0.0,212.32,212.35000000000002,209.20333333333332,209.20333333333332,0.0,0.0
17,0.0,1.0,0.0,1.0,1.0,0.0,0.0,1.0,0.0,100.0,1.0,1.1856,26.0,0.0,0.0,0.0,51.999998,0.0,26.0,26.0,26.0,26.0,-0.002625,0.2915000000000001,0.029925,292.45,-2.7157999999999998,-2.6174999999999997,-1.5935000000000001,-1.5213999999999999,-218.54,215.8375,190.637875,0.0,0.0,0.0,0.0,0.03479999999999994,-5.498166666666667,-5.498166666666667,-0.5478000000000001,0.361,-0.007222222222222019,-0.8260000000000001,67.956,0.01,-0.20615,-0.02400000000000002,100.0,1.0,1.0,209.55666666666667,0.0,0.0,0.0,0.0,0.0,0.0,0.0,8882.3,0.0,55.0,5.0,244.61,1.0,0.0,0.0,0.0,0.0,0.0,1.0,0.0,0.8580000000000005,0.8580000000000005,0.0,0.0,1.0,55.0,616.79921,10000.0,85.000001,85.000001,85.000001,85.000001,395.0,0.0,0.0,0.0,1.0,166.665,52.475,52.475,47.623,47.623,34.0,-24.88,23.293333333333333,-31.493333333333332,28.8275,0.0,1782.032,-0.21000000000000085,100.0,27.897,27.908,42.721000000000004,42.92,0.0,1.0,100.0,0.0,0.0,0.0,0.0,3222.4285714285716,3019.7,4388.333333333333,4246.3,305.1955,305.1193333333333,314.292,314.338,21.9282,20.5987,21.9351,21.4416,314.999998,314.999998,324.999988,324.999988,99.55845714285714,99.50731666666667,99.56757142857143,99.54684285714286,0.0813333333333337,-0.050000000000000044,-0.11260000000000003,0.1060000000000001,-0.045000000000001705,-0.04833333333333201,1.5003333333333333,1.5103333333333333,38.051,29.741999999999997,38.094,35.01,55.882,35.058,59.7305,52.483000000000004,53.83,34.2065,58.323499999999996,50.8005,52.998999999999995,33.769999999999996,58.2535,50.202,-0.09099999999999997,-0.06400000000000006,0.10808000000000001,0.10128500000000001,0.0,212.805,212.8,209.55666666666667,209.55666666666667,0.0,0.0
18,0.0,1.0,0.0,1.0,1.0,0.0,0.0,1.0,0.0,100.0,1.0,1.1856,26.0,0.0,0.0,0.0,51.999998,0.0,26.0,26.0,26.0,26.0,-0.0085,0.2704,-0.00795,292.465,-2.7349,-2.6035,-1.601,-1.4759,-215.47,215.825,190.618125,0.0,0.0,0.0,0.0,0.036599999999999966,-5.498166666666667,-5.498166666666667,-0.5595,-0.4630000000000001,0.010222222222222133,0.994,68.077,0.0067,-0.22125,-0.07600000000000051,100.0,1.0,1.0,209.97,0.0,0.0,0.0,0.0,0.0,0.0,0.0,8899.8,0.0,55.0,5.0,245.05,0.0,0.0,0.0,0.0,0.0,0.0,1.0,0.0,0.9029999999999987,0.9029999999999987,0.0,0.0,0.0,55.0,616.79921,10000.0,85.000001,85.000001,85.000001,85.000001,395.0,0.0,0.0,0.0,1.0,166.665,52.353,52.353,47.684,47.684,34.0,-24.23,25.638333333333332,-28.963333333333335,29.18,0.0,1781.988,-0.23499999999999943,100.0,27.877,27.642,43.111000000000004,43.082,0.0,1.0,100.0,0.0,0.0,0.0,0.0,3139.5714285714284,3279.3,4108.333333333333,4207.5,305.31,304.5473333333333,314.8495,314.4835,21.9365,20.6035,21.9444,21.4497,314.999998,314.999998,324.999988,324.999988,99.55847142857142,99.50731666666667,99.5677,99.54697142857142,0.08700000000000019,-0.04033333333333311,-0.10699999999999998,0.13200000000000012,-0.041666666666671404,-0.046666666666666856,1.5210000000000001,1.5096666666666667,38.102999999999994,29.772,38.153,35.0605,55.870999999999995,35.091,59.7645,52.538,53.818,34.2375,58.355000000000004,50.8535,52.986999999999995,33.79933333333334,58.2825,50.25366666666667,-0.08850000000000002,-0.0625,0.10678000000000001,0.11198000000000001,0.0,213.155,213.14499999999998,209.97,209.97,0.0,0.0
19,0.0,1.0,0.0,1.0,1.0,0.0,0.0,1.0,0.0,100.0,1.0,1.1856,26.0,0.0,0.0,0.0,51.999998,0.0,26.0,26.0,26.0,26.0,0.003375,0.28059999999999996,0.059975,291.962,-2.6541,-2.701625,-1.6135000000000002,-1.4629,-212.0,215.8125,190.5955,0.0,0.0,0.0,0.0,0.03859999999999997,-5.498166666666667,-5.498166666666667,-0.5499,0.7735,0.013111111111111073,-0.7405,68.215,0.0086,-0.211575,-0.09200000000000053,100.0,1.0,1.0,210.35000000000002,0.0,0.0,0.0,0.0,0.0,0.0,0.0,8916.0,0.0,55.0,5.0,245.54666666666668,1.0,0.0,0.0,0.0,0.0,0.0,1.0,0.0,0.9540000000000006,0.9540000000000006,0.0,0.0,1.0,55.0,616.79921,10000.0,85.000001,85.000001,85.000001,85.000001,395.0,0.0,0.0,0.0,1.0,166.665,51.772999999999996,51.772999999999996,47.44,47.44,34.0,-24.36,24.916666666666668,-31.266666666666666,29.6125,0.0,1781.937,-0.1999999999999993,100.0,28.326999999999998,28.322,42.883,43.196,0.0,1.0,100.0,0.0,0.0,0.0,0.0,3223.0,3123.8,4313.777777777777,4372.7,305.074,304.586,314.475,314.06275,21.9462,20.6092,21.9549,21.4588,314.999998,314.999998,324.999988,324.999988,99.55848571428571,99.50731666666667,99.56782857142858,99.54711428571429,0.08333333333333348,-0.057666666666666755,-0.11439999999999995,0.11680000000000001,-0.05333333333332746,-0.046666666666666856,1.4946666666666668,1.5010000000000001,38.164,29.807333333333332,38.218,35.1175,55.86,35.132,59.8005,52.5995,53.808,34.275,58.388999999999996,50.9125,52.976,33.83533333333334,58.313,50.31166666666667,-0.09399999999999986,-0.06349999999999989,0.10731,0.10958000000000001,0.0,213.61,213.60500000000002,210.35000000000002,210.35000000000002,0.0,0.0
20,0.0,1.0,0.0,1.0,1.0,0.0,0.0,1.0,0.0,100.0,1.0,1.1856,26.0,0.0,0.0,0.0,51.999998,0.0,26.0,26.0,26.0,26.0,0.014125,0.26080000000000014,0.0351,292.358,-2.7456,-2.661,-1.537,-1.5874000000000001,-208.51999999999998,215.8,190.573,0.0,0.0,0.0,0.0,0.0406333333333333,-5.498166666666667,-5.498166666666667,-0.5553,-1.1225,0.013111111111111073,0.466,68.354,0.0076,-0.2238,-0.09799999999999986,100.0,1.0,1.0,210.71333333333334,0.0,0.0,0.0,0.0,0.0,0.0,0.0,8931.3,0.0,55.0,5.0,246.04666666666668,0.0,0.0,0.0,0.0,0.0,0.0,0.0,0.0,1.004999999999999,1.004999999999999,0.0,0.0,0.0,55.0,616.79921,10000.0,85.000001,85.000001,85.000001,85.000001,395.0,0.0,0.0,0.0,1.0,333.33500000000004,52.734,52.734,47.089,47.089,34.0,-22.8975,24.46,-28.346666666666664,30.9875,0.0,1781.885,-0.129999999999999,100.0,27.951999999999998,27.821,43.563,43.511,0.0,1.0,100.0,0.0,0.0,0.0,0.0,2970.4285714285716,3130.8,4136.222222222223,4235.6,305.859,304.95933333333335,314.684,314.2725,21.9555,20.6146,21.9656,21.4681,314.999998,314.999998,324.999988,324.999988,99.55848571428571,99.50733333333334,99.56798571428571,99.54725714285715,0.08366666666666678,-0.05033333333333312,-0.10079999999999989,0.125,-0.041666666666671404,-0.05333333333332746,1.474,1.471,38.222,29.841666666666665,38.285,35.1755,55.845,35.17,59.841,52.663,53.794,34.3105,58.4265,50.9735,52.961,33.86933333333333,58.3475,50.37166666666667,-0.08899999999999997,-0.06550000000000011,0.110255,0.10451,0.0,213.985,214.0,210.71333333333334,210.71333333333334,0.0,0.0
21,0.0,1.0,0.0,1.0,1.0,0.0,0.0,1.0,0.0,100.0,1.0,1.1856,26.0,0.0,0.0,0.0,51.999998,0.0,26.0,26.0,26.0,26.0,-0.00425,0.27690000000000015,-0.070575,292.664,-2.7111,-2.667875,-1.6029,-1.5471,-205.23000000000002,215.79000000000002,190.551375,0.0,0.0,0.0,0.0,0.04253333333333331,-5.498166666666667,-5.498166666666667,-0.5765,0.38149999999999995,-0.0040000000000000036,0.323,68.47800000000001,0.0021000000000000003,-0.223425,-0.04600000000000026,100.0,1.0,1.0,211.32,0.0,0.0,0.0,0.0,0.0,0.0,0.0,8957.1,0.0,55.0,5.0,246.49333333333334,1.0,0.0,0.0,0.0,0.0,0.0,0.0,0.0,1.0530000000000008,1.0530000000000008,0.0,0.0,1.0,55.0,616.79921,10000.0,85.000001,85.000001,85.000001,85.000001,395.0,0.0,0.0,0.0,1.0,166.665,52.368,52.368,48.203,48.203,34.0,-23.4625,24.923333333333332,-27.946666666666665,27.927500000000002,0.0,1781.838,-0.21499999999999986,100.0,28.187,27.902,42.977000000000004,43.064,0.0,1.0,100.0,0.0,0.0,0.0,0.0,3101.4285714285716,3135.7,4019.4444444444443,4016.3,305.3935,304.95033333333333,315.1435,314.96075,21.9645,20.6199,21.9753,21.4765,314.999998,314.999998,324.999988,324.999988,99.5585,99.50733333333334,99.56811428571429,99.5474,0.09299999999999997,-0.04166666666666674,-0.10839999999999994,0.1257999999999999,-0.041666666666671404,-0.06499999999999773,1.5836666666666668,1.5806666666666669,38.278,29.874333333333333,38.346000000000004,35.2285,55.833,35.207499999999996,59.8725,52.7175,53.783,34.345,58.4555,51.025999999999996,52.949,33.90233333333333,58.3735,50.423,-0.09799999999999986,-0.06050000000000022,0.10887000000000001,0.11205500000000002,0.0,214.39499999999998,214.42000000000002,211.32,211.32,0.0,0.0
22,0.0,1.0,0.0,1.0,1.0,0.0,0.0,1.0,0.0,100.0,1.0,1.1856,26.0,0.0,0.0,0.0,51.999998,0.0,26.0,26.0,26.0,26.0,0.014625,0.2802,0.011600000000000001,292.236,-2.6476,-2.715625,-1.5965,-1.5341,-201.74,215.7775,190.527625,0.0,0.0,0.0,0.0,0.04456666666666653,-5.498166666666667,-5.498166666666667,-0.5572,0.04599999999999993,0.0020000000000000018,-0.483,68.617,0.0016,-0.20420000000000002,-0.016000000000000014,100.0,1.0,1.0,211.5366666666667,0.0,0.0,0.0,0.0,0.0,0.0,0.0,8966.3,0.0,55.0,5.0,246.99333333333334,0.0,0.0,0.0,0.0,0.0,0.0,0.0,0.0,1.1039999999999992,1.1039999999999992,0.0,0.0,0.0,55.0,616.79921,10000.0,85.000001,85.000001,85.000001,85.000001,395.0,0.0,0.0,0.0,1.0,333.33500000000004,52.551,52.551,47.15,47.15,34.0,-22.735,23.37833333333333,-30.773333333333333,30.085,0.0,1781.786,-0.22499999999999787,100.0,28.088,28.163,43.225,43.358000000000004,0.0,1.0,100.0,0.0,0.0,0.0,0.0,3037.857142857143,2967.6,4300.333333333333,4310.0,305.6765,305.173,314.468,314.1775,21.974,20.6254,21.9859,21.4857,314.999998,314.999998,324.999988,324.999988,99.55851428571428,99.50735,99.56827142857144,99.54754285714286,0.08099999999999996,-0.06099999999999994,-0.1107999999999999,0.11340000000000017,-0.04333333333332945,-0.04333333333332945,1.4963333333333333,1.4866666666666668,38.338,29.909,38.412,35.286,55.821,35.2465,59.912,52.7795,53.771,34.381,58.4925,51.086,52.936,33.93666666666667,58.4075,50.48166666666667,-0.09699999999999998,-0.06199999999999983,0.10128500000000001,0.109035,0.0,214.845,214.815,211.5366666666667,211.5366666666667,0.0,0.0
23,0.0,1.0,0.0,1.0,1.0,0.0,0.0,1.0,0.0,100.0,1.0,1.1856,26.0,0.0,0.0,0.0,51.999998,0.0,26.0,26.0,26.0,26.0,0.009875,0.25140000000000007,-0.008325,292.221,-2.678,-2.668375,-1.6502,-1.5957,-198.23000000000002,215.76749999999998,190.504125,0.0,0.0,0.0,0.0,0.046633333333333304,-5.498166666666667,-5.498166666666667,-0.5760000000000001,-0.16300000000000003,0.005555555555555536,0.5745,68.75,-0.0004,-0.22905,0.006000000000000227,100.0,1.0,1.0,212.07999999999998,0.0,0.0,0.0,0.0,0.0,0.0,0.0,8989.3,0.0,55.0,5.0,247.47666666666666,1.0,0.0,0.0,0.0,0.0,0.0,0.0,0.0,1.1550000000000011,1.1550000000000011,0.0,0.0,1.0,55.0,616.79921,10000.0,85.000001,85.000001,85.000001,85.000001,395.0,0.0,0.0,0.0,1.0,333.33500000000004,51.757999999999996,51.757999999999996,48.096000000000004,48.096000000000004,34.0,-24.5075,25.391666666666666,-28.326666666666664,28.5725,0.0,1781.734,-0.26500000000000057,100.0,28.448,28.076,43.379,43.476,0.0,1.0,100.0,0.0,0.0,0.0,0.0,3230.4285714285716,3192.2,3990.8888888888887,4016.4,304.935,304.7366666666667,315.2355,314.8715,21.9835,20.631,21.9964,21.495,314.999998,314.999998,324.999988,324.999988,99.55852857142857,99.50735,99.56841428571428,99.54768571428572,0.08999999999999986,-0.04499999999999993,-0.10520000000000007,0.121,-0.041666666666671404,-0.05833333333333002,1.545,1.5523333333333333,38.397,29.944,38.477999999999994,35.3435,55.809,35.286500000000004,59.948499999999996,52.841499999999996,53.759,34.417500000000004,58.5265,51.1455,52.923,33.972,58.438,50.53966666666666,-0.09549999999999992,-0.0625,0.099665,0.11715,0.0,215.235,215.235,212.07999999999998,212.07999999999998,0.0,0.0
24,0.0,1.0,0.0,1.0,1.0,0.0,0.0,1.0,0.0,100.0,1.0,1.1856,26.0,0.0,0.0,0.0,51.999998,0.0,26.0,26.0,26.0,26.0,0.00525,0.2713000000000001,-0.0536,292.435,-2.7016,-2.67925,-1.5685,-1.5372,-194.93,215.755,190.481625,0.0,0.0,0.0,0.0,0.04853333333333332,-5.498166666666667,-5.498166666666667,-0.5809000000000001,-0.5055000000000001,0.01444444444444426,1.1885000000000001,68.879,0.0009000000000000001,-0.21895,-0.1299999999999999,100.0,1.0,1.0,212.37333333333333,0.0,0.0,0.0,0.0,0.0,0.0,0.0,9001.7,0.0,55.0,5.0,247.93666666666667,0.0,0.0,0.0,0.0,0.0,0.0,0.0,0.0,1.2029999999999994,1.2029999999999994,0.0,0.0,0.0,55.0,616.79921,10000.0,85.000001,85.000001,85.000001,85.000001,395.0,0.0,0.0,0.0,1.0,333.33500000000004,52.887,52.887,47.226,47.226,34.0,-22.06,24.026666666666667,-29.02,29.8525,0.0,1781.686,-0.28000000000000114,100.0,28.136,27.813,43.434,43.42,0.0,1.0,100.0,0.0,0.0,0.0,0.0,2920.0,3039.9,4223.555555555556,4197.9,305.905,305.248,314.52875,314.513,21.9923,20.6362,22.0063,21.5036,314.999998,314.999998,324.999988,324.999988,99.55854285714285,99.50736666666667,99.56855714285714,99.54784285714285,0.08766666666666634,-0.04466666666666663,-0.09499999999999997,0.12840000000000007,-0.03833333333332689,-0.05833333333333002,1.5070000000000001,1.497,38.452,29.976,38.539,35.3975,55.797,35.3215,59.9835,52.899,53.748000000000005,34.45,58.559,51.2005,52.911,34.003,58.468,50.593666666666664,-0.09850000000000003,-0.05250000000000021,0.09976,0.11275,0.0,215.63,215.635,212.37333333333333,212.37333333333333,0.0,0.0
25,0.0,1.0,0.0,1.0,1.0,0.0,0.0,1.0,0.0,100.0,1.0,1.1856,26.0,0.0,0.0,0.0,51.999998,0.0,26.0,26.0,26.0,26.0,0.000125,0.2653000000000001,-0.019075,292.252,-2.7677,-2.63675,-1.5847,-1.5409000000000002,-191.20999999999998,215.745,190.45475,0.0,0.0,0.0,0.0,0.05069999999999997,-5.498166666666667,-5.498166666666667,-0.6075,0.18599999999999994,0.017888888888888843,0.02,69.019,0.0037,-0.22095,-0.21999999999999975,100.0,1.0,1.0,212.92333333333335,0.0,0.0,0.0,0.0,0.0,0.0,0.0,9025.0,0.0,55.0,5.0,248.44,1.0,0.0,0.0,0.0,0.0,0.0,0.0,0.0,1.256999999999998,1.256999999999998,0.0,0.0,1.0,55.0,616.79921,10000.0,85.000001,85.000001,85.000001,85.000001,395.0,0.0,0.0,0.0,1.0,166.665,51.727000000000004,51.727000000000004,47.974000000000004,47.974000000000004,34.0,-25.4275,26.921666666666667,-27.009999999999998,28.385,0.0,1781.633,-0.2699999999999996,100.0,28.131,28.1,43.081,43.229,0.0,1.0,100.0,0.0,0.0,0.0,0.0,3260.4285714285716,3354.5,3952.8888888888887,4096.5,304.9945,304.232,315.267,314.74775,22.0022,20.6421,22.0173,21.5132,314.999998,314.999998,324.999988,324.999988,99.55854285714285,99.50736666666667,99.56871428571428,99.54798571428572,0.09133333333333349,-0.03733333333333322,-0.10120000000000007,0.12040000000000006,-0.03999999999999915,-0.06666666666666998,1.5526666666666669,1.5603333333333333,38.513999999999996,30.013333333333335,38.608000000000004,35.457499999999996,55.783,35.3635,60.019999999999996,52.961,53.733999999999995,34.489,58.593,51.260999999999996,52.896,34.04,58.4985,50.65266666666667,-0.09850000000000003,-0.05699999999999994,0.10967500000000001,0.101,0.0,216.065,216.07,212.92333333333335,212.92333333333335,0.0,0.0
26,0.0,1.0,0.0,1.0,1.0,0.0,0.0,1.0,0.0,100.0,1.0,1.1856,26.0,0.0,0.0,0.0,51.999998,0.0,26.0,26.0,26.0,26.0,0.0011250000000000001,0.28259999999999996,0.08560000000000001,291.245,-2.7198,-2.714125,-1.6324,-1.5344,-187.89,215.735,190.430625,0.0,0.0,0.0,0.0,0.05263333333333331,-5.498166666666667,-5.498166666666667,-0.5710000000000001,0.583,0.0016666666666667052,0.6980000000000001,69.147,0.0117,-0.1966,-0.22999999999999954,100.0,1.0,1.0,213.05333333333334,0.0,0.0,0.0,0.0,0.0,0.0,0.0,9030.5,0.0,55.0,5.0,248.90333333333334,0.0,0.0,0.0,0.0,0.0,0.0,0.0,0.0,1.3049999999999997,1.3049999999999997,0.0,0.0,0.0,55.0,616.79921,10000.0,85.000001,85.000001,85.000001,85.000001,395.0,0.0,0.0,0.0,1.0,333.33500000000004,51.575,51.575,46.28,46.28,34.0,-23.7975,25.403333333333332,-32.67,33.465,0.0,1781.585,-0.254999999999999,100.0,28.893,28.593,43.641,43.631,0.0,1.0,100.0,0.0,0.0,0.0,0.0,3139.142857142857,3139.6,4549.666666666667,4545.1,305.231,304.82,313.84275,313.67525,22.0112,20.6475,22.0273,21.522,314.999998,314.999998,324.999988,324.999988,99.55855714285714,99.50736666666667,99.56884285714285,99.54812857142858,0.09666666666666668,-0.04499999999999993,-0.09139999999999993,0.13319999999999999,-0.036666666666668846,-0.05833333333333002,1.4513333333333334,1.4233333333333333,38.57,30.047,38.671,35.5125,55.772999999999996,35.402,60.0575,53.0205,53.724999999999994,34.5245,58.628,51.318,52.885999999999996,34.074333333333335,58.5305,50.708333333333336,-0.10199999999999987,-0.06000000000000005,0.10439000000000001,0.10677,0.0,216.495,216.505,213.05333333333334,213.05333333333334,0.0,0.0
27,0.0,1.0,0.0,1.0,1.0,0.0,0.0,1.0,0.0,100.0,1.0,1.1856,26.0,0.0,0.0,0.0,51.999998,0.0,26.0,26.0,26.0,26.0,0.0145,0.25890000000000013,-0.03205,291.748,-2.6895,-2.6732500000000003,-1.6253000000000002,-1.6022,-184.57,215.725,190.4075,0.0,0.0,0.0,0.0,0.05456666666666654,-5.498166666666667,-5.498166666666667,-0.5966,-1.0270000000000001,0.006444444444444253,0.757,69.271,0.0134,-0.2412,-0.27200000000000024,100.0,1.0,1.0,213.55666666666667,0.0,0.0,0.0,0.0,0.0,0.0,0.0,9051.8,0.0,55.0,5.0,249.35000000000002,1.0,0.0,0.0,0.0,0.0,0.0,0.0,0.0,1.352999999999998,1.352999999999998,0.0,0.0,1.0,55.0,616.79921,10000.0,85.000001,85.000001,85.000001,85.000001,395.0,0.0,0.0,0.0,1.0,333.33500000000004,51.956,51.956,46.661,46.661,34.0,-22.0625,25.73,-28.766666666666666,29.9525,0.0,1781.536,-0.3049999999999997,100.0,28.562,28.457,44.208,44.175,0.0,1.0,100.0,0.0,0.0,0.0,0.0,3016.285714285714,3212.6,4090.4444444444443,4101.0,305.607,304.691,314.85725,314.65975,22.0199,20.6528,22.037399999999998,21.5308,314.999998,314.999998,324.999988,324.999988,99.55857142857143,99.50738333333334,99.56898571428572,99.54827142857143,0.10566666666666658,-0.04200000000000004,-0.09560000000000002,0.12719999999999998,-0.026666666666670835,-0.06666666666666998,1.4996666666666667,1.5036666666666667,38.623999999999995,30.080333333333336,38.733999999999995,35.567499999999995,55.762,35.4385,60.0945,53.079499999999996,53.714,34.5585,58.6625,51.3745,52.873999999999995,34.10666666666667,58.5615,50.763999999999996,-0.10899999999999999,-0.06150000000000011,0.11146500000000001,0.105315,0.0,216.815,216.835,213.55666666666667,213.55666666666667,0.0,0.0
28,0.0,1.0,0.0,1.0,1.0,0.0,0.0,1.0,0.0,100.0,1.0,1.1856,26.0,0.0,0.0,0.0,51.999998,0.0,26.0,26.0,26.0,26.0,0.038625,0.26980000000000004,-0.06275,291.977,-2.6781,-2.659875,-1.62,-1.5659,-181.03,215.7125,190.382125,0.0,0.0,0.0,0.0,0.05663333333333331,-5.498166666666667,-5.498166666666667,-0.6025,0.6639999999999999,-0.0030000000000001137,-0.665,69.401,0.0161,-0.2172,-0.15399999999999991,100.0,1.0,1.0,214.07666666666665,0.0,0.0,0.0,0.0,0.0,0.0,0.0,9074.0,0.0,55.0,5.0,249.81666666666666,0.0,0.0,0.0,0.0,0.0,0.0,0.0,0.0,1.404,1.404,0.0,0.0,0.0,55.0,616.79921,10000.0,85.000001,85.000001,85.000001,85.000001,395.0,0.0,0.0,0.0,1.0,333.33500000000004,51.804,51.804,47.623,47.623,34.0,-23.675,24.51833333333333,-28.419999999999998,29.2525,0.0,1781.487,-0.28999999999999915,100.0,28.534,28.568,43.411,43.752,0.0,1.0,100.0,0.0,0.0,0.0,0.0,3202.857142857143,3080.6,4104.888888888889,4111.8,305.202,304.895,315.05925,314.70925,22.0293,20.6585,22.0477,21.5399,314.999998,314.999998,324.999988,324.999988,99.55858571428571,99.50738333333334,99.56912857142858,99.54841428571429,0.0990000000000002,-0.04499999999999993,-0.09860000000000002,0.12640000000000007,-0.04999999999999716,-0.03999999999999915,1.5536666666666668,1.5433333333333332,38.683,30.116,38.798,35.624,55.751000000000005,35.4785,60.1275,53.1375,53.703,34.595,58.693,51.4305,52.861999999999995,34.141666666666666,58.589,50.818666666666665,-0.10450000000000004,-0.06199999999999983,0.104275,0.11081500000000001,0.0,217.26,217.275,214.07666666666665,214.07666666666665,0.0,0.0
29,0.0,1.0,0.0,1.0,1.0,0.0,0.0,1.0,0.0,100.0,1.0,1.1856,26.0,0.0,0.0,0.0,51.999998,0.0,26.0,26.0,26.0,26.0,0.036625,0.2619,-0.002625,291.748,-2.6659,-2.7113750000000003,-1.5739,-1.5467,-177.28,215.7025,190.354125,0.0,0.0,0.0,0.0,0.05879999999999996,-5.498166666666667,-5.498166666666667,-0.6075,-0.7190000000000001,0.0016666666666667052,-0.705,69.543,0.013300000000000001,-0.21782500000000002,-0.20399999999999974,100.0,1.0,1.0,214.34,0.0,0.0,0.0,0.0,0.0,0.0,0.0,9085.1,0.0,55.0,5.0,250.32999999999998,1.0,0.0,0.0,0.0,0.0,0.0,0.0,0.0,1.4579999999999984,1.4579999999999984,0.0,0.0,1.0,55.0,616.79921,10000.0,85.000001,85.000001,85.000001,85.000001,395.0,0.0,0.0,0.0,1.0,166.665,52.078,52.078,46.89,46.89,34.0,-23.11,25.133333333333333,-29.37,30.1825,0.0,1781.433,-0.39000000000000057,100.0,28.174,28.458,43.802,44.097,0.0,1.0,100.0,0.0,0.0,0.0,0.0,3176.285714285714,3059.8,4173.777777777777,4245.4,305.362,304.9053333333333,314.72125,314.29275,22.0391,20.6645,22.0589,21.5497,314.999998,314.999998,324.999988,324.999988,99.5586,99.5074,99.56928571428571,99.54857142857144,0.10199999999999987,-0.038000000000000034,-0.10720000000000007,0.11880000000000002,-0.04333333333332945,-0.04333333333332945,1.482,1.4736666666666667,38.744,30.153,38.867999999999995,35.686,55.736999999999995,35.5185,60.1685,53.204,53.69,34.632,58.731,51.4945,52.848,34.17733333333334,58.624,50.881,-0.10799999999999987,-0.05149999999999988,0.10236500000000001,0.10641500000000001,0.0,217.66,217.66500000000002,214.34,214.34,0.0,0.0
30,0.0,1.0,0.0,1.0,1.0,0.0,0.0,1.0,0.0,100.0,1.0,1.1856,26.0,0.0,0.0,0.0,51.999998,0.0,26.0,26.0,26.0,26.0,0.025,0.252,0.05505,291.138,-2.713,-2.6055,-1.5462,-1.6056,-174.14999999999998,215.695,190.330625,0.0,0.0,0.0,0.0,0.06063333333333332,-5.498166666666667,-5.498166666666667,-0.6044,0.8085,-0.0021111111111111747,0.464,69.656,0.016,-0.218125,-0.3260000000000005,100.0,1.0,1.0,214.77666666666667,0.0,0.0,0.0,0.0,0.0,0.0,0.0,9103.6,0.0,55.0,5.0,250.73666666666668,0.0,0.0,0.0,0.0,0.0,0.0,1.0,0.0,1.5030000000000001,1.5030000000000001,0.0,0.0,0.0,55.0,616.79921,10000.0,85.000001,85.000001,85.000001,85.000001,395.0,0.0,0.0,0.0,1.0,333.33500000000004,50.644,50.644,47.073,47.073,34.0,-24.6425,26.35666666666667,-27.84,31.06,0.0,1781.387,-0.35999999999999943,100.0,29.23,29.045,43.752,44.028,0.0,1.0,100.0,0.0,0.0,0.0,0.0,3334.142857142857,3290.6,4139.444444444444,4184.7,304.6665,304.3313333333333,314.819,314.48475,22.0475,20.6697,22.0681,21.5579,314.999998,314.999998,324.999988,324.999988,99.55861428571428,99.5074,99.56941428571429,99.5487,0.11399999999999988,-0.033666666666666734,-0.09299999999999997,0.13200000000000012,-0.054999999999999716,-0.03999999999999915,1.5033333333333332,1.4846666666666668,38.797,30.185666666666666,38.926,35.737,55.730000000000004,35.556,60.199,53.257,53.683,34.6665,58.7595,51.545500000000004,52.84,34.21033333333334,58.649,50.931,-0.11250000000000004,-0.05549999999999988,0.10958500000000002,0.10950000000000001,0.0,218.06,218.065,214.77666666666667,214.77666666666667,0.0,0.0
31,0.0,1.0,0.0,1.0,1.0,0.0,0.0,1.0,0.0,100.0,1.0,1.1856,26.0,0.0,0.0,0.0,51.999998,0.0,26.0,26.0,26.0,26.0,0.020875,0.24639999999999995,0.0,290.894,-2.7597,-2.6365,-1.5910000000000002,-1.6033,-170.38,215.6875,190.303375,0.0,0.0,0.0,0.0,0.06279999999999997,-5.498166666666667,-5.498166666666667,-0.5911000000000001,-0.5330000000000001,0.004222222222222127,0.712,69.795,0.0223,-0.223225,-0.3420000000000005,100.0,1.0,1.0,215.08666666666667,0.0,0.0,0.0,0.0,0.0,0.0,0.0,9116.7,0.0,55.0,5.0,251.24,1.0,0.0,0.0,0.0,0.0,0.0,1.0,0.0,1.5569999999999986,1.5569999999999986,0.0,0.0,1.0,55.0,616.79921,10000.0,85.000001,85.000001,85.000001,85.000001,395.0,0.0,0.0,0.0,1.0,166.665,51.041,51.041,45.685,45.685,34.0,-23.49,27.496666666666666,-28.996666666666666,32.82,0.0,1781.333,-0.36499999999999844,100.0,28.969,29.070999999999998,44.521,44.666,0.0,1.0,100.0,0.0,0.0,0.0,0.0,3155.142857142857,3393.4,4235.222222222223,4277.9,305.314,304.19866666666667,314.477,314.383,22.057299999999998,20.6759,22.0794,21.5679,314.999998,314.999998,324.999988,324.999988,99.55862857142857,99.5074,99.56958571428571,99.54887142857143,0.11266666666666669,-0.03133333333333321,-0.08220000000000005,0.15100000000000002,-0.03499999999999659,-0.05833333333333002,1.4683333333333333,1.459,38.858000000000004,30.224,38.995999999999995,35.7995,55.718,35.5985,60.2415,53.324,53.672,34.706,58.799,51.6105,52.827,34.248,58.6855,50.99433333333333,-0.11199999999999988,-0.06099999999999994,0.10596000000000001,0.10888500000000001,0.0,218.44,218.495,215.08666666666667,215.08666666666667,0.0,0.0
32,0.0,1.0,0.0,1.0,1.0,0.0,0.0,1.0,0.0,100.0,1.0,1.1856,26.0,0.0,0.0,0.0,51.999998,0.0,26.0,26.0,26.0,26.0,0.032125,0.2679,0.000125,291.168,-2.6848,-2.6935000000000002,-1.5748,-1.5636999999999999,-166.82,215.68,190.27775,0.0,0.0,0.0,0.0,0.06486666666666652,-5.498166666666667,-5.498166666666667,-0.6061000000000001,-0.13450000000000006,-0.021666666666666945,-1.032,69.924,0.0235,-0.228075,-0.30799999999999983,100.0,1.0,1.0,215.54000000000002,0.0,0.0,0.0,0.0,0.0,0.0,0.0,9136.0,0.0,55.0,5.0,251.7,0.0,0.0,0.0,0.0,0.0,0.0,1.0,0.0,1.6080000000000005,1.6080000000000005,0.0,0.0,0.0,55.0,616.79921,10000.0,85.000001,85.000001,85.000001,85.000001,395.0,0.0,0.0,0.0,1.0,166.665,51.422,51.422,46.417,46.417,34.0,-23.2375,25.326666666666668,-28.263333333333335,32.2525,0.0,1781.283,-0.33999999999999986,100.0,28.803,29.118000000000002,44.215,44.611000000000004,0.0,1.0,100.0,0.0,0.0,0.0,0.0,3211.4285714285716,3083.7,4197.111111111111,4336.3,305.216,304.895,314.6665,314.19025,22.0666,20.6816,22.0899,21.5772,314.999998,314.999998,324.999988,324.999988,99.55864285714286,99.5074,99.56972857142857,99.54901428571429,0.1113333333333335,-0.033333333333333215,-0.08379999999999999,0.14159999999999995,-0.05333333333332746,-0.03999999999999915,1.5073333333333332,1.4843333333333333,38.916,30.260333333333335,39.062,35.8575,55.707,35.638,60.2765,53.3845,53.661,34.7425,58.8315,51.6685,52.815,34.283,58.7145,51.05133333333333,-0.11450000000000005,-0.058499999999999996,0.10196000000000001,0.11062000000000001,0.0,218.87,218.865,215.54000000000002,215.54000000000002,0.0,0.0
33,0.0,1.0,0.0,1.0,1.0,0.0,0.0,1.0,0.0,100.0,1.0,1.1856,26.0,0.0,0.0,0.0,51.999998,0.0,26.0,26.0,26.0,26.0,0.030375,0.2558,-0.05775,291.412,-2.7186,-2.6862500000000002,-1.5846,-1.5974,-163.67000000000002,215.675,190.254125,0.0,0.0,0.0,0.0,0.06669999999999998,-5.498166666666667,-5.498166666666667,-0.6137,-0.2869999999999999,-0.01633333333333331,1.054,70.037,0.023200000000000002,-0.21552500000000002,-0.28000000000000025,100.0,1.0,1.0,215.89,0.0,0.0,0.0,0.0,0.0,0.0,0.0,9150.8,0.0,55.0,5.0,252.11,1.0,0.0,0.0,0.0,0.0,0.0,1.0,0.0,1.6529999999999987,1.6529999999999987,0.0,0.0,1.0,55.0,616.79921,10000.0,85.000001,85.000001,85.000001,85.000001,395.0,0.0,0.0,0.0,1.0,166.665,51.772999999999996,51.772999999999996,46.616,46.616,34.0,-22.2925,25.35333333333333,-28.273333333333333,31.6675,0.0,1781.238,-0.36499999999999844,100.0,28.817,28.803,44.21,44.416,0.0,1.0,100.0,0.0,0.0,0.0,0.0,3083.142857142857,3095.2,4153.777777777777,4270.6,305.514,305.0113333333333,314.766,314.35375,22.0747,20.6866,22.0991,21.5853,314.999998,314.999998,324.999988,324.999988,99.55865714285714,99.50741666666667,99.56985714285715,99.54914285714285,0.11766666666666659,-0.02933333333333321,-0.08760000000000001,0.13359999999999994,-0.02833333333332888,-0.06666666666666998,1.5036666666666667,1.4913333333333332,38.967,30.291,39.119,35.908500000000004,55.697,35.671,60.308,53.437,53.650999999999996,34.772999999999996,58.861,51.719,52.805,34.312,58.741,51.10066666666667,-0.11349999999999993,-0.05699999999999994,0.105995,0.104065,0.0,219.195,219.235,215.89,215.89,0.0,0.0
34,0.0,1.0,0.0,1.0,1.0,0.0,0.0,1.0,0.0,100.0,1.0,1.1856,26.0,0.0,0.0,0.0,51.999998,0.0,26.0,26.0,26.0,26.0,0.038,0.2519,-0.0352,291.626,-2.6635999999999997,-2.6782500000000002,-1.6543,-1.5561,-160.1,215.67000000000002,190.226125,0.0,0.0,0.0,0.0,0.06879999999999997,-5.498166666666667,-5.498166666666667,-0.6457,-0.8680000000000001,0.013777777777777889,-0.0895,70.166,0.025500000000000002,-0.2243,-0.24799999999999933,100.0,1.0,1.0,216.29333333333335,0.0,0.0,0.0,0.0,0.0,0.0,0.0,9167.9,0.0,55.0,5.0,252.57333333333332,0.0,0.0,0.0,0.0,0.0,0.0,1.0,0.0,1.7040000000000006,1.7040000000000006,0.0,0.0,0.0,55.0,616.79921,10000.0,85.000001,85.000001,85.000001,85.000001,395.0,0.0,0.0,0.0,1.0,333.33500000000004,51.956,51.956,47.15,47.15,34.0,-22.6375,24.806666666666665,-29.34,30.330000000000002,0.0,1781.185,-0.3099999999999987,100.0,28.491,28.631999999999998,43.913,44.546,0.0,1.0,100.0,0.0,0.0,0.0,0.0,3162.714285714286,3062.9,4120.666666666667,4181.5,305.402,305.095,314.92625,314.4695,22.0839,20.6921,22.1095,21.5947,314.999998,314.999998,324.999988,324.999988,99.55867142857143,99.50741666666667,99.57001428571428,99.54931428571429,0.10999999999999988,-0.03466666666666662,-0.09820000000000007,0.13240000000000007,-0.051666666666669414,-0.03333333333333144,1.5153333333333332,1.5076666666666667,39.025,30.326,39.184,35.966499999999996,55.684,35.7095,60.344,53.502,53.638999999999996,34.809,58.8945,51.7815,52.791,34.346333333333334,58.771,51.16166666666666,-0.10850000000000004,-0.05650000000000022,0.11170000000000001,0.10391,0.0,219.59,219.59,216.29333333333335,216.29333333333335,0.0,0.0
35,0.0,1.0,0.0,1.0,1.0,0.0,0.0,1.0,0.0,100.0,1.0,1.1856,26.0,0.0,0.0,0.0,51.999998,0.0,26.0,26.0,26.0,26.0,0.051250000000000004,0.23930000000000007,-0.039,291.687,-2.7221,-2.61675,-1.6224,-1.5178,-156.3,215.66500000000002,190.194375,0.0,0.0,0.0,0.0,0.07099999999999995,-5.498166666666667,-5.498166666666667,-0.6832,-0.11650000000000005,-0.008999999999999897,-1.349,70.3,0.0287,-0.230475,-0.24799999999999933,100.0,1.0,1.0,216.79666666666668,0.0,0.0,0.0,0.0,0.0,0.0,0.0,9189.3,0.0,55.0,5.0,253.05333333333334,1.0,0.0,0.0,0.0,0.0,0.0,1.0,0.0,1.7579999999999991,1.7579999999999991,0.0,0.0,1.0,55.0,616.79921,10000.0,85.000001,85.000001,85.000001,85.000001,395.0,0.0,0.0,0.0,1.0,166.665,51.483000000000004,51.483000000000004,46.844,46.844,34.0,-23.79,26.668333333333333,-27.0,28.885,0.0,1781.132,-0.16000000000000014,100.0,28.277,28.97,43.709,44.010999999999996,0.0,1.0,100.0,0.0,0.0,0.0,0.0,3187.857142857143,3327.1,4016.777777777778,3998.6000000000004,305.3335,304.15666666666664,315.13425,314.98,22.0935,20.6983,22.1204,21.6043,314.999998,314.999998,324.999988,324.999988,99.55868571428572,99.50743333333334,99.57017142857143,99.54945714285714,0.10166666666666657,-0.03866666666666663,-0.07879999999999998,0.1492,-0.041666666666671404,-0.045000000000001705,1.5456666666666667,1.5310000000000001,39.085,30.364333333333335,39.253,36.027,55.671,35.7495,60.378,53.5585,53.626000000000005,34.8455,58.926,51.836,52.777,34.382,58.799,51.215,-0.09999999999999987,-0.0674999999999999,0.10435000000000001,0.11511,0.0,220.015,220.03,216.79666666666668,216.79666666666668,0.0,0.0
