,ABS Active,ABS Enabled,AID Allow Tire Blankets,AID Auto Blip,AID Auto Clutch,AID Auto Shift,AID Fuel Rate,AID Ideal Line,AID Mech Damage,AID Stability,AID Tire Wear Rate,Air Density,Air Temp,Ballast,Best Lap Delta,Best Lap Time,Brake Bias,Brake Pos,Brake Temp FL,Brake Temp FR,Brake Temp RL,Brake Temp RR,CG Accel Lateral,CG Accel Longitudinal,CG Accel Vertical,CG Height,Camber FL,Camber FR,Camber RL,Camber RR,Car Coord X,Car Coord Y,Car Coord Z,Car Damage Front,Car Damage Left,Car Damage Rear,Car Damage Right,Car Pos Norm,Caster FL,Caster FR,Chassis Pitch Angle,Chassis Pitch Rate,Chassis Roll Angle,Chassis Roll Rate,Chassis Velocity X,Chassis Velocity Y,Chassis Velocity Z,Chassis Yaw Rate,Clutch Pos,DRS Active,DRS Available,Drive Train Speed,ERS Heat Charging,ERS Is Charging,ERS Max Energy,ERS Power Level,ERS Recovery Level,Engine Brake Setting,Engine Limiter,Engine RPM,Flags,Fuel Level,Gear,Ground Speed,HR Sample Clock,In Pit,KERS Charge,KERS Deployed Energy,KERS Input,KERS Max Energy,LR Sample Clock,Lap Invalidated,Lap Time,Lap Time2,Last Lap Time,Last Sector Time,MR Sample Clock,Max Fuel,Max Power,Max RPM,Max Sus Travel FL,Max Sus Travel FR,Max Sus Travel RL,Max Sus Travel RR,Max Torque,Max Turbo Boost,Num Tires Off Track,Penalties Enabled,Position,Raw Data Sample Rate,Ride Height FL,Ride Height FR,Ride Height RL,Ride Height RR,Road Temp,Self Align Torque FL,Self Align Torque FR,Self Align Torque RL,Self Align Torque RR,Session Lap Count,Session Time Left,Steering Angle,Surface Grip,Suspension Travel FL,Suspension Travel FR,Suspension Travel RL,Suspension Travel RR,TC Active,TC Enabled,Throttle Pos,Tire Dirt Level FL,Tire Dirt Level FR,Tire Dirt Level RL,Tire Dirt Level RR,Tire Load FL,Tire Load FR,Tire Load RL,Tire Load RR,Tire Loaded Radius FL,Tire Loaded Radius FR,Tire Loaded Radius RL,Tire Loaded Radius RR,Tire Pressure FL,Tire Pressure FR,Tire Pressure RL,Tire Pressure RR,Tire Radius FL,Tire Radius FR,Tire Radius RL,Tire Radius RR,Tire Rubber Grip FL,Tire Rubber Grip FR,Tire Rubber Grip RL,Tire Rubber Grip RR,Tire Slip Angle FL,Tire Slip Angle FR,Tire Slip Angle RL,Tire Slip Angle RR,Tire Slip Ratio FL,Tire Slip Ratio FR,Tire Slip Ratio RL,Tire Slip Ratio RR,Tire Temp Core FL,Tire Temp Core FR,Tire Temp Core RL,Tire Temp Core RR,Tire Temp Inner FL,Tire Temp Inner FR,Tire Temp Inner RL,Tire Temp Inner RR,Tire Temp Middle FL,Tire Temp Middle FR,Tire Temp Middle RL,Tire Temp Middle RR,Tire Temp Outer FL,Tire Temp Outer FR,Tire Temp Outer RL,Tire Temp Outer RR,Toe In FL,Toe In FR,Toe In RL,Toe In RR,Turbo Boost,Wheel Angular Speed FL,Wheel Angular Speed FR,Wheel Angular Speed RL,Wheel Angular Speed RR,Wind Direction,Wind Speed
0,0.0,1.0,0.0,1.0,1.0,0.0,0.0,1.0,0.0,100.0,1.0,1.1856,26.0,0.0,0.0,0.0,51.99999,0.0,26.0,26.0,26.0,26.0,-0.0768888888888889,0.3158000000000001,0.1223,293.976,-2.7193,-2.6626250000000002,-1.513,-1.5596999999999999,-275.79,216.29000000000002,190.988125,0.0,0.0,0.0,0.0,0.0015333333333333334,-5.498166666666667,-5.498166666666667,-0.5546,1.2033333333333334,-0.011222222222222022,-0.567,65.533,-0.0334,-0.21860000000000002,0.9979999999999993,100.0,1.0,1.0,202.32999999999998,0.0,0.0,0.0,0.0,0.0,0.0,0.0,8576.1,0.0,55.0,5.0,235.88666666666666,0.0,0.0,0.0,0.0,0.0,0.0,0.0,0.0,0.0030000000000001137,0.0030000000000001137,0.0,0.0,0.0,55.0,616.79921,10000.0,85.0,85.0,85.0,85.0,395.0,0.0,0.0,0.0,1.0,20.0,52.643,52.643,49.759,49.759,34.0,-27.75,23.814,-29.806666666666665,25.42,0.0,1783.065,0.8550000000000004,100.0,27.386,26.935,40.528999999999996,40.485,0.0,1.0,100.0,0.0,0.0,0.0,0.0,3124.5714285714284,3391.6,4100.0,4005.4,305.373,304.075,314.863,314.83425,21.7993,20.512999999999998,21.7583,21.2932,314.99999,314.99999,324.99998,324.99998,99.56018571428571,99.50723333333333,99.56501428571428,99.54451428571429,-0.005749999999999922,-0.11499999999999999,-0.15383333333333335,0.07150000000000001,-0.054999999999999716,-0.036666666666668846,1.5523333333333333,1.5656666666666668,37.245999999999995,29.206333333333333,36.989999999999995,34.082499999999996,56.733000000000004,34.482,59.032,51.4595,54.617999999999995,33.641999999999996,57.668,49.8195,53.774,33.195,57.6425,49.242,-0.00649999999999995,-0.133,0.10529000000000001,0.11338000000000001,0.0,205.345,205.28,202.32999999999998,202.32999999999998,0.0,0.0
1,0.0,1.0,0.0,1.0,1.0,0.0,0.0,1.0,0.0,100.0,1.0,1.1856,26.0,0.0,0.0,0.0,51.999998,0.0,26.0,26.0,26.0,26.0,-0.09811111111111104,0.3307,0.15056666666666668,292.999,-2.6401,-2.764125,-1.5316,-1.5497,-272.24,216.285,190.966875,0.0,0.0,0.0,0.0,0.0036000000000000003,-5.498166666666667,-5.498166666666667,-0.4939,-0.6176666666666666,-0.05433333333333357,-0.873,65.696,-0.0516,-0.19032500000000002,1.4379999999999997,100.0,1.0,1.0,202.52666666666667,0.0,0.0,0.0,0.0,0.0,0.0,0.0,8584.3,0.0,55.0,5.0,236.47333333333333,1.0,0.0,0.0,0.0,0.0,0.0,0.0,0.0,0.05699999999999861,0.05699999999999861,0.0,0.0,1.0,55.0,616.79921,10000.0,85.000001,85.000001,85.000001,85.000001,395.0,0.0,0.0,0.0,1.0,166.665,53.619,53.619,48.172,48.172,34.0,-27.0825,17.94,-33.519999999999996,29.310000000000002,0.0,1783.011,0.9149999999999991,100.0,27.521,27.007,42.947,41.755,0.0,1.0,100.0,0.0,0.0,0.0,0.0,3112.5714285714284,2674.1,4257.25,4729.1,305.455,306.32625,314.41575,313.05575,21.81,20.5184,21.7698,21.3028,314.999998,314.999998,324.999988,324.999988,99.56018571428571,99.50725,99.56517142857143,99.54467142857143,-0.010999999999999899,-0.1396666666666666,-0.179,0.039,-0.051666666666669414,-0.03999999999999915,1.417,1.4736666666666667,37.312,29.240000000000002,37.061,34.1425,56.715,34.525,59.079,51.5295,54.601,33.682,57.712,49.8865,53.756,33.233333333333334,57.6835,49.308,-0.0035000000000000586,-0.14349999999999996,0.100885,0.11083000000000001,0.0,205.85500000000002,205.72500000000002,202.52666666666667,202.52666666666667,0.0,0.0
2,0.0,1.0,0.0,1.0,1.0,0.0,0.0,1.0,0.0,100.0,1.0,1.1856,26.0,0.0,0.0,0.0,51.999998,0.0,26.0,26.0,26.0,26.0,-0.1363333333333333,0.27160000000000006,-0.0047666666666666664,293.594,-2.5903,-2.8075,-1.4791,-1.6238000000000001,-269.09,216.2775,190.949125,0.0,0.0,0.0,0.0,0.005433333333333333,-5.498166666666667,-5.498166666666667,-0.5464,-0.29633333333333334,-0.06255555555555592,1.6760000000000002,65.82900000000001,-0.0734,-0.24895,1.6799999999999997,100.0,1.0,1.0,203.38333333333333,0.0,0.0,0.0,0.0,0.0,0.0,0.0,8620.7,0.0,55.0,5.0,236.95333333333332,0.0,0.0,0.0,0.0,0.0,0.0,0.0,0.0,0.10500000000000043,0.10500000000000043,0.0,0.0,0.0,55.0,616.79921,10000.0,85.000001,85.000001,85.000001,85.000001,395.0,0.0,0.0,0.0,1.0,166.665,52.46,52.46,49.988,49.988,34.0,-30.9125,19.54,-30.096666666666664,19.725,0.0,1782.963,0.75,100.0,28.274,26.974,42.798,41.524,0.0,1.0,100.0,0.0,0.0,0.0,0.0,3451.4285714285716,2864.3,3822.625,3619.6,304.3325,305.7235,315.45275,315.91,21.8196,20.523,21.7797,21.3111,314.999998,314.999998,324.999988,324.999988,99.5602,99.50726666666667,99.5653,99.5448,-0.026000000000000023,-0.1466666666666666,-0.22583333333333336,0.004,-0.05333333333332746,-0.06666666666666998,1.6146666666666667,1.692,37.372,29.269,37.123000000000005,34.194,56.702,34.561,59.1155,51.584,54.589,33.7155,57.7455,49.939,53.742999999999995,33.265,57.7145,49.359,-0.016000000000000014,-0.12950000000000017,0.10970500000000001,0.105385,0.0,206.28,206.13,203.38333333333333,203.38333333333333,0.0,0.0
3,0.0,1.0,0.0,1.0,1.0,0.0,0.0,1.0,0.0,100.0,1.0,1.1856,26.0,0.0,0.0,0.0,51.999998,0.0,26.0,26.0,26.0,26.0,-0.14088888888888884,0.30730000000000013,-0.027,293.32,-2.7279,-2.6879999999999997,-1.5134,-1.5913,-265.92,216.26749999999998,190.9305,0.0,0.0,0.0,0.0,0.007266666666666668,-5.498166666666667,-5.498166666666667,-0.5113,0.6813333333333333,-0.010000000000000231,-0.661,65.97200000000001,-0.08850000000000001,-0.2028,1.2620000000000005,100.0,1.0,1.0,203.54333333333335,0.0,0.0,0.0,0.0,0.0,0.0,0.0,8627.5,0.0,55.0,5.0,237.46666666666667,1.0,0.0,0.0,0.0,0.0,0.0,0.0,0.0,0.1529999999999987,0.1529999999999987,0.0,0.0,1.0,55.0,616.79921,10000.0,85.000001,85.000001,85.000001,85.000001,395.0,0.0,0.0,0.0,1.0,333.33500000000004,53.314,53.314,48.111,48.111,34.0,-26.5925,17.954,-35.89333333333333,23.5875,0.0,1782.914,0.6050000000000004,100.0,28.012999999999998,27.205,42.455,41.473,0.0,1.0,100.0,0.0,0.0,0.0,0.0,2929.5714285714284,2820.5,4334.25,4202.3,305.88,305.65325,314.30425,314.395,21.829,20.5279,21.7895,21.3194,314.999998,314.999998,324.999988,324.999988,99.5602,99.50728333333333,99.56544285714286,99.54494285714286,-0.023249999999999993,-0.15833333333333333,-0.22433333333333336,0.0005,-0.011666666666670267,-0.03999999999999915,1.498,1.5553333333333332,37.431,29.299333333333333,37.184,34.2465,56.686,34.6015,59.152,51.643,54.574,33.7525,57.78,49.995,53.727000000000004,33.300666666666665,57.746,49.41433333333333,-0.03649999999999998,-0.11900000000000022,0.10619,0.113445,0.0,206.715,206.60500000000002,203.54333333333335,203.54333333333335,0.0,0.0
4,0.0,1.0,0.0,1.0,1.0,0.0,0.0,1.0,0.0,100.0,1.0,1.1856,26.0,0.0,0.0,0.0,51.999998,0.0,26.0,26.0,26.0,26.0,-0.15255555555555556,0.2874000000000001,-0.015166666666666667,293.564,-2.6617,-2.7418750000000003,-1.5305,-1.599,-262.55,216.2525,190.910875,0.0,0.0,0.0,0.0,0.009233333333333333,-5.498166666666667,-5.498166666666667,-0.5413,-0.9456666666666667,-0.07511111111111157,-0.886,66.119,-0.08950000000000001,-0.23620000000000002,1.1500000000000004,100.0,1.0,1.0,204.09666666666666,0.0,0.0,0.0,0.0,0.0,0.0,0.0,8650.9,0.0,55.0,5.0,238.0,0.0,0.0,0.0,0.0,0.0,0.0,0.0,0.0,0.20400000000000063,0.20400000000000063,0.0,0.0,0.0,55.0,616.79921,10000.0,85.000001,85.000001,85.000001,85.000001,395.0,0.0,0.0,0.0,1.0,333.33500000000004,53.116,53.116,48.599000000000004,48.599000000000004,34.0,-28.5,19.616,-32.69,21.03,0.0,1782.862,0.5749999999999993,100.0,27.836,26.788,42.964,41.597,0.0,1.0,100.0,0.0,0.0,0.0,0.0,3171.4285714285716,2969.2,4080.0,3710.5,305.2465,305.4165,314.78325,315.576,21.8387,20.533,21.8002,21.3283,314.999998,314.999998,324.999988,324.999988,99.5602,99.5073,99.56557142857143,99.54508571428572,-0.024499999999999966,-0.15100000000000002,-0.20766666666666667,0.016833333333333332,-0.046666666666666856,-0.061666666666667425,1.561,1.6016666666666668,37.492000000000004,29.331333333333333,37.251000000000005,34.302,56.667,34.643,59.194,51.7035,54.556,33.7905,57.8195,50.0535,53.709,33.33733333333333,57.7825,49.471333333333334,-0.026000000000000023,-0.12150000000000016,0.10980500000000001,0.10050500000000001,0.0,207.10000000000002,207.03,204.0966666666667,204.09666666666666,0.0,0.0
5,0.0,1.0,0.0,1.0,1.0,0.0,0.0,1.0,0.0,100.0,1.0,1.1856,26.0,0.0,0.0,0.0,51.999998,0.0,26.0,26.0,26.0,26.0,-0.12366666666666659,0.3075000000000001,-0.0362,293.64,-2.6681,-2.7670000000000003,-1.5074,-1.5910000000000002,-259.18,216.235,190.8905,0.0,0.0,0.0,0.0,0.0112,-5.498166666666667,-5.498166666666667,-0.5362,0.4266666666666667,-0.0853333333333337,-0.15000000000000002,66.265,-0.09190000000000001,-0.214425,1.1220000000000008,100.0,1.0,1.0,204.5366666666667,0.0,0.0,0.0,0.0,0.0,0.0,0.0,8669.6,0.0,55.0,5.0,238.5233333333333,1.0,0.0,0.0,0.0,0.0,0.0,0.0,0.0,0.254999999999999,0.254999999999999,0.0,0.0,1.0,55.0,616.79921,10000.0,85.000001,85.000001,85.000001,85.000001,395.0,0.0,0.0,0.0,1.0,166.665,53.436,53.436,48.996,48.996,34.0,-28.4325,18.738,-33.486666666666665,22.2675,0.0,1782.813,0.25,100.0,27.852,26.794,42.628,41.233000000000004,0.0,1.0,100.0,0.0,0.0,0.0,0.0,3184.857142857143,2747.2,4160.875,4012.5,305.2515,305.986,314.75775,314.86475,21.8488,20.5381,21.8107,21.337,314.999998,314.999998,324.999988,324.999988,99.5602,99.50731666666667,99.56572857142856,99.54521428571428,-0.01924999999999999,-0.138,-0.21666666666666667,0.0018333333333333333,-0.04333333333332945,-0.041666666666671404,1.5366666666666668,1.5893333333333333,37.555,29.363333333333333,37.317,34.3565,56.652,34.684,59.2345,51.760999999999996,54.541,33.828,57.857,50.108000000000004,53.694,33.373333333333335,57.817499999999995,49.525,-0.056499999999999995,-0.09050000000000002,0.104465,0.10741,0.0,207.63,207.51999999999998,204.5366666666667,204.5366666666667,0.0,0.0
6,0.0,1.0,0.0,1.0,1.0,0.0,0.0,1.0,0.0,100.0,1.0,1.1856,26.0,0.0,0.0,0.0,51.999998,0.0,26.0,26.0,26.0,26.0,-0.11522222222222211,0.28770000000000007,0.0076,293.396,-2.6341,-2.7445,-1.5508000000000002,-1.5845,-255.8,216.215,190.87,0.0,0.0,0.0,0.0,0.013166666666666667,-5.498166666666667,-5.498166666666667,-0.5304,0.09833333333333333,-0.06344444444444441,0.9100000000000001,66.411,-0.085,-0.213875,0.6879999999999997,100.0,1.0,1.0,204.96,0.0,0.0,0.0,0.0,0.0,0.0,0.0,8687.4,0.0,55.0,5.0,239.05333333333334,0.0,0.0,0.0,0.0,0.0,0.0,0.0,0.0,0.30600000000000094,0.30600000000000094,0.0,0.0,0.0,55.0,616.79921,10000.0,85.000001,85.000001,85.000001,85.000001,395.0,0.0,0.0,0.0,1.0,166.665,53.085,53.085,48.66,48.66,34.0,-26.509999999999998,21.086,-32.32333333333334,23.8125,0.0,1782.762,0.08000000000000185,100.0,27.901,26.745,42.808,41.509,0.0,1.0,100.0,0.0,0.0,0.0,0.0,3105.0,2999.1,4087.125,4053.7,305.2745,305.3365,314.85675,314.826,21.8588,20.5433,21.8213,21.346,314.999998,314.999998,324.999988,324.999988,99.5602,99.50731666666667,99.56587142857143,99.54535714285714,0.007249999999999979,-0.1213333333333334,-0.19266666666666665,0.02783333333333333,-0.03333333333333144,-0.041666666666671404,1.5293333333333332,1.566,37.617000000000004,29.395333333333333,37.382999999999996,34.4125,56.635,34.724000000000004,59.275,51.823,54.525999999999996,33.8655,57.8945,50.167500000000004,53.677,33.409,57.8525,49.583,-0.06600000000000006,-0.08349999999999991,0.10329500000000001,0.11094000000000001,0.0,208.04000000000002,207.96,204.96,204.96,0.0,0.0
7,0.0,1.0,0.0,1.0,1.0,0.0,0.0,1.0,0.0,100.0,1.0,1.1856,26.0,0.0,0.0,0.0,51.999998,0.0,26.0,26.0,26.0,26.0,-0.09733333333333338,0.29469999999999996,0.050633333333333336,293.121,-2.6076,-2.7353750000000003,-1.5126,-1.5723,-252.6,216.1925,190.85075,0.0,0.0,0.0,0.0,0.015000000000000001,-5.498166666666667,-5.498166666666667,-0.5346000000000001,-0.05333333333333334,-0.0517777777777777,1.1350000000000002,66.549,-0.0685,-0.223475,0.37399999999999967,100.0,1.0,1.0,205.34333333333333,0.0,0.0,0.0,0.0,0.0,0.0,0.0,8703.8,0.0,55.0,5.0,239.54666666666668,1.0,0.0,0.0,0.0,0.0,0.0,0.0,0.0,0.3539999999999992,0.3539999999999992,0.0,0.0,1.0,55.0,616.79921,10000.0,85.000001,85.000001,85.000001,85.000001,395.0,0.0,0.0,0.0,1.0,333.33500000000004,52.719,52.719,48.766999999999996,48.766999999999996,34.0,-26.7075,22.652,-31.12,25.5,0.0,1782.713,-0.23999999999999844,100.0,27.975,26.788,42.865,41.752,0.0,1.0,100.0,0.0,0.0,0.0,0.0,3235.285714285714,3060.3,4060.125,4125.5,304.8545,305.1445,314.865,314.63525,21.8682,20.5482,21.8313,21.3545,314.999998,314.999998,324.999988,324.999988,99.56021428571428,99.50733333333334,99.56601428571429,99.5455,0.027249999999999996,-0.09433333333333338,-0.18133333333333335,0.051333333333333335,-0.05833333333333002,-0.060000000000002274,1.5276666666666667,1.5423333333333333,37.676,29.426000000000002,37.445,34.4655,56.620000000000005,34.7615,59.313,51.8815,54.510999999999996,33.8995,57.93,50.2235,53.662,33.44166666666666,57.885,49.63766666666667,-0.08850000000000002,-0.05650000000000022,0.109395,0.10632000000000001,0.0,208.46,208.405,205.34333333333333,205.34333333333333,0.0,0.0
8,0.0,1.0,0.0,1.0,1.0,0.0,0.0,1.0,0.0,100.0,1.0,1.1856,26.0,0.0,0.0,0.0,51.999998,0.0,26.0,26.0,26.0,26.0,-0.047666666666666635,0.29190000000000005,-0.027633333333333333,293.411,-2.6852,-2.7165,-1.4988000000000001,-1.5543,-249.21,216.16500000000002,190.830125,0.0,0.0,0.0,0.0,0.017,-5.498166666666667,-5.498166666666667,-0.5337000000000001,-0.39866666666666667,-0.03488888888888875,-0.386,66.695,-0.048400000000000006,-0.213425,-0.0259999999999998,100.0,1.0,1.0,205.73666666666668,0.0,0.0,0.0,0.0,0.0,0.0,0.0,8720.4,0.0,55.0,5.0,240.07,0.0,0.0,0.0,0.0,0.0,0.0,0.0,0.0,0.40500000000000114,0.40500000000000114,0.0,0.0,0.0,55.0,616.79921,10000.0,85.000001,85.000001,85.000001,85.000001,395.0,0.0,0.0,0.0,1.0,166.665,53.696,53.696,48.019,48.019,34.0,-23.855,21.78,-31.696666666666665,26.6525,0.0,1782.663,-0.34999999999999787,100.0,27.465,26.924,42.732,41.967,0.0,1.0,100.0,0.0,0.0,0.0,0.0,2959.142857142857,2890.9,4239.75,4150.3,305.9145,305.502,314.506,314.505,21.878,20.5533,21.8418,21.3634,314.999998,314.999998,324.999988,324.999988,99.56021428571428,99.50735,99.56614285714285,99.54562857142857,0.04249999999999998,-0.08033333333333337,-0.16633333333333333,0.07066666666666667,-0.04833333333333201,-0.05333333333332746,1.5290000000000001,1.5136666666666667,37.736999999999995,29.458333333333336,37.510999999999996,34.5215,56.602999999999994,34.7995,59.353,51.942,54.495000000000005,33.935,57.967,50.282,53.644999999999996,33.47533333333333,57.919,49.695,-0.10299999999999998,-0.04200000000000026,0.112045,0.11379000000000002,0.0,208.87,208.88,205.73666666666668,205.73666666666668,0.0,0.0
9,0.0,1.0,0.0,1.0,1.0,0.0,0.0,1.0,0.0,100.0,1.0,1.1856,26.0,0.0,0.0,0.0,51.999998,0.0,26.0,26.0,26.0,26.0,-0.03200000000000003,0.2814000000000001,0.03203333333333333,293.091,-2.6822,-2.722125,-1.5549,-1.556,-245.8,216.1375,190.809125,0.0,0.0,0.0,0.0,0.018966666666666666,-5.498166666666667,-5.498166666666667,-0.5417000000000001,0.6513333333333334,-0.03311111111111131,0.813,66.837,-0.025900000000000003,-0.21580000000000002,-0.19200000000000017,100.0,1.0,1.0,206.3,0.0,0.0,0.0,0.0,0.0,0.0,0.0,8744.3,0.0,55.0,5.0,240.58333333333331,1.0,0.0,0.0,0.0,0.0,0.0,0.0,0.0,0.4559999999999995,0.4559999999999995,0.0,0.0,1.0,55.0,616.79921,10000.0,85.000001,85.000001,85.000001,85.000001,395.0,0.0,0.0,0.0,1.0,166.665,52.383,52.383,49.149,49.149,34.0,-25.5525,24.57,-27.826666666666664,27.11,0.0,1782.612,-0.4450000000000003,100.0,27.993,27.22,42.469,41.917,0.0,1.0,100.0,0.0,0.0,0.0,0.0,3298.714285714286,3103.4,3968.75,4080.8,304.7595,304.959,315.18175,314.76925,21.8879,20.5587,21.8522,21.3723,314.999998,314.999998,324.999988,324.999988,99.56022857142857,99.50736666666667,99.56628571428571,99.54577142857143,0.07925000000000004,-0.05599999999999994,-0.12666666666666668,0.09633333333333333,-0.046666666666666856,-0.061666666666667425,1.5813333333333333,1.571,37.799,29.491999999999997,37.577,34.577,56.588,34.839,59.3895,52.001999999999995,54.480999999999995,33.9715,58.0015,50.3395,53.629999999999995,33.510333333333335,57.9505,49.751333333333335,-0.11799999999999988,-0.04800000000000004,0.10756,0.107115,0.0,209.34,209.32999999999998,206.3,206.3,0.0,0.0
10,0.0,1.0,0.0,1.0,1.0,0.0,0.0,1.0,0.0,100.0,1.0,1.1856,26.0,0.0,0.0,0.0,51.999998,0.0,26.0,26.0,26.0,26.0,0.008777777777777773,0.29069999999999996,0.05623333333333334,292.877,-2.654,-2.7112499999999997,-1.5921,-1.5362,-242.59,216.1125,190.7895,0.0,0.0,0.0,0.0,0.020833333333333336,-5.498166666666667,-5.498166666666667,-0.5166000000000001,-0.3726666666666667,0.0067777777777777715,1.795,66.975,-0.0079,-0.204025,-0.49600000000000044,100.0,1.0,1.0,206.49666666666667,0.0,0.0,0.0,0.0,0.0,0.0,0.0,8752.6,0.0,55.0,5.0,241.08333333333334,0.0,0.0,0.0,0.0,0.0,0.0,1.0,0.0,0.5040000000000013,0.5040000000000013,0.0,0.0,0.0,55.0,616.79921,10000.0,85.000001,85.000001,85.000001,85.000001,395.0,0.0,0.0,0.0,1.0,333.33500000000004,53.375,53.375,47.516,47.516,34.0,-20.46,23.951999999999998,-30.74,30.177500000000002,0.0,1782.562,-0.6149999999999984,100.0,27.907,27.211,42.891,42.620000000000005,0.0,1.0,100.0,0.0,0.0,0.0,0.0,2826.4285714285716,2972.8,4314.125,4354.6,306.142,305.42375,314.276,314.048,21.897100000000002,20.5637,21.8623,21.381,314.999998,314.999998,324.999988,324.999988,99.56022857142857,99.50736666666667,99.56642857142857,99.5459,0.09699999999999998,-0.03700000000000003,-0.10533333333333333,0.10733333333333334,-0.036666666666668846,-0.054999999999999716,1.4806666666666668,1.4656666666666667,37.857,29.523,37.638999999999996,34.631,56.575,34.8735,59.4285,52.063,54.469,34.0035,58.0375,50.397999999999996,53.617000000000004,33.541,57.9835,49.80866666666667,-0.1259999999999999,-0.032500000000000195,0.10065,0.10237,0.0,209.73000000000002,209.765,206.49666666666667,206.49666666666667,0.0,0.0
11,0.0,1.0,0.0,1.0,1.0,0.0,0.0,1.0,0.0,100.0,1.0,1.1856,26.0,0.0,0.0,0.0,51.999998,0.0,26.0,26.0,26.0,26.0,0.05422222222222217,0.27449999999999997,-0.10406666666666668,293.442,-2.7082,-2.682125,-1.5542,-1.5243,-239.17000000000002,216.085,190.768875,0.0,0.0,0.0,0.0,0.022600000000000002,-5.498166666666667,-5.498166666666667,-0.5618000000000001,-0.34500000000000003,0.03222222222222215,-0.544,67.114,0.011300000000000001,-0.24035,-0.6100000000000003,100.0,1.0,1.0,207.24666666666667,0.0,0.0,0.0,0.0,0.0,0.0,0.0,8784.4,0.0,55.0,5.0,241.57999999999998,1.0,0.0,0.0,0.0,0.0,0.0,1.0,0.0,0.5549999999999997,0.5549999999999997,0.0,0.0,1.0,55.0,616.79921,10000.0,85.000001,85.000001,85.000001,85.000001,395.0,0.0,0.0,0.0,1.0,333.33500000000004,52.734,52.734,49.225,49.225,34.0,-22.634999999999998,25.605999999999998,-23.79,26.810000000000002,0.0,1782.511,-0.625,100.0,27.561,27.619,42.397999999999996,42.679,0.0,1.0,100.0,0.0,0.0,0.0,0.0,3078.714285714286,3097.9,3683.25,3851.5,305.584,304.82,315.88125,315.255,21.9068,20.5691,21.8726,21.39,314.999998,314.999998,324.999988,324.999988,99.56024285714285,99.50736666666667,99.56657142857142,99.54605714285714,0.1027499999999999,-0.02633333333333332,-0.09433333333333332,0.13883333333333334,-0.041666666666671404,-0.03833333333332689,1.6306666666666667,1.611,37.917,29.556666666666665,37.704,34.6875,56.56,34.911,59.463,52.1235,54.454,34.038,58.07,50.456,53.601,33.574333333333335,58.013,49.86566666666667,-0.12749999999999995,-0.02950000000000008,0.109655,0.10729000000000001,0.0,210.15,210.175,207.24666666666667,207.24666666666667,0.0,0.0
12,0.0,1.0,0.0,1.0,1.0,0.0,0.0,1.0,0.0,100.0,1.0,1.1856,26.0,0.0,0.0,0.0,51.999998,0.0,26.0,26.0,26.0,26.0,0.052888888888888985,0.2841,0.027533333333333333,292.892,-2.7593,-2.67925,-1.5521,-1.5262,-235.95,216.06,190.748,0.0,0.0,0.0,0.0,0.025466666666666665,-5.498166666666667,-5.498166666666667,-0.5481,0.3383333333333333,0.016555555555555657,-0.891,67.25,0.0281,-0.20747500000000002,-0.677999999999999,100.0,1.0,1.0,207.45666666666668,0.0,0.0,0.0,0.0,0.0,0.0,0.0,8793.3,0.0,55.0,5.0,242.07,0.0,0.0,0.0,0.0,0.0,0.0,1.0,0.0,0.602999999999998,0.602999999999998,0.0,0.0,0.0,55.0,616.79921,10000.0,85.000001,85.000001,85.000001,85.000001,395.0,0.0,0.0,0.0,1.0,166.665,52.719,52.719,47.913,47.913,34.0,-22.947499999999998,26.266,-27.743333333333336,30.485,0.0,1782.465,-0.6699999999999982,100.0,27.449,27.804000000000002,42.244,42.594,0.0,1.0,100.0,0.0,0.0,0.0,0.0,3126.857142857143,3096.4,4240.375,4160.7,305.4985,304.841,314.579,314.5025,21.9159,20.5742,21.8824,21.3984,314.999998,314.999998,324.999988,324.999988,99.56025714285714,99.50736666666667,99.5667,99.54618571428571,0.11450000000000005,-0.0086666666666666,-0.0795,0.14883333333333335,-0.04833333333333201,-0.045000000000001705,1.5376666666666667,1.4966666666666668,37.974000000000004,29.589,37.765,34.74,56.547,34.947,59.499,52.1805,54.441,34.071,58.103,50.510999999999996,53.588,33.60633333333333,58.043,49.919666666666664,-0.13050000000000006,-0.021500000000000075,0.10995,0.104715,0.0,210.585,210.64499999999998,207.45666666666668,207.45666666666668,0.0,0.0
13,0.0,1.0,0.0,1.0,1.0,0.0,0.0,1.0,0.0,100.0,1.0,1.1856,26.0,0.0,0.0,0.0,51.999998,0.0,26.0,26.0,26.0,26.0,0.07000000000000006,0.28510000000000013,0.05343333333333334,292.511,-2.7319,-2.674625,-1.6238000000000001,-1.5105,-232.51,216.035,190.72625,0.0,0.0,0.0,0.0,0.0267,-5.498166666666667,-5.498166666666667,-0.5393,-0.028333333333333332,0.023222222222222033,1.064,67.393,0.0396,-0.21502500000000002,-0.9139999999999997,100.0,1.0,1.0,207.82999999999998,0.0,0.0,0.0,0.0,0.0,0.0,0.0,8809.2,0.0,55.0,5.0,242.58333333333334,1.0,0.0,0.0,0.0,0.0,0.0,1.0,0.0,0.6539999999999999,0.6539999999999999,0.0,0.0,1.0,55.0,616.79921,10000.0,85.000001,85.000001,85.000001,85.000001,395.0,0.0,0.0,0.0,1.0,333.33500000000004,52.429,52.429,47.867,47.867,34.0,-20.175,28.128,-27.37,33.39,0.0,1782.413,-0.7949999999999982,100.0,27.886,27.836,42.595,42.966,0.0,1.0,100.0,0.0,0.0,0.0,0.0,3051.714285714286,3184.9,4162.125,4366.8,305.5055,304.741,314.678,314.05225,21.9257,20.5798,21.893,21.4076,314.999998,314.999998,324.999988,324.999988,99.56028571428571,99.50738333333334,99.56684285714286,99.54632857142857,0.16349999999999998,0.02200000000000002,-0.061,0.1715,-0.04999999999999716,-0.041666666666671404,1.5153333333333332,1.4676666666666667,38.035,29.623666666666665,37.831,34.7975,56.536,34.9855,59.5375,52.245,54.43,34.1065,58.138999999999996,50.573,53.576,33.64,58.076499999999996,49.980333333333334,-0.1479999999999999,-0.008000000000000007,0.11315000000000001,0.11034500000000001,0.0,211.01,211.07999999999998,207.82999999999998,207.82999999999998,0.0,0.0
14,0.0,1.0,0.0,1.0,1.0,0.0,0.0,1.0,0.0,100.0,1.0,1.1856,26.0,0.0,0.0,0.0,51.999998,0.0,26.0,26.0,26.0,26.0,0.09988888888888892,0.2812000000000001,-0.0137,292.786,-2.7372,-2.614,-1.6320000000000001,-1.5123,-229.07,216.0125,190.705125,0.0,0.0,0.0,0.0,0.0287,-5.498166666666667,-5.498166666666667,-0.5484,-0.15933333333333335,0.04966666666666675,0.040999999999999925,67.532,0.053000000000000005,-0.2283,-0.9379999999999997,100.0,1.0,1.0,208.34333333333333,0.0,0.0,0.0,0.0,0.0,0.0,0.0,8830.9,0.0,55.0,5.0,243.08666666666664,0.0,0.0,0.0,0.0,0.0,0.0,1.0,0.0,0.7049999999999983,0.7049999999999983,0.0,0.0,0.0,55.0,616.79921,10000.0,85.000001,85.000001,85.000001,85.000001,395.0,0.0,0.0,0.0,1.0,333.33500000000004,52.612,52.612,48.111,48.111,34.0,-20.6375,27.354,-25.35,31.6975,0.0,1782.362,-0.8900000000000006,100.0,27.576999999999998,28.003,42.452,43.284,0.0,1.0,100.0,0.0,0.0,0.0,0.0,3046.5714285714284,3147.6,4025.75,4157.4,305.696,304.702,315.08,314.50025,21.9354,20.5853,21.9035,21.4168,314.999998,314.999998,324.999988,324.999988,99.5603,99.50738333333334,99.567,99.54647142857142,0.14900000000000002,0.01966666666666672,-0.04533333333333334,0.17833333333333334,-0.046666666666666856,-0.05833333333333002,1.5606666666666669,1.5186666666666668,38.096000000000004,29.658,37.897,34.855000000000004,56.524,35.022999999999996,59.5745,52.308,54.419,34.1415,58.1735,50.634,53.564,33.67366666666666,58.1075,50.04,-0.14500000000000002,-0.004999999999999893,0.10015,0.113085,0.0,211.445,211.51,208.34333333333333,208.34333333333333,0.0,0.0
15,0.0,1.0,0.0,1.0,1.0,0.0,0.0,1.0,0.0,100.0,1.0,1.1856,26.0,0.0,0.0,0.0,51.999998,0.0,26.0,26.0,26.0,26.0,0.10977777777777775,0.27790000000000004,-0.0427,292.816,-2.7165,-2.568625,-1.6336,-1.4508,-225.82999999999998,215.9925,190.68475,0.0,0.0,0.0,0.0,0.03056666666666667,-5.498166666666667,-5.498166666666667,-0.5399,0.306,0.08322222222222209,-0.119,67.664,0.0629,-0.21075000000000002,-1.0899999999999999,100.0,1.0,1.0,208.73666666666668,0.0,0.0,0.0,0.0,0.0,0.0,0.0,8847.6,0.0,55.0,5.0,243.56,1.0,0.0,0.0,0.0,0.0,0.0,1.0,0.0,0.7530000000000001,0.7530000000000001,0.0,0.0,1.0,55.0,616.79921,10000.0,85.000001,85.000001,85.000001,85.000001,395.0,0.0,0.0,0.0,1.0,333.33500000000004,52.765,52.765,48.203,48.203,34.0,-18.935,27.176000000000002,-25.053333333333335,32.345,0.0,1782.314,-0.9800000000000004,100.0,27.597,28.07,42.204,43.366,0.0,1.0,100.0,0.0,0.0,0.0,0.0,2895.4285714285716,3130.2,3981.25,4322.3,306.0855,304.73925,315.1945,314.12575,21.9444,20.5905,21.9132,21.4253,314.999998,314.999998,324.999988,324.999988,99.56031428571428,99.50738333333334,99.56712857142857,99.54661428571428,0.15874999999999995,0.028999999999999915,-0.04516666666666667,0.1785,-0.04999999999999716,-0.046666666666666856,1.5503333333333333,1.514,38.153,29.690666666666665,37.957,34.908500000000004,56.513999999999996,35.06,59.6075,52.368,54.409,34.1755,58.204,50.691,53.553,33.70633333333333,58.135,50.096666666666664,-0.15399999999999991,-0.002000000000000224,0.10136,0.10923000000000001,0.0,211.865,211.935,208.73666666666668,208.73666666666668,0.0,0.0
16,0.0,1.0,0.0,1.0,1.0,0.0,0.0,1.0,0.0,100.0,1.0,1.1856,26.0,0.0,0.0,0.0,51.999998,0.0,26.0,26.0,26.0,26.0,0.12388888888888894,0.2793000000000001,-0.013566666666666666,292.831,-2.8019,-2.6111250000000004,-1.5995,-1.4555,-222.37,215.975,190.66275,0.0,0.0,0.0,0.0,0.032600000000000004,-5.498166666666667,-5.498166666666667,-0.5597,-0.792,0.06844444444444431,0.12200000000000011,67.804,0.0756,-0.22432500000000002,-1.2619999999999996,100.0,1.0,1.0,209.15666666666667,0.0,0.0,0.0,0.0,0.0,0.0,0.0,8865.3,0.0,55.0,5.0,244.06666666666666,0.0,0.0,0.0,0.0,0.0,0.0,1.0,0.0,0.8039999999999985,0.8039999999999985,0.0,0.0,0.0,55.0,616.79921,10000.0,85.000001,85.000001,85.000001,85.000001,395.0,0.0,0.0,0.0,1.0,333.33500000000004,52.75,52.75,47.821,47.821,34.0,-19.275,29.354,-23.060000000000002,32.442499999999995,0.0,1782.263,-0.875,100.0,27.356,27.999,42.555,43.399,0.0,1.0,100.0,0.0,0.0,0.0,0.0,2917.142857142857,3273.9,3946.875,4169.8,306.061,304.473,315.20225,314.53,21.9537,20.5961,21.9237,21.4345,314.999998,314.999998,324.999988,324.999988,99.56032857142857,99.5074,99.56725714285714,99.54675714285715,0.17200000000000015,0.04266666666666685,-0.017833333333333333,0.20650000000000002,-0.041666666666671404,-0.054999999999999716,1.554,1.51,38.211,29.725666666666665,38.022999999999996,34.9655,56.5,35.0995,59.6455,52.431,54.396,34.212,58.239,50.752,53.538,33.74166666666667,58.167,50.156333333333336,-0.14300000000000002,-0.008999999999999897,0.10094500000000001,0.10509500000000001,0.0,212.235,212.32999999999998,209.15666666666667,209.15666666666667,0.0,0.0
17,0.0,1.0,0.0,1.0,1.0,0.0,0.0,1.0,0.0,100.0,1.0,1.1856,26.0,0.0,0.0,0.0,51.999998,0.0,26.0,26.0,26.0,26.0,0.13144444444444447,0.28710000000000013,-0.0083,292.557,-2.7665,-2.561,-1.641,-1.4752,-218.91,215.96,190.640125,0.0,0.0,0.0,0.0,0.0346,-5.498166666666667,-5.498166666666667,-0.5511,0.5476666666666666,0.04755555555555557,-0.608,67.94200000000001,0.0795,-0.206825,-1.1059999999999999,100.0,1.0,1.0,209.57999999999998,0.0,0.0,0.0,0.0,0.0,0.0,0.0,8883.3,0.0,55.0,5.0,244.56333333333333,1.0,0.0,0.0,0.0,0.0,0.0,1.0,0.0,0.8550000000000004,0.8550000000000004,0.0,0.0,1.0,55.0,616.79921,10000.0,85.000001,85.000001,85.000001,85.000001,395.0,0.0,0.0,0.0,1.0,333.33500000000004,52.444,52.444,47.928,47.928,34.0,-20.155,26.881999999999998,-25.39333333333333,33.33,0.0,1782.211,-0.9349999999999987,100.0,27.71,28.467,42.239000000000004,43.447,0.0,1.0,100.0,0.0,0.0,0.0,0.0,3086.714285714286,3062.9,4203.375,4228.6,305.639,304.99725,314.7645,314.384,21.9634,20.6018,21.934,21.4436,314.999998,314.999998,324.999988,324.999988,99.56035714285714,99.5074,99.5674,99.5469,0.17225000000000001,0.04166666666666674,-0.02066666666666667,0.20666666666666667,-0.036666666666668846,-0.06333333333333258,1.561,1.499,38.271,29.761333333333333,38.088,35.0225,56.491,35.1405,59.6805,52.493,54.387,34.2505,58.2715,50.812,53.528,33.778333333333336,58.1965,50.215333333333334,-0.15349999999999997,-0.0009999999999998899,0.10415,0.11241500000000001,0.0,212.72500000000002,212.81,209.57999999999998,209.57999999999998,0.0,0.0
18,0.0,1.0,0.0,1.0,1.0,0.0,0.0,1.0,0.0,100.0,1.0,1.1856,26.0,0.0,0.0,0.0,51.999998,0.0,26.0,26.0,26.0,26.0,0.12588888888888894,0.27659999999999996,-0.0585,292.526,-2.8004,-2.53525,-1.6587,-1.4213,-215.65,215.9475,190.619125,0.0,0.0,0.0,0.0,0.036500000000000005,-5.498166666666667,-5.498166666666667,-0.5586,-0.582,0.07311111111111113,-0.14400000000000002,68.07300000000001,0.079,-0.2218,-1.1600000000000001,100.0,1.0,1.0,209.97333333333333,0.0,0.0,0.0,0.0,0.0,0.0,0.0,8899.9,0.0,55.0,5.0,245.03666666666666,0.0,0.0,0.0,0.0,0.0,0.0,1.0,0.0,0.9029999999999987,0.9029999999999987,0.0,0.0,0.0,55.0,616.79921,10000.0,85.000001,85.000001,85.000001,85.000001,395.0,0.0,0.0,0.0,1.0,333.33500000000004,52.49,52.49,47.729,47.729,34.0,-19.4875,28.968,-24.756666666666668,31.68,0.0,1782.164,-1.1999999999999993,100.0,27.481,28.285,42.574,43.894,0.0,1.0,100.0,0.0,0.0,0.0,0.0,3037.4285714285716,3239.8,4033.25,4175.7,305.8305,304.516,315.0935,314.49875,21.9722,20.6071,21.9439,21.4523,314.999998,314.999998,324.999988,324.999988,99.56037142857143,99.5074,99.56754285714285,99.54704285714286,0.18524999999999991,0.05600000000000005,-0.024833333333333332,0.19916666666666666,-0.045000000000001705,-0.04333333333332945,1.5466666666666669,1.5136666666666667,38.326,29.794333333333334,38.15,35.077,56.480999999999995,35.178,59.716499999999996,52.5545,54.376999999999995,34.285,58.3045,50.871,53.516999999999996,33.812,58.2265,50.27333333333333,-0.16949999999999998,0.014000000000000012,0.10497000000000001,0.11095000000000001,0.0,213.085,213.175,209.97333333333333,209.97333333333333,0.0,0.0
19,0.0,1.0,0.0,1.0,1.0,0.0,0.0,1.0,0.0,100.0,1.0,1.1856,26.0,0.0,0.0,0.0,51.999998,0.0,26.0,26.0,26.0,26.0,0.13988888888888895,0.2892000000000001,0.021433333333333335,292.023,-2.7663,-2.52875,-1.6717,-1.4046,-212.17000000000002,215.94,190.5965,0.0,0.0,0.0,0.0,0.0385,-5.498166666666667,-5.498166666666667,-0.5524,0.8723333333333334,0.08411111111111103,0.9550000000000001,68.21000000000001,0.0876,-0.212075,-1.62,100.0,1.0,1.0,210.4,0.0,0.0,0.0,0.0,0.0,0.0,0.0,8918.1,0.0,55.0,5.0,245.52666666666664,1.0,0.0,0.0,0.0,0.0,0.0,1.0,0.0,0.9540000000000006,0.9540000000000006,0.0,0.0,1.0,55.0,616.79921,10000.0,85.000001,85.000001,85.000001,85.000001,395.0,0.0,0.0,0.0,1.0,333.33500000000004,51.650999999999996,51.650999999999996,47.653,47.653,34.0,-18.32,31.828,-24.416666666666664,34.595,0.0,1782.112,-1.5749999999999993,100.0,28.103,28.636,42.372,43.749,0.0,1.0,100.0,0.0,0.0,0.0,0.0,3050.5714285714284,3405.1,4106.5,4403.4,305.5015,304.04925,314.93175,314.077,21.9818,20.6129,21.9542,21.4615,314.999998,314.999998,324.999988,324.999988,99.5604,99.50741666666667,99.56768571428572,99.5472,0.21324999999999994,0.08466666666666667,-0.004833333333333333,0.22133333333333335,-0.041666666666671404,-0.05333333333332746,1.551,1.5033333333333332,38.385999999999996,29.831,38.214,35.1345,56.473,35.2225,59.751,52.6175,54.370000000000005,34.326,58.3365,50.932,53.509,33.851333333333336,58.254999999999995,50.333333333333336,-0.19599999999999995,0.03849999999999998,0.104215,0.10728000000000001,0.0,213.54000000000002,213.64499999999998,210.4,210.4,0.0,0.0
20,0.0,1.0,0.0,1.0,1.0,0.0,0.0,1.0,0.0,100.0,1.0,1.1856,26.0,0.0,0.0,0.0,51.999998,0.0,26.0,26.0,26.0,26.0,0.19177777777777782,0.26580000000000004,-0.0517,292.267,-2.8258,-2.581625,-1.6095000000000002,-1.4037,-208.69,215.9375,190.574125,0.0,0.0,0.0,0.0,0.04053333333333333,-5.498166666666667,-5.498166666666667,-0.5512,-1.0466666666666669,0.09433333333333316,-0.581,68.349,0.1033,-0.219425,-1.9779999999999998,100.0,1.0,1.0,210.67333333333335,0.0,0.0,0.0,0.0,0.0,0.0,0.0,8929.6,0.0,55.0,5.0,246.03,0.0,0.0,0.0,0.0,0.0,0.0,0.0,0.0,1.004999999999999,1.004999999999999,0.0,0.0,0.0,55.0,616.79921,10000.0,85.000001,85.000001,85.000001,85.000001,395.0,0.0,0.0,0.0,1.0,333.33500000000004,52.856,52.856,46.753,46.753,34.0,-15.91,30.352,-23.616666666666667,36.9225,0.0,1782.061,-1.8150000000000013,100.0,27.375,28.545,42.806,44.36,0.0,1.0,100.0,0.0,0.0,0.0,0.0,2790.285714285714,3161.3,4174.25,4430.9,306.532,304.65275,314.669,313.82825,21.991,20.6186,21.9648,21.4709,314.999998,314.999998,324.999988,324.999988,99.56042857142857,99.50743333333334,99.56782857142858,99.54734285714285,0.23525000000000018,0.09666666666666668,0.007333333333333333,0.24816666666666667,-0.01999999999999602,-0.061666666666667425,1.512,1.4346666666666668,38.444,29.866333333333333,38.28,35.193,56.462,35.2655,59.7905,52.684,54.358999999999995,34.366,58.3735,50.9965,53.497,33.88966666666666,58.2885,50.39666666666667,-0.21750000000000003,0.05449999999999999,0.10992,0.11452000000000001,0.0,213.885,214.065,210.67333333333335,210.67333333333335,0.0,0.0
21,0.0,1.0,0.0,1.0,1.0,0.0,0.0,1.0,0.0,100.0,1.0,1.1856,26.0,0.0,0.0,0.0,51.999998,0.0,26.0,26.0,26.0,26.0,0.22355555555555573,0.2691000000000001,-0.07666666666666666,292.633,-2.7499000000000002,-2.623875,-1.6828,-1.468,-205.39999999999998,215.9375,190.5525,0.0,0.0,0.0,0.0,0.04246666666666667,-5.498166666666667,-5.498166666666667,-0.5804,0.443,0.08666666666666667,-0.756,68.473,0.1237,-0.2285,-2.2399999999999998,100.0,1.0,1.0,211.34,0.0,0.0,0.0,0.0,0.0,0.0,0.0,8958.0,0.0,55.0,5.0,246.47333333333336,1.0,0.0,0.0,0.0,0.0,0.0,0.0,0.0,1.0530000000000008,1.0530000000000008,0.0,0.0,1.0,55.0,616.79921,10000.0,85.000001,85.000001,85.000001,85.000001,395.0,0.0,0.0,0.0,1.0,333.33500000000004,52.124,52.124,48.37,48.37,34.0,-17.4225,31.066,-20.33,34.2775,0.0,1782.013,-1.2850000000000001,100.0,27.571,28.794,42.093,44.03,0.0,1.0,100.0,0.0,0.0,0.0,0.0,3028.857142857143,3227.5,3858.125,4057.4,305.7325,304.37025,315.58575,314.82325,21.9998,20.6241,21.9744,21.4794,314.999998,314.999998,324.999988,324.999988,99.56045714285715,99.50745,99.56797142857143,99.5475,0.22325000000000017,0.08433333333333337,0.038,0.26766666666666666,-0.05666666666667197,-0.04999999999999716,1.6413333333333333,1.5543333333333333,38.498999999999995,29.900666666666666,38.34,35.2465,56.456,35.309,59.82,52.7415,54.352999999999994,34.4065,58.4005,51.052,53.489000000000004,33.928666666666665,58.313,50.45133333333334,-0.18999999999999995,0.028000000000000025,0.10281000000000001,0.11313500000000001,0.0,214.315,214.47,211.34,211.34,0.0,0.0
22,0.0,1.0,0.0,1.0,1.0,0.0,0.0,1.0,0.0,100.0,1.0,1.1856,26.0,0.0,0.0,0.0,51.999998,0.0,26.0,26.0,26.0,26.0,0.18577777777777782,0.27049999999999996,0.03066666666666667,292.007,-2.7363,-2.623,-1.6728,-1.51,-201.91,215.945,190.528625,0.0,0.0,0.0,0.0,0.04446666666666667,-5.498166666666667,-5.498166666666667,-0.557,0.158,0.09388888888888891,0.8740000000000001,68.611,0.1379,-0.2069,-1.266,100.0,1.0,1.0,211.52666666666667,0.0,0.0,0.0,0.0,0.0,0.0,0.0,8965.9,0.0,55.0,5.0,246.97333333333336,0.0,0.0,0.0,0.0,0.0,0.0,0.0,0.0,1.1039999999999992,1.1039999999999992,0.0,0.0,0.0,55.0,616.79921,10000.0,85.000001,85.000001,85.000001,85.000001,395.0,0.0,0.0,0.0,1.0,333.33500000000004,52.139,52.139,47.104,47.104,34.0,-18.65,28.874,-22.343333333333334,38.575,0.0,1781.963,0.22500000000000142,100.0,27.846,28.752,42.562,44.254999999999995,0.0,1.0,100.0,0.0,0.0,0.0,0.0,2825.4285714285716,3301.1,4123.75,4418.6,306.12,304.25675,314.8195,313.93525,22.0092,20.63,21.9849,21.4887,314.999998,314.999998,324.999988,324.999988,99.56047142857143,99.50745,99.56811428571429,99.54764285714286,0.16199999999999992,0.017333333333333423,0.0415,0.25583333333333336,-0.026666666666670835,-0.06499999999999773,1.5016666666666667,1.4453333333333334,38.557,29.937333333333335,38.405,35.3045,56.445,35.3515,59.8585,52.808,54.342,34.446,58.436,51.116,53.477999999999994,33.96666666666667,58.345,50.513999999999996,-0.07650000000000001,-0.08150000000000013,0.10512,0.10601500000000001,0.0,214.76999999999998,214.885,211.52666666666667,211.52666666666667,0.0,0.0
23,0.0,1.0,0.0,1.0,1.0,0.0,0.0,1.0,0.0,100.0,1.0,1.1856,26.0,0.0,0.0,0.0,51.999998,0.0,26.0,26.0,26.0,26.0,0.08922222222222209,0.25070000000000014,-0.021633333333333334,292.084,-2.7445,-2.596375,-1.5750000000000002,-1.5514000000000001,-198.2,215.95749999999998,190.50375,0.0,0.0,0.0,0.0,0.04663333333333333,-5.498166666666667,-5.498166666666667,-0.5768,-0.2576666666666667,0.06288888888888877,0.06099999999999994,68.753,0.1048,-0.233875,0.13200000000000056,100.0,1.0,1.0,212.09,0.0,0.0,0.0,0.0,0.0,0.0,0.0,8989.7,0.0,55.0,5.0,247.48666666666668,1.0,0.0,0.0,0.0,0.0,0.0,0.0,0.0,1.1580000000000013,1.1580000000000013,0.0,0.0,1.0,55.0,616.79921,10000.0,85.000001,85.000001,85.000001,85.000001,395.0,0.0,0.0,0.0,1.0,166.665,51.62,51.62,48.111,48.111,34.0,-23.5975,26.32,-22.613333333333337,32.254999999999995,0.0,1781.91,0.8049999999999997,100.0,28.188,28.659,42.846000000000004,44.423,0.0,1.0,100.0,0.0,0.0,0.0,0.0,3153.285714285714,3277.8,3878.75,4003.8,305.1945,304.46175,315.345,314.887,22.0191,20.6361,21.9959,21.4986,314.999998,314.999998,324.999988,324.999988,99.5605,99.50745,99.56827142857144,99.5478,0.10924999999999985,-0.026000000000000023,-0.02333333333333333,0.209,-0.03333333333333144,-0.05666666666667197,1.5503333333333333,1.5323333333333333,38.620000000000005,29.975666666666665,38.474999999999994,35.366,56.431,35.3935,59.897,52.876,54.329,34.485,58.4715,51.1815,53.463,34.004,58.376999999999995,50.57833333333333,-0.020499999999999963,-0.13949999999999996,0.1087,0.10930500000000001,0.0,215.23000000000002,215.24,212.09,212.09,0.0,0.0
24,0.0,1.0,0.0,1.0,1.0,0.0,0.0,1.0,0.0,100.0,1.0,1.1856,26.0,0.0,0.0,0.0,51.999998,0.0,26.0,26.0,26.0,26.0,0.019444444444444375,0.28100000000000014,-0.0012000000000000001,292.328,-2.7307,-2.64425,-1.5975000000000001,-1.5110000000000001,-195.1,215.9675,190.48275,0.0,0.0,0.0,0.0,0.048433333333333335,-5.498166666666667,-5.498166666666667,-0.5771000000000001,-0.406,0.0454444444444444,-0.685,68.873,0.053700000000000005,-0.215475,0.9239999999999995,100.0,1.0,1.0,212.34,0.0,0.0,0.0,0.0,0.0,0.0,0.0,9000.4,0.0,55.0,5.0,247.91666666666666,0.0,0.0,0.0,0.0,0.0,0.0,0.0,0.0,1.2029999999999994,1.2029999999999994,0.0,0.0,0.0,55.0,616.79921,10000.0,85.000001,85.000001,85.000001,85.000001,395.0,0.0,0.0,0.0,1.0,333.33500000000004,52.856,52.856,47.058,47.058,34.0,-23.315,21.622,-30.093333333333334,29.28,0.0,1781.863,0.9750000000000014,100.0,27.895,28.375,42.952,44.083,0.0,1.0,100.0,0.0,0.0,0.0,0.0,2929.714285714286,2939.2,4364.375,4112.4,306.0425,305.37125,314.26975,314.66625,22.0275,20.641,22.0052,21.5066,314.999998,314.999998,324.999988,324.999988,99.5605,99.50746666666667,99.5684,99.54794285714286,0.06000000000000005,-0.07999999999999996,-0.08666666666666667,0.13883333333333334,-0.04833333333333201,-0.045000000000001705,1.497,1.5173333333333332,38.672,30.006,38.532,35.4165,56.417,35.4275,59.93,52.93,54.315,34.5165,58.5025,51.2335,53.448,34.034666666666666,58.405,50.629333333333335,-0.0029999999999998916,-0.15700000000000003,0.10959,0.107855,0.0,215.655,215.585,212.34,212.34,0.0,0.0
25,0.0,1.0,0.0,1.0,1.0,0.0,0.0,1.0,0.0,100.0,1.0,1.1856,26.0,0.0,0.0,0.0,51.999998,0.0,26.0,26.0,26.0,26.0,-0.05511111111111111,0.26150000000000007,-0.07753333333333334,292.374,-2.7733,-2.6717500000000003,-1.5813000000000001,-1.5466,-191.59,215.98000000000002,190.4575,0.0,0.0,0.0,0.0,0.050466666666666674,-5.498166666666667,-5.498166666666667,-0.6131,-0.11566666666666667,0.014999999999999902,-0.669,69.005,-0.0082,-0.228075,1.3780000000000001,100.0,1.0,1.0,212.90666666666667,0.0,0.0,0.0,0.0,0.0,0.0,0.0,9024.4,0.0,55.0,5.0,248.39,1.0,0.0,0.0,0.0,0.0,0.0,0.0,0.0,1.2540000000000013,1.2540000000000013,0.0,0.0,1.0,55.0,616.79921,10000.0,85.000001,85.000001,85.000001,85.000001,395.0,0.0,0.0,0.0,1.0,166.665,51.971000000000004,51.971000000000004,47.897,47.897,34.0,-27.8975,23.014000000000003,-28.873333333333335,25.4075,0.0,1781.813,1.004999999999999,100.0,28.131,28.17,43.123000000000005,43.449,0.0,1.0,100.0,0.0,0.0,0.0,0.0,3192.142857142857,3264.6,3970.875,3969.4,305.2685,304.47925,315.22125,315.083,22.0369,20.6466,22.0156,21.5156,314.999998,314.999998,324.999988,324.999988,99.56051428571429,99.50748333333334,99.56854285714286,99.54808571428572,0.020000000000000018,-0.11399999999999999,-0.13666666666666666,0.08416666666666667,-0.051666666666669414,-0.054999999999999716,1.547,1.6073333333333333,38.730000000000004,30.041,38.597,35.473,56.397999999999996,35.469,59.965,52.9875,54.297,34.555,58.535,51.289,53.43,34.071666666666665,58.4345,50.684,0.0040000000000000036,-0.16199999999999992,0.106825,0.09990500000000001,0.0,216.09,215.96,212.90666666666667,212.90666666666667,0.0,0.0
26,0.0,1.0,0.0,1.0,1.0,0.0,0.0,1.0,0.0,100.0,1.0,1.1856,26.0,0.0,0.0,0.0,51.999998,0.0,26.0,26.0,26.0,26.0,-0.11111111111111105,0.27780000000000005,0.0514,291.168,-2.6797,-2.752125,-1.5891000000000002,-1.5777999999999999,-188.06,215.9925,190.431625,0.0,0.0,0.0,0.0,0.05253333333333334,-5.498166666666667,-5.498166666666667,-0.5715,0.84,-0.04911111111111133,-1.534,69.141,-0.0609,-0.1956,1.6620000000000008,100.0,1.0,1.0,213.06666666666666,0.0,0.0,0.0,0.0,0.0,0.0,0.0,9031.1,0.0,55.0,5.0,248.88,0.0,0.0,0.0,0.0,0.0,0.0,0.0,0.0,1.3049999999999997,1.3049999999999997,0.0,0.0,0.0,55.0,616.79921,10000.0,85.000001,85.000001,85.000001,85.000001,395.0,0.0,0.0,0.0,1.0,333.33500000000004,51.331,51.331,46.265,46.265,34.0,-29.5425,20.444000000000003,-38.47666666666666,26.0475,0.0,1781.761,0.8150000000000013,100.0,29.136,28.69,43.876,43.494,0.0,1.0,100.0,0.0,0.0,0.0,0.0,3349.142857142857,2987.7,4650.0,4327.4,304.8025,305.0655,313.68975,314.16325,22.0468,20.6523,22.0262,21.5248,314.999998,314.999998,324.999988,324.999988,99.56051428571429,99.5075,99.5687,99.54822857142857,-0.0007500000000000284,-0.1456666666666666,-0.18766666666666665,0.026333333333333334,-0.04333333333332945,-0.04333333333332945,1.4336666666666669,1.483,38.792,30.076666666666668,38.664,35.53,56.384,35.5145,60.006,53.048,54.284,34.597,58.573499999999996,51.3475,53.416,34.111666666666665,58.4695,50.741,-0.018999999999999906,-0.14700000000000024,0.10557000000000001,0.10954000000000001,0.0,216.555,216.41500000000002,213.06666666666666,213.06666666666666,0.0,0.0
27,0.0,1.0,0.0,1.0,1.0,0.0,0.0,1.0,0.0,100.0,1.0,1.1856,26.0,0.0,0.0,0.0,51.999998,0.0,26.0,26.0,26.0,26.0,-0.12222222222222212,0.25870000000000015,0.0013000000000000002,291.519,-2.6195,-2.7439999999999998,-1.5618,-1.6706,-184.74,216.0025,190.4085,0.0,0.0,0.0,0.0,0.05446666666666666,-5.498166666666667,-5.498166666666667,-0.5979,-1.1086666666666667,-0.0682222222222224,-0.886,69.266,-0.0876,-0.24105000000000001,1.5300000000000002,100.0,1.0,1.0,213.51666666666665,0.0,0.0,0.0,0.0,0.0,0.0,0.0,9050.2,0.0,55.0,5.0,249.32999999999998,1.0,0.0,0.0,0.0,0.0,0.0,0.0,0.0,1.352999999999998,1.352999999999998,0.0,0.0,1.0,55.0,616.79921,10000.0,85.000001,85.000001,85.000001,85.000001,395.0,0.0,0.0,0.0,1.0,333.33500000000004,51.712,51.712,46.616,46.616,34.0,-29.935000000000002,18.954,-35.74333333333334,23.8325,0.0,1781.712,0.7149999999999999,100.0,28.979,28.271,44.864000000000004,43.847,0.0,1.0,100.0,0.0,0.0,0.0,0.0,3333.142857142857,2958.2,4255.625,4016.0,304.828,305.31825,314.52225,314.7825,22.0558,20.6574,22.0364,21.5336,314.999998,314.999998,324.999988,324.999988,99.56051428571429,99.5075,99.56884285714285,99.54837142857143,-0.025249999999999995,-0.17033333333333334,-0.21633333333333335,0.0026666666666666666,-0.04833333333333201,-0.045000000000001705,1.4556666666666667,1.5350000000000001,38.849000000000004,30.108666666666664,38.727000000000004,35.585,56.367999999999995,35.557,60.049,53.1095,54.268,34.635999999999996,58.6135,51.406,53.399,34.14933333333333,58.5065,50.798,-0.021499999999999853,-0.14150000000000018,0.10028500000000001,0.101065,0.0,216.875,216.735,213.51666666666665,213.51666666666665,0.0,0.0
28,0.0,1.0,0.0,1.0,1.0,0.0,0.0,1.0,0.0,100.0,1.0,1.1856,26.0,0.0,0.0,0.0,51.999998,0.0,26.0,26.0,26.0,26.0,-0.15433333333333332,0.26760000000000006,-0.06063333333333334,291.87,-2.6344000000000003,-2.73875,-1.5057,-1.6384,-181.20999999999998,216.0075,190.383125,0.0,0.0,0.0,0.0,0.05653333333333334,-5.498166666666667,-5.498166666666667,-0.6022000000000001,0.629,-0.0774444444444442,0.692,69.395,-0.10890000000000001,-0.21855000000000002,1.3960000000000008,100.0,1.0,1.0,214.04666666666668,0.0,0.0,0.0,0.0,0.0,0.0,0.0,9072.7,0.0,55.0,5.0,249.79666666666668,0.0,0.0,0.0,0.0,0.0,0.0,0.0,0.0,1.404,1.404,0.0,0.0,0.0,55.0,616.79921,10000.0,85.000001,85.000001,85.000001,85.000001,395.0,0.0,0.0,0.0,1.0,166.665,51.758,51.758,47.501,47.501,34.0,-29.3425,19.866,-33.95,23.259999999999998,0.0,1781.664,0.4750000000000014,100.0,29.317,27.975,44.342,43.085,0.0,1.0,100.0,0.0,0.0,0.0,0.0,3275.714285714286,3017.9,4118.25,4072.1000000000004,304.8635,305.294,314.84825,314.8625,22.0656,20.6629,22.0467,21.5425,314.999998,314.999998,324.999988,324.999988,99.56052857142858,99.50753333333333,99.56898571428572,99.54851428571429,-0.017749999999999932,-0.15466666666666662,-0.23,0.0,-0.030000000000001137,-0.051666666666669414,1.528,1.5756666666666668,38.91,30.143,38.792,35.641,56.354,35.5985,60.083,53.161500000000004,54.256,34.6745,58.6455,51.4565,53.385999999999996,34.186,58.5355,50.847,-0.04400000000000004,-0.11850000000000005,0.10708000000000001,0.10341,0.0,217.31,217.2,214.04666666666668,214.04666666666668,0.0,0.0
29,0.0,1.0,0.0,1.0,1.0,0.0,0.0,1.0,0.0,100.0,1.0,1.1856,26.0,0.0,0.0,0.0,51.999998,0.0,26.0,26.0,26.0,26.0,-0.15833333333333333,0.25480000000000014,0.013366666666666666,291.489,-2.5716,-2.8005,-1.5358,-1.6195,-177.45999999999998,216.0075,190.35525,0.0,0.0,0.0,0.0,0.0587,-5.498166666666667,-5.498166666666667,-0.6066,-0.711,-0.0813333333333337,0.6140000000000001,69.537,-0.1077,-0.21857500000000002,1.04,100.0,1.0,1.0,214.32,0.0,0.0,0.0,0.0,0.0,0.0,0.0,9084.3,0.0,55.0,5.0,250.30666666666667,1.0,0.0,0.0,0.0,0.0,0.0,0.0,0.0,1.4579999999999984,1.4579999999999984,0.0,0.0,1.0,55.0,616.79921,10000.0,85.000001,85.000001,85.000001,85.000001,395.0,0.0,0.0,0.0,1.0,166.665,51.712,51.712,46.585,46.585,34.0,-29.252499999999998,20.802,-35.833333333333336,24.8625,0.0,1781.61,0.4299999999999997,100.0,29.038,27.798000000000002,44.822,43.275999999999996,0.0,1.0,100.0,0.0,0.0,0.0,0.0,3310.142857142857,3081.3,4265.875,4180.7,304.7655,304.96775,314.401,314.53725,22.0757,20.6686,22.0581,21.5523,314.999998,314.999998,324.999988,324.999988,99.56052857142858,99.50755,99.56915714285714,99.54867142857142,-0.020999999999999908,-0.16066666666666662,-0.22033333333333335,0.013833333333333335,-0.02833333333332888,-0.054999999999999716,1.4643333333333333,1.4966666666666668,38.973,30.178666666666665,38.863,35.702,56.337,35.6435,60.128,53.2255,54.239000000000004,34.716,58.6875,51.5175,53.367999999999995,34.22566666666667,58.5745,50.906333333333336,-0.04349999999999987,-0.11549999999999994,0.10322500000000001,0.11146500000000001,0.0,217.70499999999998,217.60000000000002,214.32,214.32,0.0,0.0
30,0.0,1.0,0.0,1.0,1.0,0.0,0.0,1.0,0.0,100.0,1.0,1.1856,26.0,0.0,0.0,0.0,51.999998,0.0,26.0,26.0,26.0,26.0,-0.1456666666666666,0.2743,0.0415,290.985,-2.6313,-2.68425,-1.477,-1.6963,-174.32,216.0075,190.33175,0.0,0.0,0.0,0.0,0.06053333333333334,-5.498166666666667,-5.498166666666667,-0.6047,0.7783333333333334,-0.08466666666666667,-0.6639999999999999,69.651,-0.10250000000000001,-0.2187,1.0700000000000003,100.0,1.0,1.0,214.70666666666668,0.0,0.0,0.0,0.0,0.0,0.0,0.0,9100.6,0.0,55.0,5.0,250.71666666666667,0.0,0.0,0.0,0.0,0.0,0.0,1.0,0.0,1.5030000000000001,1.5030000000000001,0.0,0.0,0.0,55.0,616.79921,10000.0,85.000001,85.000001,85.000001,85.000001,395.0,0.0,0.0,0.0,1.0,333.33500000000004,50.812,50.812,46.768,46.768,34.0,-31.497500000000002,19.364,-35.93,25.4,0.0,1781.563,0.240000000000002,100.0,29.706,28.631999999999998,44.581,43.337,0.0,1.0,100.0,0.0,0.0,0.0,0.0,3549.714285714286,2989.2,4385.0,4222.6,304.1925,305.1265,314.27075,314.3025,22.0845,20.6736,22.0673,21.5604,314.999998,314.999998,324.999988,324.999988,99.56052857142858,99.50756666666666,99.56928571428571,99.5488,-0.007749999999999924,-0.15600000000000003,-0.22016666666666665,-0.004333333333333333,-0.03833333333332689,-0.045000000000001705,1.4646666666666668,1.5070000000000001,39.028,30.209666666666664,38.921,35.7525,56.326,35.684,60.161500000000004,53.2765,54.229,34.753,58.719,51.5665,53.357,34.26133333333333,58.603,50.95433333333334,-0.0674999999999999,-0.09750000000000014,0.10092500000000001,0.10636000000000001,0.0,218.075,217.995,214.70666666666668,214.70666666666668,0.0,0.0
31,0.0,1.0,0.0,1.0,1.0,0.0,0.0,1.0,0.0,100.0,1.0,1.1856,26.0,0.0,0.0,0.0,51.999998,0.0,26.0,26.0,26.0,26.0,-0.10577777777777786,0.26239999999999997,-0.0132,291.016,-2.7,-2.66275,-1.5661,-1.6676000000000002,-170.56,216.0,190.3045,0.0,0.0,0.0,0.0,0.0627,-5.498166666666667,-5.498166666666667,-0.5909,-0.6256666666666666,-0.07377777777777794,-0.843,69.78999999999999,-0.0891,-0.22165,0.6379999999999999,100.0,1.0,1.0,215.04333333333335,0.0,0.0,0.0,0.0,0.0,0.0,0.0,9114.9,0.0,55.0,5.0,251.22,1.0,0.0,0.0,0.0,0.0,0.0,1.0,0.0,1.5569999999999986,1.5569999999999986,0.0,0.0,1.0,55.0,616.79921,10000.0,85.000001,85.000001,85.000001,85.000001,395.0,0.0,0.0,0.0,1.0,166.665,51.528999999999996,51.528999999999996,45.563,45.563,34.0,-28.52,19.892,-37.22666666666666,26.695,0.0,1781.511,0.14499999999999957,100.0,29.362000000000002,28.682000000000002,45.173,43.96,0.0,1.0,100.0,0.0,0.0,0.0,0.0,3267.0,3028.1,4494.125,4235.0,305.192,305.2375,314.00325,314.39875,22.0946,20.6795,22.0787,21.5703,314.999998,314.999998,324.999988,324.999988,99.56052857142858,99.50758333333333,99.56945714285715,99.54895714285715,0.0040000000000000036,-0.1403333333333333,-0.19733333333333336,0.025166666666666667,-0.051666666666669414,-0.036666666666668846,1.443,1.4693333333333334,39.091,30.246666666666666,38.992000000000004,35.814499999999995,56.309,35.730000000000004,60.2065,53.342,54.213,34.796,58.7615,51.6295,53.34,34.302,58.641999999999996,51.01566666666667,-0.0754999999999999,-0.09350000000000014,0.097225,0.11145000000000001,0.0,218.47500000000002,218.41500000000002,215.04333333333335,215.04333333333335,0.0,0.0
32,0.0,1.0,0.0,1.0,1.0,0.0,0.0,1.0,0.0,100.0,1.0,1.1856,26.0,0.0,0.0,0.0,51.999998,0.0,26.0,26.0,26.0,26.0,-0.119,0.26660000000000017,-0.0555,291.275,-2.6456,-2.710375,-1.5883,-1.5777999999999999,-167.0,215.9925,190.27875,0.0,0.0,0.0,0.0,0.06476666666666667,-5.498166666666667,-5.498166666666667,-0.6101,0.23366666666666666,-0.09622222222222243,0.276,69.917,-0.07390000000000001,-0.22970000000000002,0.5420000000000007,100.0,1.0,1.0,215.59,0.0,0.0,0.0,0.0,0.0,0.0,0.0,9138.0,0.0,55.0,5.0,251.67333333333335,0.0,0.0,0.0,0.0,0.0,0.0,1.0,0.0,1.6080000000000005,1.6080000000000005,0.0,0.0,0.0,55.0,616.79921,10000.0,85.000001,85.000001,85.000001,85.000001,395.0,0.0,0.0,0.0,1.0,166.665,51.208,51.208,46.722,46.722,34.0,-28.0775,21.625999999999998,-33.599999999999994,25.2925,0.0,1781.46,0.10999999999999943,100.0,29.55,28.583,44.806,43.639,0.0,1.0,100.0,0.0,0.0,0.0,0.0,3327.0,3087.6,4250.625,4147.5,304.742,305.0635,314.64775,314.75375,22.1042,20.6851,22.089199999999998,21.5794,314.999998,314.999998,324.999988,324.999988,99.56052857142858,99.5076,99.5696,99.54911428571428,0.024249999999999883,-0.121,-0.17833333333333334,0.04516666666666667,-0.046666666666666856,-0.05333333333332746,1.534,1.5636666666666668,39.150999999999996,30.282,39.057,35.8715,56.293,35.7735,60.2435,53.399,54.198,34.836,58.796,51.684,53.325,34.340666666666664,58.6735,51.069,-0.07600000000000007,-0.08850000000000025,0.10164500000000001,0.11308000000000001,0.0,218.875,218.82999999999998,215.59,215.59,0.0,0.0
33,0.0,1.0,0.0,1.0,1.0,0.0,0.0,1.0,0.0,100.0,1.0,1.1856,26.0,0.0,0.0,0.0,51.999998,0.0,26.0,26.0,26.0,26.0,-0.07799999999999996,0.25770000000000004,-0.0128,291.336,-2.6508000000000003,-2.7353750000000003,-1.5573000000000001,-1.5882,-163.85,215.98250000000002,190.25525,0.0,0.0,0.0,0.0,0.0666,-5.498166666666667,-5.498166666666667,-0.6104,-0.35033333333333333,-0.08511111111111136,0.15999999999999992,70.032,-0.0641,-0.21435,0.48799999999999955,100.0,1.0,1.0,215.83333333333331,0.0,0.0,0.0,0.0,0.0,0.0,0.0,9148.4,0.0,55.0,5.0,252.09,1.0,0.0,0.0,0.0,0.0,0.0,1.0,0.0,1.6529999999999987,1.6529999999999987,0.0,0.0,1.0,55.0,616.79921,10000.0,85.000001,85.000001,85.000001,85.000001,395.0,0.0,0.0,0.0,1.0,333.33500000000004,51.819,51.819,46.356,46.356,34.0,-27.0175,20.89,-34.9,26.29,0.0,1781.413,-0.03999999999999915,100.0,29.173000000000002,28.478,44.759,43.836,0.0,1.0,100.0,0.0,0.0,0.0,0.0,3244.142857142857,2939.0,4358.25,4240.0,305.2085,305.4235,314.35425,314.385,22.1125,20.6899,22.0985,21.5876,314.999998,314.999998,324.999988,324.999988,99.56054285714286,99.50761666666666,99.56974285714286,99.54924285714286,0.024249999999999883,-0.1173333333333334,-0.18466666666666667,0.04016666666666666,-0.06833333333332803,-0.03999999999999915,1.4693333333333334,1.5030000000000001,39.203,30.311999999999998,39.116,35.9225,56.278999999999996,35.8085,60.2775,53.451499999999996,54.185,34.8685,58.828,51.7345,53.311,34.37133333333333,58.7025,51.118,-0.08450000000000002,-0.0794999999999999,0.11024500000000001,0.10641,0.0,219.255,219.175,215.83333333333331,215.83333333333331,0.0,0.0
34,0.0,1.0,0.0,1.0,1.0,0.0,0.0,1.0,0.0,100.0,1.0,1.1856,26.0,0.0,0.0,0.0,51.999998,0.0,26.0,26.0,26.0,26.0,-0.08677777777777784,0.24780000000000002,-0.06846666666666666,291.672,-2.7169,-2.70775,-1.5943,-1.6084,-160.26999999999998,215.97,190.227375,0.0,0.0,0.0,0.0,0.0687,-5.498166666666667,-5.498166666666667,-0.6423,-0.7416666666666667,-0.04922222222222228,1.0870000000000002,70.16,-0.0494,-0.22690000000000002,0.2760000000000007,100.0,1.0,1.0,216.29333333333335,0.0,0.0,0.0,0.0,0.0,0.0,0.0,9167.8,0.0,55.0,5.0,252.55,0.0,0.0,0.0,0.0,0.0,0.0,1.0,0.0,1.7040000000000006,1.7040000000000006,0.0,0.0,0.0,55.0,616.79921,10000.0,85.000001,85.000001,85.000001,85.000001,395.0,0.0,0.0,0.0,1.0,166.665,51.971000000000004,51.971000000000004,47.348,47.348,34.0,-26.5525,22.078,-31.493333333333336,27.6725,0.0,1781.363,-0.054999999999999716,100.0,29.02,28.072,44.527,43.879,0.0,1.0,100.0,0.0,0.0,0.0,0.0,3183.142857142857,3024.5,4069.5,4196.0,305.1425,305.3255,315.00275,314.51475,22.1219,20.6954,22.109,21.596899999999998,314.999998,314.999998,324.999988,324.999988,99.56054285714286,99.50763333333333,99.56988571428572,99.5494,0.04325000000000001,-0.09566666666666657,-0.16516666666666666,0.06866666666666667,-0.045000000000001705,-0.04833333333333201,1.52,1.522,39.262,30.346,39.181,35.9805,56.263,35.8475,60.313,53.510999999999996,54.169,34.9045,58.861,51.792,53.295,34.40566666666666,58.7325,51.174,-0.08450000000000002,-0.07299999999999995,0.108475,0.106035,0.0,219.595,219.56,216.29333333333335,216.29333333333335,0.0,0.0
35,0.0,1.0,0.0,1.0,1.0,0.0,0.0,1.0,0.0,100.0,1.0,1.1856,26.0,0.0,0.0,0.0,51.999998,0.0,26.0,26.0,26.0,26.0,-0.05111111111111111,0.2538,-0.05436666666666667,291.733,-2.669,-2.6888750000000003,-1.565,-1.6164,-156.48000000000002,215.95499999999998,190.19575,0.0,0.0,0.0,0.0,0.0709,-5.498166666666667,-5.498166666666667,-0.6855,-0.381,-0.05422222222222217,-0.05399999999999994,70.294,-0.0359,-0.23005,0.14000000000000057,100.0,1.0,1.0,216.78333333333333,0.0,0.0,0.0,0.0,0.0,0.0,0.0,9188.6,0.0,55.0,5.0,253.03333333333336,1.0,0.0,0.0,0.0,0.0,0.0,1.0,0.0,1.7579999999999991,1.7579999999999991,0.0,0.0,1.0,55.0,616.79921,10000.0,85.000001,85.000001,85.000001,85.000001,395.0,0.0,0.0,0.0,1.0,166.665,51.514,51.514,46.982,46.982,34.0,-25.6125,25.38,-29.496666666666666,26.235,0.0,1781.309,-0.0799999999999983,100.0,28.776,28.35,44.202,43.468,0.0,1.0,100.0,0.0,0.0,0.0,0.0,3201.714285714286,3347.2,4022.5,3952.8,305.166,304.30975,315.05825,315.1025,22.1316,20.7013,22.1199,21.6065,314.999998,314.999998,324.999988,324.999988,99.56055714285715,99.50765,99.57004285714285,99.54954285714285,0.05624999999999991,-0.08033333333333337,-0.14133333333333334,0.07866666666666668,-0.03333333333333144,-0.06333333333333258,1.54,1.5523333333333333,39.322,30.383333333333333,39.25,36.0405,56.244,35.8905,60.35,53.57,54.150999999999996,34.944,58.8955,51.849000000000004,53.275999999999996,34.444,58.7635,51.22933333333333,-0.09099999999999997,-0.06899999999999995,0.107895,0.09906000000000001,0.0,220.0,220.0,216.78333333333333,216.78333333333333,0.0,0.0
36,0.0,1.0,0.0,1.0,1.0,0.0,0.0,1.0,0.0,100.0,1.0,1.1856,26.0,0.0,0.0,0.0,51.999998,0.0,26.0,26.0,26.0,26.0,-0.043888888888888866,0.2633000000000001,0.05566666666666666,290.756,-2.7278000000000002,-2.650625,-1.5358,-1.6087,-153.1,215.94,190.166,0.0,0.0,0.0,0.0,0.07286666666666666,-5.498166666666667,-5.498166666666667,-0.6639,0.3096666666666667,-0.08933333333333371,0.1280000000000001,70.417,-0.0261,-0.198825,0.21399999999999952,100.0,1.0,1.0,216.9,0.0,0.0,0.0,0.0,0.0,0.0,0.0,9193.6,0.0,55.0,5.0,253.47333333333336,0.0,0.0,0.0,0.0,0.0,0.0,1.0,0.0,1.806000000000001,1.806000000000001,0.0,0.0,0.0,55.0,616.79921,10000.0,85.000001,85.000001,85.000001,85.000001,395.0,0.0,0.0,0.0,1.0,166.665,51.208,51.208,46.126999999999995,46.126999999999995,34.0,-26.3275,24.08,-33.120000000000005,32.1325,0.0,1781.261,-0.08999999999999986,100.0,29.284,28.648,44.362,43.777,0.0,1.0,100.0,0.0,0.0,0.0,0.0,3311.5714285714284,3183.7,4495.375,4564.0,304.806,304.837,313.94,313.6785,22.1405,20.7068,22.1298,21.6153,314.999998,314.999998,324.999988,324.999988,99.56055714285715,99.50765,99.57018571428571,99.54968571428572,0.0767500000000001,-0.06866666666666665,-0.12983333333333336,0.08866666666666667,-0.03166666666666629,-0.04999999999999716,1.4386666666666668,1.4396666666666669,39.378,30.417666666666666,39.312,36.0955,56.230999999999995,35.93,60.3855,53.627,54.138999999999996,34.9805,58.9285,51.9035,53.263,34.479,58.7935,51.282333333333334,-0.09899999999999998,-0.07350000000000012,0.10867,0.10579500000000001,0.0,220.425,220.385,216.9,216.9,0.0,0.0
