,ABS Active,ABS Enabled,AID Allow Tire Blankets,AID Auto Blip,AID Auto Clutch,AID Auto Shift,AID Fuel Rate,AID Ideal Line,AID Mech Damage,AID Stability,AID Tire Wear Rate,Air Density,Air Temp,Ballast,Best Lap Delta,Best Lap Time,Brake Bias,Brake Pos,Brake Temp FL,Brake Temp FR,Brake Temp RL,Brake Temp RR,CG Accel Lateral,CG Accel Longitudinal,CG Accel Vertical,CG Height,Camber FL,Camber FR,Camber RL,Camber RR,Car Coord X,Car Coord Y,Car Coord Z,Car Damage Front,Car Damage Left,Car Damage Rear,Car Damage Right,Car Pos Norm,Caster FL,Caster FR,Chassis Pitch Angle,Chassis Pitch Rate,Chassis Roll Angle,Chassis Roll Rate,Chassis Velocity X,Chassis Velocity Y,Chassis Velocity Z,Chassis Yaw Rate,Clutch Pos,DRS Active,DRS Available,Drive Train Speed,ERS Heat Charging,ERS Is Charging,ERS Max Energy,ERS Power Level,ERS Recovery Level,Engine Brake Setting,Engine Limiter,Engine RPM,Flags,Fuel Level,Gear,Ground Speed,HR Sample Clock,In Pit,KERS Charge,KERS Deployed Energy,KERS Input,KERS Max Energy,LR Sample Clock,Lap Invalidated,Lap Time,Lap Time2,Last Lap Time,Last Sector Time,MR Sample Clock,Max Fuel,Max Power,Max RPM,Max Sus Travel FL,Max Sus Travel FR,Max Sus Travel RL,Max Sus Travel RR,Max Torque,Max Turbo Boost,Num Tires Off Track,Penalties Enabled,Position,Raw Data Sample Rate,Ride Height FL,Ride Height FR,Ride Height RL,Ride Height RR,Road Temp,Self Align Torque FL,Self Align Torque FR,Self Align Torque RL,Self Align Torque RR,Session Lap Count,Session Time Left,Steering Angle,Surface Grip,Suspension Travel FL,Suspension Travel FR,Suspension Travel RL,Suspension Travel RR,TC Active,TC Enabled,Throttle Pos,Tire Dirt Level FL,Tire Dirt Level FR,Tire Dirt Level RL,Tire Dirt Level RR,Tire Load FL,Tire Load FR,Tire Load RL,Tire Load RR,Tire Loaded Radius FL,Tire Loaded Radius FR,Tire Loaded Radius RL,Tire Loaded Radius RR,Tire Pressure FL,Tire Pressure FR,Tire Pressure RL,Tire Pressure RR,Tire Radius FL,Tire Radius FR,Tire Radius RL,Tire Radius RR,Tire Rubber Grip FL,Tire Rubber Grip FR,Tire Rubber Grip RL,Tire Rubber Grip RR,Tire Slip Angle FL,Tire Slip Angle FR,Tire Slip Angle RL,Tire Slip Angle RR,Tire Slip Ratio FL,Tire Slip Ratio FR,Tire Slip Ratio RL,Tire Slip Ratio RR,Tire Temp Core FL,Tire Temp Core FR,Tire Temp Core RL,Tire Temp Core RR,Tire Temp Inner FL,Tire Temp Inner FR,Tire Temp Inner RL,Tire Temp Inner RR,Tire Temp Middle FL,Tire Temp Middle FR,Tire Temp Middle RL,Tire Temp Middle RR,Tire Temp Outer FL,Tire Temp Outer FR,Tire Temp Outer RL,Tire Temp Outer RR,Toe In FL,Toe In FR,Toe In RL,Toe In RR,Turbo Boost,Wheel Angular Speed FL,Wheel Angular Speed FR,Wheel Angular Speed RL,Wheel Angular Speed RR,Wind Direction,Wind Speed
0,0.0,1.0,0.0,1.0,1.0,0.0,0.0,1.0,0.0,100.0,1.0,1.1856,26.0,0.0,0.0,0.0,51.99999,0.0,26.0,26.0,26.0,26.0,-0.08166666666666655,0.3178000000000001,0.2011,293.671,-2.7432,-2.474333333333333,-1.5126,-1.5211999999999999,-275.41,215.9225,190.986,0.0,0.0,0.0,0.0,0.0017666666666666668,-5.498166666666667,-5.498166666666667,-0.5413,1.6296666666666668,-0.014444444444444482,-1.7910000000000001,65.542,-0.038799999999999946,-0.206375,0.6500000000000004,100.0,1.0,1.0,202.35333333333332,0.0,0.0,0.0,0.0,0.0,0.0,0.0,8577.1,0.0,55.0,5.0,235.92333333333335,0.0,0.0,0.0,0.0,0.0,0.0,0.0,0.0,0.006000000000000227,0.006000000000000227,0.0,0.0,0.0,55.0,616.79921,10000.0,85.0,85.0,85.0,85.0,395.0,0.0,0.0,0.0,1.0,20.0,52.109,52.109,48.828,48.828,34.0,-28.68,24.004,-30.46,24.677500000000002,0.0,1783.707,0.6500000000000021,100.0,27.064,27.146,40.601,40.371,0.0,1.0,100.0,0.0,0.0,0.0,0.0,3215.142857142857,3664.6,4164.5,3995.3,305.188,302.9936666666667,314.7556666666667,314.84875,21.765888888888888,20.5132,21.7532,21.2896,314.99999,314.99999,324.99998,324.99998,99.55831428571429,99.50721666666666,99.56475714285715,99.54435714285714,-0.0040000000000000036,-0.118,-0.15516666666666665,0.06766666666666667,-0.03999999999999915,-0.04833333333333201,1.5323333333333333,1.5594999999999999,37.037,29.2075,36.957,34.06,56.108999999999995,34.445,58.941,51.4005,54.041,33.631,57.579499999999996,49.763,53.218,33.20733333333334,57.555,49.18633333333334,-0.028999999999999915,-0.12300000000000022,0.10672000000000001,0.11259000000000001,0.0,205.38,205.305,202.35333333333335,202.35333333333332,0.0,0.0
1,0.0,1.0,0.0,1.0,1.0,0.0,0.0,1.0,0.0,100.0,1.0,1.1856,26.0,0.0,0.0,0.0,51.999998,0.0,26.0,26.0,26.0,26.0,-0.10477777777777786,0.30710000000000015,0.2705,293.045,-2.6469,-2.809,-1.5389,-1.4475,-271.87,215.925,190.965,0.0,0.0,0.0,0.0,0.0038,-5.498166666666667,-5.498166666666667,-0.4983,-2.0726666666666667,-0.06355555555555581,-1.043,65.707,-0.048699999999999966,-0.20902500000000002,1.154,100.0,1.0,1.0,202.45,0.0,0.0,0.0,0.0,0.0,0.0,0.0,8581.1,0.0,55.0,5.0,236.51666666666665,1.0,0.0,0.0,0.0,0.0,0.0,0.0,0.0,0.05999999999999872,0.05999999999999872,0.0,0.0,1.0,55.0,616.79921,10000.0,85.000001,85.000001,85.000001,85.000001,395.0,0.0,0.0,0.0,1.0,166.665,54.047,54.047,48.309,48.309,34.0,-26.4325,17.968,-36.06333333333333,26.86,0.0,1783.653,0.75,100.0,27.285,26.692,42.492000000000004,42.59,0.0,1.0,100.0,0.0,0.0,0.0,0.0,3090.714285714286,2609.0,4504.125,4467.7,305.547,306.60066666666665,313.76166666666666,313.12875,21.776333333333334,20.5184,21.7647,21.2994,314.999998,314.999998,324.999988,324.999988,99.55832857142858,99.50721666666666,99.56491428571428,99.54451428571429,-0.0004999999999999449,-0.13175000000000003,-0.17366666666666666,0.041666666666666664,-0.051666666666669414,-0.07000000000000028,1.3583333333333334,1.397,37.102000000000004,29.240000000000002,37.028999999999996,34.121,56.092,34.4855,58.991,51.4735,54.024,33.668,57.6265,49.833,53.201,33.243,57.599000000000004,49.254999999999995,-0.020999999999999908,-0.13200000000000012,0.10239000000000001,0.111725,0.0,205.85500000000002,205.76,202.45,202.45,0.0,0.0
2,0.0,1.0,0.0,1.0,1.0,0.0,0.0,1.0,0.0,100.0,1.0,1.1856,26.0,0.0,0.0,0.0,51.999998,0.0,26.0,26.0,26.0,26.0,-0.11577777777777776,0.28380000000000005,-0.1198,294.144,-2.6228,-2.757888888888889,-1.5168,-1.6137,-268.71,215.925,190.94725,0.0,0.0,0.0,0.0,0.005633333333333334,-5.498166666666667,-5.498166666666667,-0.5611,0.6636666666666666,-0.027111111111111086,1.59,65.837,-0.06099999999999994,-0.25727500000000003,1.4440000000000008,100.0,1.0,1.0,203.57999999999998,0.0,0.0,0.0,0.0,0.0,0.0,0.0,8628.9,0.0,55.0,5.0,236.98333333333335,0.0,0.0,0.0,0.0,0.0,0.0,0.0,0.0,0.10800000000000054,0.10800000000000054,0.0,0.0,0.0,55.0,616.79921,10000.0,85.000001,85.000001,85.000001,85.000001,395.0,0.0,0.0,0.0,1.0,333.33500000000004,52.536,52.536,50.842,50.842,34.0,-30.235,20.07,-27.483333333333334,19.5925,0.0,1783.603,0.7600000000000016,100.0,28.043,27.002,41.922,41.159,0.0,1.0,100.0,0.0,0.0,0.0,0.0,3336.5714285714284,2978.0,3606.25,3561.8,304.668,305.2493333333333,316.0443333333333,316.1195,21.785888888888888,20.5232,21.7743,21.3074,314.999998,314.999998,324.999988,324.999988,99.55832857142858,99.50723333333333,99.56504285714286,99.54464285714286,-0.030750000000000055,-0.14825,-0.21266666666666667,0.018833333333333334,-0.07166666666666544,-0.054999999999999716,1.6943333333333332,1.7545000000000002,37.162,29.2705,37.09,34.171,56.081,34.5245,59.0245,51.522,54.013,33.7035,57.658,49.8795,53.189,33.27733333333333,57.6275,49.300666666666665,-0.012499999999999956,-0.13200000000000012,0.10432000000000001,0.11137500000000002,0.0,206.285,206.16500000000002,203.57999999999998,203.57999999999998,0.0,0.0
3,0.0,1.0,0.0,1.0,1.0,0.0,0.0,1.0,0.0,100.0,1.0,1.1856,26.0,0.0,0.0,0.0,51.999998,0.0,26.0,26.0,26.0,26.0,-0.133,0.2914000000000001,-0.03406666666666667,293.396,-2.6408,-2.690777777777778,-1.4981,-1.5829,-265.55,215.9225,190.928375,0.0,0.0,0.0,0.0,0.007500000000000001,-5.498166666666667,-5.498166666666667,-0.5035000000000001,0.47633333333333333,-0.020000000000000018,-1.674,65.982,-0.07689999999999997,-0.190775,1.2200000000000006,100.0,1.0,1.0,203.53333333333333,0.0,0.0,0.0,0.0,0.0,0.0,0.0,8627.0,0.0,55.0,5.0,237.50666666666666,1.0,0.0,0.0,0.0,0.0,0.0,0.0,0.0,0.1559999999999988,0.1559999999999988,0.0,0.0,1.0,55.0,616.79921,10000.0,85.000001,85.000001,85.000001,85.000001,395.0,0.0,0.0,0.0,1.0,166.665,53.574,53.574,48.004,48.004,34.0,-26.5925,17.605999999999998,-36.056666666666665,24.7325,0.0,1783.557,0.8300000000000018,100.0,27.681,27.057,42.209,41.511,0.0,1.0,100.0,0.0,0.0,0.0,0.0,2989.857142857143,2775.5,4472.0,4195.7,305.8325,305.7896666666667,313.95366666666666,314.3805,21.795,20.5281,21.7842,21.3158,314.999998,314.999998,324.999988,324.999988,99.55832857142858,99.50725,99.56518571428572,99.54477142857142,-0.030999999999999917,-0.15949999999999998,-0.20116666666666666,0.0195,-0.04999999999999716,-0.04999999999999716,1.4503333333333333,1.4889999999999999,37.219,29.301000000000002,37.150999999999996,34.224000000000004,56.065,34.564499999999995,59.063,51.5835,53.998000000000005,33.741,57.694,49.9385,53.173,33.312666666666665,57.6605,49.358666666666664,-0.01649999999999996,-0.13100000000000023,0.108035,0.104395,0.0,206.76999999999998,206.66,203.53333333333333,203.53333333333333,0.0,0.0
4,0.0,1.0,0.0,1.0,1.0,0.0,0.0,1.0,0.0,100.0,1.0,1.1856,26.0,0.0,0.0,0.0,51.999998,0.0,26.0,26.0,26.0,26.0,-0.14622222222222214,0.2812000000000001,-0.0297,293.61,-2.6629,-2.788666666666667,-1.4396,-1.5965,-262.18,215.91500000000002,190.90875,0.0,0.0,0.0,0.0,0.009433333333333334,-5.498166666666667,-5.498166666666667,-0.537,-0.8446666666666667,-0.07555555555555582,0.03,66.129,-0.08360000000000001,-0.235625,1.3979999999999997,100.0,1.0,1.0,204.11666666666667,0.0,0.0,0.0,0.0,0.0,0.0,0.0,8651.7,0.0,55.0,5.0,238.03333333333333,0.0,0.0,0.0,0.0,0.0,0.0,0.0,0.0,0.20700000000000074,0.20700000000000074,0.0,0.0,0.0,55.0,616.79921,10000.0,85.000001,85.000001,85.000001,85.000001,395.0,0.0,0.0,0.0,1.0,333.33500000000004,53.223,53.223,48.691,48.691,34.0,-29.572499999999998,19.727999999999998,-32.16,21.445,0.0,1783.504,0.9000000000000021,100.0,27.654,26.551000000000002,42.922,41.519,0.0,1.0,100.0,0.0,0.0,0.0,0.0,3214.0,2950.2,4135.25,3767.4,305.016,305.492,314.705,315.4535,21.80488888888889,20.5332,21.7949,21.3247,314.999998,314.999998,324.999988,324.999988,99.55834285714286,99.50726666666667,99.56532857142857,99.54491428571428,-0.03600000000000003,-0.15425,-0.21033333333333334,0.018666666666666668,-0.03333333333333144,-0.05833333333333002,1.5406666666666666,1.604,37.28,29.3325,37.218,34.278999999999996,56.049,34.606,59.106,51.6435,53.983000000000004,33.778999999999996,57.734,49.996,53.158,33.349333333333334,57.698,49.415,-0.006999999999999895,-0.14349999999999996,0.10830000000000001,0.10663500000000001,0.0,207.16,207.06,204.11666666666667,204.11666666666667,0.0,0.0
5,0.0,1.0,0.0,1.0,1.0,0.0,0.0,1.0,0.0,100.0,1.0,1.1856,26.0,0.0,0.0,0.0,51.999998,0.0,26.0,26.0,26.0,26.0,-0.1373333333333333,0.30069999999999997,-0.0224,293.747,-2.6865,-2.7465555555555556,-1.4889000000000001,-1.619,-258.8,215.905,190.888625,0.0,0.0,0.0,0.0,0.0114,-5.498166666666667,-5.498166666666667,-0.5364,0.4346666666666667,-0.07422222222222219,-0.507,66.275,-0.09649999999999992,-0.215975,1.484,100.0,1.0,1.0,204.58333333333331,0.0,0.0,0.0,0.0,0.0,0.0,0.0,8671.6,0.0,55.0,5.0,238.56,1.0,0.0,0.0,0.0,0.0,0.0,0.0,0.0,0.2579999999999991,0.2579999999999991,0.0,0.0,1.0,55.0,616.79921,10000.0,85.000001,85.000001,85.000001,85.000001,395.0,0.0,0.0,0.0,1.0,166.665,53.436,53.436,49.118,49.118,34.0,-29.6925,18.496,-33.129999999999995,22.4,0.0,1783.455,0.4800000000000004,100.0,27.606,26.627,42.528,41.184,0.0,1.0,100.0,0.0,0.0,0.0,0.0,3237.5714285714284,2804.3,4113.875,3974.7,305.0835,305.772,314.84866666666665,314.95525,21.814777777777778,20.5383,21.8052,21.3334,314.999998,314.999998,324.999988,324.999988,99.55835714285715,99.50728333333333,99.56547142857143,99.54505714285715,-0.03249999999999997,-0.15225,-0.22533333333333336,0.0038333333333333336,-0.045000000000001705,-0.03166666666666629,1.558,1.617,37.342,29.363999999999997,37.283,34.333,56.036,34.6475,59.1455,51.701499999999996,53.971000000000004,33.817,57.771,50.052,53.144,33.385666666666665,57.732,49.46933333333333,-0.03249999999999997,-0.11299999999999999,0.09956500000000001,0.11678500000000001,0.0,207.65,207.525,204.58333333333331,204.58333333333331,0.0,0.0
6,0.0,1.0,0.0,1.0,1.0,0.0,0.0,1.0,0.0,100.0,1.0,1.1856,26.0,0.0,0.0,0.0,51.999998,0.0,26.0,26.0,26.0,26.0,-0.14577777777777778,0.29580000000000006,0.024266666666666666,293.503,-2.6324,-2.8024444444444443,-1.542,-1.5832,-255.62,215.89249999999998,190.869125,0.0,0.0,0.0,0.0,0.013266666666666666,-5.498166666666667,-5.498166666666667,-0.5254,-0.03133333333333333,-0.07588888888888867,-0.785,66.414,-0.1026999999999999,-0.2051,1.136000000000001,100.0,1.0,1.0,204.9,0.0,0.0,0.0,0.0,0.0,0.0,0.0,8685.0,0.0,55.0,5.0,239.06,0.0,0.0,0.0,0.0,0.0,0.0,0.0,0.0,0.30600000000000094,0.30600000000000094,0.0,0.0,0.0,55.0,616.79921,10000.0,85.000001,85.000001,85.000001,85.000001,395.0,0.0,0.0,0.0,1.0,333.33500000000004,53.558,53.558,48.492,48.492,34.0,-28.6925,18.776,-36.04333333333334,21.915,0.0,1783.406,0.33999999999999986,100.0,27.532,26.621,42.766999999999996,41.462,0.0,1.0,100.0,0.0,0.0,0.0,0.0,3208.714285714286,2767.4,4294.625,4045.9,305.152,305.84066666666666,314.415,314.7505,21.823999999999998,20.5431,21.8152,21.3418,314.999998,314.999998,324.999988,324.999988,99.55835714285715,99.5073,99.5656,99.54518571428571,-0.02675000000000005,-0.15100000000000002,-0.228,-0.008833333333333334,-0.05333333333332746,-0.046666666666666856,1.506,1.5735000000000001,37.4,29.394,37.345,34.385999999999996,56.022,34.6855,59.185,51.76,53.958,33.852000000000004,57.8075,50.108000000000004,53.129999999999995,33.419,57.766,49.52433333333333,-0.04949999999999988,-0.09600000000000009,0.10262500000000001,0.09985500000000001,0.0,208.07999999999998,207.96,204.9,204.9,0.0,0.0
7,0.0,1.0,0.0,1.0,1.0,0.0,0.0,1.0,0.0,100.0,1.0,1.1856,26.0,0.0,0.0,0.0,51.999998,0.0,26.0,26.0,26.0,26.0,-0.10155555555555551,0.28800000000000003,-0.0217,293.549,-2.6032,-2.795111111111111,-1.5041,-1.6257,-252.03,215.875,190.8475,0.0,0.0,0.0,0.0,0.015333333333333334,-5.498166666666667,-5.498166666666667,-0.5336000000000001,0.131,-0.06333333333333346,-0.269,66.566,-0.09559999999999991,-0.21930000000000002,0.8100000000000005,100.0,1.0,1.0,205.46666666666667,0.0,0.0,0.0,0.0,0.0,0.0,0.0,8708.9,0.0,55.0,5.0,239.61,1.0,0.0,0.0,0.0,0.0,0.0,0.0,0.0,0.35999999999999943,0.35999999999999943,0.0,0.0,1.0,55.0,616.79921,10000.0,85.000001,85.000001,85.000001,85.000001,395.0,0.0,0.0,0.0,1.0,166.665,53.238,53.238,48.965,48.965,34.0,-27.4525,20.05,-32.45333333333333,22.252499999999998,0.0,1783.353,-0.004999999999999005,100.0,27.77,26.802,42.769,41.607,0.0,1.0,100.0,0.0,0.0,0.0,0.0,3196.857142857143,2830.1,4046.0,3913.7,305.1435,305.6326666666667,314.98466666666667,315.06125,21.834555555555557,20.5485,21.8263,21.3512,314.999998,314.999998,324.999988,324.999988,99.55835714285715,99.50731666666667,99.56577142857142,99.54532857142857,-0.004999999999999893,-0.12975000000000003,-0.21933333333333335,0.0038333333333333336,-0.06833333333332803,-0.046666666666666856,1.5543333333333333,1.579,37.466,29.427999999999997,37.414,34.445,56.007999999999996,34.729,59.2275,51.8245,53.944,33.891999999999996,57.8475,50.1695,53.116,33.457,57.803,49.584666666666664,-0.0714999999999999,-0.07350000000000012,0.10746000000000001,0.10616,0.0,208.54500000000002,208.44,205.46666666666667,205.46666666666667,0.0,0.0
8,0.0,1.0,0.0,1.0,1.0,0.0,0.0,1.0,0.0,100.0,1.0,1.1856,26.0,0.0,0.0,0.0,51.999998,0.0,26.0,26.0,26.0,26.0,-0.07388888888888889,0.2774000000000001,-0.017,293.51800000000003,-2.6849,-2.7284444444444444,-1.4833,-1.6202,-248.82999999999998,215.85500000000002,190.828,0.0,0.0,0.0,0.0,0.0172,-5.498166666666667,-5.498166666666667,-0.5372,-0.429,-0.051000000000000156,-0.81,66.70400000000001,-0.07629999999999992,-0.21780000000000002,0.40000000000000036,100.0,1.0,1.0,205.82333333333332,0.0,0.0,0.0,0.0,0.0,0.0,0.0,8724.1,0.0,55.0,5.0,240.10333333333335,0.0,0.0,0.0,0.0,0.0,0.0,0.0,0.0,0.40800000000000125,0.40800000000000125,0.0,0.0,0.0,55.0,616.79921,10000.0,85.000001,85.000001,85.000001,85.000001,395.0,0.0,0.0,0.0,1.0,166.665,53.467,53.467,48.431,48.431,34.0,-27.035,20.878,-31.366666666666664,24.61,0.0,1783.305,-0.054999999999999716,100.0,27.367,26.813,42.85,41.782,0.0,1.0,100.0,0.0,0.0,0.0,0.0,3146.285714285714,2914.2,4078.25,3995.7,305.44,305.42566666666664,314.88666666666666,314.82525,21.843666666666667,20.5534,21.836199999999998,21.3596,314.999998,314.999998,324.999988,324.999988,99.55835714285715,99.50733333333334,99.5659,99.54545714285715,0.005749999999999922,-0.11075000000000002,-0.19333333333333336,0.035833333333333335,-0.04999999999999716,-0.060000000000002274,1.5326666666666666,1.5295,37.522999999999996,29.4585,37.476,34.498,55.992000000000004,34.7665,59.2665,51.882,53.929,33.9265,57.884,50.2245,53.1,33.49,57.8365,49.638666666666666,-0.0814999999999999,-0.06150000000000011,0.11005000000000001,0.10632000000000001,0.0,208.92000000000002,208.885,205.82333333333332,205.82333333333332,0.0,0.0
9,0.0,1.0,0.0,1.0,1.0,0.0,0.0,1.0,0.0,100.0,1.0,1.1856,26.0,0.0,0.0,0.0,51.999998,0.0,26.0,26.0,26.0,26.0,-0.06333333333333335,0.29669999999999996,0.025633333333333334,293.182,-2.6029,-2.737222222222222,-1.5364,-1.5724,-245.42000000000002,215.83249999999998,190.807,0.0,0.0,0.0,0.0,0.019200000000000002,-5.498166666666667,-5.498166666666667,-0.5336000000000001,0.548,-0.052777777777778034,0.976,66.84700000000001,-0.05559999999999998,-0.21025000000000002,0.16999999999999993,100.0,1.0,1.0,206.28333333333333,0.0,0.0,0.0,0.0,0.0,0.0,0.0,8743.7,0.0,55.0,5.0,240.62,1.0,0.0,0.0,0.0,0.0,0.0,0.0,0.0,0.45899999999999963,0.45899999999999963,0.0,0.0,1.0,55.0,616.79921,10000.0,85.000001,85.000001,85.000001,85.000001,395.0,0.0,0.0,0.0,1.0,166.665,52.811,52.811,48.828,48.828,34.0,-25.52,22.596,-30.426666666666666,26.345,0.0,1783.254,-0.22499999999999787,100.0,28.024,26.929000000000002,42.666,41.691,0.0,1.0,100.0,0.0,0.0,0.0,0.0,3192.714285714286,3019.8,4095.75,4136.2,305.034,305.23333333333335,314.876,314.632,21.853555555555555,20.5587,21.8466,21.3685,314.999998,314.999998,324.999988,324.999988,99.55835714285715,99.50735,99.56604285714286,99.54561428571428,0.04225000000000012,-0.08850000000000002,-0.15883333333333335,0.06766666666666667,-0.061666666666667425,-0.06833333333332803,1.546,1.5575,37.585,29.491500000000002,37.541,34.553,55.977999999999994,34.8065,59.305,51.942499999999995,53.916,33.963499999999996,57.9195,50.2825,53.086,33.525333333333336,57.8695,49.69533333333334,-0.09549999999999992,-0.06099999999999994,0.10285000000000001,0.10882000000000001,0.0,209.39,209.365,206.28333333333333,206.28333333333333,0.0,0.0
10,0.0,1.0,0.0,1.0,1.0,0.0,0.0,1.0,0.0,100.0,1.0,1.1856,26.0,0.0,0.0,0.0,51.999998,0.0,26.0,26.0,26.0,26.0,-0.027888888888888852,0.2984,-0.023966666666666667,293.198,-2.6828,-2.695666666666667,-1.5147,-1.5441,-242.01,215.81,190.78625,0.0,0.0,0.0,0.0,0.021166666666666667,-5.498166666666667,-5.498166666666667,-0.5283,-0.6406666666666666,-0.015000000000000124,0.192,66.993,-0.0363,-0.21435,-0.040000000000000036,100.0,1.0,1.0,206.61333333333334,0.0,0.0,0.0,0.0,0.0,0.0,0.0,8757.6,0.0,55.0,5.0,241.14666666666668,0.0,0.0,0.0,0.0,0.0,0.0,1.0,0.0,0.509999999999998,0.509999999999998,0.0,0.0,0.0,55.0,616.79921,10000.0,85.000001,85.000001,85.000001,85.000001,395.0,0.0,0.0,0.0,1.0,166.665,53.406,53.406,48.126,48.126,34.0,-24.2225,22.232,-30.38,27.0875,0.0,1783.203,-0.370000000000001,100.0,27.576,27.026,42.84,42.338,0.0,1.0,100.0,0.0,0.0,0.0,0.0,3028.142857142857,2915.3,4184.75,4180.6,305.728,305.4533333333333,314.656,314.38175,21.863222222222223,20.5639,21.8572,21.3776,314.999998,314.999998,324.999988,324.999988,99.55837142857143,99.50735,99.56618571428571,99.54575714285714,0.04800000000000004,-0.06899999999999995,-0.14533333333333334,0.0745,-0.041666666666671404,-0.05333333333332746,1.5153333333333334,1.4969999999999999,37.644999999999996,29.524,37.607,34.61,55.964,34.844,59.3465,52.006,53.902,33.998,57.9585,50.3435,53.071,33.55833333333334,57.905,49.754999999999995,-0.09949999999999992,-0.04349999999999987,0.10293000000000001,0.10402000000000002,0.0,209.8,209.79000000000002,206.61333333333334,206.61333333333334,0.0,0.0
11,0.0,1.0,0.0,1.0,1.0,0.0,0.0,1.0,0.0,100.0,1.0,1.1856,26.0,0.0,0.0,0.0,51.999998,0.0,26.0,26.0,26.0,26.0,0.001777777777777878,0.2814000000000001,-0.08153333333333335,293.549,-2.6885,-2.690666666666667,-1.5664,-1.518,-238.79,215.785,190.7665,0.0,0.0,0.0,0.0,0.022600000000000002,-5.498166666666667,-5.498166666666667,-0.5557,-0.058666666666666666,0.006555555555555648,-0.619,67.124,-0.019899999999999918,-0.227975,-0.21799999999999908,100.0,1.0,1.0,207.23000000000002,0.0,0.0,0.0,0.0,0.0,0.0,0.0,8783.7,0.0,55.0,5.0,241.61666666666667,1.0,0.0,0.0,0.0,0.0,0.0,1.0,0.0,0.5579999999999998,0.5579999999999998,0.0,0.0,1.0,55.0,616.79921,10000.0,85.000001,85.000001,85.000001,85.000001,395.0,0.0,0.0,0.0,1.0,166.665,53.101,53.101,49.103,49.103,34.0,-24.4275,24.168,-27.136666666666663,25.564999999999998,0.0,1783.155,-0.5350000000000001,100.0,27.342,27.245,42.383,42.232,0.0,1.0,100.0,0.0,0.0,0.0,0.0,3131.4285714285716,3029.2,3859.625,3961.8,305.4305,305.06333333333333,315.51366666666667,315.01025,21.872222222222224,20.5689,21.8669,21.386,314.999998,314.999998,324.999988,324.999988,99.55838571428572,99.50736666666667,99.56631428571428,99.54588571428572,0.06700000000000017,-0.04625000000000001,-0.1325,0.0945,-0.05333333333332746,-0.041666666666671404,1.6053333333333333,1.592,37.701,29.555500000000002,37.668,34.663,55.95,34.879999999999995,59.3795,52.0625,53.888999999999996,34.0315,57.989,50.397999999999996,53.058,33.590333333333334,57.933,49.80833333333334,-0.11450000000000005,-0.03200000000000003,0.10845,0.108545,0.0,210.20499999999998,210.20499999999998,207.23000000000002,207.23000000000002,0.0,0.0
12,0.0,1.0,0.0,1.0,1.0,0.0,0.0,1.0,0.0,100.0,1.0,1.1856,26.0,0.0,0.0,0.0,51.999998,0.0,26.0,26.0,26.0,26.0,0.0058888888888888324,0.28869999999999996,0.020266666666666665,293.045,-2.714,-2.690777777777778,-1.5405,-1.5441,-235.56,215.7625,190.745875,0.0,0.0,0.0,0.0,0.025466666666666665,-5.498166666666667,-5.498166666666667,-0.5429,0.318,0.0009999999999998899,-0.6920000000000001,67.26,-0.0031999999999999806,-0.20550000000000002,-0.28000000000000025,100.0,1.0,1.0,207.48666666666668,0.0,0.0,0.0,0.0,0.0,0.0,0.0,8794.6,0.0,55.0,5.0,242.10666666666668,0.0,0.0,0.0,0.0,0.0,0.0,1.0,0.0,0.6059999999999981,0.6059999999999981,0.0,0.0,0.0,55.0,616.79921,10000.0,85.000001,85.000001,85.000001,85.000001,395.0,0.0,0.0,0.0,1.0,333.33500000000004,52.948,52.948,48.141,48.141,34.0,-24.5175,24.182000000000002,-29.556666666666665,28.5425,0.0,1783.105,-0.2699999999999996,100.0,27.382,27.461,42.341,42.295,0.0,1.0,100.0,0.0,0.0,0.0,0.0,3138.714285714286,3061.0,4206.0,4171.1,305.391,304.9626666666667,314.6546666666667,314.48625,21.88122222222222,20.573999999999998,21.8767,21.3945,314.999998,314.999998,324.999988,324.999988,99.55838571428572,99.50736666666667,99.56645714285715,99.54601428571429,0.07250000000000023,-0.05325000000000002,-0.12033333333333333,0.108,-0.045000000000001705,-0.046666666666666856,1.5183333333333335,1.53,37.757999999999996,29.5875,37.729,34.715,55.938,34.9165,59.416,52.1205,53.876999999999995,34.064499999999995,58.022999999999996,50.4535,53.045,33.62233333333333,57.9645,49.86266666666667,-0.10099999999999998,-0.05250000000000021,0.11038,0.10063000000000001,0.0,210.635,210.655,207.48666666666668,207.48666666666668,0.0,0.0
13,0.0,1.0,0.0,1.0,1.0,0.0,0.0,1.0,0.0,100.0,1.0,1.1856,26.0,0.0,0.0,0.0,51.999998,0.0,26.0,26.0,26.0,26.0,0.034777777777777796,0.2841,0.022133333333333335,292.74,-2.6926,-2.691777777777778,-1.5774,-1.5462,-231.93,215.7375,190.722875,0.0,0.0,0.0,0.0,0.027033333333333333,-5.498166666666667,-5.498166666666667,-0.539,-0.252,0.005666666666666709,-0.436,67.411,0.008599999999999941,-0.21655000000000002,-0.37399999999999967,100.0,1.0,1.0,207.89333333333332,0.0,0.0,0.0,0.0,0.0,0.0,0.0,8811.8,0.0,55.0,5.0,242.65,1.0,0.0,0.0,0.0,0.0,0.0,1.0,0.0,0.6600000000000001,0.6600000000000001,0.0,0.0,1.0,55.0,616.79921,10000.0,85.000001,85.000001,85.000001,85.000001,395.0,0.0,0.0,0.0,1.0,166.665,52.719,52.719,48.05,48.05,34.0,-23.285,24.787999999999997,-28.863333333333337,30.07,0.0,1783.053,-0.5249999999999986,100.0,27.633,27.649,42.634,42.856,0.0,1.0,100.0,0.0,0.0,0.0,0.0,3137.5714285714284,3044.7,4164.25,4240.7,305.398,305.00033333333334,314.738,314.21975,21.891444444444446,20.5798,21.8878,21.4042,314.999998,314.999998,324.999988,324.999988,99.5584,99.50736666666667,99.56661428571428,99.54617142857143,0.09600000000000009,-0.035499999999999976,-0.10183333333333333,0.12,-0.051666666666669414,-0.051666666666669414,1.5006666666666666,1.4969999999999999,37.821,29.624000000000002,37.799,34.775999999999996,55.925,34.9565,59.457499999999996,52.188,53.864999999999995,34.102000000000004,58.062,50.5185,53.032,33.658,58.0,49.92666666666666,-0.11650000000000005,-0.03149999999999986,0.10300000000000001,0.10741,0.0,211.09,211.10000000000002,207.89333333333332,207.89333333333332,0.0,0.0
14,0.0,1.0,0.0,1.0,1.0,0.0,0.0,1.0,0.0,100.0,1.0,1.1856,26.0,0.0,0.0,0.0,51.999998,0.0,26.0,26.0,26.0,26.0,0.052888888888888985,0.27970000000000006,-0.0235,292.969,-2.7113,-2.6983333333333333,-1.5767,-1.5347,-228.69,215.715,190.702875,0.0,0.0,0.0,0.0,0.028900000000000002,-5.498166666666667,-5.498166666666667,-0.55,-0.08533333333333333,0.025111111111111084,-0.449,67.542,0.02100000000000013,-0.22685000000000002,-0.49600000000000044,100.0,1.0,1.0,208.39,0.0,0.0,0.0,0.0,0.0,0.0,0.0,8832.9,0.0,55.0,5.0,243.12333333333333,0.0,0.0,0.0,0.0,0.0,0.0,1.0,0.0,0.7079999999999984,0.7079999999999984,0.0,0.0,0.0,55.0,616.79921,10000.0,85.000001,85.000001,85.000001,85.000001,395.0,0.0,0.0,0.0,1.0,166.665,52.765,52.765,48.325,48.325,34.0,-22.405,25.201999999999998,-26.556666666666665,29.56,0.0,1783.006,-0.504999999999999,100.0,27.569,27.811,42.548,42.915,0.0,1.0,100.0,0.0,0.0,0.0,0.0,3077.857142857143,3050.8,3989.25,4112.1,305.5885,304.9316666666667,315.156,314.60625,21.900444444444446,20.585,21.8976,21.4127,314.999998,314.999998,324.999988,324.999988,99.55841428571429,99.50738333333334,99.56674285714286,99.54631428571429,0.10824999999999996,-0.029749999999999943,-0.09,0.139,-0.05666666666667197,-0.054999999999999716,1.565,1.5305,37.878,29.656,37.86,34.829,55.914,34.992,59.4925,52.2465,53.854,34.135,58.0945,50.5745,53.019999999999996,33.68933333333334,58.0295,49.98166666666667,-0.11699999999999999,-0.038000000000000256,0.10933500000000002,0.11081500000000001,0.0,211.495,211.51999999999998,208.39,208.39,0.0,0.0
15,0.0,1.0,0.0,1.0,1.0,0.0,0.0,1.0,0.0,100.0,1.0,1.1856,26.0,0.0,0.0,0.0,51.999998,0.0,26.0,26.0,26.0,26.0,0.06277777777777782,0.28859999999999997,-0.035133333333333336,292.908,-2.7159,-2.664777777777778,-1.5944,-1.5447,-225.44,215.6925,190.682375,0.0,0.0,0.0,0.0,0.0308,-5.498166666666667,-5.498166666666667,-0.5407000000000001,0.17966666666666667,0.04366666666666674,-0.8130000000000001,67.674,0.029400000000000093,-0.21035,-0.4820000000000002,100.0,1.0,1.0,208.74666666666667,0.0,0.0,0.0,0.0,0.0,0.0,0.0,8848.0,0.0,55.0,5.0,243.60000000000002,1.0,0.0,0.0,0.0,0.0,0.0,1.0,0.0,0.7560000000000002,0.7560000000000002,0.0,0.0,1.0,55.0,616.79921,10000.0,85.000001,85.000001,85.000001,85.000001,395.0,0.0,0.0,0.0,1.0,166.665,52.887,52.887,48.157,48.157,34.0,-21.572499999999998,24.752000000000002,-26.683333333333337,30.75,0.0,1782.957,-0.4349999999999987,100.0,27.573,27.88,42.407,43.061,0.0,1.0,100.0,0.0,0.0,0.0,0.0,2989.142857142857,3025.1,4051.0,4214.7,305.855,304.99966666666666,315.02666666666664,314.30975,21.909444444444446,20.5901,21.9074,21.4213,314.999998,314.999998,324.999988,324.999988,99.55842857142858,99.50738333333334,99.56688571428572,99.54644285714286,0.11125000000000007,-0.028000000000000025,-0.07633333333333334,0.14033333333333334,-0.054999999999999716,-0.051666666666669414,1.5396666666666667,1.5234999999999999,37.934,29.688499999999998,37.921,34.882999999999996,55.903,35.028,59.527,52.306,53.844,34.167500000000004,58.126,50.632,53.009,33.721000000000004,58.0585,50.03766666666667,-0.11799999999999988,-0.04600000000000026,0.10003500000000001,0.10702500000000001,0.0,211.91,211.95,208.74666666666667,208.74666666666667,0.0,0.0
16,0.0,1.0,0.0,1.0,1.0,0.0,0.0,1.0,0.0,100.0,1.0,1.1856,26.0,0.0,0.0,0.0,51.999998,0.0,26.0,26.0,26.0,26.0,0.04133333333333322,0.27449999999999997,-0.005966666666666667,292.801,-2.7641,-2.6213333333333333,-1.5658,-1.5485,-221.99,215.67000000000002,190.660375,0.0,0.0,0.0,0.0,0.0328,-5.498166666666667,-5.498166666666667,-0.5585,-0.46066666666666667,0.03055555555555567,0.047,67.813,0.03550000000000009,-0.226225,-0.44599999999999973,100.0,1.0,1.0,209.20666666666668,0.0,0.0,0.0,0.0,0.0,0.0,0.0,8867.5,0.0,55.0,5.0,244.10000000000002,0.0,0.0,0.0,0.0,0.0,0.0,1.0,0.0,0.8069999999999986,0.8069999999999986,0.0,0.0,0.0,55.0,616.79921,10000.0,85.000001,85.000001,85.000001,85.000001,395.0,0.0,0.0,0.0,1.0,333.33500000000004,52.49,52.49,48.035,48.035,34.0,-23.025,27.006,-25.5,30.3275,0.0,1782.906,-0.34499999999999886,100.0,27.527,27.767,42.704,43.034,0.0,1.0,100.0,0.0,0.0,0.0,0.0,3109.857142857143,3278.6,3969.5,4087.2,305.4335,304.4873333333333,315.12533333333334,314.713,21.918888888888887,20.5957,21.9179,21.4304,314.999998,314.999998,324.999988,324.999988,99.55842857142858,99.50738333333334,99.56701428571428,99.5466,0.11350000000000016,-0.014499999999999957,-0.07066666666666667,0.15583333333333335,-0.046666666666666856,-0.07666666666666799,1.5430000000000001,1.5285,37.992999999999995,29.723,37.986999999999995,34.94,55.89,35.066,59.565,52.368,53.831,34.203,58.162,50.6915,52.995000000000005,33.754999999999995,58.091,50.096333333333334,-0.10349999999999993,-0.05250000000000021,0.109365,0.10108,0.0,212.31,212.37,209.20666666666668,209.20666666666668,0.0,0.0
17,0.0,1.0,0.0,1.0,1.0,0.0,0.0,1.0,0.0,100.0,1.0,1.1856,26.0,0.0,0.0,0.0,51.999998,0.0,26.0,26.0,26.0,26.0,0.04355555555555557,0.28970000000000007,0.02903333333333333,292.358,-2.7302,-2.6016666666666666,-1.6066,-1.511,-218.53,215.65,190.637875,0.0,0.0,0.0,0.0,0.034833333333333334,-5.498166666666667,-5.498166666666667,-0.5485,0.2673333333333333,0.006888888888888944,-0.77,67.953,0.03330000000000011,-0.21050000000000002,-0.242,100.0,1.0,1.0,209.54000000000002,0.0,0.0,0.0,0.0,0.0,0.0,0.0,8881.6,0.0,55.0,5.0,244.60333333333335,1.0,0.0,0.0,0.0,0.0,0.0,1.0,0.0,0.8580000000000005,0.8580000000000005,0.0,0.0,1.0,55.0,616.79921,10000.0,85.000001,85.000001,85.000001,85.000001,395.0,0.0,0.0,0.0,1.0,333.33500000000004,52.353,52.353,47.501,47.501,34.0,-23.565,24.848,-29.756666666666664,30.8875,0.0,1782.854,-0.3249999999999993,100.0,27.802,28.059,42.595,43.133,0.0,1.0,100.0,0.0,0.0,0.0,0.0,3204.714285714286,3093.7,4384.5,4259.1,305.2415,304.86,314.2923333333333,314.2925,21.928444444444445,20.6013,21.9283,21.4395,314.999998,314.999998,324.999988,324.999988,99.55845714285714,99.5074,99.56715714285714,99.54674285714286,0.11025000000000018,-0.02574999999999994,-0.07933333333333333,0.1445,-0.03333333333333144,-0.05666666666667197,1.513,1.501,38.053,29.758,38.052,34.997,55.879000000000005,35.1045,59.603,52.4295,53.821,34.2385,58.197,50.751,52.983999999999995,33.789,58.123,50.154666666666664,-0.10599999999999987,-0.052000000000000046,0.10332500000000001,0.11064500000000001,0.0,212.775,212.79500000000002,209.54000000000002,209.54000000000002,0.0,0.0
18,0.0,1.0,0.0,1.0,1.0,0.0,0.0,1.0,0.0,100.0,1.0,1.1856,26.0,0.0,0.0,0.0,51.999998,0.0,26.0,26.0,26.0,26.0,0.04122222222222227,0.2834000000000001,0.0362,292.297,-2.6699,-2.719777777777778,-1.5179,-1.4647999999999999,-215.26,215.63,190.61675,0.0,0.0,0.0,0.0,0.03673333333333333,-5.498166666666667,-5.498166666666667,-0.5617,-0.389,0.019333333333333202,-0.525,68.084,0.028200000000000003,-0.22645,-0.242,100.0,1.0,1.0,209.95333333333332,0.0,0.0,0.0,0.0,0.0,0.0,0.0,8899.1,0.0,55.0,5.0,245.07333333333332,0.0,0.0,0.0,0.0,0.0,0.0,1.0,0.0,0.9059999999999988,0.9059999999999988,0.0,0.0,0.0,55.0,616.79921,10000.0,85.000001,85.000001,85.000001,85.000001,395.0,0.0,0.0,0.0,1.0,333.33500000000004,52.155,52.155,47.531,47.531,34.0,-23.07,26.881999999999998,-26.883333333333333,29.642500000000002,0.0,1782.806,-0.33500000000000085,100.0,27.71,28.066,42.828,43.344,0.0,1.0,100.0,0.0,0.0,0.0,0.0,3175.5714285714284,3200.5,4146.875,4227.3,305.266,304.3813333333333,314.72933333333333,314.3465,21.937333333333335,20.6065,21.9382,21.4481,314.999998,314.999998,324.999988,324.999988,99.55845714285714,99.5074,99.5673,99.54687142857144,0.10475000000000012,-0.03149999999999997,-0.08166666666666668,0.13816666666666666,-0.04333333333332945,-0.046666666666666856,1.5123333333333333,1.5035,38.108000000000004,29.7905,38.114000000000004,35.051,55.867999999999995,35.1395,59.6385,52.489,53.809,34.271,58.230000000000004,50.808,52.971000000000004,33.82033333333334,58.1535,50.21066666666667,-0.10650000000000004,-0.05250000000000021,0.09997500000000001,0.108795,0.0,213.155,213.175,209.95333333333332,209.95333333333332,0.0,0.0
19,0.0,1.0,0.0,1.0,1.0,0.0,0.0,1.0,0.0,100.0,1.0,1.1856,26.0,0.0,0.0,0.0,51.999998,0.0,26.0,26.0,26.0,26.0,0.0564444444444443,0.2693000000000001,0.045200000000000004,292.145,-2.6586,-2.696888888888889,-1.5372,-1.5949,-211.79,215.6125,190.594125,0.0,0.0,0.0,0.0,0.038733333333333335,-5.498166666666667,-5.498166666666667,-0.5489,0.628,0.023555555555555552,0.656,68.221,0.023800000000000043,-0.212725,-0.3020000000000005,100.0,1.0,1.0,210.36666666666667,0.0,0.0,0.0,0.0,0.0,0.0,0.0,8916.6,0.0,55.0,5.0,245.56666666666666,1.0,0.0,0.0,0.0,0.0,0.0,1.0,0.0,0.9570000000000007,0.9570000000000007,0.0,0.0,1.0,55.0,616.79921,10000.0,85.000001,85.000001,85.000001,85.000001,395.0,0.0,0.0,0.0,1.0,333.33500000000004,52.032,52.032,47.623,47.623,34.0,-21.5075,26.298000000000002,-27.15,33.2475,0.0,1782.754,-0.3200000000000003,100.0,28.366,28.282,42.811,43.284,0.0,1.0,100.0,0.0,0.0,0.0,0.0,3030.5714285714284,3144.8,4159.25,4363.3,305.5005,304.75333333333333,314.69033333333334,313.98925,21.947,20.612099999999998,21.9486,21.4572,314.999998,314.999998,324.999988,324.999988,99.55848571428571,99.5074,99.56744285714285,99.54701428571428,0.11549999999999994,-0.021749999999999936,-0.07816666666666668,0.1455,-0.046666666666666856,-0.030000000000001137,1.4973333333333334,1.483,38.169,29.826,38.179,35.108000000000004,55.857,35.1795,59.6745,52.5515,53.799,34.3075,58.2635,50.868,52.96,33.855333333333334,58.1835,50.269666666666666,-0.10850000000000004,-0.05449999999999999,0.10594,0.10908500000000002,0.0,213.64,213.615,210.36666666666667,210.36666666666667,0.0,0.0
20,0.0,1.0,0.0,1.0,1.0,0.0,0.0,1.0,0.0,100.0,1.0,1.1856,26.0,0.0,0.0,0.0,51.999998,0.0,26.0,26.0,26.0,26.0,0.03777777777777791,0.26249999999999996,-0.025433333333333336,292.404,-2.734,-2.6337777777777776,-1.5453999999999999,-1.5779999999999998,-208.3,215.595,190.571625,0.0,0.0,0.0,0.0,0.04076666666666667,-5.498166666666667,-5.498166666666667,-0.5592,-0.9273333333333333,0.019555555555555548,-0.928,68.35900000000001,0.022900000000000142,-0.2293,-0.17600000000000016,100.0,1.0,1.0,210.79666666666668,0.0,0.0,0.0,0.0,0.0,0.0,0.0,8934.8,0.0,55.0,5.0,246.06333333333333,0.0,0.0,0.0,0.0,0.0,0.0,0.0,0.0,1.0079999999999991,1.0079999999999991,0.0,0.0,0.0,55.0,616.79921,10000.0,85.000001,85.000001,85.000001,85.000001,395.0,0.0,0.0,0.0,1.0,333.33500000000004,52.521,52.521,47.424,47.424,34.0,-23.3825,24.266,-27.573333333333338,29.3325,0.0,1782.703,-0.26500000000000057,100.0,27.75,28.142,43.314,43.758,0.0,1.0,100.0,0.0,0.0,0.0,0.0,3114.4285714285716,3063.8,4077.75,4053.0,305.539,304.97366666666665,314.91133333333335,314.6975,21.956333333333333,20.6176,21.9592,21.4665,314.999998,314.999998,324.999988,324.999988,99.55848571428571,99.5074,99.56758571428571,99.54717142857143,0.09699999999999998,-0.040000000000000036,-0.09816666666666668,0.12833333333333335,-0.041666666666671404,-0.03333333333333144,1.5093333333333332,1.5030000000000001,38.227000000000004,29.86,38.245000000000005,35.166,55.844,35.216499999999996,59.714,52.6145,53.786,34.3425,58.3005,50.929,52.946,33.888666666666666,58.2175,50.32933333333334,-0.09450000000000003,-0.05900000000000016,0.10964000000000002,0.10591,0.0,213.995,214.0,210.79666666666668,210.79666666666668,0.0,0.0
21,0.0,1.0,0.0,1.0,1.0,0.0,0.0,1.0,0.0,100.0,1.0,1.1856,26.0,0.0,0.0,0.0,51.999998,0.0,26.0,26.0,26.0,26.0,0.03255555555555567,0.2852000000000001,-0.0334,292.572,-2.7279,-2.652111111111111,-1.5869,-1.523,-205.01999999999998,215.5775,190.55,0.0,0.0,0.0,0.0,0.04266666666666667,-5.498166666666667,-5.498166666666667,-0.5737,0.25366666666666665,0.006000000000000005,-0.747,68.485,0.02090000000000014,-0.22115,-0.2079999999999993,100.0,1.0,1.0,211.29000000000002,0.0,0.0,0.0,0.0,0.0,0.0,0.0,8955.8,0.0,55.0,5.0,246.51666666666665,1.0,0.0,0.0,0.0,0.0,0.0,0.0,0.0,1.056000000000001,1.056000000000001,0.0,0.0,1.0,55.0,616.79921,10000.0,85.000001,85.000001,85.000001,85.000001,395.0,0.0,0.0,0.0,1.0,333.33500000000004,52.322,52.322,48.019,48.019,34.0,-24.0025,24.924,-27.556666666666665,28.305,0.0,1782.655,-0.3049999999999997,100.0,27.914,28.088,42.846000000000004,43.3,0.0,1.0,100.0,0.0,0.0,0.0,0.0,3198.857142857143,3101.0,4088.5,4037.8,305.271,304.8736666666667,314.977,314.86975,21.965222222222224,20.6229,21.968899999999998,21.475,314.999998,314.999998,324.999988,324.999988,99.5585,99.5074,99.56772857142857,99.54731428571428,0.09925000000000006,-0.03600000000000003,-0.09183333333333334,0.1335,-0.054999999999999716,-0.036666666666668846,1.564,1.558,38.282,29.893,38.305,35.219,55.833,35.253,59.747,52.67,53.775999999999996,34.376,58.331,50.9825,52.935,33.92066666666666,58.245,50.38166666666667,-0.10499999999999998,-0.0535000000000001,0.10443500000000001,0.11216000000000001,0.0,214.43,214.41,211.29000000000002,211.29000000000002,0.0,0.0
22,0.0,1.0,0.0,1.0,1.0,0.0,0.0,1.0,0.0,100.0,1.0,1.1856,26.0,0.0,0.0,0.0,51.999998,0.0,26.0,26.0,26.0,26.0,0.00811111111111118,0.28090000000000015,-0.0041,292.145,-2.7842,-2.6194444444444445,-1.6111,-1.5188,-201.51999999999998,215.5625,190.52625,0.0,0.0,0.0,0.0,0.044700000000000004,-5.498166666666667,-5.498166666666667,-0.5584,-0.07266666666666667,0.019888888888888845,1.0150000000000001,68.623,0.01869999999999994,-0.203575,-0.3120000000000003,100.0,1.0,1.0,211.54000000000002,0.0,0.0,0.0,0.0,0.0,0.0,0.0,8966.4,0.0,55.0,5.0,247.01333333333332,0.0,0.0,0.0,0.0,0.0,0.0,0.0,0.0,1.1069999999999993,1.1069999999999993,0.0,0.0,0.0,55.0,616.79921,10000.0,85.000001,85.000001,85.000001,85.000001,395.0,0.0,0.0,0.0,1.0,333.33500000000004,52.444,52.444,47.15,47.15,34.0,-22.77,25.9,-29.016666666666666,31.7625,0.0,1782.604,-0.40500000000000114,100.0,28.076,28.018,43.199,43.428,0.0,1.0,100.0,0.0,0.0,0.0,0.0,3027.285714285714,3190.3,4232.75,4436.2,305.674,304.81966666666665,314.544,313.94875,21.974555555555554,20.6285,21.9794,21.4842,314.999998,314.999998,324.999988,324.999988,99.55851428571428,99.50741666666667,99.56787142857142,99.54745714285714,0.1080000000000001,-0.01924999999999999,-0.08233333333333333,0.12916666666666665,-0.041666666666671404,-0.04333333333332945,1.494,1.471,38.341,29.927999999999997,38.370999999999995,35.275999999999996,55.821,35.2915,59.7855,52.733000000000004,53.765,34.411500000000004,58.367,51.043,52.923,33.95466666666667,58.278,50.441,-0.10899999999999999,-0.04899999999999993,0.105065,0.09897500000000001,0.0,214.84,214.85000000000002,211.54000000000002,211.54000000000002,0.0,0.0
23,0.0,1.0,0.0,1.0,1.0,0.0,0.0,1.0,0.0,100.0,1.0,1.1856,26.0,0.0,0.0,0.0,51.999998,0.0,26.0,26.0,26.0,26.0,0.029444444444444384,0.2703,-0.020466666666666668,292.084,-2.6599,-2.674666666666667,-1.662,-1.4958,-198.01999999999998,215.54500000000002,190.50275,0.0,0.0,0.0,0.0,0.046733333333333335,-5.498166666666667,-5.498166666666667,-0.5748,-0.12166666666666667,0.015555555555555545,-0.599,68.757,0.021700000000000053,-0.227075,-0.25,100.0,1.0,1.0,212.04000000000002,0.0,0.0,0.0,0.0,0.0,0.0,0.0,8987.6,0.0,55.0,5.0,247.49666666666667,1.0,0.0,0.0,0.0,0.0,0.0,0.0,0.0,1.1580000000000013,1.1580000000000013,0.0,0.0,1.0,55.0,616.79921,10000.0,85.000001,85.000001,85.000001,85.000001,395.0,0.0,0.0,0.0,1.0,166.665,51.926,51.926,47.623,47.623,34.0,-23.755,25.049999999999997,-28.886666666666663,29.09,0.0,1782.555,-0.35999999999999943,100.0,28.222,28.329,43.173,43.674,0.0,1.0,100.0,0.0,0.0,0.0,0.0,3221.714285714286,3086.7,4187.25,4141.1,305.0885,304.828,314.778,314.61025,21.984,20.6341,21.9899,21.4934,314.999998,314.999998,324.999988,324.999988,99.55852857142857,99.50741666666667,99.56802857142857,99.5476,0.09775,-0.03749999999999998,-0.08083333333333333,0.13516666666666666,-0.051666666666669414,-0.045000000000001705,1.546,1.5205,38.4,29.9635,38.437,35.334,55.81,35.3305,59.823,52.795,53.754000000000005,34.4475,58.4015,51.1025,52.911,33.989333333333335,58.3095,50.49933333333333,-0.10399999999999987,-0.05049999999999999,0.09910500000000001,0.10500500000000001,0.0,215.25,215.255,212.04000000000002,212.04000000000002,0.0,0.0
24,0.0,1.0,0.0,1.0,1.0,0.0,0.0,1.0,0.0,100.0,1.0,1.1856,26.0,0.0,0.0,0.0,51.999998,0.0,26.0,26.0,26.0,26.0,0.04066666666666685,0.2651000000000001,-0.020466666666666668,292.45,-2.7208,-2.656888888888889,-1.5491000000000001,-1.547,-194.72,215.5325,190.480125,0.0,0.0,0.0,0.0,0.04866666666666667,-5.498166666666667,-5.498166666666667,-0.5856,-0.4443333333333333,0.02677777777777779,-0.219,68.884,0.022199999999999998,-0.22190000000000001,-0.28200000000000003,100.0,1.0,1.0,212.40333333333334,0.0,0.0,0.0,0.0,0.0,0.0,0.0,9003.0,0.0,55.0,5.0,247.95666666666665,0.0,0.0,0.0,0.0,0.0,0.0,0.0,0.0,1.2059999999999995,1.2059999999999995,0.0,0.0,0.0,55.0,616.79921,10000.0,85.000001,85.000001,85.000001,85.000001,395.0,0.0,0.0,0.0,1.0,166.665,52.75,52.75,47.424,47.424,34.0,-21.925,24.275999999999996,-28.226666666666667,29.825,0.0,1782.507,-0.35999999999999943,100.0,27.896,28.089,43.128,43.627,0.0,1.0,100.0,0.0,0.0,0.0,0.0,3001.5714285714284,3017.1,4180.375,4145.4,305.829,305.141,314.697,314.54375,21.99277777777778,20.6393,21.9997,21.5021,314.999998,314.999998,324.999988,324.999988,99.55854285714285,99.50743333333334,99.56815714285715,99.54774285714285,0.10749999999999993,-0.03425,-0.09416666666666668,0.132,-0.051666666666669414,-0.03833333333332689,1.5116666666666667,1.502,38.455,29.9955,38.498000000000005,35.388,55.798,35.365,59.8575,52.8525,53.742000000000004,34.4795,58.434,51.158,52.897999999999996,34.019999999999996,58.338499999999996,50.553666666666665,-0.10999999999999988,-0.05049999999999999,0.10715500000000001,0.105135,0.0,215.635,215.64,212.40333333333334,212.40333333333334,0.0,0.0
25,0.0,1.0,0.0,1.0,1.0,0.0,0.0,1.0,0.0,100.0,1.0,1.1856,26.0,0.0,0.0,0.0,51.999998,0.0,26.0,26.0,26.0,26.0,0.03055555555555567,0.26570000000000005,0.0005,292.114,-2.6948,-2.638111111111111,-1.5989,-1.5244,-191.2,215.51749999999998,190.45475,0.0,0.0,0.0,0.0,0.0507,-5.498166666666667,-5.498166666666667,-0.604,0.183,0.03122222222222204,0.156,69.017,0.023800000000000043,-0.21995,-0.3700000000000001,100.0,1.0,1.0,212.88333333333333,0.0,0.0,0.0,0.0,0.0,0.0,0.0,9023.3,0.0,55.0,5.0,248.43333333333334,1.0,0.0,0.0,0.0,0.0,0.0,0.0,0.0,1.256999999999998,1.256999999999998,0.0,0.0,1.0,55.0,616.79921,10000.0,85.000001,85.000001,85.000001,85.000001,395.0,0.0,0.0,0.0,1.0,333.33500000000004,51.62,51.62,47.775,47.775,34.0,-23.2275,27.77,-26.759999999999998,30.0575,0.0,1782.454,-0.3949999999999996,100.0,28.098,28.240000000000002,42.993,43.362,0.0,1.0,100.0,0.0,0.0,0.0,0.0,3214.142857142857,3377.6,4020.25,4164.4,305.0115,304.155,315.1293333333333,314.5805,22.002,20.645,22.009999999999998,21.5112,314.999998,314.999998,324.999988,324.999988,99.55855714285714,99.50743333333334,99.5683,99.54788571428571,0.11825000000000019,-0.02400000000000002,-0.08166666666666668,0.14400000000000002,-0.04999999999999716,-0.046666666666666856,1.5510000000000002,1.533,38.513,30.031,38.563,35.445,55.786,35.403999999999996,59.891999999999996,52.9125,53.730000000000004,34.5155,58.466,51.216,52.885,34.05466666666666,58.3675,50.61033333333333,-0.11450000000000005,-0.05049999999999999,0.10657000000000001,0.104965,0.0,216.05,216.07,212.88333333333333,212.88333333333333,0.0,0.0
26,0.0,1.0,0.0,1.0,1.0,0.0,0.0,1.0,0.0,100.0,1.0,1.1856,26.0,0.0,0.0,0.0,51.999998,0.0,26.0,26.0,26.0,26.0,0.029777777777777903,0.26760000000000006,0.06936666666666666,291.29,-2.717,-2.6453333333333333,-1.565,-1.5479,-187.47,215.5025,190.427625,0.0,0.0,0.0,0.0,0.052866666666666666,-5.498166666666667,-5.498166666666667,-0.5722,0.167,0.020888888888888957,1.01,69.161,0.02639999999999998,-0.20415,-0.41600000000000037,100.0,1.0,1.0,213.09,0.0,0.0,0.0,0.0,0.0,0.0,0.0,9032.1,0.0,55.0,5.0,248.95333333333335,0.0,0.0,0.0,0.0,0.0,0.0,0.0,0.0,1.311,1.311,0.0,0.0,0.0,55.0,616.79921,10000.0,85.000001,85.000001,85.000001,85.000001,395.0,0.0,0.0,0.0,1.0,166.665,51.650999999999996,51.650999999999996,46.356,46.356,34.0,-21.8875,26.326,-29.473333333333333,33.835,0.0,1782.402,-0.41000000000000014,100.0,28.82,28.636,43.684,43.984,0.0,1.0,100.0,0.0,0.0,0.0,0.0,3043.285714285714,3200.7,4404.875,4481.2,305.4455,304.7563333333333,314.103,313.7675,22.01211111111111,20.6511,22.0212,21.5211,314.999998,314.999998,324.999988,324.999988,99.55857142857143,99.50743333333334,99.56847142857143,99.54805714285715,0.12300000000000022,-0.01849999999999996,-0.073,0.14483333333333334,-0.03833333333332689,-0.04999999999999716,1.4486666666666668,1.4264999999999999,38.576,30.069499999999998,38.632999999999996,35.507,55.775999999999996,35.4465,59.9345,52.980000000000004,53.721000000000004,34.5545,58.5055,51.281,52.875,34.092,58.4035,50.67433333333334,-0.11349999999999993,-0.05049999999999999,0.10795,0.10276500000000001,0.0,216.51,216.535,213.09,213.09,0.0,0.0
27,0.0,1.0,0.0,1.0,1.0,0.0,0.0,1.0,0.0,100.0,1.0,1.1856,26.0,0.0,0.0,0.0,51.999998,0.0,26.0,26.0,26.0,26.0,0.05233333333333334,0.25560000000000005,-0.0543,291.824,-2.7632,-2.6580000000000004,-1.6221999999999999,-1.532,-184.35,215.4925,190.406,0.0,0.0,0.0,0.0,0.054700000000000006,-5.498166666666667,-5.498166666666667,-0.5988,-0.8466666666666667,0.023777777777777898,-0.593,69.276,0.02740000000000009,-0.2399,-0.32200000000000006,100.0,1.0,1.0,213.60333333333335,0.0,0.0,0.0,0.0,0.0,0.0,0.0,9053.8,0.0,55.0,5.0,249.36666666666667,1.0,0.0,0.0,0.0,0.0,0.0,0.0,0.0,1.355999999999998,1.355999999999998,0.0,0.0,1.0,55.0,616.79921,10000.0,85.000001,85.000001,85.000001,85.000001,395.0,0.0,0.0,0.0,1.0,166.665,51.926,51.926,46.799,46.799,34.0,-23.28,25.427999999999997,-27.943333333333335,29.5375,0.0,1782.357,-0.3999999999999986,100.0,28.27,28.731,43.881,44.269999999999996,0.0,1.0,100.0,0.0,0.0,0.0,0.0,3134.5714285714284,3130.1,4069.625,4093.6000000000004,305.5295,304.7366666666667,314.91833333333335,314.71775,22.020222222222223,20.6561,22.0305,21.5294,314.999998,314.999998,324.999988,324.999988,99.55858571428571,99.50743333333334,99.56858571428572,99.54818571428571,0.10924999999999985,-0.03374999999999995,-0.08683333333333333,0.14116666666666666,-0.030000000000001137,-0.054999999999999716,1.5323333333333333,1.5190000000000001,38.626999999999995,30.1005,38.691,35.559,55.765,35.4805,59.968,53.035,53.711,34.586,58.537,51.3335,52.864000000000004,34.12233333333333,58.432,50.72566666666667,-0.11499999999999999,-0.052000000000000046,0.1053,0.11139,0.0,216.825,216.84,213.60333333333335,213.60333333333335,0.0,0.0
28,0.0,1.0,0.0,1.0,1.0,0.0,0.0,1.0,0.0,100.0,1.0,1.1856,26.0,0.0,0.0,0.0,51.999998,0.0,26.0,26.0,26.0,26.0,0.044777777777777805,0.28200000000000003,-0.043500000000000004,291.916,-2.6892,-2.6493333333333333,-1.6318000000000001,-1.5615,-180.82,215.48250000000002,190.3805,0.0,0.0,0.0,0.0,0.05673333333333334,-5.498166666666667,-5.498166666666667,-0.6002000000000001,0.5806666666666667,0.013111111111111073,0.555,69.406,0.026499999999999968,-0.214125,-0.4139999999999997,100.0,1.0,1.0,214.05666666666667,0.0,0.0,0.0,0.0,0.0,0.0,0.0,9073.0,0.0,55.0,5.0,249.83666666666664,0.0,0.0,0.0,0.0,0.0,0.0,0.0,0.0,1.407,1.407,0.0,0.0,0.0,55.0,616.79921,10000.0,85.000001,85.000001,85.000001,85.000001,395.0,0.0,0.0,0.0,1.0,333.33500000000004,51.941,51.941,47.165,47.165,34.0,-20.995,26.646,-28.04,31.6575,0.0,1782.304,-0.47499999999999787,100.0,28.548000000000002,28.532,43.396,43.81,0.0,1.0,100.0,0.0,0.0,0.0,0.0,3002.5714285714284,3195.0,4168.75,4197.5,305.5985,304.697,314.83033333333333,314.55675,22.029666666666667,20.6618,22.0408,21.5385,314.999998,314.999998,324.999988,324.999988,99.5586,99.50745,99.56872857142857,99.54832857142857,0.12950000000000017,-0.013000000000000012,-0.07583333333333334,0.16083333333333336,-0.03333333333333144,-0.06333333333333258,1.553,1.5350000000000001,38.685,30.136499999999998,38.754999999999995,35.616,55.754999999999995,35.5195,60.001999999999995,53.0945,53.701,34.6225,58.568,51.391,52.852999999999994,34.157,58.46,50.781666666666666,-0.12149999999999994,-0.04899999999999993,0.10129500000000001,0.12149000000000001,0.0,217.26999999999998,217.305,214.05666666666667,214.05666666666667,0.0,0.0
29,0.0,1.0,0.0,1.0,1.0,0.0,0.0,1.0,0.0,100.0,1.0,1.1856,26.0,0.0,0.0,0.0,51.999998,0.0,26.0,26.0,26.0,26.0,0.058555555555555694,0.25460000000000016,-0.03106666666666667,291.809,-2.7709,-2.5677777777777777,-1.6171,-1.537,-177.26999999999998,215.4725,190.354125,0.0,0.0,0.0,0.0,0.058800000000000005,-5.498166666666667,-5.498166666666667,-0.6069,-0.7326666666666667,0.011888888888888838,-0.805,69.53999999999999,0.026599999999999957,-0.2167,-0.39200000000000035,100.0,1.0,1.0,214.34,0.0,0.0,0.0,0.0,0.0,0.0,0.0,9085.1,0.0,55.0,5.0,250.31666666666666,1.0,0.0,0.0,0.0,0.0,0.0,0.0,0.0,1.4579999999999984,1.4579999999999984,0.0,0.0,1.0,55.0,616.79921,10000.0,85.000001,85.000001,85.000001,85.000001,395.0,0.0,0.0,0.0,1.0,333.33500000000004,52.17,52.17,47.012,47.012,34.0,-23.63,24.768,-28.886666666666663,30.985,0.0,1782.254,-0.5449999999999982,100.0,28.045,28.485,43.671,44.233000000000004,0.0,1.0,100.0,0.0,0.0,0.0,0.0,3233.5714285714284,3129.4,4171.375,4256.7,305.3895,304.97766666666666,314.781,314.262,22.038777777777778,20.6675,22.0514,21.5478,314.999998,314.999998,324.999988,324.999988,99.55861428571428,99.50745,99.56888571428571,99.54848571428572,0.11850000000000005,-0.023249999999999993,-0.08866666666666667,0.13583333333333333,-0.03166666666666629,-0.051666666666669414,1.4853333333333334,1.49,38.742999999999995,30.1715,38.821,35.674,55.742999999999995,35.557,60.0405,53.157,53.689,34.6565,58.604,51.451499999999996,52.84,34.19,58.493,50.841,-0.1259999999999999,-0.040000000000000036,0.1092,0.11159000000000001,0.0,217.66,217.685,214.34,214.34,0.0,0.0
30,0.0,1.0,0.0,1.0,1.0,0.0,0.0,1.0,0.0,100.0,1.0,1.1856,26.0,0.0,0.0,0.0,51.999998,0.0,26.0,26.0,26.0,26.0,0.019777777777777894,0.26690000000000014,0.015633333333333336,291.077,-2.7309,-2.6416666666666666,-1.6492,-1.46,-173.72,215.4625,190.327625,0.0,0.0,0.0,0.0,0.060866666666666666,-5.498166666666667,-5.498166666666667,-0.6,0.929,0.011777777777777887,0.759,69.669,0.03420000000000001,-0.212725,-0.6159999999999997,100.0,1.0,1.0,214.78,0.0,0.0,0.0,0.0,0.0,0.0,0.0,9103.8,0.0,55.0,5.0,250.78,0.0,0.0,0.0,0.0,0.0,0.0,1.0,0.0,1.5090000000000003,1.5090000000000003,0.0,0.0,0.0,55.0,616.79921,10000.0,85.000001,85.000001,85.000001,85.000001,395.0,0.0,0.0,0.0,1.0,166.665,50.858000000000004,50.858000000000004,46.585,46.585,34.0,-22.8775,27.328,-30.08,31.595,0.0,1782.205,-0.46999999999999886,100.0,29.151,29.112000000000002,43.597,44.067,0.0,1.0,100.0,0.0,0.0,0.0,0.0,3192.285714285714,3297.2,4354.0,4369.6,305.0325,304.285,314.41866666666664,314.2355,22.048444444444446,20.6734,22.0617,21.5571,314.999998,314.999998,324.999988,324.999988,99.55862857142857,99.50745,99.56902857142857,99.54862857142857,0.1312500000000001,-0.02124999999999999,-0.07783333333333332,0.1565,-0.03333333333333144,-0.061666666666667425,1.5133333333333334,1.4969999999999999,38.802,30.2085,38.885999999999996,35.732,55.735,35.598,60.076,53.218,53.682,34.695,58.637,51.51,52.831,34.22666666666667,58.5225,50.89833333333333,-0.125,-0.051000000000000156,0.114195,0.11085,0.0,218.09,218.115,214.78,214.78,0.0,0.0
31,0.0,1.0,0.0,1.0,1.0,0.0,0.0,1.0,0.0,100.0,1.0,1.1856,26.0,0.0,0.0,0.0,51.999998,0.0,26.0,26.0,26.0,26.0,0.0604444444444443,0.24409999999999998,0.04036666666666667,290.878,-2.7116,-2.6862222222222223,-1.6524,-1.4889999999999999,-170.17000000000002,215.45499999999998,190.302,0.0,0.0,0.0,0.0,0.06293333333333334,-5.498166666666667,-5.498166666666667,-0.5903,-0.421,0.019444444444444375,-0.803,69.801,0.03639999999999999,-0.22505,-0.45199999999999996,100.0,1.0,1.0,215.09,0.0,0.0,0.0,0.0,0.0,0.0,0.0,9116.9,0.0,55.0,5.0,251.25666666666666,1.0,0.0,0.0,0.0,0.0,0.0,1.0,0.0,1.5599999999999987,1.5599999999999987,0.0,0.0,1.0,55.0,616.79921,10000.0,85.000001,85.000001,85.000001,85.000001,395.0,0.0,0.0,0.0,1.0,166.665,50.995,50.995,45.822,45.822,34.0,-22.4625,27.602,-29.533333333333335,31.295,0.0,1782.154,-0.5350000000000001,100.0,28.801000000000002,29.378,44.253,44.882999999999996,0.0,1.0,100.0,0.0,0.0,0.0,0.0,3157.0,3277.3,4244.5,4243.0,305.346,304.20033333333333,314.55333333333334,314.2485,22.057666666666666,20.6792,22.072400000000002,21.5666,314.999998,314.999998,324.999988,324.999988,99.55865714285714,99.50745,99.56918571428571,99.54878571428571,0.12475000000000014,-0.02474999999999994,-0.07583333333333334,0.152,-0.03333333333333144,-0.041666666666671404,1.4553333333333334,1.452,38.861000000000004,30.244999999999997,38.953,35.791,55.724999999999994,35.638,60.116,53.283,53.672,34.732,58.6745,51.5725,52.82,34.262,58.5565,50.95933333333333,-0.12050000000000005,-0.046499999999999986,0.10797500000000002,0.103955,0.0,218.46,218.495,215.09,215.09,0.0,0.0
32,0.0,1.0,0.0,1.0,1.0,0.0,0.0,1.0,0.0,100.0,1.0,1.1856,26.0,0.0,0.0,0.0,51.999998,0.0,26.0,26.0,26.0,26.0,0.07411111111111102,0.2590000000000001,-0.023200000000000002,291.367,-2.7074,-2.6726666666666667,-1.5937999999999999,-1.6146,-166.81,215.45,190.277875,0.0,0.0,0.0,0.0,0.0649,-5.498166666666667,-5.498166666666667,-0.6077,-0.29733333333333334,-0.00022222222222234578,-1.012,69.92099999999999,0.035800000000000054,-0.23217500000000002,-0.45399999999999974,100.0,1.0,1.0,215.55666666666667,0.0,0.0,0.0,0.0,0.0,0.0,0.0,9136.6,0.0,55.0,5.0,251.69,0.0,0.0,0.0,0.0,0.0,0.0,1.0,0.0,1.6080000000000005,1.6080000000000005,0.0,0.0,0.0,55.0,616.79921,10000.0,85.000001,85.000001,85.000001,85.000001,395.0,0.0,0.0,0.0,1.0,333.33500000000004,51.528999999999996,51.528999999999996,46.677,46.677,34.0,-22.175,26.105999999999998,-27.333333333333336,32.11,0.0,1782.104,-0.5500000000000007,100.0,28.659,29.177,44.036,44.718,0.0,1.0,100.0,0.0,0.0,0.0,0.0,3152.714285714286,3104.5,4091.625,4228.6,305.415,304.834,314.926,314.33,22.066444444444443,20.6847,22.0822,21.5754,314.999998,314.999998,324.999988,324.999988,99.55867142857143,99.50746666666667,99.56931428571428,99.54892857142858,0.12824999999999998,-0.01474999999999993,-0.07766666666666668,0.14266666666666666,-0.04999999999999716,-0.05833333333333002,1.5070000000000001,1.51,38.915,30.279,39.013999999999996,35.846000000000004,55.715,35.6745,60.149,53.34,53.662,34.7655,58.705,51.6275,52.809,34.294333333333334,58.584,51.013333333333335,-0.12349999999999994,-0.04249999999999998,0.10969000000000001,0.101065,0.0,218.845,218.87,215.55666666666667,215.55666666666667,0.0,0.0
33,0.0,1.0,0.0,1.0,1.0,0.0,0.0,1.0,0.0,100.0,1.0,1.1856,26.0,0.0,0.0,0.0,51.999998,0.0,26.0,26.0,26.0,26.0,0.05555555555555558,0.258,-0.06496666666666667,291.595,-2.7186,-2.6404444444444444,-1.6622,-1.5756000000000001,-163.24,215.4475,190.251125,0.0,0.0,0.0,0.0,0.06696666666666666,-5.498166666666667,-5.498166666666667,-0.6166,-0.19266666666666665,0.004111111111110954,0.98,70.049,0.03500000000000014,-0.21482500000000002,-0.5139999999999993,100.0,1.0,1.0,215.96,0.0,0.0,0.0,0.0,0.0,0.0,0.0,9153.8,0.0,55.0,5.0,252.15333333333334,1.0,0.0,0.0,0.0,0.0,0.0,1.0,0.0,1.658999999999999,1.658999999999999,0.0,0.0,1.0,55.0,616.79921,10000.0,85.000001,85.000001,85.000001,85.000001,395.0,0.0,0.0,0.0,1.0,166.665,51.834,51.834,46.982,46.982,34.0,-21.0425,26.492,-27.986666666666665,31.8075,0.0,1782.054,-0.5599999999999987,100.0,28.67,28.729,43.897,44.429,0.0,1.0,100.0,0.0,0.0,0.0,0.0,3048.714285714286,3159.2,4106.625,4214.1,305.5755,304.87233333333336,314.977,314.46,22.075666666666667,20.6903,22.0926,21.584600000000002,314.999998,314.999998,324.999988,324.999988,99.55867142857143,99.50746666666667,99.56947142857143,99.54908571428571,0.14100000000000001,-0.005249999999999977,-0.07366666666666667,0.15283333333333335,-0.041666666666671404,-0.061666666666667425,1.528,1.518,38.973,30.314500000000002,39.079,35.903999999999996,55.705,35.7115,60.1845,53.4,53.652,34.8,58.7375,51.685,52.798,34.327333333333335,58.6135,51.06966666666666,-0.13149999999999995,-0.03750000000000009,0.10008,0.109615,0.0,219.22500000000002,219.28,215.96,215.96,0.0,0.0
34,0.0,1.0,0.0,1.0,1.0,0.0,0.0,1.0,0.0,100.0,1.0,1.1856,26.0,0.0,0.0,0.0,51.999998,0.0,26.0,26.0,26.0,26.0,0.05277777777777781,0.266,-0.10233333333333335,291.779,-2.6745,-2.6710000000000003,-1.6360999999999999,-1.5171000000000001,-159.88,215.4425,190.224625,0.0,0.0,0.0,0.0,0.0689,-5.498166666666667,-5.498166666666667,-0.6456000000000001,-0.903,0.025222222222222035,0.935,70.172,0.039100000000000135,-0.22357500000000002,-0.5939999999999994,100.0,1.0,1.0,216.29666666666668,0.0,0.0,0.0,0.0,0.0,0.0,0.0,9168.0,0.0,55.0,5.0,252.59,0.0,0.0,0.0,0.0,0.0,0.0,1.0,0.0,1.7070000000000007,1.7070000000000007,0.0,0.0,0.0,55.0,616.79921,10000.0,85.000001,85.000001,85.000001,85.000001,395.0,0.0,0.0,0.0,1.0,333.33500000000004,52.246,52.246,47.089,47.089,34.0,-20.595,26.42,-27.323333333333338,31.5775,0.0,1782.006,-0.5399999999999991,100.0,28.387,28.508,43.793,44.515,0.0,1.0,100.0,0.0,0.0,0.0,0.0,2986.0,3138.5,4098.625,4257.7,305.783,304.98833333333334,314.926,314.392,22.084222222222223,20.6956,22.1024,21.5934,314.999998,314.999998,324.999988,324.999988,99.5587,99.50746666666667,99.56961428571428,99.54922857142857,0.12975000000000003,-0.007000000000000006,-0.06716666666666667,0.15633333333333335,-0.01833333333333087,-0.05666666666667197,1.5286666666666666,1.504,39.025999999999996,30.347,39.14,35.959,55.693,35.7455,60.2175,53.458,53.641,34.831,58.768,51.741,52.786,34.35733333333333,58.641,51.12433333333333,-0.12450000000000006,-0.040000000000000036,0.10386000000000001,0.10185000000000001,0.0,219.575,219.615,216.29666666666668,216.29666666666668,0.0,0.0
35,0.0,1.0,0.0,1.0,1.0,0.0,0.0,1.0,0.0,100.0,1.0,1.1856,26.0,0.0,0.0,0.0,51.999998,0.0,26.0,26.0,26.0,26.0,0.054444444444444295,0.25860000000000016,-0.06253333333333334,291.702,-2.7971,-2.648777777777778,-1.6267,-1.5085,-156.09,215.4425,190.19275,0.0,0.0,0.0,0.0,0.07113333333333334,-5.498166666666667,-5.498166666666667,-0.6795,0.08,0.0023333333333332984,-0.294,70.305,0.04500000000000015,-0.22515000000000002,-0.5279999999999996,100.0,1.0,1.0,216.79333333333335,0.0,0.0,0.0,0.0,0.0,0.0,0.0,9189.0,0.0,55.0,5.0,253.07333333333332,1.0,0.0,0.0,0.0,0.0,0.0,1.0,0.0,1.7609999999999992,1.7609999999999992,0.0,0.0,1.0,55.0,616.79921,10000.0,85.000001,85.000001,85.000001,85.000001,395.0,0.0,0.0,0.0,1.0,166.665,51.559,51.559,46.829,46.829,34.0,-23.1175,28.904,-25.683333333333337,30.3325,0.0,1781.953,-0.3150000000000013,100.0,28.259,28.894,43.531,43.964,0.0,1.0,100.0,0.0,0.0,0.0,0.0,3120.0,3418.9,4004.375,4106.4,305.544,304.01933333333335,315.119,314.75075,22.093777777777778,20.7018,22.1133,21.603,314.999998,314.999998,324.999988,324.999988,99.55871428571429,99.50748333333334,99.56977142857143,99.54937142857143,0.11925000000000008,-0.011499999999999955,-0.05333333333333334,0.16333333333333336,-0.02833333333332888,-0.0799999999999983,1.5546666666666666,1.5365,39.086,30.386499999999998,39.208,36.019,55.68,35.7875,60.253,53.5185,53.628,34.8705,58.8015,51.7995,52.772,34.394999999999996,58.670500000000004,51.181333333333335,-0.10299999999999998,-0.058499999999999996,0.10643000000000001,0.10595500000000001,0.0,220.01999999999998,220.075,216.79333333333335,216.79333333333335,0.0,0.0
