,ABS Active,ABS Enabled,AID Allow Tire Blankets,AID Auto Blip,AID Auto Clutch,AID Auto Shift,AID Fuel Rate,AID Ideal Line,AID Mech Damage,AID Stability,AID Tire Wear Rate,Air Density,Air Temp,Ballast,Best Lap Delta,Best Lap Time,Brake Bias,Brake Pos,Brake Temp FL,Brake Temp FR,Brake Temp RL,Brake Temp RR,CG Accel Lateral,CG Accel Longitudinal,CG Accel Vertical,CG Height,Camber FL,Camber FR,Camber RL,Camber RR,Car Coord X,Car Coord Y,Car Coord Z,Car Damage Front,Car Damage Left,Car Damage Rear,Car Damage Right,Car Pos Norm,Caster FL,Caster FR,Chassis Pitch Angle,Chassis Pitch Rate,Chassis Roll Angle,Chassis Roll Rate,Chassis Velocity X,Chassis Velocity Y,Chassis Velocity Z,Chassis Yaw Rate,Clutch Pos,DRS Active,DRS Available,Drive Train Speed,ERS Heat Charging,ERS Is Charging,ERS Max Energy,ERS Power Level,ERS Recovery Level,Engine Brake Setting,Engine Limiter,Engine RPM,Flags,Fuel Level,Gear,Ground Speed,HR Sample Clock,In Pit,KERS Charge,KERS Deployed Energy,KERS Input,KERS Max Energy,LR Sample Clock,Lap Invalidated,Lap Time,Lap Time2,Last Lap Time,Last Sector Time,MR Sample Clock,Max Fuel,Max Power,Max RPM,Max Sus Travel FL,Max Sus Travel FR,Max Sus Travel RL,Max Sus Travel RR,Max Torque,Max Turbo Boost,Num Tires Off Track,Penalties Enabled,Position,Raw Data Sample Rate,Ride Height FL,Ride Height FR,Ride Height RL,Ride Height RR,Road Temp,Self Align Torque FL,Self Align Torque FR,Self Align Torque RL,Self Align Torque RR,Session Lap Count,Session Time Left,Steering Angle,Surface Grip,Suspension Travel FL,Suspension Travel FR,Suspension Travel RL,Suspension Travel RR,TC Active,TC Enabled,Throttle Pos,Tire Dirt Level FL,Tire Dirt Level FR,Tire Dirt Level RL,Tire Dirt Level RR,Tire Load FL,Tire Load FR,Tire Load RL,Tire Load RR,Tire Loaded Radius FL,Tire Loaded Radius FR,Tire Loaded Radius RL,Tire Loaded Radius RR,Tire Pressure FL,Tire Pressure FR,Tire Pressure RL,Tire Pressure RR,Tire Radius FL,Tire Radius FR,Tire Radius RL,Tire Radius RR,Tire Rubber Grip FL,Tire Rubber Grip FR,Tire Rubber Grip RL,Tire Rubber Grip RR,Tire Slip Angle FL,Tire Slip Angle FR,Tire Slip Angle RL,Tire Slip Angle RR,Tire Slip Ratio FL,Tire Slip Ratio FR,Tire Slip Ratio RL,Tire Slip Ratio RR,Tire Temp Core FL,Tire Temp Core FR,Tire Temp Core RL,Tire Temp Core RR,Tire Temp Inner FL,Tire Temp Inner FR,Tire Temp Inner RL,Tire Temp Inner RR,Tire Temp Middle FL,Tire Temp Middle FR,Tire Temp Middle RL,Tire Temp Middle RR,Tire Temp Outer FL,Tire Temp Outer FR,Tire Temp Outer RL,Tire Temp Outer RR,Toe In FL,Toe In FR,Toe In RL,Toe In RR,Turbo Boost,Wheel Angular Speed FL,Wheel Angular Speed FR,Wheel Angular Speed RL,Wheel Angular Speed RR,Wind Direction,Wind Speed
0,0.0,1.0,0.0,1.0,1.0,0.0,0.0,1.0,0.0,100.0,1.0,1.1856,26.0,0.0,0.0,0.0,51.99999,0.0,26.0,26.0,26.0,26.0,-0.09566666666666657,0.3077000000000001,0.07842500000000001,294.083,-2.71415,-2.667888888888889,-1.5069,-1.5644,-275.8,216.29500000000002,190.988375,0.0,0.0,0.0,0.0,0.0015333333333333865,-5.498166666666667,-5.498166666666667,-0.5539000000000001,1.0733333333333333,-0.019375000000000142,-1.271,65.523,-0.044000000000000004,-0.2185,1.0660000000000007,100.0,1.0,1.0,202.30666666666667,0.0,0.0,0.0,0.0,0.0,0.0,0.0,8575.0,0.0,55.0,5.0,235.85000000000002,0.0,0.0,0.0,0.0,0.0,0.0,0.0,0.0,0.0030000000000001137,0.0030000000000001137,0.0,0.0,0.0,55.0,616.79921,10000.0,85.0,85.0,85.0,85.0,395.0,0.0,0.0,0.0,1.0,20.0,52.765,52.765,49.82,49.82,34.0,-28.7325,22.85,-30.77,23.5625,0.0,1783.643,0.9050000000000011,100.0,27.19,26.823999999999998,40.571,40.45,0.0,1.0,100.0,0.0,0.0,0.0,0.0,3184.714285714286,3330.3,4108.5,3949.9,305.236,304.18275,314.89375,314.92625,21.7632,20.5088,21.752299999999998,21.284399999999998,314.99999,314.99999,324.99998,324.99998,99.55822857142857,99.50713333333333,99.5649,99.54418571428572,-0.01766666666666672,-0.1279999999999999,-0.17520000000000002,0.04249999999999998,-0.04999999999999716,-0.04333333333332945,1.5594999999999999,1.5955,37.019999999999996,29.180333333333333,36.952,34.0275,56.079,34.3735,58.9875,51.3345,54.018,33.58,57.6295,49.7025,53.202,33.17433333333334,57.609,49.12733333333333,-0.0044999999999999485,-0.13649999999999984,0.10347,0.10469,0.0,205.32,205.23000000000002,202.30666666666667,202.30666666666667,0.0,0.0
1,0.0,1.0,0.0,1.0,1.0,0.0,0.0,1.0,0.0,100.0,1.0,1.1856,26.0,0.0,0.0,0.0,51.999998,0.0,26.0,26.0,26.0,26.0,-0.12988888888888894,0.3206,-0.000925,293.167,-2.6497,-2.7666666666666666,-1.52665,-1.5462,-272.45,216.29000000000002,190.968125,0.0,0.0,0.0,0.0,0.003466666666666507,-5.498166666666667,-5.498166666666667,-0.49400000000000005,-0.06233333333333334,-0.05425000000000013,-0.05799999999999983,65.676,-0.0553,-0.19025,1.3760000000000012,100.0,1.0,1.0,202.49333333333334,0.0,0.0,0.0,0.0,0.0,0.0,0.0,8583.0,0.0,55.0,5.0,236.40333333333334,1.0,0.0,0.0,0.0,0.0,0.0,0.0,0.0,0.053999999999998494,0.053999999999998494,0.0,0.0,1.0,55.0,616.79921,10000.0,85.000001,85.000001,85.000001,85.000001,395.0,0.0,0.0,0.0,1.0,333.33500000000004,53.696,53.696,48.34,48.34,34.0,-26.5825,17.478,-33.586666666666666,28.51,0.0,1783.593,0.9649999999999999,100.0,27.667,26.968,42.839,41.403999999999996,0.0,1.0,100.0,0.0,0.0,0.0,0.0,3005.5714285714284,2651.8,4258.625,4716.5,305.5325,306.38775,314.4315,313.1325,21.7731,20.514,21.7632,21.2935,314.999998,314.999998,324.999988,324.999988,99.55824285714286,99.50715,99.56505714285714,99.54434285714285,-0.016000000000000014,-0.14866666666666672,-0.1834,0.030833333333333268,-0.03166666666666629,-0.030000000000001137,1.432,1.491,37.082,29.212333333333333,37.019999999999996,34.084,56.065,34.4125,59.03,51.396,54.004999999999995,33.616,57.6695,49.7615,53.188,33.208666666666666,57.6465,49.18566666666666,0.0,-0.1499999999999999,0.10530500000000001,0.10494,0.0,205.785,205.685,202.49333333333334,202.49333333333334,0.0,0.0
2,0.0,1.0,0.0,1.0,1.0,0.0,0.0,1.0,0.0,100.0,1.0,1.1856,26.0,0.0,0.0,0.0,51.999998,0.0,26.0,26.0,26.0,26.0,-0.1386666666666666,0.28070000000000017,-0.007,293.655,-2.5905,-2.8104444444444443,-1.47705,-1.625,-269.1,216.2825,190.94925,0.0,0.0,0.0,0.0,0.005433333333333401,-5.498166666666667,-5.498166666666667,-0.5452,-0.2936666666666667,-0.06424999999999992,1.654,65.819,-0.0743,-0.24730000000000002,1.6639999999999997,100.0,1.0,1.0,203.35,0.0,0.0,0.0,0.0,0.0,0.0,0.0,8619.2,0.0,55.0,5.0,236.92000000000002,0.0,0.0,0.0,0.0,0.0,0.0,0.0,0.0,0.10500000000000043,0.10500000000000043,0.0,0.0,0.0,55.0,616.79921,10000.0,85.000001,85.000001,85.000001,85.000001,395.0,0.0,0.0,0.0,1.0,333.33500000000004,52.551,52.551,50.018,50.018,34.0,-31.182499999999997,19.328,-30.286666666666665,19.8625,0.0,1783.541,0.875,100.0,28.187,26.873,42.741,41.424,0.0,1.0,100.0,0.0,0.0,0.0,0.0,3446.142857142857,2853.9,3833.625,3629.4,304.3335,305.7545,315.423,315.88,21.7832,20.5189,21.773699999999998,21.3023,314.999998,314.999998,324.999988,324.999988,99.55824285714286,99.50718333333333,99.5652,99.54448571428571,-0.033333333333333215,-0.15066666666666673,-0.22839999999999994,0.004166666666666652,-0.10000000000000142,-0.060000000000002274,1.616,1.677,37.144999999999996,29.242666666666665,37.085,34.1395,56.053,34.451,59.0685,51.456,53.992999999999995,33.6515,57.7055,49.8185,53.175,33.242333333333335,57.6795,49.24166666666667,-0.010000000000000009,-0.13949999999999996,0.105895,0.10980500000000001,0.0,206.26999999999998,206.09,203.35000000000002,203.35,0.0,0.0
3,0.0,1.0,0.0,1.0,1.0,0.0,0.0,1.0,0.0,100.0,1.0,1.1856,26.0,0.0,0.0,0.0,51.999998,0.0,26.0,26.0,26.0,26.0,-0.14355555555555555,0.31390000000000007,-0.012225,293.396,-2.7262,-2.690888888888889,-1.5086,-1.5922,-265.94,216.2725,190.93075,0.0,0.0,0.0,0.0,0.0072666666666665325,-5.498166666666667,-5.498166666666667,-0.511,0.653,-0.012500000000000178,-0.6659999999999999,65.962,-0.091,-0.20235,1.3659999999999997,100.0,1.0,1.0,203.52666666666667,0.0,0.0,0.0,0.0,0.0,0.0,0.0,8626.7,0.0,55.0,5.0,237.43,1.0,0.0,0.0,0.0,0.0,0.0,0.0,0.0,0.1529999999999987,0.1529999999999987,0.0,0.0,1.0,55.0,616.79921,10000.0,85.000001,85.000001,85.000001,85.000001,395.0,0.0,0.0,0.0,1.0,166.665,53.406,53.406,48.187,48.187,34.0,-26.9375,17.692,-35.946666666666665,23.555,0.0,1783.496,0.620000000000001,100.0,27.91,27.113,42.421,41.407,0.0,1.0,100.0,0.0,0.0,0.0,0.0,2948.5714285714284,2810.3,4338.875,4193.5,305.82,305.68425,314.2895,314.411,21.7925,20.523699999999998,21.7835,21.3106,314.999998,314.999998,324.999988,324.999988,99.55825714285714,99.5072,99.56532857142857,99.54461428571429,-0.028000000000000025,-0.16366666666666663,-0.22360000000000002,-0.0003333333333332966,-0.045000000000001705,-0.026666666666670835,1.4755,1.54,37.203,29.273333333333333,37.147,34.1915,56.039,34.492,59.1055,51.515,53.980000000000004,33.689,57.74,49.8755,53.161,33.278333333333336,57.711,49.297333333333334,-0.026499999999999968,-0.12650000000000006,0.106645,0.11027,0.0,206.70499999999998,206.56,203.52666666666667,203.52666666666667,0.0,0.0
4,0.0,1.0,0.0,1.0,1.0,0.0,0.0,1.0,0.0,100.0,1.0,1.1856,26.0,0.0,0.0,0.0,51.999998,0.0,26.0,26.0,26.0,26.0,-0.14555555555555555,0.2921,-0.020725,293.625,-2.6624499999999998,-2.7431111111111113,-1.5303,-1.5977000000000001,-262.57,216.26,190.911,0.0,0.0,0.0,0.0,0.009233333333333316,-5.498166666666667,-5.498166666666667,-0.5406000000000001,-0.931,-0.07450000000000001,-0.7909999999999999,66.108,-0.09620000000000001,-0.235775,1.1940000000000008,100.0,1.0,1.0,204.06666666666666,0.0,0.0,0.0,0.0,0.0,0.0,0.0,8649.6,0.0,55.0,5.0,237.96333333333334,0.0,0.0,0.0,0.0,0.0,0.0,0.0,0.0,0.20400000000000063,0.20400000000000063,0.0,0.0,0.0,55.0,616.79921,10000.0,85.000001,85.000001,85.000001,85.000001,395.0,0.0,0.0,0.0,1.0,333.33500000000004,53.207,53.207,48.629999999999995,48.629999999999995,34.0,-28.3125,19.74,-32.61333333333333,21.325000000000003,0.0,1783.444,0.5350000000000001,100.0,27.754,26.713,42.93,41.524,0.0,1.0,100.0,0.0,0.0,0.0,0.0,3158.714285714286,2964.4,4072.5,3720.9,305.262,305.43225,314.7995,315.54625,21.8021,20.5288,21.7941,21.319499999999998,314.999998,314.999998,324.999988,324.999988,99.55825714285714,99.50721666666666,99.56547142857143,99.54474285714285,-0.02299999999999991,-0.14733333333333332,-0.2056,0.020166666666666666,-0.046666666666666856,-0.051666666666669414,1.5415,1.5795,37.263,29.305,37.213,34.247,56.022,34.533500000000004,59.147999999999996,51.576,53.963,33.7275,57.7795,49.934,53.144,33.315,57.748,49.35466666666667,-0.03149999999999986,-0.11649999999999983,0.09960000000000001,0.11306000000000001,0.0,207.10000000000002,206.99,204.06666666666666,204.06666666666666,0.0,0.0
5,0.0,1.0,0.0,1.0,1.0,0.0,0.0,1.0,0.0,100.0,1.0,1.1856,26.0,0.0,0.0,0.0,51.999998,0.0,26.0,26.0,26.0,26.0,-0.13455555555555554,0.2943,-0.032225000000000004,293.716,-2.66795,-2.7703333333333333,-1.5069,-1.5922,-259.19,216.24,190.89075,0.0,0.0,0.0,0.0,0.011166666666666547,-5.498166666666667,-5.498166666666667,-0.5362,0.4026666666666667,-0.08824999999999994,-0.30699999999999994,66.255,-0.097,-0.21402500000000002,1.0739999999999998,100.0,1.0,1.0,204.50666666666666,0.0,0.0,0.0,0.0,0.0,0.0,0.0,8668.3,0.0,55.0,5.0,238.48666666666668,1.0,0.0,0.0,0.0,0.0,0.0,0.0,0.0,0.254999999999999,0.254999999999999,0.0,0.0,1.0,55.0,616.79921,10000.0,85.000001,85.000001,85.000001,85.000001,395.0,0.0,0.0,0.0,1.0,333.33500000000004,53.497,53.497,49.057,49.057,34.0,-28.405,18.454,-34.36,21.7175,0.0,1783.391,0.28000000000000114,100.0,27.789,26.728,42.585,41.144,0.0,1.0,100.0,0.0,0.0,0.0,0.0,3193.285714285714,2731.9,4166.5,4008.8,305.222,306.0325,314.74325,314.8655,21.8121,20.5339,21.8045,21.3282,314.999998,314.999998,324.999988,324.999988,99.55825714285714,99.50723333333333,99.56561428571429,99.54488571428571,-0.016999999999999904,-0.14300000000000002,-0.2337999999999999,-0.00883333333333336,-0.045000000000001705,-0.046666666666666856,1.538,1.5895,37.325,29.336666666666666,37.278,34.3015,56.007999999999996,34.5745,59.188,51.634,53.951,33.765,57.817,49.9895,53.129999999999995,33.35066666666667,57.7825,49.40866666666666,-0.05400000000000005,-0.08749999999999991,0.10749500000000001,0.09981000000000001,0.0,207.60000000000002,207.495,204.50666666666666,204.50666666666666,0.0,0.0
6,0.0,1.0,0.0,1.0,1.0,0.0,0.0,1.0,0.0,100.0,1.0,1.1856,26.0,0.0,0.0,0.0,51.999998,0.0,26.0,26.0,26.0,26.0,-0.1133333333333334,0.2861,-0.015425000000000001,293.457,-2.637,-2.7443333333333335,-1.54925,-1.6277,-256.01,216.2225,190.871375,0.0,0.0,0.0,0.0,0.013033333333333341,-5.498166666666667,-5.498166666666667,-0.5315,0.050666666666666665,-0.06862499999999994,-0.40700000000000003,66.393,-0.0867,-0.215,0.7599999999999998,100.0,1.0,1.0,204.91,0.0,0.0,0.0,0.0,0.0,0.0,0.0,8685.4,0.0,55.0,5.0,238.98666666666668,0.0,0.0,0.0,0.0,0.0,0.0,0.0,0.0,0.3030000000000008,0.3030000000000008,0.0,0.0,0.0,55.0,616.79921,10000.0,85.000001,85.000001,85.000001,85.000001,395.0,0.0,0.0,0.0,1.0,333.33500000000004,53.131,53.131,48.813,48.813,34.0,-28.085,19.812,-33.413333333333334,23.05,0.0,1783.344,0.015000000000000568,100.0,27.687,26.818,42.708,41.515,0.0,1.0,100.0,0.0,0.0,0.0,0.0,3242.5714285714284,2892.2,4110.625,3960.0,305.0615,305.47475,314.858,314.93475,21.8214,20.5387,21.8145,21.3367,314.999998,314.999998,324.999988,324.999988,99.55827142857143,99.50723333333333,99.56574285714285,99.54501428571429,-0.003666666666666707,-0.13666666666666671,-0.2116,0.011666666666666714,-0.03999999999999915,-0.041666666666671404,1.518,1.5645,37.384,29.366999999999997,37.34,34.354,55.994,34.6125,59.2265,51.692499999999995,53.937,33.8,57.853,50.045500000000004,53.116,33.38433333333333,57.816,49.46366666666667,-0.07400000000000007,-0.07799999999999985,0.10848000000000001,0.103025,0.0,207.98000000000002,207.91500000000002,204.91,204.91,0.0,0.0
7,0.0,1.0,0.0,1.0,1.0,0.0,0.0,1.0,0.0,100.0,1.0,1.1856,26.0,0.0,0.0,0.0,51.999998,0.0,26.0,26.0,26.0,26.0,-0.08466666666666656,0.28659999999999997,0.049125,293.167,-2.6946,-2.735333333333333,-1.51355,-1.5716,-252.62,216.1975,190.850875,0.0,0.0,0.0,0.0,0.014999999999999902,-5.498166666666667,-5.498166666666667,-0.534,-0.051666666666666666,-0.051000000000000156,1.1560000000000001,66.539,-0.0688,-0.22215000000000001,0.3780000000000001,100.0,1.0,1.0,205.31666666666666,0.0,0.0,0.0,0.0,0.0,0.0,0.0,8702.6,0.0,55.0,5.0,239.51,1.0,0.0,0.0,0.0,0.0,0.0,0.0,0.0,0.3539999999999992,0.3539999999999992,0.0,0.0,1.0,55.0,616.79921,10000.0,85.000001,85.000001,85.000001,85.000001,395.0,0.0,0.0,0.0,1.0,166.665,52.795,52.795,48.798,48.798,34.0,-27.2775,22.496,-31.033333333333335,25.7275,0.0,1783.295,-0.2049999999999983,100.0,27.903,26.735,42.808,41.683,0.0,1.0,100.0,0.0,0.0,0.0,0.0,3257.857142857143,3055.6,4065.25,4136.5,304.8695,305.16,314.85025,314.60525,21.8312,20.5439,21.825,21.3456,314.999998,314.999998,324.999988,324.999988,99.55827142857143,99.50725,99.5659,99.54517142857142,0.03500000000000014,-0.09666666666666668,-0.17859999999999998,0.054166666666666696,-0.060000000000002274,-0.061666666666667425,1.5285,1.54,37.445,29.399,37.406,34.41,55.980000000000004,34.6525,59.266999999999996,51.754999999999995,53.923,33.837,57.8905,50.1055,53.102000000000004,33.419333333333334,57.8505,49.522,-0.09749999999999992,-0.058499999999999996,0.10222,0.10824500000000001,0.0,208.43,208.39499999999998,205.31666666666666,205.31666666666666,0.0,0.0
8,0.0,1.0,0.0,1.0,1.0,0.0,0.0,1.0,0.0,100.0,1.0,1.1856,26.0,0.0,0.0,0.0,51.999998,0.0,26.0,26.0,26.0,26.0,-0.038000000000000034,0.2864,0.02785,293.472,-2.69585,-2.718888888888889,-1.4964,-1.5765,-249.01999999999998,216.17000000000002,190.829125,0.0,0.0,0.0,0.0,0.017100000000000004,-5.498166666666667,-5.498166666666667,-0.5354,-0.5786666666666667,-0.03312500000000007,0.7829999999999999,66.693,-0.0476,-0.21427500000000002,-0.09600000000000009,100.0,1.0,1.0,205.73333333333335,0.0,0.0,0.0,0.0,0.0,0.0,0.0,8720.3,0.0,55.0,5.0,240.06666666666666,0.0,0.0,0.0,0.0,0.0,0.0,0.0,0.0,0.40800000000000125,0.40800000000000125,0.0,0.0,0.0,55.0,616.79921,10000.0,85.000001,85.000001,85.000001,85.000001,395.0,0.0,0.0,0.0,1.0,166.665,53.696,53.696,48.141,48.141,34.0,-23.5675,22.958,-29.996666666666666,27.6575,0.0,1783.241,-0.34999999999999787,100.0,27.446,26.721,42.786,41.839,0.0,1.0,100.0,0.0,0.0,0.0,0.0,2926.0,3000.2,4122.875,4161.5,305.9145,305.3495,314.67475,314.476,21.8414,20.5493,21.836100000000002,21.3551,314.999998,314.999998,324.999988,324.999988,99.55827142857143,99.50726666666667,99.56604285714286,99.54531428571428,0.046666666666666856,-0.06966666666666677,-0.15039999999999998,0.08150000000000013,-0.05666666666667197,-0.05333333333332746,1.5205,1.5025,37.509,29.433333333333334,37.476,34.4695,55.963,34.6935,59.309,51.82,53.907,33.8745,57.93,50.168,53.085,33.455333333333336,57.887,49.583333333333336,-0.09799999999999986,-0.04349999999999987,0.10888,0.115305,0.0,208.875,208.87,205.73333333333335,205.73333333333335,0.0,0.0
9,0.0,1.0,0.0,1.0,1.0,0.0,0.0,1.0,0.0,100.0,1.0,1.1856,26.0,0.0,0.0,0.0,51.999998,0.0,26.0,26.0,26.0,26.0,-0.009444444444444478,0.2783,-0.0218,293.198,-2.6859,-2.720888888888889,-1.5413999999999999,-1.5548000000000002,-246.01999999999998,216.14499999999998,190.8105,0.0,0.0,0.0,0.0,0.01883333333333337,-5.498166666666667,-5.498166666666667,-0.5436,0.52,-0.03562500000000002,-0.43599999999999994,66.818,-0.0286,-0.21815,-0.13399999999999945,100.0,1.0,1.0,206.25666666666666,0.0,0.0,0.0,0.0,0.0,0.0,0.0,8742.5,0.0,55.0,5.0,240.51666666666665,1.0,0.0,0.0,0.0,0.0,0.0,0.0,0.0,0.4529999999999994,0.4529999999999994,0.0,0.0,1.0,55.0,616.79921,10000.0,85.000001,85.000001,85.000001,85.000001,395.0,0.0,0.0,0.0,1.0,333.33500000000004,52.46,52.46,49.149,49.149,34.0,-26.595,23.823999999999998,-28.183333333333334,26.2275,0.0,1783.194,-0.495000000000001,100.0,27.75,27.297,42.369,41.923,0.0,1.0,100.0,0.0,0.0,0.0,0.0,3367.5714285714284,3014.6,3985.25,4009.2,304.6995,305.0665,315.1675,314.877,21.8501,20.5541,21.8453,21.363,314.999998,314.999998,324.999988,324.999988,99.55827142857143,99.50726666666667,99.56617142857142,99.54542857142857,0.06666666666666643,-0.05899999999999994,-0.135,0.08916666666666684,-0.05666666666667197,-0.036666666666668846,1.576,1.574,37.563,29.463,37.533,34.5185,55.952,34.728,59.341499999999996,51.873,53.897,33.9065,57.96,50.2185,53.073,33.48566666666667,57.914500000000004,49.632999999999996,-0.11599999999999988,-0.03849999999999998,0.10299000000000001,0.11228500000000001,0.0,209.285,209.26,206.25666666666666,206.25666666666666,0.0,0.0
10,0.0,1.0,0.0,1.0,1.0,0.0,0.0,1.0,0.0,100.0,1.0,1.1856,26.0,0.0,0.0,0.0,51.999998,0.0,26.0,26.0,26.0,26.0,0.00377777777777788,0.28510000000000013,0.050100000000000006,292.923,-2.65425,-2.7055555555555557,-1.59015,-1.5364,-242.61,216.1175,190.789625,0.0,0.0,0.0,0.0,0.02083333333333337,-5.498166666666667,-5.498166666666667,-0.5172,-0.3453333333333333,0.006124999999999936,1.742,66.965,-0.0081,-0.204375,-0.5120000000000005,100.0,1.0,1.0,206.4766666666667,0.0,0.0,0.0,0.0,0.0,0.0,0.0,8751.7,0.0,55.0,5.0,241.04333333333335,0.0,0.0,0.0,0.0,0.0,0.0,1.0,0.0,0.5040000000000013,0.5040000000000013,0.0,0.0,0.0,55.0,616.79921,10000.0,85.000001,85.000001,85.000001,85.000001,395.0,0.0,0.0,0.0,1.0,333.33500000000004,53.391,53.391,47.607,47.607,34.0,-20.8325,24.092,-30.95,30.1075,0.0,1783.144,-0.6099999999999994,100.0,27.857,27.177,42.835,42.566,0.0,1.0,100.0,0.0,0.0,0.0,0.0,2835.5714285714284,2971.4,4307.0,4346.9,306.0965,305.42425,314.29175,314.06375,21.8599,20.5593,21.8559,21.3722,314.999998,314.999998,324.999988,324.999988,99.55828571428572,99.50728333333333,99.56631428571428,99.54557142857144,0.08966666666666656,-0.03200000000000003,-0.11139999999999994,0.1076666666666668,-0.030000000000001137,-0.041666666666671404,1.4885,1.4705,37.623999999999995,29.496000000000002,37.599999999999994,34.576,55.94,34.7655,59.3825,51.938,53.885,33.9405,57.998,50.281,53.061,33.51866666666667,57.9495,49.69433333333333,-0.123,-0.025500000000000078,0.104895,0.10706500000000001,0.0,209.71,209.735,206.4766666666667,206.4766666666667,0.0,0.0
11,0.0,1.0,0.0,1.0,1.0,0.0,0.0,1.0,0.0,100.0,1.0,1.1856,26.0,0.0,0.0,0.0,51.999998,0.0,26.0,26.0,26.0,26.0,0.05422222222222217,0.27500000000000013,-0.10310000000000001,293.472,-2.71,-2.682777777777778,-1.55435,-1.5232,-239.19,216.09,190.769,0.0,0.0,0.0,0.0,0.022599999999999953,-5.498166666666667,-5.498166666666667,-0.5615,-0.3433333333333333,0.03212499999999996,-0.524,67.104,0.0125,-0.24000000000000002,-0.5960000000000001,100.0,1.0,1.0,207.21333333333334,0.0,0.0,0.0,0.0,0.0,0.0,0.0,8783.1,0.0,55.0,5.0,241.54666666666668,1.0,0.0,0.0,0.0,0.0,0.0,1.0,0.0,0.5549999999999997,0.5549999999999997,0.0,0.0,1.0,55.0,616.79921,10000.0,85.000001,85.000001,85.000001,85.000001,395.0,0.0,0.0,0.0,1.0,333.33500000000004,52.795,52.795,49.254999999999995,49.254999999999995,34.0,-22.97,25.78,-23.583333333333336,26.255,0.0,1783.093,-0.5799999999999983,100.0,27.507,27.592,42.391999999999996,42.64,0.0,1.0,100.0,0.0,0.0,0.0,0.0,3080.0,3093.3,3676.5,3855.4,305.5695,304.836,315.897,315.24025,21.8694,20.5647,21.8663,21.3812,314.999998,314.999998,324.999988,324.999988,99.5583,99.50728333333333,99.56645714285715,99.54571428571428,0.09533333333333349,-0.02066666666666661,-0.09199999999999997,0.127,-0.05833333333333002,-0.060000000000002274,1.646,1.6175,37.684,29.529666666666664,37.665,34.632,55.926,34.803,59.417500000000004,51.999,53.870999999999995,33.9755,58.0305,50.3395,53.046,33.55166666666666,57.979,49.751666666666665,-0.12149999999999994,-0.023499999999999854,0.108685,0.10243500000000001,0.0,210.12,210.16500000000002,207.21333333333334,207.21333333333334,0.0,0.0
12,0.0,1.0,0.0,1.0,1.0,0.0,0.0,1.0,0.0,100.0,1.0,1.1856,26.0,0.0,0.0,0.0,51.999998,0.0,26.0,26.0,26.0,26.0,0.04577777777777792,0.2921,0.015550000000000001,292.877,-2.75705,-2.6814444444444443,-1.5521,-1.5248,-235.76,216.065,190.746875,0.0,0.0,0.0,0.0,0.025466666666666526,-5.498166666666667,-5.498166666666667,-0.5468000000000001,0.29033333333333333,0.018999999999999906,0.629,67.249,0.031,-0.207175,-0.7479999999999993,100.0,1.0,1.0,207.43,0.0,0.0,0.0,0.0,0.0,0.0,0.0,8792.2,0.0,55.0,5.0,242.06666666666666,0.0,0.0,0.0,0.0,0.0,0.0,1.0,0.0,0.6059999999999981,0.6059999999999981,0.0,0.0,0.0,55.0,616.79921,10000.0,85.000001,85.000001,85.000001,85.000001,395.0,0.0,0.0,0.0,1.0,166.665,52.719,52.719,47.882,47.882,34.0,-22.43,26.816,-26.276666666666664,31.655,0.0,1783.043,-0.41999999999999815,100.0,27.573,27.642,42.352000000000004,42.480000000000004,0.0,1.0,100.0,0.0,0.0,0.0,0.0,3030.714285714286,3203.2,4183.75,4235.5,305.5905,304.689,314.62525,314.38075,21.8789,20.5702,21.8768,21.3901,314.999998,314.999998,324.999988,324.999988,99.55831428571429,99.5073,99.5666,99.54587142857143,0.11166666666666636,-0.015333333333333199,-0.05820000000000003,0.16100000000000003,-0.04833333333333201,-0.06833333333332803,1.538,1.4985,37.742999999999995,29.564,37.730000000000004,34.688,55.913,34.841499999999996,59.4555,52.0605,53.858999999999995,34.0105,58.066,50.3985,53.033,33.58566666666667,58.0115,49.809666666666665,-0.11199999999999988,-0.04349999999999987,0.10319,0.10756500000000001,0.0,210.57999999999998,210.64499999999998,207.43,207.43,0.0,0.0
13,0.0,1.0,0.0,1.0,1.0,0.0,0.0,1.0,0.0,100.0,1.0,1.1856,26.0,0.0,0.0,0.0,51.999998,0.0,26.0,26.0,26.0,26.0,0.0685555555555557,0.29080000000000017,0.053775,292.526,-2.73475,-2.675666666666667,-1.62415,-1.5078,-232.53,216.04000000000002,190.726375,0.0,0.0,0.0,0.0,0.026666666666666505,-5.498166666666667,-5.498166666666667,-0.5397000000000001,-0.026333333333333334,0.024499999999999966,1.071,67.383,0.036000000000000004,-0.21505000000000002,-0.8079999999999998,100.0,1.0,1.0,207.79666666666668,0.0,0.0,0.0,0.0,0.0,0.0,0.0,8807.8,0.0,55.0,5.0,242.55,1.0,0.0,0.0,0.0,0.0,0.0,1.0,0.0,0.6539999999999999,0.6539999999999999,0.0,0.0,1.0,55.0,616.79921,10000.0,85.000001,85.000001,85.000001,85.000001,395.0,0.0,0.0,0.0,1.0,166.665,52.429,52.429,47.867,47.867,34.0,-20.73,28.262,-27.496666666666663,32.6425,0.0,1782.994,-0.8649999999999984,100.0,27.854,27.821,42.552,42.953,0.0,1.0,100.0,0.0,0.0,0.0,0.0,3051.5714285714284,3193.2,4160.75,4360.4,305.4905,304.7115,314.6785,314.068,21.8879,20.5754,21.8867,21.3988,314.999998,314.999998,324.999988,324.999988,99.55832857142858,99.5073,99.56672857142857,99.546,0.15133333333333354,0.022666666666666835,-0.06320000000000003,0.16199999999999992,-0.046666666666666856,-0.04999999999999716,1.513,1.4914999999999998,37.8,29.596333333333334,37.792,34.7425,55.903999999999996,34.8775,59.492,52.1215,53.851,34.044,58.1,50.457499999999996,53.022999999999996,33.617666666666665,58.042500000000004,49.867333333333335,-0.14549999999999996,-0.004999999999999893,0.10528000000000001,0.107075,0.0,210.99,211.04000000000002,207.79666666666668,207.79666666666668,0.0,0.0
14,0.0,1.0,0.0,1.0,1.0,0.0,0.0,1.0,0.0,100.0,1.0,1.1856,26.0,0.0,0.0,0.0,51.999998,0.0,26.0,26.0,26.0,26.0,0.09133333333333327,0.27370000000000005,-0.01145,292.786,-2.73735,-2.6154444444444445,-1.6308500000000001,-1.5125000000000002,-229.09,216.01749999999998,190.70525,0.0,0.0,0.0,0.0,0.028666666666666507,-5.498166666666667,-5.498166666666667,-0.5485,-0.16133333333333336,0.04912499999999986,-0.07799999999999985,67.523,0.0487,-0.22845000000000001,-0.9779999999999998,100.0,1.0,1.0,208.31666666666666,0.0,0.0,0.0,0.0,0.0,0.0,0.0,8829.7,0.0,55.0,5.0,243.05333333333334,0.0,0.0,0.0,0.0,0.0,0.0,1.0,0.0,0.7049999999999983,0.7049999999999983,0.0,0.0,0.0,55.0,616.79921,10000.0,85.000001,85.000001,85.000001,85.000001,395.0,0.0,0.0,0.0,1.0,333.33500000000004,52.597,52.597,48.111,48.111,34.0,-20.845,27.146,-26.436666666666667,30.9675,0.0,1782.943,-0.9649999999999999,100.0,27.582,28.002,42.439,43.295,0.0,1.0,100.0,0.0,0.0,0.0,0.0,3047.285714285714,3141.5,4031.5,4148.7,305.681,304.718,315.06525,314.516,21.8975,20.5809,21.897199999999998,21.407899999999998,314.999998,314.999998,324.999988,324.999988,99.55835714285715,99.5073,99.56688571428572,99.54614285714285,0.14433333333333342,0.016000000000000014,-0.06599999999999995,0.16566666666666685,-0.046666666666666856,-0.051666666666669414,1.555,1.5195,37.858999999999995,29.630666666666666,37.857,34.7995,55.894999999999996,34.916,59.528999999999996,52.185,53.841,34.079499999999996,58.134,50.5185,53.013,33.65133333333333,58.073499999999996,49.92733333333334,-0.14700000000000002,-0.0034999999999998366,0.10962500000000001,0.10639000000000001,0.0,211.42000000000002,211.47,208.31666666666666,208.31666666666666,0.0,0.0
15,0.0,1.0,0.0,1.0,1.0,0.0,0.0,1.0,0.0,100.0,1.0,1.1856,26.0,0.0,0.0,0.0,51.999998,0.0,26.0,26.0,26.0,26.0,0.11211111111111105,0.2841,-0.03785,292.831,-2.71365,-2.572888888888889,-1.63165,-1.4528,-225.85,215.9975,190.684875,0.0,0.0,0.0,0.0,0.03056666666666652,-5.498166666666667,-5.498166666666667,-0.5403,0.3036666666666667,0.0814999999999999,-0.016999999999999904,67.654,0.0631,-0.211375,-1.137999999999999,100.0,1.0,1.0,208.71,0.0,0.0,0.0,0.0,0.0,0.0,0.0,8846.5,0.0,55.0,5.0,243.52666666666664,1.0,0.0,0.0,0.0,0.0,0.0,1.0,0.0,0.7530000000000001,0.7530000000000001,0.0,0.0,1.0,55.0,616.79921,10000.0,85.000001,85.000001,85.000001,85.000001,395.0,0.0,0.0,0.0,1.0,333.33500000000004,52.734,52.734,48.203,48.203,34.0,-18.72,27.064,-25.223333333333336,32.3,0.0,1782.895,-0.9800000000000004,100.0,27.591,28.04,42.189,43.345,0.0,1.0,100.0,0.0,0.0,0.0,0.0,2909.4285714285716,3130.3,3991.5,4309.6,306.025,304.74,315.1645,314.1565,21.906399999999998,20.5861,21.9069,21.4165,314.999998,314.999998,324.999988,324.999988,99.55837142857143,99.5073,99.56701428571428,99.54628571428572,0.16599999999999993,0.02566666666666695,-0.04799999999999993,0.17966666666666686,-0.04999999999999716,-0.041666666666671404,1.5575,1.5165,37.915,29.663333333333334,37.918,34.853,55.885999999999996,34.9525,59.563,52.2445,53.833,34.1135,58.165,50.576,53.003,33.684,58.1015,49.984,-0.15900000000000003,-0.00749999999999984,0.11263500000000001,0.10647500000000001,0.0,211.825,211.9,208.71,208.71,0.0,0.0
16,0.0,1.0,0.0,1.0,1.0,0.0,0.0,1.0,0.0,100.0,1.0,1.1856,26.0,0.0,0.0,0.0,51.999998,0.0,26.0,26.0,26.0,26.0,0.12011111111111106,0.28190000000000004,-0.0134,292.877,-2.8072,-2.607111111111111,-1.60275,-1.4519,-222.39,215.98000000000002,190.662875,0.0,0.0,0.0,0.0,0.03256666666666652,-5.498166666666667,-5.498166666666667,-0.5593,-0.786,0.07262499999999994,0.1359999999999999,67.795,0.07730000000000001,-0.22387500000000002,-1.306,100.0,1.0,1.0,209.12666666666667,0.0,0.0,0.0,0.0,0.0,0.0,0.0,8864.1,0.0,55.0,5.0,244.03333333333336,0.0,0.0,0.0,0.0,0.0,0.0,1.0,0.0,0.8039999999999985,0.8039999999999985,0.0,0.0,0.0,55.0,616.79921,10000.0,85.000001,85.000001,85.000001,85.000001,395.0,0.0,0.0,0.0,1.0,333.33500000000004,52.795,52.795,47.836,47.836,34.0,-19.1925,29.672,-23.15,32.2225,0.0,1782.844,-0.870000000000001,100.0,27.291,27.995,42.513,43.4,0.0,1.0,100.0,0.0,0.0,0.0,0.0,2902.142857142857,3278.1,3933.125,4174.6,306.092,304.45825,315.23325,314.51525,21.9155,20.5917,21.9174,21.4256,314.999998,314.999998,324.999988,324.999988,99.55838571428572,99.50731666666667,99.56715714285714,99.54642857142858,0.17200000000000015,0.04999999999999982,-0.021199999999999997,0.20350000000000001,-0.026666666666670835,-0.07000000000000028,1.5615,1.522,37.972,29.698333333333334,37.983999999999995,34.91,55.873000000000005,34.9925,59.601,52.3085,53.82,34.1505,58.2005,50.6375,52.989999999999995,33.71933333333333,58.134,50.044333333333334,-0.14700000000000002,-0.0024999999999999467,0.11149,0.10534,0.0,212.20499999999998,212.315,209.12666666666667,209.12666666666667,0.0,0.0
17,0.0,1.0,0.0,1.0,1.0,0.0,0.0,1.0,0.0,100.0,1.0,1.1856,26.0,0.0,0.0,0.0,51.999998,0.0,26.0,26.0,26.0,26.0,0.12522222222222212,0.2874000000000001,-0.0149,292.572,-2.76775,-2.5601111111111114,-1.6414,-1.4747,-218.93,215.965,190.640375,0.0,0.0,0.0,0.0,0.034599999999999964,-5.498166666666667,-5.498166666666667,-0.5514,0.5436666666666666,0.04774999999999996,-0.6949999999999998,67.93299999999999,0.0821,-0.20655,-1.1360000000000001,100.0,1.0,1.0,209.55333333333334,0.0,0.0,0.0,0.0,0.0,0.0,0.0,8882.2,0.0,55.0,5.0,244.53,1.0,0.0,0.0,0.0,0.0,0.0,1.0,0.0,0.8550000000000004,0.8550000000000004,0.0,0.0,1.0,55.0,616.79921,10000.0,85.000001,85.000001,85.000001,85.000001,395.0,0.0,0.0,0.0,1.0,333.33500000000004,52.49,52.49,47.958,47.958,34.0,-19.785,26.91,-25.733333333333334,32.5,0.0,1782.792,-0.9100000000000001,100.0,27.68,28.448999999999998,42.182,43.432,0.0,1.0,100.0,0.0,0.0,0.0,0.0,3074.857142857143,3057.8,4193.5,4221.2,305.6555,305.013,314.7505,314.39975,21.925,20.5974,21.9277,21.4347,314.999998,314.999998,324.999988,324.999988,99.55841428571429,99.50731666666667,99.56728571428572,99.54658571428571,0.17899999999999983,0.04400000000000004,-0.026799999999999935,0.1935,-0.05833333333333002,-0.036666666666668846,1.552,1.513,38.032,29.734,38.048,34.967,55.866,35.034,59.635999999999996,52.371,53.813,34.1885,58.233000000000004,50.698,52.980999999999995,33.75633333333333,58.163,50.10366666666667,-0.15700000000000003,-0.007000000000000117,0.11520500000000002,0.09954,0.0,212.71,212.755,209.55333333333334,209.55333333333334,0.0,0.0
18,0.0,1.0,0.0,1.0,1.0,0.0,0.0,1.0,0.0,100.0,1.0,1.1856,26.0,0.0,0.0,0.0,51.999998,0.0,26.0,26.0,26.0,26.0,0.1293333333333333,0.27760000000000007,-0.06265,292.557,-2.80125,-2.5356666666666667,-1.6556000000000002,-1.4212,-215.67000000000002,215.95499999999998,190.61925,0.0,0.0,0.0,0.0,0.036466666666666536,-5.498166666666667,-5.498166666666667,-0.5583,-0.5733333333333334,0.072125,-0.05900000000000016,68.064,0.0829,-0.22115,-1.1600000000000001,100.0,1.0,1.0,209.94,0.0,0.0,0.0,0.0,0.0,0.0,0.0,8898.6,0.0,55.0,5.0,245.00333333333333,0.0,0.0,0.0,0.0,0.0,0.0,1.0,0.0,0.9029999999999987,0.9029999999999987,0.0,0.0,0.0,55.0,616.79921,10000.0,85.000001,85.000001,85.000001,85.000001,395.0,0.0,0.0,0.0,1.0,333.33500000000004,52.504999999999995,52.504999999999995,47.745,47.745,34.0,-19.3875,28.852,-24.556666666666665,31.345,0.0,1782.744,-1.2300000000000004,100.0,27.475,28.275,42.583,43.885,0.0,1.0,100.0,0.0,0.0,0.0,0.0,3033.0,3225.9,4032.125,4163.2,305.8315,304.5625,315.09425,314.52975,21.933799999999998,20.6027,21.9377,21.4434,314.999998,314.999998,324.999988,324.999988,99.55842857142858,99.50731666666667,99.56742857142856,99.54672857142857,0.18699999999999983,0.05666666666666664,-0.02200000000000002,0.1955,-0.04999999999999716,-0.03999999999999915,1.548,1.517,38.086,29.766666666666666,38.111000000000004,35.0215,55.857,35.0715,59.6725,52.4325,53.804,34.2235,58.266999999999996,50.757,52.971000000000004,33.78966666666666,58.1935,50.162,-0.16749999999999998,0.01200000000000001,0.10832000000000001,0.101385,0.0,213.055,213.135,209.94,209.94,0.0,0.0
19,0.0,1.0,0.0,1.0,1.0,0.0,0.0,1.0,0.0,100.0,1.0,1.1856,26.0,0.0,0.0,0.0,51.999998,0.0,26.0,26.0,26.0,26.0,0.16666666666666674,0.2835000000000001,0.039475,291.931,-2.77345,-2.521111111111111,-1.6748500000000002,-1.3999000000000001,-211.99,215.945,190.59525,0.0,0.0,0.0,0.0,0.0386333333333333,-5.498166666666667,-5.498166666666667,-0.5506,0.835,0.08549999999999991,-0.48099999999999987,68.209,0.0916,-0.2114,-1.5860000000000003,100.0,1.0,1.0,210.37333333333333,0.0,0.0,0.0,0.0,0.0,0.0,0.0,8916.9,0.0,55.0,5.0,245.52333333333334,1.0,0.0,0.0,0.0,0.0,0.0,1.0,0.0,0.9570000000000007,0.9570000000000007,0.0,0.0,1.0,55.0,616.79921,10000.0,85.000001,85.000001,85.000001,85.000001,395.0,0.0,0.0,0.0,1.0,166.665,51.635999999999996,51.635999999999996,47.485,47.485,34.0,-18.8175,30.994,-25.313333333333333,34.894999999999996,0.0,1782.692,-1.4899999999999984,100.0,27.953,28.852,42.303,43.886,0.0,1.0,100.0,0.0,0.0,0.0,0.0,3129.4285714285716,3323.4,4183.25,4420.0,305.4255,304.1255,314.795,313.9555,21.9438,20.6088,21.9486,21.4531,314.999998,314.999998,324.999988,324.999988,99.55845714285714,99.50733333333334,99.56758571428571,99.54688571428571,0.21233333333333348,0.08166666666666655,-0.010600000000000054,0.22133333333333338,-0.03833333333332689,-0.041666666666671404,1.5354999999999999,1.4835,38.149,29.805333333333333,38.179,35.082,55.851,35.119,59.709,52.5,53.798,34.2675,58.3005,50.8225,52.964,33.832,58.224000000000004,50.226333333333336,-0.19199999999999995,0.03600000000000003,0.10705,0.108535,0.0,213.515,213.63,210.37333333333333,210.37333333333333,0.0,0.0
20,0.0,1.0,0.0,1.0,1.0,0.0,0.0,1.0,0.0,100.0,1.0,1.1856,26.0,0.0,0.0,0.0,51.999998,0.0,26.0,26.0,26.0,26.0,0.1922222222222223,0.26490000000000014,-0.048400000000000006,292.252,-2.8255,-2.578222222222222,-1.61035,-1.4038,-208.70999999999998,215.9425,190.57425,0.0,0.0,0.0,0.0,0.04053333333333331,-5.498166666666667,-5.498166666666667,-0.5513,-1.006,0.09499999999999997,-0.581,68.34,0.10490000000000001,-0.219525,-1.9960000000000004,100.0,1.0,1.0,210.65,0.0,0.0,0.0,0.0,0.0,0.0,0.0,8928.7,0.0,55.0,5.0,245.99333333333334,0.0,0.0,0.0,0.0,0.0,0.0,0.0,0.0,1.004999999999999,1.004999999999999,0.0,0.0,0.0,55.0,616.79921,10000.0,85.000001,85.000001,85.000001,85.000001,395.0,0.0,0.0,0.0,1.0,333.33500000000004,52.856,52.856,46.707,46.707,34.0,-15.907499999999999,30.573999999999998,-23.880000000000003,36.58,0.0,1782.641,-1.7749999999999986,100.0,27.374,28.560000000000002,42.792,44.378,0.0,1.0,100.0,0.0,0.0,0.0,0.0,2785.142857142857,3164.5,4186.0,4424.4,306.533,304.63775,314.63875,313.84375,21.9523,20.6142,21.9586,21.462,314.999998,314.999998,324.999988,324.999988,99.55848571428571,99.50735,99.56772857142857,99.54701428571428,0.23433333333333373,0.10199999999999987,0.0041999999999999815,0.2446666666666668,-0.051666666666669414,-0.03999999999999915,1.5110000000000001,1.4495,38.202,29.83866666666667,38.241,35.137,55.842,35.16,59.7485,52.5635,53.79,34.305,58.335499999999996,50.8835,52.954,33.86833333333333,58.256,50.28966666666666,-0.21399999999999997,0.0605,0.11348000000000001,0.11163500000000001,0.0,213.88,214.025,210.65,210.65,0.0,0.0
21,0.0,1.0,0.0,1.0,1.0,0.0,0.0,1.0,0.0,100.0,1.0,1.1856,26.0,0.0,0.0,0.0,51.999998,0.0,26.0,26.0,26.0,26.0,0.18433333333333324,0.27990000000000004,-0.058675000000000005,292.603,-2.7459,-2.628111111111111,-1.6756,-1.472,-205.22,215.9425,190.55125,0.0,0.0,0.0,0.0,0.04256666666666653,-5.498166666666667,-5.498166666666667,-0.5788,0.5213333333333334,0.08437499999999987,0.21799999999999997,68.47200000000001,0.1259,-0.22535000000000002,-1.9879999999999995,100.0,1.0,1.0,211.31666666666666,0.0,0.0,0.0,0.0,0.0,0.0,0.0,8956.9,0.0,55.0,5.0,246.47,1.0,0.0,0.0,0.0,0.0,0.0,0.0,0.0,1.056000000000001,1.056000000000001,0.0,0.0,1.0,55.0,616.79921,10000.0,85.000001,85.000001,85.000001,85.000001,395.0,0.0,0.0,0.0,1.0,166.665,52.185,52.185,48.248,48.248,34.0,-18.072499999999998,30.608,-20.299999999999997,34.32,0.0,1782.593,-0.5500000000000007,100.0,27.705,28.609,42.116,43.922,0.0,1.0,100.0,0.0,0.0,0.0,0.0,2915.0,3305.5,3901.375,4108.5,305.885,304.3095,315.44875,314.73175,21.9616,20.62,21.9688,21.471,314.999998,314.999998,324.999988,324.999988,99.5585,99.50735,99.56785714285714,99.54717142857143,0.19266666666666676,0.05799999999999983,0.04400000000000004,0.2593333333333332,-0.06333333333333258,-0.041666666666671404,1.6280000000000001,1.5675,38.26,29.875,38.305,35.194,55.835,35.2055,59.7785,52.625,53.783,34.3475,58.3645,50.943,52.946,33.90866666666666,58.282,50.34466666666667,-0.13850000000000007,-0.021500000000000075,0.10632000000000001,0.10512,0.0,214.32,214.45,211.31666666666666,211.31666666666666,0.0,0.0
22,0.0,1.0,0.0,1.0,1.0,0.0,0.0,1.0,0.0,100.0,1.0,1.1856,26.0,0.0,0.0,0.0,51.999998,0.0,26.0,26.0,26.0,26.0,0.15000000000000013,0.2691000000000001,0.0175,292.099,-2.73265,-2.628222222222222,-1.6632500000000001,-1.4692,-201.73000000000002,215.95,190.527375,0.0,0.0,0.0,0.0,0.04459999999999997,-5.498166666666667,-5.498166666666667,-0.5571,0.06933333333333333,0.07925000000000004,-0.8210000000000002,68.61,0.1255,-0.207125,-0.6920000000000002,100.0,1.0,1.0,211.51666666666665,0.0,0.0,0.0,0.0,0.0,0.0,0.0,8965.4,0.0,55.0,5.0,246.97,0.0,0.0,0.0,0.0,0.0,0.0,0.0,0.0,1.1069999999999993,1.1069999999999993,0.0,0.0,0.0,55.0,616.79921,10000.0,85.000001,85.000001,85.000001,85.000001,395.0,0.0,0.0,0.0,1.0,166.665,52.307,52.307,47.104,47.104,34.0,-20.4225,26.398,-24.546666666666667,35.582499999999996,0.0,1782.542,0.3500000000000014,100.0,27.693,28.819,42.535,44.275,0.0,1.0,100.0,0.0,0.0,0.0,0.0,2926.0,3142.0,4211.875,4344.1,306.0135,304.59275,314.68225,314.0865,21.9709,20.625799999999998,21.9793,21.4803,314.999998,314.999998,324.999988,324.999988,99.55852857142857,99.50736666666667,99.56801428571428,99.54732857142857,0.13166666666666638,-0.009333333333333194,0.007600000000000051,0.2270000000000001,-0.03499999999999659,-0.05333333333332746,1.5085,1.479,38.318,29.911,38.370999999999995,35.251999999999995,55.825,35.2465,59.817,52.6915,53.772999999999996,34.385,58.4005,51.0065,52.935,33.945,58.314499999999995,50.407333333333334,-0.056499999999999995,-0.10199999999999987,0.10276,0.10182000000000001,0.0,214.78,214.85500000000002,211.51666666666665,211.51666666666665,0.0,0.0
23,0.0,1.0,0.0,1.0,1.0,0.0,0.0,1.0,0.0,100.0,1.0,1.1856,26.0,0.0,0.0,0.0,51.999998,0.0,26.0,26.0,26.0,26.0,0.07944444444444443,0.254,-0.021925,292.023,-2.737,-2.603222222222222,-1.5674000000000001,-1.5581,-198.43,215.96,190.505375,0.0,0.0,0.0,0.0,0.046499999999999986,-5.498166666666667,-5.498166666666667,-0.5759000000000001,-0.3283333333333333,0.05049999999999999,-1.318,68.737,0.0877,-0.23425,0.4060000000000006,100.0,1.0,1.0,211.99,0.0,0.0,0.0,0.0,0.0,0.0,0.0,8985.5,0.0,55.0,5.0,247.42666666666668,1.0,0.0,0.0,0.0,0.0,0.0,0.0,0.0,1.1550000000000011,1.1550000000000011,0.0,0.0,1.0,55.0,616.79921,10000.0,85.000001,85.000001,85.000001,85.000001,395.0,0.0,0.0,0.0,1.0,333.33500000000004,51.650999999999996,51.650999999999996,47.882,47.882,34.0,-25.345,24.317999999999998,-24.886666666666663,30.965,0.0,1782.493,0.7650000000000006,100.0,28.035,28.744,42.888,44.378,0.0,1.0,100.0,0.0,0.0,0.0,0.0,3299.4285714285716,3143.2,4001.5,4021.4,305.0105,304.67675,315.10275,314.76675,21.9797,20.6312,21.9892,21.4891,314.999998,314.999998,324.999988,324.999988,99.55854285714285,99.50736666666667,99.56814285714286,99.54747142857143,0.0903333333333336,-0.050999999999999934,-0.0514,0.1751666666666667,-0.041666666666671404,-0.045000000000001705,1.5115,1.537,38.373000000000005,29.945,38.432,35.3065,55.814,35.284,59.852000000000004,52.752,53.762,34.42,58.433,51.065,52.922,33.97833333333333,58.3435,50.464666666666666,-0.020999999999999908,-0.1419999999999999,0.107185,0.10576500000000001,0.0,215.21,215.16,211.99,211.99,0.0,0.0
24,0.0,1.0,0.0,1.0,1.0,0.0,0.0,1.0,0.0,100.0,1.0,1.1856,26.0,0.0,0.0,0.0,51.999998,0.0,26.0,26.0,26.0,26.0,0.004222222222222127,0.2692000000000001,0.00185,292.343,-2.7166,-2.658333333333333,-1.58715,-1.5232,-195.13,215.97,190.482875,0.0,0.0,0.0,0.0,0.04843333333333333,-5.498166666666667,-5.498166666666667,-0.5766,-0.3806666666666667,0.03249999999999997,-0.601,68.864,0.032100000000000004,-0.214725,1.0440000000000005,100.0,1.0,1.0,212.32666666666665,0.0,0.0,0.0,0.0,0.0,0.0,0.0,8999.7,0.0,55.0,5.0,247.88333333333333,0.0,0.0,0.0,0.0,0.0,0.0,0.0,0.0,1.2029999999999994,1.2029999999999994,0.0,0.0,0.0,55.0,616.79921,10000.0,85.000001,85.000001,85.000001,85.000001,395.0,0.0,0.0,0.0,1.0,333.33500000000004,52.887,52.887,47.073,47.073,34.0,-23.405,21.442,-31.026666666666664,28.625,0.0,1782.445,0.8500000000000014,100.0,27.953,28.266,43.068,43.954,0.0,1.0,100.0,0.0,0.0,0.0,0.0,2958.857142857143,2914.7,4382.75,4099.6,305.936,305.44825,314.22425,314.697,21.9885,20.6364,21.999,21.4976,314.999998,314.999998,324.999988,324.999988,99.55854285714285,99.50736666666667,99.56828571428571,99.5476,0.061666666666666536,-0.08233333333333315,-0.10339999999999994,0.1246666666666667,-0.046666666666666856,-0.041666666666671404,1.4975,1.5150000000000001,38.428,29.977333333333334,38.494,35.36,55.8,35.321,59.887,52.809,53.748999999999995,34.454,58.4655,51.12,52.909,34.01133333333333,58.373,50.51866666666667,-0.014999999999999902,-0.14849999999999985,0.10423500000000001,0.11078,0.0,215.63,215.54500000000002,212.32666666666665,212.32666666666665,0.0,0.0
25,0.0,1.0,0.0,1.0,1.0,0.0,0.0,1.0,0.0,100.0,1.0,1.1856,26.0,0.0,0.0,0.0,51.999998,0.0,26.0,26.0,26.0,26.0,-0.0484444444444444,0.2630000000000001,-0.04125,292.313,-2.7654,-2.637666666666667,-1.5727,-1.5535999999999999,-191.41,215.98000000000002,190.456125,0.0,0.0,0.0,0.0,0.05059999999999998,-5.498166666666667,-5.498166666666667,-0.6127,0.016,0.0026249999999998774,-1.867,69.004,-0.027,-0.22590000000000002,1.4000000000000004,100.0,1.0,1.0,212.89666666666668,0.0,0.0,0.0,0.0,0.0,0.0,0.0,9023.9,0.0,55.0,5.0,248.38666666666666,1.0,0.0,0.0,0.0,0.0,0.0,0.0,0.0,1.256999999999998,1.256999999999998,0.0,0.0,1.0,55.0,616.79921,10000.0,85.000001,85.000001,85.000001,85.000001,395.0,0.0,0.0,0.0,1.0,166.665,51.849000000000004,51.849000000000004,47.913,47.913,34.0,-29.54,21.952,-30.146666666666665,24.0575,0.0,1782.392,0.8350000000000009,100.0,28.046,28.251,43.129,43.370000000000005,0.0,1.0,100.0,0.0,0.0,0.0,0.0,3348.285714285714,3202.0,4016.75,3942.5,304.9485,304.56925,315.1605,315.08375,21.9985,20.6423,22.0101,21.5072,314.999998,314.999998,324.999988,324.999988,99.55854285714285,99.50738333333334,99.56844285714286,99.54775714285714,0.01200000000000001,-0.1213333333333333,-0.15959999999999996,0.05683333333333329,-0.054999999999999716,-0.030000000000001137,1.56,1.6019999999999999,38.489999999999995,30.014,38.563,35.42,55.782,35.3655,59.9245,52.8705,53.732,34.495,58.5005,51.1795,52.891,34.050666666666665,58.405,50.577,-0.010499999999999954,-0.14749999999999996,0.10471000000000001,0.10432500000000001,0.0,216.075,215.95499999999998,212.89666666666668,212.89666666666668,0.0,0.0
26,0.0,1.0,0.0,1.0,1.0,0.0,0.0,1.0,0.0,100.0,1.0,1.1856,26.0,0.0,0.0,0.0,51.999998,0.0,26.0,26.0,26.0,26.0,-0.11711111111111105,0.2802,0.052725,291.214,-2.6717,-2.7567777777777778,-1.58525,-1.5801,-188.09,215.99,190.43175,0.0,0.0,0.0,0.0,0.05249999999999999,-5.498166666666667,-5.498166666666667,-0.5722,0.8356666666666667,-0.053625000000000256,-1.4609999999999999,69.132,-0.0656,-0.19605,1.5020000000000007,100.0,1.0,1.0,213.04666666666668,0.0,0.0,0.0,0.0,0.0,0.0,0.0,9030.3,0.0,55.0,5.0,248.85000000000002,0.0,0.0,0.0,0.0,0.0,0.0,0.0,0.0,1.3049999999999997,1.3049999999999997,0.0,0.0,0.0,55.0,616.79921,10000.0,85.000001,85.000001,85.000001,85.000001,395.0,0.0,0.0,0.0,1.0,166.665,51.331,51.331,46.295,46.295,34.0,-29.5675,20.19,-38.64,25.8125,0.0,1782.344,0.7050000000000018,100.0,29.159,28.633,43.888,43.400999999999996,0.0,1.0,100.0,0.0,0.0,0.0,0.0,3352.285714285714,2986.8,4649.25,4325.7,304.773,305.06625,313.6905,314.16375,22.0077,20.6476,22.0201,21.5158,314.999998,314.999998,324.999988,324.999988,99.55855714285714,99.5074,99.56858571428572,99.5479,-0.0023333333333332984,-0.15300000000000002,-0.1906,0.021500000000000075,-0.041666666666671404,-0.045000000000001705,1.4205,1.478,38.548,30.047666666666665,38.626000000000005,35.474000000000004,55.771,35.408500000000004,59.964,52.928,53.721000000000004,34.5345,58.537,51.2345,52.879000000000005,34.08833333333333,58.4385,50.63066666666667,-0.03299999999999992,-0.14049999999999985,0.09917000000000001,0.10828000000000002,0.0,216.515,216.38,213.04666666666668,213.04666666666668,0.0,0.0
27,0.0,1.0,0.0,1.0,1.0,0.0,0.0,1.0,0.0,100.0,1.0,1.1856,26.0,0.0,0.0,0.0,51.999998,0.0,26.0,26.0,26.0,26.0,-0.1183333333333334,0.2594000000000001,-0.007325000000000001,291.504,-2.6199500000000002,-2.7426666666666666,-1.56305,-1.6688,-184.76999999999998,215.995,190.40875,0.0,0.0,0.0,0.0,0.054433333333333334,-5.498166666666667,-5.498166666666667,-0.5944,-1.1173333333333333,-0.06812500000000021,-0.8260000000000001,69.257,-0.0869,-0.24095000000000003,1.3659999999999997,100.0,1.0,1.0,213.48666666666668,0.0,0.0,0.0,0.0,0.0,0.0,0.0,9049.0,0.0,55.0,5.0,249.3,1.0,0.0,0.0,0.0,0.0,0.0,0.0,0.0,1.352999999999998,1.352999999999998,0.0,0.0,1.0,55.0,616.79921,10000.0,85.000001,85.000001,85.000001,85.000001,395.0,0.0,0.0,0.0,1.0,333.33500000000004,51.727000000000004,51.727000000000004,46.646,46.646,34.0,-29.4175,19.566,-35.25,24.505000000000003,0.0,1782.294,0.5549999999999997,100.0,28.967,28.222,44.867000000000004,43.827,0.0,1.0,100.0,0.0,0.0,0.0,0.0,3323.4285714285716,2973.6,4242.25,4028.7,304.844,305.25725,314.5535,314.7375,22.0166,20.6527,22.0303,21.5246,314.999998,314.999998,324.999988,324.999988,99.55855714285714,99.50741666666667,99.56872857142857,99.54804285714286,-0.01633333333333331,-0.15866666666666673,-0.20939999999999992,0.013166666666666549,-0.046666666666666856,-0.02833333333332888,1.46,1.5205,38.604,30.079333333333334,38.689,35.528999999999996,55.756,35.448499999999996,60.0045,52.9865,53.707,34.5715,58.5755,51.2905,52.864000000000004,34.123666666666665,58.474000000000004,50.68533333333333,-0.03649999999999998,-0.12700000000000022,0.102455,0.11488500000000001,0.0,216.835,216.715,213.48666666666668,213.48666666666668,0.0,0.0
28,0.0,1.0,0.0,1.0,1.0,0.0,0.0,1.0,0.0,100.0,1.0,1.1856,26.0,0.0,0.0,0.0,51.999998,0.0,26.0,26.0,26.0,26.0,-0.1243333333333334,0.26770000000000005,-0.04555,291.931,-2.6416,-2.734777777777778,-1.50645,-1.6323,-181.03,215.9975,190.381875,0.0,0.0,0.0,0.0,0.05663333333333331,-5.498166666666667,-5.498166666666667,-0.601,0.6446666666666666,-0.07687500000000025,-0.653,69.394,-0.1014,-0.215875,1.2360000000000007,100.0,1.0,1.0,214.04333333333335,0.0,0.0,0.0,0.0,0.0,0.0,0.0,9072.5,0.0,55.0,5.0,249.79000000000002,0.0,0.0,0.0,0.0,0.0,0.0,0.0,0.0,1.407,1.407,0.0,0.0,0.0,55.0,616.79921,10000.0,85.000001,85.000001,85.000001,85.000001,395.0,0.0,0.0,0.0,1.0,166.665,51.819,51.819,47.562,47.562,34.0,-30.2025,19.082,-34.46,23.1175,0.0,1782.242,0.40500000000000114,100.0,29.066,28.089,44.163,43.083,0.0,1.0,100.0,0.0,0.0,0.0,0.0,3373.714285714286,2911.6,4197.125,4050.4,304.7425,305.431,314.786,314.8325,22.0268,20.6585,22.0413,21.5341,314.999998,314.999998,324.999988,324.999988,99.55855714285714,99.50743333333334,99.56888571428571,99.5482,-0.01866666666666661,-0.15766666666666662,-0.22739999999999994,-0.0010000000000000009,-0.05666666666667197,-0.05333333333332746,1.5165,1.5605,38.668,30.115666666666666,38.757999999999996,35.588,55.742999999999995,35.4945,60.042500000000004,53.0465,53.694,34.614,58.611,51.348,52.85,34.164,58.506,50.74133333333333,-0.04949999999999988,-0.10999999999999988,0.10855500000000001,0.10224000000000001,0.0,217.29500000000002,217.20499999999998,214.04333333333335,214.04333333333335,0.0,0.0
29,0.0,1.0,0.0,1.0,1.0,0.0,0.0,1.0,0.0,100.0,1.0,1.1856,26.0,0.0,0.0,0.0,51.999998,0.0,26.0,26.0,26.0,26.0,-0.13722222222222213,0.26080000000000014,0.032100000000000004,291.504,-2.5846,-2.695666666666667,-1.54945,-1.6139000000000001,-177.69,215.9975,190.357,0.0,0.0,0.0,0.0,0.058566666666666545,-5.498166666666667,-5.498166666666667,-0.6046,-0.7143333333333334,-0.07699999999999996,-0.6819999999999999,69.521,-0.09620000000000001,-0.21477500000000002,0.9500000000000011,100.0,1.0,1.0,214.25333333333333,0.0,0.0,0.0,0.0,0.0,0.0,0.0,9081.4,0.0,55.0,5.0,250.24666666666667,1.0,0.0,0.0,0.0,0.0,0.0,0.0,0.0,1.4549999999999983,1.4549999999999983,0.0,0.0,1.0,55.0,616.79921,10000.0,85.000001,85.000001,85.000001,85.000001,395.0,0.0,0.0,0.0,1.0,333.33500000000004,51.727000000000004,51.727000000000004,46.463,46.463,34.0,-29.752499999999998,20.325999999999997,-36.81,24.5625,0.0,1782.191,0.33999999999999986,100.0,28.748,27.863,44.617000000000004,43.34,0.0,1.0,100.0,0.0,0.0,0.0,0.0,3400.714285714286,3107.1,4378.5,4156.9,304.645,304.93475,314.219,314.508,22.0357,20.6636,22.0513,21.5428,314.999998,314.999998,324.999988,324.999988,99.55857142857143,99.50745,99.56904285714286,99.54834285714286,-0.014333333333333309,-0.15266666666666673,-0.2158,0.01100000000000012,-0.036666666666668846,-0.036666666666668846,1.4575,1.4925,38.723,30.147333333333336,38.821,35.6425,55.727000000000004,35.537,60.085,53.107,53.679,34.653,58.6505,51.4065,52.834,34.20133333333334,58.542500000000004,50.798,-0.056499999999999995,-0.10199999999999987,0.10552,0.10696000000000001,0.0,217.63,217.555,214.25333333333333,214.25333333333333,0.0,0.0
30,0.0,1.0,0.0,1.0,1.0,0.0,0.0,1.0,0.0,100.0,1.0,1.1856,26.0,0.0,0.0,0.0,51.999998,0.0,26.0,26.0,26.0,26.0,-0.12522222222222212,0.2671000000000001,0.033275,291.016,-2.6405,-2.676333333333333,-1.48285,-1.6876,-174.35,215.995,190.332,0.0,0.0,0.0,0.0,0.0605,-5.498166666666667,-5.498166666666667,-0.6047,0.766,-0.07725000000000026,-0.7309999999999999,69.642,-0.08650000000000001,-0.21807500000000002,0.8320000000000007,100.0,1.0,1.0,214.68,0.0,0.0,0.0,0.0,0.0,0.0,0.0,9099.6,0.0,55.0,5.0,250.68333333333334,0.0,0.0,0.0,0.0,0.0,0.0,1.0,0.0,1.5030000000000001,1.5030000000000001,0.0,0.0,0.0,55.0,616.79921,10000.0,85.000001,85.000001,85.000001,85.000001,395.0,0.0,0.0,0.0,1.0,166.665,50.858000000000004,50.858000000000004,46.799,46.799,34.0,-30.884999999999998,19.9,-35.01,26.64,0.0,1782.146,0.21999999999999886,100.0,29.59,28.653,44.487,43.372,0.0,1.0,100.0,0.0,0.0,0.0,0.0,3535.142857142857,2990.6,4371.125,4238.2,304.2235,305.08125,314.30175,314.25725,22.0448,20.6689,22.0612,21.5514,314.999998,314.999998,324.999988,324.999988,99.55857142857143,99.50748333333334,99.56917142857142,99.54847142857143,0.003666666666666707,-0.14266666666666672,-0.2046,0.017333333333333423,-0.05666666666667197,-0.04333333333332945,1.4735,1.4945,38.78,30.180666666666667,38.882,35.6965,55.717,35.577,60.1185,53.159,53.67,34.69,58.6815,51.4565,52.824,34.236333333333334,58.571,50.846666666666664,-0.0734999999999999,-0.09350000000000014,0.10811000000000001,0.10883000000000001,0.0,218.06,217.99,214.68,214.68,0.0,0.0
31,0.0,1.0,0.0,1.0,1.0,0.0,0.0,1.0,0.0,100.0,1.0,1.1856,26.0,0.0,0.0,0.0,51.999998,0.0,26.0,26.0,26.0,26.0,-0.10344444444444445,0.25880000000000014,0.0119,291.046,-2.6334,-2.756333333333333,-1.5723,-1.6602999999999999,-170.8,215.9875,190.306125,0.0,0.0,0.0,0.0,0.06256666666666655,-5.498166666666667,-5.498166666666667,-0.5888,-0.6016666666666667,-0.06325000000000003,0.637,69.774,-0.0714,-0.218275,0.42600000000000016,100.0,1.0,1.0,214.98000000000002,0.0,0.0,0.0,0.0,0.0,0.0,0.0,9112.2,0.0,55.0,5.0,251.16,1.0,0.0,0.0,0.0,0.0,0.0,1.0,0.0,1.5539999999999985,1.5539999999999985,0.0,0.0,1.0,55.0,616.79921,10000.0,85.000001,85.000001,85.000001,85.000001,395.0,0.0,0.0,0.0,1.0,166.665,51.575,51.575,45.456,45.456,34.0,-25.674999999999997,21.898,-35.85666666666667,28.105,0.0,1782.095,0.13500000000000156,100.0,29.433,28.562,45.196,43.938,0.0,1.0,100.0,0.0,0.0,0.0,0.0,3084.0,3084.5,4426.875,4263.5,305.4385,305.0125,314.0655,314.41525,22.0542,20.6745,22.0719,21.5608,314.999998,314.999998,324.999988,324.999988,99.55857142857143,99.5075,99.56932857142857,99.54862857142857,0.022333333333333094,-0.1253333333333333,-0.18059999999999998,0.05166666666666675,-0.04833333333333201,-0.046666666666666856,1.447,1.479,38.839,30.215666666666664,38.95,35.754999999999995,55.702,35.6205,60.161,53.2215,53.656,34.730000000000004,58.7215,51.516,52.81,34.275,58.608000000000004,50.905,-0.07200000000000006,-0.09399999999999986,0.11320500000000001,0.106535,0.0,218.425,218.365,214.98000000000002,214.98000000000002,0.0,0.0
32,0.0,1.0,0.0,1.0,1.0,0.0,0.0,1.0,0.0,100.0,1.0,1.1856,26.0,0.0,0.0,0.0,51.999998,0.0,26.0,26.0,26.0,26.0,-0.07644444444444443,0.25140000000000007,-0.081875,291.367,-2.6626,-2.692555555555556,-1.5977000000000001,-1.5673,-167.23000000000002,215.98000000000002,190.280625,0.0,0.0,0.0,0.0,0.06463333333333332,-5.498166666666667,-5.498166666666667,-0.6098,0.15333333333333335,-0.08725000000000005,-0.9079999999999999,69.9,-0.0608,-0.22995000000000002,0.5839999999999996,100.0,1.0,1.0,215.56333333333333,0.0,0.0,0.0,0.0,0.0,0.0,0.0,9137.0,0.0,55.0,5.0,251.61666666666667,0.0,0.0,0.0,0.0,0.0,0.0,1.0,0.0,1.6050000000000004,1.6050000000000004,0.0,0.0,0.0,55.0,616.79921,10000.0,85.000001,85.000001,85.000001,85.000001,395.0,0.0,0.0,0.0,1.0,333.33500000000004,51.193,51.193,46.799,46.799,34.0,-28.4775,21.33,-32.82,24.975,0.0,1782.041,0.07000000000000028,100.0,29.293,28.762999999999998,44.692,43.78,0.0,1.0,100.0,0.0,0.0,0.0,0.0,3402.142857142857,3023.0,4199.875,4065.7,304.6825,305.095,314.801,314.92225,22.0637,20.6802,22.0824,21.57,314.999998,314.999998,324.999988,324.999988,99.55857142857143,99.5075,99.56948571428572,99.54878571428571,0.029666666666666952,-0.11599999999999988,-0.1714,0.053166666666666806,-0.051666666666669414,-0.04833333333333201,1.535,1.569,38.897999999999996,30.250999999999998,39.015,35.8125,55.688,35.6665,60.2,53.2825,53.641999999999996,34.7725,58.757999999999996,51.575,52.795,34.315333333333335,58.641,50.96233333333333,-0.08349999999999991,-0.08999999999999986,0.102815,0.10824500000000001,0.0,218.81,218.78,215.56333333333333,215.56333333333333,0.0,0.0
33,0.0,1.0,0.0,1.0,1.0,0.0,0.0,1.0,0.0,100.0,1.0,1.1856,26.0,0.0,0.0,0.0,51.999998,0.0,26.0,26.0,26.0,26.0,-0.06933333333333336,0.25970000000000004,-0.0257,291.397,-2.6586,-2.7294444444444443,-1.56355,-1.5833,-163.88,215.97,190.2555,0.0,0.0,0.0,0.0,0.06659999999999999,-5.498166666666667,-5.498166666666667,-0.6099,-0.3256666666666667,-0.07799999999999985,0.1439999999999999,70.024,-0.0546,-0.214175,0.4299999999999997,100.0,1.0,1.0,215.80666666666667,0.0,0.0,0.0,0.0,0.0,0.0,0.0,9147.3,0.0,55.0,5.0,252.06,1.0,0.0,0.0,0.0,0.0,0.0,1.0,0.0,1.6529999999999987,1.6529999999999987,0.0,0.0,1.0,55.0,616.79921,10000.0,85.000001,85.000001,85.000001,85.000001,395.0,0.0,0.0,0.0,1.0,333.33500000000004,51.865,51.865,46.371,46.371,34.0,-26.1675,21.532,-34.166666666666664,27.1675,0.0,1781.995,-0.125,100.0,29.096,28.468,44.649,43.891,0.0,1.0,100.0,0.0,0.0,0.0,0.0,3210.4285714285716,2949.9,4351.25,4238.7,305.2855,305.37825,314.37,314.3855,22.072499999999998,20.6853,22.0923,21.5787,314.999998,314.999998,324.999988,324.999988,99.55858571428571,99.50751666666666,99.56962857142857,99.54891428571429,0.038000000000000256,-0.10266666666666668,-0.17159999999999997,0.057666666666666755,-0.045000000000001705,-0.041666666666671404,1.48,1.499,38.953,30.28333333333333,39.077,35.867,55.676,35.701,60.234,53.335499999999996,53.629999999999995,34.8045,58.79,51.626,52.782,34.345666666666666,58.67,51.012,-0.09599999999999986,-0.07100000000000017,0.10264000000000001,0.10829000000000001,0.0,219.19,219.155,215.80666666666667,215.80666666666667,0.0,0.0
34,0.0,1.0,0.0,1.0,1.0,0.0,0.0,1.0,0.0,100.0,1.0,1.1856,26.0,0.0,0.0,0.0,51.999998,0.0,26.0,26.0,26.0,26.0,-0.060555555555555474,0.2521,-0.07145,291.733,-2.72445,-2.703333333333333,-1.5989499999999999,-1.6051000000000002,-160.3,215.95749999999998,190.22775,0.0,0.0,0.0,0.0,0.06866666666666654,-5.498166666666667,-5.498166666666667,-0.6419,-0.7486666666666666,-0.043625000000000025,1.108,70.151,-0.041,-0.226025,0.1899999999999995,100.0,1.0,1.0,216.2733333333333,0.0,0.0,0.0,0.0,0.0,0.0,0.0,9167.0,0.0,55.0,5.0,252.51999999999998,0.0,0.0,0.0,0.0,0.0,0.0,1.0,0.0,1.7040000000000006,1.7040000000000006,0.0,0.0,0.0,55.0,616.79921,10000.0,85.000001,85.000001,85.000001,85.000001,395.0,0.0,0.0,0.0,1.0,333.33500000000004,51.987,51.987,47.394,47.394,34.0,-25.88,22.32,-30.756666666666664,28.4975,0.0,1781.943,-0.09499999999999886,100.0,28.92,28.059,44.435,43.899,0.0,1.0,100.0,0.0,0.0,0.0,0.0,3177.714285714286,3034.8,4062.25,4194.0,305.143,305.2955,315.0185,314.51525,22.081699999999998,20.6908,22.1027,21.5879,314.999998,314.999998,324.999988,324.999988,99.5586,99.50753333333333,99.56977142857143,99.54907142857142,0.05900000000000016,-0.09066666666666667,-0.15039999999999998,0.08516666666666683,-0.02833333333332888,-0.054999999999999716,1.5175,1.5195,39.010999999999996,30.317333333333334,39.141999999999996,35.9245,55.661,35.74,60.2695,53.3955,53.616,34.8405,58.823,51.6835,52.768,34.379999999999995,58.7,51.068333333333335,-0.09349999999999992,-0.0754999999999999,0.10094500000000001,0.11683500000000001,0.0,219.555,219.54000000000002,216.2733333333333,216.2733333333333,0.0,0.0
35,0.0,1.0,0.0,1.0,1.0,0.0,0.0,1.0,0.0,100.0,1.0,1.1856,26.0,0.0,0.0,0.0,51.999998,0.0,26.0,26.0,26.0,26.0,-0.04055555555555557,0.25239999999999996,-0.072675,291.763,-2.73155,-2.6644444444444444,-1.57305,-1.6085,-156.72,215.9425,190.197875,0.0,0.0,0.0,0.0,0.07076666666666653,-5.498166666666667,-5.498166666666667,-0.6837000000000001,-0.4406666666666667,-0.04800000000000004,-0.9130000000000003,70.279,-0.028800000000000003,-0.23025,0.1479999999999997,100.0,1.0,1.0,216.71333333333334,0.0,0.0,0.0,0.0,0.0,0.0,0.0,9185.6,0.0,55.0,5.0,252.97666666666666,1.0,0.0,0.0,0.0,0.0,0.0,1.0,0.0,1.754999999999999,1.754999999999999,0.0,0.0,1.0,55.0,616.79921,10000.0,85.000001,85.000001,85.000001,85.000001,395.0,0.0,0.0,0.0,1.0,166.665,51.712,51.712,46.814,46.814,34.0,-26.674999999999997,24.176,-30.013333333333335,26.525,0.0,1781.894,-0.10500000000000043,100.0,28.522,28.436,44.097,43.556,0.0,1.0,100.0,0.0,0.0,0.0,0.0,3249.285714285714,3226.6,4104.125,3964.7,305.226,304.50975,314.8915,315.0425,22.0908,20.6964,22.1131,21.597,314.999998,314.999998,324.999988,324.999988,99.5586,99.50755,99.56992857142858,99.54921428571429,0.04933333333333367,-0.08299999999999996,-0.136,0.08416666666666672,-0.041666666666671404,-0.04999999999999716,1.543,1.5545,39.067,30.352666666666664,39.207,35.9815,55.644999999999996,35.7805,60.3045,53.452,53.601,34.8775,58.8555,51.738,52.751999999999995,34.41566666666667,58.7295,51.12133333333333,-0.08850000000000002,-0.06999999999999984,0.09982,0.10692000000000002,0.0,219.96,219.925,216.71333333333334,216.71333333333334,0.0,0.0
