,ABS Active,ABS Enabled,AID Allow Tire Blankets,AID Auto Blip,AID Auto Clutch,AID Auto Shift,AID Fuel Rate,AID Ideal Line,AID Mech Damage,AID Stability,AID Tire Wear Rate,Air Density,Air Temp,Ballast,Best Lap Delta,Best Lap Time,Brake Bias,Brake Pos,Brake Temp FL,Brake Temp FR,Brake Temp RL,Brake Temp RR,CG Accel Lateral,CG Accel Longitudinal,CG Accel Vertical,CG Height,Camber FL,Camber FR,Camber RL,Camber RR,Car Coord X,Car Coord Y,Car Coord Z,Car Damage Front,Car Damage Left,Car Damage Rear,Car Damage Right,Car Pos Norm,Caster FL,Caster FR,Chassis Pitch Angle,Chassis Pitch Rate,Chassis Roll Angle,Chassis Roll Rate,Chassis Velocity X,Chassis Velocity Y,Chassis Velocity Z,Chassis Yaw Rate,Clutch Pos,DRS Active,DRS Available,Drive Train Speed,ERS Heat Charging,ERS Is Charging,ERS Max Energy,ERS Power Level,ERS Recovery Level,Engine Brake Setting,Engine Limiter,Engine RPM,Flags,Fuel Level,Gear,Ground Speed,HR Sample Clock,In Pit,KERS Charge,KERS Deployed Energy,KERS Input,KERS Max Energy,LR Sample Clock,Lap Invalidated,Lap Time,Lap Time2,Last Lap Time,Last Sector Time,MR Sample Clock,Max Fuel,Max Power,Max RPM,Max Sus Travel FL,Max Sus Travel FR,Max Sus Travel RL,Max Sus Travel RR,Max Torque,Max Turbo Boost,Num Tires Off Track,Penalties Enabled,Position,Raw Data Sample Rate,Ride Height FL,Ride Height FR,Ride Height RL,Ride Height RR,Road Temp,Self Align Torque FL,Self Align Torque FR,Self Align Torque RL,Self Align Torque RR,Session Lap Count,Session Time Left,Steering Angle,Surface Grip,Suspension Travel FL,Suspension Travel FR,Suspension Travel RL,Suspension Travel RR,TC Active,TC Enabled,Throttle Pos,Tire Dirt Level FL,Tire Dirt Level FR,Tire Dirt Level RL,Tire Dirt Level RR,Tire Load FL,Tire Load FR,Tire Load RL,Tire Load RR,Tire Loaded Radius FL,Tire Loaded Radius FR,Tire Loaded Radius RL,Tire Loaded Radius RR,Tire Pressure FL,Tire Pressure FR,Tire Pressure RL,Tire Pressure RR,Tire Radius FL,Tire Radius FR,Tire Radius RL,Tire Radius RR,Tire Rubber Grip FL,Tire Rubber Grip FR,Tire Rubber Grip RL,Tire Rubber Grip RR,Tire Slip Angle FL,Tire Slip Angle FR,Tire Slip Angle RL,Tire Slip Angle RR,Tire Slip Ratio FL,Tire Slip Ratio FR,Tire Slip Ratio RL,Tire Slip Ratio RR,Tire Temp Core FL,Tire Temp Core FR,Tire Temp Core RL,Tire Temp Core RR,Tire Temp Inner FL,Tire Temp Inner FR,Tire Temp Inner RL,Tire Temp Inner RR,Tire Temp Middle FL,Tire Temp Middle FR,Tire Temp Middle RL,Tire Temp Middle RR,Tire Temp Outer FL,Tire Temp Outer FR,Tire Temp Outer RL,Tire Temp Outer RR,Toe In FL,Toe In FR,Toe In RL,Toe In RR,Turbo Boost,Wheel Angular Speed FL,Wheel Angular Speed FR,Wheel Angular Speed RL,Wheel Angular Speed RR,Wind Direction,Wind Speed
0,0.0,0.0,0.0,1.0,1.0,0.0,0.0,1.0,0.0,0.0,1.0,1.1856,26.0,0.0,0.0,0.0,59.99999,0.0,26.0,26.0,26.0,26.0,-0.06587500000000002,0.31820000000000004,0.07055,294.022,-2.7229,-2.6550000000000002,-1.5213,-1.5542,-275.77,216.29000000000002,190.988125,0.0,0.0,0.0,0.0,0.0015333333333333865,-5.498166666666667,-5.498166666666667,-0.5503,1.2053333333333334,-0.0024444444444444713,-0.32,65.504,-0.0304,-0.21575,0.9320000000000004,100.0,1.0,1.0,202.24666666666667,0.0,0.0,0.0,0.0,0.0,0.0,0.0,8572.5,0.0,55.0,5.0,235.78333333333333,0.0,0.0,0.0,0.0,0.0,0.0,0.0,0.0,0.0030000000000001137,0.0030000000000001137,0.0,0.0,0.0,55.0,616.79921,10000.0,85.0,85.0,85.0,85.0,395.0,0.0,0.0,0.0,1.0,20.0,52.795,52.795,49.652,49.652,34.0,-26.28,24.18,-29.816666666666663,25.1525,0.0,1783.487,0.7749999999999986,100.0,27.471,26.943,40.582,40.606,0.0,0.0,100.0,0.0,0.0,0.0,0.0,2996.714285714286,3382.8,4068.125,4030.2,305.725,304.10725,314.94075,314.79,21.7999,20.5155,21.7703,21.311700000000002,314.99999,314.99999,324.99998,324.99998,99.56007142857143,99.50726666666667,99.56521428571429,99.54515714285715,-0.00024999999999986144,-0.10399999999999987,-0.15683333333333338,0.06666666666666687,-0.07166666666666544,-0.05333333333332746,1.546,1.6019999999999999,37.248999999999995,29.221666666666664,37.064,34.198499999999996,56.688,34.532,59.076,51.6005,54.573,33.688,57.7035,49.9595,53.725,33.2375,57.668,49.385,-0.008499999999999952,-0.1280000000000001,0.10698,0.10740000000000001,0.0,205.29000000000002,205.20499999999998,202.24666666666667,202.24666666666667,0.0,0.0
1,0.0,0.0,0.0,1.0,1.0,0.0,0.0,1.0,0.0,0.0,1.0,1.1856,26.0,0.0,0.0,0.0,59.999996,0.0,26.0,26.0,26.0,26.0,-0.10449999999999993,0.32699999999999996,0.24707500000000002,292.969,-2.6348,-2.7683,-1.5232999999999999,-1.5554000000000001,-272.03,216.285,190.965625,0.0,0.0,0.0,0.0,0.0036999999999999256,-5.498166666666667,-5.498166666666667,-0.4989,-0.9906666666666667,-0.05844444444444452,-1.076,65.678,-0.053200000000000004,-0.1986,1.452,100.0,1.0,1.0,202.43,0.0,0.0,0.0,0.0,0.0,0.0,0.0,8580.3,0.0,55.0,5.0,236.40666666666667,1.0,0.0,0.0,0.0,0.0,0.0,0.0,0.0,0.05999999999999872,0.05999999999999872,0.0,0.0,1.0,55.0,616.79921,10000.0,85.000001,85.000001,85.000001,85.000001,395.0,0.0,0.0,0.0,1.0,111.11,53.513,53.513,48.248,48.248,34.0,-27.23,18.404,-35.32333333333334,29.35,0.0,1783.432,0.8550000000000004,100.0,27.531,27.001,42.632,41.916,0.0,0.0,100.0,0.0,0.0,0.0,0.0,3148.142857142857,2705.6,4380.875,4714.8,305.3645,306.2205,314.12775,313.08825,21.8111,20.5212,21.7824,21.3219,314.999998,314.999998,324.999988,324.999988,99.56008571428572,99.5073,99.56538571428571,99.54531428571428,-0.007749999999999924,-0.135,-0.19133333333333336,0.038000000000000034,-0.045000000000001705,-0.023333333333326323,1.402,1.4505,37.319,29.257333333333335,37.14,34.262,56.669,34.577,59.126,51.6735,54.554,33.7295,57.7505,50.03,53.706,33.2775,57.712,49.45366666666666,-0.008000000000000007,-0.14300000000000002,0.10516,0.11399500000000001,0.0,205.785,205.65,202.43,202.43,0.0,0.0
2,0.0,0.0,0.0,1.0,1.0,0.0,0.0,1.0,0.0,0.0,1.0,1.1856,26.0,0.0,0.0,0.0,59.999996,0.0,26.0,26.0,26.0,26.0,-0.12387499999999996,0.28690000000000015,-0.032100000000000004,293.686,-2.6085,-2.7905,-1.4919,-1.6043,-268.88,216.2775,190.948,0.0,0.0,0.0,0.0,0.005566666666666609,-5.498166666666667,-5.498166666666667,-0.5513,0.062000000000000055,-0.045111111111111324,1.6360000000000001,65.81,-0.0714,-0.256,1.5760000000000005,100.0,1.0,1.0,203.35,0.0,0.0,0.0,0.0,0.0,0.0,0.0,8619.2,0.0,55.0,5.0,236.88666666666666,0.0,0.0,0.0,0.0,0.0,0.0,0.0,0.0,0.10800000000000054,0.10800000000000054,0.0,0.0,0.0,55.0,616.79921,10000.0,85.000001,85.000001,85.000001,85.000001,395.0,0.0,0.0,0.0,1.0,166.665,52.368,52.368,50.232,50.232,34.0,-30.57,19.796,-29.116666666666667,19.98,0.0,1783.381,0.7749999999999986,100.0,28.285,27.069,42.495000000000005,41.394,0.0,0.0,100.0,0.0,0.0,0.0,0.0,3395.4285714285716,2937.9,3739.625,3678.8,304.5015,305.4345,315.68225,315.773,21.8207,20.5259,21.7922,21.3301,314.999998,314.999998,324.999988,324.999988,99.56008571428572,99.50731666666667,99.56551428571429,99.54544285714286,-0.026999999999999913,-0.15266666666666673,-0.22183333333333333,0.006000000000000005,-0.04833333333333201,-0.036666666666668846,1.6445,1.692,37.379000000000005,29.286666666666665,37.201,34.313,56.656,34.614,59.161500000000004,51.726,54.543,33.7635,57.783500000000004,50.08,53.693,33.31,57.7425,49.503,-0.015000000000000013,-0.13349999999999995,0.102705,0.11205500000000002,0.0,206.20499999999998,206.04500000000002,203.35000000000002,203.35,0.0,0.0
3,0.0,0.0,0.0,1.0,1.0,0.0,0.0,1.0,0.0,0.0,1.0,1.1856,26.0,0.0,0.0,0.0,59.999996,0.0,26.0,26.0,26.0,26.0,-0.13624999999999998,0.3043,0.06355000000000001,293.472,-2.7279999999999998,-2.6914,-1.5087000000000002,-1.5896,-265.91,216.26749999999998,190.930625,0.0,0.0,0.0,0.0,0.0072666666666665325,-5.498166666666667,-5.498166666666667,-0.5113,0.5296666666666667,-0.00855555555555565,0.356,65.944,-0.0843,-0.20090000000000002,1.2040000000000006,100.0,1.0,1.0,203.46,0.0,0.0,0.0,0.0,0.0,0.0,0.0,8624.0,0.0,55.0,5.0,237.37,1.0,0.0,0.0,0.0,0.0,0.0,0.0,0.0,0.1529999999999987,0.1529999999999987,0.0,0.0,1.0,55.0,616.79921,10000.0,85.000001,85.000001,85.000001,85.000001,395.0,0.0,0.0,0.0,1.0,166.665,53.497,53.497,48.263999999999996,48.263999999999996,34.0,-25.6625,18.560000000000002,-34.46666666666666,24.5775,0.0,1783.338,0.620000000000001,100.0,27.987000000000002,26.971,42.35,41.328,0.0,0.0,100.0,0.0,0.0,0.0,0.0,2867.4285714285716,2895.3,4292.375,4223.8,306.0195,305.62375,314.32125,314.41225,21.8295,20.5305,21.8014,21.3379,314.999998,314.999998,324.999988,324.999988,99.56008571428572,99.50731666666667,99.56564285714286,99.54555714285715,-0.014000000000000012,-0.15266666666666673,-0.2031666666666666,0.016000000000000014,-0.05666666666667197,-0.03999999999999915,1.4965,1.532,37.434,29.315333333333335,37.259,34.362,56.641,34.6515,59.196,51.781,54.528,33.7985,57.8155,50.132999999999996,53.678,33.3435,57.772,49.555,-0.03200000000000003,-0.12850000000000006,0.10578000000000001,0.108645,0.0,206.655,206.55,203.46,203.46,0.0,0.0
4,0.0,0.0,0.0,1.0,1.0,0.0,0.0,1.0,0.0,0.0,1.0,1.1856,26.0,0.0,0.0,0.0,59.999996,0.0,26.0,26.0,26.0,26.0,-0.149625,0.2903,-0.02605,293.671,-2.6606,-2.7439,-1.5272000000000001,-1.5969,-262.35,216.2525,190.90975,0.0,0.0,0.0,0.0,0.009333333333333305,-5.498166666666667,-5.498166666666667,-0.5448000000000001,-0.848,-0.07544444444444443,-0.5760000000000001,66.1,-0.08650000000000001,-0.237325,1.152000000000001,100.0,1.0,1.0,204.06,0.0,0.0,0.0,0.0,0.0,0.0,0.0,8649.4,0.0,55.0,5.0,237.93333333333334,0.0,0.0,0.0,0.0,0.0,0.0,0.0,0.0,0.20700000000000074,0.20700000000000074,0.0,0.0,0.0,55.0,616.79921,10000.0,85.000001,85.000001,85.000001,85.000001,395.0,0.0,0.0,0.0,1.0,166.665,53.101,53.101,48.843,48.843,34.0,-28.685000000000002,20.195999999999998,-32.019999999999996,21.095,0.0,1783.283,0.6050000000000004,100.0,27.786,26.72,42.836,41.452,0.0,0.0,100.0,0.0,0.0,0.0,0.0,3194.5714285714284,2990.5,4037.875,3689.0,305.156,305.35675,314.90625,315.653,21.8398,20.535899999999998,21.8127,21.3473,314.999998,314.999998,324.999988,324.999988,99.5601,99.50735,99.5658,99.54571428571428,-0.022499999999999964,-0.14100000000000001,-0.20366666666666666,0.022166666666666668,-0.03499999999999659,-0.060000000000002274,1.564,1.6015,37.498999999999995,29.349333333333334,37.329,34.420500000000004,56.620999999999995,34.695,59.2405,51.844,54.509,33.838499999999996,57.857,50.193,53.658,33.382,57.8105,49.61366666666667,-0.02300000000000002,-0.12250000000000005,0.10163000000000001,0.109575,0.0,207.04500000000002,206.95499999999998,204.06,204.06,0.0,0.0
5,0.0,0.0,0.0,1.0,1.0,0.0,0.0,1.0,0.0,0.0,1.0,1.1856,26.0,0.0,0.0,0.0,59.999996,0.0,26.0,26.0,26.0,26.0,-0.13724999999999998,0.2813000000000001,-0.0198,293.701,-2.6676,-2.7691,-1.5066000000000002,-1.5891000000000002,-259.17,216.235,190.8905,0.0,0.0,0.0,0.0,0.011199999999999988,-5.498166666666667,-5.498166666666667,-0.5368,0.492,-0.0815555555555556,1.1340000000000001,66.237,-0.0898,-0.2147,1.0460000000000012,100.0,1.0,1.0,204.45333333333332,0.0,0.0,0.0,0.0,0.0,0.0,0.0,8666.0,0.0,55.0,5.0,238.42333333333335,1.0,0.0,0.0,0.0,0.0,0.0,0.0,0.0,0.254999999999999,0.254999999999999,0.0,0.0,1.0,55.0,616.79921,10000.0,85.000001,85.000001,85.000001,85.000001,395.0,0.0,0.0,0.0,1.0,166.665,53.467,53.467,49.072,49.072,34.0,-27.3975,19.716,-32.8,23.5425,0.0,1783.234,0.33000000000000185,100.0,27.937,26.619,42.592,41.09,0.0,0.0,100.0,0.0,0.0,0.0,0.0,3090.4285714285716,2844.0,4125.5,4075.2,305.3605,305.85025,314.79,314.79025,21.8493,20.5407,21.822499999999998,21.3554,314.999998,314.999998,324.999988,324.999988,99.5601,99.50735,99.56592857142857,99.54584285714286,-0.012249999999999872,-0.1286666666666667,-0.20766666666666667,0.018333333333333313,-0.05333333333332746,-0.054999999999999716,1.532,1.563,37.558,29.379333333333335,37.391,34.4715,56.607,34.7335,59.2775,51.897999999999996,54.495000000000005,33.874,57.891999999999996,50.2445,53.644,33.4155,57.843,49.664,-0.04799999999999993,-0.09549999999999992,0.106495,0.10788500000000001,0.0,207.54500000000002,207.45,204.45333333333332,204.45333333333332,0.0,0.0
6,0.0,0.0,0.0,1.0,1.0,0.0,0.0,1.0,0.0,0.0,1.0,1.1856,26.0,0.0,0.0,0.0,59.999996,0.0,26.0,26.0,26.0,26.0,-0.10599999999999998,0.28880000000000017,-0.0056500000000000005,293.442,-2.6418,-2.7401,-1.5551,-1.5823,-255.79,216.2125,190.87,0.0,0.0,0.0,0.0,0.013166666666666549,-5.498166666666667,-5.498166666666667,-0.5306000000000001,0.07200000000000006,-0.06333333333333346,-0.48,66.384,-0.0847,-0.21465,0.7940000000000005,100.0,1.0,1.0,204.87,0.0,0.0,0.0,0.0,0.0,0.0,0.0,8683.7,0.0,55.0,5.0,238.95333333333332,0.0,0.0,0.0,0.0,0.0,0.0,0.0,0.0,0.30600000000000094,0.30600000000000094,0.0,0.0,0.0,55.0,616.79921,10000.0,85.000001,85.000001,85.000001,85.000001,395.0,0.0,0.0,0.0,1.0,111.11,53.131,53.131,48.706,48.706,34.0,-27.895,20.282,-33.63666666666666,23.1475,0.0,1783.184,-0.014999999999998792,100.0,27.664,26.88,42.66,41.577,0.0,0.0,100.0,0.0,0.0,0.0,0.0,3211.4285714285716,2901.1,4133.125,3993.6000000000004,305.1385,305.46,314.8125,314.90375,21.8592,20.5458,21.8331,21.3644,314.999998,314.999998,324.999988,324.999988,99.5601,99.50736666666667,99.56607142857143,99.54598571428572,-0.0044999999999999485,-0.1253333333333333,-0.21283333333333332,0.022499999999999964,-0.03833333333332689,-0.054999999999999716,1.5474999999999999,1.5765,37.620000000000005,29.411666666666665,37.457,34.5275,56.59,34.7735,59.3185,51.9595,54.480000000000004,33.911,57.93,50.3035,53.628,33.451,57.878,49.721666666666664,-0.06899999999999995,-0.07850000000000001,0.11059000000000001,0.11153500000000001,0.0,207.965,207.9,204.87,204.87,0.0,0.0
7,0.0,0.0,0.0,1.0,1.0,0.0,0.0,1.0,0.0,0.0,1.0,1.1856,26.0,0.0,0.0,0.0,59.999996,0.0,26.0,26.0,26.0,26.0,-0.08262499999999995,0.28059999999999996,0.01855,293.167,-2.6138,-2.7302,-1.513,-1.5707,-252.6,216.19,190.85075,0.0,0.0,0.0,0.0,0.014999999999999902,-5.498166666666667,-5.498166666666667,-0.5346000000000001,-0.050999999999999934,-0.052999999999999936,-0.266,66.522,-0.069,-0.22305,0.4239999999999995,100.0,1.0,1.0,205.26666666666665,0.0,0.0,0.0,0.0,0.0,0.0,0.0,8700.5,0.0,55.0,5.0,239.45,1.0,0.0,0.0,0.0,0.0,0.0,0.0,0.0,0.3539999999999992,0.3539999999999992,0.0,0.0,1.0,55.0,616.79921,10000.0,85.000001,85.000001,85.000001,85.000001,395.0,0.0,0.0,0.0,1.0,166.665,52.78,52.78,48.813,48.813,34.0,-27.3975,21.874000000000002,-31.78333333333333,24.0825,0.0,1783.137,-0.21999999999999886,100.0,27.768,26.935,42.734,41.85,0.0,0.0,100.0,0.0,0.0,0.0,0.0,3325.4285714285716,2956.0,4109.75,4053.0,304.7495,305.29875,314.82075,314.7435,21.8686,20.5507,21.843,21.3729,314.999998,314.999998,324.999988,324.999988,99.5601,99.50738333333334,99.56621428571428,99.54611428571428,0.027750000000000163,-0.09466666666666668,-0.18866666666666665,0.03249999999999997,-0.03499999999999659,-0.045000000000001705,1.539,1.5394999999999999,37.679,29.442,37.519,34.5805,56.575,34.8105,59.356,52.0165,54.466,33.945,57.965,50.3585,53.613,33.4835,57.9105,49.775666666666666,-0.09150000000000003,-0.05699999999999994,0.10800000000000001,0.10212,0.0,208.35500000000002,208.315,205.26666666666665,205.26666666666665,0.0,0.0
8,0.0,0.0,0.0,1.0,1.0,0.0,0.0,1.0,0.0,0.0,1.0,1.1856,26.0,0.0,0.0,0.0,59.999996,0.0,26.0,26.0,26.0,26.0,-0.043749999999999956,0.2914000000000001,-0.033975,293.457,-2.7002,-2.7128,-1.5005000000000002,-1.5751,-249.0,216.1625,190.829,0.0,0.0,0.0,0.0,0.017100000000000004,-5.498166666666667,-5.498166666666667,-0.5351,-0.5056666666666667,-0.03355555555555556,-0.47900000000000004,66.67699999999999,-0.0475,-0.21482500000000002,-0.0039999999999995595,100.0,1.0,1.0,205.68333333333334,0.0,0.0,0.0,0.0,0.0,0.0,0.0,8718.2,0.0,55.0,5.0,240.00666666666666,0.0,0.0,0.0,0.0,0.0,0.0,0.0,0.0,0.40800000000000125,0.40800000000000125,0.0,0.0,0.0,55.0,616.79921,10000.0,85.000001,85.000001,85.000001,85.000001,395.0,0.0,0.0,0.0,1.0,166.665,53.68,53.68,48.141,48.141,34.0,-23.975,21.716,-31.339999999999996,26.689999999999998,0.0,1783.082,-0.33999999999999986,100.0,27.401,26.916,42.699,41.974000000000004,0.0,0.0,100.0,0.0,0.0,0.0,0.0,2970.142857142857,2902.3,4177.625,4105.7,305.9005,305.47275,314.63,314.55325,21.8789,20.5562,21.8541,21.3824,314.999998,314.999998,324.999988,324.999988,99.5601,99.5074,99.56635714285714,99.54625714285714,0.04475000000000007,-0.08333333333333326,-0.16700000000000004,0.07016666666666671,-0.05333333333332746,-0.04333333333332945,1.5085,1.5065,37.742999999999995,29.476333333333336,37.588,34.64,56.557,34.851,59.397999999999996,52.0805,54.448,33.982,58.0045,50.42,53.595,33.519,57.9465,49.83566666666667,-0.10199999999999998,-0.04849999999999999,0.11411,0.11009500000000001,0.0,208.82,208.81,205.68333333333334,205.68333333333334,0.0,0.0
9,0.0,0.0,0.0,1.0,1.0,0.0,0.0,1.0,0.0,0.0,1.0,1.1856,26.0,0.0,0.0,0.0,59.999996,0.0,26.0,26.0,26.0,26.0,-0.013375000000000026,0.28400000000000003,-0.01615,293.121,-2.6843,-2.7205,-1.5531000000000001,-1.5556999999999999,-245.8,216.1375,190.809125,0.0,0.0,0.0,0.0,0.018966666666666576,-5.498166666666667,-5.498166666666667,-0.5422,0.6320000000000001,-0.03611111111111098,-0.4,66.81,-0.0273,-0.217125,-0.10599999999999987,100.0,1.0,1.0,206.22,0.0,0.0,0.0,0.0,0.0,0.0,0.0,8740.9,0.0,55.0,5.0,240.48666666666668,1.0,0.0,0.0,0.0,0.0,0.0,0.0,0.0,0.4559999999999995,0.4559999999999995,0.0,0.0,1.0,55.0,616.79921,10000.0,85.000001,85.000001,85.000001,85.000001,395.0,0.0,0.0,0.0,1.0,166.665,52.382999999999996,52.382999999999996,49.164,49.164,34.0,-26.68,23.65,-28.273333333333333,26.060000000000002,0.0,1783.036,-0.5099999999999998,100.0,27.875,27.363,42.389,41.975,0.0,0.0,100.0,0.0,0.0,0.0,0.0,3379.714285714286,2999.5,4005.875,4020.8,304.6695,305.11275,315.1375,314.86225,21.8882,20.5613,21.8639,21.3908,314.999998,314.999998,324.999988,324.999988,99.56011428571429,99.5074,99.5665,99.5464,0.06725000000000003,-0.05966666666666676,-0.1303333333333333,0.0838333333333332,-0.054999999999999716,-0.060000000000002274,1.5735,1.5775,37.801,29.508,37.649,34.692,56.544,34.888,59.432,52.1365,54.435,34.0165,58.036,50.4735,53.581,33.552,57.9755,49.888,-0.11499999999999999,-0.038000000000000034,0.09749000000000001,0.106035,0.0,209.26999999999998,209.26,206.22,206.22,0.0,0.0
10,0.0,0.0,0.0,1.0,1.0,0.0,0.0,1.0,0.0,0.0,1.0,1.1856,26.0,0.0,0.0,0.0,59.999996,0.0,26.0,26.0,26.0,26.0,0.014499999999999957,0.2841,-0.025825,293.015,-2.7062,-2.7003,-1.5417,-1.5316,-242.19,216.11,190.787125,0.0,0.0,0.0,0.0,0.021066666666666567,-5.498166666666667,-5.498166666666667,-0.5201,-0.5893333333333333,0.010777777777777775,0.34700000000000003,66.96600000000001,-0.005200000000000001,-0.20972500000000002,-0.492,100.0,1.0,1.0,206.48666666666668,0.0,0.0,0.0,0.0,0.0,0.0,0.0,8752.3,0.0,55.0,5.0,241.04666666666668,0.0,0.0,0.0,0.0,0.0,0.0,1.0,0.0,0.509999999999998,0.509999999999998,0.0,0.0,0.0,55.0,616.79921,10000.0,85.000001,85.000001,85.000001,85.000001,395.0,0.0,0.0,0.0,1.0,111.11,53.528,53.528,47.638,47.638,34.0,-21.165,22.887999999999998,-30.25,29.4525,0.0,1782.981,-0.5999999999999996,100.0,27.669,27.333,42.817,42.775,0.0,0.0,100.0,0.0,0.0,0.0,0.0,2873.4285714285716,2878.7,4281.375,4254.2,306.1875,305.53075,314.41425,314.216,21.898600000000002,20.5669,21.8751,21.4005,314.999998,314.999998,324.999988,324.999988,99.56012857142858,99.5074,99.56664285714285,99.54654285714285,0.0950000000000002,-0.045333333333333226,-0.1173333333333334,0.10949999999999993,-0.045000000000001705,-0.01666666666666572,1.4909999999999999,1.4785,37.866,29.543,37.72,34.753,56.528999999999996,34.9265,59.4755,52.204,54.421,34.052,58.076499999999996,50.5385,53.566,33.5865,58.0125,49.95166666666667,-0.129,-0.026499999999999968,0.104925,0.10572500000000001,0.0,209.71,209.715,206.48666666666668,206.48666666666668,0.0,0.0
11,0.0,0.0,0.0,1.0,1.0,0.0,0.0,1.0,0.0,0.0,1.0,1.1856,26.0,0.0,0.0,0.0,59.999996,0.0,26.0,26.0,26.0,26.0,0.02825000000000011,0.2741,-0.068025,293.503,-2.7068,-2.6851000000000003,-1.5542,-1.5231,-239.17000000000002,216.085,190.768875,0.0,0.0,0.0,0.0,0.022599999999999953,-5.498166666666667,-5.498166666666667,-0.5607,-0.33499999999999996,0.03488888888888897,0.43,67.088,0.0118,-0.23897500000000002,-0.6360000000000001,100.0,1.0,1.0,207.16,0.0,0.0,0.0,0.0,0.0,0.0,0.0,8780.7,0.0,55.0,5.0,241.48666666666668,1.0,0.0,0.0,0.0,0.0,0.0,1.0,0.0,0.5549999999999997,0.5549999999999997,0.0,0.0,1.0,55.0,616.79921,10000.0,85.000001,85.000001,85.000001,85.000001,395.0,0.0,0.0,0.0,1.0,166.665,52.841,52.841,49.24,49.24,34.0,-21.8275,26.724,-23.4,27.0275,0.0,1782.934,-0.5800000000000001,100.0,27.578,27.413,42.43,42.627,0.0,0.0,100.0,0.0,0.0,0.0,0.0,2995.142857142857,3191.4,3655.375,3878.4,305.6925,304.69975,315.9285,315.226,21.9071,20.5717,21.8842,21.4084,314.999998,314.999998,324.999988,324.999988,99.56012857142858,99.50741666666667,99.56677142857143,99.54667142857143,0.10850000000000026,-0.01633333333333331,-0.09066666666666656,0.14050000000000007,-0.04333333333332945,-0.054999999999999716,1.642,1.621,37.919,29.573,37.777,34.8025,56.515,34.96,59.504999999999995,52.2565,54.408,34.083,58.104,50.589,53.553,33.616,58.038,50.001333333333335,-0.122,-0.02499999999999991,0.10363000000000001,0.10894500000000001,0.0,210.07,210.10500000000002,207.16,207.16,0.0,0.0
12,0.0,0.0,0.0,1.0,1.0,0.0,0.0,1.0,0.0,0.0,1.0,1.1856,26.0,0.0,0.0,0.0,59.999996,0.0,26.0,26.0,26.0,26.0,0.046499999999999986,0.2865,0.006900000000000001,292.984,-2.7629,-2.6794000000000002,-1.5542,-1.5228000000000002,-235.95,216.06,190.748125,0.0,0.0,0.0,0.0,0.025466666666666526,-5.498166666666667,-5.498166666666667,-0.5458000000000001,0.3296666666666668,0.02211111111111097,0.628,67.224,0.0292,-0.205575,-0.7860000000000005,100.0,1.0,1.0,207.37333333333333,0.0,0.0,0.0,0.0,0.0,0.0,0.0,8789.8,0.0,55.0,5.0,241.97666666666666,0.0,0.0,0.0,0.0,0.0,0.0,1.0,0.0,0.602999999999998,0.602999999999998,0.0,0.0,0.0,55.0,616.79921,10000.0,85.000001,85.000001,85.000001,85.000001,395.0,0.0,0.0,0.0,1.0,166.665,52.887,52.887,47.943,47.943,34.0,-22.4625,26.566,-26.64333333333333,31.4875,0.0,1782.887,-0.34499999999999886,100.0,27.456,27.564,42.336,42.515,0.0,0.0,100.0,0.0,0.0,0.0,0.0,3007.714285714286,3191.0,4156.875,4223.7,305.668,304.736,314.70275,314.428,21.9161,20.5768,21.894,21.4168,314.999998,314.999998,324.999988,324.999988,99.56014285714286,99.50741666666667,99.56691428571429,99.5468,0.10749999999999993,-0.018000000000000016,-0.0678333333333333,0.16066666666666674,-0.03833333333332689,-0.05833333333333002,1.5305,1.5005,37.976,29.605333333333334,37.838,34.8555,56.503,34.9955,59.5405,52.3135,54.396,34.1155,58.137,50.644,53.54,33.6475,58.067499999999995,50.055,-0.10549999999999993,-0.04200000000000004,0.10501500000000001,0.109405,0.0,210.5,210.57,207.37333333333333,207.37333333333333,0.0,0.0
13,0.0,0.0,0.0,1.0,1.0,0.0,0.0,1.0,0.0,0.0,1.0,1.1856,26.0,0.0,0.0,0.0,59.999996,0.0,26.0,26.0,26.0,26.0,0.06824999999999992,0.2833000000000001,0.054775000000000004,292.542,-2.7335,-2.6762,-1.5895000000000001,-1.5096,-232.31,216.035,190.725125,0.0,0.0,0.0,0.0,0.026799999999999935,-5.498166666666667,-5.498166666666667,-0.5377000000000001,-0.09799999999999998,0.023666666666666725,1.076,67.375,0.037000000000000005,-0.21350000000000002,-0.7960000000000003,100.0,1.0,1.0,207.76999999999998,0.0,0.0,0.0,0.0,0.0,0.0,0.0,8806.6,0.0,55.0,5.0,242.52333333333334,1.0,0.0,0.0,0.0,0.0,0.0,1.0,0.0,0.657,0.657,0.0,0.0,1.0,55.0,616.79921,10000.0,85.000001,85.000001,85.000001,85.000001,395.0,0.0,0.0,0.0,1.0,166.665,52.536,52.536,47.867,47.867,34.0,-20.7375,27.808,-26.67,32.94,0.0,1782.833,-0.8300000000000001,100.0,27.783,27.76,42.587,43.016,0.0,0.0,100.0,0.0,0.0,0.0,0.0,3057.0,3180.6,4154.125,4363.9,305.491,304.758,314.6645,314.06875,21.9264,20.5827,21.9051,21.4266,314.999998,314.999998,324.999988,324.999988,99.56017142857142,99.50741666666667,99.56705714285714,99.54695714285714,0.15200000000000014,0.015000000000000124,-0.05566666666666664,0.1648333333333334,-0.04333333333332945,-0.07000000000000028,1.496,1.4789999999999999,38.04,29.641666666666666,37.907,34.916,56.489999999999995,35.0355,59.5815,52.3815,54.384,34.153,58.175,50.709,53.527,33.683,58.1025,50.119,-0.14700000000000002,-0.009000000000000119,0.10125500000000001,0.111445,0.0,210.97500000000002,211.01999999999998,207.76999999999998,207.76999999999998,0.0,0.0
14,0.0,0.0,0.0,1.0,1.0,0.0,0.0,1.0,0.0,0.0,1.0,1.1856,26.0,0.0,0.0,0.0,59.999996,0.0,26.0,26.0,26.0,26.0,0.10424999999999995,0.2812000000000001,-0.013025,292.801,-2.7405,-2.6117,-1.6006,-1.5098,-228.87,216.01,190.703875,0.0,0.0,0.0,0.0,0.028799999999999937,-5.498166666666667,-5.498166666666667,-0.5493,-0.18633333333333335,0.052000000000000046,-0.058,67.515,0.047900000000000005,-0.22912500000000002,-0.9699999999999998,100.0,1.0,1.0,208.3,0.0,0.0,0.0,0.0,0.0,0.0,0.0,8829.0,0.0,55.0,5.0,243.02333333333334,0.0,0.0,0.0,0.0,0.0,0.0,1.0,0.0,0.7079999999999984,0.7079999999999984,0.0,0.0,0.0,55.0,616.79921,10000.0,85.000001,85.000001,85.000001,85.000001,395.0,0.0,0.0,0.0,1.0,111.11,52.597,52.597,48.126,48.126,34.0,-20.49,27.68,-25.18333333333333,30.895,0.0,1782.784,-0.9649999999999999,100.0,27.552,28.017,42.459,43.311,0.0,0.0,100.0,0.0,0.0,0.0,0.0,3036.857142857143,3170.2,3983.75,4153.2,305.7275,304.62675,315.15775,314.51625,21.936,20.5882,21.9155,21.4357,314.999998,314.999998,324.999988,324.999988,99.56018571428571,99.50743333333334,99.5672,99.5471,0.1512500000000001,0.022666666666666835,-0.056333333333333346,0.16399999999999992,-0.051666666666669414,-0.045000000000001705,1.565,1.5205,38.099999999999994,29.676333333333332,37.972,34.9735,56.479,35.073499999999996,59.6175,52.4435,54.373999999999995,34.188,58.2085,50.769,53.515,33.717,58.132999999999996,50.178,-0.15249999999999997,-0.0004999999999999449,0.10622000000000001,0.10376,0.0,211.39,211.445,208.3,208.3,0.0,0.0
15,0.0,0.0,0.0,1.0,1.0,0.0,0.0,1.0,0.0,0.0,1.0,1.1856,26.0,0.0,0.0,0.0,59.999996,0.0,26.0,26.0,26.0,26.0,0.10450000000000004,0.3003,0.0011,292.831,-2.71,-2.5762,-1.6297000000000001,-1.455,-225.82999999999998,215.9925,190.684875,0.0,0.0,0.0,0.0,0.03056666666666652,-5.498166666666667,-5.498166666666667,-0.54,0.3646666666666667,0.08211111111111102,1.224,67.639,0.0637,-0.209675,-1.1879999999999997,100.0,1.0,1.0,208.66,0.0,0.0,0.0,0.0,0.0,0.0,0.0,8844.3,0.0,55.0,5.0,243.47,1.0,0.0,0.0,0.0,0.0,0.0,1.0,0.0,0.7530000000000001,0.7530000000000001,0.0,0.0,1.0,55.0,616.79921,10000.0,85.000001,85.000001,85.000001,85.000001,395.0,0.0,0.0,0.0,1.0,166.665,52.78,52.78,48.233000000000004,48.233000000000004,34.0,-18.24,27.924,-24.076666666666668,33.4675,0.0,1782.737,-0.9649999999999999,100.0,27.72,27.889,42.277,43.232,0.0,0.0,100.0,0.0,0.0,0.0,0.0,2817.142857142857,3223.4,3947.125,4371.8,306.148,304.634,315.2265,314.0965,21.944499999999998,20.5931,21.924599999999998,21.4438,314.999998,314.999998,324.999988,324.999988,99.5602,99.50743333333334,99.56732857142858,99.54722857142858,0.16425,0.028666666666666618,-0.031166666666666565,0.19333333333333336,-0.03999999999999915,-0.04333333333332945,1.5625,1.5265,38.153,29.707,38.028999999999996,35.0235,56.47,35.1075,59.6485,52.499,54.364999999999995,34.2195,58.237,50.8225,53.504999999999995,33.747,58.159,50.230333333333334,-0.15049999999999997,-0.006000000000000005,0.10408500000000001,0.11069000000000001,0.0,211.785,211.85500000000002,208.66,208.66,0.0,0.0
16,0.0,0.0,0.0,1.0,1.0,0.0,0.0,1.0,0.0,0.0,1.0,1.1856,26.0,0.0,0.0,0.0,59.999996,0.0,26.0,26.0,26.0,26.0,0.1260000000000001,0.2661,-0.0488,292.801,-2.8056,-2.5819,-1.5998,-1.5139,-221.97,215.9725,190.660125,0.0,0.0,0.0,0.0,0.03283333333333338,-5.498166666666667,-5.498166666666667,-0.5630000000000001,-0.681,0.06666666666666665,-1.131,67.795,0.07440000000000001,-0.22755,-1.1520000000000001,100.0,1.0,1.0,209.15,0.0,0.0,0.0,0.0,0.0,0.0,0.0,8865.1,0.0,55.0,5.0,244.03333333333336,0.0,0.0,0.0,0.0,0.0,0.0,1.0,0.0,0.8099999999999987,0.8099999999999987,0.0,0.0,0.0,55.0,616.79921,10000.0,85.000001,85.000001,85.000001,85.000001,395.0,0.0,0.0,0.0,1.0,111.11,52.521,52.521,47.989,47.989,34.0,-20.865,28.924,-23.26333333333333,32.2375,0.0,1782.681,-0.9149999999999991,100.0,27.225,28.163,42.453,43.484,0.0,0.0,100.0,0.0,0.0,0.0,0.0,3089.5714285714284,3247.1,3922.5,4092.4,305.7095,304.427,315.3095,314.63775,21.9549,20.5994,21.9363,21.454,314.999998,314.999998,324.999988,324.999988,99.56022857142857,99.50743333333334,99.56748571428571,99.5474,0.16300000000000026,0.04133333333333322,-0.02749999999999997,0.20050000000000012,-0.023333333333326323,-0.05666666666667197,1.5705,1.529,38.218,29.746333333333332,38.102000000000004,35.088,56.454,35.152,59.6905,52.5685,54.349999999999994,34.2605,58.275999999999996,50.8895,53.489000000000004,33.786500000000004,58.194,50.29666666666667,-0.14949999999999997,-0.0004999999999999449,0.10701500000000001,0.10731500000000001,0.0,212.215,212.31,209.15,209.15,0.0,0.0
17,0.0,0.0,0.0,1.0,1.0,0.0,0.0,1.0,0.0,0.0,1.0,1.1856,26.0,0.0,0.0,0.0,59.999996,0.0,26.0,26.0,26.0,26.0,0.11837500000000012,0.29110000000000014,0.013875,292.465,-2.7667,-2.5627,-1.6397,-1.4758,-218.71,215.96,190.638875,0.0,0.0,0.0,0.0,0.03469999999999995,-5.498166666666667,-5.498166666666667,-0.5497000000000001,0.5116666666666667,0.046222222222222165,-0.665,67.926,0.0781,-0.20555,-1.1179999999999994,100.0,1.0,1.0,209.49333333333334,0.0,0.0,0.0,0.0,0.0,0.0,0.0,8879.6,0.0,55.0,5.0,244.50333333333333,1.0,0.0,0.0,0.0,0.0,0.0,1.0,0.0,0.8580000000000005,0.8580000000000005,0.0,0.0,1.0,55.0,616.79921,10000.0,85.000001,85.000001,85.000001,85.000001,395.0,0.0,0.0,0.0,1.0,166.665,52.429,52.429,47.76,47.76,34.0,-20.265,26.97,-26.20666666666667,33.254999999999995,0.0,1782.633,-0.9550000000000001,100.0,27.68,28.406,42.232,43.455,0.0,0.0,100.0,0.0,0.0,0.0,0.0,3105.142857142857,3080.8,4278.75,4275.4,305.5795,304.93725,314.583,314.2935,21.964,20.6048,21.945999999999998,21.4626,314.999998,314.999998,324.999988,324.999988,99.56024285714285,99.50745,99.56761428571428,99.54754285714286,0.1732499999999999,0.039000000000000146,-0.024333333333333318,0.1968333333333332,-0.03999999999999915,-0.07166666666666544,1.5445,1.498,38.275,29.78,38.162,35.1415,56.446,35.1905,59.7235,52.627,54.342,34.2965,58.307,50.946,53.480000000000004,33.821,58.222,50.35166666666667,-0.15400000000000003,-0.0035000000000000586,0.11031,0.10669000000000001,0.0,212.66,212.765,209.49333333333334,209.49333333333334,0.0,0.0
18,0.0,0.0,0.0,1.0,1.0,0.0,0.0,1.0,0.0,0.0,1.0,1.1856,26.0,0.0,0.0,0.0,59.999996,0.0,26.0,26.0,26.0,26.0,0.13537500000000002,0.27449999999999997,-0.033825,292.48,-2.7996,-2.5369,-1.6567,-1.4215,-215.45,215.9475,190.617875,0.0,0.0,0.0,0.0,0.036599999999999966,-5.498166666666667,-5.498166666666667,-0.5596,-0.5526666666666666,0.07122222222222208,-0.167,68.056,0.082,-0.22235000000000002,-1.2479999999999993,100.0,1.0,1.0,209.90666666666667,0.0,0.0,0.0,0.0,0.0,0.0,0.0,8897.2,0.0,55.0,5.0,244.97333333333336,0.0,0.0,0.0,0.0,0.0,0.0,1.0,0.0,0.9059999999999988,0.9059999999999988,0.0,0.0,0.0,55.0,616.79921,10000.0,85.000001,85.000001,85.000001,85.000001,395.0,0.0,0.0,0.0,1.0,166.665,52.382999999999996,52.382999999999996,47.699,47.699,34.0,-19.94,29.381999999999998,-25.130000000000003,31.9575,0.0,1782.584,-1.2449999999999992,100.0,27.446,28.246000000000002,42.556,43.844,0.0,0.0,100.0,0.0,0.0,0.0,0.0,3083.285714285714,3277.2,4054.5,4184.8,305.6945,304.37975,315.04875,314.4845,21.9729,20.6101,21.9559,21.4714,314.999998,314.999998,324.999988,324.999988,99.56027142857143,99.50745,99.56775714285715,99.54767142857143,0.18274999999999997,0.05566666666666675,-0.03149999999999997,0.20316666666666672,-0.041666666666671404,-0.03999999999999915,1.5735,1.519,38.33,29.813000000000002,38.224000000000004,35.196,56.436,35.228,59.759,52.6875,54.332,34.331,58.34,51.004,53.469,33.8545,58.251999999999995,50.40866666666666,-0.17299999999999993,0.01849999999999996,0.11052500000000001,0.11040000000000001,0.0,213.025,213.125,209.90666666666667,209.90666666666667,0.0,0.0
19,0.0,0.0,0.0,1.0,1.0,0.0,0.0,1.0,0.0,0.0,1.0,1.1856,26.0,0.0,0.0,0.0,59.999996,0.0,26.0,26.0,26.0,26.0,0.16312499999999996,0.28600000000000003,0.02145,292.053,-2.7721999999999998,-2.5206,-1.6757,-1.4004,-212.18,215.94,190.5965,0.0,0.0,0.0,0.0,0.03849999999999998,-5.498166666666667,-5.498166666666667,-0.5528000000000001,0.8240000000000001,0.08488888888888879,-0.343,68.185,0.0921,-0.212125,-1.5899999999999999,100.0,1.0,1.0,210.32333333333332,0.0,0.0,0.0,0.0,0.0,0.0,0.0,8914.8,0.0,55.0,5.0,245.43666666666667,1.0,0.0,0.0,0.0,0.0,0.0,1.0,0.0,0.9540000000000006,0.9540000000000006,0.0,0.0,1.0,55.0,616.79921,10000.0,85.000001,85.000001,85.000001,85.000001,395.0,0.0,0.0,0.0,1.0,166.665,51.666,51.666,47.684,47.684,34.0,-19.0525,30.426000000000002,-25.10333333333333,34.167500000000004,0.0,1782.537,-1.4800000000000004,100.0,27.925,28.766,42.245000000000005,43.818,0.0,0.0,100.0,0.0,0.0,0.0,0.0,3139.285714285714,3321.3,4142.5,4362.9,305.4115,304.14225,314.90275,314.12425,21.9819,20.6156,21.9655,21.48,314.999998,314.999998,324.999988,324.999988,99.56028571428571,99.50746666666667,99.56788571428571,99.54781428571428,0.2084999999999999,0.06933333333333369,-0.01416666666666666,0.21966666666666668,-0.04833333333333201,-0.06833333333332803,1.5655,1.5,38.387,29.84733333333333,38.285,35.25,56.43,35.2695,59.791,52.746,54.325,34.3695,58.3695,51.061,53.461,33.8915,58.2785,50.464666666666666,-0.19499999999999995,0.030000000000000027,0.10897000000000001,0.10191000000000001,0.0,213.465,213.59,210.32333333333332,210.32333333333332,0.0,0.0
20,0.0,0.0,0.0,1.0,1.0,0.0,0.0,1.0,0.0,0.0,1.0,1.1856,26.0,0.0,0.0,0.0,59.999996,0.0,26.0,26.0,26.0,26.0,0.1921250000000001,0.27570000000000006,0.047900000000000005,292.282,-2.8245,-2.5816,-1.611,-1.4017,-208.7,215.9375,190.57425,0.0,0.0,0.0,0.0,0.04053333333333331,-5.498166666666667,-5.498166666666667,-0.552,-1.1763333333333335,0.09855555555555551,0.683,68.325,0.1075,-0.218425,-2.047999999999999,100.0,1.0,1.0,210.59,0.0,0.0,0.0,0.0,0.0,0.0,0.0,8926.2,0.0,55.0,5.0,245.94,0.0,0.0,0.0,0.0,0.0,0.0,0.0,0.0,1.004999999999999,1.004999999999999,0.0,0.0,0.0,55.0,616.79921,10000.0,85.000001,85.000001,85.000001,85.000001,395.0,0.0,0.0,0.0,1.0,166.665,52.872,52.872,46.783,46.783,34.0,-15.314999999999998,31.782,-22.799999999999997,37.04,0.0,1782.484,-1.7699999999999996,100.0,27.428,28.395,42.851,44.278999999999996,0.0,0.0,100.0,0.0,0.0,0.0,0.0,2739.714285714286,3275.1,4107.75,4490.1,306.6095,304.50225,314.747,313.76875,21.9911,20.6213,21.9761,21.4894,314.999998,314.999998,324.999988,324.999988,99.56031428571428,99.50748333333334,99.56804285714286,99.54797142857143,0.2432500000000002,0.1080000000000001,0.017166666666666552,0.24283333333333323,-0.023333333333326323,-0.05333333333332746,1.4969999999999999,1.442,38.444,29.883,38.35,35.309,56.419,35.3125,59.8305,52.8125,54.315,34.4095,58.406,51.125,53.449,33.93,58.312,50.52766666666667,-0.21050000000000002,0.05699999999999994,0.11340000000000001,0.10322,0.0,213.82999999999998,213.96,210.59,210.59,0.0,0.0
21,0.0,0.0,0.0,1.0,1.0,0.0,0.0,1.0,0.0,0.0,1.0,1.1856,26.0,0.0,0.0,0.0,59.999996,0.0,26.0,26.0,26.0,26.0,0.20812500000000012,0.2670000000000001,-0.053575000000000005,292.648,-2.7462,-2.6261,-1.6822,-1.466,-205.42000000000002,215.9375,190.552625,0.0,0.0,0.0,0.0,0.04243333333333332,-5.498166666666667,-5.498166666666667,-0.5812,0.44599999999999995,0.09055555555555572,0.378,68.44800000000001,0.1265,-0.22990000000000002,-2.306,100.0,1.0,1.0,211.26333333333332,0.0,0.0,0.0,0.0,0.0,0.0,0.0,8954.7,0.0,55.0,5.0,246.38333333333333,1.0,0.0,0.0,0.0,0.0,0.0,0.0,0.0,1.0530000000000008,1.0530000000000008,0.0,0.0,1.0,55.0,616.79921,10000.0,85.000001,85.000001,85.000001,85.000001,395.0,0.0,0.0,0.0,1.0,166.665,52.094,52.094,48.385999999999996,48.385999999999996,34.0,-16.002499999999998,33.022,-19.923333333333332,34.6325,0.0,1782.437,-1.5250000000000004,100.0,27.725,28.673000000000002,42.096000000000004,43.94,0.0,0.0,100.0,0.0,0.0,0.0,0.0,2918.285714285714,3330.4,3829.0,4098.6,305.8865,304.2345,315.633,314.76375,21.9999,20.6268,21.985599999999998,21.498,314.999998,314.999998,324.999988,324.999988,99.56034285714286,99.50748333333334,99.56817142857143,99.54811428571429,0.24175000000000013,0.10966666666666658,0.043500000000000094,0.26849999999999996,-0.041666666666671404,-0.07000000000000028,1.6355,1.5585,38.498999999999995,29.917333333333332,38.41,35.3625,56.412,35.3565,59.8595,52.8695,54.308,34.45,58.433,51.18,53.442,33.969,58.336,50.582,-0.1995,0.045499999999999985,0.10512,0.10701000000000001,0.0,214.21,214.41500000000002,211.26333333333332,211.26333333333332,0.0,0.0
22,0.0,0.0,0.0,1.0,1.0,0.0,0.0,1.0,0.0,0.0,1.0,1.1856,26.0,0.0,0.0,0.0,59.999996,0.0,26.0,26.0,26.0,26.0,0.18287500000000012,0.2742,0.005,292.16,-2.7404,-2.6199,-1.6761,-1.4567,-201.72,215.945,190.527375,0.0,0.0,0.0,0.0,0.04459999999999997,-5.498166666666667,-5.498166666666667,-0.5577,0.08133333333333326,0.09744444444444422,0.865,68.595,0.1426,-0.20772500000000002,-1.3739999999999997,100.0,1.0,1.0,211.47333333333333,0.0,0.0,0.0,0.0,0.0,0.0,0.0,8963.6,0.0,55.0,5.0,246.91333333333336,0.0,0.0,0.0,0.0,0.0,0.0,0.0,0.0,1.1069999999999993,1.1069999999999993,0.0,0.0,0.0,55.0,616.79921,10000.0,85.000001,85.000001,85.000001,85.000001,395.0,0.0,0.0,0.0,1.0,111.11,52.353,52.353,47.195,47.195,34.0,-17.965,28.756,-22.296666666666667,38.43,0.0,1782.385,0.09499999999999886,100.0,27.738,28.722,42.444,44.211,0.0,0.0,100.0,0.0,0.0,0.0,0.0,2772.4285714285716,3271.8,4117.5,4447.1,306.2895,304.38,314.8355,313.93475,22.0098,20.633,21.9966,21.5079,314.999998,314.999998,324.999988,324.999988,99.56037142857143,99.5075,99.56832857142857,99.54827142857143,0.16975000000000007,0.02300000000000013,0.040999999999999925,0.2656666666666667,-0.04333333333332945,-0.054999999999999716,1.528,1.4655,38.561,29.956,38.479,35.424,56.402,35.4015,59.9,52.9395,54.298,34.492,58.47,51.2475,53.43,34.0095,58.3695,50.647999999999996,-0.08499999999999996,-0.07650000000000001,0.10355,0.107435,0.0,214.715,214.815,211.47333333333333,211.47333333333333,0.0,0.0
23,0.0,0.0,0.0,1.0,1.0,0.0,0.0,1.0,0.0,0.0,1.0,1.1856,26.0,0.0,0.0,0.0,59.999996,0.0,26.0,26.0,26.0,26.0,0.09312500000000012,0.25060000000000016,-0.029750000000000002,292.236,-2.7486,-2.5949999999999998,-1.7019000000000002,-1.546,-198.01,215.95749999999998,190.502625,0.0,0.0,0.0,0.0,0.04673333333333329,-5.498166666666667,-5.498166666666667,-0.5778,-0.12366666666666659,0.06699999999999995,0.0,68.736,0.1077,-0.2328,0.15600000000000058,100.0,1.0,1.0,212.05333333333334,0.0,0.0,0.0,0.0,0.0,0.0,0.0,8988.2,0.0,55.0,5.0,247.42333333333335,1.0,0.0,0.0,0.0,0.0,0.0,0.0,0.0,1.1610000000000014,1.1610000000000014,0.0,0.0,1.0,55.0,616.79921,10000.0,85.000001,85.000001,85.000001,85.000001,395.0,0.0,0.0,0.0,1.0,111.11,51.697,51.697,48.248,48.248,34.0,-23.39,26.228,-24.23666666666667,31.740000000000002,0.0,1782.33,0.8150000000000013,100.0,28.143,28.62,42.634,44.29,0.0,0.0,100.0,0.0,0.0,0.0,0.0,3117.714285714286,3280.1,3934.75,3979.9,305.3175,304.44775,315.3735,314.96375,22.0198,20.6391,22.0076,21.5177,314.999998,314.999998,324.999988,324.999988,99.56038571428572,99.5075,99.56848571428571,99.54842857142857,0.10749999999999993,-0.028666666666666618,-0.017833333333333368,0.20633333333333326,-0.04999999999999716,-0.061666666666667425,1.5445,1.55,38.623000000000005,29.994666666666667,38.548,35.4855,56.388,35.4435,59.9375,53.0065,54.285,34.531,58.504999999999995,51.3125,53.415,34.047,58.400999999999996,50.711666666666666,-0.019000000000000017,-0.14600000000000013,0.10381000000000001,0.10235000000000001,0.0,215.20499999999998,215.185,212.05333333333334,212.05333333333334,0.0,0.0
24,0.0,0.0,0.0,1.0,1.0,0.0,0.0,1.0,0.0,0.0,1.0,1.1856,26.0,0.0,0.0,0.0,59.999996,0.0,26.0,26.0,26.0,26.0,0.025500000000000078,0.28100000000000014,-0.0018000000000000002,292.404,-2.7498,-2.6253,-1.5998,-1.5091999999999999,-194.91,215.97,190.4815,0.0,0.0,0.0,0.0,0.04853333333333332,-5.498166666666667,-5.498166666666667,-0.5793,-0.4853333333333334,0.04833333333333312,-0.594,68.857,0.0546,-0.216475,0.927999999999999,100.0,1.0,1.0,212.29000000000002,0.0,0.0,0.0,0.0,0.0,0.0,0.0,8998.2,0.0,55.0,5.0,247.85666666666668,0.0,0.0,0.0,0.0,0.0,0.0,0.0,0.0,1.2059999999999995,1.2059999999999995,0.0,0.0,0.0,55.0,616.79921,10000.0,85.000001,85.000001,85.000001,85.000001,395.0,0.0,0.0,0.0,1.0,111.11,52.917,52.917,47.119,47.119,34.0,-23.5175,21.84,-29.880000000000003,29.65,0.0,1782.285,0.990000000000002,100.0,27.815,28.349,42.897,44.034,0.0,0.0,100.0,0.0,0.0,0.0,0.0,2921.714285714286,2965.3,4339.875,4129.6,306.0885,305.32625,314.33175,314.6365,22.028,20.644,22.0169,21.5258,314.999998,314.999998,324.999988,324.999988,99.5604,99.5075,99.5686,99.54857142857144,0.05624999999999991,-0.07566666666666677,-0.08499999999999996,0.1443333333333332,-0.054999999999999716,-0.021666666666668277,1.486,1.528,38.675,30.025,38.605999999999995,35.536,56.373999999999995,35.4775,59.9705,53.0605,54.271,34.5625,58.5355,51.364,53.400999999999996,34.077,58.4285,50.76233333333333,0.0015000000000000568,-0.15500000000000003,0.10966000000000001,0.11090000000000001,0.0,215.62,215.515,212.29000000000002,212.29000000000002,0.0,0.0
25,0.0,0.0,0.0,1.0,1.0,0.0,0.0,1.0,0.0,0.0,1.0,1.1856,26.0,0.0,0.0,0.0,59.999996,0.0,26.0,26.0,26.0,26.0,-0.03387499999999999,0.2571000000000001,-0.0442,292.435,-2.6953,-2.6668000000000003,-1.5836999999999999,-1.5424,-191.6,215.98250000000002,190.457625,0.0,0.0,0.0,0.0,0.05046666666666655,-5.498166666666667,-5.498166666666667,-0.6138,-0.09999999999999998,0.016111111111110965,-1.828,68.981,-0.0056,-0.22855,1.4179999999999993,100.0,1.0,1.0,212.82999999999998,0.0,0.0,0.0,0.0,0.0,0.0,0.0,9021.0,0.0,55.0,5.0,248.30333333333334,1.0,0.0,0.0,0.0,0.0,0.0,0.0,0.0,1.2540000000000013,1.2540000000000013,0.0,0.0,1.0,55.0,616.79921,10000.0,85.000001,85.000001,85.000001,85.000001,395.0,0.0,0.0,0.0,1.0,166.665,52.016999999999996,52.016999999999996,47.943,47.943,34.0,-27.5175,22.258,-29.706666666666663,25.29,0.0,1782.237,1.0350000000000001,100.0,27.938,28.344,42.955,43.475,0.0,0.0,100.0,0.0,0.0,0.0,0.0,3226.857142857143,3159.8,4012.5,3941.0,305.196,304.63275,315.177,315.13025,22.0368,20.6493,22.0266,21.5343,314.999998,314.999998,324.999988,324.999988,99.5604,99.50751666666666,99.56874285714285,99.5487,0.01924999999999999,-0.11499999999999999,-0.1486666666666666,0.08616666666666672,-0.054999999999999716,-0.036666666666668846,1.5614999999999999,1.603,38.730000000000004,30.058333333333334,38.666,35.589,56.355999999999995,35.5165,60.0035,53.1145,54.254999999999995,34.5985,58.566,51.416,53.384,34.112,58.456,50.81366666666666,0.0004999999999999449,-0.16149999999999998,0.112115,0.10831,0.0,216.0,215.885,212.82999999999998,212.82999999999998,0.0,0.0
26,0.0,0.0,0.0,1.0,1.0,0.0,0.0,1.0,0.0,0.0,1.0,1.1856,26.0,0.0,0.0,0.0,59.999996,0.0,26.0,26.0,26.0,26.0,-0.11412500000000003,0.27300000000000013,0.06135,291.199,-2.6773,-2.7502,-1.5916000000000001,-1.5752000000000002,-188.07999999999998,215.9975,190.43175,0.0,0.0,0.0,0.0,0.05253333333333332,-5.498166666666667,-5.498166666666667,-0.5703,0.8903333333333332,-0.04811111111111144,-0.044,69.117,-0.0594,-0.19545,1.6260000000000012,100.0,1.0,1.0,213.00666666666666,0.0,0.0,0.0,0.0,0.0,0.0,0.0,9028.6,0.0,55.0,5.0,248.79333333333335,0.0,0.0,0.0,0.0,0.0,0.0,0.0,0.0,1.3049999999999997,1.3049999999999997,0.0,0.0,0.0,55.0,616.79921,10000.0,85.000001,85.000001,85.000001,85.000001,395.0,0.0,0.0,0.0,1.0,166.665,51.315,51.315,46.326,46.326,34.0,-28.2225,21.304000000000002,-38.08,26.905,0.0,1782.184,0.8999999999999986,100.0,29.293,28.535,43.899,43.372,0.0,0.0,100.0,0.0,0.0,0.0,0.0,3231.857142857143,3106.9,4574.25,4395.8,304.9715,304.88425,313.798,314.08825,22.046599999999998,20.6551,22.0373,21.5434,314.999998,314.999998,324.999988,324.999988,99.5604,99.50753333333333,99.5689,99.54887142857143,0.007000000000000117,-0.14266666666666672,-0.1891666666666666,0.034499999999999975,-0.036666666666668846,-0.061666666666667425,1.4155,1.4769999999999999,38.791,30.094,38.733000000000004,35.6465,56.342,35.564499999999995,60.047,53.178,54.241,34.6425,58.6065,51.4775,53.369,34.153999999999996,58.4935,50.873,-0.01200000000000001,-0.15250000000000008,0.10518500000000001,0.11034000000000001,0.0,216.49,216.35000000000002,213.00666666666666,213.00666666666666,0.0,0.0
27,0.0,0.0,0.0,1.0,1.0,0.0,0.0,1.0,0.0,0.0,1.0,1.1856,26.0,0.0,0.0,0.0,59.999996,0.0,26.0,26.0,26.0,26.0,-0.13012499999999994,0.244,-0.0118,291.595,-2.618,-2.7433,-1.5603,-1.6724,-184.55,216.0075,190.40725,0.0,0.0,0.0,0.0,0.05456666666666654,-5.498166666666667,-5.498166666666667,-0.5981000000000001,-1.0866666666666667,-0.07088888888888878,-0.9560000000000001,69.249,-0.0918,-0.24322500000000002,1.5899999999999999,100.0,1.0,1.0,213.49666666666667,0.0,0.0,0.0,0.0,0.0,0.0,0.0,9049.3,0.0,55.0,5.0,249.26999999999998,1.0,0.0,0.0,0.0,0.0,0.0,0.0,0.0,1.355999999999998,1.355999999999998,0.0,0.0,1.0,55.0,616.79921,10000.0,85.000001,85.000001,85.000001,85.000001,395.0,0.0,0.0,0.0,1.0,166.665,51.757999999999996,51.757999999999996,46.738,46.738,34.0,-29.807499999999997,19.14,-35.42333333333333,23.75,0.0,1782.134,0.75,100.0,28.991,28.259,44.846000000000004,43.821,0.0,0.0,100.0,0.0,0.0,0.0,0.0,3318.285714285714,2967.1,4216.0,3950.9,304.8905,305.2885,314.6295,314.96625,22.0562,20.6605,22.048000000000002,21.5528,314.999998,314.999998,324.999988,324.999988,99.56041428571429,99.50756666666666,99.56904285714286,99.549,-0.02675000000000005,-0.1673333333333331,-0.22083333333333333,0.009500000000000064,-0.06833333333332803,-0.026666666666670835,1.4815,1.529,38.851,30.128,38.8,35.704499999999996,56.326,35.6045,60.087,53.235,54.226,34.6795,58.644,51.532,53.352999999999994,34.189499999999995,58.528,50.92633333333333,-0.021499999999999964,-0.14200000000000013,0.10419500000000001,0.10899500000000001,0.0,216.84,216.67000000000002,213.49666666666667,213.49666666666667,0.0,0.0
28,0.0,0.0,0.0,1.0,1.0,0.0,0.0,1.0,0.0,0.0,1.0,1.1856,26.0,0.0,0.0,0.0,59.999996,0.0,26.0,26.0,26.0,26.0,-0.16212499999999996,0.27790000000000004,-0.061775000000000004,291.87,-2.6304,-2.7462,-1.4981,-1.6411,-181.01999999999998,216.0125,190.38175,0.0,0.0,0.0,0.0,0.05663333333333331,-5.498166666666667,-5.498166666666667,-0.6007,0.6806666666666668,-0.08288888888888879,0.639,69.379,-0.11180000000000001,-0.215725,1.4800000000000004,100.0,1.0,1.0,213.99333333333334,0.0,0.0,0.0,0.0,0.0,0.0,0.0,9070.3,0.0,55.0,5.0,249.73666666666668,0.0,0.0,0.0,0.0,0.0,0.0,0.0,0.0,1.407,1.407,0.0,0.0,0.0,55.0,616.79921,10000.0,85.000001,85.000001,85.000001,85.000001,395.0,0.0,0.0,0.0,1.0,166.665,51.772999999999996,51.772999999999996,47.47,47.47,34.0,-29.737499999999997,19.067999999999998,-34.38666666666666,22.97,0.0,1782.083,0.5899999999999999,100.0,29.346,27.941,44.351,43.022999999999996,0.0,0.0,100.0,0.0,0.0,0.0,0.0,3280.142857142857,2995.8,4176.125,4076.4,304.85,305.3565,314.78675,314.8335,22.066,20.666,22.0584,21.561700000000002,314.999998,314.999998,324.999988,324.999988,99.56041428571429,99.50758333333333,99.5692,99.54914285714285,-0.026499999999999968,-0.17133333333333312,-0.23099999999999998,-0.007833333333333359,-0.045000000000001705,-0.06499999999999773,1.5235,1.5715,38.912,30.162333333333336,38.864999999999995,35.7605,56.312,35.6485,60.123,53.29,54.213,34.7205,58.678,51.585,53.339,34.2285,58.5585,50.978,-0.03600000000000003,-0.131,0.10731,0.10831,0.0,217.26,217.14,213.99333333333334,213.99333333333334,0.0,0.0
29,0.0,0.0,0.0,1.0,1.0,0.0,0.0,1.0,0.0,0.0,1.0,1.1856,26.0,0.0,0.0,0.0,59.999996,0.0,26.0,26.0,26.0,26.0,-0.15549999999999997,0.2599,0.042800000000000005,291.458,-2.5725,-2.7998000000000003,-1.5342,-1.6246,-177.48000000000002,216.015,190.355375,0.0,0.0,0.0,0.0,0.058699999999999974,-5.498166666666667,-5.498166666666667,-0.6074,-0.726,-0.08700000000000019,-0.707,69.513,-0.11320000000000001,-0.21875,1.2260000000000009,100.0,1.0,1.0,214.25,0.0,0.0,0.0,0.0,0.0,0.0,0.0,9081.2,0.0,55.0,5.0,250.22,1.0,0.0,0.0,0.0,0.0,0.0,0.0,0.0,1.4579999999999984,1.4579999999999984,0.0,0.0,1.0,55.0,616.79921,10000.0,85.000001,85.000001,85.000001,85.000001,395.0,0.0,0.0,0.0,1.0,166.665,51.635999999999996,51.635999999999996,46.585,46.585,34.0,-30.509999999999998,19.624000000000002,-36.946666666666665,23.5875,0.0,1782.033,0.4800000000000004,100.0,28.932,27.935,44.764,43.325,0.0,0.0,100.0,0.0,0.0,0.0,0.0,3425.5714285714284,2995.2,4335.125,4119.7,304.5845,305.076,314.32625,314.61525,22.075499999999998,20.6713,22.0691,21.5709,314.999998,314.999998,324.999988,324.999988,99.56042857142857,99.50758333333333,99.56935714285714,99.5493,-0.027499999999999858,-0.17599999999999993,-0.23066666666666658,-0.004833333333333356,-0.041666666666671404,-0.061666666666667425,1.4575,1.4975,38.972,30.195666666666668,38.932,35.8185,56.296,35.691,60.1655,53.35,54.197,34.7595,58.718,51.641999999999996,53.323,34.266,58.5955,51.03366666666666,-0.04799999999999993,-0.119,0.103715,0.11284500000000001,0.0,217.63,217.54000000000002,214.25,214.25,0.0,0.0
30,0.0,0.0,0.0,1.0,1.0,0.0,0.0,1.0,0.0,0.0,1.0,1.1856,26.0,0.0,0.0,0.0,59.999996,0.0,26.0,26.0,26.0,26.0,-0.16012499999999996,0.27649999999999997,0.037700000000000004,290.97,-2.6226,-2.6936999999999998,-1.4711,-1.7004000000000001,-174.35,216.015,190.331875,0.0,0.0,0.0,0.0,0.0605,-5.498166666666667,-5.498166666666667,-0.6052000000000001,0.7810000000000001,-0.0868888888888888,0.714,69.627,-0.1101,-0.21857500000000002,1.0939999999999994,100.0,1.0,1.0,214.63333333333333,0.0,0.0,0.0,0.0,0.0,0.0,0.0,9097.5,0.0,55.0,5.0,250.63,0.0,0.0,0.0,0.0,0.0,0.0,1.0,0.0,1.5030000000000001,1.5030000000000001,0.0,0.0,0.0,55.0,616.79921,10000.0,85.000001,85.000001,85.000001,85.000001,395.0,0.0,0.0,0.0,1.0,166.665,50.827,50.827,46.783,46.783,34.0,-30.3825,20.092,-35.473333333333336,26.205,0.0,1781.987,0.2749999999999986,100.0,29.912,28.487000000000002,44.694,43.197,0.0,0.0,100.0,0.0,0.0,0.0,0.0,3449.0,3069.4,4344.25,4285.5,304.3155,305.06675,314.3025,314.22775,22.0842,20.6763,22.0783,21.579,314.999998,314.999998,324.999988,324.999988,99.56042857142857,99.50761666666666,99.56948571428572,99.54942857142858,-0.0024999999999999467,-0.15066666666666673,-0.21850000000000003,0.0023333333333332984,-0.045000000000001705,-0.054999999999999716,1.4669999999999999,1.5095,39.025999999999996,30.227,38.989999999999995,35.8685,56.286,35.7315,60.199,53.4005,54.188,34.797,58.7495,51.691,53.313,34.302,58.624,51.08133333333333,-0.0685,-0.10499999999999998,0.10214500000000001,0.10959500000000001,0.0,218.01999999999998,217.935,214.63333333333333,214.63333333333333,0.0,0.0
31,0.0,0.0,0.0,1.0,1.0,0.0,0.0,1.0,0.0,0.0,1.0,1.1856,26.0,0.0,0.0,0.0,59.999996,0.0,26.0,26.0,26.0,26.0,-0.11875000000000002,0.2538,-0.005775000000000001,291.031,-2.691,-2.6712,-1.5611000000000002,-1.6729,-170.57999999999998,216.0075,190.304625,0.0,0.0,0.0,0.0,0.06269999999999998,-5.498166666666667,-5.498166666666667,-0.5910000000000001,-0.7336666666666667,-0.07666666666666666,0.593,69.767,-0.0922,-0.221425,0.5999999999999996,100.0,1.0,1.0,214.96666666666667,0.0,0.0,0.0,0.0,0.0,0.0,0.0,9111.6,0.0,55.0,5.0,251.13333333333333,1.0,0.0,0.0,0.0,0.0,0.0,1.0,0.0,1.5569999999999986,1.5569999999999986,0.0,0.0,1.0,55.0,616.79921,10000.0,85.000001,85.000001,85.000001,85.000001,395.0,0.0,0.0,0.0,1.0,166.665,51.559,51.559,45.578,45.578,34.0,-28.165,20.43,-36.64666666666666,27.4875,0.0,1781.933,0.21499999999999986,100.0,29.511,28.472,45.333,43.814,0.0,0.0,100.0,0.0,0.0,0.0,0.0,3194.857142857143,3121.5,4431.125,4283.4,305.2695,305.1475,314.066,314.35475,22.0944,20.6822,22.0898,21.5889,314.999998,314.999998,324.999988,324.999988,99.56042857142857,99.50763333333333,99.56965714285714,99.54957142857143,-0.0024999999999999467,-0.1416666666666666,-0.19566666666666666,0.032333333333333325,-0.030000000000001137,-0.04833333333333201,1.4304999999999999,1.4649999999999999,39.09,30.264,39.061,35.9305,56.268,35.778,60.2445,53.465,54.171,34.84,58.792,51.753,53.296,34.3425,58.6635,51.141333333333336,-0.06899999999999995,-0.09699999999999998,0.104675,0.11249500000000001,0.0,218.38,218.35500000000002,214.96666666666667,214.96666666666667,0.0,0.0
32,0.0,0.0,0.0,1.0,1.0,0.0,0.0,1.0,0.0,0.0,1.0,1.1856,26.0,0.0,0.0,0.0,59.999996,0.0,26.0,26.0,26.0,26.0,-0.11837500000000001,0.24219999999999997,-0.071675,291.382,-2.6433999999999997,-2.7122,-1.5853000000000002,-1.5806,-167.23000000000002,216.0,190.2805,0.0,0.0,0.0,0.0,0.06463333333333332,-5.498166666666667,-5.498166666666667,-0.6115,0.16433333333333322,-0.0993333333333335,0.23,69.885,-0.0786,-0.23242500000000002,0.652000000000001,100.0,1.0,1.0,215.53,0.0,0.0,0.0,0.0,0.0,0.0,0.0,9135.5,0.0,55.0,5.0,251.56,0.0,0.0,0.0,0.0,0.0,0.0,1.0,0.0,1.6050000000000004,1.6050000000000004,0.0,0.0,0.0,55.0,616.79921,10000.0,85.000001,85.000001,85.000001,85.000001,395.0,0.0,0.0,0.0,1.0,111.11,51.178,51.178,46.89,46.89,34.0,-28.115000000000002,21.544,-33.31333333333333,24.572499999999998,0.0,1781.887,0.129999999999999,100.0,29.567,28.535,44.843,43.583,0.0,0.0,100.0,0.0,0.0,0.0,0.0,3332.142857142857,3093.2,4177.375,4052.8,304.7285,305.05025,314.83225,315.0145,22.1034,20.6876,22.0996,21.5975,314.999998,314.999998,324.999988,324.999988,99.56042857142857,99.50765,99.5698,99.54971428571429,0.02400000000000002,-0.12399999999999989,-0.18899999999999995,0.044333333333333336,-0.054999999999999716,-0.03166666666666629,1.5465,1.5635,39.146,30.297333333333334,39.123,35.9845,56.254000000000005,35.8195,60.278999999999996,53.518,54.158,34.878,58.8245,51.804,53.281,34.3795,58.693,51.191,-0.07399999999999995,-0.09299999999999997,0.10393000000000001,0.11162500000000002,0.0,218.785,218.71,215.53,215.53,0.0,0.0
33,0.0,0.0,0.0,1.0,1.0,0.0,0.0,1.0,0.0,0.0,1.0,1.1856,26.0,0.0,0.0,0.0,59.999996,0.0,26.0,26.0,26.0,26.0,-0.08750000000000002,0.26460000000000017,-0.04345,291.428,-2.649,-2.757,-1.5543,-1.5892,-163.66,215.99,190.253875,0.0,0.0,0.0,0.0,0.06669999999999998,-5.498166666666667,-5.498166666666667,-0.611,-0.33566666666666667,-0.08811111111111147,0.062,70.017,-0.067,-0.21655000000000002,0.47600000000000087,100.0,1.0,1.0,215.77666666666667,0.0,0.0,0.0,0.0,0.0,0.0,0.0,9146.0,0.0,55.0,5.0,252.03333333333336,1.0,0.0,0.0,0.0,0.0,0.0,1.0,0.0,1.6559999999999988,1.6559999999999988,0.0,0.0,1.0,55.0,616.79921,10000.0,85.000001,85.000001,85.000001,85.000001,395.0,0.0,0.0,0.0,1.0,166.665,51.91,51.91,46.432,46.432,34.0,-26.947499999999998,21.082,-35.223333333333336,26.2125,0.0,1781.834,-0.03999999999999915,100.0,29.152,28.339,44.716,43.739000000000004,0.0,0.0,100.0,0.0,0.0,0.0,0.0,3237.4285714285716,2914.4,4374.375,4239.8,305.2095,305.44075,314.325,314.38625,22.1129,20.693,22.1102,21.6068,314.999998,314.999998,324.999988,324.999988,99.56042857142857,99.50766666666667,99.56994285714286,99.54987142857142,0.02475000000000005,-0.1136666666666668,-0.1881666666666666,0.03716666666666679,-0.04833333333333201,-0.054999999999999716,1.4655,1.4875,39.206,30.331333333333333,39.189,36.042,56.238,35.859,60.318,53.577,54.143,34.914500000000004,58.861,51.8605,53.266,34.414500000000004,58.7265,51.246,-0.08999999999999997,-0.07350000000000012,0.10931,0.101885,0.0,219.175,219.125,215.77666666666667,215.77666666666667,0.0,0.0
34,0.0,0.0,0.0,1.0,1.0,0.0,0.0,1.0,0.0,0.0,1.0,1.1856,26.0,0.0,0.0,0.0,59.999996,0.0,26.0,26.0,26.0,26.0,-0.05537499999999995,0.2653000000000001,-0.088525,291.946,-2.6699,-2.7364,-1.5923,-1.6073,-159.88,215.975,190.224375,0.0,0.0,0.0,0.0,0.06889999999999996,-5.498166666666667,-5.498166666666667,-0.6463,-0.8023333333333333,-0.05188888888888865,-0.016,70.152,-0.049100000000000005,-0.22695,0.3279999999999994,100.0,1.0,1.0,216.28333333333333,0.0,0.0,0.0,0.0,0.0,0.0,0.0,9167.5,0.0,55.0,5.0,252.51999999999998,0.0,0.0,0.0,0.0,0.0,0.0,1.0,0.0,1.7100000000000009,1.7100000000000009,0.0,0.0,0.0,55.0,616.79921,10000.0,85.000001,85.000001,85.000001,85.000001,395.0,0.0,0.0,0.0,1.0,111.11,52.292,52.292,47.424,47.424,34.0,-25.92,21.336,-31.32666666666666,26.705,0.0,1781.781,-0.004999999999999005,100.0,28.745,28.014,44.358000000000004,43.805,0.0,0.0,100.0,0.0,0.0,0.0,0.0,3156.5714285714284,2914.0,4083.125,4079.1000000000004,305.313,305.43425,315.01825,314.74425,22.122799999999998,20.6988,22.1212,21.6165,314.999998,314.999998,324.999988,324.999988,99.56044285714286,99.50768333333333,99.5701,99.55002857142857,0.039000000000000146,-0.10333333333333328,-0.16200000000000003,0.06733333333333325,-0.045000000000001705,-0.05333333333332746,1.528,1.5314999999999999,39.268,30.367333333333335,39.257999999999996,36.1035,56.221000000000004,35.9,60.355000000000004,53.638999999999996,54.126000000000005,34.9525,58.8955,51.92,53.248000000000005,34.4505,58.7575,51.304,-0.08399999999999996,-0.07400000000000007,0.10693000000000001,0.10925000000000001,0.0,219.565,219.535,216.28333333333336,216.28333333333333,0.0,0.0
35,0.0,0.0,0.0,1.0,1.0,0.0,0.0,1.0,0.0,0.0,1.0,1.1856,26.0,0.0,0.0,0.0,59.999996,0.0,26.0,26.0,26.0,26.0,-0.04412499999999997,0.24890000000000012,-0.05765,291.809,-2.6667,-2.6928,-1.5601,-1.6168,-156.3,215.9625,190.194125,0.0,0.0,0.0,0.0,0.07099999999999995,-5.498166666666667,-5.498166666666667,-0.686,-0.2473333333333334,-0.056888888888888545,-0.03,70.279,-0.036000000000000004,-0.22787500000000002,0.14400000000000013,100.0,1.0,1.0,216.73333333333335,0.0,0.0,0.0,0.0,0.0,0.0,0.0,9186.6,0.0,55.0,5.0,252.98000000000002,1.0,0.0,0.0,0.0,0.0,0.0,1.0,0.0,1.7609999999999992,1.7609999999999992,0.0,0.0,1.0,55.0,616.79921,10000.0,85.000001,85.000001,85.000001,85.000001,395.0,0.0,0.0,0.0,1.0,111.11,51.483000000000004,51.483000000000004,47.089,47.089,34.0,-25.785,25.556,-29.119999999999997,26.387500000000003,0.0,1781.73,0.004999999999999005,100.0,28.701999999999998,28.311,44.091,43.334,0.0,0.0,100.0,0.0,0.0,0.0,0.0,3208.4285714285716,3362.9,3998.5,3953.6000000000004,305.136,304.25,315.1355,315.1185,22.131999999999998,20.7045,22.1316,21.6256,314.999998,314.999998,324.999988,324.999988,99.56045714285715,99.5077,99.57025714285714,99.55017142857143,0.0535000000000001,-0.08066666666666666,-0.13916666666666666,0.08283333333333331,-0.04999999999999716,-0.05833333333333002,1.5354999999999999,1.5665,39.325,30.403,39.322,36.16,56.202,35.9405,60.3895,53.694,54.108999999999995,34.99,58.9275,51.973,53.230000000000004,34.4865,58.787,51.355333333333334,-0.08350000000000002,-0.07650000000000001,0.10235000000000001,0.10225500000000001,0.0,219.97500000000002,219.93,216.73333333333335,216.73333333333335,0.0,0.0
36,0.0,0.0,0.0,1.0,1.0,0.0,0.0,1.0,0.0,0.0,1.0,1.1856,26.0,0.0,0.0,0.0,59.999996,0.0,26.0,26.0,26.0,26.0,-0.05625000000000002,0.26350000000000007,0.00355,290.955,-2.7284,-2.6491,-1.5341,-1.6068,-153.34,215.9475,190.168125,0.0,0.0,0.0,0.0,0.07269999999999999,-5.498166666666667,-5.498166666666667,-0.6659,0.41366666666666685,-0.08822222222222242,-0.05,70.386,-0.0273,-0.198975,0.21799999999999997,100.0,1.0,1.0,216.82999999999998,0.0,0.0,0.0,0.0,0.0,0.0,0.0,9190.7,0.0,55.0,5.0,253.36,0.0,0.0,0.0,0.0,0.0,0.0,1.0,0.0,1.8030000000000008,1.8030000000000008,0.0,0.0,0.0,55.0,616.79921,10000.0,85.000001,85.000001,85.000001,85.000001,395.0,0.0,0.0,0.0,1.0,166.665,51.407,51.407,46.188,46.188,34.0,-26.525,23.433999999999997,-33.16,31.8225,0.0,1781.686,-0.049999999999998934,100.0,29.164,28.647,44.207,43.57,0.0,0.0,100.0,0.0,0.0,0.0,0.0,3291.285714285714,3138.1,4508.0,4535.2,304.9595,304.9605,313.926,313.77125,22.1398,20.7093,22.1402,21.6333,314.999998,314.999998,324.999988,324.999988,99.56045714285715,99.5077,99.57038571428572,99.5503,0.06574999999999998,-0.07433333333333314,-0.1293333333333333,0.08916666666666684,-0.021666666666668277,-0.04333333333332945,1.4405,1.449,39.373999999999995,30.433,39.376,36.208,56.191,35.9755,60.420500000000004,53.743,54.098,35.0225,58.9565,52.019999999999996,53.219,34.5175,58.813,51.401666666666664,-0.09099999999999997,-0.07850000000000001,0.107865,0.10666500000000001,0.0,220.31,220.305,216.82999999999998,216.82999999999998,0.0,0.0
