,ABS Active,ABS Enabled,AID Allow Tire Blankets,AID Auto Blip,AID Auto Clutch,AID Auto Shift,AID Fuel Rate,AID Ideal Line,AID Mech Damage,AID Stability,AID Tire Wear Rate,Air Density,Air Temp,Ballast,Best Lap Delta,Best Lap Time,Brake Bias,Brake Pos,Brake Temp FL,Brake Temp FR,Brake Temp RL,Brake Temp RR,CG Accel Lateral,CG Accel Longitudinal,CG Accel Vertical,CG Height,Camber FL,Camber FR,Camber RL,Camber RR,Car Coord X,Car Coord Y,Car Coord Z,Car Damage Front,Car Damage Left,Car Damage Rear,Car Damage Right,Car Pos Norm,Caster FL,Caster FR,Chassis Pitch Angle,Chassis Pitch Rate,Chassis Roll Angle,Chassis Roll Rate,Chassis Velocity X,Chassis Velocity Y,Chassis Velocity Z,Chassis Yaw Rate,Clutch Pos,DRS Active,DRS Available,Drive Train Speed,ERS Heat Charging,ERS Is Charging,ERS Max Energy,ERS Power Level,ERS Recovery Level,Engine Brake Setting,Engine Limiter,Engine RPM,Flags,Fuel Level,Gear,Ground Speed,HR Sample Clock,In Pit,KERS Charge,KERS Deployed Energy,KERS Input,KERS Max Energy,LR Sample Clock,Lap Invalidated,Lap Time,Lap Time2,Last Lap Time,Last Sector Time,MR Sample Clock,Max Fuel,Max Power,Max RPM,Max Sus Travel FL,Max Sus Travel FR,Max Sus Travel RL,Max Sus Travel RR,Max Torque,Max Turbo Boost,Num Tires Off Track,Penalties Enabled,Position,Raw Data Sample Rate,Ride Height FL,Ride Height FR,Ride Height RL,Ride Height RR,Road Temp,Self Align Torque FL,Self Align Torque FR,Self Align Torque RL,Self Align Torque RR,Session Lap Count,Session Time Left,Steering Angle,Surface Grip,Suspension Travel FL,Suspension Travel FR,Suspension Travel RL,Suspension Travel RR,TC Active,TC Enabled,Throttle Pos,Tire Dirt Level FL,Tire Dirt Level FR,Tire Dirt Level RL,Tire Dirt Level RR,Tire Load FL,Tire Load FR,Tire Load RL,Tire Load RR,Tire Loaded Radius FL,Tire Loaded Radius FR,Tire Loaded Radius RL,Tire Loaded Radius RR,Tire Pressure FL,Tire Pressure FR,Tire Pressure RL,Tire Pressure RR,Tire Radius FL,Tire Radius FR,Tire Radius RL,Tire Radius RR,Tire Rubber Grip FL,Tire Rubber Grip FR,Tire Rubber Grip RL,Tire Rubber Grip RR,Tire Slip Angle FL,Tire Slip Angle FR,Tire Slip Angle RL,Tire Slip Angle RR,Tire Slip Ratio FL,Tire Slip Ratio FR,Tire Slip Ratio RL,Tire Slip Ratio RR,Tire Temp Core FL,Tire Temp Core FR,Tire Temp Core RL,Tire Temp Core RR,Tire Temp Inner FL,Tire Temp Inner FR,Tire Temp Inner RL,Tire Temp Inner RR,Tire Temp Middle FL,Tire Temp Middle FR,Tire Temp Middle RL,Tire Temp Middle RR,Tire Temp Outer FL,Tire Temp Outer FR,Tire Temp Outer RL,Tire Temp Outer RR,Toe In FL,Toe In FR,Toe In RL,Toe In RR,Turbo Boost,Wheel Angular Speed FL,Wheel Angular Speed FR,Wheel Angular Speed RL,Wheel Angular Speed RR,Wind Direction,Wind Speed
0,0.0,0.0,0.0,1.0,1.0,0.0,0.0,1.0,0.0,0.0,1.0,1.1856,26.0,0.0,0.0,0.0,59.99999,0.0,26.0,26.0,26.0,26.0,-0.09712500000000002,0.3147,0.062200000000000005,293.762,-2.7119,-2.4843333333333333,-1.5054,-1.5382,-275.64,216.0225,190.98725,0.0,0.0,0.0,0.0,0.0016,-5.498166666666667,-5.498166666666667,-0.5504,1.926,-0.016249999999999876,-0.6890000000000001,65.523,-0.0427,-0.214875,0.7279999999999998,100.0,1.0,1.0,202.29333333333335,0.0,0.0,0.0,0.0,0.0,0.0,0.0,8574.5,0.0,55.0,5.0,235.85333333333335,0.0,0.0,0.0,0.0,0.0,0.0,0.0,0.0,0.0030000000000001137,0.0030000000000001137,0.0,0.0,0.0,55.0,616.79921,10000.0,85.0,85.0,85.0,85.0,395.0,0.0,0.0,0.0,1.0,20.0,52.216,52.216,49.254999999999995,49.254999999999995,34.0,-28.0975,23.497999999999998,-30.016666666666666,24.7575,0.0,1783.474,0.6799999999999997,100.0,27.341,26.921,40.501,40.249,0.0,0.0,100.0,0.0,0.0,0.0,0.0,3140.142857142857,3624.9,4158.875,4029.0,305.1895,303.2083333333333,314.772,314.80425,21.7845,20.5161,21.774,21.3168,314.99999,314.99999,324.99998,324.99998,99.55934285714285,99.50726666666667,99.56555714285714,99.54534285714286,-0.007500000000000062,-0.12233333333333318,-0.14983333333333335,0.06116666666666667,-0.05333333333332746,-0.05666666666667197,1.5373333333333332,1.573,37.153,29.2255,37.087,34.230000000000004,56.439,34.515,59.1905,51.669,54.342,33.673,57.8135,50.024,53.504000000000005,33.223,57.778,49.44833333333334,-0.019000000000000017,-0.12400000000000011,0.09772,0.10923000000000001,0.0,205.35000000000002,205.26,202.29333333333335,202.29333333333335,0.0,0.0
1,0.0,0.0,0.0,1.0,1.0,0.0,0.0,1.0,0.0,0.0,1.0,1.1856,26.0,0.0,0.0,0.0,59.999996,0.0,26.0,26.0,26.0,26.0,-0.125,0.2982,0.005200000000000001,293.137,-2.6475,-2.806111111111111,-1.5411000000000001,-1.3780999999999999,-272.1,216.025,190.96625,0.0,0.0,0.0,0.0,0.0036666666666666666,-5.498166666666667,-5.498166666666667,-0.48960000000000004,-1.4133333333333333,-0.06000000000000005,-0.244,65.688,-0.0516,-0.20005,1.1660000000000004,100.0,1.0,1.0,202.39,0.0,0.0,0.0,0.0,0.0,0.0,0.0,8578.6,0.0,55.0,5.0,236.44333333333333,1.0,0.0,0.0,0.0,0.0,0.0,0.0,0.0,0.05699999999999861,0.05699999999999861,0.0,0.0,1.0,55.0,616.79921,10000.0,85.000001,85.000001,85.000001,85.000001,395.0,0.0,0.0,0.0,1.0,166.665,54.199,54.199,48.263999999999996,48.263999999999996,34.0,-25.5475,17.598,-35.75666666666666,27.4,0.0,1783.42,0.8300000000000018,100.0,27.418,26.675,42.573,42.121,0.0,0.0,100.0,0.0,0.0,0.0,0.0,2946.142857142857,2568.1,4455.25,4803.2,305.792,306.723,313.869,312.78675,21.795,20.5214,21.7856,21.3266,314.999998,314.999998,324.999988,324.999988,99.55934285714285,99.5073,99.56571428571428,99.5455,-0.008249999999999869,-0.1326666666666667,-0.17516666666666666,0.04066666666666666,-0.01833333333333087,-0.041666666666671404,1.3573333333333333,1.411,37.219,29.259,37.16,34.2915,56.421,34.5565,59.24,51.74,54.325,33.7115,57.86,50.0925,53.486000000000004,33.26,57.8215,49.51533333333333,-0.008499999999999952,-0.13349999999999995,0.10610000000000001,0.10716500000000001,0.0,205.775,205.72,202.39,202.39,0.0,0.0
2,0.0,0.0,0.0,1.0,1.0,0.0,0.0,1.0,0.0,0.0,1.0,1.1856,26.0,0.0,0.0,0.0,59.999996,0.0,26.0,26.0,26.0,26.0,-0.14112499999999994,0.2963,-0.10083333333333334,294.174,-2.6052,-2.781888888888889,-1.5024000000000002,-1.6325,-268.94,216.025,190.948625,0.0,0.0,0.0,0.0,0.0055000000000000005,-5.498166666666667,-5.498166666666667,-0.5604,0.222,-0.04249999999999998,2.595,65.818,-0.0658,-0.25980000000000003,1.5280000000000005,100.0,1.0,1.0,203.5,0.0,0.0,0.0,0.0,0.0,0.0,0.0,8625.5,0.0,55.0,5.0,236.91666666666669,0.0,0.0,0.0,0.0,0.0,0.0,0.0,0.0,0.10500000000000043,0.10500000000000043,0.0,0.0,0.0,55.0,616.79921,10000.0,85.000001,85.000001,85.000001,85.000001,395.0,0.0,0.0,0.0,1.0,166.665,52.628,52.628,50.858000000000004,50.858000000000004,34.0,-29.6675,20.428,-27.476666666666663,19.4,0.0,1783.371,0.8850000000000016,100.0,28.136,26.667,42.162,41.128,0.0,0.0,100.0,0.0,0.0,0.0,0.0,3312.142857142857,3019.2,3612.5,3489.8,304.5925,305.32733333333334,315.985,316.31975,21.8046,20.5262,21.7953,21.334699999999998,314.999998,314.999998,324.999988,324.999988,99.55934285714285,99.5073,99.56584285714285,99.54561428571428,-0.022499999999999964,-0.1476666666666666,-0.2125,0.021,-0.03833333333332689,-0.060000000000002274,1.6886666666666668,1.7545000000000002,37.278999999999996,29.2885,37.221000000000004,34.341499999999996,56.409,34.5945,59.2735,51.789,54.313,33.7465,57.891,50.1395,53.473,33.2935,57.85,49.56166666666667,-0.010499999999999954,-0.14200000000000013,0.10555,0.10808500000000001,0.0,206.21,206.09,203.5,203.5,0.0,0.0
3,0.0,0.0,0.0,1.0,1.0,0.0,0.0,1.0,0.0,0.0,1.0,1.1856,26.0,0.0,0.0,0.0,59.999996,0.0,26.0,26.0,26.0,26.0,-0.14925,0.29600000000000004,0.09923333333333334,293.457,-2.6379,-2.695666666666667,-1.498,-1.5811000000000002,-265.78,216.0225,190.92975,0.0,0.0,0.0,0.0,0.007366666666666667,-5.498166666666667,-5.498166666666667,-0.5056,0.5873333333333334,-0.01650000000000018,-0.16400000000000003,65.964,-0.0834,-0.19005,1.2960000000000012,100.0,1.0,1.0,203.48666666666668,0.0,0.0,0.0,0.0,0.0,0.0,0.0,8625.1,0.0,55.0,5.0,237.43666666666667,1.0,0.0,0.0,0.0,0.0,0.0,0.0,0.0,0.1529999999999987,0.1529999999999987,0.0,0.0,1.0,55.0,616.79921,10000.0,85.000001,85.000001,85.000001,85.000001,395.0,0.0,0.0,0.0,1.0,166.665,53.589,53.589,48.126,48.126,34.0,-26.307499999999997,18.288,-35.516666666666666,24.572499999999998,0.0,1783.323,0.8550000000000004,100.0,27.753,26.843,42.266999999999996,41.251,0.0,0.0,100.0,0.0,0.0,0.0,0.0,2944.857142857143,2891.8,4387.625,4261.5,305.8795,305.623,314.107,314.32025,21.8139,20.5311,21.8052,21.3431,314.999998,314.999998,324.999988,324.999988,99.55935714285714,99.50731666666667,99.56598571428572,99.54575714285714,-0.03275000000000006,-0.15999999999999992,-0.20516666666666666,0.012166666666666666,-0.046666666666666856,-0.041666666666671404,1.4563333333333333,1.5175,37.337,29.319,37.282,34.394,56.393,34.635,59.3105,51.8485,54.299,33.784,57.9255,50.197,53.458,33.329499999999996,57.882,49.617666666666665,-0.009499999999999953,-0.14000000000000012,0.107395,0.101245,0.0,206.71,206.585,203.48666666666668,203.48666666666668,0.0,0.0
4,0.0,0.0,0.0,1.0,1.0,0.0,0.0,1.0,0.0,0.0,1.0,1.1856,26.0,0.0,0.0,0.0,59.999996,0.0,26.0,26.0,26.0,26.0,-0.13637500000000002,0.29280000000000017,0.0037666666666666664,293.671,-2.663,-2.787,-1.4372,-1.5974,-262.41,216.015,190.910125,0.0,0.0,0.0,0.0,0.009300000000000001,-5.498166666666667,-5.498166666666667,-0.5379,-0.8696666666666667,-0.08199999999999985,-1.657,66.111,-0.0907,-0.232775,1.5660000000000007,100.0,1.0,1.0,204.04333333333335,0.0,0.0,0.0,0.0,0.0,0.0,0.0,8648.7,0.0,55.0,5.0,237.97,0.0,0.0,0.0,0.0,0.0,0.0,0.0,0.0,0.20400000000000063,0.20400000000000063,0.0,0.0,0.0,55.0,616.79921,10000.0,85.000001,85.000001,85.000001,85.000001,395.0,0.0,0.0,0.0,1.0,333.33500000000004,53.345,53.345,48.66,48.66,34.0,-31.0225,18.31,-33.20666666666666,20.9375,0.0,1783.27,0.9050000000000011,100.0,27.413,26.64,42.842,41.525,0.0,0.0,100.0,0.0,0.0,0.0,0.0,3310.5714285714284,2834.1,4209.75,3734.4,304.9265,305.661,314.615,315.48525,21.8237,20.5361,21.8159,21.352,314.999998,314.999998,324.999988,324.999988,99.55935714285714,99.50733333333334,99.56612857142858,99.5459,-0.052000000000000046,-0.17166666666666663,-0.21883333333333335,0.01,-0.04833333333333201,-0.04999999999999716,1.5263333333333335,1.5939999999999999,37.397999999999996,29.3505,37.349999999999994,34.45,56.376000000000005,34.679,59.3555,51.912,54.283,33.824,57.9675,50.257,53.441,33.368,57.921,49.677,-0.0024999999999999467,-0.14100000000000001,0.10580500000000001,0.11199,0.0,207.095,206.985,204.04333333333335,204.04333333333335,0.0,0.0
5,0.0,0.0,0.0,1.0,1.0,0.0,0.0,1.0,0.0,0.0,1.0,1.1856,26.0,0.0,0.0,0.0,59.999996,0.0,26.0,26.0,26.0,26.0,-0.15900000000000003,0.29080000000000017,-0.03253333333333333,293.839,-2.6715999999999998,-2.760666666666667,-1.5086,-1.6284,-259.03,216.005,190.89,0.0,0.0,0.0,0.0,0.011266666666666668,-5.498166666666667,-5.498166666666667,-0.5364,0.4526666666666667,-0.08162499999999984,0.891,66.256,-0.1048,-0.214725,1.5060000000000002,100.0,1.0,1.0,204.5366666666667,0.0,0.0,0.0,0.0,0.0,0.0,0.0,8669.6,0.0,55.0,5.0,238.49,1.0,0.0,0.0,0.0,0.0,0.0,0.0,0.0,0.254999999999999,0.254999999999999,0.0,0.0,1.0,55.0,616.79921,10000.0,85.000001,85.000001,85.000001,85.000001,395.0,0.0,0.0,0.0,1.0,166.665,53.589,53.589,49.24,49.24,34.0,-28.455,18.834,-33.3,22.7275,0.0,1783.222,0.5500000000000007,100.0,27.774,26.383,42.613,41.007,0.0,0.0,100.0,0.0,0.0,0.0,0.0,3123.0,2857.1,4075.625,4007.5,305.2525,305.78833333333336,314.9255,314.95625,21.8337,20.5412,21.8264,21.3607,314.999998,314.999998,324.999988,324.999988,99.55935714285714,99.50735,99.56625714285714,99.54602857142856,-0.028750000000000053,-0.1523333333333332,-0.23116666666666666,0.004333333333333333,-0.02833333333332888,-0.05833333333333002,1.5633333333333335,1.6075,37.46,29.3825,37.415,34.5045,56.364000000000004,34.7175,59.391999999999996,51.965,54.271,33.86,58.0015,50.3085,53.428,33.402,57.9525,49.72666666666667,-0.031000000000000028,-0.12050000000000005,0.10125500000000001,0.11769,0.0,207.565,207.495,204.5366666666667,204.5366666666667,0.0,0.0
6,0.0,0.0,0.0,1.0,1.0,0.0,0.0,1.0,0.0,0.0,1.0,1.1856,26.0,0.0,0.0,0.0,59.999996,0.0,26.0,26.0,26.0,26.0,-0.16400000000000003,0.29869999999999997,0.009300000000000001,293.533,-2.6231999999999998,-2.812666666666667,-1.5354999999999999,-1.5883,-255.85,215.99,190.8705,0.0,0.0,0.0,0.0,0.013133333333333335,-5.498166666666667,-5.498166666666667,-0.5261,0.04066666666666666,-0.07987499999999992,0.712,66.395,-0.108,-0.205525,1.1660000000000004,100.0,1.0,1.0,204.86333333333334,0.0,0.0,0.0,0.0,0.0,0.0,0.0,8683.4,0.0,55.0,5.0,238.99333333333334,0.0,0.0,0.0,0.0,0.0,0.0,0.0,0.0,0.3030000000000008,0.3030000000000008,0.0,0.0,0.0,55.0,616.79921,10000.0,85.000001,85.000001,85.000001,85.000001,395.0,0.0,0.0,0.0,1.0,166.665,53.452,53.452,48.599000000000004,48.599000000000004,34.0,-28.125,19.624,-35.093333333333334,22.465,0.0,1783.174,0.45500000000000185,100.0,27.764,26.417,42.864000000000004,41.268,0.0,0.0,100.0,0.0,0.0,0.0,0.0,3125.714285714286,2896.6,4202.5,4073.4,305.214,305.61333333333334,314.5685,314.782,21.843,20.546,21.8364,21.3692,314.999998,314.999998,324.999988,324.999988,99.55937142857142,99.50736666666667,99.5664,99.54617142857143,-0.029249999999999998,-0.15266666666666673,-0.2275,-0.0023333333333333335,-0.041666666666671404,-0.06333333333333258,1.5123333333333333,1.5635,37.519,29.4125,37.477000000000004,34.5575,56.349999999999994,34.7565,59.4305,52.0225,54.257,33.8955,58.038,50.3635,53.414,33.436,57.986,49.78066666666666,-0.03749999999999998,-0.10650000000000004,0.10670500000000001,0.102815,0.0,208.0,207.905,204.86333333333334,204.86333333333334,0.0,0.0
7,0.0,0.0,0.0,1.0,1.0,0.0,0.0,1.0,0.0,0.0,1.0,1.1856,26.0,0.0,0.0,0.0,59.999996,0.0,26.0,26.0,26.0,26.0,-0.10949999999999993,0.28490000000000015,0.014700000000000001,293.396,-2.5961,-2.8022222222222224,-1.4961,-1.6343,-252.46,215.9725,190.85,0.0,0.0,0.0,0.0,0.0151,-5.498166666666667,-5.498166666666667,-0.5357000000000001,-0.008666666666666666,-0.07100000000000017,-0.21799999999999997,66.53999999999999,-0.1009,-0.2237,1.0,100.0,1.0,1.0,205.35000000000002,0.0,0.0,0.0,0.0,0.0,0.0,0.0,8704.0,0.0,55.0,5.0,239.51333333333332,1.0,0.0,0.0,0.0,0.0,0.0,0.0,0.0,0.3539999999999992,0.3539999999999992,0.0,0.0,1.0,55.0,616.79921,10000.0,85.000001,85.000001,85.000001,85.000001,395.0,0.0,0.0,0.0,1.0,166.665,52.979,52.979,48.95,48.95,34.0,-28.697499999999998,20.244,-32.99666666666667,22.567500000000003,0.0,1783.122,0.045000000000001705,100.0,27.861,26.733,42.825,41.543,0.0,0.0,100.0,0.0,0.0,0.0,0.0,3297.5714285714284,2882.3,4086.75,3951.9,304.8545,305.4513333333333,314.88025,314.95675,21.853,20.551099999999998,21.846899999999998,21.3781,314.999998,314.999998,324.999988,324.999988,99.55937142857142,99.5074,99.56655714285715,99.5463,-0.01200000000000001,-0.1376666666666666,-0.22083333333333335,0.0013333333333333333,-0.054999999999999716,-0.04833333333333201,1.5233333333333334,1.568,37.581,29.444499999999998,37.543,34.613,56.336,34.7975,59.471000000000004,52.082499999999996,54.244,33.9335,58.076,50.421,53.4,33.4725,58.021,49.836666666666666,-0.0665,-0.07750000000000012,0.10186500000000001,0.10574000000000001,0.0,208.46,208.36,205.35000000000002,205.35000000000002,0.0,0.0
8,0.0,0.0,0.0,1.0,1.0,0.0,0.0,1.0,0.0,0.0,1.0,1.1856,26.0,0.0,0.0,0.0,59.999996,0.0,26.0,26.0,26.0,26.0,-0.09950000000000003,0.2945,0.014866666666666667,293.51800000000003,-2.6746,-2.737888888888889,-1.478,-1.6227,-249.06,215.95,190.829375,0.0,0.0,0.0,0.0,0.017066666666666667,-5.498166666666667,-5.498166666666667,-0.5367000000000001,-0.4433333333333333,-0.053999999999999826,0.7170000000000001,66.686,-0.0834,-0.217225,0.3860000000000001,100.0,1.0,1.0,205.71666666666667,0.0,0.0,0.0,0.0,0.0,0.0,0.0,8719.6,0.0,55.0,5.0,240.04000000000002,0.0,0.0,0.0,0.0,0.0,0.0,0.0,0.0,0.40500000000000114,0.40500000000000114,0.0,0.0,0.0,55.0,616.79921,10000.0,85.000001,85.000001,85.000001,85.000001,395.0,0.0,0.0,0.0,1.0,166.665,53.574,53.574,48.325,48.325,34.0,-25.572499999999998,21.15,-31.189999999999998,24.755000000000003,0.0,1783.071,-0.04499999999999815,100.0,27.591,26.592,42.943,41.576,0.0,0.0,100.0,0.0,0.0,0.0,0.0,3003.4285714285716,2983.5,4093.75,4105.1,305.655,305.41133333333335,314.7665,314.64425,21.8627,20.5563,21.8575,21.3871,314.999998,314.999998,324.999988,324.999988,99.55938571428571,99.5074,99.56668571428571,99.54644285714286,0.01175000000000015,-0.1146666666666667,-0.18433333333333335,0.02416666666666667,-0.04333333333332945,-0.06666666666666998,1.5203333333333333,1.5285,37.641999999999996,29.477,37.608999999999995,34.669,56.318,34.837,59.5115,52.143,54.227999999999994,33.97,58.1135,50.4785,53.382999999999996,33.507,58.0555,49.89333333333333,-0.07699999999999996,-0.06899999999999995,0.10079,0.10362,0.0,208.875,208.82999999999998,205.71666666666667,205.71666666666667,0.0,0.0
9,0.0,0.0,0.0,1.0,1.0,0.0,0.0,1.0,0.0,0.0,1.0,1.1856,26.0,0.0,0.0,0.0,59.999996,0.0,26.0,26.0,26.0,26.0,-0.07337499999999997,0.3035000000000001,0.03466666666666667,293.289,-2.5991999999999997,-2.759333333333333,-1.5323,-1.5755,-245.86,215.9275,190.809625,0.0,0.0,0.0,0.0,0.018933333333333337,-5.498166666666667,-5.498166666666667,-0.5387000000000001,0.5503333333333333,-0.05787500000000012,0.921,66.82,-0.0636,-0.214125,0.258,100.0,1.0,1.0,206.2266666666667,0.0,0.0,0.0,0.0,0.0,0.0,0.0,8741.3,0.0,55.0,5.0,240.5233333333333,1.0,0.0,0.0,0.0,0.0,0.0,0.0,0.0,0.4529999999999994,0.4529999999999994,0.0,0.0,1.0,55.0,616.79921,10000.0,85.000001,85.000001,85.000001,85.000001,395.0,0.0,0.0,0.0,1.0,166.665,52.75,52.75,49.132999999999996,49.132999999999996,34.0,-26.4575,22.688,-29.939999999999998,25.365000000000002,0.0,1783.024,-0.19500000000000028,100.0,27.997,26.863,42.644999999999996,41.576,0.0,0.0,100.0,0.0,0.0,0.0,0.0,3253.0,3021.6,4019.5,4069.3,304.8375,305.23466666666667,315.04575,314.81625,21.8721,20.5613,21.8673,21.3954,314.999998,314.999998,324.999988,324.999988,99.55938571428571,99.50741666666667,99.56682857142857,99.54657142857143,0.03400000000000025,-0.09133333333333327,-0.1655,0.059000000000000004,-0.05333333333332746,-0.05666666666667197,1.5693333333333332,1.5755,37.7,29.508,37.671,34.7215,56.305,34.875,59.5465,52.198,54.214,34.004999999999995,58.146,50.5315,53.369,33.5405,58.085499999999996,49.945,-0.08799999999999997,-0.06000000000000005,0.09793,0.10985500000000001,0.0,209.3,209.275,206.2266666666667,206.2266666666667,0.0,0.0
10,0.0,0.0,0.0,1.0,1.0,0.0,0.0,1.0,0.0,0.0,1.0,1.1856,26.0,0.0,0.0,0.0,59.999996,0.0,26.0,26.0,26.0,26.0,-0.03849999999999998,0.2986,0.030233333333333334,293.198,-2.6753,-2.7055555555555557,-1.5117,-1.5470000000000002,-242.25,215.9,190.78775,0.0,0.0,0.0,0.0,0.021033333333333334,-5.498166666666667,-5.498166666666667,-0.5241,-0.6186666666666666,-0.016249999999999876,1.755,66.974,-0.0425,-0.20947500000000002,-0.08399999999999963,100.0,1.0,1.0,206.5366666666667,0.0,0.0,0.0,0.0,0.0,0.0,0.0,8754.3,0.0,55.0,5.0,241.07999999999998,0.0,0.0,0.0,0.0,0.0,0.0,1.0,0.0,0.5069999999999979,0.5069999999999979,0.0,0.0,0.0,55.0,616.79921,10000.0,85.000001,85.000001,85.000001,85.000001,395.0,0.0,0.0,0.0,1.0,166.665,53.543,53.543,48.035,48.035,34.0,-23.035,22.614,-30.13,28.009999999999998,0.0,1782.968,-0.375,100.0,27.758,26.822,43.008,42.186,0.0,0.0,100.0,0.0,0.0,0.0,0.0,2917.285714285714,2974.4,4162.75,4285.2,305.912,305.48466666666667,314.627,314.2455,21.8824,20.5668,21.8786,21.4051,314.999998,314.999998,324.999988,324.999988,99.55938571428571,99.50743333333334,99.56698571428572,99.54672857142857,0.05525000000000002,-0.06833333333333313,-0.14200000000000002,0.07816666666666668,-0.030000000000001137,-0.03999999999999915,1.509,1.4969999999999999,37.765,29.5425,37.741,34.782,56.289,34.915,59.5895,52.2645,54.199,34.0415,58.1865,50.595,53.352999999999994,33.576,58.123,50.007333333333335,-0.10099999999999998,-0.04299999999999993,0.09808000000000001,0.10934,0.0,209.75,209.73000000000002,206.5366666666667,206.5366666666667,0.0,0.0
11,0.0,0.0,0.0,1.0,1.0,0.0,0.0,1.0,0.0,0.0,1.0,1.1856,26.0,0.0,0.0,0.0,59.999996,0.0,26.0,26.0,26.0,26.0,-0.016000000000000014,0.26480000000000015,-0.0608,293.625,-2.6828,-2.7182222222222223,-1.5645,-1.5218,-239.03,215.875,190.768125,0.0,0.0,0.0,0.0,0.022600000000000002,-5.498166666666667,-5.498166666666667,-0.557,-0.11900000000000001,0.006000000000000005,0.627,67.105,-0.0245,-0.23145000000000002,-0.23599999999999977,100.0,1.0,1.0,207.19,0.0,0.0,0.0,0.0,0.0,0.0,0.0,8782.0,0.0,55.0,5.0,241.55,1.0,0.0,0.0,0.0,0.0,0.0,1.0,0.0,0.5549999999999997,0.5549999999999997,0.0,0.0,1.0,55.0,616.79921,10000.0,85.000001,85.000001,85.000001,85.000001,395.0,0.0,0.0,0.0,1.0,166.665,53.116,53.116,49.24,49.24,34.0,-23.39,24.52,-26.10333333333333,25.9025,0.0,1782.921,-0.4450000000000003,100.0,27.541,27.056,42.484,42.131,0.0,0.0,100.0,0.0,0.0,0.0,0.0,3036.4285714285716,3099.5,3781.375,3938.7,305.5385,305.004,315.6525,315.13325,21.8915,20.5718,21.8883,21.4135,314.999998,314.999998,324.999988,324.999988,99.5594,99.50743333333334,99.56711428571428,99.54685714285715,0.07525000000000004,-0.05466666666666664,-0.124,0.10633333333333334,-0.046666666666666856,-0.05833333333333002,1.6163333333333334,1.603,37.822,29.573999999999998,37.802,34.8345,56.274,34.951,59.622,52.32,54.185,34.075,58.216499999999996,50.6485,53.338,33.608000000000004,58.1505,50.059666666666665,-0.11149999999999993,-0.04150000000000009,0.101995,0.11263000000000001,0.0,210.14499999999998,210.16,207.19,207.19,0.0,0.0
12,0.0,0.0,0.0,1.0,1.0,0.0,0.0,1.0,0.0,0.0,1.0,1.1856,26.0,0.0,0.0,0.0,59.999996,0.0,26.0,26.0,26.0,26.0,0.01637500000000003,0.2974000000000001,0.0239,293.091,-2.7109,-2.695333333333333,-1.5377,-1.5468000000000002,-235.6,215.8475,190.746125,0.0,0.0,0.0,0.0,0.025466666666666665,-5.498166666666667,-5.498166666666667,-0.5429,0.3136666666666667,-0.001875000000000071,-0.599,67.25,-0.0077,-0.20467500000000002,-0.2679999999999998,100.0,1.0,1.0,207.45,0.0,0.0,0.0,0.0,0.0,0.0,0.0,8793.0,0.0,55.0,5.0,242.07,0.0,0.0,0.0,0.0,0.0,0.0,1.0,0.0,0.6059999999999981,0.6059999999999981,0.0,0.0,0.0,55.0,616.79921,10000.0,85.000001,85.000001,85.000001,85.000001,395.0,0.0,0.0,0.0,1.0,166.665,52.963,52.963,48.126,48.126,34.0,-24.23,24.759999999999998,-29.37,28.497500000000002,0.0,1782.87,-0.4499999999999993,100.0,27.348,27.407,42.332,42.239000000000004,0.0,0.0,100.0,0.0,0.0,0.0,0.0,3148.142857142857,3057.6,4228.0,4169.9,305.3615,304.979,314.6095,314.502,21.9012,20.5773,21.8988,21.4225,314.999998,314.999998,324.999988,324.999988,99.55941428571428,99.50745,99.56725714285714,99.547,0.0807500000000001,-0.03933333333333322,-0.11466666666666668,0.1055,-0.05666666666667197,-0.04333333333332945,1.5286666666666666,1.5194999999999999,37.882,29.608,37.867999999999995,34.891,56.26,34.989,59.66,52.379999999999995,54.172,34.1105,58.251999999999995,50.7065,53.324,33.641999999999996,58.1825,50.11633333333333,-0.11499999999999999,-0.03299999999999992,0.10737500000000001,0.10426,0.0,210.60000000000002,210.60500000000002,207.45,207.45,0.0,0.0
13,0.0,0.0,0.0,1.0,1.0,0.0,0.0,1.0,0.0,0.0,1.0,1.1856,26.0,0.0,0.0,0.0,59.999996,0.0,26.0,26.0,26.0,26.0,0.02750000000000008,0.2693000000000001,0.049100000000000005,292.74,-2.6836,-2.7026666666666666,-1.5722,-1.549,-232.17000000000002,215.82,190.724375,0.0,0.0,0.0,0.0,0.0269,-5.498166666666667,-5.498166666666667,-0.5389,-0.17866666666666667,0.0035000000000000586,1.0,67.392,0.0088,-0.215225,-0.46200000000000063,100.0,1.0,1.0,207.82666666666665,0.0,0.0,0.0,0.0,0.0,0.0,0.0,8809.1,0.0,55.0,5.0,242.58333333333334,1.0,0.0,0.0,0.0,0.0,0.0,1.0,0.0,0.657,0.657,0.0,0.0,1.0,55.0,616.79921,10000.0,85.000001,85.000001,85.000001,85.000001,395.0,0.0,0.0,0.0,1.0,166.665,52.704,52.704,48.08,48.08,34.0,-22.3975,25.974,-28.006666666666664,31.0375,0.0,1782.819,-0.46999999999999886,100.0,27.829,27.476,42.697,42.664,0.0,0.0,100.0,0.0,0.0,0.0,0.0,3056.714285714286,3132.1,4125.0,4323.9,305.4595,304.9096666666667,314.73975,314.17425,21.910899999999998,20.5828,21.909399999999998,21.4317,314.999998,314.999998,324.999988,324.999988,99.55941428571428,99.50745,99.5674,99.54715714285715,0.10375000000000023,-0.023666666666666725,-0.0905,0.12716666666666668,-0.03333333333333144,-0.03999999999999915,1.5023333333333333,1.492,37.943,29.642,37.934,34.948499999999996,56.247,35.0275,59.698499999999996,52.4435,54.16,34.1455,58.2875,50.7675,53.311,33.6755,58.2155,50.176,-0.11249999999999993,-0.034499999999999975,0.107355,0.09907,0.0,211.01999999999998,211.05,207.82666666666665,207.82666666666665,0.0,0.0
14,0.0,0.0,0.0,1.0,1.0,0.0,0.0,1.0,0.0,0.0,1.0,1.1856,26.0,0.0,0.0,0.0,59.999996,0.0,26.0,26.0,26.0,26.0,0.03512500000000007,0.2743,-0.018533333333333336,292.938,-2.7066,-2.705,-1.572,-1.5371000000000001,-228.93,215.79500000000002,190.704375,0.0,0.0,0.0,0.0,0.02876666666666667,-5.498166666666667,-5.498166666666667,-0.5504,-0.07666666666666667,0.025125000000000064,1.245,67.524,0.0205,-0.22815000000000002,-0.49799999999999933,100.0,1.0,1.0,208.32,0.0,0.0,0.0,0.0,0.0,0.0,0.0,8830.0,0.0,55.0,5.0,243.05666666666667,0.0,0.0,0.0,0.0,0.0,0.0,1.0,0.0,0.7049999999999983,0.7049999999999983,0.0,0.0,0.0,55.0,616.79921,10000.0,85.000001,85.000001,85.000001,85.000001,395.0,0.0,0.0,0.0,1.0,166.665,52.689,52.689,48.278999999999996,48.278999999999996,34.0,-21.7675,26.768,-26.023333333333333,29.835,0.0,1782.771,-0.504999999999999,100.0,27.771,27.606,42.6,42.778999999999996,0.0,0.0,100.0,0.0,0.0,0.0,0.0,2982.0,3181.0,3968.125,4166.1,305.6805,304.689,315.142,314.56175,21.92,20.5879,21.9193,21.4403,314.999998,314.999998,324.999988,324.999988,99.55942857142857,99.50745,99.56752857142857,99.54728571428572,0.10875000000000012,-0.01866666666666661,-0.0805,0.13633333333333333,-0.021666666666668277,-0.046666666666666856,1.5473333333333334,1.5305,38.0,29.674500000000002,37.995000000000005,35.001999999999995,56.236000000000004,35.0625,59.733000000000004,52.5005,54.147999999999996,34.178,58.3195,50.8225,53.299,33.707,58.2445,50.230000000000004,-0.11549999999999994,-0.03600000000000003,0.10040500000000001,0.10096000000000001,0.0,211.425,211.45,208.32,208.32,0.0,0.0
15,0.0,0.0,0.0,1.0,1.0,0.0,0.0,1.0,0.0,0.0,1.0,1.1856,26.0,0.0,0.0,0.0,59.999996,0.0,26.0,26.0,26.0,26.0,0.050124999999999975,0.2843,0.013666666666666667,292.862,-2.7155,-2.662777777777778,-1.5973000000000002,-1.5394,-225.69,215.7725,190.684,0.0,0.0,0.0,0.0,0.03066666666666667,-5.498166666666667,-5.498166666666667,-0.5416000000000001,0.2573333333333333,0.050875000000000004,0.7590000000000001,67.656,0.029400000000000003,-0.210875,-0.5499999999999998,100.0,1.0,1.0,208.69333333333333,0.0,0.0,0.0,0.0,0.0,0.0,0.0,8845.8,0.0,55.0,5.0,243.53333333333336,1.0,0.0,0.0,0.0,0.0,0.0,1.0,0.0,0.7530000000000001,0.7530000000000001,0.0,0.0,1.0,55.0,616.79921,10000.0,85.000001,85.000001,85.000001,85.000001,395.0,0.0,0.0,0.0,1.0,166.665,52.811,52.811,48.203,48.203,34.0,-20.5175,26.195999999999998,-25.89666666666666,32.465,0.0,1782.724,-0.46499999999999986,100.0,27.773,27.732,42.424,42.91,0.0,0.0,100.0,0.0,0.0,0.0,0.0,2879.4285714285716,3159.7,3990.125,4340.3,306.008,304.7416666666667,315.11925,314.09725,21.929,20.5931,21.929,21.448900000000002,314.999998,314.999998,324.999988,324.999988,99.55944285714286,99.50745,99.56767142857143,99.54742857142857,0.11975000000000025,-0.018999999999999906,-0.06716666666666667,0.15383333333333335,-0.036666666666668846,-0.05666666666667197,1.5313333333333334,1.5135,38.056,29.707,38.057,35.0555,56.224000000000004,35.098,59.766,52.559,54.137,34.211,58.3505,50.8785,53.287,33.7385,58.2725,50.285,-0.11099999999999999,-0.046499999999999986,0.100705,0.108785,0.0,211.85500000000002,211.875,208.69333333333333,208.69333333333333,0.0,0.0
16,0.0,0.0,0.0,1.0,1.0,0.0,0.0,1.0,0.0,0.0,1.0,1.1856,26.0,0.0,0.0,0.0,59.999996,0.0,26.0,26.0,26.0,26.0,0.06262499999999993,0.2612000000000001,-0.019833333333333335,292.847,-2.776,-2.6133333333333333,-1.5709,-1.5417,-222.23,215.7475,190.661875,0.0,0.0,0.0,0.0,0.03266666666666667,-5.498166666666667,-5.498166666666667,-0.5592,-0.5973333333333334,0.03400000000000003,-1.194,67.79599999999999,0.0316,-0.226325,-0.3639999999999999,100.0,1.0,1.0,209.13,0.0,0.0,0.0,0.0,0.0,0.0,0.0,8864.2,0.0,55.0,5.0,244.03666666666666,0.0,0.0,0.0,0.0,0.0,0.0,1.0,0.0,0.8039999999999985,0.8039999999999985,0.0,0.0,0.0,55.0,616.79921,10000.0,85.000001,85.000001,85.000001,85.000001,395.0,0.0,0.0,0.0,1.0,333.33500000000004,52.643,52.643,47.989,47.989,34.0,-23.127499999999998,25.722,-26.10333333333333,29.9925,0.0,1782.672,-0.3949999999999996,100.0,27.302,27.915,42.607,43.119,0.0,0.0,100.0,0.0,0.0,0.0,0.0,3144.142857142857,3157.5,4032.25,4068.7,305.481,304.67133333333334,315.0655,314.66875,21.9384,20.5986,21.9396,21.458,314.999998,314.999998,324.999988,324.999988,99.55945714285714,99.50746666666667,99.56781428571429,99.54755714285714,0.11675000000000013,-0.021333333333333204,-0.07383333333333333,0.151,-0.046666666666666856,-0.03499999999999659,1.5426666666666666,1.526,38.114999999999995,29.741500000000002,38.122,35.1125,56.209,35.1355,59.804,52.6205,54.123000000000005,34.2455,58.3855,50.9375,53.272,33.772,58.3045,50.343,-0.11049999999999993,-0.044499999999999984,0.10310000000000001,0.106395,0.0,212.265,212.285,209.13,209.13,0.0,0.0
17,0.0,0.0,0.0,1.0,1.0,0.0,0.0,1.0,0.0,0.0,1.0,1.1856,26.0,0.0,0.0,0.0,59.999996,0.0,26.0,26.0,26.0,26.0,0.024250000000000105,0.2812000000000001,0.007833333333333333,292.526,-2.7264,-2.604222222222222,-1.6052,-1.5093,-218.76999999999998,215.7225,190.6395,0.0,0.0,0.0,0.0,0.03466666666666667,-5.498166666666667,-5.498166666666667,-0.5496,0.363,0.009749999999999925,0.526,67.935,0.0309,-0.20815,-0.3620000000000001,100.0,1.0,1.0,209.51,0.0,0.0,0.0,0.0,0.0,0.0,0.0,8880.3,0.0,55.0,5.0,244.53666666666666,1.0,0.0,0.0,0.0,0.0,0.0,1.0,0.0,0.8550000000000004,0.8550000000000004,0.0,0.0,1.0,55.0,616.79921,10000.0,85.000001,85.000001,85.000001,85.000001,395.0,0.0,0.0,0.0,1.0,333.33500000000004,52.46,52.46,47.745,47.745,34.0,-22.4675,25.838,-28.553333333333335,31.57,0.0,1782.619,-0.379999999999999,100.0,27.932,27.887999999999998,42.604,42.947,0.0,0.0,100.0,0.0,0.0,0.0,0.0,3085.5714285714284,3162.2,4269.25,4287.8,305.441,304.846,314.52175,314.32375,21.9481,20.6043,21.95,21.4671,314.999998,314.999998,324.999988,324.999988,99.55947142857143,99.50746666666667,99.56795714285714,99.54771428571429,0.11575000000000024,-0.012666666666666604,-0.0745,0.15466666666666665,-0.051666666666669414,-0.07000000000000028,1.5266666666666666,1.495,38.175,29.7765,38.187,35.1695,56.198,35.174,59.8395,52.681,54.111999999999995,34.2815,58.419,50.996,53.26,33.806,58.3345,50.400333333333336,-0.10999999999999999,-0.04800000000000004,0.10567000000000001,0.11038500000000001,0.0,212.73000000000002,212.75,209.51,209.51,0.0,0.0
18,0.0,0.0,0.0,1.0,1.0,0.0,0.0,1.0,0.0,0.0,1.0,1.1856,26.0,0.0,0.0,0.0,59.999996,0.0,26.0,26.0,26.0,26.0,0.02387500000000009,0.27680000000000016,0.004866666666666667,292.404,-2.7462999999999997,-2.5892222222222223,-1.6084,-1.4657,-215.51,215.7025,190.618375,0.0,0.0,0.0,0.0,0.03656666666666667,-5.498166666666667,-5.498166666666667,-0.5604,-0.4453333333333333,0.020999999999999908,0.9710000000000001,68.066,0.0292,-0.22310000000000002,-0.347999999999999,100.0,1.0,1.0,209.91333333333333,0.0,0.0,0.0,0.0,0.0,0.0,0.0,8897.4,0.0,55.0,5.0,245.00666666666666,0.0,0.0,0.0,0.0,0.0,0.0,1.0,0.0,0.9029999999999987,0.9029999999999987,0.0,0.0,0.0,55.0,616.79921,10000.0,85.000001,85.000001,85.000001,85.000001,395.0,0.0,0.0,0.0,1.0,333.33500000000004,52.261,52.261,47.668,47.668,34.0,-23.025,26.936,-28.0,29.872500000000002,0.0,1782.572,-0.375,100.0,27.81,27.8,42.918,43.239000000000004,0.0,0.0,100.0,0.0,0.0,0.0,0.0,3131.4285714285716,3324.1,4120.75,4241.2,305.342,304.39566666666667,314.81975,314.408,21.957,20.6095,21.9599,21.4758,314.999998,314.999998,324.999988,324.999988,99.55948571428571,99.50746666666667,99.56808571428571,99.54785714285714,0.11525000000000007,-0.01766666666666672,-0.08416666666666667,0.14283333333333334,-0.041666666666671404,-0.04999999999999716,1.5226666666666666,1.518,38.230999999999995,29.808999999999997,38.25,35.2235,56.186,35.209,59.8755,52.7395,54.101,34.3135,58.452,51.052,53.247,33.837,58.365,50.455333333333336,-0.11249999999999993,-0.050999999999999934,0.11235,0.10698500000000001,0.0,213.10500000000002,213.10500000000002,209.91333333333333,209.91333333333333,0.0,0.0
19,0.0,0.0,0.0,1.0,1.0,0.0,0.0,1.0,0.0,0.0,1.0,1.1856,26.0,0.0,0.0,0.0,59.999996,0.0,26.0,26.0,26.0,26.0,0.038999999999999924,0.29410000000000003,0.06456666666666666,292.038,-2.6653000000000002,-2.6911111111111112,-1.5438,-1.588,-211.82999999999998,215.68,190.594375,0.0,0.0,0.0,0.0,0.038733333333333335,-5.498166666666667,-5.498166666666667,-0.5487000000000001,0.6956666666666667,0.02849999999999997,0.7090000000000001,68.211,0.0296,-0.212675,-0.347999999999999,100.0,1.0,1.0,210.31666666666666,0.0,0.0,0.0,0.0,0.0,0.0,0.0,8914.6,0.0,55.0,5.0,245.53333333333336,1.0,0.0,0.0,0.0,0.0,0.0,1.0,0.0,0.9570000000000007,0.9570000000000007,0.0,0.0,1.0,55.0,616.79921,10000.0,85.000001,85.000001,85.000001,85.000001,395.0,0.0,0.0,0.0,1.0,166.665,51.971000000000004,51.971000000000004,47.562,47.562,34.0,-21.822499999999998,26.496,-27.206666666666663,33.71,0.0,1782.519,-0.28500000000000014,100.0,28.398,28.317,42.826,43.327,0.0,0.0,100.0,0.0,0.0,0.0,0.0,3031.142857142857,3177.5,4170.125,4422.7,305.5015,304.632,314.676,313.85275,21.9672,20.6155,21.971,21.485500000000002,314.999998,314.999998,324.999988,324.999988,99.5595,99.50748333333334,99.56824285714286,99.548,0.10975000000000001,-0.02400000000000002,-0.076,0.14516666666666667,-0.03833333333332689,-0.07000000000000028,1.4973333333333334,1.477,38.295,29.847,38.318,35.2845,56.174,35.251,59.9125,52.8045,54.089,34.3525,58.4865,51.115,53.235,33.8745,58.3965,50.516999999999996,-0.09850000000000003,-0.0535000000000001,0.10286500000000001,0.1116,0.0,213.59,213.62,210.31666666666666,210.31666666666666,0.0,0.0
20,0.0,0.0,0.0,1.0,1.0,0.0,0.0,1.0,0.0,0.0,1.0,1.1856,26.0,0.0,0.0,0.0,59.999996,0.0,26.0,26.0,26.0,26.0,0.03837500000000005,0.27249999999999996,0.009733333333333333,292.343,-2.7591,-2.644222222222222,-1.5482,-1.5731000000000002,-208.55,215.66,190.57325,0.0,0.0,0.0,0.0,0.040633333333333334,-5.498166666666667,-5.498166666666667,-0.5557,-1.012,0.026375000000000037,0.4950000000000001,68.34100000000001,0.024,-0.22595,-0.2400000000000002,100.0,1.0,1.0,210.68666666666667,0.0,0.0,0.0,0.0,0.0,0.0,0.0,8930.3,0.0,55.0,5.0,246.00333333333333,0.0,0.0,0.0,0.0,0.0,0.0,0.0,0.0,1.004999999999999,1.004999999999999,0.0,0.0,0.0,55.0,616.79921,10000.0,85.000001,85.000001,85.000001,85.000001,395.0,0.0,0.0,0.0,1.0,166.665,52.612,52.612,47.211,47.211,34.0,-22.16,25.784,-26.926666666666662,31.650000000000002,0.0,1782.472,-0.3150000000000013,100.0,27.891,28.001,43.409,43.705,0.0,0.0,100.0,0.0,0.0,0.0,0.0,2974.714285714286,3158.1,4092.0,4204.1,305.8295,304.86833333333334,314.80625,314.36425,21.976,20.6207,21.981,21.4943,314.999998,314.999998,324.999988,324.999988,99.55951428571429,99.50748333333334,99.56838571428571,99.54814285714286,0.10650000000000004,-0.021333333333333204,-0.07983333333333333,0.1475,-0.03499999999999659,-0.04999999999999716,1.5016666666666667,1.4845,38.349999999999994,29.8795,38.381,35.339,56.16,35.286,59.9495,52.8635,54.076,34.385,58.521,51.172,53.221000000000004,33.9055,58.428,50.573,-0.09850000000000003,-0.052999999999999936,0.10751500000000001,0.10707000000000001,0.0,213.945,213.95,210.68666666666667,210.68666666666667,0.0,0.0
21,0.0,0.0,0.0,1.0,1.0,0.0,0.0,1.0,0.0,0.0,1.0,1.1856,26.0,0.0,0.0,0.0,59.999996,0.0,26.0,26.0,26.0,26.0,0.01637500000000003,0.28100000000000014,-0.07516666666666667,292.633,-2.7241,-2.655444444444444,-1.6148,-1.5359,-205.26999999999998,215.64249999999998,190.551625,0.0,0.0,0.0,0.0,0.04253333333333333,-5.498166666666667,-5.498166666666667,-0.5750000000000001,0.27466666666666667,0.009500000000000064,0.391,68.467,0.0189,-0.22312500000000002,-0.2560000000000002,100.0,1.0,1.0,211.26,0.0,0.0,0.0,0.0,0.0,0.0,0.0,8954.5,0.0,55.0,5.0,246.45333333333335,1.0,0.0,0.0,0.0,0.0,0.0,0.0,0.0,1.0530000000000008,1.0530000000000008,0.0,0.0,1.0,55.0,616.79921,10000.0,85.000001,85.000001,85.000001,85.000001,395.0,0.0,0.0,0.0,1.0,166.665,52.368,52.368,48.096000000000004,48.096000000000004,34.0,-22.6675,25.822000000000003,-27.22,28.7975,0.0,1782.424,-0.370000000000001,100.0,28.078,28.023,42.902,43.295,0.0,0.0,100.0,0.0,0.0,0.0,0.0,3081.714285714286,3152.1,4035.5,4036.5,305.455,304.89,315.099,314.91625,21.985,20.626,21.9907,21.5027,314.999998,314.999998,324.999988,324.999988,99.55952857142857,99.50748333333334,99.56851428571429,99.54828571428571,0.11025000000000018,-0.021333333333333204,-0.08650000000000001,0.14216666666666666,-0.054999999999999716,-0.04333333333332945,1.574,1.576,38.406,29.9125,38.442,35.391999999999996,56.149,35.322,59.9805,52.918,54.065,34.4185,58.55,51.2245,53.209,33.9375,58.454,50.62433333333333,-0.10699999999999998,-0.04600000000000004,0.10536500000000001,0.11348000000000001,0.0,214.375,214.37,211.26,211.26,0.0,0.0
22,0.0,0.0,0.0,1.0,1.0,0.0,0.0,1.0,0.0,0.0,1.0,1.1856,26.0,0.0,0.0,0.0,59.999996,0.0,26.0,26.0,26.0,26.0,0.03875000000000006,0.27570000000000006,0.0066,292.252,-2.7888,-2.700222222222222,-1.613,-1.5183,-201.76999999999998,215.6225,190.527875,0.0,0.0,0.0,0.0,0.04456666666666667,-5.498166666666667,-5.498166666666667,-0.5569000000000001,0.03833333333333334,0.01912500000000006,-0.508,68.605,0.016900000000000002,-0.201825,-0.2679999999999998,100.0,1.0,1.0,211.49666666666667,0.0,0.0,0.0,0.0,0.0,0.0,0.0,8964.6,0.0,55.0,5.0,246.95,0.0,0.0,0.0,0.0,0.0,0.0,0.0,0.0,1.1039999999999992,1.1039999999999992,0.0,0.0,0.0,55.0,616.79921,10000.0,85.000001,85.000001,85.000001,85.000001,395.0,0.0,0.0,0.0,1.0,333.33500000000004,52.628,52.628,47.119,47.119,34.0,-23.1175,24.451999999999998,-30.203333333333333,30.9675,0.0,1782.371,-0.41999999999999815,100.0,27.91,28.229,43.075,43.556,0.0,0.0,100.0,0.0,0.0,0.0,0.0,3060.857142857143,2993.9,4297.125,4346.3,305.7965,305.0973333333333,314.484,314.102,21.9945,20.6316,22.0012,21.512,314.999998,314.999998,324.999988,324.999988,99.55954285714286,99.50748333333334,99.56867142857143,99.54842857142857,0.10150000000000015,-0.036666666666666625,-0.0955,0.12816666666666665,-0.03333333333333144,-0.05333333333332746,1.4863333333333333,1.488,38.465,29.947499999999998,38.507999999999996,35.45,56.137,35.36,60.0185,52.9795,54.053,34.4535,58.585499999999996,51.284,53.196,33.9715,58.4865,50.68233333333333,-0.11249999999999993,-0.04899999999999993,0.10656,0.104885,0.0,214.805,214.8,211.49666666666667,211.49666666666667,0.0,0.0
23,0.0,0.0,0.0,1.0,1.0,0.0,0.0,1.0,0.0,0.0,1.0,1.1856,26.0,0.0,0.0,0.0,59.999996,0.0,26.0,26.0,26.0,26.0,0.017249999999999988,0.26080000000000014,-0.020533333333333334,292.13,-2.6921,-2.656,-1.6612,-1.4967000000000001,-198.26999999999998,215.60500000000002,190.504375,0.0,0.0,0.0,0.0,0.0466,-5.498166666666667,-5.498166666666667,-0.5741,-0.2,0.01749999999999985,0.5230000000000001,68.739,0.0211,-0.226325,-0.3179999999999996,100.0,1.0,1.0,212.01666666666665,0.0,0.0,0.0,0.0,0.0,0.0,0.0,8986.5,0.0,55.0,5.0,247.43333333333334,1.0,0.0,0.0,0.0,0.0,0.0,0.0,0.0,1.1550000000000011,1.1550000000000011,0.0,0.0,1.0,55.0,616.79921,10000.0,85.000001,85.000001,85.000001,85.000001,395.0,0.0,0.0,0.0,1.0,111.11,51.819,51.819,47.806,47.806,34.0,-23.6425,26.448,-28.18,29.145,0.0,1782.322,-0.3949999999999996,100.0,28.304000000000002,28.177,43.26,43.665,0.0,0.0,100.0,0.0,0.0,0.0,0.0,3199.714285714286,3212.0,4069.875,4129.8,305.043,304.67633333333333,315.02275,314.71775,22.0039,20.6373,22.0118,21.5212,314.999998,314.999998,324.999988,324.999988,99.55955714285714,99.5075,99.56881428571428,99.54857142857144,0.10625000000000018,-0.021333333333333204,-0.08533333333333333,0.14116666666666666,-0.05333333333332746,-0.054999999999999716,1.5463333333333333,1.5425,38.525,29.983,38.574,35.5075,56.123999999999995,35.3985,60.055,53.041,54.042,34.4895,58.619,51.343,53.183,34.006,58.516999999999996,50.74033333333333,-0.10549999999999993,-0.050999999999999934,0.10748,0.10767000000000002,0.0,215.2,215.19,212.01666666666665,212.01666666666665,0.0,0.0
24,0.0,0.0,0.0,1.0,1.0,0.0,0.0,1.0,0.0,0.0,1.0,1.1856,26.0,0.0,0.0,0.0,59.999996,0.0,26.0,26.0,26.0,26.0,0.037125000000000075,0.26900000000000013,-0.018600000000000002,292.435,-2.7229,-2.655333333333333,-1.5518,-1.5476,-194.76,215.5875,190.480375,0.0,0.0,0.0,0.0,0.048633333333333334,-5.498166666666667,-5.498166666666667,-0.5835,-0.4476666666666667,0.028750000000000053,-0.09599999999999997,68.875,0.024,-0.21982500000000002,-0.31400000000000006,100.0,1.0,1.0,212.36666666666667,0.0,0.0,0.0,0.0,0.0,0.0,0.0,9001.5,0.0,55.0,5.0,247.92000000000002,0.0,0.0,0.0,0.0,0.0,0.0,0.0,0.0,1.2059999999999995,1.2059999999999995,0.0,0.0,0.0,55.0,616.79921,10000.0,85.000001,85.000001,85.000001,85.000001,395.0,0.0,0.0,0.0,1.0,111.11,52.841,52.841,47.333,47.333,34.0,-21.919999999999998,24.17,-28.71,30.3275,0.0,1782.27,-0.379999999999999,100.0,27.873,28.076,43.163,43.671,0.0,0.0,100.0,0.0,0.0,0.0,0.0,2981.857142857143,3004.9,4199.375,4163.0,305.8905,305.187,314.652,314.514,22.0133,20.6428,22.0223,21.5304,314.999998,314.999998,324.999988,324.999988,99.55955714285714,99.5075,99.56895714285714,99.54872857142857,0.10400000000000009,-0.03299999999999992,-0.09966666666666667,0.13766666666666666,-0.046666666666666856,-0.03333333333333144,1.517,1.4945,38.583,30.0175,38.638999999999996,35.565,56.111000000000004,35.4355,60.091499999999996,53.1015,54.028999999999996,34.5235,58.653,51.400999999999996,53.17,34.0385,58.5475,50.797,-0.10599999999999998,-0.0495000000000001,0.11134500000000001,0.10685000000000001,0.0,215.60500000000002,215.615,212.36666666666667,212.36666666666667,0.0,0.0
25,0.0,0.0,0.0,1.0,1.0,0.0,0.0,1.0,0.0,0.0,1.0,1.1856,26.0,0.0,0.0,0.0,59.999996,0.0,26.0,26.0,26.0,26.0,0.024124999999999952,0.26890000000000014,-0.005866666666666667,292.13,-2.7593,-2.6197777777777778,-1.637,-1.5270000000000001,-191.24,215.57,190.455,0.0,0.0,0.0,0.0,0.0507,-5.498166666666667,-5.498166666666667,-0.6046,0.145,0.03312499999999985,0.040000000000000036,69.007,0.0273,-0.22025,-0.44399999999999995,100.0,1.0,1.0,212.85333333333335,0.0,0.0,0.0,0.0,0.0,0.0,0.0,9022.1,0.0,55.0,5.0,248.4,1.0,0.0,0.0,0.0,0.0,0.0,0.0,0.0,1.256999999999998,1.256999999999998,0.0,0.0,1.0,55.0,616.79921,10000.0,85.000001,85.000001,85.000001,85.000001,395.0,0.0,0.0,0.0,1.0,166.665,51.650999999999996,51.650999999999996,47.806,47.806,34.0,-24.2,27.746000000000002,-26.776666666666664,29.637500000000003,0.0,1782.219,-0.370000000000001,100.0,28.053,28.241,42.996,43.438,0.0,0.0,100.0,0.0,0.0,0.0,0.0,3250.142857142857,3383.2,4002.25,4139.8,305.0255,304.141,315.191,314.64225,22.0226,20.6485,22.0326,21.5395,314.999998,314.999998,324.999988,324.999988,99.55957142857143,99.5075,99.5691,99.54887142857143,0.11474999999999991,-0.021666666666666723,-0.076,0.13966666666666666,-0.03166666666666629,-0.06833333333332803,1.56,1.5455,38.641999999999996,30.052999999999997,38.704,35.622,56.098,35.474000000000004,60.125,53.1605,54.016999999999996,34.5595,58.6845,51.458,53.156,34.073,58.5755,50.853,-0.11549999999999994,-0.050999999999999934,0.10924500000000001,0.09992000000000001,0.0,216.005,216.05,212.85333333333335,212.85333333333335,0.0,0.0
26,0.0,0.0,0.0,1.0,1.0,0.0,0.0,1.0,0.0,0.0,1.0,1.1856,26.0,0.0,0.0,0.0,59.999996,0.0,26.0,26.0,26.0,26.0,0.046875,0.2754000000000001,0.06843333333333335,291.245,-2.7243,-2.6373333333333333,-1.5669,-1.5868,-187.72,215.555,190.429375,0.0,0.0,0.0,0.0,0.05273333333333334,-5.498166666666667,-5.498166666666667,-0.5713,0.36933333333333335,0.02012499999999995,-0.577,69.143,0.031100000000000003,-0.2008,-0.35999999999999943,100.0,1.0,1.0,213.03333333333333,0.0,0.0,0.0,0.0,0.0,0.0,0.0,9029.7,0.0,55.0,5.0,248.89,0.0,0.0,0.0,0.0,0.0,0.0,0.0,0.0,1.3079999999999998,1.3079999999999998,0.0,0.0,0.0,55.0,616.79921,10000.0,85.000001,85.000001,85.000001,85.000001,395.0,0.0,0.0,0.0,1.0,166.665,51.666,51.666,46.371,46.371,34.0,-23.802500000000002,24.774,-30.876666666666665,33.945,0.0,1782.167,-0.379999999999999,100.0,28.634,28.847,43.504,44.06,0.0,0.0,100.0,0.0,0.0,0.0,0.0,3227.714285714286,3069.5,4523.25,4489.2,305.2155,305.001,313.9055,313.67675,22.0322,20.6543,22.0433,21.5489,314.999998,314.999998,324.999988,324.999988,99.5596,99.5075,99.56925714285714,99.54902857142856,0.10850000000000026,-0.028999999999999915,-0.08133333333333333,0.1335,-0.054999999999999716,-0.03333333333333144,1.442,1.435,38.701,30.0895,38.769999999999996,35.6805,56.089,35.513999999999996,60.164,53.2235,54.007,34.596000000000004,58.7205,51.5185,53.146,34.1085,58.6085,50.912,-0.10799999999999998,-0.0515000000000001,0.10672500000000001,0.10852500000000001,0.0,216.48000000000002,216.48000000000002,213.03333333333333,213.03333333333333,0.0,0.0
27,0.0,0.0,0.0,1.0,1.0,0.0,0.0,1.0,0.0,0.0,1.0,1.1856,26.0,0.0,0.0,0.0,59.999996,0.0,26.0,26.0,26.0,26.0,0.045500000000000096,0.24409999999999998,-0.044333333333333336,291.779,-2.7104,-2.6524444444444444,-1.6204,-1.608,-184.61,215.54250000000002,190.40775,0.0,0.0,0.0,0.0,0.054533333333333336,-5.498166666666667,-5.498166666666667,-0.5952000000000001,-0.9726666666666667,0.026000000000000023,0.647,69.259,0.0279,-0.23850000000000002,-0.3539999999999992,100.0,1.0,1.0,213.53333333333333,0.0,0.0,0.0,0.0,0.0,0.0,0.0,9050.9,0.0,55.0,5.0,249.30666666666667,1.0,0.0,0.0,0.0,0.0,0.0,0.0,0.0,1.352999999999998,1.352999999999998,0.0,0.0,1.0,55.0,616.79921,10000.0,85.000001,85.000001,85.000001,85.000001,395.0,0.0,0.0,0.0,1.0,166.665,51.956,51.956,46.616,46.616,34.0,-20.974999999999998,26.732,-27.363333333333333,31.2775,0.0,1782.123,-0.4250000000000007,100.0,28.444,28.576999999999998,44.016,44.353,0.0,0.0,100.0,0.0,0.0,0.0,0.0,2956.4285714285716,3240.3,4093.375,4087.5,305.8065,304.5996666666667,314.90275,314.70625,22.040399999999998,20.6593,22.0527,21.5572,314.999998,314.999998,324.999988,324.999988,99.55961428571429,99.5075,99.56938571428572,99.54915714285714,0.12400000000000011,-0.020999999999999908,-0.07116666666666667,0.15333333333333335,-0.026666666666670835,-0.05666666666667197,1.5096666666666667,1.4945,38.753,30.121000000000002,38.829,35.7325,56.077,35.548,60.197,53.278,53.995999999999995,34.6275,58.7515,51.571,53.134,34.1385,58.6365,50.96366666666667,-0.11299999999999999,-0.04699999999999993,0.104995,0.10990000000000001,0.0,216.775,216.805,213.53333333333333,213.53333333333333,0.0,0.0
28,0.0,0.0,0.0,1.0,1.0,0.0,0.0,1.0,0.0,0.0,1.0,1.1856,26.0,0.0,0.0,0.0,59.999996,0.0,26.0,26.0,26.0,26.0,0.06099999999999994,0.27490000000000014,-0.06733333333333334,291.946,-2.692,-2.6453333333333333,-1.6335000000000002,-1.561,-181.07,215.5275,190.382375,0.0,0.0,0.0,0.0,0.056600000000000004,-5.498166666666667,-5.498166666666667,-0.6025,0.5983333333333334,0.010874999999999968,-0.8029999999999999,69.389,0.0267,-0.2177,-0.347999999999999,100.0,1.0,1.0,214.03,0.0,0.0,0.0,0.0,0.0,0.0,0.0,9071.9,0.0,55.0,5.0,249.77333333333334,0.0,0.0,0.0,0.0,0.0,0.0,0.0,0.0,1.404,1.404,0.0,0.0,0.0,55.0,616.79921,10000.0,85.000001,85.000001,85.000001,85.000001,395.0,0.0,0.0,0.0,1.0,166.665,51.788,51.788,47.47,47.47,34.0,-22.4375,25.664,-27.983333333333334,29.9825,0.0,1782.07,-0.5150000000000006,100.0,28.428,28.688,43.313,43.94,0.0,0.0,100.0,0.0,0.0,0.0,0.0,3172.857142857143,3113.3,4120.0,4102.2,305.3095,304.789,315.01425,314.72575,22.0499,20.6651,22.0629,21.5663,314.999998,314.999998,324.999988,324.999988,99.55962857142858,99.50751666666666,99.56952857142858,99.54931428571429,0.12375000000000025,-0.021666666666666723,-0.08383333333333333,0.14300000000000002,-0.060000000000002274,-0.04833333333333201,1.556,1.5434999999999999,38.812,30.157,38.893,35.789,56.066,35.587,60.2295,53.336,53.986000000000004,34.6635,58.7815,51.627,53.122,34.173,58.6635,51.018,-0.121,-0.043500000000000094,0.09857500000000001,0.112725,0.0,217.22500000000002,217.245,214.03,214.03,0.0,0.0
29,0.0,0.0,0.0,1.0,1.0,0.0,0.0,1.0,0.0,0.0,1.0,1.1856,26.0,0.0,0.0,0.0,59.999996,0.0,26.0,26.0,26.0,26.0,0.05750000000000011,0.25170000000000003,-0.023233333333333335,291.794,-2.7702999999999998,-2.6983333333333333,-1.5845,-1.5373,-177.32,215.515,190.354375,0.0,0.0,0.0,0.0,0.05876666666666667,-5.498166666666667,-5.498166666666667,-0.6062000000000001,-0.7223333333333334,0.012624999999999886,-0.768,69.531,0.027800000000000002,-0.2165,-0.43599999999999994,100.0,1.0,1.0,214.31333333333333,0.0,0.0,0.0,0.0,0.0,0.0,0.0,9083.9,0.0,55.0,5.0,250.28666666666666,1.0,0.0,0.0,0.0,0.0,0.0,0.0,0.0,1.4579999999999984,1.4579999999999984,0.0,0.0,1.0,55.0,616.79921,10000.0,85.000001,85.000001,85.000001,85.000001,395.0,0.0,0.0,0.0,1.0,166.665,52.231,52.231,46.936,46.936,34.0,-23.785,25.445999999999998,-28.276666666666664,31.555,0.0,1782.017,-0.5549999999999997,100.0,28.048000000000002,28.533,43.712,44.257000000000005,0.0,0.0,100.0,0.0,0.0,0.0,0.0,3198.4285714285716,3033.7,4151.625,4267.0,305.4975,304.99733333333336,314.78275,314.2475,22.0597,20.6711,22.0742,21.5762,314.999998,314.999998,324.999988,324.999988,99.55964285714286,99.50751666666666,99.56968571428571,99.54947142857142,0.10824999999999996,-0.020999999999999908,-0.08750000000000001,0.14300000000000002,-0.04833333333333201,-0.04999999999999716,1.4873333333333334,1.471,38.873000000000005,30.194,38.963,35.851,56.052,35.626,60.269999999999996,53.4015,53.972,34.7,58.819,51.69,53.108000000000004,34.208,58.6975,51.08,-0.12049999999999994,-0.03550000000000009,0.10983000000000001,0.11295500000000001,0.0,217.635,217.64499999999998,214.31333333333333,214.31333333333333,0.0,0.0
30,0.0,0.0,0.0,1.0,1.0,0.0,0.0,1.0,0.0,0.0,1.0,1.1856,26.0,0.0,0.0,0.0,59.999996,0.0,26.0,26.0,26.0,26.0,0.05262499999999992,0.2492000000000001,0.039566666666666674,291.214,-2.6898,-2.5903333333333336,-1.6467,-1.5929,-174.19,215.5075,190.331125,0.0,0.0,0.0,0.0,0.0606,-5.498166666666667,-5.498166666666667,-0.6061000000000001,0.7903333333333334,0.012750000000000039,0.54,69.644,0.031900000000000005,-0.218475,-0.5779999999999994,100.0,1.0,1.0,214.76,0.0,0.0,0.0,0.0,0.0,0.0,0.0,9102.9,0.0,55.0,5.0,250.69333333333333,0.0,0.0,0.0,0.0,0.0,0.0,1.0,0.0,1.5030000000000001,1.5030000000000001,0.0,0.0,0.0,55.0,616.79921,10000.0,85.000001,85.000001,85.000001,85.000001,395.0,0.0,0.0,0.0,1.0,166.665,50.568,50.568,47.18,47.18,34.0,-23.2575,28.016,-27.849999999999998,31.3775,0.0,1781.973,-0.504999999999999,100.0,29.087,29.092,43.552,44.11,0.0,0.0,100.0,0.0,0.0,0.0,0.0,3283.4285714285716,3382.3,4124.125,4143.2,304.7445,303.99666666666667,315.015,314.607,22.0682,20.6764,22.0833,21.5843,314.999998,314.999998,324.999988,324.999988,99.55965714285715,99.50753333333333,99.56981428571429,99.5496,0.13100000000000023,-0.014000000000000012,-0.07416666666666667,0.15083333333333335,-0.041666666666671404,-0.05333333333332746,1.5233333333333334,1.505,38.926,30.2275,39.021,35.902,56.045,35.6625,60.2995,53.454499999999996,53.966,34.7335,58.8465,51.741,53.1,34.2405,58.7225,51.129333333333335,-0.12549999999999994,-0.04400000000000004,0.10401500000000001,0.10535000000000001,0.0,218.005,218.04000000000002,214.76,214.76,0.0,0.0
31,0.0,0.0,0.0,1.0,1.0,0.0,0.0,1.0,0.0,0.0,1.0,1.1856,26.0,0.0,0.0,0.0,59.999996,0.0,26.0,26.0,26.0,26.0,0.040000000000000036,0.25350000000000006,0.03606666666666667,290.787,-2.7761,-2.619111111111111,-1.651,-1.4879,-170.42000000000002,215.4975,190.30375,0.0,0.0,0.0,0.0,0.06280000000000001,-5.498166666666667,-5.498166666666667,-0.5894,-0.4296666666666667,0.02124999999999999,0.704,69.785,0.0375,-0.22337500000000002,-0.5499999999999998,100.0,1.0,1.0,215.01,0.0,0.0,0.0,0.0,0.0,0.0,0.0,9113.5,0.0,55.0,5.0,251.2,1.0,0.0,0.0,0.0,0.0,0.0,1.0,0.0,1.5569999999999986,1.5569999999999986,0.0,0.0,1.0,55.0,616.79921,10000.0,85.000001,85.000001,85.000001,85.000001,395.0,0.0,0.0,0.0,1.0,166.665,50.964,50.964,45.715,45.715,34.0,-22.62,28.68,-29.323333333333334,32.2625,0.0,1781.92,-0.5399999999999991,100.0,28.961,29.179000000000002,44.355000000000004,44.796,0.0,0.0,100.0,0.0,0.0,0.0,0.0,3136.714285714286,3428.0,4239.5,4363.7,305.3605,304.077,314.47875,314.0515,22.0781,20.6826,22.0946,21.5944,314.999998,314.999998,324.999988,324.999988,99.55967142857143,99.50753333333333,99.56997142857144,99.54975714285715,0.13275000000000015,-0.009333333333333194,-0.07016666666666667,0.1515,-0.04999999999999716,-0.03166666666666629,1.4486666666666668,1.4395,38.988,30.266,39.091,35.965,56.034,35.704499999999996,60.341499999999996,53.522,53.955,34.7725,58.8855,51.806,53.088,34.278,58.757999999999996,51.193333333333335,-0.126,-0.04849999999999999,0.11489,0.10129500000000001,0.0,218.435,218.435,215.01,215.01,0.0,0.0
32,0.0,0.0,0.0,1.0,1.0,0.0,0.0,1.0,0.0,0.0,1.0,1.1856,26.0,0.0,0.0,0.0,59.999996,0.0,26.0,26.0,26.0,26.0,0.07499999999999996,0.2558,-0.0424,291.443,-2.7027,-2.6785555555555556,-1.5912000000000002,-1.6164,-166.64999999999998,215.4875,190.27675,0.0,0.0,0.0,0.0,0.06496666666666667,-5.498166666666667,-5.498166666666667,-0.6072000000000001,-0.21033333333333334,-0.000500000000000167,0.268,69.92,0.0391,-0.23055,-0.5739999999999998,100.0,1.0,1.0,215.55333333333334,0.0,0.0,0.0,0.0,0.0,0.0,0.0,9136.6,0.0,55.0,5.0,251.68666666666667,0.0,0.0,0.0,0.0,0.0,0.0,1.0,0.0,1.6110000000000007,1.6110000000000007,0.0,0.0,0.0,55.0,616.79921,10000.0,85.000001,85.000001,85.000001,85.000001,395.0,0.0,0.0,0.0,1.0,111.11,51.666,51.666,46.768,46.768,34.0,-20.59,27.34,-25.950000000000003,32.9825,0.0,1781.866,-0.5249999999999986,100.0,28.783,28.962,44.095,44.626000000000005,0.0,0.0,100.0,0.0,0.0,0.0,0.0,3009.285714285714,3191.9,4018.375,4243.3,305.6295,304.7273333333333,315.0635,314.346,22.0879,20.6887,22.1057,21.6042,314.999998,314.999998,324.999988,324.999988,99.55968571428572,99.50753333333333,99.57012857142857,99.54991428571428,0.14250000000000007,-0.0020000000000000018,-0.0625,0.15666666666666665,-0.041666666666671404,-0.046666666666666856,1.5190000000000001,1.5055,39.049,30.304499999999997,39.16,36.025999999999996,56.022,35.7455,60.3775,53.585499999999996,53.943,34.8105,58.919,51.867,53.075,34.314499999999995,58.788,51.25266666666667,-0.126,-0.04299999999999993,0.10631000000000002,0.10823,0.0,218.825,218.865,215.55333333333334,215.55333333333334,0.0,0.0
33,0.0,0.0,0.0,1.0,1.0,0.0,0.0,1.0,0.0,0.0,1.0,1.1856,26.0,0.0,0.0,0.0,59.999996,0.0,26.0,26.0,26.0,26.0,0.07037500000000008,0.25170000000000003,-0.0425,291.611,-2.723,-2.683222222222222,-1.6024,-1.5799,-163.5,215.48250000000002,190.253125,0.0,0.0,0.0,0.0,0.0668,-5.498166666666667,-5.498166666666667,-0.615,-0.2603333333333333,0.00024999999999986144,-0.132,70.03399999999999,0.040100000000000004,-0.21575,-0.4560000000000004,100.0,1.0,1.0,215.9,0.0,0.0,0.0,0.0,0.0,0.0,0.0,9151.2,0.0,55.0,5.0,252.09333333333336,1.0,0.0,0.0,0.0,0.0,0.0,1.0,0.0,1.6559999999999988,1.6559999999999988,0.0,0.0,1.0,55.0,616.79921,10000.0,85.000001,85.000001,85.000001,85.000001,395.0,0.0,0.0,0.0,1.0,166.665,51.894999999999996,51.894999999999996,46.951,46.951,34.0,-22.4625,25.445999999999998,-27.68,32.192499999999995,0.0,1781.82,-0.509999999999998,100.0,28.451999999999998,28.82,43.813,44.516999999999996,0.0,0.0,100.0,0.0,0.0,0.0,0.0,3157.857142857143,3044.4,4132.375,4199.9,305.4235,305.02666666666664,314.85825,314.49075,22.0961,20.6937,22.1148,21.6123,314.999998,314.999998,324.999988,324.999988,99.55971428571429,99.50753333333333,99.57025714285714,99.55004285714286,0.1259999999999999,-0.01866666666666661,-0.07733333333333332,0.16,-0.041666666666671404,-0.045000000000001705,1.5213333333333334,1.5055,39.099999999999994,30.336,39.218,36.077,56.012,35.778,60.408500000000004,53.6375,53.934,34.8405,58.948,51.917,53.065,34.343,58.8135,51.30166666666666,-0.122,-0.040000000000000036,0.10848000000000001,0.11596500000000001,0.0,219.18,219.21,215.9,215.9,0.0,0.0
34,0.0,0.0,0.0,1.0,1.0,0.0,0.0,1.0,0.0,0.0,1.0,1.1856,26.0,0.0,0.0,0.0,59.999996,0.0,26.0,26.0,26.0,26.0,0.05499999999999994,0.2510000000000001,-0.0858,291.855,-2.6782,-2.667888888888889,-1.6366,-1.5129000000000001,-159.93,215.47750000000002,190.225,0.0,0.0,0.0,0.0,0.0689,-5.498166666666667,-5.498166666666667,-0.6437,-0.8803333333333334,0.027874999999999872,0.948,70.162,0.0419,-0.223025,-0.556,100.0,1.0,1.0,216.2733333333333,0.0,0.0,0.0,0.0,0.0,0.0,0.0,9167.0,0.0,55.0,5.0,252.55666666666667,0.0,0.0,0.0,0.0,0.0,0.0,1.0,0.0,1.7070000000000007,1.7070000000000007,0.0,0.0,0.0,55.0,616.79921,10000.0,85.000001,85.000001,85.000001,85.000001,395.0,0.0,0.0,0.0,1.0,166.665,52.307,52.307,47.119,47.119,34.0,-20.5275,26.592,-26.906666666666666,31.9325,0.0,1781.769,-0.495000000000001,100.0,28.314,28.398,43.728,44.501999999999995,0.0,0.0,100.0,0.0,0.0,0.0,0.0,2971.714285714286,3151.6,4088.875,4256.9,305.8295,304.9576666666667,314.957,314.40775,22.1052,20.6994,22.1252,21.6217,314.999998,314.999998,324.999988,324.999988,99.55972857142856,99.50753333333333,99.5704,99.55021428571429,0.12975000000000003,-0.004999999999999893,-0.060333333333333336,0.1635,-0.04333333333332945,-0.036666666666668846,1.5283333333333333,1.4945,39.157,30.371000000000002,39.283,36.1355,55.998999999999995,35.814,60.442499999999995,53.698,53.922,34.874,58.9795,51.9755,53.051,34.375,58.842,51.358666666666664,-0.11849999999999994,-0.04249999999999998,0.10457500000000002,0.10373500000000001,0.0,219.57,219.595,216.2733333333333,216.2733333333333,0.0,0.0
35,0.0,0.0,0.0,1.0,1.0,0.0,0.0,1.0,0.0,0.0,1.0,1.1856,26.0,0.0,0.0,0.0,59.999996,0.0,26.0,26.0,26.0,26.0,0.07974999999999999,0.25239999999999996,-0.02696666666666667,291.763,-2.7389,-2.643111111111111,-1.6307,-1.5056,-156.34,215.475,190.195,0.0,0.0,0.0,0.0,0.07096666666666666,-5.498166666666667,-5.498166666666667,-0.6799000000000001,-0.093,0.0031250000000000444,-1.322,70.289,0.046200000000000005,-0.226275,-0.5,100.0,1.0,1.0,216.74333333333334,0.0,0.0,0.0,0.0,0.0,0.0,0.0,9187.0,0.0,55.0,5.0,253.01333333333332,1.0,0.0,0.0,0.0,0.0,0.0,1.0,0.0,1.7579999999999991,1.7579999999999991,0.0,0.0,1.0,55.0,616.79921,10000.0,85.000001,85.000001,85.000001,85.000001,395.0,0.0,0.0,0.0,1.0,166.665,51.682,51.682,46.814,46.814,34.0,-22.815,27.752000000000002,-26.436666666666667,30.015,0.0,1781.717,-0.3200000000000003,100.0,28.022,28.925,43.455,44.031,0.0,0.0,100.0,0.0,0.0,0.0,0.0,3148.4285714285716,3323.7,4066.125,4049.6000000000004,305.4565,304.1573333333333,315.01275,314.85875,22.1142,20.7053,22.1355,21.6308,314.999998,314.999998,324.999988,324.999988,99.55974285714285,99.50755,99.57055714285714,99.55034285714285,0.11975000000000025,-0.01966666666666672,-0.058833333333333335,0.16583333333333333,-0.05333333333332746,-0.05333333333332746,1.5623333333333334,1.5295,39.214,30.408,39.347,36.192499999999995,55.986000000000004,35.8535,60.4755,53.754,53.908,34.9105,59.01,52.03,53.037,34.4105,58.8695,51.41166666666666,-0.10399999999999998,-0.05249999999999999,0.09578500000000001,0.110155,0.0,219.98000000000002,220.015,216.74333333333334,216.74333333333334,0.0,0.0
36,0.0,0.0,0.0,1.0,1.0,0.0,0.0,1.0,0.0,0.0,1.0,1.1856,26.0,0.0,0.0,0.0,59.999996,0.0,26.0,26.0,26.0,26.0,0.05762500000000004,0.26670000000000016,-0.006166666666666667,291.229,-2.6557,-2.703333333333333,-1.6467,-1.5906,-152.76,215.4725,190.16375,0.0,0.0,0.0,0.0,0.07306666666666667,-5.498166666666667,-5.498166666666667,-0.6628000000000001,-0.14266666666666666,-0.038000000000000256,0.09800000000000009,70.419,0.0414,-0.202625,-0.3460000000000001,100.0,1.0,1.0,216.91,0.0,0.0,0.0,0.0,0.0,0.0,0.0,9194.0,0.0,55.0,5.0,253.48333333333335,0.0,0.0,0.0,0.0,0.0,0.0,1.0,0.0,1.809000000000001,1.809000000000001,0.0,0.0,0.0,55.0,616.79921,10000.0,85.000001,85.000001,85.000001,85.000001,395.0,0.0,0.0,0.0,1.0,111.11,52.078,52.078,46.126999999999995,46.126999999999995,34.0,-19.634999999999998,25.294,-30.866666666666664,35.66,0.0,1781.666,-0.26500000000000057,100.0,28.774,28.796,43.865,44.416,0.0,0.0,100.0,0.0,0.0,0.0,0.0,2860.714285714286,3031.4,4471.5,4531.1,305.956,305.04,314.15075,313.74,22.1234,20.7111,22.146,21.6402,314.999998,314.999998,324.999988,324.999988,99.55975714285714,99.50755,99.57071428571429,99.5505,0.13050000000000006,-0.02499999999999991,-0.069,0.15833333333333335,-0.02833333333332888,-0.05333333333332746,1.4476666666666667,1.431,39.271,30.444499999999998,39.413,36.251,55.974000000000004,35.891999999999996,60.512,53.816,53.897999999999996,34.9465,59.044,52.0895,53.025,34.445,58.9,51.470333333333336,-0.10299999999999998,-0.06150000000000011,0.1107,0.10519500000000001,0.0,220.385,220.405,216.91,216.91,0.0,0.0
