,ABS Active,ABS Enabled,AID Allow Tire Blankets,AID Auto Blip,AID Auto Clutch,AID Auto Shift,AID Fuel Rate,AID Ideal Line,AID Mech Damage,AID Stability,AID Tire Wear Rate,Air Density,Air Temp,Ballast,Best Lap Delta,Best Lap Time,Brake Bias,Brake Pos,Brake Temp FL,Brake Temp FR,Brake Temp RL,Brake Temp RR,CG Accel Lateral,CG Accel Longitudinal,CG Accel Vertical,CG Height,Camber FL,Camber FR,Camber RL,Camber RR,Car Coord X,Car Coord Y,Car Coord Z,Car Damage Front,Car Damage Left,Car Damage Rear,Car Damage Right,Car Pos Norm,Caster FL,Caster FR,Chassis Pitch Angle,Chassis Pitch Rate,Chassis Roll Angle,Chassis Roll Rate,Chassis Velocity X,Chassis Velocity Y,Chassis Velocity Z,Chassis Yaw Rate,Clutch Pos,DRS Active,DRS Available,Drive Train Speed,ERS Heat Charging,ERS Is Charging,ERS Max Energy,ERS Power Level,ERS Recovery Level,Engine Brake Setting,Engine Limiter,Engine RPM,Flags,Fuel Level,Gear,Ground Speed,HR Sample Clock,In Pit,KERS Charge,KERS Deployed Energy,KERS Input,KERS Max Energy,LR Sample Clock,Lap Invalidated,Lap Time,Lap Time2,Last Lap Time,Last Sector Time,MR Sample Clock,Max Fuel,Max Power,Max RPM,Max Sus Travel FL,Max Sus Travel FR,Max Sus Travel RL,Max Sus Travel RR,Max Torque,Max Turbo Boost,Num Tires Off Track,Penalties Enabled,Position,Raw Data Sample Rate,Ride Height FL,Ride Height FR,Ride Height RL,Ride Height RR,Road Temp,Self Align Torque FL,Self Align Torque FR,Self Align Torque RL,Self Align Torque RR,Session Lap Count,Session Time Left,Steering Angle,Surface Grip,Suspension Travel FL,Suspension Travel FR,Suspension Travel RL,Suspension Travel RR,TC Active,TC Enabled,Throttle Pos,Tire Dirt Level FL,Tire Dirt Level FR,Tire Dirt Level RL,Tire Dirt Level RR,Tire Load FL,Tire Load FR,Tire Load RL,Tire Load RR,Tire Loaded Radius FL,Tire Loaded Radius FR,Tire Loaded Radius RL,Tire Loaded Radius RR,Tire Pressure FL,Tire Pressure FR,Tire Pressure RL,Tire Pressure RR,Tire Radius FL,Tire Radius FR,Tire Radius RL,Tire Radius RR,Tire Rubber Grip FL,Tire Rubber Grip FR,Tire Rubber Grip RL,Tire Rubber Grip RR,Tire Slip Angle FL,Tire Slip Angle FR,Tire Slip Angle RL,Tire Slip Angle RR,Tire Slip Ratio FL,Tire Slip Ratio FR,Tire Slip Ratio RL,Tire Slip Ratio RR,Tire Temp Core FL,Tire Temp Core FR,Tire Temp Core RL,Tire Temp Core RR,Tire Temp Inner FL,Tire Temp Inner FR,Tire Temp Inner RL,Tire Temp Inner RR,Tire Temp Middle FL,Tire Temp Middle FR,Tire Temp Middle RL,Tire Temp Middle RR,Tire Temp Outer FL,Tire Temp Outer FR,Tire Temp Outer RL,Tire Temp Outer RR,Toe In FL,Toe In FR,Toe In RL,Toe In RR,Turbo Boost,Wheel Angular Speed FL,Wheel Angular Speed FR,Wheel Angular Speed RL,Wheel Angular Speed RR,Wind Direction,Wind Speed
0,0.0,0.0,0.0,1.0,1.0,0.0,0.0,1.0,0.0,100.0,1.0,1.1856,26.0,0.0,0.0,0.0,62.0,0.0,26.0,26.0,26.0,26.0,-0.07725,0.31190000000000007,-0.00545,294.144,-2.7187,-2.659888888888889,-1.5164,-1.5587,-275.69,216.29250000000002,190.98775,0.0,0.0,0.0,0.0,0.0015999999999999348,-5.498166666666667,-5.498166666666667,-0.5485,1.115,-0.010499999999999954,-1.08,65.502,-0.0405,-0.212925,1.0380000000000003,100.0,1.0,1.0,202.24666666666667,0.0,0.0,0.0,0.0,0.0,0.0,0.0,8572.5,0.0,55.0,5.0,235.77666666666667,0.0,0.0,0.0,0.0,0.0,0.0,0.0,0.0,0.0030000000000001137,0.0030000000000001137,0.0,0.0,0.0,55.0,616.79921,10000.0,85.0,85.0,85.0,85.0,395.0,0.0,0.0,0.0,1.0,20.0,52.917,52.917,49.713,49.713,34.0,-26.195,22.976,-30.456666666666663,24.2175,0.0,1782.795,0.7800000000000011,100.0,27.469,26.851,40.54,40.51,0.0,0.0,100.0,0.0,0.0,0.0,0.0,2979.5714285714284,3324.6,4092.5,3952.3,305.8315,304.184,314.9255,314.94275,21.7839,20.5124,21.764,21.3079,314.99999,314.99999,324.99998,324.99998,99.55922857142858,99.50716666666666,99.56481428571429,99.54498571428572,-0.005666666666666709,-0.123,-0.1684,0.057333333333333236,-0.06333333333333258,-0.04999999999999716,1.5516666666666667,1.6005,37.149,29.202333333333335,37.025,34.1745,56.396,34.471000000000004,58.954,51.533,54.306,33.632999999999996,57.583,49.894999999999996,53.472,33.1885,57.548,49.324666666666666,-0.0129999999999999,-0.13149999999999995,0.10648,0.10383,0.0,205.29500000000002,205.175,202.24666666666667,202.24666666666667,0.0,0.0
1,0.0,0.0,0.0,1.0,1.0,0.0,0.0,1.0,0.0,100.0,1.0,1.1856,26.0,0.0,0.0,0.0,62.0,0.0,26.0,26.0,26.0,26.0,-0.12562500000000001,0.3267,-0.01855,293.06,-2.6273,-2.775888888888889,-1.5189,-1.5529000000000002,-272.34,216.28750000000002,190.967375,0.0,0.0,0.0,0.0,0.0035333333333333883,-5.498166666666667,-5.498166666666667,-0.49870000000000003,-0.29200000000000004,-0.061125000000000096,-0.21899999999999986,65.657,-0.0557,-0.193425,1.386000000000001,100.0,1.0,1.0,202.41,0.0,0.0,0.0,0.0,0.0,0.0,0.0,8579.4,0.0,55.0,5.0,236.33333333333331,1.0,0.0,0.0,0.0,0.0,0.0,0.0,0.0,0.053999999999998494,0.053999999999998494,0.0,0.0,1.0,55.0,616.79921,10000.0,85.000001,85.000001,85.000001,85.000001,395.0,0.0,0.0,0.0,1.0,333.33500000000004,53.497,53.497,48.34,48.34,34.0,-26.697499999999998,18.484,-34.19,28.565,0.0,1782.744,0.8850000000000016,100.0,27.748,26.912,42.711,41.466,0.0,0.0,100.0,0.0,0.0,0.0,0.0,3069.857142857143,2708.6,4323.5,4704.5,305.3805,306.20625,314.23475,313.16475,21.7938,20.5175,21.7747,21.317,314.999998,314.999998,324.999988,324.999988,99.55924285714286,99.5072,99.56497142857143,99.54512857142858,-0.0086666666666666,-0.135,-0.18220000000000003,0.030999999999999917,-0.02499999999999858,-0.03999999999999915,1.412,1.4909999999999999,37.212,29.234666666666666,37.092,34.231,56.379999999999995,34.5125,58.9965,51.5975,54.29,33.671,57.625,49.9565,53.456,33.223,57.5875,49.38166666666667,-0.006000000000000005,-0.14100000000000001,0.10817,0.101985,0.0,205.72,205.61,202.41,202.41,0.0,0.0
2,0.0,0.0,0.0,1.0,1.0,0.0,0.0,1.0,0.0,100.0,1.0,1.1856,26.0,0.0,0.0,0.0,62.0,0.0,26.0,26.0,26.0,26.0,-0.12762500000000002,0.2845,-0.024900000000000002,293.671,-2.594,-2.803777777777778,-1.4821,-1.6173000000000002,-268.99,216.28,190.948625,0.0,0.0,0.0,0.0,0.005466666666666509,-5.498166666666667,-5.498166666666667,-0.5477000000000001,-0.0665,-0.05750000000000011,1.777,65.799,-0.075,-0.253825,1.596,100.0,1.0,1.0,203.28,0.0,0.0,0.0,0.0,0.0,0.0,0.0,8616.4,0.0,55.0,5.0,236.8466666666667,0.0,0.0,0.0,0.0,0.0,0.0,0.0,0.0,0.10500000000000043,0.10500000000000043,0.0,0.0,0.0,55.0,616.79921,10000.0,85.000001,85.000001,85.000001,85.000001,395.0,0.0,0.0,0.0,1.0,166.665,52.444,52.444,50.064,50.064,34.0,-30.8325,19.766,-29.706666666666663,20.3375,0.0,1782.695,0.6799999999999997,100.0,28.286,26.899,42.64,41.366,0.0,0.0,100.0,0.0,0.0,0.0,0.0,3418.0,2900.2,3805.5,3669.1,304.4255,305.557,315.5005,315.78975,21.8041,20.5225,21.7852,21.3258,314.999998,314.999998,324.999988,324.999988,99.55925714285715,99.50721666666666,99.56511428571429,99.54527142857143,-0.030999999999999917,-0.14900000000000002,-0.22139999999999993,0.010333333333333306,-0.04833333333333201,-0.045000000000001705,1.6293333333333333,1.669,37.275999999999996,29.265333333333334,37.157,34.286,56.367000000000004,34.5515,59.036,51.6555,54.278,33.707,57.662,50.0125,53.443,33.2575,57.622,49.43633333333334,-0.016000000000000014,-0.1280000000000001,0.09911,0.11578000000000001,0.0,206.18,206.04000000000002,203.28,203.28,0.0,0.0
3,0.0,0.0,0.0,1.0,1.0,0.0,0.0,1.0,0.0,100.0,1.0,1.1856,26.0,0.0,0.0,0.0,62.0,0.0,26.0,26.0,26.0,26.0,-0.141375,0.32540000000000013,-0.054200000000000005,293.488,-2.7279,-2.69,-1.51,-1.5918,-265.83,216.26999999999998,190.930125,0.0,0.0,0.0,0.0,0.007333333333333303,-5.498166666666667,-5.498166666666667,-0.5101,0.615,-0.012125000000000163,-0.8530000000000002,65.94200000000001,-0.08710000000000001,-0.201875,1.216000000000001,100.0,1.0,1.0,203.46,0.0,0.0,0.0,0.0,0.0,0.0,0.0,8623.9,0.0,55.0,5.0,237.35666666666668,1.0,0.0,0.0,0.0,0.0,0.0,0.0,0.0,0.1529999999999987,0.1529999999999987,0.0,0.0,1.0,55.0,616.79921,10000.0,85.000001,85.000001,85.000001,85.000001,395.0,0.0,0.0,0.0,1.0,333.33500000000004,53.558,53.558,48.263999999999996,48.263999999999996,34.0,-26.02,17.714000000000002,-35.31333333333333,23.6625,0.0,1782.646,0.6400000000000006,100.0,27.945,27.082,42.357,41.397,0.0,0.0,100.0,0.0,0.0,0.0,0.0,2870.142857142857,2782.1,4328.375,4183.2,306.05,305.77675,314.32125,314.44275,21.8134,20.5273,21.7949,21.3341,314.999998,314.999998,324.999988,324.999988,99.55925714285715,99.50723333333333,99.56524285714286,99.5454,-0.024666666666666615,-0.15733333333333333,-0.21520000000000006,0.0030000000000001137,-0.013333333333328312,-0.036666666666668846,1.4963333333333333,1.544,37.334,29.296,37.218,34.338,56.352000000000004,34.592,59.073,51.7145,54.263,33.7445,57.6965,50.069,53.428,33.293,57.6535,49.49166666666667,-0.03049999999999997,-0.125,0.10504500000000001,0.10640500000000001,0.0,206.62,206.53,203.46,203.46,0.0,0.0
4,0.0,0.0,0.0,1.0,1.0,0.0,0.0,1.0,0.0,100.0,1.0,1.1856,26.0,0.0,0.0,0.0,62.0,0.0,26.0,26.0,26.0,26.0,-0.135,0.2733000000000001,-0.019125,293.655,-2.6557,-2.745888888888889,-1.5213,-1.6019999999999999,-262.27,216.255,190.90925,0.0,0.0,0.0,0.0,0.009399999999999964,-5.498166666666667,-5.498166666666667,-0.5456,-0.7,-0.08325000000000005,-1.6139999999999999,66.09700000000001,-0.0839,-0.23665,1.1420000000000012,100.0,1.0,1.0,204.06333333333333,0.0,0.0,0.0,0.0,0.0,0.0,0.0,8649.5,0.0,55.0,5.0,237.92000000000002,0.0,0.0,0.0,0.0,0.0,0.0,0.0,0.0,0.20700000000000074,0.20700000000000074,0.0,0.0,0.0,55.0,616.79921,10000.0,85.000001,85.000001,85.000001,85.000001,395.0,0.0,0.0,0.0,1.0,166.665,53.024,53.024,48.859,48.859,34.0,-29.855,19.134,-32.54,20.9625,0.0,1782.593,0.6649999999999991,100.0,27.715,26.846,42.788,41.423,0.0,0.0,100.0,0.0,0.0,0.0,0.0,3298.5714285714284,2886.4,4089.625,3669.7,304.9575,305.49375,314.845,315.6835,21.8237,20.5327,21.8061,21.3434,314.999998,314.999998,324.999988,324.999988,99.55925714285715,99.50725,99.5654,99.54554285714286,-0.02933333333333321,-0.1523333333333332,-0.20799999999999996,0.01983333333333337,-0.036666666666668846,-0.03833333333332689,1.565,1.595,37.397999999999996,29.329666666666668,37.288,34.3965,56.333,34.6355,59.1175,51.777,54.245000000000005,33.7845,57.738,50.1285,53.409,33.3315,57.692499999999995,49.550333333333334,-0.020000000000000018,-0.12150000000000016,0.09903,0.10824,0.0,207.05,206.95,204.06333333333333,204.06333333333333,0.0,0.0
5,0.0,0.0,0.0,1.0,1.0,0.0,0.0,1.0,0.0,100.0,1.0,1.1856,26.0,0.0,0.0,0.0,62.0,0.0,26.0,26.0,26.0,26.0,-0.13025,0.2993000000000001,-0.01305,293.655,-2.6728,-2.764333333333333,-1.5095,-1.5862,-259.09,216.2375,190.89,0.0,0.0,0.0,0.0,0.011233333333333317,-5.498166666666667,-5.498166666666667,-0.5364,0.42399999999999993,-0.0833750000000002,-0.26400000000000023,66.235,-0.0867,-0.2146,1.136000000000001,100.0,1.0,1.0,204.44,0.0,0.0,0.0,0.0,0.0,0.0,0.0,8665.5,0.0,55.0,5.0,238.41666666666669,1.0,0.0,0.0,0.0,0.0,0.0,0.0,0.0,0.254999999999999,0.254999999999999,0.0,0.0,1.0,55.0,616.79921,10000.0,85.000001,85.000001,85.000001,85.000001,395.0,0.0,0.0,0.0,1.0,333.33500000000004,53.421,53.421,48.996,48.996,34.0,-28.66,18.704,-34.05,22.4775,0.0,1782.544,0.20500000000000185,100.0,27.781,26.77,42.547,41.181,0.0,0.0,100.0,0.0,0.0,0.0,0.0,3202.285714285714,2758.8,4181.5,4035.8,305.2075,305.94175,314.714,314.80575,21.8331,20.5375,21.8159,21.3516,314.999998,314.999998,324.999988,324.999988,99.55925714285715,99.50726666666667,99.56554285714286,99.54567142857142,-0.020000000000000018,-0.14066666666666672,-0.2227999999999999,0.0020000000000000018,-0.05666666666667197,-0.021666666666668277,1.526,1.5635,37.457,29.359666666666666,37.349000000000004,34.4475,56.32,34.674,59.1555,51.831,54.233000000000004,33.82,57.7735,50.181,53.396,33.365,57.725,49.601,-0.047499999999999876,-0.09399999999999986,0.11026500000000002,0.103635,0.0,207.55,207.425,204.44,204.44,0.0,0.0
6,0.0,0.0,0.0,1.0,1.0,0.0,0.0,1.0,0.0,100.0,1.0,1.1856,26.0,0.0,0.0,0.0,62.0,0.0,26.0,26.0,26.0,26.0,-0.114,0.27670000000000017,-0.008275000000000001,293.457,-2.642,-2.739777777777778,-1.5537,-1.5819,-255.91,216.2175,190.87075,0.0,0.0,0.0,0.0,0.0131,-5.498166666666667,-5.498166666666667,-0.531,0.0645,-0.0637500000000002,-0.4740000000000002,66.374,-0.08270000000000001,-0.215,0.8160000000000007,100.0,1.0,1.0,204.83666666666667,0.0,0.0,0.0,0.0,0.0,0.0,0.0,8682.2,0.0,55.0,5.0,238.91666666666669,0.0,0.0,0.0,0.0,0.0,0.0,0.0,0.0,0.3030000000000008,0.3030000000000008,0.0,0.0,0.0,55.0,616.79921,10000.0,85.000001,85.000001,85.000001,85.000001,395.0,0.0,0.0,0.0,1.0,333.33500000000004,53.131,53.131,48.782,48.782,34.0,-27.8725,20.086,-33.38666666666666,22.4775,0.0,1782.495,0.03500000000000014,100.0,27.685,26.887,42.671,41.589,0.0,0.0,100.0,0.0,0.0,0.0,0.0,3226.0,2891.7,4119.75,3980.8,305.1235,305.47625,314.844,314.93525,21.8425,20.5424,21.8257,21.3601,314.999998,314.999998,324.999988,324.999988,99.55925714285715,99.50728333333333,99.56567142857143,99.5458,-0.0016666666666667052,-0.1286666666666667,-0.20799999999999996,0.01100000000000012,-0.04833333333333201,-0.046666666666666856,1.5193333333333334,1.573,37.515,29.39,37.411,34.5005,56.305,34.7115,59.1935,51.8895,54.218,33.8545,57.809,50.2365,53.381,33.3985,57.757999999999996,49.656,-0.07000000000000006,-0.08099999999999996,0.10663500000000001,0.09955000000000001,0.0,207.935,207.845,204.83666666666667,204.83666666666667,0.0,0.0
7,0.0,0.0,0.0,1.0,1.0,0.0,0.0,1.0,0.0,100.0,1.0,1.1856,26.0,0.0,0.0,0.0,62.0,0.0,26.0,26.0,26.0,26.0,-0.08637500000000001,0.29910000000000014,0.0434,293.182,-2.6096,-2.7346666666666666,-1.512,-1.5713,-252.52,216.1925,190.85025,0.0,0.0,0.0,0.0,0.015066666666666562,-5.498166666666667,-5.498166666666667,-0.5346000000000001,-0.019000000000000128,-0.05049999999999999,1.104,66.52,-0.0673,-0.22337500000000002,0.3520000000000003,100.0,1.0,1.0,205.25,0.0,0.0,0.0,0.0,0.0,0.0,0.0,8699.8,0.0,55.0,5.0,239.44333333333333,1.0,0.0,0.0,0.0,0.0,0.0,0.0,0.0,0.3539999999999992,0.3539999999999992,0.0,0.0,1.0,55.0,616.79921,10000.0,85.000001,85.000001,85.000001,85.000001,395.0,0.0,0.0,0.0,1.0,333.33500000000004,52.765,52.765,48.813,48.813,34.0,-26.3925,23.177999999999997,-30.856666666666666,24.96,0.0,1782.446,-0.1999999999999993,100.0,27.93,26.781,42.812,41.72,0.0,0.0,100.0,0.0,0.0,0.0,0.0,3216.857142857143,3058.5,4042.625,4133.6,304.902,305.14625,314.9125,314.622,21.8523,20.5476,21.836199999999998,21.369,314.999998,314.999998,324.999988,324.999988,99.55927142857144,99.5073,99.56581428571428,99.54594285714286,0.03100000000000014,-0.08066666666666666,-0.1794,0.04049999999999998,-0.05666666666667197,-0.05666666666667197,1.5243333333333333,1.5485,37.577,29.422333333333334,37.476,34.5565,56.289,34.751,59.2335,51.951,54.204,33.891,57.8465,50.295500000000004,53.364999999999995,33.4335,57.792500000000004,49.71333333333333,-0.08949999999999991,-0.052999999999999936,0.10616,0.09834000000000001,0.0,208.37,208.32,205.25,205.25,0.0,0.0
8,0.0,0.0,0.0,1.0,1.0,0.0,0.0,1.0,0.0,100.0,1.0,1.1856,26.0,0.0,0.0,0.0,62.0,0.0,26.0,26.0,26.0,26.0,-0.043000000000000003,0.2963,-0.022350000000000002,293.457,-2.697,-2.7143333333333333,-1.4974,-1.5524,-249.12,216.16750000000002,190.82975,0.0,0.0,0.0,0.0,0.017033333333333345,-5.498166666666667,-5.498166666666667,-0.5349,-0.4724999999999999,-0.03512499999999985,-0.45100000000000007,66.666,-0.0468,-0.215475,-0.009999999999999787,100.0,1.0,1.0,205.64333333333332,0.0,0.0,0.0,0.0,0.0,0.0,0.0,8716.4,0.0,55.0,5.0,239.96666666666667,0.0,0.0,0.0,0.0,0.0,0.0,0.0,0.0,0.40500000000000114,0.40500000000000114,0.0,0.0,0.0,55.0,616.79921,10000.0,85.000001,85.000001,85.000001,85.000001,395.0,0.0,0.0,0.0,1.0,333.33500000000004,53.68,53.68,48.096000000000004,48.096000000000004,34.0,-23.905,21.63,-31.216666666666665,26.2825,0.0,1782.394,-0.3299999999999983,100.0,27.405,26.909,42.675,41.925,0.0,0.0,100.0,0.0,0.0,0.0,0.0,2974.142857142857,2891.1,4209.0,4120.6,305.8855,305.5035,314.55425,314.53825,21.8619,20.5527,21.8467,21.3779,314.999998,314.999998,324.999988,324.999988,99.55927142857144,99.5073,99.56595714285714,99.54608571428571,0.046333333333333115,-0.08333333333333326,-0.16079999999999994,0.06766666666666676,-0.041666666666671404,-0.046666666666666856,1.5176666666666665,1.5165,37.637,29.454666666666668,37.542,34.612,56.272999999999996,34.789500000000004,59.274,52.0115,54.188,33.9265,57.884,50.3535,53.349000000000004,33.467,57.827,49.77033333333333,-0.10399999999999987,-0.045500000000000096,0.10474000000000001,0.10868000000000001,0.0,208.785,208.79000000000002,205.64333333333332,205.64333333333332,0.0,0.0
9,0.0,0.0,0.0,1.0,1.0,0.0,0.0,1.0,0.0,100.0,1.0,1.1856,26.0,0.0,0.0,0.0,62.0,0.0,26.0,26.0,26.0,26.0,-0.01575,0.2944,-0.019,293.182,-2.687,-2.7182222222222223,-1.5561,-1.5524,-245.92000000000002,216.14249999999998,190.809875,0.0,0.0,0.0,0.0,0.018899999999999917,-5.498166666666667,-5.498166666666667,-0.5438000000000001,0.577,-0.03337499999999993,-0.39800000000000013,66.799,-0.0281,-0.21857500000000002,-0.09399999999999942,100.0,1.0,1.0,206.18666666666667,0.0,0.0,0.0,0.0,0.0,0.0,0.0,8739.5,0.0,55.0,5.0,240.45,1.0,0.0,0.0,0.0,0.0,0.0,0.0,0.0,0.4529999999999994,0.4529999999999994,0.0,0.0,1.0,55.0,616.79921,10000.0,85.000001,85.000001,85.000001,85.000001,395.0,0.0,0.0,0.0,1.0,333.33500000000004,52.414,52.414,49.194,49.194,34.0,-26.705,23.86,-28.416666666666664,26.215,0.0,1782.346,-0.48999999999999844,100.0,27.776,27.32,42.318,41.912,0.0,0.0,100.0,0.0,0.0,0.0,0.0,3373.5714285714284,3018.3,3985.25,4018.9,304.6855,305.0525,315.184,314.863,21.8711,20.5578,21.8564,21.3863,314.999998,314.999998,324.999988,324.999988,99.55928571428572,99.50731666666667,99.5661,99.54621428571429,0.06599999999999984,-0.058333333333333126,-0.137,0.08816666666666673,-0.054999999999999716,-0.05833333333333002,1.583,1.577,37.695,29.486333333333334,37.602000000000004,34.664500000000004,56.26,34.826499999999996,59.308,52.067499999999995,54.176,33.960499999999996,57.916,50.4075,53.336,33.5,57.8565,49.823,-0.11699999999999999,-0.03699999999999992,0.10690000000000001,0.107855,0.0,209.23000000000002,209.23000000000002,206.18666666666667,206.18666666666667,0.0,0.0
10,0.0,0.0,0.0,1.0,1.0,0.0,0.0,1.0,0.0,100.0,1.0,1.1856,26.0,0.0,0.0,0.0,62.0,0.0,26.0,26.0,26.0,26.0,0.001,0.29310000000000014,0.04945,292.999,-2.6607,-2.7110000000000003,-1.5328,-1.5357,-242.51,216.115,190.789125,0.0,0.0,0.0,0.0,0.02086666666666659,-5.498166666666667,-5.498166666666667,-0.5184,-0.4315,0.007749999999999924,1.771,66.946,-0.007200000000000001,-0.20597500000000002,-0.5179999999999998,100.0,1.0,1.0,206.43,0.0,0.0,0.0,0.0,0.0,0.0,0.0,8749.8,0.0,55.0,5.0,240.9766666666667,0.0,0.0,0.0,0.0,0.0,0.0,1.0,0.0,0.5040000000000013,0.5040000000000013,0.0,0.0,0.0,55.0,616.79921,10000.0,85.000001,85.000001,85.000001,85.000001,395.0,0.0,0.0,0.0,1.0,333.33500000000004,53.482,53.482,47.668,47.668,34.0,-20.5275,23.668,-29.763333333333335,31.055,0.0,1782.295,-0.5899999999999999,100.0,27.788,27.15,42.807,42.533,0.0,0.0,100.0,0.0,0.0,0.0,0.0,2824.4285714285716,2968.9,4265.625,4343.3,306.1435,305.441,314.3395,314.08025,21.8809,20.5631,21.867,21.3954,314.999998,314.999998,324.999988,324.999988,99.55928571428572,99.50731666666667,99.56622857142857,99.54635714285715,0.09633333333333338,-0.04299999999999993,-0.1097999999999999,0.12416666666666676,-0.03833333333332689,-0.06499999999999773,1.4853333333333334,1.4525,37.754999999999995,29.519333333333336,37.668,34.7215,56.247,34.8635,59.3495,52.132,54.163,33.9945,57.954499999999996,50.469,53.322,33.5325,57.891999999999996,49.88333333333333,-0.12450000000000006,-0.03200000000000003,0.105715,0.10938500000000001,0.0,209.655,209.68,206.43,206.43,0.0,0.0
11,0.0,0.0,0.0,1.0,1.0,0.0,0.0,1.0,0.0,100.0,1.0,1.1856,26.0,0.0,0.0,0.0,62.0,0.0,26.0,26.0,26.0,26.0,0.05325,0.2801,-0.0974,293.564,-2.7106,-2.6821111111111113,-1.5911,-1.5215,-239.09,216.0875,190.7685,0.0,0.0,0.0,0.0,0.022599999999999953,-5.498166666666667,-5.498166666666667,-0.5616,-0.25449999999999995,0.03237500000000004,-0.6099999999999999,67.08500000000001,0.0123,-0.2384,-0.5939999999999994,100.0,1.0,1.0,207.16666666666669,0.0,0.0,0.0,0.0,0.0,0.0,0.0,8781.0,0.0,55.0,5.0,241.4766666666667,1.0,0.0,0.0,0.0,0.0,0.0,1.0,0.0,0.5549999999999997,0.5549999999999997,0.0,0.0,1.0,55.0,616.79921,10000.0,85.000001,85.000001,85.000001,85.000001,395.0,0.0,0.0,0.0,1.0,333.33500000000004,52.872,52.872,49.316,49.316,34.0,-22.915,25.73,-24.376666666666665,26.38,0.0,1782.243,-0.6999999999999993,100.0,27.405,27.531,42.272,42.575,0.0,0.0,100.0,0.0,0.0,0.0,0.0,3089.5714285714284,3092.1,3701.0,3854.6,305.5555,304.83725,315.882,315.2565,21.8904,20.5685,21.877299999999998,21.4044,314.999998,314.999998,324.999988,324.999988,99.5593,99.50731666666667,99.56637142857143,99.5465,0.0983333333333336,-0.021666666666666723,-0.09639999999999993,0.13050000000000006,-0.05666666666667197,-0.046666666666666856,1.639,1.6215,37.815,29.553333333333335,37.733000000000004,34.7775,56.232,34.900999999999996,59.3845,52.1915,54.149,34.0295,57.987,50.5265,53.307,33.566,57.9215,49.94,-0.121,-0.02450000000000019,0.10963500000000001,0.11000000000000001,0.0,210.06,210.09,207.16666666666669,207.16666666666669,0.0,0.0
12,0.0,0.0,0.0,1.0,1.0,0.0,0.0,1.0,0.0,100.0,1.0,1.1856,26.0,0.0,0.0,0.0,62.0,0.0,26.0,26.0,26.0,26.0,0.051625000000000004,0.28980000000000006,0.030500000000000003,292.984,-2.7661,-2.678,-1.5535999999999999,-1.5219,-235.87,216.0625,190.747625,0.0,0.0,0.0,0.0,0.025466666666666526,-5.498166666666667,-5.498166666666667,-0.5461,0.31099999999999994,0.01912500000000006,-0.8959999999999999,67.22200000000001,0.0298,-0.2056,-0.6660000000000004,100.0,1.0,1.0,207.35000000000002,0.0,0.0,0.0,0.0,0.0,0.0,0.0,8788.8,0.0,55.0,5.0,241.97,0.0,0.0,0.0,0.0,0.0,0.0,1.0,0.0,0.602999999999998,0.602999999999998,0.0,0.0,0.0,55.0,616.79921,10000.0,85.000001,85.000001,85.000001,85.000001,395.0,0.0,0.0,0.0,1.0,333.33500000000004,52.856,52.856,47.974000000000004,47.974000000000004,34.0,-23.27,25.688,-27.453333333333333,30.635,0.0,1782.195,-0.6550000000000011,100.0,27.275,27.699,42.158,42.543,0.0,0.0,100.0,0.0,0.0,0.0,0.0,3118.857142857143,3095.8,4234.125,4170.9,305.5155,304.84325,314.59625,314.474,21.8994,20.5737,21.887,21.4128,314.999998,314.999998,324.999988,324.999988,99.55931428571428,99.50731666666667,99.5665,99.54664285714286,0.10666666666666647,-0.022333333333333316,-0.07379999999999998,0.15116666666666667,-0.05333333333332746,-0.05833333333333002,1.529,1.503,37.870999999999995,29.585333333333335,37.794,34.83,56.22,34.9365,59.420500000000004,52.249,54.137,34.062,58.0205,50.582,53.295,33.5975,57.952,49.994,-0.121,-0.03149999999999986,0.098555,0.111945,0.0,210.505,210.55,207.35000000000002,207.35000000000002,0.0,0.0
13,0.0,0.0,0.0,1.0,1.0,0.0,0.0,1.0,0.0,100.0,1.0,1.1856,26.0,0.0,0.0,0.0,62.0,0.0,26.0,26.0,26.0,26.0,0.0635,0.2893000000000001,0.052975,292.557,-2.7335,-2.675777777777778,-1.6231,-1.508,-232.43,216.0375,190.725875,0.0,0.0,0.0,0.0,0.026733333333333387,-5.498166666666667,-5.498166666666667,-0.539,-0.05699999999999994,0.023374999999999924,0.9410000000000001,67.364,0.040100000000000004,-0.2136,-0.8939999999999992,100.0,1.0,1.0,207.74,0.0,0.0,0.0,0.0,0.0,0.0,0.0,8805.4,0.0,55.0,5.0,242.48333333333335,1.0,0.0,0.0,0.0,0.0,0.0,1.0,0.0,0.6539999999999999,0.6539999999999999,0.0,0.0,1.0,55.0,616.79921,10000.0,85.000001,85.000001,85.000001,85.000001,395.0,0.0,0.0,0.0,1.0,333.33500000000004,52.475,52.475,47.882,47.882,34.0,-20.685,27.88,-27.58,32.8275,0.0,1782.144,-0.8299999999999983,100.0,27.792,27.755,42.538,42.951,0.0,0.0,100.0,0.0,0.0,0.0,0.0,3055.857142857143,3188.3,4162.5,4357.2,305.4915,304.72775,314.67975,314.0845,21.9091,20.5792,21.8975,21.422,314.999998,314.999998,324.999988,324.999988,99.55932857142857,99.50731666666667,99.56664285714285,99.54678571428572,0.15300000000000002,0.014666666666666828,-0.06420000000000003,0.16500000000000004,-0.04999999999999716,-0.03499999999999659,1.5030000000000001,1.4835,37.932,29.619999999999997,37.858999999999995,34.8875,56.209,34.9745,59.459,52.313,54.126999999999995,34.0975,58.0565,50.6435,53.283,33.6315,57.985,50.05466666666666,-0.14549999999999996,-0.009500000000000064,0.11593,0.098845,0.0,210.94,210.97,207.74,207.74,0.0,0.0
14,0.0,0.0,0.0,1.0,1.0,0.0,0.0,1.0,0.0,100.0,1.0,1.1856,26.0,0.0,0.0,0.0,62.0,0.0,26.0,26.0,26.0,26.0,0.093125,0.2812000000000001,-0.0103,292.801,-2.7307,-2.616777777777778,-1.5987,-1.5110000000000001,-228.79,216.0125,190.703375,0.0,0.0,0.0,0.0,0.028866666666666596,-5.498166666666667,-5.498166666666667,-0.5493,-0.10650000000000004,0.053749999999999964,1.397,67.512,0.054700000000000006,-0.22920000000000001,-1.024,100.0,1.0,1.0,208.28,0.0,0.0,0.0,0.0,0.0,0.0,0.0,8828.3,0.0,55.0,5.0,243.01666666666665,0.0,0.0,0.0,0.0,0.0,0.0,1.0,0.0,0.7079999999999984,0.7079999999999984,0.0,0.0,0.0,55.0,616.79921,10000.0,85.000001,85.000001,85.000001,85.000001,395.0,0.0,0.0,0.0,1.0,166.665,52.597,52.597,48.126,48.126,34.0,-19.482499999999998,28.71,-24.06,32.305,0.0,1782.092,-0.8900000000000006,100.0,27.714,27.867,42.502,43.181,0.0,0.0,100.0,0.0,0.0,0.0,0.0,2916.142857142857,3269.3,3938.625,4220.3,305.8805,304.48975,315.20375,314.42525,21.9193,20.5851,21.9085,21.4317,314.999998,314.999998,324.999988,324.999988,99.55934285714285,99.50733333333334,99.5668,99.54694285714285,0.1556666666666664,0.027666666666666728,-0.03920000000000001,0.18133333333333335,-0.036666666666668846,-0.05833333333333002,1.5583333333333333,1.5185,37.995000000000005,29.656666666666666,37.928,34.948,56.198,35.015,59.4985,52.3795,54.116,34.135,58.093,50.707499999999996,53.272,33.667,58.018,50.117333333333335,-0.14349999999999996,-0.006000000000000227,0.09827000000000001,0.11164,0.0,211.37,211.44,208.28,208.28,0.0,0.0
15,0.0,0.0,0.0,1.0,1.0,0.0,0.0,1.0,0.0,100.0,1.0,1.1856,26.0,0.0,0.0,0.0,62.0,0.0,26.0,26.0,26.0,26.0,0.11812500000000001,0.2795000000000001,-0.047475,292.847,-2.7171,-2.5664444444444445,-1.6347,-1.4504000000000001,-225.75,215.995,190.684375,0.0,0.0,0.0,0.0,0.0306333333333334,-5.498166666666667,-5.498166666666667,-0.5404,0.29500000000000004,0.084125,-0.20599999999999996,67.636,0.0644,-0.211075,-1.0820000000000007,100.0,1.0,1.0,208.65,0.0,0.0,0.0,0.0,0.0,0.0,0.0,8844.0,0.0,55.0,5.0,243.46,1.0,0.0,0.0,0.0,0.0,0.0,1.0,0.0,0.7530000000000001,0.7530000000000001,0.0,0.0,1.0,55.0,616.79921,10000.0,85.000001,85.000001,85.000001,85.000001,395.0,0.0,0.0,0.0,1.0,166.665,52.811,52.811,48.248,48.248,34.0,-18.995,27.009999999999998,-24.759999999999998,32.9525,0.0,1782.047,-0.9699999999999989,100.0,27.551,28.069,42.162,43.367000000000004,0.0,0.0,100.0,0.0,0.0,0.0,0.0,2888.857142857143,3133.6,3976.5,4316.6,306.102,304.726,315.2115,314.14275,21.9277,20.59,21.9176,21.4397,314.999998,314.999998,324.999988,324.999988,99.55935714285714,99.50733333333334,99.56692857142858,99.54707142857143,0.15600000000000014,0.024666666666666615,-0.040000000000000036,0.1905000000000001,-0.05666666666667197,-0.054999999999999716,1.5523333333333333,1.511,38.048,29.687333333333335,37.985,34.9985,56.19,35.049,59.5295,52.435,54.108000000000004,34.1665,58.1215,50.760999999999996,53.262,33.6975,58.044,50.17,-0.15300000000000002,-0.0024999999999999467,0.10663,0.11059500000000001,0.0,211.79000000000002,211.85000000000002,208.65,208.65,0.0,0.0
16,0.0,0.0,0.0,1.0,1.0,0.0,0.0,1.0,0.0,100.0,1.0,1.1856,26.0,0.0,0.0,0.0,62.0,0.0,26.0,26.0,26.0,26.0,0.13175,0.27090000000000014,-0.013975000000000001,292.862,-2.804,-2.612888888888889,-1.5994000000000002,-1.4543,-222.3,215.975,190.66225,0.0,0.0,0.0,0.0,0.0326333333333334,-5.498166666666667,-5.498166666666667,-0.5598000000000001,-0.7705,0.0694999999999999,0.10099999999999998,67.776,0.076,-0.223775,-1.217999999999999,100.0,1.0,1.0,209.07,0.0,0.0,0.0,0.0,0.0,0.0,0.0,8861.8,0.0,55.0,5.0,243.96666666666667,0.0,0.0,0.0,0.0,0.0,0.0,1.0,0.0,0.8039999999999985,0.8039999999999985,0.0,0.0,0.0,55.0,616.79921,10000.0,85.000001,85.000001,85.000001,85.000001,395.0,0.0,0.0,0.0,1.0,333.33500000000004,52.765,52.765,47.852000000000004,47.852000000000004,34.0,-19.275,29.311999999999998,-23.106666666666666,32.9075,0.0,1781.995,-0.875,100.0,27.316,27.987000000000002,42.507,43.41,0.0,0.0,100.0,0.0,0.0,0.0,0.0,2923.857142857143,3278.3,3948.125,4171.5,306.032,304.4595,315.204,314.5315,21.937,20.5956,21.9281,21.448900000000002,314.999998,314.999998,324.999988,324.999988,99.55938571428571,99.50735,99.56707142857142,99.54721428571429,0.17366666666666664,0.04033333333333333,-0.018799999999999928,0.21666666666666679,-0.041666666666671404,-0.06499999999999773,1.553,1.5185,38.105999999999995,29.72233333333333,38.051,35.0555,56.176,35.088499999999996,59.567499999999995,52.498,54.095,34.2035,58.157,50.8215,53.248000000000005,33.733000000000004,58.076,50.22933333333333,-0.14949999999999997,-0.014000000000000234,0.10629500000000001,0.11311500000000001,0.0,212.175,212.255,209.07,209.07,0.0,0.0
17,0.0,0.0,0.0,1.0,1.0,0.0,0.0,1.0,0.0,100.0,1.0,1.1856,26.0,0.0,0.0,0.0,62.0,0.0,26.0,26.0,26.0,26.0,0.1335,0.2932000000000001,-0.0011250000000000001,292.526,-2.7681,-2.561111111111111,-1.6425,-1.4742,-218.84,215.96,190.63975,0.0,0.0,0.0,0.0,0.034633333333333294,-5.498166666666667,-5.498166666666667,-0.5494,0.534,0.052000000000000046,-0.6560000000000001,67.91499999999999,0.0766,-0.206925,-1.0739999999999998,100.0,1.0,1.0,209.48333333333335,0.0,0.0,0.0,0.0,0.0,0.0,0.0,8879.2,0.0,55.0,5.0,244.46333333333334,1.0,0.0,0.0,0.0,0.0,0.0,1.0,0.0,0.8550000000000004,0.8550000000000004,0.0,0.0,1.0,55.0,616.79921,10000.0,85.000001,85.000001,85.000001,85.000001,395.0,0.0,0.0,0.0,1.0,333.33500000000004,52.444,52.444,47.882,47.882,34.0,-19.939999999999998,27.189999999999998,-25.776666666666664,33.115,0.0,1781.943,-1.0249999999999986,100.0,27.674,28.422,42.207,43.465,0.0,0.0,100.0,0.0,0.0,0.0,0.0,3089.142857142857,3083.4,4222.875,4252.3,305.626,304.92275,314.7205,314.3545,21.9466,20.6013,21.9384,21.4579,314.999998,314.999998,324.999988,324.999988,99.55941428571428,99.50735,99.56722857142857,99.54737142857142,0.17799999999999994,0.04366666666666674,-0.024599999999999955,0.2008333333333332,-0.046666666666666856,-0.05833333333333002,1.5616666666666665,1.519,38.166,29.758333333333333,38.114999999999995,35.112,56.167,35.1325,59.605000000000004,52.564,54.086,34.2435,58.192,50.885,53.238,33.772,58.1075,50.292,-0.15799999999999992,0.0004999999999999449,0.10329,0.10511500000000001,0.0,212.635,212.72500000000002,209.48333333333335,209.48333333333335,0.0,0.0
18,0.0,0.0,0.0,1.0,1.0,0.0,0.0,1.0,0.0,100.0,1.0,1.1856,26.0,0.0,0.0,0.0,62.0,0.0,26.0,26.0,26.0,26.0,0.10525,0.28049999999999997,-0.001775,292.435,-2.7989,-2.537333333333333,-1.6560000000000001,-1.4227,-215.37,215.95,190.617375,0.0,0.0,0.0,0.0,0.036666666666666514,-5.498166666666667,-5.498166666666667,-0.5601,-0.498,0.07250000000000001,0.8360000000000001,68.053,0.07930000000000001,-0.2232,-1.1420000000000003,100.0,1.0,1.0,209.91,0.0,0.0,0.0,0.0,0.0,0.0,0.0,8897.3,0.0,55.0,5.0,244.96333333333334,0.0,0.0,0.0,0.0,0.0,0.0,1.0,0.0,0.9059999999999988,0.9059999999999988,0.0,0.0,0.0,55.0,616.79921,10000.0,85.000001,85.000001,85.000001,85.000001,395.0,0.0,0.0,0.0,1.0,166.665,52.322,52.322,47.668,47.668,34.0,-20.325,29.336,-24.45,32.4925,0.0,1781.894,-0.629999999999999,100.0,27.612000000000002,28.139,42.635,43.772999999999996,0.0,0.0,100.0,0.0,0.0,0.0,0.0,2997.142857142857,3384.0,4012.5,4231.1,305.786,304.21225,315.0945,314.4235,21.956,20.6069,21.9489,21.4672,314.999998,314.999998,324.999988,324.999988,99.55942857142857,99.50735,99.56735714285715,99.54751428571429,0.16199999999999992,0.034333333333333105,-0.02200000000000002,0.20666666666666678,-0.02833333333332888,-0.061666666666667425,1.5563333333333333,1.52,38.224999999999994,29.793333333333333,38.181,35.17,56.157,35.17,59.6405,52.6245,54.076,34.2785,58.225,50.9435,53.227000000000004,33.8055,58.1375,50.349333333333334,-0.131,-0.022499999999999964,0.10972000000000001,0.10461000000000001,0.0,213.015,213.125,209.91,209.91,0.0,0.0
19,0.0,0.0,0.0,1.0,1.0,0.0,0.0,1.0,0.0,100.0,1.0,1.1856,26.0,0.0,0.0,0.0,62.0,0.0,26.0,26.0,26.0,26.0,0.079375,0.28970000000000007,0.022975000000000002,291.992,-2.758,-2.537333333333333,-1.6546,-1.4203000000000001,-212.1,215.9425,190.596,0.0,0.0,0.0,0.0,0.03856666666666653,-5.498166666666667,-5.498166666666667,-0.5514,0.839,0.06512499999999988,0.5,68.182,0.0824,-0.21095,-0.6799999999999997,100.0,1.0,1.0,210.29333333333335,0.0,0.0,0.0,0.0,0.0,0.0,0.0,8913.5,0.0,55.0,5.0,245.42666666666668,1.0,0.0,0.0,0.0,0.0,0.0,1.0,0.0,0.9540000000000006,0.9540000000000006,0.0,0.0,1.0,55.0,616.79921,10000.0,85.000001,85.000001,85.000001,85.000001,395.0,0.0,0.0,0.0,1.0,166.665,51.666,51.666,47.592,47.592,34.0,-22.4525,27.408,-25.563333333333333,33.315,0.0,1781.846,0.010000000000001563,100.0,28.196,28.525,42.469,43.644,0.0,0.0,100.0,0.0,0.0,0.0,0.0,3086.142857142857,3364.0,4173.5,4378.3,305.396,304.17375,314.766,314.14025,21.965,20.6124,21.9586,21.4758,314.999998,314.999998,324.999988,324.999988,99.55944285714286,99.50736666666667,99.56748571428571,99.54765714285715,0.1243333333333334,-0.007333333333333192,-0.020399999999999974,0.19850000000000012,-0.04999999999999716,-0.06666666666666998,1.5323333333333333,1.514,38.281,29.827333333333335,38.241,35.224000000000004,56.147999999999996,35.208,59.6735,52.683,54.068,34.314,58.2555,51.0,53.217,33.8395,58.1655,50.405,-0.08050000000000002,-0.07650000000000023,0.10071000000000001,0.10805500000000001,0.0,213.485,213.54500000000002,210.29333333333335,210.29333333333335,0.0,0.0
20,0.0,0.0,0.0,1.0,1.0,0.0,0.0,1.0,0.0,100.0,1.0,1.1856,26.0,0.0,0.0,0.0,62.0,0.0,26.0,26.0,26.0,26.0,0.053875,0.2742,-0.013025,292.267,-2.7914,-2.613666666666667,-1.569,-1.5558,-208.62,215.935,190.573625,0.0,0.0,0.0,0.0,0.04056666666666653,-5.498166666666667,-5.498166666666667,-0.552,-1.0350000000000001,0.046375000000000055,-1.251,68.322,0.0601,-0.21980000000000002,0.06600000000000072,100.0,1.0,1.0,210.5966666666667,0.0,0.0,0.0,0.0,0.0,0.0,0.0,8926.4,0.0,55.0,5.0,245.93333333333334,0.0,0.0,0.0,0.0,0.0,0.0,0.0,0.0,1.004999999999999,1.004999999999999,0.0,0.0,0.0,55.0,616.79921,10000.0,85.000001,85.000001,85.000001,85.000001,395.0,0.0,0.0,0.0,1.0,333.33500000000004,52.841,52.841,46.768,46.768,34.0,-22.41,23.934,-27.733333333333334,32.975,0.0,1781.794,0.4200000000000017,100.0,27.581,28.283,43.153999999999996,44.046,0.0,0.0,100.0,0.0,0.0,0.0,0.0,2933.0,3060.7,4260.75,4279.9,306.1205,304.9765,314.47225,314.076,21.9742,20.618,21.9693,21.4851,314.999998,314.999998,324.999988,324.999988,99.55945714285714,99.50736666666667,99.56764285714286,99.5478,0.09299999999999997,-0.04299999999999993,-0.06399999999999995,0.16066666666666674,-0.030000000000001137,-0.045000000000001705,1.4676666666666667,1.472,38.339,29.862333333333332,38.308,35.282,56.132999999999996,35.246,59.7145,52.7475,54.053,34.349000000000004,58.293,51.062,53.202,33.8735,58.2,50.465666666666664,-0.05400000000000005,-0.10250000000000004,0.10779000000000001,0.10852,0.0,213.885,213.88,210.5966666666667,210.5966666666667,0.0,0.0
21,0.0,0.0,0.0,1.0,1.0,0.0,0.0,1.0,0.0,100.0,1.0,1.1856,26.0,0.0,0.0,0.0,62.0,0.0,26.0,26.0,26.0,26.0,0.019625,0.26780000000000004,-0.069025,292.679,-2.6818,-2.6932222222222224,-1.6135000000000002,-1.5351,-205.34,215.93,190.552125,0.0,0.0,0.0,0.0,0.04249999999999998,-5.498166666666667,-5.498166666666667,-0.5777,0.46299999999999997,0.007624999999999993,-1.35,68.446,0.0246,-0.22545,0.5839999999999996,100.0,1.0,1.0,211.25,0.0,0.0,0.0,0.0,0.0,0.0,0.0,8954.1,0.0,55.0,5.0,246.37666666666667,1.0,0.0,0.0,0.0,0.0,0.0,0.0,0.0,1.0530000000000008,1.0530000000000008,0.0,0.0,1.0,55.0,616.79921,10000.0,85.000001,85.000001,85.000001,85.000001,395.0,0.0,0.0,0.0,1.0,333.33500000000004,52.277,52.277,48.34,48.34,34.0,-24.75,23.618,-27.419999999999998,27.2275,0.0,1781.746,0.4349999999999987,100.0,27.996,28.244,42.712,43.406,0.0,0.0,100.0,0.0,0.0,0.0,0.0,3169.0,3039.7,4021.375,3937.0,305.3045,304.96875,315.19075,315.13,21.9832,20.6233,21.9789,21.4935,314.999998,314.999998,324.999988,324.999988,99.55947142857143,99.50736666666667,99.56777142857143,99.54794285714286,0.06800000000000006,-0.06533333333333324,-0.09579999999999989,0.12916666666666687,-0.04833333333333201,-0.03833333333332689,1.583,1.603,38.394999999999996,29.895666666666664,38.367999999999995,35.3345,56.120000000000005,35.284,59.7455,52.8015,54.041,34.384,58.322,51.1145,53.189,33.907,58.226,50.516999999999996,-0.046499999999999986,-0.11500000000000021,0.103635,0.11013,0.0,214.335,214.285,211.25,211.25,0.0,0.0
22,0.0,0.0,0.0,1.0,1.0,0.0,0.0,1.0,0.0,100.0,1.0,1.1856,26.0,0.0,0.0,0.0,62.0,0.0,26.0,26.0,26.0,26.0,-0.021750000000000002,0.26449999999999996,0.004025,292.114,-2.6369,-2.7233333333333336,-1.5905,-1.5928,-201.84,215.925,190.52825,0.0,0.0,0.0,0.0,0.044533333333333314,-5.498166666666667,-5.498166666666667,-0.5557,0.122,-0.0024999999999999467,0.8959999999999999,68.58500000000001,-0.0095,-0.20370000000000002,0.7759999999999998,100.0,1.0,1.0,211.45,0.0,0.0,0.0,0.0,0.0,0.0,0.0,8962.6,0.0,55.0,5.0,246.88,0.0,0.0,0.0,0.0,0.0,0.0,0.0,0.0,1.1039999999999992,1.1039999999999992,0.0,0.0,0.0,55.0,616.79921,10000.0,85.000001,85.000001,85.000001,85.000001,395.0,0.0,0.0,0.0,1.0,333.33500000000004,52.338,52.338,47.119,47.119,34.0,-23.6175,23.322000000000003,-31.493333333333336,29.855,0.0,1781.695,0.41000000000000014,100.0,28.362000000000002,28.011,43.413,43.357,0.0,0.0,100.0,0.0,0.0,0.0,0.0,2992.857142857143,3094.4,4246.625,4274.7,305.6015,304.9465,314.51575,314.30275,21.9927,20.6288,21.9895,21.5027,314.999998,314.999998,324.999988,324.999988,99.55948571428571,99.50738333333334,99.56791428571428,99.54808571428572,0.053999999999999826,-0.08666666666666667,-0.13039999999999996,0.10000000000000009,-0.036666666666668846,-0.060000000000002274,1.4733333333333334,1.4905,38.454,29.93,38.435,35.391999999999996,56.105999999999995,35.324,59.786,52.863,54.027,34.4215,58.36,51.173500000000004,53.174,33.942499999999995,58.2605,50.574666666666666,-0.04149999999999987,-0.10999999999999988,0.10187,0.11908,0.0,214.765,214.72,211.45,211.45,0.0,0.0
23,0.0,0.0,0.0,1.0,1.0,0.0,0.0,1.0,0.0,100.0,1.0,1.1856,26.0,0.0,0.0,0.0,62.0,0.0,26.0,26.0,26.0,26.0,-0.056625,0.2513000000000001,-0.039525000000000005,292.084,-2.6593,-2.683,-1.5086,-1.6171,-198.34,215.92000000000002,190.50475,0.0,0.0,0.0,0.0,0.046566666666666534,-5.498166666666667,-5.498166666666667,-0.5747,-0.3165,-0.019750000000000156,-0.8980000000000001,68.719,-0.0332,-0.23175,0.8760000000000012,100.0,1.0,1.0,211.95,0.0,0.0,0.0,0.0,0.0,0.0,0.0,8983.8,0.0,55.0,5.0,247.36666666666667,1.0,0.0,0.0,0.0,0.0,0.0,0.0,0.0,1.1550000000000011,1.1550000000000011,0.0,0.0,1.0,55.0,616.79921,10000.0,85.000001,85.000001,85.000001,85.000001,395.0,0.0,0.0,0.0,1.0,333.33500000000004,51.712,51.712,48.004,48.004,34.0,-28.4525,21.754,-29.813333333333333,25.3425,0.0,1781.643,0.33999999999999986,100.0,28.535,28.174,43.643,43.591,0.0,0.0,100.0,0.0,0.0,0.0,0.0,3424.285714285714,3018.6,4013.375,3960.2,304.63,305.09,315.073,314.9355,22.0022,20.6344,22.0001,21.5119,314.999998,314.999998,324.999988,324.999988,99.55948571428571,99.5074,99.56807142857143,99.54824285714285,0.03266666666666662,-0.10233333333333317,-0.16359999999999997,0.056499999999999995,-0.07000000000000028,-0.04333333333332945,1.5143333333333335,1.5465,38.513999999999996,29.964666666666666,38.501000000000005,35.4495,56.091,35.365,59.8245,52.924,54.013,34.459,58.3955,51.232,53.159,33.979,58.2935,50.632,-0.057499999999999885,-0.10550000000000015,0.109895,0.10193500000000001,0.0,215.185,215.095,211.95,211.95,0.0,0.0
24,0.0,0.0,0.0,1.0,1.0,0.0,0.0,1.0,0.0,100.0,1.0,1.1856,26.0,0.0,0.0,0.0,62.0,0.0,26.0,26.0,26.0,26.0,-0.07062500000000001,0.28900000000000015,-0.035075,292.389,-2.6718,-2.702888888888889,-1.5447000000000002,-1.5641,-195.04,215.9125,190.482375,0.0,0.0,0.0,0.0,0.04846666666666655,-5.498166666666667,-5.498166666666667,-0.5784,-0.42500000000000004,-0.018124999999999947,-0.18299999999999983,68.848,-0.0442,-0.21695,0.7160000000000011,100.0,1.0,1.0,212.26666666666665,0.0,0.0,0.0,0.0,0.0,0.0,0.0,8997.1,0.0,55.0,5.0,247.82333333333332,0.0,0.0,0.0,0.0,0.0,0.0,0.0,0.0,1.2029999999999994,1.2029999999999994,0.0,0.0,0.0,55.0,616.79921,10000.0,85.000001,85.000001,85.000001,85.000001,395.0,0.0,0.0,0.0,1.0,333.33500000000004,52.887,52.887,47.119,47.119,34.0,-25.24,20.124,-33.52333333333333,25.39,0.0,1781.595,0.28000000000000114,100.0,28.352,27.841,43.686,43.331,0.0,0.0,100.0,0.0,0.0,0.0,0.0,3036.4285714285716,2857.9,4355.875,4085.5,305.708,305.6625,314.2865,314.744,22.0111,20.6394,22.009999999999998,21.5204,314.999998,314.999998,324.999988,324.999988,99.5595,99.5074,99.5682,99.54837142857143,0.02499999999999991,-0.11266666666666669,-0.16479999999999995,0.05333333333333323,-0.05666666666667197,-0.03499999999999659,1.4993333333333334,1.5225,38.569,29.996333333333332,38.562,35.5025,56.076,35.402,59.861,52.9795,53.998999999999995,34.4935,58.43,51.2855,53.144,34.012,58.3245,50.684333333333335,-0.05400000000000005,-0.09799999999999986,0.1028,0.10408500000000001,0.0,215.575,215.49,212.26666666666665,212.26666666666665,0.0,0.0
25,0.0,0.0,0.0,1.0,1.0,0.0,0.0,1.0,0.0,100.0,1.0,1.1856,26.0,0.0,0.0,0.0,62.0,0.0,26.0,26.0,26.0,26.0,-0.08612500000000001,0.25340000000000007,-0.070275,292.343,-2.7306,-2.673222222222222,-1.5531000000000001,-1.5735000000000001,-191.53,215.9025,190.457,0.0,0.0,0.0,0.0,0.05053333333333332,-5.498166666666667,-5.498166666666667,-0.6118,-0.06400000000000006,-0.019000000000000128,-0.006000000000000227,68.979,-0.052700000000000004,-0.22540000000000002,0.6679999999999993,100.0,1.0,1.0,212.81666666666666,0.0,0.0,0.0,0.0,0.0,0.0,0.0,9020.5,0.0,55.0,5.0,248.3,1.0,0.0,0.0,0.0,0.0,0.0,0.0,0.0,1.2540000000000013,1.2540000000000013,0.0,0.0,1.0,55.0,616.79921,10000.0,85.000001,85.000001,85.000001,85.000001,395.0,0.0,0.0,0.0,1.0,333.33500000000004,51.926,51.926,47.928,47.928,34.0,-27.8625,23.201999999999998,-29.396666666666665,25.0675,0.0,1781.544,0.19000000000000128,100.0,28.406,27.858,43.548,42.96,0.0,0.0,100.0,0.0,0.0,0.0,0.0,3259.0,3254.7,3960.5,4004.7,305.0415,304.601,315.25375,315.0085,22.0205,20.6449,22.0203,21.5294,314.999998,314.999998,324.999988,324.999988,99.5595,99.50741666666667,99.56835714285714,99.54852857142858,0.028000000000000025,-0.10633333333333317,-0.1582,0.06299999999999994,-0.03833333333332689,-0.03833333333332689,1.5586666666666666,1.586,38.628,30.031,38.626999999999995,35.559,56.058,35.4465,59.899,53.04,53.982,34.5345,58.4655,51.3435,53.126000000000005,34.051,58.357,50.741,-0.06149999999999989,-0.09650000000000025,0.10128000000000001,0.10867500000000001,0.0,215.98000000000002,215.91,212.81666666666666,212.81666666666666,0.0,0.0
26,0.0,0.0,0.0,1.0,1.0,0.0,0.0,1.0,0.0,100.0,1.0,1.1856,26.0,0.0,0.0,0.0,62.0,0.0,26.0,26.0,26.0,26.0,-0.0745,0.2744,0.078375,291.153,-2.6762,-2.753,-1.597,-1.5723,-188.0,215.89249999999998,190.43125,0.0,0.0,0.0,0.0,0.05256666666666654,-5.498166666666667,-5.498166666666667,-0.5718,0.7424999999999999,-0.04475000000000007,-0.863,69.116,-0.055200000000000006,-0.1973,0.6039999999999992,100.0,1.0,1.0,212.9766666666667,0.0,0.0,0.0,0.0,0.0,0.0,0.0,9027.2,0.0,55.0,5.0,248.79000000000002,0.0,0.0,0.0,0.0,0.0,0.0,0.0,0.0,1.3049999999999997,1.3049999999999997,0.0,0.0,0.0,55.0,616.79921,10000.0,85.000001,85.000001,85.000001,85.000001,395.0,0.0,0.0,0.0,1.0,166.665,51.346000000000004,51.346000000000004,46.234,46.234,34.0,-27.5025,21.96,-37.27666666666667,28.177500000000002,0.0,1781.495,-0.0799999999999983,100.0,29.181,28.645,43.984,43.371,0.0,0.0,100.0,0.0,0.0,0.0,0.0,3329.714285714286,2995.3,4618.5,4421.1,304.851,305.06625,313.75275,313.921,22.0302,20.6506,22.0309,21.5386,314.999998,314.999998,324.999988,324.999988,99.5595,99.50743333333334,99.56851428571429,99.54867142857142,0.03933333333333344,-0.11066666666666669,-0.16959999999999997,0.05066666666666686,-0.03999999999999915,-0.041666666666671404,1.4323333333333332,1.4575,38.689,30.066333333333333,38.693,35.6165,56.047,35.4875,59.938,53.0975,53.971000000000004,34.572,58.501999999999995,51.399,53.114000000000004,34.087,58.3905,50.795,-0.08699999999999997,-0.0794999999999999,0.107935,0.1043,0.0,216.425,216.375,212.9766666666667,212.9766666666667,0.0,0.0
27,0.0,0.0,0.0,1.0,1.0,0.0,0.0,1.0,0.0,100.0,1.0,1.1856,26.0,0.0,0.0,0.0,62.0,0.0,26.0,26.0,26.0,26.0,-0.056,0.24040000000000017,-0.020075000000000003,291.58,-2.6454,-2.7183333333333333,-1.5893000000000002,-1.6425,-184.68,215.88,190.408125,0.0,0.0,0.0,0.0,0.05449999999999999,-5.498166666666667,-5.498166666666667,-0.596,-1.0635,-0.04212499999999997,-0.573,69.241,-0.046900000000000004,-0.24227500000000002,0.3260000000000005,100.0,1.0,1.0,213.45333333333332,0.0,0.0,0.0,0.0,0.0,0.0,0.0,9047.5,0.0,55.0,5.0,249.24,1.0,0.0,0.0,0.0,0.0,0.0,0.0,0.0,1.352999999999998,1.352999999999998,0.0,0.0,1.0,55.0,616.79921,10000.0,85.000001,85.000001,85.000001,85.000001,395.0,0.0,0.0,0.0,1.0,166.665,51.788,51.788,46.631,46.631,34.0,-26.395,22.218,-32.75333333333333,26.72,0.0,1781.447,-0.11499999999999844,100.0,28.823999999999998,28.41,44.64,43.965,0.0,0.0,100.0,0.0,0.0,0.0,0.0,3241.857142857143,3022.2,4187.5,4043.6000000000004,305.121,305.105,314.6915,314.72275,22.0392,20.6558,22.041,21.5474,314.999998,314.999998,324.999988,324.999988,99.5595,99.50745,99.56864285714286,99.5488,0.03833333333333311,-0.09933333333333327,-0.16600000000000004,0.05983333333333318,-0.051666666666669414,-0.03999999999999915,1.4793333333333334,1.5035,38.745000000000005,30.098666666666666,38.756,35.6715,56.032,35.5255,59.977000000000004,53.156,53.957,34.607,58.5385,51.454499999999996,53.1,34.121,58.424,50.849333333333334,-0.08999999999999986,-0.07200000000000006,0.10275000000000001,0.10823,0.0,216.74,216.71,213.45333333333332,213.45333333333332,0.0,0.0
28,0.0,0.0,0.0,1.0,1.0,0.0,0.0,1.0,0.0,100.0,1.0,1.1856,26.0,0.0,0.0,0.0,62.0,0.0,26.0,26.0,26.0,26.0,-0.0545,0.2754000000000001,-0.044725,291.901,-2.6672,-2.699222222222222,-1.5442,-1.597,-181.14999999999998,215.8675,190.382875,0.0,0.0,0.0,0.0,0.05656666666666654,-5.498166666666667,-5.498166666666667,-0.6021000000000001,0.6559999999999999,-0.03487499999999999,0.8799999999999999,69.37,-0.038700000000000005,-0.217975,0.17999999999999972,100.0,1.0,1.0,213.9766666666667,0.0,0.0,0.0,0.0,0.0,0.0,0.0,9069.7,0.0,55.0,5.0,249.70666666666665,0.0,0.0,0.0,0.0,0.0,0.0,0.0,0.0,1.404,1.404,0.0,0.0,0.0,55.0,616.79921,10000.0,85.000001,85.000001,85.000001,85.000001,395.0,0.0,0.0,0.0,1.0,333.33500000000004,51.757999999999996,51.757999999999996,47.607,47.607,34.0,-25.162499999999998,23.694000000000003,-29.356666666666666,27.22,0.0,1781.395,-0.2049999999999983,100.0,29.002,28.222,43.933,43.407,0.0,0.0,100.0,0.0,0.0,0.0,0.0,3190.857142857143,3116.6,4028.875,4142.0,305.111,304.974,315.0785,314.69575,22.0487,20.6614,22.0512,21.5564,314.999998,314.999998,324.999988,324.999988,99.55951428571429,99.50745,99.5688,99.54895714285715,0.06499999999999995,-0.07499999999999996,-0.14579999999999993,0.07600000000000007,-0.05666666666667197,-0.06499999999999773,1.55,1.5605,38.805,30.133666666666667,38.82,35.7275,56.019,35.566,60.010999999999996,53.2125,53.944,34.644999999999996,58.57,51.5095,53.086,34.157,58.4525,50.90266666666667,-0.09650000000000003,-0.06499999999999995,0.10337,0.107175,0.0,217.185,217.18,213.9766666666667,213.9766666666667,0.0,0.0
29,0.0,0.0,0.0,1.0,1.0,0.0,0.0,1.0,0.0,100.0,1.0,1.1856,26.0,0.0,0.0,0.0,62.0,0.0,26.0,26.0,26.0,26.0,-0.021625000000000002,0.25270000000000015,0.050625,291.534,-2.6329,-2.738888888888889,-1.5505,-1.5666,-177.61,215.85250000000002,190.356375,0.0,0.0,0.0,0.0,0.058599999999999985,-5.498166666666667,-5.498166666666667,-0.6054,-0.7605,-0.02737500000000015,-0.548,69.505,-0.0269,-0.216625,0.009999999999999787,100.0,1.0,1.0,214.2,0.0,0.0,0.0,0.0,0.0,0.0,0.0,9079.1,0.0,55.0,5.0,250.19,1.0,0.0,0.0,0.0,0.0,0.0,0.0,0.0,1.4549999999999983,1.4549999999999983,0.0,0.0,1.0,55.0,616.79921,10000.0,85.000001,85.000001,85.000001,85.000001,395.0,0.0,0.0,0.0,1.0,333.33500000000004,51.804,51.804,46.509,46.509,34.0,-25.075,23.86,-31.503333333333334,28.6625,0.0,1781.343,-0.26500000000000057,100.0,28.468,28.289,44.158,43.855000000000004,0.0,0.0,100.0,0.0,0.0,0.0,0.0,3256.857142857143,3091.2,4285.0,4223.7,305.12,304.78575,314.434,314.3565,22.0581,20.6669,22.061799999999998,21.5657,314.999998,314.999998,324.999988,324.999988,99.55952857142857,99.50746666666667,99.56895714285714,99.5491,0.06733333333333347,-0.08199999999999985,-0.13479999999999992,0.08800000000000008,-0.03999999999999915,-0.054999999999999716,1.4803333333333333,1.4669999999999999,38.863,30.168333333333333,38.885999999999996,35.786,56.003,35.605000000000004,60.0515,53.274,53.93,34.681,58.608000000000004,51.5685,53.071,34.1915,58.487,50.96033333333334,-0.10199999999999987,-0.06150000000000011,0.10716,0.107645,0.0,217.54500000000002,217.555,214.2,214.2,0.0,0.0
30,0.0,0.0,0.0,1.0,1.0,0.0,0.0,1.0,0.0,100.0,1.0,1.1856,26.0,0.0,0.0,0.0,62.0,0.0,26.0,26.0,26.0,26.0,-0.011875,0.26090000000000013,0.060225,291.138,-2.6893,-2.6284444444444444,-1.5272000000000001,-1.625,-174.06,215.835,190.329875,0.0,0.0,0.0,0.0,0.060666666666666536,-5.498166666666667,-5.498166666666667,-0.6033000000000001,0.861,-0.024125000000000174,0.75,69.634,-0.0137,-0.21715,-0.09399999999999942,100.0,1.0,1.0,214.68666666666667,0.0,0.0,0.0,0.0,0.0,0.0,0.0,9099.8,0.0,55.0,5.0,250.65333333333334,0.0,0.0,0.0,0.0,0.0,0.0,1.0,0.0,1.5060000000000002,1.5060000000000002,0.0,0.0,0.0,55.0,616.79921,10000.0,85.000001,85.000001,85.000001,85.000001,395.0,0.0,0.0,0.0,1.0,166.665,50.751,50.751,47.012,47.012,34.0,-25.6875,24.378,-29.25,30.35,0.0,1781.294,-0.28999999999999915,100.0,29.489,28.914,44.034,43.792,0.0,0.0,100.0,0.0,0.0,0.0,0.0,3337.285714285714,3199.7,4192.875,4213.1,304.6675,304.63825,314.6835,314.42525,22.0678,20.6728,22.0721,21.5749,314.999998,314.999998,324.999988,324.999988,99.55952857142857,99.50748333333334,99.56908571428572,99.54924285714286,0.08766666666666634,-0.06366666666666676,-0.11620000000000008,0.10833333333333317,-0.041666666666671404,-0.05833333333333002,1.5043333333333333,1.4845,38.924,30.205,38.951,35.8435,55.992999999999995,35.6475,60.0865,53.3335,53.92,34.7205,58.6405,51.6255,53.06,34.229,58.516999999999996,51.016,-0.10650000000000004,-0.06300000000000017,0.10773,0.11003500000000001,0.0,217.98000000000002,218.005,214.68666666666667,214.68666666666667,0.0,0.0
31,0.0,0.0,0.0,1.0,1.0,0.0,0.0,1.0,0.0,100.0,1.0,1.1856,26.0,0.0,0.0,0.0,62.0,0.0,26.0,26.0,26.0,26.0,-0.010625,0.25470000000000015,0.029825,290.97,-2.7547,-2.607333333333333,-1.5749,-1.5208,-170.70999999999998,215.82,190.305625,0.0,0.0,0.0,0.0,0.06263333333333332,-5.498166666666667,-5.498166666666667,-0.5899,-0.6495,-0.015249999999999986,0.653,69.758,0.0002,-0.22057500000000002,-0.2920000000000007,100.0,1.0,1.0,214.94333333333333,0.0,0.0,0.0,0.0,0.0,0.0,0.0,9110.6,0.0,55.0,5.0,251.10333333333335,1.0,0.0,0.0,0.0,0.0,0.0,1.0,0.0,1.5539999999999985,1.5539999999999985,0.0,0.0,1.0,55.0,616.79921,10000.0,85.000001,85.000001,85.000001,85.000001,395.0,0.0,0.0,0.0,1.0,333.33500000000004,51.407,51.407,45.532,45.532,34.0,-23.5675,25.287999999999997,-30.853333333333335,30.2475,0.0,1781.245,-0.33999999999999986,100.0,29.149,28.905,44.730000000000004,44.49,0.0,0.0,100.0,0.0,0.0,0.0,0.0,3102.714285714286,3267.9,4349.75,4243.5,305.5295,304.659,314.19,314.34275,22.0766,20.6782,22.0822,21.5838,314.999998,314.999998,324.999988,324.999988,99.55954285714286,99.50748333333334,99.56924285714285,99.5494,0.09799999999999986,-0.04600000000000004,-0.10160000000000002,0.12516666666666687,-0.03833333333332689,-0.03499999999999659,1.4593333333333334,1.4415,38.979,30.238666666666667,39.013999999999996,35.899,55.980999999999995,35.6855,60.1255,53.3925,53.908,34.7555,58.677,51.6825,53.047,34.263,58.55,51.072,-0.11250000000000004,-0.05600000000000005,0.110825,0.10926000000000001,0.0,218.35000000000002,218.34,214.94333333333333,214.94333333333333,0.0,0.0
32,0.0,0.0,0.0,1.0,1.0,0.0,0.0,1.0,0.0,100.0,1.0,1.1856,26.0,0.0,0.0,0.0,62.0,0.0,26.0,26.0,26.0,26.0,0.016875,0.27670000000000017,-0.030350000000000002,291.214,-2.7004,-2.702111111111111,-1.6444,-1.5236,-167.14999999999998,215.805,190.280125,0.0,0.0,0.0,0.0,0.06469999999999998,-5.498166666666667,-5.498166666666667,-0.6076,0.0645,-0.03624999999999989,-0.9010000000000002,69.885,0.008,-0.22862500000000002,-0.24799999999999933,100.0,1.0,1.0,215.47,0.0,0.0,0.0,0.0,0.0,0.0,0.0,9133.1,0.0,55.0,5.0,251.56,0.0,0.0,0.0,0.0,0.0,0.0,1.0,0.0,1.6050000000000004,1.6050000000000004,0.0,0.0,0.0,55.0,616.79921,10000.0,85.000001,85.000001,85.000001,85.000001,395.0,0.0,0.0,0.0,1.0,166.665,51.269999999999996,51.269999999999996,46.585,46.585,34.0,-24.59,25.034,-29.64,29.650000000000002,0.0,1781.195,-0.36499999999999844,100.0,28.942,29.091,44.274,44.337,0.0,0.0,100.0,0.0,0.0,0.0,0.0,3299.0,3093.3,4231.0,4213.1,305.004,304.8665,314.7265,314.5425,22.086,20.684,22.0925,21.593,314.999998,314.999998,324.999988,324.999988,99.55955714285714,99.5075,99.56938571428572,99.54954285714285,0.10066666666666668,-0.044333333333333114,-0.09220000000000006,0.12883333333333336,-0.04333333333332945,-0.05666666666667197,1.537,1.5325,39.037,30.27466666666667,39.078,35.9565,55.969,35.7255,60.1605,53.451499999999996,53.897,34.792500000000004,58.7095,51.739,53.035,34.298500000000004,58.579499999999996,51.127,-0.11799999999999988,-0.0495000000000001,0.10338000000000001,0.106505,0.0,218.745,218.76999999999998,215.47,215.47,0.0,0.0
33,0.0,0.0,0.0,1.0,1.0,0.0,0.0,1.0,0.0,100.0,1.0,1.1856,26.0,0.0,0.0,0.0,62.0,0.0,26.0,26.0,26.0,26.0,0.0245,0.2601,-0.027425,291.397,-2.71,-2.6945555555555556,-1.5775000000000001,-1.6024,-163.79,215.79000000000002,190.255,0.0,0.0,0.0,0.0,0.06663333333333332,-5.498166666666667,-5.498166666666667,-0.613,-0.3880000000000001,-0.029875000000000096,0.08000000000000007,70.008,0.0134,-0.21680000000000002,-0.19399999999999995,100.0,1.0,1.0,215.78,0.0,0.0,0.0,0.0,0.0,0.0,0.0,9146.1,0.0,55.0,5.0,252.00333333333333,1.0,0.0,0.0,0.0,0.0,0.0,1.0,0.0,1.6529999999999987,1.6529999999999987,0.0,0.0,1.0,55.0,616.79921,10000.0,85.000001,85.000001,85.000001,85.000001,395.0,0.0,0.0,0.0,1.0,333.33500000000004,51.757999999999996,51.757999999999996,46.494,46.494,34.0,-23.3925,24.344,-29.286666666666665,31.45,0.0,1781.145,-0.40500000000000114,100.0,28.759,28.829,44.219,44.382999999999996,0.0,0.0,100.0,0.0,0.0,0.0,0.0,3167.0,3026.2,4237.25,4243.9,305.424,305.1045,314.6005,314.37075,22.0947,20.6892,22.1023,21.6018,314.999998,314.999998,324.999988,324.999988,99.55957142857143,99.5075,99.56952857142858,99.54968571428572,0.1033333333333335,-0.04366666666666674,-0.09660000000000002,0.13000000000000012,-0.04999999999999716,-0.041666666666671404,1.506,1.4825,39.092,30.307666666666666,39.138999999999996,36.010999999999996,55.958,35.7605,60.195,53.5085,53.885999999999996,34.8245,58.7415,51.794,53.022999999999996,34.329499999999996,58.6085,51.18066666666667,-0.11399999999999988,-0.051000000000000156,0.099195,0.109685,0.0,219.13,219.13,215.78,215.78,0.0,0.0
34,0.0,0.0,0.0,1.0,1.0,0.0,0.0,1.0,0.0,100.0,1.0,1.1856,26.0,0.0,0.0,0.0,62.0,0.0,26.0,26.0,26.0,26.0,0.007875,0.2612000000000001,-0.0724,291.626,-2.7372,-2.6815555555555557,-1.6408,-1.5614,-160.22,215.775,190.227125,0.0,0.0,0.0,0.0,0.06869999999999998,-5.498166666666667,-5.498166666666667,-0.6426000000000001,-0.7235,0.00550000000000006,1.0859999999999999,70.137,0.0177,-0.22545,-0.3039999999999994,100.0,1.0,1.0,216.20333333333332,0.0,0.0,0.0,0.0,0.0,0.0,0.0,9164.1,0.0,55.0,5.0,252.46666666666667,0.0,0.0,0.0,0.0,0.0,0.0,1.0,0.0,1.7040000000000006,1.7040000000000006,0.0,0.0,0.0,55.0,616.79921,10000.0,85.000001,85.000001,85.000001,85.000001,395.0,0.0,0.0,0.0,1.0,333.33500000000004,51.926,51.926,47.272,47.272,34.0,-22.275,25.054000000000002,-28.49,30.87,0.0,1781.095,-0.41999999999999815,100.0,28.69,28.489,43.973,44.366,0.0,0.0,100.0,0.0,0.0,0.0,0.0,3038.142857142857,3077.0,4056.25,4247.7,305.452,304.99325,315.035,314.3945,22.1039,20.6948,22.1126,21.611,314.999998,314.999998,324.999988,324.999988,99.55958571428572,99.5075,99.56967142857143,99.54982857142858,0.11900000000000022,-0.033666666666666734,-0.09439999999999993,0.13183333333333325,-0.03166666666666629,-0.04833333333333201,1.514,1.5035,39.15,30.342333333333336,39.204,36.069,55.945,35.7965,60.229,53.569,53.873999999999995,34.8585,58.7735,51.8525,53.01,34.3615,58.637,51.23766666666667,-0.11549999999999994,-0.0495000000000001,0.10272,0.10677500000000001,0.0,219.485,219.5,216.20333333333332,216.20333333333332,0.0,0.0
35,0.0,0.0,0.0,1.0,1.0,0.0,0.0,1.0,0.0,100.0,1.0,1.1856,26.0,0.0,0.0,0.0,62.0,0.0,26.0,26.0,26.0,26.0,0.025875000000000002,0.24540000000000006,-0.032100000000000004,291.687,-2.7224,-2.618777777777778,-1.6228,-1.5146000000000002,-156.64,215.76,190.19725,0.0,0.0,0.0,0.0,0.07079999999999997,-5.498166666666667,-5.498166666666667,-0.6845,-0.3474999999999999,-0.00912500000000005,-1.1280000000000001,70.263,0.027600000000000003,-0.232775,-0.4059999999999997,100.0,1.0,1.0,216.66,0.0,0.0,0.0,0.0,0.0,0.0,0.0,9183.5,0.0,55.0,5.0,252.92333333333335,1.0,0.0,0.0,0.0,0.0,0.0,1.0,0.0,1.754999999999999,1.754999999999999,0.0,0.0,1.0,55.0,616.79921,10000.0,85.000001,85.000001,85.000001,85.000001,395.0,0.0,0.0,0.0,1.0,166.665,51.528999999999996,51.528999999999996,46.844,46.844,34.0,-23.575,26.927999999999997,-27.169999999999998,28.5825,0.0,1781.045,-0.28000000000000114,100.0,28.307,28.858,43.732,43.969,0.0,0.0,100.0,0.0,0.0,0.0,0.0,3197.714285714286,3317.6,4060.375,3991.8,305.29,304.20475,315.01475,314.99775,22.1129,20.7006,22.1229,21.6202,314.999998,314.999998,324.999988,324.999988,99.5596,99.5075,99.56982857142857,99.54998571428571,0.10899999999999999,-0.03066666666666662,-0.07579999999999998,0.14466666666666672,-0.051666666666669414,-0.04833333333333201,1.5596666666666668,1.526,39.206,30.378666666666668,39.268,36.126,55.931,35.835499999999996,60.263,53.6255,53.86,34.8945,58.805,51.907,52.995000000000005,34.3965,58.6655,51.291,-0.10749999999999993,-0.05600000000000005,0.10468500000000001,0.10233500000000001,0.0,219.9,219.91,216.66,216.66,0.0,0.0
36,0.0,0.0,0.0,1.0,1.0,0.0,0.0,1.0,0.0,100.0,1.0,1.1856,26.0,0.0,0.0,0.0,62.0,0.0,26.0,26.0,26.0,26.0,0.032375,0.2639,0.025725,290.894,-2.766,-2.657111111111111,-1.57,-1.5574,-153.27,215.7475,190.16775,0.0,0.0,0.0,0.0,0.07276666666666654,-5.498166666666667,-5.498166666666667,-0.6643,0.35950000000000004,-0.049875000000000114,-1.3410000000000002,70.385,0.0316,-0.201575,-0.137999999999999,100.0,1.0,1.0,216.83666666666667,0.0,0.0,0.0,0.0,0.0,0.0,0.0,9190.9,0.0,55.0,5.0,253.36,0.0,0.0,0.0,0.0,0.0,0.0,1.0,0.0,1.8030000000000008,1.8030000000000008,0.0,0.0,0.0,55.0,616.79921,10000.0,85.000001,85.000001,85.000001,85.000001,395.0,0.0,0.0,0.0,1.0,333.33500000000004,51.224000000000004,51.224000000000004,46.326,46.326,34.0,-25.6225,25.104,-30.056666666666665,34.197500000000005,0.0,1780.995,-0.21499999999999986,100.0,28.811,29.044,43.793,44.183,0.0,0.0,100.0,0.0,0.0,0.0,0.0,3362.142857142857,3133.7,4469.75,4472.0,304.899,304.7615,314.094,313.81775,22.1217,20.7061,22.1327,21.6289,314.999998,314.999998,324.999988,324.999988,99.55961428571429,99.5075,99.56995714285715,99.55012857142857,0.1030000000000002,-0.04200000000000004,-0.07499999999999996,0.15050000000000008,-0.04833333333333201,-0.03333333333333144,1.4536666666666667,1.441,39.26,30.413333333333334,39.33,36.1805,55.921,35.8735,60.2975,53.6825,53.851,34.9295,58.837,51.962,52.985,34.43,58.6945,51.34466666666667,-0.09999999999999987,-0.06850000000000023,0.10096000000000001,0.11404500000000001,0.0,220.315,220.31,216.83666666666667,216.83666666666667,0.0,0.0
