,ABS Active,ABS Enabled,AID Allow Tire Blankets,AID Auto Blip,AID Auto Clutch,AID Auto Shift,AID Fuel Rate,AID Ideal Line,AID Mech Damage,AID Stability,AID Tire Wear Rate,Air Density,Air Temp,Ballast,Best Lap Delta,Best Lap Time,Brake Bias,Brake Pos,Brake Temp FL,Brake Temp FR,Brake Temp RL,Brake Temp RR,CG Accel Lateral,CG Accel Longitudinal,CG Accel Vertical,CG Height,Camber FL,Camber FR,Camber RL,Camber RR,Car Coord X,Car Coord Y,Car Coord Z,Car Damage Front,Car Damage Left,Car Damage Rear,Car Damage Right,Car Pos Norm,Caster FL,Caster FR,Chassis Pitch Angle,Chassis Pitch Rate,Chassis Roll Angle,Chassis Roll Rate,Chassis Velocity X,Chassis Velocity Y,Chassis Velocity Z,Chassis Yaw Rate,Clutch Pos,DRS Active,DRS Available,Drive Train Speed,ERS Heat Charging,ERS Is Charging,ERS Max Energy,ERS Power Level,ERS Recovery Level,Engine Brake Setting,Engine Limiter,Engine RPM,Flags,Fuel Level,Gear,Ground Speed,HR Sample Clock,In Pit,KERS Charge,KERS Deployed Energy,KERS Input,KERS Max Energy,LR Sample Clock,Lap Invalidated,Lap Time,Lap Time2,Last Lap Time,Last Sector Time,MR Sample Clock,Max Fuel,Max Power,Max RPM,Max Sus Travel FL,Max Sus Travel FR,Max Sus Travel RL,Max Sus Travel RR,Max Torque,Max Turbo Boost,Num Tires Off Track,Penalties Enabled,Position,Raw Data Sample Rate,Ride Height FL,Ride Height FR,Ride Height RL,Ride Height RR,Road Temp,Self Align Torque FL,Self Align Torque FR,Self Align Torque RL,Self Align Torque RR,Session Lap Count,Session Time Left,Steering Angle,Surface Grip,Suspension Travel FL,Suspension Travel FR,Suspension Travel RL,Suspension Travel RR,TC Active,TC Enabled,Throttle Pos,Tire Dirt Level FL,Tire Dirt Level FR,Tire Dirt Level RL,Tire Dirt Level RR,Tire Load FL,Tire Load FR,Tire Load RL,Tire Load RR,Tire Loaded Radius FL,Tire Loaded Radius FR,Tire Loaded Radius RL,Tire Loaded Radius RR,Tire Pressure FL,Tire Pressure FR,Tire Pressure RL,Tire Pressure RR,Tire Radius FL,Tire Radius FR,Tire Radius RL,Tire Radius RR,Tire Rubber Grip FL,Tire Rubber Grip FR,Tire Rubber Grip RL,Tire Rubber Grip RR,Tire Slip Angle FL,Tire Slip Angle FR,Tire Slip Angle RL,Tire Slip Angle RR,Tire Slip Ratio FL,Tire Slip Ratio FR,Tire Slip Ratio RL,Tire Slip Ratio RR,Tire Temp Core FL,Tire Temp Core FR,Tire Temp Core RL,Tire Temp Core RR,Tire Temp Inner FL,Tire Temp Inner FR,Tire Temp Inner RL,Tire Temp Inner RR,Tire Temp Middle FL,Tire Temp Middle FR,Tire Temp Middle RL,Tire Temp Middle RR,Tire Temp Outer FL,Tire Temp Outer FR,Tire Temp Outer RL,Tire Temp Outer RR,Toe In FL,Toe In FR,Toe In RL,Toe In RR,Turbo Boost,Wheel Angular Speed FL,Wheel Angular Speed FR,Wheel Angular Speed RL,Wheel Angular Speed RR,Wind Direction,Wind Speed
0,0.0,0.0,0.0,1.0,1.0,0.0,0.0,1.0,0.0,100.0,1.0,1.1856,26.0,0.0,0.0,0.0,62.0,0.0,26.0,26.0,26.0,26.0,-0.019124999999999948,0.29300000000000015,0.21466666666666667,293.045,-2.7974,-2.6127777777777776,-1.5641,-1.5052,-275.61,215.385,190.987125,0.0,0.0,0.0,0.0,0.0016333333333333332,-5.498166666666667,-5.498166666666667,-0.5592,1.8413333333333333,0.0029999999999998916,-0.784,65.495,-0.025399999999999978,-0.22065,-0.09799999999999898,100.0,1.0,1.0,202.20666666666668,0.0,0.0,0.0,0.0,0.0,0.0,0.0,8570.9,0.0,55.0,5.0,235.75333333333333,0.0,0.0,0.0,0.0,0.0,0.0,0.0,0.0,0.0030000000000001137,0.0030000000000001137,0.0,0.0,0.0,55.0,616.79921,10000.0,85.0,85.0,85.0,85.0,395.0,0.0,0.0,0.0,1.0,20.0,50.644,50.644,48.629999999999995,48.629999999999995,34.0,-29.7575,33.246,-29.303333333333335,26.058,0.0,1782.966,0.15000000000000213,100.0,27.248,27.419,40.386,40.216,0.0,0.0,100.0,0.0,0.0,0.0,0.0,3394.285714285714,4358.2,4087.5,4086.9,304.5055,301.23533333333336,314.942,314.63775,21.7665,20.5204,21.763666666666666,21.308,314.99999,314.99999,324.99998,324.99998,99.55858571428571,99.50733333333334,99.56488571428571,99.54498571428572,0.029749999999999943,-0.07924999999999993,-0.1333333333333333,0.08566666666666678,-0.060000000000002274,-0.03999999999999915,1.5506666666666666,1.561,37.041,29.252499999999998,37.022999999999996,34.175,56.177,34.5195,58.961,51.539500000000004,54.102999999999994,33.697,57.592,49.903,53.277,33.2675,57.557,49.331,-0.0714999999999999,-0.08300000000000018,0.10135000000000001,0.11041000000000001,0.0,205.21,205.215,202.20666666666668,202.20666666666668,0.0,0.0
1,0.0,0.0,0.0,1.0,1.0,0.0,0.0,1.0,0.0,100.0,1.0,1.1856,26.0,0.0,0.0,0.0,62.0,0.0,26.0,26.0,26.0,26.0,-0.04349999999999998,0.3275000000000001,0.187,292.099,-2.6963,-2.695888888888889,-1.6053000000000002,-1.3755000000000002,-272.27,215.39249999999998,190.967125,0.0,0.0,0.0,0.0,0.0035666666666666668,-5.498166666666667,-5.498166666666667,-0.4737,-1.7850000000000001,-0.04233333333333311,-0.21299999999999997,65.656,-0.017799999999999927,-0.17595,0.4500000000000002,100.0,1.0,1.0,202.06,0.0,0.0,0.0,0.0,0.0,0.0,0.0,8564.6,0.0,55.0,5.0,236.32999999999998,1.0,0.0,0.0,0.0,0.0,0.0,0.0,0.0,0.053999999999998494,0.053999999999998494,0.0,0.0,1.0,55.0,616.79921,10000.0,85.000001,85.000001,85.000001,85.000001,395.0,0.0,0.0,0.0,1.0,333.33500000000004,54.245,54.245,47.028,47.028,34.0,-22.6775,17.566,-38.019999999999996,35.724000000000004,0.0,1782.915,0.28999999999999915,100.0,27.483,27.217,42.559,43.177,0.0,0.0,100.0,0.0,0.0,0.0,0.0,2814.4285714285716,2459.9,4818.75,5530.6,306.2675,307.0013333333333,312.914,310.70225,21.77625,20.5254,21.774555555555555,21.3174,314.999998,314.999998,324.999988,324.999988,99.5586,99.50736666666667,99.56502857142857,99.54514285714286,0.040750000000000064,-0.08499999999999996,-0.12916666666666665,0.07266666666666666,-0.041666666666671404,-0.04333333333332945,1.274,1.3075,37.102000000000004,29.284,37.091,34.233999999999995,56.16,34.556,59.01,51.6105,54.086,33.731,57.6375,49.9705,53.26,33.3005,57.5995,49.397333333333336,-0.05499999999999994,-0.08650000000000002,0.10173000000000001,0.11287000000000001,0.0,205.66,205.63,202.06,202.06,0.0,0.0
2,0.0,0.0,0.0,1.0,1.0,0.0,0.0,1.0,0.0,100.0,1.0,1.1856,26.0,0.0,0.0,0.0,62.0,0.0,26.0,26.0,26.0,26.0,-0.07012499999999999,0.28700000000000014,0.03273333333333333,293.762,-2.6701,-2.648111111111111,-1.5743,-1.5108000000000001,-268.91,215.39499999999998,190.94825,0.0,0.0,0.0,0.0,0.005533333333333334,-5.498166666666667,-5.498166666666667,-0.5791000000000001,0.612,0.0024444444444442492,2.0340000000000003,65.789,-0.019999999999999907,-0.27337500000000003,0.6739999999999995,100.0,1.0,1.0,203.55,0.0,0.0,0.0,0.0,0.0,0.0,0.0,8627.7,0.0,55.0,5.0,236.81,0.0,0.0,0.0,0.0,0.0,0.0,0.0,0.0,0.10500000000000043,0.10500000000000043,0.0,0.0,0.0,55.0,616.79921,10000.0,85.000001,85.000001,85.000001,85.000001,395.0,0.0,0.0,0.0,1.0,333.33500000000004,51.635999999999996,51.635999999999996,50.69,50.69,34.0,-28.8325,23.165999999999997,-24.52666666666667,19.066,0.0,1782.863,0.4299999999999997,100.0,28.166,27.572,41.797,41.777,0.0,0.0,100.0,0.0,0.0,0.0,0.0,3387.0,3270.6,3497.25,3378.8,304.488,304.3376666666667,316.31933333333336,316.53375,21.786375,20.5306,21.784777777777776,21.3258,314.999998,314.999998,324.999988,324.999988,99.5586,99.50736666666667,99.56517142857143,99.54527142857143,0.022749999999999826,-0.10775000000000001,-0.15766666666666662,0.06666666666666687,-0.06333333333333258,-0.06833333333332803,1.7873333333333334,1.806,37.165,29.316499999999998,37.155,34.286,56.147,34.5985,59.045500000000004,51.6625,54.073,33.769999999999996,57.671,50.021,53.245999999999995,33.3375,57.6295,49.446666666666665,-0.04699999999999993,-0.10999999999999988,0.10373500000000001,0.101495,0.0,206.135,206.055,203.55,203.55,0.0,0.0
3,0.0,0.0,0.0,1.0,1.0,0.0,0.0,1.0,0.0,100.0,1.0,1.1856,26.0,0.0,0.0,0.0,62.0,0.0,26.0,26.0,26.0,26.0,-0.061999999999999944,0.31400000000000006,0.1501,292.847,-2.6915,-2.673888888888889,-1.5578,-1.4773,-265.75,215.4,190.928875,0.0,0.0,0.0,0.0,0.007366666666666667,-5.498166666666667,-5.498166666666667,-0.4988,0.4836666666666667,0.013777777777777889,-1.557,65.939,-0.031399999999999983,-0.18327500000000002,0.5960000000000001,100.0,1.0,1.0,203.29666666666668,0.0,0.0,0.0,0.0,0.0,0.0,0.0,8617.0,0.0,55.0,5.0,237.3466666666667,1.0,0.0,0.0,0.0,0.0,0.0,0.0,0.0,0.1529999999999987,0.1529999999999987,0.0,0.0,1.0,55.0,616.79921,10000.0,85.000001,85.000001,85.000001,85.000001,395.0,0.0,0.0,0.0,1.0,333.33500000000004,53.299,53.299,47.333,47.333,34.0,-23.1225,20.82,-34.196666666666665,28.876,0.0,1782.815,0.5700000000000003,100.0,27.832,27.573,42.073,42.206,0.0,0.0,100.0,0.0,0.0,0.0,0.0,2820.714285714286,2958.5,4536.375,4474.2,306.339,305.3793333333333,313.76,313.6085,21.7955,20.5357,21.794666666666668,21.3343,314.999998,314.999998,324.999988,324.999988,99.55861428571428,99.50738333333334,99.5653,99.54541428571429,0.02674999999999983,-0.10675000000000001,-0.1376666666666666,0.07800000000000007,-0.03166666666666629,-0.04833333333333201,1.421,1.428,37.221999999999994,29.348,37.217,34.339,56.131,34.6355,59.0815,51.723,54.058,33.8045,57.704,50.079,53.230999999999995,33.3705,57.6605,49.50366666666667,-0.038000000000000034,-0.12250000000000005,0.10886000000000001,0.10092500000000001,0.0,206.60500000000002,206.56,203.29666666666668,203.29666666666668,0.0,0.0
4,0.0,0.0,0.0,1.0,1.0,0.0,0.0,1.0,0.0,100.0,1.0,1.1856,26.0,0.0,0.0,0.0,62.0,0.0,26.0,26.0,26.0,26.0,-0.07937499999999997,0.29790000000000005,-0.07026666666666667,293.335,-2.6758,-2.7363333333333335,-1.4972,-1.591,-262.19,215.4,190.9085,0.0,0.0,0.0,0.0,0.009433333333333334,-5.498166666666667,-5.498166666666667,-0.5367000000000001,-0.8313333333333334,-0.03711111111111132,0.5469999999999999,66.092,-0.04279999999999995,-0.24097500000000002,0.9800000000000004,100.0,1.0,1.0,204.01999999999998,0.0,0.0,0.0,0.0,0.0,0.0,0.0,8647.6,0.0,55.0,5.0,237.9,0.0,0.0,0.0,0.0,0.0,0.0,0.0,0.0,0.20700000000000074,0.20700000000000074,0.0,0.0,0.0,55.0,616.79921,10000.0,85.000001,85.000001,85.000001,85.000001,395.0,0.0,0.0,0.0,1.0,166.665,52.856,52.856,48.782,48.782,34.0,-26.53,20.926,-28.89,24.398,0.0,1782.764,0.620000000000001,100.0,27.919,27.229,42.859,42.24,0.0,0.0,100.0,0.0,0.0,0.0,0.0,3114.4285714285716,2970.5,3984.25,3843.2,305.2785,305.418,315.0883333333333,315.287,21.805875,20.5411,21.806,21.3437,314.999998,314.999998,324.999988,324.999988,99.55861428571428,99.5074,99.56545714285714,99.54555714285715,0.016000000000000014,-0.118,-0.16016666666666657,0.0718333333333332,-0.02499999999999858,-0.07666666666666799,1.5786666666666667,1.6099999999999999,37.286,29.3815,37.288,34.397999999999996,56.113,34.677,59.1265,51.786,54.042,33.8425,57.746,50.1395,53.213,33.407,57.6995,49.563,-0.03299999999999992,-0.12400000000000011,0.09869000000000001,0.115165,0.0,207.015,206.97,204.01999999999998,204.01999999999998,0.0,0.0
5,0.0,0.0,0.0,1.0,1.0,0.0,0.0,1.0,0.0,100.0,1.0,1.1856,26.0,0.0,0.0,0.0,62.0,0.0,26.0,26.0,26.0,26.0,-0.077125,0.29510000000000014,-0.04366666666666667,293.625,-2.6522,-2.717888888888889,-1.5484,-1.5706,-258.81,215.4,190.888625,0.0,0.0,0.0,0.0,0.0114,-5.498166666666667,-5.498166666666667,-0.5372,0.628,-0.026444444444444493,-0.715,66.237,-0.06359999999999999,-0.22137500000000002,0.9820000000000002,100.0,1.0,1.0,204.52666666666667,0.0,0.0,0.0,0.0,0.0,0.0,0.0,8669.1,0.0,55.0,5.0,238.42333333333335,1.0,0.0,0.0,0.0,0.0,0.0,0.0,0.0,0.2579999999999991,0.2579999999999991,0.0,0.0,1.0,55.0,616.79921,10000.0,85.000001,85.000001,85.000001,85.000001,395.0,0.0,0.0,0.0,1.0,166.665,53.238,53.238,49.025999999999996,49.025999999999996,34.0,-26.33,20.086,-30.993333333333332,22.918,0.0,1782.712,0.18499999999999872,100.0,27.645,27.232,42.351,41.735,0.0,0.0,100.0,0.0,0.0,0.0,0.0,3074.857142857143,2871.8,3976.375,3978.0,305.529,305.49966666666666,315.201,314.97175,21.815625,20.5463,21.816333333333333,21.3524,314.999998,314.999998,324.999988,324.999988,99.55861428571428,99.50741666666667,99.5656,99.54568571428571,0.0022500000000000853,-0.12124999999999997,-0.19399999999999995,0.026499999999999968,-0.061666666666667425,-0.05333333333332746,1.5706666666666667,1.6095000000000002,37.348,29.4145,37.352000000000004,34.453,56.098,34.718,59.1635,51.844,54.027,33.879999999999995,57.7805,50.195,53.198,33.443,57.731,49.617333333333335,-0.05149999999999988,-0.09549999999999992,0.110225,0.098,0.0,207.54500000000002,207.45499999999998,204.52666666666667,204.52666666666667,0.0,0.0
6,0.0,0.0,0.0,1.0,1.0,0.0,0.0,1.0,0.0,100.0,1.0,1.1856,26.0,0.0,0.0,0.0,62.0,0.0,26.0,26.0,26.0,26.0,-0.09562499999999996,0.3053000000000001,0.041100000000000005,293.427,-2.6786,-2.7750000000000004,-1.4886,-1.5903,-255.63,215.3975,190.869125,0.0,0.0,0.0,0.0,0.013266666666666666,-5.498166666666667,-5.498166666666667,-0.5298,-0.398,-0.05011111111111122,-0.735,66.378,-0.0655,-0.20725000000000002,0.8360000000000003,100.0,1.0,1.0,204.79000000000002,0.0,0.0,0.0,0.0,0.0,0.0,0.0,8680.3,0.0,55.0,5.0,238.93,0.0,0.0,0.0,0.0,0.0,0.0,0.0,0.0,0.30600000000000094,0.30600000000000094,0.0,0.0,0.0,55.0,616.79921,10000.0,85.000001,85.000001,85.000001,85.000001,395.0,0.0,0.0,0.0,1.0,166.665,53.421,53.421,48.66,48.66,34.0,-28.3575,19.36,-32.45333333333333,24.36,0.0,1782.665,0.3200000000000003,100.0,27.445,26.879,42.644999999999996,41.916,0.0,0.0,100.0,0.0,0.0,0.0,0.0,3241.142857142857,2767.9,4207.5,4016.9,305.1235,305.90366666666665,314.586,314.7995,21.82475,20.551,21.826333333333334,21.3608,314.999998,314.999998,324.999988,324.999988,99.55861428571428,99.50743333333334,99.56572857142856,99.54582857142857,-0.003249999999999975,-0.128,-0.18899999999999995,0.03633333333333333,-0.04833333333333201,-0.041666666666671404,1.5196666666666667,1.5245000000000002,37.405,29.444,37.414,34.504999999999995,56.082,34.754,59.203,51.902,54.012,33.9135,57.817,50.2505,53.182,33.4745,57.765,49.672,-0.04899999999999993,-0.0950000000000002,0.10025500000000001,0.10832000000000001,0.0,207.935,207.85500000000002,204.79000000000002,204.79000000000002,0.0,0.0
7,0.0,0.0,0.0,1.0,1.0,0.0,0.0,1.0,0.0,100.0,1.0,1.1856,26.0,0.0,0.0,0.0,62.0,0.0,26.0,26.0,26.0,26.0,-0.06474999999999997,0.2901,-0.0013333333333333335,293.381,-2.6826,-2.7667777777777776,-1.5453000000000001,-1.6057000000000001,-252.44,215.39249999999998,190.84975,0.0,0.0,0.0,0.0,0.0151,-5.498166666666667,-5.498166666666667,-0.535,0.13566666666666666,-0.037555555555555564,-0.31199999999999994,66.513,-0.07139999999999991,-0.2172,0.6660000000000004,100.0,1.0,1.0,205.27666666666667,0.0,0.0,0.0,0.0,0.0,0.0,0.0,8700.9,0.0,55.0,5.0,239.42000000000002,1.0,0.0,0.0,0.0,0.0,0.0,0.0,0.0,0.3539999999999992,0.3539999999999992,0.0,0.0,1.0,55.0,616.79921,10000.0,85.000001,85.000001,85.000001,85.000001,395.0,0.0,0.0,0.0,1.0,333.33500000000004,53.116,53.116,48.644999999999996,48.644999999999996,34.0,-27.08,21.1,-32.99,23.86,0.0,1782.615,-0.14499999999999957,100.0,27.669,27.08,42.617000000000004,41.839,0.0,0.0,100.0,0.0,0.0,0.0,0.0,3218.714285714286,2865.0,4158.375,3960.2,305.191,305.529,314.75866666666667,314.95775,21.834125,20.556,21.836111111111112,21.3691,314.999998,314.999998,324.999988,324.999988,99.55862857142857,99.50743333333334,99.56587142857143,99.54595714285715,0.02200000000000024,-0.10399999999999998,-0.19699999999999995,0.03400000000000003,-0.060000000000002274,-0.04333333333332945,1.5416666666666665,1.569,37.463,29.475,37.476,34.557,56.069,34.792,59.24,51.958,53.998999999999995,33.948499999999996,57.852000000000004,50.3045,53.169,33.5085,57.797,49.724666666666664,-0.08899999999999997,-0.0665,0.11277000000000001,0.10583000000000001,0.0,208.38,208.3,205.27666666666667,205.27666666666667,0.0,0.0
8,0.0,0.0,0.0,1.0,1.0,0.0,0.0,1.0,0.0,100.0,1.0,1.1856,26.0,0.0,0.0,0.0,62.0,0.0,26.0,26.0,26.0,26.0,-0.05987500000000001,0.2885,-0.020800000000000003,293.503,-2.6856,-2.7124444444444444,-1.5514999999999999,-1.6046,-249.04,215.3875,190.82925,0.0,0.0,0.0,0.0,0.0171,-5.498166666666667,-5.498166666666667,-0.5366000000000001,-0.07766666666666668,-0.03188888888888908,0.32499999999999996,66.65899999999999,-0.06019999999999992,-0.22057500000000002,0.18599999999999994,100.0,1.0,1.0,205.72,0.0,0.0,0.0,0.0,0.0,0.0,0.0,8719.7,0.0,55.0,5.0,239.94333333333333,0.0,0.0,0.0,0.0,0.0,0.0,0.0,0.0,0.40500000000000114,0.40500000000000114,0.0,0.0,0.0,55.0,616.79921,10000.0,85.000001,85.000001,85.000001,85.000001,395.0,0.0,0.0,0.0,1.0,333.33500000000004,53.329,53.329,48.462,48.462,34.0,-24.5325,22.482,-30.106666666666662,25.387999999999998,0.0,1782.565,-0.21499999999999986,100.0,27.57,26.961,42.697,41.863,0.0,0.0,100.0,0.0,0.0,0.0,0.0,3012.714285714286,3033.2,4053.25,3986.8,305.6105,305.21433333333334,314.93333333333334,314.949,21.843875,20.5613,21.846666666666668,21.3781,314.999998,314.999998,324.999988,324.999988,99.55862857142857,99.50745,99.56601428571429,99.5461,0.04225000000000012,-0.08824999999999994,-0.15600000000000003,0.06150000000000011,-0.03333333333333144,-0.060000000000002274,1.56,1.5565000000000002,37.524,29.508,37.541,34.613,56.053,34.832,59.2795,52.0195,53.983999999999995,33.985,57.888999999999996,50.3635,53.153,33.5435,57.831,49.782333333333334,-0.09650000000000003,-0.059499999999999886,0.10110500000000001,0.106425,0.0,208.785,208.765,205.72,205.72,0.0,0.0
9,0.0,0.0,0.0,1.0,1.0,0.0,0.0,1.0,0.0,100.0,1.0,1.1856,26.0,0.0,0.0,0.0,62.0,0.0,26.0,26.0,26.0,26.0,-0.04499999999999993,0.29259999999999997,0.008833333333333334,293.32,-2.6702,-2.724111111111111,-1.541,-1.5587,-245.84,215.38,190.80975,0.0,0.0,0.0,0.0,0.018933333333333337,-5.498166666666667,-5.498166666666667,-0.5346000000000001,0.17833333333333334,-0.036666666666666625,0.798,66.795,-0.0474,-0.213225,0.040000000000000036,100.0,1.0,1.0,206.11333333333334,0.0,0.0,0.0,0.0,0.0,0.0,0.0,8736.3,0.0,55.0,5.0,240.43333333333334,1.0,0.0,0.0,0.0,0.0,0.0,0.0,0.0,0.4529999999999994,0.4529999999999994,0.0,0.0,1.0,55.0,616.79921,10000.0,85.000001,85.000001,85.000001,85.000001,395.0,0.0,0.0,0.0,1.0,333.33500000000004,53.07,53.07,48.721000000000004,48.721000000000004,34.0,-24.799999999999997,23.43,-29.28,26.61,0.0,1782.516,-0.34999999999999787,100.0,27.691,26.933,42.609,41.891999999999996,0.0,0.0,100.0,0.0,0.0,0.0,0.0,3095.714285714286,3061.1,4026.5,4126.0,305.3425,305.1446666666667,315.017,314.65075,21.853,20.5662,21.856444444444445,21.386499999999998,314.999998,314.999998,324.999988,324.999988,99.55862857142857,99.50746666666667,99.56614285714285,99.54622857142857,0.052000000000000046,-0.07324999999999993,-0.14700000000000002,0.07716666666666683,-0.03999999999999915,-0.051666666666669414,1.5573333333333332,1.5535,37.581,29.539,37.602999999999994,34.666,56.04,34.8685,59.3165,52.076,53.971000000000004,34.019,57.9235,50.417500000000004,53.138999999999996,33.5755,57.8625,49.83533333333334,-0.09899999999999998,-0.04499999999999993,0.10765500000000001,0.10964000000000002,0.0,209.2,209.185,206.11333333333334,206.11333333333334,0.0,0.0
10,0.0,0.0,0.0,1.0,1.0,0.0,0.0,1.0,0.0,100.0,1.0,1.1856,26.0,0.0,0.0,0.0,62.0,0.0,26.0,26.0,26.0,26.0,-0.022749999999999937,0.28910000000000013,0.015266666666666666,293.259,-2.6777,-2.7022222222222223,-1.5551,-1.5439,-242.23,215.37,190.78775,0.0,0.0,0.0,0.0,0.021033333333333334,-5.498166666666667,-5.498166666666667,-0.5304,-0.22733333333333336,-0.013222222222222246,1.4260000000000002,66.94800000000001,-0.027999999999999914,-0.212075,-0.22599999999999998,100.0,1.0,1.0,206.51,0.0,0.0,0.0,0.0,0.0,0.0,0.0,8753.1,0.0,55.0,5.0,240.98333333333335,0.0,0.0,0.0,0.0,0.0,0.0,1.0,0.0,0.5069999999999979,0.5069999999999979,0.0,0.0,0.0,55.0,616.79921,10000.0,85.000001,85.000001,85.000001,85.000001,395.0,0.0,0.0,0.0,1.0,166.665,53.314,53.314,48.400999999999996,48.400999999999996,34.0,-23.325,23.664,-29.519999999999996,28.792,0.0,1782.463,-0.379999999999999,100.0,27.608,26.901,42.659,42.153,0.0,0.0,100.0,0.0,0.0,0.0,0.0,2981.857142857143,3041.3,4094.75,4271.5,305.67,305.2266666666667,314.826,314.27675,21.863375,20.5718,21.867555555555555,21.396,314.999998,314.999998,324.999988,324.999988,99.55864285714286,99.50746666666667,99.5663,99.54638571428572,0.06424999999999992,-0.05799999999999994,-0.1323333333333333,0.09549999999999992,-0.051666666666669414,-0.03333333333333144,1.5256666666666665,1.499,37.646,29.5735,37.672,34.725,56.025,34.908,59.3585,52.1415,53.957,34.0555,57.9625,50.4805,53.123999999999995,33.6105,57.8985,49.897,-0.10250000000000004,-0.04300000000000015,0.10365,0.10866500000000001,0.0,209.655,209.655,206.51,206.51,0.0,0.0
11,0.0,0.0,0.0,1.0,1.0,0.0,0.0,1.0,0.0,100.0,1.0,1.1856,26.0,0.0,0.0,0.0,62.0,0.0,26.0,26.0,26.0,26.0,-0.01100000000000001,0.28170000000000006,-0.032233333333333336,293.533,-2.7039,-2.694888888888889,-1.5647,-1.5189000000000001,-239.01,215.36,190.767875,0.0,0.0,0.0,0.0,0.022600000000000002,-5.498166666666667,-5.498166666666667,-0.5509000000000001,-0.261,0.010999999999999899,0.9410000000000001,67.081,-0.012699999999999934,-0.224175,-0.3120000000000003,100.0,1.0,1.0,207.0233333333333,0.0,0.0,0.0,0.0,0.0,0.0,0.0,8775.0,0.0,55.0,5.0,241.46333333333334,1.0,0.0,0.0,0.0,0.0,0.0,1.0,0.0,0.5549999999999997,0.5549999999999997,0.0,0.0,1.0,55.0,616.79921,10000.0,85.000001,85.000001,85.000001,85.000001,395.0,0.0,0.0,0.0,1.0,166.665,53.314,53.314,48.935,48.935,34.0,-23.3625,24.614,-27.119999999999997,27.292,0.0,1782.415,-0.8000000000000007,100.0,27.335,26.909,42.405,42.168,0.0,0.0,100.0,0.0,0.0,0.0,0.0,2998.142857142857,3129.5,3888.125,4104.1,305.6465,304.944,315.35066666666665,314.70925,21.872374999999998,20.5768,21.877333333333333,21.4045,314.999998,314.999998,324.999988,324.999988,99.55865714285714,99.50748333333334,99.56642857142857,99.54651428571428,0.07200000000000006,-0.05325000000000002,-0.12183333333333335,0.10466666666666669,-0.04333333333332945,-0.05833333333333002,1.5753333333333335,1.5590000000000002,37.702,29.605,37.733000000000004,34.778,56.010999999999996,34.9435,59.3935,52.198499999999996,53.944,34.088,57.995,50.535,53.11,33.6415,57.9285,49.95066666666666,-0.11099999999999999,-0.034499999999999975,0.10716500000000001,0.10925000000000001,0.0,210.065,210.075,207.0233333333333,207.0233333333333,0.0,0.0
12,0.0,0.0,0.0,1.0,1.0,0.0,0.0,1.0,0.0,100.0,1.0,1.1856,26.0,0.0,0.0,0.0,62.0,0.0,26.0,26.0,26.0,26.0,-0.00924999999999998,0.28970000000000007,0.0056,293.167,-2.7055,-2.6786666666666665,-1.5644,-1.5326000000000002,-235.79,215.35250000000002,190.747375,0.0,0.0,0.0,0.0,0.025466666666666665,-5.498166666666667,-5.498166666666667,-0.5423,0.4383333333333333,0.01677777777777778,0.778,67.21600000000001,0.0043999999999999595,-0.20525000000000002,-0.44399999999999995,100.0,1.0,1.0,207.37666666666667,0.0,0.0,0.0,0.0,0.0,0.0,0.0,8789.9,0.0,55.0,5.0,241.94666666666666,0.0,0.0,0.0,0.0,0.0,0.0,1.0,0.0,0.602999999999998,0.602999999999998,0.0,0.0,0.0,55.0,616.79921,10000.0,85.000001,85.000001,85.000001,85.000001,395.0,0.0,0.0,0.0,1.0,166.665,53.024,53.024,48.355000000000004,48.355000000000004,34.0,-25.0875,22.75,-27.509999999999998,30.076,0.0,1782.367,0.75,100.0,27.482,27.27,42.277,42.203,0.0,0.0,100.0,0.0,0.0,0.0,0.0,2990.4285714285716,3169.8,4084.125,4244.5,305.6535,304.79766666666666,314.8856666666667,314.39675,21.8815,20.5819,21.88711111111111,21.4129,314.999998,314.999998,324.999988,324.999988,99.55865714285714,99.50748333333334,99.56657142857142,99.54665714285714,0.028999999999999915,-0.10224999999999995,-0.09416666666666662,0.13083333333333336,-0.036666666666668846,-0.061666666666667425,1.5416666666666665,1.5340000000000003,37.759,29.637,37.794,34.831,55.998999999999995,34.9795,59.4285,52.2555,53.933,34.1215,58.0275,50.59,53.098,33.674,57.958,50.004666666666665,-0.038999999999999924,-0.11649999999999983,0.10797500000000002,0.10888500000000001,0.0,210.485,210.53,207.37666666666667,207.37666666666667,0.0,0.0
13,0.0,0.0,0.0,1.0,1.0,0.0,0.0,1.0,0.0,100.0,1.0,1.1856,26.0,0.0,0.0,0.0,62.0,0.0,26.0,26.0,26.0,26.0,0.04974999999999996,0.28070000000000017,0.012100000000000001,292.892,-2.6942,-2.694,-1.5588000000000002,-1.5428000000000002,-232.36,215.3425,190.72575,0.0,0.0,0.0,0.0,0.0268,-5.498166666666667,-5.498166666666667,-0.5381,-0.28733333333333333,0.009333333333333194,-0.33099999999999996,67.35900000000001,0.0041999999999999815,-0.213975,-0.3120000000000003,100.0,1.0,1.0,207.74,0.0,0.0,0.0,0.0,0.0,0.0,0.0,8805.4,0.0,55.0,5.0,242.46333333333334,1.0,0.0,0.0,0.0,0.0,0.0,1.0,0.0,0.6539999999999999,0.6539999999999999,0.0,0.0,1.0,55.0,616.79921,10000.0,85.000001,85.000001,85.000001,85.000001,395.0,0.0,0.0,0.0,1.0,333.33500000000004,52.902,52.902,48.111000000000004,48.111000000000004,34.0,-22.7275,25.042,-28.21,29.65,0.0,1782.315,-0.5150000000000006,100.0,27.514,27.544,42.568,42.769999999999996,0.0,0.0,100.0,0.0,0.0,0.0,0.0,3113.714285714286,3019.7,4155.75,4229.5,305.477,305.095,314.74133333333333,314.31325,21.891125,20.5874,21.897666666666666,21.4221,314.999998,314.999998,324.999988,324.999988,99.55867142857143,99.50748333333334,99.56671428571428,99.5468,0.10424999999999995,-0.023249999999999993,-0.09633333333333338,0.11616666666666675,-0.046666666666666856,-0.04999999999999716,1.5150000000000001,1.4965000000000002,37.819,29.671,37.86,34.888,55.986999999999995,35.018,59.4685,52.319,53.921,34.1565,58.064499999999995,50.6505,53.085,33.707499999999996,57.992,50.064,-0.127,-0.02400000000000002,0.09813000000000001,0.10891500000000001,0.0,210.93,210.94,207.74,207.74,0.0,0.0
14,0.0,0.0,0.0,1.0,1.0,0.0,0.0,1.0,0.0,100.0,1.0,1.1856,26.0,0.0,0.0,0.0,62.0,0.0,26.0,26.0,26.0,26.0,0.046624999999999917,0.2753000000000001,-0.04526666666666667,293.167,-2.6917,-2.699777777777778,-1.5979999999999999,-1.5349000000000002,-228.72,215.335,190.703125,0.0,0.0,0.0,0.0,0.028900000000000002,-5.498166666666667,-5.498166666666667,-0.551,-0.007,0.024222222222222145,-0.573,67.507,0.013100000000000112,-0.22390000000000002,-0.4399999999999995,100.0,1.0,1.0,208.30666666666667,0.0,0.0,0.0,0.0,0.0,0.0,0.0,8829.4,0.0,55.0,5.0,242.99666666666667,0.0,0.0,0.0,0.0,0.0,0.0,1.0,0.0,0.7079999999999984,0.7079999999999984,0.0,0.0,0.0,55.0,616.79921,10000.0,85.000001,85.000001,85.000001,85.000001,395.0,0.0,0.0,0.0,1.0,166.665,52.994,52.994,48.553,48.553,34.0,-22.845,24.412,-27.54,28.774,0.0,1782.262,-0.47499999999999787,100.0,27.462,27.691,42.4,42.784,0.0,0.0,100.0,0.0,0.0,0.0,0.0,3073.4285714285716,2993.2,4001.25,4088.6000000000004,305.6055,305.13233333333335,315.1723333333333,314.684,21.90125,20.5932,21.908555555555555,21.4317,314.999998,314.999998,324.999988,324.999988,99.55868571428572,99.5075,99.56685714285715,99.54695714285714,0.09299999999999997,-0.03574999999999995,-0.10266666666666657,0.1283333333333332,-0.03999999999999915,-0.05666666666667197,1.5566666666666666,1.5380000000000003,37.882999999999996,29.707,37.929,34.948,55.974000000000004,35.058,59.507,52.3835,53.908,34.1935,58.1005,50.713,53.072,33.743,58.025,50.125,-0.11399999999999988,-0.040000000000000036,0.10779000000000001,0.10368000000000001,0.0,211.37,211.41500000000002,208.30666666666667,208.30666666666667,0.0,0.0
15,0.0,0.0,0.0,1.0,1.0,0.0,0.0,1.0,0.0,100.0,1.0,1.1856,26.0,0.0,0.0,0.0,62.0,0.0,26.0,26.0,26.0,26.0,0.043749999999999956,0.28400000000000003,-0.0109,293.015,-2.6728,-2.6882222222222225,-1.5533000000000001,-1.5590000000000002,-225.67000000000002,215.32999999999998,190.683875,0.0,0.0,0.0,0.0,0.03066666666666667,-5.498166666666667,-5.498166666666667,-0.5437000000000001,0.23733333333333334,0.030444444444444274,0.768,67.631,0.01770000000000005,-0.21177500000000002,-0.4299999999999997,100.0,1.0,1.0,208.64,0.0,0.0,0.0,0.0,0.0,0.0,0.0,8843.4,0.0,55.0,5.0,243.44333333333333,1.0,0.0,0.0,0.0,0.0,0.0,1.0,0.0,0.7530000000000001,0.7530000000000001,0.0,0.0,1.0,55.0,616.79921,10000.0,85.000001,85.000001,85.000001,85.000001,395.0,0.0,0.0,0.0,1.0,333.33500000000004,52.917,52.917,48.278999999999996,48.278999999999996,34.0,-21.4725,25.605999999999998,-26.586666666666666,30.574,0.0,1782.216,-0.375,100.0,27.691,27.612000000000002,42.45,42.768,0.0,0.0,100.0,0.0,0.0,0.0,0.0,2947.857142857143,3095.5,4042.0,4173.1,305.781,304.9873333333333,314.983,314.5255,21.909625,20.598,21.91777777777778,21.4397,314.999998,314.999998,324.999988,324.999988,99.5587,99.5075,99.56698571428572,99.54707142857143,0.10150000000000015,-0.022249999999999992,-0.08566666666666656,0.14300000000000002,-0.026666666666670835,-0.04833333333333201,1.5493333333333332,1.5270000000000001,37.936,29.737499999999997,37.986000000000004,34.998000000000005,55.963,35.091499999999996,59.539500000000004,52.438,53.897999999999996,34.2245,58.131,50.7655,53.06,33.772999999999996,58.0525,50.17666666666666,-0.10399999999999987,-0.04300000000000015,0.10746000000000001,0.10660000000000001,0.0,211.775,211.8,208.64,208.64,0.0,0.0
16,0.0,0.0,0.0,1.0,1.0,0.0,0.0,1.0,0.0,100.0,1.0,1.1856,26.0,0.0,0.0,0.0,62.0,0.0,26.0,26.0,26.0,26.0,0.040750000000000064,0.25649999999999995,-0.007333333333333333,292.786,-2.7043,-2.6306666666666665,-1.589,-1.5577,-222.01999999999998,215.3225,190.6605,0.0,0.0,0.0,0.0,0.0328,-5.498166666666667,-5.498166666666667,-0.5537000000000001,-0.24533333333333335,0.022222222222222143,0.31899999999999995,67.779,0.02210000000000001,-0.22435000000000002,-0.33999999999999986,100.0,1.0,1.0,209.0966666666667,0.0,0.0,0.0,0.0,0.0,0.0,0.0,8862.9,0.0,55.0,5.0,243.97666666666666,0.0,0.0,0.0,0.0,0.0,0.0,1.0,0.0,0.8069999999999986,0.8069999999999986,0.0,0.0,0.0,55.0,616.79921,10000.0,85.000001,85.000001,85.000001,85.000001,395.0,0.0,0.0,0.0,1.0,166.665,52.475,52.475,47.958,47.958,34.0,-22.6325,26.392,-26.78,29.817999999999998,0.0,1782.163,-0.28500000000000014,100.0,27.66,27.766,42.697,42.963,0.0,0.0,100.0,0.0,0.0,0.0,0.0,3052.4285714285716,3259.0,4032.5,4056.6000000000004,305.467,304.535,314.98966666666666,314.8065,21.91975,20.6039,21.92888888888889,21.4493,314.999998,314.999998,324.999988,324.999988,99.55871428571429,99.5075,99.56714285714285,99.54722857142858,0.10225000000000017,-0.02674999999999994,-0.08066666666666666,0.1483333333333332,-0.045000000000001705,-0.05666666666667197,1.5463333333333333,1.525,37.998000000000005,29.7745,38.056,35.058,55.949,35.132,59.5805,52.5035,53.884,34.262,58.169,50.8285,53.046,33.8085,58.0875,50.23833333333333,-0.09650000000000003,-0.05750000000000011,0.10623,0.10378000000000001,0.0,212.235,212.245,209.0966666666667,209.0966666666667,0.0,0.0
17,0.0,0.0,0.0,1.0,1.0,0.0,0.0,1.0,0.0,100.0,1.0,1.1856,26.0,0.0,0.0,0.0,62.0,0.0,26.0,26.0,26.0,26.0,0.043500000000000094,0.27870000000000017,0.03456666666666667,292.572,-2.6672000000000002,-2.714888888888889,-1.5495999999999999,-1.5787,-218.56,215.3175,190.63825,0.0,0.0,0.0,0.0,0.034800000000000005,-5.498166666666667,-5.498166666666667,-0.5498000000000001,0.154,-0.002777777777777768,-1.146,67.919,0.021200000000000108,-0.21677500000000002,-0.1899999999999995,100.0,1.0,1.0,209.46666666666667,0.0,0.0,0.0,0.0,0.0,0.0,0.0,8878.5,0.0,55.0,5.0,244.48000000000002,1.0,0.0,0.0,0.0,0.0,0.0,1.0,0.0,0.8580000000000005,0.8580000000000005,0.0,0.0,1.0,55.0,616.79921,10000.0,85.000001,85.000001,85.000001,85.000001,395.0,0.0,0.0,0.0,1.0,166.665,52.567,52.567,47.668,47.668,34.0,-23.0675,24.582,-28.776666666666664,30.61,0.0,1782.113,-0.2049999999999983,100.0,27.744,28.034,42.711,43.092,0.0,0.0,100.0,0.0,0.0,0.0,0.0,3100.142857142857,3008.7,4213.125,4173.7,305.4745,304.986,314.63166666666666,314.433,21.92925,20.6095,21.939333333333334,21.4584,314.999998,314.999998,324.999988,324.999988,99.55872857142857,99.5075,99.56728571428572,99.54737142857142,0.08975,-0.041749999999999954,-0.09983333333333333,0.13366666666666682,-0.04999999999999716,-0.03499999999999659,1.506,1.504,38.058,29.808999999999997,38.120999999999995,35.115,55.937,35.170500000000004,59.618,52.5645,53.873000000000005,34.2975,58.204,50.8875,53.033,33.843,58.1195,50.296,-0.08999999999999986,-0.05799999999999983,0.11490000000000002,0.10436000000000001,0.0,212.67000000000002,212.66500000000002,209.46666666666667,209.46666666666667,0.0,0.0
18,0.0,0.0,0.0,1.0,1.0,0.0,0.0,1.0,0.0,100.0,1.0,1.1856,26.0,0.0,0.0,0.0,62.0,0.0,26.0,26.0,26.0,26.0,0.03937499999999994,0.2775000000000001,0.0264,292.526,-2.6524,-2.748,-1.5331000000000001,-1.5897000000000001,-215.5,215.315,190.6185,0.0,0.0,0.0,0.0,0.0366,-5.498166666666667,-5.498166666666667,-0.5593,-0.3496666666666667,0.0009999999999998899,0.881,68.041,0.017100000000000115,-0.22410000000000002,-0.16199999999999992,100.0,1.0,1.0,209.81666666666666,0.0,0.0,0.0,0.0,0.0,0.0,0.0,8893.4,0.0,55.0,5.0,244.92333333333335,0.0,0.0,0.0,0.0,0.0,0.0,1.0,0.0,0.9029999999999987,0.9029999999999987,0.0,0.0,0.0,55.0,616.79921,10000.0,85.000001,85.000001,85.000001,85.000001,395.0,0.0,0.0,0.0,1.0,166.665,52.505,52.505,47.806,47.806,34.0,-22.357499999999998,26.028,-27.113333333333337,31.567999999999998,0.0,1782.068,-0.19000000000000128,100.0,27.895,27.775,42.959,43.131,0.0,0.0,100.0,0.0,0.0,0.0,0.0,3040.285714285714,3147.3,4062.5,4242.4,305.5125,304.7656666666667,314.86966666666666,314.275,21.937625,20.6143,21.948555555555554,21.4665,314.999998,314.999998,324.999988,324.999988,99.55872857142857,99.50751666666666,99.56741428571429,99.54751428571429,0.09525000000000006,-0.03925000000000001,-0.09250000000000003,0.13683333333333336,-0.051666666666669414,-0.04833333333333201,1.504,1.4985,38.11,29.839,38.179,35.165,55.925,35.203,59.652,52.619,53.861999999999995,34.328,58.2355,50.9395,53.021,33.872,58.147999999999996,50.34733333333333,-0.09349999999999992,-0.06450000000000022,0.110655,0.10934,0.0,213.05,213.035,209.81666666666666,209.81666666666666,0.0,0.0
19,0.0,0.0,0.0,1.0,1.0,0.0,0.0,1.0,0.0,100.0,1.0,1.1856,26.0,0.0,0.0,0.0,62.0,0.0,26.0,26.0,26.0,26.0,0.02750000000000008,0.27259999999999995,0.0194,292.404,-2.6330999999999998,-2.7122222222222225,-1.5329000000000002,-1.6089,-211.82,215.31,190.594375,0.0,0.0,0.0,0.0,0.038733333333333335,-5.498166666666667,-5.498166666666667,-0.5507000000000001,0.536,0.00955555555555554,0.72,68.186,0.010000000000000009,-0.212725,-0.08999999999999986,100.0,1.0,1.0,210.30333333333334,0.0,0.0,0.0,0.0,0.0,0.0,0.0,8914.0,0.0,55.0,5.0,245.44333333333333,1.0,0.0,0.0,0.0,0.0,0.0,1.0,0.0,0.9570000000000007,0.9570000000000007,0.0,0.0,1.0,55.0,616.79921,10000.0,85.000001,85.000001,85.000001,85.000001,395.0,0.0,0.0,0.0,1.0,166.665,52.231,52.231,47.897,47.897,34.0,-22.2475,24.875999999999998,-27.68,30.636,0.0,1782.014,-0.17999999999999972,100.0,28.387999999999998,28.156,42.907,43.186,0.0,0.0,100.0,0.0,0.0,0.0,0.0,3021.0,3083.3,4090.0,4200.4,305.5485,304.98466666666667,314.87466666666666,314.43325,21.94775,20.6202,21.959555555555557,21.4761,314.999998,314.999998,324.999988,324.999988,99.55874285714286,99.50751666666666,99.56757142857143,99.54765714285715,0.09050000000000002,-0.04425000000000001,-0.10150000000000003,0.12349999999999994,-0.03166666666666629,-0.06333333333333258,1.51,1.513,38.174,29.8765,38.247,35.226,55.913,35.245,59.69,52.684,53.849999999999994,34.3665,58.271,51.002,53.007999999999996,33.909,58.1805,50.40833333333333,-0.08999999999999986,-0.06899999999999995,0.11329000000000002,0.10217000000000001,0.0,213.525,213.525,210.30333333333334,210.30333333333334,0.0,0.0
20,0.0,0.0,0.0,1.0,1.0,0.0,0.0,1.0,0.0,100.0,1.0,1.1856,26.0,0.0,0.0,0.0,62.0,0.0,26.0,26.0,26.0,26.0,0.022375000000000034,0.2744,-0.029,292.389,-2.7001,-2.662888888888889,-1.6059999999999999,-1.5901,-208.54,215.3075,190.57325,0.0,0.0,0.0,0.0,0.040633333333333334,-5.498166666666667,-5.498166666666667,-0.555,-0.67,0.00955555555555554,0.6420000000000001,68.316,0.007800000000000029,-0.22495,-0.08000000000000007,100.0,1.0,1.0,210.67000000000002,0.0,0.0,0.0,0.0,0.0,0.0,0.0,8929.6,0.0,55.0,5.0,245.91333333333336,0.0,0.0,0.0,0.0,0.0,0.0,0.0,0.0,1.004999999999999,1.004999999999999,0.0,0.0,0.0,55.0,616.79921,10000.0,85.000001,85.000001,85.000001,85.000001,395.0,0.0,0.0,0.0,1.0,333.33500000000004,52.49,52.49,47.424,47.424,34.0,-22.665,24.766,-28.693333333333335,29.336,0.0,1781.964,-0.1750000000000007,100.0,28.069,27.921,43.42,43.568,0.0,0.0,100.0,0.0,0.0,0.0,0.0,3012.714285714286,3148.6,4114.0,4078.9,305.6325,304.9,314.866,314.7005,21.956625,20.6254,21.969555555555555,21.4848,314.999998,314.999998,324.999988,324.999988,99.55875714285715,99.50753333333333,99.5677,99.5478,0.09149999999999991,-0.04774999999999996,-0.09783333333333333,0.12283333333333335,-0.030000000000001137,-0.04833333333333201,1.4976666666666667,1.5110000000000001,38.229,29.9085,38.31,35.28,55.9,35.281,59.728,52.7425,53.838,34.4,58.306,51.0585,52.995000000000005,33.941,58.2125,50.46366666666667,-0.08949999999999991,-0.06850000000000023,0.10766,0.10459500000000001,0.0,213.89,213.885,210.67000000000002,210.67000000000002,0.0,0.0
21,0.0,0.0,0.0,1.0,1.0,0.0,0.0,1.0,0.0,100.0,1.0,1.1856,26.0,0.0,0.0,0.0,62.0,0.0,26.0,26.0,26.0,26.0,0.005749999999999922,0.26550000000000007,-0.04556666666666667,292.572,-2.7179,-2.629888888888889,-1.5683,-1.5304,-205.26,215.305,190.55175,0.0,0.0,0.0,0.0,0.04253333333333333,-5.498166666666667,-5.498166666666667,-0.5731,-0.025333333333333333,0.003555555555555534,0.5509999999999999,68.443,0.0045999999999999375,-0.22455,-0.05600000000000005,100.0,1.0,1.0,211.16333333333333,0.0,0.0,0.0,0.0,0.0,0.0,0.0,8950.5,0.0,55.0,5.0,246.36666666666667,1.0,0.0,0.0,0.0,0.0,0.0,0.0,0.0,1.0530000000000008,1.0530000000000008,0.0,0.0,1.0,55.0,616.79921,10000.0,85.000001,85.000001,85.000001,85.000001,395.0,0.0,0.0,0.0,1.0,166.665,52.383,52.383,48.065,48.065,34.0,-23.884999999999998,25.049999999999997,-27.446666666666665,28.602,0.0,1781.918,-0.21000000000000085,100.0,28.062,27.807,43.102000000000004,43.226,0.0,0.0,100.0,0.0,0.0,0.0,0.0,3113.142857142857,3198.6,4004.25,4071.0,305.35,304.7696666666667,315.117,314.82675,21.9655,20.6306,21.979333333333333,21.4934,314.999998,314.999998,324.999988,324.999988,99.55875714285715,99.50753333333333,99.56782857142858,99.54792857142857,0.08725000000000005,-0.04399999999999993,-0.10583333333333333,0.13083333333333336,-0.05333333333332746,-0.04833333333333201,1.5546666666666666,1.5420000000000003,38.285,29.941,38.370999999999995,35.333,55.888,35.317499999999995,59.760999999999996,52.798,53.826,34.4335,58.337,51.112,52.982,33.973,58.2405,50.516,-0.09349999999999992,-0.06450000000000022,0.10992500000000001,0.11424500000000001,0.0,214.29000000000002,214.285,211.16333333333333,211.16333333333333,0.0,0.0
22,0.0,0.0,0.0,1.0,1.0,0.0,0.0,1.0,0.0,100.0,1.0,1.1856,26.0,0.0,0.0,0.0,62.0,0.0,26.0,26.0,26.0,26.0,-0.0012499999999999734,0.2822,0.022833333333333334,292.053,-2.7585,-2.6653333333333333,-1.5732,-1.4995,-201.56,215.3025,190.526625,0.0,0.0,0.0,0.0,0.044666666666666674,-5.498166666666667,-5.498166666666667,-0.5587,0.01633333333333333,0.008777777777777773,0.9060000000000001,68.589,0.0029000000000001247,-0.20217500000000002,-0.1720000000000006,100.0,1.0,1.0,211.43666666666667,0.0,0.0,0.0,0.0,0.0,0.0,0.0,8962.1,0.0,55.0,5.0,246.89333333333335,0.0,0.0,0.0,0.0,0.0,0.0,0.0,0.0,1.1069999999999993,1.1069999999999993,0.0,0.0,0.0,55.0,616.79921,10000.0,85.000001,85.000001,85.000001,85.000001,395.0,0.0,0.0,0.0,1.0,166.665,52.261,52.261,47.226,47.226,34.0,-24.1875,25.287999999999997,-29.78,30.8,0.0,1781.864,-0.3000000000000007,100.0,28.128,27.891,43.277,43.292,0.0,0.0,100.0,0.0,0.0,0.0,0.0,3127.285714285714,3201.4,4233.0,4439.5,305.355,304.7606666666667,314.5163333333333,313.95075,21.9755,20.636499999999998,21.990333333333332,21.5031,314.999998,314.999998,324.999988,324.999988,99.55877142857143,99.50753333333333,99.568,99.54808571428572,0.09074999999999989,-0.04674999999999996,-0.10533333333333339,0.11733333333333329,-0.02499999999999858,-0.060000000000002274,1.4866666666666668,1.4805000000000001,38.347,29.978,38.44,35.394,55.875,35.3585,59.8015,52.863,53.813,34.4715,58.375,51.1745,52.969,34.009,58.275,50.577,-0.10050000000000003,-0.05500000000000016,0.10231000000000001,0.10838500000000001,0.0,214.75,214.75,211.43666666666667,211.43666666666667,0.0,0.0
23,0.0,0.0,0.0,1.0,1.0,0.0,0.0,1.0,0.0,100.0,1.0,1.1856,26.0,0.0,0.0,0.0,62.0,0.0,26.0,26.0,26.0,26.0,0.007249999999999979,0.26039999999999996,0.02806666666666667,292.023,-2.6563,-2.691,-1.6376,-1.5408000000000002,-198.26999999999998,215.3,190.504375,0.0,0.0,0.0,0.0,0.0466,-5.498166666666667,-5.498166666666667,-0.5716,-0.2583333333333333,0.006888888888888944,0.778,68.71600000000001,0.0043999999999999595,-0.223675,-0.19399999999999995,100.0,1.0,1.0,211.88,0.0,0.0,0.0,0.0,0.0,0.0,0.0,8980.8,0.0,55.0,5.0,247.35000000000002,1.0,0.0,0.0,0.0,0.0,0.0,0.0,0.0,1.1550000000000011,1.1550000000000011,0.0,0.0,1.0,55.0,616.79921,10000.0,85.000001,85.000001,85.000001,85.000001,395.0,0.0,0.0,0.0,1.0,333.33500000000004,52.032,52.032,47.363,47.363,34.0,-23.405,25.304000000000002,-29.936666666666667,30.182000000000002,0.0,1781.813,-0.28500000000000014,100.0,28.344,28.037,43.443,43.512,0.0,0.0,100.0,0.0,0.0,0.0,0.0,3145.857142857143,3160.8,4224.5,4231.4,305.167,304.79966666666667,314.61333333333334,314.4455,21.9845,20.6418,22.00022222222222,21.5118,314.999998,314.999998,324.999988,324.999988,99.55878571428572,99.50755,99.56814285714286,99.54822857142857,0.09425000000000017,-0.045499999999999985,-0.09650000000000003,0.1293333333333333,-0.046666666666666856,-0.02833333333332888,1.5150000000000001,1.5070000000000001,38.403,30.011,38.501000000000005,35.448,55.863,35.3955,59.838,52.920500000000004,53.802,34.5055,58.408500000000004,51.230000000000004,52.957,34.042,58.306,50.63133333333333,-0.10250000000000004,-0.05699999999999994,0.10336500000000001,0.11069500000000002,0.0,215.13,215.125,211.88,211.88,0.0,0.0
24,0.0,0.0,0.0,1.0,1.0,0.0,0.0,1.0,0.0,100.0,1.0,1.1856,26.0,0.0,0.0,0.0,62.0,0.0,26.0,26.0,26.0,26.0,0.030000000000000027,0.26350000000000007,-0.05146666666666667,292.526,-2.7131,-2.682444444444444,-1.55,-1.5541,-194.76,215.2975,190.4805,0.0,0.0,0.0,0.0,0.048633333333333334,-5.498166666666667,-5.498166666666667,-0.5867,-0.399,0.01633333333333331,-0.28200000000000003,68.85,0.0050000000000001155,-0.2235,-0.12799999999999923,100.0,1.0,1.0,212.32,0.0,0.0,0.0,0.0,0.0,0.0,0.0,8999.4,0.0,55.0,5.0,247.83333333333334,0.0,0.0,0.0,0.0,0.0,0.0,0.0,0.0,1.2059999999999995,1.2059999999999995,0.0,0.0,0.0,55.0,616.79921,10000.0,85.000001,85.000001,85.000001,85.000001,395.0,0.0,0.0,0.0,1.0,166.665,52.75,52.75,47.623,47.623,34.0,-23.265,23.658,-28.246666666666663,28.284,0.0,1781.765,-0.2699999999999996,100.0,27.949,27.975,43.241,43.509,0.0,0.0,100.0,0.0,0.0,0.0,0.0,3050.857142857143,2986.3,4120.625,4101.0,305.708,305.189,314.851,314.6675,21.993875,20.6473,22.010666666666665,21.5209,314.999998,314.999998,324.999988,324.999988,99.5588,99.50756666666666,99.56827142857144,99.54837142857143,0.08325000000000005,-0.049250000000000016,-0.10516666666666663,0.10899999999999999,-0.03999999999999915,-0.03833333333332689,1.5283333333333333,1.5230000000000001,38.462,30.0455,38.566,35.506,55.849999999999994,35.4325,59.8745,52.9805,53.79,34.54,58.442499999999995,51.2875,52.943,34.075,58.3365,50.688,-0.10199999999999987,-0.05500000000000016,0.101995,0.1063,0.0,215.54000000000002,215.54500000000002,212.32,212.32,0.0,0.0
25,0.0,0.0,0.0,1.0,1.0,0.0,0.0,1.0,0.0,100.0,1.0,1.1856,26.0,0.0,0.0,0.0,62.0,0.0,26.0,26.0,26.0,26.0,0.026499999999999968,0.2762,-0.023666666666666666,292.221,-2.6859,-2.6462222222222223,-1.5892,-1.5543,-191.45,215.2975,190.456625,0.0,0.0,0.0,0.0,0.05056666666666667,-5.498166666666667,-5.498166666666667,-0.6012000000000001,0.098,0.018333333333333313,-0.9339999999999999,68.976,0.005700000000000038,-0.218025,-0.13600000000000012,100.0,1.0,1.0,212.74666666666667,0.0,0.0,0.0,0.0,0.0,0.0,0.0,9017.6,0.0,55.0,5.0,248.28666666666666,1.0,0.0,0.0,0.0,0.0,0.0,0.0,0.0,1.2540000000000013,1.2540000000000013,0.0,0.0,1.0,55.0,616.79921,10000.0,85.000001,85.000001,85.000001,85.000001,395.0,0.0,0.0,0.0,1.0,333.33500000000004,51.879999999999995,51.879999999999995,47.791,47.791,34.0,-24.73,25.762,-28.490000000000002,28.562,0.0,1781.716,-0.3150000000000013,100.0,27.951,28.174,43.04,43.302,0.0,0.0,100.0,0.0,0.0,0.0,0.0,3286.857142857143,3236.9,4077.0,4107.8,304.9525,304.448,315.02566666666667,314.6595,22.002625000000002,20.6526,22.020333333333333,21.5295,314.999998,314.999998,324.999988,324.999988,99.55881428571429,99.50756666666666,99.56841428571428,99.54851428571429,0.09324999999999983,-0.04525000000000001,-0.10883333333333334,0.11499999999999999,-0.03166666666666629,-0.05833333333333002,1.5343333333333335,1.544,38.516999999999996,30.079,38.626999999999995,35.559,55.838,35.4695,59.9075,53.036500000000004,53.778,34.574,58.4735,51.341,52.93,34.108000000000004,58.3645,50.74033333333333,-0.10650000000000004,-0.05699999999999994,0.10373,0.106505,0.0,215.93,215.94,212.74666666666667,212.74666666666667,0.0,0.0
26,0.0,0.0,0.0,1.0,1.0,0.0,0.0,1.0,0.0,100.0,1.0,1.1856,26.0,0.0,0.0,0.0,62.0,0.0,26.0,26.0,26.0,26.0,0.014000000000000012,0.29290000000000016,0.0707,291.412,-2.7043,-2.658666666666667,-1.5522,-1.5582,-187.93,215.29500000000002,190.431,0.0,0.0,0.0,0.0,0.0526,-5.498166666666667,-5.498166666666667,-0.5747,0.2573333333333333,0.010555555555555651,1.02,69.112,0.0051000000000001044,-0.20222500000000002,-0.23599999999999977,100.0,1.0,1.0,212.96,0.0,0.0,0.0,0.0,0.0,0.0,0.0,9026.6,0.0,55.0,5.0,248.77666666666664,0.0,0.0,0.0,0.0,0.0,0.0,0.0,0.0,1.3049999999999997,1.3049999999999997,0.0,0.0,0.0,55.0,616.79921,10000.0,85.000001,85.000001,85.000001,85.000001,395.0,0.0,0.0,0.0,1.0,166.665,51.697,51.697,46.707,46.707,34.0,-23.615,25.078,-30.589999999999996,33.294,0.0,1781.665,-0.3550000000000004,100.0,28.797,28.43,43.607,43.705,0.0,0.0,100.0,0.0,0.0,0.0,0.0,3166.857142857143,3178.3,4382.5,4506.1,305.202,304.8813333333333,314.15133333333335,313.75375,22.01225,20.6583,22.03088888888889,21.5388,314.999998,314.999998,324.999988,324.999988,99.55882857142858,99.50756666666666,99.56857142857143,99.54867142857142,0.10150000000000015,-0.04425000000000001,-0.09983333333333333,0.13116666666666688,-0.03999999999999915,-0.05333333333332746,1.461,1.4445000000000001,38.576,30.1145,38.693,35.617,55.828,35.5095,59.9465,53.099000000000004,53.768,34.611,58.51,51.4015,52.92,34.143,58.397999999999996,50.79933333333334,-0.10999999999999988,-0.0535000000000001,0.10803000000000001,0.109615,0.0,216.375,216.375,212.96,212.96,0.0,0.0
27,0.0,0.0,0.0,1.0,1.0,0.0,0.0,1.0,0.0,100.0,1.0,1.1856,26.0,0.0,0.0,0.0,62.0,0.0,26.0,26.0,26.0,26.0,0.006625000000000103,0.2579,-0.05693333333333334,291.794,-2.7553,-2.6657777777777776,-1.6157,-1.5373,-184.61,215.29500000000002,190.407875,0.0,0.0,0.0,0.0,0.054533333333333336,-5.498166666666667,-5.498166666666667,-0.5964,-0.778,0.022666666666666613,0.8240000000000001,69.236,0.006900000000000128,-0.23747500000000002,-0.26399999999999935,100.0,1.0,1.0,213.46333333333334,0.0,0.0,0.0,0.0,0.0,0.0,0.0,9048.0,0.0,55.0,5.0,249.22,1.0,0.0,0.0,0.0,0.0,0.0,0.0,0.0,1.352999999999998,1.352999999999998,0.0,0.0,1.0,55.0,616.79921,10000.0,85.000001,85.000001,85.000001,85.000001,395.0,0.0,0.0,0.0,1.0,166.665,51.926,51.926,46.768,46.768,34.0,-23.14,25.842,-29.013333333333335,29.672,0.0,1781.618,-0.35999999999999943,100.0,28.517,28.473,43.975,44.061,0.0,0.0,100.0,0.0,0.0,0.0,0.0,3038.4285714285716,3228.3,4117.625,4158.1,305.6235,304.6166666666667,314.84233333333333,314.64375,22.021,20.6637,22.040777777777777,21.5476,314.999998,314.999998,324.999988,324.999988,99.55884285714286,99.50758333333333,99.5687,99.5488,0.09675000000000011,-0.041999999999999926,-0.10166666666666657,0.13366666666666682,-0.036666666666668846,-0.054999999999999716,1.5236666666666667,1.5215,38.631,30.148,38.754999999999995,35.672,55.816,35.5465,59.983000000000004,53.157,53.757,34.644999999999996,58.544,51.457499999999996,52.907,34.1755,58.429,50.854,-0.10599999999999987,-0.05449999999999999,0.10456000000000001,0.11821000000000001,0.0,216.715,216.735,213.46333333333334,213.46333333333334,0.0,0.0
28,0.0,0.0,0.0,1.0,1.0,0.0,0.0,1.0,0.0,100.0,1.0,1.1856,26.0,0.0,0.0,0.0,62.0,0.0,26.0,26.0,26.0,26.0,0.022750000000000048,0.26780000000000004,-0.041133333333333334,291.946,-2.682,-2.6581111111111113,-1.6242,-1.5683,-180.87,215.29500000000002,190.381,0.0,0.0,0.0,0.0,0.05673333333333334,-5.498166666666667,-5.498166666666667,-0.6002000000000001,0.5186666666666666,0.004999999999999893,0.32000000000000006,69.374,0.010199999999999987,-0.21475,-0.36799999999999944,100.0,1.0,1.0,213.94666666666666,0.0,0.0,0.0,0.0,0.0,0.0,0.0,9068.4,0.0,55.0,5.0,249.72,0.0,0.0,0.0,0.0,0.0,0.0,0.0,0.0,1.407,1.407,0.0,0.0,0.0,55.0,616.79921,10000.0,85.000001,85.000001,85.000001,85.000001,395.0,0.0,0.0,0.0,1.0,166.665,51.971000000000004,51.971000000000004,47.058,47.058,34.0,-22.09,25.784,-28.806666666666665,30.378,0.0,1781.563,-0.3949999999999996,100.0,28.55,28.444,43.495000000000005,43.674,0.0,0.0,100.0,0.0,0.0,0.0,0.0,3019.714285714286,3184.7,4206.875,4172.8,305.555,304.7296666666667,314.741,314.62,22.031,20.6697,22.051666666666666,21.5572,314.999998,314.999998,324.999988,324.999988,99.55884285714286,99.50758333333333,99.56885714285714,99.54895714285715,0.10550000000000015,-0.03300000000000003,-0.08616666666666661,0.13683333333333336,-0.036666666666668846,-0.051666666666669414,1.5513333333333335,1.5230000000000001,38.693,30.186,38.823,35.733000000000004,55.804,35.588,60.0195,53.219,53.745000000000005,34.6835,58.5775,51.516999999999996,52.894,34.2125,58.459,50.912333333333336,-0.11250000000000004,-0.046499999999999986,0.10789000000000001,0.10702500000000001,0.0,217.17000000000002,217.19,213.94666666666666,213.94666666666666,0.0,0.0
29,0.0,0.0,0.0,1.0,1.0,0.0,0.0,1.0,0.0,100.0,1.0,1.1856,26.0,0.0,0.0,0.0,62.0,0.0,26.0,26.0,26.0,26.0,0.036250000000000115,0.25260000000000016,-0.021033333333333334,291.84,-2.7498,-2.7205555555555554,-1.6035,-1.5521,-177.53,215.2975,190.356125,0.0,0.0,0.0,0.0,0.058666666666666666,-5.498166666666667,-5.498166666666667,-0.6043000000000001,-0.7000000000000001,0.0006666666666665932,0.8300000000000001,69.5,0.013000000000000123,-0.21402500000000002,-0.38200000000000056,100.0,1.0,1.0,214.20666666666668,0.0,0.0,0.0,0.0,0.0,0.0,0.0,9079.4,0.0,55.0,5.0,250.17333333333335,1.0,0.0,0.0,0.0,0.0,0.0,0.0,0.0,1.4549999999999983,1.4549999999999983,0.0,0.0,1.0,55.0,616.79921,10000.0,85.000001,85.000001,85.000001,85.000001,395.0,0.0,0.0,0.0,1.0,166.665,52.322,52.322,46.875,46.875,34.0,-22.8425,25.67,-29.060000000000002,31.762,0.0,1781.515,-0.4349999999999987,100.0,28.276,28.212,43.894,43.969,0.0,0.0,100.0,0.0,0.0,0.0,0.0,3096.5714285714284,3093.1,4166.375,4325.3,305.606,305.0296666666667,314.70733333333334,314.1885,22.039625,20.675,22.061555555555557,21.566,314.999998,314.999998,324.999988,324.999988,99.55885714285715,99.50758333333333,99.569,99.5491,0.11025000000000018,-0.02774999999999994,-0.09433333333333338,0.13566666666666682,-0.030000000000001137,-0.05333333333332746,1.488,1.468,38.748000000000005,30.2185,38.885,35.788,55.792,35.623,60.056,53.277,53.733000000000004,34.716,58.612,51.573,52.882,34.2435,58.4905,50.967,-0.11450000000000005,-0.046499999999999986,0.11090000000000001,0.11198000000000001,0.0,217.53,217.565,214.20666666666668,214.20666666666668,0.0,0.0
30,0.0,0.0,0.0,1.0,1.0,0.0,0.0,1.0,0.0,100.0,1.0,1.1856,26.0,0.0,0.0,0.0,62.0,0.0,26.0,26.0,26.0,26.0,0.049875000000000114,0.24639999999999995,0.026633333333333332,291.168,-2.6316,-2.722888888888889,-1.6493,-1.4681,-174.19,215.3,190.33125,0.0,0.0,0.0,0.0,0.0606,-5.498166666666667,-5.498166666666667,-0.6072000000000001,0.8290000000000001,0.004222222222222127,0.7929999999999999,69.62100000000001,0.014499999999999957,-0.217975,-0.3620000000000001,100.0,1.0,1.0,214.69,0.0,0.0,0.0,0.0,0.0,0.0,0.0,9100.0,0.0,55.0,5.0,250.61,0.0,0.0,0.0,0.0,0.0,0.0,1.0,0.0,1.5030000000000001,1.5030000000000001,0.0,0.0,0.0,55.0,616.79921,10000.0,85.000001,85.000001,85.000001,85.000001,395.0,0.0,0.0,0.0,1.0,333.33500000000004,50.537,50.537,47.089,47.089,34.0,-24.072499999999998,28.875999999999998,-29.269999999999996,29.776,0.0,1781.466,-0.48999999999999844,100.0,29.154,28.912,43.64,43.931,0.0,0.0,100.0,0.0,0.0,0.0,0.0,3393.857142857143,3429.5,4193.875,4223.3,304.591,303.9356666666667,314.8326666666667,314.6345,22.048625,20.6805,22.071333333333335,21.5747,314.999998,314.999998,324.999988,324.999988,99.55887142857142,99.50758333333333,99.56914285714285,99.54924285714286,0.11624999999999996,-0.031749999999999945,-0.09066666666666656,0.1463333333333332,-0.046666666666666856,-0.06499999999999773,1.536,1.516,38.804,30.2535,38.946,35.842,55.784,35.661500000000004,60.088499999999996,53.333,53.726,34.7515,58.641999999999996,51.627,52.873000000000005,34.278,58.518,51.019666666666666,-0.12450000000000006,-0.04999999999999982,0.10426,0.11307,0.0,217.935,217.95499999999998,214.69,214.69,0.0,0.0
31,0.0,0.0,0.0,1.0,1.0,0.0,0.0,1.0,0.0,100.0,1.0,1.1856,26.0,0.0,0.0,0.0,62.0,0.0,26.0,26.0,26.0,26.0,0.038124999999999964,0.2610000000000001,0.09866666666666667,290.649,-2.7736,-2.6222222222222222,-1.6461999999999999,-1.5417,-170.64,215.3025,190.305375,0.0,0.0,0.0,0.0,0.06266666666666666,-5.498166666666667,-5.498166666666667,-0.5852,-0.3526666666666667,0.014333333333333309,-0.593,69.755,0.02300000000000013,-0.21760000000000002,-0.39399999999999924,100.0,1.0,1.0,214.87666666666667,0.0,0.0,0.0,0.0,0.0,0.0,0.0,9107.8,0.0,55.0,5.0,251.09,1.0,0.0,0.0,0.0,0.0,0.0,1.0,0.0,1.5539999999999985,1.5539999999999985,0.0,0.0,1.0,55.0,616.79921,10000.0,85.000001,85.000001,85.000001,85.000001,395.0,0.0,0.0,0.0,1.0,333.33500000000004,51.056,51.056,45.516999999999996,45.516999999999996,34.0,-24.4725,25.968,-31.183333333333337,32.956,0.0,1781.414,-0.41499999999999915,100.0,28.912,29.233,44.373000000000005,44.799,0.0,0.0,100.0,0.0,0.0,0.0,0.0,3247.5714285714284,3274.7,4418.125,4416.3,305.2095,304.38433333333336,314.115,313.80975,22.058,20.6864,22.082,21.5842,314.999998,314.999998,324.999988,324.999988,99.55888571428571,99.5076,99.56928571428571,99.5494,0.10725000000000007,-0.04249999999999998,-0.07866666666666666,0.13566666666666682,-0.03999999999999915,-0.046666666666666856,1.4376666666666666,1.4085,38.861999999999995,30.2895,39.013,35.900999999999996,55.774,35.701499999999996,60.1295,53.3975,53.716,34.7885,58.6805,51.689,52.861999999999995,34.3135,58.5525,51.080333333333336,-0.11799999999999988,-0.05500000000000016,0.09873000000000001,0.10979000000000001,0.0,218.325,218.35500000000002,214.87666666666667,214.87666666666667,0.0,0.0
32,0.0,0.0,0.0,1.0,1.0,0.0,0.0,1.0,0.0,100.0,1.0,1.1856,26.0,0.0,0.0,0.0,62.0,0.0,26.0,26.0,26.0,26.0,0.07824999999999993,0.23560000000000003,-0.04423333333333333,291.412,-2.7032,-2.6766666666666667,-1.5911,-1.6186,-166.87,215.305,190.278375,0.0,0.0,0.0,0.0,0.06486666666666667,-5.498166666666667,-5.498166666666667,-0.6071000000000001,-0.35133333333333333,-0.002888888888889163,-0.987,69.889,0.024699999999999944,-0.232275,-0.347999999999999,100.0,1.0,1.0,215.48000000000002,0.0,0.0,0.0,0.0,0.0,0.0,0.0,9133.4,0.0,55.0,5.0,251.57666666666665,0.0,0.0,0.0,0.0,0.0,0.0,1.0,0.0,1.6080000000000005,1.6080000000000005,0.0,0.0,0.0,55.0,616.79921,10000.0,85.000001,85.000001,85.000001,85.000001,395.0,0.0,0.0,0.0,1.0,166.665,51.59,51.59,46.722,46.722,34.0,-22.575,25.242,-27.276666666666664,31.848,0.0,1781.362,-0.46000000000000085,100.0,28.701999999999998,29.083,44.2,44.689,0.0,0.0,100.0,0.0,0.0,0.0,0.0,3148.5714285714284,3086.9,4053.5,4165.4,305.4325,304.89666666666665,315.03433333333334,314.4995,22.06775,20.6925,22.093,21.594,314.999998,314.999998,324.999988,324.999988,99.5589,99.5076,99.56944285714286,99.54955714285714,0.11750000000000016,-0.03225,-0.08383333333333332,0.14683333333333337,-0.05666666666667197,-0.03333333333333144,1.5083333333333333,1.5015,38.924,30.328,39.082,35.963,55.762,35.743,60.1665,53.461,53.704,34.827,58.7145,51.75,52.849000000000004,34.35,58.5835,51.14,-0.12149999999999994,-0.05549999999999988,0.10795500000000001,0.108755,0.0,218.745,218.765,215.48000000000002,215.48000000000002,0.0,0.0
33,0.0,0.0,0.0,1.0,1.0,0.0,0.0,1.0,0.0,100.0,1.0,1.1856,26.0,0.0,0.0,0.0,62.0,0.0,26.0,26.0,26.0,26.0,0.05174999999999996,0.2581,-0.04286666666666667,291.595,-2.7162,-2.645666666666667,-1.5997,-1.5828,-163.51,215.31,190.25325,0.0,0.0,0.0,0.0,0.0668,-5.498166666666667,-5.498166666666667,-0.6154000000000001,-0.25433333333333336,-0.002888888888889163,-0.10499999999999998,70.011,0.0253000000000001,-0.21395,-0.3779999999999992,100.0,1.0,1.0,215.8466666666667,0.0,0.0,0.0,0.0,0.0,0.0,0.0,9149.0,0.0,55.0,5.0,252.01333333333332,1.0,0.0,0.0,0.0,0.0,0.0,1.0,0.0,1.6559999999999988,1.6559999999999988,0.0,0.0,1.0,55.0,616.79921,10000.0,85.000001,85.000001,85.000001,85.000001,395.0,0.0,0.0,0.0,1.0,166.665,51.849000000000004,51.849000000000004,46.951,46.951,34.0,-22.7575,24.778,-28.39333333333333,30.976,0.0,1781.314,-0.46999999999999886,100.0,28.538,28.820999999999998,43.965,44.419,0.0,0.0,100.0,0.0,0.0,0.0,0.0,3170.142857142857,3067.4,4099.0,4188.4,305.379,305.07233333333335,314.9356666666667,314.52225,22.0765,20.6978,22.102777777777778,21.6027,314.999998,314.999998,324.999988,324.999988,99.55892857142857,99.5076,99.56958571428571,99.54968571428572,0.1200000000000001,-0.029249999999999998,-0.09733333333333338,0.13916666666666666,-0.06333333333333258,-0.02833333333332888,1.5230000000000001,1.5185,38.977999999999994,30.361,39.141999999999996,36.016999999999996,55.751000000000005,35.778,60.2,53.5165,53.694,34.859,58.7455,51.803,52.838,34.381,58.6115,51.192,-0.12399999999999989,-0.047499999999999876,0.1102,0.10923000000000001,0.0,219.13,219.135,215.8466666666667,215.8466666666667,0.0,0.0
34,0.0,0.0,0.0,1.0,1.0,0.0,0.0,1.0,0.0,100.0,1.0,1.1856,26.0,0.0,0.0,0.0,62.0,0.0,26.0,26.0,26.0,26.0,0.04587500000000011,0.25280000000000014,-0.10123333333333334,291.824,-2.6687000000000003,-2.677777777777778,-1.6295000000000002,-1.5210000000000001,-159.94,215.3175,190.225125,0.0,0.0,0.0,0.0,0.06886666666666666,-5.498166666666667,-5.498166666666667,-0.6448,-0.9580000000000001,0.01922222222222203,0.8600000000000001,70.14,0.028000000000000025,-0.2223,-0.4560000000000004,100.0,1.0,1.0,216.19666666666666,0.0,0.0,0.0,0.0,0.0,0.0,0.0,9163.8,0.0,55.0,5.0,252.48000000000002,0.0,0.0,0.0,0.0,0.0,0.0,1.0,0.0,1.7070000000000007,1.7070000000000007,0.0,0.0,0.0,55.0,616.79921,10000.0,85.000001,85.000001,85.000001,85.000001,395.0,0.0,0.0,0.0,1.0,166.665,52.353,52.353,47.028,47.028,34.0,-20.56,25.598,-27.993333333333332,31.048000000000002,0.0,1781.263,-0.46999999999999886,100.0,28.404,28.447,43.891,44.405,0.0,0.0,100.0,0.0,0.0,0.0,0.0,2963.4285714285716,3097.7,4106.625,4277.0,305.861,305.1426666666667,314.91266666666667,314.34825,22.085625,20.7033,22.113222222222223,21.612000000000002,314.999998,314.999998,324.999988,324.999988,99.55894285714285,99.50761666666666,99.56972857142857,99.54985714285715,0.12475000000000014,-0.018000000000000016,-0.07883333333333331,0.1413333333333333,-0.03999999999999915,-0.06499999999999773,1.5056666666666667,1.4994999999999998,39.035,30.396,39.207,36.075,55.739000000000004,35.814,60.2345,53.5775,53.682,34.8925,58.778,51.862,52.825,34.413,58.6405,51.24933333333333,-0.11799999999999988,-0.04600000000000026,0.11074500000000001,0.105105,0.0,219.5,219.53,216.19666666666666,216.19666666666666,0.0,0.0
35,0.0,0.0,0.0,1.0,1.0,0.0,0.0,1.0,0.0,100.0,1.0,1.1856,26.0,0.0,0.0,0.0,62.0,0.0,26.0,26.0,26.0,26.0,0.06337499999999996,0.25670000000000015,-0.04223333333333333,291.687,-2.8032,-2.6502222222222223,-1.538,-1.5826,-156.36,215.325,190.195125,0.0,0.0,0.0,0.0,0.07096666666666666,-5.498166666666667,-5.498166666666667,-0.6788000000000001,0.09366666666666668,-0.004666666666666597,-1.2730000000000001,70.266,0.03090000000000015,-0.226325,-0.32399999999999984,100.0,1.0,1.0,216.68333333333334,0.0,0.0,0.0,0.0,0.0,0.0,0.0,9184.4,0.0,55.0,5.0,252.93333333333334,1.0,0.0,0.0,0.0,0.0,0.0,1.0,0.0,1.7579999999999991,1.7579999999999991,0.0,0.0,1.0,55.0,616.79921,10000.0,85.000001,85.000001,85.000001,85.000001,395.0,0.0,0.0,0.0,1.0,166.665,51.528999999999996,51.528999999999996,46.799,46.799,34.0,-24.247500000000002,26.887999999999998,-26.269999999999996,30.67,0.0,1781.213,-0.259999999999998,100.0,28.246,28.987000000000002,43.54,43.961,0.0,0.0,100.0,0.0,0.0,0.0,0.0,3198.285714285714,3279.0,4146.25,4077.7,305.2905,304.296,314.91966666666667,314.87275,22.094625,20.7092,22.123444444444445,21.6212,314.999998,314.999998,324.999988,324.999988,99.55895714285714,99.50761666666666,99.56987142857143,99.55,0.11125000000000007,-0.03149999999999997,-0.0711666666666666,0.1563333333333332,-0.05333333333332746,-0.045000000000001705,1.5673333333333335,1.5335,39.092,30.432499999999997,39.272,36.132,55.726,35.8535,60.2685,53.6335,53.67,34.9295,58.8095,51.9165,52.812,34.448499999999996,58.669,51.30266666666667,-0.10699999999999998,-0.059499999999999886,0.09714,0.11537000000000001,0.0,219.905,219.925,216.68333333333334,216.68333333333334,0.0,0.0
