,ABS Active,ABS Enabled,AID Allow Tire Blankets,AID Auto Blip,AID Auto Clutch,AID Auto Shift,AID Fuel Rate,AID Ideal Line,AID Mech Damage,AID Stability,AID Tire Wear Rate,Air Density,Air Temp,Ballast,Best Lap Delta,Best Lap Time,Brake Bias,Brake Pos,Brake Temp FL,Brake Temp FR,Brake Temp RL,Brake Temp RR,CG Accel Lateral,CG Accel Longitudinal,CG Accel Vertical,CG Height,Camber FL,Camber FR,Camber RL,Camber RR,Car Coord X,Car Coord Y,Car Coord Z,Car Damage Front,Car Damage Left,Car Damage Rear,Car Damage Right,Car Pos Norm,Caster FL,Caster FR,Chassis Pitch Angle,Chassis Pitch Rate,Chassis Roll Angle,Chassis Roll Rate,Chassis Velocity X,Chassis Velocity Y,Chassis Velocity Z,Chassis Yaw Rate,Clutch Pos,DRS Active,DRS Available,Drive Train Speed,ERS Heat Charging,ERS Is Charging,ERS Max Energy,ERS Power Level,ERS Recovery Level,Engine Brake Setting,Engine Limiter,Engine RPM,Flags,Fuel Level,Gear,Ground Speed,HR Sample Clock,In Pit,KERS Charge,KERS Deployed Energy,KERS Input,KERS Max Energy,LR Sample Clock,Lap Invalidated,Lap Time,Lap Time2,Last Lap Time,Last Sector Time,MR Sample Clock,Max Fuel,Max Power,Max RPM,Max Sus Travel FL,Max Sus Travel FR,Max Sus Travel RL,Max Sus Travel RR,Max Torque,Max Turbo Boost,Num Tires Off Track,Penalties Enabled,Position,Raw Data Sample Rate,Ride Height FL,Ride Height FR,Ride Height RL,Ride Height RR,Road Temp,Self Align Torque FL,Self Align Torque FR,Self Align Torque RL,Self Align Torque RR,Session Lap Count,Session Time Left,Steering Angle,Surface Grip,Suspension Travel FL,Suspension Travel FR,Suspension Travel RL,Suspension Travel RR,TC Active,TC Enabled,Throttle Pos,Tire Dirt Level FL,Tire Dirt Level FR,Tire Dirt Level RL,Tire Dirt Level RR,Tire Load FL,Tire Load FR,Tire Load RL,Tire Load RR,Tire Loaded Radius FL,Tire Loaded Radius FR,Tire Loaded Radius RL,Tire Loaded Radius RR,Tire Pressure FL,Tire Pressure FR,Tire Pressure RL,Tire Pressure RR,Tire Radius FL,Tire Radius FR,Tire Radius RL,Tire Radius RR,Tire Rubber Grip FL,Tire Rubber Grip FR,Tire Rubber Grip RL,Tire Rubber Grip RR,Tire Slip Angle FL,Tire Slip Angle FR,Tire Slip Angle RL,Tire Slip Angle RR,Tire Slip Ratio FL,Tire Slip Ratio FR,Tire Slip Ratio RL,Tire Slip Ratio RR,Tire Temp Core FL,Tire Temp Core FR,Tire Temp Core RL,Tire Temp Core RR,Tire Temp Inner FL,Tire Temp Inner FR,Tire Temp Inner RL,Tire Temp Inner RR,Tire Temp Middle FL,Tire Temp Middle FR,Tire Temp Middle RL,Tire Temp Middle RR,Tire Temp Outer FL,Tire Temp Outer FR,Tire Temp Outer RL,Tire Temp Outer RR,Toe In FL,Toe In FR,Toe In RL,Toe In RR,Turbo Boost,Wheel Angular Speed FL,Wheel Angular Speed FR,Wheel Angular Speed RL,Wheel Angular Speed RR,Wind Direction,Wind Speed
0,0.0,0.0,0.0,1.0,1.0,0.0,0.0,1.0,0.0,100.0,1.0,1.1856,26.0,0.0,0.0,0.0,62.0,0.0,26.0,26.0,26.0,26.0,-0.0665,0.3045,0.061725,294.006,-2.7245,-2.6527000000000003,-1.52105,-1.5531000000000001,-275.71,216.29500000000002,190.98775,0.0,0.0,0.0,0.0,0.0015666666666666051,-5.498166666666667,-5.498166666666667,-0.5477000000000001,1.3955,-0.0011250000000000426,-0.2989999999999995,65.526,-0.030200000000000005,-0.21295,0.9460000000000006,100.0,1.0,1.0,202.30333333333334,0.0,0.0,0.0,0.0,0.0,0.0,0.0,8574.9,0.0,55.0,5.0,235.86,0.0,0.0,0.0,0.0,0.0,0.0,0.0,0.0,0.0030000000000001137,0.0030000000000001137,0.0,0.0,0.0,55.0,616.79921,10000.0,85.0,85.0,85.0,85.0,395.0,0.0,0.0,0.0,1.0,20.0,52.841,52.841,49.576,49.576,34.0,-25.45,23.991666666666667,-29.843333333333334,25.8275,0.0,1783.003,0.754999999999999,100.0,27.544,26.973,40.498,40.568,0.0,0.0,100.0,0.0,0.0,0.0,0.0,2945.25,3377.3,4110.333333333333,4055.3,305.8763333333333,304.106,314.83275,314.74325,21.782125,20.5153,21.767444444444443,21.3121,314.99999,314.99999,324.99998,324.99998,99.55914285714286,99.50718333333333,99.56502857142857,99.54515714285715,0.007750000000000146,-0.10699999999999998,-0.14916666666666656,0.07550000000000012,-0.054999999999999716,-0.054999999999999716,1.5386666666666666,1.5830000000000002,37.138999999999996,29.2205,37.046,34.201,56.364000000000004,34.488,59.0165,51.604,54.274,33.647,57.646,49.962,53.44,33.197,57.6105,49.38633333333333,-0.018000000000000016,-0.12749999999999995,0.10147,0.11178,0.0,205.35000000000002,205.26999999999998,202.30333333333334,202.30333333333334,0.0,0.0
1,0.0,0.0,0.0,1.0,1.0,0.0,0.0,1.0,0.0,100.0,1.0,1.1856,26.0,0.0,0.0,0.0,62.0,0.0,26.0,26.0,26.0,26.0,-0.11025,0.3163,0.19132500000000002,293.106,-2.6433,-2.7595,-1.5296,-1.5432000000000001,-272.36,216.28750000000002,190.9675,0.0,0.0,0.0,0.0,0.0035333333333333883,-5.498166666666667,-5.498166666666667,-0.4979,-0.6360000000000001,-0.04999999999999982,-0.8879999999999999,65.679,-0.04619999999999991,-0.191825,1.3160000000000007,100.0,1.0,1.0,202.47333333333333,0.0,0.0,0.0,0.0,0.0,0.0,0.0,8582.1,0.0,55.0,5.0,236.41666666666669,1.0,0.0,0.0,0.0,0.0,0.0,0.0,0.0,0.053999999999998494,0.053999999999998494,0.0,0.0,1.0,55.0,616.79921,10000.0,85.000001,85.000001,85.000001,85.000001,395.0,0.0,0.0,0.0,1.0,333.33500000000004,53.543,53.543,48.355000000000004,48.355000000000004,34.0,-27.285,18.240000000000002,-34.94333333333333,28.830000000000002,0.0,1782.952,0.8949999999999996,100.0,27.46,27.045,42.47,41.632,0.0,0.0,100.0,0.0,0.0,0.0,0.0,3135.625,2692.3,4364.666666666667,4678.9,305.3643333333333,306.26625,314.1725,313.194,21.792,20.5204,21.778222222222222,21.3212,314.999998,314.999998,324.999988,324.999988,99.55914285714286,99.5072,99.56517142857143,99.5453,-0.00924999999999998,-0.1343333333333333,-0.1871666666666666,0.03849999999999998,-0.060000000000002274,-0.046666666666666856,1.4146666666666667,1.4670000000000005,37.2,29.252499999999998,37.114000000000004,34.257999999999996,56.347,34.5285,59.0625,51.669,54.257999999999996,33.684,57.689,50.024,53.423,33.233000000000004,57.6505,49.44733333333333,-0.006000000000000005,-0.13800000000000012,0.115,0.10429500000000001,0.0,205.81,205.675,202.47333333333333,202.47333333333333,0.0,0.0
2,0.0,0.0,0.0,1.0,1.0,0.0,0.0,1.0,0.0,100.0,1.0,1.1856,26.0,0.0,0.0,0.0,62.0,0.0,26.0,26.0,26.0,26.0,-0.14925,0.2824,-0.06825,293.701,-2.5989,-2.7967,-1.486,-1.609,-269.01,216.28,190.94875,0.0,0.0,0.0,0.0,0.005466666666666509,-5.498166666666667,-5.498166666666667,-0.5521,0.045499999999999985,-0.04775000000000018,2.5199999999999996,65.821,-0.06589999999999996,-0.257175,1.5839999999999996,100.0,1.0,1.0,203.38333333333333,0.0,0.0,0.0,0.0,0.0,0.0,0.0,8620.6,0.0,55.0,5.0,236.93,0.0,0.0,0.0,0.0,0.0,0.0,0.0,0.0,0.10500000000000043,0.10500000000000043,0.0,0.0,0.0,55.0,616.79921,10000.0,85.000001,85.000001,85.000001,85.000001,395.0,0.0,0.0,0.0,1.0,333.33500000000004,52.338,52.338,50.232,50.232,34.0,-29.9525,20.455,-28.82,20.3825,0.0,1782.902,0.7699999999999996,100.0,28.422,26.96,42.482,41.353,0.0,0.0,100.0,0.0,0.0,0.0,0.0,3330.0,2986.1,3765.8888888888887,3664.2,304.53066666666666,305.4035,315.59,315.8335,21.80225,20.5254,21.788777777777778,21.33,314.999998,314.999998,324.999988,324.999988,99.55915714285715,99.50721666666666,99.56531428571428,99.54544285714286,-0.026000000000000023,-0.1443333333333333,-0.20950000000000002,0.016666666666666607,-0.041666666666671404,-0.06333333333333258,1.6376666666666666,1.6920000000000002,37.263999999999996,29.284,37.18,34.312,56.334,34.567499999999995,59.1005,51.7265,54.245999999999995,33.7205,57.7245,50.079,53.41,33.2675,57.6835,49.501333333333335,-0.009000000000000008,-0.13949999999999996,0.10816,0.103495,0.0,206.265,206.095,203.38333333333333,203.38333333333333,0.0,0.0
3,0.0,0.0,0.0,1.0,1.0,0.0,0.0,1.0,0.0,100.0,1.0,1.1856,26.0,0.0,0.0,0.0,62.0,0.0,26.0,26.0,26.0,26.0,-0.13475,0.31520000000000015,0.07025,293.457,-2.7268,-2.6931000000000003,-1.51,-1.5888,-265.84,216.26999999999998,190.93025,0.0,0.0,0.0,0.0,0.007299999999999973,-5.498166666666667,-5.498166666666667,-0.5103,0.45899999999999996,-0.00812500000000016,0.27500000000000036,65.965,-0.0824999999999999,-0.20035,1.2120000000000006,100.0,1.0,1.0,203.51,0.0,0.0,0.0,0.0,0.0,0.0,0.0,8626.0,0.0,55.0,5.0,237.44333333333333,1.0,0.0,0.0,0.0,0.0,0.0,0.0,0.0,0.1529999999999987,0.1529999999999987,0.0,0.0,1.0,55.0,616.79921,10000.0,85.000001,85.000001,85.000001,85.000001,395.0,0.0,0.0,0.0,1.0,166.665,53.513,53.513,48.233000000000004,48.233000000000004,34.0,-25.5425,18.525,-34.53666666666666,24.6075,0.0,1782.855,0.6050000000000004,100.0,27.943,26.958,42.388,41.336,0.0,0.0,100.0,0.0,0.0,0.0,0.0,2861.875,2894.7,4285.777777777777,4251.8,306.034,305.62275,314.3355,314.33475,21.8115,20.5303,21.798555555555556,21.3383,314.999998,314.999998,324.999988,324.999988,99.55915714285715,99.50723333333333,99.56544285714286,99.54557142857144,-0.012750000000000039,-0.15400000000000003,-0.2048333333333333,0.013166666666666549,-0.05666666666667197,-0.05333333333332746,1.491,1.5380000000000003,37.322,29.3145,37.241,34.364999999999995,56.319,34.608000000000004,59.1375,51.7855,54.230999999999995,33.7575,57.7585,50.1355,53.394999999999996,33.303,57.715,49.556666666666665,-0.031000000000000028,-0.12650000000000006,0.10565000000000001,0.10527500000000001,0.0,206.7,206.61,203.51,203.51,0.0,0.0
4,0.0,0.0,0.0,1.0,1.0,0.0,0.0,1.0,0.0,100.0,1.0,1.1856,26.0,0.0,0.0,0.0,62.0,0.0,26.0,26.0,26.0,26.0,-0.14275000000000002,0.28370000000000006,-0.040675,293.686,-2.6571,-2.7461,-1.52675,-1.5981,-262.28,216.255,190.909375,0.0,0.0,0.0,0.0,0.009399999999999964,-5.498166666666667,-5.498166666666667,-0.5455,-0.7770000000000001,-0.07662499999999994,-0.4770000000000003,66.12,-0.08629999999999993,-0.238175,1.1479999999999997,100.0,1.0,1.0,204.15,0.0,0.0,0.0,0.0,0.0,0.0,0.0,8653.1,0.0,55.0,5.0,238.00333333333333,0.0,0.0,0.0,0.0,0.0,0.0,0.0,0.0,0.20700000000000074,0.20700000000000074,0.0,0.0,0.0,55.0,616.79921,10000.0,85.000001,85.000001,85.000001,85.000001,395.0,0.0,0.0,0.0,1.0,166.665,53.07,53.07,48.874,48.874,34.0,-28.6125,20.244999999999997,-32.013333333333335,21.322499999999998,0.0,1782.801,0.5500000000000007,100.0,27.771,26.71,42.833,41.426,0.0,0.0,100.0,0.0,0.0,0.0,0.0,3207.875,2990.2,4026.1111111111113,3685.2,305.0933333333333,305.35525,314.93525,315.66675,21.82175,20.5357,21.80977777777778,21.3477,314.999998,314.999998,324.999988,324.999988,99.55915714285715,99.50725,99.5656,99.54572857142857,-0.017749999999999932,-0.1403333333333333,-0.20533333333333337,0.027166666666666783,-0.05833333333333002,-0.060000000000002274,1.5566666666666666,1.596,37.385999999999996,29.348,37.311,34.423,56.3,34.6515,59.1815,51.848,54.213,33.7975,57.8,50.195499999999996,53.376000000000005,33.341,57.7535,49.61533333333333,-0.028000000000000025,-0.11499999999999999,0.11059000000000001,0.11393500000000001,0.0,207.14499999999998,207.025,204.15,204.15,0.0,0.0
5,0.0,0.0,0.0,1.0,1.0,0.0,0.0,1.0,0.0,100.0,1.0,1.1856,26.0,0.0,0.0,0.0,62.0,0.0,26.0,26.0,26.0,26.0,-0.132375,0.3094000000000001,-0.011575,293.655,-2.6703,-2.7684,-1.5089000000000001,-1.5872000000000002,-259.1,216.2375,190.890125,0.0,0.0,0.0,0.0,0.011233333333333317,-5.498166666666667,-5.498166666666667,-0.5357000000000001,0.47250000000000003,-0.08000000000000007,1.08,66.259,-0.0897,-0.21350000000000002,1.0120000000000005,100.0,1.0,1.0,204.49666666666667,0.0,0.0,0.0,0.0,0.0,0.0,0.0,8667.9,0.0,55.0,5.0,238.5,1.0,0.0,0.0,0.0,0.0,0.0,0.0,0.0,0.254999999999999,0.254999999999999,0.0,0.0,1.0,55.0,616.79921,10000.0,85.000001,85.000001,85.000001,85.000001,395.0,0.0,0.0,0.0,1.0,333.33500000000004,53.482,53.482,49.010999999999996,49.010999999999996,34.0,-27.1675,19.733333333333334,-32.77333333333333,23.905,0.0,1782.751,0.21000000000000085,100.0,27.909,26.621,42.602000000000004,41.112,0.0,0.0,100.0,0.0,0.0,0.0,0.0,3090.25,2848.2,4137.666666666667,4093.0,305.3586666666667,305.83375,314.7585,314.7435,21.83125,20.5405,21.819555555555556,21.3559,314.999998,314.999998,324.999988,324.999988,99.55917142857143,99.50726666666667,99.56572857142856,99.54585714285714,-0.006249999999999867,-0.1286666666666666,-0.2048333333333333,0.02416666666666667,-0.02499999999999858,-0.03166666666666629,1.5386666666666666,1.5730000000000004,37.445,29.378,37.372,34.475,56.286,34.689499999999995,59.219,51.902,54.2,33.832499999999996,57.835499999999996,50.2475,53.363,33.3745,57.786,49.666333333333334,-0.05249999999999999,-0.08850000000000002,0.10150500000000001,0.11427000000000001,0.0,207.60000000000002,207.495,204.49666666666667,204.49666666666667,0.0,0.0
6,0.0,0.0,0.0,1.0,1.0,0.0,0.0,1.0,0.0,100.0,1.0,1.1856,26.0,0.0,0.0,0.0,62.0,0.0,26.0,26.0,26.0,26.0,-0.115375,0.2903,0.011425000000000001,293.457,-2.636,-2.7453000000000003,-1.5508000000000002,-1.5836000000000001,-255.92,216.2175,190.87075,0.0,0.0,0.0,0.0,0.0131,-5.498166666666667,-5.498166666666667,-0.5312,0.06499999999999995,-0.06287500000000001,0.9279999999999999,66.397,-0.08399999999999996,-0.215425,0.7020000000000008,100.0,1.0,1.0,204.91333333333333,0.0,0.0,0.0,0.0,0.0,0.0,0.0,8685.5,0.0,55.0,5.0,239.0,0.0,0.0,0.0,0.0,0.0,0.0,0.0,0.0,0.3030000000000008,0.3030000000000008,0.0,0.0,0.0,55.0,616.79921,10000.0,85.000001,85.000001,85.000001,85.000001,395.0,0.0,0.0,0.0,1.0,333.33500000000004,53.131,53.131,48.782,48.782,34.0,-26.4575,21.22,-32.76,23.567500000000003,0.0,1782.705,0.05999999999999872,100.0,27.855,26.71,42.755,41.482,0.0,0.0,100.0,0.0,0.0,0.0,0.0,3123.625,2995.3,4075.3333333333335,4032.2,305.24466666666666,305.3375,314.88825,314.888,21.840625,20.5454,21.829555555555554,21.3644,314.999998,314.999998,324.999988,324.999988,99.55917142857143,99.50728333333333,99.56587142857143,99.54598571428572,0.01200000000000001,-0.11766666666666659,-0.20399999999999996,0.02616666666666667,-0.04833333333333201,-0.060000000000002274,1.5316666666666667,1.5670000000000002,37.504,29.4085,37.435,34.527,56.272,34.727000000000004,59.2575,51.96,54.186,33.867,57.871,50.303,53.348,33.408,57.819,49.720666666666666,-0.07599999999999996,-0.07899999999999996,0.10382500000000001,0.10781500000000001,0.0,207.995,207.93,204.91333333333333,204.91333333333333,0.0,0.0
7,0.0,0.0,0.0,1.0,1.0,0.0,0.0,1.0,0.0,100.0,1.0,1.1856,26.0,0.0,0.0,0.0,62.0,0.0,26.0,26.0,26.0,26.0,-0.074375,0.2842,0.05,293.228,-2.6113,-2.7296,-1.5163,-1.6226,-252.32999999999998,216.19,190.849125,0.0,0.0,0.0,0.0,0.01516666666666655,-5.498166666666667,-5.498166666666667,-0.5347000000000001,0.05149999999999999,-0.04674999999999985,1.2149999999999999,66.551,-0.06769999999999998,-0.22407500000000002,0.34799999999999986,100.0,1.0,1.0,205.36333333333334,0.0,0.0,0.0,0.0,0.0,0.0,0.0,8704.5,0.0,55.0,5.0,239.55333333333334,1.0,0.0,0.0,0.0,0.0,0.0,0.0,0.0,0.3569999999999993,0.3569999999999993,0.0,0.0,1.0,55.0,616.79921,10000.0,85.000001,85.000001,85.000001,85.000001,395.0,0.0,0.0,0.0,1.0,166.665,52.826,52.826,48.859,48.859,34.0,-25.27,22.596666666666668,-30.33,26.035,0.0,1782.651,-0.23499999999999943,100.0,27.956,26.833,42.762,41.74,0.0,0.0,100.0,0.0,0.0,0.0,0.0,3162.625,3047.1,4022.0,4088.9,305.038,305.1295,314.9715,314.68175,21.851125,20.5509,21.840666666666667,21.3739,314.999998,314.999998,324.999988,324.999988,99.55917142857143,99.5073,99.56602857142857,99.54612857142857,0.04600000000000026,-0.09299999999999997,-0.17266666666666663,0.052166666666666694,-0.04999999999999716,-0.045000000000001705,1.5353333333333334,1.54,37.569,29.442999999999998,37.504000000000005,34.587,56.256,34.769,59.2995,52.025,54.171,33.906,57.9105,50.365,53.332,33.445,57.8555,49.781333333333336,-0.09750000000000003,-0.05899999999999994,0.10082500000000001,0.107035,0.0,208.45499999999998,208.41,205.36333333333334,205.36333333333334,0.0,0.0
8,0.0,0.0,0.0,1.0,1.0,0.0,0.0,1.0,0.0,100.0,1.0,1.1856,26.0,0.0,0.0,0.0,62.0,0.0,26.0,26.0,26.0,26.0,-0.05,0.3077000000000001,0.040725000000000004,293.457,-2.6953,-2.7174,-1.49745,-1.5511,-249.13,216.16750000000002,190.82975,0.0,0.0,0.0,0.0,0.017033333333333345,-5.498166666666667,-5.498166666666667,-0.5347000000000001,-0.5445,-0.03224999999999989,0.7030000000000003,66.688,-0.049799999999999955,-0.21325000000000002,-0.07399999999999984,100.0,1.0,1.0,205.71333333333334,0.0,0.0,0.0,0.0,0.0,0.0,0.0,8719.4,0.0,55.0,5.0,240.05,0.0,0.0,0.0,0.0,0.0,0.0,0.0,0.0,0.40500000000000114,0.40500000000000114,0.0,0.0,0.0,55.0,616.79921,10000.0,85.000001,85.000001,85.000001,85.000001,395.0,0.0,0.0,0.0,1.0,333.33500000000004,53.711,53.711,48.111,48.111,34.0,-23.287499999999998,22.868333333333332,-29.996666666666666,26.552500000000002,0.0,1782.601,-0.384999999999998,100.0,27.475,26.749,42.771,41.853,0.0,0.0,100.0,0.0,0.0,0.0,0.0,2915.125,2991.3,4145.0,4182.5,305.9603333333333,305.38025,314.62925,314.4605,21.86025,20.5557,21.850555555555555,21.3823,314.999998,314.999998,324.999988,324.999988,99.55917142857143,99.5073,99.56615714285714,99.54627142857143,0.051000000000000156,-0.06933333333333336,-0.14633333333333332,0.06499999999999995,-0.04333333333332945,-0.06499999999999773,1.5216666666666667,1.5090000000000003,37.626000000000005,29.4735,37.566,34.638999999999996,56.239999999999995,34.805,59.337,52.082,54.156,33.939,57.945,50.42,53.316,33.4765,57.8875,49.835,-0.10250000000000004,-0.03649999999999998,0.10114500000000001,0.10184000000000001,0.0,208.86,208.865,205.71333333333334,205.71333333333334,0.0,0.0
9,0.0,0.0,0.0,1.0,1.0,0.0,0.0,1.0,0.0,100.0,1.0,1.1856,26.0,0.0,0.0,0.0,62.0,0.0,26.0,26.0,26.0,26.0,-0.008125,0.2883,-0.0118,293.106,-2.6849,-2.7185,-1.553,-1.5556999999999999,-245.72,216.14,190.808625,0.0,0.0,0.0,0.0,0.018999999999999906,-5.498166666666667,-5.498166666666667,-0.5413,0.6715,-0.035250000000000004,-0.2779999999999996,66.83,-0.029799999999999938,-0.216125,-0.11000000000000032,100.0,1.0,1.0,206.27666666666667,0.0,0.0,0.0,0.0,0.0,0.0,0.0,8743.3,0.0,55.0,5.0,240.56,1.0,0.0,0.0,0.0,0.0,0.0,0.0,0.0,0.4559999999999995,0.4559999999999995,0.0,0.0,1.0,55.0,616.79921,10000.0,85.000001,85.000001,85.000001,85.000001,395.0,0.0,0.0,0.0,1.0,166.665,52.399,52.399,49.164,49.164,34.0,-26.43,23.781666666666666,-28.77,26.43,0.0,1782.552,-0.48999999999999844,100.0,27.877,27.348,42.356,41.955,0.0,0.0,100.0,0.0,0.0,0.0,0.0,3380.75,3004.1,4034.3333333333335,4040.4,304.6533333333333,305.0965,315.105,314.8155,21.870125,20.5611,21.860888888888887,21.3912,314.999998,314.999998,324.999988,324.999988,99.55918571428572,99.50731666666667,99.5663,99.54641428571429,0.07325000000000026,-0.05699999999999994,-0.136,0.08766666666666678,-0.07166666666666544,-0.046666666666666856,1.569,1.5739999999999998,37.688,29.506999999999998,37.629999999999995,34.695,56.227000000000004,34.844,59.3735,52.141,54.143,33.975,57.9795,50.4765,53.303,33.5115,57.9185,49.89066666666667,-0.12149999999999994,-0.033500000000000085,0.09742,0.10801500000000001,0.0,209.335,209.305,206.27666666666667,206.27666666666667,0.0,0.0
10,0.0,0.0,0.0,1.0,1.0,0.0,0.0,1.0,0.0,100.0,1.0,1.1856,26.0,0.0,0.0,0.0,62.0,0.0,26.0,26.0,26.0,26.0,0.002375,0.2801,-0.00045000000000000004,292.953,-2.6625,-2.7053000000000003,-1.53555,-1.5342,-242.51,216.1125,190.789125,0.0,0.0,0.0,0.0,0.02086666666666659,-5.498166666666667,-5.498166666666667,-0.5179,-0.35050000000000003,0.006624999999999881,0.3020000000000005,66.968,-0.009399999999999964,-0.207125,-0.4679999999999991,100.0,1.0,1.0,206.49333333333334,0.0,0.0,0.0,0.0,0.0,0.0,0.0,8752.4,0.0,55.0,5.0,241.05666666666667,0.0,0.0,0.0,0.0,0.0,0.0,1.0,0.0,0.5040000000000013,0.5040000000000013,0.0,0.0,0.0,55.0,616.79921,10000.0,85.000001,85.000001,85.000001,85.000001,395.0,0.0,0.0,0.0,1.0,333.33500000000004,53.436,53.436,47.607,47.607,34.0,-21.384999999999998,22.85666666666667,-30.96,29.835,0.0,1782.504,-0.6000000000000014,100.0,27.737000000000002,27.385,42.756,42.718,0.0,0.0,100.0,0.0,0.0,0.0,0.0,2891.375,2864.6,4335.666666666667,4276.7,306.081,305.56125,314.26175,314.155,21.87925,20.5661,21.87088888888889,21.3998,314.999998,314.999998,324.999988,324.999988,99.5592,99.50731666666667,99.56644285714286,99.54654285714285,0.08550000000000013,-0.044333333333333336,-0.12316666666666665,0.11033333333333317,-0.03999999999999915,-0.03333333333333144,1.4933333333333332,1.4539999999999997,37.745000000000005,29.538,37.693,34.748999999999995,56.214,34.8785,59.4125,52.201499999999996,54.131,34.007,58.0155,50.535,53.29,33.542,57.952,49.94766666666666,-0.123,-0.02400000000000002,0.10722000000000001,0.11303,0.0,209.73000000000002,209.745,206.49333333333334,206.49333333333334,0.0,0.0
11,0.0,0.0,0.0,1.0,1.0,0.0,0.0,1.0,0.0,100.0,1.0,1.1856,26.0,0.0,0.0,0.0,62.0,0.0,26.0,26.0,26.0,26.0,0.028625,0.2764,-0.0641,293.503,-2.7039,-2.6884,-1.5903,-1.5252,-239.09,216.085,190.768375,0.0,0.0,0.0,0.0,0.022599999999999953,-5.498166666666667,-5.498166666666667,-0.5614,-0.26550000000000007,0.03200000000000003,0.3490000000000002,67.107,0.011500000000000066,-0.23797500000000002,-0.6479999999999997,100.0,1.0,1.0,207.2266666666667,0.0,0.0,0.0,0.0,0.0,0.0,0.0,8783.6,0.0,55.0,5.0,241.55666666666667,1.0,0.0,0.0,0.0,0.0,0.0,1.0,0.0,0.5549999999999997,0.5549999999999997,0.0,0.0,1.0,55.0,616.79921,10000.0,85.000001,85.000001,85.000001,85.000001,395.0,0.0,0.0,0.0,1.0,333.33500000000004,52.826,52.826,49.286,49.286,34.0,-21.8725,26.39666666666667,-24.21,27.18,0.0,1782.452,-0.6400000000000006,100.0,27.609,27.436,42.394999999999996,42.585,0.0,0.0,100.0,0.0,0.0,0.0,0.0,3004.25,3182.0,3685.0,3875.2,305.661,304.72925,315.896,315.24,21.88875,20.5715,21.88122222222222,21.4088,314.999998,314.999998,324.999988,324.999988,99.5592,99.50731666666667,99.56658571428571,99.54668571428572,0.10850000000000026,-0.022666666666666613,-0.09466666666666657,0.14383333333333326,-0.05833333333333002,-0.060000000000002274,1.6363333333333334,1.62,37.805,29.572,37.757,34.805,56.199,34.9165,59.447,52.2615,54.117000000000004,34.042,58.0475,50.5925,53.275,33.5755,57.9815,50.004,-0.125,-0.030999999999999917,0.10967500000000001,0.11085,0.0,210.125,210.17000000000002,207.2266666666667,207.2266666666667,0.0,0.0
12,0.0,0.0,0.0,1.0,1.0,0.0,0.0,1.0,0.0,100.0,1.0,1.1856,26.0,0.0,0.0,0.0,62.0,0.0,26.0,26.0,26.0,26.0,0.04875,0.2864,0.013775,292.953,-2.758,-2.6816,-1.55225,-1.5253999999999999,-235.87,216.0625,190.747625,0.0,0.0,0.0,0.0,0.025466666666666526,-5.498166666666667,-5.498166666666667,-0.5464,0.3015,0.02012499999999995,0.6879999999999997,67.244,0.026499999999999968,-0.20677500000000001,-0.7079999999999993,100.0,1.0,1.0,207.42666666666668,0.0,0.0,0.0,0.0,0.0,0.0,0.0,8792.0,0.0,55.0,5.0,242.04666666666668,0.0,0.0,0.0,0.0,0.0,0.0,1.0,0.0,0.602999999999998,0.602999999999998,0.0,0.0,0.0,55.0,616.79921,10000.0,85.000001,85.000001,85.000001,85.000001,395.0,0.0,0.0,0.0,1.0,333.33500000000004,52.841,52.841,47.943,47.943,34.0,-21.7225,26.945,-26.323333333333334,31.48,0.0,1782.403,-0.6849999999999987,100.0,27.5,27.566,42.336,42.474000000000004,0.0,0.0,100.0,0.0,0.0,0.0,0.0,3016.0,3200.1,4167.888888888889,4229.8,305.636,304.70425,314.67125,314.41175,21.89775,20.5766,21.891,21.4172,314.999998,314.999998,324.999988,324.999988,99.55921428571429,99.50731666666667,99.56671428571428,99.54682857142858,0.12575000000000003,-0.011333333333333306,-0.05999999999999994,0.1581666666666668,-0.03999999999999915,-0.054999999999999716,1.5206666666666666,1.4960000000000004,37.861000000000004,29.604,37.818,34.858000000000004,56.187,34.952,59.4825,52.3185,54.105999999999995,34.0745,58.081,50.6475,53.262,33.607,58.0115,50.058,-0.12949999999999995,-0.028999999999999915,0.10279500000000001,0.11292500000000001,0.0,210.57,210.625,207.42666666666668,207.42666666666668,0.0,0.0
13,0.0,0.0,0.0,1.0,1.0,0.0,0.0,1.0,0.0,100.0,1.0,1.1856,26.0,0.0,0.0,0.0,62.0,0.0,26.0,26.0,26.0,26.0,0.07775,0.2905,0.054775000000000004,292.572,-2.7349,-2.6759,-1.5906,-1.5078,-232.23,216.035,190.724625,0.0,0.0,0.0,0.0,0.026866666666666594,-5.498166666666667,-5.498166666666667,-0.5387000000000001,-0.07200000000000006,0.02475000000000005,1.0270000000000001,67.395,0.035700000000000065,-0.21530000000000002,-0.8959999999999999,100.0,1.0,1.0,207.82666666666665,0.0,0.0,0.0,0.0,0.0,0.0,0.0,8809.0,0.0,55.0,5.0,242.59333333333336,1.0,0.0,0.0,0.0,0.0,0.0,1.0,0.0,0.657,0.657,0.0,0.0,1.0,55.0,616.79921,10000.0,85.000001,85.000001,85.000001,85.000001,395.0,0.0,0.0,0.0,1.0,166.665,52.505,52.505,47.913,47.913,34.0,-20.5975,28.213333333333335,-26.546666666666663,32.7,0.0,1782.351,-0.8550000000000004,100.0,27.798000000000002,27.762,42.545,43.005,0.0,0.0,100.0,0.0,0.0,0.0,0.0,3049.625,3193.2,4142.888888888889,4364.0,305.505,304.71075,314.69375,314.0675,21.907875,20.5825,21.90211111111111,21.427,314.999998,314.999998,324.999988,324.999988,99.55922857142858,99.50733333333334,99.56685714285715,99.54698571428571,0.15425000000000022,0.021333333333333426,-0.055499999999999994,0.16199999999999992,-0.03166666666666629,-0.04999999999999716,1.5073333333333334,1.4910000000000005,37.924,29.6405,37.888,34.919,56.176,34.9925,59.5235,52.3865,54.095,34.112,58.119,50.7125,53.251000000000005,33.643,58.0465,50.122,-0.15200000000000002,-0.008000000000000007,0.10396000000000001,0.104995,0.0,211.01999999999998,211.075,207.82666666666665,207.82666666666665,0.0,0.0
14,0.0,0.0,0.0,1.0,1.0,0.0,0.0,1.0,0.0,100.0,1.0,1.1856,26.0,0.0,0.0,0.0,62.0,0.0,26.0,26.0,26.0,26.0,0.081,0.2754000000000001,-0.014325000000000001,292.816,-2.7333,-2.6193,-1.63195,-1.5139,-229.0,216.0125,190.704625,0.0,0.0,0.0,0.0,0.02873333333333339,-5.498166666666667,-5.498166666666667,-0.5479,-0.137,0.052000000000000046,1.4110000000000005,67.526,0.050000000000000044,-0.22745,-1.0839999999999996,100.0,1.0,1.0,208.32333333333332,0.0,0.0,0.0,0.0,0.0,0.0,0.0,8830.1,0.0,55.0,5.0,243.06333333333333,0.0,0.0,0.0,0.0,0.0,0.0,1.0,0.0,0.7049999999999983,0.7049999999999983,0.0,0.0,0.0,55.0,616.79921,10000.0,85.000001,85.000001,85.000001,85.000001,395.0,0.0,0.0,0.0,1.0,333.33500000000004,52.643,52.643,48.096000000000004,48.096000000000004,34.0,-19.474999999999998,28.626666666666665,-25.206666666666663,32.260000000000005,0.0,1782.303,-0.9499999999999993,100.0,27.693,27.813,42.518,43.197,0.0,0.0,100.0,0.0,0.0,0.0,0.0,2933.125,3253.3,3981.8888888888887,4215.2,305.83366666666666,304.54975,315.126,314.4395,21.916875,20.587699999999998,21.91188888888889,21.4356,314.999998,314.999998,324.999988,324.999988,99.55925714285715,99.50733333333334,99.567,99.54711428571429,0.15949999999999998,0.02933333333333321,-0.04749999999999999,0.18066666666666675,-0.041666666666671404,-0.054999999999999716,1.561,1.5179999999999998,37.980000000000004,29.673000000000002,37.949,34.972,56.167,35.028,59.5585,52.445,54.086,34.144999999999996,58.150999999999996,50.769,53.239999999999995,33.6745,58.0755,50.17733333333334,-0.15449999999999997,-0.0035000000000000586,0.10738,0.10469,0.0,211.41500000000002,211.49,208.32333333333332,208.32333333333332,0.0,0.0
15,0.0,0.0,0.0,1.0,1.0,0.0,0.0,1.0,0.0,100.0,1.0,1.1856,26.0,0.0,0.0,0.0,62.0,0.0,26.0,26.0,26.0,26.0,0.115875,0.27690000000000015,0.0060750000000000005,292.847,-2.7119999999999997,-2.5743,-1.62955,-1.4527,-225.75,215.9925,190.684375,0.0,0.0,0.0,0.0,0.0306333333333334,-5.498166666666667,-5.498166666666667,-0.54,0.29600000000000004,0.0831249999999999,1.0760000000000005,67.658,0.06669999999999998,-0.20985,-1.1920000000000002,100.0,1.0,1.0,208.71666666666667,0.0,0.0,0.0,0.0,0.0,0.0,0.0,8846.7,0.0,55.0,5.0,243.53666666666666,1.0,0.0,0.0,0.0,0.0,0.0,1.0,0.0,0.7530000000000001,0.7530000000000001,0.0,0.0,1.0,55.0,616.79921,10000.0,85.000001,85.000001,85.000001,85.000001,395.0,0.0,0.0,0.0,1.0,333.33500000000004,52.795,52.795,48.203,48.203,34.0,-17.947499999999998,28.196666666666665,-23.993333333333336,33.7975,0.0,1782.254,-0.9349999999999987,100.0,27.695,27.872,42.263999999999996,43.224000000000004,0.0,0.0,100.0,0.0,0.0,0.0,0.0,2799.625,3231.9,3935.222222222222,4387.4,306.2076666666667,304.60225,315.256,314.04975,21.925875,20.5929,21.921666666666667,21.4442,314.999998,314.999998,324.999988,324.999988,99.55927142857144,99.50733333333334,99.56712857142857,99.54725714285715,0.16825,0.033666666666666734,-0.030333333333333323,0.1955,-0.051666666666669414,-0.05333333333332746,1.549,1.5099999999999998,38.036,29.706,38.01,35.025999999999996,56.157,35.064499999999995,59.591499999999996,52.504,54.076,34.179,58.1815,50.826,53.230000000000004,33.707,58.103,50.233333333333334,-0.14700000000000002,-0.007500000000000062,0.106075,0.10794000000000001,0.0,211.85500000000002,211.93,208.71666666666667,208.71666666666667,0.0,0.0
16,0.0,0.0,0.0,1.0,1.0,0.0,0.0,1.0,0.0,100.0,1.0,1.1856,26.0,0.0,0.0,0.0,62.0,0.0,26.0,26.0,26.0,26.0,0.121125,0.26060000000000016,-0.0122,292.847,-2.803,-2.5843,-1.59975,-1.5145,-222.09,215.975,190.661,0.0,0.0,0.0,0.0,0.03273333333333339,-5.498166666666667,-5.498166666666667,-0.5625,-0.702,0.06925000000000003,0.2030000000000003,67.806,0.07720000000000016,-0.227,-1.218,100.0,1.0,1.0,209.17666666666668,0.0,0.0,0.0,0.0,0.0,0.0,0.0,8866.3,0.0,55.0,5.0,244.07333333333332,0.0,0.0,0.0,0.0,0.0,0.0,1.0,0.0,0.8069999999999986,0.8069999999999986,0.0,0.0,0.0,55.0,616.79921,10000.0,85.000001,85.000001,85.000001,85.000001,395.0,0.0,0.0,0.0,1.0,166.665,52.643,52.643,47.989,47.989,34.0,-19.474999999999998,29.52,-23.106666666666666,33.4875,0.0,1782.201,-0.8900000000000006,100.0,27.318,27.977,42.469,43.374,0.0,0.0,100.0,0.0,0.0,0.0,0.0,2978.75,3322.9,3920.3333333333335,4142.6,305.8926666666667,304.35,315.27825,314.546,21.935625,20.5989,21.932666666666666,21.4539,314.999998,314.999998,324.999988,324.999988,99.55928571428572,99.50735,99.56728571428572,99.54741428571428,0.17799999999999994,0.040999999999999925,-0.022499999999999964,0.21466666666666678,-0.060000000000002274,-0.04833333333333201,1.5536666666666668,1.5060000000000002,38.097,29.743000000000002,38.079,35.087,56.143,35.1065,59.6315,52.57,54.063,34.2175,58.219,50.8895,53.215,33.7445,58.137,50.29566666666666,-0.14900000000000002,-0.011500000000000066,0.108865,0.10876500000000001,0.0,212.26,212.345,209.17666666666668,209.17666666666668,0.0,0.0
17,0.0,0.0,0.0,1.0,1.0,0.0,0.0,1.0,0.0,100.0,1.0,1.1856,26.0,0.0,0.0,0.0,62.0,0.0,26.0,26.0,26.0,26.0,0.11825000000000001,0.2842,-0.02755,292.557,-2.7626,-2.5652,-1.6405,-1.4753,-218.84,215.96,190.63975,0.0,0.0,0.0,0.0,0.034633333333333294,-5.498166666666667,-5.498166666666667,-0.5512,0.5605,0.04987499999999989,0.6440000000000001,67.936,0.08109999999999995,-0.207375,-1.202,100.0,1.0,1.0,209.54333333333335,0.0,0.0,0.0,0.0,0.0,0.0,0.0,8881.7,0.0,55.0,5.0,244.54000000000002,1.0,0.0,0.0,0.0,0.0,0.0,1.0,0.0,0.8550000000000004,0.8550000000000004,0.0,0.0,1.0,55.0,616.79921,10000.0,85.000001,85.000001,85.000001,85.000001,395.0,0.0,0.0,0.0,1.0,333.33500000000004,52.46,52.46,47.928,47.928,34.0,-19.0075,28.195,-25.099999999999998,33.7725,0.0,1782.153,-0.9600000000000009,100.0,27.838,28.282,42.241,43.32,0.0,0.0,100.0,0.0,0.0,0.0,0.0,2981.5,3157.9,4183.222222222223,4307.3,305.762,304.84475,314.75,314.2925,21.944625,20.6043,21.942444444444444,21.4624,314.999998,314.999998,324.999988,324.999988,99.55931428571428,99.50735,99.56741428571429,99.54754285714286,0.18400000000000016,0.05400000000000005,-0.016000000000000014,0.20450000000000013,-0.03333333333333144,-0.046666666666666856,1.557,1.5099999999999998,38.153999999999996,29.7765,38.14,35.14,56.135999999999996,35.144999999999996,59.664500000000004,52.6285,54.056,34.2535,58.2495,50.946,53.207,33.778999999999996,58.165,50.351,-0.15000000000000002,-0.001000000000000112,0.11023500000000001,0.10057500000000001,0.0,212.695,212.79000000000002,209.54333333333335,209.54333333333335,0.0,0.0
18,0.0,0.0,0.0,1.0,1.0,0.0,0.0,1.0,0.0,100.0,1.0,1.1856,26.0,0.0,0.0,0.0,62.0,0.0,26.0,26.0,26.0,26.0,0.117125,0.2722,-0.031225000000000003,292.557,-2.7965,-2.5402,-1.6556000000000002,-1.4232,-215.57,215.95,190.618625,0.0,0.0,0.0,0.0,0.03653333333333331,-5.498166666666667,-5.498166666666667,-0.5598000000000001,-0.556,0.07337499999999997,1.1950000000000003,68.06700000000001,0.08350000000000013,-0.22262500000000002,-1.2679999999999998,100.0,1.0,1.0,209.95,0.0,0.0,0.0,0.0,0.0,0.0,0.0,8899.1,0.0,55.0,5.0,245.01333333333332,0.0,0.0,0.0,0.0,0.0,0.0,1.0,0.0,0.9029999999999987,0.9029999999999987,0.0,0.0,0.0,55.0,616.79921,10000.0,85.000001,85.000001,85.000001,85.000001,395.0,0.0,0.0,0.0,1.0,333.33500000000004,52.444,52.444,47.76,47.76,34.0,-18.93,30.128333333333334,-23.986666666666665,32.7775,0.0,1782.104,-1.1649999999999991,100.0,27.572,28.106,42.589,43.72,0.0,0.0,100.0,0.0,0.0,0.0,0.0,2970.25,3353.0,3998.3333333333335,4221.1,305.86133333333333,304.349,315.12425,314.45325,21.9535,20.6095,21.952333333333332,21.4712,314.999998,314.999998,324.999988,324.999988,99.55932857142857,99.50735,99.56755714285714,99.54768571428572,0.18950000000000022,0.06066666666666687,-0.015833333333333366,0.21233333333333326,-0.03166666666666629,-0.07666666666666799,1.5716666666666668,1.5019999999999998,38.209,29.8095,38.202,35.195,56.126000000000005,35.1825,59.7005,52.689,54.046,34.2885,58.283,51.004,53.197,33.8125,58.195,50.40833333333333,-0.16349999999999998,0.010499999999999954,0.10850000000000001,0.10221000000000001,0.0,213.055,213.175,209.95,209.95,0.0,0.0
19,0.0,0.0,0.0,1.0,1.0,0.0,0.0,1.0,0.0,100.0,1.0,1.1856,26.0,0.0,0.0,0.0,62.0,0.0,26.0,26.0,26.0,26.0,0.160625,0.28500000000000014,0.023925000000000002,292.038,-2.7738,-2.5215,-1.67625,-1.4,-212.1,215.9425,190.596,0.0,0.0,0.0,0.0,0.03856666666666653,-5.498166666666667,-5.498166666666667,-0.5526,0.8235,0.08562500000000006,-0.37899999999999956,68.20400000000001,0.09109999999999996,-0.21295,-1.5579999999999998,100.0,1.0,1.0,210.36,0.0,0.0,0.0,0.0,0.0,0.0,0.0,8916.4,0.0,55.0,5.0,245.50333333333333,1.0,0.0,0.0,0.0,0.0,0.0,1.0,0.0,0.9540000000000006,0.9540000000000006,0.0,0.0,1.0,55.0,616.79921,10000.0,85.000001,85.000001,85.000001,85.000001,395.0,0.0,0.0,0.0,1.0,333.33500000000004,51.682,51.682,47.668,47.668,34.0,-19.0425,30.79,-25.276666666666664,34.2625,0.0,1782.052,-1.549999999999999,100.0,27.924,28.786,42.225,43.802,0.0,0.0,100.0,0.0,0.0,0.0,0.0,3136.75,3325.0,4154.111111111111,4384.5,305.41,304.12575,314.8715,314.0625,21.963,20.6154,21.962555555555554,21.4804,314.999998,314.999998,324.999988,324.999988,99.55935714285714,99.50736666666667,99.5677,99.54784285714285,0.2084999999999999,0.07666666666666666,-0.014833333333333365,0.21750000000000003,-0.02833333333332888,-0.041666666666671404,1.5546666666666666,1.5,38.269,29.846,38.266,35.251999999999995,56.120000000000005,35.227000000000004,59.735,52.7515,54.04,34.329499999999996,58.314499999999995,51.065,53.189,33.852000000000004,58.224000000000004,50.468,-0.1915,0.03949999999999998,0.11289,0.10401,0.0,213.51,213.62,210.36,210.36,0.0,0.0
20,0.0,0.0,0.0,1.0,1.0,0.0,0.0,1.0,0.0,100.0,1.0,1.1856,26.0,0.0,0.0,0.0,62.0,0.0,26.0,26.0,26.0,26.0,0.214,0.2711000000000001,-0.065875,292.358,-2.8262,-2.5801,-1.6085500000000001,-1.5133,-208.41,215.9375,190.572375,0.0,0.0,0.0,0.0,0.04069999999999996,-5.498166666666667,-5.498166666666667,-0.5574,-1.1665,0.09525000000000006,-0.6680000000000001,68.351,0.10519999999999996,-0.225475,-1.9859999999999998,100.0,1.0,1.0,210.70333333333332,0.0,0.0,0.0,0.0,0.0,0.0,0.0,8931.0,0.0,55.0,5.0,246.03666666666666,0.0,0.0,0.0,0.0,0.0,0.0,0.0,0.0,1.0079999999999991,1.0079999999999991,0.0,0.0,0.0,55.0,616.79921,10000.0,85.000001,85.000001,85.000001,85.000001,395.0,0.0,0.0,0.0,1.0,166.665,52.765,52.765,47.043,47.043,34.0,-16.14,30.948333333333334,-22.636666666666663,36.167500000000004,0.0,1782.0,-1.8200000000000003,100.0,27.353,28.554000000000002,42.717,44.362,0.0,0.0,100.0,0.0,0.0,0.0,0.0,2829.625,3182.1,4091.5555555555557,4271.1,306.41066666666666,304.59175,314.86725,314.10475,21.97275,20.6214,21.973777777777777,21.4903,314.999998,314.999998,324.999988,324.999988,99.55938571428571,99.50738333333334,99.56785714285714,99.548,0.2360000000000002,0.10633333333333339,0.014333333333333309,0.23216666666666685,-0.03833333333332689,-0.036666666666668846,1.5216666666666667,1.4480000000000004,38.33,29.884,38.336,35.314,56.108999999999995,35.272999999999996,59.7765,52.8215,54.03,34.372,58.353,51.132,53.177,33.893,58.259,50.534,-0.21150000000000002,0.05999999999999994,0.106715,0.10363000000000001,0.0,213.885,214.035,210.70333333333332,210.70333333333332,0.0,0.0
21,0.0,0.0,0.0,1.0,1.0,0.0,0.0,1.0,0.0,100.0,1.0,1.1856,26.0,0.0,0.0,0.0,62.0,0.0,26.0,26.0,26.0,26.0,0.20650000000000002,0.2795000000000001,-0.059975,292.633,-2.7453,-2.6261,-1.6798000000000002,-1.4677,-205.32999999999998,215.94,190.552,0.0,0.0,0.0,0.0,0.04249999999999998,-5.498166666666667,-5.498166666666667,-0.5812,0.477,0.08874999999999988,0.40700000000000003,68.46600000000001,0.1241000000000001,-0.228525,-2.2739999999999996,100.0,1.0,1.0,211.31666666666666,0.0,0.0,0.0,0.0,0.0,0.0,0.0,8956.9,0.0,55.0,5.0,246.45333333333335,1.0,0.0,0.0,0.0,0.0,0.0,0.0,0.0,1.0530000000000008,1.0530000000000008,0.0,0.0,1.0,55.0,616.79921,10000.0,85.000001,85.000001,85.000001,85.000001,395.0,0.0,0.0,0.0,1.0,166.665,52.124,52.124,48.355000000000004,48.355000000000004,34.0,-16.415,32.251666666666665,-19.810000000000002,34.7525,0.0,1781.955,-1.254999999999999,100.0,27.738,28.652,42.071,43.913,0.0,0.0,100.0,0.0,0.0,0.0,0.0,2911.625,3325.4,3859.4444444444443,4101.0,305.9003333333333,304.249,315.55575,314.7625,21.981,20.6266,21.982666666666667,21.4983,314.999998,314.999998,324.999988,324.999988,99.55941428571428,99.5074,99.56797142857143,99.54812857142858,0.23099999999999987,0.09233333333333338,0.0495000000000001,0.2695000000000001,-0.046666666666666856,-0.07000000000000028,1.6316666666666666,1.5520000000000005,38.381,29.9165,38.391999999999996,35.365,56.104,35.314499999999995,59.8035,52.875,54.024,34.4105,58.3785,51.1835,53.171,33.93,58.2815,50.584666666666664,-0.18299999999999994,0.025499999999999967,0.10169,0.11395500000000001,0.0,214.285,214.45,211.31666666666666,211.31666666666666,0.0,0.0
22,0.0,0.0,0.0,1.0,1.0,0.0,0.0,1.0,0.0,100.0,1.0,1.1856,26.0,0.0,0.0,0.0,62.0,0.0,26.0,26.0,26.0,26.0,0.17775,0.2674000000000001,0.0287,292.038,-2.7401999999999997,-2.618,-1.67195,-1.5102,-201.84,215.9475,190.528125,0.0,0.0,0.0,0.0,0.044533333333333314,-5.498166666666667,-5.498166666666667,-0.5581,0.129,0.09087500000000004,-0.7679999999999998,68.605,0.13729999999999998,-0.20802500000000002,-1.1639999999999997,100.0,1.0,1.0,211.50666666666666,0.0,0.0,0.0,0.0,0.0,0.0,0.0,8964.9,0.0,55.0,5.0,246.95333333333335,0.0,0.0,0.0,0.0,0.0,0.0,0.0,0.0,1.1039999999999992,1.1039999999999992,0.0,0.0,0.0,55.0,616.79921,10000.0,85.000001,85.000001,85.000001,85.000001,395.0,0.0,0.0,0.0,1.0,333.33500000000004,52.155,52.155,47.104,47.104,34.0,-19.495,27.495,-23.646666666666665,36.865,0.0,1781.903,0.27500000000000213,100.0,27.669,28.945999999999998,42.403999999999996,44.359,0.0,0.0,100.0,0.0,0.0,0.0,0.0,2928.25,3188.3,4205.444444444444,4335.0,305.999,304.44,314.713,314.0575,21.990375,20.6324,21.993111111111112,21.5076,314.999998,314.999998,324.999988,324.999988,99.55942857142857,99.5074,99.56812857142857,99.54828571428571,0.15675000000000017,0.0076666666666667105,0.025833333333333375,0.23833333333333329,-0.05666666666667197,-0.041666666666671404,1.5,1.463,38.439,29.953,38.457,35.423,56.094,35.356,59.842,52.9405,54.015,34.4495,58.414,51.247,53.16,33.9675,58.3135,50.647,-0.07350000000000001,-0.08450000000000002,0.10774,0.10010000000000001,0.0,214.755,214.845,211.50666666666666,211.50666666666666,0.0,0.0
23,0.0,0.0,0.0,1.0,1.0,0.0,0.0,1.0,0.0,100.0,1.0,1.1856,26.0,0.0,0.0,0.0,62.0,0.0,26.0,26.0,26.0,26.0,0.092625,0.2581,-0.01405,292.023,-2.7445,-2.5963000000000003,-1.5767,-1.5505,-198.32999999999998,215.95749999999998,190.504625,0.0,0.0,0.0,0.0,0.046566666666666534,-5.498166666666667,-5.498166666666667,-0.5764,-0.33299999999999996,0.0638749999999999,0.04300000000000015,68.739,0.10430000000000006,-0.234575,0.1720000000000006,100.0,1.0,1.0,212.01999999999998,0.0,0.0,0.0,0.0,0.0,0.0,0.0,8986.7,0.0,55.0,5.0,247.43666666666667,1.0,0.0,0.0,0.0,0.0,0.0,0.0,0.0,1.1550000000000011,1.1550000000000011,0.0,0.0,1.0,55.0,616.79921,10000.0,85.000001,85.000001,85.000001,85.000001,395.0,0.0,0.0,0.0,1.0,333.33500000000004,51.605000000000004,51.605000000000004,48.004,48.004,34.0,-23.96,26.205,-22.683333333333334,33.46,0.0,1781.852,0.8150000000000013,100.0,28.155,28.67,42.862,44.408,0.0,0.0,100.0,0.0,0.0,0.0,0.0,3198.0,3276.6,3912.3333333333335,4058.7,305.163,304.4625,315.255,314.751,21.999625,20.6382,22.003666666666668,21.5169,314.999998,314.999998,324.999988,324.999988,99.55944285714286,99.5074,99.56827142857144,99.54842857142857,0.1067499999999999,-0.028666666666666618,-0.01766666666666661,0.22133333333333338,-0.03833333333332689,-0.045000000000001705,1.5266666666666666,1.5179999999999998,38.498000000000005,29.988999999999997,38.522999999999996,35.481,56.082,35.396,59.8785,53.0045,54.001999999999995,34.4865,58.448,51.3085,53.146,34.003,58.344,50.70766666666667,-0.01749999999999996,-0.14200000000000013,0.10998500000000001,0.11913000000000001,0.0,215.20499999999998,215.195,212.01999999999998,212.01999999999998,0.0,0.0
24,0.0,0.0,0.0,1.0,1.0,0.0,0.0,1.0,0.0,100.0,1.0,1.1856,26.0,0.0,0.0,0.0,62.0,0.0,26.0,26.0,26.0,26.0,0.007125,0.2864,-0.110775,292.358,-2.7425,-2.6310000000000002,-1.5965500000000001,-1.5154,-195.03,215.97,190.48225,0.0,0.0,0.0,0.0,0.04846666666666655,-5.498166666666667,-5.498166666666667,-0.5778,-0.488,0.04512499999999986,0.41600000000000037,68.867,0.04730000000000012,-0.217225,0.9379999999999997,100.0,1.0,1.0,212.33333333333331,0.0,0.0,0.0,0.0,0.0,0.0,0.0,9000.1,0.0,55.0,5.0,247.89333333333335,0.0,0.0,0.0,0.0,0.0,0.0,0.0,0.0,1.2029999999999994,1.2029999999999994,0.0,0.0,0.0,55.0,616.79921,10000.0,85.000001,85.000001,85.000001,85.000001,395.0,0.0,0.0,0.0,1.0,333.33500000000004,52.872,52.872,47.073,47.073,34.0,-22.785,22.06833333333333,-29.253333333333334,29.75,0.0,1781.803,1.004999999999999,100.0,28.019,28.267,43.091,44.04,0.0,0.0,100.0,0.0,0.0,0.0,0.0,2848.0,3002.6,4285.555555555556,4134.5,306.149,305.3255,314.37675,314.6665,22.008499999999998,20.6435,22.013444444444445,21.5255,314.999998,314.999998,324.999988,324.999988,99.55945714285714,99.50741666666667,99.5684,99.54857142857144,0.06075000000000008,-0.07533333333333336,-0.08133333333333337,0.14416666666666678,-0.046666666666666856,-0.03833333333332689,1.495,1.5179999999999998,38.553,30.0215,38.584,35.535,56.067,35.432,59.9135,53.0615,53.989000000000004,34.519999999999996,58.480000000000004,51.3635,53.132,34.0355,58.3735,50.76133333333333,0.0,-0.15850000000000009,0.106315,0.11096,0.0,215.635,215.56,212.33333333333331,212.33333333333331,0.0,0.0
25,0.0,0.0,0.0,1.0,1.0,0.0,0.0,1.0,0.0,100.0,1.0,1.1856,26.0,0.0,0.0,0.0,62.0,0.0,26.0,26.0,26.0,26.0,-0.076125,0.26580000000000004,-0.06965,292.267,-2.7646,-2.6358,-1.5738500000000002,-1.5524,-191.31,215.98250000000002,190.455375,0.0,0.0,0.0,0.0,0.05063333333333331,-5.498166666666667,-5.498166666666667,-0.6133000000000001,0.03400000000000003,0.007500000000000062,-0.8440000000000003,69.007,-0.01959999999999995,-0.225725,1.5,100.0,1.0,1.0,212.90333333333334,0.0,0.0,0.0,0.0,0.0,0.0,0.0,9024.3,0.0,55.0,5.0,248.39666666666665,1.0,0.0,0.0,0.0,0.0,0.0,0.0,0.0,1.256999999999998,1.256999999999998,0.0,0.0,1.0,55.0,616.79921,10000.0,85.000001,85.000001,85.000001,85.000001,395.0,0.0,0.0,0.0,1.0,166.665,51.757999999999996,51.757999999999996,47.958,47.958,34.0,-28.6225,22.91166666666667,-28.986666666666665,25.515,0.0,1781.751,1.0350000000000001,100.0,28.227,28.204,43.119,43.375,0.0,0.0,100.0,0.0,0.0,0.0,0.0,3258.75,3306.8,3986.777777777778,3965.6000000000004,305.0396666666667,304.41675,315.191,315.0685,22.018375,20.6494,22.024444444444445,21.5351,314.999998,314.999998,324.999988,324.999988,99.55945714285714,99.50743333333334,99.56855714285714,99.54874285714286,0.017749999999999932,-0.1143333333333334,-0.13883333333333336,0.08400000000000007,-0.060000000000002274,-0.04999999999999716,1.5526666666666666,1.601,38.614999999999995,30.058999999999997,38.653,35.594,56.049,35.4765,59.9505,53.122,53.971000000000004,34.561,58.5145,51.422,53.113,34.075,58.4045,50.818666666666665,0.0040000000000000036,-0.16149999999999998,0.100955,0.11067500000000001,0.0,216.10000000000002,215.96,212.90333333333334,212.90333333333334,0.0,0.0
26,0.0,0.0,0.0,1.0,1.0,0.0,0.0,1.0,0.0,100.0,1.0,1.1856,26.0,0.0,0.0,0.0,62.0,0.0,26.0,26.0,26.0,26.0,-0.12762500000000002,0.27970000000000006,0.07037500000000001,291.153,-2.6696999999999997,-2.7603,-1.585,-1.5831,-187.99,215.9925,190.431125,0.0,0.0,0.0,0.0,0.05256666666666654,-5.498166666666667,-5.498166666666667,-0.5713,0.828,-0.05062500000000014,-0.03699999999999992,69.135,-0.06829999999999992,-0.195475,1.6340000000000003,100.0,1.0,1.0,213.0366666666667,0.0,0.0,0.0,0.0,0.0,0.0,0.0,9029.8,0.0,55.0,5.0,248.86,0.0,0.0,0.0,0.0,0.0,0.0,0.0,0.0,1.3049999999999997,1.3049999999999997,0.0,0.0,0.0,55.0,616.79921,10000.0,85.000001,85.000001,85.000001,85.000001,395.0,0.0,0.0,0.0,1.0,333.33500000000004,51.346000000000004,51.346000000000004,46.234,46.234,34.0,-28.5575,21.060000000000002,-38.14666666666667,26.39,0.0,1781.702,0.8249999999999993,100.0,29.346,28.497,44.035,43.362,0.0,0.0,100.0,0.0,0.0,0.0,0.0,3243.875,3081.6,4603.444444444444,4405.6,304.925,304.9745,313.721,314.057,22.0275,20.6548,22.034444444444446,21.5437,314.999998,314.999998,324.999988,324.999988,99.55947142857143,99.50745,99.56871428571428,99.54887142857143,0.0007500000000000284,-0.14600000000000002,-0.18799999999999994,0.022666666666666613,-0.03166666666666629,-0.054999999999999716,1.4276666666666666,1.487,38.672,30.0925,38.715,35.647999999999996,56.036,35.5195,59.99,53.1785,53.959,34.6005,58.5515,51.4765,53.101,34.113,58.4385,50.87166666666667,-0.019000000000000017,-0.14850000000000008,0.10752500000000001,0.10348,0.0,216.53,216.4,213.0366666666667,213.0366666666667,0.0,0.0
27,0.0,0.0,0.0,1.0,1.0,0.0,0.0,1.0,0.0,100.0,1.0,1.1856,26.0,0.0,0.0,0.0,62.0,0.0,26.0,26.0,26.0,26.0,-0.151125,0.25060000000000016,-0.0175,291.519,-2.6103,-2.7508,-1.55585,-1.6754,-184.67000000000002,216.0025,190.408,0.0,0.0,0.0,0.0,0.05449999999999999,-5.498166666666667,-5.498166666666667,-0.5965,-1.1235,-0.07275000000000009,0.5010000000000003,69.26,-0.09249999999999992,-0.2427,1.5020000000000007,100.0,1.0,1.0,213.51,0.0,0.0,0.0,0.0,0.0,0.0,0.0,9049.8,0.0,55.0,5.0,249.31,1.0,0.0,0.0,0.0,0.0,0.0,0.0,0.0,1.352999999999998,1.352999999999998,0.0,0.0,1.0,55.0,616.79921,10000.0,85.000001,85.000001,85.000001,85.000001,395.0,0.0,0.0,0.0,1.0,333.33500000000004,51.682,51.682,46.646,46.646,34.0,-28.8925,19.79,-34.696666666666665,23.8975,0.0,1781.654,0.7650000000000006,100.0,29.205,28.124,45.015,43.725,0.0,0.0,100.0,0.0,0.0,0.0,0.0,3233.375,3052.5,4183.333333333333,4036.2,304.9506666666667,305.21175,314.62925,314.81325,22.0365,20.6598,22.044555555555554,21.5525,314.999998,314.999998,324.999988,324.999988,99.55947142857143,99.50746666666667,99.56884285714285,99.54901428571429,-0.02200000000000002,-0.16466666666666663,-0.21033333333333337,0.0013333333333334085,-0.041666666666671404,-0.045000000000001705,1.4683333333333333,1.5330000000000004,38.727999999999994,30.124000000000002,38.778999999999996,35.703,56.022,35.56,60.031,53.2355,53.946,34.638,58.59,51.531,53.086,34.1485,58.474000000000004,50.925,-0.018000000000000016,-0.13800000000000012,0.10799,0.101675,0.0,216.85500000000002,216.715,213.51,213.51,0.0,0.0
28,0.0,0.0,0.0,1.0,1.0,0.0,0.0,1.0,0.0,100.0,1.0,1.1856,26.0,0.0,0.0,0.0,62.0,0.0,26.0,26.0,26.0,26.0,-0.143375,0.26900000000000013,-0.039825,291.855,-2.6341,-2.74,-1.5018,-1.6409,-181.13,216.005,190.382625,0.0,0.0,0.0,0.0,0.05656666666666654,-5.498166666666667,-5.498166666666667,-0.6014,0.6639999999999999,-0.08437500000000009,-0.5819999999999999,69.389,-0.1099,-0.21695,1.5,100.0,1.0,1.0,214.02666666666667,0.0,0.0,0.0,0.0,0.0,0.0,0.0,9071.8,0.0,55.0,5.0,249.77333333333334,0.0,0.0,0.0,0.0,0.0,0.0,0.0,0.0,1.404,1.404,0.0,0.0,0.0,55.0,616.79921,10000.0,85.000001,85.000001,85.000001,85.000001,395.0,0.0,0.0,0.0,1.0,333.33500000000004,51.743,51.743,47.485,47.485,34.0,-30.807499999999997,18.30833333333333,-34.95666666666666,22.817500000000003,0.0,1781.602,0.5350000000000001,100.0,29.2,28.095,44.293,43.094,0.0,0.0,100.0,0.0,0.0,0.0,0.0,3385.25,2902.8,4181.555555555556,4042.9,304.712,305.46225,314.757,314.8935,22.046125,20.6653,22.055,21.5615,314.999998,314.999998,324.999988,324.999988,99.55948571428571,99.50748333333334,99.569,99.54915714285714,-0.030750000000000055,-0.17599999999999993,-0.24016666666666664,-0.00649999999999995,-0.054999999999999716,-0.04999999999999716,1.5236666666666667,1.5730000000000004,38.789,30.158,38.843,35.759,56.009,35.604,60.067,53.291,53.934,34.6785,58.624,51.584,53.073,34.187,58.504999999999995,50.976333333333336,-0.04499999999999993,-0.12549999999999994,0.10441500000000001,0.10771000000000001,0.0,217.3,217.17000000000002,214.02666666666667,214.02666666666667,0.0,0.0
29,0.0,0.0,0.0,1.0,1.0,0.0,0.0,1.0,0.0,100.0,1.0,1.1856,26.0,0.0,0.0,0.0,62.0,0.0,26.0,26.0,26.0,26.0,-0.1705,0.2591000000000001,0.006200000000000001,291.428,-2.5689,-2.8038,-1.53465,-1.6224,-177.59,216.0075,190.35625,0.0,0.0,0.0,0.0,0.058633333333333315,-5.498166666666667,-5.498166666666667,-0.6065,-0.78,-0.08287500000000003,0.7039999999999997,69.523,-0.11249999999999993,-0.2189,1.1460000000000008,100.0,1.0,1.0,214.26999999999998,0.0,0.0,0.0,0.0,0.0,0.0,0.0,9082.1,0.0,55.0,5.0,250.25666666666666,1.0,0.0,0.0,0.0,0.0,0.0,0.0,0.0,1.4549999999999983,1.4549999999999983,0.0,0.0,1.0,55.0,616.79921,10000.0,85.000001,85.000001,85.000001,85.000001,395.0,0.0,0.0,0.0,1.0,166.665,51.605000000000004,51.605000000000004,46.494,46.494,34.0,-29.4225,20.81833333333333,-35.86,24.415,0.0,1781.553,0.41499999999999915,100.0,29.07,27.78,44.868,43.244,0.0,0.0,100.0,0.0,0.0,0.0,0.0,3317.5,3113.4,4280.555555555556,4192.5,304.72066666666666,304.87725,314.35625,314.50775,22.055625,20.6707,22.065666666666665,21.5707,314.999998,314.999998,324.999988,324.999988,99.55948571428571,99.5075,99.56915714285714,99.54931428571429,-0.023499999999999854,-0.16633333333333333,-0.21799999999999997,0.0030000000000001137,-0.03166666666666629,-0.04333333333332945,1.4656666666666665,1.4930000000000003,38.848,30.191499999999998,38.91,35.817,55.992999999999995,35.6465,60.1095,53.3505,53.919,34.718,58.664,51.6415,53.058,34.225,58.5415,51.032333333333334,-0.046499999999999986,-0.11050000000000004,0.09853,0.10772500000000002,0.0,217.66,217.54500000000002,214.26999999999998,214.26999999999998,0.0,0.0
30,0.0,0.0,0.0,1.0,1.0,0.0,0.0,1.0,0.0,100.0,1.0,1.1856,26.0,0.0,0.0,0.0,62.0,0.0,26.0,26.0,26.0,26.0,-0.165125,0.27980000000000005,0.05095,291.0,-2.6231999999999998,-2.6944,-1.47475,-1.7009,-174.25,216.005,190.33125,0.0,0.0,0.0,0.0,0.060566666666666547,-5.498166666666667,-5.498166666666667,-0.6045,0.823,-0.08574999999999999,0.7130000000000001,69.645,-0.10559999999999992,-0.21865,1.0,100.0,1.0,1.0,214.68333333333334,0.0,0.0,0.0,0.0,0.0,0.0,0.0,9099.7,0.0,55.0,5.0,250.69666666666666,0.0,0.0,0.0,0.0,0.0,0.0,1.0,0.0,1.5030000000000001,1.5030000000000001,0.0,0.0,0.0,55.0,616.79921,10000.0,85.000001,85.000001,85.000001,85.000001,395.0,0.0,0.0,0.0,1.0,333.33500000000004,50.812,50.812,46.814,46.814,34.0,-30.3325,19.96666666666667,-35.18666666666667,26.375,0.0,1781.504,0.245000000000001,100.0,29.925,28.451999999999998,44.696,43.227000000000004,0.0,0.0,100.0,0.0,0.0,0.0,0.0,3441.125,3073.1,4327.0,4248.5,304.33,305.05075,314.34725,314.31825,22.064875,20.676,22.075444444444443,21.5793,314.999998,314.999998,324.999988,324.999988,99.55948571428571,99.50751666666666,99.5693,99.54944285714285,-0.003249999999999975,-0.15433333333333332,-0.21666666666666656,0.010666666666666602,-0.03333333333333144,-0.06833333333332803,1.4773333333333334,1.516,38.905,30.225,38.972,35.871,55.983000000000004,35.69,60.1455,53.405,53.909,34.7575,58.6975,51.6935,53.047,34.263,58.5725,51.083,-0.06899999999999995,-0.10650000000000004,0.10603000000000001,0.110505,0.0,218.06,217.995,214.68333333333334,214.68333333333334,0.0,0.0
31,0.0,0.0,0.0,1.0,1.0,0.0,0.0,1.0,0.0,100.0,1.0,1.1856,26.0,0.0,0.0,0.0,62.0,0.0,26.0,26.0,26.0,26.0,-0.1235,0.25570000000000004,-0.00645,291.016,-2.6971,-2.7640000000000002,-1.5626,-1.6713,-170.7,215.9975,190.3055,0.0,0.0,0.0,0.0,0.06263333333333332,-5.498166666666667,-5.498166666666667,-0.5893,-0.5880000000000001,-0.07737499999999997,-0.7149999999999999,69.777,-0.08879999999999999,-0.21957500000000002,0.5839999999999996,100.0,1.0,1.0,214.99333333333334,0.0,0.0,0.0,0.0,0.0,0.0,0.0,9112.8,0.0,55.0,5.0,251.17000000000002,1.0,0.0,0.0,0.0,0.0,0.0,1.0,0.0,1.5539999999999985,1.5539999999999985,0.0,0.0,1.0,55.0,616.79921,10000.0,85.000001,85.000001,85.000001,85.000001,395.0,0.0,0.0,0.0,1.0,166.665,51.559,51.559,45.441,45.441,34.0,-28.265,20.086666666666666,-37.99333333333333,26.5825,0.0,1781.454,0.17999999999999972,100.0,29.43,28.674,45.233000000000004,43.918,0.0,0.0,100.0,0.0,0.0,0.0,0.0,3233.125,2949.4,4512.444444444444,4226.2,305.284,305.27175,313.9585,314.4455,22.074375,20.6816,22.086222222222222,21.5887,314.999998,314.999998,324.999988,324.999988,99.5595,99.50753333333333,99.56945714285715,99.54958571428571,0.0009999999999998899,-0.14800000000000002,-0.20899999999999996,0.023666666666666725,-0.041666666666671404,-0.04333333333332945,1.4476666666666667,1.4720000000000004,38.965,30.2595,39.039,35.929,55.967,35.7335,60.189,53.466,53.894,34.798,58.7385,51.752,53.031,34.3015,58.61,51.14033333333333,-0.07850000000000001,-0.09600000000000009,0.108325,0.10554500000000001,0.0,218.425,218.375,214.99333333333334,214.99333333333334,0.0,0.0
32,0.0,0.0,0.0,1.0,1.0,0.0,0.0,1.0,0.0,100.0,1.0,1.1856,26.0,0.0,0.0,0.0,62.0,0.0,26.0,26.0,26.0,26.0,-0.123,0.26160000000000005,-0.0463,291.321,-2.6464,-2.7092,-1.58775,-1.577,-167.13,215.9875,190.279875,0.0,0.0,0.0,0.0,0.06469999999999998,-5.498166666666667,-5.498166666666667,-0.6106,0.1895,-0.09925000000000006,0.2610000000000001,69.903,-0.07050000000000001,-0.231875,0.5360000000000005,100.0,1.0,1.0,215.56333333333333,0.0,0.0,0.0,0.0,0.0,0.0,0.0,9136.9,0.0,55.0,5.0,251.62666666666667,0.0,0.0,0.0,0.0,0.0,0.0,1.0,0.0,1.6050000000000004,1.6050000000000004,0.0,0.0,0.0,55.0,616.79921,10000.0,85.000001,85.000001,85.000001,85.000001,395.0,0.0,0.0,0.0,1.0,333.33500000000004,51.132,51.132,46.783,46.783,34.0,-28.195,21.723333333333333,-32.876666666666665,25.2375,0.0,1781.401,0.11500000000000199,100.0,29.571,28.563,44.83,43.623000000000005,0.0,0.0,100.0,0.0,0.0,0.0,0.0,3330.0,3108.5,4208.0,4104.2,304.7273333333333,305.00375,314.75525,314.8765,22.083875,20.6872,22.096666666666668,21.5978,314.999998,314.999998,324.999988,324.999988,99.5595,99.50756666666666,99.56961428571428,99.54974285714286,0.022250000000000103,-0.122,-0.1728333333333334,0.04966666666666675,-0.03999999999999915,-0.054999999999999716,1.535,1.553,39.024,30.295,39.104,35.986,55.952,35.7795,60.228,53.525999999999996,53.879999999999995,34.841,58.775,51.81,53.016,34.3425,58.6435,51.196333333333335,-0.07299999999999995,-0.09650000000000003,0.10394500000000001,0.10754000000000001,0.0,218.84,218.775,215.56333333333333,215.56333333333333,0.0,0.0
33,0.0,0.0,0.0,1.0,1.0,0.0,0.0,1.0,0.0,100.0,1.0,1.1856,26.0,0.0,0.0,0.0,62.0,0.0,26.0,26.0,26.0,26.0,-0.085875,0.26239999999999997,-0.032625,291.412,-2.6443,-2.7595,-1.5531000000000001,-1.5912000000000002,-163.78,215.97750000000002,190.25475,0.0,0.0,0.0,0.0,0.06663333333333332,-5.498166666666667,-5.498166666666667,-0.6105,-0.33550000000000013,-0.08587500000000015,1.4020000000000001,70.026,-0.057699999999999974,-0.21530000000000002,0.35600000000000076,100.0,1.0,1.0,215.81,0.0,0.0,0.0,0.0,0.0,0.0,0.0,9147.4,0.0,55.0,5.0,252.07,1.0,0.0,0.0,0.0,0.0,0.0,1.0,0.0,1.6529999999999987,1.6529999999999987,0.0,0.0,1.0,55.0,616.79921,10000.0,85.000001,85.000001,85.000001,85.000001,395.0,0.0,0.0,0.0,1.0,333.33500000000004,51.879999999999995,51.879999999999995,46.417,46.417,34.0,-25.71,21.9,-33.77666666666667,27.085,0.0,1781.354,-0.03500000000000014,100.0,29.282,28.222,44.814,43.699,0.0,0.0,100.0,0.0,0.0,0.0,0.0,3155.375,3013.7,4319.777777777777,4284.8,305.30033333333336,305.30275,314.38525,314.355,22.092875,20.6923,22.106555555555556,21.6065,314.999998,314.999998,324.999988,324.999988,99.5595,99.50758333333333,99.56974285714286,99.54988571428571,0.03825000000000012,-0.1103333333333334,-0.16933333333333334,0.04816666666666669,-0.030000000000001137,-0.06666666666666998,1.467,1.487,39.08,30.326999999999998,39.166,36.041,55.939,35.814499999999995,60.2625,53.578,53.867000000000004,34.873,58.807,51.8595,53.003,34.3735,58.673,51.245,-0.08299999999999996,-0.08099999999999996,0.11064,0.09745500000000001,0.0,219.195,219.17000000000002,215.81,215.81,0.0,0.0
34,0.0,0.0,0.0,1.0,1.0,0.0,0.0,1.0,0.0,100.0,1.0,1.1856,26.0,0.0,0.0,0.0,62.0,0.0,26.0,26.0,26.0,26.0,-0.06525,0.24219999999999997,-0.040675,291.87,-2.669,-2.7373000000000003,-1.59595,-1.605,-159.99,215.9625,190.22525,0.0,0.0,0.0,0.0,0.0688333333333333,-5.498166666666667,-5.498166666666667,-0.6445000000000001,-0.786,-0.04637499999999983,1.1560000000000006,70.162,-0.04379999999999995,-0.22575,0.2599999999999998,100.0,1.0,1.0,216.3,0.0,0.0,0.0,0.0,0.0,0.0,0.0,9168.1,0.0,55.0,5.0,252.55666666666667,0.0,0.0,0.0,0.0,0.0,0.0,1.0,0.0,1.7070000000000007,1.7070000000000007,0.0,0.0,0.0,55.0,616.79921,10000.0,85.000001,85.000001,85.000001,85.000001,395.0,0.0,0.0,0.0,1.0,166.665,52.216,52.216,47.409,47.409,34.0,-24.6275,22.748333333333335,-31.043333333333333,27.6925,0.0,1781.301,-0.07499999999999929,100.0,28.927,27.882,44.391999999999996,43.766999999999996,0.0,0.0,100.0,0.0,0.0,0.0,0.0,3063.25,3029.5,4060.222222222222,4163.5,305.404,305.23525,315.03325,314.59125,22.10275,20.6981,22.117555555555555,21.6163,314.999998,314.999998,324.999988,324.999988,99.5595,99.50758333333333,99.56991428571429,99.55002857142857,0.053999999999999826,-0.08866666666666656,-0.15800000000000003,0.07483333333333331,-0.04833333333333201,-0.04833333333333201,1.523,1.5280000000000005,39.141999999999996,30.363,39.235,36.102000000000004,55.922,35.856,60.3,53.6405,53.851,34.911,58.842,51.9195,52.986000000000004,34.41,58.704499999999996,51.303,-0.08699999999999997,-0.07400000000000007,0.10952,0.10653000000000001,0.0,219.60000000000002,219.565,216.3,216.3,0.0,0.0
35,0.0,0.0,0.0,1.0,1.0,0.0,0.0,1.0,0.0,100.0,1.0,1.1856,26.0,0.0,0.0,0.0,62.0,0.0,26.0,26.0,26.0,26.0,-0.05375,0.2583,-0.03735,291.809,-2.7251,-2.6878,-1.5648,-1.6143,-156.62,215.9475,190.197,0.0,0.0,0.0,0.0,0.07079999999999997,-5.498166666666667,-5.498166666666667,-0.6861,-0.504,-0.052999999999999936,-0.054999999999999716,70.281,-0.03149999999999997,-0.23117500000000002,0.09600000000000009,100.0,1.0,1.0,216.7266666666667,0.0,0.0,0.0,0.0,0.0,0.0,0.0,9186.3,0.0,55.0,5.0,252.98666666666668,1.0,0.0,0.0,0.0,0.0,0.0,1.0,0.0,1.754999999999999,1.754999999999999,0.0,0.0,1.0,55.0,616.79921,10000.0,85.000001,85.000001,85.000001,85.000001,395.0,0.0,0.0,0.0,1.0,333.33500000000004,51.635999999999996,51.635999999999996,47.012,47.012,34.0,-26.22,25.384999999999998,-28.99,26.96,0.0,1781.252,-0.06500000000000128,100.0,28.657,28.251,44.119,43.403999999999996,0.0,0.0,100.0,0.0,0.0,0.0,0.0,3235.25,3333.8,4045.222222222222,3951.4,305.1956666666667,304.3565,314.998,315.10325,22.11125,20.7034,22.127333333333333,21.6249,314.999998,314.999998,324.999988,324.999988,99.55951428571429,99.5076,99.57004285714285,99.55018571428572,0.05750000000000011,-0.07733333333333337,-0.1286666666666666,0.09383333333333321,-0.046666666666666856,-0.05666666666667197,1.5596666666666668,1.5499999999999998,39.196,30.3965,39.296,36.155,55.906,35.8935,60.332499999999996,53.692,53.836,34.946,58.8725,51.9695,52.97,34.4435,58.732,51.35166666666667,-0.08950000000000002,-0.07250000000000001,0.101065,0.11198000000000001,0.0,219.95499999999998,219.945,216.7266666666667,216.7266666666667,0.0,0.0
