,ABS Active,ABS Enabled,AID Allow Tire Blankets,AID Auto Blip,AID Auto Clutch,AID Auto Shift,AID Fuel Rate,AID Ideal Line,AID Mech Damage,AID Stability,AID Tire Wear Rate,Air Density,Air Temp,Ballast,Best Lap Delta,Best Lap Time,Brake Bias,Brake Pos,Brake Temp FL,Brake Temp FR,Brake Temp RL,Brake Temp RR,CG Accel Lateral,CG Accel Longitudinal,CG Accel Vertical,CG Height,Camber FL,Camber FR,Camber RL,Camber RR,Car Coord X,Car Coord Y,Car Coord Z,Car Damage Front,Car Damage Left,Car Damage Rear,Car Damage Right,Car Pos Norm,Caster FL,Caster FR,Chassis Pitch Angle,Chassis Pitch Rate,Chassis Roll Angle,Chassis Roll Rate,Chassis Velocity X,Chassis Velocity Y,Chassis Velocity Z,Chassis Yaw Rate,Clutch Pos,DRS Active,DRS Available,Drive Train Speed,ERS Heat Charging,ERS Is Charging,ERS Max Energy,ERS Power Level,ERS Recovery Level,Engine Brake Setting,Engine Limiter,Engine RPM,Flags,Fuel Level,Gear,Ground Speed,HR Sample Clock,In Pit,KERS Charge,KERS Deployed Energy,KERS Input,KERS Max Energy,LR Sample Clock,Lap Invalidated,Lap Time,Lap Time2,Last Lap Time,Last Sector Time,MR Sample Clock,Max Fuel,Max Power,Max RPM,Max Sus Travel FL,Max Sus Travel FR,Max Sus Travel RL,Max Sus Travel RR,Max Torque,Max Turbo Boost,Num Tires Off Track,Penalties Enabled,Position,Raw Data Sample Rate,Ride Height FL,Ride Height FR,Ride Height RL,Ride Height RR,Road Temp,Self Align Torque FL,Self Align Torque FR,Self Align Torque RL,Self Align Torque RR,Session Lap Count,Session Time Left,Steering Angle,Surface Grip,Suspension Travel FL,Suspension Travel FR,Suspension Travel RL,Suspension Travel RR,TC Active,TC Enabled,Throttle Pos,Tire Dirt Level FL,Tire Dirt Level FR,Tire Dirt Level RL,Tire Dirt Level RR,Tire Load FL,Tire Load FR,Tire Load RL,Tire Load RR,Tire Loaded Radius FL,Tire Loaded Radius FR,Tire Loaded Radius RL,Tire Loaded Radius RR,Tire Pressure FL,Tire Pressure FR,Tire Pressure RL,Tire Pressure RR,Tire Radius FL,Tire Radius FR,Tire Radius RL,Tire Radius RR,Tire Rubber Grip FL,Tire Rubber Grip FR,Tire Rubber Grip RL,Tire Rubber Grip RR,Tire Slip Angle FL,Tire Slip Angle FR,Tire Slip Angle RL,Tire Slip Angle RR,Tire Slip Ratio FL,Tire Slip Ratio FR,Tire Slip Ratio RL,Tire Slip Ratio RR,Tire Temp Core FL,Tire Temp Core FR,Tire Temp Core RL,Tire Temp Core RR,Tire Temp Inner FL,Tire Temp Inner FR,Tire Temp Inner RL,Tire Temp Inner RR,Tire Temp Middle FL,Tire Temp Middle FR,Tire Temp Middle RL,Tire Temp Middle RR,Tire Temp Outer FL,Tire Temp Outer FR,Tire Temp Outer RL,Tire Temp Outer RR,Toe In FL,Toe In FR,Toe In RL,Toe In RR,Turbo Boost,Wheel Angular Speed FL,Wheel Angular Speed FR,Wheel Angular Speed RL,Wheel Angular Speed RR,Wind Direction,Wind Speed
0,0.0,0.0,0.0,1.0,1.0,0.0,0.0,1.0,0.0,100.0,1.0,1.1856,26.0,0.0,0.0,0.0,62.0,0.0,26.0,26.0,26.0,26.0,-0.023333333333333317,0.2864,0.09455000000000001,293.32,-2.7904999999999998,-2.6242222222222225,-1.5575,-1.5097,-275.7,215.5225,190.987625,0.0,0.0,0.0,0.0,0.0015666666666666667,-5.498166666666667,-5.498166666666667,-0.5601,1.7523333333333335,0.0005555555555556424,0.20000000000000018,65.507,-0.030600000000000002,-0.219975,0.12600000000000033,100.0,1.0,1.0,202.23666666666668,0.0,0.0,0.0,0.0,0.0,0.0,0.0,8572.0,0.0,55.0,5.0,235.79666666666668,0.0,0.0,0.0,0.0,0.0,0.0,0.0,0.0,0.0030000000000001137,0.0030000000000001137,0.0,0.0,0.0,55.0,616.79921,10000.0,85.0,85.0,85.0,85.0,395.0,0.0,0.0,0.0,1.0,20.0,51.132,51.132,48.95,48.95,34.0,-28.71,32.88,-28.6275,26.5775,0.0,1782.976,0.3000000000000007,100.0,27.262,27.032,40.438,40.055,0.0,0.0,100.0,0.0,0.0,0.0,0.0,3286.4285714285716,4268.8,4030.375,4135.6,304.733,301.6325,315.033,314.59125,21.75725,20.5123,21.7742,21.3047,314.99999,314.99999,324.99998,324.99998,99.55785714285715,99.50715,99.56548571428571,99.54491428571428,0.03000000000000025,-0.07224999999999993,-0.13183333333333336,0.08866666666666667,-0.046666666666666856,-0.061666666666667425,1.572,1.556,36.983000000000004,29.201999999999998,37.089,34.1545,55.945,34.4215,59.1525,51.501,53.896,33.6345,57.786500000000004,49.874,53.088,33.238,57.760999999999996,49.31133333333334,-0.059499999999999886,-0.08950000000000014,0.09644000000000001,0.11491000000000001,0.0,205.275,205.215,202.23666666666668,202.23666666666668,0.0,0.0
1,0.0,0.0,0.0,1.0,1.0,0.0,0.0,1.0,0.0,100.0,1.0,1.1856,26.0,0.0,0.0,0.0,62.0,0.0,26.0,26.0,26.0,26.0,-0.06122222222222218,0.3417000000000001,0.216625,292.313,-2.6907,-2.701,-1.5972,-1.3758,-272.35,215.535,190.967625,0.0,0.0,0.0,0.0,0.0035333333333333336,-5.498166666666667,-5.498166666666667,-0.4748,-1.3286666666666664,-0.048555555555555685,-0.29499999999999993,65.666,-0.029,-0.174775,0.6760000000000002,100.0,1.0,1.0,202.14666666666668,0.0,0.0,0.0,0.0,0.0,0.0,0.0,8568.3,0.0,55.0,5.0,236.36333333333334,1.0,0.0,0.0,0.0,0.0,0.0,0.0,0.0,0.053999999999998494,0.053999999999998494,0.0,0.0,1.0,55.0,616.79921,10000.0,85.000001,85.000001,85.000001,85.000001,395.0,0.0,0.0,0.0,1.0,166.665,54.214,54.214,47.241,47.241,34.0,-23.615,16.906,-39.0125,34.587500000000006,0.0,1782.925,0.3949999999999996,100.0,27.469,27.183,42.388,42.748000000000005,0.0,0.0,100.0,0.0,0.0,0.0,0.0,2865.714285714286,2454.4,4817.5,5423.8,306.1295,306.985,312.958,311.067,21.767,20.5174,21.7851,21.314,314.999998,314.999998,324.999988,324.999988,99.55787142857143,99.50716666666666,99.56564285714286,99.54505714285715,0.027000000000000135,-0.10624999999999996,-0.14883333333333337,0.07050000000000001,-0.03833333333332689,-0.02833333333332888,1.283,1.314,37.044,29.2335,37.157,34.2125,55.928,34.46,59.2,51.570499999999996,53.881,33.67,57.831,49.941,53.071,33.2725,57.8025,49.376999999999995,-0.047499999999999876,-0.10150000000000015,0.10529500000000001,0.11744500000000001,0.0,205.70499999999998,205.66500000000002,202.14666666666668,202.14666666666668,0.0,0.0
2,0.0,0.0,0.0,1.0,1.0,0.0,0.0,1.0,0.0,100.0,1.0,1.1856,26.0,0.0,0.0,0.0,62.0,0.0,26.0,26.0,26.0,26.0,-0.10722222222222211,0.2853000000000001,-0.10215,293.884,-2.6614,-2.659666666666667,-1.5683,-1.5179,-269.0,215.54250000000002,190.94875,0.0,0.0,0.0,0.0,0.0054666666666666665,-5.498166666666667,-5.498166666666667,-0.5780000000000001,0.47266666666666657,-0.010555555555555873,2.497,65.8,-0.034800000000000005,-0.274,0.8160000000000007,100.0,1.0,1.0,203.55333333333334,0.0,0.0,0.0,0.0,0.0,0.0,0.0,8627.8,0.0,55.0,5.0,236.85333333333335,0.0,0.0,0.0,0.0,0.0,0.0,0.0,0.0,0.10500000000000043,0.10500000000000043,0.0,0.0,0.0,55.0,616.79921,10000.0,85.000001,85.000001,85.000001,85.000001,395.0,0.0,0.0,0.0,1.0,166.665,51.894999999999996,51.894999999999996,50.751,50.751,34.0,-28.545,22.362000000000002,-25.2175,18.8625,0.0,1782.875,0.5500000000000007,100.0,28.231,27.372,41.937,41.677,0.0,0.0,100.0,0.0,0.0,0.0,0.0,3291.857142857143,3202.4,3482.25,3387.6,304.64,304.58175,316.33475,316.5035,21.777,20.5225,21.7954,21.322499999999998,314.999998,314.999998,324.999988,324.999988,99.55788571428572,99.50718333333333,99.56578571428571,99.54518571428571,0.010000000000000231,-0.11475000000000002,-0.1775,0.056666666666666865,-0.07833333333332604,-0.05833333333333002,1.77,1.7920000000000003,37.105999999999995,29.266,37.221000000000004,34.2655,55.916,34.5,59.235,51.621,53.869,33.7065,57.863,49.9895,53.058,33.307,57.832,49.425,-0.03249999999999997,-0.11850000000000005,0.10616500000000001,0.109045,0.0,206.175,206.06,203.55333333333334,203.55333333333334,0.0,0.0
3,0.0,0.0,0.0,1.0,1.0,0.0,0.0,1.0,0.0,100.0,1.0,1.1856,26.0,0.0,0.0,0.0,62.0,0.0,26.0,26.0,26.0,26.0,-0.0892222222222222,0.3135000000000001,0.17322500000000002,293.045,-2.6592000000000002,-2.687222222222222,-1.5468000000000002,-1.4841,-265.84,215.55,190.929625,0.0,0.0,0.0,0.0,0.0073,-5.498166666666667,-5.498166666666667,-0.503,0.615,0.004222222222222127,-1.2879999999999998,65.949,-0.0473,-0.18575,0.7479999999999993,100.0,1.0,1.0,203.35,0.0,0.0,0.0,0.0,0.0,0.0,0.0,8619.2,0.0,55.0,5.0,237.38666666666666,1.0,0.0,0.0,0.0,0.0,0.0,0.0,0.0,0.1529999999999987,0.1529999999999987,0.0,0.0,1.0,55.0,616.79921,10000.0,85.000001,85.000001,85.000001,85.000001,395.0,0.0,0.0,0.0,1.0,333.33500000000004,53.314,53.314,47.623,47.623,34.0,-23.91,20.189999999999998,-34.6625,26.8925,0.0,1782.825,0.7050000000000018,100.0,27.832,27.39,42.057,41.958,0.0,0.0,100.0,0.0,0.0,0.0,0.0,2855.4285714285716,2958.7,4483.875,4381.8,306.201,305.3945,313.896,313.89725,21.786125,20.5275,21.8053,21.3309,314.999998,314.999998,324.999988,324.999988,99.55788571428572,99.5072,99.56591428571429,99.54532857142857,0.008750000000000036,-0.12449999999999994,-0.15916666666666657,0.05833333333333335,-0.036666666666668846,-0.06333333333333258,1.4435,1.4700000000000002,37.163,29.297,37.283,34.318,55.899,34.5405,59.2715,51.6835,53.852999999999994,33.744,57.8975,50.0495,53.042,33.343,57.8635,49.483666666666664,-0.026499999999999968,-0.12650000000000006,0.11181,0.10656500000000001,0.0,206.64,206.57,203.35000000000002,203.35,0.0,0.0
4,0.0,0.0,0.0,1.0,1.0,0.0,0.0,1.0,0.0,100.0,1.0,1.1856,26.0,0.0,0.0,0.0,62.0,0.0,26.0,26.0,26.0,26.0,-0.08799999999999997,0.2772000000000001,0.005725,293.381,-2.6558,-2.7573333333333334,-1.4856,-1.5994000000000002,-262.47,215.555,190.91025,0.0,0.0,0.0,0.0,0.009266666666666668,-5.498166666666667,-5.498166666666667,-0.5295,-0.873,-0.05233333333333334,-0.8879999999999999,66.094,-0.057,-0.232575,1.2100000000000009,100.0,1.0,1.0,203.98666666666668,0.0,0.0,0.0,0.0,0.0,0.0,0.0,8646.3,0.0,55.0,5.0,237.91,0.0,0.0,0.0,0.0,0.0,0.0,0.0,0.0,0.20400000000000063,0.20400000000000063,0.0,0.0,0.0,55.0,616.79921,10000.0,85.000001,85.000001,85.000001,85.000001,395.0,0.0,0.0,0.0,1.0,333.33500000000004,53.085,53.085,48.66,48.66,34.0,-28.25,19.08,-31.45,22.939999999999998,0.0,1782.775,0.7100000000000009,100.0,27.674,27.107,42.866,42.153,0.0,0.0,100.0,0.0,0.0,0.0,0.0,3227.714285714286,2839.2,4112.5,3838.5,305.1255,305.67725,314.82975,315.242,21.795875,20.5326,21.816,21.3398,314.999998,314.999998,324.999988,324.999988,99.55788571428572,99.50721666666666,99.56605714285715,99.54545714285715,-0.008249999999999869,-0.14625,-0.18899999999999995,0.03616666666666668,-0.054999999999999716,-0.041666666666671404,1.5294999999999999,1.584,37.224000000000004,29.329,37.349999999999994,34.374,55.884,34.5805,59.314499999999995,51.7435,53.838,33.781,57.937,50.107,53.025999999999996,33.378,57.9005,49.54,-0.021499999999999853,-0.137,0.10523,0.11413000000000001,0.0,207.07,206.935,203.98666666666668,203.98666666666668,0.0,0.0
5,0.0,0.0,0.0,1.0,1.0,0.0,0.0,1.0,0.0,100.0,1.0,1.1856,26.0,0.0,0.0,0.0,62.0,0.0,26.0,26.0,26.0,26.0,-0.09299999999999997,0.27570000000000006,-0.043325,293.762,-2.6724,-2.7102222222222223,-1.5342,-1.5830000000000002,-258.9,215.5575,190.88925,0.0,0.0,0.0,0.0,0.011366666666666667,-5.498166666666667,-5.498166666666667,-0.5381,0.5416666666666667,-0.040111111111110986,-0.5529999999999999,66.247,-0.07640000000000001,-0.2228,1.1560000000000006,100.0,1.0,1.0,204.57999999999998,0.0,0.0,0.0,0.0,0.0,0.0,0.0,8671.4,0.0,55.0,5.0,238.46,1.0,0.0,0.0,0.0,0.0,0.0,0.0,0.0,0.2579999999999991,0.2579999999999991,0.0,0.0,1.0,55.0,616.79921,10000.0,85.000001,85.000001,85.000001,85.000001,395.0,0.0,0.0,0.0,1.0,166.665,53.284,53.284,49.24,49.24,34.0,-27.612499999999997,19.144,-31.53,22.7125,0.0,1782.722,0.3200000000000003,100.0,27.592,26.942,42.391999999999996,41.539,0.0,0.0,100.0,0.0,0.0,0.0,0.0,3138.4285714285716,2876.6,3963.75,3929.9,305.3295,305.5145,315.2305,315.093,21.806375,20.5381,21.826999999999998,21.3491,314.999998,314.999998,324.999988,324.999988,99.55788571428572,99.50723333333333,99.56621428571428,99.5456,-0.008999999999999897,-0.14300000000000002,-0.21033333333333337,0.02616666666666667,-0.054999999999999716,-0.04333333333332945,1.5554999999999999,1.612,37.289,29.363,37.419,34.4315,55.867999999999995,34.624,59.354,51.8045,53.823,33.821,57.974000000000004,50.1655,53.010999999999996,33.4165,57.934,49.59733333333333,-0.04299999999999993,-0.1120000000000001,0.10475000000000001,0.117055,0.0,207.59,207.45,204.57999999999998,204.57999999999998,0.0,0.0
6,0.0,0.0,0.0,1.0,1.0,0.0,0.0,1.0,0.0,100.0,1.0,1.1856,26.0,0.0,0.0,0.0,62.0,0.0,26.0,26.0,26.0,26.0,-0.13355555555555554,0.2861,-0.0058000000000000005,293.533,-2.646,-2.789888888888889,-1.5112,-1.5731000000000002,-255.91,215.5575,190.871,0.0,0.0,0.0,0.0,0.0131,-5.498166666666667,-5.498166666666667,-0.525,-0.19933333333333336,-0.05877777777777782,0.4850000000000003,66.38,-0.0785,-0.20275,0.8639999999999999,100.0,1.0,1.0,204.79333333333335,0.0,0.0,0.0,0.0,0.0,0.0,0.0,8680.4,0.0,55.0,5.0,238.93666666666667,0.0,0.0,0.0,0.0,0.0,0.0,0.0,0.0,0.3030000000000008,0.3030000000000008,0.0,0.0,0.0,55.0,616.79921,10000.0,85.000001,85.000001,85.000001,85.000001,395.0,0.0,0.0,0.0,1.0,333.33500000000004,53.696,53.696,48.462,48.462,34.0,-27.435000000000002,19.676,-33.5,23.8575,0.0,1782.676,0.365000000000002,100.0,27.513,26.467,42.742000000000004,41.576,0.0,0.0,100.0,0.0,0.0,0.0,0.0,3087.4285714285716,2865.3,4233.75,4089.6000000000004,305.3825,305.76625,314.43325,314.7225,21.814875,20.5426,21.8363,21.3569,314.999998,314.999998,324.999988,324.999988,99.55788571428572,99.50723333333333,99.56634285714286,99.54572857142857,-0.019749999999999934,-0.13924999999999998,-0.19233333333333336,0.02416666666666667,-0.04999999999999716,-0.07166666666666544,1.486,1.537,37.343,29.391,37.477000000000004,34.481,55.854,34.6595,59.3905,51.859,53.81,33.8535,58.007999999999996,50.218,52.997,33.4475,57.9655,49.64833333333333,-0.035499999999999865,-0.10599999999999987,0.104745,0.100375,0.0,207.96,207.885,204.79333333333335,204.79333333333335,0.0,0.0
7,0.0,0.0,0.0,1.0,1.0,0.0,0.0,1.0,0.0,100.0,1.0,1.1856,26.0,0.0,0.0,0.0,62.0,0.0,26.0,26.0,26.0,26.0,-0.07777777777777783,0.29170000000000007,-0.005325,293.457,-2.6149,-2.783777777777778,-1.5627,-1.6191,-252.53,215.555,190.850375,0.0,0.0,0.0,0.0,0.015066666666666666,-5.498166666666667,-5.498166666666667,-0.5337000000000001,0.09366666666666656,-0.052444444444444294,-0.2469999999999999,66.524,-0.0785,-0.21645,0.7760000000000007,100.0,1.0,1.0,205.30666666666667,0.0,0.0,0.0,0.0,0.0,0.0,0.0,8702.3,0.0,55.0,5.0,239.45666666666668,1.0,0.0,0.0,0.0,0.0,0.0,0.0,0.0,0.3539999999999992,0.3539999999999992,0.0,0.0,1.0,55.0,616.79921,10000.0,85.000001,85.000001,85.000001,85.000001,395.0,0.0,0.0,0.0,1.0,166.665,53.223,53.223,48.782,48.782,34.0,-27.0125,20.564,-33.2725,23.08,0.0,1782.626,0.010000000000001563,100.0,27.701999999999998,26.868,42.723,41.7,0.0,0.0,100.0,0.0,0.0,0.0,0.0,3208.4285714285716,2849.2,4127.875,3945.9,305.1455,305.574,314.8345,314.98775,21.82475,20.5478,21.8468,21.3658,314.999998,314.999998,324.999988,324.999988,99.5579,99.50726666666667,99.56648571428572,99.54587142857143,0.008999999999999897,-0.118,-0.2041666666666666,0.017166666666666552,-0.060000000000002274,-0.036666666666668846,1.5425,1.5750000000000002,37.405,29.423499999999997,37.543,34.536500000000004,55.84,34.7,59.43,51.919,53.797,33.8905,58.045,50.275,52.983000000000004,33.483000000000004,57.9995,49.70433333333334,-0.0754999999999999,-0.07399999999999984,0.10882000000000001,0.10294500000000001,0.0,208.405,208.325,205.30666666666667,205.30666666666667,0.0,0.0
8,0.0,0.0,0.0,1.0,1.0,0.0,0.0,1.0,0.0,100.0,1.0,1.1856,26.0,0.0,0.0,0.0,62.0,0.0,26.0,26.0,26.0,26.0,-0.06988888888888889,0.29000000000000004,-0.00895,293.503,-2.6927,-2.717,-1.493,-1.6098,-249.13,215.55,190.82975,0.0,0.0,0.0,0.0,0.017033333333333334,-5.498166666666667,-5.498166666666667,-0.5365,-0.16533333333333333,-0.035666666666666735,0.4939999999999998,66.669,-0.0689,-0.21955000000000002,0.37399999999999967,100.0,1.0,1.0,205.74333333333334,0.0,0.0,0.0,0.0,0.0,0.0,0.0,8720.7,0.0,55.0,5.0,239.98000000000002,0.0,0.0,0.0,0.0,0.0,0.0,0.0,0.0,0.40500000000000114,0.40500000000000114,0.0,0.0,0.0,55.0,616.79921,10000.0,85.000001,85.000001,85.000001,85.000001,395.0,0.0,0.0,0.0,1.0,333.33500000000004,53.345,53.345,48.507999999999996,48.507999999999996,34.0,-25.325,22.146,-29.84,25.509999999999998,0.0,1782.574,-0.07000000000000028,100.0,27.554,26.829,42.809,41.803,0.0,0.0,100.0,0.0,0.0,0.0,0.0,3013.4285714285716,3030.4,3993.875,4028.4,305.58,305.229,315.04075,314.842,21.834375,20.553,21.8574,21.3748,314.999998,314.999998,324.999988,324.999988,99.5579,99.50726666666667,99.56662857142857,99.54601428571429,0.025250000000000217,-0.09675,-0.17416666666666658,0.056499999999999995,-0.03166666666666629,-0.060000000000002274,1.5405,1.564,37.465,29.456,37.608000000000004,34.5925,55.825,34.74,59.4695,51.980000000000004,53.782,33.9275,58.0815,50.334,52.967,33.518,58.033500000000004,49.76166666666667,-0.08349999999999991,-0.06850000000000023,0.10337500000000001,0.10859,0.0,208.805,208.79000000000002,205.74333333333334,205.74333333333334,0.0,0.0
9,0.0,0.0,0.0,1.0,1.0,0.0,0.0,1.0,0.0,100.0,1.0,1.1856,26.0,0.0,0.0,0.0,62.0,0.0,26.0,26.0,26.0,26.0,-0.059222222222222176,0.2965,0.012150000000000001,293.274,-2.6145,-2.730777777777778,-1.5433,-1.5654,-245.93,215.54250000000002,190.810125,0.0,0.0,0.0,0.0,0.0189,-5.498166666666667,-5.498166666666667,-0.5342,0.2403333333333334,-0.04455555555555568,0.782,66.805,-0.0584,-0.212325,0.17999999999999972,100.0,1.0,1.0,206.14333333333332,0.0,0.0,0.0,0.0,0.0,0.0,0.0,8737.6,0.0,55.0,5.0,240.47,1.0,0.0,0.0,0.0,0.0,0.0,0.0,0.0,0.4529999999999994,0.4529999999999994,0.0,0.0,1.0,55.0,616.79921,10000.0,85.000001,85.000001,85.000001,85.000001,395.0,0.0,0.0,0.0,1.0,333.33500000000004,53.009,53.009,48.691,48.691,34.0,-25.2925,22.933999999999997,-29.955,25.817500000000003,0.0,1782.525,-0.28999999999999915,100.0,27.773,26.914,42.714,41.829,0.0,0.0,100.0,0.0,0.0,0.0,0.0,3137.285714285714,3036.0,4045.375,4120.4,305.205,305.22025,314.956,314.6655,21.8435,20.558,21.8672,21.3832,314.999998,314.999998,324.999988,324.999988,99.5579,99.50728333333333,99.56677142857143,99.54614285714285,0.03774999999999995,-0.08174999999999999,-0.15516666666666656,0.061166666666666814,-0.054999999999999716,-0.060000000000002274,1.5474999999999999,1.557,37.522,29.487000000000002,37.67,34.644999999999996,55.812,34.7775,59.5055,52.036500000000004,53.769,33.962,58.1155,50.388,52.954,33.551,58.064499999999995,49.81466666666667,-0.09599999999999986,-0.052000000000000046,0.10416500000000001,0.10547000000000001,0.0,209.24,209.22500000000002,206.14333333333332,206.14333333333332,0.0,0.0
10,0.0,0.0,0.0,1.0,1.0,0.0,0.0,1.0,0.0,100.0,1.0,1.1856,26.0,0.0,0.0,0.0,62.0,0.0,26.0,26.0,26.0,26.0,-0.03255555555555556,0.2875000000000001,-0.004025,293.182,-2.6756,-2.7055555555555557,-1.5053,-1.5526,-242.51,215.535,190.789375,0.0,0.0,0.0,0.0,0.020866666666666665,-5.498166666666667,-5.498166666666667,-0.5282,-0.2756666666666667,-0.023333333333333428,-0.0030000000000001137,66.95,-0.044000000000000004,-0.21155000000000002,0.03000000000000025,100.0,1.0,1.0,206.51333333333332,0.0,0.0,0.0,0.0,0.0,0.0,0.0,8753.3,0.0,55.0,5.0,240.99,0.0,0.0,0.0,0.0,0.0,0.0,1.0,0.0,0.5040000000000013,0.5040000000000013,0.0,0.0,0.0,55.0,616.79921,10000.0,85.000001,85.000001,85.000001,85.000001,395.0,0.0,0.0,0.0,1.0,333.33500000000004,53.314,53.314,48.34,48.34,34.0,-25.03,21.506,-30.9025,26.48,0.0,1782.474,-0.34999999999999787,100.0,27.587,27.06,42.777,42.259,0.0,0.0,100.0,0.0,0.0,0.0,0.0,3111.5714285714284,2899.6,4167.125,4183.8,305.471,305.486,314.71925,314.41375,21.85325,20.5632,21.8778,21.3922,314.999998,314.999998,324.999988,324.999988,99.55791428571429,99.5073,99.56691428571429,99.54628571428572,0.04600000000000026,-0.08650000000000002,-0.16083333333333338,0.0628333333333333,-0.041666666666671404,-0.046666666666666856,1.511,1.5190000000000001,37.583,29.52,37.736000000000004,34.701499999999996,55.798,34.8155,59.545500000000004,52.0985,53.756,33.997,58.1525,50.4475,52.94,33.5845,58.0985,49.873,-0.10099999999999998,-0.047499999999999876,0.10439000000000001,0.10659500000000001,0.0,209.685,209.67000000000002,206.51333333333332,206.51333333333332,0.0,0.0
11,0.0,0.0,0.0,1.0,1.0,0.0,0.0,1.0,0.0,100.0,1.0,1.1856,26.0,0.0,0.0,0.0,62.0,0.0,26.0,26.0,26.0,26.0,-0.022666666666666613,0.2824,-0.04295,293.488,-2.6795999999999998,-2.7023333333333333,-1.5596999999999999,-1.5264,-239.1,215.5275,190.768375,0.0,0.0,0.0,0.0,0.022600000000000002,-5.498166666666667,-5.498166666666667,-0.5499,-0.22333333333333338,0.0038888888888888307,0.9969999999999999,67.09100000000001,-0.0297,-0.22395,-0.1899999999999995,100.0,1.0,1.0,207.07333333333332,0.0,0.0,0.0,0.0,0.0,0.0,0.0,8777.0,0.0,55.0,5.0,241.5,1.0,0.0,0.0,0.0,0.0,0.0,1.0,0.0,0.5549999999999997,0.5549999999999997,0.0,0.0,1.0,55.0,616.79921,10000.0,85.000001,85.000001,85.000001,85.000001,395.0,0.0,0.0,0.0,1.0,333.33500000000004,53.253,53.253,48.874,48.874,34.0,-23.8175,24.067999999999998,-27.33,26.495,0.0,1782.423,-0.29499999999999815,100.0,27.466,26.942,42.608000000000004,42.205,0.0,0.0,100.0,0.0,0.0,0.0,0.0,3016.142857142857,3097.7,3885.25,4056.5,305.585,305.0505,315.365,314.8305,21.862875,20.5685,21.8882,21.4012,314.999998,314.999998,324.999988,324.999988,99.55791428571429,99.5073,99.56704285714285,99.54642857142858,0.06000000000000005,-0.06074999999999997,-0.12849999999999995,0.09499999999999997,-0.036666666666668846,-0.05833333333333002,1.5785,1.564,37.643,29.552999999999997,37.801,34.7575,55.784,34.854,59.5815,52.159,53.742000000000004,34.032,58.186,50.5055,52.925,33.618,58.129,49.93,-0.09799999999999986,-0.04899999999999993,0.09915500000000001,0.10548,0.0,210.095,210.095,207.07333333333332,207.07333333333332,0.0,0.0
12,0.0,0.0,0.0,1.0,1.0,0.0,0.0,1.0,0.0,100.0,1.0,1.1856,26.0,0.0,0.0,0.0,62.0,0.0,26.0,26.0,26.0,26.0,-0.02688888888888885,0.28090000000000015,0.0027,293.121,-2.7142,-2.69,-1.544,-1.5424,-235.87,215.51749999999998,190.747875,0.0,0.0,0.0,0.0,0.025466666666666665,-5.498166666666667,-5.498166666666667,-0.5424,0.3876666666666666,0.007111111111111068,0.7460000000000004,67.226,-0.010100000000000001,-0.205275,-0.46200000000000063,100.0,1.0,1.0,207.41,0.0,0.0,0.0,0.0,0.0,0.0,0.0,8791.4,0.0,55.0,5.0,241.98333333333335,0.0,0.0,0.0,0.0,0.0,0.0,1.0,0.0,0.602999999999998,0.602999999999998,0.0,0.0,0.0,55.0,616.79921,10000.0,85.000001,85.000001,85.000001,85.000001,395.0,0.0,0.0,0.0,1.0,333.33500000000004,52.994,52.994,48.278999999999996,48.278999999999996,34.0,-25.1725,23.172,-28.31,28.9625,0.0,1782.375,0.6550000000000011,100.0,27.547,27.219,42.461,42.188,0.0,0.0,100.0,0.0,0.0,0.0,0.0,3025.0,3156.4,4093.0,4213.0,305.5455,304.84325,314.8695,314.47225,21.871875,20.5736,21.898,21.4097,314.999998,314.999998,324.999988,324.999988,99.55792857142858,99.50731666666667,99.56718571428571,99.54655714285714,0.03699999999999992,-0.09250000000000003,-0.11499999999999999,0.1120000000000001,-0.030000000000001137,-0.07000000000000028,1.5545,1.5340000000000003,37.699,29.585,37.863,34.8105,55.772,34.89,59.616,52.216499999999996,53.730999999999995,34.0655,58.2185,50.5605,52.913,33.65,58.158500000000004,49.983666666666664,-0.05549999999999988,-0.09799999999999986,0.11463000000000001,0.10453000000000001,0.0,210.53,210.55,207.41,207.41,0.0,0.0
13,0.0,0.0,0.0,1.0,1.0,0.0,0.0,1.0,0.0,100.0,1.0,1.1856,26.0,0.0,0.0,0.0,62.0,0.0,26.0,26.0,26.0,26.0,0.032777777777777795,0.28,0.0253,292.801,-2.6825,-2.7044444444444444,-1.5676999999999999,-1.5559,-232.44,215.51,190.726125,0.0,0.0,0.0,0.0,0.02673333333333333,-5.498166666666667,-5.498166666666667,-0.5373,-0.2326666666666668,-0.0030000000000001137,-0.2649999999999997,67.369,-0.0021000000000000003,-0.213125,-0.24799999999999933,100.0,1.0,1.0,207.7733333333333,0.0,0.0,0.0,0.0,0.0,0.0,0.0,8806.8,0.0,55.0,5.0,242.5,1.0,0.0,0.0,0.0,0.0,0.0,1.0,0.0,0.6539999999999999,0.6539999999999999,0.0,0.0,1.0,55.0,616.79921,10000.0,85.000001,85.000001,85.000001,85.000001,395.0,0.0,0.0,0.0,1.0,333.33500000000004,52.826,52.826,48.019,48.019,34.0,-23.3275,24.486,-29.7975,29.78,0.0,1782.324,-0.39000000000000057,100.0,27.659,27.526,42.729,42.72,0.0,0.0,100.0,0.0,0.0,0.0,0.0,3154.285714285714,2998.6,4201.75,4212.6,305.3395,305.15525,314.634,314.3585,21.8815,20.579,21.9086,21.4188,314.999998,314.999998,324.999988,324.999988,99.55794285714286,99.50731666666667,99.56734285714286,99.54671428571429,0.09624999999999995,-0.034499999999999975,-0.1153333333333334,0.1166666666666667,-0.05666666666667197,-0.061666666666667425,1.496,1.4809999999999999,37.759,29.619,37.929,34.8675,55.759,34.9315,59.658,52.283,53.719,34.1035,58.2575,50.6245,52.899,33.686,58.1945,50.04633333333334,-0.11599999999999988,-0.033500000000000085,0.100275,0.11663500000000002,0.0,210.965,210.985,207.7733333333333,207.7733333333333,0.0,0.0
14,0.0,0.0,0.0,1.0,1.0,0.0,0.0,1.0,0.0,100.0,1.0,1.1856,26.0,0.0,0.0,0.0,62.0,0.0,26.0,26.0,26.0,26.0,0.016444444444444484,0.28290000000000015,-0.024050000000000002,293.03,-2.6999,-2.7084444444444444,-1.5695000000000001,-1.5415,-229.0,215.5,190.704875,0.0,0.0,0.0,0.0,0.028733333333333333,-5.498166666666667,-5.498166666666667,-0.5505,-0.033666666666666734,0.021333333333333204,0.9710000000000001,67.509,0.0061,-0.226575,-0.4039999999999999,100.0,1.0,1.0,208.29333333333335,0.0,0.0,0.0,0.0,0.0,0.0,0.0,8828.8,0.0,55.0,5.0,243.00333333333333,0.0,0.0,0.0,0.0,0.0,0.0,1.0,0.0,0.7049999999999983,0.7049999999999983,0.0,0.0,0.0,55.0,616.79921,10000.0,85.000001,85.000001,85.000001,85.000001,395.0,0.0,0.0,0.0,1.0,166.665,52.811,52.811,48.416,48.416,34.0,-22.3275,25.716,-26.61,28.975,0.0,1782.275,-0.4349999999999987,100.0,27.787,27.572,42.664,42.704,0.0,0.0,100.0,0.0,0.0,0.0,0.0,2980.4285714285716,3130.5,3950.25,4145.2,305.682,304.87275,315.2035,314.608,21.891,20.5845,21.9191,21.4279,314.999998,314.999998,324.999988,324.999988,99.55795714285715,99.50731666666667,99.56747142857142,99.54685714285715,0.09324999999999983,-0.03225,-0.09750000000000003,0.12349999999999994,-0.051666666666669414,-0.04833333333333201,1.56,1.5470000000000002,37.819,29.653,37.994,34.924,55.748000000000005,34.9675,59.692499999999995,52.341,53.708,34.1365,58.289,50.68,52.888,33.718,58.223,50.10066666666667,-0.10799999999999987,-0.04150000000000009,0.10425500000000001,0.102175,0.0,211.39,211.41500000000002,208.29333333333335,208.29333333333335,0.0,0.0
15,0.0,0.0,0.0,1.0,1.0,0.0,0.0,1.0,0.0,100.0,1.0,1.1856,26.0,0.0,0.0,0.0,62.0,0.0,26.0,26.0,26.0,26.0,0.033333333333333215,0.2834000000000001,-0.000125,292.923,-2.6963,-2.6882222222222225,-1.5765,-1.5613000000000001,-225.76,215.4925,190.684375,0.0,0.0,0.0,0.0,0.030633333333333332,-5.498166666666667,-5.498166666666667,-0.5433,0.2596666666666666,0.029555555555555557,0.6950000000000003,67.641,0.015300000000000001,-0.212925,-0.4379999999999997,100.0,1.0,1.0,208.65666666666667,0.0,0.0,0.0,0.0,0.0,0.0,0.0,8844.1,0.0,55.0,5.0,243.48000000000002,1.0,0.0,0.0,0.0,0.0,0.0,1.0,0.0,0.7530000000000001,0.7530000000000001,0.0,0.0,1.0,55.0,616.79921,10000.0,85.000001,85.000001,85.000001,85.000001,395.0,0.0,0.0,0.0,1.0,333.33500000000004,52.841,52.841,48.218,48.218,34.0,-21.9175,25.274,-27.11,30.43,0.0,1782.226,-0.28500000000000014,100.0,27.766,27.625,42.542,42.783,0.0,0.0,100.0,0.0,0.0,0.0,0.0,2960.4285714285716,3109.1,4044.75,4212.6,305.7345,304.92575,314.98275,314.4185,21.9,20.5897,21.9289,21.4364,314.999998,314.999998,324.999988,324.999988,99.55797142857143,99.50731666666667,99.5676,99.54698571428571,0.09850000000000003,-0.034499999999999975,-0.08816666666666662,0.1323333333333332,-0.03999999999999915,-0.05833333333333002,1.531,1.5220000000000002,37.875,29.685499999999998,38.056,34.9775,55.736000000000004,35.0035,59.7265,52.399,53.697,34.17,58.321,50.736000000000004,52.876000000000005,33.75,58.251999999999995,50.15566666666666,-0.09999999999999987,-0.04899999999999993,0.10973500000000001,0.09738500000000001,0.0,211.805,211.835,208.65666666666667,208.65666666666667,0.0,0.0
16,0.0,0.0,0.0,1.0,1.0,0.0,0.0,1.0,0.0,100.0,1.0,1.1856,26.0,0.0,0.0,0.0,62.0,0.0,26.0,26.0,26.0,26.0,0.0367777777777778,0.26690000000000014,-0.0092,292.77,-2.7626,-2.626444444444444,-1.5591,-1.554,-222.3,215.485,190.662375,0.0,0.0,0.0,0.0,0.032633333333333334,-5.498166666666667,-5.498166666666667,-0.5538000000000001,-0.4570000000000001,0.022666666666666613,-1.0499999999999998,67.781,0.0162,-0.224175,-0.16999999999999993,100.0,1.0,1.0,209.07,0.0,0.0,0.0,0.0,0.0,0.0,0.0,8861.8,0.0,55.0,5.0,243.98666666666668,0.0,0.0,0.0,0.0,0.0,0.0,1.0,0.0,0.8039999999999985,0.8039999999999985,0.0,0.0,0.0,55.0,616.79921,10000.0,85.000001,85.000001,85.000001,85.000001,395.0,0.0,0.0,0.0,1.0,333.33500000000004,52.582,52.582,47.913,47.913,34.0,-24.3475,24.896,-27.275,29.3125,0.0,1782.174,-0.25,100.0,27.416,27.856,42.698,43.05,0.0,0.0,100.0,0.0,0.0,0.0,0.0,3167.0,3133.2,4079.0,4060.5,305.3745,304.7335,314.94475,314.6855,21.909375,20.5952,21.9395,21.4455,314.999998,314.999998,324.999988,324.999988,99.55797142857143,99.50733333333334,99.56774285714286,99.54712857142857,0.09125000000000005,-0.03874999999999995,-0.09016666666666662,0.13349999999999995,-0.036666666666668846,-0.03166666666666629,1.515,1.501,37.933,29.7195,38.122,35.0345,55.723,35.0415,59.7645,52.461,53.684,34.205,58.3565,50.795500000000004,52.861999999999995,33.783500000000004,58.2845,50.21366666666667,-0.09650000000000003,-0.06099999999999994,0.10346500000000002,0.11092500000000001,0.0,212.22500000000002,212.22500000000002,209.07,209.07,0.0,0.0
17,0.0,0.0,0.0,1.0,1.0,0.0,0.0,1.0,0.0,100.0,1.0,1.1856,26.0,0.0,0.0,0.0,62.0,0.0,26.0,26.0,26.0,26.0,0.006222222222222129,0.28659999999999997,0.0246,292.48,-2.715,-2.617888888888889,-1.5947,-1.5206,-218.84,215.48000000000002,190.64,0.0,0.0,0.0,0.0,0.034633333333333335,-5.498166666666667,-5.498166666666667,-0.551,0.18366666666666664,-0.0016666666666669272,0.3310000000000004,67.92099999999999,0.0135,-0.214425,-0.17600000000000016,100.0,1.0,1.0,209.46,0.0,0.0,0.0,0.0,0.0,0.0,0.0,8878.2,0.0,55.0,5.0,244.48333333333335,1.0,0.0,0.0,0.0,0.0,0.0,1.0,0.0,0.8550000000000004,0.8550000000000004,0.0,0.0,1.0,55.0,616.79921,10000.0,85.000001,85.000001,85.000001,85.000001,395.0,0.0,0.0,0.0,1.0,166.665,52.338,52.338,47.699,47.699,34.0,-23.585,25.296,-29.224999999999998,30.055,0.0,1782.125,-0.21000000000000085,100.0,27.936,27.819,42.763,42.893,0.0,0.0,100.0,0.0,0.0,0.0,0.0,3140.4285714285716,3193.4,4256.375,4242.0,305.259,304.7245,314.53825,314.4165,21.918875,20.6007,21.9499,21.4546,314.999998,314.999998,324.999988,324.999988,99.55798571428572,99.50733333333334,99.56788571428571,99.54728571428572,0.09850000000000003,-0.03574999999999995,-0.09033333333333338,0.13200000000000012,-0.046666666666666856,-0.041666666666671404,1.5145,1.513,37.992999999999995,29.7545,38.187,35.091,55.711,35.0805,59.801,52.522,53.673,34.241,58.39,50.854,52.849999999999994,33.818,58.315,50.27133333333333,-0.09450000000000003,-0.06349999999999989,0.10257000000000001,0.10561000000000001,0.0,212.67000000000002,212.69,209.46,209.46,0.0,0.0
18,0.0,0.0,0.0,1.0,1.0,0.0,0.0,1.0,0.0,100.0,1.0,1.1856,26.0,0.0,0.0,0.0,62.0,0.0,26.0,26.0,26.0,26.0,0.0040000000000000036,0.28659999999999997,0.028725,292.374,-2.6437,-2.6097777777777775,-1.4974,-1.4847000000000001,-215.57999999999998,215.475,190.618875,0.0,0.0,0.0,0.0,0.036533333333333334,-5.498166666666667,-5.498166666666667,-0.5603,-0.3543333333333334,0.0021111111111109526,1.0040000000000004,68.051,0.0078000000000000005,-0.22412500000000002,-0.1039999999999992,100.0,1.0,1.0,209.83333333333331,0.0,0.0,0.0,0.0,0.0,0.0,0.0,8894.0,0.0,55.0,5.0,244.95666666666665,0.0,0.0,0.0,0.0,0.0,0.0,1.0,0.0,0.9029999999999987,0.9029999999999987,0.0,0.0,0.0,55.0,616.79921,10000.0,85.000001,85.000001,85.000001,85.000001,395.0,0.0,0.0,0.0,1.0,333.33500000000004,52.231,52.231,47.546,47.546,34.0,-22.822499999999998,26.14,-27.5425,29.4825,0.0,1782.076,-0.23000000000000043,100.0,27.927,27.736,42.972,43.041,0.0,0.0,100.0,0.0,0.0,0.0,0.0,3092.142857142857,3309.3,4140.0,4286.3,305.3285,304.42675,314.67075,314.2875,21.92775,20.6059,21.9598,21.4632,314.999998,314.999998,324.999988,324.999988,99.558,99.50735,99.56802857142857,99.54741428571428,0.09350000000000014,-0.03749999999999998,-0.09783333333333333,0.1233333333333333,-0.03999999999999915,-0.05333333333332746,1.503,1.517,38.048,29.7865,38.248999999999995,35.144999999999996,55.7,35.1165,59.837,52.58,53.661,34.274,58.4235,50.91,52.838,33.8495,58.346000000000004,50.326,-0.09699999999999998,-0.05799999999999983,0.10869500000000001,0.10283500000000001,0.0,213.07,213.07,209.83333333333331,209.83333333333331,0.0,0.0
19,0.0,0.0,0.0,1.0,1.0,0.0,0.0,1.0,0.0,100.0,1.0,1.1856,26.0,0.0,0.0,0.0,62.0,0.0,26.0,26.0,26.0,26.0,0.034222222222222154,0.2824,0.0505,292.114,-2.6498,-2.704777777777778,-1.5259,-1.6042,-212.11,215.47,190.596125,0.0,0.0,0.0,0.0,0.03856666666666667,-5.498166666666667,-5.498166666666667,-0.5529000000000001,0.5996666666666667,0.00911111111111107,-0.7750000000000004,68.189,0.003,-0.21710000000000002,-0.013999999999999346,100.0,1.0,1.0,210.26999999999998,0.0,0.0,0.0,0.0,0.0,0.0,0.0,8912.5,0.0,55.0,5.0,245.45,1.0,0.0,0.0,0.0,0.0,0.0,1.0,0.0,0.9540000000000006,0.9540000000000006,0.0,0.0,1.0,55.0,616.79921,10000.0,85.000001,85.000001,85.000001,85.000001,395.0,0.0,0.0,0.0,1.0,333.33500000000004,51.894999999999996,51.894999999999996,47.699,47.699,34.0,-24.15,24.23,-28.9675,30.445,0.0,1782.024,-0.19000000000000128,100.0,28.301000000000002,28.389,42.824,43.266,0.0,0.0,100.0,0.0,0.0,0.0,0.0,3187.4285714285716,3064.3,4199.375,4265.9,305.198,304.81675,314.677,314.159,21.937375,20.6115,21.9703,21.4723,314.999998,314.999998,324.999988,324.999988,99.558,99.50735,99.56817142857143,99.54755714285714,0.07925000000000004,-0.0605,-0.1113333333333334,0.10650000000000004,-0.06333333333333258,-0.041666666666671404,1.4989999999999999,1.499,38.108000000000004,29.822,38.314,35.202,55.689,35.1565,59.8725,52.641,53.650999999999996,34.3115,58.457,50.969,52.826,33.885,58.376,50.38366666666667,-0.09149999999999991,-0.06300000000000017,0.10426500000000001,0.10772500000000002,0.0,213.535,213.505,210.26999999999998,210.26999999999998,0.0,0.0
20,0.0,0.0,0.0,1.0,1.0,0.0,0.0,1.0,0.0,100.0,1.0,1.1856,26.0,0.0,0.0,0.0,62.0,0.0,26.0,26.0,26.0,26.0,0.012333333333333307,0.2659,-0.005725,292.358,-2.7168,-2.6630000000000003,-1.532,-1.5891000000000002,-208.62,215.465,190.57375,0.0,0.0,0.0,0.0,0.04056666666666667,-5.498166666666667,-5.498166666666667,-0.5545,-0.8200000000000001,0.011666666666666714,0.5330000000000004,68.327,-0.0021000000000000003,-0.22585000000000002,-0.03799999999999937,100.0,1.0,1.0,210.66,0.0,0.0,0.0,0.0,0.0,0.0,0.0,8929.1,0.0,55.0,5.0,245.95,0.0,0.0,0.0,0.0,0.0,0.0,0.0,0.0,1.004999999999999,1.004999999999999,0.0,0.0,0.0,55.0,616.79921,10000.0,85.000001,85.000001,85.000001,85.000001,395.0,0.0,0.0,0.0,1.0,333.33500000000004,52.536,52.536,47.333,47.333,34.0,-22.9575,24.486,-28.27,29.8425,0.0,1781.973,-0.21499999999999986,100.0,27.995,27.894,43.459,43.546,0.0,0.0,100.0,0.0,0.0,0.0,0.0,3018.142857142857,3133.3,4099.375,4158.0,305.6165,304.9305,314.79175,314.48725,21.946625,20.617,21.9809,21.4816,314.999998,314.999998,324.999988,324.999988,99.55802857142857,99.50735,99.56831428571428,99.5477,0.08924999999999983,-0.05125000000000002,-0.10816666666666663,0.11716666666666686,-0.01833333333333087,-0.060000000000002274,1.4895,1.487,38.167,29.8565,38.381,35.26,55.675,35.195499999999996,59.911500000000004,52.704,53.638,34.347,58.4935,51.0295,52.812,33.919,58.4095,50.446,-0.09349999999999992,-0.06300000000000017,0.10933000000000001,0.10550500000000002,0.0,213.905,213.91500000000002,210.66,210.66,0.0,0.0
21,0.0,0.0,0.0,1.0,1.0,0.0,0.0,1.0,0.0,100.0,1.0,1.1856,26.0,0.0,0.0,0.0,62.0,0.0,26.0,26.0,26.0,26.0,0.011777777777777887,0.2711000000000001,-0.035575,292.587,-2.7137000000000002,-2.668333333333333,-1.5756000000000001,-1.5347,-205.14,215.46,190.550875,0.0,0.0,0.0,0.0,0.0426,-5.498166666666667,-5.498166666666667,-0.5733,0.1143333333333334,-0.006444444444444475,-0.6909999999999998,68.461,-0.0004,-0.22257500000000002,-0.04600000000000026,100.0,1.0,1.0,211.21666666666667,0.0,0.0,0.0,0.0,0.0,0.0,0.0,8952.8,0.0,55.0,5.0,246.43,1.0,0.0,0.0,0.0,0.0,0.0,0.0,0.0,1.056000000000001,1.056000000000001,0.0,0.0,1.0,55.0,616.79921,10000.0,85.000001,85.000001,85.000001,85.000001,395.0,0.0,0.0,0.0,1.0,166.665,52.383,52.383,48.035,48.035,34.0,-25.095,23.71,-28.4275,27.28,0.0,1781.924,-0.2049999999999983,100.0,27.953,27.943,43.025999999999996,43.204,0.0,0.0,100.0,0.0,0.0,0.0,0.0,3227.285714285714,3066.1,4081.875,4007.2,305.181,304.99725,314.9935,314.94725,21.956125,20.6225,21.9913,21.4906,314.999998,314.999998,324.999988,324.999988,99.55802857142857,99.50736666666667,99.56847142857143,99.54785714285714,0.07750000000000012,-0.0605,-0.11383333333333334,0.1146666666666667,-0.051666666666669414,-0.045000000000001705,1.576,1.5590000000000002,38.226,29.891,38.445,35.316,55.663,35.234,59.9465,52.762,53.626000000000005,34.3825,58.5255,51.085,52.799,33.9535,58.4385,50.49733333333333,-0.09599999999999986,-0.06000000000000005,0.101525,0.10703000000000001,0.0,214.35500000000002,214.34,211.21666666666667,211.21666666666667,0.0,0.0
22,0.0,0.0,0.0,1.0,1.0,0.0,0.0,1.0,0.0,100.0,1.0,1.1856,26.0,0.0,0.0,0.0,62.0,0.0,26.0,26.0,26.0,26.0,0.0031111111111110645,0.27470000000000017,-0.0007,292.191,-2.7726,-2.629,-1.5976,-1.5314,-201.85,215.45499999999998,190.528375,0.0,0.0,0.0,0.0,0.044533333333333334,-5.498166666666667,-5.498166666666667,-0.5578000000000001,0.11199999999999999,0.0038888888888888307,-0.4379999999999997,68.59100000000001,0.00030000000000000003,-0.2001,-0.09799999999999898,100.0,1.0,1.0,211.45666666666668,0.0,0.0,0.0,0.0,0.0,0.0,0.0,8962.9,0.0,55.0,5.0,246.9,0.0,0.0,0.0,0.0,0.0,0.0,0.0,0.0,1.1039999999999992,1.1039999999999992,0.0,0.0,0.0,55.0,616.79921,10000.0,85.000001,85.000001,85.000001,85.000001,395.0,0.0,0.0,0.0,1.0,166.665,52.505,52.505,47.134,47.134,34.0,-24.7925,23.622,-31.2925,29.689999999999998,0.0,1781.876,-0.25,100.0,28.012,28.058,43.198,43.345,0.0,0.0,100.0,0.0,0.0,0.0,0.0,3137.4285714285716,3042.0,4330.75,4328.8,305.5235,305.09575,314.4085,314.14875,21.965,20.6278,22.0012,21.499200000000002,314.999998,314.999998,324.999988,324.999988,99.55804285714285,99.50736666666667,99.5686,99.54798571428572,0.07600000000000007,-0.04849999999999999,-0.11466666666666658,0.10400000000000009,-0.041666666666671404,-0.036666666666668846,1.4895,1.4820000000000002,38.281,29.9235,38.507,35.37,55.652,35.2705,59.982,52.8195,53.614999999999995,34.4165,58.559,51.1405,52.787,33.9855,58.469,50.55166666666666,-0.09899999999999998,-0.05449999999999999,0.10756500000000001,0.10483500000000001,0.0,214.75,214.76,211.45666666666668,211.45666666666668,0.0,0.0
23,0.0,0.0,0.0,1.0,1.0,0.0,0.0,1.0,0.0,100.0,1.0,1.1856,26.0,0.0,0.0,0.0,62.0,0.0,26.0,26.0,26.0,26.0,-0.007333333333333303,0.2743,0.0097,292.007,-2.6557,-2.667888888888889,-1.6360000000000001,-1.5087000000000002,-198.34,215.45,190.504875,0.0,0.0,0.0,0.0,0.04656666666666667,-5.498166666666667,-5.498166666666667,-0.5725,-0.26900000000000013,0.006000000000000005,0.4850000000000003,68.725,0.0029000000000000002,-0.22415000000000002,-0.09799999999999898,100.0,1.0,1.0,211.93333333333334,0.0,0.0,0.0,0.0,0.0,0.0,0.0,8983.1,0.0,55.0,5.0,247.38333333333333,1.0,0.0,0.0,0.0,0.0,0.0,0.0,0.0,1.1550000000000011,1.1550000000000011,0.0,0.0,1.0,55.0,616.79921,10000.0,85.000001,85.000001,85.000001,85.000001,395.0,0.0,0.0,0.0,1.0,333.33500000000004,51.834,51.834,47.577,47.577,34.0,-24.105,25.451999999999998,-29.12,29.35,0.0,1781.824,-0.18499999999999872,100.0,28.37,28.095,43.45,43.536,0.0,0.0,100.0,0.0,0.0,0.0,0.0,3212.142857142857,3190.3,4160.125,4185.3,304.968,304.73825,314.7955,314.5515,21.9745,20.6334,22.0117,21.5084,314.999998,314.999998,324.999988,324.999988,99.55805714285714,99.50738333333334,99.56874285714285,99.54812857142858,0.09125000000000005,-0.042749999999999955,-0.09266666666666656,0.13050000000000006,-0.04833333333333201,-0.06333333333333258,1.5155,1.521,38.34,29.9585,38.573,35.4275,55.64,35.3105,60.0195,52.8815,53.604,34.453,58.5935,51.2005,52.775,34.021,58.5005,50.61,-0.09250000000000003,-0.06400000000000006,0.10186,0.11113,0.0,215.16,215.16500000000002,211.93333333333334,211.93333333333334,0.0,0.0
24,0.0,0.0,0.0,1.0,1.0,0.0,0.0,1.0,0.0,100.0,1.0,1.1856,26.0,0.0,0.0,0.0,62.0,0.0,26.0,26.0,26.0,26.0,-0.0012222222222221246,0.27760000000000007,-0.0551,292.374,-2.6805,-2.6722222222222225,-1.5455,-1.5419,-195.04,215.4475,190.482375,0.0,0.0,0.0,0.0,0.04846666666666667,-5.498166666666667,-5.498166666666667,-0.5844,-0.3776666666666668,0.01288888888888895,1.1639999999999997,68.852,0.0022,-0.22312500000000002,-0.1299999999999999,100.0,1.0,1.0,212.31333333333333,0.0,0.0,0.0,0.0,0.0,0.0,0.0,8999.2,0.0,55.0,5.0,247.84,0.0,0.0,0.0,0.0,0.0,0.0,0.0,0.0,1.2029999999999994,1.2029999999999994,0.0,0.0,0.0,55.0,616.79921,10000.0,85.000001,85.000001,85.000001,85.000001,395.0,0.0,0.0,0.0,1.0,333.33500000000004,52.673,52.673,47.379,47.379,34.0,-22.015,24.195999999999998,-28.695,29.2575,0.0,1781.776,-0.29499999999999815,100.0,28.226,27.895,43.445,43.486000000000004,0.0,0.0,100.0,0.0,0.0,0.0,0.0,2963.4285714285716,3062.7,4157.25,4170.5,305.754,305.15825,314.668,314.5905,21.983249999999998,20.6386,22.0216,21.517,314.999998,314.999998,324.999988,324.999988,99.55805714285714,99.50738333333334,99.56888571428571,99.54827142857143,0.09399999999999986,-0.044749999999999956,-0.10599999999999998,0.12233333333333318,-0.051666666666669414,-0.045000000000001705,1.5235,1.5220000000000002,38.396,29.991,38.635,35.4815,55.628,35.346000000000004,60.0535,52.9385,53.593,34.486,58.6255,51.254999999999995,52.763,34.052,58.528999999999996,50.663333333333334,-0.10099999999999998,-0.05549999999999988,0.11247000000000001,0.11152000000000001,0.0,215.555,215.54500000000002,212.31333333333333,212.31333333333333,0.0,0.0
25,0.0,0.0,0.0,1.0,1.0,0.0,0.0,1.0,0.0,100.0,1.0,1.1856,26.0,0.0,0.0,0.0,62.0,0.0,26.0,26.0,26.0,26.0,0.02388888888888885,0.2542,-0.025475,292.16,-2.7472,-2.647333333333333,-1.5926,-1.5319,-191.53,215.4425,190.457,0.0,0.0,0.0,0.0,0.05053333333333333,-5.498166666666667,-5.498166666666667,-0.6027,0.006666666666666599,0.019555555555555548,-0.8810000000000002,68.985,0.0049,-0.219175,-0.1639999999999997,100.0,1.0,1.0,212.77666666666667,0.0,0.0,0.0,0.0,0.0,0.0,0.0,9018.9,0.0,55.0,5.0,248.32,1.0,0.0,0.0,0.0,0.0,0.0,0.0,0.0,1.2540000000000013,1.2540000000000013,0.0,0.0,1.0,55.0,616.79921,10000.0,85.000001,85.000001,85.000001,85.000001,395.0,0.0,0.0,0.0,1.0,333.33500000000004,51.834,51.834,47.76,47.76,34.0,-25.825,25.416,-28.21,28.6825,0.0,1781.724,-0.2699999999999996,100.0,28.004,28.225,43.147999999999996,43.407,0.0,0.0,100.0,0.0,0.0,0.0,0.0,3319.142857142857,3242.8,4047.875,4116.1,304.981,304.432,315.10125,314.6735,21.9925,20.6442,22.032,21.5261,314.999998,314.999998,324.999988,324.999988,99.55807142857142,99.5074,99.56902857142857,99.54842857142857,0.08550000000000013,-0.05425000000000002,-0.10883333333333334,0.12233333333333318,-0.04833333333333201,-0.061666666666667425,1.5514999999999999,1.5340000000000003,38.453,30.026,38.7,35.5385,55.614999999999995,35.385,60.088499999999996,52.9975,53.58,34.522,58.658,51.312,52.748999999999995,34.0865,58.5585,50.719,-0.09899999999999998,-0.06300000000000017,0.10970500000000001,0.11263500000000001,0.0,215.97500000000002,215.98000000000002,212.77666666666667,212.77666666666667,0.0,0.0
26,0.0,0.0,0.0,1.0,1.0,0.0,0.0,1.0,0.0,100.0,1.0,1.1856,26.0,0.0,0.0,0.0,62.0,0.0,26.0,26.0,26.0,26.0,0.02966666666666673,0.2714000000000001,0.06342500000000001,291.275,-2.706,-2.655333333333333,-1.5526,-1.5592000000000001,-187.8,215.44,190.43,0.0,0.0,0.0,0.0,0.052700000000000004,-5.498166666666667,-5.498166666666667,-0.5729000000000001,0.29600000000000004,0.005444444444444363,-0.6529999999999996,69.129,0.0058000000000000005,-0.20267500000000002,-0.12799999999999923,100.0,1.0,1.0,213.00333333333333,0.0,0.0,0.0,0.0,0.0,0.0,0.0,9028.4,0.0,55.0,5.0,248.83666666666664,0.0,0.0,0.0,0.0,0.0,0.0,0.0,0.0,1.3079999999999998,1.3079999999999998,0.0,0.0,0.0,55.0,616.79921,10000.0,85.000001,85.000001,85.000001,85.000001,395.0,0.0,0.0,0.0,1.0,166.665,51.635999999999996,51.635999999999996,46.494,46.494,34.0,-24.6925,23.982,-31.93,32.072500000000005,0.0,1781.672,-0.33999999999999986,100.0,28.731,28.715,43.665,43.915,0.0,0.0,100.0,0.0,0.0,0.0,0.0,3270.4285714285716,3051.3,4493.75,4436.9,305.079,305.06325,313.9825,313.7995,22.002625000000002,20.6503,22.0432,21.536,314.999998,314.999998,324.999988,324.999988,99.55808571428571,99.5074,99.56918571428571,99.54858571428572,0.09324999999999983,-0.04799999999999993,-0.10699999999999998,0.11616666666666675,-0.02833333333332888,-0.045000000000001705,1.4364999999999999,1.435,38.516,30.0645,38.769999999999996,35.6,55.605000000000004,35.4285,60.1295,53.064,53.57,34.562,58.696,51.3755,52.738,34.1245,58.5935,50.781666666666666,-0.10699999999999998,-0.05549999999999988,0.10841,0.1096,0.0,216.41500000000002,216.425,213.00333333333333,213.00333333333333,0.0,0.0
27,0.0,0.0,0.0,1.0,1.0,0.0,0.0,1.0,0.0,100.0,1.0,1.1856,26.0,0.0,0.0,0.0,62.0,0.0,26.0,26.0,26.0,26.0,0.021888888888888847,0.2518,-0.0446,291.794,-2.7466,-2.666888888888889,-1.6086,-1.617,-184.69,215.4375,190.408375,0.0,0.0,0.0,0.0,0.0545,-5.498166666666667,-5.498166666666667,-0.5953,-0.8783333333333332,0.01444444444444426,0.7789999999999999,69.245,0.0085,-0.23827500000000001,-0.2699999999999996,100.0,1.0,1.0,213.49333333333334,0.0,0.0,0.0,0.0,0.0,0.0,0.0,9049.2,0.0,55.0,5.0,249.25666666666666,1.0,0.0,0.0,0.0,0.0,0.0,0.0,0.0,1.352999999999998,1.352999999999998,0.0,0.0,1.0,55.0,616.79921,10000.0,85.000001,85.000001,85.000001,85.000001,395.0,0.0,0.0,0.0,1.0,166.665,51.941,51.941,46.661,46.661,34.0,-22.8825,25.846,-28.4525,30.07,0.0,1781.627,-0.3249999999999993,100.0,28.55,28.459,44.13,44.118,0.0,0.0,100.0,0.0,0.0,0.0,0.0,3025.0,3223.5,4107.125,4075.4,305.6685,304.6465,314.87275,314.7375,22.01075,20.6553,22.052599999999998,21.5442,314.999998,314.999998,324.999988,324.999988,99.5581,99.5074,99.56931428571428,99.54871428571428,0.09775,-0.04074999999999995,-0.09399999999999997,0.12916666666666687,-0.041666666666671404,-0.05333333333332746,1.5175,1.4940000000000002,38.568,30.0955,38.829,35.6515,55.594,35.463,60.1635,53.1185,53.56,34.594,58.7275,51.428,52.727000000000004,34.155,58.622,50.833,-0.10349999999999993,-0.05799999999999983,0.10411500000000001,0.11157500000000001,0.0,216.745,216.755,213.49333333333334,213.49333333333334,0.0,0.0
28,0.0,0.0,0.0,1.0,1.0,0.0,0.0,1.0,0.0,100.0,1.0,1.1856,26.0,0.0,0.0,0.0,62.0,0.0,26.0,26.0,26.0,26.0,0.03155555555555578,0.26960000000000006,-0.06407500000000001,291.962,-2.6809,-2.655666666666667,-1.6266,-1.5679,-181.14999999999998,215.435,190.383,0.0,0.0,0.0,0.0,0.05656666666666667,-5.498166666666667,-5.498166666666667,-0.602,0.5543333333333333,0.0022222222222221255,-0.9610000000000003,69.375,0.010100000000000001,-0.218175,-0.20399999999999974,100.0,1.0,1.0,213.98333333333335,0.0,0.0,0.0,0.0,0.0,0.0,0.0,9069.9,0.0,55.0,5.0,249.72666666666666,0.0,0.0,0.0,0.0,0.0,0.0,0.0,0.0,1.404,1.404,0.0,0.0,0.0,55.0,616.79921,10000.0,85.000001,85.000001,85.000001,85.000001,395.0,0.0,0.0,0.0,1.0,333.33500000000004,51.834,51.834,47.394,47.394,34.0,-23.482499999999998,24.78,-28.72,29.03,0.0,1781.575,-0.39000000000000057,100.0,28.471,28.621000000000002,43.464,43.791,0.0,0.0,100.0,0.0,0.0,0.0,0.0,3181.714285714286,3087.5,4118.375,4103.0,305.2795,304.86675,314.98525,314.71125,22.020125,20.661,22.0629,21.5533,314.999998,314.999998,324.999988,324.999988,99.55811428571428,99.50741666666667,99.56947142857143,99.54885714285714,0.09925000000000006,-0.03949999999999998,-0.09950000000000003,0.12216666666666676,-0.061666666666667425,-0.05333333333332746,1.5594999999999999,1.545,38.626000000000005,30.1315,38.893,35.708,55.583,35.5025,60.1965,53.177,53.55,34.6305,58.757999999999996,51.4845,52.716,34.19,58.6495,50.88766666666667,-0.11149999999999993,-0.052999999999999936,0.10305500000000001,0.10459500000000001,0.0,217.195,217.19,213.98333333333335,213.98333333333335,0.0,0.0
29,0.0,0.0,0.0,1.0,1.0,0.0,0.0,1.0,0.0,100.0,1.0,1.1856,26.0,0.0,0.0,0.0,62.0,0.0,26.0,26.0,26.0,26.0,0.04411111111111121,0.25639999999999996,-0.019125,291.855,-2.7527,-2.7167777777777777,-1.5683,-1.552,-177.39999999999998,215.4325,190.355125,0.0,0.0,0.0,0.0,0.05873333333333334,-5.498166666666667,-5.498166666666667,-0.6052000000000001,-0.7213333333333334,-0.0033333333333334103,-0.798,69.518,0.0149,-0.215175,-0.3120000000000003,100.0,1.0,1.0,214.26333333333332,0.0,0.0,0.0,0.0,0.0,0.0,0.0,9081.8,0.0,55.0,5.0,250.23666666666668,1.0,0.0,0.0,0.0,0.0,0.0,0.0,0.0,1.4579999999999984,1.4579999999999984,0.0,0.0,1.0,55.0,616.79921,10000.0,85.000001,85.000001,85.000001,85.000001,395.0,0.0,0.0,0.0,1.0,166.665,52.292,52.292,46.921,46.921,34.0,-24.3775,24.366,-29.2075,30.5825,0.0,1781.522,-0.384999999999998,100.0,28.122,28.403,43.845,44.065,0.0,0.0,100.0,0.0,0.0,0.0,0.0,3221.142857142857,2981.6,4184.375,4251.6,305.422,305.16575,314.7075,314.279,22.029875,20.6669,22.0742,21.5632,314.999998,314.999998,324.999988,324.999988,99.55812857142857,99.50741666666667,99.56962857142857,99.54901428571429,0.09549999999999992,-0.03925000000000001,-0.10449999999999993,0.12433333333333318,-0.026666666666670835,-0.045000000000001705,1.488,1.4809999999999999,38.687,30.1685,38.964,35.769999999999996,55.57,35.542500000000004,60.237,53.242,53.537,34.667,58.796,51.547,52.702,34.2255,58.684,50.949,-0.11549999999999994,-0.04899999999999993,0.110685,0.10255500000000001,0.0,217.565,217.61,214.26333333333332,214.26333333333332,0.0,0.0
30,0.0,0.0,0.0,1.0,1.0,0.0,0.0,1.0,0.0,100.0,1.0,1.1856,26.0,0.0,0.0,0.0,62.0,0.0,26.0,26.0,26.0,26.0,0.04588888888888887,0.2499,0.034475,291.183,-2.7223,-2.6044444444444443,-1.6389,-1.6027,-174.26999999999998,215.4325,190.33175,0.0,0.0,0.0,0.0,0.06053333333333334,-5.498166666666667,-5.498166666666667,-0.6081,0.758,0.001777777777777878,0.6429999999999998,69.631,0.0193,-0.218925,-0.39999999999999947,100.0,1.0,1.0,214.72333333333333,0.0,0.0,0.0,0.0,0.0,0.0,0.0,9101.4,0.0,55.0,5.0,250.64333333333335,0.0,0.0,0.0,0.0,0.0,0.0,1.0,0.0,1.5030000000000001,1.5030000000000001,0.0,0.0,0.0,55.0,616.79921,10000.0,85.000001,85.000001,85.000001,85.000001,395.0,0.0,0.0,0.0,1.0,333.33500000000004,50.461,50.461,47.226,47.226,34.0,-24.849999999999998,27.509999999999998,-28.4575,30.4825,0.0,1781.475,-0.35999999999999943,100.0,29.169,28.953,43.663,43.95,0.0,0.0,100.0,0.0,0.0,0.0,0.0,3328.714285714286,3410.6,4119.375,4117.7,304.5925,303.891,315.03075,314.6685,22.03825,20.6722,22.0833,21.5713,314.999998,314.999998,324.999988,324.999988,99.55814285714285,99.50741666666667,99.56975714285714,99.54914285714285,0.11275000000000013,-0.03400000000000003,-0.09033333333333338,0.1363333333333332,-0.03833333333332689,-0.05666666666667197,1.539,1.521,38.739000000000004,30.201,39.021,35.820499999999996,55.563,35.579,60.266999999999996,53.295,53.53,34.701,58.824,51.598,52.694,34.2575,58.709,50.998666666666665,-0.11450000000000005,-0.05500000000000016,0.10933500000000002,0.10085000000000001,0.0,217.965,217.97,214.72333333333333,214.72333333333333,0.0,0.0
31,0.0,0.0,0.0,1.0,1.0,0.0,0.0,1.0,0.0,100.0,1.0,1.1856,26.0,0.0,0.0,0.0,62.0,0.0,26.0,26.0,26.0,26.0,0.02633333333333332,0.2573000000000001,0.078575,290.695,-2.7726,-2.6226666666666665,-1.6463,-1.4943,-170.70999999999998,215.4325,190.30575,0.0,0.0,0.0,0.0,0.06263333333333335,-5.498166666666667,-5.498166666666667,-0.5868,-0.3793333333333333,0.011888888888888838,-0.7539999999999996,69.764,0.023100000000000002,-0.21885000000000002,-0.3120000000000003,100.0,1.0,1.0,214.91,0.0,0.0,0.0,0.0,0.0,0.0,0.0,9109.2,0.0,55.0,5.0,251.12333333333333,1.0,0.0,0.0,0.0,0.0,0.0,1.0,0.0,1.5539999999999985,1.5539999999999985,0.0,0.0,1.0,55.0,616.79921,10000.0,85.000001,85.000001,85.000001,85.000001,395.0,0.0,0.0,0.0,1.0,166.665,51.117,51.117,45.532,45.532,34.0,-24.1775,26.11,-32.2025,31.2475,0.0,1781.425,-0.39000000000000057,100.0,28.892,29.237000000000002,44.375,44.826,0.0,0.0,100.0,0.0,0.0,0.0,0.0,3230.714285714286,3265.2,4410.25,4406.1,305.27,304.41425,314.14475,313.83975,22.0475,20.678,22.094,21.5808,314.999998,314.999998,324.999988,324.999988,99.55815714285714,99.50743333333334,99.56991428571429,99.54931428571429,0.10975000000000001,-0.037250000000000005,-0.09716666666666662,0.12116666666666687,-0.041666666666671404,-0.041666666666671404,1.427,1.423,38.797,30.237499999999997,39.088,35.879999999999995,55.553,35.6195,60.307,53.3595,53.519999999999996,34.738,58.8615,51.66,52.683,34.293,58.743,51.059,-0.11699999999999999,-0.05500000000000016,0.10817500000000001,0.099805,0.0,218.35500000000002,218.38,214.91,214.91,0.0,0.0
32,0.0,0.0,0.0,1.0,1.0,0.0,0.0,1.0,0.0,100.0,1.0,1.1856,26.0,0.0,0.0,0.0,62.0,0.0,26.0,26.0,26.0,26.0,0.029777777777777903,0.27870000000000017,-0.037475,291.26,-2.6943,-2.684111111111111,-1.5857,-1.5518,-167.14999999999998,215.4325,190.280375,0.0,0.0,0.0,0.0,0.06470000000000001,-5.498166666666667,-5.498166666666667,-0.6051000000000001,-0.23833333333333329,-0.0058888888888888324,0.32200000000000006,69.891,0.0246,-0.23185,-0.37399999999999967,100.0,1.0,1.0,215.44333333333333,0.0,0.0,0.0,0.0,0.0,0.0,0.0,9131.9,0.0,55.0,5.0,251.58333333333334,0.0,0.0,0.0,0.0,0.0,0.0,1.0,0.0,1.6050000000000004,1.6050000000000004,0.0,0.0,0.0,55.0,616.79921,10000.0,85.000001,85.000001,85.000001,85.000001,395.0,0.0,0.0,0.0,1.0,166.665,51.528999999999996,51.528999999999996,46.463,46.463,34.0,-22.06,26.208,-27.5825,31.8275,0.0,1781.375,-0.370000000000001,100.0,28.896,28.943,44.283,44.582,0.0,0.0,100.0,0.0,0.0,0.0,0.0,3074.4285714285716,3184.3,4125.625,4323.1,305.4475,304.74475,314.79025,314.28375,22.05675,20.6838,22.1045,21.59,314.999998,314.999998,324.999988,324.999988,99.55817142857143,99.50743333333334,99.57005714285714,99.54945714285714,0.11825000000000019,-0.02849999999999997,-0.07883333333333331,0.14266666666666672,-0.041666666666671404,-0.06833333333332803,1.5185,1.509,38.855000000000004,30.2735,39.153,35.9375,55.543,35.659,60.342,53.4195,53.51,34.775,58.894,51.7175,52.672,34.3285,58.772,51.11566666666667,-0.11549999999999994,-0.05549999999999988,0.10440500000000001,0.10597000000000001,0.0,218.745,218.775,215.44333333333333,215.44333333333333,0.0,0.0
33,0.0,0.0,0.0,1.0,1.0,0.0,0.0,1.0,0.0,100.0,1.0,1.1856,26.0,0.0,0.0,0.0,62.0,0.0,26.0,26.0,26.0,26.0,0.03155555555555578,0.2531000000000001,-0.070175,291.58,-2.7244,-2.697111111111111,-1.5907,-1.5909,-163.8,215.435,190.255375,0.0,0.0,0.0,0.0,0.06663333333333334,-5.498166666666667,-5.498166666666667,-0.6139,-0.21599999999999997,-0.00855555555555565,0.9580000000000002,70.012,0.0218,-0.21727500000000002,-0.3260000000000005,100.0,1.0,1.0,215.8466666666667,0.0,0.0,0.0,0.0,0.0,0.0,0.0,9149.0,0.0,55.0,5.0,252.01666666666665,1.0,0.0,0.0,0.0,0.0,0.0,1.0,0.0,1.6529999999999987,1.6529999999999987,0.0,0.0,1.0,55.0,616.79921,10000.0,85.000001,85.000001,85.000001,85.000001,395.0,0.0,0.0,0.0,1.0,166.665,51.894999999999996,51.894999999999996,46.829,46.829,34.0,-22.294999999999998,25.838,-28.025,31.52,0.0,1781.325,-0.4400000000000013,100.0,28.707,28.662,44.068,44.356,0.0,0.0,100.0,0.0,0.0,0.0,0.0,3073.285714285714,3117.6,4118.875,4212.2,305.5305,304.95175,314.8585,314.50725,22.065375,20.6891,22.1143,21.5987,314.999998,314.999998,324.999988,324.999988,99.55818571428571,99.50743333333334,99.5702,99.54958571428571,0.11724999999999985,-0.025000000000000022,-0.08799999999999997,0.1433333333333333,-0.03999999999999915,-0.045000000000001705,1.5175,1.5030000000000001,38.909,30.307000000000002,39.215,35.992,55.532,35.6945,60.375,53.475,53.5,34.8075,58.9245,51.771,52.661,34.3595,58.7995,51.16766666666666,-0.11699999999999999,-0.04899999999999993,0.10913500000000001,0.10906500000000001,0.0,219.13,219.14,215.8466666666667,215.8466666666667,0.0,0.0
34,0.0,0.0,0.0,1.0,1.0,0.0,0.0,1.0,0.0,100.0,1.0,1.1856,26.0,0.0,0.0,0.0,62.0,0.0,26.0,26.0,26.0,26.0,0.0454444444444444,0.25670000000000015,-0.05915,291.855,-2.6648,-2.676,-1.6258,-1.5287000000000002,-160.22,215.4375,190.227375,0.0,0.0,0.0,0.0,0.06873333333333334,-5.498166666666667,-5.498166666666667,-0.6394000000000001,-0.8826666666666667,0.00955555555555554,-0.31400000000000006,70.142,0.023100000000000002,-0.220425,-0.2939999999999996,100.0,1.0,1.0,216.20333333333332,0.0,0.0,0.0,0.0,0.0,0.0,0.0,9164.1,0.0,55.0,5.0,252.48333333333335,0.0,0.0,0.0,0.0,0.0,0.0,1.0,0.0,1.7040000000000006,1.7040000000000006,0.0,0.0,0.0,55.0,616.79921,10000.0,85.000001,85.000001,85.000001,85.000001,395.0,0.0,0.0,0.0,1.0,166.665,52.383,52.383,47.119,47.119,34.0,-21.95,23.732,-29.0775,30.1275,0.0,1781.276,-0.4299999999999997,100.0,28.269,28.455,43.857,44.444,0.0,0.0,100.0,0.0,0.0,0.0,0.0,3092.285714285714,2943.9,4152.625,4198.5,305.6325,305.29775,314.8515,314.515,22.0745,20.6947,22.1247,21.608,314.999998,314.999998,324.999988,324.999988,99.5582,99.50745,99.57034285714286,99.54974285714286,0.1120000000000001,-0.03774999999999995,-0.09550000000000003,0.13483333333333336,-0.045000000000001705,-0.04833333333333201,1.5185,1.5060000000000002,38.966,30.342,39.28,36.05,55.519999999999996,35.731,60.4095,53.5355,53.489000000000004,34.841,58.9565,51.829499999999996,52.647999999999996,34.3915,58.828,51.224666666666664,-0.11499999999999999,-0.0495000000000001,0.10655500000000001,0.11063,0.0,219.51,219.51999999999998,216.20333333333332,216.20333333333332,0.0,0.0
35,0.0,0.0,0.0,1.0,1.0,0.0,0.0,1.0,0.0,100.0,1.0,1.1856,26.0,0.0,0.0,0.0,62.0,0.0,26.0,26.0,26.0,26.0,0.036555555555555674,0.256,-0.103825,291.794,-2.7227,-2.658777777777778,-1.5389,-1.5829,-156.64,215.4425,190.1975,0.0,0.0,0.0,0.0,0.0708,-5.498166666666667,-5.498166666666667,-0.6786,-0.20733333333333337,-0.003444444444444361,-0.032999999999999474,70.267,0.0263,-0.22775,-0.3860000000000001,100.0,1.0,1.0,216.69333333333333,0.0,0.0,0.0,0.0,0.0,0.0,0.0,9184.8,0.0,55.0,5.0,252.93666666666667,1.0,0.0,0.0,0.0,0.0,0.0,1.0,0.0,1.754999999999999,1.754999999999999,0.0,0.0,1.0,55.0,616.79921,10000.0,85.000001,85.000001,85.000001,85.000001,395.0,0.0,0.0,0.0,1.0,333.33500000000004,51.727000000000004,51.727000000000004,46.814,46.814,34.0,-22.7175,27.828,-26.349999999999998,30.22,0.0,1781.224,-0.28000000000000114,100.0,28.248,28.631999999999998,43.69,43.894999999999996,0.0,0.0,100.0,0.0,0.0,0.0,0.0,3073.4285714285716,3383.7,4077.0,4043.3,305.488,304.14375,315.02675,314.97975,22.0835,20.700499999999998,22.1351,21.6171,314.999998,314.999998,324.999988,324.999988,99.55821428571429,99.50745,99.5705,99.5499,0.10850000000000026,-0.02949999999999997,-0.08016666666666661,0.15416666666666679,-0.051666666666669414,-0.05833333333333002,1.5525,1.533,39.022,30.3785,39.344,36.107,55.507,35.769999999999996,60.443,53.592,53.476,34.8775,58.9875,51.884,52.634,34.4265,58.856,51.278,-0.10149999999999992,-0.06099999999999994,0.10778000000000001,0.11444000000000001,0.0,219.925,219.93,216.69333333333333,216.69333333333333,0.0,0.0
36,0.0,0.0,0.0,1.0,1.0,0.0,0.0,1.0,0.0,100.0,1.0,1.1856,26.0,0.0,0.0,0.0,62.0,0.0,26.0,26.0,26.0,26.0,0.03577777777777791,0.26350000000000007,0.0519,291.046,-2.646,-2.720222222222222,-1.6456,-1.5561,-153.26,215.445,190.168125,0.0,0.0,0.0,0.0,0.07276666666666666,-5.498166666666667,-5.498166666666667,-0.6622,0.18466666666666665,-0.044222222222222385,0.16000000000000014,70.39,0.0246,-0.20247500000000002,-0.22200000000000042,100.0,1.0,1.0,216.85666666666668,0.0,0.0,0.0,0.0,0.0,0.0,0.0,9191.7,0.0,55.0,5.0,253.38,0.0,0.0,0.0,0.0,0.0,0.0,1.0,0.0,1.8030000000000008,1.8030000000000008,0.0,0.0,0.0,55.0,616.79921,10000.0,85.000001,85.000001,85.000001,85.000001,395.0,0.0,0.0,0.0,1.0,333.33500000000004,51.498,51.498,46.402,46.402,34.0,-22.13,25.968,-30.7375,33.475,0.0,1781.175,-0.18499999999999872,100.0,28.929000000000002,28.768,43.906,44.175,0.0,0.0,100.0,0.0,0.0,0.0,0.0,3083.857142857143,3158.8,4377.0,4500.1,305.285,304.749,314.2465,313.83275,22.09225,20.7061,22.1449,21.626,314.999998,314.999998,324.999988,324.999988,99.55822857142857,99.50745,99.57062857142857,99.55004285714286,0.1120000000000001,-0.03874999999999995,-0.07766666666666666,0.13549999999999995,-0.03999999999999915,-0.05833333333333002,1.446,1.44,39.076,30.413,39.406,36.162,55.498000000000005,35.808,60.4765,53.65,53.467,34.912,59.019,51.9395,52.623999999999995,34.46,58.8845,51.33233333333334,-0.09349999999999992,-0.07050000000000001,0.10511500000000001,0.10651500000000001,0.0,220.31,220.32,216.85666666666668,216.85666666666668,0.0,0.0
