,ABS Active,ABS Enabled,AID Allow Tire Blankets,AID Auto Blip,AID Auto Clutch,AID Auto Shift,AID Fuel Rate,AID Ideal Line,AID Mech Damage,AID Stability,AID Tire Wear Rate,Air Density,Air Temp,Ballast,Best Lap Delta,Best Lap Time,Brake Bias,Brake Pos,Brake Temp FL,Brake Temp FR,Brake Temp RL,Brake Temp RR,CG Accel Lateral,CG Accel Longitudinal,CG Accel Vertical,CG Height,Camber FL,Camber FR,Camber RL,Camber RR,Car Coord X,Car Coord Y,Car Coord Z,Car Damage Front,Car Damage Left,Car Damage Rear,Car Damage Right,Car Pos Norm,Caster FL,Caster FR,Chassis Pitch Angle,Chassis Pitch Rate,Chassis Roll Angle,Chassis Roll Rate,Chassis Velocity X,Chassis Velocity Y,Chassis Velocity Z,Chassis Yaw Rate,Clutch Pos,DRS Active,DRS Available,Drive Train Speed,ERS Heat Charging,ERS Is Charging,ERS Max Energy,ERS Power Level,ERS Recovery Level,Engine Brake Setting,Engine Limiter,Engine RPM,Flags,Fuel Level,Gear,Ground Speed,HR Sample Clock,In Pit,KERS Charge,KERS Deployed Energy,KERS Input,KERS Max Energy,LR Sample Clock,Lap Invalidated,Lap Time,Lap Time2,Last Lap Time,Last Sector Time,MR Sample Clock,Max Fuel,Max Power,Max RPM,Max Sus Travel FL,Max Sus Travel FR,Max Sus Travel RL,Max Sus Travel RR,Max Torque,Max Turbo Boost,Num Tires Off Track,Penalties Enabled,Position,Raw Data Sample Rate,Ride Height FL,Ride Height FR,Ride Height RL,Ride Height RR,Road Temp,Self Align Torque FL,Self Align Torque FR,Self Align Torque RL,Self Align Torque RR,Session Lap Count,Session Time Left,Steering Angle,Surface Grip,Suspension Travel FL,Suspension Travel FR,Suspension Travel RL,Suspension Travel RR,TC Active,TC Enabled,Throttle Pos,Tire Dirt Level FL,Tire Dirt Level FR,Tire Dirt Level RL,Tire Dirt Level RR,Tire Load FL,Tire Load FR,Tire Load RL,Tire Load RR,Tire Loaded Radius FL,Tire Loaded Radius FR,Tire Loaded Radius RL,Tire Loaded Radius RR,Tire Pressure FL,Tire Pressure FR,Tire Pressure RL,Tire Pressure RR,Tire Radius FL,Tire Radius FR,Tire Radius RL,Tire Radius RR,Tire Rubber Grip FL,Tire Rubber Grip FR,Tire Rubber Grip RL,Tire Rubber Grip RR,Tire Slip Angle FL,Tire Slip Angle FR,Tire Slip Angle RL,Tire Slip Angle RR,Tire Slip Ratio FL,Tire Slip Ratio FR,Tire Slip Ratio RL,Tire Slip Ratio RR,Tire Temp Core FL,Tire Temp Core FR,Tire Temp Core RL,Tire Temp Core RR,Tire Temp Inner FL,Tire Temp Inner FR,Tire Temp Inner RL,Tire Temp Inner RR,Tire Temp Middle FL,Tire Temp Middle FR,Tire Temp Middle RL,Tire Temp Middle RR,Tire Temp Outer FL,Tire Temp Outer FR,Tire Temp Outer RL,Tire Temp Outer RR,Toe In FL,Toe In FR,Toe In RL,Toe In RR,Turbo Boost,Wheel Angular Speed FL,Wheel Angular Speed FR,Wheel Angular Speed RL,Wheel Angular Speed RR,Wind Direction,Wind Speed
0,0.0,0.0,0.0,1.0,1.0,0.0,0.0,1.0,0.0,100.0,1.0,1.1856,26.0,0.0,0.0,0.0,62.0,0.0,26.0,26.0,26.0,26.0,-0.018000000000000016,0.2922,0.11533333333333333,293.045,-2.7913,-2.6164444444444444,-1.5624,-1.5043,-275.73,215.4025,190.987625,0.0,0.0,0.0,0.0,0.0015666666666666667,-5.498166666666667,-5.498166666666667,-0.5676,2.2025,0.004666666666666597,0.2869999999999999,65.498,-0.0263,-0.2296,-0.11799999999999944,100.0,1.0,1.0,202.20666666666668,0.0,0.0,0.0,0.0,0.0,0.0,0.0,8570.7,0.0,55.0,5.0,235.76333333333332,0.0,0.0,0.0,0.0,0.0,0.0,0.0,0.0,0.0030000000000001137,0.0030000000000001137,0.0,0.0,0.0,55.0,616.79921,10000.0,85.0,85.0,85.0,85.0,395.0,0.0,0.0,0.0,1.0,20.0,50.598,50.598,48.95,48.95,34.0,-29.32,33.126,-29.39666666666667,27.1275,0.0,1782.995,0.08500000000000085,100.0,27.677,27.474,40.343,40.06,0.0,0.0,100.0,0.0,0.0,0.0,0.0,3334.714285714286,4285.7,4076.0,4185.9,304.5505,301.525,314.92675,314.48525,21.7735,20.5097,21.7742,21.3151,314.99999,314.99999,324.99998,324.99998,99.55874285714286,99.50708333333333,99.56524285714286,99.54522857142857,0.028999999999999915,-0.07025000000000003,-0.13583333333333333,0.093,-0.036666666666668846,-0.06857142857143117,1.544,1.5495,37.084,29.185666666666666,37.089,34.219,56.238,34.406,59.0725,51.621,54.162,33.597,57.7,49.980000000000004,53.337,33.177,57.664,49.40533333333333,-0.07099999999999995,-0.08450000000000024,0.10829000000000001,0.10962000000000001,0.0,205.23000000000002,205.255,202.20666666666668,202.20666666666668,0.0,0.0
1,0.0,0.0,0.0,1.0,1.0,0.0,0.0,1.0,0.0,100.0,1.0,1.1856,26.0,0.0,0.0,0.0,62.0,0.0,26.0,26.0,26.0,26.0,-0.05111111111111111,0.3386,0.1978,292.099,-2.6893,-2.6994444444444445,-1.60515,-1.3816,-272.18,215.4075,190.966625,0.0,0.0,0.0,0.0,0.003633333333333334,-5.498166666666667,-5.498166666666667,-0.4772,-2.2245,-0.04588888888888887,-0.3780000000000001,65.668,-0.018000000000000002,-0.18580000000000002,0.48600000000000065,100.0,1.0,1.0,202.09333333333333,0.0,0.0,0.0,0.0,0.0,0.0,0.0,8566.1,0.0,55.0,5.0,236.37333333333333,1.0,0.0,0.0,0.0,0.0,0.0,0.0,0.0,0.05699999999999861,0.05699999999999861,0.0,0.0,1.0,55.0,616.79921,10000.0,85.000001,85.000001,85.000001,85.000001,395.0,0.0,0.0,0.0,1.0,166.665,54.184,54.184,47.119,47.119,34.0,-22.607499999999998,17.317999999999998,-37.67333333333333,33.6375,0.0,1782.94,0.3049999999999997,100.0,27.635,27.228,42.74,43.602000000000004,0.0,0.0,100.0,0.0,0.0,0.0,0.0,2805.285714285714,2453.0,4748.5,5336.4,306.328,307.03125,313.08125,311.17475,21.7837,20.515,21.785800000000002,21.325,314.999998,314.999998,324.999988,324.999988,99.55874285714286,99.5071,99.5654,99.54538571428571,0.038000000000000256,-0.09124999999999994,-0.13666666666666666,0.06366666666666666,-0.041666666666671404,-0.01999999999999602,1.3066666666666666,1.323,37.147999999999996,29.218666666666664,37.161,34.2815,56.219,34.446,59.124,51.696,54.144,33.634,57.748,50.0515,53.318,33.212,57.709,49.47566666666667,-0.05149999999999988,-0.09799999999999986,0.10841,0.10553000000000001,0.0,205.68,205.64,202.09333333333333,202.09333333333333,0.0,0.0
2,0.0,0.0,0.0,1.0,1.0,0.0,0.0,1.0,0.0,100.0,1.0,1.1856,26.0,0.0,0.0,0.0,62.0,0.0,26.0,26.0,26.0,26.0,-0.06211111111111112,0.28659999999999997,-0.08346666666666666,293.747,-2.6718,-2.6447777777777777,-1.5742,-1.5087000000000002,-268.83,215.41250000000002,190.94775,0.0,0.0,0.0,0.0,0.005566666666666667,-5.498166666666667,-5.498166666666667,-0.5829,0.99,-0.0043333333333333,1.6610000000000005,65.8,-0.02,-0.2728,0.6820000000000004,100.0,1.0,1.0,203.57999999999998,0.0,0.0,0.0,0.0,0.0,0.0,0.0,8629.0,0.0,55.0,5.0,236.85000000000002,0.0,0.0,0.0,0.0,0.0,0.0,0.0,0.0,0.10800000000000054,0.10800000000000054,0.0,0.0,0.0,55.0,616.79921,10000.0,85.000001,85.000001,85.000001,85.000001,395.0,0.0,0.0,0.0,1.0,166.665,51.62,51.62,50.659,50.659,34.0,-28.509999999999998,22.422,-25.02,19.762500000000003,0.0,1782.889,0.45500000000000185,100.0,28.262999999999998,27.726,41.724000000000004,41.685,0.0,0.0,100.0,0.0,0.0,0.0,0.0,3378.714285714286,3182.0,3534.625,3399.4,304.5185,304.459,316.25775,316.4875,21.7938,20.5203,21.796,21.3334,314.999998,314.999998,324.999988,324.999988,99.55875714285715,99.5071,99.56554285714286,99.54551428571429,0.028249999999999886,-0.11075000000000002,-0.16083333333333336,0.0795,-0.061666666666667425,-0.05571428571428072,1.7663333333333333,1.7865,37.211,29.251666666666665,37.224999999999994,34.3335,56.206,34.4865,59.157,51.7435,54.132,33.671,57.7785,50.097,53.305,33.248,57.737,49.52066666666666,-0.04949999999999988,-0.11350000000000016,0.104495,0.112115,0.0,206.14,206.085,203.57999999999998,203.57999999999998,0.0,0.0
3,0.0,0.0,0.0,1.0,1.0,0.0,0.0,1.0,0.0,100.0,1.0,1.1856,26.0,0.0,0.0,0.0,62.0,0.0,26.0,26.0,26.0,26.0,-0.05555555555555547,0.31500000000000017,0.1927666666666667,292.877,-2.6926,-2.671333333333333,-1.5590000000000002,-1.4739,-265.87,215.41250000000002,190.929625,0.0,0.0,0.0,0.0,0.0073,-5.498166666666667,-5.498166666666667,-0.49960000000000004,0.6945,0.016111111111110965,-1.313,65.941,-0.0304,-0.1824,0.5880000000000001,100.0,1.0,1.0,203.29000000000002,0.0,0.0,0.0,0.0,0.0,0.0,0.0,8616.7,0.0,55.0,5.0,237.35666666666668,1.0,0.0,0.0,0.0,0.0,0.0,0.0,0.0,0.1529999999999987,0.1529999999999987,0.0,0.0,1.0,55.0,616.79921,10000.0,85.000001,85.000001,85.000001,85.000001,395.0,0.0,0.0,0.0,1.0,166.665,53.314,53.314,47.409,47.409,34.0,-22.815,21.124000000000002,-34.556666666666665,29.177500000000002,0.0,1782.843,0.5500000000000007,100.0,27.884,27.547,42.0,42.129,0.0,0.0,100.0,0.0,0.0,0.0,0.0,2786.857142857143,2974.6,4526.875,4516.4,306.4305,305.333,313.79025,313.54725,21.8023,20.525,21.8053,21.3414,314.999998,314.999998,324.999988,324.999988,99.55875714285715,99.50711666666666,99.56567142857143,99.54564285714285,0.027000000000000135,-0.10150000000000003,-0.14583333333333334,0.0815,-0.041666666666671404,-0.028571428571432023,1.4286666666666665,1.4645000000000001,37.265,29.281,37.283,34.3835,56.191,34.524,59.192499999999995,51.8035,54.117000000000004,33.706,57.8115,50.155,53.289,33.281,57.766999999999996,49.577333333333335,-0.03499999999999992,-0.11549999999999994,0.11037500000000001,0.104385,0.0,206.63,206.555,203.29000000000002,203.29000000000002,0.0,0.0
4,0.0,0.0,0.0,1.0,1.0,0.0,0.0,1.0,0.0,100.0,1.0,1.1856,26.0,0.0,0.0,0.0,62.0,0.0,26.0,26.0,26.0,26.0,-0.07044444444444442,0.28190000000000004,0.0039000000000000003,293.365,-2.6766,-2.7382222222222223,-1.4952,-1.5902,-262.5,215.41500000000002,190.910375,0.0,0.0,0.0,0.0,0.009266666666666668,-5.498166666666667,-5.498166666666667,-0.5315,-0.9470000000000001,-0.0425555555555559,-0.79,66.086,-0.0375,-0.236375,0.9699999999999998,100.0,1.0,1.0,203.98666666666668,0.0,0.0,0.0,0.0,0.0,0.0,0.0,8646.2,0.0,55.0,5.0,237.88,0.0,0.0,0.0,0.0,0.0,0.0,0.0,0.0,0.20400000000000063,0.20400000000000063,0.0,0.0,0.0,55.0,616.79921,10000.0,85.000001,85.000001,85.000001,85.000001,395.0,0.0,0.0,0.0,1.0,166.665,52.994,52.994,48.798,48.798,34.0,-27.7275,19.78,-30.006666666666668,23.615000000000002,0.0,1782.793,0.6799999999999997,100.0,27.694,27.209,42.822,42.288,0.0,0.0,100.0,0.0,0.0,0.0,0.0,3213.857142857143,2867.6,4037.125,3822.0,305.1725,305.60125,315.013,315.28775,21.8121,20.5301,21.816,21.3503,314.999998,314.999998,324.999988,324.999988,99.55875714285715,99.50713333333333,99.56581428571428,99.54578571428571,0.005250000000000199,-0.12949999999999995,-0.17233333333333334,0.05616666666666666,-0.04833333333333201,-0.04285714285714448,1.5446666666666666,1.5955,37.326,29.313000000000002,37.349999999999994,34.439499999999995,56.174,34.5635,59.235,51.863,54.101,33.742,57.8515,50.212,53.272999999999996,33.316,57.804,49.63333333333333,-0.026499999999999968,-0.12849999999999984,0.11012500000000001,0.09706000000000001,0.0,206.995,206.91500000000002,203.98666666666668,203.98666666666668,0.0,0.0
5,0.0,0.0,0.0,1.0,1.0,0.0,0.0,1.0,0.0,100.0,1.0,1.1856,26.0,0.0,0.0,0.0,62.0,0.0,26.0,26.0,26.0,26.0,-0.09855555555555551,0.2874000000000001,-0.0446,293.73199999999997,-2.6471999999999998,-2.7015555555555557,-1.5426,-1.5759,-259.13,215.41250000000002,190.890625,0.0,0.0,0.0,0.0,0.011233333333333333,-5.498166666666667,-5.498166666666667,-0.5388000000000001,0.571,-0.02777777777777768,0.8180000000000001,66.23,-0.0585,-0.22462500000000002,1.0060000000000002,100.0,1.0,1.0,204.53,0.0,0.0,0.0,0.0,0.0,0.0,0.0,8669.3,0.0,55.0,5.0,238.4,1.0,0.0,0.0,0.0,0.0,0.0,0.0,0.0,0.254999999999999,0.254999999999999,0.0,0.0,1.0,55.0,616.79921,10000.0,85.000001,85.000001,85.000001,85.000001,395.0,0.0,0.0,0.0,1.0,333.33500000000004,53.268,53.268,49.21,49.21,34.0,-25.39,21.016,-29.68,23.73,0.0,1782.74,0.14000000000000057,100.0,27.753,26.951999999999998,42.436,41.591,0.0,0.0,100.0,0.0,0.0,0.0,0.0,3007.0,2994.1,3901.375,3959.6000000000004,305.5445,305.332,315.33825,315.07875,21.8219,20.5353,21.8263,21.359099999999998,314.999998,314.999998,324.999988,324.999988,99.55875714285715,99.50713333333333,99.56595714285714,99.54591428571429,0.013749999999999929,-0.11375000000000002,-0.18066666666666667,0.046,-0.041666666666671404,-0.06142857142857139,1.5683333333333334,1.6165,37.387,29.345666666666666,37.415,34.494,56.158,34.6045,59.272,51.92,54.086,33.78,57.885999999999996,50.266999999999996,53.257,33.352000000000004,57.835499999999996,49.687,-0.05149999999999988,-0.09299999999999997,0.10189000000000001,0.112405,0.0,207.51,207.43,204.53,204.53,0.0,0.0
6,0.0,0.0,0.0,1.0,1.0,0.0,0.0,1.0,0.0,100.0,1.0,1.1856,26.0,0.0,0.0,0.0,62.0,0.0,26.0,26.0,26.0,26.0,-0.09833333333333338,0.27649999999999997,0.021466666666666665,293.533,-2.6844,-2.772111111111111,-1.4895,-1.5861,-255.75,215.41,190.87,0.0,0.0,0.0,0.0,0.0132,-5.498166666666667,-5.498166666666667,-0.5279,-0.33299999999999996,-0.04822222222222239,-0.9500000000000002,66.38,-0.06420000000000001,-0.20497500000000002,0.8399999999999999,100.0,1.0,1.0,204.79666666666668,0.0,0.0,0.0,0.0,0.0,0.0,0.0,8680.6,0.0,55.0,5.0,238.93666666666667,0.0,0.0,0.0,0.0,0.0,0.0,0.0,0.0,0.30600000000000094,0.30600000000000094,0.0,0.0,0.0,55.0,616.79921,10000.0,85.000001,85.000001,85.000001,85.000001,395.0,0.0,0.0,0.0,1.0,166.665,53.589,53.589,48.66,48.66,34.0,-28.072499999999998,19.272,-32.67666666666667,24.5,0.0,1782.691,0.3949999999999996,100.0,27.297,26.722,42.536,41.825,0.0,0.0,100.0,0.0,0.0,0.0,0.0,3214.142857142857,2777.3,4225.0,4040.0,305.2145,305.8425,314.5555,314.73825,21.8316,20.540399999999998,21.8369,21.368,314.999998,314.999998,324.999988,324.999988,99.55877142857143,99.50715,99.5661,99.54607142857142,-0.0022499999999998632,-0.13249999999999995,-0.18833333333333335,0.036333333333333336,-0.03999999999999915,-0.05285714285714249,1.5030000000000001,1.521,37.448,29.377333333333333,37.480999999999995,34.55,56.141,34.643,59.3125,51.9815,54.07,33.8155,57.924,50.326,53.239999999999995,33.385999999999996,57.8705,49.74466666666667,-0.04899999999999993,-0.09949999999999992,0.10698500000000001,0.109655,0.0,207.94,207.88,204.79666666666668,204.79666666666668,0.0,0.0
7,0.0,0.0,0.0,1.0,1.0,0.0,0.0,1.0,0.0,100.0,1.0,1.1856,26.0,0.0,0.0,0.0,62.0,0.0,26.0,26.0,26.0,26.0,-0.07266666666666666,0.30269999999999997,-0.004433333333333333,293.488,-2.6824,-2.768777777777778,-1.54355,-1.6064,-252.56,215.4025,190.850625,0.0,0.0,0.0,0.0,0.015033333333333334,-5.498166666666667,-5.498166666666667,-0.5344,0.11149999999999993,-0.039888888888889085,-0.33499999999999996,66.516,-0.06910000000000001,-0.2162,0.6600000000000001,100.0,1.0,1.0,205.27666666666667,0.0,0.0,0.0,0.0,0.0,0.0,0.0,8701.0,0.0,55.0,5.0,239.43,1.0,0.0,0.0,0.0,0.0,0.0,0.0,0.0,0.3539999999999992,0.3539999999999992,0.0,0.0,1.0,55.0,616.79921,10000.0,85.000001,85.000001,85.000001,85.000001,395.0,0.0,0.0,0.0,1.0,166.665,53.253,53.253,48.706,48.706,34.0,-27.2475,21.088,-32.88333333333333,23.67,0.0,1782.643,-0.129999999999999,100.0,27.569,26.968,42.542,41.784,0.0,0.0,100.0,0.0,0.0,0.0,0.0,3208.714285714286,2858.3,4160.0,3948.7,305.2215,305.54425,314.7585,314.98825,21.841,20.5453,21.8468,21.3764,314.999998,314.999998,324.999988,324.999988,99.55877142857143,99.50716666666666,99.56622857142857,99.5462,0.016000000000000014,-0.10324999999999995,-0.19566666666666666,0.03233333333333334,-0.07333333333333059,-0.047142857142851824,1.549,1.58,37.506,29.408,37.542,34.6025,56.128,34.6815,59.3495,52.0375,54.057,33.851,57.9585,50.3795,53.226,33.42,57.9025,49.797333333333334,-0.08000000000000007,-0.0625,0.10777500000000001,0.104215,0.0,208.385,208.3,205.27666666666667,205.27666666666667,0.0,0.0
8,0.0,0.0,0.0,1.0,1.0,0.0,0.0,1.0,0.0,100.0,1.0,1.1856,26.0,0.0,0.0,0.0,62.0,0.0,26.0,26.0,26.0,26.0,-0.061111111111111116,0.28259999999999996,-0.018733333333333334,293.533,-2.6699,-2.708111111111111,-1.55565,-1.5997,-249.16,215.39499999999998,190.83,0.0,0.0,0.0,0.0,0.017033333333333334,-5.498166666666667,-5.498166666666667,-0.5367000000000001,-0.09549999999999992,-0.027111111111111086,0.383,66.661,-0.061700000000000005,-0.22030000000000002,0.21799999999999997,100.0,1.0,1.0,205.72,0.0,0.0,0.0,0.0,0.0,0.0,0.0,8719.7,0.0,55.0,5.0,239.95,0.0,0.0,0.0,0.0,0.0,0.0,0.0,0.0,0.40500000000000114,0.40500000000000114,0.0,0.0,0.0,55.0,616.79921,10000.0,85.000001,85.000001,85.000001,85.000001,395.0,0.0,0.0,0.0,1.0,333.33500000000004,53.345,53.345,48.507999999999996,48.507999999999996,34.0,-24.2725,23.002000000000002,-30.72,25.0575,0.0,1782.592,-0.21999999999999886,100.0,27.512,26.93,42.608000000000004,41.858000000000004,0.0,0.0,100.0,0.0,0.0,0.0,0.0,2995.285714285714,3046.1,4048.125,4006.3,305.641,305.168,314.94875,314.9035,21.8507,20.5506,21.8573,21.3854,314.999998,314.999998,324.999988,324.999988,99.55877142857143,99.50718333333333,99.56637142857143,99.54632857142857,0.04200000000000026,-0.07774999999999999,-0.1665,0.05383333333333334,-0.05333333333332746,-0.028571428571432023,1.5413333333333332,1.566,37.567,29.441,37.608000000000004,34.658500000000004,56.111999999999995,34.7215,59.3885,52.099000000000004,54.042,33.8875,57.995,50.4385,53.21,33.455,57.936,49.85466666666667,-0.08850000000000002,-0.05149999999999988,0.106895,0.1073,0.0,208.805,208.755,205.72,205.72,0.0,0.0
9,0.0,0.0,0.0,1.0,1.0,0.0,0.0,1.0,0.0,100.0,1.0,1.1856,26.0,0.0,0.0,0.0,62.0,0.0,26.0,26.0,26.0,26.0,-0.03244444444444439,0.2894000000000001,-0.008366666666666668,293.335,-2.6748,-2.7203333333333335,-1.5425,-1.5579,-245.76,215.3875,190.80925,0.0,0.0,0.0,0.0,0.019,-5.498166666666667,-5.498166666666667,-0.5345,0.1825,-0.039111111111111097,-0.7279999999999998,66.806,-0.0451,-0.21305000000000002,0.06400000000000006,100.0,1.0,1.0,206.14666666666668,0.0,0.0,0.0,0.0,0.0,0.0,0.0,8737.8,0.0,55.0,5.0,240.47,1.0,0.0,0.0,0.0,0.0,0.0,0.0,0.0,0.4559999999999995,0.4559999999999995,0.0,0.0,1.0,55.0,616.79921,10000.0,85.000001,85.000001,85.000001,85.000001,395.0,0.0,0.0,0.0,1.0,166.665,53.04,53.04,48.706,48.706,34.0,-25.9625,22.490000000000002,-30.310000000000002,25.505000000000003,0.0,1782.541,-0.3049999999999997,100.0,27.508,27.093,42.465,41.998000000000005,0.0,0.0,100.0,0.0,0.0,0.0,0.0,3207.714285714286,2955.7,4099.5,4064.9,305.1895,305.281,314.90975,314.7265,21.860500000000002,20.5558,21.8678,21.3943,314.999998,314.999998,324.999988,324.999988,99.55878571428572,99.50718333333333,99.56651428571429,99.54647142857142,0.045250000000000234,-0.07774999999999999,-0.15466666666666665,0.06216666666666667,-0.04999999999999716,-0.03857142857143003,1.5393333333333334,1.544,37.628,29.474,37.674,34.7145,56.097,34.76,59.4275,52.158500000000004,54.028,33.9235,58.031,50.4955,53.196,33.4895,57.9695,49.910666666666664,-0.09699999999999998,-0.04899999999999993,0.10423,0.108295,0.0,209.235,209.22,206.14666666666668,206.14666666666668,0.0,0.0
10,0.0,0.0,0.0,1.0,1.0,0.0,0.0,1.0,0.0,100.0,1.0,1.1856,26.0,0.0,0.0,0.0,62.0,0.0,26.0,26.0,26.0,26.0,-0.012666666666666604,0.29490000000000016,0.004200000000000001,293.259,-2.6814999999999998,-2.698888888888889,-1.55625,-1.5444,-242.55,215.3775,190.789625,0.0,0.0,0.0,0.0,0.020866666666666665,-5.498166666666667,-5.498166666666667,-0.5293,-0.19650000000000012,-0.01622222222222236,0.02400000000000002,66.94200000000001,-0.031200000000000002,-0.2107,-0.07200000000000006,100.0,1.0,1.0,206.49333333333334,0.0,0.0,0.0,0.0,0.0,0.0,0.0,8752.4,0.0,55.0,5.0,240.96333333333334,0.0,0.0,0.0,0.0,0.0,0.0,1.0,0.0,0.5040000000000013,0.5040000000000013,0.0,0.0,0.0,55.0,616.79921,10000.0,85.000001,85.000001,85.000001,85.000001,395.0,0.0,0.0,0.0,1.0,333.33500000000004,53.345,53.345,48.447,48.447,34.0,-24.5025,22.674,-30.343333333333334,27.11,0.0,1782.491,-0.3999999999999986,100.0,27.455,27.04,42.546,42.256,0.0,0.0,100.0,0.0,0.0,0.0,0.0,3102.4285714285716,2926.4,4162.125,4188.2,305.5025,305.395,314.735,314.41425,21.8697,20.5608,21.8777,21.4029,314.999998,314.999998,324.999988,324.999988,99.55878571428572,99.5072,99.56665714285714,99.54661428571428,0.05774999999999997,-0.0615,-0.13783333333333334,0.076,-0.051666666666669414,-0.054285714285711606,1.518,1.5145,37.685,29.504666666666665,37.736000000000004,34.768,56.084,34.796,59.465,52.216,54.015,33.9565,58.066,50.551,53.182,33.5205,58.0015,49.965,-0.10850000000000004,-0.03400000000000025,0.0995,0.11395000000000001,0.0,209.65,209.65,206.49333333333334,206.49333333333334,0.0,0.0
11,0.0,0.0,0.0,1.0,1.0,0.0,0.0,1.0,0.0,100.0,1.0,1.1856,26.0,0.0,0.0,0.0,62.0,0.0,26.0,26.0,26.0,26.0,-0.006444444444444475,0.274,-0.034300000000000004,293.549,-2.7028,-2.695777777777778,-1.56475,-1.5198,-239.13,215.3675,190.768625,0.0,0.0,0.0,0.0,0.022600000000000002,-5.498166666666667,-5.498166666666667,-0.5502,-0.30200000000000005,0.011333333333333195,0.9929999999999999,67.084,-0.0155,-0.22365000000000002,-0.3099999999999996,100.0,1.0,1.0,207.03333333333333,0.0,0.0,0.0,0.0,0.0,0.0,0.0,8775.3,0.0,55.0,5.0,241.47,1.0,0.0,0.0,0.0,0.0,0.0,1.0,0.0,0.5549999999999997,0.5549999999999997,0.0,0.0,1.0,55.0,616.79921,10000.0,85.000001,85.000001,85.000001,85.000001,395.0,0.0,0.0,0.0,1.0,333.33500000000004,53.329,53.329,48.92,48.92,34.0,-22.985,24.71,-27.233333333333334,27.84,0.0,1782.441,-0.5850000000000009,100.0,27.323,26.919,42.407,42.208,0.0,0.0,100.0,0.0,0.0,0.0,0.0,2999.285714285714,3116.3,3900.0,4092.7,305.6465,304.9895,315.32,314.7395,21.8793,20.5661,21.8881,21.4119,314.999998,314.999998,324.999988,324.999988,99.5588,99.50721666666666,99.5668,99.54674285714286,0.08124999999999982,-0.04849999999999999,-0.12133333333333333,0.11716666666666667,-0.041666666666671404,-0.044285714285713595,1.5706666666666667,1.562,37.745999999999995,29.538,37.801,34.824,56.069,34.8335,59.5015,52.2765,54.001000000000005,33.991,58.1,50.609,53.167,33.554,58.0325,50.022,-0.11199999999999988,-0.035499999999999865,0.10661500000000002,0.11384000000000001,0.0,210.065,210.085,207.03333333333333,207.03333333333333,0.0,0.0
12,0.0,0.0,0.0,1.0,1.0,0.0,0.0,1.0,0.0,100.0,1.0,1.1856,26.0,0.0,0.0,0.0,62.0,0.0,26.0,26.0,26.0,26.0,0.01822222222222214,0.28480000000000016,0.013900000000000001,293.137,-2.7071,-2.678777777777778,-1.5662,-1.5336,-235.7,215.35500000000002,190.74675,0.0,0.0,0.0,0.0,0.025466666666666665,-5.498166666666667,-5.498166666666667,-0.5425,0.396,0.01388888888888884,-0.7429999999999999,67.227,0.0038,-0.205675,-0.387999999999999,100.0,1.0,1.0,207.41,0.0,0.0,0.0,0.0,0.0,0.0,0.0,8791.4,0.0,55.0,5.0,241.98666666666668,0.0,0.0,0.0,0.0,0.0,0.0,1.0,0.0,0.6059999999999981,0.6059999999999981,0.0,0.0,0.0,55.0,616.79921,10000.0,85.000001,85.000001,85.000001,85.000001,395.0,0.0,0.0,0.0,1.0,166.665,52.994,52.994,48.309,48.309,34.0,-24.3425,23.985999999999997,-28.99666666666667,29.45,0.0,1782.391,-0.4250000000000007,100.0,27.326,27.461,42.195,42.343,0.0,0.0,100.0,0.0,0.0,0.0,0.0,3104.714285714286,3075.9,4148.0,4181.9,305.5,304.90425,314.80875,314.4725,21.8889,20.5715,21.8985,21.4209,314.999998,314.999998,324.999988,324.999988,99.55881428571429,99.50721666666666,99.56694285714286,99.54688571428571,0.0677500000000002,-0.05899999999999994,-0.11316666666666668,0.12583333333333332,-0.054999999999999716,-0.06714285714285495,1.5283333333333333,1.522,37.806,29.572,37.866,34.8805,56.056,34.8725,59.5385,52.337,53.988,34.027,58.1345,50.667,53.153999999999996,33.588499999999996,58.064,50.079,-0.10299999999999998,-0.04600000000000026,0.10485000000000001,0.11612000000000001,0.0,210.54000000000002,210.555,207.41,207.41,0.0,0.0
13,0.0,0.0,0.0,1.0,1.0,0.0,0.0,1.0,0.0,100.0,1.0,1.1856,26.0,0.0,0.0,0.0,62.0,0.0,26.0,26.0,26.0,26.0,0.037111111111111095,0.27980000000000005,0.020266666666666665,292.862,-2.6953,-2.6895555555555557,-1.5609000000000002,-1.541,-232.47,215.3475,190.7265,0.0,0.0,0.0,0.0,0.02673333333333333,-5.498166666666667,-5.498166666666667,-0.5382,-0.2570000000000001,0.011111111111111072,-0.476,67.361,0.009000000000000001,-0.2137,-0.33000000000000007,100.0,1.0,1.0,207.74,0.0,0.0,0.0,0.0,0.0,0.0,0.0,8805.3,0.0,55.0,5.0,242.47,1.0,0.0,0.0,0.0,0.0,0.0,1.0,0.0,0.6539999999999999,0.6539999999999999,0.0,0.0,1.0,55.0,616.79921,10000.0,85.000001,85.000001,85.000001,85.000001,395.0,0.0,0.0,0.0,1.0,333.33500000000004,52.872,52.872,48.096000000000004,48.096000000000004,34.0,-22.9225,25.154,-28.733333333333334,29.6375,0.0,1782.341,-0.5999999999999979,100.0,27.519,27.576999999999998,42.552,42.78,0.0,0.0,100.0,0.0,0.0,0.0,0.0,3119.5714285714284,3021.2,4165.75,4230.3,305.4615,305.0795,314.726,314.31325,21.898,20.5766,21.9084,21.4295,314.999998,314.999998,324.999988,324.999988,99.55882857142858,99.50721666666666,99.56707142857142,99.54702857142857,0.10124999999999984,-0.020000000000000018,-0.10350000000000001,0.1165,-0.045000000000001705,-0.03714285714285381,1.5063333333333333,1.502,37.861999999999995,29.604,37.928,34.9345,56.044,34.908500000000004,59.5755,52.3965,53.977000000000004,34.06,58.169,50.724000000000004,53.141,33.62,58.0955,50.13466666666667,-0.11599999999999988,-0.025500000000000078,0.104745,0.10583000000000001,0.0,210.935,210.94,207.74,207.74,0.0,0.0
14,0.0,0.0,0.0,1.0,1.0,0.0,0.0,1.0,0.0,100.0,1.0,1.1856,26.0,0.0,0.0,0.0,62.0,0.0,26.0,26.0,26.0,26.0,0.05155555555555558,0.2825,-0.04223333333333333,293.152,-2.6891,-2.7043333333333335,-1.5688,-1.5368,-228.82999999999998,215.3375,190.703875,0.0,0.0,0.0,0.0,0.028833333333333332,-5.498166666666667,-5.498166666666667,-0.5506,-0.01200000000000001,0.022444444444444267,-0.44300000000000006,67.509,0.0181,-0.2243,-0.4339999999999993,100.0,1.0,1.0,208.30333333333334,0.0,0.0,0.0,0.0,0.0,0.0,0.0,8829.2,0.0,55.0,5.0,243.00333333333333,0.0,0.0,0.0,0.0,0.0,0.0,1.0,0.0,0.7079999999999984,0.7079999999999984,0.0,0.0,0.0,55.0,616.79921,10000.0,85.000001,85.000001,85.000001,85.000001,395.0,0.0,0.0,0.0,1.0,166.665,52.963,52.963,48.569,48.569,34.0,-22.5575,24.79,-26.60333333333333,28.645,0.0,1782.289,-0.4800000000000004,100.0,27.494,27.681,42.437,42.782,0.0,0.0,100.0,0.0,0.0,0.0,0.0,3078.4285714285716,2995.9,3989.625,4084.4,305.5905,305.117,315.17275,314.69925,21.9082,20.5824,21.9194,21.4391,314.999998,314.999998,324.999988,324.999988,99.55884285714286,99.50723333333333,99.56722857142857,99.54718571428572,0.10024999999999995,-0.02774999999999994,-0.09283333333333334,0.12683333333333333,-0.054999999999999716,-0.054285714285711606,1.5603333333333333,1.548,37.926,29.64,37.995999999999995,34.9945,56.031,34.948499999999996,59.6145,52.460499999999996,53.964,34.097,58.205,50.786,53.128,33.6555,58.1285,50.19533333333334,-0.10899999999999999,-0.03600000000000003,0.10586500000000001,0.10154500000000001,0.0,211.39499999999998,211.41,208.30333333333334,208.30333333333334,0.0,0.0
15,0.0,0.0,0.0,1.0,1.0,0.0,0.0,1.0,0.0,100.0,1.0,1.1856,26.0,0.0,0.0,0.0,62.0,0.0,26.0,26.0,26.0,26.0,0.04066666666666685,0.2814000000000001,-0.008933333333333333,293.015,-2.6754,-2.6870000000000003,-1.55605,-1.5601,-225.79,215.32999999999998,190.684625,0.0,0.0,0.0,0.0,0.030600000000000002,-5.498166666666667,-5.498166666666667,-0.544,0.241,0.03211111111111098,0.79,67.633,0.024300000000000002,-0.21235,-0.5,100.0,1.0,1.0,208.64333333333332,0.0,0.0,0.0,0.0,0.0,0.0,0.0,8843.6,0.0,55.0,5.0,243.45,1.0,0.0,0.0,0.0,0.0,0.0,1.0,0.0,0.7530000000000001,0.7530000000000001,0.0,0.0,1.0,55.0,616.79921,10000.0,85.000001,85.000001,85.000001,85.000001,395.0,0.0,0.0,0.0,1.0,166.665,52.902,52.902,48.309,48.309,34.0,-21.1875,25.695999999999998,-26.37,30.47,0.0,1782.244,-0.384999999999998,100.0,27.667,27.598,42.436,42.747,0.0,0.0,100.0,0.0,0.0,0.0,0.0,2952.5714285714284,3106.5,4031.75,4180.5,305.7655,304.94125,315.0135,314.51025,21.9166,20.5873,21.9286,21.4471,314.999998,314.999998,324.999988,324.999988,99.55884285714286,99.50723333333333,99.56735714285715,99.54731428571428,0.10999999999999988,-0.022749999999999937,-0.0825,0.13933333333333334,-0.04999999999999716,-0.05571428571428072,1.5523333333333333,1.5265,37.979,29.670333333333332,38.054,35.0445,56.019999999999996,34.9825,59.6465,52.515,53.954,34.128,58.235,50.838499999999996,53.116,33.6855,58.1555,50.24666666666667,-0.11050000000000004,-0.04600000000000026,0.10776500000000001,0.10267000000000001,0.0,211.79000000000002,211.81,208.64333333333332,208.64333333333332,0.0,0.0
16,0.0,0.0,0.0,1.0,1.0,0.0,0.0,1.0,0.0,100.0,1.0,1.1856,26.0,0.0,0.0,0.0,62.0,0.0,26.0,26.0,26.0,26.0,0.05422222222222217,0.2775000000000001,-0.0033,292.786,-2.7466,-2.624111111111111,-1.5373999999999999,-1.5513,-222.34,215.3225,190.662625,0.0,0.0,0.0,0.0,0.032600000000000004,-5.498166666666667,-5.498166666666667,-0.5522,-0.3420000000000001,0.025111111111111084,-1.035,67.773,0.0251,-0.22282500000000002,-0.24600000000000044,100.0,1.0,1.0,209.05666666666667,0.0,0.0,0.0,0.0,0.0,0.0,0.0,8861.1,0.0,55.0,5.0,243.95666666666665,0.0,0.0,0.0,0.0,0.0,0.0,1.0,0.0,0.8039999999999985,0.8039999999999985,0.0,0.0,0.0,55.0,616.79921,10000.0,85.000001,85.000001,85.000001,85.000001,395.0,0.0,0.0,0.0,1.0,333.33500000000004,52.536,52.536,47.958,47.958,34.0,-23.95,25.264,-26.543333333333333,29.517500000000002,0.0,1782.191,-0.3049999999999997,100.0,27.409,27.895,42.594,43.081,0.0,0.0,100.0,0.0,0.0,0.0,0.0,3170.142857142857,3144.0,4086.25,4052.6000000000004,305.36,304.6885,314.92975,314.71625,21.926099999999998,20.5928,21.9391,21.4563,314.999998,314.999998,324.999988,324.999988,99.55885714285715,99.50723333333333,99.5675,99.54745714285714,0.09775,-0.03200000000000003,-0.08166666666666668,0.13983333333333334,-0.046666666666666856,-0.05571428571428072,1.5283333333333333,1.5025,38.038,29.705,38.119,35.1015,56.007,35.0205,59.6865,52.577,53.941,34.1635,58.269999999999996,50.897999999999996,53.102999999999994,33.7195,58.188,50.30833333333334,-0.09999999999999987,-0.05250000000000021,0.09842500000000001,0.11008000000000001,0.0,212.21,212.22,209.05666666666667,209.05666666666667,0.0,0.0
17,0.0,0.0,0.0,1.0,1.0,0.0,0.0,1.0,0.0,100.0,1.0,1.1856,26.0,0.0,0.0,0.0,62.0,0.0,26.0,26.0,26.0,26.0,0.032333333333333325,0.2744,0.02686666666666667,292.496,-2.6654,-2.610444444444444,-1.5513,-1.5179,-218.88,215.3175,190.640375,0.0,0.0,0.0,0.0,0.034633333333333335,-5.498166666666667,-5.498166666666667,-0.551,0.14549999999999996,0.002888888888888941,0.29800000000000004,67.913,0.0212,-0.21752500000000002,-0.2759999999999998,100.0,1.0,1.0,209.45,0.0,0.0,0.0,0.0,0.0,0.0,0.0,8877.8,0.0,55.0,5.0,244.45666666666665,1.0,0.0,0.0,0.0,0.0,0.0,1.0,0.0,0.8550000000000004,0.8550000000000004,0.0,0.0,1.0,55.0,616.79921,10000.0,85.000001,85.000001,85.000001,85.000001,395.0,0.0,0.0,0.0,1.0,166.665,52.338,52.338,47.623,47.623,34.0,-22.015,25.863999999999997,-27.5,30.5275,0.0,1782.142,-0.23999999999999844,100.0,27.884,27.891,42.753,42.987,0.0,0.0,100.0,0.0,0.0,0.0,0.0,3052.142857142857,3226.3,4172.0,4240.4,305.4285,304.60325,314.647,314.41675,21.9356,20.5984,21.9495,21.4654,314.999998,314.999998,324.999988,324.999988,99.55887142857142,99.50723333333333,99.56764285714286,99.5476,0.10950000000000015,-0.02849999999999997,-0.07983333333333333,0.14100000000000001,-0.03166666666666629,-0.060000000000002274,1.5116666666666667,1.509,38.098,29.740000000000002,38.184,35.158500000000004,55.995000000000005,35.0595,59.7215,52.638,53.929,34.1995,58.3045,50.9565,53.09,33.754,58.219,50.36266666666667,-0.09949999999999992,-0.05650000000000022,0.10485000000000001,0.108365,0.0,212.65,212.675,209.45,209.45,0.0,0.0
18,0.0,0.0,0.0,1.0,1.0,0.0,0.0,1.0,0.0,100.0,1.0,1.1856,26.0,0.0,0.0,0.0,62.0,0.0,26.0,26.0,26.0,26.0,0.03822222222222216,0.2811000000000001,0.029933333333333333,292.465,-2.6535,-2.7456666666666667,-1.5342,-1.4846,-215.61,215.3125,190.61925,0.0,0.0,0.0,0.0,0.036533333333333334,-5.498166666666667,-5.498166666666667,-0.5596,-0.32099999999999995,0.002555555555555644,0.911,68.044,0.0183,-0.223775,-0.22999999999999954,100.0,1.0,1.0,209.81333333333333,0.0,0.0,0.0,0.0,0.0,0.0,0.0,8893.3,0.0,55.0,5.0,244.93,0.0,0.0,0.0,0.0,0.0,0.0,1.0,0.0,0.9029999999999987,0.9029999999999987,0.0,0.0,0.0,55.0,616.79921,10000.0,85.000001,85.000001,85.000001,85.000001,395.0,0.0,0.0,0.0,1.0,166.665,52.46,52.46,47.729,47.729,34.0,-22.415,26.6,-26.85333333333333,30.5375,0.0,1782.094,-0.21499999999999986,100.0,27.87,27.774,42.947,43.126,0.0,0.0,100.0,0.0,0.0,0.0,0.0,3055.0,3171.4,4083.5,4317.0,305.4665,304.67375,314.82375,314.212,21.944499999999998,20.6035,21.9593,21.474,314.999998,314.999998,324.999988,324.999988,99.55888571428571,99.50723333333333,99.56778571428572,99.54774285714285,0.09699999999999998,-0.031000000000000028,-0.0835,0.136,-0.030000000000001137,-0.054285714285711606,1.4973333333333332,1.4925,38.153,29.772,38.245999999999995,35.2125,55.983000000000004,35.095,59.757,52.695499999999996,53.918,34.232,58.338,51.012,53.077,33.785,58.2495,50.417,-0.09299999999999997,-0.053999999999999826,0.10254500000000001,0.108965,0.0,213.04000000000002,213.055,209.81333333333333,209.81333333333333,0.0,0.0
19,0.0,0.0,0.0,1.0,1.0,0.0,0.0,1.0,0.0,100.0,1.0,1.1856,26.0,0.0,0.0,0.0,62.0,0.0,26.0,26.0,26.0,26.0,0.037555555555555786,0.2752000000000001,0.0218,292.358,-2.6342,-2.711444444444444,-1.53205,-1.6061,-211.94,215.3075,190.595125,0.0,0.0,0.0,0.0,0.03866666666666667,-5.498166666666667,-5.498166666666667,-0.5516,0.515,0.011666666666666714,0.75,68.189,0.0123,-0.214175,-0.10799999999999965,100.0,1.0,1.0,210.30333333333334,0.0,0.0,0.0,0.0,0.0,0.0,0.0,8913.9,0.0,55.0,5.0,245.45333333333335,1.0,0.0,0.0,0.0,0.0,0.0,1.0,0.0,0.9570000000000007,0.9570000000000007,0.0,0.0,1.0,55.0,616.79921,10000.0,85.000001,85.000001,85.000001,85.000001,395.0,0.0,0.0,0.0,1.0,166.665,52.17,52.17,47.882,47.882,34.0,-22.2825,25.204,-27.36333333333333,30.945,0.0,1782.04,-0.16499999999999915,100.0,28.357,28.163,42.859,43.189,0.0,0.0,100.0,0.0,0.0,0.0,0.0,3030.142857142857,3108.8,4096.0,4224.0,305.518,304.893,314.85975,314.37225,21.9547,20.6094,21.9703,21.4836,314.999998,314.999998,324.999988,324.999988,99.5589,99.50725,99.56792857142857,99.54788571428571,0.09175000000000022,-0.041999999999999926,-0.094,0.125,-0.045000000000001705,-0.05285714285714249,1.5036666666666667,1.4975,38.217,29.808999999999997,38.315,35.2725,55.97,35.137,59.795,52.76,53.906,34.271,58.373,51.074,53.064,33.8225,58.2815,50.477666666666664,-0.09199999999999986,-0.06850000000000023,0.09994000000000001,0.10549000000000001,0.0,213.525,213.51999999999998,210.30333333333334,210.30333333333334,0.0,0.0
20,0.0,0.0,0.0,1.0,1.0,0.0,0.0,1.0,0.0,100.0,1.0,1.1856,26.0,0.0,0.0,0.0,62.0,0.0,26.0,26.0,26.0,26.0,0.0301111111111112,0.2659,-0.03303333333333333,292.45,-2.7071,-2.657,-1.6094,-1.5869,-208.45,215.3025,190.57275,0.0,0.0,0.0,0.0,0.04066666666666667,-5.498166666666667,-5.498166666666667,-0.5561,-0.6420000000000001,0.010333333333333306,-0.875,68.326,0.0082,-0.22567500000000001,-0.03799999999999937,100.0,1.0,1.0,210.71333333333334,0.0,0.0,0.0,0.0,0.0,0.0,0.0,8931.4,0.0,55.0,5.0,245.94666666666666,0.0,0.0,0.0,0.0,0.0,0.0,0.0,0.0,1.0079999999999991,1.0079999999999991,0.0,0.0,0.0,55.0,616.79921,10000.0,85.000001,85.000001,85.000001,85.000001,395.0,0.0,0.0,0.0,1.0,166.665,52.521,52.521,47.44,47.44,34.0,-23.5525,23.836,-29.923333333333332,28.075,0.0,1781.99,-0.18499999999999872,100.0,27.868,28.104,43.275999999999996,43.650999999999996,0.0,0.0,100.0,0.0,0.0,0.0,0.0,3115.285714285714,3043.0,4181.5,4001.6000000000004,305.5255,305.0215,314.78875,314.8215,21.9641,20.6149,21.9809,21.4929,314.999998,314.999998,324.999988,324.999988,99.5589,99.50725,99.56807142857143,99.54804285714286,0.08800000000000008,-0.05125000000000002,-0.113,0.11033333333333332,-0.045000000000001705,-0.03142857142857025,1.512,1.517,38.275999999999996,29.843333333333334,38.381,35.3305,55.957,35.1755,59.8345,52.822,53.893,34.3065,58.4095,51.1335,53.05,33.8565,58.315,50.536,-0.09250000000000003,-0.06450000000000022,0.11085,0.10554500000000001,0.0,213.91500000000002,213.89499999999998,210.71333333333334,210.71333333333334,0.0,0.0
21,0.0,0.0,0.0,1.0,1.0,0.0,0.0,1.0,0.0,100.0,1.0,1.1856,26.0,0.0,0.0,0.0,62.0,0.0,26.0,26.0,26.0,26.0,-0.0010000000000000009,0.2692000000000001,-0.05043333333333334,292.603,-2.7173,-2.6317777777777778,-1.5681,-1.5321,-205.38,215.3,190.5525,0.0,0.0,0.0,0.0,0.04246666666666667,-5.498166666666667,-5.498166666666667,-0.5735,-0.05400000000000005,0.0032222222222222374,0.5710000000000002,68.446,0.0074,-0.22525,-0.06400000000000006,100.0,1.0,1.0,211.16666666666669,0.0,0.0,0.0,0.0,0.0,0.0,0.0,8950.6,0.0,55.0,5.0,246.37666666666667,1.0,0.0,0.0,0.0,0.0,0.0,0.0,0.0,1.0530000000000008,1.0530000000000008,0.0,0.0,1.0,55.0,616.79921,10000.0,85.000001,85.000001,85.000001,85.000001,395.0,0.0,0.0,0.0,1.0,333.33500000000004,52.368,52.368,48.05,48.05,34.0,-23.9175,25.073999999999998,-26.903333333333332,28.3475,0.0,1781.942,-0.18499999999999872,100.0,28.032,27.798000000000002,43.097,43.242000000000004,0.0,0.0,100.0,0.0,0.0,0.0,0.0,3124.714285714286,3186.8,4005.75,4054.3,305.319,304.80025,315.11675,314.87225,21.9724,20.6198,21.99,21.500799999999998,314.999998,314.999998,324.999988,324.999988,99.55892857142857,99.50726666666667,99.5682,99.54815714285715,0.08899999999999997,-0.04125000000000001,-0.09483333333333333,0.13,-0.026666666666670835,-0.048571428571428044,1.557,1.5615,38.328,29.873666666666665,38.438,35.379999999999995,55.945,35.2095,59.8655,52.8735,53.881,34.338499999999996,58.4385,51.1835,53.038,33.887,58.341,50.584666666666664,-0.09099999999999997,-0.06199999999999983,0.10308500000000001,0.107005,0.0,214.275,214.28,211.16666666666669,211.16666666666669,0.0,0.0
22,0.0,0.0,0.0,1.0,1.0,0.0,0.0,1.0,0.0,100.0,1.0,1.1856,26.0,0.0,0.0,0.0,62.0,0.0,26.0,26.0,26.0,26.0,0.006000000000000005,0.27259999999999995,0.020666666666666667,292.191,-2.7628,-2.659777777777778,-1.6009,-1.4963,-201.88,215.2975,190.52875,0.0,0.0,0.0,0.0,0.044500000000000005,-5.498166666666667,-5.498166666666667,-0.5591,0.10749999999999993,0.007222222222222241,-0.585,68.583,0.0041,-0.2016,-0.09200000000000053,100.0,1.0,1.0,211.43,0.0,0.0,0.0,0.0,0.0,0.0,0.0,8961.8,0.0,55.0,5.0,246.87333333333333,0.0,0.0,0.0,0.0,0.0,0.0,0.0,0.0,1.1039999999999992,1.1039999999999992,0.0,0.0,0.0,55.0,616.79921,10000.0,85.000001,85.000001,85.000001,85.000001,395.0,0.0,0.0,0.0,1.0,333.33500000000004,52.444,52.444,47.226,47.226,34.0,-24.965,24.146,-31.136666666666667,29.6975,0.0,1781.891,-0.3249999999999993,100.0,27.924,28.055,43.101,43.345,0.0,0.0,100.0,0.0,0.0,0.0,0.0,3190.4285714285716,3065.7,4332.0,4334.7,305.3715,305.005,314.409,314.134,21.9819,20.6254,22.0005,21.509999999999998,314.999998,314.999998,324.999988,324.999988,99.55892857142857,99.50726666666667,99.56835714285714,99.54831428571428,0.08124999999999982,-0.04774999999999996,-0.11066666666666668,0.11233333333333333,-0.07333333333333059,-0.04285714285714448,1.488,1.4785,38.387,29.908666666666665,38.503,35.4375,55.932,35.2485,59.903,52.934,53.869,34.3745,58.4735,51.2415,53.025,33.9215,58.373,50.641999999999996,-0.10099999999999998,-0.05149999999999988,0.10572000000000001,0.107505,0.0,214.75,214.73000000000002,211.43,211.43,0.0,0.0
23,0.0,0.0,0.0,1.0,1.0,0.0,0.0,1.0,0.0,100.0,1.0,1.1856,26.0,0.0,0.0,0.0,62.0,0.0,26.0,26.0,26.0,26.0,0.008888888888888946,0.26849999999999996,0.019033333333333336,292.038,-2.6564,-2.69,-1.6394000000000002,-1.5392000000000001,-198.38,215.29500000000002,190.50525,0.0,0.0,0.0,0.0,0.046533333333333336,-5.498166666666667,-5.498166666666667,-0.5719000000000001,-0.2835000000000001,0.008000000000000007,0.6419999999999999,68.718,0.0045000000000000005,-0.22415000000000002,-0.21200000000000063,100.0,1.0,1.0,211.89,0.0,0.0,0.0,0.0,0.0,0.0,0.0,8981.2,0.0,55.0,5.0,247.35666666666668,1.0,0.0,0.0,0.0,0.0,0.0,0.0,0.0,1.1550000000000011,1.1550000000000011,0.0,0.0,1.0,55.0,616.79921,10000.0,85.000001,85.000001,85.000001,85.000001,395.0,0.0,0.0,0.0,1.0,333.33500000000004,51.987,51.987,47.455,47.455,34.0,-23.11,25.522,-29.526666666666667,29.7775,0.0,1781.841,-0.3000000000000007,100.0,28.329,28.063,43.403,43.512,0.0,0.0,100.0,0.0,0.0,0.0,0.0,3166.4285714285716,3166.0,4203.0,4219.2,305.121,304.7845,314.67425,314.476,21.9914,20.631,22.011,21.5193,314.999998,314.999998,324.999988,324.999988,99.55894285714285,99.50726666666667,99.5685,99.54845714285715,0.10424999999999995,-0.04125000000000001,-0.09183333333333334,0.1235,-0.04333333333332945,-0.05285714285714249,1.5156666666666667,1.5030000000000001,38.446,29.943666666666665,38.568,35.4955,55.92,35.288,59.941,52.996,53.858000000000004,34.4105,58.5085,51.301,53.012,33.956,58.405,50.7,-0.10799999999999987,-0.05549999999999988,0.09811,0.10366500000000001,0.0,215.125,215.14,211.89,211.89,0.0,0.0
24,0.0,0.0,0.0,1.0,1.0,0.0,0.0,1.0,0.0,100.0,1.0,1.1856,26.0,0.0,0.0,0.0,62.0,0.0,26.0,26.0,26.0,26.0,0.01244444444444448,0.26470000000000016,-0.0408,292.435,-2.6861,-2.6691111111111114,-1.5493000000000001,-1.5566,-195.07999999999998,215.29250000000002,190.482625,0.0,0.0,0.0,0.0,0.04846666666666667,-5.498166666666667,-5.498166666666667,-0.5856,-0.38050000000000006,0.017222222222222028,1.1020000000000003,68.845,0.0045000000000000005,-0.22415000000000002,-0.1979999999999995,100.0,1.0,1.0,212.3,0.0,0.0,0.0,0.0,0.0,0.0,0.0,8998.6,0.0,55.0,5.0,247.81333333333333,0.0,0.0,0.0,0.0,0.0,0.0,0.0,0.0,1.2029999999999994,1.2029999999999994,0.0,0.0,0.0,55.0,616.79921,10000.0,85.000001,85.000001,85.000001,85.000001,395.0,0.0,0.0,0.0,1.0,166.665,52.673,52.673,47.516,47.516,34.0,-21.935,24.744,-27.96333333333333,29.235,0.0,1781.794,-0.3299999999999983,100.0,28.173000000000002,27.854,43.356,43.480000000000004,0.0,0.0,100.0,0.0,0.0,0.0,0.0,2955.714285714286,3105.6,4113.125,4152.1,305.785,305.03625,314.7905,314.60675,22.0003,20.6362,22.020699999999998,21.5279,314.999998,314.999998,324.999988,324.999988,99.55895714285714,99.50728333333333,99.56862857142858,99.5486,0.09549999999999992,-0.040000000000000036,-0.09833333333333333,0.11966666666666667,-0.036666666666668846,-0.047142857142851824,1.523,1.517,38.501999999999995,29.976,38.629999999999995,35.5495,55.908,35.323499999999996,59.975,53.052,53.846000000000004,34.4435,58.5405,51.355000000000004,53.0,33.9875,58.4335,50.753,-0.10250000000000004,-0.052000000000000046,0.09950500000000001,0.10326,0.0,215.525,215.535,212.3,212.3,0.0,0.0
25,0.0,0.0,0.0,1.0,1.0,0.0,0.0,1.0,0.0,100.0,1.0,1.1856,26.0,0.0,0.0,0.0,62.0,0.0,26.0,26.0,26.0,26.0,0.023333333333333428,0.26580000000000004,-0.0217,292.206,-2.7471,-2.647111111111111,-1.59055,-1.5546,-191.56,215.29000000000002,190.457375,0.0,0.0,0.0,0.0,0.0505,-5.498166666666667,-5.498166666666667,-0.6011000000000001,0.04799999999999993,0.018888888888888955,-0.907,68.97800000000001,0.008700000000000001,-0.21825,-0.2079999999999993,100.0,1.0,1.0,212.75,0.0,0.0,0.0,0.0,0.0,0.0,0.0,9017.7,0.0,55.0,5.0,248.29333333333335,1.0,0.0,0.0,0.0,0.0,0.0,0.0,0.0,1.2540000000000013,1.2540000000000013,0.0,0.0,1.0,55.0,616.79921,10000.0,85.000001,85.000001,85.000001,85.000001,395.0,0.0,0.0,0.0,1.0,333.33500000000004,51.865,51.865,47.745,47.745,34.0,-25.745,25.922,-28.296666666666667,28.88,0.0,1781.742,-0.3099999999999987,100.0,27.951999999999998,28.172,43.072,43.361000000000004,0.0,0.0,100.0,0.0,0.0,0.0,0.0,3322.285714285714,3231.5,4078.0,4109.6,304.966,304.463,315.0255,314.6595,22.0096,20.6418,22.0311,21.537,314.999998,314.999998,324.999988,324.999988,99.55895714285714,99.5073,99.56878571428571,99.54874285714286,0.08800000000000008,-0.04025000000000001,-0.105,0.12033333333333333,-0.023333333333326323,-0.057142857142849834,1.542,1.534,38.56,30.011333333333333,38.694,35.6065,55.894,35.3625,60.01,53.1105,53.833,34.4795,58.573,51.412,52.986000000000004,34.0225,58.463499999999996,50.80833333333334,-0.10199999999999987,-0.05250000000000021,0.10384,0.10866,0.0,215.93,215.95499999999998,212.75,212.75,0.0,0.0
26,0.0,0.0,0.0,1.0,1.0,0.0,0.0,1.0,0.0,100.0,1.0,1.1856,26.0,0.0,0.0,0.0,62.0,0.0,26.0,26.0,26.0,26.0,0.024222222222222145,0.2741,0.07826666666666666,291.443,-2.7077,-2.655666666666667,-1.55335,-1.5534,-188.04,215.28750000000002,190.431875,0.0,0.0,0.0,0.0,0.05253333333333334,-5.498166666666667,-5.498166666666667,-0.5755,0.3005,0.01288888888888895,1.0090000000000003,69.114,0.011600000000000001,-0.20295000000000002,-0.2860000000000005,100.0,1.0,1.0,212.97,0.0,0.0,0.0,0.0,0.0,0.0,0.0,9027.0,0.0,55.0,5.0,248.78333333333336,0.0,0.0,0.0,0.0,0.0,0.0,0.0,0.0,1.3049999999999997,1.3049999999999997,0.0,0.0,0.0,55.0,616.79921,10000.0,85.000001,85.000001,85.000001,85.000001,395.0,0.0,0.0,0.0,1.0,166.665,51.727000000000004,51.727000000000004,46.738,46.738,34.0,-23.572499999999998,25.222,-30.306666666666665,33.24,0.0,1781.693,-0.3200000000000003,100.0,28.793,28.458,43.554,43.681,0.0,0.0,100.0,0.0,0.0,0.0,0.0,3154.714285714286,3165.9,4391.5,4508.2,305.248,304.9115,314.13625,313.75375,22.0191,20.6475,22.0416,21.5463,314.999998,314.999998,324.999988,324.999988,99.55898571428571,99.5073,99.56892857142857,99.5489,0.10075000000000012,-0.03749999999999998,-0.09216666666666667,0.13033333333333336,-0.051666666666669414,-0.0357142857142847,1.4463333333333335,1.4335,38.620000000000005,30.047,38.76,35.664500000000004,55.884,35.403,60.0485,53.173,53.823,34.516999999999996,58.609,51.4715,52.975,34.058,58.496,50.867,-0.10399999999999987,-0.058499999999999996,0.106825,0.10737500000000001,0.0,216.39,216.38,212.97,212.97,0.0,0.0
27,0.0,0.0,0.0,1.0,1.0,0.0,0.0,1.0,0.0,100.0,1.0,1.1856,26.0,0.0,0.0,0.0,62.0,0.0,26.0,26.0,26.0,26.0,0.02344444444444438,0.2672000000000001,-0.05683333333333334,291.824,-2.7545,-2.666888888888889,-1.6149499999999999,-1.5351,-184.72,215.28750000000002,190.40875,0.0,0.0,0.0,0.0,0.05446666666666666,-5.498166666666667,-5.498166666666667,-0.5956,-0.7555000000000001,0.02299999999999991,0.8519999999999999,69.238,0.012400000000000001,-0.2371,-0.2759999999999998,100.0,1.0,1.0,213.46666666666667,0.0,0.0,0.0,0.0,0.0,0.0,0.0,9048.1,0.0,55.0,5.0,249.23000000000002,1.0,0.0,0.0,0.0,0.0,0.0,0.0,0.0,1.352999999999998,1.352999999999998,0.0,0.0,1.0,55.0,616.79921,10000.0,85.000001,85.000001,85.000001,85.000001,395.0,0.0,0.0,0.0,1.0,333.33500000000004,51.926,51.926,46.768,46.768,34.0,-22.74,26.152,-28.506666666666668,29.5825,0.0,1781.643,-0.33500000000000085,100.0,28.507,28.485,43.959,44.052,0.0,0.0,100.0,0.0,0.0,0.0,0.0,3028.4285714285716,3226.0,4113.5,4144.6,305.6535,304.61675,314.85775,314.6895,22.0279,20.6529,22.0516,21.5551,314.999998,314.999998,324.999988,324.999988,99.55898571428571,99.5073,99.56905714285715,99.54902857142856,0.10400000000000009,-0.034499999999999975,-0.09233333333333334,0.1345,-0.046666666666666856,-0.05142857142856627,1.5186666666666666,1.5175,38.674,30.080333333333336,38.822,35.7195,55.872,35.44,60.085,53.231,53.812,34.551,58.643,51.5275,52.962,34.0905,58.527,50.92133333333334,-0.10549999999999993,-0.053999999999999826,0.108825,0.10387,0.0,216.735,216.72500000000002,213.46666666666667,213.46666666666667,0.0,0.0
28,0.0,0.0,0.0,1.0,1.0,0.0,0.0,1.0,0.0,100.0,1.0,1.1856,26.0,0.0,0.0,0.0,62.0,0.0,26.0,26.0,26.0,26.0,0.025111111111111084,0.2621,-0.04066666666666667,291.946,-2.6841,-2.655333333333333,-1.62695,-1.566,-180.98000000000002,215.28750000000002,190.38175,0.0,0.0,0.0,0.0,0.056666666666666664,-5.498166666666667,-5.498166666666667,-0.6003000000000001,0.515,0.007555555555555538,0.2520000000000002,69.376,0.0155,-0.215475,-0.36799999999999944,100.0,1.0,1.0,213.95,0.0,0.0,0.0,0.0,0.0,0.0,0.0,9068.6,0.0,55.0,5.0,249.72666666666666,0.0,0.0,0.0,0.0,0.0,0.0,0.0,0.0,1.407,1.407,0.0,0.0,0.0,55.0,616.79921,10000.0,85.000001,85.000001,85.000001,85.000001,395.0,0.0,0.0,0.0,1.0,166.665,51.941,51.941,47.195,47.195,34.0,-22.1775,26.164,-28.733333333333334,30.22,0.0,1781.59,-0.370000000000001,100.0,28.53,28.437,43.473,43.677,0.0,0.0,100.0,0.0,0.0,0.0,0.0,3050.4285714285716,3201.3,4178.25,4178.6,305.5085,304.6985,314.8175,314.60475,22.0378,20.6589,22.0625,21.564799999999998,314.999998,314.999998,324.999988,324.999988,99.559,99.50731666666667,99.56921428571428,99.5492,0.10875000000000012,-0.026249999999999996,-0.08783333333333333,0.1335,-0.03499999999999659,-0.057142857142849834,1.5406666666666666,1.525,38.736999999999995,30.118333333333332,38.89,35.78,55.86,35.4815,60.1205,53.292500000000004,53.8,34.5895,58.676,51.587,52.949,34.128,58.5565,50.97966666666667,-0.10850000000000004,-0.04850000000000021,0.10537,0.10996500000000001,0.0,217.17000000000002,217.2,213.95,213.95,0.0,0.0
29,0.0,0.0,0.0,1.0,1.0,0.0,0.0,1.0,0.0,100.0,1.0,1.1856,26.0,0.0,0.0,0.0,62.0,0.0,26.0,26.0,26.0,26.0,0.045333333333333226,0.2650000000000001,-0.015733333333333335,291.901,-2.7506,-2.721111111111111,-1.56755,-1.5506,-177.64999999999998,215.28750000000002,190.357,0.0,0.0,0.0,0.0,0.058600000000000006,-5.498166666666667,-5.498166666666667,-0.6032000000000001,-0.671,0.000888888888888939,0.883,69.503,0.0164,-0.213925,-0.35599999999999987,100.0,1.0,1.0,214.20333333333332,0.0,0.0,0.0,0.0,0.0,0.0,0.0,9079.3,0.0,55.0,5.0,250.18333333333334,1.0,0.0,0.0,0.0,0.0,0.0,0.0,0.0,1.4549999999999983,1.4549999999999983,0.0,0.0,1.0,55.0,616.79921,10000.0,85.000001,85.000001,85.000001,85.000001,395.0,0.0,0.0,0.0,1.0,333.33500000000004,52.444,52.444,46.783,46.783,34.0,-22.255,25.442,-28.093333333333334,31.8525,0.0,1781.541,-0.4349999999999987,100.0,28.26,28.197,43.873000000000005,43.934,0.0,0.0,100.0,0.0,0.0,0.0,0.0,3041.142857142857,3093.8,4156.125,4332.6,305.7735,305.0295,314.678,314.17325,22.0465,20.6642,22.072400000000002,21.5736,314.999998,314.999998,324.999988,324.999988,99.55901428571428,99.50731666666667,99.56935714285714,99.54932857142857,0.11299999999999999,-0.033499999999999974,-0.08533333333333333,0.13633333333333333,-0.036666666666668846,-0.057142857142849834,1.4833333333333334,1.47,38.791,30.151,38.953,35.835,55.847,35.516999999999996,60.157,53.3505,53.788,34.6225,58.71,51.6425,52.937,34.159,58.5875,51.034,-0.11399999999999988,-0.05500000000000016,0.10858500000000001,0.10364000000000001,0.0,217.535,217.56,214.20333333333332,214.20333333333332,0.0,0.0
30,0.0,0.0,0.0,1.0,1.0,0.0,0.0,1.0,0.0,100.0,1.0,1.1856,26.0,0.0,0.0,0.0,62.0,0.0,26.0,26.0,26.0,26.0,0.06144444444444441,0.2529000000000001,0.025133333333333334,291.306,-2.6323,-2.7252222222222224,-1.64865,-1.6031,-174.31,215.29000000000002,190.332125,0.0,0.0,0.0,0.0,0.06053333333333334,-5.498166666666667,-5.498166666666667,-0.6086,0.744,0.002777777777777768,0.7229999999999999,69.623,0.019200000000000002,-0.21835000000000002,-0.3860000000000001,100.0,1.0,1.0,214.72333333333333,0.0,0.0,0.0,0.0,0.0,0.0,0.0,9101.4,0.0,55.0,5.0,250.61666666666667,0.0,0.0,0.0,0.0,0.0,0.0,1.0,0.0,1.5030000000000001,1.5030000000000001,0.0,0.0,0.0,55.0,616.79921,10000.0,85.000001,85.000001,85.000001,85.000001,395.0,0.0,0.0,0.0,1.0,333.33500000000004,50.613,50.613,47.256,47.256,34.0,-23.9975,29.323999999999998,-28.883333333333333,30.125,0.0,1781.492,-0.46000000000000085,100.0,29.098,28.825,43.595,43.900999999999996,0.0,0.0,100.0,0.0,0.0,0.0,0.0,3378.4285714285716,3433.3,4152.625,4077.5,304.637,303.9355,314.9545,314.77525,22.0555,20.6697,22.0822,21.5823,314.999998,314.999998,324.999988,324.999988,99.55904285714286,99.50731666666667,99.5695,99.54947142857142,0.11549999999999994,-0.022249999999999992,-0.0905,0.13716666666666666,-0.03999999999999915,-0.06285714285714761,1.5366666666666666,1.528,38.847,30.185666666666666,39.013,35.888999999999996,55.839,35.558,60.1915,53.4095,53.78,34.66,58.742,51.6995,52.927,34.195499999999996,58.6165,51.089666666666666,-0.11699999999999999,-0.04400000000000004,0.102135,0.109505,0.0,217.925,217.965,214.72333333333333,214.72333333333333,0.0,0.0
31,0.0,0.0,0.0,1.0,1.0,0.0,0.0,1.0,0.0,100.0,1.0,1.1856,26.0,0.0,0.0,0.0,62.0,0.0,26.0,26.0,26.0,26.0,0.05555555555555558,0.2633000000000001,0.09983333333333334,290.665,-2.7787,-2.618666666666667,-1.65095,-1.538,-170.75,215.29250000000002,190.306125,0.0,0.0,0.0,0.0,0.0626,-5.498166666666667,-5.498166666666667,-0.5849,-0.3025,0.019555555555555548,-0.47299999999999986,69.757,0.0252,-0.21565,-0.387999999999999,100.0,1.0,1.0,214.86333333333334,0.0,0.0,0.0,0.0,0.0,0.0,0.0,9107.3,0.0,55.0,5.0,251.10000000000002,1.0,0.0,0.0,0.0,0.0,0.0,1.0,0.0,1.5539999999999985,1.5539999999999985,0.0,0.0,1.0,55.0,616.79921,10000.0,85.000001,85.000001,85.000001,85.000001,395.0,0.0,0.0,0.0,1.0,333.33500000000004,51.117,51.117,45.486,45.486,34.0,-24.085,26.264,-32.17,33.2725,0.0,1781.442,-0.4250000000000007,100.0,28.859,29.215,44.286,44.757000000000005,0.0,0.0,100.0,0.0,0.0,0.0,0.0,3225.142857142857,3270.9,4443.5,4477.5,305.2705,304.39925,314.054,313.65725,22.0649,20.6755,22.0928,21.5918,314.999998,314.999998,324.999988,324.999988,99.55904285714286,99.50731666666667,99.56965714285714,99.54962857142857,0.11275000000000013,-0.034499999999999975,-0.08983333333333333,0.13283333333333336,-0.04999999999999716,-0.03285714285714647,1.426,1.412,38.905,30.222,39.08,35.948499999999996,55.829,35.5955,60.2295,53.4705,53.769999999999996,34.695,58.7775,51.757999999999996,52.917,34.2285,58.6485,51.14666666666667,-0.12349999999999994,-0.04850000000000021,0.106755,0.105575,0.0,218.345,218.35500000000002,214.86333333333334,214.86333333333334,0.0,0.0
32,0.0,0.0,0.0,1.0,1.0,0.0,0.0,1.0,0.0,100.0,1.0,1.1856,26.0,0.0,0.0,0.0,62.0,0.0,26.0,26.0,26.0,26.0,0.057222222222222285,0.2741,-0.037333333333333336,291.321,-2.7018,-2.6767777777777777,-1.5934,-1.6169,-167.19,215.29500000000002,190.28075,0.0,0.0,0.0,0.0,0.06466666666666666,-5.498166666666667,-5.498166666666667,-0.6059,-0.3025,0.001777777777777878,0.22699999999999987,69.884,0.029900000000000003,-0.23375,-0.4560000000000004,100.0,1.0,1.0,215.43333333333334,0.0,0.0,0.0,0.0,0.0,0.0,0.0,9131.4,0.0,55.0,5.0,251.55666666666667,0.0,0.0,0.0,0.0,0.0,0.0,1.0,0.0,1.6050000000000004,1.6050000000000004,0.0,0.0,0.0,55.0,616.79921,10000.0,85.000001,85.000001,85.000001,85.000001,395.0,0.0,0.0,0.0,1.0,166.665,51.544,51.544,46.585,46.585,34.0,-21.875,26.372,-26.43,32.962500000000006,0.0,1781.392,-0.41000000000000014,100.0,28.871,28.977,44.241,44.606,0.0,0.0,100.0,0.0,0.0,0.0,0.0,3058.285714285714,3185.3,4084.75,4260.2,305.5085,304.745,314.8975,314.31675,22.0741,20.6813,22.1033,21.6011,314.999998,314.999998,324.999988,324.999988,99.55905714285714,99.50731666666667,99.5698,99.54977142857143,0.121,-0.02300000000000002,-0.06216666666666667,0.154,-0.02499999999999858,-0.06571428571428584,1.5333333333333332,1.5075,38.963,30.258333333333333,39.144999999999996,36.007,55.818,35.6355,60.2645,53.53,53.759,34.7315,58.81,51.8155,52.903999999999996,34.263999999999996,58.678,51.203,-0.10999999999999988,-0.05699999999999994,0.09417500000000001,0.11340000000000001,0.0,218.72,218.75,215.43333333333334,215.43333333333334,0.0,0.0
33,0.0,0.0,0.0,1.0,1.0,0.0,0.0,1.0,0.0,100.0,1.0,1.1856,26.0,0.0,0.0,0.0,62.0,0.0,26.0,26.0,26.0,26.0,0.047222222222222276,0.2611000000000001,-0.08153333333333335,291.626,-2.7294,-2.689222222222222,-1.59645,-1.5838,-163.84,215.3,190.25575,0.0,0.0,0.0,0.0,0.0666,-5.498166666666667,-5.498166666666667,-0.6148,-0.17300000000000004,-0.001777777777777878,0.8700000000000001,70.005,0.027700000000000002,-0.2172,-0.3979999999999997,100.0,1.0,1.0,215.82999999999998,0.0,0.0,0.0,0.0,0.0,0.0,0.0,9148.2,0.0,55.0,5.0,251.99333333333334,1.0,0.0,0.0,0.0,0.0,0.0,1.0,0.0,1.6529999999999987,1.6529999999999987,0.0,0.0,1.0,55.0,616.79921,10000.0,85.000001,85.000001,85.000001,85.000001,395.0,0.0,0.0,0.0,1.0,333.33500000000004,51.865,51.865,46.936,46.936,34.0,-22.015,25.756,-27.22,31.575,0.0,1781.343,-0.4800000000000004,100.0,28.72,28.741,44.028,44.358000000000004,0.0,0.0,100.0,0.0,0.0,0.0,0.0,3066.714285714286,3097.8,4079.875,4201.3,305.562,304.998,314.96575,314.538,22.0828,20.6866,22.113,21.6098,314.999998,314.999998,324.999988,324.999988,99.55907142857143,99.50733333333334,99.56994285714286,99.54991428571428,0.12325000000000008,-0.02100000000000002,-0.0785,0.1485,-0.06499999999999773,-0.04999999999999716,1.533,1.5075,39.016999999999996,30.291333333333334,39.206,36.061,55.807,35.670500000000004,60.2975,53.585499999999996,53.748999999999995,34.7645,58.8405,51.8685,52.893,34.295,58.705,51.254999999999995,-0.12250000000000005,-0.045500000000000096,0.106435,0.11427500000000002,0.0,219.12,219.13,215.82999999999998,215.82999999999998,0.0,0.0
34,0.0,0.0,0.0,1.0,1.0,0.0,0.0,1.0,0.0,100.0,1.0,1.1856,26.0,0.0,0.0,0.0,62.0,0.0,26.0,26.0,26.0,26.0,0.05600000000000005,0.25570000000000004,-0.05853333333333334,291.84,-2.6686,-2.6687777777777777,-1.6296,-1.5236,-160.26,215.3075,190.22775,0.0,0.0,0.0,0.0,0.0687,-5.498166666666667,-5.498166666666667,-0.641,-0.9105000000000001,0.016555555555555657,-0.24299999999999988,70.134,0.027200000000000002,-0.21987500000000001,-0.39200000000000035,100.0,1.0,1.0,216.18666666666667,0.0,0.0,0.0,0.0,0.0,0.0,0.0,9163.4,0.0,55.0,5.0,252.45666666666665,0.0,0.0,0.0,0.0,0.0,0.0,1.0,0.0,1.7040000000000006,1.7040000000000006,0.0,0.0,0.0,55.0,616.79921,10000.0,85.000001,85.000001,85.000001,85.000001,395.0,0.0,0.0,0.0,1.0,333.33500000000004,52.353,52.353,47.028,47.028,34.0,-21.2925,24.154,-28.740000000000002,30.5,0.0,1781.292,-0.495000000000001,100.0,28.287,28.593,43.837,44.49,0.0,0.0,100.0,0.0,0.0,0.0,0.0,3055.5714285714284,2958.5,4146.5,4221.6,305.755,305.2675,314.86725,314.46975,22.0919,20.6922,22.1234,21.6191,314.999998,314.999998,324.999988,324.999988,99.55908571428571,99.50733333333334,99.57008571428571,99.55007142857143,0.121,-0.02849999999999997,-0.08883333333333333,0.13916666666666666,-0.05333333333332746,-0.04285714285714448,1.5173333333333332,1.502,39.074,30.326333333333334,39.271,36.1195,55.795,35.7065,60.332,53.646,53.736999999999995,34.798,58.8725,51.927,52.879999999999995,34.327,58.734,51.312,-0.12149999999999994,-0.044500000000000206,0.11359500000000002,0.10268000000000001,0.0,219.495,219.505,216.18666666666667,216.18666666666667,0.0,0.0
35,0.0,0.0,0.0,1.0,1.0,0.0,0.0,1.0,0.0,100.0,1.0,1.1856,26.0,0.0,0.0,0.0,62.0,0.0,26.0,26.0,26.0,26.0,0.07299999999999995,0.2521,-0.04583333333333334,291.687,-2.8036,-2.6485555555555558,-1.5419,-1.5799,-156.47,215.315,190.196125,0.0,0.0,0.0,0.0,0.0709,-5.498166666666667,-5.498166666666667,-0.678,0.05349999999999999,-0.0013333333333331865,-1.273,70.268,0.031400000000000004,-0.2265,-0.35599999999999987,100.0,1.0,1.0,216.68333333333334,0.0,0.0,0.0,0.0,0.0,0.0,0.0,9184.4,0.0,55.0,5.0,252.94,1.0,0.0,0.0,0.0,0.0,0.0,1.0,0.0,1.7579999999999991,1.7579999999999991,0.0,0.0,1.0,55.0,616.79921,10000.0,85.000001,85.000001,85.000001,85.000001,395.0,0.0,0.0,0.0,1.0,166.665,51.544,51.544,46.844,46.844,34.0,-24.285,26.844,-26.636666666666667,30.13,0.0,1781.239,-0.28000000000000114,100.0,28.222,28.973,43.536,44.010000000000005,0.0,0.0,100.0,0.0,0.0,0.0,0.0,3198.714285714286,3281.8,4135.25,4059.7,305.29,304.281,314.9505,314.91875,22.1015,20.6984,22.1344,21.6288,314.999998,314.999998,324.999988,324.999988,99.55911428571429,99.50735,99.57024285714286,99.55022857142858,0.1107499999999999,-0.03225,-0.078,0.15,-0.03333333333333144,-0.06571428571428584,1.5573333333333332,1.541,39.134,30.365000000000002,39.34,36.18,55.781,35.749,60.3675,53.7055,53.724000000000004,34.837,58.9055,51.985,52.866,34.3645,58.7635,51.36833333333333,-0.10799999999999987,-0.05650000000000022,0.10930000000000001,0.10984500000000001,0.0,219.905,219.945,216.68333333333334,216.68333333333334,0.0,0.0
36,0.0,0.0,0.0,1.0,1.0,0.0,0.0,1.0,0.0,100.0,1.0,1.1856,26.0,0.0,0.0,0.0,62.0,0.0,26.0,26.0,26.0,26.0,0.040999999999999925,0.26660000000000017,0.05923333333333334,291.10699999999997,-2.6492,-2.712888888888889,-1.65345,-1.5899,-153.31,215.3225,190.168625,0.0,0.0,0.0,0.0,0.07273333333333334,-5.498166666666667,-5.498166666666667,-0.6616000000000001,0.09450000000000003,-0.03711111111111132,0.16000000000000014,70.383,0.027700000000000002,-0.20520000000000002,-0.2939999999999996,100.0,1.0,1.0,216.82999999999998,0.0,0.0,0.0,0.0,0.0,0.0,0.0,9190.7,0.0,55.0,5.0,253.35333333333335,0.0,0.0,0.0,0.0,0.0,0.0,1.0,0.0,1.8030000000000008,1.8030000000000008,0.0,0.0,0.0,55.0,616.79921,10000.0,85.000001,85.000001,85.000001,85.000001,395.0,0.0,0.0,0.0,1.0,166.665,51.62,51.62,46.326,46.326,34.0,-21.1925,25.902,-30.93,34.0925,0.0,1781.193,-0.2699999999999996,100.0,28.902,28.807000000000002,43.897999999999996,44.271,0.0,0.0,100.0,0.0,0.0,0.0,0.0,3041.0,3130.6,4396.875,4460.8,305.4375,304.8405,314.186,313.92475,22.1097,20.7035,22.1436,21.6371,314.999998,314.999998,324.999988,324.999988,99.55911428571429,99.50735,99.57037142857143,99.55037142857142,0.12575000000000003,-0.03200000000000003,-0.07716666666666668,0.14433333333333334,-0.036666666666668846,-0.04999999999999716,1.4626666666666668,1.449,39.186,30.397333333333336,39.397999999999996,36.2315,55.772,35.784,60.4,53.76,53.715,34.869,58.936,52.0375,52.855999999999995,34.3955,58.791,51.419333333333334,-0.10799999999999987,-0.058499999999999996,0.10555,0.10296000000000001,0.0,220.29000000000002,220.305,216.82999999999998,216.82999999999998,0.0,0.0
