,ABS Active,ABS Enabled,AID Allow Tire Blankets,AID Auto Blip,AID Auto Clutch,AID Auto Shift,AID Fuel Rate,AID Ideal Line,AID Mech Damage,AID Stability,AID Tire Wear Rate,Air Density,Air Temp,Ballast,Best Lap Delta,Best Lap Time,Brake Bias,Brake Pos,Brake Temp FL,Brake Temp FR,Brake Temp RL,Brake Temp RR,CG Accel Lateral,CG Accel Longitudinal,CG Accel Vertical,CG Height,Camber FL,Camber FR,Camber RL,Camber RR,Car Coord X,Car Coord Y,Car Coord Z,Car Damage Front,Car Damage Left,Car Damage Rear,Car Damage Right,Car Pos Norm,Caster FL,Caster FR,Chassis Pitch Angle,Chassis Pitch Rate,Chassis Roll Angle,Chassis Roll Rate,Chassis Velocity X,Chassis Velocity Y,Chassis Velocity Z,Chassis Yaw Rate,Clutch Pos,DRS Active,DRS Available,Drive Train Speed,ERS Heat Charging,ERS Is Charging,ERS Max Energy,ERS Power Level,ERS Recovery Level,Engine Brake Setting,Engine Limiter,Engine RPM,Flags,Fuel Level,Gear,Ground Speed,HR Sample Clock,In Pit,KERS Charge,KERS Deployed Energy,KERS Input,KERS Max Energy,LR Sample Clock,Lap Invalidated,Lap Time,Lap Time2,Last Lap Time,Last Sector Time,MR Sample Clock,Max Fuel,Max Power,Max RPM,Max Sus Travel FL,Max Sus Travel FR,Max Sus Travel RL,Max Sus Travel RR,Max Torque,Max Turbo Boost,Num Tires Off Track,Penalties Enabled,Position,Raw Data Sample Rate,Ride Height FL,Ride Height FR,Ride Height RL,Ride Height RR,Road Temp,Self Align Torque FL,Self Align Torque FR,Self Align Torque RL,Self Align Torque RR,Session Lap Count,Session Time Left,Steering Angle,Surface Grip,Suspension Travel FL,Suspension Travel FR,Suspension Travel RL,Suspension Travel RR,TC Active,TC Enabled,Throttle Pos,Tire Dirt Level FL,Tire Dirt Level FR,Tire Dirt Level RL,Tire Dirt Level RR,Tire Load FL,Tire Load FR,Tire Load RL,Tire Load RR,Tire Loaded Radius FL,Tire Loaded Radius FR,Tire Loaded Radius RL,Tire Loaded Radius RR,Tire Pressure FL,Tire Pressure FR,Tire Pressure RL,Tire Pressure RR,Tire Radius FL,Tire Radius FR,Tire Radius RL,Tire Radius RR,Tire Rubber Grip FL,Tire Rubber Grip FR,Tire Rubber Grip RL,Tire Rubber Grip RR,Tire Slip Angle FL,Tire Slip Angle FR,Tire Slip Angle RL,Tire Slip Angle RR,Tire Slip Ratio FL,Tire Slip Ratio FR,Tire Slip Ratio RL,Tire Slip Ratio RR,Tire Temp Core FL,Tire Temp Core FR,Tire Temp Core RL,Tire Temp Core RR,Tire Temp Inner FL,Tire Temp Inner FR,Tire Temp Inner RL,Tire Temp Inner RR,Tire Temp Middle FL,Tire Temp Middle FR,Tire Temp Middle RL,Tire Temp Middle RR,Tire Temp Outer FL,Tire Temp Outer FR,Tire Temp Outer RL,Tire Temp Outer RR,Toe In FL,Toe In FR,Toe In RL,Toe In RR,Turbo Boost,Wheel Angular Speed FL,Wheel Angular Speed FR,Wheel Angular Speed RL,Wheel Angular Speed RR,Wind Direction,Wind Speed
0,0.0,0.0,0.0,1.0,1.0,0.0,0.0,1.0,0.0,100.0,1.0,1.1856,26.0,0.0,0.0,0.0,52.99999,0.0,26.0,26.0,26.0,26.0,-0.06137499999999996,0.3164,0.06546666666666666,294.037,-2.7254,-2.6533333333333333,-1.5245000000000002,-1.5526,-275.68,216.29500000000002,190.987625,0.0,0.0,0.0,0.0,0.0016,-5.498166666666667,-5.498166666666667,-0.5476,1.1646666666666667,-0.0009999999999998899,-0.41000000000000014,65.491,-0.0251,-0.21265,0.9060000000000006,100.0,1.0,1.0,202.19666666666666,0.0,0.0,0.0,0.0,0.0,0.0,0.0,8570.4,0.0,55.0,5.0,235.73666666666668,0.0,0.0,0.0,0.0,0.0,0.0,0.0,0.0,0.0030000000000001137,0.0030000000000001137,0.0,0.0,0.0,55.0,616.79921,10000.0,85.0,85.0,85.0,85.0,395.0,0.0,0.0,0.0,1.0,20.0,52.841,52.841,49.606,49.606,34.0,-25.357499999999998,23.968,-29.736666666666665,25.4925,0.0,1783.14,0.8449999999999989,100.0,27.514,26.957,40.588,40.64,0.0,0.0,100.0,0.0,0.0,0.0,0.0,2950.4285714285716,3385.7,4067.8888888888887,4014.8,305.8785,304.09325,314.94175,314.83675,21.771125,20.5137,21.781875,21.322499999999998,314.99999,314.99999,324.99998,324.99998,99.55835714285715,99.50718333333333,99.56568571428572,99.54561428571428,0.010750000000000037,-0.10899999999999999,-0.15433333333333335,0.0755,-0.060000000000002274,-0.05666666666667197,1.5465,1.5915000000000001,37.069,29.2105,37.137,34.266,56.078,34.3975,59.237,51.768,54.013999999999996,33.5875,57.86,50.116,53.194,33.166,57.826499999999996,49.536500000000004,-0.014000000000000012,-0.1339999999999999,0.11367000000000001,0.10663,0.0,205.245,205.15,202.19666666666666,202.19666666666666,0.0,0.0
1,0.0,0.0,0.0,1.0,1.0,0.0,0.0,1.0,0.0,100.0,1.0,1.1856,26.0,0.0,0.0,0.0,52.999997,0.0,26.0,26.0,26.0,26.0,-0.10612500000000002,0.3195000000000001,0.15133333333333332,293.015,-2.6438,-2.7590000000000003,-1.5319,-1.5426,-272.34,216.29000000000002,190.967375,0.0,0.0,0.0,0.0,0.0035333333333333336,-5.498166666666667,-5.498166666666667,-0.49960000000000004,-0.6023333333333334,-0.04933333333333367,-0.7169999999999996,65.646,-0.043300000000000005,-0.193825,1.3979999999999997,100.0,1.0,1.0,202.36666666666667,0.0,0.0,0.0,0.0,0.0,0.0,0.0,8577.5,0.0,55.0,5.0,236.29333333333335,1.0,0.0,0.0,0.0,0.0,0.0,0.0,0.0,0.053999999999998494,0.053999999999998494,0.0,0.0,1.0,55.0,616.79921,10000.0,85.000001,85.000001,85.000001,85.000001,395.0,0.0,0.0,0.0,1.0,333.33500000000004,53.436,53.436,48.325,48.325,34.0,-27.294999999999998,18.355999999999998,-34.22666666666667,28.3075,0.0,1783.09,0.9050000000000011,100.0,27.559,27.133,42.589,41.71,0.0,0.0,100.0,0.0,0.0,0.0,0.0,3147.285714285714,2710.8,4330.777777777777,4682.5,305.3205,306.20725,314.23575,313.19625,21.780875,20.5188,21.792749999999998,21.3316,314.999998,314.999998,324.999988,324.999988,99.55835714285715,99.50721666666666,99.56584285714285,99.54575714285714,-0.00649999999999995,-0.13549999999999995,-0.17683333333333334,0.03066666666666667,-0.036666666666668846,-0.045000000000001705,1.396,1.4775,37.131,29.2425,37.205,34.323,56.062,34.4385,59.2815,51.832,53.998999999999995,33.6255,57.9015,50.1775,53.178,33.2025,57.8655,49.5965,-0.004999999999999893,-0.1419999999999999,0.10481000000000001,0.10204,0.0,205.68,205.57,202.36666666666667,202.36666666666667,0.0,0.0
2,0.0,0.0,0.0,1.0,1.0,0.0,0.0,1.0,0.0,100.0,1.0,1.1856,26.0,0.0,0.0,0.0,52.999997,0.0,26.0,26.0,26.0,26.0,-0.14549999999999996,0.2916000000000001,-0.08953333333333334,293.61,-2.6013,-2.794777777777778,-1.4906000000000001,-1.6089,-268.99,216.2825,190.9485,0.0,0.0,0.0,0.0,0.0055000000000000005,-5.498166666666667,-5.498166666666667,-0.5506,0.039,-0.04600000000000026,2.4370000000000003,65.788,-0.0671,-0.255675,1.5899999999999999,100.0,1.0,1.0,203.26666666666665,0.0,0.0,0.0,0.0,0.0,0.0,0.0,8615.8,0.0,55.0,5.0,236.80666666666667,0.0,0.0,0.0,0.0,0.0,0.0,0.0,0.0,0.10500000000000043,0.10500000000000043,0.0,0.0,0.0,55.0,616.79921,10000.0,85.000001,85.000001,85.000001,85.000001,395.0,0.0,0.0,0.0,1.0,333.33500000000004,52.322,52.322,50.125,50.125,34.0,-29.59,20.278,-29.32,20.365000000000002,0.0,1783.0388888888888,0.7899999999999991,100.0,28.474,27.108,42.574,41.447,0.0,0.0,100.0,0.0,0.0,0.0,0.0,3313.857142857143,2950.8,3768.6666666666665,3681.8,304.579,305.497,315.59225,315.79,21.791,20.5238,21.80325,21.3404,314.999998,314.999998,324.999988,324.999988,99.55835714285715,99.50721666666666,99.56598571428572,99.54588571428572,-0.02100000000000002,-0.14174999999999993,-0.2185,0.013833333333333335,-0.03833333333332689,-0.05833333333333002,1.631,1.696,37.194,29.2735,37.269999999999996,34.378,56.049,34.4775,59.319,51.888999999999996,53.986999999999995,33.661500000000004,57.9365,50.232,53.166,33.237,57.897999999999996,49.6505,-0.014000000000000012,-0.13949999999999996,0.111545,0.10271000000000001,0.0,206.14,206.0,203.26666666666665,203.26666666666665,0.0,0.0
3,0.0,0.0,0.0,1.0,1.0,0.0,0.0,1.0,0.0,100.0,1.0,1.1856,26.0,0.0,0.0,0.0,52.999997,0.0,26.0,26.0,26.0,26.0,-0.13024999999999998,0.3299000000000001,0.07100000000000001,293.381,-2.7268,-2.6896666666666667,-1.5131999999999999,-1.5897000000000001,-265.83,216.26999999999998,190.93,0.0,0.0,0.0,0.0,0.007333333333333333,-5.498166666666667,-5.498166666666667,-0.5119,0.41200000000000003,-0.007333333333333414,0.32200000000000006,65.931,-0.0823,-0.20267500000000002,1.1820000000000004,100.0,1.0,1.0,203.40333333333334,0.0,0.0,0.0,0.0,0.0,0.0,0.0,8621.5,0.0,55.0,5.0,237.32,1.0,0.0,0.0,0.0,0.0,0.0,0.0,0.0,0.1529999999999987,0.1529999999999987,0.0,0.0,1.0,55.0,616.79921,10000.0,85.000001,85.000001,85.000001,85.000001,395.0,0.0,0.0,0.0,1.0,333.33500000000004,53.406,53.406,48.187,48.187,34.0,-25.419999999999998,19.09,-34.269999999999996,24.9,0.0,1782.99,0.6400000000000006,100.0,28.04,27.058,42.449,41.444,0.0,0.0,100.0,0.0,0.0,0.0,0.0,2866.0,2904.3,4280.444444444444,4233.3,306.02,305.5945,314.35275,314.3825,21.800125,20.5286,21.813,21.3488,314.999998,314.999998,324.999988,324.999988,99.55835714285715,99.50723333333333,99.56611428571429,99.54601428571429,-0.008499999999999952,-0.14100000000000001,-0.20133333333333334,0.0225,-0.02833333333332888,-0.04333333333332945,1.5065,1.5645,37.251000000000005,29.304000000000002,37.332,34.43,56.034,34.518,59.3555,51.947,53.973,33.698499999999996,57.9705,50.288,53.150999999999996,33.2725,57.929,49.705,-0.03299999999999992,-0.12199999999999989,0.10751000000000001,0.10970500000000001,0.0,206.595,206.495,203.40333333333334,203.40333333333334,0.0,0.0
4,0.0,0.0,0.0,1.0,1.0,0.0,0.0,1.0,0.0,100.0,1.0,1.1856,26.0,0.0,0.0,0.0,52.999997,0.0,26.0,26.0,26.0,26.0,-0.139625,0.2825,-0.03096666666666667,293.594,-2.6666,-2.734888888888889,-1.5319,-1.5947,-262.46,216.2575,190.910375,0.0,0.0,0.0,0.0,0.009266666666666668,-5.498166666666667,-5.498166666666667,-0.5439,-0.7453333333333334,-0.07433333333333358,-1.8129999999999997,66.077,-0.08370000000000001,-0.23705,1.1639999999999997,100.0,1.0,1.0,203.98000000000002,0.0,0.0,0.0,0.0,0.0,0.0,0.0,8646.0,0.0,55.0,5.0,237.85000000000002,0.0,0.0,0.0,0.0,0.0,0.0,0.0,0.0,0.20400000000000063,0.20400000000000063,0.0,0.0,0.0,55.0,616.79921,10000.0,85.000001,85.000001,85.000001,85.000001,395.0,0.0,0.0,0.0,1.0,333.33500000000004,53.04,53.04,48.706,48.706,34.0,-29.2725,19.042,-33.11666666666667,20.82,0.0,1782.94,0.625,100.0,27.735,26.963,42.775,41.573,0.0,0.0,100.0,0.0,0.0,0.0,0.0,3238.142857142857,2885.4,4109.555555555556,3686.0,305.1265,305.49475,314.80075,315.63925,21.80975,20.5337,21.82375,21.3577,314.999998,314.999998,324.999988,324.999988,99.55835714285715,99.50725,99.56625714285714,99.54615714285714,-0.028249999999999997,-0.15225,-0.21283333333333335,0.017833333333333333,-0.046666666666666856,-0.03499999999999659,1.564,1.6175,37.311,29.336,37.397999999999996,34.486000000000004,56.016999999999996,34.559,59.3965,52.006,53.956,33.7365,58.009,50.344,53.132999999999996,33.3085,57.965,49.76,-0.022499999999999964,-0.1200000000000001,0.10942500000000001,0.10443000000000001,0.0,206.995,206.89,203.98000000000002,203.98000000000002,0.0,0.0
5,0.0,0.0,0.0,1.0,1.0,0.0,0.0,1.0,0.0,100.0,1.0,1.1856,26.0,0.0,0.0,0.0,52.999997,0.0,26.0,26.0,26.0,26.0,-0.125625,0.31530000000000014,-0.009766666666666668,293.594,-2.6744,-2.762777777777778,-1.5106000000000002,-1.5862,-258.89,216.2375,190.88875,0.0,0.0,0.0,0.0,0.011366666666666667,-5.498166666666667,-5.498166666666667,-0.5353,0.36733333333333335,-0.0818888888888889,-0.274,66.23400000000001,-0.0859,-0.21350000000000002,1.0779999999999994,100.0,1.0,1.0,204.39,0.0,0.0,0.0,0.0,0.0,0.0,0.0,8663.4,0.0,55.0,5.0,238.41,1.0,0.0,0.0,0.0,0.0,0.0,0.0,0.0,0.2579999999999991,0.2579999999999991,0.0,0.0,1.0,55.0,616.79921,10000.0,85.000001,85.000001,85.000001,85.000001,395.0,0.0,0.0,0.0,1.0,166.665,53.421,53.421,48.903999999999996,48.903999999999996,34.0,-28.57,18.747999999999998,-33.56333333333333,22.6525,0.0,1782.8866666666668,0.21000000000000085,100.0,27.784,26.797,42.56,41.248000000000005,0.0,0.0,100.0,0.0,0.0,0.0,0.0,3199.857142857143,2764.4,4212.888888888889,4054.4,305.208,305.9265,314.63825,314.7605,21.82025,20.5391,21.83475,21.367,314.999998,314.999998,324.999988,324.999988,99.55837142857143,99.50726666666667,99.56641428571429,99.54631428571429,-0.018000000000000016,-0.14024999999999999,-0.20933333333333334,0.004,-0.046666666666666856,-0.01666666666666572,1.558,1.5785,37.376999999999995,29.369500000000002,37.468,34.544,56.001999999999995,34.6025,59.4385,52.066,53.942,33.775999999999996,58.0485,50.402,53.119,33.3465,58.001,49.8165,-0.05149999999999988,-0.09549999999999992,0.10270000000000001,0.10323,0.0,207.51999999999998,207.41500000000002,204.39,204.39,0.0,0.0
6,0.0,0.0,0.0,1.0,1.0,0.0,0.0,1.0,0.0,100.0,1.0,1.1856,26.0,0.0,0.0,0.0,52.999997,0.0,26.0,26.0,26.0,26.0,-0.12337500000000001,0.28049999999999997,0.010100000000000001,293.427,-2.6368,-2.743555555555556,-1.5534,-1.582,-255.9,216.2175,190.870625,0.0,0.0,0.0,0.0,0.0131,-5.498166666666667,-5.498166666666667,-0.5316000000000001,0.093,-0.06188888888888888,0.9199999999999999,66.362,-0.0823,-0.216,0.7579999999999991,100.0,1.0,1.0,204.80333333333334,0.0,0.0,0.0,0.0,0.0,0.0,0.0,8680.8,0.0,55.0,5.0,238.87666666666667,0.0,0.0,0.0,0.0,0.0,0.0,0.0,0.0,0.3030000000000008,0.3030000000000008,0.0,0.0,0.0,55.0,616.79921,10000.0,85.000001,85.000001,85.000001,85.000001,395.0,0.0,0.0,0.0,1.0,166.665,53.07,53.07,48.751999999999995,48.751999999999995,34.0,-26.572499999999998,21.206,-32.21333333333333,23.5325,0.0,1782.8422222222223,-0.015000000000000568,100.0,27.872,26.741,42.772999999999996,41.497,0.0,0.0,100.0,0.0,0.0,0.0,0.0,3125.857142857143,2998.4,4065.222222222222,4038.8,305.231,305.32425,314.921,314.875,21.829,20.5436,21.844125,21.375,314.999998,314.999998,324.999988,324.999988,99.55837142857143,99.50728333333333,99.56654285714286,99.54642857142858,0.010250000000000092,-0.11849999999999994,-0.19416666666666665,0.024833333333333332,-0.045000000000001705,-0.061666666666667425,1.531,1.5645,37.431,29.3975,37.525999999999996,34.594,55.989000000000004,34.6385,59.4735,52.12,53.93,33.809,58.081,50.4535,53.105999999999995,33.3785,58.031,49.867,-0.07099999999999995,-0.08300000000000018,0.10416500000000001,0.10769500000000001,0.0,207.9,207.82999999999998,204.80333333333334,204.80333333333334,0.0,0.0
7,0.0,0.0,0.0,1.0,1.0,0.0,0.0,1.0,0.0,100.0,1.0,1.1856,26.0,0.0,0.0,0.0,52.999997,0.0,26.0,26.0,26.0,26.0,-0.07562499999999994,0.28880000000000017,0.0499,293.198,-2.6103,-2.729222222222222,-1.5154,-1.6246,-252.32,216.1925,190.849,0.0,0.0,0.0,0.0,0.015166666666666667,-5.498166666666667,-5.498166666666667,-0.5342,0.04033333333333334,-0.04788888888888909,1.1719999999999997,66.517,-0.0678,-0.224,0.3439999999999994,100.0,1.0,1.0,205.25333333333333,0.0,0.0,0.0,0.0,0.0,0.0,0.0,8699.9,0.0,55.0,5.0,239.43333333333334,1.0,0.0,0.0,0.0,0.0,0.0,0.0,0.0,0.3569999999999993,0.3569999999999993,0.0,0.0,1.0,55.0,616.79921,10000.0,85.000001,85.000001,85.000001,85.000001,395.0,0.0,0.0,0.0,1.0,166.665,52.78,52.78,48.782,48.782,34.0,-25.575,22.704,-30.006666666666664,25.57,0.0,1782.7866666666666,-0.21999999999999886,100.0,27.984,26.868,42.817,41.786,0.0,0.0,100.0,0.0,0.0,0.0,0.0,3161.714285714286,3037.3,4023.6666666666665,4083.1000000000004,305.04,305.162,314.97375,314.69925,21.839375,20.5491,21.855375,21.3845,314.999998,314.999998,324.999988,324.999988,99.55837142857143,99.5073,99.56668571428571,99.54658571428571,0.03825000000000012,-0.08850000000000002,-0.16566666666666666,0.04416666666666667,-0.04333333333332945,-0.06666666666666998,1.534,1.5485,37.495999999999995,29.4315,37.596000000000004,34.653,55.974000000000004,34.6805,59.515,52.1845,53.915,33.848,58.1195,50.515,53.09,33.415,58.0665,49.9275,-0.09250000000000003,-0.05149999999999988,0.10135500000000001,0.10841500000000001,0.0,208.35500000000002,208.32999999999998,205.25333333333333,205.25333333333333,0.0,0.0
8,0.0,0.0,0.0,1.0,1.0,0.0,0.0,1.0,0.0,100.0,1.0,1.1856,26.0,0.0,0.0,0.0,52.999997,0.0,26.0,26.0,26.0,26.0,-0.03749999999999998,0.28400000000000003,-0.0432,293.442,-2.6965,-2.712777777777778,-1.4994,-1.5763,-248.92000000000002,216.16750000000002,190.8285,0.0,0.0,0.0,0.0,0.017166666666666667,-5.498166666666667,-5.498166666666667,-0.5366000000000001,-0.5303333333333334,-0.03388888888888886,-0.5090000000000003,66.663,-0.0471,-0.216725,-0.04999999999999982,100.0,1.0,1.0,205.65,0.0,0.0,0.0,0.0,0.0,0.0,0.0,8716.7,0.0,55.0,5.0,239.95666666666668,0.0,0.0,0.0,0.0,0.0,0.0,0.0,0.0,0.40800000000000125,0.40800000000000125,0.0,0.0,0.0,55.0,616.79921,10000.0,85.000001,85.000001,85.000001,85.000001,395.0,0.0,0.0,0.0,1.0,166.665,53.619,53.619,48.157,48.157,34.0,-24.115,22.19,-30.703333333333333,26.509999999999998,0.0,1782.7355555555555,-0.33500000000000085,100.0,27.434,26.956,42.726,41.994,0.0,0.0,100.0,0.0,0.0,0.0,0.0,2986.5714285714284,2906.8,4155.555555555556,4084.0,305.885,305.45825,314.69175,314.615,21.849,20.5542,21.865875,21.3935,314.999998,314.999998,324.999988,324.999988,99.55838571428572,99.50731666666667,99.56682857142857,99.54672857142857,0.042750000000000066,-0.07224999999999993,-0.15983333333333336,0.07083333333333333,-0.036666666666668846,-0.04333333333332945,1.5185,1.5210000000000001,37.556,29.464,37.662,34.709,55.958,34.7185,59.554,52.244,53.9,33.882999999999996,58.156,50.5725,53.074,33.448499999999996,58.1,49.9835,-0.09999999999999987,-0.038000000000000256,0.11156,0.111115,0.0,208.76999999999998,208.76999999999998,205.65,205.65,0.0,0.0
9,0.0,0.0,0.0,1.0,1.0,0.0,0.0,1.0,0.0,100.0,1.0,1.1856,26.0,0.0,0.0,0.0,52.999997,0.0,26.0,26.0,26.0,26.0,-0.013499999999999956,0.29100000000000015,-0.014566666666666667,293.106,-2.6855,-2.720222222222222,-1.5525,-1.5554999999999999,-245.72,216.14249999999998,190.808625,0.0,0.0,0.0,0.0,0.019,-5.498166666666667,-5.498166666666667,-0.542,0.675,-0.035777777777777686,-0.3360000000000003,66.797,-0.0263,-0.217225,-0.11399999999999988,100.0,1.0,1.0,206.16333333333333,0.0,0.0,0.0,0.0,0.0,0.0,0.0,8738.4,0.0,55.0,5.0,240.44,1.0,0.0,0.0,0.0,0.0,0.0,0.0,0.0,0.4559999999999995,0.4559999999999995,0.0,0.0,1.0,55.0,616.79921,10000.0,85.000001,85.000001,85.000001,85.000001,395.0,0.0,0.0,0.0,1.0,166.665,52.338,52.338,49.179,49.179,34.0,-26.5225,23.689999999999998,-28.39,26.2875,0.0,1782.6877777777777,-0.48999999999999844,100.0,27.903,27.38,42.357,41.947,0.0,0.0,100.0,0.0,0.0,0.0,0.0,3383.714285714286,2998.3,4029.6666666666665,4040.7,304.6395,305.1135,315.1225,314.81775,21.858249999999998,20.5593,21.875625,21.4019,314.999998,314.999998,324.999988,324.999988,99.55838571428572,99.50731666666667,99.56695714285715,99.54685714285715,0.07174999999999998,-0.058499999999999996,-0.1305,0.085,-0.054999999999999716,-0.03833333333332689,1.5815000000000001,1.574,37.614000000000004,29.4955,37.723,34.762,55.946,34.7555,59.5875,52.2995,53.888,33.917,58.1875,50.6255,53.062,33.4815,58.1285,50.0355,-0.11850000000000005,-0.03949999999999987,0.10140500000000001,0.10646000000000001,0.0,209.23000000000002,209.21,206.16333333333333,206.16333333333333,0.0,0.0
10,0.0,0.0,0.0,1.0,1.0,0.0,0.0,1.0,0.0,100.0,1.0,1.1856,26.0,0.0,0.0,0.0,52.999997,0.0,26.0,26.0,26.0,26.0,0.004375000000000018,0.30269999999999997,-0.0031333333333333335,292.969,-2.6625,-2.697,-1.5359,-1.5346000000000002,-242.51,216.115,190.789125,0.0,0.0,0.0,0.0,0.020866666666666665,-5.498166666666667,-5.498166666666667,-0.5184,-0.3423333333333333,0.007111111111111068,0.38700000000000045,66.935,-0.008400000000000001,-0.20772500000000002,-0.4220000000000006,100.0,1.0,1.0,206.39,0.0,0.0,0.0,0.0,0.0,0.0,0.0,8748.1,0.0,55.0,5.0,240.93666666666667,0.0,0.0,0.0,0.0,0.0,0.0,1.0,0.0,0.5040000000000013,0.5040000000000013,0.0,0.0,0.0,55.0,616.79921,10000.0,85.000001,85.000001,85.000001,85.000001,395.0,0.0,0.0,0.0,1.0,166.665,53.436,53.436,47.638,47.638,34.0,-21.4025,22.89,-30.759999999999998,29.52,0.0,1782.6377777777777,-0.5949999999999989,100.0,27.719,27.372,42.74,42.692,0.0,0.0,100.0,0.0,0.0,0.0,0.0,2897.4285714285716,2869.2,4331.111111111111,4278.4,306.0525,305.548,314.279,314.157,21.867375,20.5642,21.88575,21.4106,314.999998,314.999998,324.999988,324.999988,99.5584,99.50731666666667,99.5671,99.54698571428571,0.08624999999999994,-0.042749999999999955,-0.11950000000000001,0.106,-0.04333333333332945,-0.03333333333333144,1.487,1.4765,37.671,29.5265,37.786,34.816,55.934,34.7905,59.6255,52.3595,53.876999999999995,33.9495,58.223,50.6835,53.05,33.5125,58.161,50.0955,-0.12549999999999994,-0.026000000000000245,0.108645,0.108975,0.0,209.62,209.635,206.39,206.39,0.0,0.0
11,0.0,0.0,0.0,1.0,1.0,0.0,0.0,1.0,0.0,100.0,1.0,1.1856,26.0,0.0,0.0,0.0,52.999997,0.0,26.0,26.0,26.0,26.0,0.026375000000000037,0.2713000000000001,-0.06946666666666666,293.564,-2.7062,-2.6878888888888888,-1.5906,-1.5246,-239.09,216.0875,190.7685,0.0,0.0,0.0,0.0,0.022600000000000002,-5.498166666666667,-5.498166666666667,-0.5611,-0.2596666666666667,0.032777777777777795,0.2969999999999997,67.074,0.0122,-0.237825,-0.6760000000000002,100.0,1.0,1.0,207.13,0.0,0.0,0.0,0.0,0.0,0.0,0.0,8779.5,0.0,55.0,5.0,241.44,1.0,0.0,0.0,0.0,0.0,0.0,1.0,0.0,0.5549999999999997,0.5549999999999997,0.0,0.0,1.0,55.0,616.79921,10000.0,85.000001,85.000001,85.000001,85.000001,395.0,0.0,0.0,0.0,1.0,333.33500000000004,52.887,52.887,49.316,49.316,34.0,-21.9225,26.799999999999997,-24.11,26.7975,0.0,1782.588888888889,-0.5850000000000009,100.0,27.527,27.379,42.344,42.544,0.0,0.0,100.0,0.0,0.0,0.0,0.0,3001.714285714286,3180.6,3680.4444444444443,3875.3,305.663,304.731,315.9135,315.242,21.876875,20.5696,21.896125,21.4196,314.999998,314.999998,324.999988,324.999988,99.55841428571429,99.50731666666667,99.56724285714286,99.54712857142857,0.10725000000000007,-0.012499999999999956,-0.09266666666666667,0.13433333333333333,-0.045000000000001705,-0.05833333333333002,1.629,1.604,37.730000000000004,29.560000000000002,37.851,34.873000000000005,55.92,34.8285,59.6595,52.4185,53.864000000000004,33.9845,58.254,50.7405,53.036,33.546,58.189499999999995,50.147999999999996,-0.12450000000000006,-0.020500000000000185,0.10801000000000001,0.10232500000000001,0.0,210.025,210.07,207.13,207.13,0.0,0.0
12,0.0,0.0,0.0,1.0,1.0,0.0,0.0,1.0,0.0,100.0,1.0,1.1856,26.0,0.0,0.0,0.0,52.999997,0.0,26.0,26.0,26.0,26.0,0.044624999999999915,0.2922,0.007200000000000001,293.015,-2.7614,-2.6823333333333332,-1.5521,-1.5236,-235.87,216.065,190.74775,0.0,0.0,0.0,0.0,0.025466666666666665,-5.498166666666667,-5.498166666666667,-0.5457000000000001,0.30133333333333334,0.02055555555555566,0.6930000000000005,67.211,0.0315,-0.20597500000000002,-0.7699999999999996,100.0,1.0,1.0,207.32666666666665,0.0,0.0,0.0,0.0,0.0,0.0,0.0,8787.8,0.0,55.0,5.0,241.93,0.0,0.0,0.0,0.0,0.0,0.0,1.0,0.0,0.602999999999998,0.602999999999998,0.0,0.0,0.0,55.0,616.79921,10000.0,85.000001,85.000001,85.000001,85.000001,395.0,0.0,0.0,0.0,1.0,333.33500000000004,52.917,52.917,48.019,48.019,34.0,-22.5525,26.658,-26.496666666666666,31.3725,0.0,1782.54,-0.41000000000000014,100.0,27.413,27.505,42.272,42.435,0.0,0.0,100.0,0.0,0.0,0.0,0.0,3012.857142857143,3190.3,4168.222222222223,4224.8,305.638,304.7365,314.673,314.42875,21.88575,20.5747,21.906,21.4281,314.999998,314.999998,324.999988,324.999988,99.55841428571429,99.50733333333334,99.56737142857143,99.54725714285715,0.10624999999999996,-0.016249999999999987,-0.06416666666666668,0.15833333333333335,-0.030000000000001137,-0.041666666666671404,1.536,1.508,37.786,29.592,37.912,34.925,55.909,34.864,59.6945,52.475,53.852999999999994,34.0175,58.287,50.7945,53.024,33.5775,58.2195,50.201,-0.10699999999999998,-0.04300000000000015,0.11034500000000001,0.10424000000000001,0.0,210.45499999999998,210.53,207.32666666666665,207.32666666666665,0.0,0.0
13,0.0,0.0,0.0,1.0,1.0,0.0,0.0,1.0,0.0,100.0,1.0,1.1856,26.0,0.0,0.0,0.0,52.999997,0.0,26.0,26.0,26.0,26.0,0.08237500000000009,0.28500000000000014,0.028,292.618,-2.7413,-2.6706666666666665,-1.6232,-1.5062,-232.44,216.04000000000002,190.725875,0.0,0.0,0.0,0.0,0.02673333333333333,-5.498166666666667,-5.498166666666667,-0.5388000000000001,-0.059333333333333335,0.021777777777777896,-0.5300000000000002,67.354,0.040600000000000004,-0.213625,-0.8079999999999998,100.0,1.0,1.0,207.70666666666668,0.0,0.0,0.0,0.0,0.0,0.0,0.0,8803.9,0.0,55.0,5.0,242.44333333333333,1.0,0.0,0.0,0.0,0.0,0.0,1.0,0.0,0.6539999999999999,0.6539999999999999,0.0,0.0,1.0,55.0,616.79921,10000.0,85.000001,85.000001,85.000001,85.000001,395.0,0.0,0.0,0.0,1.0,333.33500000000004,52.551,52.551,47.943,47.943,34.0,-21.68,26.83,-27.743333333333336,32.0,0.0,1782.49,-0.7800000000000011,100.0,27.565,27.879,42.397999999999996,43.039,0.0,0.0,100.0,0.0,0.0,0.0,0.0,3153.285714285714,3080.3,4218.555555555556,4277.7,305.37,304.881,314.63475,314.192,21.895375,20.5802,21.9165,21.4373,314.999998,314.999998,324.999988,324.999988,99.55842857142858,99.50733333333334,99.56751428571428,99.54741428571428,0.1452500000000001,0.010750000000000037,-0.06216666666666667,0.16016666666666665,-0.03999999999999915,-0.03499999999999659,1.522,1.4745,37.846000000000004,29.625999999999998,37.977999999999994,34.983000000000004,55.899,34.9025,59.7325,52.538,53.843,34.0525,58.322,50.8555,53.013,33.6115,58.2515,50.260999999999996,-0.14500000000000002,-0.008000000000000007,0.09844000000000001,0.10835000000000002,0.0,210.905,210.935,207.70666666666668,207.70666666666668,0.0,0.0
14,0.0,0.0,0.0,1.0,1.0,0.0,0.0,1.0,0.0,100.0,1.0,1.1856,26.0,0.0,0.0,0.0,52.999997,0.0,26.0,26.0,26.0,26.0,0.09462499999999996,0.27990000000000004,-0.0061,292.816,-2.7378,-2.6095555555555556,-1.6024,-1.5086,-228.8,216.015,190.703375,0.0,0.0,0.0,0.0,0.02886666666666667,-5.498166666666667,-5.498166666666667,-0.549,-0.167,0.053444444444444406,-0.12099999999999955,67.502,0.053500000000000006,-0.22815000000000002,-0.9620000000000006,100.0,1.0,1.0,208.24666666666667,0.0,0.0,0.0,0.0,0.0,0.0,0.0,8826.8,0.0,55.0,5.0,242.97666666666666,0.0,0.0,0.0,0.0,0.0,0.0,1.0,0.0,0.7079999999999984,0.7079999999999984,0.0,0.0,0.0,55.0,616.79921,10000.0,85.000001,85.000001,85.000001,85.000001,395.0,0.0,0.0,0.0,1.0,166.665,52.628,52.628,48.141,48.141,34.0,-20.7575,27.418,-25.34,31.4875,0.0,1782.4366666666667,-0.8999999999999986,100.0,27.493,28.001,42.399,43.291,0.0,0.0,100.0,0.0,0.0,0.0,0.0,3031.285714285714,3178.3,3986.4444444444443,4166.4,305.7285,304.59675,315.15875,314.487,21.905375,20.586,21.927625,21.447,314.999998,314.999998,324.999988,324.999988,99.55845714285714,99.50733333333334,99.56767142857143,99.54755714285714,0.14375000000000004,0.01475000000000004,-0.058166666666666665,0.17283333333333334,-0.051666666666669414,-0.05333333333332746,1.5565,1.5150000000000001,37.909,29.6625,38.048,35.044,55.888999999999996,34.943,59.7705,52.604,53.833,34.09,58.357,50.919,53.001999999999995,33.647,58.283500000000004,50.323,-0.14649999999999985,-0.00749999999999984,0.10856500000000001,0.11183000000000001,0.0,211.345,211.42000000000002,208.24666666666667,208.24666666666667,0.0,0.0
15,0.0,0.0,0.0,1.0,1.0,0.0,0.0,1.0,0.0,100.0,1.0,1.1856,26.0,0.0,0.0,0.0,52.999997,0.0,26.0,26.0,26.0,26.0,0.12850000000000006,0.2836000000000001,-0.05436666666666667,292.847,-2.7472,-2.5701111111111112,-1.6275,-1.4525000000000001,-225.55,215.995,190.683125,0.0,0.0,0.0,0.0,0.03073333333333333,-5.498166666666667,-5.498166666666667,-0.5392,0.2566666666666667,0.08133333333333326,-0.476,67.634,0.0671,-0.20950000000000002,-1.1360000000000001,100.0,1.0,1.0,208.64,0.0,0.0,0.0,0.0,0.0,0.0,0.0,8843.5,0.0,55.0,5.0,243.45333333333335,1.0,0.0,0.0,0.0,0.0,0.0,1.0,0.0,0.7560000000000002,0.7560000000000002,0.0,0.0,1.0,55.0,616.79921,10000.0,85.000001,85.000001,85.000001,85.000001,395.0,0.0,0.0,0.0,1.0,166.665,52.856,52.856,48.172,48.172,34.0,-18.6475,27.45,-24.71,33.335,0.0,1782.388888888889,-0.9400000000000013,100.0,27.523,28.049,42.175,43.391,0.0,0.0,100.0,0.0,0.0,0.0,0.0,2876.285714285714,3137.5,3984.6666666666665,4333.7,306.1785,304.71075,315.19675,314.09725,21.91425,20.5912,21.9375,21.4556,314.999998,314.999998,324.999988,324.999988,99.55847142857142,99.50735,99.56781428571429,99.5477,0.16749999999999998,0.033500000000000085,-0.03933333333333334,0.19283333333333336,-0.051666666666669414,-0.04833333333333201,1.5514999999999999,1.5005,37.964,29.695,38.108999999999995,35.098,55.879999999999995,34.9795,59.803,52.6625,53.825,34.124,58.387,50.9755,52.992000000000004,33.68,58.3105,50.3785,-0.15300000000000002,0.0040000000000000036,0.10689000000000001,0.10690000000000001,0.0,211.76,211.835,208.64,208.64,0.0,0.0
16,0.0,0.0,0.0,1.0,1.0,0.0,0.0,1.0,0.0,100.0,1.0,1.1856,26.0,0.0,0.0,0.0,52.999997,0.0,26.0,26.0,26.0,26.0,0.1316250000000001,0.2752000000000001,-0.05,292.862,-2.8087,-2.6094444444444447,-1.601,-1.4526,-222.3,215.97750000000002,190.662375,0.0,0.0,0.0,0.0,0.032633333333333334,-5.498166666666667,-5.498166666666667,-0.5597,-0.7256666666666667,0.06888888888888878,-0.9509999999999996,67.766,0.0781,-0.22455,-1.1920000000000002,100.0,1.0,1.0,209.0366666666667,0.0,0.0,0.0,0.0,0.0,0.0,0.0,8860.2,0.0,55.0,5.0,243.93,0.0,0.0,0.0,0.0,0.0,0.0,1.0,0.0,0.8039999999999985,0.8039999999999985,0.0,0.0,0.0,55.0,616.79921,10000.0,85.000001,85.000001,85.000001,85.000001,395.0,0.0,0.0,0.0,1.0,333.33500000000004,52.795,52.795,47.867,47.867,34.0,-20.0,28.192,-23.439999999999998,32.0325,0.0,1782.338888888889,-0.8449999999999989,100.0,27.173000000000002,28.112000000000002,42.459,43.474000000000004,0.0,0.0,100.0,0.0,0.0,0.0,0.0,2993.714285714286,3180.1,3975.0,4137.5,305.9415,304.58175,315.2045,314.578,21.922875,20.5965,21.947375,21.4643,314.999998,314.999998,324.999988,324.999988,99.55848571428571,99.50735,99.56794285714285,99.54784285714285,0.16700000000000004,0.03249999999999997,-0.02333333333333333,0.20550000000000002,-0.06499999999999773,-0.036666666666668846,1.568,1.5255,38.018,29.728,38.171,35.152,55.867999999999995,35.0165,59.838499999999996,52.7205,53.813,34.158500000000004,58.42,51.0315,52.979,33.713,58.3405,50.4335,-0.14700000000000002,-0.011499999999999844,0.10938,0.106995,0.0,212.14,212.21,209.0366666666667,209.0366666666667,0.0,0.0
17,0.0,0.0,0.0,1.0,1.0,0.0,0.0,1.0,0.0,100.0,1.0,1.1856,26.0,0.0,0.0,0.0,52.999997,0.0,26.0,26.0,26.0,26.0,0.10837500000000011,0.2752000000000001,-0.029733333333333334,292.542,-2.7637,-2.5653333333333332,-1.6408,-1.4746000000000001,-218.84,215.9625,190.63975,0.0,0.0,0.0,0.0,0.034633333333333335,-5.498166666666667,-5.498166666666667,-0.5497000000000001,0.5463333333333333,0.04844444444444429,0.6340000000000003,67.904,0.08070000000000001,-0.20702500000000001,-1.1639999999999997,100.0,1.0,1.0,209.44666666666666,0.0,0.0,0.0,0.0,0.0,0.0,0.0,8877.7,0.0,55.0,5.0,244.42666666666668,1.0,0.0,0.0,0.0,0.0,0.0,1.0,0.0,0.8550000000000004,0.8550000000000004,0.0,0.0,1.0,55.0,616.79921,10000.0,85.000001,85.000001,85.000001,85.000001,395.0,0.0,0.0,0.0,1.0,333.33500000000004,52.46,52.46,47.882,47.882,34.0,-18.89,27.886,-24.81,33.8925,0.0,1782.2866666666666,-0.9299999999999997,100.0,27.837,28.298000000000002,42.269999999999996,43.35,0.0,0.0,100.0,0.0,0.0,0.0,0.0,2975.0,3151.9,4179.111111111111,4308.1,305.779,304.8625,314.767,314.29425,21.93225,20.6021,21.95775,21.473399999999998,314.999998,314.999998,324.999988,324.999988,99.55851428571428,99.50735,99.56808571428571,99.548,0.18575000000000008,0.04774999999999996,-0.011833333333333335,0.20650000000000002,-0.02499999999999858,-0.061666666666667425,1.5665,1.5085,38.077,29.7635,38.236000000000004,35.209,55.86,35.0605,59.875,52.786,53.805,34.199,58.454,51.094,52.97,33.7515,58.371,50.4955,-0.15549999999999997,-0.00749999999999984,0.104455,0.10521000000000001,0.0,212.60000000000002,212.685,209.44666666666666,209.44666666666666,0.0,0.0
18,0.0,0.0,0.0,1.0,1.0,0.0,0.0,1.0,0.0,100.0,1.0,1.1856,26.0,0.0,0.0,0.0,52.999997,0.0,26.0,26.0,26.0,26.0,0.11650000000000005,0.27580000000000005,-0.0309,292.526,-2.7957,-2.5392222222222225,-1.6558000000000002,-1.423,-215.57999999999998,215.9525,190.618625,0.0,0.0,0.0,0.0,0.036533333333333334,-5.498166666666667,-5.498166666666667,-0.5598000000000001,-0.5446666666666666,0.07299999999999995,1.1749999999999998,68.035,0.08170000000000001,-0.22262500000000002,-1.2439999999999998,100.0,1.0,1.0,209.85666666666668,0.0,0.0,0.0,0.0,0.0,0.0,0.0,8895.1,0.0,55.0,5.0,244.89666666666665,0.0,0.0,0.0,0.0,0.0,0.0,1.0,0.0,0.9029999999999987,0.9029999999999987,0.0,0.0,0.0,55.0,616.79921,10000.0,85.000001,85.000001,85.000001,85.000001,395.0,0.0,0.0,0.0,1.0,166.665,52.429,52.429,47.76,47.76,34.0,-19.0325,30.166,-24.043333333333333,32.417500000000004,0.0,1782.2411111111112,-1.245000000000001,100.0,27.605,28.116,42.625,43.763,0.0,0.0,100.0,0.0,0.0,0.0,0.0,2968.5714285714284,3351.8,3994.222222222222,4210.5,305.863,304.3505,315.1415,314.4855,21.941,20.6074,21.967624999999998,21.4822,314.999998,314.999998,324.999988,324.999988,99.55854285714285,99.50736666666667,99.56821428571429,99.54812857142858,0.18674999999999997,0.06174999999999997,-0.01666666666666667,0.20883333333333334,-0.03499999999999659,-0.05833333333333002,1.558,1.5155,38.131,29.796,38.298,35.263,55.852000000000004,35.096000000000004,59.9075,52.842,53.797,34.2315,58.4845,51.1485,52.961,33.783500000000004,58.3985,50.5485,-0.16349999999999998,0.013500000000000068,0.10627,0.10058500000000001,0.0,212.965,213.085,209.85666666666668,209.85666666666668,0.0,0.0
19,0.0,0.0,0.0,1.0,1.0,0.0,0.0,1.0,0.0,100.0,1.0,1.1856,26.0,0.0,0.0,0.0,52.999997,0.0,26.0,26.0,26.0,26.0,0.14775000000000005,0.2936000000000001,0.0485,291.916,-2.7172,-2.524888888888889,-1.6743999999999999,-1.4015,-211.89999999999998,215.945,190.59475,0.0,0.0,0.0,0.0,0.03866666666666667,-5.498166666666667,-5.498166666666667,-0.5496,0.8513333333333334,0.08711111111111114,0.9500000000000002,68.18,0.09190000000000001,-0.210875,-1.6920000000000002,100.0,1.0,1.0,210.25666666666666,0.0,0.0,0.0,0.0,0.0,0.0,0.0,8912.0,0.0,55.0,5.0,245.42000000000002,1.0,0.0,0.0,0.0,0.0,0.0,1.0,0.0,0.9570000000000007,0.9570000000000007,0.0,0.0,1.0,55.0,616.79921,10000.0,85.000001,85.000001,85.000001,85.000001,395.0,0.0,0.0,0.0,1.0,166.665,51.666,51.666,47.424,47.424,34.0,-16.985,31.932000000000002,-24.656666666666666,35.85,0.0,1782.1877777777777,-1.504999999999999,100.0,28.113,28.695,42.378,43.769,0.0,0.0,100.0,0.0,0.0,0.0,0.0,2988.4285714285716,3415.5,4159.888888888889,4510.0,305.6115,304.00525,314.79725,313.8205,21.951125,20.6135,21.978625,21.4919,314.999998,314.999998,324.999988,324.999988,99.55855714285714,99.50736666666667,99.56837142857142,99.5483,0.22449999999999992,0.0847500000000001,-0.00016666666666666666,0.22383333333333336,-0.03499999999999659,-0.06499999999999773,1.537,1.477,38.194,29.8345,38.366,35.324,55.846000000000004,35.143,59.9435,52.908,53.791,34.2755,58.5175,51.2125,52.954,33.825,58.4285,50.6115,-0.1995,0.03349999999999986,0.11011000000000001,0.10422500000000001,0.0,213.425,213.565,210.25666666666666,210.25666666666666,0.0,0.0
20,0.0,0.0,0.0,1.0,1.0,0.0,0.0,1.0,0.0,100.0,1.0,1.1856,26.0,0.0,0.0,0.0,52.999997,0.0,26.0,26.0,26.0,26.0,0.20087499999999991,0.2845,0.0546,292.267,-2.8247,-2.5837777777777777,-1.6089,-1.5146000000000002,-208.63,215.94,190.57375,0.0,0.0,0.0,0.0,0.04056666666666667,-5.498166666666667,-5.498166666666667,-0.554,-1.2346666666666668,0.09711111111111115,0.6559999999999997,68.311,0.1063,-0.22065,-2.04,100.0,1.0,1.0,210.56333333333333,0.0,0.0,0.0,0.0,0.0,0.0,0.0,8925.0,0.0,55.0,5.0,245.89333333333335,0.0,0.0,0.0,0.0,0.0,0.0,0.0,0.0,1.004999999999999,1.004999999999999,0.0,0.0,0.0,55.0,616.79921,10000.0,85.000001,85.000001,85.000001,85.000001,395.0,0.0,0.0,0.0,1.0,333.33500000000004,52.795,52.795,46.829,46.829,34.0,-15.407499999999999,32.034,-22.55,38.3775,0.0,1782.138888888889,-1.7850000000000001,100.0,27.471,28.387999999999998,42.851,44.260000000000005,0.0,0.0,100.0,0.0,0.0,0.0,0.0,2749.0,3279.1,4091.3333333333335,4427.7,306.5805,304.4875,314.7935,313.78675,21.959625,20.6188,21.988625,21.500799999999998,314.999998,314.999998,324.999988,324.999988,99.55858571428571,99.50738333333334,99.56851428571429,99.54842857142857,0.242,0.11250000000000004,0.019,0.2445,-0.030000000000001137,-0.05666666666667197,1.5025,1.442,38.248000000000005,29.8675,38.429,35.379999999999995,55.837,35.1835,59.980000000000004,52.9695,53.782,34.313,58.5515,51.2715,52.944,33.861,58.459,50.6695,-0.21550000000000002,0.062000000000000055,0.112475,0.11113,0.0,213.775,213.93,210.56333333333333,210.56333333333333,0.0,0.0
21,0.0,0.0,0.0,1.0,1.0,0.0,0.0,1.0,0.0,100.0,1.0,1.1856,26.0,0.0,0.0,0.0,52.999997,0.0,26.0,26.0,26.0,26.0,0.20537500000000009,0.2853000000000001,-0.0692,292.633,-2.7494,-2.623,-1.6761,-1.4707,-205.14,215.9425,190.550625,0.0,0.0,0.0,0.0,0.0426,-5.498166666666667,-5.498166666666667,-0.5804,0.5403333333333333,0.08099999999999996,-1.0789999999999997,68.444,0.12840000000000001,-0.226975,-1.9059999999999997,100.0,1.0,1.0,211.22,0.0,0.0,0.0,0.0,0.0,0.0,0.0,8952.9,0.0,55.0,5.0,246.37,1.0,0.0,0.0,0.0,0.0,0.0,0.0,0.0,1.056000000000001,1.056000000000001,0.0,0.0,1.0,55.0,616.79921,10000.0,85.000001,85.000001,85.000001,85.000001,395.0,0.0,0.0,0.0,1.0,166.665,52.2,52.2,48.278999999999996,48.278999999999996,34.0,-19.07,28.966,-21.326666666666664,33.894999999999996,0.0,1782.088888888889,-0.41499999999999915,100.0,27.582,28.773,42.006,43.900999999999996,0.0,0.0,100.0,0.0,0.0,0.0,0.0,3012.285714285714,3200.7,3945.0,4084.4,305.7795,304.4485,315.3895,314.76425,21.968875,20.6247,21.998874999999998,21.509900000000002,314.999998,314.999998,324.999988,324.999988,99.55861428571428,99.5074,99.56864285714286,99.54857142857144,0.18274999999999997,0.040000000000000036,0.02866666666666667,0.2535,-0.03499999999999659,-0.046666666666666856,1.625,1.5595,38.306,29.904,38.492999999999995,35.437,55.83,35.2285,60.010999999999996,53.03,53.775,34.3545,58.58,51.329499999999996,52.935,33.9015,58.4845,50.7265,-0.13250000000000006,-0.032500000000000195,0.10990000000000001,0.09878,0.0,214.215,214.37,211.22,211.22,0.0,0.0
22,0.0,0.0,0.0,1.0,1.0,0.0,0.0,1.0,0.0,100.0,1.0,1.1856,26.0,0.0,0.0,0.0,52.999997,0.0,26.0,26.0,26.0,26.0,0.152625,0.25890000000000013,0.0291,292.145,-2.7255,-2.632111111111111,-1.6611,-1.5217,-201.85,215.9475,190.528375,0.0,0.0,0.0,0.0,0.044533333333333334,-5.498166666666667,-5.498166666666667,-0.5582,0.14533333333333334,0.07566666666666677,-0.8099999999999996,68.574,0.1282,-0.208375,-0.6360000000000001,100.0,1.0,1.0,211.42000000000002,0.0,0.0,0.0,0.0,0.0,0.0,0.0,8961.3,0.0,55.0,5.0,246.84,0.0,0.0,0.0,0.0,0.0,0.0,0.0,0.0,1.1039999999999992,1.1039999999999992,0.0,0.0,0.0,55.0,616.79921,10000.0,85.000001,85.000001,85.000001,85.000001,395.0,0.0,0.0,0.0,1.0,333.33500000000004,52.277,52.277,47.241,47.241,34.0,-21.04,26.317999999999998,-24.78,36.3825,0.0,1782.0377777777778,0.5250000000000021,100.0,27.704,28.795,42.456,44.15,0.0,0.0,100.0,0.0,0.0,0.0,0.0,2951.285714285714,3145.0,4219.333333333333,4299.6,305.924,304.5795,314.6845,314.151,21.977625,20.6301,22.00875,21.5187,314.999998,314.999998,324.999988,324.999988,99.55862857142857,99.5074,99.56878571428571,99.54872857142857,0.12074999999999991,-0.013000000000000012,0.0051666666666666675,0.2325,-0.04999999999999716,-0.03499999999999659,1.4849999999999999,1.457,38.36,29.938000000000002,38.555,35.492000000000004,55.821,35.2665,60.047,53.0905,53.766,34.39,58.6135,51.388,52.925,33.935,58.5145,50.784,-0.040999999999999925,-0.10999999999999988,0.1067,0.105745,0.0,214.69,214.73000000000002,211.42000000000002,211.42000000000002,0.0,0.0
23,0.0,0.0,0.0,1.0,1.0,0.0,0.0,1.0,0.0,100.0,1.0,1.1856,26.0,0.0,0.0,0.0,52.999997,0.0,26.0,26.0,26.0,26.0,0.05412499999999998,0.25660000000000016,-0.012433333333333333,292.114,-2.7304,-2.6115555555555554,-1.5624,-1.5611000000000002,-198.35,215.95749999999998,190.504875,0.0,0.0,0.0,0.0,0.04656666666666667,-5.498166666666667,-5.498166666666667,-0.5775,-0.375,0.049111111111111105,-0.0039999999999995595,68.709,0.0826,-0.23467500000000002,0.5540000000000003,100.0,1.0,1.0,211.91333333333333,0.0,0.0,0.0,0.0,0.0,0.0,0.0,8982.2,0.0,55.0,5.0,247.32666666666665,1.0,0.0,0.0,0.0,0.0,0.0,0.0,0.0,1.1550000000000011,1.1550000000000011,0.0,0.0,1.0,55.0,616.79921,10000.0,85.000001,85.000001,85.000001,85.000001,395.0,0.0,0.0,0.0,1.0,166.665,51.666,51.666,48.126,48.126,34.0,-25.009999999999998,25.131999999999998,-23.86,31.587500000000002,0.0,1781.99,0.8900000000000006,100.0,28.181,28.506999999999998,42.900999999999996,44.135000000000005,0.0,0.0,100.0,0.0,0.0,0.0,0.0,3221.857142857143,3244.0,3919.8888888888887,4047.4,305.0885,304.5715,315.24175,314.78375,21.987000000000002,20.6358,22.01925,21.528,314.999998,314.999998,324.999988,324.999988,99.55864285714286,99.5074,99.56892857142857,99.54887142857143,0.08525000000000005,-0.049250000000000016,-0.043166666666666666,0.1835,-0.046666666666666856,-0.054999999999999716,1.5165,1.5350000000000001,38.419,29.9735,38.620000000000005,35.55,55.808,35.3065,60.083,53.1535,53.753,34.427,58.6465,51.449,52.911,33.971000000000004,58.5445,50.8435,-0.00550000000000006,-0.15200000000000014,0.10847000000000001,0.11046500000000001,0.0,215.115,215.10000000000002,211.91333333333333,211.91333333333333,0.0,0.0
24,0.0,0.0,0.0,1.0,1.0,0.0,0.0,1.0,0.0,100.0,1.0,1.1856,26.0,0.0,0.0,0.0,52.999997,0.0,26.0,26.0,26.0,26.0,-0.02387499999999998,0.2876000000000001,-0.11123333333333334,292.404,-2.7224,-2.652,-1.5785,-1.5289000000000001,-195.05,215.9675,190.482375,0.0,0.0,0.0,0.0,0.04846666666666667,-5.498166666666667,-5.498166666666667,-0.5788,-0.435,0.027555555555555555,0.4770000000000003,68.836,0.0244,-0.21830000000000002,1.1620000000000008,100.0,1.0,1.0,212.23333333333335,0.0,0.0,0.0,0.0,0.0,0.0,0.0,8995.8,0.0,55.0,5.0,247.78333333333336,0.0,0.0,0.0,0.0,0.0,0.0,0.0,0.0,1.2029999999999994,1.2029999999999994,0.0,0.0,0.0,55.0,616.79921,10000.0,85.000001,85.000001,85.000001,85.000001,395.0,0.0,0.0,0.0,1.0,333.33500000000004,52.887,52.887,47.15,47.15,34.0,-23.634999999999998,21.604,-30.483333333333334,28.2725,0.0,1781.94,0.9349999999999987,100.0,28.107,28.113,43.179,43.768,0.0,0.0,100.0,0.0,0.0,0.0,0.0,2888.142857142857,2979.6,4305.111111111111,4124.4,306.0135,305.40425,314.333,314.69875,21.99575,20.6409,22.029125,21.5366,314.999998,314.999998,324.999988,324.999988,99.55865714285714,99.50741666666667,99.56907142857143,99.54901428571429,0.044499999999999984,-0.08650000000000002,-0.10516666666666667,0.114,-0.04833333333333201,-0.05666666666667197,1.492,1.5270000000000001,38.474000000000004,30.006,38.682,35.604,55.794,35.3435,60.117,53.209,53.739999999999995,34.461,58.6785,51.5025,52.897,34.0035,58.573499999999996,50.8965,-0.0009999999999998899,-0.15450000000000008,0.107575,0.10671000000000001,0.0,215.56,215.465,212.23333333333335,212.23333333333335,0.0,0.0
25,0.0,0.0,0.0,1.0,1.0,0.0,0.0,1.0,0.0,100.0,1.0,1.1856,26.0,0.0,0.0,0.0,52.999997,0.0,26.0,26.0,26.0,26.0,-0.055749999999999966,0.2659,-0.042800000000000005,292.45,-2.7619,-2.643222222222222,-1.5685,-1.5567,-191.53,215.97750000000002,190.457125,0.0,0.0,0.0,0.0,0.0505,-5.498166666666667,-5.498166666666667,-0.6136,-0.07133333333333333,-0.0013333333333331865,-1.7389999999999999,68.968,-0.033800000000000004,-0.227825,1.5079999999999991,100.0,1.0,1.0,212.7866666666667,0.0,0.0,0.0,0.0,0.0,0.0,0.0,9019.3,0.0,55.0,5.0,248.26,1.0,0.0,0.0,0.0,0.0,0.0,0.0,0.0,1.2540000000000013,1.2540000000000013,0.0,0.0,1.0,55.0,616.79921,10000.0,85.000001,85.000001,85.000001,85.000001,395.0,0.0,0.0,0.0,1.0,333.33500000000004,51.987,51.987,48.004,48.004,34.0,-29.5225,21.454,-30.623333333333335,23.965,0.0,1781.89,0.8850000000000016,100.0,28.063,28.197,43.122,43.268,0.0,0.0,100.0,0.0,0.0,0.0,0.0,3318.857142857143,3167.1,4020.777777777778,3937.1000000000004,305.042,304.69375,315.16275,315.1465,22.005125,20.6465,22.0395,21.5456,314.999998,314.999998,324.999988,324.999988,99.55865714285714,99.50743333333334,99.56921428571428,99.54915714285714,0.004750000000000032,-0.12724999999999997,-0.169,0.05566666666666666,-0.054999999999999716,-0.03833333333332689,1.5514999999999999,1.602,38.532,30.0405,38.747,35.66,55.775999999999996,35.3855,60.152,53.2655,53.724000000000004,34.5,58.711,51.557,52.879999999999995,34.041,58.603,50.9495,-0.01200000000000001,-0.15450000000000008,0.10695500000000001,0.10408500000000001,0.0,215.97500000000002,215.835,212.7866666666667,212.7866666666667,0.0,0.0
26,0.0,0.0,0.0,1.0,1.0,0.0,0.0,1.0,0.0,100.0,1.0,1.1856,26.0,0.0,0.0,0.0,52.999997,0.0,26.0,26.0,26.0,26.0,-0.13475000000000004,0.27160000000000006,0.05983333333333334,291.168,-2.6678,-2.7623333333333333,-1.5833,-1.5873,-187.81,215.985,190.42975,0.0,0.0,0.0,0.0,0.05266666666666667,-5.498166666666667,-5.498166666666667,-0.5703,0.6536666666666666,-0.05844444444444452,-1.3329999999999997,69.113,-0.0777,-0.19662500000000002,1.5620000000000012,100.0,1.0,1.0,212.96,0.0,0.0,0.0,0.0,0.0,0.0,0.0,9026.7,0.0,55.0,5.0,248.77666666666664,0.0,0.0,0.0,0.0,0.0,0.0,0.0,0.0,1.3079999999999998,1.3079999999999998,0.0,0.0,0.0,55.0,616.79921,10000.0,85.000001,85.000001,85.000001,85.000001,395.0,0.0,0.0,0.0,1.0,166.665,51.483000000000004,51.483000000000004,46.173,46.173,34.0,-30.052500000000002,19.788,-40.24666666666667,26.2725,0.0,1781.8355555555556,0.6799999999999997,100.0,29.184,28.58,44.065,43.368,0.0,0.0,100.0,0.0,0.0,0.0,0.0,3339.857142857143,2928.4,4684.222222222223,4399.3,304.8195,305.28125,313.6005,314.02725,22.015375,20.6524,22.05075,21.5553,314.999998,314.999998,324.999988,324.999988,99.55865714285714,99.50745,99.56938571428572,99.54931428571429,-0.017000000000000015,-0.15200000000000002,-0.2105,0.018000000000000002,-0.036666666666668846,-0.04833333333333201,1.4055,1.4645000000000001,38.596000000000004,30.0775,38.818,35.721000000000004,55.763,35.4335,60.195499999999996,53.3285,53.711,34.544,58.7515,51.6175,52.866,34.083,58.64,51.009,-0.02400000000000002,-0.133,0.10283500000000001,0.11437000000000001,0.0,216.45499999999998,216.315,212.96,212.96,0.0,0.0
27,0.0,0.0,0.0,1.0,1.0,0.0,0.0,1.0,0.0,100.0,1.0,1.1856,26.0,0.0,0.0,0.0,52.999997,0.0,26.0,26.0,26.0,26.0,-0.13112499999999994,0.25140000000000007,-0.0039000000000000003,291.565,-2.61,-2.7545555555555556,-1.5559,-1.6756,-184.69,215.99,190.408125,0.0,0.0,0.0,0.0,0.0545,-5.498166666666667,-5.498166666666667,-0.5962000000000001,-1.0976666666666668,-0.07188888888888867,0.5970000000000004,69.229,-0.09630000000000001,-0.24202500000000002,1.3239999999999998,100.0,1.0,1.0,213.41,0.0,0.0,0.0,0.0,0.0,0.0,0.0,9045.7,0.0,55.0,5.0,249.2,1.0,0.0,0.0,0.0,0.0,0.0,0.0,0.0,1.352999999999998,1.352999999999998,0.0,0.0,1.0,55.0,616.79921,10000.0,85.000001,85.000001,85.000001,85.000001,395.0,0.0,0.0,0.0,1.0,333.33500000000004,51.712,51.712,46.661,46.661,34.0,-28.485,20.355999999999998,-34.93,24.72,0.0,1781.7911111111111,0.5800000000000018,100.0,29.176000000000002,28.05,44.982,43.647,0.0,0.0,100.0,0.0,0.0,0.0,0.0,3224.714285714286,3069.4,4185.222222222223,4062.7,304.9675,305.16775,314.63125,314.75425,22.02375,20.6572,22.060375,21.5636,314.999998,314.999998,324.999988,324.999988,99.55865714285714,99.50746666666667,99.56951428571429,99.54944285714285,-0.014249999999999985,-0.15500000000000003,-0.21416666666666667,0.0125,-0.04833333333333201,-0.04833333333333201,1.4625,1.5205,38.647999999999996,30.1075,38.876999999999995,35.772,55.75,35.471000000000004,60.233000000000004,53.3815,53.699,34.579,58.786500000000004,51.6685,52.852999999999994,34.1165,58.672,51.0585,-0.03400000000000003,-0.1259999999999999,0.10525000000000001,0.10688500000000001,0.0,216.765,216.63,213.41,213.41,0.0,0.0
28,0.0,0.0,0.0,1.0,1.0,0.0,0.0,1.0,0.0,100.0,1.0,1.1856,26.0,0.0,0.0,0.0,52.999997,0.0,26.0,26.0,26.0,26.0,-0.13537500000000002,0.2751000000000001,-0.04386666666666667,291.885,-2.6357,-2.740333333333333,-1.5032,-1.6384,-181.16,215.99,190.382875,0.0,0.0,0.0,0.0,0.05653333333333334,-5.498166666666667,-5.498166666666667,-0.6021000000000001,0.639,-0.08277777777777784,-0.6120000000000001,69.35900000000001,-0.1057,-0.21815,1.3160000000000007,100.0,1.0,1.0,213.93666666666667,0.0,0.0,0.0,0.0,0.0,0.0,0.0,9068.0,0.0,55.0,5.0,249.66666666666666,0.0,0.0,0.0,0.0,0.0,0.0,0.0,0.0,1.404,1.404,0.0,0.0,0.0,55.0,616.79921,10000.0,85.000001,85.000001,85.000001,85.000001,395.0,0.0,0.0,0.0,1.0,166.665,51.757999999999996,51.757999999999996,47.531,47.531,34.0,-30.66,18.754,-34.516666666666666,22.73,0.0,1781.7411111111112,0.4299999999999997,100.0,29.179000000000002,28.103,44.288,43.101,0.0,0.0,100.0,0.0,0.0,0.0,0.0,3378.0,2906.6,4164.888888888889,4037.1000000000004,304.729,305.44825,314.80475,314.9105,22.033375,20.6626,22.070625,21.5726,314.999998,314.999998,324.999988,324.999988,99.55867142857143,99.50748333333334,99.56965714285714,99.54958571428571,-0.029249999999999998,-0.16625,-0.234,-0.006666666666666667,-0.046666666666666856,-0.03833333333332689,1.521,1.5785,38.708,30.1415,38.942,35.829,55.738,35.515,60.268,53.4365,53.687,34.6195,58.8195,51.721000000000004,52.84,34.155,58.702,51.1095,-0.04499999999999993,-0.11549999999999994,0.10502,0.10511500000000001,0.0,217.195,217.09,213.93666666666667,213.93666666666667,0.0,0.0
29,0.0,0.0,0.0,1.0,1.0,0.0,0.0,1.0,0.0,100.0,1.0,1.1856,26.0,0.0,0.0,0.0,52.999997,0.0,26.0,26.0,26.0,26.0,-0.15100000000000002,0.25160000000000005,0.008766666666666667,291.443,-2.5744,-2.801222222222222,-1.5368,-1.62,-177.62,215.99,190.356375,0.0,0.0,0.0,0.0,0.058600000000000006,-5.498166666666667,-5.498166666666667,-0.6059,-0.752,-0.07844444444444454,0.7919999999999998,69.493,-0.1003,-0.21755000000000002,0.9000000000000004,100.0,1.0,1.0,214.17333333333335,0.0,0.0,0.0,0.0,0.0,0.0,0.0,9078.1,0.0,55.0,5.0,250.15,1.0,0.0,0.0,0.0,0.0,0.0,0.0,0.0,1.4549999999999983,1.4549999999999983,0.0,0.0,1.0,55.0,616.79921,10000.0,85.000001,85.000001,85.000001,85.000001,395.0,0.0,0.0,0.0,1.0,166.665,51.650999999999996,51.650999999999996,46.448,46.448,34.0,-28.622500000000002,21.548,-35.63333333333333,24.68,0.0,1781.69,0.2950000000000017,100.0,28.998,27.788,44.815,43.265,0.0,0.0,100.0,0.0,0.0,0.0,0.0,3303.857142857143,3122.7,4289.0,4207.1,304.753,304.84825,314.343,314.47925,22.042625,20.668,22.081375,21.5818,314.999998,314.999998,324.999988,324.999988,99.55867142857143,99.5075,99.56981428571429,99.54974285714286,-0.007499999999999951,-0.15100000000000002,-0.21033333333333334,0.006,-0.03833333333332689,-0.036666666666668846,1.454,1.4835,38.766999999999996,30.174999999999997,39.009,35.885999999999996,55.722,35.5575,60.31,53.496,53.672,34.658500000000004,58.8585,51.778,52.825,34.192,58.738,51.165,-0.06349999999999989,-0.1030000000000002,0.10135000000000001,0.10554000000000001,0.0,217.575,217.46,214.17333333333335,214.17333333333335,0.0,0.0
30,0.0,0.0,0.0,1.0,1.0,0.0,0.0,1.0,0.0,100.0,1.0,1.1856,26.0,0.0,0.0,0.0,52.999997,0.0,26.0,26.0,26.0,26.0,-0.14249999999999996,0.2722,0.05673333333333334,291.031,-2.6338,-2.682666666666667,-1.4805000000000001,-1.6702,-174.28,215.98250000000002,190.3315,0.0,0.0,0.0,0.0,0.06053333333333334,-5.498166666666667,-5.498166666666667,-0.6019,0.8136666666666666,-0.07766666666666655,0.766,69.61500000000001,-0.0896,-0.21830000000000002,0.782,100.0,1.0,1.0,214.60000000000002,0.0,0.0,0.0,0.0,0.0,0.0,0.0,9096.1,0.0,55.0,5.0,250.58666666666664,0.0,0.0,0.0,0.0,0.0,0.0,1.0,0.0,1.5030000000000001,1.5030000000000001,0.0,0.0,0.0,55.0,616.79921,10000.0,85.000001,85.000001,85.000001,85.000001,395.0,0.0,0.0,0.0,1.0,333.33500000000004,50.827,50.827,46.844,46.844,34.0,-29.807499999999997,20.977999999999998,-34.153333333333336,26.745,0.0,1781.638888888889,0.1700000000000017,100.0,29.798000000000002,28.484,44.623000000000005,43.303,0.0,0.0,100.0,0.0,0.0,0.0,0.0,3427.714285714286,3104.5,4292.333333333333,4257.3,304.363,304.94525,314.44075,314.30475,22.051875,20.6733,22.09125,21.5905,314.999998,314.999998,324.999988,324.999988,99.55867142857143,99.50751666666666,99.56997142857144,99.54988571428571,0.007249999999999979,-0.13449999999999995,-0.201,0.022833333333333334,-0.05333333333332746,-0.054999999999999716,1.4685000000000001,1.494,38.824,30.208,39.07,35.94,55.711,35.6025,60.3465,53.553,53.661,34.7,58.893,51.833,52.813,34.232,58.7695,51.2185,-0.0714999999999999,-0.09149999999999991,0.11036000000000001,0.10859,0.0,217.965,217.91500000000002,214.60000000000002,214.60000000000002,0.0,0.0
31,0.0,0.0,0.0,1.0,1.0,0.0,0.0,1.0,0.0,100.0,1.0,1.1856,26.0,0.0,0.0,0.0,52.999997,0.0,26.0,26.0,26.0,26.0,-0.10312500000000002,0.2510000000000001,-0.0036000000000000003,291.031,-2.707,-2.752888888888889,-1.572,-1.6601,-170.73000000000002,215.975,190.305625,0.0,0.0,0.0,0.0,0.0626,-5.498166666666667,-5.498166666666667,-0.5881000000000001,-0.5593333333333333,-0.06722222222222207,-0.7850000000000001,69.747,-0.07350000000000001,-0.218225,0.4339999999999993,100.0,1.0,1.0,214.89666666666668,0.0,0.0,0.0,0.0,0.0,0.0,0.0,9108.7,0.0,55.0,5.0,251.06333333333333,1.0,0.0,0.0,0.0,0.0,0.0,1.0,0.0,1.5539999999999985,1.5539999999999985,0.0,0.0,1.0,55.0,616.79921,10000.0,85.000001,85.000001,85.000001,85.000001,395.0,0.0,0.0,0.0,1.0,166.665,51.59,51.59,45.456,45.456,34.0,-27.6175,20.766,-36.86,27.2175,0.0,1781.591111111111,0.08000000000000185,100.0,29.321,28.719,45.144,44.046,0.0,0.0,100.0,0.0,0.0,0.0,0.0,3216.0,2961.4,4503.222222222223,4220.4,305.3315,305.22725,313.991,314.46275,22.06125,20.6789,22.102,21.599899999999998,314.999998,314.999998,324.999988,324.999988,99.55867142857143,99.50753333333333,99.57011428571428,99.55002857142857,0.014000000000000012,-0.13175000000000003,-0.189,0.03883333333333334,-0.061666666666667425,-0.01999999999999602,1.459,1.466,38.882999999999996,30.243000000000002,39.138,35.998999999999995,55.697,35.6435,60.3865,53.6105,53.647999999999996,34.7375,58.9305,51.8885,52.799,34.268,58.804,51.2725,-0.07899999999999996,-0.08749999999999991,0.10733000000000001,0.10378000000000001,0.0,218.36,218.285,214.89666666666668,214.89666666666668,0.0,0.0
32,0.0,0.0,0.0,1.0,1.0,0.0,0.0,1.0,0.0,100.0,1.0,1.1856,26.0,0.0,0.0,0.0,52.999997,0.0,26.0,26.0,26.0,26.0,-0.07724999999999993,0.2573000000000001,-0.0398,291.26,-2.6432,-2.696111111111111,-1.5963,-1.569,-166.95999999999998,215.9625,190.2785,0.0,0.0,0.0,0.0,0.0648,-5.498166666666667,-5.498166666666667,-0.6098,0.19166666666666665,-0.08922222222222231,-0.8339999999999996,69.882,-0.056100000000000004,-0.229325,0.44399999999999906,100.0,1.0,1.0,215.4766666666667,0.0,0.0,0.0,0.0,0.0,0.0,0.0,9133.3,0.0,55.0,5.0,251.54666666666668,0.0,0.0,0.0,0.0,0.0,0.0,1.0,0.0,1.6080000000000005,1.6080000000000005,0.0,0.0,0.0,55.0,616.79921,10000.0,85.000001,85.000001,85.000001,85.000001,395.0,0.0,0.0,0.0,1.0,166.665,51.208,51.208,46.677,46.677,34.0,-28.32,21.574,-33.45666666666666,25.947499999999998,0.0,1781.5355555555554,0.004999999999999005,100.0,29.309,28.722,44.686,43.781,0.0,0.0,100.0,0.0,0.0,0.0,0.0,3409.857142857143,3027.8,4280.888888888889,4153.3,304.6525,305.08125,314.61975,314.7105,22.07125,20.6849,22.113125,21.6096,314.999998,314.999998,324.999988,324.999988,99.55868571428572,99.50755,99.57027142857143,99.55018571428572,0.030750000000000055,-0.11175000000000002,-0.1675,0.055,-0.03333333333333144,-0.06833333333332803,1.5165,1.5250000000000001,38.945,30.2805,39.207,36.06,55.682,35.689,60.4245,53.67,53.634,34.78,58.966,51.945499999999996,52.784,34.3085,58.836,51.328,-0.08499999999999996,-0.08099999999999996,0.10311500000000001,0.10248,0.0,218.755,218.72500000000002,215.4766666666667,215.4766666666667,0.0,0.0
33,0.0,0.0,0.0,1.0,1.0,0.0,0.0,1.0,0.0,100.0,1.0,1.1856,26.0,0.0,0.0,0.0,52.999997,0.0,26.0,26.0,26.0,26.0,-0.06799999999999995,0.2612000000000001,-0.0456,291.382,-2.664,-2.742,-1.5387,-1.5785,-163.6,215.95,190.253375,0.0,0.0,0.0,0.0,0.06676666666666667,-5.498166666666667,-5.498166666666667,-0.6113000000000001,-0.3846666666666667,-0.07388888888888889,0.10899999999999999,70.005,-0.048100000000000004,-0.21530000000000002,0.347999999999999,100.0,1.0,1.0,215.74333333333334,0.0,0.0,0.0,0.0,0.0,0.0,0.0,9144.6,0.0,55.0,5.0,251.99,1.0,0.0,0.0,0.0,0.0,0.0,1.0,0.0,1.6559999999999988,1.6559999999999988,0.0,0.0,1.0,55.0,616.79921,10000.0,85.000001,85.000001,85.000001,85.000001,395.0,0.0,0.0,0.0,1.0,166.665,51.879999999999995,51.879999999999995,46.463,46.463,34.0,-26.134999999999998,21.75,-33.08333333333333,27.630000000000003,0.0,1781.4877777777779,-0.14999999999999858,100.0,29.046,28.423000000000002,44.64,43.914,0.0,0.0,100.0,0.0,0.0,0.0,0.0,3222.0,2941.2,4296.888888888889,4260.0,305.2405,305.365,314.434,314.341,22.08,20.69,22.123,21.6183,314.999998,314.999998,324.999988,324.999988,99.5587,99.50756666666666,99.57041428571429,99.55032857142857,0.04299999999999993,-0.09924999999999995,-0.16433333333333336,0.06316666666666666,-0.03333333333333144,-0.05666666666667197,1.4705,1.489,39.0,30.3125,39.269,36.115,55.669,35.726,60.4595,53.7255,53.622,34.814,58.9985,51.999,52.771,34.341,58.866,51.379999999999995,-0.09349999999999992,-0.0754999999999999,0.103035,0.109395,0.0,219.13,219.10000000000002,215.74333333333334,215.74333333333334,0.0,0.0
34,0.0,0.0,0.0,1.0,1.0,0.0,0.0,1.0,0.0,100.0,1.0,1.1856,26.0,0.0,0.0,0.0,52.999997,0.0,26.0,26.0,26.0,26.0,-0.04699999999999993,0.258,-0.0884,291.763,-2.7288,-2.700111111111111,-1.6021,-1.5998999999999999,-160.23000000000002,215.9375,190.22725,0.0,0.0,0.0,0.0,0.0687,-5.498166666666667,-5.498166666666667,-0.642,-0.8246666666666667,-0.04322222222222205,-0.11699999999999999,70.125,-0.0362,-0.22565000000000002,0.18399999999999928,100.0,1.0,1.0,216.17666666666668,0.0,0.0,0.0,0.0,0.0,0.0,0.0,9162.9,0.0,55.0,5.0,252.42666666666668,0.0,0.0,0.0,0.0,0.0,0.0,1.0,0.0,1.7040000000000006,1.7040000000000006,0.0,0.0,0.0,55.0,616.79921,10000.0,85.000001,85.000001,85.000001,85.000001,395.0,0.0,0.0,0.0,1.0,166.665,52.048,52.048,47.424,47.424,34.0,-26.63,22.164,-31.363333333333333,27.002499999999998,0.0,1781.441111111111,-0.16000000000000014,100.0,28.739,28.124,44.325,43.984,0.0,0.0,100.0,0.0,0.0,0.0,0.0,3259.714285714286,2965.5,4094.777777777778,4141.2,305.084,305.358,314.98975,314.59325,22.08875,20.6952,22.132875,21.6271,314.999998,314.999998,324.999988,324.999988,99.5587,99.50758333333333,99.57055714285714,99.55047142857143,0.05525000000000002,-0.08350000000000002,-0.15666666666666665,0.06516666666666668,-0.04333333333332945,-0.04333333333332945,1.5175,1.5285,39.055,30.345,39.33,36.169,55.655,35.762,60.492,53.7805,53.608999999999995,34.8475,59.028999999999996,52.052,52.757,34.3725,58.893,51.4315,-0.09850000000000003,-0.06400000000000006,0.10995,0.10513000000000002,0.0,219.48000000000002,219.445,216.17666666666668,216.17666666666668,0.0,0.0
35,0.0,0.0,0.0,1.0,1.0,0.0,0.0,1.0,0.0,100.0,1.0,1.1856,26.0,0.0,0.0,0.0,52.999997,0.0,26.0,26.0,26.0,26.0,-0.04162500000000002,0.25050000000000017,-0.04656666666666667,291.809,-2.7331,-2.6626666666666665,-1.5737999999999999,-1.6071,-156.64999999999998,215.92000000000002,190.197375,0.0,0.0,0.0,0.0,0.0708,-5.498166666666667,-5.498166666666667,-0.6846,-0.4826666666666667,-0.044333333333333336,0.006000000000000227,70.252,-0.020800000000000003,-0.231225,-0.019999999999999574,100.0,1.0,1.0,216.64666666666668,0.0,0.0,0.0,0.0,0.0,0.0,0.0,9182.9,0.0,55.0,5.0,252.88,1.0,0.0,0.0,0.0,0.0,0.0,1.0,0.0,1.754999999999999,1.754999999999999,0.0,0.0,1.0,55.0,616.79921,10000.0,85.000001,85.000001,85.000001,85.000001,395.0,0.0,0.0,0.0,1.0,166.665,51.697,51.697,46.982,46.982,34.0,-25.849999999999998,25.53,-29.036666666666665,27.645,0.0,1781.39,-0.14999999999999858,100.0,28.564,28.289,44.095,43.502,0.0,0.0,100.0,0.0,0.0,0.0,0.0,3208.5714285714284,3329.7,4033.1111111111113,3965.2,305.2585,304.3435,315.03025,315.0745,22.09775,20.7008,22.143250000000002,21.6362,314.999998,314.999998,324.999988,324.999988,99.55871428571429,99.50758333333333,99.57071428571429,99.55061428571429,0.0625,-0.06874999999999998,-0.12783333333333333,0.107,-0.061666666666667425,-0.04999999999999716,1.5465,1.546,39.111000000000004,30.38,39.394999999999996,36.226,55.64,35.802,60.5255,53.835499999999996,53.594,34.8845,59.0605,52.1045,52.741,34.408,58.9215,51.483000000000004,-0.09299999999999997,-0.0674999999999999,0.10677,0.11428,0.0,219.885,219.84,216.64666666666668,216.64666666666668,0.0,0.0
