,ABS Active,ABS Enabled,AID Allow Tire Blankets,AID Auto Blip,AID Auto Clutch,AID Auto Shift,AID Fuel Rate,AID Ideal Line,AID Mech Damage,AID Stability,AID Tire Wear Rate,Air Density,Air Temp,Ballast,Best Lap Delta,Best Lap Time,Brake Bias,Brake Pos,Brake Temp FL,Brake Temp FR,Brake Temp RL,Brake Temp RR,CG Accel Lateral,CG Accel Longitudinal,CG Accel Vertical,CG Height,Camber FL,Camber FR,Camber RL,Camber RR,Car Coord X,Car Coord Y,Car Coord Z,Car Damage Front,Car Damage Left,Car Damage Rear,Car Damage Right,Car Pos Norm,Caster FL,Caster FR,Chassis Pitch Angle,Chassis Pitch Rate,Chassis Roll Angle,Chassis Roll Rate,Chassis Velocity X,Chassis Velocity Y,Chassis Velocity Z,Chassis Yaw Rate,Clutch Pos,DRS Active,DRS Available,Drive Train Speed,ERS Heat Charging,ERS Is Charging,ERS Max Energy,ERS Power Level,ERS Recovery Level,Engine Brake Setting,Engine Limiter,Engine RPM,Flags,Fuel Level,Gear,Ground Speed,HR Sample Clock,In Pit,KERS Charge,KERS Deployed Energy,KERS Input,KERS Max Energy,LR Sample Clock,Lap Invalidated,Lap Time,Lap Time2,Last Lap Time,Last Sector Time,MR Sample Clock,Max Fuel,Max Power,Max RPM,Max Sus Travel FL,Max Sus Travel FR,Max Sus Travel RL,Max Sus Travel RR,Max Torque,Max Turbo Boost,Num Tires Off Track,Penalties Enabled,Position,Raw Data Sample Rate,Ride Height FL,Ride Height FR,Ride Height RL,Ride Height RR,Road Temp,Self Align Torque FL,Self Align Torque FR,Self Align Torque RL,Self Align Torque RR,Session Lap Count,Session Time Left,Steering Angle,Surface Grip,Suspension Travel FL,Suspension Travel FR,Suspension Travel RL,Suspension Travel RR,TC Active,TC Enabled,Throttle Pos,Tire Dirt Level FL,Tire Dirt Level FR,Tire Dirt Level RL,Tire Dirt Level RR,Tire Load FL,Tire Load FR,Tire Load RL,Tire Load RR,Tire Loaded Radius FL,Tire Loaded Radius FR,Tire Loaded Radius RL,Tire Loaded Radius RR,Tire Pressure FL,Tire Pressure FR,Tire Pressure RL,Tire Pressure RR,Tire Radius FL,Tire Radius FR,Tire Radius RL,Tire Radius RR,Tire Rubber Grip FL,Tire Rubber Grip FR,Tire Rubber Grip RL,Tire Rubber Grip RR,Tire Slip Angle FL,Tire Slip Angle FR,Tire Slip Angle RL,Tire Slip Angle RR,Tire Slip Ratio FL,Tire Slip Ratio FR,Tire Slip Ratio RL,Tire Slip Ratio RR,Tire Temp Core FL,Tire Temp Core FR,Tire Temp Core RL,Tire Temp Core RR,Tire Temp Inner FL,Tire Temp Inner FR,Tire Temp Inner RL,Tire Temp Inner RR,Tire Temp Middle FL,Tire Temp Middle FR,Tire Temp Middle RL,Tire Temp Middle RR,Tire Temp Outer FL,Tire Temp Outer FR,Tire Temp Outer RL,Tire Temp Outer RR,Toe In FL,Toe In FR,Toe In RL,Toe In RR,Turbo Boost,Wheel Angular Speed FL,Wheel Angular Speed FR,Wheel Angular Speed RL,Wheel Angular Speed RR,Wind Direction,Wind Speed
0,0.0,0.0,0.0,1.0,1.0,0.0,0.0,1.0,0.0,100.0,1.0,1.1856,26.0,0.0,0.0,0.0,52.99999,0.0,26.0,26.0,26.0,26.0,-0.035625000000000004,0.3138000000000001,0.0839,293.442,-2.7407,-2.4775,-1.5288,-1.5155,-275.65,215.7225,190.987375,0.0,0.0,0.0,0.0,0.0015999999999999348,-5.498166666666667,-5.498166666666667,-0.5534,1.901,-0.008444444444444255,-0.2775000000000001,65.535,-0.0351,-0.216625,0.258,100.0,1.0,1.0,202.31666666666666,0.0,0.0,0.0,0.0,0.0,0.0,0.0,8575.5,0.0,55.0,5.0,235.89333333333332,0.0,0.0,0.0,0.0,0.0,0.0,0.0,0.0,0.0030000000000001137,0.0030000000000001137,0.0,0.0,0.0,55.0,616.79921,10000.0,85.0,85.0,85.0,85.0,395.0,0.0,0.0,0.0,1.0,20.0,51.468,51.468,48.843,48.843,34.0,-28.52,27.733333333333334,-29.386666666666663,25.8125,0.0,1782.942,0.375,100.0,27.219,26.957,40.481,40.121,0.0,0.0,100.0,0.0,0.0,0.0,0.0,3224.714285714286,3989.1000000000004,4082.777777777778,4107.8,304.9445,301.92533333333336,314.90925,314.666,21.7774,20.5125,21.7831,21.3266,314.99999,314.99999,324.99998,324.99998,99.55902857142857,99.50715,99.56588571428571,99.54578571428571,0.008750000000000036,-0.09799999999999986,-0.1438,0.07650000000000001,-0.03833333333332689,-0.06333333333333258,1.5510000000000002,1.5585,37.108999999999995,29.203333333333333,37.144,34.291,56.341,34.459,59.3085,51.8655,54.253,33.6225,57.9255,50.207499999999996,53.419,33.176,57.8885,49.626,-0.04600000000000004,-0.10199999999999987,0.10840000000000001,0.10381000000000001,0.0,205.35000000000002,205.32999999999998,202.31666666666666,202.31666666666666,0.0,0.0
1,0.0,0.0,0.0,1.0,1.0,0.0,0.0,1.0,0.0,100.0,1.0,1.1856,26.0,0.0,0.0,0.0,52.999997,0.0,26.0,26.0,26.0,26.0,-0.1155,0.30600000000000005,0.124825,292.77,-2.6493,-2.709625,-1.545,-1.3836,-272.11,215.72750000000002,190.966375,0.0,0.0,0.0,0.0,0.003666666666666596,-5.498166666666667,-5.498166666666667,-0.48400000000000004,-1.8575,-0.05422222222222217,-0.3320000000000001,65.701,-0.0352,-0.19390000000000002,0.8679999999999994,100.0,1.0,1.0,202.31,0.0,0.0,0.0,0.0,0.0,0.0,0.0,8575.2,0.0,55.0,5.0,236.49333333333334,1.0,0.0,0.0,0.0,0.0,0.0,0.0,0.0,0.05699999999999861,0.05699999999999861,0.0,0.0,1.0,55.0,616.79921,10000.0,85.000001,85.000001,85.000001,85.000001,395.0,0.0,0.0,0.0,1.0,166.665,54.367,54.367,47.897,47.897,34.0,-24.2425,16.786666666666665,-36.85333333333333,29.7925,0.0,1782.889,0.5850000000000009,100.0,27.39,26.789,42.446,42.939,0.0,0.0,100.0,0.0,0.0,0.0,0.0,2880.4285714285716,2471.6,4633.888888888889,4991.8,306.0355,306.93766666666664,313.413,312.163,21.7878,20.5178,21.7947,21.3365,314.999998,314.999998,324.999988,324.999988,99.55904285714286,99.50716666666666,99.56604285714286,99.54594285714286,0.007750000000000146,-0.1156666666666668,-0.15880000000000002,0.04800000000000004,-0.04999999999999716,-0.00999999999999801,1.3085,1.3425,37.174,29.236333333333334,37.217,34.353,56.323,34.4995,59.358000000000004,51.938,54.235,33.66,57.972,50.277,53.4,33.212,57.932,49.694,-0.026000000000000023,-0.11149999999999993,0.11016000000000001,0.10512,0.0,205.835,205.74,202.31,202.31,0.0,0.0
2,0.0,0.0,0.0,1.0,1.0,0.0,0.0,1.0,0.0,100.0,1.0,1.1856,26.0,0.0,0.0,0.0,52.999997,0.0,26.0,26.0,26.0,26.0,-0.11900000000000001,0.2824,-0.09775,294.144,-2.6247,-2.670875,-1.5188000000000001,-1.5241,-268.95,215.72750000000002,190.948625,0.0,0.0,0.0,0.0,0.005499999999999949,-5.498166666666667,-5.498166666666667,-0.5715,0.45399999999999996,-0.0214444444444446,2.536,65.828,-0.0446,-0.26780000000000004,1.1600000000000001,100.0,1.0,1.0,203.61666666666667,0.0,0.0,0.0,0.0,0.0,0.0,0.0,8630.5,0.0,55.0,5.0,236.95,0.0,0.0,0.0,0.0,0.0,0.0,0.0,0.0,0.10500000000000043,0.10500000000000043,0.0,0.0,0.0,55.0,616.79921,10000.0,85.000001,85.000001,85.000001,85.000001,395.0,0.0,0.0,0.0,1.0,166.665,52.307,52.307,50.949,50.949,34.0,-28.9025,21.189999999999998,-25.403333333333336,18.872500000000002,0.0,1782.842,0.6849999999999987,100.0,28.146,27.044,41.91,41.388,0.0,0.0,100.0,0.0,0.0,0.0,0.0,3285.714285714286,3095.7,3525.5555555555557,3375.6,304.6685,304.9456666666667,316.22675,316.53275,21.7974,20.5226,21.8044,21.3445,314.999998,314.999998,324.999988,324.999988,99.55904285714286,99.50718333333333,99.56617142857142,99.54607142857142,-0.006999999999999895,-0.12366666666666681,-0.18259999999999998,0.056333333333333346,-0.051666666666669414,-0.05333333333332746,1.7395,1.783,37.233999999999995,29.266333333333336,37.278,34.403,56.31,34.5375,59.39,51.9835,54.223,33.695,58.0015,50.321,53.387,33.2455,57.959,49.7375,-0.021499999999999853,-0.1259999999999999,0.096795,0.12009000000000002,0.0,206.26,206.16,203.61666666666667,203.61666666666667,0.0,0.0
3,0.0,0.0,0.0,1.0,1.0,0.0,0.0,1.0,0.0,100.0,1.0,1.1856,26.0,0.0,0.0,0.0,52.999997,0.0,26.0,26.0,26.0,26.0,-0.10775,0.2983,0.155775,293.274,-2.6518,-2.699875,-1.5103,-1.4885000000000002,-265.79,215.72750000000002,190.9295,0.0,0.0,0.0,0.0,0.007333333333333303,-5.498166666666667,-5.498166666666667,-0.504,0.5449999999999999,-0.0040000000000000036,-0.9339999999999999,65.975,-0.0621,-0.186875,0.9260000000000002,100.0,1.0,1.0,203.47,0.0,0.0,0.0,0.0,0.0,0.0,0.0,8624.3,0.0,55.0,5.0,237.48000000000002,1.0,0.0,0.0,0.0,0.0,0.0,0.0,0.0,0.1529999999999987,0.1529999999999987,0.0,0.0,1.0,55.0,616.79921,10000.0,85.000001,85.000001,85.000001,85.000001,395.0,0.0,0.0,0.0,1.0,166.665,53.482,53.482,47.882,47.882,34.0,-24.745,19.801666666666666,-34.28333333333333,25.7075,0.0,1782.794,0.6550000000000011,100.0,27.749,27.137,42.079,41.652,0.0,0.0,100.0,0.0,0.0,0.0,0.0,2893.857142857143,2940.6,4452.222222222223,4283.0,306.077,305.46933333333334,313.97025,314.1695,21.8066,20.5276,21.8143,21.353,314.999998,314.999998,324.999988,324.999988,99.55904285714286,99.5072,99.5663,99.5462,-0.004249999999999865,-0.1326666666666667,-0.1676,0.0495000000000001,-0.04833333333333201,-0.061666666666667425,1.447,1.4765000000000001,37.291,29.297666666666665,37.339,34.456,56.293,34.5775,59.4265,52.0445,54.207,33.732,58.0355,50.3795,53.371,33.281,57.9905,49.795,-0.026000000000000023,-0.12700000000000022,0.10497500000000001,0.107825,0.0,206.76,206.64499999999998,203.47,203.47,0.0,0.0
4,0.0,0.0,0.0,1.0,1.0,0.0,0.0,1.0,0.0,100.0,1.0,1.1856,26.0,0.0,0.0,0.0,52.999997,0.0,26.0,26.0,26.0,26.0,-0.112,0.2936000000000001,-0.00185,293.51800000000003,-2.6761,-2.77,-1.4512,-1.6059,-262.42,215.7225,190.910125,0.0,0.0,0.0,0.0,0.009299999999999975,-5.498166666666667,-5.498166666666667,-0.5317000000000001,-0.853,-0.0642222222222224,-1.2565,66.12100000000001,-0.0713,-0.23322500000000002,1.3559999999999999,100.0,1.0,1.0,204.07,0.0,0.0,0.0,0.0,0.0,0.0,0.0,8649.8,0.0,55.0,5.0,238.01,0.0,0.0,0.0,0.0,0.0,0.0,0.0,0.0,0.20400000000000063,0.20400000000000063,0.0,0.0,0.0,55.0,616.79921,10000.0,85.000001,85.000001,85.000001,85.000001,395.0,0.0,0.0,0.0,1.0,333.33500000000004,53.223,53.223,48.721000000000004,48.721000000000004,34.0,-29.5925,18.97,-31.736666666666668,22.3275,0.0,1782.741,0.7100000000000009,100.0,27.551000000000002,26.895,42.807,41.88,0.0,0.0,100.0,0.0,0.0,0.0,0.0,3271.857142857143,2828.8,4157.0,3810.2,305.0325,305.69033333333334,314.7365,315.3165,21.8164,20.5327,21.825,21.3619,314.999998,314.999998,324.999988,324.999988,99.55904285714286,99.50721666666666,99.56644285714286,99.54634285714286,-0.025499999999999856,-0.1499999999999999,-0.19740000000000002,0.025500000000000078,-0.045000000000001705,-0.03999999999999915,1.5470000000000002,1.584,37.352999999999994,29.329,37.406,34.512,56.275999999999996,34.618,59.4685,52.1035,54.191,33.7695,58.075,50.4365,53.354,33.317,58.027,49.8505,-0.018000000000000016,-0.129,0.104955,0.10409500000000001,0.0,207.135,207.035,204.07,204.07,0.0,0.0
5,0.0,0.0,0.0,1.0,1.0,0.0,0.0,1.0,0.0,100.0,1.0,1.1856,26.0,0.0,0.0,0.0,52.999997,0.0,26.0,26.0,26.0,26.0,-0.12975,0.30730000000000013,-0.031225000000000003,293.793,-2.6968,-2.732375,-1.5045000000000002,-1.6046,-259.04,215.715,190.890125,0.0,0.0,0.0,0.0,0.011266666666666536,-5.498166666666667,-5.498166666666667,-0.5397000000000001,0.49649999999999994,-0.05433333333333357,0.8765000000000001,66.266,-0.08850000000000001,-0.22260000000000002,1.234,100.0,1.0,1.0,204.62333333333333,0.0,0.0,0.0,0.0,0.0,0.0,0.0,8673.2,0.0,55.0,5.0,238.52666666666667,1.0,0.0,0.0,0.0,0.0,0.0,0.0,0.0,0.254999999999999,0.254999999999999,0.0,0.0,1.0,55.0,616.79921,10000.0,85.000001,85.000001,85.000001,85.000001,395.0,0.0,0.0,0.0,1.0,333.33500000000004,53.345,53.345,49.316,49.316,34.0,-27.725,20.108333333333334,-31.106666666666666,22.7725,0.0,1782.689,0.41000000000000014,100.0,27.761,26.636,42.513,41.28,0.0,0.0,100.0,0.0,0.0,0.0,0.0,3108.285714285714,2940.5,3963.5555555555557,3953.4,305.2825,305.5133333333333,315.18375,315.092,21.8264,20.5378,21.8355,21.3707,314.999998,314.999998,324.999988,324.999988,99.55905714285714,99.50723333333333,99.56658571428571,99.54647142857142,-0.008999999999999897,-0.131,-0.2102,0.019500000000000073,-0.045000000000001705,-0.07499999999999574,1.584,1.6179999999999999,37.415,29.361333333333334,37.472,34.567,56.260999999999996,34.6595,59.5055,52.1595,54.177,33.807,58.11,50.49,53.339,33.353,58.059,49.903,-0.03849999999999998,-0.10150000000000015,0.10093500000000001,0.11553500000000001,0.0,207.62,207.54000000000002,204.62333333333333,204.62333333333333,0.0,0.0
6,0.0,0.0,0.0,1.0,1.0,0.0,0.0,1.0,0.0,100.0,1.0,1.1856,26.0,0.0,0.0,0.0,52.999997,0.0,26.0,26.0,26.0,26.0,-0.1285,0.3045,0.00685,293.533,-2.6412,-2.798375,-1.5478,-1.5773000000000001,-255.86,215.70749999999998,190.870625,0.0,0.0,0.0,0.0,0.01313333333333333,-5.498166666666667,-5.498166666666667,-0.524,-0.07850000000000001,-0.06488888888888855,0.6565,66.407,-0.08950000000000001,-0.20217500000000002,0.8799999999999999,100.0,1.0,1.0,204.86666666666667,0.0,0.0,0.0,0.0,0.0,0.0,0.0,8683.5,0.0,55.0,5.0,239.03333333333333,0.0,0.0,0.0,0.0,0.0,0.0,0.0,0.0,0.3030000000000008,0.3030000000000008,0.0,0.0,0.0,55.0,616.79921,10000.0,85.000001,85.000001,85.000001,85.000001,395.0,0.0,0.0,0.0,1.0,333.33500000000004,53.68,53.68,48.462,48.462,34.0,-27.052500000000002,20.123333333333335,-34.236666666666665,24.165,0.0,1782.642,0.40000000000000213,100.0,27.534,26.389,42.737,41.434,0.0,0.0,100.0,0.0,0.0,0.0,0.0,3084.0,2871.1,4265.777777777777,4114.8,305.351,305.719,314.4005,314.675,21.8357,20.5426,21.8455,21.3792,314.999998,314.999998,324.999988,324.999988,99.55905714285714,99.50723333333333,99.56672857142857,99.54661428571428,-0.010499999999999954,-0.1313333333333333,-0.19319999999999998,0.025666666666666726,-0.03833333333332689,-0.04833333333333201,1.498,1.541,37.473,29.391,37.534,34.62,56.245999999999995,34.697,59.544,52.217,54.162,33.842,58.1455,50.545,53.324,33.3865,58.092,49.9565,-0.045499999999999874,-0.09850000000000003,0.104025,0.10881500000000001,0.0,208.04000000000002,207.95,204.86666666666667,204.86666666666667,0.0,0.0
7,0.0,0.0,0.0,1.0,1.0,0.0,0.0,1.0,0.0,100.0,1.0,1.1856,26.0,0.0,0.0,0.0,52.999997,0.0,26.0,26.0,26.0,26.0,-0.0835,0.28400000000000003,-0.006925000000000001,293.51800000000003,-2.6119,-2.7893749999999997,-1.5082,-1.6209,-252.47,215.695,190.850125,0.0,0.0,0.0,0.0,0.015100000000000002,-5.498166666666667,-5.498166666666667,-0.5342,0.05899999999999994,-0.0564444444444443,-0.2925,66.551,-0.08370000000000001,-0.218975,0.7679999999999998,100.0,1.0,1.0,205.39333333333332,0.0,0.0,0.0,0.0,0.0,0.0,0.0,8705.8,0.0,55.0,5.0,239.55333333333334,1.0,0.0,0.0,0.0,0.0,0.0,0.0,0.0,0.3539999999999992,0.3539999999999992,0.0,0.0,1.0,55.0,616.79921,10000.0,85.000001,85.000001,85.000001,85.000001,395.0,0.0,0.0,0.0,1.0,333.33500000000004,53.223,53.223,48.935,48.935,34.0,-27.39,20.543333333333333,-32.156666666666666,22.53,0.0,1782.591,-0.030000000000001137,100.0,27.674,26.799,42.686,41.656,0.0,0.0,100.0,0.0,0.0,0.0,0.0,3228.714285714286,2852.7,4079.222222222222,3929.3,305.083,305.55733333333336,314.90975,315.032,21.8457,20.5477,21.856099999999998,21.3882,314.999998,314.999998,324.999988,324.999988,99.55905714285714,99.50726666666667,99.56688571428572,99.54675714285715,0.0045000000000001705,-0.1206666666666667,-0.2038,0.008000000000000007,-0.04333333333332945,-0.05333333333332746,1.5394999999999999,1.5750000000000002,37.535,29.423333333333332,37.599999999999994,34.676,56.230999999999995,34.7375,59.5835,52.275999999999996,54.147999999999996,33.8795,58.1825,50.6015,53.309,33.422,58.126,50.012,-0.07850000000000001,-0.07350000000000012,0.104605,0.09897500000000001,0.0,208.47500000000002,208.405,205.39333333333332,205.39333333333332,0.0,0.0
8,0.0,0.0,0.0,1.0,1.0,0.0,0.0,1.0,0.0,100.0,1.0,1.1856,26.0,0.0,0.0,0.0,52.999997,0.0,26.0,26.0,26.0,26.0,-0.056,0.2744,-0.020575,293.533,-2.694,-2.7165,-1.4906000000000001,-1.6118999999999999,-248.87,215.6775,190.82825,0.0,0.0,0.0,0.0,0.017199999999999993,-5.498166666666667,-5.498166666666667,-0.5372,-0.278,-0.041888888888888864,-0.9455,66.70400000000001,-0.0664,-0.218425,0.35799999999999965,100.0,1.0,1.0,205.84333333333333,0.0,0.0,0.0,0.0,0.0,0.0,0.0,8725.0,0.0,55.0,5.0,240.10666666666668,0.0,0.0,0.0,0.0,0.0,0.0,0.0,0.0,0.40800000000000125,0.40800000000000125,0.0,0.0,0.0,55.0,616.79921,10000.0,85.000001,85.000001,85.000001,85.000001,395.0,0.0,0.0,0.0,1.0,166.665,53.406,53.406,48.522999999999996,48.522999999999996,34.0,-26.572499999999998,21.14666666666667,-30.316666666666666,24.98,0.0,1782.539,-0.07000000000000028,100.0,27.348,26.924,42.746,41.876,0.0,0.0,100.0,0.0,0.0,0.0,0.0,3142.0,2933.4,4037.6666666666665,3968.1,305.455,305.349,315.0085,314.9165,21.856,20.5532,21.8673,21.3977,314.999998,314.999998,324.999988,324.999988,99.55905714285714,99.50726666666667,99.56702857142857,99.5469,0.018000000000000238,-0.1056666666666668,-0.1782,0.05016666666666669,-0.041666666666671404,-0.05833333333333002,1.5365,1.536,37.599999999999994,29.457666666666668,37.67,34.7355,56.214,34.7795,59.6245,52.339,54.131,33.918,58.2205,50.6625,53.292,33.4595,58.161,50.0715,-0.08349999999999991,-0.06099999999999994,0.10540500000000001,0.10976500000000002,0.0,208.93,208.905,205.84333333333333,205.84333333333333,0.0,0.0
9,0.0,0.0,0.0,1.0,1.0,0.0,0.0,1.0,0.0,100.0,1.0,1.1856,26.0,0.0,0.0,0.0,52.999997,0.0,26.0,26.0,26.0,26.0,-0.0565,0.28290000000000015,0.017675,293.259,-2.6113,-2.732375,-1.5439,-1.566,-245.86,215.66250000000002,190.80975,0.0,0.0,0.0,0.0,0.018933333333333358,-5.498166666666667,-5.498166666666667,-0.5353,0.3235,-0.04700000000000015,0.833,66.831,-0.0512,-0.2126,0.12399999999999967,100.0,1.0,1.0,206.23333333333335,0.0,0.0,0.0,0.0,0.0,0.0,0.0,8741.5,0.0,55.0,5.0,240.56333333333333,1.0,0.0,0.0,0.0,0.0,0.0,0.0,0.0,0.4529999999999994,0.4529999999999994,0.0,0.0,1.0,55.0,616.79921,10000.0,85.000001,85.000001,85.000001,85.000001,395.0,0.0,0.0,0.0,1.0,166.665,52.887,52.887,48.782,48.782,34.0,-25.235,22.98,-29.61,26.175,0.0,1782.493,-0.23499999999999943,100.0,27.879,26.933,42.7,41.807,0.0,0.0,100.0,0.0,0.0,0.0,0.0,3163.5714285714284,3039.9,4038.4444444444443,4114.6,305.1265,305.203,314.98475,314.69425,21.8647,20.5579,21.8766,21.4056,314.999998,314.999998,324.999988,324.999988,99.55907142857143,99.50728333333333,99.56715714285714,99.54701428571428,0.0442499999999999,-0.08166666666666678,-0.1496,0.06816666666666671,-0.04999999999999716,-0.04833333333333201,1.548,1.5474999999999999,37.653999999999996,29.486666666666665,37.729,34.785,56.201,34.815,59.6575,52.391,54.119,33.9505,58.2515,50.7125,53.278999999999996,33.4905,58.189499999999995,50.12,-0.09099999999999997,-0.06000000000000005,0.09818500000000001,0.10475000000000001,0.0,209.32999999999998,209.31,206.23333333333335,206.23333333333335,0.0,0.0
10,0.0,0.0,0.0,1.0,1.0,0.0,0.0,1.0,0.0,100.0,1.0,1.1856,26.0,0.0,0.0,0.0,52.999997,0.0,26.0,26.0,26.0,26.0,-0.029375000000000002,0.3003,-0.004425,293.137,-2.6802,-2.699625,-1.5107,-1.5472000000000001,-242.45,215.64499999999998,190.788875,0.0,0.0,0.0,0.0,0.02093333333333336,-5.498166666666667,-5.498166666666667,-0.5274,-0.35949999999999993,-0.017888888888888843,0.14400000000000002,66.977,-0.0334,-0.211925,-0.06400000000000006,100.0,1.0,1.0,206.57,0.0,0.0,0.0,0.0,0.0,0.0,0.0,8755.8,0.0,55.0,5.0,241.08666666666667,0.0,0.0,0.0,0.0,0.0,0.0,1.0,0.0,0.5040000000000013,0.5040000000000013,0.0,0.0,0.0,55.0,616.79921,10000.0,85.000001,85.000001,85.000001,85.000001,395.0,0.0,0.0,0.0,1.0,166.665,53.314,53.314,48.218,48.218,34.0,-24.669999999999998,21.85,-30.506666666666668,26.7125,0.0,1782.443,-0.36499999999999844,100.0,27.609,27.125,42.801,42.352000000000004,0.0,0.0,100.0,0.0,0.0,0.0,0.0,3079.857142857143,2898.1,4184.222222222223,4198.6,305.5765,305.49966666666666,314.67225,314.382,21.8745,20.5631,21.8872,21.4147,314.999998,314.999998,324.999988,324.999988,99.55907142857143,99.5073,99.5673,99.54717142857143,0.04850000000000021,-0.07600000000000007,-0.1482,0.06550000000000011,-0.03333333333333144,-0.05666666666667197,1.509,1.5105,37.715,29.519333333333336,37.795,34.842,56.187,34.8525,59.697,52.4525,54.105000000000004,33.9855,58.2885,50.771,53.263999999999996,33.5235,58.2235,50.1775,-0.10299999999999998,-0.045500000000000096,0.10923000000000001,0.10001,0.0,209.745,209.755,206.57,206.57,0.0,0.0
11,0.0,0.0,0.0,1.0,1.0,0.0,0.0,1.0,0.0,100.0,1.0,1.1856,26.0,0.0,0.0,0.0,52.999997,0.0,26.0,26.0,26.0,26.0,0.009375,0.27990000000000004,-0.064875,293.442,-2.6907,-2.68975,-1.5674000000000001,-1.5201,-238.82999999999998,215.6225,190.76675,0.0,0.0,0.0,0.0,0.022599999999999953,-5.498166666666667,-5.498166666666667,-0.5526,-0.135,0.007111111111111068,-0.5485,67.125,-0.0154,-0.22617500000000001,-0.23399999999999999,100.0,1.0,1.0,207.19666666666666,0.0,0.0,0.0,0.0,0.0,0.0,0.0,8782.3,0.0,55.0,5.0,241.62333333333333,1.0,0.0,0.0,0.0,0.0,0.0,1.0,0.0,0.5579999999999998,0.5579999999999998,0.0,0.0,1.0,55.0,616.79921,10000.0,85.000001,85.000001,85.000001,85.000001,395.0,0.0,0.0,0.0,1.0,166.665,53.131,53.131,48.903999999999996,48.903999999999996,34.0,-24.325,23.798333333333332,-26.976666666666663,26.435000000000002,0.0,1782.388,-0.40500000000000114,100.0,27.344,27.254,42.466,42.367000000000004,0.0,0.0,100.0,0.0,0.0,0.0,0.0,3123.0,3026.0,3899.222222222222,4006.2,305.461,305.0783333333333,315.39275,314.904,21.8846,20.5688,21.8982,21.4243,314.999998,314.999998,324.999988,324.999988,99.55908571428571,99.5073,99.56745714285714,99.54731428571428,0.06824999999999992,-0.05433333333333312,-0.1202,0.10266666666666668,-0.06666666666666998,-0.045000000000001705,1.601,1.5735000000000001,37.778999999999996,29.554666666666666,37.864000000000004,34.902,56.171,34.893,59.734,52.5155,54.09,34.0225,58.323,50.8315,53.248,33.5595,58.254999999999995,50.237,-0.10599999999999987,-0.039000000000000146,0.10196500000000001,0.10577500000000001,0.0,210.215,210.22500000000002,207.19666666666666,207.19666666666666,0.0,0.0
12,0.0,0.0,0.0,1.0,1.0,0.0,0.0,1.0,0.0,100.0,1.0,1.1856,26.0,0.0,0.0,0.0,52.999997,0.0,26.0,26.0,26.0,26.0,0.00125,0.2835000000000001,0.0018750000000000001,293.06,-2.7107,-2.6925,-1.5433,-1.5425,-235.81,215.60750000000002,190.747375,0.0,0.0,0.0,0.0,0.025466666666666526,-5.498166666666667,-5.498166666666667,-0.5428000000000001,0.36749999999999994,0.007111111111111068,0.8435,67.252,-0.0009000000000000001,-0.20627500000000001,-0.35599999999999987,100.0,1.0,1.0,207.48333333333335,0.0,0.0,0.0,0.0,0.0,0.0,0.0,8794.5,0.0,55.0,5.0,242.07666666666665,0.0,0.0,0.0,0.0,0.0,0.0,1.0,0.0,0.602999999999998,0.602999999999998,0.0,0.0,0.0,55.0,616.79921,10000.0,85.000001,85.000001,85.000001,85.000001,395.0,0.0,0.0,0.0,1.0,333.33500000000004,52.933,52.933,48.203,48.203,34.0,-23.0875,25.55166666666667,-28.293333333333333,29.285,0.0,1782.342,-0.46499999999999986,100.0,27.576999999999998,27.317,42.471000000000004,42.283,0.0,0.0,100.0,0.0,0.0,0.0,0.0,3023.4285714285716,3153.9,4111.555555555556,4205.3,305.5595,304.8566666666667,314.8225,314.5015,21.8931,20.5736,21.9074,21.432299999999998,314.999998,314.999998,324.999988,324.999988,99.55908571428571,99.50731666666667,99.56757142857143,99.54744285714285,0.08625000000000016,-0.03600000000000003,-0.11040000000000001,0.11949999999999994,-0.036666666666668846,-0.060000000000002274,1.5394999999999999,1.5350000000000001,37.832,29.584666666666664,37.921,34.952,56.159,34.927,59.7665,52.568,54.079,34.054,58.353,50.8825,53.236,33.5895,58.2825,50.286500000000004,-0.10450000000000004,-0.04200000000000026,0.11385500000000001,0.10802500000000001,0.0,210.60000000000002,210.635,207.48333333333335,207.48333333333335,0.0,0.0
13,0.0,0.0,0.0,1.0,1.0,0.0,0.0,1.0,0.0,100.0,1.0,1.1856,26.0,0.0,0.0,0.0,52.999997,0.0,26.0,26.0,26.0,26.0,0.040875,0.2815000000000001,0.025150000000000002,292.77,-2.6935000000000002,-2.691375,-1.5788,-1.5461,-232.37,215.5875,190.72575,0.0,0.0,0.0,0.0,0.026766666666666605,-5.498166666666667,-5.498166666666667,-0.5379,-0.2250000000000001,0.007444444444444365,-0.32099999999999995,67.395,0.006,-0.214225,-0.35999999999999943,100.0,1.0,1.0,207.85000000000002,0.0,0.0,0.0,0.0,0.0,0.0,0.0,8810.1,0.0,55.0,5.0,242.59333333333336,1.0,0.0,0.0,0.0,0.0,0.0,1.0,0.0,0.6539999999999999,0.6539999999999999,0.0,0.0,1.0,55.0,616.79921,10000.0,85.000001,85.000001,85.000001,85.000001,395.0,0.0,0.0,0.0,1.0,333.33500000000004,52.78,52.78,48.035,48.035,34.0,-22.9275,24.94833333333333,-29.333333333333336,30.1875,0.0,1782.291,-0.5150000000000006,100.0,27.615000000000002,27.64,42.639,42.838,0.0,0.0,100.0,0.0,0.0,0.0,0.0,3137.142857142857,3027.5,4179.0,4240.3,305.3985,305.062,314.6935,314.29575,21.9028,20.579,21.918,21.4415,314.999998,314.999998,324.999988,324.999988,99.5591,99.50731666666667,99.56771428571429,99.54758571428572,0.10450000000000026,-0.026999999999999913,-0.10840000000000001,0.12349999999999994,-0.03833333333332689,-0.05666666666667197,1.5105,1.4945,37.891999999999996,29.618666666666666,37.988,35.0095,56.146,34.9645,59.8055,52.629999999999995,54.067,34.089,58.388999999999996,50.942,53.223,33.623,58.3155,50.345,-0.12549999999999994,-0.03049999999999997,0.11053500000000001,0.1082,0.0,211.04000000000002,211.065,207.85000000000002,207.85000000000002,0.0,0.0
14,0.0,0.0,0.0,1.0,1.0,0.0,0.0,1.0,0.0,100.0,1.0,1.1856,26.0,0.0,0.0,0.0,52.999997,0.0,26.0,26.0,26.0,26.0,0.043250000000000004,0.26660000000000017,-0.020875,292.999,-2.7095,-2.7018750000000002,-1.5756999999999999,-1.5358,-228.93,215.57,190.704375,0.0,0.0,0.0,0.0,0.028766666666666607,-5.498166666666667,-5.498166666666667,-0.5502,-0.020000000000000018,0.027888888888888852,0.99,67.53399999999999,0.0165,-0.22645,-0.532,100.0,1.0,1.0,208.37,0.0,0.0,0.0,0.0,0.0,0.0,0.0,8832.0,0.0,55.0,5.0,243.09666666666666,0.0,0.0,0.0,0.0,0.0,0.0,1.0,0.0,0.7049999999999983,0.7049999999999983,0.0,0.0,0.0,55.0,616.79921,10000.0,85.000001,85.000001,85.000001,85.000001,395.0,0.0,0.0,0.0,1.0,333.33500000000004,52.78,52.78,48.355000000000004,48.355000000000004,34.0,-21.3875,26.411666666666665,-26.236666666666665,30.2225,0.0,1782.24,-0.5150000000000006,100.0,27.724,27.636,42.603,42.824,0.0,0.0,100.0,0.0,0.0,0.0,0.0,2972.714285714286,3148.4,3952.222222222222,4149.5,305.7105,304.81033333333335,315.20225,314.60675,21.9123,20.5845,21.9285,21.4506,314.999998,314.999998,324.999988,324.999988,99.55911428571429,99.50731666666667,99.56785714285714,99.54772857142858,0.11624999999999996,-0.018333333333333313,-0.0866,0.14716666666666667,-0.041666666666671404,-0.06666666666666998,1.5430000000000001,1.529,37.952,29.653,38.053,35.0665,56.134,35.0025,59.841,52.6905,54.055,34.124,58.4225,51.0005,53.21,33.657,58.3455,50.4025,-0.11999999999999988,-0.03500000000000014,0.10869500000000001,0.11202500000000001,0.0,211.465,211.505,208.37,208.37,0.0,0.0
15,0.0,0.0,0.0,1.0,1.0,0.0,0.0,1.0,0.0,100.0,1.0,1.1856,26.0,0.0,0.0,0.0,52.999997,0.0,26.0,26.0,26.0,26.0,0.049375,0.27570000000000006,0.0023,292.923,-2.7056,-2.6755,-1.5865,-1.5502,-225.69,215.5525,190.683875,0.0,0.0,0.0,0.0,0.03066666666666651,-5.498166666666667,-5.498166666666667,-0.5421,0.24749999999999994,0.04033333333333311,0.7535000000000001,67.667,0.026600000000000002,-0.211725,-0.5539999999999994,100.0,1.0,1.0,208.73333333333335,0.0,0.0,0.0,0.0,0.0,0.0,0.0,8847.5,0.0,55.0,5.0,243.57333333333332,1.0,0.0,0.0,0.0,0.0,0.0,1.0,0.0,0.7530000000000001,0.7530000000000001,0.0,0.0,1.0,55.0,616.79921,10000.0,85.000001,85.000001,85.000001,85.000001,395.0,0.0,0.0,0.0,1.0,166.665,52.856,52.856,48.187,48.187,34.0,-21.1575,26.023333333333333,-25.963333333333335,31.46,0.0,1782.193,-0.41000000000000014,100.0,27.712,27.698,42.484,42.903,0.0,0.0,100.0,0.0,0.0,0.0,0.0,2924.0,3124.5,4022.3333333333335,4248.4,305.855,304.87833333333333,315.0425,314.34075,21.9214,20.5896,21.938299999999998,21.4593,314.999998,314.999998,324.999988,324.999988,99.55912857142857,99.50731666666667,99.568,99.54787142857143,0.11149999999999993,-0.016666666666666607,-0.06559999999999999,0.14783333333333326,-0.03166666666666629,-0.06499999999999773,1.521,1.5110000000000001,38.007999999999996,29.685333333333332,38.114999999999995,35.1205,56.122,35.0385,59.8745,52.7485,54.044,34.157,58.4535,51.056,53.198,33.6885,58.3735,50.457,-0.10749999999999993,-0.04200000000000026,0.09458000000000001,0.104645,0.0,211.875,211.93,208.73333333333335,208.73333333333335,0.0,0.0
16,0.0,0.0,0.0,1.0,1.0,0.0,0.0,1.0,0.0,100.0,1.0,1.1856,26.0,0.0,0.0,0.0,52.999997,0.0,26.0,26.0,26.0,26.0,0.053,0.27100000000000013,-0.01455,292.801,-2.7694,-2.619375,-1.5649000000000002,-1.5463,-222.23,215.535,190.661875,0.0,0.0,0.0,0.0,0.03266666666666651,-5.498166666666667,-5.498166666666667,-0.5549000000000001,-0.4535,0.028444444444444272,-1.2095000000000002,67.807,0.0323,-0.2245,-0.3620000000000001,100.0,1.0,1.0,209.15333333333334,0.0,0.0,0.0,0.0,0.0,0.0,0.0,8865.3,0.0,55.0,5.0,244.07666666666665,0.0,0.0,0.0,0.0,0.0,0.0,1.0,0.0,0.8039999999999985,0.8039999999999985,0.0,0.0,0.0,55.0,616.79921,10000.0,85.000001,85.000001,85.000001,85.000001,395.0,0.0,0.0,0.0,1.0,333.33500000000004,52.597,52.597,47.943,47.943,34.0,-23.724999999999998,25.516666666666666,-26.52,29.337500000000002,0.0,1782.141,-0.3249999999999993,100.0,27.35,27.894,42.653999999999996,43.147999999999996,0.0,0.0,100.0,0.0,0.0,0.0,0.0,3166.0,3151.7,4058.8888888888887,4047.3,305.3885,304.67066666666665,315.004,314.72925,21.9308,20.5951,21.9489,21.4685,314.999998,314.999998,324.999988,324.999988,99.55914285714286,99.50731666666667,99.56814285714286,99.54801428571429,0.10650000000000004,-0.026666666666666616,-0.079,0.14066666666666672,-0.045000000000001705,-0.026666666666670835,1.538,1.5270000000000001,38.068,29.719666666666665,38.181,35.178,56.108000000000004,35.076,59.911500000000004,52.809,54.03,34.192,58.488,51.1145,53.184,33.722,58.4055,50.5145,-0.10450000000000004,-0.05149999999999988,0.10502,0.10408500000000001,0.0,212.29500000000002,212.31,209.15333333333334,209.15333333333334,0.0,0.0
17,0.0,0.0,0.0,1.0,1.0,0.0,0.0,1.0,0.0,100.0,1.0,1.1856,26.0,0.0,0.0,0.0,52.999997,0.0,26.0,26.0,26.0,26.0,0.034375,0.27980000000000005,0.04165,292.389,-2.6353999999999997,-2.606375,-1.5101,-1.5131000000000001,-218.57,215.51999999999998,190.63825,0.0,0.0,0.0,0.0,0.03479999999999994,-5.498166666666667,-5.498166666666667,-0.5488000000000001,0.20099999999999996,0.00377777777777788,-0.8785000000000001,67.955,0.030000000000000002,-0.21280000000000002,-0.25399999999999956,100.0,1.0,1.0,209.53333333333333,0.0,0.0,0.0,0.0,0.0,0.0,0.0,8881.4,0.0,55.0,5.0,244.60666666666668,1.0,0.0,0.0,0.0,0.0,0.0,1.0,0.0,0.8580000000000005,0.8580000000000005,0.0,0.0,1.0,55.0,616.79921,10000.0,85.000001,85.000001,85.000001,85.000001,395.0,0.0,0.0,0.0,1.0,166.665,52.368,52.368,47.485,47.485,34.0,-22.697499999999998,24.921666666666667,-28.22,30.395,0.0,1782.089,-0.259999999999998,100.0,27.765,28.027,42.656,43.11,0.0,0.0,100.0,0.0,0.0,0.0,0.0,3151.0,3115.4,4319.333333333333,4256.3,305.2895,304.784,314.3705,314.308,21.941,20.601,21.96,21.4782,314.999998,314.999998,324.999988,324.999988,99.55915714285715,99.50733333333334,99.56828571428571,99.54817142857142,0.10225000000000017,-0.03066666666666662,-0.08320000000000001,0.1346666666666667,-0.054999999999999716,-0.05666666666667197,1.4965,1.5005000000000002,38.131,29.756666666666668,38.25,35.2385,56.096000000000004,35.117,59.95,52.873,54.018,34.230000000000004,58.5235,51.176,53.171,33.7585,58.4375,50.5745,-0.09450000000000003,-0.06099999999999994,0.10628000000000001,0.09600500000000001,0.0,212.785,212.79000000000002,209.53333333333333,209.53333333333333,0.0,0.0
18,0.0,0.0,0.0,1.0,1.0,0.0,0.0,1.0,0.0,100.0,1.0,1.1856,26.0,0.0,0.0,0.0,52.999997,0.0,26.0,26.0,26.0,26.0,0.026375,0.28280000000000016,0.029075,292.358,-2.6547,-2.7342500000000003,-1.5084,-1.4745,-215.51,215.5075,190.6185,0.0,0.0,0.0,0.0,0.036566666666666525,-5.498166666666667,-5.498166666666667,-0.56,-0.36749999999999994,0.012444444444444258,0.937,68.077,0.0258,-0.22465000000000002,-0.23799999999999955,100.0,1.0,1.0,209.92000000000002,0.0,0.0,0.0,0.0,0.0,0.0,0.0,8897.8,0.0,55.0,5.0,245.04666666666668,0.0,0.0,0.0,0.0,0.0,0.0,1.0,0.0,0.9029999999999987,0.9029999999999987,0.0,0.0,0.0,55.0,616.79921,10000.0,85.000001,85.000001,85.000001,85.000001,395.0,0.0,0.0,0.0,1.0,333.33500000000004,52.246,52.246,47.531,47.531,34.0,-22.425,27.52166666666667,-26.726666666666663,30.6,0.0,1782.042,-0.29499999999999815,100.0,27.856,27.82,42.923,43.181,0.0,0.0,100.0,0.0,0.0,0.0,0.0,3079.857142857143,3261.0,4118.0,4290.4,305.3885,304.36633333333333,314.73,314.286,21.9494,20.6059,21.9693,21.4863,314.999998,314.999998,324.999988,324.999988,99.55917142857143,99.50733333333334,99.56841428571428,99.5483,0.10199999999999987,-0.02833333333333332,-0.0836,0.14466666666666672,-0.04833333333333201,-0.04833333333333201,1.512,1.4995,38.184,29.786666666666665,38.308,35.289500000000004,56.084,35.15,59.9825,52.927,54.007,34.2605,58.554,51.228,53.159,33.788,58.4655,50.6255,-0.09099999999999997,-0.06050000000000022,0.10952,0.10812500000000001,0.0,213.15,213.155,209.92000000000002,209.92000000000002,0.0,0.0
19,0.0,0.0,0.0,1.0,1.0,0.0,0.0,1.0,0.0,100.0,1.0,1.1856,26.0,0.0,0.0,0.0,52.999997,0.0,26.0,26.0,26.0,26.0,0.053875,0.27249999999999996,0.04315,292.099,-2.6611,-2.69325,-1.5366,-1.5962,-212.03,215.495,190.595625,0.0,0.0,0.0,0.0,0.03859999999999997,-5.498166666666667,-5.498166666666667,-0.5519000000000001,0.5985,0.018111111111110967,-0.853,68.214,0.0204,-0.2157,-0.1720000000000006,100.0,1.0,1.0,210.35333333333335,0.0,0.0,0.0,0.0,0.0,0.0,0.0,8916.1,0.0,55.0,5.0,245.54000000000002,1.0,0.0,0.0,0.0,0.0,0.0,1.0,0.0,0.9540000000000006,0.9540000000000006,0.0,0.0,1.0,55.0,616.79921,10000.0,85.000001,85.000001,85.000001,85.000001,395.0,0.0,0.0,0.0,1.0,333.33500000000004,51.926,51.926,47.684,47.684,34.0,-23.31,24.846666666666668,-28.41,31.580000000000002,0.0,1781.991,-0.23499999999999943,100.0,28.255,28.451,42.778,43.394,0.0,0.0,100.0,0.0,0.0,0.0,0.0,3163.4285714285716,3073.4,4190.333333333333,4281.9,305.2875,304.78433333333334,314.706,314.127,21.959,20.6115,21.9797,21.4955,314.999998,314.999998,324.999988,324.999988,99.55918571428572,99.50733333333334,99.56857142857143,99.54844285714286,0.09575000000000022,-0.04499999999999993,-0.0988,0.12566666666666682,-0.054999999999999716,-0.045000000000001705,1.491,1.4835,38.244,29.822,38.373000000000005,35.347,56.073,35.19,60.0175,52.987,53.995999999999995,34.2975,58.5865,51.286,53.147,33.823499999999996,58.495,50.6825,-0.10450000000000004,-0.06199999999999983,0.10458500000000001,0.10683500000000001,0.0,213.61,213.60000000000002,210.35333333333335,210.35333333333335,0.0,0.0
20,0.0,0.0,0.0,1.0,1.0,0.0,0.0,1.0,0.0,100.0,1.0,1.1856,26.0,0.0,0.0,0.0,52.999997,0.0,26.0,26.0,26.0,26.0,0.043000000000000003,0.26570000000000005,-0.022675,292.389,-2.7253,-2.639125,-1.5392000000000001,-1.5846,-208.34,215.48000000000002,190.571875,0.0,0.0,0.0,0.0,0.0407333333333334,-5.498166666666667,-5.498166666666667,-0.5581,-0.827,0.014000000000000012,-0.8865000000000001,68.35900000000001,0.0158,-0.22825,-0.06400000000000006,100.0,1.0,1.0,210.8,0.0,0.0,0.0,0.0,0.0,0.0,0.0,8935.0,0.0,55.0,5.0,246.06666666666666,0.0,0.0,0.0,0.0,0.0,0.0,0.0,0.0,1.0079999999999991,1.0079999999999991,0.0,0.0,0.0,55.0,616.79921,10000.0,85.000001,85.000001,85.000001,85.000001,395.0,0.0,0.0,0.0,1.0,166.665,52.444,52.444,47.409,47.409,34.0,-23.44,24.453333333333333,-27.696666666666665,29.135,0.0,1781.939,-0.23000000000000043,100.0,27.861,28.165,43.345,43.753,0.0,0.0,100.0,0.0,0.0,0.0,0.0,3124.285714285714,3057.4,4097.888888888889,4031.7,305.5085,304.9893333333333,314.8805,314.7735,21.969,20.6173,21.991,21.5054,314.999998,314.999998,324.999988,324.999988,99.5592,99.50735,99.56871428571428,99.5486,0.09624999999999995,-0.03533333333333322,-0.0996,0.12783333333333324,-0.051666666666669414,-0.04999999999999716,1.518,1.52,38.306,29.858333333333334,38.444,35.408500000000004,56.058,35.230000000000004,60.058,53.0525,53.982,34.3345,58.6245,51.349000000000004,53.132,33.859,58.5295,50.744,-0.09650000000000003,-0.053999999999999826,0.10750000000000001,0.10516500000000001,0.0,214.0,214.01,210.8,210.8,0.0,0.0
21,0.0,0.0,0.0,1.0,1.0,0.0,0.0,1.0,0.0,100.0,1.0,1.1856,26.0,0.0,0.0,0.0,52.999997,0.0,26.0,26.0,26.0,26.0,0.013875,0.27100000000000013,-0.053275,292.587,-2.7175,-2.660625,-1.586,-1.5396,-205.26999999999998,215.47,190.551625,0.0,0.0,0.0,0.0,0.04253333333333331,-5.498166666666667,-5.498166666666667,-0.5742,0.07650000000000001,0.005444444444444363,0.5615,68.47800000000001,0.0129,-0.224975,-0.19200000000000017,100.0,1.0,1.0,211.26666666666665,0.0,0.0,0.0,0.0,0.0,0.0,0.0,8954.8,0.0,55.0,5.0,246.49333333333334,1.0,0.0,0.0,0.0,0.0,0.0,0.0,0.0,1.0530000000000008,1.0530000000000008,0.0,0.0,1.0,55.0,616.79921,10000.0,85.000001,85.000001,85.000001,85.000001,395.0,0.0,0.0,0.0,1.0,333.33500000000004,52.353,52.353,48.05,48.05,34.0,-23.1875,25.796666666666667,-27.443333333333335,28.5325,0.0,1781.892,-0.29499999999999815,100.0,28.08,27.859,43.025999999999996,43.259,0.0,0.0,100.0,0.0,0.0,0.0,0.0,3105.714285714286,3192.1,4022.8888888888887,4046.2,305.378,304.783,315.08425,314.88575,21.9774,20.6222,22.0001,21.5134,314.999998,314.999998,324.999988,324.999988,99.5592,99.50735,99.56884285714285,99.54874285714286,0.10175000000000001,-0.03166666666666673,-0.0986,0.13316666666666666,-0.041666666666671404,-0.05833333333333002,1.562,1.5665,38.358999999999995,29.889,38.501000000000005,35.4585,56.047,35.263999999999996,60.0875,53.1035,53.971000000000004,34.366,58.652,51.397999999999996,53.12,33.888999999999996,58.5545,50.792,-0.10199999999999987,-0.05600000000000005,0.10679500000000001,0.108115,0.0,214.405,214.39,211.26666666666665,211.26666666666665,0.0,0.0
22,0.0,0.0,0.0,1.0,1.0,0.0,0.0,1.0,0.0,100.0,1.0,1.1856,26.0,0.0,0.0,0.0,52.999997,0.0,26.0,26.0,26.0,26.0,0.013875,0.2793000000000001,-0.006050000000000001,292.175,-2.7836,-2.621625,-1.6062,-1.5242,-201.76999999999998,215.46,190.527875,0.0,0.0,0.0,0.0,0.04456666666666653,-5.498166666666667,-5.498166666666667,-0.5575,0.07499999999999996,0.012666666666666604,-0.49449999999999994,68.616,0.011000000000000001,-0.200275,-0.17600000000000016,100.0,1.0,1.0,211.52666666666667,0.0,0.0,0.0,0.0,0.0,0.0,0.0,8965.9,0.0,55.0,5.0,246.99,0.0,0.0,0.0,0.0,0.0,0.0,0.0,0.0,1.1039999999999992,1.1039999999999992,0.0,0.0,0.0,55.0,616.79921,10000.0,85.000001,85.000001,85.000001,85.000001,395.0,0.0,0.0,0.0,1.0,333.33500000000004,52.505,52.505,47.15,47.15,34.0,-24.1725,24.075,-30.48333333333333,30.3,0.0,1781.841,-0.375,100.0,27.943,28.119,43.124,43.468,0.0,0.0,100.0,0.0,0.0,0.0,0.0,3128.857142857143,3066.9,4314.333333333333,4343.8,305.552,305.0183333333333,314.453,314.11675,21.987,20.6278,22.0107,21.5226,314.999998,314.999998,324.999988,324.999988,99.55921428571429,99.50735,99.569,99.54887142857143,0.09100000000000019,-0.04133333333333322,-0.10020000000000001,0.11416666666666675,-0.045000000000001705,-0.03833333333332689,1.4905,1.4775,38.418,29.923666666666666,38.567,35.5165,56.035,35.3025,60.125,53.1635,53.96,34.4015,58.6865,51.456,53.107,33.923,58.586,50.849000000000004,-0.10250000000000004,-0.052999999999999936,0.1039,0.10555,0.0,214.835,214.82,211.52666666666667,211.52666666666667,0.0,0.0
23,0.0,0.0,0.0,1.0,1.0,0.0,0.0,1.0,0.0,100.0,1.0,1.1856,26.0,0.0,0.0,0.0,52.999997,0.0,26.0,26.0,26.0,26.0,0.020875,0.27459999999999996,-0.0005250000000000001,292.023,-2.6651,-2.6814999999999998,-1.6446,-1.5015,-198.06,215.4475,190.503,0.0,0.0,0.0,0.0,0.04673333333333329,-5.498166666666667,-5.498166666666667,-0.5737,-0.20399999999999996,0.010333333333333306,-0.7,68.758,0.0146,-0.22590000000000002,-0.25,100.0,1.0,1.0,212.01666666666665,0.0,0.0,0.0,0.0,0.0,0.0,0.0,8986.7,0.0,55.0,5.0,247.50333333333333,1.0,0.0,0.0,0.0,0.0,0.0,0.0,0.0,1.1580000000000013,1.1580000000000013,0.0,0.0,1.0,55.0,616.79921,10000.0,85.000001,85.000001,85.000001,85.000001,395.0,0.0,0.0,0.0,1.0,166.665,51.971000000000004,51.971000000000004,47.44,47.44,34.0,-23.6675,24.975,-30.563333333333333,28.875,0.0,1781.788,-0.34999999999999787,100.0,28.218,28.301000000000002,43.285,43.706,0.0,0.0,100.0,0.0,0.0,0.0,0.0,3231.142857142857,3068.4,4248.555555555556,4162.3,305.073,304.889,314.641,314.565,21.997,20.6338,22.0218,21.5325,314.999998,314.999998,324.999988,324.999988,99.55922857142858,99.50736666666667,99.56914285714285,99.54902857142856,0.10250000000000004,-0.03633333333333311,-0.106,0.1253333333333333,-0.046666666666666856,-0.05333333333332746,1.529,1.52,38.480999999999995,29.961,38.637,35.578,56.022,35.344,60.164,53.2285,53.947,34.44,58.7225,51.5185,53.094,33.96,58.6185,50.91,-0.10999999999999988,-0.04899999999999993,0.11380000000000001,0.10609,0.0,215.255,215.265,212.01666666666665,212.01666666666665,0.0,0.0
24,0.0,0.0,0.0,1.0,1.0,0.0,0.0,1.0,0.0,100.0,1.0,1.1856,26.0,0.0,0.0,0.0,52.999997,0.0,26.0,26.0,26.0,26.0,0.03925,0.26670000000000016,-0.038825,292.465,-2.717,-2.6563749999999997,-1.5564,-1.5533000000000001,-194.76,215.4375,190.480375,0.0,0.0,0.0,0.0,0.048633333333333306,-5.498166666666667,-5.498166666666667,-0.5859,-0.39250000000000007,0.021888888888888847,-0.17100000000000004,68.885,0.0177,-0.2227,-0.242,100.0,1.0,1.0,212.41,0.0,0.0,0.0,0.0,0.0,0.0,0.0,9003.3,0.0,55.0,5.0,247.96,0.0,0.0,0.0,0.0,0.0,0.0,0.0,0.0,1.2059999999999995,1.2059999999999995,0.0,0.0,0.0,55.0,616.79921,10000.0,85.000001,85.000001,85.000001,85.000001,395.0,0.0,0.0,0.0,1.0,166.665,52.75,52.75,47.47,47.47,34.0,-22.405,24.053333333333335,-28.486666666666665,29.4025,0.0,1781.74,-0.3299999999999983,100.0,27.947,28.052,43.21,43.612,0.0,0.0,100.0,0.0,0.0,0.0,0.0,3027.857142857143,3014.8,4159.222222222223,4123.7,305.782,305.141,314.758,314.62,22.0058,20.6389,22.0317,21.5411,314.999998,314.999998,324.999988,324.999988,99.55924285714286,99.50736666666667,99.56928571428571,99.54917142857143,0.10000000000000009,-0.038999999999999924,-0.0998,0.12583333333333324,-0.051666666666669414,-0.041666666666671404,1.5055,1.509,38.536,29.993333333333332,38.698,35.632,56.009,35.3785,60.197,53.284,53.935,34.472,58.754,51.572,53.081,33.991,58.6465,50.9625,-0.10899999999999999,-0.05250000000000021,0.10976000000000001,0.10532000000000001,0.0,215.655,215.64499999999998,212.41,212.41,0.0,0.0
25,0.0,0.0,0.0,1.0,1.0,0.0,0.0,1.0,0.0,100.0,1.0,1.1856,26.0,0.0,0.0,0.0,52.999997,0.0,26.0,26.0,26.0,26.0,0.039875,0.2531000000000001,-0.027625,292.191,-2.7575,-2.63675,-1.5982,-1.5234,-191.45,215.4275,190.4565,0.0,0.0,0.0,0.0,0.05056666666666654,-5.498166666666667,-5.498166666666667,-0.6025,0.05049999999999999,0.028666666666666618,-0.958,69.01,0.018500000000000003,-0.2192,-0.23399999999999999,100.0,1.0,1.0,212.84333333333333,0.0,0.0,0.0,0.0,0.0,0.0,0.0,9021.7,0.0,55.0,5.0,248.41,1.0,0.0,0.0,0.0,0.0,0.0,0.0,0.0,1.2540000000000013,1.2540000000000013,0.0,0.0,1.0,55.0,616.79921,10000.0,85.000001,85.000001,85.000001,85.000001,395.0,0.0,0.0,0.0,1.0,166.665,51.804,51.804,47.775,47.775,34.0,-25.38,26.473333333333333,-27.263333333333335,29.165,0.0,1781.692,-0.375,100.0,27.909,28.271,43.015,43.435,0.0,0.0,100.0,0.0,0.0,0.0,0.0,3308.5714285714284,3265.4,4038.8888888888887,4142.6,305.01,304.354,315.1455,314.61125,22.0146,20.6442,22.0414,21.5498,314.999998,314.999998,324.999988,324.999988,99.55925714285715,99.50736666666667,99.56941428571429,99.54931428571429,0.09575000000000022,-0.03299999999999992,-0.09040000000000001,0.1286666666666667,-0.054999999999999716,-0.054999999999999716,1.553,1.5274999999999999,38.591,30.026666666666664,38.759,35.686,55.997,35.4155,60.229,53.339,53.923,34.506,58.783500000000004,51.625,53.068,34.0235,58.6735,51.0145,-0.10799999999999987,-0.053999999999999826,0.10283500000000001,0.10519500000000001,0.0,216.04000000000002,216.055,212.84333333333333,212.84333333333333,0.0,0.0
26,0.0,0.0,0.0,1.0,1.0,0.0,0.0,1.0,0.0,100.0,1.0,1.1856,26.0,0.0,0.0,0.0,52.999997,0.0,26.0,26.0,26.0,26.0,0.040125,0.27449999999999997,0.084575,291.321,-2.7086,-2.725,-1.5592000000000001,-1.5522,-187.92000000000002,215.42000000000002,190.430875,0.0,0.0,0.0,0.0,0.05259999999999998,-5.498166666666667,-5.498166666666667,-0.5744,0.354,0.015333333333333199,0.8535,69.146,0.018500000000000003,-0.202375,-0.35799999999999965,100.0,1.0,1.0,213.05333333333334,0.0,0.0,0.0,0.0,0.0,0.0,0.0,9030.6,0.0,55.0,5.0,248.89666666666665,0.0,0.0,0.0,0.0,0.0,0.0,0.0,0.0,1.3049999999999997,1.3049999999999997,0.0,0.0,0.0,55.0,616.79921,10000.0,85.000001,85.000001,85.000001,85.000001,395.0,0.0,0.0,0.0,1.0,333.33500000000004,51.635999999999996,51.635999999999996,46.539,46.539,34.0,-22.5675,25.941666666666666,-30.086666666666666,34.06,0.0,1781.64,-0.41000000000000014,100.0,28.862000000000002,28.621000000000002,43.602000000000004,43.85,0.0,0.0,100.0,0.0,0.0,0.0,0.0,3146.0,3123.1,4431.111111111111,4521.7,305.2765,304.896,314.04275,313.7215,22.0241,20.65,22.052,21.5591,314.999998,314.999998,324.999988,324.999988,99.55927142857144,99.50738333333334,99.56957142857142,99.54945714285714,0.12175000000000002,-0.02966666666666673,-0.0818,0.14216666666666677,-0.03833333333332689,-0.041666666666671404,1.457,1.4275,38.650999999999996,30.062666666666665,38.825,35.7445,55.986999999999995,35.4555,60.266999999999996,53.400999999999996,53.914,34.5435,58.8185,51.685,53.057,34.0595,58.7055,51.073,-0.11699999999999999,-0.04899999999999993,0.1101,0.11075000000000002,0.0,216.47,216.495,213.05333333333334,213.05333333333334,0.0,0.0
27,0.0,0.0,0.0,1.0,1.0,0.0,0.0,1.0,0.0,100.0,1.0,1.1856,26.0,0.0,0.0,0.0,52.999997,0.0,26.0,26.0,26.0,26.0,0.038375,0.23850000000000016,-0.04905,291.779,-2.7572,-2.661875,-1.6189,-1.534,-184.6,215.41250000000002,190.40775,0.0,0.0,0.0,0.0,0.05453333333333332,-5.498166666666667,-5.498166666666667,-0.5964,-0.853,0.024555555555555664,0.7615,69.269,0.0196,-0.238625,-0.39200000000000035,100.0,1.0,1.0,213.57,0.0,0.0,0.0,0.0,0.0,0.0,0.0,9052.5,0.0,55.0,5.0,249.34333333333336,1.0,0.0,0.0,0.0,0.0,0.0,0.0,0.0,1.352999999999998,1.352999999999998,0.0,0.0,1.0,55.0,616.79921,10000.0,85.000001,85.000001,85.000001,85.000001,395.0,0.0,0.0,0.0,1.0,333.33500000000004,51.894999999999996,51.894999999999996,46.677,46.677,34.0,-22.349999999999998,26.76833333333333,-28.376666666666665,30.48,0.0,1781.592,-0.40500000000000114,100.0,28.497,28.553,44.016,44.201,0.0,0.0,100.0,0.0,0.0,0.0,0.0,3024.857142857143,3237.0,4109.0,4138.9,305.6825,304.58433333333335,314.87125,314.703,22.0328,20.6554,22.0621,21.568,314.999998,314.999998,324.999988,324.999988,99.55928571428572,99.50738333333334,99.56971428571428,99.5496,0.11275000000000013,-0.021666666666666723,-0.0878,0.15083333333333337,-0.03833333333332689,-0.06666666666666998,1.4975,1.4895,38.705,30.096,38.888,35.8,55.976,35.492,60.3025,53.4585,53.903,34.577,58.8515,51.74,53.045,34.092,58.7355,51.127,-0.11299999999999999,-0.047499999999999876,0.108935,0.11084000000000001,0.0,216.815,216.845,213.57,213.57,0.0,0.0
28,0.0,0.0,0.0,1.0,1.0,0.0,0.0,1.0,0.0,100.0,1.0,1.1856,26.0,0.0,0.0,0.0,52.999997,0.0,26.0,26.0,26.0,26.0,0.038375,0.2723,-0.05545,291.946,-2.6904,-2.64675,-1.6320999999999999,-1.5599,-181.07,215.405,190.382375,0.0,0.0,0.0,0.0,0.056599999999999984,-5.498166666666667,-5.498166666666667,-0.6018,0.542,0.008888888888888946,-1.0735000000000001,69.4,0.0234,-0.217725,-0.3799999999999999,100.0,1.0,1.0,214.04666666666668,0.0,0.0,0.0,0.0,0.0,0.0,0.0,9072.6,0.0,55.0,5.0,249.81,0.0,0.0,0.0,0.0,0.0,0.0,0.0,0.0,1.404,1.404,0.0,0.0,0.0,55.0,616.79921,10000.0,85.000001,85.000001,85.000001,85.000001,395.0,0.0,0.0,0.0,1.0,166.665,51.834,51.834,47.333,47.333,34.0,-23.099999999999998,25.181666666666665,-28.78,29.44,0.0,1781.543,-0.4349999999999987,100.0,28.418,28.692,43.38,43.870000000000005,0.0,0.0,100.0,0.0,0.0,0.0,0.0,3167.857142857143,3102.0,4154.777777777777,4112.4,305.3395,304.819,314.9375,314.69475,22.0422,20.6611,22.072400000000002,21.5772,314.999998,314.999998,324.999988,324.999988,99.5593,99.5074,99.56985714285715,99.54975714285715,0.10725000000000007,-0.030999999999999917,-0.094,0.13050000000000006,-0.04999999999999716,-0.041666666666671404,1.5550000000000002,1.5434999999999999,38.763999999999996,30.131666666666668,38.952,35.8575,55.964,35.5315,60.3345,53.516,53.891999999999996,34.6135,58.8815,51.795500000000004,53.033,34.1265,58.762,51.181,-0.11250000000000004,-0.04400000000000004,0.11120500000000001,0.09881000000000001,0.0,217.245,217.265,214.04666666666668,214.04666666666668,0.0,0.0
29,0.0,0.0,0.0,1.0,1.0,0.0,0.0,1.0,0.0,100.0,1.0,1.1856,26.0,0.0,0.0,0.0,52.999997,0.0,26.0,26.0,26.0,26.0,0.050625,0.2538,-0.018525,291.824,-2.6635,-2.712875,-1.5745,-1.5455,-177.51999999999998,215.4,190.356,0.0,0.0,0.0,0.0,0.058666666666666534,-5.498166666666667,-5.498166666666667,-0.6043000000000001,-0.6695,0.007111111111111068,0.9395,69.53399999999999,0.026600000000000002,-0.214925,-0.4579999999999993,100.0,1.0,1.0,214.30666666666667,0.0,0.0,0.0,0.0,0.0,0.0,0.0,9083.6,0.0,55.0,5.0,250.29333333333335,1.0,0.0,0.0,0.0,0.0,0.0,0.0,0.0,1.4549999999999983,1.4549999999999983,0.0,0.0,1.0,55.0,616.79921,10000.0,85.000001,85.000001,85.000001,85.000001,395.0,0.0,0.0,0.0,1.0,333.33500000000004,52.322,52.322,46.768,46.768,34.0,-21.0675,26.331666666666663,-27.313333333333336,32.417500000000004,0.0,1781.49,-0.46000000000000085,100.0,28.274,28.294,43.876,44.075,0.0,0.0,100.0,0.0,0.0,0.0,0.0,2994.5714285714284,3122.2,4141.555555555556,4329.9,305.728,304.921,314.722,314.18675,22.0514,20.6667,22.083,21.5865,314.999998,314.999998,324.999988,324.999988,99.55931428571428,99.5074,99.57,99.5499,0.11825000000000019,-0.0173333333333332,-0.0704,0.14850000000000008,-0.013333333333328312,-0.07333333333333059,1.4755,1.4685000000000001,38.822,30.167,39.019,35.916,55.951,35.5685,60.3725,53.577,53.879000000000005,34.647999999999996,58.917,51.854,53.019999999999996,34.16,58.7945,51.2385,-0.11349999999999993,-0.045500000000000096,0.10469500000000001,0.1038,0.0,217.635,217.67000000000002,214.30666666666667,214.30666666666667,0.0,0.0
30,0.0,0.0,0.0,1.0,1.0,0.0,0.0,1.0,0.0,100.0,1.0,1.1856,26.0,0.0,0.0,0.0,52.999997,0.0,26.0,26.0,26.0,26.0,0.068125,0.25770000000000004,0.032850000000000004,291.183,-2.7326,-2.6407499999999997,-1.6481,-1.5931000000000002,-174.18,215.39499999999998,190.331125,0.0,0.0,0.0,0.0,0.06059999999999999,-5.498166666666667,-5.498166666666667,-0.6063000000000001,0.872,0.012444444444444258,0.6005,69.654,0.029300000000000003,-0.217375,-0.4679999999999991,100.0,1.0,1.0,214.8,0.0,0.0,0.0,0.0,0.0,0.0,0.0,9104.6,0.0,55.0,5.0,250.73000000000002,0.0,0.0,0.0,0.0,0.0,0.0,1.0,0.0,1.5030000000000001,1.5030000000000001,0.0,0.0,0.0,55.0,616.79921,10000.0,85.000001,85.000001,85.000001,85.000001,395.0,0.0,0.0,0.0,1.0,333.33500000000004,50.522,50.522,47.089,47.089,34.0,-24.2525,28.213333333333335,-28.506666666666664,30.6125,0.0,1781.442,-0.4549999999999983,100.0,29.107,29.023,43.577,44.092,0.0,0.0,100.0,0.0,0.0,0.0,0.0,3299.857142857143,3408.7,4161.888888888889,4099.1,304.6985,303.874,314.9375,314.72775,22.0605,20.6723,22.0928,21.5953,314.999998,314.999998,324.999988,324.999988,99.55932857142857,99.5074,99.57014285714286,99.55004285714286,0.12199999999999989,-0.026999999999999913,-0.0828,0.14683333333333337,-0.045000000000001705,-0.07166666666666544,1.5495,1.538,38.878,30.201666666666668,39.08,35.9705,55.943,35.6075,60.403999999999996,53.632,53.872,34.684,58.9465,51.9075,53.010999999999996,34.1945,58.820499999999996,51.2905,-0.11499999999999999,-0.04850000000000021,0.10863500000000001,0.10827,0.0,218.03,218.07,214.8,214.8,0.0,0.0
31,0.0,0.0,0.0,1.0,1.0,0.0,0.0,1.0,0.0,100.0,1.0,1.1856,26.0,0.0,0.0,0.0,52.999997,0.0,26.0,26.0,26.0,26.0,0.043625000000000004,0.25960000000000005,0.08135,290.68,-2.7799,-2.613,-1.6531,-1.5372,-170.63,215.39249999999998,190.305125,0.0,0.0,0.0,0.0,0.06266666666666654,-5.498166666666667,-5.498166666666667,-0.5851000000000001,-0.40400000000000014,0.01966666666666672,-0.806,69.788,0.033100000000000004,-0.21702500000000002,-0.41000000000000014,100.0,1.0,1.0,214.98333333333335,0.0,0.0,0.0,0.0,0.0,0.0,0.0,9112.4,0.0,55.0,5.0,251.21,1.0,0.0,0.0,0.0,0.0,0.0,1.0,0.0,1.5539999999999985,1.5539999999999985,0.0,0.0,1.0,55.0,616.79921,10000.0,85.000001,85.000001,85.000001,85.000001,395.0,0.0,0.0,0.0,1.0,166.665,51.086,51.086,45.516999999999996,45.516999999999996,34.0,-23.69,26.746666666666666,-31.22,32.457499999999996,0.0,1781.393,-0.509999999999998,100.0,28.811,29.288,44.335,44.957,0.0,0.0,100.0,0.0,0.0,0.0,0.0,3232.285714285714,3283.4,4394.666666666667,4395.3,305.269,304.352,314.18925,313.869,22.0699,20.6781,22.1035,21.6048,314.999998,314.999998,324.999988,324.999988,99.55934285714285,99.5074,99.57028571428572,99.5502,0.12274999999999991,-0.024666666666666615,-0.08,0.13166666666666682,-0.051666666666669414,-0.046666666666666856,1.4224999999999999,1.4115,38.937,30.238,39.147,36.03,55.933,35.647,60.4435,53.696,53.861999999999995,34.721000000000004,58.983000000000004,51.969,53.0,34.2295,58.854,51.3505,-0.12199999999999989,-0.047499999999999876,0.10158,0.10010000000000001,0.0,218.435,218.445,214.98333333333335,214.98333333333335,0.0,0.0
32,0.0,0.0,0.0,1.0,1.0,0.0,0.0,1.0,0.0,100.0,1.0,1.1856,26.0,0.0,0.0,0.0,52.999997,0.0,26.0,26.0,26.0,26.0,0.084875,0.25870000000000015,-0.033225000000000005,291.382,-2.7056,-2.67525,-1.593,-1.6171,-166.85,215.39,190.27825,0.0,0.0,0.0,0.0,0.06486666666666652,-5.498166666666667,-5.498166666666667,-0.6073000000000001,-0.3365,-0.000888888888888939,-0.952,69.922,0.0328,-0.23245000000000002,-0.41799999999999926,100.0,1.0,1.0,215.57,0.0,0.0,0.0,0.0,0.0,0.0,0.0,9137.2,0.0,55.0,5.0,251.69333333333333,0.0,0.0,0.0,0.0,0.0,0.0,1.0,0.0,1.6080000000000005,1.6080000000000005,0.0,0.0,0.0,55.0,616.79921,10000.0,85.000001,85.000001,85.000001,85.000001,395.0,0.0,0.0,0.0,1.0,166.665,51.575,51.575,46.677,46.677,34.0,-22.1675,25.993333333333332,-26.79,32.215,0.0,1781.339,-0.5,100.0,28.668,29.133,44.138,44.751999999999995,0.0,0.0,100.0,0.0,0.0,0.0,0.0,3154.857142857143,3100.0,4076.5555555555557,4193.5,305.415,304.849,314.9865,314.4365,22.0797,20.6842,22.1145,21.6147,314.999998,314.999998,324.999988,324.999988,99.55935714285714,99.5074,99.57044285714285,99.55035714285714,0.12849999999999984,-0.016999999999999904,-0.07100000000000001,0.14983333333333326,-0.046666666666666856,-0.04833333333333201,1.52,1.5055,38.998000000000005,30.276333333333334,39.216,36.092,55.921,35.6885,60.4795,53.7585,53.849999999999994,34.759,59.0165,52.028999999999996,52.986999999999995,34.2665,58.884,51.409,-0.12250000000000005,-0.04349999999999987,0.098155,0.114405,0.0,218.845,218.865,215.57,215.57,0.0,0.0
33,0.0,0.0,0.0,1.0,1.0,0.0,0.0,1.0,0.0,100.0,1.0,1.1856,26.0,0.0,0.0,0.0,52.999997,0.0,26.0,26.0,26.0,26.0,0.06575,0.2553000000000001,-0.05365,291.595,-2.7214,-2.6393750000000002,-1.6023,-1.5795,-163.49,215.3875,190.253125,0.0,0.0,0.0,0.0,0.06679999999999997,-5.498166666666667,-5.498166666666667,-0.6152000000000001,-0.23049999999999993,0.0006666666666665932,-0.17599999999999993,70.043,0.0327,-0.21435,-0.4320000000000004,100.0,1.0,1.0,215.94333333333333,0.0,0.0,0.0,0.0,0.0,0.0,0.0,9153.0,0.0,55.0,5.0,252.13,1.0,0.0,0.0,0.0,0.0,0.0,1.0,0.0,1.6559999999999988,1.6559999999999988,0.0,0.0,1.0,55.0,616.79921,10000.0,85.000001,85.000001,85.000001,85.000001,395.0,0.0,0.0,0.0,1.0,166.665,51.849000000000004,51.849000000000004,46.951,46.951,34.0,-22.13,25.221666666666668,-27.523333333333333,31.7625,0.0,1781.291,-0.5300000000000011,100.0,28.531,28.867,43.906,44.5,0.0,0.0,100.0,0.0,0.0,0.0,0.0,3144.5714285714284,3063.9,4104.111111111111,4203.8,305.4535,305.07033333333334,314.93375,314.49,22.0884,20.6895,22.124299999999998,21.6234,314.999998,314.999998,324.999988,324.999988,99.55938571428571,99.5074,99.57058571428571,99.55048571428571,0.13074999999999992,-0.01633333333333331,-0.0788,0.15066666666666673,-0.05333333333332746,-0.03833333333332689,1.521,1.4975,39.053,30.309666666666665,39.277,36.1465,55.91,35.7235,60.5115,53.8135,53.84,34.7915,59.0465,52.082,52.976,34.2975,58.9105,51.460499999999996,-0.127,-0.04200000000000026,0.100775,0.11225500000000001,0.0,219.22500000000002,219.24,215.94333333333333,215.94333333333333,0.0,0.0
34,0.0,0.0,0.0,1.0,1.0,0.0,0.0,1.0,0.0,100.0,1.0,1.1856,26.0,0.0,0.0,0.0,52.999997,0.0,26.0,26.0,26.0,26.0,0.060125,0.2581,-0.065625,291.779,-2.6748,-2.6715,-1.6329,-1.5203,-160.13,215.39,190.226625,0.0,0.0,0.0,0.0,0.06876666666666653,-5.498166666666667,-5.498166666666667,-0.6418,-0.9259999999999999,0.018888888888888955,-0.2290000000000001,70.16499999999999,0.0396,-0.22025,-0.5360000000000005,100.0,1.0,1.0,216.28333333333333,0.0,0.0,0.0,0.0,0.0,0.0,0.0,9167.5,0.0,55.0,5.0,252.56666666666666,0.0,0.0,0.0,0.0,0.0,0.0,1.0,0.0,1.7040000000000006,1.7040000000000006,0.0,0.0,0.0,55.0,616.79921,10000.0,85.000001,85.000001,85.000001,85.000001,395.0,0.0,0.0,0.0,1.0,166.665,52.338,52.338,47.058,47.058,34.0,-21.4925,24.94333333333333,-28.44,30.677500000000002,0.0,1781.243,-0.46000000000000085,100.0,28.264,28.584,43.835,44.592,0.0,0.0,100.0,0.0,0.0,0.0,0.0,3078.285714285714,3012.0,4143.555555555556,4210.4,305.692,305.263,314.8805,314.4685,22.0971,20.6948,22.1341,21.6323,314.999998,314.999998,324.999988,324.999988,99.5594,99.50741666666667,99.57072857142857,99.55064285714286,0.12175000000000002,-0.016999999999999904,-0.08220000000000001,0.1443333333333332,-0.04833333333333201,-0.04333333333332945,1.5105,1.502,39.107,30.342666666666666,39.338,36.201499999999996,55.899,35.7575,60.5435,53.8695,53.829,34.823,59.076,52.135999999999996,52.964,34.3275,58.937,51.5135,-0.11999999999999988,-0.04150000000000009,0.10987500000000001,0.10056000000000001,0.0,219.575,219.60000000000002,216.28333333333333,216.28333333333333,0.0,0.0
35,0.0,0.0,0.0,1.0,1.0,0.0,0.0,1.0,0.0,100.0,1.0,1.1856,26.0,0.0,0.0,0.0,52.999997,0.0,26.0,26.0,26.0,26.0,0.0535,0.25450000000000017,-0.090675,291.672,-2.8104,-2.644375,-1.5484,-1.574,-156.55,215.39,190.196625,0.0,0.0,0.0,0.0,0.07086666666666652,-5.498166666666667,-5.498166666666667,-0.6779000000000001,-0.08200000000000007,0.007333333333333192,-0.06150000000000011,70.291,0.0424,-0.227575,-0.45399999999999974,100.0,1.0,1.0,216.74666666666667,0.0,0.0,0.0,0.0,0.0,0.0,0.0,9187.1,0.0,55.0,5.0,253.02333333333334,1.0,0.0,0.0,0.0,0.0,0.0,1.0,0.0,1.754999999999999,1.754999999999999,0.0,0.0,1.0,55.0,616.79921,10000.0,85.000001,85.000001,85.000001,85.000001,395.0,0.0,0.0,0.0,1.0,166.665,51.59,51.59,46.738,46.738,34.0,-22.7175,28.281666666666666,-25.736666666666665,30.9575,0.0,1781.191,-0.28999999999999915,100.0,28.276,28.826,43.652,44.073,0.0,0.0,100.0,0.0,0.0,0.0,0.0,3075.714285714286,3407.8,4076.0,4095.6000000000004,305.5025,304.0656666666667,315.04075,314.8565,22.1062,20.7007,22.1444,21.6415,314.999998,314.999998,324.999988,324.999988,99.55941428571428,99.50741666666667,99.57087142857142,99.55078571428571,0.12749999999999995,-0.021333333333333204,-0.066,0.16266666666666674,-0.041666666666671404,-0.05833333333333002,1.552,1.545,39.164,30.379333333333335,39.403,36.259,55.885,35.797,60.576499999999996,53.9255,53.816,34.8595,59.1065,52.1905,52.95,34.363,58.964,51.5665,-0.10850000000000004,-0.06150000000000011,0.10847000000000001,0.105135,0.0,219.97500000000002,220.01999999999998,216.74666666666667,216.74666666666667,0.0,0.0
36,0.0,0.0,0.0,1.0,1.0,0.0,0.0,1.0,0.0,100.0,1.0,1.1856,26.0,0.0,0.0,0.0,52.999997,0.0,26.0,26.0,26.0,26.0,0.06325,0.2579,-0.0014500000000000001,291.214,-2.658,-2.7098750000000003,-1.6527,-1.5902,-152.96,215.39499999999998,190.165625,0.0,0.0,0.0,0.0,0.0729333333333333,-5.498166666666667,-5.498166666666667,-0.6613,-0.044499999999999984,-0.04033333333333333,-1.4095,70.42099999999999,0.0347,-0.203825,-0.24600000000000044,100.0,1.0,1.0,216.93333333333334,0.0,0.0,0.0,0.0,0.0,0.0,0.0,9195.1,0.0,55.0,5.0,253.49,0.0,0.0,0.0,0.0,0.0,0.0,1.0,0.0,1.806000000000001,1.806000000000001,0.0,0.0,0.0,55.0,616.79921,10000.0,85.000001,85.000001,85.000001,85.000001,395.0,0.0,0.0,0.0,1.0,166.665,51.91,51.91,46.295,46.295,34.0,-21.06,24.869999999999997,-30.653333333333332,34.18,0.0,1781.14,-0.254999999999999,100.0,28.679000000000002,28.942,43.821,44.49,0.0,0.0,100.0,0.0,0.0,0.0,0.0,3009.285714285714,2994.1,4426.444444444444,4425.0,305.666,305.09766666666667,314.2145,313.92275,22.1155,20.7065,22.1549,21.6509,314.999998,314.999998,324.999988,324.999988,99.55942857142857,99.50743333333334,99.57102857142857,99.55094285714286,0.12150000000000016,-0.02966666666666673,-0.07,0.1483333333333332,-0.041666666666671404,-0.03833333333332689,1.458,1.4385,39.222,30.415666666666667,39.468,36.318,55.875,35.836,60.612,53.9865,53.806,34.896,59.1395,52.249,52.938,34.3975,58.994,51.624,-0.10749999999999993,-0.06050000000000022,0.09913500000000001,0.10927,0.0,220.41500000000002,220.405,216.93333333333334,216.93333333333334,0.0,0.0
