,ABS Active,ABS Enabled,AID Allow Tire Blankets,AID Auto Blip,AID Auto Clutch,AID Auto Shift,AID Fuel Rate,AID Ideal Line,AID Mech Damage,AID Stability,AID Tire Wear Rate,Air Density,Air Temp,Ballast,Best Lap Delta,Best Lap Time,Brake Bias,Brake Pos,Brake Temp FL,Brake Temp FR,Brake Temp RL,Brake Temp RR,CG Accel Lateral,CG Accel Longitudinal,CG Accel Vertical,CG Height,Camber FL,Camber FR,Camber RL,Camber RR,Car Coord X,Car Coord Y,Car Coord Z,Car Damage Front,Car Damage Left,Car Damage Rear,Car Damage Right,Car Pos Norm,Caster FL,Caster FR,Chassis Pitch Angle,Chassis Pitch Rate,Chassis Roll Angle,Chassis Roll Rate,Chassis Velocity X,Chassis Velocity Y,Chassis Velocity Z,Chassis Yaw Rate,Clutch Pos,DRS Active,DRS Available,Drive Train Speed,ERS Heat Charging,ERS Is Charging,ERS Max Energy,ERS Power Level,ERS Recovery Level,Engine Brake Setting,Engine Limiter,Engine RPM,Flags,Fuel Level,Gear,Ground Speed,HR Sample Clock,In Pit,KERS Charge,KERS Deployed Energy,KERS Input,KERS Max Energy,LR Sample Clock,Lap Invalidated,Lap Time,Lap Time2,Last Lap Time,Last Sector Time,MR Sample Clock,Max Fuel,Max Power,Max RPM,Max Sus Travel FL,Max Sus Travel FR,Max Sus Travel RL,Max Sus Travel RR,Max Torque,Max Turbo Boost,Num Tires Off Track,Penalties Enabled,Position,Raw Data Sample Rate,Ride Height FL,Ride Height FR,Ride Height RL,Ride Height RR,Road Temp,Self Align Torque FL,Self Align Torque FR,Self Align Torque RL,Self Align Torque RR,Session Lap Count,Session Time Left,Steering Angle,Surface Grip,Suspension Travel FL,Suspension Travel FR,Suspension Travel RL,Suspension Travel RR,TC Active,TC Enabled,Throttle Pos,Tire Dirt Level FL,Tire Dirt Level FR,Tire Dirt Level RL,Tire Dirt Level RR,Tire Load FL,Tire Load FR,Tire Load RL,Tire Load RR,Tire Loaded Radius FL,Tire Loaded Radius FR,Tire Loaded Radius RL,Tire Loaded Radius RR,Tire Pressure FL,Tire Pressure FR,Tire Pressure RL,Tire Pressure RR,Tire Radius FL,Tire Radius FR,Tire Radius RL,Tire Radius RR,Tire Rubber Grip FL,Tire Rubber Grip FR,Tire Rubber Grip RL,Tire Rubber Grip RR,Tire Slip Angle FL,Tire Slip Angle FR,Tire Slip Angle RL,Tire Slip Angle RR,Tire Slip Ratio FL,Tire Slip Ratio FR,Tire Slip Ratio RL,Tire Slip Ratio RR,Tire Temp Core FL,Tire Temp Core FR,Tire Temp Core RL,Tire Temp Core RR,Tire Temp Inner FL,Tire Temp Inner FR,Tire Temp Inner RL,Tire Temp Inner RR,Tire Temp Middle FL,Tire Temp Middle FR,Tire Temp Middle RL,Tire Temp Middle RR,Tire Temp Outer FL,Tire Temp Outer FR,Tire Temp Outer RL,Tire Temp Outer RR,Toe In FL,Toe In FR,Toe In RL,Toe In RR,Turbo Boost,Wheel Angular Speed FL,Wheel Angular Speed FR,Wheel Angular Speed RL,Wheel Angular Speed RR,Wind Direction,Wind Speed
0,0.0,0.0,0.0,1.0,1.0,0.0,0.0,1.0,0.0,100.0,1.0,1.1856,26.0,0.0,0.0,0.0,52.99999,0.0,26.0,26.0,26.0,26.0,-0.034222222222222154,0.2946,0.06860000000000001,293.564,-2.74415,-2.6285,-1.5561,-1.5134,-275.77,215.60750000000002,190.988125,0.0,0.0,0.0,0.0,0.0015333333333333334,-5.498166666666667,-5.498166666666667,-0.5595,1.5893333333333333,-0.002888888888889163,0.133,65.491,-0.031400000000000004,-0.219175,0.0779999999999994,100.0,1.0,1.0,202.21,0.0,0.0,0.0,0.0,0.0,0.0,0.0,8570.9,0.0,55.0,5.0,235.73666666666668,0.0,0.0,0.0,0.0,0.0,0.0,0.0,0.0,0.0030000000000001137,0.0030000000000001137,0.0,0.0,0.0,55.0,616.79921,10000.0,85.0,85.0,85.0,85.0,395.0,0.0,0.0,0.0,1.0,20.0,51.528999999999996,51.528999999999996,49.21,49.21,34.0,-28.7125,30.9,-28.93,26.1525,0.0,1782.788,0.4750000000000014,100.0,27.135,26.802,40.463,40.119,0.0,0.0,100.0,0.0,0.0,0.0,0.0,3262.5714285714284,4154.7,4015.25,4092.7,304.811,302.06,315.07925,314.69875,21.747,20.5125,21.8022,21.322499999999998,314.99999,314.99999,324.99998,324.99998,99.5574,99.50715,99.56671428571428,99.54564285714285,0.014250000000000096,-0.08799999999999986,-0.14079999999999993,0.08699999999999997,-0.04333333333332945,-0.061666666666667425,1.5699999999999998,1.577,36.919,29.203333333333333,37.263999999999996,34.266,55.769,34.406,59.5485,51.7665,53.735,33.6205,58.169,50.129999999999995,52.934,33.22633333333333,58.1435,49.567499999999995,-0.05349999999999999,-0.10450000000000026,0.10061,0.11168000000000002,0.0,205.175,205.21,202.21,202.21,0.0,0.0
1,0.0,0.0,0.0,1.0,1.0,0.0,0.0,1.0,0.0,100.0,1.0,1.1856,26.0,0.0,0.0,0.0,52.999997,0.0,26.0,26.0,26.0,26.0,-0.06688888888888889,0.3217000000000001,0.14636666666666667,292.526,-2.65265,-2.705,-1.5479,-1.3786,-272.23,215.62,190.967,0.0,0.0,0.0,0.0,0.0036000000000000003,-5.498166666666667,-5.498166666666667,-0.4786,-1.5443333333333333,-0.05022222222222217,-0.16200000000000003,65.65899999999999,-0.028900000000000002,-0.1832,0.7999999999999998,100.0,1.0,1.0,202.14,0.0,0.0,0.0,0.0,0.0,0.0,0.0,8568.0,0.0,55.0,5.0,236.34,1.0,0.0,0.0,0.0,0.0,0.0,0.0,0.0,0.05699999999999861,0.05699999999999861,0.0,0.0,1.0,55.0,616.79921,10000.0,85.000001,85.000001,85.000001,85.000001,395.0,0.0,0.0,0.0,1.0,166.665,54.321,54.321,47.562,47.562,34.0,-23.5325,16.828,-37.50333333333333,32.475,0.0,1782.735,0.5749999999999993,100.0,27.439,26.992,42.377,42.854,0.0,0.0,100.0,0.0,0.0,0.0,0.0,2850.0,2456.0,4747.25,5212.6,306.114,306.986,313.15675,311.55575,21.7573,20.5179,21.8138,21.3325,314.999998,314.999998,324.999988,324.999988,99.5574,99.50716666666666,99.56685714285715,99.5458,0.019000000000000128,-0.10999999999999988,-0.1482,0.06240000000000001,-0.054999999999999716,-0.041666666666671404,1.2725,1.324,36.983000000000004,29.237000000000002,37.337,34.328,55.751999999999995,34.4475,59.597,51.839,53.719,33.659,58.2145,50.2,52.917,33.263333333333335,58.1855,49.6355,-0.029000000000000026,-0.11399999999999988,0.1068,0.10861000000000001,0.0,205.715,205.63,202.14,202.14,0.0,0.0
2,0.0,0.0,0.0,1.0,1.0,0.0,0.0,1.0,0.0,100.0,1.0,1.1856,26.0,0.0,0.0,0.0,52.999997,0.0,26.0,26.0,26.0,26.0,-0.11144444444444446,0.27870000000000017,-0.0935,293.991,-2.62915,-2.6656,-1.5252,-1.5235,-269.07,215.63,190.949375,0.0,0.0,0.0,0.0,0.005433333333333333,-5.498166666666667,-5.498166666666667,-0.5758,0.258,-0.01622222222222236,2.42,65.785,-0.0391,-0.2736,1.048,100.0,1.0,1.0,203.49,0.0,0.0,0.0,0.0,0.0,0.0,0.0,8625.2,0.0,55.0,5.0,236.8,0.0,0.0,0.0,0.0,0.0,0.0,0.0,0.0,0.10500000000000043,0.10500000000000043,0.0,0.0,0.0,55.0,616.79921,10000.0,85.000001,85.000001,85.000001,85.000001,395.0,0.0,0.0,0.0,1.0,166.665,52.078,52.078,50.827,50.827,34.0,-28.9175,21.692,-24.96,18.9175,0.0,1782.687,0.6449999999999996,100.0,28.125,27.184,41.957,41.636,0.0,0.0,100.0,0.0,0.0,0.0,0.0,3312.285714285714,3172.0,3500.0,3360.2,304.58,304.68966666666665,316.2905,316.566,21.7666,20.5227,21.8236,21.3405,314.999998,314.999998,324.999988,324.999988,99.5574,99.50718333333333,99.567,99.54591428571429,-0.0007500000000000284,-0.1253333333333333,-0.17579999999999996,0.05879999999999996,-0.060000000000002274,-0.06333333333333258,1.7454999999999998,1.7645,37.042,29.267,37.397999999999996,34.378,55.739999999999995,34.4855,59.6285,51.885,53.707,33.6935,58.2435,50.244,52.905,33.29633333333334,58.212,49.679,-0.024499999999999966,-0.12650000000000006,0.10481000000000001,0.11454,0.0,206.115,206.01,203.49,203.49,0.0,0.0
3,0.0,0.0,0.0,1.0,1.0,0.0,0.0,1.0,0.0,100.0,1.0,1.1856,26.0,0.0,0.0,0.0,52.999997,0.0,26.0,26.0,26.0,26.0,-0.10033333333333339,0.30010000000000003,0.15136666666666668,293.213,-2.6567,-2.6911,-1.5158,-1.4852,-265.91,215.6375,190.93025,0.0,0.0,0.0,0.0,0.007266666666666668,-5.498166666666667,-5.498166666666667,-0.5039,0.728,0.0024444444444442492,-1.058,65.932,-0.055200000000000006,-0.186675,0.8500000000000005,100.0,1.0,1.0,203.34,0.0,0.0,0.0,0.0,0.0,0.0,0.0,8618.9,0.0,55.0,5.0,237.32333333333332,1.0,0.0,0.0,0.0,0.0,0.0,0.0,0.0,0.1529999999999987,0.1529999999999987,0.0,0.0,1.0,55.0,616.79921,10000.0,85.000001,85.000001,85.000001,85.000001,395.0,0.0,0.0,0.0,1.0,166.665,53.452,53.452,47.806,47.806,34.0,-24.38,19.944,-34.57333333333334,26.322499999999998,0.0,1782.639,0.7600000000000016,100.0,27.736,27.273,41.995000000000005,41.769999999999996,0.0,0.0,100.0,0.0,0.0,0.0,0.0,2860.714285714286,2939.6,4463.5,4347.6,306.1565,305.456,313.95725,314.00425,21.7757,20.5277,21.8335,21.349,314.999998,314.999998,324.999988,324.999988,99.55741428571429,99.5072,99.56712857142857,99.54607142857142,-0.0020000000000000018,-0.1276666666666666,-0.16920000000000002,0.053200000000000136,-0.03333333333333144,-0.04999999999999716,1.443,1.4815,37.098,29.298333333333332,37.459,34.431,55.724000000000004,34.525999999999996,59.664,51.946,53.692,33.731,58.2765,50.3025,52.888999999999996,33.33233333333334,58.242,49.7365,-0.02300000000000002,-0.12550000000000017,0.10246500000000001,0.111045,0.0,206.60000000000002,206.54000000000002,203.34,203.34,0.0,0.0
4,0.0,0.0,0.0,1.0,1.0,0.0,0.0,1.0,0.0,100.0,1.0,1.1856,26.0,0.0,0.0,0.0,52.999997,0.0,26.0,26.0,26.0,26.0,-0.10744444444444445,0.2901,0.005833333333333334,293.503,-2.6851,-2.7602,-1.4605000000000001,-1.6003,-262.55,215.64499999999998,190.91075,0.0,0.0,0.0,0.0,0.009233333333333333,-5.498166666666667,-5.498166666666667,-0.529,-0.9283333333333333,-0.05455555555555591,-1.116,66.07900000000001,-0.0651,-0.231025,1.3160000000000007,100.0,1.0,1.0,203.94,0.0,0.0,0.0,0.0,0.0,0.0,0.0,8644.3,0.0,55.0,5.0,237.85666666666668,0.0,0.0,0.0,0.0,0.0,0.0,0.0,0.0,0.20400000000000063,0.20400000000000063,0.0,0.0,0.0,55.0,616.79921,10000.0,85.000001,85.000001,85.000001,85.000001,395.0,0.0,0.0,0.0,1.0,333.33500000000004,53.238,53.238,48.721000000000004,48.721000000000004,34.0,-29.3675,19.034,-31.696666666666665,22.8975,0.0,1782.586,0.7650000000000006,100.0,27.505,26.975,42.765,41.999,0.0,0.0,100.0,0.0,0.0,0.0,0.0,3241.857142857143,2825.0,4130.125,3837.9,305.1115,305.72366666666665,314.80025,315.243,21.7854,20.5327,21.8443,21.358,314.999998,314.999998,324.999988,324.999988,99.55741428571429,99.50721666666666,99.56727142857143,99.5462,-0.026000000000000023,-0.14533333333333331,-0.19799999999999995,0.03440000000000021,-0.05833333333333002,-0.05333333333332746,1.5390000000000001,1.577,37.159,29.329666666666668,37.527,34.4875,55.709,34.5665,59.7055,52.0055,53.678,33.768,58.3155,50.36,52.873999999999995,33.367666666666665,58.278,49.792500000000004,-0.01200000000000001,-0.133,0.109475,0.11114500000000001,0.0,207.015,206.91,203.94,203.94,0.0,0.0
5,0.0,0.0,0.0,1.0,1.0,0.0,0.0,1.0,0.0,100.0,1.0,1.1856,26.0,0.0,0.0,0.0,52.999997,0.0,26.0,26.0,26.0,26.0,-0.13622222222222213,0.3043,-0.050800000000000005,293.777,-2.703,-2.7255,-1.5104000000000002,-1.6002,-259.17,215.6475,190.890875,0.0,0.0,0.0,0.0,0.0112,-5.498166666666667,-5.498166666666667,-0.5412,0.47300000000000003,-0.04833333333333334,0.7150000000000001,66.224,-0.0854,-0.22517500000000001,1.2300000000000004,100.0,1.0,1.0,204.5,0.0,0.0,0.0,0.0,0.0,0.0,0.0,8668.0,0.0,55.0,5.0,238.37666666666667,1.0,0.0,0.0,0.0,0.0,0.0,0.0,0.0,0.254999999999999,0.254999999999999,0.0,0.0,1.0,55.0,616.79921,10000.0,85.000001,85.000001,85.000001,85.000001,395.0,0.0,0.0,0.0,1.0,166.665,53.253,53.253,49.362,49.362,34.0,-27.775,19.834,-30.78,22.155,0.0,1782.538,0.5599999999999987,100.0,27.763,26.732,42.502,41.388,0.0,0.0,100.0,0.0,0.0,0.0,0.0,3113.5714285714284,2952.9,3936.125,3913.9,305.2545,305.47,315.2625,315.186,21.7953,20.5379,21.8547,21.3667,314.999998,314.999998,324.999988,324.999988,99.55741428571429,99.50723333333333,99.56741428571429,99.54634285714286,-0.007749999999999924,-0.139,-0.2086,0.014599999999999946,-0.07666666666666799,-0.03499999999999659,1.5975000000000001,1.627,37.22,29.362000000000002,37.592,34.542,55.696,34.6075,59.742,52.062,53.665,33.806,58.349000000000004,50.4135,52.86,33.403999999999996,58.309,49.845,-0.03949999999999998,-0.11350000000000016,0.10247500000000001,0.10669500000000001,0.0,207.515,207.375,204.5,204.5,0.0,0.0
6,0.0,0.0,0.0,1.0,1.0,0.0,0.0,1.0,0.0,100.0,1.0,1.1856,26.0,0.0,0.0,0.0,52.999997,0.0,26.0,26.0,26.0,26.0,-0.123,0.30469999999999997,0.022233333333333334,293.51800000000003,-2.6445,-2.7942,-1.5078,-1.5766,-255.79,215.6475,190.87025,0.0,0.0,0.0,0.0,0.013166666666666667,-5.498166666666667,-5.498166666666667,-0.525,-0.14166666666666666,-0.06611111111111123,-0.958,66.373,-0.0892,-0.2031,1.0340000000000007,100.0,1.0,1.0,204.76,0.0,0.0,0.0,0.0,0.0,0.0,0.0,8679.1,0.0,55.0,5.0,238.91333333333333,0.0,0.0,0.0,0.0,0.0,0.0,0.0,0.0,0.30600000000000094,0.30600000000000094,0.0,0.0,0.0,55.0,616.79921,10000.0,85.000001,85.000001,85.000001,85.000001,395.0,0.0,0.0,0.0,1.0,166.665,53.665,53.665,48.447,48.447,34.0,-28.665,18.718,-34.803333333333335,23.0125,0.0,1782.486,0.379999999999999,100.0,27.387,26.599,42.669,41.598,0.0,0.0,100.0,0.0,0.0,0.0,0.0,3193.857142857143,2753.9,4320.25,4041.4,305.2,305.889,314.327,314.76875,21.8049,20.543,21.8654,21.3757,314.999998,314.999998,324.999988,324.999988,99.55742857142857,99.50725,99.56755714285714,99.54647142857142,-0.02774999999999994,-0.1476666666666666,-0.2066,0.011200000000000099,-0.03333333333333144,-0.045000000000001705,1.505,1.5275,37.281,29.393333333333334,37.659,34.598,55.681,34.647999999999996,59.782,52.1225,53.65,33.843,58.3865,50.4715,52.845,33.43933333333334,58.3435,49.9015,-0.03749999999999998,-0.10250000000000004,0.09975500000000001,0.10988,0.0,207.925,207.84,204.76,204.76,0.0,0.0
7,0.0,0.0,0.0,1.0,1.0,0.0,0.0,1.0,0.0,100.0,1.0,1.1856,26.0,0.0,0.0,0.0,52.999997,0.0,26.0,26.0,26.0,26.0,-0.09199999999999997,0.2933000000000001,-0.0013000000000000002,293.457,-2.60985,-2.7886,-1.5076,-1.6228,-252.6,215.64499999999998,190.850875,0.0,0.0,0.0,0.0,0.015000000000000001,-5.498166666666667,-5.498166666666667,-0.5349,0.059333333333333335,-0.05655555555555569,-0.28900000000000003,66.509,-0.0903,-0.21985000000000002,0.8820000000000006,100.0,1.0,1.0,205.26,0.0,0.0,0.0,0.0,0.0,0.0,0.0,8700.2,0.0,55.0,5.0,239.40333333333334,1.0,0.0,0.0,0.0,0.0,0.0,0.0,0.0,0.3539999999999992,0.3539999999999992,0.0,0.0,1.0,55.0,616.79921,10000.0,85.000001,85.000001,85.000001,85.000001,395.0,0.0,0.0,0.0,1.0,166.665,53.146,53.146,48.874,48.874,34.0,-27.482499999999998,20.334,-32.25333333333333,23.002499999999998,0.0,1782.439,0.004999999999999005,100.0,27.728,26.848,42.7,41.650999999999996,0.0,0.0,100.0,0.0,0.0,0.0,0.0,3229.5714285714284,2856.6,4099.125,3940.2,305.07,305.54466666666667,314.8665,315.004,21.8142,20.5478,21.8754,21.3842,314.999998,314.999998,324.999988,324.999988,99.55742857142857,99.50726666666667,99.5677,99.54661428571428,0.002000000000000224,-0.1273333333333333,-0.20379999999999998,0.015000000000000124,-0.05666666666667197,-0.04333333333332945,1.5594999999999999,1.5685,37.339,29.424,37.721000000000004,34.650999999999996,55.669,34.6865,59.8185,52.178,53.638999999999996,33.8785,58.420500000000004,50.525,52.833,33.473,58.3745,49.9535,-0.07599999999999996,-0.07250000000000023,0.098735,0.10908500000000002,0.0,208.375,208.265,205.26,205.26,0.0,0.0
8,0.0,0.0,0.0,1.0,1.0,0.0,0.0,1.0,0.0,100.0,1.0,1.1856,26.0,0.0,0.0,0.0,52.999997,0.0,26.0,26.0,26.0,26.0,-0.08577777777777784,0.2843,-0.010566666666666667,293.51800000000003,-2.68655,-2.7237,-1.4862,-1.6127,-249.21,215.64,190.83025,0.0,0.0,0.0,0.0,0.017,-5.498166666666667,-5.498166666666667,-0.5374,-0.24866666666666667,-0.04166666666666696,0.516,66.654,-0.077,-0.22010000000000002,0.37399999999999967,100.0,1.0,1.0,205.67666666666668,0.0,0.0,0.0,0.0,0.0,0.0,0.0,8717.8,0.0,55.0,5.0,239.92666666666668,0.0,0.0,0.0,0.0,0.0,0.0,0.0,0.0,0.40500000000000114,0.40500000000000114,0.0,0.0,0.0,55.0,616.79921,10000.0,85.000001,85.000001,85.000001,85.000001,395.0,0.0,0.0,0.0,1.0,166.665,53.421,53.421,48.522999999999996,48.522999999999996,34.0,-25.565,21.7,-31.03666666666666,24.965,0.0,1782.388,-0.05999999999999872,100.0,27.564,26.740000000000002,42.807,41.693,0.0,0.0,100.0,0.0,0.0,0.0,0.0,3018.0,3018.0,4043.5,4046.4,305.5655,305.2753333333333,314.95025,314.79775,21.8238,20.553,21.886,21.3932,314.999998,314.999998,324.999988,324.999988,99.55742857142857,99.50726666666667,99.56782857142858,99.54674285714286,0.018749999999999822,-0.10599999999999987,-0.18999999999999995,0.040400000000000214,-0.03499999999999659,-0.04833333333333201,1.5225,1.545,37.399,29.456333333333333,37.787,34.707499999999996,55.653,34.727000000000004,59.8565,52.238,53.623999999999995,33.9155,58.4565,50.582499999999996,52.817,33.50833333333333,58.4075,50.01,-0.07850000000000001,-0.0665,0.113485,0.11078,0.0,208.76,208.745,205.67666666666668,205.67666666666668,0.0,0.0
9,0.0,0.0,0.0,1.0,1.0,0.0,0.0,1.0,0.0,100.0,1.0,1.1856,26.0,0.0,0.0,0.0,52.999997,0.0,26.0,26.0,26.0,26.0,-0.06977777777777783,0.28459999999999996,0.011766666666666668,293.304,-2.6093,-2.7379,-1.5376,-1.5695999999999999,-246.0,215.635,190.810625,0.0,0.0,0.0,0.0,0.018866666666666667,-5.498166666666667,-5.498166666666667,-0.5362,0.318,-0.05022222222222217,0.8240000000000001,66.78999999999999,-0.0616,-0.21380000000000002,0.20000000000000018,100.0,1.0,1.0,206.10666666666668,0.0,0.0,0.0,0.0,0.0,0.0,0.0,8736.1,0.0,55.0,5.0,240.41333333333333,1.0,0.0,0.0,0.0,0.0,0.0,0.0,0.0,0.4529999999999994,0.4529999999999994,0.0,0.0,1.0,55.0,616.79921,10000.0,85.000001,85.000001,85.000001,85.000001,395.0,0.0,0.0,0.0,1.0,333.33500000000004,52.948,52.948,48.828,48.828,34.0,-25.925,22.64,-30.700000000000003,25.502499999999998,0.0,1782.338,-0.21499999999999986,100.0,27.857,26.874,42.7,41.713,0.0,0.0,100.0,0.0,0.0,0.0,0.0,3168.4285714285716,3025.4,4051.75,4100.0,305.099,305.25166666666667,314.95675,314.72725,21.833,20.558,21.8959,21.4016,314.999998,314.999998,324.999988,324.999988,99.55742857142857,99.50728333333333,99.56797142857143,99.54688571428571,0.02925000000000022,-0.08799999999999986,-0.17079999999999995,0.05620000000000003,-0.03833333333332689,-0.046666666666666856,1.5465,1.546,37.456,29.487333333333332,37.849999999999994,34.76,55.64,34.7645,59.891999999999996,52.293,53.611999999999995,33.9505,58.489,50.635,52.804,33.541333333333334,58.4375,50.0615,-0.08450000000000002,-0.05900000000000016,0.10341,0.110765,0.0,209.185,209.17000000000002,206.10666666666668,206.10666666666668,0.0,0.0
10,0.0,0.0,0.0,1.0,1.0,0.0,0.0,1.0,0.0,100.0,1.0,1.1856,26.0,0.0,0.0,0.0,52.999997,0.0,26.0,26.0,26.0,26.0,-0.031777777777777794,0.2976000000000001,-0.0035666666666666668,293.182,-2.672,-2.7061,-1.5037,-1.5537,-242.59,215.625,190.78975,0.0,0.0,0.0,0.0,0.020833333333333336,-5.498166666666667,-5.498166666666667,-0.5267000000000001,-0.2833333333333333,-0.02488888888888896,0.13000000000000012,66.935,-0.0459,-0.21047500000000002,0.0940000000000003,100.0,1.0,1.0,206.44666666666666,0.0,0.0,0.0,0.0,0.0,0.0,0.0,8750.5,0.0,55.0,5.0,240.94,0.0,0.0,0.0,0.0,0.0,0.0,1.0,0.0,0.5040000000000013,0.5040000000000013,0.0,0.0,0.0,55.0,616.79921,10000.0,85.000001,85.000001,85.000001,85.000001,395.0,0.0,0.0,0.0,1.0,333.33500000000004,53.375,53.375,48.263999999999996,48.263999999999996,34.0,-24.735,21.287999999999997,-31.356666666666662,26.5,0.0,1782.287,-0.29499999999999815,100.0,27.626,27.033,42.796,42.230000000000004,0.0,0.0,100.0,0.0,0.0,0.0,0.0,3087.142857142857,2872.2,4207.0,4186.7,305.5335,305.5783333333333,314.62875,314.415,21.8427,20.5632,21.9066,21.4107,314.999998,314.999998,324.999988,324.999988,99.55744285714286,99.5073,99.56812857142857,99.54701428571428,0.04700000000000015,-0.08599999999999985,-0.16259999999999997,0.06240000000000001,-0.051666666666669414,-0.030000000000001137,1.508,1.5195,37.516999999999996,29.519666666666666,37.916,34.817,55.626999999999995,34.803,59.931,52.3545,53.599000000000004,33.986000000000004,58.5255,50.694,52.79,33.57533333333333,58.471000000000004,50.119,-0.10350000000000004,-0.04700000000000015,0.10673,0.10724,0.0,209.63,209.61,206.44666666666666,206.44666666666666,0.0,0.0
11,0.0,0.0,0.0,1.0,1.0,0.0,0.0,1.0,0.0,100.0,1.0,1.1856,26.0,0.0,0.0,0.0,52.999997,0.0,26.0,26.0,26.0,26.0,-0.03166666666666662,0.28400000000000003,-0.045866666666666674,293.533,-2.6771,-2.7033,-1.5594000000000001,-1.5279,-239.18,215.615,190.768875,0.0,0.0,0.0,0.0,0.022600000000000002,-5.498166666666667,-5.498166666666667,-0.5518000000000001,-0.22633333333333336,0.0016666666666667052,0.8480000000000001,67.076,-0.030600000000000002,-0.227,-0.16199999999999992,100.0,1.0,1.0,207.04000000000002,0.0,0.0,0.0,0.0,0.0,0.0,0.0,8775.7,0.0,55.0,5.0,241.44666666666666,1.0,0.0,0.0,0.0,0.0,0.0,1.0,0.0,0.5549999999999997,0.5549999999999997,0.0,0.0,1.0,55.0,616.79921,10000.0,85.000001,85.000001,85.000001,85.000001,395.0,0.0,0.0,0.0,1.0,166.665,53.223,53.223,48.965,48.965,34.0,-24.105,23.766,-27.54,25.595,0.0,1782.237,-0.23499999999999943,100.0,27.516,26.974,42.614000000000004,42.196,0.0,0.0,100.0,0.0,0.0,0.0,0.0,3029.5714285714284,3088.6,3872.875,4009.8,305.54,305.082,315.41125,314.953,21.8523,20.5685,21.9171,21.4198,314.999998,314.999998,324.999988,324.999988,99.55744285714286,99.50731666666667,99.56825714285715,99.54717142857143,0.05525000000000002,-0.06600000000000006,-0.13560000000000005,0.08540000000000014,-0.03833333333332689,-0.05666666666667197,1.5825,1.585,37.577,29.552999999999997,37.982,34.8735,55.613,34.841499999999996,59.9655,52.414,53.585,34.0215,58.5575,50.7515,52.775999999999996,33.60933333333333,58.5,50.175,-0.09850000000000003,-0.04800000000000004,0.10466,0.10505500000000001,0.0,210.055,210.055,207.04000000000002,207.04000000000002,0.0,0.0
12,0.0,0.0,0.0,1.0,1.0,0.0,0.0,1.0,0.0,100.0,1.0,1.1856,26.0,0.0,0.0,0.0,52.999997,0.0,26.0,26.0,26.0,26.0,-0.011777777777777776,0.2964,0.011633333333333334,293.106,-2.71685,-2.6888,-1.541,-1.5448,-235.75,215.60500000000002,190.747125,0.0,0.0,0.0,0.0,0.025466666666666665,-5.498166666666667,-5.498166666666667,-0.5426,0.368,0.001777777777777878,-0.6539999999999999,67.22,-0.0122,-0.20575000000000002,-0.1899999999999995,100.0,1.0,1.0,207.37,0.0,0.0,0.0,0.0,0.0,0.0,0.0,8789.6,0.0,55.0,5.0,241.96333333333334,0.0,0.0,0.0,0.0,0.0,0.0,1.0,0.0,0.6059999999999981,0.6059999999999981,0.0,0.0,0.0,55.0,616.79921,10000.0,85.000001,85.000001,85.000001,85.000001,395.0,0.0,0.0,0.0,1.0,166.665,52.948,52.948,48.203,48.203,34.0,-27.1925,22.054000000000002,-28.589999999999996,28.259999999999998,0.0,1782.187,0.6350000000000016,100.0,27.397,27.391,42.411,42.278,0.0,0.0,100.0,0.0,0.0,0.0,0.0,3134.0,3055.7,4164.25,4160.1,305.3935,304.9803333333333,314.77875,314.53425,21.8618,20.5739,21.927599999999998,21.4288,314.999998,314.999998,324.999988,324.999988,99.55745714285715,99.50731666666667,99.5684,99.54731428571428,0.008999999999999897,-0.10266666666666668,-0.1107999999999999,0.10440000000000005,-0.051666666666669414,-0.01666666666666572,1.5495,1.533,37.635999999999996,29.586666666666666,38.047,34.93,55.601,34.8805,60.0015,52.4735,53.573,34.057,58.591,50.8085,52.763,33.64333333333333,58.5305,50.231,-0.04049999999999998,-0.10199999999999987,0.09802500000000001,0.113875,0.0,210.525,210.51,207.37,207.37,0.0,0.0
13,0.0,0.0,0.0,1.0,1.0,0.0,0.0,1.0,0.0,100.0,1.0,1.1856,26.0,0.0,0.0,0.0,52.999997,0.0,26.0,26.0,26.0,26.0,0.02111111111111108,0.2875000000000001,0.032633333333333334,292.801,-2.67615,-2.7104,-1.5666,-1.5550000000000002,-232.32,215.595,190.725375,0.0,0.0,0.0,0.0,0.0268,-5.498166666666667,-5.498166666666667,-0.5374,-0.214,-0.0009999999999998899,1.2109999999999999,67.363,-0.009300000000000001,-0.21315,-0.27200000000000024,100.0,1.0,1.0,207.74333333333334,0.0,0.0,0.0,0.0,0.0,0.0,0.0,8805.4,0.0,55.0,5.0,242.47666666666666,1.0,0.0,0.0,0.0,0.0,0.0,1.0,0.0,0.657,0.657,0.0,0.0,1.0,55.0,616.79921,10000.0,85.000001,85.000001,85.000001,85.000001,395.0,0.0,0.0,0.0,1.0,166.665,52.826,52.826,48.035,48.035,34.0,-22.4675,25.238,-28.86,30.36,0.0,1782.135,-0.4499999999999993,100.0,27.818,27.361,42.848,42.609,0.0,0.0,100.0,0.0,0.0,0.0,0.0,3044.714285714286,3107.7,4127.5,4301.8,305.4765,305.00333333333333,314.74125,314.237,21.8714,20.5793,21.9382,21.438,314.999998,314.999998,324.999988,324.999988,99.55747142857143,99.50731666666667,99.56855714285714,99.54745714285714,0.09825000000000017,-0.03699999999999992,-0.10839999999999994,0.11620000000000008,-0.04833333333333201,-0.045000000000001705,1.508,1.4869999999999999,37.696,29.620666666666665,38.114000000000004,34.9875,55.589,34.919,60.039500000000004,52.536,53.562,34.0925,58.6265,50.8685,52.751000000000005,33.67733333333334,58.5625,50.289500000000004,-0.12049999999999994,-0.03750000000000009,0.10840500000000002,0.107895,0.0,210.95499999999998,210.94,207.74333333333334,207.74333333333334,0.0,0.0
14,0.0,0.0,0.0,1.0,1.0,0.0,0.0,1.0,0.0,100.0,1.0,1.1856,26.0,0.0,0.0,0.0,52.999997,0.0,26.0,26.0,26.0,26.0,0.033666666666666734,0.2865,-0.0233,293.015,-2.70145,-2.7107,-1.5674000000000001,-1.5453000000000001,-228.88,215.5875,190.704125,0.0,0.0,0.0,0.0,0.028800000000000003,-5.498166666666667,-5.498166666666667,-0.5506,-0.07200000000000001,0.015222222222222026,-0.4,67.502,0.0032,-0.22692500000000002,-0.3520000000000003,100.0,1.0,1.0,208.26999999999998,0.0,0.0,0.0,0.0,0.0,0.0,0.0,8827.9,0.0,55.0,5.0,242.98000000000002,0.0,0.0,0.0,0.0,0.0,0.0,1.0,0.0,0.7079999999999984,0.7079999999999984,0.0,0.0,0.0,55.0,616.79921,10000.0,85.000001,85.000001,85.000001,85.000001,395.0,0.0,0.0,0.0,1.0,166.665,52.78,52.78,48.385999999999996,48.385999999999996,34.0,-23.599999999999998,24.595999999999997,-27.729999999999997,28.262500000000003,0.0,1782.084,-0.384999999999998,100.0,27.614,27.698,42.644,42.771,0.0,0.0,100.0,0.0,0.0,0.0,0.0,3108.4285714285716,3027.0,3996.75,4088.7,305.4835,305.0106666666667,315.15825,314.68475,21.8809,20.5847,21.9487,21.4472,314.999998,314.999998,324.999988,324.999988,99.55748571428572,99.50731666666667,99.56868571428572,99.54758571428572,0.0847500000000001,-0.04166666666666674,-0.11420000000000008,0.1160000000000001,-0.046666666666666856,-0.05666666666667197,1.557,1.5505,37.756,29.654666666666664,38.18,35.045,55.577,34.957499999999996,60.0745,52.596000000000004,53.551,34.128,58.659,50.9265,52.739000000000004,33.711,58.5925,50.3465,-0.10649999999999993,-0.04200000000000026,0.108535,0.10750000000000001,0.0,211.37,211.39499999999998,208.26999999999998,208.26999999999998,0.0,0.0
15,0.0,0.0,0.0,1.0,1.0,0.0,0.0,1.0,0.0,100.0,1.0,1.1856,26.0,0.0,0.0,0.0,52.999997,0.0,26.0,26.0,26.0,26.0,0.0387777777777778,0.2794000000000001,0.014066666666666667,292.892,-2.69295,-2.6867,-1.5782,-1.5596999999999999,-225.84,215.5775,190.684875,0.0,0.0,0.0,0.0,0.03056666666666667,-5.498166666666667,-5.498166666666667,-0.543,0.2643333333333333,0.030777777777777793,0.79,67.626,0.013000000000000001,-0.21300000000000002,-0.4339999999999993,100.0,1.0,1.0,208.61,0.0,0.0,0.0,0.0,0.0,0.0,0.0,8842.3,0.0,55.0,5.0,243.42666666666668,1.0,0.0,0.0,0.0,0.0,0.0,1.0,0.0,0.7530000000000001,0.7530000000000001,0.0,0.0,1.0,55.0,616.79921,10000.0,85.000001,85.000001,85.000001,85.000001,395.0,0.0,0.0,0.0,1.0,333.33500000000004,52.795,52.795,48.203,48.203,34.0,-21.8525,25.451999999999998,-27.07666666666666,31.240000000000002,0.0,1782.037,-0.2699999999999996,100.0,27.822,27.627,42.6,42.757,0.0,0.0,100.0,0.0,0.0,0.0,0.0,2954.0,3119.2,4030.0,4258.7,305.7505,304.8806666666667,315.0295,314.31275,21.8893,20.5896,21.958,21.4552,314.999998,314.999998,324.999988,324.999988,99.55748571428572,99.50733333333334,99.56881428571428,99.54772857142858,0.09799999999999986,-0.032333333333333325,-0.08860000000000001,0.139,-0.046666666666666856,-0.046666666666666856,1.525,1.5055,37.808,29.685000000000002,38.236999999999995,35.095,55.567,34.991,60.1055,52.65,53.541,34.159,58.6875,50.978,52.727999999999994,33.741,58.618,50.397,-0.10399999999999998,-0.05149999999999988,0.11045500000000001,0.109975,0.0,211.78,211.785,208.61,208.61,0.0,0.0
16,0.0,0.0,0.0,1.0,1.0,0.0,0.0,1.0,0.0,100.0,1.0,1.1856,26.0,0.0,0.0,0.0,52.999997,0.0,26.0,26.0,26.0,26.0,0.030333333333333323,0.27960000000000007,-0.011166666666666668,292.816,-2.7626,-2.6273,-1.5561,-1.5548000000000002,-222.39,215.57,190.662875,0.0,0.0,0.0,0.0,0.03256666666666667,-5.498166666666667,-5.498166666666667,-0.556,-0.5163333333333334,0.020999999999999908,-1.1400000000000001,67.767,0.0177,-0.223925,-0.1739999999999995,100.0,1.0,1.0,209.0233333333333,0.0,0.0,0.0,0.0,0.0,0.0,0.0,8859.7,0.0,55.0,5.0,243.93333333333334,0.0,0.0,0.0,0.0,0.0,0.0,1.0,0.0,0.8039999999999985,0.8039999999999985,0.0,0.0,0.0,55.0,616.79921,10000.0,85.000001,85.000001,85.000001,85.000001,395.0,0.0,0.0,0.0,1.0,333.33500000000004,52.643,52.643,47.913,47.913,34.0,-24.5225,24.576,-27.516666666666666,28.7975,0.0,1781.986,-0.1999999999999993,100.0,27.388,27.788,42.738,43.021,0.0,0.0,100.0,0.0,0.0,0.0,0.0,3164.142857142857,3124.5,4084.375,4062.2,305.391,304.76533333333333,314.9455,314.68625,21.898699999999998,20.5951,21.9686,21.4644,314.999998,314.999998,324.999988,324.999988,99.5575,99.50733333333334,99.56897142857143,99.54787142857143,0.08625000000000016,-0.04499999999999993,-0.09599999999999997,0.12359999999999993,-0.05666666666667197,-0.03999999999999915,1.5314999999999999,1.514,37.867000000000004,29.719,38.304,35.1525,55.553,35.032,60.144,52.7145,53.528,34.197,58.7235,51.04,52.713,33.777,58.650999999999996,50.458,-0.08999999999999997,-0.058499999999999996,0.10287500000000001,0.10692000000000002,0.0,212.19,212.18,209.0233333333333,209.0233333333333,0.0,0.0
17,0.0,0.0,0.0,1.0,1.0,0.0,0.0,1.0,0.0,100.0,1.0,1.1856,26.0,0.0,0.0,0.0,52.999997,0.0,26.0,26.0,26.0,26.0,0.007222222222222241,0.28880000000000017,0.014333333333333335,292.542,-2.7182,-2.617,-1.5965,-1.5188000000000001,-218.93,215.5625,190.640625,0.0,0.0,0.0,0.0,0.0346,-5.498166666666667,-5.498166666666667,-0.5505,0.22766666666666666,-0.00044444444444424747,0.472,67.906,0.013600000000000001,-0.21185,-0.16999999999999993,100.0,1.0,1.0,209.43,0.0,0.0,0.0,0.0,0.0,0.0,0.0,8876.9,0.0,55.0,5.0,244.43333333333334,1.0,0.0,0.0,0.0,0.0,0.0,1.0,0.0,0.8550000000000004,0.8550000000000004,0.0,0.0,1.0,55.0,616.79921,10000.0,85.000001,85.000001,85.000001,85.000001,395.0,0.0,0.0,0.0,1.0,166.665,52.414,52.414,47.775,47.775,34.0,-23.2125,25.028,-29.049999999999997,30.012500000000003,0.0,1781.938,-0.1999999999999993,100.0,27.912,27.757,42.747,42.853,0.0,0.0,100.0,0.0,0.0,0.0,0.0,3119.142857142857,3183.1,4221.75,4237.9,305.3205,304.77166666666665,314.6005,314.4175,21.9082,20.6006,21.9791,21.4735,314.999998,314.999998,324.999988,324.999988,99.55751428571429,99.50735,99.5691,99.54801428571429,0.10349999999999993,-0.03933333333333322,-0.09160000000000001,0.13179999999999992,-0.041666666666671404,-0.04999999999999716,1.5204999999999997,1.515,37.926,29.753999999999998,38.369,35.2095,55.543,35.069,60.177,52.7705,53.518,34.2305,58.7545,51.0945,52.702,33.809333333333335,58.679,50.510999999999996,-0.09599999999999997,-0.06499999999999995,0.10492000000000001,0.11214500000000001,0.0,212.63,212.64,209.43,209.43,0.0,0.0
18,0.0,0.0,0.0,1.0,1.0,0.0,0.0,1.0,0.0,100.0,1.0,1.1856,26.0,0.0,0.0,0.0,52.999997,0.0,26.0,26.0,26.0,26.0,0.004444444444444473,0.28310000000000013,0.03866666666666667,292.358,-2.6511,-2.6038,-1.5022,-1.4802,-215.45999999999998,215.555,190.618125,0.0,0.0,0.0,0.0,0.0366,-5.498166666666667,-5.498166666666667,-0.5605,-0.3616666666666667,0.002555555555555644,-0.52,68.045,0.0089,-0.22487500000000002,-0.04600000000000026,100.0,1.0,1.0,209.82666666666665,0.0,0.0,0.0,0.0,0.0,0.0,0.0,8893.7,0.0,55.0,5.0,244.93333333333334,0.0,0.0,0.0,0.0,0.0,0.0,1.0,0.0,0.9059999999999988,0.9059999999999988,0.0,0.0,0.0,55.0,616.79921,10000.0,85.000001,85.000001,85.000001,85.000001,395.0,0.0,0.0,0.0,1.0,166.665,52.216,52.216,47.562,47.562,34.0,-24.05,25.268,-28.53666666666666,28.84,0.0,1781.887,-0.21000000000000085,100.0,27.762,27.856,42.902,43.144,0.0,0.0,100.0,0.0,0.0,0.0,0.0,3198.0,3231.8,4198.875,4219.7,305.1765,304.48833333333334,314.62525,314.3795,21.9176,20.6061,21.9896,21.4827,314.999998,314.999998,324.999988,324.999988,99.55752857142858,99.50735,99.56925714285714,99.54815714285715,0.08349999999999991,-0.04466666666666663,-0.10799999999999998,0.11880000000000002,-0.04999999999999716,-0.046666666666666856,1.4985,1.4905,37.985,29.788333333333334,38.435,35.266999999999996,55.531,35.107,60.214,52.8315,53.506,34.266,58.7885,51.153,52.69,33.843333333333334,58.710499999999996,50.5685,-0.09299999999999997,-0.06499999999999995,0.10451,0.109575,0.0,213.06,213.035,209.82666666666665,209.82666666666665,0.0,0.0
19,0.0,0.0,0.0,1.0,1.0,0.0,0.0,1.0,0.0,100.0,1.0,1.1856,26.0,0.0,0.0,0.0,52.999997,0.0,26.0,26.0,26.0,26.0,0.021666666666666723,0.2814000000000001,0.04946666666666667,292.191,-2.64565,-2.7107,-1.5232,-1.6058,-211.99,215.5475,190.5955,0.0,0.0,0.0,0.0,0.03863333333333333,-5.498166666666667,-5.498166666666667,-0.5507000000000001,0.6236666666666666,0.010333333333333306,0.758,68.18299999999999,0.0037,-0.2142,-0.10799999999999965,100.0,1.0,1.0,210.23333333333335,0.0,0.0,0.0,0.0,0.0,0.0,0.0,8911.1,0.0,55.0,5.0,245.43,1.0,0.0,0.0,0.0,0.0,0.0,1.0,0.0,0.9570000000000007,0.9570000000000007,0.0,0.0,1.0,55.0,616.79921,10000.0,85.000001,85.000001,85.000001,85.000001,395.0,0.0,0.0,0.0,1.0,166.665,52.016999999999996,52.016999999999996,47.714,47.714,34.0,-22.7675,25.504,-28.03666666666666,31.655,0.0,1781.836,-0.17999999999999972,100.0,28.417,28.128,42.906,43.097,0.0,0.0,100.0,0.0,0.0,0.0,0.0,3065.5714285714284,3141.5,4154.25,4344.4,305.381,304.7563333333333,314.7235,314.053,21.9271,20.6117,22.0001,21.4918,314.999998,314.999998,324.999988,324.999988,99.55752857142858,99.50735,99.56938571428572,99.5483,0.09050000000000002,-0.043333333333333224,-0.09920000000000007,0.11660000000000004,-0.051666666666669414,-0.05833333333333002,1.4935,1.4875,38.045,29.823333333333334,38.501000000000005,35.324,55.519999999999996,35.1475,60.2485,52.891999999999996,53.495999999999995,34.303,58.820499999999996,51.211,52.679,33.87866666666667,58.739,50.6255,-0.09350000000000003,-0.06150000000000011,0.10470000000000002,0.104745,0.0,213.51,213.5,210.23333333333335,210.23333333333335,0.0,0.0
20,0.0,0.0,0.0,1.0,1.0,0.0,0.0,1.0,0.0,100.0,1.0,1.1856,26.0,0.0,0.0,0.0,52.999997,0.0,26.0,26.0,26.0,26.0,0.016000000000000014,0.26639999999999997,-0.005533333333333334,292.404,-2.719,-2.6612999999999998,-1.533,-1.5895000000000001,-208.5,215.54250000000002,190.573,0.0,0.0,0.0,0.0,0.04066666666666667,-5.498166666666667,-5.498166666666667,-0.5566,-0.9016666666666666,0.007777777777777883,-0.977,68.32,0.0033,-0.226325,-0.013999999999999346,100.0,1.0,1.0,210.64666666666668,0.0,0.0,0.0,0.0,0.0,0.0,0.0,8928.6,0.0,55.0,5.0,245.92666666666668,0.0,0.0,0.0,0.0,0.0,0.0,0.0,0.0,1.0079999999999991,1.0079999999999991,0.0,0.0,0.0,55.0,616.79921,10000.0,85.000001,85.000001,85.000001,85.000001,395.0,0.0,0.0,0.0,1.0,166.665,52.551,52.551,47.379,47.379,34.0,-24.245,23.525999999999996,-29.026666666666664,28.995,0.0,1781.784,-0.125,100.0,27.797,28.005,43.357,43.614000000000004,0.0,0.0,100.0,0.0,0.0,0.0,0.0,3136.4285714285716,3031.0,4158.25,4065.9,305.4645,305.053,314.74625,314.64,21.9364,20.6172,22.0108,21.5011,314.999998,314.999998,324.999988,324.999988,99.55754285714286,99.50736666666667,99.56954285714286,99.54845714285715,0.07850000000000001,-0.057333333333333236,-0.11560000000000004,0.11340000000000017,-0.05833333333333002,-0.04833333333333201,1.496,1.4865,38.102999999999994,29.857666666666667,38.567,35.382,55.507,35.1855,60.286500000000004,52.9535,53.483000000000004,34.338499999999996,58.856,51.2705,52.665,33.912333333333336,58.7715,50.6835,-0.09199999999999997,-0.06499999999999995,0.11176000000000001,0.11105000000000001,0.0,213.91500000000002,213.88,210.64666666666668,210.64666666666668,0.0,0.0
21,0.0,0.0,0.0,1.0,1.0,0.0,0.0,1.0,0.0,100.0,1.0,1.1856,26.0,0.0,0.0,0.0,52.999997,0.0,26.0,26.0,26.0,26.0,0.006666666666666599,0.2603,-0.044833333333333336,292.603,-2.71475,-2.6661,-1.5756000000000001,-1.5463,-205.22,215.535,190.551375,0.0,0.0,0.0,0.0,0.04256666666666667,-5.498166666666667,-5.498166666666667,-0.5744,0.139,-0.005555555555555536,-0.718,68.447,0.0025,-0.2232,-0.016000000000000014,100.0,1.0,1.0,211.18,0.0,0.0,0.0,0.0,0.0,0.0,0.0,8951.1,0.0,55.0,5.0,246.38,1.0,0.0,0.0,0.0,0.0,0.0,0.0,0.0,1.056000000000001,1.056000000000001,0.0,0.0,1.0,55.0,616.79921,10000.0,85.000001,85.000001,85.000001,85.000001,395.0,0.0,0.0,0.0,1.0,166.665,52.368,52.368,48.08,48.08,34.0,-24.9925,23.786,-28.5,27.205,0.0,1781.736,-0.16999999999999815,100.0,27.975,27.992,43.014,43.171,0.0,0.0,100.0,0.0,0.0,0.0,0.0,3221.142857142857,3053.4,4071.875,4003.8,305.197,305.044,315.025,314.94875,21.9453,20.6224,22.0205,21.5096,314.999998,314.999998,324.999988,324.999988,99.55755714285715,99.50736666666667,99.56968571428571,99.54858571428572,0.07850000000000001,-0.055333333333333234,-0.11439999999999995,0.10940000000000016,-0.054999999999999716,-0.051666666666669414,1.5484999999999998,1.552,38.158,29.89,38.628,35.435,55.495999999999995,35.2225,60.317499999999995,53.0075,53.472,34.3725,58.885,51.322,52.653,33.945,58.7975,50.734,-0.09199999999999997,-0.06499999999999995,0.10368500000000001,0.10188000000000001,0.0,214.305,214.305,211.18,211.18,0.0,0.0
22,0.0,0.0,0.0,1.0,1.0,0.0,0.0,1.0,0.0,100.0,1.0,1.1856,26.0,0.0,0.0,0.0,52.999997,0.0,26.0,26.0,26.0,26.0,-0.00722222222222213,0.2881,0.0023333333333333335,292.191,-2.76845,-2.6326,-1.5972,-1.5336,-201.73000000000002,215.53,190.527625,0.0,0.0,0.0,0.0,0.0446,-5.498166666666667,-5.498166666666667,-0.5589000000000001,0.011,0.0067777777777777715,1.166,68.58500000000001,0.0001,-0.203125,-0.07200000000000006,100.0,1.0,1.0,211.43333333333334,0.0,0.0,0.0,0.0,0.0,0.0,0.0,8961.9,0.0,55.0,5.0,246.87666666666667,0.0,0.0,0.0,0.0,0.0,0.0,0.0,0.0,1.1069999999999993,1.1069999999999993,0.0,0.0,0.0,55.0,616.79921,10000.0,85.000001,85.000001,85.000001,85.000001,395.0,0.0,0.0,0.0,1.0,166.665,52.49,52.49,47.18,47.18,34.0,-23.7775,24.522,-30.25,30.835,0.0,1781.685,-0.254999999999999,100.0,28.2,27.936,43.322,43.269,0.0,0.0,100.0,0.0,0.0,0.0,0.0,3027.714285714286,3146.6,4245.75,4395.2,305.676,304.97433333333333,314.531,314.07275,21.9547,20.628,22.0311,21.5188,314.999998,314.999998,324.999988,324.999988,99.55755714285715,99.50738333333334,99.56982857142857,99.54874285714286,0.08024999999999993,-0.04466666666666663,-0.1057999999999999,0.11620000000000008,-0.03333333333333144,-0.045000000000001705,1.4809999999999999,1.4855,38.217,29.924999999999997,38.694,35.4925,55.483999999999995,35.2615,60.3545,53.068,53.461,34.408500000000004,58.9195,51.3805,52.641,33.97966666666667,58.829,50.791,-0.08899999999999997,-0.06050000000000022,0.10576,0.10663500000000001,0.0,214.74,214.735,211.43333333333334,211.43333333333334,0.0,0.0
23,0.0,0.0,0.0,1.0,1.0,0.0,0.0,1.0,0.0,100.0,1.0,1.1856,26.0,0.0,0.0,0.0,52.999997,0.0,26.0,26.0,26.0,26.0,-0.004111111111111065,0.258,-0.016866666666666665,292.13,-2.6774,-2.6681,-1.6506,-1.5101,-198.43,215.525,190.5055,0.0,0.0,0.0,0.0,0.0465,-5.498166666666667,-5.498166666666667,-0.5741,-0.25266666666666665,0.004444444444444251,0.48,68.711,0.0001,-0.22587500000000002,-0.10599999999999987,100.0,1.0,1.0,211.92666666666668,0.0,0.0,0.0,0.0,0.0,0.0,0.0,8982.8,0.0,55.0,5.0,247.33333333333334,1.0,0.0,0.0,0.0,0.0,0.0,0.0,0.0,1.1550000000000011,1.1550000000000011,0.0,0.0,1.0,55.0,616.79921,10000.0,85.000001,85.000001,85.000001,85.000001,395.0,0.0,0.0,0.0,1.0,166.665,51.865,51.865,47.775,47.775,34.0,-24.595,25.464,-29.96333333333333,28.655,0.0,1781.638,-0.254999999999999,100.0,28.349,28.091,43.399,43.49,0.0,0.0,100.0,0.0,0.0,0.0,0.0,3257.5714285714284,3181.5,4102.875,4135.4,304.9665,304.7696666666667,314.9485,314.7045,21.9636,20.6333,22.041,21.5276,314.999998,314.999998,324.999988,324.999988,99.55758571428571,99.50738333333334,99.56995714285715,99.54887142857143,0.08999999999999986,-0.04066666666666663,-0.11560000000000004,0.12519999999999998,-0.03333333333333144,-0.07166666666666544,1.525,1.5195,38.272,29.958,38.756,35.5475,55.474000000000004,35.299,60.388,53.1255,53.451,34.443,58.9505,51.4355,52.629999999999995,34.01266666666667,58.857,50.845,-0.10150000000000003,-0.053999999999999826,0.11357,0.11087500000000002,0.0,215.10500000000002,215.125,211.92666666666668,211.92666666666668,0.0,0.0
24,0.0,0.0,0.0,1.0,1.0,0.0,0.0,1.0,0.0,100.0,1.0,1.1856,26.0,0.0,0.0,0.0,52.999997,0.0,26.0,26.0,26.0,26.0,0.013555555555555543,0.2744,-0.02436666666666667,292.435,-2.6874000000000002,-2.6733000000000002,-1.5348000000000002,-1.5386000000000002,-194.92000000000002,215.51749999999998,190.481625,0.0,0.0,0.0,0.0,0.04853333333333333,-5.498166666666667,-5.498166666666667,-0.5840000000000001,-0.372,0.011777777777777887,-0.16899999999999993,68.84700000000001,0.0053,-0.222,-0.11399999999999988,100.0,1.0,1.0,212.2733333333333,0.0,0.0,0.0,0.0,0.0,0.0,0.0,8997.5,0.0,55.0,5.0,247.82,0.0,0.0,0.0,0.0,0.0,0.0,0.0,0.0,1.2059999999999995,1.2059999999999995,0.0,0.0,0.0,55.0,616.79921,10000.0,85.000001,85.000001,85.000001,85.000001,395.0,0.0,0.0,0.0,1.0,166.665,52.765,52.765,47.379,47.379,34.0,-23.2075,23.310000000000002,-29.413333333333334,29.1425,0.0,1781.587,-0.23000000000000043,100.0,28.025,27.968,43.296,43.485,0.0,0.0,100.0,0.0,0.0,0.0,0.0,3041.4285714285716,2975.2,4223.0,4153.0,305.6935,305.265,314.59225,314.57575,21.9729,20.6388,22.0515,21.5368,314.999998,314.999998,324.999988,324.999988,99.55758571428571,99.5074,99.5701,99.54901428571429,0.07799999999999985,-0.052000000000000046,-0.11339999999999995,0.12240000000000006,-0.036666666666668846,-0.04333333333332945,1.5185,1.529,38.331,29.992333333333335,38.822,35.6045,55.461,35.3365,60.4235,53.185,53.439,34.478,58.9835,51.493,52.617000000000004,34.04566666666666,58.887,50.900999999999996,-0.09199999999999997,-0.05799999999999983,0.11332500000000001,0.11451000000000001,0.0,215.525,215.54000000000002,212.2733333333333,212.2733333333333,0.0,0.0
25,0.0,0.0,0.0,1.0,1.0,0.0,0.0,1.0,0.0,100.0,1.0,1.1856,26.0,0.0,0.0,0.0,52.999997,0.0,26.0,26.0,26.0,26.0,0.018777777777777782,0.2672000000000001,-0.030233333333333334,292.313,-2.7489,-2.6458,-1.5712000000000002,-1.5388000000000002,-191.62,215.5125,190.457875,0.0,0.0,0.0,0.0,0.050466666666666674,-5.498166666666667,-5.498166666666667,-0.6043000000000001,-0.08333333333333333,0.01966666666666672,-0.836,68.97200000000001,0.0064,-0.221025,-0.1200000000000001,100.0,1.0,1.0,212.74333333333334,0.0,0.0,0.0,0.0,0.0,0.0,0.0,9017.4,0.0,55.0,5.0,248.26999999999998,1.0,0.0,0.0,0.0,0.0,0.0,0.0,0.0,1.2540000000000013,1.2540000000000013,0.0,0.0,1.0,55.0,616.79921,10000.0,85.000001,85.000001,85.000001,85.000001,395.0,0.0,0.0,0.0,1.0,166.665,51.987,51.987,47.852000000000004,47.852000000000004,34.0,-25.912499999999998,25.866,-27.596666666666664,28.425,0.0,1781.538,-0.259999999999998,100.0,27.86,28.097,43.084,43.297,0.0,0.0,100.0,0.0,0.0,0.0,0.0,3304.714285714286,3239.2,4015.0,4093.5,305.028,304.4483333333333,315.16375,314.7355,21.9816,20.6441,22.0613,21.5454,314.999998,314.999998,324.999988,324.999988,99.5576,99.5074,99.57024285714286,99.54915714285714,0.0807500000000001,-0.04299999999999993,-0.10699999999999998,0.11919999999999997,-0.05833333333333002,-0.054999999999999716,1.5535,1.538,38.385,30.025333333333336,38.882999999999996,35.658500000000004,55.449,35.3735,60.454499999999996,53.2395,53.428,34.5115,59.0125,51.545500000000004,52.605000000000004,34.07833333333333,58.913,50.9525,-0.09799999999999998,-0.05549999999999988,0.10083500000000001,0.10698,0.0,215.91500000000002,215.92000000000002,212.74333333333334,212.74333333333334,0.0,0.0
26,0.0,0.0,0.0,1.0,1.0,0.0,0.0,1.0,0.0,100.0,1.0,1.1856,26.0,0.0,0.0,0.0,52.999997,0.0,26.0,26.0,26.0,26.0,0.005777777777777882,0.2741,0.08193333333333334,291.321,-2.67525,-2.7304,-1.6126,-1.5421,-188.1,215.5075,190.432125,0.0,0.0,0.0,0.0,0.052500000000000005,-5.498166666666667,-5.498166666666667,-0.5748,0.555,0.00822222222222213,0.6719999999999999,69.108,0.0056,-0.20072500000000001,-0.21999999999999975,100.0,1.0,1.0,212.94333333333333,0.0,0.0,0.0,0.0,0.0,0.0,0.0,9025.9,0.0,55.0,5.0,248.76,0.0,0.0,0.0,0.0,0.0,0.0,0.0,0.0,1.3049999999999997,1.3049999999999997,0.0,0.0,0.0,55.0,616.79921,10000.0,85.000001,85.000001,85.000001,85.000001,395.0,0.0,0.0,0.0,1.0,333.33500000000004,51.605000000000004,51.605000000000004,46.494,46.494,34.0,-23.22,25.814,-32.29666666666667,33.0775,0.0,1781.486,-0.33500000000000085,100.0,28.858,28.579,43.553,43.618,0.0,0.0,100.0,0.0,0.0,0.0,0.0,3140.714285714286,3144.2,4509.0,4532.3,305.218,304.807,313.952,313.72325,21.9911,20.6499,22.0719,21.5547,314.999998,314.999998,324.999988,324.999988,99.55761428571428,99.5074,99.5704,99.54931428571429,0.10050000000000026,-0.03966666666666674,-0.09520000000000006,0.12640000000000007,-0.03333333333333144,-0.051666666666669414,1.4415,1.425,38.444,30.061666666666667,38.949,35.716499999999996,55.44,35.414500000000004,60.4915,53.3015,53.419,34.5495,59.047,51.605000000000004,52.595,34.114333333333335,58.944,51.0105,-0.10599999999999998,-0.05449999999999999,0.10558000000000001,0.10610000000000001,0.0,216.365,216.38,212.94333333333333,212.94333333333333,0.0,0.0
27,0.0,0.0,0.0,1.0,1.0,0.0,0.0,1.0,0.0,100.0,1.0,1.1856,26.0,0.0,0.0,0.0,52.999997,0.0,26.0,26.0,26.0,26.0,0.017555555555555546,0.264,-0.0292,291.779,-2.692,-2.6692,-1.5769000000000002,-1.6215000000000002,-184.78,215.5025,190.409,0.0,0.0,0.0,0.0,0.05443333333333334,-5.498166666666667,-5.498166666666667,-0.5943,-0.9233333333333333,0.011222222222222022,0.786,69.232,0.0088,-0.2378,-0.26200000000000045,100.0,1.0,1.0,213.43,0.0,0.0,0.0,0.0,0.0,0.0,0.0,9046.5,0.0,55.0,5.0,249.21,1.0,0.0,0.0,0.0,0.0,0.0,0.0,0.0,1.352999999999998,1.352999999999998,0.0,0.0,1.0,55.0,616.79921,10000.0,85.000001,85.000001,85.000001,85.000001,395.0,0.0,0.0,0.0,1.0,333.33500000000004,51.956,51.956,46.677,46.677,34.0,-21.9975,25.772,-28.269999999999996,30.447499999999998,0.0,1781.438,-0.3049999999999997,100.0,28.575,28.459,44.108000000000004,44.120000000000005,0.0,0.0,100.0,0.0,0.0,0.0,0.0,2997.285714285714,3205.7,4114.625,4107.7,305.6555,304.70866666666666,314.814,314.66225,21.9998,20.6552,22.082,21.5635,314.999998,314.999998,324.999988,324.999988,99.55762857142857,99.50741666666667,99.57052857142857,99.54944285714285,0.10400000000000009,-0.03866666666666663,-0.09479999999999988,0.12959999999999994,-0.04333333333332945,-0.06833333333332803,1.501,1.4935,38.498999999999995,30.094666666666665,39.012,35.772,55.429,35.451,60.527,53.359,53.408,34.5835,59.08,51.6605,52.583,34.14666666666667,58.974000000000004,51.0645,-0.10699999999999998,-0.05799999999999983,0.10327000000000001,0.11223000000000001,0.0,216.7,216.72,213.43,213.43,0.0,0.0
28,0.0,0.0,0.0,1.0,1.0,0.0,0.0,1.0,0.0,100.0,1.0,1.1856,26.0,0.0,0.0,0.0,52.999997,0.0,26.0,26.0,26.0,26.0,0.02066666666666661,0.2642,-0.0425,291.977,-2.6791,-2.6599,-1.6245,-1.5683,-181.03,215.5,190.382125,0.0,0.0,0.0,0.0,0.05663333333333334,-5.498166666666667,-5.498166666666667,-0.6025,0.5956666666666667,0.0043333333333333,0.52,69.369,0.01,-0.217,-0.26399999999999935,100.0,1.0,1.0,213.96666666666667,0.0,0.0,0.0,0.0,0.0,0.0,0.0,9069.2,0.0,55.0,5.0,249.70333333333335,0.0,0.0,0.0,0.0,0.0,0.0,0.0,0.0,1.407,1.407,0.0,0.0,0.0,55.0,616.79921,10000.0,85.000001,85.000001,85.000001,85.000001,395.0,0.0,0.0,0.0,1.0,166.665,51.834,51.834,47.455,47.455,34.0,-22.395,25.764000000000003,-28.523333333333333,30.4075,0.0,1781.386,-0.35999999999999943,100.0,28.612000000000002,28.426000000000002,43.462,43.655,0.0,0.0,100.0,0.0,0.0,0.0,0.0,3073.285714285714,3198.0,4106.5,4155.8,305.417,304.7146666666667,315.0155,314.6505,22.0096,20.6612,22.0929,21.5732,314.999998,314.999998,324.999988,324.999988,99.55764285714285,99.50741666666667,99.57068571428572,99.5496,0.10749999999999993,-0.03600000000000003,-0.09760000000000002,0.14100000000000001,-0.02499999999999858,-0.07333333333333059,1.556,1.535,38.56,30.132666666666665,39.081,35.832,55.418,35.493,60.5605,53.4195,53.397999999999996,34.622,59.1115,51.719,52.571,34.18366666666667,59.001999999999995,51.1215,-0.10799999999999998,-0.05600000000000005,0.10694500000000001,0.111725,0.0,217.16,217.19,213.96666666666667,213.96666666666667,0.0,0.0
29,0.0,0.0,0.0,1.0,1.0,0.0,0.0,1.0,0.0,100.0,1.0,1.1856,26.0,0.0,0.0,0.0,52.999997,0.0,26.0,26.0,26.0,26.0,0.03111111111111109,0.2641,-0.0076,291.748,-2.6593999999999998,-2.7204,-1.57,-1.5493999999999999,-177.7,215.495,190.357375,0.0,0.0,0.0,0.0,0.05856666666666666,-5.498166666666667,-5.498166666666667,-0.6031000000000001,-0.6283333333333334,0.0015555555555555323,0.8220000000000001,69.49600000000001,0.0114,-0.21395,-0.33200000000000074,100.0,1.0,1.0,214.17666666666668,0.0,0.0,0.0,0.0,0.0,0.0,0.0,9078.2,0.0,55.0,5.0,250.16,1.0,0.0,0.0,0.0,0.0,0.0,0.0,0.0,1.4549999999999983,1.4549999999999983,0.0,0.0,1.0,55.0,616.79921,10000.0,85.000001,85.000001,85.000001,85.000001,395.0,0.0,0.0,0.0,1.0,166.665,52.216,52.216,46.616,46.616,34.0,-21.575,25.823999999999998,-28.729999999999997,31.485,0.0,1781.336,-0.3999999999999986,100.0,28.31,28.27,43.877,43.945,0.0,0.0,100.0,0.0,0.0,0.0,0.0,3009.0,3148.1,4209.25,4349.7,305.6395,304.8313333333333,314.5565,314.158,22.0183,20.6665,22.103,21.582,314.999998,314.999998,324.999988,324.999988,99.55764285714285,99.50743333333334,99.57082857142858,99.54974285714286,0.10899999999999999,-0.03766666666666674,-0.08760000000000001,0.12680000000000002,-0.045000000000001705,-0.05333333333332746,1.4775,1.4565,38.614000000000004,30.165666666666667,39.144,35.8875,55.407,35.5285,60.596000000000004,53.4775,53.387,34.655,59.144,51.7745,52.559,34.215333333333334,59.0315,51.176,-0.11299999999999999,-0.05449999999999999,0.10623,0.103605,0.0,217.53,217.535,214.17666666666668,214.17666666666668,0.0,0.0
30,0.0,0.0,0.0,1.0,1.0,0.0,0.0,1.0,0.0,100.0,1.0,1.1856,26.0,0.0,0.0,0.0,52.999997,0.0,26.0,26.0,26.0,26.0,0.037555555555555786,0.25060000000000016,0.04053333333333333,291.199,-2.71805,-2.6025,-1.5459,-1.6038999999999999,-174.36,215.4925,190.332375,0.0,0.0,0.0,0.0,0.060500000000000005,-5.498166666666667,-5.498166666666667,-0.6093000000000001,0.6786666666666666,0.0015555555555555323,0.5210000000000001,69.617,0.0154,-0.22187500000000002,-0.35999999999999943,100.0,1.0,1.0,214.68333333333334,0.0,0.0,0.0,0.0,0.0,0.0,0.0,9099.6,0.0,55.0,5.0,250.59666666666666,0.0,0.0,0.0,0.0,0.0,0.0,1.0,0.0,1.5030000000000001,1.5030000000000001,0.0,0.0,0.0,55.0,616.79921,10000.0,85.000001,85.000001,85.000001,85.000001,395.0,0.0,0.0,0.0,1.0,333.33500000000004,50.491,50.491,47.302,47.302,34.0,-25.56,27.444,-27.22,30.995,0.0,1781.287,-0.375,100.0,29.093,28.938,43.621,43.925,0.0,0.0,100.0,0.0,0.0,0.0,0.0,3379.285714285714,3388.7,4057.375,4153.9,304.5165,303.92266666666666,315.0345,314.578,22.0272,20.672,22.1128,21.5907,314.999998,314.999998,324.999988,324.999988,99.55765714285714,99.50743333333334,99.57097142857143,99.54988571428571,0.10424999999999995,-0.03166666666666673,-0.09499999999999997,0.13759999999999994,-0.046666666666666856,-0.04999999999999716,1.5185,1.498,38.67,30.200333333333333,39.205,35.9415,55.399,35.568,60.626999999999995,53.533,53.379000000000005,34.691,59.173,51.8275,52.551,34.24966666666667,59.0575,51.228,-0.11249999999999993,-0.04999999999999982,0.11049500000000001,0.10638500000000001,0.0,217.91500000000002,217.945,214.68333333333334,214.68333333333334,0.0,0.0
31,0.0,0.0,0.0,1.0,1.0,0.0,0.0,1.0,0.0,100.0,1.0,1.1856,26.0,0.0,0.0,0.0,52.999997,0.0,26.0,26.0,26.0,26.0,0.021444444444444377,0.2613000000000001,0.06023333333333334,290.787,-2.76595,-2.6281,-1.6396000000000002,-1.5003000000000002,-170.81,215.4925,190.3065,0.0,0.0,0.0,0.0,0.06256666666666666,-5.498166666666667,-5.498166666666667,-0.5875,-0.3843333333333333,0.0067777777777777715,-0.735,69.751,0.022600000000000002,-0.21857500000000002,-0.2920000000000007,100.0,1.0,1.0,214.87,0.0,0.0,0.0,0.0,0.0,0.0,0.0,9107.5,0.0,55.0,5.0,251.07666666666665,1.0,0.0,0.0,0.0,0.0,0.0,1.0,0.0,1.5539999999999985,1.5539999999999985,0.0,0.0,1.0,55.0,616.79921,10000.0,85.000001,85.000001,85.000001,85.000001,395.0,0.0,0.0,0.0,1.0,166.665,51.224000000000004,51.224000000000004,45.578,45.578,34.0,-24.11,25.716,-31.880000000000003,31.32,0.0,1781.238,-0.384999999999998,100.0,28.875,29.203,44.332,44.743,0.0,0.0,100.0,0.0,0.0,0.0,0.0,3214.285714285714,3219.5,4422.5,4380.2,305.3165,304.56733333333335,314.115,313.917,22.0365,20.6778,22.1236,21.6002,314.999998,314.999998,324.999988,324.999988,99.55767142857142,99.50743333333334,99.57111428571429,99.55002857142857,0.10650000000000004,-0.03733333333333322,-0.09099999999999997,0.12480000000000002,-0.03499999999999659,-0.021666666666668277,1.428,1.422,38.727999999999994,30.236333333333334,39.272,36.001,55.39,35.608000000000004,60.666,53.596000000000004,53.370000000000005,34.728,59.209,51.8885,52.54,34.285,59.09,51.287,-0.11149999999999993,-0.05650000000000022,0.107645,0.10569500000000001,0.0,218.315,218.32,214.87,214.87,0.0,0.0
32,0.0,0.0,0.0,1.0,1.0,0.0,0.0,1.0,0.0,100.0,1.0,1.1856,26.0,0.0,0.0,0.0,52.999997,0.0,26.0,26.0,26.0,26.0,0.043888888888888866,0.26370000000000005,-0.015833333333333335,291.29,-2.6985,-2.6834,-1.5844,-1.5511,-167.04,215.49,190.2795,0.0,0.0,0.0,0.0,0.06476666666666667,-5.498166666666667,-5.498166666666667,-0.6067,-0.259,-0.010222222222222133,-1.001,69.886,0.0281,-0.23195000000000002,-0.3620000000000001,100.0,1.0,1.0,215.43,0.0,0.0,0.0,0.0,0.0,0.0,0.0,9131.3,0.0,55.0,5.0,251.56333333333333,0.0,0.0,0.0,0.0,0.0,0.0,1.0,0.0,1.6080000000000005,1.6080000000000005,0.0,0.0,0.0,55.0,616.79921,10000.0,85.000001,85.000001,85.000001,85.000001,395.0,0.0,0.0,0.0,1.0,166.665,51.513999999999996,51.513999999999996,46.555,46.555,34.0,-23.1175,25.23,-28.35333333333333,31.1525,0.0,1781.185,-0.34499999999999886,100.0,28.733,29.076,44.172,44.6,0.0,0.0,100.0,0.0,0.0,0.0,0.0,3184.5714285714284,3096.0,4156.125,4301.5,305.295,304.8516666666667,314.79075,314.28425,22.0462,20.684,22.1347,21.61,314.999998,314.999998,324.999988,324.999988,99.5577,99.50745,99.57127142857144,99.5502,0.11175000000000024,-0.036666666666666625,-0.08879999999999999,0.13059999999999983,-0.04833333333333201,-0.06833333333332803,1.4975,1.492,38.789,30.27466666666667,39.342,36.0625,55.379000000000005,35.65,60.701499999999996,53.658,53.36,34.766999999999996,59.2425,51.948499999999996,52.528999999999996,34.32233333333333,59.12,51.3455,-0.11099999999999999,-0.0535000000000001,0.105285,0.10143,0.0,218.73000000000002,218.765,215.43,215.43,0.0,0.0
33,0.0,0.0,0.0,1.0,1.0,0.0,0.0,1.0,0.0,100.0,1.0,1.1856,26.0,0.0,0.0,0.0,52.999997,0.0,26.0,26.0,26.0,26.0,0.04922222222222228,0.25760000000000005,-0.04973333333333333,291.595,-2.7264,-2.677,-1.5893000000000002,-1.5887,-163.68,215.49,190.2545,0.0,0.0,0.0,0.0,0.06670000000000001,-5.498166666666667,-5.498166666666667,-0.6158,-0.24566666666666667,-0.011222222222222022,-0.17399999999999993,70.007,0.027800000000000002,-0.21785000000000002,-0.2860000000000005,100.0,1.0,1.0,215.81333333333333,0.0,0.0,0.0,0.0,0.0,0.0,0.0,9147.6,0.0,55.0,5.0,251.99666666666667,1.0,0.0,0.0,0.0,0.0,0.0,1.0,0.0,1.6559999999999988,1.6559999999999988,0.0,0.0,1.0,55.0,616.79921,10000.0,85.000001,85.000001,85.000001,85.000001,395.0,0.0,0.0,0.0,1.0,166.665,51.834,51.834,46.906,46.906,34.0,-23.16,24.762,-27.936666666666667,31.0475,0.0,1781.135,-0.375,100.0,28.598,28.818,43.95,44.396,0.0,0.0,100.0,0.0,0.0,0.0,0.0,3171.5714285714284,3030.1,4160.875,4176.3,305.394,305.074,314.8285,314.55325,22.0548,20.6893,22.1445,21.6187,314.999998,314.999998,324.999988,324.999988,99.55771428571428,99.50745,99.57141428571428,99.55034285714285,0.11275000000000013,-0.030999999999999917,-0.08279999999999998,0.1402000000000001,-0.036666666666668846,-0.04999999999999716,1.5339999999999998,1.5115,38.843,30.308,39.403,36.117,55.369,35.685,60.733000000000004,53.713,53.349999999999994,34.7995,59.2715,52.001,52.518,34.35333333333333,59.146,51.397,-0.11199999999999999,-0.0535000000000001,0.10203500000000001,0.110755,0.0,219.10500000000002,219.125,215.81333333333333,215.81333333333333,0.0,0.0
34,0.0,0.0,0.0,1.0,1.0,0.0,0.0,1.0,0.0,100.0,1.0,1.1856,26.0,0.0,0.0,0.0,52.999997,0.0,26.0,26.0,26.0,26.0,0.04800000000000004,0.26070000000000015,-0.0478,291.794,-2.67165,-2.672,-1.6255000000000002,-1.5533000000000001,-160.32,215.4925,190.228125,0.0,0.0,0.0,0.0,0.06866666666666667,-5.498166666666667,-5.498166666666667,-0.6397,-0.8153333333333334,0.012444444444444258,-0.26,70.128,0.027200000000000002,-0.2218,-0.266,100.0,1.0,1.0,216.16,0.0,0.0,0.0,0.0,0.0,0.0,0.0,9162.3,0.0,55.0,5.0,252.43666666666667,0.0,0.0,0.0,0.0,0.0,0.0,1.0,0.0,1.7040000000000006,1.7040000000000006,0.0,0.0,0.0,55.0,616.79921,10000.0,85.000001,85.000001,85.000001,85.000001,395.0,0.0,0.0,0.0,1.0,333.33500000000004,52.260999999999996,52.260999999999996,47.134,47.134,34.0,-21.8675,24.482,-28.93,30.2325,0.0,1781.087,-0.36499999999999844,100.0,28.323,28.506,43.795,44.482,0.0,0.0,100.0,0.0,0.0,0.0,0.0,3071.0,2986.5,4157.0,4184.5,305.589,305.14566666666667,314.8525,314.48675,22.063299999999998,20.6945,22.1544,21.6275,314.999998,314.999998,324.999988,324.999988,99.55772857142857,99.50745,99.57155714285715,99.55047142857143,0.11399999999999988,-0.028666666666666618,-0.09060000000000001,0.13119999999999998,-0.051666666666669414,-0.03499999999999659,1.504,1.5135,38.896,30.341,39.465,36.172,55.358000000000004,35.7195,60.7645,53.7695,53.34,34.831,59.3005,52.0555,52.507,34.38366666666667,59.1715,51.45,-0.11249999999999993,-0.05149999999999988,0.104395,0.09998000000000001,0.0,219.48000000000002,219.485,216.16,216.16,0.0,0.0
35,0.0,0.0,0.0,1.0,1.0,0.0,0.0,1.0,0.0,100.0,1.0,1.1856,26.0,0.0,0.0,0.0,52.999997,0.0,26.0,26.0,26.0,26.0,0.04044444444444428,0.25150000000000006,-0.10116666666666667,291.809,-2.7235,-2.618,-1.5406,-1.5819,-156.74,215.4925,190.198375,0.0,0.0,0.0,0.0,0.07073333333333334,-5.498166666666667,-5.498166666666667,-0.6796,-0.295,-0.0024444444444444713,-0.14100000000000001,70.255,0.030100000000000002,-0.2298,-0.3959999999999999,100.0,1.0,1.0,216.64,0.0,0.0,0.0,0.0,0.0,0.0,0.0,9182.6,0.0,55.0,5.0,252.89333333333335,1.0,0.0,0.0,0.0,0.0,0.0,1.0,0.0,1.754999999999999,1.754999999999999,0.0,0.0,1.0,55.0,616.79921,10000.0,85.000001,85.000001,85.000001,85.000001,395.0,0.0,0.0,0.0,1.0,333.33500000000004,51.727000000000004,51.727000000000004,46.829,46.829,34.0,-22.5425,27.554000000000002,-26.17,29.735,0.0,1781.036,-0.21999999999999886,100.0,28.265,28.623,43.672,43.941,0.0,0.0,100.0,0.0,0.0,0.0,0.0,3071.4285714285716,3382.6,4086.125,4018.9,305.5045,304.1596666666667,315.0125,315.04175,22.0722,20.7004,22.1648,21.6367,314.999998,314.999998,324.999988,324.999988,99.55772857142857,99.50745,99.5717,99.55062857142858,0.1120000000000001,-0.026000000000000023,-0.0746,0.14959999999999996,-0.04333333333332945,-0.04999999999999716,1.5550000000000002,1.5425,38.952,30.377333333333333,39.53,36.2295,55.345,35.759,60.7965,53.8255,53.327,34.8675,59.3305,52.1095,52.492999999999995,34.41866666666667,59.198499999999996,51.5025,-0.09599999999999997,-0.06000000000000005,0.10553000000000001,0.10437500000000001,0.0,219.865,219.885,216.64,216.64,0.0,0.0
36,0.0,0.0,0.0,1.0,1.0,0.0,0.0,1.0,0.0,100.0,1.0,1.1856,26.0,0.0,0.0,0.0,52.999997,0.0,26.0,26.0,26.0,26.0,0.030444444444444274,0.2550000000000001,0.04293333333333333,291.016,-2.64515,-2.663,-1.5697999999999999,-1.5556,-153.35999999999999,215.4975,190.168875,0.0,0.0,0.0,0.0,0.0727,-5.498166666666667,-5.498166666666667,-0.663,0.2573333333333333,-0.04355555555555579,0.27100000000000013,70.377,0.0258,-0.20172500000000002,-0.09399999999999942,100.0,1.0,1.0,216.82,0.0,0.0,0.0,0.0,0.0,0.0,0.0,9190.2,0.0,55.0,5.0,253.32999999999998,0.0,0.0,0.0,0.0,0.0,0.0,1.0,0.0,1.8030000000000008,1.8030000000000008,0.0,0.0,0.0,55.0,616.79921,10000.0,85.000001,85.000001,85.000001,85.000001,395.0,0.0,0.0,0.0,1.0,166.665,51.346000000000004,51.346000000000004,46.463,46.463,34.0,-22.645,26.256,-28.956666666666663,34.42,0.0,1780.989,-0.14999999999999858,100.0,28.94,28.789,43.874,44.122,0.0,0.0,100.0,0.0,0.0,0.0,0.0,3127.0,3225.2,4364.5,4506.8,305.1175,304.6856666666667,314.2775,313.8335,22.0809,20.7059,22.1747,21.6455,314.999998,314.999998,324.999988,324.999988,99.55775714285714,99.50746666666667,99.57184285714285,99.55077142857142,0.10924999999999985,-0.030333333333333323,-0.06879999999999997,0.15100000000000002,-0.046666666666666856,-0.04833333333333201,1.4579999999999997,1.435,39.006,30.412,39.592,36.284,55.336,35.797,60.829,53.8815,53.318,34.9025,59.361,52.1635,52.483000000000004,34.452,59.2255,51.5555,-0.08850000000000002,-0.07100000000000017,0.09688500000000001,0.11332,0.0,220.285,220.29500000000002,216.82,216.82,0.0,0.0
