,ABS Active,ABS Enabled,AID Allow Tire Blankets,AID Auto Blip,AID Auto Clutch,AID Auto Shift,AID Fuel Rate,AID Ideal Line,AID Mech Damage,AID Stability,AID Tire Wear Rate,Air Density,Air Temp,Ballast,Best Lap Delta,Best Lap Time,Brake Bias,Brake Pos,Brake Temp FL,Brake Temp FR,Brake Temp RL,Brake Temp RR,CG Accel Lateral,CG Accel Longitudinal,CG Accel Vertical,CG Height,Camber FL,Camber FR,Camber RL,Camber RR,Car Coord X,Car Coord Y,Car Coord Z,Car Damage Front,Car Damage Left,Car Damage Rear,Car Damage Right,Car Pos Norm,Caster FL,Caster FR,Chassis Pitch Angle,Chassis Pitch Rate,Chassis Roll Angle,Chassis Roll Rate,Chassis Velocity X,Chassis Velocity Y,Chassis Velocity Z,Chassis Yaw Rate,Clutch Pos,DRS Active,DRS Available,Drive Train Speed,ERS Heat Charging,ERS Is Charging,ERS Max Energy,ERS Power Level,ERS Recovery Level,Engine Brake Setting,Engine Limiter,Engine RPM,Flags,Fuel Level,Gear,Ground Speed,HR Sample Clock,In Pit,KERS Charge,KERS Deployed Energy,KERS Input,KERS Max Energy,LR Sample Clock,Lap Invalidated,Lap Time,Lap Time2,Last Lap Time,Last Sector Time,MR Sample Clock,Max Fuel,Max Power,Max RPM,Max Sus Travel FL,Max Sus Travel FR,Max Sus Travel RL,Max Sus Travel RR,Max Torque,Max Turbo Boost,Num Tires Off Track,Penalties Enabled,Position,Raw Data Sample Rate,Ride Height FL,Ride Height FR,Ride Height RL,Ride Height RR,Road Temp,Self Align Torque FL,Self Align Torque FR,Self Align Torque RL,Self Align Torque RR,Session Lap Count,Session Time Left,Steering Angle,Surface Grip,Suspension Travel FL,Suspension Travel FR,Suspension Travel RL,Suspension Travel RR,TC Active,TC Enabled,Throttle Pos,Tire Dirt Level FL,Tire Dirt Level FR,Tire Dirt Level RL,Tire Dirt Level RR,Tire Load FL,Tire Load FR,Tire Load RL,Tire Load RR,Tire Loaded Radius FL,Tire Loaded Radius FR,Tire Loaded Radius RL,Tire Loaded Radius RR,Tire Pressure FL,Tire Pressure FR,Tire Pressure RL,Tire Pressure RR,Tire Radius FL,Tire Radius FR,Tire Radius RL,Tire Radius RR,Tire Rubber Grip FL,Tire Rubber Grip FR,Tire Rubber Grip RL,Tire Rubber Grip RR,Tire Slip Angle FL,Tire Slip Angle FR,Tire Slip Angle RL,Tire Slip Angle RR,Tire Slip Ratio FL,Tire Slip Ratio FR,Tire Slip Ratio RL,Tire Slip Ratio RR,Tire Temp Core FL,Tire Temp Core FR,Tire Temp Core RL,Tire Temp Core RR,Tire Temp Inner FL,Tire Temp Inner FR,Tire Temp Inner RL,Tire Temp Inner RR,Tire Temp Middle FL,Tire Temp Middle FR,Tire Temp Middle RL,Tire Temp Middle RR,Tire Temp Outer FL,Tire Temp Outer FR,Tire Temp Outer RL,Tire Temp Outer RR,Toe In FL,Toe In FR,Toe In RL,Toe In RR,Turbo Boost,Wheel Angular Speed FL,Wheel Angular Speed FR,Wheel Angular Speed RL,Wheel Angular Speed RR,Wind Direction,Wind Speed
0,0.0,0.0,0.0,1.0,1.0,0.0,0.0,1.0,0.0,100.0,1.0,1.1856,26.0,0.0,0.0,0.0,52.99999,0.0,26.0,26.0,26.0,26.0,-0.072125,0.29900000000000015,0.07350000000000001,294.006,-2.7211,-2.6553750000000003,-1.5178,-1.5578,-275.56,216.29500000000002,190.986875,0.0,0.0,0.0,0.0,0.0016666666666666668,-5.498166666666667,-5.498166666666667,-0.5461,1.2570000000000001,-0.007000000000000117,-0.5550000000000002,65.468,-0.028900000000000002,-0.21180000000000002,0.9580000000000002,100.0,1.0,1.0,202.12666666666667,0.0,0.0,0.0,0.0,0.0,0.0,0.0,8567.4,0.0,55.0,5.0,235.65333333333334,0.0,0.0,0.0,0.0,0.0,0.0,0.0,0.0,0.006000000000000227,0.006000000000000227,0.0,0.0,0.0,55.0,616.79921,10000.0,85.0,85.0,85.0,85.0,395.0,0.0,0.0,0.0,1.0,20.0,52.765,52.765,49.484,49.484,34.0,-26.072499999999998,23.752000000000002,-29.943333333333335,25.627499999999998,0.0,1783.204,0.9000000000000021,100.0,27.445,26.985,40.566,40.553,0.0,0.0,100.0,0.0,0.0,0.0,0.0,2992.4285714285716,3394.7,4125.875,3988.3,305.727,304.04833333333335,314.806,314.89925,21.7483,20.5123,21.7989,21.3208,314.99999,314.99999,324.99998,324.99998,99.55718571428571,99.50721666666666,99.56644285714286,99.54551428571429,0.002666666666666817,-0.11599999999999988,-0.14916666666666667,0.0805,-0.05666666666667197,-0.04333333333332945,1.5425,1.585,36.927,29.201999999999998,37.242999999999995,34.254999999999995,55.681,34.3905,59.458,51.695499999999996,53.659,33.607,58.0845,50.063,52.867999999999995,33.212666666666664,58.062,49.5005,-0.009000000000000008,-0.14300000000000024,0.10391,0.11362000000000001,0.0,205.185,205.09,202.12666666666667,202.12666666666667,0.0,0.0
1,0.0,0.0,0.0,1.0,1.0,0.0,0.0,1.0,0.0,100.0,1.0,1.1856,26.0,0.0,0.0,0.0,52.999997,0.0,26.0,26.0,26.0,26.0,-0.10424999999999995,0.30710000000000015,0.0318,293.03,-2.6375,-2.7662500000000003,-1.5241,-1.5057,-272.02,216.29000000000002,190.965625,0.0,0.0,0.0,0.0,0.0037333333333333337,-5.498166666666667,-5.498166666666667,-0.5022,-0.926,-0.053999999999999826,-0.20799999999999974,65.633,-0.0521,-0.207125,1.436,100.0,1.0,1.0,202.28333333333333,0.0,0.0,0.0,0.0,0.0,0.0,0.0,8574.1,0.0,55.0,5.0,236.24666666666667,1.0,0.0,0.0,0.0,0.0,0.0,0.0,0.0,0.05999999999999872,0.05999999999999872,0.0,0.0,1.0,55.0,616.79921,10000.0,85.000001,85.000001,85.000001,85.000001,395.0,0.0,0.0,0.0,1.0,166.665,53.497,53.497,48.416,48.416,34.0,-26.3475,18.875999999999998,-34.11333333333333,28.6675,0.0,1783.15,0.870000000000001,100.0,27.643,26.979,42.472,41.789,0.0,0.0,100.0,0.0,0.0,0.0,0.0,3048.5714285714284,2735.5,4353.75,4684.6,305.4585,306.13166666666666,314.146,313.0775,21.7587,20.5177,21.8104,21.3305,314.999998,314.999998,324.999988,324.999988,99.5572,99.50723333333333,99.5666,99.54567142857142,-0.0040000000000000036,-0.1283333333333332,-0.17033333333333334,0.044,-0.01999999999999602,-0.046666666666666856,1.383,1.4775,36.992000000000004,29.235666666666667,37.315,34.3155,55.665,34.4335,59.5045,51.7645,53.644,33.6465,58.1285,50.129,52.852000000000004,33.25066666666667,58.1025,49.5655,-0.007000000000000006,-0.13850000000000007,0.100345,0.11340000000000001,0.0,205.625,205.53,202.28333333333333,202.28333333333333,0.0,0.0
2,0.0,0.0,0.0,1.0,1.0,0.0,0.0,1.0,0.0,100.0,1.0,1.1856,26.0,0.0,0.0,0.0,52.999997,0.0,26.0,26.0,26.0,26.0,-0.14612499999999995,0.2965,-0.08226666666666667,293.823,-2.6095,-2.7875,-1.4929000000000001,-1.6005,-268.87,216.2825,190.948,0.0,0.0,0.0,0.0,0.005566666666666667,-5.498166666666667,-5.498166666666667,-0.5541,0.167,-0.040000000000000036,2.401,65.765,-0.07050000000000001,-0.25935,1.5500000000000007,100.0,1.0,1.0,203.22,0.0,0.0,0.0,0.0,0.0,0.0,0.0,8613.8,0.0,55.0,5.0,236.7266666666667,0.0,0.0,0.0,0.0,0.0,0.0,0.0,0.0,0.10800000000000054,0.10800000000000054,0.0,0.0,0.0,55.0,616.79921,10000.0,85.000001,85.000001,85.000001,85.000001,395.0,0.0,0.0,0.0,1.0,333.33500000000004,52.414,52.414,50.461,50.461,34.0,-29.372500000000002,20.428,-28.313333333333333,20.5025,0.0,1783.101,0.7899999999999991,100.0,28.357,26.941,42.288,41.227000000000004,0.0,0.0,100.0,0.0,0.0,0.0,0.0,3283.0,3012.4,3711.75,3682.7,304.657,305.315,315.74575,315.79075,21.7681,20.5224,21.8203,21.3386,314.999998,314.999998,324.999988,324.999988,99.5572,99.50725,99.56671428571428,99.54578571428571,-0.021333333333333204,-0.14866666666666672,-0.20933333333333334,0.019,-0.045000000000001705,-0.06333333333333258,1.6534999999999997,1.6925,37.051,29.265,37.376999999999995,34.3665,55.655,34.471000000000004,59.5385,51.8165,53.634,33.681,58.16,50.179,52.841,33.28366666666666,58.1315,49.614,-0.013499999999999956,-0.13949999999999996,0.10379500000000001,0.10973500000000001,0.0,206.055,205.935,203.22,203.22,0.0,0.0
3,0.0,0.0,0.0,1.0,1.0,0.0,0.0,1.0,0.0,100.0,1.0,1.1856,26.0,0.0,0.0,0.0,52.999997,0.0,26.0,26.0,26.0,26.0,-0.13024999999999998,0.3215000000000001,0.08836666666666666,293.564,-2.7278000000000002,-2.6956249999999997,-1.5076,-1.5906,-265.71,216.2725,190.9295,0.0,0.0,0.0,0.0,0.0074,-5.498166666666667,-5.498166666666667,-0.5105000000000001,0.3516666666666667,-0.010333333333333083,0.19100000000000028,65.91,-0.0844,-0.19885,1.200000000000001,100.0,1.0,1.0,203.32999999999998,0.0,0.0,0.0,0.0,0.0,0.0,0.0,8618.5,0.0,55.0,5.0,237.24333333333334,1.0,0.0,0.0,0.0,0.0,0.0,0.0,0.0,0.1559999999999988,0.1559999999999988,0.0,0.0,1.0,55.0,616.79921,10000.0,85.000001,85.000001,85.000001,85.000001,395.0,0.0,0.0,0.0,1.0,166.665,53.665,53.665,48.263999999999996,48.263999999999996,34.0,-25.43,18.634,-34.74666666666667,24.97,0.0,1783.054,0.6600000000000001,100.0,27.875,26.885,42.307,41.268,0.0,0.0,100.0,0.0,0.0,0.0,0.0,2840.0,2878.3,4301.5,4251.0,306.113,305.68733333333336,314.3085,314.33825,21.7773,20.5272,21.8302,21.347,314.999998,314.999998,324.999988,324.999988,99.5572,99.50726666666667,99.56685714285715,99.54592857142858,-0.016666666666666607,-0.14866666666666672,-0.20600000000000002,0.0205,-0.03333333333333144,-0.036666666666668846,1.4859999999999998,1.5539999999999998,37.108000000000004,29.295333333333332,37.439,34.419,55.641,34.5115,59.5745,51.875,53.620000000000005,33.718,58.1935,50.2345,52.826,33.318666666666665,58.1625,49.669,-0.026000000000000023,-0.1259999999999999,0.11101000000000001,0.10681,0.0,206.525,206.41500000000002,203.32999999999998,203.32999999999998,0.0,0.0
4,0.0,0.0,0.0,1.0,1.0,0.0,0.0,1.0,0.0,100.0,1.0,1.1856,26.0,0.0,0.0,0.0,52.999997,0.0,26.0,26.0,26.0,26.0,-0.13849999999999996,0.27560000000000007,-0.0076,293.701,-2.6657,-2.739375,-1.5291000000000001,-1.595,-262.34,216.2575,190.90975,0.0,0.0,0.0,0.0,0.009333333333333334,-5.498166666666667,-5.498166666666667,-0.5458000000000001,-0.7456666666666666,-0.07644444444444431,-1.685,66.056,-0.08560000000000001,-0.23717500000000002,1.202,100.0,1.0,1.0,203.92333333333335,0.0,0.0,0.0,0.0,0.0,0.0,0.0,8643.6,0.0,55.0,5.0,237.7733333333333,0.0,0.0,0.0,0.0,0.0,0.0,0.0,0.0,0.20700000000000074,0.20700000000000074,0.0,0.0,0.0,55.0,616.79921,10000.0,85.000001,85.000001,85.000001,85.000001,395.0,0.0,0.0,0.0,1.0,333.33500000000004,53.085,53.085,48.92,48.92,34.0,-29.7575,18.906,-32.67333333333333,21.165,0.0,1783.001,0.625,100.0,27.579,26.864,42.683,41.418,0.0,0.0,100.0,0.0,0.0,0.0,0.0,3290.0,2890.9,4088.0,3680.0,304.976,305.481,314.86325,315.656,21.7868,20.5323,21.8409,21.3559,314.999998,314.999998,324.999988,324.999988,99.55721428571428,99.50728333333333,99.567,99.54607142857142,-0.02733333333333321,-0.15766666666666662,-0.20716666666666667,0.02383333333333333,-0.060000000000002274,-0.04333333333332945,1.5484999999999998,1.5865,37.168,29.326999999999998,37.504999999999995,34.474000000000004,55.623999999999995,34.553,59.6155,51.9335,53.604,33.756,58.2315,50.2905,52.81,33.355000000000004,58.1975,49.7235,-0.02749999999999997,-0.1280000000000001,0.103165,0.11457500000000001,0.0,206.925,206.825,203.92333333333335,203.92333333333335,0.0,0.0
5,0.0,0.0,0.0,1.0,1.0,0.0,0.0,1.0,0.0,100.0,1.0,1.1856,26.0,0.0,0.0,0.0,52.999997,0.0,26.0,26.0,26.0,26.0,-0.12537500000000001,0.2994000000000001,0.005966666666666667,293.625,-2.6762,-2.762875,-1.5110999999999999,-1.5845,-258.77,216.2375,190.888125,0.0,0.0,0.0,0.0,0.011433333333333334,-5.498166666666667,-5.498166666666667,-0.5353,0.3473333333333333,-0.0813333333333337,-0.3719999999999999,66.212,-0.0889,-0.21355000000000002,1.064,100.0,1.0,1.0,204.32,0.0,0.0,0.0,0.0,0.0,0.0,0.0,8660.3,0.0,55.0,5.0,238.33333333333331,1.0,0.0,0.0,0.0,0.0,0.0,0.0,0.0,0.26099999999999923,0.26099999999999923,0.0,0.0,1.0,55.0,616.79921,10000.0,85.000001,85.000001,85.000001,85.000001,395.0,0.0,0.0,0.0,1.0,166.665,53.452,53.452,48.935,48.935,34.0,-28.549999999999997,18.812,-34.19,22.67,0.0,1782.947,0.1999999999999993,100.0,27.694,26.745,42.491,41.185,0.0,0.0,100.0,0.0,0.0,0.0,0.0,3213.857142857143,2771.9,4227.875,4063.3,305.164,305.898,314.60925,314.7315,21.7973,20.5377,21.852,21.365099999999998,314.999998,314.999998,324.999988,324.999988,99.55721428571428,99.5073,99.56715714285714,99.54621428571429,-0.013666666666666716,-0.14066666666666672,-0.2175,0.0021666666666666666,-0.054999999999999716,-0.04999999999999716,1.5455,1.56,37.233000000000004,29.360666666666667,37.575,34.532,55.611000000000004,34.596000000000004,59.6565,51.9945,53.592,33.796,58.269999999999996,50.349000000000004,52.796,33.393,58.233000000000004,49.781,-0.056499999999999995,-0.09549999999999992,0.10669500000000001,0.10979000000000001,0.0,207.45499999999998,207.35500000000002,204.32,204.32,0.0,0.0
6,0.0,0.0,0.0,1.0,1.0,0.0,0.0,1.0,0.0,100.0,1.0,1.1856,26.0,0.0,0.0,0.0,52.999997,0.0,26.0,26.0,26.0,26.0,-0.10812500000000003,0.29269999999999996,-0.006733333333333333,293.488,-2.6409,-2.793625,-1.5522,-1.5806,-255.59,216.2175,190.868875,0.0,0.0,0.0,0.0,0.013266666666666666,-5.498166666666667,-5.498166666666667,-0.5316000000000001,0.08866666666666667,-0.06433333333333335,-0.5089999999999999,66.349,-0.08360000000000001,-0.2155,0.75,100.0,1.0,1.0,204.76666666666665,0.0,0.0,0.0,0.0,0.0,0.0,0.0,8679.3,0.0,55.0,5.0,238.82999999999998,0.0,0.0,0.0,0.0,0.0,0.0,0.0,0.0,0.30900000000000105,0.30900000000000105,0.0,0.0,0.0,55.0,616.79921,10000.0,85.000001,85.000001,85.000001,85.000001,395.0,0.0,0.0,0.0,1.0,166.665,53.192,53.192,48.766999999999996,48.766999999999996,34.0,-27.2825,20.584,-33.21,22.855,0.0,1782.901,-0.02499999999999858,100.0,27.664,26.887,42.643,41.521,0.0,0.0,100.0,0.0,0.0,0.0,0.0,3195.5714285714284,2858.2,4131.625,3999.6000000000004,305.1715,305.524,314.83,314.891,21.8065,20.5425,21.862,21.3736,314.999998,314.999998,324.999988,324.999988,99.55721428571428,99.50731666666667,99.56728571428572,99.54634285714286,0.00533333333333319,-0.12233333333333318,-0.20383333333333334,0.014333333333333335,-0.06333333333333258,-0.04999999999999716,1.5335,1.548,37.29,29.391,37.637,34.585,55.598,34.634,59.693,52.052,53.579,33.831,58.304,50.403999999999996,52.783,33.42633333333333,58.263999999999996,49.8345,-0.07550000000000001,-0.0754999999999999,0.10620500000000001,0.10778000000000001,0.0,207.865,207.785,204.76666666666665,204.76666666666665,0.0,0.0
7,0.0,0.0,0.0,1.0,1.0,0.0,0.0,1.0,0.0,100.0,1.0,1.1856,26.0,0.0,0.0,0.0,52.999997,0.0,26.0,26.0,26.0,26.0,-0.07437499999999997,0.2894000000000001,0.0189,293.228,-2.6134,-2.728875,-1.5121,-1.6242,-252.4,216.195,190.849625,0.0,0.0,0.0,0.0,0.015133333333333335,-5.498166666666667,-5.498166666666667,-0.5353,-0.013666666666666666,-0.052777777777778034,-0.20599999999999996,66.487,-0.0666,-0.224675,0.40000000000000036,100.0,1.0,1.0,205.16,0.0,0.0,0.0,0.0,0.0,0.0,0.0,8695.9,0.0,55.0,5.0,239.32333333333332,1.0,0.0,0.0,0.0,0.0,0.0,0.0,0.0,0.3569999999999993,0.3569999999999993,0.0,0.0,1.0,55.0,616.79921,10000.0,85.000001,85.000001,85.000001,85.000001,395.0,0.0,0.0,0.0,1.0,166.665,52.795,52.795,48.874,48.874,34.0,-27.095,21.71,-31.496666666666666,24.84,0.0,1782.852,-0.17999999999999972,100.0,27.793,26.93,42.682,41.799,0.0,0.0,100.0,0.0,0.0,0.0,0.0,3299.0,2966.8,4095.375,4024.5,304.812,305.25466666666665,314.86875,314.762,21.8157,20.5474,21.8719,21.381999999999998,314.999998,314.999998,324.999988,324.999988,99.55722857142857,99.50731666666667,99.56742857142856,99.54647142857142,0.02833333333333332,-0.10133333333333328,-0.18483333333333335,0.03666666666666667,-0.036666666666668846,-0.04333333333332945,1.5295,1.549,37.348,29.421333333333333,37.7,34.638,55.585,34.6715,59.7295,52.109,53.567,33.865,58.338,50.459,52.769999999999996,33.459,58.295500000000004,49.888,-0.09299999999999997,-0.05900000000000016,0.10613500000000001,0.10883000000000001,0.0,208.265,208.21,205.16,205.16,0.0,0.0
8,0.0,0.0,0.0,1.0,1.0,0.0,0.0,1.0,0.0,100.0,1.0,1.1856,26.0,0.0,0.0,0.0,52.999997,0.0,26.0,26.0,26.0,26.0,-0.04049999999999998,0.28090000000000015,0.0347,293.488,-2.6939,-2.7190000000000003,-1.4984,-1.5759,-249.01,216.17000000000002,190.829,0.0,0.0,0.0,0.0,0.0171,-5.498166666666667,-5.498166666666667,-0.5363,-0.592,-0.03266666666666662,0.75,66.633,-0.047,-0.21482500000000002,-0.06799999999999962,100.0,1.0,1.0,205.54666666666668,0.0,0.0,0.0,0.0,0.0,0.0,0.0,8712.4,0.0,55.0,5.0,239.85000000000002,0.0,0.0,0.0,0.0,0.0,0.0,0.0,0.0,0.40800000000000125,0.40800000000000125,0.0,0.0,0.0,55.0,616.79921,10000.0,85.000001,85.000001,85.000001,85.000001,395.0,0.0,0.0,0.0,1.0,333.33500000000004,53.68,53.68,48.187,48.187,34.0,-23.265,22.924,-30.013333333333335,27.387500000000003,0.0,1782.8,-0.33999999999999986,100.0,27.497,26.739,42.772,41.838,0.0,0.0,100.0,0.0,0.0,0.0,0.0,2911.4285714285716,3004.3,4117.0,4159.9,305.9635,305.3376666666667,314.709,314.49475,21.8252,20.552599999999998,21.8825,21.391,314.999998,314.999998,324.999988,324.999988,99.55724285714285,99.50733333333334,99.56757142857143,99.54661428571428,0.04999999999999982,-0.07166666666666677,-0.15066666666666667,0.0765,-0.023333333333326323,-0.045000000000001705,1.5190000000000001,1.5034999999999998,37.408,29.453666666666663,37.766,34.694,55.57,34.71,59.7675,52.169,53.552,33.9005,58.3735,50.5165,52.754000000000005,33.492666666666665,58.328,49.9445,-0.10150000000000003,-0.04300000000000015,0.10896000000000002,0.11171500000000001,0.0,208.68,208.685,205.54666666666668,205.54666666666668,0.0,0.0
9,0.0,0.0,0.0,1.0,1.0,0.0,0.0,1.0,0.0,100.0,1.0,1.1856,26.0,0.0,0.0,0.0,52.999997,0.0,26.0,26.0,26.0,26.0,-0.029625000000000012,0.2881,0.0344,293.121,-2.6813,-2.7235,-1.552,-1.5567,-245.81,216.14499999999998,190.809125,0.0,0.0,0.0,0.0,0.018966666666666666,-5.498166666666667,-5.498166666666667,-0.543,0.645,-0.0341111111111112,0.8320000000000003,66.767,-0.0285,-0.21685000000000001,-0.1559999999999997,100.0,1.0,1.0,206.08666666666667,0.0,0.0,0.0,0.0,0.0,0.0,0.0,8735.2,0.0,55.0,5.0,240.33333333333331,1.0,0.0,0.0,0.0,0.0,0.0,0.0,0.0,0.4559999999999995,0.4559999999999995,0.0,0.0,1.0,55.0,616.79921,10000.0,85.000001,85.000001,85.000001,85.000001,395.0,0.0,0.0,0.0,1.0,166.665,52.383,52.383,49.194,49.194,34.0,-25.6525,24.71,-27.703333333333333,27.115000000000002,0.0,1782.754,-0.5150000000000006,100.0,28.0,27.213,42.42,41.856,0.0,0.0,100.0,0.0,0.0,0.0,0.0,3290.5714285714284,3102.3,3973.125,4078.1000000000004,304.7635,304.9626666666667,315.186,314.78875,21.8343,20.5576,21.8923,21.3994,314.999998,314.999998,324.999988,324.999988,99.55724285714285,99.50735,99.5677,99.54674285714286,0.07500000000000018,-0.05266666666666664,-0.12383333333333334,0.09616666666666668,-0.051666666666669414,-0.051666666666669414,1.5789999999999997,1.5635,37.465,29.485333333333333,37.827,34.746,55.559,34.747,59.8005,52.2245,53.542,33.9345,58.403999999999996,50.5695,52.742999999999995,33.525333333333336,58.356,49.996,-0.11599999999999999,-0.04249999999999998,0.09835,0.105925,0.0,209.125,209.125,206.08666666666667,206.08666666666667,0.0,0.0
10,0.0,0.0,0.0,1.0,1.0,0.0,0.0,1.0,0.0,100.0,1.0,1.1856,26.0,0.0,0.0,0.0,52.999997,0.0,26.0,26.0,26.0,26.0,0.006750000000000034,0.29110000000000014,-0.020666666666666667,292.984,-2.6616,-2.699,-1.5347,-1.5344,-242.4,216.1175,190.788375,0.0,0.0,0.0,0.0,0.020933333333333335,-5.498166666666667,-5.498166666666667,-0.5194,-0.446,0.0067777777777777715,0.3780000000000001,66.914,-0.007500000000000001,-0.20897500000000002,-0.4720000000000004,100.0,1.0,1.0,206.32,0.0,0.0,0.0,0.0,0.0,0.0,0.0,8745.2,0.0,55.0,5.0,240.86,0.0,0.0,0.0,0.0,0.0,0.0,1.0,0.0,0.5069999999999979,0.5069999999999979,0.0,0.0,0.0,55.0,616.79921,10000.0,85.000001,85.000001,85.000001,85.000001,395.0,0.0,0.0,0.0,1.0,166.665,53.467,53.467,47.653,47.653,34.0,-21.055,22.72,-30.296666666666663,29.42,0.0,1782.702,-0.5899999999999999,100.0,27.746,27.361,42.754,42.684,0.0,0.0,100.0,0.0,0.0,0.0,0.0,2869.0,2865.6,4319.375,4263.6,306.1305,305.56466666666665,314.311,314.189,21.843899999999998,20.5629,21.903,21.4086,314.999998,314.999998,324.999988,324.999988,99.55725714285714,99.50735,99.56784285714286,99.5469,0.08866666666666667,-0.046666666666666634,-0.11283333333333333,0.105,-0.04833333333333201,-0.02833333333332888,1.4845000000000002,1.4575,37.525,29.518,37.894,34.8035,55.547,34.784,59.8405,52.288,53.531,33.9685,58.441,50.6305,52.730999999999995,33.55766666666666,58.39,50.056,-0.128,-0.032500000000000195,0.10713500000000001,0.11036000000000001,0.0,209.555,209.56,206.32,206.32,0.0,0.0
11,0.0,0.0,0.0,1.0,1.0,0.0,0.0,1.0,0.0,100.0,1.0,1.1856,26.0,0.0,0.0,0.0,52.999997,0.0,26.0,26.0,26.0,26.0,0.03287499999999999,0.2650000000000001,-0.0666,293.533,-2.703,-2.687125,-1.5885,-1.5249000000000001,-238.98,216.09,190.76775,0.0,0.0,0.0,0.0,0.022600000000000002,-5.498166666666667,-5.498166666666667,-0.5640000000000001,-0.22266666666666665,0.03166666666666673,0.22999999999999998,67.053,0.0117,-0.23927500000000002,-0.6320000000000006,100.0,1.0,1.0,207.07333333333332,0.0,0.0,0.0,0.0,0.0,0.0,0.0,8777.1,0.0,55.0,5.0,241.36333333333334,1.0,0.0,0.0,0.0,0.0,0.0,1.0,0.0,0.5579999999999998,0.5579999999999998,0.0,0.0,1.0,55.0,616.79921,10000.0,85.000001,85.000001,85.000001,85.000001,395.0,0.0,0.0,0.0,1.0,166.665,52.75,52.75,49.347,49.347,34.0,-21.83,26.586,-23.773333333333333,26.817500000000003,0.0,1782.651,-0.5999999999999979,100.0,27.644,27.458,42.294,42.501,0.0,0.0,100.0,0.0,0.0,0.0,0.0,3002.0,3184.9,3686.0,3862.7,305.664,304.71733333333333,315.9145,315.27375,21.8533,20.5683,21.9134,21.4175,314.999998,314.999998,324.999988,324.999988,99.55725714285714,99.50735,99.56798571428571,99.54702857142857,0.10833333333333339,-0.01866666666666661,-0.08533333333333333,0.13783333333333334,-0.04333333333332945,-0.054999999999999716,1.634,1.6145,37.583,29.552,37.959,34.8595,55.534,34.822,59.873,52.3475,53.518,34.0035,58.4715,50.6875,52.717,33.59133333333333,58.417,50.112,-0.12449999999999994,-0.026000000000000245,0.10557000000000001,0.10133500000000001,0.0,209.965,209.995,207.07333333333332,207.07333333333332,0.0,0.0
12,0.0,0.0,0.0,1.0,1.0,0.0,0.0,1.0,0.0,100.0,1.0,1.1856,26.0,0.0,0.0,0.0,52.999997,0.0,26.0,26.0,26.0,26.0,0.05337499999999995,0.29000000000000004,0.043533333333333334,292.862,-2.7603,-2.678125,-1.5550000000000002,-1.5258,-235.56,216.065,190.745625,0.0,0.0,0.0,0.0,0.025466666666666665,-5.498166666666667,-5.498166666666667,-0.547,0.297,0.016222222222222138,-0.7879999999999998,67.19800000000001,0.027600000000000003,-0.20800000000000002,-0.6179999999999994,100.0,1.0,1.0,207.26999999999998,0.0,0.0,0.0,0.0,0.0,0.0,0.0,8785.4,0.0,55.0,5.0,241.88666666666666,0.0,0.0,0.0,0.0,0.0,0.0,1.0,0.0,0.6089999999999982,0.6089999999999982,0.0,0.0,0.0,55.0,616.79921,10000.0,85.000001,85.000001,85.000001,85.000001,395.0,0.0,0.0,0.0,1.0,166.665,52.658,52.658,47.897,47.897,34.0,-23.3725,25.6,-28.07,31.02,0.0,1782.599,-0.495000000000001,100.0,27.419,27.819,42.238,42.557,0.0,0.0,100.0,0.0,0.0,0.0,0.0,3140.857142857143,3110.1,4250.875,4183.3,305.4255,304.7986666666667,314.56725,314.445,21.8627,20.5738,21.9238,21.4265,314.999998,314.999998,324.999988,324.999988,99.55727142857143,99.50736666666667,99.56812857142857,99.54718571428572,0.1080000000000001,-0.027666666666666728,-0.082,0.15616666666666665,-0.04999999999999716,-0.05666666666667197,1.5234999999999999,1.509,37.641999999999996,29.586333333333336,38.024,34.9155,55.522999999999996,34.86,59.91,52.4075,53.507,34.039,58.506,50.7455,52.705,33.625,58.448499999999996,50.169,-0.119,-0.039000000000000146,0.106255,0.11573000000000001,0.0,210.435,210.49,207.26999999999998,207.26999999999998,0.0,0.0
13,0.0,0.0,0.0,1.0,1.0,0.0,0.0,1.0,0.0,100.0,1.0,1.1856,26.0,0.0,0.0,0.0,52.999997,0.0,26.0,26.0,26.0,26.0,0.07824999999999993,0.28880000000000017,0.03876666666666667,292.542,-2.7381,-2.6702500000000002,-1.6232,-1.5067,-232.32999999999998,216.04000000000002,190.72525,0.0,0.0,0.0,0.0,0.0268,-5.498166666666667,-5.498166666666667,-0.5403,-0.066,0.021333333333333204,-0.536,67.333,0.034,-0.21705000000000002,-0.7920000000000007,100.0,1.0,1.0,207.64,0.0,0.0,0.0,0.0,0.0,0.0,0.0,8801.1,0.0,55.0,5.0,242.37,1.0,0.0,0.0,0.0,0.0,0.0,1.0,0.0,0.657,0.657,0.0,0.0,1.0,55.0,616.79921,10000.0,85.000001,85.000001,85.000001,85.000001,395.0,0.0,0.0,0.0,1.0,166.665,52.46,52.46,47.913,47.913,34.0,-22.0125,27.046,-28.056666666666665,31.91,0.0,1782.552,-0.8599999999999994,100.0,27.678,27.965,42.457,43.055,0.0,0.0,100.0,0.0,0.0,0.0,0.0,3155.5714285714284,3088.3,4220.375,4287.8,305.3565,304.8516666666667,314.636,314.16275,21.8717,20.579,21.933799999999998,21.435200000000002,314.999998,314.999998,324.999988,324.999988,99.55728571428571,99.50736666666667,99.56827142857144,99.54731428571428,0.13733333333333375,0.014000000000000234,-0.06666666666666668,0.15616666666666665,-0.045000000000001705,-0.041666666666671404,1.5099999999999998,1.4735,37.698,29.618666666666666,38.086,34.97,55.515,34.896,59.945,52.4675,53.498999999999995,34.072,58.5385,50.8035,52.696,33.657,58.478,50.2255,-0.14700000000000002,-0.0040000000000000036,0.10497500000000001,0.10615000000000001,0.0,210.835,210.885,207.64,207.64,0.0,0.0
14,0.0,0.0,0.0,1.0,1.0,0.0,0.0,1.0,0.0,100.0,1.0,1.1856,26.0,0.0,0.0,0.0,52.999997,0.0,26.0,26.0,26.0,26.0,0.08612500000000001,0.27849999999999997,-0.014966666666666666,292.847,-2.734,-2.6195,-1.5961,-1.5125000000000002,-228.89,216.01749999999998,190.704,0.0,0.0,0.0,0.0,0.028800000000000003,-5.498166666666667,-5.498166666666667,-0.5495,-0.11233333333333333,0.0517777777777777,1.3399999999999999,67.47200000000001,0.0477,-0.229,-1.0379999999999994,100.0,1.0,1.0,208.16,0.0,0.0,0.0,0.0,0.0,0.0,0.0,8823.1,0.0,55.0,5.0,242.87333333333333,0.0,0.0,0.0,0.0,0.0,0.0,1.0,0.0,0.7079999999999984,0.7079999999999984,0.0,0.0,0.0,55.0,616.79921,10000.0,85.000001,85.000001,85.000001,85.000001,395.0,0.0,0.0,0.0,1.0,333.33500000000004,52.628,52.628,48.157,48.157,34.0,-19.57,28.468,-24.556666666666665,31.855,0.0,1782.5,-0.9649999999999999,100.0,27.697,27.833,42.474000000000004,43.139,0.0,0.0,100.0,0.0,0.0,0.0,0.0,2923.5714285714284,3255.3,3955.625,4209.4,305.852,304.53766666666667,315.1755,314.458,21.8811,20.5845,21.9443,21.4443,314.999998,314.999998,324.999988,324.999988,99.5573,99.50736666666667,99.5684,99.54745714285714,0.15533333333333355,0.024666666666666615,-0.04783333333333334,0.17450000000000002,-0.03999999999999915,-0.03999999999999915,1.565,1.5270000000000001,37.757,29.653333333333336,38.152,35.027,55.506,34.934,59.982,52.53,53.489999999999995,34.1075,58.571,50.8665,52.686,33.69233333333334,58.5075,50.2875,-0.14749999999999996,-0.0030000000000001137,0.10730500000000001,0.10512,0.0,211.255,211.31,208.16,208.16,0.0,0.0
15,0.0,0.0,0.0,1.0,1.0,0.0,0.0,1.0,0.0,100.0,1.0,1.1856,26.0,0.0,0.0,0.0,52.999997,0.0,26.0,26.0,26.0,26.0,0.12274999999999991,0.27849999999999997,-0.05643333333333334,292.877,-2.7479,-2.5705,-1.6267,-1.4506000000000001,-225.45,215.9975,190.6825,0.0,0.0,0.0,0.0,0.0308,-5.498166666666667,-5.498166666666667,-0.5398000000000001,0.20500000000000002,0.08133333333333326,-0.528,67.613,0.0634,-0.209625,-1.1720000000000006,100.0,1.0,1.0,208.56666666666666,0.0,0.0,0.0,0.0,0.0,0.0,0.0,8840.4,0.0,55.0,5.0,243.37666666666667,1.0,0.0,0.0,0.0,0.0,0.0,1.0,0.0,0.7590000000000003,0.7590000000000003,0.0,0.0,1.0,55.0,616.79921,10000.0,85.000001,85.000001,85.000001,85.000001,395.0,0.0,0.0,0.0,1.0,166.665,52.887,52.887,48.218,48.218,34.0,-18.79,27.316000000000003,-24.64666666666666,33.4975,0.0,1782.451,-0.9750000000000014,100.0,27.488,28.034,42.116,43.321,0.0,0.0,100.0,0.0,0.0,0.0,0.0,2869.5714285714284,3142.0,3986.375,4354.6,306.1945,304.69666666666666,315.19825,314.0375,21.8905,20.5901,21.9547,21.4535,314.999998,314.999998,324.999988,324.999988,99.55732857142857,99.50736666666667,99.56854285714286,99.54761428571429,0.16266666666666652,0.028999999999999915,-0.037333333333333336,0.19233333333333336,-0.04833333333333201,-0.046666666666666856,1.5415,1.496,37.815,29.688000000000002,38.217,35.084,55.498000000000005,34.973,60.013999999999996,52.5925,53.482,34.143,58.602000000000004,50.923500000000004,52.676,33.725,58.5355,50.343,-0.15649999999999997,0.0020000000000000018,0.106315,0.10724,0.0,211.695,211.775,208.56666666666666,208.56666666666666,0.0,0.0
16,0.0,0.0,0.0,1.0,1.0,0.0,0.0,1.0,0.0,100.0,1.0,1.1856,26.0,0.0,0.0,0.0,52.999997,0.0,26.0,26.0,26.0,26.0,0.11875000000000013,0.2594000000000001,-0.05303333333333334,292.892,-2.8056,-2.583375,-1.6003,-1.4527,-222.2,215.98000000000002,190.661625,0.0,0.0,0.0,0.0,0.0327,-5.498166666666667,-5.498166666666667,-0.5622,-0.704,0.06722222222222207,-1.091,67.745,0.0763,-0.22717500000000002,-1.2000000000000002,100.0,1.0,1.0,208.98333333333335,0.0,0.0,0.0,0.0,0.0,0.0,0.0,8858.0,0.0,55.0,5.0,243.85333333333335,0.0,0.0,0.0,0.0,0.0,0.0,1.0,0.0,0.8069999999999986,0.8069999999999986,0.0,0.0,0.0,55.0,616.79921,10000.0,85.000001,85.000001,85.000001,85.000001,395.0,0.0,0.0,0.0,1.0,333.33500000000004,52.734,52.734,47.989,47.989,34.0,-20.4075,28.218,-23.766666666666666,31.86,0.0,1782.402,-0.8900000000000006,100.0,27.194,28.129,42.408,43.389,0.0,0.0,100.0,0.0,0.0,0.0,0.0,3010.285714285714,3200.6,3958.875,4135.2,305.8815,304.5523333333333,315.2515,314.57925,21.899,20.5953,21.9646,21.4621,314.999998,314.999998,324.999988,324.999988,99.55734285714286,99.50738333333334,99.56868571428572,99.54775714285714,0.16000000000000014,0.034666666666666845,-0.03133333333333333,0.20116666666666666,-0.03833333333332689,-0.045000000000001705,1.5564999999999998,1.5154999999999998,37.869,29.720666666666666,38.278999999999996,35.138,55.486000000000004,35.0105,60.0485,52.6505,53.471000000000004,34.1775,58.634,50.9795,52.665,33.757999999999996,58.564499999999995,50.397999999999996,-0.14300000000000002,-0.00649999999999995,0.11196,0.10997000000000001,0.0,212.065,212.155,208.98333333333335,208.98333333333335,0.0,0.0
17,0.0,0.0,0.0,1.0,1.0,0.0,0.0,1.0,0.0,100.0,1.0,1.1856,26.0,0.0,0.0,0.0,52.999997,0.0,26.0,26.0,26.0,26.0,0.11712499999999992,0.28280000000000016,-0.014666666666666666,292.526,-2.759,-2.568125,-1.6371,-1.4774,-218.74,215.965,190.639125,0.0,0.0,0.0,0.0,0.0347,-5.498166666666667,-5.498166666666667,-0.5507000000000001,0.5446666666666666,0.0474444444444444,0.7389999999999999,67.884,0.081,-0.2068,-1.1679999999999993,100.0,1.0,1.0,209.37333333333333,0.0,0.0,0.0,0.0,0.0,0.0,0.0,8874.5,0.0,55.0,5.0,244.35333333333335,1.0,0.0,0.0,0.0,0.0,0.0,1.0,0.0,0.8580000000000005,0.8580000000000005,0.0,0.0,1.0,55.0,616.79921,10000.0,85.000001,85.000001,85.000001,85.000001,395.0,0.0,0.0,0.0,1.0,333.33500000000004,52.444,52.444,47.836,47.836,34.0,-19.314999999999998,27.997999999999998,-25.263333333333335,34.7375,0.0,1782.35,-0.9549999999999983,100.0,27.843,28.276,42.304,43.299,0.0,0.0,100.0,0.0,0.0,0.0,0.0,2989.857142857143,3154.4,4204.875,4324.3,305.719,304.8636666666667,314.7075,314.25,21.9085,20.601,21.975,21.4712,314.999998,314.999998,324.999988,324.999988,99.55737142857143,99.50738333333334,99.56882857142857,99.5479,0.17766666666666664,0.04899999999999993,-0.017333333333333333,0.21816666666666668,-0.041666666666671404,-0.051666666666669414,1.5594999999999999,1.5034999999999998,37.928,29.756333333333334,38.344,35.195,55.480000000000004,35.0515,60.082499999999996,52.712,53.465,34.216,58.6655,51.0385,52.657,33.794666666666664,58.5925,50.4565,-0.14900000000000002,-0.0045000000000001705,0.10585000000000001,0.11394000000000001,0.0,212.55,212.61,209.37333333333333,209.37333333333333,0.0,0.0
18,0.0,0.0,0.0,1.0,1.0,0.0,0.0,1.0,0.0,100.0,1.0,1.1856,26.0,0.0,0.0,0.0,52.999997,0.0,26.0,26.0,26.0,26.0,0.1363749999999999,0.2792000000000001,-0.010100000000000001,292.419,-2.8037,-2.5311250000000003,-1.6605,-1.417,-215.26999999999998,215.95499999999998,190.61675,0.0,0.0,0.0,0.0,0.0367,-5.498166666666667,-5.498166666666667,-0.5618000000000001,-0.4936666666666667,0.07577777777777772,-0.15300000000000002,68.022,0.0806,-0.22510000000000002,-1.226,100.0,1.0,1.0,209.81,0.0,0.0,0.0,0.0,0.0,0.0,0.0,8893.0,0.0,55.0,5.0,244.85333333333335,0.0,0.0,0.0,0.0,0.0,0.0,1.0,0.0,0.9089999999999989,0.9089999999999989,0.0,0.0,0.0,55.0,616.79921,10000.0,85.000001,85.000001,85.000001,85.000001,395.0,0.0,0.0,0.0,1.0,166.665,52.216,52.216,47.684,47.684,34.0,-19.72,29.974,-25.03666666666666,32.4225,0.0,1782.301,-1.2949999999999982,100.0,27.414,28.317,42.513,43.838,0.0,0.0,100.0,0.0,0.0,0.0,0.0,3110.5714285714284,3325.0,4046.375,4209.6,305.5895,304.214,315.08125,314.4255,21.9177,20.6066,21.985599999999998,21.4805,314.999998,314.999998,324.999988,324.999988,99.55738571428572,99.5074,99.56897142857143,99.54805714285715,0.19300000000000006,0.05833333333333357,-0.0285,0.20883333333333334,-0.041666666666671404,-0.054999999999999716,1.5564999999999998,1.5154999999999998,37.986000000000004,29.791333333333334,38.41,35.253,55.472,35.0925,60.1185,52.775999999999996,53.457,34.2535,58.699,51.1005,52.647999999999996,33.830666666666666,58.623,50.516999999999996,-0.1755,0.020000000000000018,0.108545,0.11169000000000001,0.0,212.925,213.01999999999998,209.81,209.81,0.0,0.0
19,0.0,0.0,0.0,1.0,1.0,0.0,0.0,1.0,0.0,100.0,1.0,1.1856,26.0,0.0,0.0,0.0,52.999997,0.0,26.0,26.0,26.0,26.0,0.16737500000000005,0.29190000000000005,0.0344,292.007,-2.7736,-2.521375,-1.6743000000000001,-1.4003,-212.01,215.9475,190.5955,0.0,0.0,0.0,0.0,0.0386,-5.498166666666667,-5.498166666666667,-0.5508000000000001,0.8273333333333334,0.08466666666666667,-0.5609999999999999,68.152,0.08950000000000001,-0.2114,-1.597999999999999,100.0,1.0,1.0,210.18666666666667,0.0,0.0,0.0,0.0,0.0,0.0,0.0,8909.0,0.0,55.0,5.0,245.31666666666666,1.0,0.0,0.0,0.0,0.0,0.0,1.0,0.0,0.9570000000000007,0.9570000000000007,0.0,0.0,1.0,55.0,616.79921,10000.0,85.000001,85.000001,85.000001,85.000001,395.0,0.0,0.0,0.0,1.0,333.33500000000004,51.697,51.697,47.562,47.562,34.0,-18.6825,30.764,-25.043333333333337,34.504999999999995,0.0,1782.253,-1.5399999999999991,100.0,27.909,28.805,42.259,43.841,0.0,0.0,100.0,0.0,0.0,0.0,0.0,3127.142857142857,3318.1,4183.875,4406.3,305.429,304.144,314.81375,314.00475,21.9266,20.612099999999998,21.9953,21.4891,314.999998,314.999998,324.999988,324.999988,99.55741428571429,99.5074,99.5691,99.54818571428571,0.21466666666666656,0.0773333333333337,-0.007666666666666667,0.21733333333333335,-0.05333333333332746,-0.046666666666666856,1.5675,1.496,38.041,29.825666666666663,38.471000000000004,35.307,55.468,35.134,60.1495,52.835,53.452,34.292,58.7275,51.157,52.641999999999996,33.867666666666665,58.6485,50.573,-0.19899999999999995,0.034499999999999975,0.099875,0.10749500000000001,0.0,213.365,213.48000000000002,210.18666666666667,210.18666666666667,0.0,0.0
20,0.0,0.0,0.0,1.0,1.0,0.0,0.0,1.0,0.0,100.0,1.0,1.1856,26.0,0.0,0.0,0.0,52.999997,0.0,26.0,26.0,26.0,26.0,0.19987500000000002,0.27370000000000005,0.0456,292.328,-2.8239,-2.584625,-1.6069,-1.5163,-208.53,215.9425,190.573125,0.0,0.0,0.0,0.0,0.040633333333333334,-5.498166666666667,-5.498166666666667,-0.5549000000000001,-1.2243333333333333,0.09611111111111104,0.6579999999999999,68.291,0.10500000000000001,-0.22185000000000002,-2.056,100.0,1.0,1.0,210.51333333333332,0.0,0.0,0.0,0.0,0.0,0.0,0.0,8922.8,0.0,55.0,5.0,245.82,0.0,0.0,0.0,0.0,0.0,0.0,0.0,0.0,1.0079999999999991,1.0079999999999991,0.0,0.0,0.0,55.0,616.79921,10000.0,85.000001,85.000001,85.000001,85.000001,395.0,0.0,0.0,0.0,1.0,333.33500000000004,52.811,52.811,46.921,46.921,34.0,-15.32,31.772,-21.933333333333337,38.1325,0.0,1782.2,-1.8049999999999997,100.0,27.422,28.357,42.854,44.284,0.0,0.0,100.0,0.0,0.0,0.0,0.0,2761.857142857143,3282.6,4072.125,4373.3,306.521,304.47333333333336,314.85575,313.92525,21.9356,20.6178,22.006,21.4985,314.999998,314.999998,324.999988,324.999988,99.55742857142857,99.50741666666667,99.56925714285714,99.54834285714286,0.24633333333333374,0.10466666666666669,0.027,0.2495,-0.051666666666669414,-0.046666666666666856,1.5074999999999998,1.4344999999999999,38.097,29.861333333333334,38.537,35.3655,55.459,35.1775,60.1875,52.9,53.444,34.332,58.7625,51.2205,52.632,33.906,58.68,50.635,-0.21450000000000002,0.06000000000000005,0.10744000000000001,0.10710000000000001,0.0,213.72,213.87,210.51333333333332,210.51333333333332,0.0,0.0
21,0.0,0.0,0.0,1.0,1.0,0.0,0.0,1.0,0.0,100.0,1.0,1.1856,26.0,0.0,0.0,0.0,52.999997,0.0,26.0,26.0,26.0,26.0,0.20262500000000006,0.2663,-0.0589,292.633,-2.7494,-2.6258749999999997,-1.6812,-1.4654,-205.25,215.945,190.551375,0.0,0.0,0.0,0.0,0.04253333333333333,-5.498166666666667,-5.498166666666667,-0.5783,0.504,0.08766666666666678,0.38500000000000023,68.41499999999999,0.1262,-0.2263,-2.3320000000000007,100.0,1.0,1.0,211.14333333333332,0.0,0.0,0.0,0.0,0.0,0.0,0.0,8949.6,0.0,55.0,5.0,246.26666666666665,1.0,0.0,0.0,0.0,0.0,0.0,0.0,0.0,1.056000000000001,1.056000000000001,0.0,0.0,1.0,55.0,616.79921,10000.0,85.000001,85.000001,85.000001,85.000001,395.0,0.0,0.0,0.0,1.0,333.33500000000004,52.216,52.216,48.34,48.34,34.0,-15.985,32.384,-20.299999999999997,34.8025,0.0,1782.152,-0.9899999999999984,100.0,27.684,28.634999999999998,42.068,43.915,0.0,0.0,100.0,0.0,0.0,0.0,0.0,2896.714285714286,3320.3,3869.875,4120.2,305.9345,304.267,315.54375,314.72025,21.9442,20.6233,22.0156,21.5071,314.999998,314.999998,324.999988,324.999988,99.55747142857143,99.50743333333334,99.56938571428572,99.54848571428572,0.23933333333333362,0.09666666666666668,0.041,0.267,-0.04833333333333201,-0.06499999999999773,1.6345,1.5495,38.150999999999996,29.895666666666664,38.597,35.419,55.455,35.224000000000004,60.2175,52.960499999999996,53.439,34.375,58.7905,51.2785,52.626000000000005,33.94733333333333,58.704499999999996,50.692,-0.18899999999999995,0.022499999999999964,0.10652500000000001,0.09788500000000001,0.0,214.12,214.315,211.14333333333332,211.14333333333332,0.0,0.0
22,0.0,0.0,0.0,1.0,1.0,0.0,0.0,1.0,0.0,100.0,1.0,1.1856,26.0,0.0,0.0,0.0,52.999997,0.0,26.0,26.0,26.0,26.0,0.18474999999999997,0.26370000000000005,0.014266666666666667,292.145,-2.7414,-2.619625,-1.6732,-1.4572,-201.75,215.9525,190.527625,0.0,0.0,0.0,0.0,0.04456666666666667,-5.498166666666667,-5.498166666666667,-0.5581,0.084,0.09111111111111114,-0.7679999999999998,68.554,0.14250000000000002,-0.20855,-1.226,100.0,1.0,1.0,211.35000000000002,0.0,0.0,0.0,0.0,0.0,0.0,0.0,8958.4,0.0,55.0,5.0,246.76666666666665,0.0,0.0,0.0,0.0,0.0,0.0,0.0,0.0,1.1069999999999993,1.1069999999999993,0.0,0.0,0.0,55.0,616.79921,10000.0,85.000001,85.000001,85.000001,85.000001,395.0,0.0,0.0,0.0,1.0,166.665,52.307,52.307,47.18,47.18,34.0,-19.59,27.287999999999997,-23.130000000000003,37.085,0.0,1782.103,0.19000000000000128,100.0,27.569,28.868000000000002,42.375,44.291,0.0,0.0,100.0,0.0,0.0,0.0,0.0,2910.0,3169.4,4187.375,4366.2,306.0475,304.5043333333333,314.76175,314.04425,21.9534,20.6291,22.0261,21.5164,314.999998,314.999998,324.999988,324.999988,99.55748571428572,99.50743333333334,99.56952857142858,99.54862857142857,0.15100000000000025,0.006666666666666821,0.03333333333333334,0.25283333333333335,-0.04833333333333201,-0.04333333333332945,1.5044999999999997,1.4655,38.209,29.932000000000002,38.663,35.4775,55.447,35.263999999999996,60.2525,53.0225,53.431,34.412,58.823,51.338,52.617000000000004,33.98266666666667,58.734,50.7505,-0.07599999999999996,-0.08599999999999985,0.10422500000000001,0.10640500000000001,0.0,214.60500000000002,214.69,211.35000000000002,211.35000000000002,0.0,0.0
23,0.0,0.0,0.0,1.0,1.0,0.0,0.0,1.0,0.0,100.0,1.0,1.1856,26.0,0.0,0.0,0.0,52.999997,0.0,26.0,26.0,26.0,26.0,0.09600000000000009,0.26470000000000016,-0.0152,292.191,-2.747,-2.596625,-1.5750000000000002,-1.5495999999999999,-198.25,215.9625,190.50425,0.0,0.0,0.0,0.0,0.0466,-5.498166666666667,-5.498166666666667,-0.5772,-0.279,0.06488888888888877,0.10000000000000009,68.688,0.1106,-0.23405,0.12600000000000122,100.0,1.0,1.0,211.87,0.0,0.0,0.0,0.0,0.0,0.0,0.0,8980.4,0.0,55.0,5.0,247.25333333333333,1.0,0.0,0.0,0.0,0.0,0.0,0.0,0.0,1.1580000000000013,1.1580000000000013,0.0,0.0,1.0,55.0,616.79921,10000.0,85.000001,85.000001,85.000001,85.000001,395.0,0.0,0.0,0.0,1.0,333.33500000000004,51.727000000000004,51.727000000000004,48.218,48.218,34.0,-23.39,26.274,-22.116666666666667,32.7175,0.0,1782.05,0.7650000000000006,100.0,28.067,28.572,42.721000000000004,44.286,0.0,0.0,100.0,0.0,0.0,0.0,0.0,3139.4285714285716,3272.0,3881.625,4031.3,305.2135,304.481,315.34925,314.83025,21.9626,20.634900000000002,22.0366,21.5257,314.999998,314.999998,324.999988,324.999988,99.5575,99.50745,99.56967142857143,99.54878571428571,0.11166666666666636,-0.026000000000000023,-0.011333333333333334,0.21483333333333335,-0.036666666666668846,-0.046666666666666856,1.529,1.5465,38.266,29.968,38.729,35.5355,55.436,35.304,60.287,53.085499999999996,53.421,34.449,58.855000000000004,51.399,52.605000000000004,34.01833333333333,58.7625,50.8105,-0.02300000000000002,-0.13649999999999984,0.111085,0.10334000000000002,0.0,215.025,215.03,211.87,211.87,0.0,0.0
24,0.0,0.0,0.0,1.0,1.0,0.0,0.0,1.0,0.0,100.0,1.0,1.1856,26.0,0.0,0.0,0.0,52.999997,0.0,26.0,26.0,26.0,26.0,0.009875000000000078,0.28280000000000016,-0.10313333333333333,292.465,-2.7442,-2.6336250000000003,-1.5947,-1.5124,-194.95,215.975,190.48175,0.0,0.0,0.0,0.0,0.04853333333333333,-5.498166666666667,-5.498166666666667,-0.5791000000000001,-0.536,0.046222222222222165,0.46899999999999986,68.816,0.055400000000000005,-0.21725,0.9220000000000006,100.0,1.0,1.0,212.16666666666669,0.0,0.0,0.0,0.0,0.0,0.0,0.0,8992.9,0.0,55.0,5.0,247.71,0.0,0.0,0.0,0.0,0.0,0.0,0.0,0.0,1.2059999999999995,1.2059999999999995,0.0,0.0,0.0,55.0,616.79921,10000.0,85.000001,85.000001,85.000001,85.000001,395.0,0.0,0.0,0.0,1.0,166.665,52.963,52.963,47.18,47.18,34.0,-22.735,22.22,-28.52,30.002499999999998,0.0,1782.004,1.0199999999999996,100.0,27.905,28.162,43.003,43.899,0.0,0.0,100.0,0.0,0.0,0.0,0.0,2839.4285714285716,3018.6,4269.25,4147.8,306.1675,305.28333333333336,314.42575,314.63925,21.9712,20.6401,22.0465,21.5343,314.999998,314.999998,324.999988,324.999988,99.55751428571429,99.50745,99.56981428571429,99.54892857142858,0.06000000000000005,-0.07566666666666677,-0.07050000000000001,0.14783333333333334,-0.030000000000001137,-0.054999999999999716,1.4935,1.5190000000000001,38.32,30.000666666666667,38.791,35.5895,55.423,35.34,60.321,53.1425,53.408,34.4825,58.885999999999996,51.454,52.592,34.050333333333334,58.7905,50.864,0.0020000000000000018,-0.16300000000000026,0.10408500000000001,0.10566,0.0,215.47500000000002,215.4,212.16666666666669,212.16666666666669,0.0,0.0
25,0.0,0.0,0.0,1.0,1.0,0.0,0.0,1.0,0.0,100.0,1.0,1.1856,26.0,0.0,0.0,0.0,52.999997,0.0,26.0,26.0,26.0,26.0,-0.07262499999999994,0.26480000000000015,-0.07106666666666667,292.328,-2.765,-2.6375,-1.5723,-1.5529000000000002,-191.23000000000002,215.99,190.454875,0.0,0.0,0.0,0.0,0.0507,-5.498166666666667,-5.498166666666667,-0.6138,0.10300000000000001,0.007222222222222241,-0.9060000000000001,68.956,-0.0137,-0.226325,1.4760000000000009,100.0,1.0,1.0,212.75666666666666,0.0,0.0,0.0,0.0,0.0,0.0,0.0,9018.0,0.0,55.0,5.0,248.21666666666667,1.0,0.0,0.0,0.0,0.0,0.0,0.0,0.0,1.259999999999998,1.259999999999998,0.0,0.0,1.0,55.0,616.79921,10000.0,85.000001,85.000001,85.000001,85.000001,395.0,0.0,0.0,0.0,1.0,166.665,51.757999999999996,51.757999999999996,48.05,48.05,34.0,-28.7275,22.96,-29.283333333333335,25.785,0.0,1781.95,1.0250000000000021,100.0,28.173000000000002,28.148,43.01,43.295,0.0,0.0,100.0,0.0,0.0,0.0,0.0,3269.4285714285716,3310.8,3992.0,3954.2,304.9815,304.38933333333335,315.194,315.102,21.981,20.6461,22.0575,21.5439,314.999998,314.999998,324.999988,324.999988,99.55751428571429,99.50746666666667,99.56995714285715,99.54908571428571,0.018000000000000238,-0.11499999999999999,-0.14316666666666666,0.09083333333333334,-0.03333333333333144,-0.06833333333332803,1.5390000000000001,1.5975000000000001,38.381,30.037666666666667,38.86,35.6495,55.407,35.385,60.356,53.2025,53.391999999999996,34.524,58.9185,51.512,52.575,34.09,58.82,50.921,0.0015000000000000568,-0.16300000000000026,0.10517000000000001,0.10930000000000001,0.0,215.925,215.825,212.75666666666666,212.75666666666666,0.0,0.0
26,0.0,0.0,0.0,1.0,1.0,0.0,0.0,1.0,0.0,100.0,1.0,1.1856,26.0,0.0,0.0,0.0,52.999997,0.0,26.0,26.0,26.0,26.0,-0.11949999999999994,0.2731000000000001,0.07466666666666667,291.245,-2.6704,-2.759875,-1.5852,-1.5813000000000001,-187.92000000000002,216.0,190.430625,0.0,0.0,0.0,0.0,0.0526,-5.498166666666667,-5.498166666666667,-0.5711,0.776,-0.049555555555555575,0.052000000000000046,69.08500000000001,-0.06420000000000001,-0.195225,1.6500000000000004,100.0,1.0,1.0,212.89,0.0,0.0,0.0,0.0,0.0,0.0,0.0,9023.6,0.0,55.0,5.0,248.67666666666668,0.0,0.0,0.0,0.0,0.0,0.0,0.0,0.0,1.3079999999999998,1.3079999999999998,0.0,0.0,0.0,55.0,616.79921,10000.0,85.000001,85.000001,85.000001,85.000001,395.0,0.0,0.0,0.0,1.0,166.665,51.453,51.453,46.265,46.265,34.0,-28.4,21.084000000000003,-38.31666666666666,27.700000000000003,0.0,1781.9,0.8350000000000009,100.0,29.248,28.437,43.972,43.306,0.0,0.0,100.0,0.0,0.0,0.0,0.0,3232.857142857143,3069.4,4612.5,4411.2,304.9435,305.02366666666666,313.70875,314.04475,21.990099999999998,20.6514,22.0676,21.5525,314.999998,314.999998,324.999988,324.999988,99.55752857142858,99.50748333333334,99.5701,99.54921428571429,0.0016666666666669272,-0.14266666666666672,-0.188,0.04466666666666667,-0.045000000000001705,-0.05333333333332746,1.4180000000000001,1.479,38.438,30.071333333333335,38.923,35.7035,55.396,35.4275,60.3945,53.259,53.382,34.563,58.954499999999996,51.566,52.564,34.12766666666667,58.853,50.9735,-0.01200000000000001,-0.15050000000000008,0.10191000000000001,0.11665500000000001,0.0,216.375,216.235,212.89,212.89,0.0,0.0
27,0.0,0.0,0.0,1.0,1.0,0.0,0.0,1.0,0.0,100.0,1.0,1.1856,26.0,0.0,0.0,0.0,52.999997,0.0,26.0,26.0,26.0,26.0,-0.13612499999999994,0.24660000000000015,-0.010066666666666668,291.641,-2.6163,-2.7504999999999997,-1.5596999999999999,-1.6717,-184.6,216.01,190.4075,0.0,0.0,0.0,0.0,0.054533333333333336,-5.498166666666667,-5.498166666666667,-0.5982000000000001,-1.1123333333333332,-0.06788888888888867,0.5070000000000001,69.21000000000001,-0.0941,-0.243925,1.4620000000000015,100.0,1.0,1.0,213.36666666666667,0.0,0.0,0.0,0.0,0.0,0.0,0.0,9043.8,0.0,55.0,5.0,249.13,1.0,0.0,0.0,0.0,0.0,0.0,0.0,0.0,1.355999999999998,1.355999999999998,0.0,0.0,1.0,55.0,616.79921,10000.0,85.000001,85.000001,85.000001,85.000001,395.0,0.0,0.0,0.0,1.0,333.33500000000004,51.772999999999996,51.772999999999996,46.768,46.768,34.0,-28.4175,20.412,-34.833333333333336,24.1825,0.0,1781.853,0.6649999999999991,100.0,29.116,28.056,44.88,43.682,0.0,0.0,100.0,0.0,0.0,0.0,0.0,3208.142857142857,3077.9,4163.75,4020.1000000000004,305.015,305.13866666666667,314.69325,314.862,21.9989,20.6565,22.0778,21.5613,314.999998,314.999998,324.999988,324.999988,99.55752857142858,99.5075,99.57025714285714,99.54935714285715,-0.015666666666666718,-0.15500000000000003,-0.21633333333333335,0.009833333333333335,-0.04333333333332945,-0.046666666666666856,1.4685000000000001,1.5284999999999997,38.492999999999995,30.103,38.986000000000004,35.757999999999996,55.382999999999996,35.468,60.4335,53.316,53.369,34.6,58.991,51.6205,52.55,34.16266666666667,58.8865,51.0265,-0.031000000000000028,-0.13350000000000017,0.105885,0.09975500000000001,0.0,216.695,216.55,213.36666666666667,213.36666666666667,0.0,0.0
28,0.0,0.0,0.0,1.0,1.0,0.0,0.0,1.0,0.0,100.0,1.0,1.1856,26.0,0.0,0.0,0.0,52.999997,0.0,26.0,26.0,26.0,26.0,-0.14100000000000001,0.26890000000000014,-0.03886666666666667,291.916,-2.6368,-2.740125,-1.5016,-1.6388,-181.07,216.015,190.382125,0.0,0.0,0.0,0.0,0.056600000000000004,-5.498166666666667,-5.498166666666667,-0.5995,0.687,-0.08055555555555571,-0.6619999999999999,69.339,-0.1101,-0.2164,1.436,100.0,1.0,1.0,213.87,0.0,0.0,0.0,0.0,0.0,0.0,0.0,9065.1,0.0,55.0,5.0,249.59333333333336,0.0,0.0,0.0,0.0,0.0,0.0,0.0,0.0,1.407,1.407,0.0,0.0,0.0,55.0,616.79921,10000.0,85.000001,85.000001,85.000001,85.000001,395.0,0.0,0.0,0.0,1.0,166.665,51.819,51.819,47.577,47.577,34.0,-30.634999999999998,18.704,-34.92333333333333,22.3925,0.0,1781.801,0.5500000000000007,100.0,29.12,28.052,44.2,43.051,0.0,0.0,100.0,0.0,0.0,0.0,0.0,3380.285714285714,2905.3,4210.875,4044.0,304.715,305.45,314.774,314.8965,22.008499999999998,20.662,22.0882,21.5702,314.999998,314.999998,324.999988,324.999988,99.55752857142858,99.50751666666666,99.57041428571429,99.5495,-0.028000000000000025,-0.16700000000000004,-0.23583333333333334,-0.014333333333333335,-0.046666666666666856,-0.04999999999999716,1.5244999999999997,1.5745,38.553,30.137333333333334,39.051,35.814,55.370000000000005,35.5145,60.4705,53.374,53.358000000000004,34.643,59.0255,51.6765,52.537,34.20366666666666,58.918,51.0805,-0.04249999999999998,-0.11900000000000022,0.10043500000000001,0.10637,0.0,217.14499999999998,217.01999999999998,213.87,213.87,0.0,0.0
29,0.0,0.0,0.0,1.0,1.0,0.0,0.0,1.0,0.0,100.0,1.0,1.1856,26.0,0.0,0.0,0.0,52.999997,0.0,26.0,26.0,26.0,26.0,-0.17112499999999997,0.2653000000000001,0.0064666666666666674,291.519,-2.5716,-2.804125,-1.5335,-1.6221,-177.53,216.01749999999998,190.35575,0.0,0.0,0.0,0.0,0.058666666666666666,-5.498166666666667,-5.498166666666667,-0.6069,-0.7433333333333334,-0.08277777777777784,0.6360000000000001,69.474,-0.1086,-0.21857500000000002,1.0739999999999998,100.0,1.0,1.0,214.11666666666667,0.0,0.0,0.0,0.0,0.0,0.0,0.0,9075.7,0.0,55.0,5.0,250.07999999999998,1.0,0.0,0.0,0.0,0.0,0.0,0.0,0.0,1.4579999999999984,1.4579999999999984,0.0,0.0,1.0,55.0,616.79921,10000.0,85.000001,85.000001,85.000001,85.000001,395.0,0.0,0.0,0.0,1.0,166.665,51.682,51.682,46.616,46.616,34.0,-29.0675,20.91,-35.486666666666665,23.9625,0.0,1781.75,0.45500000000000185,100.0,29.022,27.740000000000002,44.805,43.203,0.0,0.0,100.0,0.0,0.0,0.0,0.0,3306.5714285714284,3096.9,4270.5,4180.8,304.7395,304.926,314.405,314.5415,22.0178,20.6673,22.0989,21.5795,314.999998,314.999998,324.999988,324.999988,99.55752857142858,99.50753333333333,99.57055714285714,99.54965714285714,-0.01766666666666672,-0.16166666666666663,-0.21316666666666667,-0.004,-0.03999999999999915,-0.05833333333333002,1.4634999999999998,1.4929999999999999,38.611000000000004,30.171,39.117999999999995,35.872,55.357,35.555,60.5095,53.43,53.345,34.68,59.062,51.730000000000004,52.524,34.239,58.951499999999996,51.132999999999996,-0.04849999999999999,-0.11350000000000016,0.10145000000000001,0.10541,0.0,217.5,217.405,214.11666666666667,214.11666666666667,0.0,0.0
30,0.0,0.0,0.0,1.0,1.0,0.0,0.0,1.0,0.0,100.0,1.0,1.1856,26.0,0.0,0.0,0.0,52.999997,0.0,26.0,26.0,26.0,26.0,-0.13674999999999993,0.25680000000000014,0.0322,291.138,-2.6295,-2.7891250000000003,-1.4738,-1.6991,-173.98000000000002,216.015,190.32925,0.0,0.0,0.0,0.0,0.06073333333333334,-5.498166666666667,-5.498166666666667,-0.601,0.8163333333333334,-0.08755555555555583,-0.4969999999999999,69.60300000000001,-0.09920000000000001,-0.21545,1.0380000000000003,100.0,1.0,1.0,214.56,0.0,0.0,0.0,0.0,0.0,0.0,0.0,9094.4,0.0,55.0,5.0,250.54666666666668,0.0,0.0,0.0,0.0,0.0,0.0,1.0,0.0,1.5090000000000003,1.5090000000000003,0.0,0.0,0.0,55.0,616.79921,10000.0,85.000001,85.000001,85.000001,85.000001,395.0,0.0,0.0,0.0,1.0,166.665,50.934,50.934,46.906,46.906,34.0,-31.265,20.382,-36.07333333333334,25.055,0.0,1781.7,0.2950000000000017,100.0,29.748,28.538,44.565,43.295,0.0,0.0,100.0,0.0,0.0,0.0,0.0,3520.4285714285716,3002.9,4383.375,4139.6,304.2565,305.2486666666667,314.28925,314.53475,22.0275,20.673000000000002,22.1095,21.5886,314.999998,314.999998,324.999988,324.999988,99.55754285714286,99.50756666666666,99.57071428571429,99.5498,-0.009666666666666712,-0.15300000000000002,-0.22233333333333336,-0.0013333333333333333,-0.046666666666666856,-0.045000000000001705,1.4514999999999998,1.4895,38.672,30.206333333333333,39.184,35.929,55.348,35.6005,60.5465,53.487,53.336,34.7225,59.097,51.785,52.513999999999996,34.279333333333334,58.983000000000004,51.1865,-0.06599999999999995,-0.10550000000000015,0.11238000000000001,0.09860500000000001,0.0,217.93,217.86,214.56,214.56,0.0,0.0
31,0.0,0.0,0.0,1.0,1.0,0.0,0.0,1.0,0.0,100.0,1.0,1.1856,26.0,0.0,0.0,0.0,52.999997,0.0,26.0,26.0,26.0,26.0,-0.12037500000000001,0.2581,0.008666666666666668,291.031,-2.6964,-2.66925,-1.5239,-1.6691,-170.43,216.01,190.303625,0.0,0.0,0.0,0.0,0.06276666666666667,-5.498166666666667,-5.498166666666667,-0.5925,-0.798,-0.07244444444444431,0.738,69.735,-0.08370000000000001,-0.223025,0.6180000000000003,100.0,1.0,1.0,214.87,0.0,0.0,0.0,0.0,0.0,0.0,0.0,9107.6,0.0,55.0,5.0,251.01999999999998,1.0,0.0,0.0,0.0,0.0,0.0,1.0,0.0,1.5599999999999987,1.5599999999999987,0.0,0.0,1.0,55.0,616.79921,10000.0,85.000001,85.000001,85.000001,85.000001,395.0,0.0,0.0,0.0,1.0,166.665,51.483000000000004,51.483000000000004,45.685,45.685,34.0,-27.725,21.104,-34.72,27.8525,0.0,1781.649,0.23499999999999943,100.0,29.441,28.41,45.28,43.812,0.0,0.0,100.0,0.0,0.0,0.0,0.0,3204.857142857143,3185.6,4351.625,4308.4,305.2105,304.951,314.20625,314.2955,22.0369,20.6786,22.1203,21.598,314.999998,314.999998,324.999988,324.999988,99.55754285714286,99.50758333333333,99.57085714285714,99.54994285714285,0.01100000000000012,-0.1373333333333333,-0.1845,0.037,-0.036666666666668846,-0.03833333333332689,1.4514999999999998,1.4729999999999999,38.730000000000004,30.241,39.251999999999995,35.988,55.333,35.644999999999996,60.588,53.5475,53.322,34.763,59.135999999999996,51.843,52.498999999999995,34.318,59.0185,51.243,-0.07250000000000001,-0.10050000000000026,0.10032500000000001,0.11037000000000001,0.0,218.29000000000002,218.245,214.87,214.87,0.0,0.0
32,0.0,0.0,0.0,1.0,1.0,0.0,0.0,1.0,0.0,100.0,1.0,1.1856,26.0,0.0,0.0,0.0,52.999997,0.0,26.0,26.0,26.0,26.0,-0.09650000000000003,0.2611000000000001,-0.03523333333333333,291.275,-2.6316,-2.71,-1.5861,-1.5791,-166.87,216.0,190.277875,0.0,0.0,0.0,0.0,0.06486666666666667,-5.498166666666667,-5.498166666666667,-0.6104,0.22766666666666666,-0.10122222222222232,-0.952,69.862,-0.0711,-0.22892500000000002,0.6400000000000006,100.0,1.0,1.0,215.40666666666667,0.0,0.0,0.0,0.0,0.0,0.0,0.0,9130.4,0.0,55.0,5.0,251.47666666666666,0.0,0.0,0.0,0.0,0.0,0.0,1.0,0.0,1.6110000000000007,1.6110000000000007,0.0,0.0,0.0,55.0,616.79921,10000.0,85.000001,85.000001,85.000001,85.000001,395.0,0.0,0.0,0.0,1.0,166.665,51.254,51.254,46.753,46.753,34.0,-29.009999999999998,20.826,-34.47,25.1675,0.0,1781.599,0.10000000000000142,100.0,29.364,28.65,44.709,43.628,0.0,0.0,100.0,0.0,0.0,0.0,0.0,3431.5714285714284,2990.0,4309.625,4151.9,304.5775,305.204,314.545,314.7115,22.0463,20.6842,22.1308,21.6072,314.999998,314.999998,324.999988,324.999988,99.55754285714286,99.50758333333333,99.57101428571428,99.5501,0.018000000000000238,-0.1253333333333333,-0.18366666666666667,0.03933333333333334,-0.06666666666666998,-0.02833333333332888,1.5135,1.5470000000000002,38.789,30.276333333333334,39.317,36.045,55.321,35.6885,60.623,53.604,53.31,34.803,59.1685,51.8975,52.486000000000004,34.35633333333333,59.0485,51.295500000000004,-0.07599999999999996,-0.09149999999999991,0.102495,0.107795,0.0,218.735,218.64499999999998,215.40666666666667,215.40666666666667,0.0,0.0
33,0.0,0.0,0.0,1.0,1.0,0.0,0.0,1.0,0.0,100.0,1.0,1.1856,26.0,0.0,0.0,0.0,52.999997,0.0,26.0,26.0,26.0,26.0,-0.09162499999999996,0.2679,-0.03926666666666667,291.428,-2.646,-2.7590000000000003,-1.5546,-1.59,-163.72,215.99,190.254375,0.0,0.0,0.0,0.0,0.06666666666666667,-5.498166666666667,-5.498166666666667,-0.6122000000000001,-0.35100000000000003,-0.08400000000000007,1.4980000000000002,69.97800000000001,-0.0631,-0.214925,0.44399999999999906,100.0,1.0,1.0,215.65666666666667,0.0,0.0,0.0,0.0,0.0,0.0,0.0,9140.9,0.0,55.0,5.0,251.89333333333335,1.0,0.0,0.0,0.0,0.0,0.0,1.0,0.0,1.6559999999999988,1.6559999999999988,0.0,0.0,1.0,55.0,616.79921,10000.0,85.000001,85.000001,85.000001,85.000001,395.0,0.0,0.0,0.0,1.0,333.33500000000004,51.91,51.91,46.417,46.417,34.0,-25.8075,21.85,-34.333333333333336,26.955,0.0,1781.552,-0.054999999999999716,100.0,29.266,28.232,44.807,43.671,0.0,0.0,100.0,0.0,0.0,0.0,0.0,3142.4285714285716,3006.4,4318.0,4290.6,305.3185,305.321,314.4035,314.3425,22.0545,20.689,22.1401,21.6154,314.999998,314.999998,324.999988,324.999988,99.55755714285715,99.5076,99.57115714285715,99.55022857142858,0.033666666666666956,-0.10999999999999988,-0.17983333333333335,0.0465,-0.041666666666671404,-0.061666666666667425,1.4674999999999998,1.505,38.841,30.306333333333335,39.376000000000005,36.096000000000004,55.308,35.7255,60.658,53.659,53.298,34.8375,59.201499999999996,51.95,52.473,34.388999999999996,59.0785,51.347,-0.08350000000000002,-0.08000000000000007,0.10661500000000002,0.099095,0.0,219.055,219.01,215.65666666666667,215.65666666666667,0.0,0.0
34,0.0,0.0,0.0,1.0,1.0,0.0,0.0,1.0,0.0,100.0,1.0,1.1856,26.0,0.0,0.0,0.0,52.999997,0.0,26.0,26.0,26.0,26.0,-0.06862499999999994,0.26560000000000006,-0.08726666666666667,291.809,-2.6711,-2.7047499999999998,-1.5953,-1.6064,-160.14999999999998,215.97750000000002,190.2265,0.0,0.0,0.0,0.0,0.06876666666666667,-5.498166666666667,-5.498166666666667,-0.6441,-0.8086666666666666,-0.051444444444444404,-0.1280000000000001,70.106,-0.048600000000000004,-0.22742500000000002,0.36400000000000077,100.0,1.0,1.0,216.13,0.0,0.0,0.0,0.0,0.0,0.0,0.0,9161.0,0.0,55.0,5.0,252.35666666666668,0.0,0.0,0.0,0.0,0.0,0.0,1.0,0.0,1.7070000000000007,1.7070000000000007,0.0,0.0,0.0,55.0,616.79921,10000.0,85.000001,85.000001,85.000001,85.000001,395.0,0.0,0.0,0.0,1.0,333.33500000000004,52.063,52.063,47.455,47.455,34.0,-26.419999999999998,21.46,-31.64,26.625,0.0,1781.501,-0.04499999999999815,100.0,28.805,28.079,44.391,43.872,0.0,0.0,100.0,0.0,0.0,0.0,0.0,3224.5714285714284,2946.5,4092.5,4110.2,305.0565,305.39,315.006,314.65575,22.0637,20.6945,22.1506,21.6246,314.999998,314.999998,324.999988,324.999988,99.55755714285715,99.50761666666666,99.5713,99.55037142857142,0.04366666666666674,-0.09866666666666668,-0.1645,0.06066666666666667,-0.04833333333333201,-0.041666666666671404,1.517,1.5284999999999997,38.897999999999996,30.340333333333334,39.441,36.153999999999996,55.295,35.7625,60.69,53.714,53.285,34.8715,59.231,52.003,52.46,34.42133333333334,59.105000000000004,51.3985,-0.09199999999999997,-0.06800000000000006,0.10129,0.10778000000000001,0.0,219.435,219.385,216.13,216.13,0.0,0.0
35,0.0,0.0,0.0,1.0,1.0,0.0,0.0,1.0,0.0,100.0,1.0,1.1856,26.0,0.0,0.0,0.0,52.999997,0.0,26.0,26.0,26.0,26.0,-0.05599999999999994,0.254,-0.0303,291.794,-2.7209,-2.6905,-1.5627,-1.6160999999999999,-156.57,215.9625,190.1965,0.0,0.0,0.0,0.0,0.07083333333333335,-5.498166666666667,-5.498166666666667,-0.6865,-0.4986666666666667,-0.0555555555555558,-0.08400000000000007,70.233,-0.0342,-0.23142500000000002,0.07200000000000095,100.0,1.0,1.0,216.57999999999998,0.0,0.0,0.0,0.0,0.0,0.0,0.0,9180.0,0.0,55.0,5.0,252.81333333333333,1.0,0.0,0.0,0.0,0.0,0.0,1.0,0.0,1.7579999999999991,1.7579999999999991,0.0,0.0,1.0,55.0,616.79921,10000.0,85.000001,85.000001,85.000001,85.000001,395.0,0.0,0.0,0.0,1.0,333.33500000000004,51.59,51.59,47.058,47.058,34.0,-26.525,25.372,-29.656666666666666,26.16,0.0,1781.451,-0.054999999999999716,100.0,28.689,28.259999999999998,44.141,43.391,0.0,0.0,100.0,0.0,0.0,0.0,0.0,3245.4285714285716,3332.5,4043.625,3945.6000000000004,305.1525,304.3593333333333,315.0165,315.12175,22.0727,20.7001,22.161,21.6337,314.999998,314.999998,324.999988,324.999988,99.55755714285715,99.50763333333333,99.57144285714286,99.55051428571429,0.052000000000000046,-0.07866666666666666,-0.14016666666666666,0.07716666666666668,-0.046666666666666856,-0.030000000000001137,1.5324999999999998,1.5419999999999998,38.955,30.375666666666667,39.506,36.210499999999996,55.278999999999996,35.803,60.7235,53.769,53.271,34.908500000000004,59.2625,52.0555,52.444,34.457,59.132999999999996,51.4495,-0.08499999999999996,-0.07299999999999995,0.11182,0.09872500000000001,0.0,219.81,219.775,216.57999999999998,216.57999999999998,0.0,0.0
36,0.0,0.0,0.0,1.0,1.0,0.0,0.0,1.0,0.0,100.0,1.0,1.1856,26.0,0.0,0.0,0.0,52.999997,0.0,26.0,26.0,26.0,26.0,-0.04699999999999993,0.27170000000000005,0.055600000000000004,290.771,-2.6243,-2.64675,-1.5349,-1.6085,-152.98,215.9475,190.165,0.0,0.0,0.0,0.0,0.07293333333333334,-5.498166666666667,-5.498166666666667,-0.6652,0.3046666666666667,-0.09211111111111148,-1.267,70.363,-0.0233,-0.20117500000000002,0.27800000000000047,100.0,1.0,1.0,216.73333333333335,0.0,0.0,0.0,0.0,0.0,0.0,0.0,9186.6,0.0,55.0,5.0,253.28,0.0,0.0,0.0,0.0,0.0,0.0,1.0,0.0,1.809000000000001,1.809000000000001,0.0,0.0,0.0,55.0,616.79921,10000.0,85.000001,85.000001,85.000001,85.000001,395.0,0.0,0.0,0.0,1.0,166.665,51.163,51.163,46.158,46.158,34.0,-25.87,22.572000000000003,-34.11333333333333,31.445,0.0,1781.401,-0.03999999999999915,100.0,29.152,28.841,44.237,43.838,0.0,0.0,100.0,0.0,0.0,0.0,0.0,3300.0,3080.2,4546.25,4515.4,304.708,304.96166666666664,313.913,313.72775,22.082,20.7059,22.1715,21.643,314.999998,314.999998,324.999988,324.999988,99.55757142857144,99.50765,99.5716,99.55067142857143,0.06466666666666665,-0.08733333333333326,-0.13983333333333334,0.08183333333333333,-0.061666666666667425,-0.030000000000001137,1.4220000000000002,1.4365,39.013,30.412,39.572,36.269,55.268,35.8455,60.7595,53.828,53.26,34.948,59.296,52.1125,52.432,34.49433333333333,59.1635,51.504999999999995,-0.08550000000000002,-0.08300000000000018,0.11133000000000001,0.101915,0.0,220.265,220.22,216.73333333333335,216.73333333333335,0.0,0.0
