,ABS Active,ABS Enabled,AID Allow Tire Blankets,AID Auto Blip,AID Auto Clutch,AID Auto Shift,AID Fuel Rate,AID Ideal Line,AID Mech Damage,AID Stability,AID Tire Wear Rate,Air Density,Air Temp,Ballast,Best Lap Delta,Best Lap Time,Brake Bias,Brake Pos,Brake Temp FL,Brake Temp FR,Brake Temp RL,Brake Temp RR,CG Accel Lateral,CG Accel Longitudinal,CG Accel Vertical,CG Height,Camber FL,Camber FR,Camber RL,Camber RR,Car Coord X,Car Coord Y,Car Coord Z,Car Damage Front,Car Damage Left,Car Damage Rear,Car Damage Right,Car Pos Norm,Caster FL,Caster FR,Chassis Pitch Angle,Chassis Pitch Rate,Chassis Roll Angle,Chassis Roll Rate,Chassis Velocity X,Chassis Velocity Y,Chassis Velocity Z,Chassis Yaw Rate,Clutch Pos,DRS Active,DRS Available,Drive Train Speed,ERS Heat Charging,ERS Is Charging,ERS Max Energy,ERS Power Level,ERS Recovery Level,Engine Brake Setting,Engine Limiter,Engine RPM,Flags,Fuel Level,Gear,Ground Speed,HR Sample Clock,In Pit,KERS Charge,KERS Deployed Energy,KERS Input,KERS Max Energy,LR Sample Clock,Lap Invalidated,Lap Time,Lap Time2,Last Lap Time,Last Sector Time,MR Sample Clock,Max Fuel,Max Power,Max RPM,Max Sus Travel FL,Max Sus Travel FR,Max Sus Travel RL,Max Sus Travel RR,Max Torque,Max Turbo Boost,Num Tires Off Track,Penalties Enabled,Position,Raw Data Sample Rate,Ride Height FL,Ride Height FR,Ride Height RL,Ride Height RR,Road Temp,Self Align Torque FL,Self Align Torque FR,Self Align Torque RL,Self Align Torque RR,Session Lap Count,Session Time Left,Steering Angle,Surface Grip,Suspension Travel FL,Suspension Travel FR,Suspension Travel RL,Suspension Travel RR,TC Active,TC Enabled,Throttle Pos,Tire Dirt Level FL,Tire Dirt Level FR,Tire Dirt Level RL,Tire Dirt Level RR,Tire Load FL,Tire Load FR,Tire Load RL,Tire Load RR,Tire Loaded Radius FL,Tire Loaded Radius FR,Tire Loaded Radius RL,Tire Loaded Radius RR,Tire Pressure FL,Tire Pressure FR,Tire Pressure RL,Tire Pressure RR,Tire Radius FL,Tire Radius FR,Tire Radius RL,Tire Radius RR,Tire Rubber Grip FL,Tire Rubber Grip FR,Tire Rubber Grip RL,Tire Rubber Grip RR,Tire Slip Angle FL,Tire Slip Angle FR,Tire Slip Angle RL,Tire Slip Angle RR,Tire Slip Ratio FL,Tire Slip Ratio FR,Tire Slip Ratio RL,Tire Slip Ratio RR,Tire Temp Core FL,Tire Temp Core FR,Tire Temp Core RL,Tire Temp Core RR,Tire Temp Inner FL,Tire Temp Inner FR,Tire Temp Inner RL,Tire Temp Inner RR,Tire Temp Middle FL,Tire Temp Middle FR,Tire Temp Middle RL,Tire Temp Middle RR,Tire Temp Outer FL,Tire Temp Outer FR,Tire Temp Outer RL,Tire Temp Outer RR,Toe In FL,Toe In FR,Toe In RL,Toe In RR,Turbo Boost,Wheel Angular Speed FL,Wheel Angular Speed FR,Wheel Angular Speed RL,Wheel Angular Speed RR,Wind Direction,Wind Speed
0,0.0,0.0,0.0,1.0,1.0,0.0,0.0,1.0,0.0,100.0,1.0,1.1856,26.0,0.0,0.0,0.0,52.99999,0.0,26.0,26.0,26.0,26.0,-0.016555555555555556,0.2994000000000001,0.15007500000000001,292.786,-2.7871,-2.61475,-1.5596999999999999,-1.5096,-275.51,215.39249999999998,190.986375,0.0,0.0,0.0,0.0,0.0016999999999999238,-5.498166666666667,-5.498166666666667,-0.5569000000000001,2.2875,-0.0009999999999998899,-0.2610000000000001,65.503,-0.026899999999999924,-0.2233,-0.18599999999999994,100.0,1.0,1.0,202.21333333333334,0.0,0.0,0.0,0.0,0.0,0.0,0.0,8571.0,0.0,55.0,5.0,235.78333333333333,0.0,0.0,0.0,0.0,0.0,0.0,0.0,0.0,0.006000000000000227,0.006000000000000227,0.0,0.0,0.0,55.0,616.79921,10000.0,85.0,85.0,85.0,85.0,395.0,0.0,0.0,0.0,1.0,20.0,50.247,50.247,48.233000000000004,48.233000000000004,34.0,-28.6675,34.024,-29.343333333333334,27.4525,0.0,1782.912,0.21999999999999886,100.0,27.63,27.777,40.495000000000005,40.109,0.0,0.0,100.0,0.0,0.0,0.0,0.0,3311.4285714285716,4410.3,4115.888888888889,4172.2,304.627,301.006,314.835,314.5155,21.7712,20.5134,21.7949,21.3319,314.99999,314.99999,324.99998,324.99998,99.55868333333333,99.50713333333333,99.5662,99.54598333333334,0.03699999999999992,-0.07566666666666677,-0.12883333333333336,0.09833333333333333,-0.06333333333333258,-0.046666666666666856,1.5495,1.5335,37.07,29.208666666666666,37.218,34.3245,56.21333333333333,34.453,59.398,51.914,54.137,33.625,58.011,50.257,53.309,33.187,57.971000000000004,49.677,-0.06899999999999995,-0.08450000000000024,0.1107,0.10663,0.0,205.255,205.25,202.21333333333334,202.21333333333334,0.0,0.0
1,0.0,0.0,0.0,1.0,1.0,0.0,0.0,1.0,0.0,100.0,1.0,1.1856,26.0,0.0,0.0,0.0,52.999997,0.0,26.0,26.0,26.0,26.0,-0.04677777777777778,0.33230000000000004,0.2111,292.099,-2.6896,-2.70125,-1.6036000000000001,-1.3846,-272.17,215.3975,190.9665,0.0,0.0,0.0,0.0,0.0036333333333333773,-5.498166666666667,-5.498166666666667,-0.4783,-2.2055000000000002,-0.04677777777777781,-0.3820000000000001,65.663,-0.018299999999999983,-0.187175,0.4639999999999995,100.0,1.0,1.0,202.09,0.0,0.0,0.0,0.0,0.0,0.0,0.0,8565.9,0.0,55.0,5.0,236.35666666666668,1.0,0.0,0.0,0.0,0.0,0.0,0.0,0.0,0.05699999999999861,0.05699999999999861,0.0,0.0,1.0,55.0,616.79921,10000.0,85.000001,85.000001,85.000001,85.000001,395.0,0.0,0.0,0.0,1.0,333.33500000000004,54.169,54.169,47.134,47.134,34.0,-22.7725,17.378,-37.836666666666666,34.004999999999995,0.0,1782.859,0.3200000000000003,100.0,27.621,27.19,42.736000000000004,43.652,0.0,0.0,100.0,0.0,0.0,0.0,0.0,2818.285714285714,2460.9,4753.888888888889,5322.6,306.282,307.0013333333333,313.08175,311.20575,21.7808,20.5183,21.806,21.3414,314.999998,314.999998,324.999988,324.999988,99.5587,99.50715,99.56635,99.54615,0.036666666666666625,-0.09233333333333316,-0.13566666666666666,0.06816666666666667,-0.015000000000000568,-0.05333333333332746,1.266,1.313,37.129999999999995,29.238999999999997,37.287,34.3835,56.19555555555556,34.489,59.445,51.985,54.12,33.658,58.055,50.324,53.292,33.219,58.013,49.743,-0.04899999999999993,-0.09949999999999992,0.11676500000000001,0.10769500000000001,0.0,205.66500000000002,205.64499999999998,202.09,202.09,0.0,0.0
2,0.0,0.0,0.0,1.0,1.0,0.0,0.0,1.0,0.0,100.0,1.0,1.1856,26.0,0.0,0.0,0.0,52.999997,0.0,26.0,26.0,26.0,26.0,-0.06622222222222222,0.2954000000000001,-0.078275,293.762,-2.6718,-2.645125,-1.5769000000000002,-1.5091999999999999,-268.81,215.4025,190.947625,0.0,0.0,0.0,0.0,0.005566666666666609,-5.498166666666667,-5.498166666666667,-0.5810000000000001,1.0295,-0.002777777777777768,1.654,65.79599999999999,-0.02089999999999992,-0.2702,0.7300000000000004,100.0,1.0,1.0,203.56333333333333,0.0,0.0,0.0,0.0,0.0,0.0,0.0,8628.3,0.0,55.0,5.0,236.83666666666667,0.0,0.0,0.0,0.0,0.0,0.0,0.0,0.0,0.10800000000000054,0.10800000000000054,0.0,0.0,0.0,55.0,616.79921,10000.0,85.000001,85.000001,85.000001,85.000001,395.0,0.0,0.0,0.0,1.0,333.33500000000004,51.697,51.697,50.659,50.659,34.0,-28.96,22.308,-25.13,19.5475,0.0,1782.807,0.4499999999999993,100.0,28.22,27.711,41.747,41.689,0.0,0.0,100.0,0.0,0.0,0.0,0.0,3363.714285714286,3174.3,3532.4444444444443,3420.3,304.564,304.48966666666666,316.273,316.44175,21.7909,20.5235,21.8162,21.3497,314.999998,314.999998,324.999988,324.999988,99.5587,99.50716666666666,99.56648333333334,99.54625,0.015000000000000124,-0.11233333333333317,-0.16533333333333336,0.07200000000000001,-0.06333333333333258,-0.06333333333333258,1.786,1.8090000000000002,37.193,29.272,37.351,34.436,56.18333333333333,34.528999999999996,59.478,52.031,54.107,33.695,58.085,50.369,53.278999999999996,33.2545,58.04,49.787,-0.044499999999999984,-0.11249999999999982,0.103605,0.10802500000000001,0.0,206.14,206.09,203.56333333333333,203.56333333333333,0.0,0.0
3,0.0,0.0,0.0,1.0,1.0,0.0,0.0,1.0,0.0,100.0,1.0,1.1856,26.0,0.0,0.0,0.0,52.999997,0.0,26.0,26.0,26.0,26.0,-0.060111111111111115,0.30110000000000015,0.1784,292.862,-2.6823,-2.68475,-1.5513,-1.4874,-265.45,215.405,190.927125,0.0,0.0,0.0,0.0,0.007533333333333392,-5.498166666666667,-5.498166666666667,-0.49710000000000004,0.14849999999999997,0.004666666666666597,-1.5310000000000001,65.95400000000001,-0.03369999999999995,-0.18452500000000002,0.6060000000000008,100.0,1.0,1.0,203.33333333333331,0.0,0.0,0.0,0.0,0.0,0.0,0.0,8618.5,0.0,55.0,5.0,237.40666666666667,1.0,0.0,0.0,0.0,0.0,0.0,0.0,0.0,0.15899999999999892,0.15899999999999892,0.0,0.0,1.0,55.0,616.79921,10000.0,85.000001,85.000001,85.000001,85.000001,395.0,0.0,0.0,0.0,1.0,166.665,53.284,53.284,47.318,47.318,34.0,-23.805,20.759999999999998,-34.08,28.2825,0.0,1782.758,0.5599999999999987,100.0,27.794,27.46,42.275,42.297,0.0,0.0,100.0,0.0,0.0,0.0,0.0,2875.0,2945.1,4531.444444444444,4383.8,306.171,305.44,313.7595,313.8675,21.8005,20.5288,21.8268,21.3589,314.999998,314.999998,324.999988,324.999988,99.5587,99.50718333333333,99.56663333333333,99.54641666666667,0.02066666666666661,-0.10699999999999998,-0.13616666666666666,0.07766666666666668,-0.04833333333333201,-0.05333333333332746,1.405,1.433,37.253,29.305,37.418,34.493,56.16444444444444,34.571,59.517,52.098,54.09,33.734,58.122,50.433,53.261,33.292,58.074,49.85,-0.034499999999999975,-0.11750000000000016,0.10702,0.10598,0.0,206.64,206.57999999999998,203.33333333333331,203.33333333333331,0.0,0.0
4,0.0,0.0,0.0,1.0,1.0,0.0,0.0,1.0,0.0,100.0,1.0,1.1856,26.0,0.0,0.0,0.0,52.999997,0.0,26.0,26.0,26.0,26.0,-0.089,0.29200000000000004,-0.07050000000000001,293.411,-2.674,-2.7430000000000003,-1.4956,-1.5908,-262.29,215.405,190.909125,0.0,0.0,0.0,0.0,0.009366666666666523,-5.498166666666667,-5.498166666666667,-0.5336000000000001,-0.839,-0.040000000000000036,0.5,66.09100000000001,-0.04169999999999996,-0.23920000000000002,0.9340000000000002,100.0,1.0,1.0,204.00666666666666,0.0,0.0,0.0,0.0,0.0,0.0,0.0,8647.1,0.0,55.0,5.0,237.89666666666668,0.0,0.0,0.0,0.0,0.0,0.0,0.0,0.0,0.20700000000000074,0.20700000000000074,0.0,0.0,0.0,55.0,616.79921,10000.0,85.000001,85.000001,85.000001,85.000001,395.0,0.0,0.0,0.0,1.0,166.665,52.994,52.994,48.813,48.813,34.0,-26.9325,21.038,-29.173333333333336,23.6725,0.0,1782.71,0.5899999999999999,100.0,27.831,27.114,42.882,42.209,0.0,0.0,100.0,0.0,0.0,0.0,0.0,3113.4285714285716,2947.9,3986.8888888888887,3845.7,305.279,305.494,315.0885,315.28725,21.8098,20.5336,21.8369,21.3673,314.999998,314.999998,324.999988,324.999988,99.5587,99.5072,99.56675,99.54653333333333,0.006000000000000227,-0.1116666666666668,-0.16466666666666666,0.05633333333333334,-0.051666666666669414,-0.036666666666668846,1.5675,1.6165,37.311,29.335,37.480999999999995,34.546,56.15,34.608000000000004,59.556,52.152,54.075,33.768,58.158,50.485,53.245,33.3245,58.107,49.901,-0.025499999999999856,-0.11799999999999988,0.10384,0.10392000000000001,0.0,207.01999999999998,206.94,204.00666666666666,204.00666666666666,0.0,0.0
5,0.0,0.0,0.0,1.0,1.0,0.0,0.0,1.0,0.0,100.0,1.0,1.1856,26.0,0.0,0.0,0.0,52.999997,0.0,26.0,26.0,26.0,26.0,-0.066,0.30590000000000006,-0.057925000000000004,293.747,-2.6529,-2.7196249999999997,-1.5449000000000002,-1.5708,-258.91,215.405,190.889375,0.0,0.0,0.0,0.0,0.011333333333333306,-5.498166666666667,-5.498166666666667,-0.537,0.6054999999999999,-0.026555555555555888,-0.548,66.236,-0.06109999999999993,-0.22137500000000002,0.9520000000000008,100.0,1.0,1.0,204.53,0.0,0.0,0.0,0.0,0.0,0.0,0.0,8669.3,0.0,55.0,5.0,238.42000000000002,1.0,0.0,0.0,0.0,0.0,0.0,0.0,0.0,0.2579999999999991,0.2579999999999991,0.0,0.0,1.0,55.0,616.79921,10000.0,85.000001,85.000001,85.000001,85.000001,395.0,0.0,0.0,0.0,1.0,333.33500000000004,53.329,53.329,49.132999999999996,49.132999999999996,34.0,-26.075,20.04,-30.23,23.189999999999998,0.0,1782.658,0.33999999999999986,100.0,27.554000000000002,27.094,42.319,41.672,0.0,0.0,100.0,0.0,0.0,0.0,0.0,3073.142857142857,2874.1,3955.5555555555557,3953.2,305.529,305.4843333333333,315.26175,315.04775,21.8196,20.5388,21.8473,21.3761,314.999998,314.999998,324.999988,324.999988,99.5587,99.50721666666666,99.5669,99.54668333333333,0.008333333333333304,-0.1233333333333333,-0.1845,0.03666666666666667,-0.05833333333333002,-0.04999999999999716,1.5885,1.6275,37.373000000000005,29.367666666666665,37.546,34.601,56.13444444444445,34.649,59.591,52.209,54.061,33.8055,58.191,50.54,53.23,33.36,58.138,49.954,-0.05049999999999999,-0.10000000000000009,0.10206000000000001,0.10379500000000001,0.0,207.53,207.45,204.53,204.53,0.0,0.0
6,0.0,0.0,0.0,1.0,1.0,0.0,0.0,1.0,0.0,100.0,1.0,1.1856,26.0,0.0,0.0,0.0,52.999997,0.0,26.0,26.0,26.0,26.0,-0.09777777777777777,0.30469999999999997,0.024625,293.533,-2.6814999999999998,-2.7753750000000004,-1.4891,-1.5863,-255.73,215.4025,190.869875,0.0,0.0,0.0,0.0,0.01319999999999999,-5.498166666666667,-5.498166666666667,-0.5281,-0.3340000000000001,-0.04977777777777792,-1.0310000000000001,66.377,-0.06359999999999999,-0.205175,0.7879999999999994,100.0,1.0,1.0,204.78,0.0,0.0,0.0,0.0,0.0,0.0,0.0,8679.9,0.0,55.0,5.0,238.92666666666668,0.0,0.0,0.0,0.0,0.0,0.0,0.0,0.0,0.30600000000000094,0.30600000000000094,0.0,0.0,0.0,55.0,616.79921,10000.0,85.000001,85.000001,85.000001,85.000001,395.0,0.0,0.0,0.0,1.0,166.665,53.574,53.574,48.676,48.676,34.0,-28.435000000000002,19.34,-32.79,23.877499999999998,0.0,1782.611,0.25,100.0,27.306,26.726,42.532,41.834,0.0,0.0,100.0,0.0,0.0,0.0,0.0,3223.857142857143,2768.4,4235.333333333333,4030.2,305.1845,305.87333333333333,314.54025,314.769,21.8288,20.5436,21.8573,21.3846,314.999998,314.999998,324.999988,324.999988,99.55871666666667,99.50723333333333,99.56703333333333,99.5468,-0.008999999999999897,-0.1293333333333333,-0.18966666666666665,0.02733333333333333,-0.054999999999999716,-0.04833333333333201,1.5115,1.546,37.43,29.397333333333336,37.608000000000004,34.653999999999996,56.117777777777775,34.685,59.629,52.266,54.045,33.839,58.226,50.594,53.214,33.391999999999996,58.17,50.008,-0.04849999999999999,-0.09750000000000014,0.10708500000000001,0.096795,0.0,207.93,207.85000000000002,204.78,204.78,0.0,0.0
7,0.0,0.0,0.0,1.0,1.0,0.0,0.0,1.0,0.0,100.0,1.0,1.1856,26.0,0.0,0.0,0.0,52.999997,0.0,26.0,26.0,26.0,26.0,-0.08322222222222223,0.2945,-0.016675000000000002,293.488,-2.6778,-2.775625,-1.5413000000000001,-1.5451000000000001,-252.34,215.3975,190.84925,0.0,0.0,0.0,0.0,0.01516666666666655,-5.498166666666667,-5.498166666666667,-0.5342,0.10549999999999993,-0.03722222222222227,1.298,66.521,-0.06559999999999999,-0.21595,0.548,100.0,1.0,1.0,205.29000000000002,0.0,0.0,0.0,0.0,0.0,0.0,0.0,8701.4,0.0,55.0,5.0,239.44666666666666,1.0,0.0,0.0,0.0,0.0,0.0,0.0,0.0,0.3569999999999993,0.3569999999999993,0.0,0.0,1.0,55.0,616.79921,10000.0,85.000001,85.000001,85.000001,85.000001,395.0,0.0,0.0,0.0,1.0,333.33500000000004,53.268,53.268,48.721000000000004,48.721000000000004,34.0,-25.8025,22.11,-31.69333333333333,23.925,0.0,1782.559,-0.08500000000000085,100.0,27.746,26.778,42.653999999999996,41.669,0.0,0.0,100.0,0.0,0.0,0.0,0.0,3090.4285714285716,2955.4,4119.777777777777,4026.0,305.3285,305.452,314.78875,314.94125,21.8387,20.5488,21.8679,21.3936,314.999998,314.999998,324.999988,324.999988,99.55871666666667,99.50723333333333,99.56718333333333,99.54695,0.02933333333333321,-0.09399999999999986,-0.17733333333333334,0.0445,-0.041666666666671404,-0.023333333333326323,1.5445,1.5605,37.492000000000004,29.43,37.674,34.71,56.10333333333333,34.726,59.667,52.324,54.031,33.8765,58.262,50.65,53.199,33.428,58.203,50.062,-0.0794999999999999,-0.07050000000000001,0.105075,0.10957000000000001,0.0,208.385,208.29500000000002,205.29000000000002,205.29000000000002,0.0,0.0
8,0.0,0.0,0.0,1.0,1.0,0.0,0.0,1.0,0.0,100.0,1.0,1.1856,26.0,0.0,0.0,0.0,52.999997,0.0,26.0,26.0,26.0,26.0,-0.051000000000000004,0.2942,-0.023200000000000002,293.533,-2.6954,-2.7030000000000003,-1.5550000000000002,-1.6001,-248.94,215.39,190.82875,0.0,0.0,0.0,0.0,0.017133333333333334,-5.498166666666667,-5.498166666666667,-0.5368,-0.07400000000000007,-0.030888888888888744,-1.162,66.666,-0.05579999999999996,-0.218925,0.23799999999999955,100.0,1.0,1.0,205.74666666666667,0.0,0.0,0.0,0.0,0.0,0.0,0.0,8720.9,0.0,55.0,5.0,239.96666666666667,0.0,0.0,0.0,0.0,0.0,0.0,0.0,0.0,0.40800000000000125,0.40800000000000125,0.0,0.0,0.0,55.0,616.79921,10000.0,85.000001,85.000001,85.000001,85.000001,395.0,0.0,0.0,0.0,1.0,333.33500000000004,53.36,53.36,48.492,48.492,34.0,-25.7675,21.548,-31.07333333333333,24.4075,0.0,1782.508,-0.18499999999999872,100.0,27.323,27.101,42.561,41.925,0.0,0.0,100.0,0.0,0.0,0.0,0.0,3120.285714285714,2938.0,4095.8888888888887,3931.1000000000004,305.488,305.32033333333334,314.91775,315.025,21.8485,20.5541,21.8784,21.4026,314.999998,314.999998,324.999988,324.999988,99.55871666666667,99.50725,99.56731666666667,99.5471,0.033333333333333215,-0.09433333333333316,-0.1685,0.049833333333333334,-0.041666666666671404,-0.03999999999999915,1.554,1.5590000000000002,37.553,29.463,37.739999999999995,34.7665,56.08777777777778,34.765,59.705,52.384,54.016,33.913,58.297,50.708,53.183,33.463,58.235,50.119,-0.09199999999999986,-0.052000000000000046,0.10659500000000001,0.10228500000000001,0.0,208.8,208.78,205.74666666666667,205.74666666666667,0.0,0.0
9,0.0,0.0,0.0,1.0,1.0,0.0,0.0,1.0,0.0,100.0,1.0,1.1856,26.0,0.0,0.0,0.0,52.999997,0.0,26.0,26.0,26.0,26.0,-0.036333333333333336,0.2811000000000001,0.014775,293.243,-2.6665,-2.724375,-1.5406,-1.5607,-245.54,215.38,190.807875,0.0,0.0,0.0,0.0,0.019133333333333336,-5.498166666666667,-5.498166666666667,-0.5332,0.21450000000000002,-0.03766666666666696,0.739,66.81,-0.03979999999999995,-0.211425,-0.03799999999999937,100.0,1.0,1.0,206.15,0.0,0.0,0.0,0.0,0.0,0.0,0.0,8738.0,0.0,55.0,5.0,240.48666666666668,1.0,0.0,0.0,0.0,0.0,0.0,0.0,0.0,0.45899999999999963,0.45899999999999963,0.0,0.0,1.0,55.0,616.79921,10000.0,85.000001,85.000001,85.000001,85.000001,395.0,0.0,0.0,0.0,1.0,166.665,53.009,53.009,48.584,48.584,34.0,-24.715,23.774,-29.74,26.697499999999998,0.0,1782.458,-0.3049999999999997,100.0,27.709,26.958,42.608000000000004,41.961,0.0,0.0,100.0,0.0,0.0,0.0,0.0,3105.5714285714284,3062.8,4081.1111111111113,4135.6,305.311,305.128,314.90925,314.63475,21.8583,20.5594,21.889,21.4117,314.999998,314.999998,324.999988,324.999988,99.55873333333334,99.50726666666667,99.56746666666666,99.54723333333334,0.055333333333333456,-0.06533333333333324,-0.14483333333333334,0.0765,-0.036666666666668846,-0.05333333333332746,1.5325,1.5510000000000002,37.614000000000004,29.496000000000002,37.806,34.823,56.07333333333333,34.804,59.743,52.443,54.003,33.9485,58.333,50.765,53.169,33.4975,58.268,50.174,-0.09549999999999992,-0.047499999999999876,0.104715,0.10169,0.0,209.255,209.25,206.15,206.15,0.0,0.0
10,0.0,0.0,0.0,1.0,1.0,0.0,0.0,1.0,0.0,100.0,1.0,1.1856,26.0,0.0,0.0,0.0,52.999997,0.0,26.0,26.0,26.0,26.0,-0.008555555555555556,0.2876000000000001,0.0016,293.228,-2.6881,-2.691875,-1.5603,-1.5402,-242.13,215.3725,190.787,0.0,0.0,0.0,0.0,0.021100000000000008,-5.498166666666667,-5.498166666666667,-0.5309,-0.31499999999999995,-0.011333333333333417,-0.15700000000000003,66.955,-0.023799999999999932,-0.21345,-0.13999999999999968,100.0,1.0,1.0,206.52666666666667,0.0,0.0,0.0,0.0,0.0,0.0,0.0,8753.8,0.0,55.0,5.0,241.01,0.0,0.0,0.0,0.0,0.0,0.0,1.0,0.0,0.509999999999998,0.509999999999998,0.0,0.0,0.0,55.0,616.79921,10000.0,85.000001,85.000001,85.000001,85.000001,395.0,0.0,0.0,0.0,1.0,166.665,53.299,53.299,48.385999999999996,48.385999999999996,34.0,-24.19,22.778,-30.013333333333332,27.36,0.0,1782.408,-0.370000000000001,100.0,27.423000000000002,27.088,42.583,42.352000000000004,0.0,0.0,100.0,0.0,0.0,0.0,0.0,3086.4285714285716,2959.4,4137.777777777777,4191.8,305.5625,305.2873333333333,314.81025,314.38325,21.868,20.5646,21.8995,21.4208,314.999998,314.999998,324.999988,324.999988,99.55873333333334,99.50726666666667,99.56761666666667,99.54736666666666,0.06300000000000017,-0.06499999999999995,-0.135,0.0815,-0.046666666666666856,-0.046666666666666856,1.522,1.5270000000000001,37.675,29.528666666666666,37.872,34.879999999999995,56.05888888888889,34.842,59.781,52.504,53.989,33.9835,58.368,50.823,53.155,33.5305,58.3,50.232,-0.10799999999999987,-0.044500000000000206,0.10509500000000001,0.101705,0.0,209.68,209.69,206.52666666666667,206.52666666666667,0.0,0.0
11,0.0,0.0,0.0,1.0,1.0,0.0,0.0,1.0,0.0,100.0,1.0,1.1856,26.0,0.0,0.0,0.0,52.999997,0.0,26.0,26.0,26.0,26.0,0.00977777777777778,0.27690000000000015,-0.020125,293.472,-2.7067,-2.69125,-1.5603,-1.5177,-238.71,215.3625,190.766,0.0,0.0,0.0,0.0,0.022599999999999953,-5.498166666666667,-5.498166666666667,-0.5513,-0.1755,0.012444444444444258,0.768,67.09700000000001,-0.010399999999999965,-0.22307500000000002,-0.3020000000000005,100.0,1.0,1.0,207.06666666666666,0.0,0.0,0.0,0.0,0.0,0.0,0.0,8776.8,0.0,55.0,5.0,241.51999999999998,1.0,0.0,0.0,0.0,0.0,0.0,1.0,0.0,0.5609999999999999,0.5609999999999999,0.0,0.0,1.0,55.0,616.79921,10000.0,85.000001,85.000001,85.000001,85.000001,395.0,0.0,0.0,0.0,1.0,166.665,53.223,53.223,48.859,48.859,34.0,-23.285,25.172,-26.259999999999998,28.2075,0.0,1782.357,-0.9499999999999993,100.0,27.359,27.018,42.422,42.253,0.0,0.0,100.0,0.0,0.0,0.0,0.0,2999.857142857143,3140.8,3895.3333333333335,4113.2,305.6455,304.89733333333334,315.36475,314.67825,21.8776,20.5699,21.9099,21.4299,314.999998,314.999998,324.999988,324.999988,99.55875,99.50726666666667,99.56775,99.54751666666667,0.07500000000000018,-0.04233333333333311,-0.10466666666666667,0.12033333333333333,-0.030000000000001137,-0.06333333333333258,1.5795,1.552,37.735,29.561999999999998,37.937,34.9365,56.044444444444444,34.879999999999995,59.817,52.564,53.975,34.0185,58.401,50.88,53.14,33.564,58.33,50.288,-0.11499999999999999,-0.03049999999999997,0.106685,0.11034500000000001,0.0,210.10500000000002,210.13,207.06666666666666,207.06666666666666,0.0,0.0
12,0.0,0.0,0.0,1.0,1.0,0.0,0.0,1.0,0.0,100.0,1.0,1.1856,26.0,0.0,0.0,0.0,52.999997,0.0,26.0,26.0,26.0,26.0,-0.00488888888888889,0.28880000000000017,0.009225,293.106,-2.7154,-2.67075,-1.5706,-1.5295,-235.69,215.35500000000002,190.746625,0.0,0.0,0.0,0.0,0.025466666666666526,-5.498166666666667,-5.498166666666667,-0.5419,0.38049999999999995,0.017222222222222028,-0.7070000000000001,67.223,0.0038000000000000256,-0.20497500000000002,-0.44200000000000017,100.0,1.0,1.0,207.38666666666666,0.0,0.0,0.0,0.0,0.0,0.0,0.0,8790.3,0.0,55.0,5.0,241.97333333333336,0.0,0.0,0.0,0.0,0.0,0.0,1.0,0.0,0.6059999999999981,0.6059999999999981,0.0,0.0,0.0,55.0,616.79921,10000.0,85.000001,85.000001,85.000001,85.000001,395.0,0.0,0.0,0.0,1.0,333.33500000000004,52.948,52.948,48.248,48.248,34.0,-26.1025,22.2,-28.576666666666664,28.962500000000002,0.0,1782.311,0.6050000000000004,100.0,27.323,27.485,42.245000000000005,42.371,0.0,0.0,100.0,0.0,0.0,0.0,0.0,3094.0,3087.7,4131.444444444444,4214.5,305.531,304.87333333333333,314.855,314.39675,21.8861,20.5747,21.9192,21.4379,314.999998,314.999998,324.999988,324.999988,99.55876666666667,99.50728333333333,99.56788333333333,99.54765,0.02499999999999991,-0.1016666666666668,-0.10716666666666667,0.112,-0.060000000000002274,-0.03833333333332689,1.536,1.52,37.788,29.592,37.995000000000005,34.9865,56.03333333333333,34.914,59.848,52.616,53.965,34.0495,58.43,50.931,53.129,33.594,58.357,50.337,-0.045499999999999874,-0.10349999999999993,0.10530500000000001,0.103495,0.0,210.525,210.54000000000002,207.38666666666666,207.38666666666666,0.0,0.0
13,0.0,0.0,0.0,1.0,1.0,0.0,0.0,1.0,0.0,100.0,1.0,1.1856,26.0,0.0,0.0,0.0,52.999997,0.0,26.0,26.0,26.0,26.0,0.04066666666666666,0.2814000000000001,0.021875000000000002,292.877,-2.6871,-2.69875,-1.5563,-1.5455999999999999,-232.25,215.345,190.725125,0.0,0.0,0.0,0.0,0.026833333333333376,-5.498166666666667,-5.498166666666667,-0.5389,-0.26449999999999996,0.008999999999999897,1.042,67.366,0.0051000000000001044,-0.215725,-0.32399999999999984,100.0,1.0,1.0,207.76666666666665,0.0,0.0,0.0,0.0,0.0,0.0,0.0,8806.4,0.0,55.0,5.0,242.48666666666668,1.0,0.0,0.0,0.0,0.0,0.0,1.0,0.0,0.657,0.657,0.0,0.0,1.0,55.0,616.79921,10000.0,85.000001,85.000001,85.000001,85.000001,395.0,0.0,0.0,0.0,1.0,166.665,52.887,52.887,48.111,48.111,34.0,-21.695,26.094,-27.41,30.7825,0.0,1782.26,-0.41999999999999815,100.0,27.721,27.403,42.726,42.676,0.0,0.0,100.0,0.0,0.0,0.0,0.0,3011.4285714285716,3121.3,4084.5555555555557,4288.7,305.5985,304.95733333333334,314.84775,314.267,21.895699999999998,20.5801,21.9298,21.4471,314.999998,314.999998,324.999988,324.999988,99.55876666666667,99.50728333333333,99.56801666666667,99.54778333333333,0.11166666666666636,-0.016999999999999904,-0.09033333333333333,0.12866666666666665,-0.023333333333326323,-0.07499999999999574,1.509,1.491,37.848,29.625666666666667,38.061,35.0445,56.02111111111111,34.952,59.886,52.678,53.952,34.085499999999996,58.466,50.991,53.115,33.6285,58.389,50.396,-0.11549999999999994,-0.032500000000000195,0.10386000000000001,0.10870500000000001,0.0,210.945,210.97500000000002,207.76666666666665,207.76666666666665,0.0,0.0
14,0.0,0.0,0.0,1.0,1.0,0.0,0.0,1.0,0.0,100.0,1.0,1.1856,26.0,0.0,0.0,0.0,52.999997,0.0,26.0,26.0,26.0,26.0,0.04822222222222222,0.2773000000000001,-0.042800000000000005,293.121,-2.6877,-2.70425,-1.5683,-1.5379,-228.81,215.3375,190.70375,0.0,0.0,0.0,0.0,0.028833333333333377,-5.498166666666667,-5.498166666666667,-0.5502,-0.014499999999999957,0.021666666666666723,-0.401,67.505,0.01110000000000011,-0.22340000000000002,-0.3979999999999997,100.0,1.0,1.0,208.29333333333335,0.0,0.0,0.0,0.0,0.0,0.0,0.0,8828.7,0.0,55.0,5.0,242.99,0.0,0.0,0.0,0.0,0.0,0.0,1.0,0.0,0.7079999999999984,0.7079999999999984,0.0,0.0,0.0,55.0,616.79921,10000.0,85.000001,85.000001,85.000001,85.000001,395.0,0.0,0.0,0.0,1.0,166.665,52.933,52.933,48.492,48.492,34.0,-22.6925,24.724,-27.243333333333336,28.4525,0.0,1782.209,-0.5150000000000006,100.0,27.523,27.687,42.505,42.797,0.0,0.0,100.0,0.0,0.0,0.0,0.0,3073.714285714286,2992.7,3986.4444444444443,4087.7,305.6055,305.13233333333335,315.18825,314.6995,21.9053,20.5856,21.9402,21.4562,314.999998,314.999998,324.999988,324.999988,99.55878333333334,99.5073,99.56816666666667,99.54793333333333,0.09566666666666634,-0.028999999999999915,-0.10616666666666667,0.12183333333333334,-0.041666666666671404,-0.046666666666666856,1.5565,1.5465,37.908,29.659666666666666,38.126000000000005,35.1015,56.00888888888889,34.99,59.922,52.738,53.941,34.12,58.499,51.048,53.102,33.662,58.419,50.452,-0.11749999999999994,-0.03149999999999986,0.10799500000000001,0.108435,0.0,211.385,211.4,208.29333333333335,208.29333333333335,0.0,0.0
15,0.0,0.0,0.0,1.0,1.0,0.0,0.0,1.0,0.0,100.0,1.0,1.1856,26.0,0.0,0.0,0.0,52.999997,0.0,26.0,26.0,26.0,26.0,0.051000000000000004,0.2691000000000001,-0.026775,292.999,-2.6775,-2.681375,-1.5567,-1.5599,-225.57,215.32999999999998,190.683125,0.0,0.0,0.0,0.0,0.03073333333333339,-5.498166666666667,-5.498166666666667,-0.543,0.20299999999999996,0.02877777777777779,-0.7630000000000001,67.638,0.01629999999999998,-0.21055000000000001,-0.3860000000000001,100.0,1.0,1.0,208.66333333333333,0.0,0.0,0.0,0.0,0.0,0.0,0.0,8844.4,0.0,55.0,5.0,243.46666666666667,1.0,0.0,0.0,0.0,0.0,0.0,1.0,0.0,0.7560000000000002,0.7560000000000002,0.0,0.0,1.0,55.0,616.79921,10000.0,85.000001,85.000001,85.000001,85.000001,395.0,0.0,0.0,0.0,1.0,166.665,52.933,52.933,48.248,48.248,34.0,-22.485,24.282,-27.566666666666666,29.8325,0.0,1782.161,-0.39000000000000057,100.0,27.523,27.812,42.416,42.916,0.0,0.0,100.0,0.0,0.0,0.0,0.0,3060.285714285714,2979.9,4096.444444444444,4113.6,305.6435,305.15433333333334,314.937,314.60175,21.9142,20.5907,21.95,21.4649,314.999998,314.999998,324.999988,324.999988,99.5588,99.5073,99.5683,99.54806666666667,0.09600000000000009,-0.032333333333333325,-0.0955,0.1355,-0.060000000000002274,-0.04333333333332945,1.5265,1.5175,37.964,29.692,38.188,35.1555,55.99666666666667,35.025999999999996,59.955,52.795,53.93,34.153,58.53,51.103,53.09,33.6935,58.447,50.506,-0.10699999999999998,-0.0405000000000002,0.10640500000000001,0.10949,0.0,211.82,211.825,208.66333333333333,208.66333333333333,0.0,0.0
16,0.0,0.0,0.0,1.0,1.0,0.0,0.0,1.0,0.0,100.0,1.0,1.1856,26.0,0.0,0.0,0.0,52.999997,0.0,26.0,26.0,26.0,26.0,0.035444444444444445,0.2752000000000001,-0.0049250000000000006,292.77,-2.7034,-2.63225,-1.5888,-1.5582,-222.12,215.325,190.661125,0.0,0.0,0.0,0.0,0.03273333333333339,-5.498166666666667,-5.498166666666667,-0.5531,-0.2795000000000001,0.022222222222222143,0.29899999999999993,67.778,0.021200000000000108,-0.22412500000000002,-0.3460000000000001,100.0,1.0,1.0,209.07,0.0,0.0,0.0,0.0,0.0,0.0,0.0,8861.7,0.0,55.0,5.0,243.97333333333336,0.0,0.0,0.0,0.0,0.0,0.0,1.0,0.0,0.8069999999999986,0.8069999999999986,0.0,0.0,0.0,55.0,616.79921,10000.0,85.000001,85.000001,85.000001,85.000001,395.0,0.0,0.0,0.0,1.0,166.665,52.475,52.475,47.958,47.958,34.0,-22.7475,26.381999999999998,-26.936666666666664,29.505,0.0,1782.11,-0.3150000000000013,100.0,27.637999999999998,27.761,42.729,42.998000000000005,0.0,0.0,100.0,0.0,0.0,0.0,0.0,3076.0,3239.3,4060.3333333333335,4063.8,305.4215,304.5656666666667,314.9895,314.777,21.9237,20.5962,21.9606,21.4741,314.999998,314.999998,324.999988,324.999988,99.5588,99.5073,99.56845,99.54821666666666,0.1033333333333335,-0.023666666666666725,-0.07916666666666668,0.13966666666666666,-0.04999999999999716,-0.03999999999999915,1.525,1.521,38.022999999999996,29.726333333333336,38.254000000000005,35.213,55.983333333333334,35.064,59.993,52.856,53.917,34.189,58.565,51.162,53.077,33.7275,58.479,50.563,-0.09899999999999998,-0.052000000000000046,0.10204,0.10935,0.0,212.21,212.24,209.07,209.07,0.0,0.0
17,0.0,0.0,0.0,1.0,1.0,0.0,0.0,1.0,0.0,100.0,1.0,1.1856,26.0,0.0,0.0,0.0,52.999997,0.0,26.0,26.0,26.0,26.0,0.040888888888888884,0.2714000000000001,0.039375,292.542,-2.6669,-2.713875,-1.5495999999999999,-1.5173999999999999,-218.66,215.32,190.639,0.0,0.0,0.0,0.0,0.034733333333333394,-5.498166666666667,-5.498166666666667,-0.5505,0.139,-0.000888888888888939,-1.0950000000000002,67.918,0.01970000000000005,-0.218025,-0.18200000000000038,100.0,1.0,1.0,209.45,0.0,0.0,0.0,0.0,0.0,0.0,0.0,8877.8,0.0,55.0,5.0,244.47666666666666,1.0,0.0,0.0,0.0,0.0,0.0,1.0,0.0,0.8580000000000005,0.8580000000000005,0.0,0.0,1.0,55.0,616.79921,10000.0,85.000001,85.000001,85.000001,85.000001,395.0,0.0,0.0,0.0,1.0,166.665,52.505,52.505,47.699,47.699,34.0,-23.0025,24.634,-28.726666666666663,29.4575,0.0,1782.059,-0.23499999999999943,100.0,27.741,28.063,42.671,43.097,0.0,0.0,100.0,0.0,0.0,0.0,0.0,3117.714285714286,3026.0,4229.444444444444,4211.5,305.4135,304.9096666666667,314.6015,314.417,21.9333,20.6018,21.9711,21.4833,314.999998,314.999998,324.999988,324.999988,99.55881666666667,99.50731666666667,99.56858333333334,99.54835,0.0950000000000002,-0.04499999999999993,-0.0955,0.12183333333333334,-0.05666666666667197,-0.03833333333332689,1.495,1.49,38.083,29.761,38.319,35.2705,55.971111111111114,35.103,60.028999999999996,52.916,53.905,34.2245,58.598,51.219,53.064,33.762,58.51,50.62,-0.09699999999999998,-0.059499999999999886,0.10493000000000001,0.09967500000000001,0.0,212.66500000000002,212.675,209.45,209.45,0.0,0.0
18,0.0,0.0,0.0,1.0,1.0,0.0,0.0,1.0,0.0,100.0,1.0,1.1856,26.0,0.0,0.0,0.0,52.999997,0.0,26.0,26.0,26.0,26.0,0.03855555555555556,0.2801,0.0184,292.587,-2.6593999999999998,-2.7422500000000003,-1.5350000000000001,-1.5865,-215.39,215.315,190.617875,0.0,0.0,0.0,0.0,0.036633333333333296,-5.498166666666667,-5.498166666666667,-0.5616,-0.383,0.00011111111111095084,-0.71,68.048,0.016800000000000148,-0.22645,-0.1459999999999999,100.0,1.0,1.0,209.85333333333335,0.0,0.0,0.0,0.0,0.0,0.0,0.0,8895.0,0.0,55.0,5.0,244.94666666666666,0.0,0.0,0.0,0.0,0.0,0.0,1.0,0.0,0.9059999999999988,0.9059999999999988,0.0,0.0,0.0,55.0,616.79921,10000.0,85.000001,85.000001,85.000001,85.000001,395.0,0.0,0.0,0.0,1.0,166.665,52.505,52.505,47.943,47.943,34.0,-23.5875,24.887999999999998,-27.64,29.6975,0.0,1782.012,-0.1750000000000007,100.0,27.726,27.951999999999998,42.839,43.231,0.0,0.0,100.0,0.0,0.0,0.0,0.0,3148.142857142857,3046.1,4084.222222222222,4138.2,305.3745,304.91766666666666,314.91475,314.4575,21.9422,20.6069,21.981,21.4919,314.999998,314.999998,324.999988,324.999988,99.55883333333334,99.50731666666667,99.56873333333333,99.5485,0.08466666666666667,-0.04699999999999993,-0.10133333333333333,0.11783333333333333,-0.04833333333333201,-0.054999999999999716,1.5065,1.506,38.138999999999996,29.793,38.381,35.3245,55.958888888888886,35.138,60.063,52.972,53.893,34.257,58.63,51.274,53.051,33.7935,58.539,50.673,-0.08999999999999986,-0.06050000000000022,0.10880000000000001,0.09979,0.0,213.07,213.065,209.85333333333335,209.85333333333335,0.0,0.0
19,0.0,0.0,0.0,1.0,1.0,0.0,0.0,1.0,0.0,100.0,1.0,1.1856,26.0,0.0,0.0,0.0,52.999997,0.0,26.0,26.0,26.0,26.0,0.03233333333333334,0.27180000000000004,0.024,292.374,-2.6341,-2.710125,-1.5324,-1.6067,-211.92000000000002,215.3125,190.595,0.0,0.0,0.0,0.0,0.038666666666666516,-5.498166666666667,-5.498166666666667,-0.5519000000000001,0.5409999999999999,0.011333333333333195,0.861,68.185,0.011400000000000077,-0.21385,-0.11799999999999944,100.0,1.0,1.0,210.29333333333335,0.0,0.0,0.0,0.0,0.0,0.0,0.0,8913.5,0.0,55.0,5.0,245.44,1.0,0.0,0.0,0.0,0.0,0.0,1.0,0.0,0.9570000000000007,0.9570000000000007,0.0,0.0,1.0,55.0,616.79921,10000.0,85.000001,85.000001,85.000001,85.000001,395.0,0.0,0.0,0.0,1.0,166.665,52.185,52.185,47.913,47.913,34.0,-22.375,25.214,-27.576666666666664,31.0325,0.0,1781.96,-0.16000000000000014,100.0,28.393,28.168,42.856,43.14,0.0,0.0,100.0,0.0,0.0,0.0,0.0,3024.142857142857,3104.9,4093.1111111111113,4235.5,305.533,304.90833333333336,314.875,314.357,21.9518,20.6125,21.9915,21.5011,314.999998,314.999998,324.999988,324.999988,99.55885,99.50731666666667,99.56886666666666,99.54865,0.08833333333333337,-0.04066666666666663,-0.09883333333333333,0.1245,-0.03166666666666629,-0.045000000000001705,1.5065,1.499,38.199,29.828,38.447,35.382,55.94777777777778,35.178,60.098,53.032,53.882,34.294,58.663,51.332,53.039,33.8285,58.568,50.73,-0.08749999999999991,-0.06349999999999989,0.11132,0.10386000000000001,0.0,213.51999999999998,213.515,210.29333333333335,210.29333333333335,0.0,0.0
20,0.0,0.0,0.0,1.0,1.0,0.0,0.0,1.0,0.0,100.0,1.0,1.1856,26.0,0.0,0.0,0.0,52.999997,0.0,26.0,26.0,26.0,26.0,0.029111111111111112,0.2674000000000001,-0.026625000000000003,292.404,-2.7065,-2.657375,-1.6075,-1.5894,-208.44,215.3075,190.572625,0.0,0.0,0.0,0.0,0.04069999999999996,-5.498166666666667,-5.498166666666667,-0.5569000000000001,-0.655,0.00911111111111107,-0.913,68.32300000000001,0.008299999999999974,-0.226575,0.008000000000000007,100.0,1.0,1.0,210.70333333333332,0.0,0.0,0.0,0.0,0.0,0.0,0.0,8931.0,0.0,55.0,5.0,245.93666666666667,0.0,0.0,0.0,0.0,0.0,0.0,0.0,0.0,1.0079999999999991,1.0079999999999991,0.0,0.0,0.0,55.0,616.79921,10000.0,85.000001,85.000001,85.000001,85.000001,395.0,0.0,0.0,0.0,1.0,333.33500000000004,52.444,52.444,47.394,47.394,34.0,-23.7475,23.968,-29.94333333333333,28.61,0.0,1781.908,-0.15500000000000114,100.0,27.887999999999998,28.126,43.302,43.65,0.0,0.0,100.0,0.0,0.0,0.0,0.0,3129.5714285714284,3048.0,4185.555555555556,3997.9,305.48,305.00666666666666,314.789,314.83725,21.9613,20.618,22.0021,21.5104,314.999998,314.999998,324.999988,324.999988,99.55885,99.50731666666667,99.569,99.54878333333333,0.0863333333333336,-0.04899999999999993,-0.11316666666666668,0.11916666666666667,-0.07000000000000028,-0.045000000000001705,1.5105,1.499,38.257999999999996,29.862333333333332,38.513,35.44,55.93333333333333,35.216,60.136,53.094,53.869,34.329499999999996,58.698,51.391,53.025,33.8625,58.6,50.787,-0.09050000000000002,-0.06550000000000011,0.10671000000000001,0.10354000000000001,0.0,213.92000000000002,213.89,210.70333333333332,210.70333333333332,0.0,0.0
21,0.0,0.0,0.0,1.0,1.0,0.0,0.0,1.0,0.0,100.0,1.0,1.1856,26.0,0.0,0.0,0.0,52.999997,0.0,26.0,26.0,26.0,26.0,0.01611111111111111,0.2821,-0.0436,292.557,-2.7204,-2.629125,-1.568,-1.5314999999999999,-205.16,215.305,190.551,0.0,0.0,0.0,0.0,0.04259999999999997,-5.498166666666667,-5.498166666666667,-0.5738,0.035499999999999976,-0.00044444444444424747,-0.6859999999999999,68.45,0.0052000000000000934,-0.224775,0.040000000000000036,100.0,1.0,1.0,211.17333333333335,0.0,0.0,0.0,0.0,0.0,0.0,0.0,8950.9,0.0,55.0,5.0,246.39333333333335,1.0,0.0,0.0,0.0,0.0,0.0,0.0,0.0,1.056000000000001,1.056000000000001,0.0,0.0,1.0,55.0,616.79921,10000.0,85.000001,85.000001,85.000001,85.000001,395.0,0.0,0.0,0.0,1.0,166.665,52.307,52.307,48.05,48.05,34.0,-25.1375,24.114,-28.11,27.4475,0.0,1781.861,-0.23000000000000043,100.0,27.926000000000002,27.954,43.019999999999996,43.259,0.0,0.0,100.0,0.0,0.0,0.0,0.0,3228.142857142857,3105.4,4044.6666666666665,4031.7,305.1815,304.86066666666665,315.086,314.88725,21.9702,20.6232,22.0119,21.519,314.999998,314.999998,324.999988,324.999988,99.55886666666666,99.50733333333334,99.56915,99.54893333333334,0.07799999999999985,-0.05133333333333323,-0.1145,0.11483333333333333,-0.046666666666666856,-0.04833333333333201,1.561,1.5655000000000001,38.314,29.894666666666666,38.574,35.4935,55.92111111111111,35.253,60.168,53.148,53.857,34.363,58.728,51.443,53.012,33.894999999999996,58.627,50.838,-0.09149999999999991,-0.06300000000000017,0.10545500000000001,0.111795,0.0,214.31,214.315,211.17333333333335,211.17333333333335,0.0,0.0
22,0.0,0.0,0.0,1.0,1.0,0.0,0.0,1.0,0.0,100.0,1.0,1.1856,26.0,0.0,0.0,0.0,52.999997,0.0,26.0,26.0,26.0,26.0,0.0041111111111111105,0.28980000000000006,0.0177,292.099,-2.7586,-2.66675,-1.5732,-1.4987,-201.66,215.3025,190.52725,0.0,0.0,0.0,0.0,0.0446333333333333,-5.498166666666667,-5.498166666666667,-0.5586,0.04949999999999999,0.009444444444444366,1.045,68.588,0.0019000000000000128,-0.2021,-0.17600000000000016,100.0,1.0,1.0,211.43666666666667,0.0,0.0,0.0,0.0,0.0,0.0,0.0,8962.0,0.0,55.0,5.0,246.89,0.0,0.0,0.0,0.0,0.0,0.0,0.0,0.0,1.1069999999999993,1.1069999999999993,0.0,0.0,0.0,55.0,616.79921,10000.0,85.000001,85.000001,85.000001,85.000001,395.0,0.0,0.0,0.0,1.0,166.665,52.338,52.338,47.211,47.211,34.0,-23.9775,25.642,-29.786666666666665,31.61,0.0,1781.81,-0.3150000000000013,100.0,28.124,27.88,43.258,43.266,0.0,0.0,100.0,0.0,0.0,0.0,0.0,3102.4285714285716,3192.3,4242.888888888889,4433.3,305.4315,304.79133333333334,314.50125,313.98125,21.9797,20.6287,22.0224,21.5282,314.999998,314.999998,324.999988,324.999988,99.55886666666666,99.50733333333334,99.5693,99.54906666666666,0.09066666666666645,-0.03633333333333311,-0.10383333333333333,0.13166666666666665,-0.03833333333332689,-0.045000000000001705,1.4889999999999999,1.464,38.373000000000005,29.929333333333332,38.64,35.551,55.90888888888889,35.292,60.205,53.208,53.845,34.399,58.762,51.501,52.999,33.9295,58.659,50.895,-0.10099999999999998,-0.052999999999999936,0.104885,0.11028500000000001,0.0,214.76,214.73000000000002,211.43666666666667,211.43666666666667,0.0,0.0
23,0.0,0.0,0.0,1.0,1.0,0.0,0.0,1.0,0.0,100.0,1.0,1.1856,26.0,0.0,0.0,0.0,52.999997,0.0,26.0,26.0,26.0,26.0,0.012777777777777779,0.27249999999999996,0.006825,292.023,-2.6616,-2.685125,-1.6386,-1.5390000000000001,-198.16,215.3,190.50375,0.0,0.0,0.0,0.0,0.04666666666666652,-5.498166666666667,-5.498166666666667,-0.5726,-0.26350000000000007,0.005555555555555536,-0.714,68.723,0.005600000000000049,-0.225475,-0.17600000000000016,100.0,1.0,1.0,211.88333333333333,0.0,0.0,0.0,0.0,0.0,0.0,0.0,8981.0,0.0,55.0,5.0,247.37666666666667,1.0,0.0,0.0,0.0,0.0,0.0,0.0,0.0,1.1580000000000013,1.1580000000000013,0.0,0.0,1.0,55.0,616.79921,10000.0,85.000001,85.000001,85.000001,85.000001,395.0,0.0,0.0,0.0,1.0,333.33500000000004,52.063,52.063,47.363,47.363,34.0,-24.3475,24.028,-30.85333333333333,29.0075,0.0,1781.758,-0.254999999999999,100.0,28.196,28.216,43.331,43.618,0.0,0.0,100.0,0.0,0.0,0.0,0.0,3228.0,3050.5,4290.444444444444,4182.5,305.0905,304.952,314.53675,314.5065,21.9892,20.6343,22.033,21.5375,314.999998,314.999998,324.999988,324.999988,99.55888333333333,99.50735,99.56945,99.54923333333333,0.08566666666666656,-0.05600000000000005,-0.10466666666666667,0.11333333333333333,-0.05833333333333002,-0.03166666666666629,1.5150000000000001,1.5110000000000001,38.432,29.964333333333336,38.706,35.6095,55.89666666666667,35.331,60.242,53.268,53.833,34.4355,58.797,51.559,52.986,33.964,58.69,50.952,-0.09949999999999992,-0.06099999999999994,0.10464000000000001,0.1097,0.0,215.135,215.15,211.88333333333333,211.88333333333333,0.0,0.0
24,0.0,0.0,0.0,1.0,1.0,0.0,0.0,1.0,0.0,100.0,1.0,1.1856,26.0,0.0,0.0,0.0,52.999997,0.0,26.0,26.0,26.0,26.0,0.02877777777777778,0.2744,-0.04855,292.48,-2.7103,-2.6855,-1.5483,-1.5567,-194.86,215.2975,190.481125,0.0,0.0,0.0,0.0,0.04859999999999998,-5.498166666666667,-5.498166666666667,-0.5867,-0.36650000000000005,0.014777777777777779,-0.21999999999999997,68.849,0.008399999999999963,-0.22360000000000002,-0.12600000000000033,100.0,1.0,1.0,212.30666666666667,0.0,0.0,0.0,0.0,0.0,0.0,0.0,8998.9,0.0,55.0,5.0,247.82999999999998,0.0,0.0,0.0,0.0,0.0,0.0,0.0,0.0,1.2059999999999995,1.2059999999999995,0.0,0.0,0.0,55.0,616.79921,10000.0,85.000001,85.000001,85.000001,85.000001,395.0,0.0,0.0,0.0,1.0,166.665,52.689,52.689,47.577,47.577,34.0,-23.04,23.808,-28.273333333333333,28.5475,0.0,1781.711,-0.26500000000000057,100.0,28.004,27.999,43.263,43.516,0.0,0.0,100.0,0.0,0.0,0.0,0.0,3054.857142857143,2991.5,4135.888888888889,4100.8,305.693,305.1743333333333,314.82075,314.68275,21.998,20.6394,22.0428,21.5462,314.999998,314.999998,324.999988,324.999988,99.5589,99.50735,99.56958333333333,99.54936666666667,0.08899999999999997,-0.04699999999999993,-0.10350000000000001,0.1135,-0.04999999999999716,-0.04333333333332945,1.5305,1.5255,38.486999999999995,29.996333333333332,38.768,35.6635,55.88444444444445,35.366,60.275,53.323,53.821,34.468,58.828,51.612,52.973,33.9955,58.718,51.004,-0.10149999999999992,-0.05900000000000016,0.10247500000000001,0.10647500000000001,0.0,215.54000000000002,215.525,212.30666666666667,212.30666666666667,0.0,0.0
25,0.0,0.0,0.0,1.0,1.0,0.0,0.0,1.0,0.0,100.0,1.0,1.1856,26.0,0.0,0.0,0.0,52.999997,0.0,26.0,26.0,26.0,26.0,0.012222222222222221,0.26370000000000005,0.002275,292.16,-2.6814,-2.66425,-1.5906,-1.5529000000000002,-191.34,215.2975,190.45575,0.0,0.0,0.0,0.0,0.05063333333333331,-5.498166666666667,-5.498166666666667,-0.6017,0.14549999999999996,0.021777777777777896,0.252,68.983,0.006299999999999972,-0.21860000000000002,-0.19599999999999973,100.0,1.0,1.0,212.75666666666666,0.0,0.0,0.0,0.0,0.0,0.0,0.0,9018.0,0.0,55.0,5.0,248.31,1.0,0.0,0.0,0.0,0.0,0.0,0.0,0.0,1.256999999999998,1.256999999999998,0.0,0.0,1.0,55.0,616.79921,10000.0,85.000001,85.000001,85.000001,85.000001,395.0,0.0,0.0,0.0,1.0,333.33500000000004,51.788,51.788,47.714,47.714,34.0,-23.61,26.96,-27.943333333333335,29.66,0.0,1781.659,-0.34999999999999787,100.0,28.169,28.116,43.116,43.269,0.0,0.0,100.0,0.0,0.0,0.0,0.0,3184.5714285714284,3330.5,4054.3333333333335,4163.6,305.105,304.28,315.05575,314.59825,22.0073,20.6451,22.0532,21.5553,314.999998,314.999998,324.999988,324.999988,99.5589,99.50735,99.56973333333333,99.5495,0.10133333333333372,-0.038000000000000034,-0.10116666666666667,0.12833333333333335,-0.05666666666667197,-0.054999999999999716,1.545,1.532,38.546,30.031666666666666,38.833,35.721000000000004,55.87111111111111,35.406,60.309,53.381,53.808,34.5045,58.859,51.668,52.96,34.0305,58.746,51.059,-0.10549999999999993,-0.05650000000000022,0.10544500000000001,0.10826000000000001,0.0,215.97,215.96,212.75666666666666,212.75666666666666,0.0,0.0
26,0.0,0.0,0.0,1.0,1.0,0.0,0.0,1.0,0.0,100.0,1.0,1.1856,26.0,0.0,0.0,0.0,52.999997,0.0,26.0,26.0,26.0,26.0,0.034,0.26249999999999996,0.051550000000000006,291.412,-2.7106,-2.65225,-1.5554999999999999,-1.5552000000000001,-187.82,215.29500000000002,190.43025,0.0,0.0,0.0,0.0,0.05266666666666653,-5.498166666666667,-5.498166666666667,-0.5752,0.23050000000000004,0.009666666666666712,-0.5609999999999999,69.118,0.007100000000000106,-0.204275,-0.17999999999999972,100.0,1.0,1.0,212.9766666666667,0.0,0.0,0.0,0.0,0.0,0.0,0.0,9027.3,0.0,55.0,5.0,248.8,0.0,0.0,0.0,0.0,0.0,0.0,0.0,0.0,1.3079999999999998,1.3079999999999998,0.0,0.0,0.0,55.0,616.79921,10000.0,85.000001,85.000001,85.000001,85.000001,395.0,0.0,0.0,0.0,1.0,333.33500000000004,51.650999999999996,51.650999999999996,46.738,46.738,34.0,-24.6425,24.158,-31.27,32.055,0.0,1781.608,-0.33999999999999986,100.0,28.65,28.631,43.502,43.837,0.0,0.0,100.0,0.0,0.0,0.0,0.0,3271.285714285714,3079.2,4446.777777777777,4425.6,305.0795,304.9723333333333,314.1205,313.846,22.0169,20.6508,22.0639,21.5647,314.999998,314.999998,324.999988,324.999988,99.55891666666666,99.50736666666667,99.56988333333334,99.54966666666667,0.09533333333333349,-0.04933333333333323,-0.10216666666666667,0.11816666666666667,-0.051666666666669414,-0.03999999999999915,1.437,1.4255,38.605000000000004,30.067333333333334,38.899,35.7795,55.861111111111114,35.446,60.347,53.443,53.799,34.5415,58.895,51.727,52.949,34.066,58.778,51.116,-0.11349999999999993,-0.05449999999999999,0.10649000000000002,0.10928,0.0,216.41,216.39499999999998,212.9766666666667,212.9766666666667,0.0,0.0
27,0.0,0.0,0.0,1.0,1.0,0.0,0.0,1.0,0.0,100.0,1.0,1.1856,26.0,0.0,0.0,0.0,52.999997,0.0,26.0,26.0,26.0,26.0,0.021444444444444443,0.2691000000000001,-0.034525,291.84,-2.7579,-2.663875,-1.615,-1.5347,-184.5,215.29500000000002,190.407125,0.0,0.0,0.0,0.0,0.05459999999999998,-5.498166666666667,-5.498166666666667,-0.5983,-0.7475,0.018999999999999906,-0.6240000000000001,69.242,0.01110000000000011,-0.23875000000000002,-0.24600000000000044,100.0,1.0,1.0,213.48666666666668,0.0,0.0,0.0,0.0,0.0,0.0,0.0,9048.9,0.0,55.0,5.0,249.24666666666667,1.0,0.0,0.0,0.0,0.0,0.0,0.0,0.0,1.355999999999998,1.355999999999998,0.0,0.0,1.0,55.0,616.79921,10000.0,85.000001,85.000001,85.000001,85.000001,395.0,0.0,0.0,0.0,1.0,333.33500000000004,51.926,51.926,46.814,46.814,34.0,-24.27,24.524,-29.213333333333335,29.0225,0.0,1781.559,-0.3200000000000003,100.0,28.324,28.631999999999998,43.886,44.095,0.0,0.0,100.0,0.0,0.0,0.0,0.0,3169.285714285714,3113.6,4166.888888888889,4106.2,305.425,304.784,314.8115,314.7195,22.0256,20.6561,22.073900000000002,21.5735,314.999998,314.999998,324.999988,324.999988,99.55893333333333,99.50736666666667,99.57001666666666,99.5498,0.09266666666666667,-0.05266666666666664,-0.10066666666666667,0.12816666666666665,-0.046666666666666856,-0.036666666666668846,1.536,1.5145,38.66,30.100666666666665,38.962,35.8345,55.84888888888889,35.483,60.382,53.499,53.787,34.5755,58.927,51.782,52.937,34.099000000000004,58.808,51.17,-0.10549999999999993,-0.05699999999999994,0.10711000000000001,0.11050000000000001,0.0,216.73000000000002,216.745,213.48666666666668,213.48666666666668,0.0,0.0
28,0.0,0.0,0.0,1.0,1.0,0.0,0.0,1.0,0.0,100.0,1.0,1.1856,26.0,0.0,0.0,0.0,52.999997,0.0,26.0,26.0,26.0,26.0,0.027,0.2715000000000001,-0.0398,291.962,-2.6817,-2.6571249999999997,-1.6273,-1.5659,-180.97,215.2975,190.38175,0.0,0.0,0.0,0.0,0.05666666666666653,-5.498166666666667,-5.498166666666667,-0.6007,0.52,0.006444444444444253,0.28300000000000003,69.373,0.013800000000000034,-0.21575,-0.35599999999999987,100.0,1.0,1.0,213.95,0.0,0.0,0.0,0.0,0.0,0.0,0.0,9068.6,0.0,55.0,5.0,249.71333333333334,0.0,0.0,0.0,0.0,0.0,0.0,0.0,0.0,1.407,1.407,0.0,0.0,0.0,55.0,616.79921,10000.0,85.000001,85.000001,85.000001,85.000001,395.0,0.0,0.0,0.0,1.0,166.665,51.941,51.941,47.195,47.195,34.0,-22.1125,25.78,-29.023333333333333,30.53,0.0,1781.51,-0.36499999999999844,100.0,28.546,28.436,43.476,43.649,0.0,0.0,100.0,0.0,0.0,0.0,0.0,3049.714285714286,3197.7,4175.777777777777,4182.2,305.5085,304.71433333333334,314.83275,314.60475,22.035,20.6618,22.0842,21.5827,314.999998,314.999998,324.999988,324.999988,99.55895,99.50736666666667,99.57016666666667,99.54995,0.10966666666666658,-0.03466666666666662,-0.09383333333333332,0.13916666666666666,-0.04333333333332945,-0.05833333333333002,1.5405,1.5274999999999999,38.719,30.136333333333333,39.025999999999996,35.891999999999996,55.83777777777778,35.522,60.415,53.557,53.775999999999996,34.6125,58.957,51.837,52.924,34.134,58.835,51.224000000000004,-0.10650000000000004,-0.05699999999999994,0.105495,0.10988,0.0,217.16500000000002,217.185,213.95,213.95,0.0,0.0
29,0.0,0.0,0.0,1.0,1.0,0.0,0.0,1.0,0.0,100.0,1.0,1.1856,26.0,0.0,0.0,0.0,52.999997,0.0,26.0,26.0,26.0,26.0,0.036222222222222225,0.26560000000000006,-0.028625,291.855,-2.7549,-2.584625,-1.6038000000000001,-1.5507,-177.42000000000002,215.2975,190.355375,0.0,0.0,0.0,0.0,0.058699999999999974,-5.498166666666667,-5.498166666666667,-0.6058,-0.7055,-0.0018888888888888289,-0.7610000000000001,69.507,0.01429999999999998,-0.21607500000000002,-0.24600000000000044,100.0,1.0,1.0,214.23000000000002,0.0,0.0,0.0,0.0,0.0,0.0,0.0,9080.5,0.0,55.0,5.0,250.19666666666666,1.0,0.0,0.0,0.0,0.0,0.0,0.0,0.0,1.4579999999999984,1.4579999999999984,0.0,0.0,1.0,55.0,616.79921,10000.0,85.000001,85.000001,85.000001,85.000001,395.0,0.0,0.0,0.0,1.0,333.33500000000004,52.246,52.246,46.982,46.982,34.0,-24.5425,24.47,-29.85333333333333,30.665,0.0,1781.458,-0.4349999999999987,100.0,28.076999999999998,28.33,43.752,44.036,0.0,0.0,100.0,0.0,0.0,0.0,0.0,3243.714285714286,3109.3,4216.111111111111,4244.5,305.3465,305.04066666666665,314.6915,314.31,22.0442,20.6674,22.0948,21.5921,314.999998,314.999998,324.999988,324.999988,99.55896666666666,99.50738333333334,99.57031666666667,99.5501,0.09733333333333372,-0.02933333333333321,-0.10383333333333333,0.12733333333333333,-0.046666666666666856,-0.036666666666668846,1.4935,1.4815,38.775999999999996,30.171333333333333,39.093,35.9505,55.824444444444445,35.56,60.452,53.617,53.764,34.647,58.992,51.895,52.911,34.1675,58.867,51.281,-0.11349999999999993,-0.045500000000000096,0.10886000000000001,0.10522500000000001,0.0,217.56,217.565,214.23000000000002,214.23000000000002,0.0,0.0
30,0.0,0.0,0.0,1.0,1.0,0.0,0.0,1.0,0.0,100.0,1.0,1.1856,26.0,0.0,0.0,0.0,52.999997,0.0,26.0,26.0,26.0,26.0,0.049888888888888885,0.2531000000000001,-0.01285,291.168,-2.7285,-2.6475,-1.6512,-1.4664000000000001,-174.09,215.3,190.3305,0.0,0.0,0.0,0.0,0.060666666666666536,-5.498166666666667,-5.498166666666667,-0.6057,0.868,0.0033333333333331883,-0.17399999999999993,69.628,0.015600000000000058,-0.215725,-0.3379999999999992,100.0,1.0,1.0,214.70333333333332,0.0,0.0,0.0,0.0,0.0,0.0,0.0,9100.5,0.0,55.0,5.0,250.63,0.0,0.0,0.0,0.0,0.0,0.0,1.0,0.0,1.5060000000000002,1.5060000000000002,0.0,0.0,0.0,55.0,616.79921,10000.0,85.000001,85.000001,85.000001,85.000001,395.0,0.0,0.0,0.0,1.0,333.33500000000004,50.629,50.629,47.012,47.012,34.0,-25.15,26.875999999999998,-30.4,29.395,0.0,1781.409,-0.509999999999998,100.0,28.979,28.989,43.544,43.931,0.0,0.0,100.0,0.0,0.0,0.0,0.0,3401.142857142857,3307.8,4266.888888888889,4252.9,304.5475,304.05833333333334,314.695,314.52725,22.0532,20.6729,22.1046,21.6008,314.999998,314.999998,324.999988,324.999988,99.55898333333333,99.50738333333334,99.57045,99.55023333333334,0.1166666666666667,-0.04033333333333311,-0.09866666666666668,0.13416666666666666,-0.06833333333332803,-0.04833333333333201,1.5185,1.524,38.833,30.205666666666666,39.153999999999996,36.004999999999995,55.81666666666667,35.598,60.484,53.672,53.757,34.683,59.022,51.948,52.903,34.2015,58.893,51.332,-0.12949999999999995,-0.044500000000000206,0.10979000000000001,0.10665500000000001,0.0,217.97500000000002,217.98000000000002,214.70333333333332,214.70333333333332,0.0,0.0
31,0.0,0.0,0.0,1.0,1.0,0.0,0.0,1.0,0.0,100.0,1.0,1.1856,26.0,0.0,0.0,0.0,52.999997,0.0,26.0,26.0,26.0,26.0,0.032888888888888884,0.2623,0.07200000000000001,290.726,-2.7045,-2.621875,-1.6492,-1.5383,-170.53,215.3025,190.304625,0.0,0.0,0.0,0.0,0.06273333333333331,-5.498166666666667,-5.498166666666667,-0.5860000000000001,-0.35749999999999993,0.020999999999999908,0.9279999999999999,69.761,0.023400000000000087,-0.219025,-0.4900000000000002,100.0,1.0,1.0,214.9,0.0,0.0,0.0,0.0,0.0,0.0,0.0,9108.9,0.0,55.0,5.0,251.11333333333334,1.0,0.0,0.0,0.0,0.0,0.0,1.0,0.0,1.5569999999999986,1.5569999999999986,0.0,0.0,1.0,55.0,616.79921,10000.0,85.000001,85.000001,85.000001,85.000001,395.0,0.0,0.0,0.0,1.0,166.665,51.086,51.086,45.593,45.593,34.0,-22.205,27.792,-30.099999999999998,33.49,0.0,1781.36,-0.4299999999999997,100.0,29.017,29.070999999999998,44.418,44.666,0.0,0.0,100.0,0.0,0.0,0.0,0.0,3069.714285714286,3403.3,4309.111111111111,4469.3,305.4095,304.155,314.31275,313.77875,22.0625,20.6787,22.1153,21.6104,314.999998,314.999998,324.999988,324.999988,99.55898333333333,99.5074,99.5706,99.55038333333333,0.11766666666666659,-0.024333333333333318,-0.07316666666666667,0.14083333333333334,-0.036666666666668846,-0.03999999999999915,1.438,1.4205,38.891,30.242333333333335,39.221000000000004,36.065,55.806666666666665,35.638,60.523,53.735,53.747,34.72,59.058,52.009,52.891,34.2375,58.926,51.392,-0.11599999999999988,-0.051000000000000156,0.10487500000000001,0.10649000000000002,0.0,218.34,218.365,214.9,214.9,0.0,0.0
32,0.0,0.0,0.0,1.0,1.0,0.0,0.0,1.0,0.0,100.0,1.0,1.1856,26.0,0.0,0.0,0.0,52.999997,0.0,26.0,26.0,26.0,26.0,0.05611111111111112,0.2541,-0.057,291.519,-2.6978,-2.68425,-1.5877,-1.6209,-166.76,215.3075,190.277625,0.0,0.0,0.0,0.0,0.06489999999999996,-5.498166666666667,-5.498166666666667,-0.6077,-0.268,-0.0025555555555558662,0.238,69.896,0.027200000000000113,-0.23185,-0.44599999999999973,100.0,1.0,1.0,215.50666666666666,0.0,0.0,0.0,0.0,0.0,0.0,0.0,9134.6,0.0,55.0,5.0,251.60000000000002,0.0,0.0,0.0,0.0,0.0,0.0,1.0,0.0,1.6110000000000007,1.6110000000000007,0.0,0.0,0.0,55.0,616.79921,10000.0,85.000001,85.000001,85.000001,85.000001,395.0,0.0,0.0,0.0,1.0,166.665,51.682,51.682,46.875,46.875,34.0,-21.3425,26.496,-26.58,32.39,0.0,1781.306,-0.41999999999999815,100.0,28.803,28.87,44.156,44.547,0.0,0.0,100.0,0.0,0.0,0.0,0.0,3040.857142857143,3175.1,4002.222222222222,4192.1,305.569,304.7896666666667,315.11025,314.51425,22.0723,20.6849,22.1263,21.6203,314.999998,314.999998,324.999988,324.999988,99.559,99.5074,99.57075,99.55055,0.129,-0.018999999999999906,-0.078,0.15483333333333335,-0.03999999999999915,-0.05333333333332746,1.5125,1.508,38.952,30.28033333333333,39.29,36.1265,55.794444444444444,35.68,60.558,53.797,53.735,34.7585,59.091,52.069,52.878,34.274,58.956,51.45,-0.12199999999999989,-0.04999999999999982,0.10882000000000001,0.10775000000000001,0.0,218.765,218.79500000000002,215.50666666666666,215.50666666666666,0.0,0.0
33,0.0,0.0,0.0,1.0,1.0,0.0,0.0,1.0,0.0,100.0,1.0,1.1856,26.0,0.0,0.0,0.0,52.999997,0.0,26.0,26.0,26.0,26.0,0.05544444444444444,0.256,-0.06165,291.687,-2.718,-2.64625,-1.5967,-1.5823,-163.61,215.3125,190.254125,0.0,0.0,0.0,0.0,0.06673333333333331,-5.498166666666667,-5.498166666666667,-0.6146,-0.19700000000000006,-0.0032222222222220154,-0.19399999999999995,70.009,0.027900000000000036,-0.214975,-0.3520000000000003,100.0,1.0,1.0,215.84333333333333,0.0,0.0,0.0,0.0,0.0,0.0,0.0,9148.8,0.0,55.0,5.0,252.00666666666666,1.0,0.0,0.0,0.0,0.0,0.0,1.0,0.0,1.6559999999999988,1.6559999999999988,0.0,0.0,1.0,55.0,616.79921,10000.0,85.000001,85.000001,85.000001,85.000001,395.0,0.0,0.0,0.0,1.0,166.665,51.941,51.941,46.997,46.997,34.0,-22.995,24.65,-27.666666666666664,31.3425,0.0,1781.262,-0.4400000000000013,100.0,28.535,28.740000000000002,43.906,44.388999999999996,0.0,0.0,100.0,0.0,0.0,0.0,0.0,3141.857142857143,3049.5,4124.777777777777,4179.7,305.455,305.10333333333335,314.9195,314.55275,22.0804,20.689799999999998,22.1355,21.6284,314.999998,314.999998,324.999988,324.999988,99.55901666666666,99.5074,99.57088333333333,99.55066666666667,0.10999999999999988,-0.028999999999999915,-0.08133333333333333,0.147,-0.03333333333333144,-0.051666666666669414,1.5310000000000001,1.51,39.003,30.311333333333334,39.347,36.1775,55.784444444444446,35.713,60.589,53.848,53.725,34.7885,59.119,52.117,52.868,34.3035,58.981,51.498,-0.11450000000000005,-0.046499999999999986,0.10168500000000001,0.11002,0.0,219.115,219.14,215.84333333333333,215.84333333333333,0.0,0.0
34,0.0,0.0,0.0,1.0,1.0,0.0,0.0,1.0,0.0,100.0,1.0,1.1856,26.0,0.0,0.0,0.0,52.999997,0.0,26.0,26.0,26.0,26.0,0.034888888888888886,0.25849999999999995,-0.102275,291.885,-2.6671,-2.6801250000000003,-1.6282,-1.5230000000000001,-160.04,215.3175,190.226,0.0,0.0,0.0,0.0,0.0688333333333333,-5.498166666666667,-5.498166666666667,-0.6438,-0.9510000000000001,0.017444444444444374,0.858,70.139,0.029000000000000137,-0.221725,-0.4339999999999993,100.0,1.0,1.0,216.19333333333333,0.0,0.0,0.0,0.0,0.0,0.0,0.0,9163.6,0.0,55.0,5.0,252.47333333333336,0.0,0.0,0.0,0.0,0.0,0.0,1.0,0.0,1.7070000000000007,1.7070000000000007,0.0,0.0,0.0,55.0,616.79921,10000.0,85.000001,85.000001,85.000001,85.000001,395.0,0.0,0.0,0.0,1.0,166.665,52.429,52.429,47.119,47.119,34.0,-20.9275,25.458,-27.936666666666664,30.8575,0.0,1781.21,-0.4549999999999983,100.0,28.383,28.334,43.862,44.391999999999996,0.0,0.0,100.0,0.0,0.0,0.0,0.0,2964.142857142857,3094.2,4104.111111111111,4249.5,305.8615,305.158,314.92825,314.4245,22.0895,20.6954,22.1459,21.6378,314.999998,314.999998,324.999988,324.999988,99.55903333333333,99.5074,99.57103333333333,99.55083333333333,0.11566666666666636,-0.020999999999999908,-0.07933333333333333,0.14116666666666666,-0.02833333333332888,-0.051666666666669414,1.5185,1.4915,39.06,30.346333333333334,39.412,36.236,55.77111111111111,35.749,60.622,53.908,53.713,34.8225,59.151,52.175,52.854,34.335499999999996,59.009,51.554,-0.11349999999999993,-0.04700000000000015,0.109545,0.09917500000000001,0.0,219.485,219.515,216.19333333333333,216.19333333333333,0.0,0.0
35,0.0,0.0,0.0,1.0,1.0,0.0,0.0,1.0,0.0,100.0,1.0,1.1856,26.0,0.0,0.0,0.0,52.999997,0.0,26.0,26.0,26.0,26.0,0.060222222222222226,0.2549000000000001,-0.048600000000000004,291.733,-2.8045999999999998,-2.651875,-1.5398,-1.5801,-156.45999999999998,215.325,190.196,0.0,0.0,0.0,0.0,0.07089999999999996,-5.498166666666667,-5.498166666666667,-0.678,0.05499999999999994,-0.002777777777777768,-1.225,70.265,0.03249999999999997,-0.22545,-0.35599999999999987,100.0,1.0,1.0,216.67666666666668,0.0,0.0,0.0,0.0,0.0,0.0,0.0,9184.2,0.0,55.0,5.0,252.92666666666668,1.0,0.0,0.0,0.0,0.0,0.0,1.0,0.0,1.7579999999999991,1.7579999999999991,0.0,0.0,1.0,55.0,616.79921,10000.0,85.000001,85.000001,85.000001,85.000001,395.0,0.0,0.0,0.0,1.0,333.33500000000004,51.59,51.59,46.875,46.875,34.0,-24.0975,26.92,-26.753333333333334,29.8975,0.0,1781.158,-0.25,100.0,28.211,28.935000000000002,43.542,43.976,0.0,0.0,100.0,0.0,0.0,0.0,0.0,3194.714285714286,3278.4,4132.777777777777,4063.9,305.3055,304.296,314.96575,314.91875,22.0986,20.7013,22.1563,21.647,314.999998,314.999998,324.999988,324.999988,99.55905,99.50741666666667,99.57118333333334,99.55096666666667,0.11399999999999988,-0.030999999999999917,-0.08066666666666668,0.145,-0.04999999999999716,-0.03833333333332689,1.5514999999999999,1.5455,39.117000000000004,30.383,39.477000000000004,36.2935,55.75888888888889,35.789,60.655,53.963,53.7,34.8595,59.181,52.228,52.841,34.371,59.036,51.606,-0.10999999999999988,-0.06099999999999994,0.10160000000000001,0.10963500000000001,0.0,219.905,219.92000000000002,216.67666666666668,216.67666666666668,0.0,0.0
36,0.0,0.0,0.0,1.0,1.0,0.0,0.0,1.0,0.0,100.0,1.0,1.1856,26.0,0.0,0.0,0.0,52.999997,0.0,26.0,26.0,26.0,26.0,0.05322222222222222,0.2581,0.013475,291.168,-2.651,-2.71,-1.6512,-1.5915,-153.07999999999998,215.335,190.16675,0.0,0.0,0.0,0.0,0.07286666666666652,-5.498166666666667,-5.498166666666667,-0.6624,-0.0685,-0.04222222222222216,-1.3770000000000002,70.388,0.027100000000000124,-0.2053,-0.1720000000000006,100.0,1.0,1.0,216.84,0.0,0.0,0.0,0.0,0.0,0.0,0.0,9191.0,0.0,55.0,5.0,253.37,0.0,0.0,0.0,0.0,0.0,0.0,1.0,0.0,1.806000000000001,1.806000000000001,0.0,0.0,0.0,55.0,616.79921,10000.0,85.000001,85.000001,85.000001,85.000001,395.0,0.0,0.0,0.0,1.0,333.33500000000004,51.819,51.819,46.295,46.295,34.0,-21.8525,24.46,-31.613333333333333,33.7625,0.0,1781.111,-0.19500000000000028,100.0,28.704,28.93,43.837,44.379000000000005,0.0,0.0,100.0,0.0,0.0,0.0,0.0,3087.0,2995.0,4449.222222222223,4406.6,305.4985,305.0996666666667,314.15525,313.9705,22.1074,20.7067,22.1662,21.6559,314.999998,314.999998,324.999988,324.999988,99.55906666666667,99.50741666666667,99.57131666666666,99.55111666666667,0.11466666666666647,-0.040000000000000036,-0.08316666666666667,0.14416666666666667,-0.051666666666669414,-0.041666666666671404,1.453,1.446,39.171,30.417,39.538,36.3495,55.74888888888889,35.826,60.689,54.02,53.691,34.8935,59.212,52.283,52.83,34.403999999999996,59.064,51.66,-0.10199999999999987,-0.06349999999999989,0.104675,0.11313500000000001,0.0,220.31,220.31,216.84,216.84,0.0,0.0
