,ABS Active,ABS Enabled,AID Allow Tire Blankets,AID Auto Blip,AID Auto Clutch,AID Auto Shift,AID Fuel Rate,AID Ideal Line,AID Mech Damage,AID Stability,AID Tire Wear Rate,Air Density,Air Temp,Ballast,Best Lap Delta,Best Lap Time,Brake Bias,Brake Pos,Brake Temp FL,Brake Temp FR,Brake Temp RL,Brake Temp RR,CG Accel Lateral,CG Accel Longitudinal,CG Accel Vertical,CG Height,Camber FL,Camber FR,Camber RL,Camber RR,Car Coord X,Car Coord Y,Car Coord Z,Car Damage Front,Car Damage Left,Car Damage Rear,Car Damage Right,Car Pos Norm,Caster FL,Caster FR,Chassis Pitch Angle,Chassis Pitch Rate,Chassis Roll Angle,Chassis Roll Rate,Chassis Velocity X,Chassis Velocity Y,Chassis Velocity Z,Chassis Yaw Rate,Clutch Pos,DRS Active,DRS Available,Drive Train Speed,ERS Heat Charging,ERS Is Charging,ERS Max Energy,ERS Power Level,ERS Recovery Level,Engine Brake Setting,Engine Limiter,Engine RPM,Flags,Fuel Level,Gear,Ground Speed,HR Sample Clock,In Pit,KERS Charge,KERS Deployed Energy,KERS Input,KERS Max Energy,LR Sample Clock,Lap Invalidated,Lap Time,Lap Time2,Last Lap Time,Last Sector Time,MR Sample Clock,Max Fuel,Max Power,Max RPM,Max Sus Travel FL,Max Sus Travel FR,Max Sus Travel RL,Max Sus Travel RR,Max Torque,Max Turbo Boost,Num Tires Off Track,Penalties Enabled,Position,Raw Data Sample Rate,Ride Height FL,Ride Height FR,Ride Height RL,Ride Height RR,Road Temp,Self Align Torque FL,Self Align Torque FR,Self Align Torque RL,Self Align Torque RR,Session Lap Count,Session Time Left,Steering Angle,Surface Grip,Suspension Travel FL,Suspension Travel FR,Suspension Travel RL,Suspension Travel RR,TC Active,TC Enabled,Throttle Pos,Tire Dirt Level FL,Tire Dirt Level FR,Tire Dirt Level RL,Tire Dirt Level RR,Tire Load FL,Tire Load FR,Tire Load RL,Tire Load RR,Tire Loaded Radius FL,Tire Loaded Radius FR,Tire Loaded Radius RL,Tire Loaded Radius RR,Tire Pressure FL,Tire Pressure FR,Tire Pressure RL,Tire Pressure RR,Tire Radius FL,Tire Radius FR,Tire Radius RL,Tire Radius RR,Tire Rubber Grip FL,Tire Rubber Grip FR,Tire Rubber Grip RL,Tire Rubber Grip RR,Tire Slip Angle FL,Tire Slip Angle FR,Tire Slip Angle RL,Tire Slip Angle RR,Tire Slip Ratio FL,Tire Slip Ratio FR,Tire Slip Ratio RL,Tire Slip Ratio RR,Tire Temp Core FL,Tire Temp Core FR,Tire Temp Core RL,Tire Temp Core RR,Tire Temp Inner FL,Tire Temp Inner FR,Tire Temp Inner RL,Tire Temp Inner RR,Tire Temp Middle FL,Tire Temp Middle FR,Tire Temp Middle RL,Tire Temp Middle RR,Tire Temp Outer FL,Tire Temp Outer FR,Tire Temp Outer RL,Tire Temp Outer RR,Toe In FL,Toe In FR,Toe In RL,Toe In RR,Turbo Boost,Wheel Angular Speed FL,Wheel Angular Speed FR,Wheel Angular Speed RL,Wheel Angular Speed RR,Wind Direction,Wind Speed
0,0.0,0.0,0.0,1.0,1.0,0.0,0.0,1.0,0.0,100.0,1.0,1.1856,26.0,0.0,0.0,0.0,52.99999,0.0,26.0,26.0,26.0,26.0,-0.08037499999999997,0.29780000000000006,0.03876666666666667,293.9,-2.72,-2.6571,-1.514,-1.5578,-275.62,216.2975,190.987125,0.0,0.0,0.0,0.0,0.0016333333333333332,-5.498166666666667,-5.498166666666667,-0.5496,1.611,-0.008000000000000007,-0.131,65.532,-0.032,-0.21735000000000002,0.9660000000000011,100.0,1.0,1.0,202.31666666666666,0.0,0.0,0.0,0.0,0.0,0.0,0.0,8575.5,0.0,55.0,5.0,235.88333333333333,0.0,0.0,0.0,0.0,0.0,0.0,0.0,0.0,0.0030000000000001137,0.0030000000000001137,0.0,0.0,0.0,55.0,616.79921,10000.0,85.0,85.0,85.0,85.0,395.0,0.0,0.0,0.0,1.0,20.0,52.567,52.567,49.484,49.484,34.0,-26.872500000000002,23.828,-30.106666666666666,25.5375,0.0,1782.927,0.8449999999999989,100.0,27.415,27.061,40.54,40.499,0.0,0.0,100.0,0.0,0.0,0.0,0.0,3060.714285714286,3411.7,4143.625,4032.2,305.433,303.98325,314.75625,314.819,21.7688,20.5097,21.7875,21.3247,314.99999,314.99999,324.99998,324.99998,99.55831428571429,99.50706666666666,99.56595714285714,99.54565714285714,0.0034999999999998366,-0.11766666666666681,-0.1502,0.07200000000000006,-0.04333333333332945,-0.044285714285713595,1.5385,1.5795,37.055,29.185666666666666,37.172,34.278999999999996,56.095,34.3545,59.329499999999996,51.811,54.031,33.5505,57.9505,50.1545,53.212,33.13333333333333,57.917500000000004,49.572,-0.011499999999999955,-0.14149999999999996,0.10508,0.11224,0.0,205.365,205.29000000000002,202.31666666666666,202.31666666666666,0.0,0.0
1,0.0,0.0,0.0,1.0,1.0,0.0,0.0,1.0,0.0,100.0,1.0,1.1856,26.0,0.0,0.0,0.0,52.999997,0.0,26.0,26.0,26.0,26.0,-0.10275000000000001,0.3176000000000001,0.166,293.121,-2.6485000000000003,-2.7560000000000002,-1.5373999999999999,-1.542,-272.27,216.29000000000002,190.967125,0.0,0.0,0.0,0.0,0.0035666666666666668,-5.498166666666667,-5.498166666666667,-0.49450000000000005,-0.7036666666666667,-0.04737500000000017,-0.9610000000000001,65.686,-0.0471,-0.19225,1.3680000000000003,100.0,1.0,1.0,202.50666666666666,0.0,0.0,0.0,0.0,0.0,0.0,0.0,8583.6,0.0,55.0,5.0,236.43666666666667,1.0,0.0,0.0,0.0,0.0,0.0,0.0,0.0,0.053999999999998494,0.053999999999998494,0.0,0.0,1.0,55.0,616.79921,10000.0,85.000001,85.000001,85.000001,85.000001,395.0,0.0,0.0,0.0,1.0,166.665,53.711,53.711,48.309,48.309,34.0,-27.060000000000002,17.828,-33.71666666666667,29.415,0.0,1782.878,0.8850000000000016,100.0,27.389,26.989,42.786,41.747,0.0,0.0,100.0,0.0,0.0,0.0,0.0,3093.857142857143,2678.7,4246.125,4715.0,305.5015,306.3115,314.462,313.102,21.7787,20.5148,21.7984,21.3339,314.999998,314.999998,324.999988,324.999988,99.55832857142858,99.50708333333333,99.56611428571429,99.5458,-0.013500000000000068,-0.1419999999999999,-0.1834,0.043400000000000105,-0.041666666666671404,-0.04285714285714448,1.4175,1.463,37.117000000000004,29.217333333333336,37.239999999999995,34.3365,56.079,34.3955,59.374,51.876,54.015,33.588,57.9915,50.217,53.196,33.169333333333334,57.956,49.632999999999996,-0.0034999999999999476,-0.15100000000000002,0.10755,0.105645,0.0,205.81,205.695,202.50666666666666,202.50666666666666,0.0,0.0
2,0.0,0.0,0.0,1.0,1.0,0.0,0.0,1.0,0.0,100.0,1.0,1.1856,26.0,0.0,0.0,0.0,52.999997,0.0,26.0,26.0,26.0,26.0,-0.13912499999999994,0.29810000000000003,-0.11846666666666668,293.671,-2.5955,-2.8045,-1.4824,-1.6142,-268.92,216.2825,190.948125,0.0,0.0,0.0,0.0,0.005533333333333334,-5.498166666666667,-5.498166666666667,-0.5482,0.06666666666666668,-0.05449999999999999,2.3760000000000003,65.828,-0.0692,-0.249725,1.6340000000000003,100.0,1.0,1.0,203.39333333333332,0.0,0.0,0.0,0.0,0.0,0.0,0.0,8621.1,0.0,55.0,5.0,236.95333333333332,0.0,0.0,0.0,0.0,0.0,0.0,0.0,0.0,0.10500000000000043,0.10500000000000043,0.0,0.0,0.0,55.0,616.79921,10000.0,85.000001,85.000001,85.000001,85.000001,395.0,0.0,0.0,0.0,1.0,333.33500000000004,52.429,52.429,50.125,50.125,34.0,-29.625,20.122,-29.056666666666665,20.105,0.0,1782.826,0.7149999999999999,100.0,28.39,26.959,42.631,41.372,0.0,0.0,100.0,0.0,0.0,0.0,0.0,3330.5714285714284,2919.0,3779.875,3672.4,304.531,305.57075,315.57475,315.818,21.7888,20.5196,21.8089,21.3426,314.999998,314.999998,324.999988,324.999988,99.55832857142858,99.5071,99.56624285714285,99.54594285714286,-0.01924999999999999,-0.1419999999999999,-0.2112,0.007400000000000073,-0.030000000000001137,-0.04571428571428271,1.6175,1.6875,37.18,29.247666666666667,37.305,34.3915,56.066,34.434,59.4105,51.9325,54.004000000000005,33.6235,58.025999999999996,50.271,53.184,33.20333333333333,57.9875,49.6865,-0.015000000000000013,-0.12949999999999995,0.10332500000000001,0.10599000000000001,0.0,206.24,206.125,203.39333333333332,203.39333333333332,0.0,0.0
3,0.0,0.0,0.0,1.0,1.0,0.0,0.0,1.0,0.0,100.0,1.0,1.1856,26.0,0.0,0.0,0.0,52.999997,0.0,26.0,26.0,26.0,26.0,-0.13737500000000002,0.31689999999999996,0.0811,293.335,-2.7289,-2.6919,-1.5143,-1.5897000000000001,-265.76,216.2725,190.929625,0.0,0.0,0.0,0.0,0.007366666666666667,-5.498166666666667,-5.498166666666667,-0.5111,0.368,-0.005374999999999908,0.4630000000000001,65.97200000000001,-0.08510000000000001,-0.20117500000000002,1.1579999999999995,100.0,1.0,1.0,203.51666666666665,0.0,0.0,0.0,0.0,0.0,0.0,0.0,8626.3,0.0,55.0,5.0,237.46666666666667,1.0,0.0,0.0,0.0,0.0,0.0,0.0,0.0,0.1529999999999987,0.1529999999999987,0.0,0.0,1.0,55.0,616.79921,10000.0,85.000001,85.000001,85.000001,85.000001,395.0,0.0,0.0,0.0,1.0,166.665,53.391,53.391,48.08,48.08,34.0,-25.4625,19.292,-34.443333333333335,24.84,0.0,1782.778,0.5650000000000013,100.0,27.991,27.018,42.53,41.442,0.0,0.0,100.0,0.0,0.0,0.0,0.0,2870.0,2930.8,4275.25,4285.3,306.0025,305.516,314.36575,314.2585,21.798000000000002,20.5245,21.8187,21.3511,314.999998,314.999998,324.999988,324.999988,99.55832857142858,99.50711666666666,99.56638571428572,99.54607142857142,-0.008000000000000007,-0.1413333333333333,-0.2038,0.012399999999999967,-0.05833333333333002,-0.03857142857143003,1.4914999999999998,1.5310000000000001,37.238,29.278,37.367000000000004,34.444,56.052,34.4745,59.447,51.9905,53.989999999999995,33.661,58.06,50.327,53.169,33.23866666666667,58.0185,49.7415,-0.040000000000000036,-0.11349999999999993,0.09853500000000001,0.10636000000000001,0.0,206.75,206.595,203.51666666666665,203.51666666666665,0.0,0.0
4,0.0,0.0,0.0,1.0,1.0,0.0,0.0,1.0,0.0,100.0,1.0,1.1856,26.0,0.0,0.0,0.0,52.999997,0.0,26.0,26.0,26.0,26.0,-0.12775000000000003,0.2712000000000001,-0.017233333333333337,293.594,-2.6642,-2.7389,-1.5296,-1.5979,-262.39,216.2575,190.909875,0.0,0.0,0.0,0.0,0.009333333333333334,-5.498166666666667,-5.498166666666667,-0.5437000000000001,-0.7156666666666667,-0.07637500000000008,-1.836,66.117,-0.08510000000000001,-0.23822500000000002,1.1320000000000014,100.0,1.0,1.0,204.10333333333332,0.0,0.0,0.0,0.0,0.0,0.0,0.0,8651.2,0.0,55.0,5.0,237.99666666666667,0.0,0.0,0.0,0.0,0.0,0.0,0.0,0.0,0.20400000000000063,0.20400000000000063,0.0,0.0,0.0,55.0,616.79921,10000.0,85.000001,85.000001,85.000001,85.000001,395.0,0.0,0.0,0.0,1.0,333.33500000000004,53.04,53.04,48.721000000000004,48.721000000000004,34.0,-29.3575,19.148,-32.58,20.8825,0.0,1782.726,0.5749999999999993,100.0,27.681,26.981,42.802,41.612,0.0,0.0,100.0,0.0,0.0,0.0,0.0,3270.4285714285716,2875.2,4112.75,3675.1,305.0325,305.5235,314.7985,315.66725,21.8076,20.5296,21.8294,21.36,314.999998,314.999998,324.999988,324.999988,99.55832857142858,99.50713333333333,99.56652857142858,99.54621428571429,-0.02299999999999991,-0.14900000000000002,-0.2018,0.019000000000000128,-0.03999999999999915,-0.06714285714285495,1.562,1.6055000000000001,37.298,29.310000000000002,37.434,34.5,56.034,34.516,59.488,52.0495,53.973,33.699,58.098,50.3835,53.150999999999996,33.275333333333336,58.054,49.7965,-0.033499999999999974,-0.11850000000000005,0.105575,0.11111000000000001,0.0,207.13,207.01999999999998,204.10333333333335,204.10333333333332,0.0,0.0
5,0.0,0.0,0.0,1.0,1.0,0.0,0.0,1.0,0.0,100.0,1.0,1.1856,26.0,0.0,0.0,0.0,52.999997,0.0,26.0,26.0,26.0,26.0,-0.129625,0.31020000000000003,-0.009333333333333334,293.594,-2.6766,-2.7625,-1.5122,-1.5836999999999999,-258.81,216.2375,190.888375,0.0,0.0,0.0,0.0,0.0114,-5.498166666666667,-5.498166666666667,-0.5337000000000001,0.3526666666666667,-0.07975000000000021,-0.23199999999999998,66.273,-0.0872,-0.2112,1.0620000000000012,100.0,1.0,1.0,204.51333333333332,0.0,0.0,0.0,0.0,0.0,0.0,0.0,8668.6,0.0,55.0,5.0,238.55666666666667,1.0,0.0,0.0,0.0,0.0,0.0,0.0,0.0,0.2579999999999991,0.2579999999999991,0.0,0.0,1.0,55.0,616.79921,10000.0,85.000001,85.000001,85.000001,85.000001,395.0,0.0,0.0,0.0,1.0,166.665,53.467,53.467,48.859,48.859,34.0,-28.377499999999998,18.994,-34.29,22.235,0.0,1782.673,0.18499999999999872,100.0,27.738,26.758,42.579,41.301,0.0,0.0,100.0,0.0,0.0,0.0,0.0,3189.285714285714,2770.2,4213.875,4057.1000000000004,305.236,305.90925,314.63625,314.7585,21.8181,20.535,21.8406,21.3693,314.999998,314.999998,324.999988,324.999988,99.55834285714286,99.50715,99.56668571428571,99.54635714285715,-0.015249999999999986,-0.135,-0.2192,-0.0046000000000000485,-0.046666666666666856,-0.03857142857143003,1.5190000000000001,1.5655000000000001,37.363,29.343666666666664,37.504000000000005,34.558,56.019999999999996,34.559,59.5295,52.1095,53.959,33.739,58.137,50.441,53.137,33.31333333333333,58.09,49.853,-0.050999999999999934,-0.08800000000000008,0.106825,0.10361000000000001,0.0,207.64499999999998,207.535,204.51333333333332,204.51333333333332,0.0,0.0
6,0.0,0.0,0.0,1.0,1.0,0.0,0.0,1.0,0.0,100.0,1.0,1.1856,26.0,0.0,0.0,0.0,52.999997,0.0,26.0,26.0,26.0,26.0,-0.10949999999999993,0.29900000000000015,0.011466666666666668,293.442,-2.6376,-2.7435,-1.5531000000000001,-1.5830000000000002,-255.82999999999998,216.2175,190.87025,0.0,0.0,0.0,0.0,0.013133333333333335,-5.498166666666667,-5.498166666666667,-0.5305,0.08666666666666667,-0.06125000000000025,0.9279999999999999,66.402,-0.0821,-0.21375000000000002,0.7160000000000011,100.0,1.0,1.0,204.90666666666667,0.0,0.0,0.0,0.0,0.0,0.0,0.0,8685.3,0.0,55.0,5.0,239.01999999999998,0.0,0.0,0.0,0.0,0.0,0.0,0.0,0.0,0.3030000000000008,0.3030000000000008,0.0,0.0,0.0,55.0,616.79921,10000.0,85.000001,85.000001,85.000001,85.000001,395.0,0.0,0.0,0.0,1.0,333.33500000000004,53.116,53.116,48.721000000000004,48.721000000000004,34.0,-26.39,21.355999999999998,-31.996666666666666,23.5175,0.0,1782.626,0.06500000000000128,100.0,27.814,26.713,42.765,41.504,0.0,0.0,100.0,0.0,0.0,0.0,0.0,3109.4285714285716,3004.4,4079.625,4052.2,305.2445,305.3215,314.88825,314.84225,21.8267,20.5395,21.849899999999998,21.377299999999998,314.999998,314.999998,324.999988,324.999988,99.55834285714286,99.50716666666666,99.5668,99.54648571428571,0.01175000000000015,-0.1156666666666668,-0.1876,0.022599999999999953,-0.04999999999999716,-0.04714285714285893,1.537,1.5670000000000002,37.417,29.372,37.562,34.608000000000004,56.006,34.5975,59.5665,52.167,53.946,33.774,58.1715,50.496,53.122,33.346666666666664,58.1215,49.9065,-0.0685,-0.08150000000000013,0.100415,0.10709500000000001,0.0,208.015,207.95,204.90666666666667,204.90666666666667,0.0,0.0
7,0.0,0.0,0.0,1.0,1.0,0.0,0.0,1.0,0.0,100.0,1.0,1.1856,26.0,0.0,0.0,0.0,52.999997,0.0,26.0,26.0,26.0,26.0,-0.07224999999999993,0.28600000000000003,0.021766666666666667,293.182,-2.614,-2.7283,-1.5152,-1.6246,-252.44,216.195,190.84975,0.0,0.0,0.0,0.0,0.0151,-5.498166666666667,-5.498166666666667,-0.5342,-0.014,-0.04787499999999989,-0.21399999999999997,66.548,-0.0661,-0.22405,0.40000000000000036,100.0,1.0,1.0,205.35333333333335,0.0,0.0,0.0,0.0,0.0,0.0,0.0,8704.2,0.0,55.0,5.0,239.54333333333335,1.0,0.0,0.0,0.0,0.0,0.0,0.0,0.0,0.3539999999999992,0.3539999999999992,0.0,0.0,1.0,55.0,616.79921,10000.0,85.000001,85.000001,85.000001,85.000001,395.0,0.0,0.0,0.0,1.0,333.33500000000004,52.795,52.795,48.843,48.843,34.0,-26.9675,22.060000000000002,-31.75,25.009999999999998,0.0,1782.575,-0.2400000000000002,100.0,27.807,26.94,42.730000000000004,41.871,0.0,0.0,100.0,0.0,0.0,0.0,0.0,3290.285714285714,2968.4,4088.75,4026.7,304.8395,305.25125,314.88025,314.75825,21.8366,20.5447,21.860500000000002,21.3863,314.999998,314.999998,324.999988,324.999988,99.55835714285715,99.50718333333333,99.56695714285715,99.54664285714286,0.029749999999999943,-0.09299999999999997,-0.1906,0.038999999999999924,-0.054999999999999716,-0.04285714285714448,1.5305,1.542,37.479,29.404,37.628,34.664,55.991,34.637,59.605000000000004,52.2275,53.932,33.8105,58.207499999999996,50.554,53.108000000000004,33.38166666666667,58.155,49.963,-0.09499999999999997,-0.05249999999999999,0.10702500000000001,0.109615,0.0,208.45,208.39499999999998,205.35333333333335,205.35333333333335,0.0,0.0
8,0.0,0.0,0.0,1.0,1.0,0.0,0.0,1.0,0.0,100.0,1.0,1.1856,26.0,0.0,0.0,0.0,52.999997,0.0,26.0,26.0,26.0,26.0,-0.03587499999999999,0.29080000000000017,0.02846666666666667,293.472,-2.6965,-2.7186,-1.4972,-1.5774,-249.04,216.16750000000002,190.82925,0.0,0.0,0.0,0.0,0.017066666666666667,-5.498166666666667,-5.498166666666667,-0.5352,-0.5876666666666667,-0.03200000000000003,0.839,66.694,-0.044500000000000005,-0.213875,-0.10999999999999943,100.0,1.0,1.0,205.73666666666668,0.0,0.0,0.0,0.0,0.0,0.0,0.0,8720.4,0.0,55.0,5.0,240.07,0.0,0.0,0.0,0.0,0.0,0.0,0.0,0.0,0.40500000000000114,0.40500000000000114,0.0,0.0,0.0,55.0,616.79921,10000.0,85.000001,85.000001,85.000001,85.000001,395.0,0.0,0.0,0.0,1.0,333.33500000000004,53.696,53.696,48.126,48.126,34.0,-23.505,23.072000000000003,-30.146666666666665,27.975,0.0,1782.524,-0.3349999999999991,100.0,27.475,26.728,42.794,41.885,0.0,0.0,100.0,0.0,0.0,0.0,0.0,2917.857142857143,3006.1,4127.625,4163.0,305.945,305.334,314.67475,314.491,21.8462,20.5498,21.8711,21.3953,314.999998,314.999998,324.999988,324.999988,99.55835714285715,99.50718333333333,99.5671,99.54677142857143,0.046250000000000124,-0.06800000000000006,-0.15159999999999998,0.0875999999999999,-0.04833333333333201,-0.048571428571428044,1.5155,1.5110000000000001,37.539,29.436333333333334,37.694,34.7205,55.976,34.673,59.641999999999996,52.283500000000004,53.917,33.8435,58.242,50.608000000000004,53.093,33.413333333333334,58.1865,50.016,-0.09650000000000003,-0.04150000000000009,0.111695,0.11760000000000001,0.0,208.865,208.875,205.73666666666668,205.73666666666668,0.0,0.0
9,0.0,0.0,0.0,1.0,1.0,0.0,0.0,1.0,0.0,100.0,1.0,1.1856,26.0,0.0,0.0,0.0,52.999997,0.0,26.0,26.0,26.0,26.0,-0.03300000000000003,0.2832000000000001,0.0329,293.137,-2.6839,-2.7211,-1.5568,-1.5523,-245.84,216.14249999999998,190.809375,0.0,0.0,0.0,0.0,0.018933333333333337,-5.498166666666667,-5.498166666666667,-0.5424,0.6193333333333334,-0.030874999999999986,0.7520000000000002,66.827,-0.026600000000000002,-0.21635000000000001,-0.1559999999999997,100.0,1.0,1.0,206.26999999999998,0.0,0.0,0.0,0.0,0.0,0.0,0.0,8743.0,0.0,55.0,5.0,240.55,1.0,0.0,0.0,0.0,0.0,0.0,0.0,0.0,0.4529999999999994,0.4529999999999994,0.0,0.0,1.0,55.0,616.79921,10000.0,85.000001,85.000001,85.000001,85.000001,395.0,0.0,0.0,0.0,1.0,166.665,52.414,52.414,49.164,49.164,34.0,-25.3825,24.869999999999997,-28.256666666666668,26.6475,0.0,1782.477,-0.4800000000000004,100.0,27.951,27.194,42.422,41.884,0.0,0.0,100.0,0.0,0.0,0.0,0.0,3285.142857142857,3112.4,3960.75,4085.2,304.7905,304.92875,315.21275,314.77,21.8554,20.5549,21.8808,21.4037,314.999998,314.999998,324.999988,324.999988,99.55835714285715,99.5072,99.56722857142857,99.5469,0.08050000000000024,-0.05066666666666664,-0.1346,0.08800000000000008,-0.054999999999999716,-0.060000000000002274,1.5615,1.5795,37.596000000000004,29.468,37.754999999999995,34.772999999999996,55.964,34.710499999999996,59.675,52.339,53.906,33.878,58.2725,50.661,53.08,33.446333333333335,58.2145,50.068,-0.11749999999999994,-0.04049999999999998,0.1126,0.10627500000000001,0.0,209.305,209.305,206.26999999999998,206.26999999999998,0.0,0.0
10,0.0,0.0,0.0,1.0,1.0,0.0,0.0,1.0,0.0,100.0,1.0,1.1856,26.0,0.0,0.0,0.0,52.999997,0.0,26.0,26.0,26.0,26.0,0.001000000000000112,0.2815000000000001,-0.010733333333333333,292.969,-2.6627,-2.6982,-1.5365,-1.5339,-242.42000000000002,216.115,190.788625,0.0,0.0,0.0,0.0,0.020933333333333335,-5.498166666666667,-5.498166666666667,-0.5181,-0.40800000000000003,0.007624999999999993,0.4119999999999999,66.974,-0.007200000000000001,-0.206875,-0.4500000000000002,100.0,1.0,1.0,206.51666666666665,0.0,0.0,0.0,0.0,0.0,0.0,0.0,8753.5,0.0,55.0,5.0,241.07666666666665,0.0,0.0,0.0,0.0,0.0,0.0,1.0,0.0,0.5040000000000013,0.5040000000000013,0.0,0.0,0.0,55.0,616.79921,10000.0,85.000001,85.000001,85.000001,85.000001,395.0,0.0,0.0,0.0,1.0,166.665,53.482,53.482,47.607,47.607,34.0,-21.04,22.836,-30.536666666666665,29.775,0.0,1782.427,-0.5999999999999996,100.0,27.699,27.364,42.792,42.755,0.0,0.0,100.0,0.0,0.0,0.0,0.0,2883.714285714286,2866.1,4320.0,4268.0,306.096,305.56125,314.30725,314.18525,21.8652,20.5601,21.8915,21.4129,314.999998,314.999998,324.999988,324.999988,99.55837142857143,99.5072,99.56737142857143,99.54704285714286,0.09250000000000025,-0.04400000000000004,-0.11520000000000001,0.11099999999999999,-0.036666666666668846,-0.054285714285711606,1.4655,1.457,37.657,29.500666666666667,37.822,34.8305,55.952,34.7475,59.7155,52.4025,53.894,33.9125,58.31,50.722,53.068,33.47933333333333,58.249,50.1275,-0.129,-0.02750000000000008,0.10239000000000001,0.113835,0.0,209.73000000000002,209.765,206.51666666666665,206.51666666666665,0.0,0.0
11,0.0,0.0,0.0,1.0,1.0,0.0,0.0,1.0,0.0,100.0,1.0,1.1856,26.0,0.0,0.0,0.0,52.999997,0.0,26.0,26.0,26.0,26.0,0.03025000000000011,0.26780000000000004,-0.0663,293.472,-2.7056,-2.6846,-1.5927,-1.5230000000000001,-239.0,216.0875,190.767875,0.0,0.0,0.0,0.0,0.022600000000000002,-5.498166666666667,-5.498166666666667,-0.5611,-0.21933333333333335,0.03487499999999999,0.28000000000000025,67.112,0.011600000000000001,-0.23715,-0.6639999999999997,100.0,1.0,1.0,207.25,0.0,0.0,0.0,0.0,0.0,0.0,0.0,8784.6,0.0,55.0,5.0,241.57666666666665,1.0,0.0,0.0,0.0,0.0,0.0,1.0,0.0,0.5549999999999997,0.5549999999999997,0.0,0.0,1.0,55.0,616.79921,10000.0,85.000001,85.000001,85.000001,85.000001,395.0,0.0,0.0,0.0,1.0,166.665,52.795,52.795,49.225,49.225,34.0,-21.7,26.778,-24.043333333333337,27.405,0.0,1782.376,-0.6600000000000001,100.0,27.579,27.459,42.373000000000005,42.613,0.0,0.0,100.0,0.0,0.0,0.0,0.0,2997.142857142857,3190.4,3690.5,3890.5,305.676,304.698,315.8955,315.209,21.8747,20.5655,21.9019,21.4219,314.999998,314.999998,324.999988,324.999988,99.55838571428572,99.50721666666666,99.5675,99.54718571428572,0.11149999999999993,-0.014666666666666606,-0.09,0.14480000000000004,-0.06666666666666998,-0.05571428571428072,1.6425,1.6019999999999999,37.717,29.534666666666666,37.887,34.887,55.938,34.786,59.7485,52.4615,53.881,33.9475,58.341,50.778999999999996,53.054,33.513,58.277,50.1835,-0.127,-0.024499999999999966,0.111295,0.11127000000000001,0.0,210.16500000000002,210.2,207.25,207.25,0.0,0.0
12,0.0,0.0,0.0,1.0,1.0,0.0,0.0,1.0,0.0,100.0,1.0,1.1856,26.0,0.0,0.0,0.0,52.999997,0.0,26.0,26.0,26.0,26.0,0.04962500000000003,0.28459999999999996,0.0103,292.892,-2.7577,-2.6833,-1.5516,-1.5267,-235.78,216.0625,190.747,0.0,0.0,0.0,0.0,0.025466666666666665,-5.498166666666667,-5.498166666666667,-0.5458000000000001,0.2996666666666667,0.01949999999999985,0.6310000000000002,67.249,0.028,-0.206575,-0.7199999999999998,100.0,1.0,1.0,207.43333333333334,0.0,0.0,0.0,0.0,0.0,0.0,0.0,8792.3,0.0,55.0,5.0,242.07,0.0,0.0,0.0,0.0,0.0,0.0,1.0,0.0,0.602999999999998,0.602999999999998,0.0,0.0,0.0,55.0,616.79921,10000.0,85.000001,85.000001,85.000001,85.000001,395.0,0.0,0.0,0.0,1.0,333.33500000000004,52.765,52.765,47.897,47.897,34.0,-22.075,27.106,-26.043333333333337,31.3825,0.0,1782.326,-0.6600000000000001,100.0,27.52,27.619,42.386,42.543,0.0,0.0,100.0,0.0,0.0,0.0,0.0,3028.285714285714,3199.0,4171.375,4225.6,305.59,304.70375,314.671,314.42675,21.8837,20.5707,21.9117,21.4304,314.999998,314.999998,324.999988,324.999988,99.5584,99.50721666666666,99.56764285714286,99.54731428571428,0.1200000000000001,-0.0076666666666667105,-0.055200000000000006,0.1572,-0.041666666666671404,-0.06142857142857139,1.5314999999999999,1.5,37.772999999999996,29.567,37.948,34.94,55.926,34.8215,59.783500000000004,52.518,53.870000000000005,33.9805,58.3735,50.8335,53.041,33.544666666666664,58.3065,50.237,-0.124,-0.030000000000000027,0.100125,0.10809500000000001,0.0,210.575,210.65,207.43333333333334,207.43333333333334,0.0,0.0
13,0.0,0.0,0.0,1.0,1.0,0.0,0.0,1.0,0.0,100.0,1.0,1.1856,26.0,0.0,0.0,0.0,52.999997,0.0,26.0,26.0,26.0,26.0,0.07200000000000006,0.2755000000000001,0.0536,292.511,-2.7336,-2.6734,-1.5927,-1.5118,-232.14,216.035,190.724,0.0,0.0,0.0,0.0,0.0269,-5.498166666666667,-5.498166666666667,-0.5387000000000001,-0.1,0.024124999999999952,1.061,67.4,0.038900000000000004,-0.215725,-0.8899999999999997,100.0,1.0,1.0,207.85666666666668,0.0,0.0,0.0,0.0,0.0,0.0,0.0,8810.2,0.0,55.0,5.0,242.61,1.0,0.0,0.0,0.0,0.0,0.0,1.0,0.0,0.657,0.657,0.0,0.0,1.0,55.0,616.79921,10000.0,85.000001,85.000001,85.000001,85.000001,395.0,0.0,0.0,0.0,1.0,166.665,52.429,52.429,47.852000000000004,47.852000000000004,34.0,-20.8525,27.898,-26.5,33.96,0.0,1782.274,-0.8249999999999993,100.0,27.85,27.808,42.666,43.059,0.0,0.0,100.0,0.0,0.0,0.0,0.0,3054.0,3189.0,4121.25,4365.3,305.4895,304.72525,314.7545,314.06725,21.8939,20.5765,21.9229,21.4402,314.999998,314.999998,324.999988,324.999988,99.55841428571429,99.50721666666666,99.5678,99.54747142857143,0.14875000000000016,0.015333333333333421,-0.0578,0.1814,-0.03499999999999659,-0.0357142857142847,1.513,1.462,37.837,29.60333333333333,38.018,35.001,55.916,34.8625,59.823499999999996,52.585,53.86,34.018,58.4105,50.897999999999996,53.03,33.580666666666666,58.34,50.3005,-0.14400000000000002,-0.01200000000000001,0.11174500000000001,0.113735,0.0,211.04500000000002,211.095,207.85666666666668,207.85666666666668,0.0,0.0
14,0.0,0.0,0.0,1.0,1.0,0.0,0.0,1.0,0.0,100.0,1.0,1.1856,26.0,0.0,0.0,0.0,52.999997,0.0,26.0,26.0,26.0,26.0,0.09650000000000003,0.27290000000000014,-0.011766666666666668,292.755,-2.7374,-2.6103,-1.6022,-1.5091999999999999,-228.7,216.0125,190.70275,0.0,0.0,0.0,0.0,0.028900000000000002,-5.498166666666667,-5.498166666666667,-0.5485,-0.13433333333333333,0.052875000000000005,-0.15900000000000003,67.53999999999999,0.0494,-0.22785000000000002,-0.9459999999999997,100.0,1.0,1.0,208.37,0.0,0.0,0.0,0.0,0.0,0.0,0.0,8832.1,0.0,55.0,5.0,243.11333333333334,0.0,0.0,0.0,0.0,0.0,0.0,1.0,0.0,0.7079999999999984,0.7079999999999984,0.0,0.0,0.0,55.0,616.79921,10000.0,85.000001,85.000001,85.000001,85.000001,395.0,0.0,0.0,0.0,1.0,166.665,52.582,52.582,48.05,48.05,34.0,-20.48,27.45,-25.310000000000002,31.01,0.0,1782.222,-0.9749999999999996,100.0,27.532,28.044,42.475,43.342,0.0,0.0,100.0,0.0,0.0,0.0,0.0,3025.5714285714284,3182.7,3983.875,4174.5,305.7415,304.5795,315.1715,314.46925,21.9034,20.582,21.9334,21.4494,314.999998,314.999998,324.999988,324.999988,99.55842857142858,99.50721666666666,99.56794285714285,99.54762857142858,0.14900000000000002,0.014333333333333087,-0.0572,0.16300000000000003,-0.04833333333333201,-0.04142857142857537,1.546,1.5270000000000001,37.896,29.637666666666668,38.084,35.0585,55.906,34.9005,59.859,52.647,53.849999999999994,34.0535,58.4435,50.957499999999996,53.019999999999996,33.614666666666665,58.37,50.359,-0.15300000000000002,-0.0050000000000001155,0.106675,0.1039,0.0,211.46,211.51999999999998,208.37,208.37,0.0,0.0
15,0.0,0.0,0.0,1.0,1.0,0.0,0.0,1.0,0.0,100.0,1.0,1.1856,26.0,0.0,0.0,0.0,52.999997,0.0,26.0,26.0,26.0,26.0,0.11024999999999996,0.29580000000000006,0.0108,292.816,-2.7085,-2.5763,-1.6264,-1.4532,-225.66,215.995,190.68375,0.0,0.0,0.0,0.0,0.03066666666666667,-5.498166666666667,-5.498166666666667,-0.5393,0.26866666666666666,0.08337499999999998,1.061,67.664,0.062,-0.20902500000000002,-1.2000000000000002,100.0,1.0,1.0,208.7266666666667,0.0,0.0,0.0,0.0,0.0,0.0,0.0,8847.1,0.0,55.0,5.0,243.56,1.0,0.0,0.0,0.0,0.0,0.0,1.0,0.0,0.7530000000000001,0.7530000000000001,0.0,0.0,1.0,55.0,616.79921,10000.0,85.000001,85.000001,85.000001,85.000001,395.0,0.0,0.0,0.0,1.0,333.33500000000004,52.811,52.811,48.157,48.157,34.0,-17.7925,28.608,-24.013333333333335,34.3575,0.0,1782.176,-1.0,100.0,27.698,27.915,42.293,43.294,0.0,0.0,100.0,0.0,0.0,0.0,0.0,2790.0,3232.0,3942.125,4396.4,306.2375,304.6025,315.2405,314.03425,21.9117,20.5869,21.9426,21.4575,314.999998,314.999998,324.999988,324.999988,99.55844285714285,99.50723333333333,99.56805714285714,99.54775714285714,0.1692499999999999,0.04300000000000015,-0.0318,0.20379999999999998,-0.021666666666668277,-0.05571428571428072,1.566,1.5035,37.948,29.668333333333333,38.141,35.109,55.897999999999996,34.9355,59.888999999999996,52.702,53.842,34.085499999999996,58.4715,51.0105,53.01,33.64533333333333,58.394999999999996,50.411,-0.15049999999999997,0.0034999999999999476,0.107535,0.11725500000000001,0.0,211.845,211.92000000000002,208.7266666666667,208.7266666666667,0.0,0.0
16,0.0,0.0,0.0,1.0,1.0,0.0,0.0,1.0,0.0,100.0,1.0,1.1856,26.0,0.0,0.0,0.0,52.999997,0.0,26.0,26.0,26.0,26.0,0.11837500000000012,0.26980000000000004,-0.055200000000000006,292.831,-2.8068,-2.5801,-1.6023,-1.4532,-222.21,215.97750000000002,190.661625,0.0,0.0,0.0,0.0,0.03266666666666667,-5.498166666666667,-5.498166666666667,-0.5631,-0.7010000000000001,0.0685,-1.101,67.803,0.0745,-0.22605,-1.2120000000000006,100.0,1.0,1.0,209.16333333333333,0.0,0.0,0.0,0.0,0.0,0.0,0.0,8865.7,0.0,55.0,5.0,244.06333333333333,0.0,0.0,0.0,0.0,0.0,0.0,1.0,0.0,0.8039999999999985,0.8039999999999985,0.0,0.0,0.0,55.0,616.79921,10000.0,85.000001,85.000001,85.000001,85.000001,395.0,0.0,0.0,0.0,1.0,333.33500000000004,52.704,52.704,47.913,47.913,34.0,-20.28,28.25,-23.953333333333333,31.91,0.0,1782.125,-0.9149999999999991,100.0,27.205,28.158,42.466,43.494,0.0,0.0,100.0,0.0,0.0,0.0,0.0,3013.285714285714,3206.3,3964.25,4138.4,305.878,304.53325,315.2325,314.5755,21.9209,20.5925,21.9531,21.4667,314.999998,314.999998,324.999988,324.999988,99.55847142857142,99.50723333333333,99.56821428571429,99.5479,0.16374999999999984,0.03500000000000014,-0.0344,0.20140000000000002,-0.05666666666667197,-0.03857142857143003,1.564,1.5145,38.004999999999995,29.703333333333333,38.207,35.167,55.885,34.9775,59.928,52.766999999999996,53.829,34.125,58.5075,51.073499999999996,52.995999999999995,33.683,58.428,50.4725,-0.14600000000000002,-0.008000000000000007,0.111435,0.10677,0.0,212.255,212.325,209.16333333333333,209.16333333333333,0.0,0.0
17,0.0,0.0,0.0,1.0,1.0,0.0,0.0,1.0,0.0,100.0,1.0,1.1856,26.0,0.0,0.0,0.0,52.999997,0.0,26.0,26.0,26.0,26.0,0.121,0.28659999999999997,0.022033333333333335,292.374,-2.7644,-2.5637,-1.6413,-1.4764,-218.54,215.96,190.63775,0.0,0.0,0.0,0.0,0.034800000000000005,-5.498166666666667,-5.498166666666667,-0.5478000000000001,0.4546666666666667,0.046875,-0.577,67.95,0.0801,-0.20420000000000002,-1.0899999999999999,100.0,1.0,1.0,209.54333333333335,0.0,0.0,0.0,0.0,0.0,0.0,0.0,8881.8,0.0,55.0,5.0,244.59333333333336,1.0,0.0,0.0,0.0,0.0,0.0,1.0,0.0,0.8580000000000005,0.8580000000000005,0.0,0.0,1.0,55.0,616.79921,10000.0,85.000001,85.000001,85.000001,85.000001,395.0,0.0,0.0,0.0,1.0,166.665,52.414,52.414,47.592,47.592,34.0,-20.232499999999998,27.382,-26.796666666666667,33.917500000000004,0.0,1782.072,-0.9800000000000004,100.0,27.671,28.378,42.281,43.515,0.0,0.0,100.0,0.0,0.0,0.0,0.0,3105.5714285714284,3098.6,4326.625,4317.8,305.563,304.8745,314.46,314.1855,21.9309,20.5985,21.9641,21.476399999999998,314.999998,314.999998,324.999988,324.999988,99.55848571428571,99.50723333333333,99.56835714285714,99.54805714285715,0.1735000000000002,0.044333333333333336,-0.026000000000000002,0.2008000000000001,-0.041666666666671404,-0.05142857142857338,1.5225,1.494,38.068,29.740666666666666,38.275999999999996,35.227000000000004,55.878,35.019,59.963,52.8285,53.822,34.163,58.54,51.132999999999996,52.988,33.71966666666667,58.457,50.531,-0.15400000000000003,0.0,0.10989000000000002,0.11138,0.0,212.735,212.835,209.54333333333335,209.54333333333335,0.0,0.0
18,0.0,0.0,0.0,1.0,1.0,0.0,0.0,1.0,0.0,100.0,1.0,1.1856,26.0,0.0,0.0,0.0,52.999997,0.0,26.0,26.0,26.0,26.0,0.13237500000000013,0.27560000000000007,-0.012,292.389,-2.8040000000000003,-2.5327,-1.6604,-1.4179,-215.28,215.95,190.61675,0.0,0.0,0.0,0.0,0.0367,-5.498166666666667,-5.498166666666667,-0.5606,-0.524,0.07487500000000002,-0.24099999999999988,68.081,0.082,-0.22382500000000002,-1.2679999999999998,100.0,1.0,1.0,209.9766666666667,0.0,0.0,0.0,0.0,0.0,0.0,0.0,8900.2,0.0,55.0,5.0,245.06333333333333,0.0,0.0,0.0,0.0,0.0,0.0,1.0,0.0,0.9059999999999988,0.9059999999999988,0.0,0.0,0.0,55.0,616.79921,10000.0,85.000001,85.000001,85.000001,85.000001,395.0,0.0,0.0,0.0,1.0,166.665,52.246,52.246,47.623,47.623,34.0,-20.23,30.084,-24.729999999999997,32.2225,0.0,1782.025,-1.2249999999999996,100.0,27.413,28.301000000000002,42.569,43.88,0.0,0.0,100.0,0.0,0.0,0.0,0.0,3110.5714285714284,3325.7,4052.125,4210.7,305.6015,304.2105,315.06275,314.422,21.9396,20.6038,21.974,21.4851,314.999998,314.999998,324.999988,324.999988,99.55851428571428,99.50723333333333,99.5685,99.5482,0.18175000000000008,0.06033333333333335,-0.0222,0.20320000000000005,-0.054999999999999716,-0.03999999999999915,1.5625,1.5035,38.122,29.774,38.338,35.282,55.869,35.0575,59.9975,52.8885,53.814,34.198499999999996,58.5715,51.1905,52.977999999999994,33.754,58.486,50.5875,-0.16999999999999993,0.016000000000000014,0.10612500000000001,0.103925,0.0,213.095,213.195,209.9766666666667,209.9766666666667,0.0,0.0
19,0.0,0.0,0.0,1.0,1.0,0.0,0.0,1.0,0.0,100.0,1.0,1.1856,26.0,0.0,0.0,0.0,52.999997,0.0,26.0,26.0,26.0,26.0,0.15775000000000006,0.2896000000000001,0.057966666666666666,291.931,-2.7163,-2.6401,-1.6736,-1.4041000000000001,-211.8,215.9425,190.594125,0.0,0.0,0.0,0.0,0.038733333333333335,-5.498166666666667,-5.498166666666667,-0.5479,0.8446666666666667,0.08549999999999991,0.9020000000000001,68.218,0.0926,-0.20950000000000002,-1.7120000000000006,100.0,1.0,1.0,210.36,0.0,0.0,0.0,0.0,0.0,0.0,0.0,8916.4,0.0,55.0,5.0,245.55333333333334,1.0,0.0,0.0,0.0,0.0,0.0,1.0,0.0,0.9570000000000007,0.9570000000000007,0.0,0.0,1.0,55.0,616.79921,10000.0,85.000001,85.000001,85.000001,85.000001,395.0,0.0,0.0,0.0,1.0,166.665,51.757999999999996,51.757999999999996,47.348,47.348,34.0,-16.695,32.462,-24.813333333333333,36.1875,0.0,1781.974,-1.5749999999999993,100.0,28.068,28.657,42.393,43.793,0.0,0.0,100.0,0.0,0.0,0.0,0.0,2974.285714285714,3335.8,4185.375,4528.2,305.6545,304.08125,314.734,313.7725,21.948999999999998,20.6096,21.9844,21.4944,314.999998,314.999998,324.999988,324.999988,99.55854285714285,99.50725,99.56864285714286,99.54834285714286,0.22875000000000023,0.08700000000000019,0.0004,0.2265999999999999,-0.036666666666668846,-0.06142857142857139,1.535,1.484,38.182,29.810333333333332,38.402,35.34,55.863,35.102000000000004,60.031,52.951,53.808,34.24,58.6025,51.251,52.971000000000004,33.79366666666667,58.513999999999996,50.647,-0.19799999999999995,0.038000000000000034,0.10966500000000001,0.11105000000000001,0.0,213.56,213.68,210.36,210.36,0.0,0.0
20,0.0,0.0,0.0,1.0,1.0,0.0,0.0,1.0,0.0,100.0,1.0,1.1856,26.0,0.0,0.0,0.0,52.999997,0.0,26.0,26.0,26.0,26.0,0.20062500000000005,0.2614000000000001,-0.054533333333333336,292.374,-2.8283,-2.5768,-1.6102,-1.5145,-208.32,215.94,190.57175,0.0,0.0,0.0,0.0,0.04076666666666667,-5.498166666666667,-5.498166666666667,-0.5577,-1.183,0.09487500000000004,-0.7130000000000001,68.356,0.108,-0.22592500000000001,-1.9799999999999995,100.0,1.0,1.0,210.73333333333335,0.0,0.0,0.0,0.0,0.0,0.0,0.0,8932.3,0.0,55.0,5.0,246.05333333333334,0.0,0.0,0.0,0.0,0.0,0.0,0.0,0.0,1.0079999999999991,1.0079999999999991,0.0,0.0,0.0,55.0,616.79921,10000.0,85.000001,85.000001,85.000001,85.000001,395.0,0.0,0.0,0.0,1.0,166.665,52.75,52.75,47.104,47.104,34.0,-16.947499999999998,30.426000000000002,-22.509999999999998,36.105000000000004,0.0,1781.923,-1.5199999999999996,100.0,27.29,28.514,42.772999999999996,44.396,0.0,0.0,100.0,0.0,0.0,0.0,0.0,2858.5714285714284,3190.9,4058.75,4264.3,306.3335,304.56075,314.95825,314.1645,21.9581,20.6153,21.995,21.5038,314.999998,314.999998,324.999988,324.999988,99.55855714285714,99.50726666666667,99.56878571428571,99.54848571428572,0.22124999999999995,0.09100000000000019,0.0134,0.23360000000000003,-0.03999999999999915,-0.021428571428565135,1.516,1.4525000000000001,38.238,29.845666666666666,38.469,35.399,55.854,35.1455,60.069,53.0155,53.798,34.28,58.638,51.3135,52.961,33.832,58.546,50.7085,-0.1955,0.04499999999999993,0.10306000000000001,0.104895,0.0,213.925,214.04500000000002,210.73333333333335,210.73333333333335,0.0,0.0
21,0.0,0.0,0.0,1.0,1.0,0.0,0.0,1.0,0.0,100.0,1.0,1.1856,26.0,0.0,0.0,0.0,52.999997,0.0,26.0,26.0,26.0,26.0,0.15362500000000012,0.27700000000000014,-0.0597,292.648,-2.7431,-2.6296,-1.6722000000000001,-1.4754,-205.24,215.94,190.551375,0.0,0.0,0.0,0.0,0.04253333333333333,-5.498166666666667,-5.498166666666667,-0.5790000000000001,0.497,0.0794999999999999,0.05699999999999994,68.47200000000001,0.1242,-0.22545,-1.6820000000000004,100.0,1.0,1.0,211.32,0.0,0.0,0.0,0.0,0.0,0.0,0.0,8957.1,0.0,55.0,5.0,246.47333333333336,1.0,0.0,0.0,0.0,0.0,0.0,0.0,0.0,1.0530000000000008,1.0530000000000008,0.0,0.0,1.0,55.0,616.79921,10000.0,85.000001,85.000001,85.000001,85.000001,395.0,0.0,0.0,0.0,1.0,166.665,52.216,52.216,48.278999999999996,48.278999999999996,34.0,-19.07,29.72,-21.203333333333333,34.167500000000004,0.0,1781.878,-0.40499999999999936,100.0,27.706,28.538,42.125,43.91,0.0,0.0,100.0,0.0,0.0,0.0,0.0,2927.5714285714284,3299.4,3912.875,4083.6000000000004,305.8535,304.32525,315.4335,314.80825,21.9663,20.6205,22.004,21.5118,314.999998,314.999998,324.999988,324.999988,99.55858571428571,99.50728333333333,99.56891428571429,99.54862857142857,0.17074999999999996,0.038000000000000256,0.026600000000000002,0.2602,-0.036666666666668846,-0.07571428571428385,1.6265,1.566,38.289,29.878,38.525,35.449,55.847,35.1845,60.0955,53.0685,53.792,34.316,58.6625,51.3645,52.953,33.867,58.567499999999995,50.7585,-0.11199999999999999,-0.04400000000000004,0.10948500000000001,0.10608000000000001,0.0,214.325,214.465,211.32,211.32,0.0,0.0
22,0.0,0.0,0.0,1.0,1.0,0.0,0.0,1.0,0.0,100.0,1.0,1.1856,26.0,0.0,0.0,0.0,52.999997,0.0,26.0,26.0,26.0,26.0,0.12575000000000003,0.272,0.023233333333333335,292.084,-2.7233,-2.6398,-1.6557,-1.4792,-201.74,215.9475,190.5275,0.0,0.0,0.0,0.0,0.04456666666666667,-5.498166666666667,-5.498166666666667,-0.5565,0.11,0.06937499999999996,-0.8479999999999999,68.611,0.11270000000000001,-0.205925,-0.29799999999999915,100.0,1.0,1.0,211.51666666666665,0.0,0.0,0.0,0.0,0.0,0.0,0.0,8965.4,0.0,55.0,5.0,246.97333333333336,0.0,0.0,0.0,0.0,0.0,0.0,0.0,0.0,1.1039999999999992,1.1039999999999992,0.0,0.0,0.0,55.0,616.79921,10000.0,85.000001,85.000001,85.000001,85.000001,395.0,0.0,0.0,0.0,1.0,166.665,52.292,52.292,47.073,47.073,34.0,-21.27,25.588,-25.89666666666666,34.894999999999996,0.0,1781.827,0.5850000000000009,100.0,27.731,28.752,42.626,44.225,0.0,0.0,100.0,0.0,0.0,0.0,0.0,2954.5714285714284,3122.3,4238.0,4329.1,305.9215,304.654,314.6365,314.14775,21.9756,20.6262,22.014499999999998,21.5212,314.999998,314.999998,324.999988,324.999988,99.5586,99.50728333333333,99.56905714285715,99.54878571428571,0.11525000000000007,-0.026666666666666616,-0.0148,0.21320000000000006,-0.05666666666667197,-0.03999999999999915,1.498,1.4695,38.348,29.913666666666664,38.591,35.5075,55.836,35.2245,60.134,53.1325,53.781,34.353,58.698,51.426,52.941,33.90266666666667,58.5995,50.819,-0.04149999999999998,-0.1180000000000001,0.10491,0.10508,0.0,214.82,214.825,211.51666666666665,211.51666666666665,0.0,0.0
23,0.0,0.0,0.0,1.0,1.0,0.0,0.0,1.0,0.0,100.0,1.0,1.1856,26.0,0.0,0.0,0.0,52.999997,0.0,26.0,26.0,26.0,26.0,0.0475000000000001,0.2509000000000001,-0.044833333333333336,292.145,-2.7218999999999998,-2.6188000000000002,-1.6803,-1.5697,-198.03,215.95499999999998,190.502625,0.0,0.0,0.0,0.0,0.046733333333333335,-5.498166666666667,-5.498166666666667,-0.5763,-0.09133333333333334,0.03699999999999992,-1.1789999999999998,68.752,0.0606,-0.232025,0.7880000000000003,100.0,1.0,1.0,212.09333333333333,0.0,0.0,0.0,0.0,0.0,0.0,0.0,8989.8,0.0,55.0,5.0,247.48333333333335,1.0,0.0,0.0,0.0,0.0,0.0,0.0,0.0,1.1580000000000013,1.1580000000000013,0.0,0.0,1.0,55.0,616.79921,10000.0,85.000001,85.000001,85.000001,85.000001,395.0,0.0,0.0,0.0,1.0,166.665,51.666,51.666,48.141,48.141,34.0,-25.94,23.53,-27.666666666666664,28.395,0.0,1781.772,0.8550000000000004,100.0,28.223,28.641,42.974000000000004,44.217,0.0,0.0,100.0,0.0,0.0,0.0,0.0,3267.714285714286,3120.9,4005.625,3921.5,304.9955,304.75175,315.266,315.06975,21.985599999999998,20.6322,22.0257,21.531,314.999998,314.999998,324.999988,324.999988,99.55861428571428,99.50728333333333,99.5692,99.54894285714286,0.07100000000000017,-0.06800000000000006,-0.082,0.14159999999999995,-0.041666666666671404,-0.028571428571432023,1.5345,1.576,38.41,29.951666666666668,38.661,35.569,55.822,35.2675,60.171,53.1975,53.768,34.393,58.7325,51.489,52.927,33.940666666666665,58.6305,50.8805,-0.00649999999999995,-0.14600000000000013,0.11285,0.10380500000000001,0.0,215.265,215.21,212.09333333333333,212.09333333333333,0.0,0.0
24,0.0,0.0,0.0,1.0,1.0,0.0,0.0,1.0,0.0,100.0,1.0,1.1856,26.0,0.0,0.0,0.0,52.999997,0.0,26.0,26.0,26.0,26.0,-0.038250000000000006,0.2679,-0.10746666666666668,292.374,-2.7159,-2.6598,-1.5759,-1.5352999999999999,-194.94,215.9625,190.481625,0.0,0.0,0.0,0.0,0.04853333333333333,-5.498166666666667,-5.498166666666667,-0.5785,-0.5516666666666666,0.021874999999999867,0.5070000000000001,68.873,0.010700000000000001,-0.21710000000000002,1.138,100.0,1.0,1.0,212.34,0.0,0.0,0.0,0.0,0.0,0.0,0.0,9000.4,0.0,55.0,5.0,247.91333333333336,0.0,0.0,0.0,0.0,0.0,0.0,0.0,0.0,1.2029999999999994,1.2029999999999994,0.0,0.0,0.0,55.0,616.79921,10000.0,85.000001,85.000001,85.000001,85.000001,395.0,0.0,0.0,0.0,1.0,333.33500000000004,52.872,52.872,47.058,47.058,34.0,-23.5175,21.242,-31.283333333333335,27.7225,0.0,1781.726,0.879999999999999,100.0,28.163,28.094,43.36,43.803,0.0,0.0,100.0,0.0,0.0,0.0,0.0,2893.714285714286,2971.7,4293.125,4119.0,306.0115,305.4325,314.36125,314.712,21.9938,20.6371,22.035,21.5391,314.999998,314.999998,324.999988,324.999988,99.55862857142857,99.5073,99.56934285714286,99.54907142857142,0.04700000000000015,-0.09533333333333327,-0.1216,0.10319999999999996,-0.04333333333332945,-0.05571428571428072,1.4835,1.5350000000000001,38.461,29.981666666666666,38.719,35.6195,55.809,35.302,60.204,53.2495,53.754999999999995,34.425,58.763,51.539500000000004,52.913,33.971666666666664,58.658500000000004,50.93,-0.013499999999999956,-0.14949999999999997,0.10953500000000001,0.10629000000000001,0.0,215.655,215.57,212.34,212.34,0.0,0.0
25,0.0,0.0,0.0,1.0,1.0,0.0,0.0,1.0,0.0,100.0,1.0,1.1856,26.0,0.0,0.0,0.0,52.999997,0.0,26.0,26.0,26.0,26.0,-0.102375,0.26970000000000005,-0.0592,292.191,-2.7476000000000003,-2.6525,-1.5615,-1.5654,-191.20999999999998,215.9725,190.454625,0.0,0.0,0.0,0.0,0.0507,-5.498166666666667,-5.498166666666667,-0.6131,0.11766666666666667,-0.008249999999999869,-0.7229999999999999,69.012,-0.042800000000000005,-0.225575,1.4179999999999993,100.0,1.0,1.0,212.92333333333335,0.0,0.0,0.0,0.0,0.0,0.0,0.0,9025.0,0.0,55.0,5.0,248.42000000000002,1.0,0.0,0.0,0.0,0.0,0.0,0.0,0.0,1.256999999999998,1.256999999999998,0.0,0.0,1.0,55.0,616.79921,10000.0,85.000001,85.000001,85.000001,85.000001,395.0,0.0,0.0,0.0,1.0,166.665,51.605000000000004,51.605000000000004,47.928,47.928,34.0,-29.424999999999997,22.368,-30.21,24.2275,0.0,1781.674,0.865000000000002,100.0,28.396,28.129,43.322,43.215,0.0,0.0,100.0,0.0,0.0,0.0,0.0,3313.4285714285716,3298.1,3998.125,3970.3,304.856,304.43175,315.17525,315.068,22.0038,20.6429,22.046,21.5487,314.999998,314.999998,324.999988,324.999988,99.55862857142857,99.50731666666667,99.5695,99.54922857142857,0.008999999999999897,-0.1286666666666667,-0.1658,0.05359999999999987,-0.045000000000001705,-0.054285714285711606,1.558,1.6025,38.524,30.018333333333334,38.788,35.6795,55.791,35.3475,60.2405,53.309,53.738,34.467,58.797,51.5965,52.894999999999996,34.01166666666667,58.689,50.986000000000004,-0.018000000000000016,-0.15000000000000013,0.10753000000000001,0.1024,0.0,216.11,215.99,212.92333333333335,212.92333333333335,0.0,0.0
26,0.0,0.0,0.0,1.0,1.0,0.0,0.0,1.0,0.0,100.0,1.0,1.1856,26.0,0.0,0.0,0.0,52.999997,0.0,26.0,26.0,26.0,26.0,-0.13375000000000004,0.2793000000000001,0.054266666666666664,291.077,-2.6635,-2.7659000000000002,-1.5823,-1.5908,-187.69,215.97750000000002,190.429,0.0,0.0,0.0,0.0,0.05273333333333334,-5.498166666666667,-5.498166666666667,-0.5692,0.545,-0.06125000000000025,-1.21,69.15,-0.0791,-0.19762500000000002,1.482000000000001,100.0,1.0,1.0,213.05333333333334,0.0,0.0,0.0,0.0,0.0,0.0,0.0,9030.5,0.0,55.0,5.0,248.91,0.0,0.0,0.0,0.0,0.0,0.0,0.0,0.0,1.3079999999999998,1.3079999999999998,0.0,0.0,0.0,55.0,616.79921,10000.0,85.000001,85.000001,85.000001,85.000001,395.0,0.0,0.0,0.0,1.0,166.665,51.468,51.468,46.036,46.036,34.0,-29.7225,19.7,-40.39,26.372500000000002,0.0,1781.623,0.6350000000000016,100.0,29.259,28.587,44.217,43.455,0.0,0.0,100.0,0.0,0.0,0.0,0.0,3341.5714285714284,2911.5,4711.375,4426.7,304.8175,305.33975,313.52225,313.94925,22.0136,20.6486,22.0568,21.558,314.999998,314.999998,324.999988,324.999988,99.55862857142857,99.50733333333334,99.56964285714285,99.54937142857143,-0.01024999999999987,-0.15133333333333332,-0.2076,0.014599999999999946,-0.04999999999999716,-0.03285714285714647,1.4015,1.46,38.585,30.053666666666665,38.855000000000004,35.7375,55.778999999999996,35.393,60.2825,53.369,53.726,34.509,58.836,51.6545,52.882,34.05166666666666,58.725,51.042500000000004,-0.03200000000000003,-0.13549999999999995,0.10433500000000001,0.10350000000000001,0.0,216.575,216.425,213.05333333333334,213.05333333333334,0.0,0.0
27,0.0,0.0,0.0,1.0,1.0,0.0,0.0,1.0,0.0,100.0,1.0,1.1856,26.0,0.0,0.0,0.0,52.999997,0.0,26.0,26.0,26.0,26.0,-0.133,0.23920000000000008,-0.017133333333333334,291.58,-2.6107,-2.7533000000000003,-1.5583,-1.674,-184.57999999999998,215.98000000000002,190.407375,0.0,0.0,0.0,0.0,0.054566666666666666,-5.498166666666667,-5.498166666666667,-0.598,-1.082,-0.07125000000000004,0.6779999999999999,69.265,-0.09340000000000001,-0.24495,1.2420000000000009,100.0,1.0,1.0,213.54666666666668,0.0,0.0,0.0,0.0,0.0,0.0,0.0,9051.5,0.0,55.0,5.0,249.32999999999998,1.0,0.0,0.0,0.0,0.0,0.0,0.0,0.0,1.352999999999998,1.352999999999998,0.0,0.0,1.0,55.0,616.79921,10000.0,85.000001,85.000001,85.000001,85.000001,395.0,0.0,0.0,0.0,1.0,333.33500000000004,51.712,51.712,46.692,46.692,34.0,-28.1625,20.240000000000002,-34.97333333333333,24.8475,0.0,1781.576,0.5450000000000017,100.0,29.21,28.078,45.022999999999996,43.696,0.0,0.0,100.0,0.0,0.0,0.0,0.0,3209.857142857143,3077.2,4155.875,4018.8,305.0115,305.135,314.70525,314.87375,22.0219,20.6534,22.0663,21.5662,314.999998,314.999998,324.999988,324.999988,99.55862857142857,99.50735,99.56977142857143,99.5495,-0.01024999999999987,-0.15900000000000003,-0.21980000000000002,0.021400000000000086,-0.026666666666670835,-0.04571428571428271,1.4575,1.514,38.637,30.083333333333336,38.915,35.789,55.763999999999996,35.431,60.321,53.4245,53.713,34.546,58.8725,51.707499999999996,52.869,34.08733333333333,58.7585,51.094,-0.03700000000000003,-0.1260000000000001,0.11439,0.11243000000000002,0.0,216.845,216.74,213.54666666666668,213.54666666666668,0.0,0.0
28,0.0,0.0,0.0,1.0,1.0,0.0,0.0,1.0,0.0,100.0,1.0,1.1856,26.0,0.0,0.0,0.0,52.999997,0.0,26.0,26.0,26.0,26.0,-0.14574999999999994,0.2734000000000001,-0.047900000000000005,291.87,-2.6297,-2.7405,-1.5046,-1.635,-180.82999999999998,215.98000000000002,190.380375,0.0,0.0,0.0,0.0,0.05673333333333334,-5.498166666666667,-5.498166666666667,-0.5988,0.68,-0.07637500000000008,0.806,69.403,-0.10010000000000001,-0.2126,1.1300000000000008,100.0,1.0,1.0,214.04666666666668,0.0,0.0,0.0,0.0,0.0,0.0,0.0,9072.7,0.0,55.0,5.0,249.82333333333332,0.0,0.0,0.0,0.0,0.0,0.0,0.0,0.0,1.407,1.407,0.0,0.0,0.0,55.0,616.79921,10000.0,85.000001,85.000001,85.000001,85.000001,395.0,0.0,0.0,0.0,1.0,166.665,51.865,51.865,47.394,47.394,34.0,-28.0925,19.954,-34.04666666666667,23.925,0.0,1781.524,0.33999999999999986,100.0,29.283,27.929000000000002,44.312,43.027,0.0,0.0,100.0,0.0,0.0,0.0,0.0,3196.4285714285716,3002.2,4189.875,4112.4,304.987,305.32425,314.75525,314.756,22.0321,20.6591,22.0774,21.5758,314.999998,314.999998,324.999988,324.999988,99.55864285714286,99.50736666666667,99.56994285714286,99.54965714285714,-0.005749999999999922,-0.1503333333333332,-0.2182,0.006799999999999917,-0.01999999999999602,-0.054285714285711606,1.5095,1.5630000000000002,38.701,30.119666666666667,38.983000000000004,35.8485,55.751000000000005,35.477000000000004,60.356,53.480000000000004,53.7,34.5865,58.9055,51.7605,52.855000000000004,34.12566666666667,58.788,51.1455,-0.05599999999999994,-0.11149999999999993,0.11060500000000001,0.10540500000000001,0.0,217.32,217.22500000000002,214.04666666666668,214.04666666666668,0.0,0.0
29,0.0,0.0,0.0,1.0,1.0,0.0,0.0,1.0,0.0,100.0,1.0,1.1856,26.0,0.0,0.0,0.0,52.999997,0.0,26.0,26.0,26.0,26.0,-0.13287499999999997,0.2573000000000001,0.0125,291.534,-2.5806,-2.7942,-1.5417,-1.6106,-177.5,215.975,190.355625,0.0,0.0,0.0,0.0,0.058666666666666666,-5.498166666666667,-5.498166666666667,-0.6066,-0.7116666666666667,-0.07337499999999997,0.7040000000000002,69.529,-0.0936,-0.218725,0.7940000000000005,100.0,1.0,1.0,214.29333333333335,0.0,0.0,0.0,0.0,0.0,0.0,0.0,9083.1,0.0,55.0,5.0,250.27666666666664,1.0,0.0,0.0,0.0,0.0,0.0,0.0,0.0,1.4549999999999983,1.4549999999999983,0.0,0.0,1.0,55.0,616.79921,10000.0,85.000001,85.000001,85.000001,85.000001,395.0,0.0,0.0,0.0,1.0,166.665,51.757999999999996,51.757999999999996,46.6,46.6,34.0,-28.127499999999998,21.598,-34.92666666666666,25.3525,0.0,1781.475,0.25,100.0,28.954,27.824,44.755,43.295,0.0,0.0,100.0,0.0,0.0,0.0,0.0,3285.857142857143,3095.0,4245.25,4204.9,304.828,304.92225,314.46275,314.492,22.0409,20.6642,22.0875,21.584600000000002,314.999998,314.999998,324.999988,324.999988,99.55864285714286,99.50738333333334,99.57008571428571,99.5498,0.00024999999999986144,-0.1433333333333333,-0.2054,0.02100000000000013,-0.03999999999999915,-0.05571428571428072,1.467,1.4835,38.756,30.151333333333334,39.047,35.9035,55.736000000000004,35.516999999999996,60.394999999999996,53.536,53.686,34.623,58.942,51.8145,52.84,34.160666666666664,58.8215,51.198,-0.06399999999999995,-0.09800000000000009,0.10660000000000001,0.10729500000000002,0.0,217.655,217.59,214.29333333333335,214.29333333333335,0.0,0.0
30,0.0,0.0,0.0,1.0,1.0,0.0,0.0,1.0,0.0,100.0,1.0,1.1856,26.0,0.0,0.0,0.0,52.999997,0.0,26.0,26.0,26.0,26.0,-0.110375,0.26770000000000005,0.05793333333333334,291.031,-2.6375,-2.6817,-1.4825,-1.6699000000000002,-174.16,215.97,190.3305,0.0,0.0,0.0,0.0,0.0606,-5.498166666666667,-5.498166666666667,-0.6026,0.79,-0.07350000000000012,0.9290000000000003,69.651,-0.0833,-0.21605000000000002,0.7300000000000004,100.0,1.0,1.0,214.70666666666668,0.0,0.0,0.0,0.0,0.0,0.0,0.0,9100.6,0.0,55.0,5.0,250.71666666666667,0.0,0.0,0.0,0.0,0.0,0.0,1.0,0.0,1.5030000000000001,1.5030000000000001,0.0,0.0,0.0,55.0,616.79921,10000.0,85.000001,85.000001,85.000001,85.000001,395.0,0.0,0.0,0.0,1.0,333.33500000000004,50.858000000000004,50.858000000000004,46.829,46.829,34.0,-28.9,21.308,-33.626666666666665,27.4675,0.0,1781.427,0.10999999999999943,100.0,29.803,28.53,44.601,43.35,0.0,0.0,100.0,0.0,0.0,0.0,0.0,3422.0,3091.0,4303.625,4247.4,304.391,305.00375,314.408,314.3485,22.0501,20.6696,22.0973,21.5932,314.999998,314.999998,324.999988,324.999988,99.55864285714286,99.5074,99.57022857142857,99.54992857142857,0.02574999999999994,-0.12399999999999989,-0.18780000000000002,0.03840000000000021,-0.04999999999999716,-0.03999999999999915,1.4625,1.5005000000000002,38.813,30.185000000000002,39.108000000000004,35.957499999999996,55.726,35.5595,60.4295,53.59,53.676,34.6625,58.974000000000004,51.866,52.829,34.19833333333334,58.851,51.2485,-0.08050000000000002,-0.09149999999999991,0.10278000000000001,0.11018000000000001,0.0,218.09,218.01999999999998,214.70666666666668,214.70666666666668,0.0,0.0
31,0.0,0.0,0.0,1.0,1.0,0.0,0.0,1.0,0.0,100.0,1.0,1.1856,26.0,0.0,0.0,0.0,52.999997,0.0,26.0,26.0,26.0,26.0,-0.09162499999999996,0.2621,-0.0017666666666666668,290.924,-2.7118,-2.6528,-1.5391,-1.6562999999999999,-170.39,215.95749999999998,190.30325,0.0,0.0,0.0,0.0,0.06280000000000001,-5.498166666666667,-5.498166666666667,-0.5922000000000001,-0.715,-0.05787500000000012,0.7269999999999999,69.78999999999999,-0.0668,-0.22295,0.3760000000000012,100.0,1.0,1.0,215.04333333333335,0.0,0.0,0.0,0.0,0.0,0.0,0.0,9114.9,0.0,55.0,5.0,251.21666666666667,1.0,0.0,0.0,0.0,0.0,0.0,1.0,0.0,1.5569999999999986,1.5569999999999986,0.0,0.0,1.0,55.0,616.79921,10000.0,85.000001,85.000001,85.000001,85.000001,395.0,0.0,0.0,0.0,1.0,166.665,51.3,51.3,45.624,45.624,34.0,-27.189999999999998,22.496,-33.67,28.325000000000003,0.0,1781.374,0.019999999999999574,100.0,29.38,28.585,45.22,44.078,0.0,0.0,100.0,0.0,0.0,0.0,0.0,3208.857142857143,3236.2,4315.625,4305.3,305.1915,304.7645,314.2945,314.30725,22.06,20.6755,22.1088,21.6032,314.999998,314.999998,324.999988,324.999988,99.55865714285714,99.50741666666667,99.5704,99.5501,0.028500000000000192,-0.11233333333333317,-0.1678,0.050000000000000044,-0.03333333333333144,-0.04571428571428271,1.452,1.479,38.875,30.222,39.18,36.019999999999996,55.71,35.6055,60.473,53.653999999999996,53.661,34.705,59.015,51.928,52.813,34.23866666666667,58.8885,51.3085,-0.08599999999999997,-0.08050000000000002,0.09943,0.10541500000000001,0.0,218.45499999999998,218.42000000000002,215.04333333333335,215.04333333333335,0.0,0.0
32,0.0,0.0,0.0,1.0,1.0,0.0,0.0,1.0,0.0,100.0,1.0,1.1856,26.0,0.0,0.0,0.0,52.999997,0.0,26.0,26.0,26.0,26.0,-0.09124999999999994,0.2579,-0.04186666666666667,291.229,-2.6458,-2.7561999999999998,-1.6037,-1.5662,-167.04,215.9475,190.279125,0.0,0.0,0.0,0.0,0.06476666666666667,-5.498166666666667,-5.498166666666667,-0.6084,0.19066666666666665,-0.08187500000000014,0.20999999999999996,69.90899999999999,-0.0528,-0.22865000000000002,0.3200000000000003,100.0,1.0,1.0,215.56666666666666,0.0,0.0,0.0,0.0,0.0,0.0,0.0,9137.0,0.0,55.0,5.0,251.64666666666665,0.0,0.0,0.0,0.0,0.0,0.0,1.0,0.0,1.6050000000000004,1.6050000000000004,0.0,0.0,0.0,55.0,616.79921,10000.0,85.000001,85.000001,85.000001,85.000001,395.0,0.0,0.0,0.0,1.0,166.665,51.178,51.178,46.616,46.616,34.0,-26.7125,23.136,-32.96666666666667,26.6875,0.0,1781.326,-0.0600000000000005,100.0,29.425,28.659,44.745000000000005,43.839,0.0,0.0,100.0,0.0,0.0,0.0,0.0,3296.5714285714284,3116.6,4241.75,4175.4,304.819,304.957,314.67875,314.69325,22.0689,20.6809,22.1186,21.6119,314.999998,314.999998,324.999988,324.999988,99.55865714285714,99.50743333333334,99.57052857142857,99.55022857142858,0.047499999999999876,-0.10133333333333328,-0.1636,0.06820000000000004,-0.03499999999999659,-0.05285714285714249,1.5325,1.5354999999999999,38.93,30.255333333333333,39.241,36.0745,55.698,35.646,60.506,53.707,53.649,34.7425,59.045500000000004,51.979,52.8,34.27466666666667,58.9165,51.358000000000004,-0.08999999999999997,-0.08200000000000007,0.10819500000000001,0.11368500000000001,0.0,218.82999999999998,218.815,215.56666666666666,215.56666666666666,0.0,0.0
33,0.0,0.0,0.0,1.0,1.0,0.0,0.0,1.0,0.0,100.0,1.0,1.1856,26.0,0.0,0.0,0.0,52.999997,0.0,26.0,26.0,26.0,26.0,-0.056624999999999925,0.2670000000000001,-0.033266666666666674,291.367,-2.6626000000000003,-2.7422,-1.5407000000000002,-1.5750000000000002,-163.68,215.935,190.254,0.0,0.0,0.0,0.0,0.06670000000000001,-5.498166666666667,-5.498166666666667,-0.6108,-0.368,-0.06737500000000018,1.472,70.032,-0.0432,-0.21525,0.16000000000000014,100.0,1.0,1.0,215.82333333333332,0.0,0.0,0.0,0.0,0.0,0.0,0.0,9148.0,0.0,55.0,5.0,252.09,1.0,0.0,0.0,0.0,0.0,0.0,1.0,0.0,1.6529999999999987,1.6529999999999987,0.0,0.0,1.0,55.0,616.79921,10000.0,85.000001,85.000001,85.000001,85.000001,395.0,0.0,0.0,0.0,1.0,333.33500000000004,51.879999999999995,51.879999999999995,46.417,46.417,34.0,-24.64,23.024,-31.913333333333334,28.25,0.0,1781.277,-0.16999999999999993,100.0,29.153,28.336,44.727000000000004,43.927,0.0,0.0,100.0,0.0,0.0,0.0,0.0,3130.4285714285716,3047.1,4259.125,4316.3,305.361,305.1955,314.4925,314.27825,22.0776,20.686,22.1285,21.6207,314.999998,314.999998,324.999988,324.999988,99.55865714285714,99.50745,99.57067142857143,99.55037142857142,0.06174999999999997,-0.08599999999999985,-0.148,0.06940000000000013,-0.03999999999999915,-0.058571428571426054,1.4805000000000001,1.4929999999999999,38.985,30.287333333333336,39.303,36.129,55.685,35.683,60.541,53.762,53.637,34.775999999999996,59.0785,52.032,52.788,34.307,58.946,51.41,-0.10250000000000004,-0.07000000000000006,0.104645,0.10654500000000001,0.0,219.21,219.175,215.82333333333332,215.82333333333332,0.0,0.0
34,0.0,0.0,0.0,1.0,1.0,0.0,0.0,1.0,0.0,100.0,1.0,1.1856,26.0,0.0,0.0,0.0,52.999997,0.0,26.0,26.0,26.0,26.0,-0.04112499999999997,0.25,-0.07143333333333333,291.779,-2.6861,-2.6875999999999998,-1.6069,-1.5928,-160.11,215.92000000000002,190.22625,0.0,0.0,0.0,0.0,0.06876666666666667,-5.498166666666667,-5.498166666666667,-0.6446000000000001,-0.8200000000000001,-0.03200000000000003,-0.06400000000000006,70.16,-0.029900000000000003,-0.225525,0.14000000000000057,100.0,1.0,1.0,216.29333333333335,0.0,0.0,0.0,0.0,0.0,0.0,0.0,9167.8,0.0,55.0,5.0,252.55,0.0,0.0,0.0,0.0,0.0,0.0,1.0,0.0,1.7040000000000006,1.7040000000000006,0.0,0.0,0.0,55.0,616.79921,10000.0,85.000001,85.000001,85.000001,85.000001,395.0,0.0,0.0,0.0,1.0,333.33500000000004,52.109,52.109,47.363,47.363,34.0,-25.2575,22.445999999999998,-30.806666666666665,27.677500000000002,0.0,1781.225,-0.1899999999999995,100.0,28.66,28.195,44.291,44.091,0.0,0.0,100.0,0.0,0.0,0.0,0.0,3182.142857142857,2968.9,4089.375,4131.6,305.206,305.32575,315.00275,314.60675,22.0868,20.6915,22.1389,21.63,314.999998,314.999998,324.999988,324.999988,99.55867142857143,99.50745,99.57082857142858,99.55052857142857,0.06349999999999989,-0.07533333333333325,-0.145,0.08079999999999998,-0.045000000000001705,-0.05142857142857338,1.5150000000000001,1.5234999999999999,39.043,30.321666666666665,39.367999999999995,36.1875,55.67,35.7235,60.576499999999996,53.824,53.623000000000005,34.814,59.1115,52.091499999999996,52.772,34.343,58.976,51.468,-0.09799999999999998,-0.0605,0.10708000000000001,0.10525000000000001,0.0,219.57999999999998,219.56,216.29333333333335,216.29333333333335,0.0,0.0
35,0.0,0.0,0.0,1.0,1.0,0.0,0.0,1.0,0.0,100.0,1.0,1.1856,26.0,0.0,0.0,0.0,52.999997,0.0,26.0,26.0,26.0,26.0,-0.025374999999999925,0.26080000000000014,-0.07026666666666667,291.779,-2.6852,-2.6758,-1.5769000000000002,-1.6038000000000001,-156.51999999999998,215.9025,190.196125,0.0,0.0,0.0,0.0,0.07086666666666666,-5.498166666666667,-5.498166666666667,-0.6848000000000001,-0.3876666666666667,-0.04349999999999987,0.04800000000000004,70.287,-0.0159,-0.229325,-0.06399999999999917,100.0,1.0,1.0,216.75666666666666,0.0,0.0,0.0,0.0,0.0,0.0,0.0,9187.5,0.0,55.0,5.0,253.00666666666666,1.0,0.0,0.0,0.0,0.0,0.0,1.0,0.0,1.754999999999999,1.754999999999999,0.0,0.0,1.0,55.0,616.79921,10000.0,85.000001,85.000001,85.000001,85.000001,395.0,0.0,0.0,0.0,1.0,333.33500000000004,51.575,51.575,46.951,46.951,34.0,-24.6225,26.226,-28.613333333333337,27.5575,0.0,1781.174,-0.16499999999999915,100.0,28.555,28.379,44.067,43.569,0.0,0.0,100.0,0.0,0.0,0.0,0.0,3177.0,3357.0,4012.25,3964.1000000000004,305.2125,304.27975,315.08925,315.0875,22.0959,20.6972,22.1493,21.6391,314.999998,314.999998,324.999988,324.999988,99.55867142857143,99.50746666666667,99.57098571428571,99.55067142857143,0.07725000000000026,-0.06099999999999994,-0.1226,0.10719999999999996,-0.05833333333333002,-0.048571428571428044,1.5495,1.5550000000000002,39.099000000000004,30.357333333333333,39.433,36.2445,55.653999999999996,35.7635,60.61,53.8785,53.608000000000004,34.851,59.143,52.144,52.756,34.37833333333333,59.004,51.519,-0.09399999999999997,-0.06750000000000012,0.11245500000000001,0.107795,0.0,219.97500000000002,219.96,216.75666666666666,216.75666666666666,0.0,0.0
36,0.0,0.0,0.0,1.0,1.0,0.0,0.0,1.0,0.0,100.0,1.0,1.1856,26.0,0.0,0.0,0.0,52.999997,0.0,26.0,26.0,26.0,26.0,-0.015375000000000028,0.2694000000000001,0.05713333333333334,290.802,-2.7379,-2.6359,-1.5476,-1.5967,-153.15,215.8875,190.1665,0.0,0.0,0.0,0.0,0.07283333333333335,-5.498166666666667,-5.498166666666667,-0.664,0.27266666666666667,-0.07500000000000018,0.0990000000000002,70.40899999999999,-0.0076,-0.199375,0.0600000000000005,100.0,1.0,1.0,216.87666666666667,0.0,0.0,0.0,0.0,0.0,0.0,0.0,9192.5,0.0,55.0,5.0,253.44666666666666,0.0,0.0,0.0,0.0,0.0,0.0,1.0,0.0,1.8030000000000008,1.8030000000000008,0.0,0.0,0.0,55.0,616.79921,10000.0,85.000001,85.000001,85.000001,85.000001,395.0,0.0,0.0,0.0,1.0,333.33500000000004,51.208,51.208,46.188,46.188,34.0,-25.865,24.886,-32.17666666666666,32.96,0.0,1781.128,-0.16000000000000014,100.0,29.139,28.717,44.21,43.869,0.0,0.0,100.0,0.0,0.0,0.0,0.0,3316.142857142857,3214.6,4463.125,4569.7,304.8665,304.73025,314.032,313.679,22.1047,20.7026,22.1592,21.6479,314.999998,314.999998,324.999988,324.999988,99.5587,99.50748333333334,99.57111428571429,99.55081428571428,0.08725000000000005,-0.05366666666666675,-0.115,0.1057999999999999,-0.04333333333332945,-0.058571428571426054,1.4375,1.4475,39.153999999999996,30.391333333333336,39.495000000000005,36.2995,55.644,35.8005,60.641999999999996,53.9315,53.598,34.885,59.173,52.195,52.745999999999995,34.411,59.031,51.569,-0.09450000000000003,-0.07050000000000001,0.10523,0.109325,0.0,220.39499999999998,220.38,216.87666666666667,216.87666666666667,0.0,0.0
