,ABS Active,ABS Enabled,AID Allow Tire Blankets,AID Auto Blip,AID Auto Clutch,AID Auto Shift,AID Fuel Rate,AID Ideal Line,AID Mech Damage,AID Stability,AID Tire Wear Rate,Air Density,Air Temp,Ballast,Best Lap Delta,Best Lap Time,Brake Bias,Brake Pos,Brake Temp FL,Brake Temp FR,Brake Temp RL,Brake Temp RR,CG Accel Lateral,CG Accel Longitudinal,CG Accel Vertical,CG Height,Camber FL,Camber FR,Camber RL,Camber RR,Car Coord X,Car Coord Y,Car Coord Z,Car Damage Front,Car Damage Left,Car Damage Rear,Car Damage Right,Car Pos Norm,Caster FL,Caster FR,Chassis Pitch Angle,Chassis Pitch Rate,Chassis Roll Angle,Chassis Roll Rate,Chassis Velocity X,Chassis Velocity Y,Chassis Velocity Z,Chassis Yaw Rate,Clutch Pos,DRS Active,DRS Available,Drive Train Speed,ERS Heat Charging,ERS Is Charging,ERS Max Energy,ERS Power Level,ERS Recovery Level,Engine Brake Setting,Engine Limiter,Engine RPM,Flags,Fuel Level,Gear,Ground Speed,HR Sample Clock,In Pit,KERS Charge,KERS Deployed Energy,KERS Input,KERS Max Energy,LR Sample Clock,Lap Invalidated,Lap Time,Lap Time2,Last Lap Time,Last Sector Time,MR Sample Clock,Max Fuel,Max Power,Max RPM,Max Sus Travel FL,Max Sus Travel FR,Max Sus Travel RL,Max Sus Travel RR,Max Torque,Max Turbo Boost,Num Tires Off Track,Penalties Enabled,Position,Raw Data Sample Rate,Ride Height FL,Ride Height FR,Ride Height RL,Ride Height RR,Road Temp,Self Align Torque FL,Self Align Torque FR,Self Align Torque RL,Self Align Torque RR,Session Lap Count,Session Time Left,Steering Angle,Surface Grip,Suspension Travel FL,Suspension Travel FR,Suspension Travel RL,Suspension Travel RR,TC Active,TC Enabled,Throttle Pos,Tire Dirt Level FL,Tire Dirt Level FR,Tire Dirt Level RL,Tire Dirt Level RR,Tire Load FL,Tire Load FR,Tire Load RL,Tire Load RR,Tire Loaded Radius FL,Tire Loaded Radius FR,Tire Loaded Radius RL,Tire Loaded Radius RR,Tire Pressure FL,Tire Pressure FR,Tire Pressure RL,Tire Pressure RR,Tire Radius FL,Tire Radius FR,Tire Radius RL,Tire Radius RR,Tire Rubber Grip FL,Tire Rubber Grip FR,Tire Rubber Grip RL,Tire Rubber Grip RR,Tire Slip Angle FL,Tire Slip Angle FR,Tire Slip Angle RL,Tire Slip Angle RR,Tire Slip Ratio FL,Tire Slip Ratio FR,Tire Slip Ratio RL,Tire Slip Ratio RR,Tire Temp Core FL,Tire Temp Core FR,Tire Temp Core RL,Tire Temp Core RR,Tire Temp Inner FL,Tire Temp Inner FR,Tire Temp Inner RL,Tire Temp Inner RR,Tire Temp Middle FL,Tire Temp Middle FR,Tire Temp Middle RL,Tire Temp Middle RR,Tire Temp Outer FL,Tire Temp Outer FR,Tire Temp Outer RL,Tire Temp Outer RR,Toe In FL,Toe In FR,Toe In RL,Toe In RR,Turbo Boost,Wheel Angular Speed FL,Wheel Angular Speed FR,Wheel Angular Speed RL,Wheel Angular Speed RR,Wind Direction,Wind Speed
0,0.0,0.0,0.0,1.0,1.0,0.0,0.0,1.0,0.0,100.0,1.0,1.1856,26.0,0.0,0.0,0.0,52.99999,0.0,26.0,26.0,26.0,26.0,-0.00824999999999998,0.2973000000000001,0.150175,292.709,-2.7877,-2.4565,-1.5597500000000002,-1.5078,-275.45,215.4475,190.985875,0.0,0.0,0.0,0.0,0.0017333333333333333,-5.498166666666667,-5.498166666666667,-0.555,2.533,-0.00012500000000015277,-0.474,65.53399999999999,-0.0246,-0.224925,-0.007999999999999119,100.0,1.0,1.0,202.30666666666667,0.0,0.0,0.0,0.0,0.0,0.0,0.0,8575.0,0.0,55.0,5.0,235.89,0.0,0.0,0.0,0.0,0.0,0.0,0.0,0.0,0.006000000000000227,0.006000000000000227,0.0,0.0,0.0,55.0,616.79921,10000.0,85.0,85.0,85.0,85.0,395.0,0.0,0.0,0.0,1.0,20.0,50.217,50.217,48.065,48.065,34.0,-28.655,30.092,-29.486666666666665,27.423333333333332,0.0,1783.109,0.16000000000000014,100.0,27.696,27.96,40.491,40.158,0.0,0.0,100.0,0.0,0.0,0.0,0.0,3284.0,4200.6,4146.5,4183.4,304.701,301.02433333333335,314.757,314.48325,21.7748,20.5113,21.7841,21.3248,314.99999,314.99999,324.99998,324.99998,99.55885714285715,99.50711666666666,99.56595714285714,99.54572857142857,0.03166666666666673,-0.08699999999999997,-0.12583333333333332,0.096,-0.04833333333333201,-0.048571428571428044,1.5406666666666666,1.528,37.092,29.195999999999998,37.15,34.28,56.288,34.434,59.321,51.841,54.21,33.62,57.94,50.1855,53.384,33.196333333333335,57.906,49.605000000000004,-0.0625,-0.08899999999999997,0.10648,0.11031,0.0,205.35000000000002,205.345,202.30666666666667,202.30666666666667,0.0,0.0
1,0.0,0.0,0.0,1.0,1.0,0.0,0.0,1.0,0.0,100.0,1.0,1.1856,26.0,0.0,0.0,0.0,52.999997,0.0,26.0,26.0,26.0,26.0,-0.08087500000000003,0.32720000000000016,0.21315,292.145,-2.6938,-2.6959999999999997,-1.60595,-1.447,-272.1,215.45749999999998,190.966125,0.0,0.0,0.0,0.0,0.0036666666666666666,-5.498166666666667,-5.498166666666667,-0.4801,-2.3733333333333335,-0.043874999999999886,-0.5489999999999999,65.693,-0.0228,-0.191475,0.5760000000000005,100.0,1.0,1.0,202.22,0.0,0.0,0.0,0.0,0.0,0.0,0.0,8571.4,0.0,55.0,5.0,236.46666666666667,1.0,0.0,0.0,0.0,0.0,0.0,0.0,0.0,0.05699999999999861,0.05699999999999861,0.0,0.0,1.0,55.0,616.79921,10000.0,85.000001,85.000001,85.000001,85.000001,395.0,0.0,0.0,0.0,1.0,333.33500000000004,54.184,54.184,47.211,47.211,34.0,-23.0225,17.214000000000002,-37.193333333333335,33.510000000000005,0.0,1783.057,0.365000000000002,100.0,27.63,27.184,42.734,43.768,0.0,0.0,100.0,0.0,0.0,0.0,0.0,2809.5714285714284,2471.3,4718.5,5064.0,306.3265,306.96866666666665,313.171,311.42375,21.784399999999998,20.5162,21.7952,21.3343,314.999998,314.999998,324.999988,324.999988,99.55887142857142,99.50713333333333,99.5661,99.54588571428572,0.02833333333333332,-0.09866666666666668,-0.133,0.06516666666666668,-0.07000000000000028,-0.0357142857142847,1.301,1.309,37.153,29.226333333333333,37.22,34.3395,56.269,34.469,59.369,51.912,54.192,33.653,57.985,50.253,53.366,33.228,57.9475,49.671,-0.04499999999999993,-0.10099999999999998,0.104105,0.10970500000000001,0.0,205.785,205.735,202.22,202.22,0.0,0.0
2,0.0,0.0,0.0,1.0,1.0,0.0,0.0,1.0,0.0,100.0,1.0,1.1856,26.0,0.0,0.0,0.0,52.999997,0.0,26.0,26.0,26.0,26.0,-0.08350000000000002,0.2803,-0.232325,293.839,-2.6671,-2.645875,-1.5714000000000001,-1.5114,-268.75,215.465,190.94725,0.0,0.0,0.0,0.0,0.005633333333333334,-5.498166666666667,-5.498166666666667,-0.5803,1.231,-0.004999999999999893,2.018,65.827,-0.0286,-0.272625,0.822000000000001,100.0,1.0,1.0,203.64666666666668,0.0,0.0,0.0,0.0,0.0,0.0,0.0,8631.8,0.0,55.0,5.0,236.94666666666666,0.0,0.0,0.0,0.0,0.0,0.0,0.0,0.0,0.10800000000000054,0.10800000000000054,0.0,0.0,0.0,55.0,616.79921,10000.0,85.000001,85.000001,85.000001,85.000001,395.0,0.0,0.0,0.0,1.0,333.33500000000004,51.757999999999996,51.757999999999996,50.735,50.735,34.0,-28.39,21.532,-24.743333333333332,19.616666666666667,0.0,1783.006,0.5100000000000016,100.0,28.426000000000002,27.739,41.763,41.56,0.0,0.0,100.0,0.0,0.0,0.0,0.0,3269.5714285714284,3127.7,3524.5,3425.2,304.699,304.64033333333333,316.28675,316.44,21.7946,20.5214,21.8054,21.3427,314.999998,314.999998,324.999988,324.999988,99.55888571428571,99.50713333333333,99.56622857142857,99.54601428571429,0.010333333333333083,-0.121,-0.1595,0.073,-0.06833333333332803,-0.0628571428571405,1.7926666666666666,1.8125,37.216,29.259,37.284,34.391999999999996,56.256,34.51,59.4015,51.9585,54.18,33.6905,58.015,50.298,53.352999999999994,33.263999999999996,57.975,49.7155,-0.03849999999999998,-0.11949999999999994,0.09899000000000001,0.116445,0.0,206.265,206.185,203.64666666666668,203.64666666666668,0.0,0.0
3,0.0,0.0,0.0,1.0,1.0,0.0,0.0,1.0,0.0,100.0,1.0,1.1856,26.0,0.0,0.0,0.0,52.999997,0.0,26.0,26.0,26.0,26.0,-0.07099999999999995,0.29780000000000006,0.039675,292.877,-2.6795999999999998,-2.68275,-1.54805,-1.4877,-265.58,215.47,190.928,0.0,0.0,0.0,0.0,0.0074666666666666675,-5.498166666666667,-5.498166666666667,-0.5003000000000001,0.484,0.001374999999999904,-2.095,65.977,-0.0439,-0.18815,0.7599999999999998,100.0,1.0,1.0,203.4,0.0,0.0,0.0,0.0,0.0,0.0,0.0,8621.4,0.0,55.0,5.0,237.48333333333335,1.0,0.0,0.0,0.0,0.0,0.0,0.0,0.0,0.1559999999999988,0.1559999999999988,0.0,0.0,1.0,55.0,616.79921,10000.0,85.000001,85.000001,85.000001,85.000001,395.0,0.0,0.0,0.0,1.0,166.665,53.207,53.207,47.379,47.379,34.0,-24.1375,19.605999999999998,-35.43333333333334,27.39333333333333,0.0,1782.959,0.5350000000000001,100.0,27.913,27.673000000000002,42.157,42.153,0.0,0.0,100.0,0.0,0.0,0.0,0.0,2875.714285714286,2850.0,4567.25,4366.4,306.169,305.57533333333333,313.72725,313.881,21.8037,20.5264,21.8154,21.3513,314.999998,314.999998,324.999988,324.999988,99.55888571428571,99.50715,99.56637142857143,99.54614285714285,0.011666666666666714,-0.1206666666666667,-0.15883333333333335,0.06516666666666668,-0.01833333333333087,-0.04285714285714448,1.4343333333333335,1.4495,37.272999999999996,29.290333333333333,37.346000000000004,34.446,56.239000000000004,34.55,59.439,52.0215,54.163,33.7275,58.05,50.3585,53.335,33.299,58.0075,49.775,-0.034499999999999975,-0.11450000000000005,0.1052,0.10644,0.0,206.70499999999998,206.66,203.4,203.4,0.0,0.0
4,0.0,0.0,0.0,1.0,1.0,0.0,0.0,1.0,0.0,100.0,1.0,1.1856,26.0,0.0,0.0,0.0,52.999997,0.0,26.0,26.0,26.0,26.0,-0.10275000000000001,0.3044,-0.07255,293.304,-2.6661,-2.74625,-1.48915,-1.5962,-262.22,215.47500000000002,190.908625,0.0,0.0,0.0,0.0,0.009433333333333334,-5.498166666666667,-5.498166666666667,-0.5374,-0.8283333333333334,-0.04499999999999993,0.42699999999999994,66.12,-0.0536,-0.24147500000000002,1.0620000000000012,100.0,1.0,1.0,204.1,0.0,0.0,0.0,0.0,0.0,0.0,0.0,8651.1,0.0,55.0,5.0,238.00666666666666,0.0,0.0,0.0,0.0,0.0,0.0,0.0,0.0,0.20700000000000074,0.20700000000000074,0.0,0.0,0.0,55.0,616.79921,10000.0,85.000001,85.000001,85.000001,85.000001,395.0,0.0,0.0,0.0,1.0,166.665,52.826,52.826,48.782,48.782,34.0,-27.494999999999997,20.39,-29.689999999999998,23.310000000000002,0.0,1782.907,0.6050000000000004,100.0,28.01,27.258,42.905,42.157,0.0,0.0,100.0,0.0,0.0,0.0,0.0,3131.285714285714,2940.6,4018.5,3840.2,305.231,305.50733333333335,315.0105,315.30075,21.8136,20.5315,21.8262,21.3603,314.999998,314.999998,324.999988,324.999988,99.55888571428571,99.50716666666666,99.56651428571429,99.54628571428572,-0.00533333333333319,-0.1273333333333333,-0.17066666666666666,0.04683333333333334,-0.03166666666666629,-0.03285714285714647,1.5596666666666668,1.5995,37.335,29.322,37.413,34.501999999999995,56.222,34.5895,59.4805,52.08,54.147999999999996,33.763999999999996,58.088499999999996,50.414500000000004,53.319,33.334,58.043,49.83,-0.02499999999999991,-0.129,0.104025,0.10595500000000001,0.0,207.10500000000002,207.025,204.10000000000002,204.1,0.0,0.0
5,0.0,0.0,0.0,1.0,1.0,0.0,0.0,1.0,0.0,100.0,1.0,1.1856,26.0,0.0,0.0,0.0,52.999997,0.0,26.0,26.0,26.0,26.0,-0.07387500000000002,0.2982,-0.037525,293.564,-2.6433,-2.7251250000000002,-1.5394,-1.5798,-258.84,215.47750000000002,190.88875,0.0,0.0,0.0,0.0,0.0114,-5.498166666666667,-5.498166666666667,-0.5397000000000001,0.6126666666666667,-0.03275000000000006,-0.488,66.266,-0.0709,-0.22387500000000002,1.0500000000000007,100.0,1.0,1.0,204.62333333333333,0.0,0.0,0.0,0.0,0.0,0.0,0.0,8673.3,0.0,55.0,5.0,238.52666666666667,1.0,0.0,0.0,0.0,0.0,0.0,0.0,0.0,0.2579999999999991,0.2579999999999991,0.0,0.0,1.0,55.0,616.79921,10000.0,85.000001,85.000001,85.000001,85.000001,395.0,0.0,0.0,0.0,1.0,166.665,53.07,53.07,49.057,49.057,34.0,-26.1675,19.97,-30.9,23.07,0.0,1782.857,0.23499999999999943,100.0,27.798000000000002,27.29,42.437,41.689,0.0,0.0,100.0,0.0,0.0,0.0,0.0,3112.714285714286,2870.4,3972.25,3965.4,305.405,305.5133333333333,315.21425,315.01575,21.8235,20.5367,21.8366,21.3691,314.999998,314.999998,324.999988,324.999988,99.5589,99.50718333333333,99.56664285714285,99.54642857142858,0.014000000000000234,-0.1246666666666667,-0.19583333333333336,0.02866666666666667,-0.07333333333333059,-0.05142857142857338,1.5783333333333334,1.6055000000000001,37.397,29.354333333333333,37.479,34.557,56.207,34.6305,59.516999999999996,52.137,54.132999999999996,33.8015,58.1225,50.469,53.304,33.370333333333335,58.074,49.882999999999996,-0.059499999999999886,-0.09399999999999986,0.105565,0.10372,0.0,207.635,207.53,204.62333333333333,204.62333333333333,0.0,0.0
6,0.0,0.0,0.0,1.0,1.0,0.0,0.0,1.0,0.0,100.0,1.0,1.1856,26.0,0.0,0.0,0.0,52.999997,0.0,26.0,26.0,26.0,26.0,-0.11299999999999999,0.29920000000000013,-0.021075,293.335,-2.6707,-2.716625,-1.4877,-1.5921,-255.46,215.47500000000002,190.868,0.0,0.0,0.0,0.0,0.013366666666666666,-5.498166666666667,-5.498166666666667,-0.5315,-0.3786666666666667,-0.05025000000000013,0.577,66.41499999999999,-0.07300000000000001,-0.21025000000000002,0.8580000000000005,100.0,1.0,1.0,204.89666666666668,0.0,0.0,0.0,0.0,0.0,0.0,0.0,8684.8,0.0,55.0,5.0,239.06666666666666,0.0,0.0,0.0,0.0,0.0,0.0,0.0,0.0,0.30900000000000105,0.30900000000000105,0.0,0.0,0.0,55.0,616.79921,10000.0,85.000001,85.000001,85.000001,85.000001,395.0,0.0,0.0,0.0,1.0,166.665,53.299,53.299,48.629999999999995,48.629999999999995,34.0,-27.6625,19.235999999999997,-32.24666666666667,24.686666666666667,0.0,1782.807,0.15500000000000114,100.0,27.733,26.832,42.789,41.806,0.0,0.0,100.0,0.0,0.0,0.0,0.0,3151.857142857143,2877.6,4159.625,4086.1000000000004,305.213,305.77866666666665,314.62975,314.70575,21.8333,20.5418,21.8472,21.3781,314.999998,314.999998,324.999988,324.999988,99.5589,99.5072,99.5668,99.54655714285714,-0.0043333333333333,-0.1356666666666666,-0.18983333333333335,0.035,-0.04833333333333201,-0.044285714285713595,1.5036666666666667,1.541,37.458,29.386,37.545,34.6135,56.19,34.67,59.5575,52.1975,54.117000000000004,33.838,58.1605,50.5275,53.287,33.405,58.109,49.9405,-0.05149999999999988,-0.10349999999999993,0.10869000000000001,0.10530500000000001,0.0,208.04500000000002,207.965,204.89666666666668,204.89666666666668,0.0,0.0
7,0.0,0.0,0.0,1.0,1.0,0.0,0.0,1.0,0.0,100.0,1.0,1.1856,26.0,0.0,0.0,0.0,52.999997,0.0,26.0,26.0,26.0,26.0,-0.09224999999999994,0.28590000000000004,-0.012675,293.32,-2.6709,-2.775125,-1.54065,-1.6105,-252.27,215.4725,190.848625,0.0,0.0,0.0,0.0,0.0152,-5.498166666666667,-5.498166666666667,-0.5366000000000001,0.14066666666666666,-0.04012500000000019,1.17,66.55,-0.0745,-0.22025,0.5779999999999994,100.0,1.0,1.0,205.38333333333333,0.0,0.0,0.0,0.0,0.0,0.0,0.0,8705.4,0.0,55.0,5.0,239.55333333333334,1.0,0.0,0.0,0.0,0.0,0.0,0.0,0.0,0.3569999999999993,0.3569999999999993,0.0,0.0,1.0,55.0,616.79921,10000.0,85.000001,85.000001,85.000001,85.000001,395.0,0.0,0.0,0.0,1.0,333.33500000000004,53.04,53.04,48.615,48.615,34.0,-26.057499999999997,21.834000000000003,-32.49333333333334,24.076666666666668,0.0,1782.757,-0.03999999999999915,100.0,27.992,26.991,42.771,41.74,0.0,0.0,100.0,0.0,0.0,0.0,0.0,3094.285714285714,2959.3,4119.875,3998.8,305.3265,305.4356666666667,314.787,314.9405,21.8426,20.5467,21.8571,21.3866,314.999998,314.999998,324.999988,324.999988,99.5589,99.50721666666666,99.56692857142858,99.54668571428572,0.022666666666666835,-0.10199999999999987,-0.194,0.03383333333333333,-0.036666666666668846,-0.05142857142857338,1.5486666666666666,1.5785,37.516,29.417,37.607,34.666,56.177,34.7085,59.594,52.253,54.104,33.8735,58.1945,50.5805,53.272999999999996,33.43866666666666,58.1405,49.992,-0.0794999999999999,-0.07299999999999995,0.11349000000000001,0.10350000000000001,0.0,208.48000000000002,208.39499999999998,205.38333333333333,205.38333333333333,0.0,0.0
8,0.0,0.0,0.0,1.0,1.0,0.0,0.0,1.0,0.0,100.0,1.0,1.1856,26.0,0.0,0.0,0.0,52.999997,0.0,26.0,26.0,26.0,26.0,-0.055625000000000036,0.2885,-0.022775,293.457,-2.6859,-2.708125,-1.5526,-1.6047,-248.87,215.4675,190.828125,0.0,0.0,0.0,0.0,0.0172,-5.498166666666667,-5.498166666666667,-0.5386000000000001,-0.08566666666666667,-0.03562500000000002,-1.1190000000000002,66.696,-0.06280000000000001,-0.22257500000000002,0.33399999999999963,100.0,1.0,1.0,205.83666666666667,0.0,0.0,0.0,0.0,0.0,0.0,0.0,8724.6,0.0,55.0,5.0,240.07666666666665,0.0,0.0,0.0,0.0,0.0,0.0,0.0,0.0,0.40800000000000125,0.40800000000000125,0.0,0.0,0.0,55.0,616.79921,10000.0,85.000001,85.000001,85.000001,85.000001,395.0,0.0,0.0,0.0,1.0,166.665,53.223,53.223,48.507999999999996,48.507999999999996,34.0,-26.575,21.32,-31.696666666666665,23.956666666666667,0.0,1782.707,-0.125,100.0,27.469,27.164,42.656,41.942,0.0,0.0,100.0,0.0,0.0,0.0,0.0,3142.142857142857,2932.3,4081.5,3930.3,305.4405,305.33433333333335,314.9465,315.023,21.8524,20.552,21.8677,21.3956,314.999998,314.999998,324.999988,324.999988,99.5589,99.50723333333333,99.56707142857142,99.54684285714286,0.016666666666666607,-0.09999999999999987,-0.18416666666666667,0.04066666666666666,-0.06499999999999773,-0.04142857142857537,1.5510000000000002,1.5750000000000002,37.577,29.449666666666666,37.673,34.7225,56.16,34.7485,59.6325,52.313,54.088,33.91,58.2305,50.638,53.257,33.474000000000004,58.1735,50.048500000000004,-0.07800000000000007,-0.06000000000000005,0.106855,0.10566,0.0,208.91,208.845,205.83666666666667,205.83666666666667,0.0,0.0
9,0.0,0.0,0.0,1.0,1.0,0.0,0.0,1.0,0.0,100.0,1.0,1.1856,26.0,0.0,0.0,0.0,52.999997,0.0,26.0,26.0,26.0,26.0,-0.03387499999999999,0.28910000000000013,-0.008625,293.259,-2.6222,-2.72275,-1.5392000000000001,-1.5632000000000001,-245.66,215.46,190.8085,0.0,0.0,0.0,0.0,0.019066666666666666,-5.498166666666667,-5.498166666666667,-0.5341,0.22,-0.04375000000000018,-0.6640000000000001,66.831,-0.050100000000000006,-0.21300000000000002,0.1620000000000008,100.0,1.0,1.0,206.22,0.0,0.0,0.0,0.0,0.0,0.0,0.0,8740.9,0.0,55.0,5.0,240.56333333333333,1.0,0.0,0.0,0.0,0.0,0.0,0.0,0.0,0.4559999999999995,0.4559999999999995,0.0,0.0,1.0,55.0,616.79921,10000.0,85.000001,85.000001,85.000001,85.000001,395.0,0.0,0.0,0.0,1.0,333.33500000000004,52.979,52.979,48.615,48.615,34.0,-25.985,22.078,-31.166666666666664,25.206666666666667,0.0,1782.658,-0.25,100.0,27.625,27.129,42.578,41.989000000000004,0.0,0.0,100.0,0.0,0.0,0.0,0.0,3213.0,2946.9,4120.875,4066.4,305.172,305.30966666666666,314.8775,314.725,21.8616,20.5569,21.8776,21.4041,314.999998,314.999998,324.999988,324.999988,99.5589,99.50723333333333,99.5672,99.54697142857142,0.034666666666666845,-0.08666666666666667,-0.169,0.05583333333333334,-0.04999999999999716,-0.04285714285714448,1.537,1.5575,37.635,29.480666666666664,37.735,34.7755,56.146,34.7855,59.6685,52.3685,54.075,33.9445,58.263999999999996,50.6915,53.242999999999995,33.50666666666667,58.204499999999996,50.101,-0.09349999999999992,-0.05449999999999999,0.11207500000000001,0.109255,0.0,209.345,209.305,206.22,206.22,0.0,0.0
10,0.0,0.0,0.0,1.0,1.0,0.0,0.0,1.0,0.0,100.0,1.0,1.1856,26.0,0.0,0.0,0.0,52.999997,0.0,26.0,26.0,26.0,26.0,-0.018000000000000016,0.2861,0.0002,293.213,-2.6819,-2.698625,-1.5554000000000001,-1.5452,-242.05,215.4525,190.7865,0.0,0.0,0.0,0.0,0.021166666666666667,-5.498166666666667,-5.498166666666667,-0.531,-0.3373333333333333,-0.017125000000000057,-0.21599999999999997,66.985,-0.0335,-0.21375000000000002,-0.07399999999999984,100.0,1.0,1.0,206.61666666666667,0.0,0.0,0.0,0.0,0.0,0.0,0.0,8757.8,0.0,55.0,5.0,241.11666666666667,0.0,0.0,0.0,0.0,0.0,0.0,1.0,0.0,0.509999999999998,0.509999999999998,0.0,0.0,0.0,55.0,616.79921,10000.0,85.000001,85.000001,85.000001,85.000001,395.0,0.0,0.0,0.0,1.0,166.665,53.299,53.299,48.37,48.37,34.0,-24.755,22.332,-30.39333333333333,26.813333333333333,0.0,1782.606,-0.34499999999999886,100.0,27.467,27.062,42.652,42.311,0.0,0.0,100.0,0.0,0.0,0.0,0.0,3102.5714285714284,2945.9,4149.0,4178.2,305.515,305.3313333333333,314.778,314.412,21.8719,20.5625,21.8888,21.4138,314.999998,314.999998,324.999988,324.999988,99.55892857142857,99.50723333333333,99.56737142857143,99.54712857142857,0.05166666666666675,-0.07466666666666666,-0.14133333333333334,0.07066666666666667,-0.02833333333332888,-0.03714285714285381,1.5166666666666666,1.5135,37.699,29.515333333333334,37.805,34.836,56.131,34.826,59.7095,52.4335,54.061,33.9815,58.3025,50.7535,53.227000000000004,33.54233333333333,58.2395,50.161500000000004,-0.10299999999999998,-0.04600000000000026,0.10267000000000001,0.10352000000000001,0.0,209.765,209.76999999999998,206.61666666666667,206.61666666666667,0.0,0.0
11,0.0,0.0,0.0,1.0,1.0,0.0,0.0,1.0,0.0,100.0,1.0,1.1856,26.0,0.0,0.0,0.0,52.999997,0.0,26.0,26.0,26.0,26.0,0.006000000000000005,0.28990000000000005,-0.049375,293.488,-2.6866,-2.6959999999999997,-1.5606,-1.5230000000000001,-238.82999999999998,215.445,190.76675,0.0,0.0,0.0,0.0,0.022600000000000002,-5.498166666666667,-5.498166666666667,-0.5511,-0.254,0.00374999999999992,-0.46799999999999997,67.117,-0.0172,-0.22435000000000002,-0.19399999999999995,100.0,1.0,1.0,207.13333333333333,0.0,0.0,0.0,0.0,0.0,0.0,0.0,8779.7,0.0,55.0,5.0,241.59333333333333,1.0,0.0,0.0,0.0,0.0,0.0,1.0,0.0,0.5579999999999998,0.5579999999999998,0.0,0.0,1.0,55.0,616.79921,10000.0,85.000001,85.000001,85.000001,85.000001,395.0,0.0,0.0,0.0,1.0,333.33500000000004,53.253,53.253,48.888999999999996,48.888999999999996,34.0,-24.45,23.472,-27.813333333333333,26.336666666666666,0.0,1782.557,-0.4349999999999987,100.0,27.244,27.105,42.437,42.262,0.0,0.0,100.0,0.0,0.0,0.0,0.0,3122.857142857143,3022.8,3933.5,4049.0,305.461,305.09433333333334,315.3025,314.78325,21.881,20.5674,21.898600000000002,21.4223,314.999998,314.999998,324.999988,324.999988,99.55892857142857,99.50725,99.5675,99.54725714285715,0.06433333333333335,-0.06266666666666665,-0.13033333333333336,0.0925,-0.03999999999999915,-0.05285714285714249,1.5693333333333332,1.572,37.756,29.546333333333333,37.866,34.888999999999996,56.117000000000004,34.862,59.743,52.4895,54.047,34.0145,58.3335,50.8075,53.213,33.574,58.268,50.2145,-0.10399999999999987,-0.04700000000000015,0.10430500000000001,0.10797500000000002,0.0,210.185,210.19,207.13333333333333,207.13333333333333,0.0,0.0
12,0.0,0.0,0.0,1.0,1.0,0.0,0.0,1.0,0.0,100.0,1.0,1.1856,26.0,0.0,0.0,0.0,52.999997,0.0,26.0,26.0,26.0,26.0,0.014250000000000096,0.2932000000000001,0.01115,293.106,-2.7175000000000002,-2.6862500000000002,-1.5455999999999999,-1.5384,-235.61,215.4375,190.746125,0.0,0.0,0.0,0.0,0.025466666666666665,-5.498166666666667,-5.498166666666667,-0.5416000000000001,0.388,0.0063750000000000195,-0.7290000000000001,67.252,-0.0011,-0.204825,-0.2759999999999998,100.0,1.0,1.0,207.4766666666667,0.0,0.0,0.0,0.0,0.0,0.0,0.0,8794.1,0.0,55.0,5.0,242.07666666666665,0.0,0.0,0.0,0.0,0.0,0.0,1.0,0.0,0.6059999999999981,0.6059999999999981,0.0,0.0,0.0,55.0,616.79921,10000.0,85.000001,85.000001,85.000001,85.000001,395.0,0.0,0.0,0.0,1.0,333.33500000000004,52.979,52.979,48.278999999999996,48.278999999999996,34.0,-24.345,23.810000000000002,-28.813333333333333,28.433333333333334,0.0,1782.507,-0.370000000000001,100.0,27.398,27.441,42.329,42.317,0.0,0.0,100.0,0.0,0.0,0.0,0.0,3116.142857142857,3058.6,4150.5,4183.7,305.468,304.963,314.80725,314.471,21.8901,20.5725,21.9084,21.4308,314.999998,314.999998,324.999988,324.999988,99.55892857142857,99.50725,99.56762857142857,99.5474,0.07233333333333336,-0.06099999999999994,-0.11583333333333333,0.1055,-0.05833333333333002,-0.04571428571428271,1.5426666666666666,1.5325,37.813,29.578333333333333,37.928,34.942499999999995,56.104,34.8985,59.7795,52.545500000000004,54.034,34.0505,58.3675,50.865,53.2,33.608333333333334,58.297,50.271,-0.09999999999999987,-0.053999999999999826,0.10817500000000001,0.10276,0.0,210.62,210.635,207.4766666666667,207.4766666666667,0.0,0.0
13,0.0,0.0,0.0,1.0,1.0,0.0,0.0,1.0,0.0,100.0,1.0,1.1856,26.0,0.0,0.0,0.0,52.999997,0.0,26.0,26.0,26.0,26.0,0.03312500000000007,0.2772000000000001,0.021425,292.862,-2.6889000000000003,-2.699125,-1.57605,-1.5452,-232.17000000000002,215.4275,190.724625,0.0,0.0,0.0,0.0,0.0269,-5.498166666666667,-5.498166666666667,-0.5391,-0.27666666666666667,0.00912500000000005,1.158,67.395,0.004,-0.215425,-0.3639999999999999,100.0,1.0,1.0,207.85000000000002,0.0,0.0,0.0,0.0,0.0,0.0,0.0,8809.9,0.0,55.0,5.0,242.59333333333336,1.0,0.0,0.0,0.0,0.0,0.0,1.0,0.0,0.657,0.657,0.0,0.0,1.0,55.0,616.79921,10000.0,85.000001,85.000001,85.000001,85.000001,395.0,0.0,0.0,0.0,1.0,333.33500000000004,52.841,52.841,48.096000000000004,48.096000000000004,34.0,-22.2725,25.658,-28.25,30.846666666666668,0.0,1782.457,-0.370000000000001,100.0,27.744,27.406,42.754,42.655,0.0,0.0,100.0,0.0,0.0,0.0,0.0,3016.4285714285716,3127.1,4076.625,4313.6,305.5815,304.94033333333334,314.8615,314.2045,21.8998,20.578,21.919,21.44,314.999998,314.999998,324.999988,324.999988,99.55894285714285,99.50726666666667,99.56778571428572,99.54754285714286,0.09966666666666635,-0.028999999999999915,-0.10200000000000001,0.12633333333333333,-0.03833333333332689,-0.060000000000002274,1.501,1.494,37.873999999999995,29.612333333333332,37.994,35.0,56.092,34.937,59.816,52.608000000000004,54.022999999999996,34.0835,58.4015,50.9215,53.187,33.64033333333333,58.33,50.326,-0.11099999999999999,-0.039000000000000146,0.10573500000000001,0.11151000000000001,0.0,211.035,211.055,207.85000000000002,207.85000000000002,0.0,0.0
14,0.0,0.0,0.0,1.0,1.0,0.0,0.0,1.0,0.0,100.0,1.0,1.1856,26.0,0.0,0.0,0.0,52.999997,0.0,26.0,26.0,26.0,26.0,0.04787500000000011,0.2903,-0.041175,293.091,-2.7073,-2.706125,-1.56805,-1.5401,-228.73,215.42000000000002,190.703125,0.0,0.0,0.0,0.0,0.028900000000000002,-5.498166666666667,-5.498166666666667,-0.5508000000000001,-0.004666666666666667,0.01937499999999992,-0.54,67.53399999999999,0.012,-0.22485000000000002,-0.3520000000000003,100.0,1.0,1.0,208.37333333333333,0.0,0.0,0.0,0.0,0.0,0.0,0.0,8832.1,0.0,55.0,5.0,243.09666666666666,0.0,0.0,0.0,0.0,0.0,0.0,1.0,0.0,0.7079999999999984,0.7079999999999984,0.0,0.0,0.0,55.0,616.79921,10000.0,85.000001,85.000001,85.000001,85.000001,395.0,0.0,0.0,0.0,1.0,166.665,52.917,52.917,48.507999999999996,48.507999999999996,34.0,-23.0625,24.488,-27.026666666666664,28.46666666666667,0.0,1782.408,-0.4549999999999983,100.0,27.553,27.711,42.513,42.786,0.0,0.0,100.0,0.0,0.0,0.0,0.0,3089.0,2995.7,3998.625,4091.6000000000004,305.5585,305.11533333333335,315.15625,314.68275,21.909399999999998,20.5834,21.9295,21.4491,314.999998,314.999998,324.999988,324.999988,99.55895714285714,99.50726666666667,99.56791428571428,99.54767142857143,0.09466666666666645,-0.035666666666666735,-0.0995,0.121,-0.051666666666669414,-0.06142857142857139,1.5526666666666666,1.5485,37.934,29.646333333333335,38.059,35.057,56.079,34.975,59.852000000000004,52.668,54.010999999999996,34.119,58.4345,50.979,53.174,33.674,58.36,50.3825,-0.11450000000000005,-0.038000000000000256,0.109075,0.10164000000000001,0.0,211.465,211.495,208.37333333333333,208.37333333333333,0.0,0.0
15,0.0,0.0,0.0,1.0,1.0,0.0,0.0,1.0,0.0,100.0,1.0,1.1856,26.0,0.0,0.0,0.0,52.999997,0.0,26.0,26.0,26.0,26.0,0.04812499999999997,0.2813000000000001,-0.02655,292.999,-2.6964,-2.682125,-1.5777,-1.558,-225.49,215.41500000000002,190.682625,0.0,0.0,0.0,0.0,0.03076666666666667,-5.498166666666667,-5.498166666666667,-0.5427000000000001,0.18266666666666667,0.028124999999999956,-0.7630000000000001,67.667,0.018500000000000003,-0.21115,-0.3520000000000003,100.0,1.0,1.0,208.74333333333334,0.0,0.0,0.0,0.0,0.0,0.0,0.0,8847.9,0.0,55.0,5.0,243.57,1.0,0.0,0.0,0.0,0.0,0.0,1.0,0.0,0.7560000000000002,0.7560000000000002,0.0,0.0,1.0,55.0,616.79921,10000.0,85.000001,85.000001,85.000001,85.000001,395.0,0.0,0.0,0.0,1.0,333.33500000000004,52.933,52.933,48.248,48.248,34.0,-22.8375,23.942,-27.986666666666665,29.916666666666668,0.0,1782.358,-0.3150000000000013,100.0,27.536,27.777,42.418,42.871,0.0,0.0,100.0,0.0,0.0,0.0,0.0,3056.857142857143,2975.3,4094.625,4128.7,305.657,305.16833333333335,314.93525,314.55425,21.9184,20.5886,21.9394,21.4578,314.999998,314.999998,324.999988,324.999988,99.55897142857143,99.50726666666667,99.56805714285714,99.54781428571428,0.09100000000000019,-0.03966666666666674,-0.0985,0.136,-0.046666666666666856,-0.044285714285713595,1.5293333333333334,1.5325,37.989999999999995,29.678666666666665,38.120999999999995,35.111,56.067,35.010999999999996,59.885999999999996,52.725,53.998999999999995,34.152,58.466,51.0345,53.161,33.706,58.3885,50.4365,-0.10050000000000003,-0.04800000000000004,0.10776500000000001,0.11013,0.0,211.885,211.905,208.74333333333334,208.74333333333334,0.0,0.0
16,0.0,0.0,0.0,1.0,1.0,0.0,0.0,1.0,0.0,100.0,1.0,1.1856,26.0,0.0,0.0,0.0,52.999997,0.0,26.0,26.0,26.0,26.0,0.03675000000000006,0.27280000000000015,-0.002125,292.77,-2.7546,-2.633,-1.5774,-1.5566,-222.03,215.4075,190.660625,0.0,0.0,0.0,0.0,0.0328,-5.498166666666667,-5.498166666666667,-0.5546,-0.3163333333333333,0.022375000000000034,0.241,67.806,0.0178,-0.224725,-0.2579999999999991,100.0,1.0,1.0,209.17000000000002,0.0,0.0,0.0,0.0,0.0,0.0,0.0,8866.0,0.0,55.0,5.0,244.07666666666665,0.0,0.0,0.0,0.0,0.0,0.0,1.0,0.0,0.8069999999999986,0.8069999999999986,0.0,0.0,0.0,55.0,616.79921,10000.0,85.000001,85.000001,85.000001,85.000001,395.0,0.0,0.0,0.0,1.0,166.665,52.444,52.444,48.004,48.004,34.0,-23.435,26.363999999999997,-26.71,29.84,0.0,1782.307,-0.28500000000000014,100.0,27.643,27.759,42.753,42.952,0.0,0.0,100.0,0.0,0.0,0.0,0.0,3124.285714285714,3256.0,4011.5,4076.8,305.373,304.5486666666667,315.0495,314.75925,21.9279,20.5941,21.9499,21.467,314.999998,314.999998,324.999988,324.999988,99.55898571428571,99.50728333333333,99.5682,99.54795714285714,0.10566666666666658,-0.026999999999999913,-0.085,0.14616666666666667,-0.045000000000001705,-0.044285714285713595,1.537,1.534,38.049,29.71333333333333,38.187,35.1685,56.054,35.0495,59.923,52.786,53.986000000000004,34.188,58.501,51.093,53.147,33.74,58.42,50.4945,-0.09549999999999992,-0.05600000000000005,0.11156500000000001,0.10941500000000001,0.0,212.29500000000002,212.315,209.17000000000002,209.17000000000002,0.0,0.0
17,0.0,0.0,0.0,1.0,1.0,0.0,0.0,1.0,0.0,100.0,1.0,1.1856,26.0,0.0,0.0,0.0,52.999997,0.0,26.0,26.0,26.0,26.0,0.04337499999999994,0.28200000000000003,0.043225,292.526,-2.6267,-2.71775,-1.50175,-1.5221,-218.57,215.4025,190.638375,0.0,0.0,0.0,0.0,0.034800000000000005,-5.498166666666667,-5.498166666666667,-0.5508000000000001,0.16066666666666665,-0.004999999999999893,-1.0579999999999998,67.946,0.0158,-0.216975,-0.14200000000000035,100.0,1.0,1.0,209.53,0.0,0.0,0.0,0.0,0.0,0.0,0.0,8881.2,0.0,55.0,5.0,244.57666666666665,1.0,0.0,0.0,0.0,0.0,0.0,1.0,0.0,0.8580000000000005,0.8580000000000005,0.0,0.0,1.0,55.0,616.79921,10000.0,85.000001,85.000001,85.000001,85.000001,395.0,0.0,0.0,0.0,1.0,166.665,52.444,52.444,47.668,47.668,34.0,-23.005,24.637999999999998,-28.08,29.933333333333334,0.0,1782.257,-0.19000000000000128,100.0,27.794,28.004,42.668,43.018,0.0,0.0,100.0,0.0,0.0,0.0,0.0,3131.714285714286,3031.3,4255.125,4211.3,305.366,304.8926666666667,314.5385,314.41525,21.9375,20.5997,21.9604,21.4761,314.999998,314.999998,324.999988,324.999988,99.55898571428571,99.50728333333333,99.56834285714285,99.54811428571429,0.08933333333333371,-0.046333333333333115,-0.094,0.131,-0.03833333333332689,-0.04714285714285893,1.5163333333333333,1.5035,38.108999999999995,29.747999999999998,38.251999999999995,35.2255,56.041,35.088499999999996,59.9595,52.846000000000004,53.974000000000004,34.224000000000004,58.535,51.150999999999996,53.134,33.77466666666667,58.451,50.551,-0.09749999999999992,-0.06599999999999984,0.10317000000000001,0.10790000000000001,0.0,212.75,212.775,209.53,209.53,0.0,0.0
18,0.0,0.0,0.0,1.0,1.0,0.0,0.0,1.0,0.0,100.0,1.0,1.1856,26.0,0.0,0.0,0.0,52.999997,0.0,26.0,26.0,26.0,26.0,0.029625000000000012,0.2693000000000001,0.040725000000000004,292.542,-2.6479,-2.742375,-1.49915,-1.5865,-215.3,215.4,190.61725,0.0,0.0,0.0,0.0,0.0367,-5.498166666666667,-5.498166666666667,-0.5625,-0.334,0.001874999999999849,-0.6280000000000001,68.076,0.0077,-0.22640000000000002,0.007999999999999119,100.0,1.0,1.0,209.93666666666667,0.0,0.0,0.0,0.0,0.0,0.0,0.0,8898.4,0.0,55.0,5.0,245.04666666666668,0.0,0.0,0.0,0.0,0.0,0.0,1.0,0.0,0.9059999999999988,0.9059999999999988,0.0,0.0,0.0,55.0,616.79921,10000.0,85.000001,85.000001,85.000001,85.000001,395.0,0.0,0.0,0.0,1.0,333.33500000000004,52.444,52.444,47.897,47.897,34.0,-23.58,24.78,-27.833333333333336,29.626666666666665,0.0,1782.207,-0.245000000000001,100.0,27.758,27.943,42.849000000000004,43.185,0.0,0.0,100.0,0.0,0.0,0.0,0.0,3161.142857142857,3065.1,4101.125,4158.3,305.327,304.8546666666667,314.8675,314.41,21.9464,20.6048,21.9703,21.4848,314.999998,314.999998,324.999988,324.999988,99.559,99.5073,99.56848571428571,99.54824285714285,0.0853333333333337,-0.05400000000000005,-0.11083333333333333,0.112,-0.045000000000001705,-0.030000000000001137,1.4946666666666668,1.4925,38.165,29.78,38.314,35.28,56.027,35.1265,59.996,52.9065,53.961,34.259,58.569,51.209,53.120000000000005,33.80833333333334,58.4825,50.608000000000004,-0.09699999999999998,-0.06300000000000017,0.10226,0.114015,0.0,213.14499999999998,213.14,209.93666666666667,209.93666666666667,0.0,0.0
19,0.0,0.0,0.0,1.0,1.0,0.0,0.0,1.0,0.0,100.0,1.0,1.1856,26.0,0.0,0.0,0.0,52.999997,0.0,26.0,26.0,26.0,26.0,0.021374999999999922,0.27100000000000013,0.029775000000000003,292.328,-2.6449,-2.7117500000000003,-1.5327000000000002,-1.6072000000000002,-211.82999999999998,215.39499999999998,190.594375,0.0,0.0,0.0,0.0,0.038733333333333335,-5.498166666666667,-5.498166666666667,-0.5505,0.5523333333333333,0.010624999999999885,0.75,68.213,0.0007,-0.213625,-0.09600000000000009,100.0,1.0,1.0,210.36333333333334,0.0,0.0,0.0,0.0,0.0,0.0,0.0,8916.6,0.0,55.0,5.0,245.54000000000002,1.0,0.0,0.0,0.0,0.0,0.0,1.0,0.0,0.9570000000000007,0.9570000000000007,0.0,0.0,1.0,55.0,616.79921,10000.0,85.000001,85.000001,85.000001,85.000001,395.0,0.0,0.0,0.0,1.0,166.665,52.17,52.17,47.852000000000004,47.852000000000004,34.0,-22.5275,24.916,-28.026666666666664,31.22,0.0,1782.158,-0.18499999999999872,100.0,28.43,28.165,42.897999999999996,43.158,0.0,0.0,100.0,0.0,0.0,0.0,0.0,3030.4285714285716,3098.7,4115.875,4256.4,305.5165,304.9216666666667,314.81275,314.29475,21.956,20.6104,21.9807,21.4939,314.999998,314.999998,324.999988,324.999988,99.55901428571428,99.5073,99.56862857142858,99.54838571428571,0.08833333333333337,-0.04699999999999993,-0.10300000000000001,0.1235,-0.04999999999999716,-0.03857142857143003,1.4996666666666667,1.4889999999999999,38.224999999999994,29.814999999999998,38.379999999999995,35.337,56.016999999999996,35.164500000000004,60.0295,52.963499999999996,53.951,34.294,58.6,51.263999999999996,53.108999999999995,33.842,58.5105,50.661500000000004,-0.09749999999999992,-0.06450000000000022,0.10169500000000001,0.104925,0.0,213.615,213.595,210.36333333333334,210.36333333333334,0.0,0.0
20,0.0,0.0,0.0,1.0,1.0,0.0,0.0,1.0,0.0,100.0,1.0,1.1856,26.0,0.0,0.0,0.0,52.999997,0.0,26.0,26.0,26.0,26.0,0.01637500000000003,0.26449999999999996,-0.021025000000000002,292.45,-2.7011000000000003,-2.6485000000000003,-1.6051000000000002,-1.5927,-208.35,215.39249999999998,190.572,0.0,0.0,0.0,0.0,0.04073333333333334,-5.498166666666667,-5.498166666666667,-0.5581,-0.7213333333333334,0.0058749999999998526,-0.8620000000000001,68.351,0.0004,-0.228225,0.016000000000000014,100.0,1.0,1.0,210.78,0.0,0.0,0.0,0.0,0.0,0.0,0.0,8934.3,0.0,55.0,5.0,246.03666666666666,0.0,0.0,0.0,0.0,0.0,0.0,0.0,0.0,1.0079999999999991,1.0079999999999991,0.0,0.0,0.0,55.0,616.79921,10000.0,85.000001,85.000001,85.000001,85.000001,395.0,0.0,0.0,0.0,1.0,166.665,52.49,52.49,47.501,47.501,34.0,-24.065,23.492,-29.586666666666666,27.86,0.0,1782.107,-0.17999999999999972,100.0,27.903,28.083,43.333,43.625,0.0,0.0,100.0,0.0,0.0,0.0,0.0,3136.285714285714,3040.5,4124.375,3993.6000000000004,305.463,305.0353333333333,314.84975,314.8805,21.9655,20.6159,21.9914,21.5032,314.999998,314.999998,324.999988,324.999988,99.55902857142857,99.50731666666667,99.56877142857142,99.54854285714286,0.07933333333333348,-0.05699999999999994,-0.116,0.10766666666666667,-0.045000000000001705,-0.028571428571432023,1.5246666666666666,1.5305,38.284,29.849333333333334,38.446,35.394999999999996,56.001999999999995,35.203,60.068,53.025,53.937,34.329499999999996,58.635999999999996,51.323,53.094,33.876,58.5435,50.7195,-0.09349999999999992,-0.0625,0.10444,0.109505,0.0,213.99,213.97500000000002,210.78,210.78,0.0,0.0
21,0.0,0.0,0.0,1.0,1.0,0.0,0.0,1.0,0.0,100.0,1.0,1.1856,26.0,0.0,0.0,0.0,52.999997,0.0,26.0,26.0,26.0,26.0,0.014499999999999957,0.28049999999999997,-0.03585,292.557,-2.718,-2.663625,-1.5658,-1.532,-205.06,215.39,190.550375,0.0,0.0,0.0,0.0,0.042633333333333336,-5.498166666666667,-5.498166666666667,-0.5734,0.10166666666666667,-0.0026250000000000995,-0.581,68.47800000000001,0.0007,-0.222725,-0.002000000000000668,100.0,1.0,1.0,211.26,0.0,0.0,0.0,0.0,0.0,0.0,0.0,8954.6,0.0,55.0,5.0,246.49333333333334,1.0,0.0,0.0,0.0,0.0,0.0,0.0,0.0,1.056000000000001,1.056000000000001,0.0,0.0,1.0,55.0,616.79921,10000.0,85.000001,85.000001,85.000001,85.000001,395.0,0.0,0.0,0.0,1.0,333.33500000000004,52.322,52.322,48.035,48.035,34.0,-25.057499999999997,24.08,-28.32,27.62,0.0,1782.057,-0.1750000000000007,100.0,27.951999999999998,27.958,43.013,43.234,0.0,0.0,100.0,0.0,0.0,0.0,0.0,3228.4285714285716,3093.7,4069.625,4034.7,305.18,304.9046666666667,315.02325,314.8855,21.9744,20.6211,22.0012,21.5117,314.999998,314.999998,324.999988,324.999988,99.55904285714286,99.50731666666667,99.56891428571429,99.54868571428571,0.07966666666666677,-0.05666666666666664,-0.11516666666666667,0.11716666666666667,-0.051666666666669414,-0.048571428571428044,1.5633333333333335,1.5585,38.34,29.881666666666668,38.507,35.448499999999996,55.989000000000004,35.242,60.1025,53.082,53.924,34.3655,58.668,51.3785,53.081,33.910666666666664,58.5725,50.7735,-0.09549999999999992,-0.06450000000000022,0.10659500000000001,0.11467500000000001,0.0,214.405,214.4,211.26,211.26,0.0,0.0
22,0.0,0.0,0.0,1.0,1.0,0.0,0.0,1.0,0.0,100.0,1.0,1.1856,26.0,0.0,0.0,0.0,52.999997,0.0,26.0,26.0,26.0,26.0,-0.00275000000000003,0.28100000000000014,0.0198,292.053,-2.7577,-2.6647499999999997,-1.5751,-1.5308000000000002,-201.57,215.385,190.5265,0.0,0.0,0.0,0.0,0.044666666666666674,-5.498166666666667,-5.498166666666667,-0.558,0.0033333333333333335,0.00912500000000005,0.953,68.616,0.00030000000000000003,-0.20155,-0.13999999999999968,100.0,1.0,1.0,211.51,0.0,0.0,0.0,0.0,0.0,0.0,0.0,8965.1,0.0,55.0,5.0,246.99,0.0,0.0,0.0,0.0,0.0,0.0,0.0,0.0,1.1069999999999993,1.1069999999999993,0.0,0.0,0.0,55.0,616.79921,10000.0,85.000001,85.000001,85.000001,85.000001,395.0,0.0,0.0,0.0,1.0,333.33500000000004,52.307,52.307,47.119,47.119,34.0,-24.3625,25.304000000000002,-29.96666666666666,31.45,0.0,1782.008,-0.245000000000001,100.0,28.149,27.903,43.322,43.298,0.0,0.0,100.0,0.0,0.0,0.0,0.0,3101.285714285714,3196.7,4242.0,4449.0,305.445,304.77433333333335,314.49975,313.934,21.9839,20.6266,22.0117,21.521,314.999998,314.999998,324.999988,324.999988,99.55904285714286,99.50731666666667,99.56905714285715,99.54881428571429,0.08099999999999996,-0.04499999999999993,-0.10666666666666667,0.11833333333333333,-0.02833333333332888,-0.058571428571426054,1.4846666666666666,1.471,38.399,29.916333333333334,38.573,35.506,55.977000000000004,35.278999999999996,60.138,53.1395,53.913,34.3995,58.701,51.4335,53.068,33.943,58.6025,50.8275,-0.09199999999999986,-0.05650000000000022,0.10251,0.11374500000000001,0.0,214.84,214.82999999999998,211.51,211.51,0.0,0.0
23,0.0,0.0,0.0,1.0,1.0,0.0,0.0,1.0,0.0,100.0,1.0,1.1856,26.0,0.0,0.0,0.0,52.999997,0.0,26.0,26.0,26.0,26.0,0.011624999999999996,0.2795000000000001,0.0061,292.007,-2.657,-2.689,-1.6371,-1.5095,-198.06,215.3825,190.503,0.0,0.0,0.0,0.0,0.046733333333333335,-5.498166666666667,-5.498166666666667,-0.5729000000000001,-0.20600000000000002,0.0021249999999999325,-0.6460000000000001,68.751,0.0002,-0.22512500000000002,-0.05999999999999961,100.0,1.0,1.0,211.98000000000002,0.0,0.0,0.0,0.0,0.0,0.0,0.0,8985.1,0.0,55.0,5.0,247.47333333333336,1.0,0.0,0.0,0.0,0.0,0.0,0.0,0.0,1.1580000000000013,1.1580000000000013,0.0,0.0,1.0,55.0,616.79921,10000.0,85.000001,85.000001,85.000001,85.000001,395.0,0.0,0.0,0.0,1.0,166.665,52.032,52.032,47.363,47.363,34.0,-24.12,24.136,-31.116666666666664,28.526666666666667,0.0,1781.958,-0.2749999999999986,100.0,28.301000000000002,28.226,43.397,43.639,0.0,0.0,100.0,0.0,0.0,0.0,0.0,3227.5714285714284,3045.7,4284.625,4172.6,305.0885,304.96566666666666,314.55025,314.53525,21.9934,20.6322,22.022199999999998,21.5303,314.999998,314.999998,324.999988,324.999988,99.55905714285714,99.50731666666667,99.5692,99.54897142857143,0.08999999999999986,-0.052999999999999936,-0.11116666666666668,0.11433333333333333,-0.05333333333332746,-0.021428571428565135,1.5156666666666667,1.5135,38.459,29.951333333333334,38.638999999999996,35.564,55.965,35.3185,60.175,53.2,53.900999999999996,34.436,58.7355,51.4915,53.055,33.978,58.6335,50.8845,-0.10799999999999987,-0.05250000000000021,0.10446000000000001,0.10475500000000001,0.0,215.24,215.21,211.98000000000002,211.98000000000002,0.0,0.0
24,0.0,0.0,0.0,1.0,1.0,0.0,0.0,1.0,0.0,100.0,1.0,1.1856,26.0,0.0,0.0,0.0,52.999997,0.0,26.0,26.0,26.0,26.0,0.009624999999999995,0.272,-0.047650000000000005,292.496,-2.7064,-2.6895,-1.5484,-1.5567,-194.55,215.38,190.479,0.0,0.0,0.0,0.0,0.04876666666666667,-5.498166666666667,-5.498166666666667,-0.5869,-0.4496666666666667,0.017125000000000057,1.082,68.885,0.0018000000000000002,-0.22155,-0.15799999999999947,100.0,1.0,1.0,212.42333333333335,0.0,0.0,0.0,0.0,0.0,0.0,0.0,9003.9,0.0,55.0,5.0,247.95666666666665,0.0,0.0,0.0,0.0,0.0,0.0,0.0,0.0,1.2089999999999996,1.2089999999999996,0.0,0.0,0.0,55.0,616.79921,10000.0,85.000001,85.000001,85.000001,85.000001,395.0,0.0,0.0,0.0,1.0,166.665,52.734,52.734,47.577,47.577,34.0,-22.4725,24.67,-27.729999999999997,29.173333333333332,0.0,1781.907,-0.28999999999999915,100.0,28.084,27.794,43.422,43.452,0.0,0.0,100.0,0.0,0.0,0.0,0.0,2972.4285714285716,3095.5,4051.875,4157.3,305.797,305.05,314.956,314.6045,22.0028,20.6377,22.0327,21.5395,314.999998,314.999998,324.999988,324.999988,99.55907142857143,99.50733333333334,99.56934285714286,99.54911428571428,0.08866666666666667,-0.044333333333333114,-0.10366666666666667,0.11850000000000001,-0.045000000000001705,-0.04714285714285893,1.5156666666666667,1.528,38.516999999999996,29.985666666666667,38.704,35.6215,55.951,35.356,60.210499999999996,53.259,53.888,34.471000000000004,58.7685,51.548500000000004,53.041,34.01166666666667,58.6635,50.94,-0.10050000000000003,-0.05549999999999988,0.10179,0.11053,0.0,215.64499999999998,215.64,212.42333333333335,212.42333333333335,0.0,0.0
25,0.0,0.0,0.0,1.0,1.0,0.0,0.0,1.0,0.0,100.0,1.0,1.1856,26.0,0.0,0.0,0.0,52.999997,0.0,26.0,26.0,26.0,26.0,0.009875000000000078,0.2793000000000001,0.0025250000000000003,292.16,-2.6803,-2.667625,-1.588,-1.5551,-191.24,215.3775,190.455125,0.0,0.0,0.0,0.0,0.0507,-5.498166666666667,-5.498166666666667,-0.6003000000000001,0.17400000000000002,0.018874999999999975,0.20699999999999996,69.01,0.0038,-0.21710000000000002,-0.22999999999999954,100.0,1.0,1.0,212.84333333333333,0.0,0.0,0.0,0.0,0.0,0.0,0.0,9021.6,0.0,55.0,5.0,248.41,1.0,0.0,0.0,0.0,0.0,0.0,0.0,0.0,1.256999999999998,1.256999999999998,0.0,0.0,1.0,55.0,616.79921,10000.0,85.000001,85.000001,85.000001,85.000001,395.0,0.0,0.0,0.0,1.0,333.33500000000004,51.834,51.834,47.714,47.714,34.0,-23.84,26.88,-28.246666666666663,29.423333333333332,0.0,1781.857,-0.3099999999999987,100.0,28.15,28.068,43.172,43.269,0.0,0.0,100.0,0.0,0.0,0.0,0.0,3195.0,3324.7,4060.0,4162.9,305.0725,304.29366666666664,315.03875,314.5965,22.0116,20.643,22.0425,21.548099999999998,314.999998,314.999998,324.999988,324.999988,99.55908571428571,99.50733333333334,99.56948571428572,99.54925714285714,0.09799999999999986,-0.03966666666666674,-0.10666666666666667,0.12383333333333334,-0.041666666666671404,-0.05285714285714249,1.5406666666666666,1.5405,38.573,30.018666666666668,38.765,35.6755,55.938,35.3935,60.2425,53.314,53.876000000000005,34.5055,58.7985,51.6015,53.028,34.044666666666664,58.6905,50.992,-0.10199999999999987,-0.05650000000000022,0.112195,0.101775,0.0,216.04500000000002,216.04000000000002,212.84333333333333,212.84333333333333,0.0,0.0
26,0.0,0.0,0.0,1.0,1.0,0.0,0.0,1.0,0.0,100.0,1.0,1.1856,26.0,0.0,0.0,0.0,52.999997,0.0,26.0,26.0,26.0,26.0,0.03325,0.2692000000000001,0.054925,291.382,-2.7083,-2.655125,-1.55095,-1.5573000000000001,-187.72,215.375,190.429625,0.0,0.0,0.0,0.0,0.05273333333333334,-5.498166666666667,-5.498166666666667,-0.5732,0.218,0.00649999999999995,-0.5389999999999999,69.146,0.0055000000000000005,-0.2023,-0.137999999999999,100.0,1.0,1.0,213.06,0.0,0.0,0.0,0.0,0.0,0.0,0.0,9030.8,0.0,55.0,5.0,248.89666666666665,0.0,0.0,0.0,0.0,0.0,0.0,0.0,0.0,1.3079999999999998,1.3079999999999998,0.0,0.0,0.0,55.0,616.79921,10000.0,85.000001,85.000001,85.000001,85.000001,395.0,0.0,0.0,0.0,1.0,333.33500000000004,51.712,51.712,46.646,46.646,34.0,-24.71,24.078,-31.27,32.05,0.0,1781.806,-0.33500000000000085,100.0,28.631,28.587,43.565,43.862,0.0,0.0,100.0,0.0,0.0,0.0,0.0,3277.0,3070.1,4475.25,4412.4,305.063,305.001,314.0425,313.87475,22.0212,20.648699999999998,22.0531,21.5575,314.999998,314.999998,324.999988,324.999988,99.55908571428571,99.50735,99.56962857142857,99.5494,0.09466666666666645,-0.04966666666666675,-0.09916666666666667,0.12016666666666667,-0.04999999999999716,-0.04142857142857537,1.4393333333333334,1.433,38.632999999999996,30.054333333333332,38.832,35.7345,55.928,35.4335,60.281,53.3755,53.866,34.542500000000004,58.834,51.6605,53.016999999999996,34.08,58.723,51.05,-0.11299999999999999,-0.05449999999999999,0.10489000000000001,0.10933500000000002,0.0,216.47500000000002,216.48000000000002,213.06,213.06,0.0,0.0
27,0.0,0.0,0.0,1.0,1.0,0.0,0.0,1.0,0.0,100.0,1.0,1.1856,26.0,0.0,0.0,0.0,52.999997,0.0,26.0,26.0,26.0,26.0,0.018000000000000016,0.26350000000000007,-0.04725,291.885,-2.7557,-2.666625,-1.61435,-1.5376,-184.39999999999998,215.375,190.4065,0.0,0.0,0.0,0.0,0.05466666666666667,-5.498166666666667,-5.498166666666667,-0.5986,-0.794,0.016124999999999945,-0.635,69.269,0.0103,-0.23872500000000002,-0.242,100.0,1.0,1.0,213.57333333333332,0.0,0.0,0.0,0.0,0.0,0.0,0.0,9052.6,0.0,55.0,5.0,249.34333333333336,1.0,0.0,0.0,0.0,0.0,0.0,0.0,0.0,1.355999999999998,1.355999999999998,0.0,0.0,1.0,55.0,616.79921,10000.0,85.000001,85.000001,85.000001,85.000001,395.0,0.0,0.0,0.0,1.0,166.665,51.987,51.987,46.86,46.86,34.0,-24.445,24.746,-28.67,28.473333333333333,0.0,1781.76,-0.3049999999999997,100.0,28.273,28.569,43.902,44.087,0.0,0.0,100.0,0.0,0.0,0.0,0.0,3166.285714285714,3113.9,4108.375,4097.4,305.423,304.78266666666667,314.8425,314.71825,22.03,20.654,22.0631,21.5663,314.999998,314.999998,324.999988,324.999988,99.5591,99.50735,99.56977142857143,99.54954285714285,0.08800000000000008,-0.04800000000000004,-0.09666666666666668,0.11766666666666667,-0.04999999999999716,-0.04999999999999716,1.5293333333333334,1.518,38.688,30.087666666666664,38.894,35.789500000000004,55.916,35.4705,60.316,53.4325,53.854,34.576499999999996,58.867,51.7155,53.004999999999995,34.11266666666667,58.753,51.1035,-0.10399999999999987,-0.05600000000000005,0.106505,0.10430500000000001,0.0,216.835,216.825,213.57333333333332,213.57333333333332,0.0,0.0
28,0.0,0.0,0.0,1.0,1.0,0.0,0.0,1.0,0.0,100.0,1.0,1.1856,26.0,0.0,0.0,0.0,52.999997,0.0,26.0,26.0,26.0,26.0,0.019000000000000128,0.2679,-0.043425000000000005,291.962,-2.6774,-2.661875,-1.6226500000000001,-1.5695000000000001,-180.86,215.3725,190.381,0.0,0.0,0.0,0.0,0.05673333333333334,-5.498166666666667,-5.498166666666667,-0.5999,0.5336666666666666,0.0021249999999999325,0.392,69.4,0.0161,-0.2142,-0.34999999999999964,100.0,1.0,1.0,214.0233333333333,0.0,0.0,0.0,0.0,0.0,0.0,0.0,9071.7,0.0,55.0,5.0,249.81,0.0,0.0,0.0,0.0,0.0,0.0,0.0,0.0,1.407,1.407,0.0,0.0,0.0,55.0,616.79921,10000.0,85.000001,85.000001,85.000001,85.000001,395.0,0.0,0.0,0.0,1.0,166.665,51.987,51.987,47.165,47.165,34.0,-22.165,25.79,-29.240000000000002,29.983333333333334,0.0,1781.707,-0.3249999999999993,100.0,28.569,28.396,43.495000000000005,43.64,0.0,0.0,100.0,0.0,0.0,0.0,0.0,3025.285714285714,3174.6,4191.75,4177.1,305.538,304.75866666666667,314.7855,314.6185,22.0394,20.6597,22.0734,21.575499999999998,314.999998,314.999998,324.999988,324.999988,99.55911428571429,99.50736666666667,99.56991428571429,99.54968571428572,0.10400000000000009,-0.03133333333333321,-0.097,0.1285,-0.041666666666671404,-0.05714285714285694,1.548,1.525,38.745999999999995,30.123333333333335,38.959,35.8465,55.903999999999996,35.51,60.349000000000004,53.49,53.843,34.613,58.8975,51.771,52.992000000000004,34.147999999999996,58.78,51.1575,-0.10399999999999987,-0.05500000000000016,0.10958500000000002,0.10443500000000001,0.0,217.26999999999998,217.275,214.0233333333333,214.0233333333333,0.0,0.0
29,0.0,0.0,0.0,1.0,1.0,0.0,0.0,1.0,0.0,100.0,1.0,1.1856,26.0,0.0,0.0,0.0,52.999997,0.0,26.0,26.0,26.0,26.0,0.03550000000000009,0.24550000000000005,-0.03395,291.824,-2.7571,-2.583,-1.60585,-1.5502,-177.32,215.3725,190.3545,0.0,0.0,0.0,0.0,0.05876666666666667,-5.498166666666667,-5.498166666666667,-0.6067,-0.7243333333333334,0.0004999999999999449,-0.677,69.533,0.0158,-0.216625,-0.1979999999999995,100.0,1.0,1.0,214.32,0.0,0.0,0.0,0.0,0.0,0.0,0.0,9084.3,0.0,55.0,5.0,250.29333333333335,1.0,0.0,0.0,0.0,0.0,0.0,0.0,0.0,1.4579999999999984,1.4579999999999984,0.0,0.0,1.0,55.0,616.79921,10000.0,85.000001,85.000001,85.000001,85.000001,395.0,0.0,0.0,0.0,1.0,333.33500000000004,52.185,52.185,46.997,46.997,34.0,-24.58,24.234,-29.64333333333333,30.9,0.0,1781.656,-0.41000000000000014,100.0,28.089,28.34,43.748000000000005,44.057,0.0,0.0,100.0,0.0,0.0,0.0,0.0,3258.714285714286,3130.2,4200.875,4244.7,305.2985,304.97833333333335,314.7205,314.3085,22.0487,20.6653,22.084,21.5849,314.999998,314.999998,324.999988,324.999988,99.55912857142857,99.50736666666667,99.57007142857142,99.54982857142858,0.10000000000000009,-0.038999999999999924,-0.10083333333333333,0.13083333333333336,-0.036666666666668846,-0.044285714285713595,1.482,1.4675,38.805,30.15833333333333,39.025,35.9055,55.891,35.5475,60.387,53.5505,53.83,34.647999999999996,58.933,51.829499999999996,52.979,34.181333333333335,58.812,51.2145,-0.11250000000000004,-0.05650000000000022,0.10822500000000002,0.113975,0.0,217.64499999999998,217.64,214.32,214.32,0.0,0.0
30,0.0,0.0,0.0,1.0,1.0,0.0,0.0,1.0,0.0,100.0,1.0,1.1856,26.0,0.0,0.0,0.0,52.999997,0.0,26.0,26.0,26.0,26.0,0.030124999999999957,0.25649999999999995,0.0042250000000000005,291.153,-2.7289,-2.645125,-1.6431499999999999,-1.4641,-173.98000000000002,215.375,190.329625,0.0,0.0,0.0,0.0,0.06073333333333334,-5.498166666666667,-5.498166666666667,-0.604,0.9653333333333334,0.004624999999999879,-0.367,69.655,0.0155,-0.2147,-0.31399999999999917,100.0,1.0,1.0,214.76999999999998,0.0,0.0,0.0,0.0,0.0,0.0,0.0,9103.3,0.0,55.0,5.0,250.73000000000002,0.0,0.0,0.0,0.0,0.0,0.0,1.0,0.0,1.5060000000000002,1.5060000000000002,0.0,0.0,0.0,55.0,616.79921,10000.0,85.000001,85.000001,85.000001,85.000001,395.0,0.0,0.0,0.0,1.0,333.33500000000004,50.69,50.69,46.906,46.906,34.0,-24.96,26.736,-30.226666666666667,29.046666666666667,0.0,1781.608,-0.4299999999999997,100.0,29.021,29.08,43.554,43.974000000000004,0.0,0.0,100.0,0.0,0.0,0.0,0.0,3357.5714285714284,3276.4,4285.625,4271.2,304.683,304.16333333333336,314.64775,314.48,22.0577,20.6709,22.0938,21.5936,314.999998,314.999998,324.999988,324.999988,99.55914285714286,99.50736666666667,99.5702,99.54998571428571,0.11299999999999999,-0.03600000000000003,-0.0955,0.12466666666666668,-0.05833333333333002,-0.03999999999999915,1.529,1.5154999999999998,38.861000000000004,30.192999999999998,39.086,35.96,55.882999999999996,35.587,60.4185,53.606,53.822,34.6845,58.9625,51.882999999999996,52.97,34.216,58.838499999999996,51.266999999999996,-0.125,-0.04850000000000021,0.09752500000000001,0.10608500000000001,0.0,218.055,218.06,214.76999999999998,214.76999999999998,0.0,0.0
31,0.0,0.0,0.0,1.0,1.0,0.0,0.0,1.0,0.0,100.0,1.0,1.1856,26.0,0.0,0.0,0.0,52.999997,0.0,26.0,26.0,26.0,26.0,0.042750000000000066,0.25660000000000016,0.044950000000000004,290.878,-2.7055,-2.6955,-1.64775,-1.5437,-170.20999999999998,215.375,190.302375,0.0,0.0,0.0,0.0,0.0629,-5.498166666666667,-5.498166666666667,-0.5877,-0.4373333333333333,0.013125000000000053,-0.889,69.794,0.0183,-0.221925,-0.37399999999999967,100.0,1.0,1.0,215.05666666666667,0.0,0.0,0.0,0.0,0.0,0.0,0.0,9115.5,0.0,55.0,5.0,251.23666666666668,1.0,0.0,0.0,0.0,0.0,0.0,1.0,0.0,1.5599999999999987,1.5599999999999987,0.0,0.0,1.0,55.0,616.79921,10000.0,85.000001,85.000001,85.000001,85.000001,395.0,0.0,0.0,0.0,1.0,166.665,51.117,51.117,45.715,45.715,34.0,-23.1575,26.642,-31.0,31.16,0.0,1781.556,-0.4400000000000013,100.0,28.831,29.28,44.397,44.814,0.0,0.0,100.0,0.0,0.0,0.0,0.0,3154.5714285714284,3234.8,4280.125,4274.1,305.362,304.338,314.47775,314.17275,22.0676,20.677,22.1051,21.6037,314.999998,314.999998,324.999988,324.999988,99.55917142857143,99.50738333333334,99.57037142857143,99.55014285714286,0.1073333333333335,-0.038999999999999924,-0.09766666666666668,0.12816666666666665,-0.054999999999999716,-0.04142857142857537,1.449,1.439,38.923,30.231333333333332,39.157,36.022999999999996,55.870999999999995,35.6295,60.46,53.673,53.811,34.7235,59.001,51.947,52.957,34.25366666666667,58.8735,51.329499999999996,-0.11799999999999988,-0.05250000000000021,0.10526500000000001,0.10810000000000002,0.0,218.465,218.47500000000002,215.05666666666667,215.05666666666667,0.0,0.0
32,0.0,0.0,0.0,1.0,1.0,0.0,0.0,1.0,0.0,100.0,1.0,1.1856,26.0,0.0,0.0,0.0,52.999997,0.0,26.0,26.0,26.0,26.0,0.06099999999999994,0.24860000000000015,-0.033475000000000005,291.412,-2.6950000000000003,-2.684625,-1.5843,-1.6246,-166.86,215.3775,190.278375,0.0,0.0,0.0,0.0,0.06486666666666667,-5.498166666666667,-5.498166666666667,-0.6075,-0.33466666666666667,-0.010250000000000092,-1.0100000000000002,69.914,0.0222,-0.23247500000000001,-0.3379999999999992,100.0,1.0,1.0,215.54000000000002,0.0,0.0,0.0,0.0,0.0,0.0,0.0,9136.0,0.0,55.0,5.0,251.66666666666666,0.0,0.0,0.0,0.0,0.0,0.0,1.0,0.0,1.6080000000000005,1.6080000000000005,0.0,0.0,0.0,55.0,616.79921,10000.0,85.000001,85.000001,85.000001,85.000001,395.0,0.0,0.0,0.0,1.0,166.665,51.59,51.59,46.753,46.753,34.0,-22.8025,25.048000000000002,-27.61,31.203333333333333,0.0,1781.507,-0.41999999999999815,100.0,28.704,29.032,44.173,44.615,0.0,0.0,100.0,0.0,0.0,0.0,0.0,3174.5714285714284,3075.1,4088.875,4174.6,305.3545,304.926,314.95675,314.483,22.0764,20.6824,22.115,21.6125,314.999998,314.999998,324.999988,324.999988,99.55917142857143,99.50738333333334,99.5705,99.55028571428572,0.11566666666666636,-0.03600000000000003,-0.08683333333333333,0.13166666666666665,-0.06333333333333258,-0.0628571428571405,1.5110000000000001,1.5070000000000001,38.977000000000004,30.265333333333334,39.219,36.078,55.86,35.6665,60.492,53.7285,53.801,34.757999999999996,59.031,52.0005,52.946,34.28633333333333,58.9005,51.382,-0.11999999999999988,-0.052999999999999936,0.10834500000000001,0.11193000000000002,0.0,218.835,218.85000000000002,215.54000000000002,215.54000000000002,0.0,0.0
33,0.0,0.0,0.0,1.0,1.0,0.0,0.0,1.0,0.0,100.0,1.0,1.1856,26.0,0.0,0.0,0.0,52.999997,0.0,26.0,26.0,26.0,26.0,0.04537499999999994,0.26350000000000007,-0.0654,291.641,-2.7128,-2.6487499999999997,-1.5948,-1.5852,-163.5,215.3825,190.253125,0.0,0.0,0.0,0.0,0.0668,-5.498166666666667,-5.498166666666667,-0.6151,-0.19433333333333336,-0.007124999999999826,-0.139,70.035,0.0219,-0.21465,-0.2920000000000007,100.0,1.0,1.0,215.91333333333333,0.0,0.0,0.0,0.0,0.0,0.0,0.0,9151.8,0.0,55.0,5.0,252.10333333333335,1.0,0.0,0.0,0.0,0.0,0.0,1.0,0.0,1.6559999999999988,1.6559999999999988,0.0,0.0,1.0,55.0,616.79921,10000.0,85.000001,85.000001,85.000001,85.000001,395.0,0.0,0.0,0.0,1.0,166.665,51.894999999999996,51.894999999999996,47.012,47.012,34.0,-23.255,24.648,-27.619999999999997,30.69,0.0,1781.459,-0.4450000000000003,100.0,28.575,28.732,43.96,44.368,0.0,0.0,100.0,0.0,0.0,0.0,0.0,3151.142857142857,3050.6,4104.25,4191.8,305.423,305.10133333333334,314.93425,314.521,22.0851,20.6877,22.1248,21.6212,314.999998,314.999998,324.999988,324.999988,99.55918571428572,99.50738333333334,99.57064285714286,99.55042857142857,0.10499999999999998,-0.02966666666666673,-0.08283333333333333,0.13116666666666665,-0.051666666666669414,-0.03714285714285381,1.5246666666666666,1.505,39.032,30.298333333333332,39.28,36.1325,55.849000000000004,35.701499999999996,60.5245,53.7825,53.79,34.7905,59.061,52.053,52.934,34.31766666666667,58.9275,51.433,-0.11399999999999988,-0.04600000000000026,0.10115,0.111695,0.0,219.215,219.22,215.91333333333333,215.91333333333333,0.0,0.0
34,0.0,0.0,0.0,1.0,1.0,0.0,0.0,1.0,0.0,100.0,1.0,1.1856,26.0,0.0,0.0,0.0,52.999997,0.0,26.0,26.0,26.0,26.0,0.03412499999999996,0.24439999999999995,-0.092575,291.794,-2.6627,-2.684625,-1.6247,-1.5268000000000002,-159.93,215.3875,190.225,0.0,0.0,0.0,0.0,0.0689,-5.498166666666667,-5.498166666666667,-0.644,-0.9286666666666666,0.013249999999999984,0.876,70.16499999999999,0.0247,-0.22115,-0.43599999999999994,100.0,1.0,1.0,216.27666666666667,0.0,0.0,0.0,0.0,0.0,0.0,0.0,9167.2,0.0,55.0,5.0,252.56666666666666,0.0,0.0,0.0,0.0,0.0,0.0,1.0,0.0,1.7070000000000007,1.7070000000000007,0.0,0.0,0.0,55.0,616.79921,10000.0,85.000001,85.000001,85.000001,85.000001,395.0,0.0,0.0,0.0,1.0,333.33500000000004,52.322,52.322,47.043,47.043,34.0,-21.1925,25.41,-28.406666666666666,31.03333333333333,0.0,1781.408,-0.41499999999999915,100.0,28.435,28.318,43.954,44.405,0.0,0.0,100.0,0.0,0.0,0.0,0.0,2989.714285714286,3114.9,4110.5,4244.9,305.7835,305.08,314.91125,314.43825,22.0942,20.6933,22.1353,21.6306,314.999998,314.999998,324.999988,324.999988,99.5592,99.5074,99.5708,99.55057142857143,0.11366666666666658,-0.02833333333333332,-0.088,0.14466666666666667,-0.04833333333333201,-0.05571428571428072,1.514,1.4955,39.089,30.333333333333336,39.345,36.191,55.836,35.738,60.5585,53.8425,53.778,34.824,59.0925,52.1105,52.921,34.349666666666664,58.9555,51.489,-0.11749999999999994,-0.04850000000000021,0.10893000000000001,0.10875000000000001,0.0,219.57999999999998,219.60500000000002,216.27666666666667,216.27666666666667,0.0,0.0
35,0.0,0.0,0.0,1.0,1.0,0.0,0.0,1.0,0.0,100.0,1.0,1.1856,26.0,0.0,0.0,0.0,52.999997,0.0,26.0,26.0,26.0,26.0,0.0625,0.2531000000000001,-0.032150000000000005,291.656,-2.7978,-2.655625,-1.6210499999999999,-1.5847,-156.35,215.39249999999998,190.195,0.0,0.0,0.0,0.0,0.07096666666666666,-5.498166666666667,-5.498166666666667,-0.678,0.01633333333333333,-0.006750000000000256,-1.2570000000000001,70.291,0.0285,-0.22490000000000002,-0.31599999999999984,100.0,1.0,1.0,216.74666666666667,0.0,0.0,0.0,0.0,0.0,0.0,0.0,9187.1,0.0,55.0,5.0,253.02333333333334,1.0,0.0,0.0,0.0,0.0,0.0,1.0,0.0,1.7579999999999991,1.7579999999999991,0.0,0.0,1.0,55.0,616.79921,10000.0,85.000001,85.000001,85.000001,85.000001,395.0,0.0,0.0,0.0,1.0,166.665,51.59,51.59,46.677,46.677,34.0,-24.5625,26.683999999999997,-27.816666666666663,30.3,0.0,1781.357,-0.23499999999999943,100.0,28.198,28.911,43.655,43.991,0.0,0.0,100.0,0.0,0.0,0.0,0.0,3187.5714285714284,3294.0,4118.25,4098.2,305.3345,304.2486666666667,314.8905,314.826,22.1033,20.6992,22.1456,21.6397,314.999998,314.999998,324.999988,324.999988,99.55921428571429,99.5074,99.57094285714285,99.55071428571429,0.10066666666666668,-0.040000000000000036,-0.07866666666666668,0.1445,-0.06833333333332803,-0.034285714285715585,1.5456666666666665,1.533,39.144999999999996,30.369999999999997,39.41,36.2485,55.823,35.778,60.591499999999996,53.897999999999996,53.765,34.861000000000004,59.123,52.164,52.907,34.385333333333335,58.983000000000004,51.5415,-0.10050000000000003,-0.06499999999999995,0.10448,0.10243000000000001,0.0,220.005,219.995,216.74666666666667,216.74666666666667,0.0,0.0
36,0.0,0.0,0.0,1.0,1.0,0.0,0.0,1.0,0.0,100.0,1.0,1.1856,26.0,0.0,0.0,0.0,52.999997,0.0,26.0,26.0,26.0,26.0,0.04875000000000007,0.2491000000000001,0.004275,291.321,-2.6461,-2.715125,-1.6371,-1.6002,-152.76,215.4,190.163875,0.0,0.0,0.0,0.0,0.07306666666666667,-5.498166666666667,-5.498166666666667,-0.6628000000000001,-0.278,-0.04700000000000015,0.19699999999999995,70.422,0.0238,-0.20365,-0.2079999999999993,100.0,1.0,1.0,216.92666666666668,0.0,0.0,0.0,0.0,0.0,0.0,0.0,9194.7,0.0,55.0,5.0,253.49,0.0,0.0,0.0,0.0,0.0,0.0,1.0,0.0,1.809000000000001,1.809000000000001,0.0,0.0,0.0,55.0,616.79921,10000.0,85.000001,85.000001,85.000001,85.000001,395.0,0.0,0.0,0.0,1.0,166.665,52.231,52.231,46.173,46.173,34.0,-20.3375,24.36,-31.533333333333335,34.843333333333334,0.0,1781.306,-0.16999999999999815,100.0,28.809,28.631,44.007,44.278,0.0,0.0,100.0,0.0,0.0,0.0,0.0,2849.142857142857,2997.5,4464.0,4497.0,306.0015,305.162,314.1655,313.83125,22.1125,20.705,22.1562,21.6492,314.999998,314.999998,324.999988,324.999988,99.55922857142858,99.5074,99.57108571428572,99.55088571428571,0.10833333333333339,-0.04233333333333311,-0.084,0.14816666666666667,-0.026666666666670835,-0.05142857142857338,1.445,1.4415,39.203,30.406,39.476,36.3075,55.811,35.817499999999995,60.628,53.959,53.754000000000005,34.8975,59.157,52.223,52.894999999999996,34.42,59.0135,51.599000000000004,-0.09250000000000003,-0.06950000000000012,0.10721000000000001,0.11097000000000001,0.0,220.4,220.41500000000002,216.92666666666668,216.92666666666668,0.0,0.0
