,ABS Active,ABS Enabled,AID Allow Tire Blankets,AID Auto Blip,AID Auto Clutch,AID Auto Shift,AID Fuel Rate,AID Ideal Line,AID Mech Damage,AID Stability,AID Tire Wear Rate,Air Density,Air Temp,Ballast,Best Lap Delta,Best Lap Time,Brake Bias,Brake Pos,Brake Temp FL,Brake Temp FR,Brake Temp RL,Brake Temp RR,CG Accel Lateral,CG Accel Longitudinal,CG Accel Vertical,CG Height,Camber FL,Camber FR,Camber RL,Camber RR,Car Coord X,Car Coord Y,Car Coord Z,Car Damage Front,Car Damage Left,Car Damage Rear,Car Damage Right,Car Pos Norm,Caster FL,Caster FR,Chassis Pitch Angle,Chassis Pitch Rate,Chassis Roll Angle,Chassis Roll Rate,Chassis Velocity X,Chassis Velocity Y,Chassis Velocity Z,Chassis Yaw Rate,Clutch Pos,DRS Active,DRS Available,Drive Train Speed,ERS Heat Charging,ERS Is Charging,ERS Max Energy,ERS Power Level,ERS Recovery Level,Engine Brake Setting,Engine Limiter,Engine RPM,Flags,Fuel Level,Gear,Ground Speed,HR Sample Clock,In Pit,KERS Charge,KERS Deployed Energy,KERS Input,KERS Max Energy,LR Sample Clock,Lap Invalidated,Lap Time,Lap Time2,Last Lap Time,Last Sector Time,MR Sample Clock,Max Fuel,Max Power,Max RPM,Max Sus Travel FL,Max Sus Travel FR,Max Sus Travel RL,Max Sus Travel RR,Max Torque,Max Turbo Boost,Num Tires Off Track,Penalties Enabled,Position,Raw Data Sample Rate,Ride Height FL,Ride Height FR,Ride Height RL,Ride Height RR,Road Temp,Self Align Torque FL,Self Align Torque FR,Self Align Torque RL,Self Align Torque RR,Session Lap Count,Session Time Left,Steering Angle,Surface Grip,Suspension Travel FL,Suspension Travel FR,Suspension Travel RL,Suspension Travel RR,TC Active,TC Enabled,Throttle Pos,Tire Dirt Level FL,Tire Dirt Level FR,Tire Dirt Level RL,Tire Dirt Level RR,Tire Load FL,Tire Load FR,Tire Load RL,Tire Load RR,Tire Loaded Radius FL,Tire Loaded Radius FR,Tire Loaded Radius RL,Tire Loaded Radius RR,Tire Pressure FL,Tire Pressure FR,Tire Pressure RL,Tire Pressure RR,Tire Radius FL,Tire Radius FR,Tire Radius RL,Tire Radius RR,Tire Rubber Grip FL,Tire Rubber Grip FR,Tire Rubber Grip RL,Tire Rubber Grip RR,Tire Slip Angle FL,Tire Slip Angle FR,Tire Slip Angle RL,Tire Slip Angle RR,Tire Slip Ratio FL,Tire Slip Ratio FR,Tire Slip Ratio RL,Tire Slip Ratio RR,Tire Temp Core FL,Tire Temp Core FR,Tire Temp Core RL,Tire Temp Core RR,Tire Temp Inner FL,Tire Temp Inner FR,Tire Temp Inner RL,Tire Temp Inner RR,Tire Temp Middle FL,Tire Temp Middle FR,Tire Temp Middle RL,Tire Temp Middle RR,Tire Temp Outer FL,Tire Temp Outer FR,Tire Temp Outer RL,Tire Temp Outer RR,Toe In FL,Toe In FR,Toe In RL,Toe In RR,Turbo Boost,Wheel Angular Speed FL,Wheel Angular Speed FR,Wheel Angular Speed RL,Wheel Angular Speed RR,Wind Direction,Wind Speed
0,0.0,0.0,0.0,1.0,1.0,0.0,0.0,1.0,0.0,100.0,1.0,1.1856,26.0,0.0,0.0,0.0,59.99999,0.0,26.0,26.0,26.0,26.0,-0.0962222222222221,0.3064,0.1481,272.171,-2.4366000000000003,-2.393111111111111,-1.8238,-1.8796666666666668,-275.79,216.3275,190.966375,0.0,0.0,0.0,0.0,0.0015333333333333865,-5.498166666666667,-5.498166666666667,-0.5265000000000001,1.145,-0.016111111111110965,-0.7709999999999999,65.801,-0.0383,-0.180125,1.0700000000000003,100.0,1.0,1.0,203.41333333333333,0.0,0.0,0.0,0.0,0.0,0.0,0.0,8622.0,0.0,55.0,5.0,236.85000000000002,0.0,0.0,0.0,0.0,0.0,0.0,0.0,0.0,0.0030000000000001137,0.0030000000000001137,0.0,0.0,0.0,55.0,616.79921,10000.0,85.0,85.0,85.0,85.0,395.0,0.0,0.0,0.0,1.0,20.0,31.723,31.723,27.222,27.222,34.0,-22.7925,16.10666666666667,-31.0925,25.16,0.0,1783.329,0.8850000000000016,100.0,29.389,28.809,40.998,40.924,0.0,0.0,100.0,0.0,0.0,0.0,0.0,3445.857142857143,3728.3,3792.75,3646.5,304.3795,303.067,315.7265,315.7588,21.657555555555554,20.6749,21.94,21.3256,314.99999,314.99999,324.99998,324.99998,99.5528,99.51273333333333,99.5772,99.54728571428572,0.10466666666666669,-0.2466666666666668,-0.1744,0.05559999999999987,-0.06888888888888545,-0.05666666666667197,1.6795,1.709,36.36,30.218,38.125,34.285,54.024,37.803,63.2745,52.5605,52.391999999999996,36.789,61.584,50.668,51.94,36.31,61.3765,49.874,-0.12399999999999989,-0.262,0.11143000000000002,0.11090000000000001,0.0,206.22,206.115,203.41333333333333,203.41333333333333,0.0,0.0
1,0.0,0.0,0.0,1.0,1.0,0.0,0.0,1.0,0.0,100.0,1.0,1.1856,26.0,0.0,0.0,0.0,59.999996,0.0,26.0,26.0,26.0,26.0,-0.09699999999999998,0.32140000000000013,0.18962500000000002,271.454,-2.3583,-2.4943333333333335,-1.8452000000000002,-1.8704444444444444,-272.23,216.3225,190.94525,0.0,0.0,0.0,0.0,0.0035999999999999366,-5.498166666666667,-5.498166666666667,-0.4514,-0.7623333333333334,-0.059555555555555806,-0.7989999999999999,65.97,-0.05509999999999993,-0.159,1.370000000000001,100.0,1.0,1.0,203.5233333333333,0.0,0.0,0.0,0.0,0.0,0.0,0.0,8626.6,0.0,55.0,5.0,237.46,1.0,0.0,0.0,0.0,0.0,0.0,0.0,0.0,0.05699999999999861,0.05699999999999861,0.0,0.0,1.0,55.0,616.79921,10000.0,85.000001,85.000001,85.000001,85.000001,395.0,0.0,0.0,0.0,1.0,166.665,33.34,33.34,25.543,25.543,34.0,-20.4025,11.876666666666669,-35.625,31.817999999999998,0.0,1783.274,0.9349999999999987,100.0,29.602,28.91,43.422,42.07,0.0,0.0,100.0,0.0,0.0,0.0,0.0,3196.857142857143,2807.3,4007.625,4468.1,305.1025,305.94266666666664,315.083,313.708,21.66788888888889,20.6815,21.9522,21.3352,314.999998,314.999998,324.999988,324.999988,99.55281428571429,99.51278333333333,99.57737142857142,99.54744285714285,0.09899999999999998,-0.2613333333333332,-0.19299999999999995,0.03520000000000012,-0.04888888888888587,-0.01999999999999602,1.4735,1.5295,36.425,30.2595,38.201,34.345,54.021,37.85,63.307,52.6255,52.388999999999996,36.832499999999996,61.614000000000004,50.730000000000004,51.935,36.352000000000004,61.4025,49.934,-0.11799999999999988,-0.26249999999999996,0.11359500000000002,0.10690500000000001,0.0,206.70333333333332,206.59,203.5233333333333,203.5233333333333,0.0,0.0
2,0.0,0.0,0.0,1.0,1.0,0.0,0.0,1.0,0.0,100.0,1.0,1.1856,26.0,0.0,0.0,0.0,59.999996,0.0,26.0,26.0,26.0,26.0,-0.1436666666666666,0.30879999999999996,-0.1908,272.5985,-2.3207,-2.533333333333333,-1.7934,-1.926,-268.86,216.315,190.926875,0.0,0.0,0.0,0.0,0.005566666666666609,-5.498166666666667,-5.498166666666667,-0.5148,0.17633333333333334,-0.056888888888888545,2.3689999999999998,66.113,-0.07669999999999999,-0.21457500000000002,1.5920000000000005,100.0,1.0,1.0,204.62,0.0,0.0,0.0,0.0,0.0,0.0,0.0,8673.0,0.0,55.0,5.0,237.9766666666667,0.0,0.0,0.0,0.0,0.0,0.0,0.0,0.0,0.10800000000000054,0.10800000000000054,0.0,0.0,0.0,55.0,616.79921,10000.0,85.000001,85.000001,85.000001,85.000001,395.0,0.0,0.0,0.0,1.0,166.665,32.364,32.364,28.198,28.198,34.0,-22.58,12.931666666666668,-28.265,20.43,0.0,1783.224,0.7800000000000011,100.0,30.241,28.619,42.632,41.198,0.0,0.0,100.0,0.0,0.0,0.0,0.0,3396.285714285714,3064.2,3379.875,3318.3,304.2695,305.15633333333335,316.63375,316.7244,21.677888888888887,20.6874,21.9632,21.3438,314.999998,314.999998,324.999988,324.999988,99.55282857142858,99.51281666666667,99.5775,99.54757142857143,0.08200000000000007,-0.2743333333333333,-0.22820000000000007,0.010599999999999943,-0.05777777777777615,-0.03833333333332689,1.8144999999999998,1.8784999999999998,36.486999999999995,30.296,38.269999999999996,34.3985,54.019,37.89,63.328,52.6745,52.385999999999996,36.8695,61.632,50.777,51.931,36.3875,61.418,49.980000000000004,-0.1279999999999999,-0.25550000000000006,0.10688,0.10170000000000001,0.0,207.15,207.01,204.62,204.62,0.0,0.0
3,0.0,0.0,0.0,1.0,1.0,0.0,0.0,1.0,0.0,100.0,1.0,1.1856,26.0,0.0,0.0,0.0,59.999996,0.0,26.0,26.0,26.0,26.0,-0.1423333333333333,0.3215000000000001,0.0629,272.064,-2.4513,-2.4254444444444445,-1.8172000000000001,-1.904111111111111,-265.89,216.305,190.909125,0.0,0.0,0.0,0.0,0.007299999999999973,-5.498166666666667,-5.498166666666667,-0.47240000000000004,0.37233333333333335,-0.013666666666666938,0.16699999999999982,66.253,-0.09049999999999991,-0.15265,1.267999999999999,100.0,1.0,1.0,204.56,0.0,0.0,0.0,0.0,0.0,0.0,0.0,8670.5,0.0,55.0,5.0,238.4766666666667,1.0,0.0,0.0,0.0,0.0,0.0,0.0,0.0,0.1529999999999987,0.1529999999999987,0.0,0.0,1.0,55.0,616.79921,10000.0,85.000001,85.000001,85.000001,85.000001,395.0,0.0,0.0,0.0,1.0,166.665,33.278999999999996,33.278999999999996,25.833,25.833,34.0,-20.06,11.985,-36.49,26.322000000000003,0.0,1783.179,0.6400000000000006,100.0,29.856,28.658,42.483000000000004,41.287,0.0,0.0,100.0,0.0,0.0,0.0,0.0,2987.285714285714,3056.4,4069.0,3995.1000000000004,305.634,305.148,314.9555,314.955,21.686444444444444,20.6929,21.973,21.3516,314.999998,314.999998,324.999988,324.999988,99.55284285714286,99.51283333333333,99.57762857142858,99.5477,0.09299999999999997,-0.2713333333333332,-0.21760000000000002,0.0052000000000000934,-0.0544444444444423,-0.054999999999999716,1.5865,1.613,36.54,30.3305,38.331,34.4475,54.013999999999996,37.9295,63.35,52.7255,52.381,36.906,61.653,50.826,51.924,36.4225,61.4355,50.0275,-0.14700000000000002,-0.23950000000000005,0.11271,0.11507,0.0,207.62333333333333,207.485,204.56,204.56,0.0,0.0
4,0.0,0.0,0.0,1.0,1.0,0.0,0.0,1.0,0.0,100.0,1.0,1.1856,26.0,0.0,0.0,0.0,59.999996,0.0,26.0,26.0,26.0,26.0,-0.15000000000000002,0.28400000000000003,-0.041475000000000005,272.3845,-2.3733,-2.4801111111111114,-1.83,-1.9155555555555557,-262.3,216.28750000000002,190.888125,0.0,0.0,0.0,0.0,0.009366666666666523,-5.498166666666667,-5.498166666666667,-0.5171,-0.7936666666666666,-0.08666666666666645,-0.7320000000000002,66.41,-0.09039999999999992,-0.20980000000000001,1.1460000000000008,100.0,1.0,1.0,205.28333333333333,0.0,0.0,0.0,0.0,0.0,0.0,0.0,8701.2,0.0,55.0,5.0,239.04666666666668,0.0,0.0,0.0,0.0,0.0,0.0,0.0,0.0,0.20700000000000074,0.20700000000000074,0.0,0.0,0.0,55.0,616.79921,10000.0,85.000001,85.000001,85.000001,85.000001,395.0,0.0,0.0,0.0,1.0,166.665,32.639,32.639,26.871000000000002,26.871000000000002,34.0,-22.0425,13.311666666666667,-32.0475,21.524,0.0,1783.125,0.615000000000002,100.0,29.806,28.512,42.876,41.292,0.0,0.0,100.0,0.0,0.0,0.0,0.0,3370.0,3173.7,3701.75,3320.0,304.542,304.8186666666667,315.81275,316.5902,21.696444444444445,20.6994,21.985,21.3609,314.999998,314.999998,324.999988,324.999988,99.55284285714286,99.51288333333333,99.57778571428571,99.54784285714285,0.09633333333333338,-0.2663333333333333,-0.2136,0.026599999999999957,-0.06777777777777771,-0.03833333333332689,1.6965,1.7565,36.602999999999994,30.371000000000002,38.406,34.5055,54.007,37.976,63.3785,52.782,52.373000000000005,36.949,61.679,50.8795,51.915,36.464,61.457499999999996,50.079499999999996,-0.14349999999999996,-0.23449999999999993,0.11206500000000001,0.11185500000000001,0.0,208.04333333333335,207.91500000000002,205.28333333333333,205.28333333333333,0.0,0.0
5,0.0,0.0,0.0,1.0,1.0,0.0,0.0,1.0,0.0,100.0,1.0,1.1856,26.0,0.0,0.0,0.0,59.999996,0.0,26.0,26.0,26.0,26.0,-0.12544444444444447,0.3056000000000001,-0.0284,272.415,-2.3823,-2.507,-1.8096,-1.9046666666666667,-259.11,216.26999999999998,190.868875,0.0,0.0,0.0,0.0,0.011233333333333317,-5.498166666666667,-5.498166666666667,-0.49920000000000003,0.5813333333333334,-0.09233333333333338,1.012,66.553,-0.09189999999999998,-0.1711,0.9740000000000002,100.0,1.0,1.0,205.60000000000002,0.0,0.0,0.0,0.0,0.0,0.0,0.0,8714.7,0.0,55.0,5.0,239.55333333333334,1.0,0.0,0.0,0.0,0.0,0.0,0.0,0.0,0.254999999999999,0.254999999999999,0.0,0.0,1.0,55.0,616.79921,10000.0,85.000001,85.000001,85.000001,85.000001,395.0,0.0,0.0,0.0,1.0,166.665,33.325,33.325,26.794,26.794,34.0,-20.4925,12.833333333333332,-34.4075,24.964,0.0,1783.075,0.26000000000000156,100.0,29.931,28.348,42.605000000000004,40.868,0.0,0.0,100.0,0.0,0.0,0.0,0.0,3176.5714285714284,2953.3,3905.875,3820.6000000000004,305.0505,305.5253333333333,315.408,315.4386,21.705777777777776,20.7051,21.9954,21.369,314.999998,314.999998,324.999988,324.999988,99.55285714285715,99.5129,99.57791428571429,99.54797142857143,0.1016666666666668,-0.2583333333333333,-0.22039999999999993,0.012599999999999945,-0.01444444444444315,-0.03166666666666629,1.638,1.6839999999999997,36.661,30.407,38.471000000000004,34.5565,54.004999999999995,38.016,63.4025,52.831,52.370000000000005,36.986,61.7,50.926,51.911,36.4995,61.4765,50.125,-0.16300000000000003,-0.21799999999999997,0.11117500000000001,0.10005000000000001,0.0,208.51333333333332,208.435,205.60000000000002,205.6,0.0,0.0
6,0.0,0.0,0.0,1.0,1.0,0.0,0.0,1.0,0.0,100.0,1.0,1.1856,26.0,0.0,0.0,0.0,59.999996,0.0,26.0,26.0,26.0,26.0,-0.11211111111111105,0.28859999999999997,-0.012100000000000001,272.232,-2.3603,-2.473111111111111,-1.8592,-1.8963333333333332,-255.72,216.25,190.848375,0.0,0.0,0.0,0.0,0.01319999999999999,-5.498166666666667,-5.498166666666667,-0.5011,-0.037,-0.06999999999999984,-0.3330000000000002,66.703,-0.08599999999999997,-0.182425,0.7679999999999998,100.0,1.0,1.0,206.07999999999998,0.0,0.0,0.0,0.0,0.0,0.0,0.0,8734.9,0.0,55.0,5.0,240.10000000000002,0.0,0.0,0.0,0.0,0.0,0.0,0.0,0.0,0.30600000000000094,0.30600000000000094,0.0,0.0,0.0,55.0,616.79921,10000.0,85.000001,85.000001,85.000001,85.000001,395.0,0.0,0.0,0.0,1.0,166.665,32.806,32.806,26.733,26.733,34.0,-20.7375,13.861666666666668,-33.04,24.22,0.0,1783.026,0.09499999999999886,100.0,29.612000000000002,28.53,42.653999999999996,41.338,0.0,0.0,100.0,0.0,0.0,0.0,0.0,3341.0,3109.6,3789.125,3667.7,304.677,304.86066666666665,315.7195,315.7346,21.715444444444444,20.7113,22.0066,21.3779,314.999998,314.999998,324.999988,324.999988,99.55288571428571,99.51293333333334,99.57805714285715,99.54811428571429,0.1146666666666667,-0.2486666666666668,-0.2086,0.02499999999999991,-0.04888888888888587,-0.04333333333332945,1.6665,1.7039999999999997,36.722,30.4455,38.541,34.612,54.001000000000005,38.0585,63.428,52.8865,52.367000000000004,37.0255,61.723,50.9795,51.906,36.537,61.496,50.1765,-0.18799999999999994,-0.20050000000000012,0.106685,0.10844000000000001,0.0,208.94666666666666,208.865,206.07999999999998,206.07999999999998,0.0,0.0
7,0.0,0.0,0.0,1.0,1.0,0.0,0.0,1.0,0.0,100.0,1.0,1.1856,26.0,0.0,0.0,0.0,59.999996,0.0,26.0,26.0,26.0,26.0,-0.0835555555555555,0.29490000000000016,0.022325,272.0335,-2.3325,-2.468111111111111,-1.8143,-1.884888888888889,-252.51,216.22750000000002,190.829,0.0,0.0,0.0,0.0,0.015066666666666562,-5.498166666666667,-5.498166666666667,-0.5026,0.034333333333333334,-0.06199999999999983,-0.28900000000000015,66.843,-0.07219999999999993,-0.18815,0.4479999999999995,100.0,1.0,1.0,206.46,0.0,0.0,0.0,0.0,0.0,0.0,0.0,8751.1,0.0,55.0,5.0,240.60666666666668,1.0,0.0,0.0,0.0,0.0,0.0,0.0,0.0,0.3539999999999992,0.3539999999999992,0.0,0.0,1.0,55.0,616.79921,10000.0,85.000001,85.000001,85.000001,85.000001,395.0,0.0,0.0,0.0,1.0,166.665,32.578,32.578,26.855,26.855,34.0,-20.1525,14.986666666666668,-32.51,25.82,0.0,1782.977,-0.14000000000000057,100.0,29.684,28.566,42.585,41.467,0.0,0.0,100.0,0.0,0.0,0.0,0.0,3443.142857142857,3122.7,3819.75,3762.8,304.3175,304.8206666666667,315.606,315.483,21.724555555555554,20.7172,22.0171,21.3863,314.999998,314.999998,324.999988,324.999988,99.5529,99.51295,99.5782,99.54824285714285,0.13566666666666682,-0.22533333333333316,-0.1936,0.042400000000000215,-0.04555555555555557,-0.03499999999999659,1.6215000000000002,1.6629999999999998,36.778999999999996,30.4825,38.607,34.664,54.0,38.098,63.451499999999996,52.9385,52.364999999999995,37.062,61.745000000000005,51.028999999999996,51.902,36.5725,61.513999999999996,50.2245,-0.20500000000000007,-0.1775,0.10533500000000001,0.11045500000000001,0.0,209.36666666666667,209.325,206.46,206.46,0.0,0.0
8,0.0,0.0,0.0,1.0,1.0,0.0,0.0,1.0,0.0,100.0,1.0,1.1856,26.0,0.0,0.0,0.0,59.999996,0.0,26.0,26.0,26.0,26.0,-0.05088888888888887,0.29090000000000016,-0.054650000000000004,272.339,-2.4145000000000003,-2.452777777777778,-1.798,-1.8905555555555558,-248.9,216.2,190.807125,0.0,0.0,0.0,0.0,0.017166666666666552,-5.498166666666667,-5.498166666666667,-0.5041,-0.5886666666666667,-0.04388888888888909,-0.3810000000000002,67.002,-0.05059999999999998,-0.18005000000000002,-0.036000000000000476,100.0,1.0,1.0,206.88666666666666,0.0,0.0,0.0,0.0,0.0,0.0,0.0,8769.2,0.0,55.0,5.0,241.17666666666668,0.0,0.0,0.0,0.0,0.0,0.0,0.0,0.0,0.40800000000000125,0.40800000000000125,0.0,0.0,0.0,55.0,616.79921,10000.0,85.000001,85.000001,85.000001,85.000001,395.0,0.0,0.0,0.0,1.0,166.665,33.493,33.493,26.198999999999998,26.198999999999998,34.0,-17.6725,15.451666666666666,-31.6025,27.708,0.0,1782.924,-0.2749999999999986,100.0,29.336,28.521,42.609,41.619,0.0,0.0,100.0,0.0,0.0,0.0,0.0,3092.0,3074.1,3873.0,3781.2,305.498,305.01,315.4455,315.384,21.734555555555556,20.7237,22.0288,21.395699999999998,314.999998,314.999998,324.999988,324.999988,99.55291428571428,99.51298333333334,99.57835714285714,99.5484,0.15333333333333332,-0.20566666666666666,-0.16379999999999995,0.07340000000000013,-0.03555555555555756,-0.030000000000001137,1.6229999999999998,1.6204999999999998,36.841,30.5235,38.68,34.723,53.997,38.1405,63.4775,52.9965,52.361000000000004,37.1015,61.768,51.084,51.897,36.61,61.534,50.278,-0.21999999999999997,-0.17149999999999999,0.10382500000000001,0.10856,0.0,209.81333333333333,209.81,206.88666666666666,206.88666666666666,0.0,0.0
9,0.0,0.0,0.0,1.0,1.0,0.0,0.0,1.0,0.0,100.0,1.0,1.1856,26.0,0.0,0.0,0.0,59.999996,0.0,26.0,26.0,26.0,26.0,-0.022666666666666613,0.29700000000000015,-0.013725000000000001,271.9115,-2.4019000000000004,-2.4555555555555557,-1.8558,-1.87,-245.68,216.175,190.787125,0.0,0.0,0.0,0.0,0.019033333333333347,-5.498166666666667,-5.498166666666667,-0.5103,0.7696666666666666,-0.04444444444444429,-0.28600000000000003,67.138,-0.028999999999999915,-0.17880000000000001,-0.1720000000000006,100.0,1.0,1.0,207.45666666666668,0.0,0.0,0.0,0.0,0.0,0.0,0.0,8793.3,0.0,55.0,5.0,241.66333333333333,1.0,0.0,0.0,0.0,0.0,0.0,0.0,0.0,0.4559999999999995,0.4559999999999995,0.0,0.0,1.0,55.0,616.79921,10000.0,85.000001,85.000001,85.000001,85.000001,395.0,0.0,0.0,0.0,1.0,166.665,32.12,32.12,27.176000000000002,27.176000000000002,34.0,-19.245,17.11333333333333,-29.725,27.394,0.0,1782.876,-0.40500000000000114,100.0,29.779,29.034,42.249,41.619,0.0,0.0,100.0,0.0,0.0,0.0,0.0,3530.714285714286,3172.6,3745.875,3747.6000000000004,304.131,304.6193333333333,315.8905,315.5852,21.74377777777778,20.7297,22.0392,21.4039,314.999998,314.999998,324.999988,324.999988,99.55292857142857,99.51301666666667,99.57848571428572,99.54852857142858,0.17766666666666686,-0.18466666666666676,-0.14639999999999997,0.08840000000000003,-0.0799999999999983,-0.05333333333332746,1.6955,1.6839999999999997,36.897999999999996,30.561,38.745000000000005,34.7745,53.998000000000005,38.1795,63.4975,53.0465,52.361000000000004,37.138,61.786,51.132,51.896,36.6455,61.549,50.3245,-0.22950000000000004,-0.1625000000000001,0.10869000000000001,0.10377000000000002,0.0,210.28333333333336,210.29000000000002,207.45666666666668,207.45666666666668,0.0,0.0
10,0.0,0.0,0.0,1.0,1.0,0.0,0.0,1.0,0.0,100.0,1.0,1.1856,26.0,0.0,0.0,0.0,59.999996,0.0,26.0,26.0,26.0,26.0,0.028888888888888964,0.3005,0.074325,271.8965,-2.3841,-2.4335555555555555,-1.8416000000000001,-1.8467777777777779,-242.25,216.14499999999998,190.766375,0.0,0.0,0.0,0.0,0.02103333333333335,-5.498166666666667,-5.498166666666667,-0.4908,-0.8593333333333334,0.0043333333333333,1.656,67.289,-0.0047999999999999154,-0.1807,-0.5839999999999996,100.0,1.0,1.0,207.68666666666667,0.0,0.0,0.0,0.0,0.0,0.0,0.0,8803.1,0.0,55.0,5.0,242.21,0.0,0.0,0.0,0.0,0.0,0.0,1.0,0.0,0.5069999999999979,0.5069999999999979,0.0,0.0,0.0,55.0,616.79921,10000.0,85.000001,85.000001,85.000001,85.000001,395.0,0.0,0.0,0.0,1.0,166.665,33.295,33.295,25.802999999999997,25.802999999999997,34.0,-14.14,17.740000000000002,-30.3175,31.67,0.0,1782.824,-0.46499999999999986,100.0,29.664,28.838,42.744,42.3,0.0,0.0,100.0,0.0,0.0,0.0,0.0,2931.4285714285716,3144.7,3904.25,3977.3,305.803,304.94666666666666,315.3065,314.9862,21.753333333333334,20.736,22.0504,21.413,314.999998,314.999998,324.999988,324.999988,99.55295714285714,99.51303333333334,99.57862857142857,99.54867142857142,0.20700000000000007,-0.15833333333333321,-0.1107999999999999,0.12880000000000003,-0.05222222222221973,-0.05666666666667197,1.5835,1.564,36.958,30.6005,38.815,34.8315,53.998999999999995,38.2185,63.524,53.105000000000004,52.361000000000004,37.174,61.81,51.188,51.894,36.68,61.569,50.379,-0.23550000000000004,-0.15000000000000013,0.10512,0.11153,0.0,210.69666666666666,210.74,207.68666666666667,207.68666666666667,0.0,0.0
11,0.0,0.0,0.0,1.0,1.0,0.0,0.0,1.0,0.0,100.0,1.0,1.1856,26.0,0.0,0.0,0.0,59.999996,0.0,26.0,26.0,26.0,26.0,0.041888888888888864,0.28059999999999996,-0.1734,272.522,-2.4232,-2.392888888888889,-1.8866,-1.8373333333333333,-238.81,216.1175,190.745625,0.0,0.0,0.0,0.0,0.022599999999999953,-5.498166666666667,-5.498166666666667,-0.5358,0.13633333333333333,0.021777777777777896,-0.6990000000000003,67.43,0.01750000000000007,-0.20155,-0.6260000000000003,100.0,1.0,1.0,208.5233333333333,0.0,0.0,0.0,0.0,0.0,0.0,0.0,8838.5,0.0,55.0,5.0,242.71666666666667,1.0,0.0,0.0,0.0,0.0,0.0,1.0,0.0,0.5579999999999998,0.5579999999999998,0.0,0.0,1.0,55.0,616.79921,10000.0,85.000001,85.000001,85.000001,85.000001,395.0,0.0,0.0,0.0,1.0,166.665,32.623,32.623,27.634,27.634,34.0,-15.872499999999999,18.678333333333335,-24.505,26.828,0.0,1782.774,-0.46000000000000085,100.0,29.491,29.331,41.871,42.002,0.0,0.0,100.0,0.0,0.0,0.0,0.0,3162.4285714285716,3222.2,3415.0,3512.9,305.229,304.4796666666667,316.67875,316.1602,21.762666666666668,20.7425,22.0612,21.4218,314.999998,314.999998,324.999988,324.999988,99.55298571428571,99.51305,99.57877142857143,99.54881428571429,0.20466666666666677,-0.14500000000000002,-0.09460000000000002,0.14440000000000008,-0.041111111111113985,-0.03999999999999915,1.795,1.7805,37.016999999999996,30.6405,38.882999999999996,34.8865,53.998000000000005,38.257999999999996,63.5415,53.1575,52.36,37.210499999999996,61.825,51.238,51.891,36.715,61.5815,50.428,-0.22199999999999998,-0.14900000000000002,0.11009000000000001,0.10854000000000001,0.0,211.12666666666667,211.185,208.5233333333333,208.5233333333333,0.0,0.0
12,0.0,0.0,0.0,1.0,1.0,0.0,0.0,1.0,0.0,100.0,1.0,1.1856,26.0,0.0,0.0,0.0,59.999996,0.0,26.0,26.0,26.0,26.0,0.06266666666666687,0.3006,0.06797500000000001,271.637,-2.4694000000000003,-2.3894444444444445,-1.8476,-1.8426666666666667,-235.78,216.095,190.72575,0.0,0.0,0.0,0.0,0.025466666666666526,-5.498166666666667,-5.498166666666667,-0.5183,0.09633333333333333,0.007111111111111068,0.6349999999999998,67.563,0.033400000000000096,-0.170775,-0.6979999999999995,100.0,1.0,1.0,208.57,0.0,0.0,0.0,0.0,0.0,0.0,0.0,8840.5,0.0,55.0,5.0,243.19666666666666,0.0,0.0,0.0,0.0,0.0,0.0,1.0,0.0,0.602999999999998,0.602999999999998,0.0,0.0,0.0,55.0,616.79921,10000.0,85.000001,85.000001,85.000001,85.000001,395.0,0.0,0.0,0.0,1.0,333.33500000000004,32.379,32.379,25.909,25.909,34.0,-15.2,20.476666666666667,-28.572499999999998,32.706,0.0,1782.728,-0.6099999999999994,100.0,29.557,29.406,42.102000000000004,42.036,0.0,0.0,100.0,0.0,0.0,0.0,0.0,3193.5714285714284,3357.6,3962.25,3949.7,305.098,304.273,315.24375,315.106,21.771,20.7482,22.070999999999998,21.4297,314.999998,314.999998,324.999988,324.999988,99.55301428571428,99.51306666666666,99.5789,99.54894285714286,0.2326666666666668,-0.12233333333333318,-0.06679999999999997,0.1624000000000001,-0.0544444444444423,-0.061666666666667425,1.6215000000000002,1.588,37.068,30.676000000000002,38.944,34.9355,53.998999999999995,38.292,63.5635,53.2065,52.36,37.2425,61.845,51.285,51.888999999999996,36.7455,61.598,50.474000000000004,-0.23849999999999993,-0.15300000000000002,0.10600000000000001,0.10715000000000001,0.0,211.56,211.615,208.57,208.57,0.0,0.0
13,0.0,0.0,0.0,1.0,1.0,0.0,0.0,1.0,0.0,100.0,1.0,1.1856,26.0,0.0,0.0,0.0,59.999996,0.0,26.0,26.0,26.0,26.0,0.08244444444444432,0.2943,0.065525,271.408,-2.4625000000000004,-2.397555555555556,-1.8982,-1.8152222222222223,-232.12,216.07,190.70275,0.0,0.0,0.0,0.0,0.026933333333333365,-5.498166666666667,-5.498166666666667,-0.52,-0.08033333333333333,0.025222222222222035,1.16,67.717,0.04400000000000004,-0.20040000000000002,-0.8839999999999995,100.0,1.0,1.0,209.06666666666666,0.0,0.0,0.0,0.0,0.0,0.0,0.0,8861.6,0.0,55.0,5.0,243.75333333333333,1.0,0.0,0.0,0.0,0.0,0.0,1.0,0.0,0.657,0.657,0.0,0.0,1.0,55.0,616.79921,10000.0,85.000001,85.000001,85.000001,85.000001,395.0,0.0,0.0,0.0,1.0,166.665,31.906,31.906,26.259999999999998,26.259999999999998,34.0,-14.274999999999999,21.043333333333333,-27.205,33.828,0.0,1782.674,-0.7049999999999983,100.0,29.845,29.872,42.246,42.566,0.0,0.0,100.0,0.0,0.0,0.0,0.0,3218.714285714286,3376.1,3754.125,4015.2,304.921,304.18766666666664,315.72225,314.9436,21.781111111111112,20.7552,22.0827,21.4393,314.999998,314.999998,324.999988,324.999988,99.55304285714286,99.51308333333333,99.57904285714285,99.5491,0.2543333333333333,-0.1156666666666668,-0.06240000000000001,0.18020000000000014,-0.04888888888888587,-0.04333333333332945,1.6189999999999998,1.5935000000000001,37.132,30.7195,39.016999999999996,34.9955,54.004000000000005,38.333,63.587,53.268,52.364000000000004,37.281,61.867000000000004,51.344,51.891,36.7825,61.616,50.531,-0.248,-0.14100000000000001,0.11410000000000001,0.11031500000000001,0.0,212.02333333333334,212.065,209.06666666666666,209.06666666666666,0.0,0.0
14,0.0,0.0,0.0,1.0,1.0,0.0,0.0,1.0,0.0,100.0,1.0,1.1856,26.0,0.0,0.0,0.0,59.999996,0.0,26.0,26.0,26.0,26.0,0.09533333333333327,0.28970000000000007,-0.005825,271.8505,-2.4626,-2.345888888888889,-1.9022000000000001,-1.8013333333333332,-228.87,216.0475,190.682875,0.0,0.0,0.0,0.0,0.028799999999999937,-5.498166666666667,-5.498166666666667,-0.5243,-0.034,0.051444444444444404,1.126,67.852,0.05950000000000011,-0.20120000000000002,-1.0820000000000007,100.0,1.0,1.0,209.58333333333331,0.0,0.0,0.0,0.0,0.0,0.0,0.0,8883.4,0.0,55.0,5.0,244.23666666666668,0.0,0.0,0.0,0.0,0.0,0.0,1.0,0.0,0.7049999999999983,0.7049999999999983,0.0,0.0,0.0,55.0,616.79921,10000.0,85.000001,85.000001,85.000001,85.000001,395.0,0.0,0.0,0.0,1.0,166.665,32.41,32.41,26.549999999999997,26.549999999999997,34.0,-12.9725,21.256666666666668,-25.005,32.558,0.0,1782.626,-0.754999999999999,100.0,29.541,29.762,41.997,42.644999999999996,0.0,0.0,100.0,0.0,0.0,0.0,0.0,3048.0,3377.3,3629.25,3867.4,305.4475,304.22433333333333,316.04775,315.315,21.79,20.7613,22.093,21.4478,314.999998,314.999998,324.999988,324.999988,99.55307142857143,99.5131,99.57917142857143,99.54922857142857,0.2633333333333332,-0.09966666666666679,-0.04179999999999995,0.1936,-0.04888888888888587,-0.04333333333332945,1.6825,1.6324999999999998,37.188,30.758,39.081,35.0485,54.007999999999996,38.368,63.606,53.321,52.367000000000004,37.313,61.882999999999996,51.394999999999996,51.891999999999996,36.814,61.629,50.5805,-0.25,-0.14000000000000012,0.109725,0.10567000000000001,0.0,212.43333333333334,212.495,209.58333333333331,209.58333333333331,0.0,0.0
15,0.0,0.0,0.0,1.0,1.0,0.0,0.0,1.0,0.0,100.0,1.0,1.1856,26.0,0.0,0.0,0.0,59.999996,0.0,26.0,26.0,26.0,26.0,0.11755555555555564,0.2876000000000001,0.0261,271.82,-2.4415,-2.3003333333333336,-1.9306,-1.762888888888889,-225.61,216.0275,190.662375,0.0,0.0,0.0,0.0,0.03069999999999995,-5.498166666666667,-5.498166666666667,-0.5134000000000001,0.22966666666666666,0.08466666666666667,1.0939999999999999,67.988,0.07250000000000001,-0.17702500000000002,-1.162,100.0,1.0,1.0,209.94333333333333,0.0,0.0,0.0,0.0,0.0,0.0,0.0,8898.8,0.0,55.0,5.0,244.72666666666666,1.0,0.0,0.0,0.0,0.0,0.0,1.0,0.0,0.7530000000000001,0.7530000000000001,0.0,0.0,1.0,55.0,616.79921,10000.0,85.000001,85.000001,85.000001,85.000001,395.0,0.0,0.0,0.0,1.0,333.33500000000004,32.608,32.608,26.488999999999997,26.488999999999997,34.0,-11.605,21.549999999999997,-24.95,34.816,0.0,1782.578,-0.8099999999999987,100.0,29.417,29.715,41.775,42.733000000000004,0.0,0.0,100.0,0.0,0.0,0.0,0.0,2935.5714285714284,3386.9,3630.25,4090.6000000000004,305.7605,304.185,316.071,314.8034,21.79888888888889,20.7674,22.1033,21.4562,314.999998,314.999998,324.999988,324.999988,99.5531,99.51311666666666,99.57931428571429,99.54937142857143,0.27700000000000014,-0.08566666666666678,-0.03300000000000003,0.20399999999999996,-0.0466666666666633,-0.045000000000001705,1.6760000000000002,1.6345,37.242999999999995,30.7965,39.146,35.1015,54.012,38.402,63.6245,53.375,52.370000000000005,37.345,61.9,51.4465,51.894,36.845,61.641999999999996,50.631,-0.252,-0.13949999999999996,0.11565,0.10624000000000001,0.0,212.85000000000002,212.95,209.94333333333333,209.94333333333333,0.0,0.0
16,0.0,0.0,0.0,1.0,1.0,0.0,0.0,1.0,0.0,100.0,1.0,1.1856,26.0,0.0,0.0,0.0,59.999996,0.0,26.0,26.0,26.0,26.0,0.12255555555555575,0.28100000000000014,-0.004775000000000001,271.805,-2.5284,-2.311777777777778,-1.9032,-1.819888888888889,-221.93,216.0075,190.639,0.0,0.0,0.0,0.0,0.03283333333333338,-5.498166666666667,-5.498166666666667,-0.5433,-0.7446666666666667,0.06755555555555559,-0.10199999999999987,68.139,0.0867,-0.20425000000000001,-1.2199999999999998,100.0,1.0,1.0,210.45666666666668,0.0,0.0,0.0,0.0,0.0,0.0,0.0,8920.5,0.0,55.0,5.0,245.27333333333334,0.0,0.0,0.0,0.0,0.0,0.0,1.0,0.0,0.8069999999999986,0.8069999999999986,0.0,0.0,0.0,55.0,616.79921,10000.0,85.000001,85.000001,85.000001,85.000001,395.0,0.0,0.0,0.0,1.0,166.665,32.166,32.166,26.52,26.52,34.0,-13.267499999999998,22.806666666666665,-23.009999999999998,32.768,0.0,1782.524,-0.759999999999998,100.0,29.16,29.981,41.941,42.86,0.0,0.0,100.0,0.0,0.0,0.0,0.0,3186.857142857143,3492.3,3551.25,3757.1000000000004,305.231,303.902,316.24525,315.5274,21.808555555555557,20.7744,22.115,21.4658,314.999998,314.999998,324.999988,324.999988,99.55314285714286,99.51311666666666,99.57947142857142,99.54952857142857,0.28266666666666684,-0.07833333333333314,-0.011600000000000055,0.2205999999999999,-0.03111111111111242,-0.05333333333332746,1.7029999999999998,1.6564999999999999,37.304,30.84,39.218,35.161,54.013999999999996,38.441,63.6475,53.434,52.370999999999995,37.3815,61.921,51.5035,51.891999999999996,36.879999999999995,61.659,50.6865,-0.25049999999999994,-0.13549999999999995,0.10819500000000001,0.11091000000000001,0.0,213.27666666666664,213.385,210.45666666666668,210.45666666666668,0.0,0.0
17,0.0,0.0,0.0,1.0,1.0,0.0,0.0,1.0,0.0,100.0,1.0,1.1856,26.0,0.0,0.0,0.0,59.999996,0.0,26.0,26.0,26.0,26.0,0.11888888888888904,0.3067,0.005575,271.4385,-2.4956,-2.288444444444444,-1.9468,-1.7770000000000001,-218.66,215.995,190.6175,0.0,0.0,0.0,0.0,0.034733333333333394,-5.498166666666667,-5.498166666666667,-0.5256000000000001,0.579,0.0537777777777777,0.903,68.274,0.09309999999999996,-0.17747500000000002,-1.2479999999999993,100.0,1.0,1.0,210.77666666666667,0.0,0.0,0.0,0.0,0.0,0.0,0.0,8934.0,0.0,55.0,5.0,245.75666666666666,1.0,0.0,0.0,0.0,0.0,0.0,1.0,0.0,0.8550000000000004,0.8550000000000004,0.0,0.0,1.0,55.0,616.79921,10000.0,85.000001,85.000001,85.000001,85.000001,395.0,0.0,0.0,0.0,1.0,333.33500000000004,32.166,32.166,26.137999999999998,26.137999999999998,34.0,-12.344999999999999,21.14333333333333,-26.5475,35.408,0.0,1782.475,-0.5549999999999997,100.0,29.596,30.262,41.741,42.801,0.0,0.0,100.0,0.0,0.0,0.0,0.0,3146.285714285714,3307.8,3928.25,4051.0,305.207,304.443,315.4425,314.9392,21.817555555555554,20.7807,22.1252,21.4742,314.999998,314.999998,324.999988,324.999988,99.55317142857143,99.51313333333333,99.5796,99.54965714285714,0.29266666666666685,-0.07933333333333326,-0.00979999999999992,0.22160000000000002,-0.04444444444444429,-0.051666666666669414,1.6564999999999999,1.6185,37.36,30.8795,39.282,35.214,54.021,38.476,63.6665,53.4875,52.376999999999995,37.414,61.937,51.5545,51.896,36.911500000000004,61.6725,50.736000000000004,-0.248,-0.14349999999999996,0.11003,0.11002,0.0,213.75333333333333,213.835,210.77666666666667,210.77666666666667,0.0,0.0
18,0.0,0.0,0.0,1.0,1.0,0.0,0.0,1.0,0.0,100.0,1.0,1.1856,26.0,0.0,0.0,0.0,59.999996,0.0,26.0,26.0,26.0,26.0,0.08888888888888902,0.2773000000000001,-0.016075000000000002,271.576,-2.5324,-2.258,-1.9609,-1.724,-215.38,215.98250000000002,190.5965,0.0,0.0,0.0,0.0,0.036666666666666514,-5.498166666666667,-5.498166666666667,-0.5424,-0.641,0.07499999999999996,0.657,68.408,0.09400000000000008,-0.2064,-0.8179999999999996,100.0,1.0,1.0,211.26999999999998,0.0,0.0,0.0,0.0,0.0,0.0,0.0,8954.9,0.0,55.0,5.0,246.24,0.0,0.0,0.0,0.0,0.0,0.0,1.0,0.0,0.9029999999999987,0.9029999999999987,0.0,0.0,0.0,55.0,616.79921,10000.0,85.000001,85.000001,85.000001,85.000001,395.0,0.0,0.0,0.0,1.0,333.33500000000004,31.998,31.998,26.352,26.352,34.0,-14.425,20.711666666666666,-24.54,32.1,0.0,1782.427,-0.0799999999999983,100.0,29.378,30.124000000000002,41.998,43.185,0.0,0.0,100.0,0.0,0.0,0.0,0.0,3161.0,3528.7,3624.5,3812.8,305.245,303.8403333333333,316.12075,315.4648,21.826333333333334,20.7869,22.1356,21.4828,314.999998,314.999998,324.999988,324.999988,99.5532,99.51315,99.57972857142857,99.5498,0.2583333333333333,-0.1116666666666668,-0.018399999999999972,0.21940000000000004,-0.0288888888888863,-0.05333333333332746,1.6894999999999998,1.662,37.414,30.918,39.347,35.268,54.024,38.5105,63.6865,53.542,52.379000000000005,37.4465,61.955,51.607,51.896,36.943,61.687,50.7875,-0.20750000000000002,-0.18999999999999995,0.10714000000000001,0.11044500000000002,0.0,214.13333333333333,214.185,211.26999999999998,211.26999999999998,0.0,0.0
19,0.0,0.0,0.0,1.0,1.0,0.0,0.0,1.0,0.0,100.0,1.0,1.1856,26.0,0.0,0.0,0.0,59.999996,0.0,26.0,26.0,26.0,26.0,0.0685555555555557,0.30590000000000006,0.062525,270.996,-2.4329,-2.379777777777778,-1.955,-1.728222222222222,-211.68,215.9725,190.572375,0.0,0.0,0.0,0.0,0.038799999999999946,-5.498166666666667,-5.498166666666667,-0.524,0.914,0.06066666666666665,0.42200000000000015,68.559,0.08289999999999997,-0.18205000000000002,-0.2839999999999998,100.0,1.0,1.0,211.61333333333334,0.0,0.0,0.0,0.0,0.0,0.0,0.0,8969.5,0.0,55.0,5.0,246.78,1.0,0.0,0.0,0.0,0.0,0.0,1.0,0.0,0.9570000000000007,0.9570000000000007,0.0,0.0,1.0,55.0,616.79921,10000.0,85.000001,85.000001,85.000001,85.000001,395.0,0.0,0.0,0.0,1.0,166.665,31.586,31.586,25.802999999999997,25.802999999999997,34.0,-14.724999999999998,20.126666666666665,-28.5925,34.775999999999996,0.0,1782.374,0.3049999999999997,100.0,29.953,30.476,41.881,42.985,0.0,0.0,100.0,0.0,0.0,0.0,0.0,3173.5714285714284,3382.2,3967.0,4171.3,305.007,304.01533333333333,315.33475,314.663,21.836444444444446,20.794,22.147100000000002,21.4924,314.999998,314.999998,324.999988,324.999988,99.55324285714286,99.51316666666666,99.57988571428571,99.54995714285714,0.23533333333333317,-0.1346666666666667,-0.039000000000000035,0.19340000000000002,-0.05222222222221973,-0.041666666666671404,1.6124999999999998,1.609,37.477000000000004,30.9625,39.419,35.3275,54.03,38.554,63.707,53.602000000000004,52.382999999999996,37.487,61.973,51.664500000000004,51.897999999999996,36.982,61.701499999999996,50.8435,-0.17300000000000004,-0.21649999999999991,0.11224500000000001,0.09764,0.0,214.69,214.69,211.61333333333334,211.61333333333334,0.0,0.0
20,0.0,0.0,0.0,1.0,1.0,0.0,0.0,1.0,0.0,100.0,1.0,1.1856,26.0,0.0,0.0,0.0,59.999996,0.0,26.0,26.0,26.0,26.0,0.02822222222222215,0.2735000000000001,0.00655,271.5455,-2.5159000000000002,-2.3471111111111114,-1.866,-1.8622222222222222,-208.39,215.965,190.551375,0.0,0.0,0.0,0.0,0.04069999999999996,-5.498166666666667,-5.498166666666667,-0.5402,-1.4446666666666668,0.04466666666666663,-0.11500000000000021,68.693,0.05469999999999997,-0.209625,0.33000000000000007,100.0,1.0,1.0,212.01,0.0,0.0,0.0,0.0,0.0,0.0,0.0,8986.4,0.0,55.0,5.0,247.26666666666665,0.0,0.0,0.0,0.0,0.0,0.0,0.0,0.0,1.004999999999999,1.004999999999999,0.0,0.0,0.0,55.0,616.79921,10000.0,85.000001,85.000001,85.000001,85.000001,395.0,0.0,0.0,0.0,1.0,333.33500000000004,32.471000000000004,32.471000000000004,25.787,25.787,34.0,-16.37,17.526666666666667,-27.0775,31.990000000000002,0.0,1782.326,0.5250000000000021,100.0,29.428,30.073999999999998,42.559,43.24,0.0,0.0,100.0,0.0,0.0,0.0,0.0,3079.5714285714284,3292.0,3738.0,3827.3,305.5175,304.4963333333333,315.72675,315.299,21.845,20.8001,22.1575,21.501,314.999998,314.999998,324.999988,324.999988,99.55325714285715,99.51318333333333,99.58001428571428,99.5501,0.20333333333333337,-0.16500000000000004,-0.06659999999999999,0.16500000000000004,-0.03999999999999915,-0.03999999999999915,1.5949999999999998,1.6044999999999998,37.531,31.000500000000002,39.485,35.381,54.028,38.591,63.7295,53.6555,52.381,37.5215,61.994,51.716,51.894,37.015,61.718,50.894,-0.15300000000000002,-0.24,0.10954000000000001,0.11223000000000001,0.0,215.05333333333334,215.025,212.01,212.01,0.0,0.0
21,0.0,0.0,0.0,1.0,1.0,0.0,0.0,1.0,0.0,100.0,1.0,1.1856,26.0,0.0,0.0,0.0,59.999996,0.0,26.0,26.0,26.0,26.0,-0.0032222222222221264,0.29679999999999995,-0.0883,271.759,-2.4538,-2.429333333333333,-1.9087,-1.8402222222222222,-205.09,215.96,190.5295,0.0,0.0,0.0,0.0,0.0426333333333333,-5.498166666666667,-5.498166666666667,-0.5569000000000001,0.834,0.004444444444444251,-0.2520000000000002,68.821,0.014900000000000135,-0.19390000000000002,0.6280000000000001,100.0,1.0,1.0,212.64666666666668,0.0,0.0,0.0,0.0,0.0,0.0,0.0,9013.3,0.0,55.0,5.0,247.72333333333336,1.0,0.0,0.0,0.0,0.0,0.0,0.0,0.0,1.0530000000000008,1.0530000000000008,0.0,0.0,1.0,55.0,616.79921,10000.0,85.000001,85.000001,85.000001,85.000001,395.0,0.0,0.0,0.0,1.0,333.33500000000004,32.028,32.028,26.794,26.794,34.0,-17.58,17.715,-28.75,27.86,0.0,1782.278,0.4250000000000007,100.0,29.963,30.009,41.971000000000004,42.423,0.0,0.0,100.0,0.0,0.0,0.0,0.0,3233.0,3256.7,3750.25,3692.4,304.944,304.51866666666666,315.9105,315.804,21.854,20.8063,22.1676,21.5092,314.999998,314.999998,324.999988,324.999988,99.55328571428572,99.5132,99.58015714285715,99.55022857142858,0.18700000000000006,-0.17566666666666664,-0.10960000000000003,0.12559999999999993,-0.05000000000000071,-0.04833333333333201,1.7145000000000001,1.7424999999999997,37.587,31.0395,39.548,35.4325,54.03,38.6305,63.745,53.703,52.382,37.5585,62.007,51.7615,51.893,37.051,61.7285,50.9385,-0.15949999999999998,-0.22950000000000004,0.10855000000000001,0.10471000000000001,0.0,215.52333333333334,215.45499999999998,212.64666666666668,212.64666666666668,0.0,0.0
22,0.0,0.0,0.0,1.0,1.0,0.0,0.0,1.0,0.0,100.0,1.0,1.1856,26.0,0.0,0.0,0.0,59.999996,0.0,26.0,26.0,26.0,26.0,-0.048222222222222166,0.26350000000000007,0.01485,271.2095,-2.3696,-2.4485555555555556,-1.8958,-1.8472222222222223,-201.57,215.9525,190.5055,0.0,0.0,0.0,0.0,0.04466666666666652,-5.498166666666667,-5.498166666666667,-0.5395,-0.27366666666666667,-0.004555555555555646,-0.7160000000000002,68.965,-0.017100000000000004,-0.189,0.7599999999999998,100.0,1.0,1.0,212.82,0.0,0.0,0.0,0.0,0.0,0.0,0.0,9020.7,0.0,55.0,5.0,248.24666666666667,0.0,0.0,0.0,0.0,0.0,0.0,0.0,0.0,1.1039999999999992,1.1039999999999992,0.0,0.0,0.0,55.0,616.79921,10000.0,85.000001,85.000001,85.000001,85.000001,395.0,0.0,0.0,0.0,1.0,333.33500000000004,32.089,32.089,25.695999999999998,25.695999999999998,34.0,-17.8125,15.5,-33.4,28.828,0.0,1782.225,0.365000000000002,100.0,30.055,30.076,42.762,42.804,0.0,0.0,100.0,0.0,0.0,0.0,0.0,3228.142857142857,3132.1,3952.0,3912.4,305.0445,304.725,315.37375,315.1748,21.863444444444443,20.8128,22.1788,21.5183,314.999998,314.999998,324.999988,324.999988,99.55331428571428,99.51323333333333,99.58031428571428,99.55038571428571,0.16199999999999992,-0.21333333333333315,-0.15679999999999994,0.08400000000000007,-0.041111111111113985,-0.03999999999999915,1.5785,1.609,37.647,31.08,39.617000000000004,35.4895,54.03,38.675,63.7715,53.7625,52.381,37.5995,62.031,51.8185,51.891,37.0905,61.749,50.9935,-0.17449999999999988,-0.22049999999999992,0.109835,0.11025000000000001,0.0,215.94666666666666,215.87,212.82,212.82,0.0,0.0
23,0.0,0.0,0.0,1.0,1.0,0.0,0.0,1.0,0.0,100.0,1.0,1.1856,26.0,0.0,0.0,0.0,59.999996,0.0,26.0,26.0,26.0,26.0,-0.056333333333333346,0.2558,-0.043025,271.4845,-2.3805,-2.4184444444444444,-1.9291,-1.9184444444444444,-198.05,215.9425,190.482125,0.0,0.0,0.0,0.0,0.04673333333333329,-5.498166666666667,-5.498166666666667,-0.5623,0.001,-0.020777777777778006,0.35599999999999987,69.101,-0.03420000000000001,-0.21615,0.7640000000000002,100.0,1.0,1.0,213.4766666666667,0.0,0.0,0.0,0.0,0.0,0.0,0.0,9048.5,0.0,55.0,5.0,248.73666666666668,1.0,0.0,0.0,0.0,0.0,0.0,0.0,0.0,1.1550000000000011,1.1550000000000011,0.0,0.0,1.0,55.0,616.79921,10000.0,85.000001,85.000001,85.000001,85.000001,395.0,0.0,0.0,0.0,1.0,166.665,31.418,31.418,27.115000000000002,27.115000000000002,34.0,-19.7625,15.916666666666668,-29.52,25.652,0.0,1782.177,0.3000000000000007,100.0,30.607,29.862000000000002,42.786,42.541,0.0,0.0,100.0,0.0,0.0,0.0,0.0,3412.4285714285716,3287.6,3592.625,3526.2,304.3335,304.502,316.2915,316.1106,21.873,20.8193,22.1897,21.5273,314.999998,314.999998,324.999988,324.999988,99.55334285714285,99.51326666666667,99.58045714285714,99.55052857142857,0.15266666666666673,-0.21266666666666678,-0.15679999999999994,0.07979999999999987,-0.04777777777777814,-0.054999999999999716,1.6885,1.7065000000000001,37.706,31.121000000000002,39.686,35.545500000000004,54.031,38.716,63.791,53.8115,52.381,37.638,62.049,51.8655,51.888999999999996,37.1275,61.763,51.039500000000004,-0.17249999999999988,-0.22150000000000003,0.103955,0.10723,0.0,216.34666666666666,216.305,213.4766666666667,213.4766666666667,0.0,0.0
24,0.0,0.0,0.0,1.0,1.0,0.0,0.0,1.0,0.0,100.0,1.0,1.1856,26.0,0.0,0.0,0.0,59.999996,0.0,26.0,26.0,26.0,26.0,-0.07133333333333336,0.2955000000000001,-0.057600000000000005,271.6065,-2.4002,-2.4304444444444444,-1.8487,-1.864888888888889,-194.73000000000002,215.9325,190.459375,0.0,0.0,0.0,0.0,0.048666666666666525,-5.498166666666667,-5.498166666666667,-0.5618000000000001,-0.7576666666666666,-0.015111111111111075,0.786,69.235,-0.0413,-0.19390000000000002,0.5779999999999994,100.0,1.0,1.0,213.67333333333335,0.0,0.0,0.0,0.0,0.0,0.0,0.0,9056.8,0.0,55.0,5.0,249.21666666666667,0.0,0.0,0.0,0.0,0.0,0.0,0.0,0.0,1.2029999999999994,1.2029999999999994,0.0,0.0,0.0,55.0,616.79921,10000.0,85.000001,85.000001,85.000001,85.000001,395.0,0.0,0.0,0.0,1.0,166.665,32.684,32.684,25.833,25.833,34.0,-17.482499999999998,14.298333333333332,-33.144999999999996,27.116,0.0,1782.129,0.23499999999999943,100.0,30.268,29.545,42.987,42.408,0.0,0.0,100.0,0.0,0.0,0.0,0.0,3057.4285714285716,3096.0,3944.625,3810.1000000000004,305.501,305.12,315.29625,315.4792,21.881777777777778,20.8253,22.2001,21.5357,314.999998,314.999998,324.999988,324.999988,99.55335714285714,99.51328333333333,99.58058571428572,99.55067142857143,0.15300000000000002,-0.2266666666666668,-0.16620000000000001,0.06580000000000008,-0.0288888888888863,-0.03999999999999915,1.621,1.6355,37.760999999999996,31.158,39.75,35.5985,54.028999999999996,38.754,63.8135,53.8615,52.378,37.6735,62.069,51.9135,51.885,37.161500000000004,61.78,51.085499999999996,-0.18249999999999988,-0.22049999999999992,0.10575000000000001,0.10712,0.0,216.75666666666666,216.695,213.67333333333335,213.67333333333335,0.0,0.0
25,0.0,0.0,0.0,1.0,1.0,0.0,0.0,1.0,0.0,100.0,1.0,1.1856,26.0,0.0,0.0,0.0,59.999996,0.0,26.0,26.0,26.0,26.0,-0.06977777777777783,0.2693000000000001,-0.029425,271.1945,-2.4481,-2.4066666666666667,-1.8479,-1.8797777777777778,-190.99,215.9225,190.432125,0.0,0.0,0.0,0.0,0.0508333333333334,-5.498166666666667,-5.498166666666667,-0.5971000000000001,0.40066666666666667,-0.027000000000000135,-0.274,69.377,-0.045499999999999985,-0.20322500000000002,0.5460000000000003,100.0,1.0,1.0,214.31,0.0,0.0,0.0,0.0,0.0,0.0,0.0,9083.9,0.0,55.0,5.0,249.73000000000002,1.0,0.0,0.0,0.0,0.0,0.0,0.0,0.0,1.256999999999998,1.256999999999998,0.0,0.0,1.0,55.0,616.79921,10000.0,85.000001,85.000001,85.000001,85.000001,395.0,0.0,0.0,0.0,1.0,166.665,30.975,30.975,26.688000000000002,26.688000000000002,34.0,-21.185,16.883333333333333,-29.675,26.012,0.0,1782.075,0.14499999999999957,100.0,30.561,29.943,42.696,42.05,0.0,0.0,100.0,0.0,0.0,0.0,0.0,3541.5714285714284,3518.5,3662.0,3672.4,304.1015,303.843,316.07875,315.834,21.891777777777776,20.8323,22.2115,21.545099999999998,314.999998,314.999998,324.999988,324.999988,99.55337142857142,99.51331666666667,99.58074285714285,99.55081428571428,0.1543333333333332,-0.21599999999999997,-0.1634,0.07159999999999989,-0.03666666666666529,-0.05333333333332746,1.6949999999999998,1.718,37.823,31.201999999999998,39.822,35.657,54.027,38.801,63.8335,53.914500000000004,52.376000000000005,37.717,62.087,51.9645,51.881,37.2035,61.7945,51.135,-0.1864999999999999,-0.21250000000000013,0.112185,0.10498500000000001,0.0,217.20666666666665,217.17000000000002,214.31,214.31,0.0,0.0
26,0.0,0.0,0.0,1.0,1.0,0.0,0.0,1.0,0.0,100.0,1.0,1.1856,26.0,0.0,0.0,0.0,59.999996,0.0,26.0,26.0,26.0,26.0,-0.06377777777777782,0.2945,0.120725,270.233,-2.4031000000000002,-2.4844444444444447,-1.9004,-1.8736666666666668,-187.66,215.91,190.407875,0.0,0.0,0.0,0.0,0.05276666666666652,-5.498166666666667,-5.498166666666667,-0.555,0.339,-0.04066666666666663,0.9049999999999998,69.512,-0.04239999999999999,-0.18837500000000001,0.2679999999999998,100.0,1.0,1.0,214.35666666666668,0.0,0.0,0.0,0.0,0.0,0.0,0.0,9085.8,0.0,55.0,5.0,250.21333333333334,0.0,0.0,0.0,0.0,0.0,0.0,0.0,0.0,1.3049999999999997,1.3049999999999997,0.0,0.0,0.0,55.0,616.79921,10000.0,85.000001,85.000001,85.000001,85.000001,395.0,0.0,0.0,0.0,1.0,166.665,31.097,31.097,24.826,24.826,34.0,-18.435,16.59,-36.8725,31.356,0.0,1782.027,-0.019999999999999574,100.0,31.299,30.362000000000002,43.449,42.567,0.0,0.0,100.0,0.0,0.0,0.0,0.0,3294.857142857143,3249.5,4247.625,4207.6,304.615,304.5536666666667,314.64075,314.5642,21.90088888888889,20.8386,22.222,21.5537,314.999998,314.999998,324.999988,324.999988,99.55338571428571,99.51335,99.58088571428571,99.55095714285714,0.16999999999999993,-0.20999999999999996,-0.15700000000000003,0.0706,-0.03333333333333499,-0.04333333333332945,1.5310000000000001,1.5350000000000001,37.879999999999995,31.241500000000002,39.888,35.710499999999996,54.03,38.8435,63.8585,53.9675,52.378,37.757,62.11,52.015,51.881,37.2415,61.814,51.184,-0.2044999999999999,-0.1995,0.11121500000000001,0.10459,0.0,217.62333333333333,217.60000000000002,214.35666666666668,214.35666666666668,0.0,0.0
27,0.0,0.0,0.0,1.0,1.0,0.0,0.0,1.0,0.0,100.0,1.0,1.1856,26.0,0.0,0.0,0.0,59.999996,0.0,26.0,26.0,26.0,26.0,-0.03722222222222216,0.25660000000000016,-0.067175,271.286,-2.3737000000000004,-2.4464444444444444,-1.8885,-1.9382222222222223,-184.32,215.89499999999998,190.385125,0.0,0.0,0.0,0.0,0.05469999999999997,-5.498166666666667,-5.498166666666667,-0.5964,-1.0093333333333334,-0.03777777777777791,0.48099999999999987,69.637,-0.034399999999999986,-0.24400000000000002,0.15600000000000058,100.0,1.0,1.0,215.07999999999998,0.0,0.0,0.0,0.0,0.0,0.0,0.0,9116.5,0.0,55.0,5.0,250.67000000000002,1.0,0.0,0.0,0.0,0.0,0.0,0.0,0.0,1.352999999999998,1.352999999999998,0.0,0.0,1.0,55.0,616.79921,10000.0,85.000001,85.000001,85.000001,85.000001,395.0,0.0,0.0,0.0,1.0,166.665,31.494,31.494,26.259999999999998,26.259999999999998,34.0,-17.215,16.876666666666665,-28.205,25.912,0.0,1781.979,-0.05999999999999872,100.0,30.891,30.139,43.552,42.774,0.0,0.0,100.0,0.0,0.0,0.0,0.0,3220.5714285714284,3318.2,3523.5,3499.5,304.959,304.42466666666667,316.2785,316.186,21.909666666666666,20.8448,22.2324,21.5622,314.999998,314.999998,324.999988,324.999988,99.55341428571428,99.51336666666667,99.58102857142858,99.5511,0.17666666666666675,-0.20300000000000007,-0.14279999999999993,0.08540000000000014,-0.0466666666666633,-0.05666666666667197,1.682,1.6934999999999998,37.935,31.28,39.952,35.763999999999996,54.028999999999996,38.884,63.879,54.0165,52.376999999999995,37.794,62.128,52.062,51.878,37.2775,61.829,51.2295,-0.20899999999999985,-0.19450000000000012,0.107785,0.1062,0.0,217.98666666666668,217.95499999999998,215.07999999999998,215.07999999999998,0.0,0.0
28,0.0,0.0,0.0,1.0,1.0,0.0,0.0,1.0,0.0,100.0,1.0,1.1856,26.0,0.0,0.0,0.0,59.999996,0.0,26.0,26.0,26.0,26.0,-0.028444444444444383,0.28190000000000004,-0.01225,271.0875,-2.3664,-2.427777777777778,-1.8698000000000001,-1.8682222222222222,-180.55,215.88,190.357625,0.0,0.0,0.0,0.0,0.05689999999999995,-5.498166666666667,-5.498166666666667,-0.5793,0.7246666666666667,-0.0341111111111112,0.948,69.782,-0.023699999999999943,-0.18175,0.0420000000000007,100.0,1.0,1.0,215.39333333333332,0.0,0.0,0.0,0.0,0.0,0.0,0.0,9129.8,0.0,55.0,5.0,251.18666666666667,0.0,0.0,0.0,0.0,0.0,0.0,0.0,0.0,1.407,1.407,0.0,0.0,0.0,55.0,616.79921,10000.0,85.000001,85.000001,85.000001,85.000001,395.0,0.0,0.0,0.0,1.0,166.665,31.753999999999998,31.753999999999998,25.894,25.894,34.0,-16.5125,16.98,-32.1425,29.451999999999998,0.0,1781.925,-0.11499999999999844,100.0,30.809,29.995,42.867000000000004,42.298,0.0,0.0,100.0,0.0,0.0,0.0,0.0,3178.714285714286,3245.4,3963.625,3956.1000000000004,305.0255,304.62833333333333,315.414,315.2012,21.919666666666668,20.8518,22.2438,21.5716,314.999998,314.999998,324.999988,324.999988,99.55344285714285,99.5134,99.58118571428571,99.55124285714285,0.18533333333333335,-0.18833333333333324,-0.14060000000000006,0.09060000000000001,-0.027777777777778567,-0.05666666666667197,1.6309999999999998,1.649,37.998000000000005,31.3235,40.024,35.8225,54.031,38.9285,63.899,54.070499999999996,52.378,37.835499999999996,62.146,52.1135,51.876999999999995,37.317499999999995,61.8435,51.2795,-0.20750000000000002,-0.1885000000000001,0.10699000000000002,0.09801000000000001,0.0,218.46333333333334,218.465,215.39333333333332,215.39333333333332,0.0,0.0
29,0.0,0.0,0.0,1.0,1.0,0.0,0.0,1.0,0.0,100.0,1.0,1.1856,26.0,0.0,0.0,0.0,59.999996,0.0,26.0,26.0,26.0,26.0,-0.004444444444444473,0.24780000000000002,-0.030375000000000003,271.0725,-2.363,-2.4658888888888892,-1.8502,-1.8664444444444444,-176.99,215.8625,190.331125,0.0,0.0,0.0,0.0,0.05896666666666661,-5.498166666666667,-5.498166666666667,-0.6056,-0.924,-0.026111111111111196,-0.54,69.919,-0.01429999999999998,-0.22237500000000002,-0.036000000000000476,100.0,1.0,1.0,215.81,0.0,0.0,0.0,0.0,0.0,0.0,0.0,9147.4,0.0,55.0,5.0,251.68333333333334,1.0,0.0,0.0,0.0,0.0,0.0,0.0,0.0,1.4579999999999984,1.4579999999999984,0.0,0.0,1.0,55.0,616.79921,10000.0,85.000001,85.000001,85.000001,85.000001,395.0,0.0,0.0,0.0,1.0,166.665,31.464,31.464,26.259999999999998,26.259999999999998,34.0,-17.905,17.28333333333333,-28.9175,28.594,0.0,1781.873,-0.21000000000000085,100.0,30.402,30.226,43.136,42.808,0.0,0.0,100.0,0.0,0.0,0.0,0.0,3423.285714285714,3221.4,3683.5,3748.4,304.545,304.47,315.9745,315.546,21.929,20.8583,22.2548,21.5808,314.999998,314.999998,324.999988,324.999988,99.55347142857143,99.51343333333334,99.58132857142857,99.5514,0.18233333333333324,-0.19133333333333313,-0.12839999999999996,0.10620000000000007,-0.03777777777777658,-0.030000000000001137,1.6139999999999999,1.625,38.056,31.3645,40.093,35.879999999999995,54.031,38.97,63.922,54.125,52.376999999999995,37.874,62.167,52.166,51.873999999999995,37.3545,61.8605,51.3305,-0.21699999999999986,-0.1795,0.10244500000000001,0.11689500000000001,0.0,218.84333333333336,218.82,215.81,215.81,0.0,0.0
30,0.0,0.0,0.0,1.0,1.0,0.0,0.0,1.0,0.0,100.0,1.0,1.1856,26.0,0.0,0.0,0.0,59.999996,0.0,26.0,26.0,26.0,26.0,0.0012222222222222356,0.27070000000000016,0.0364,270.6145,-2.38,-2.354222222222222,-1.8250000000000002,-1.920111111111111,-173.84,215.8475,190.30775,0.0,0.0,0.0,0.0,0.060799999999999965,-5.498166666666667,-5.498166666666667,-0.5891000000000001,1.0913333333333333,-0.022222222222222143,0.9369999999999998,70.037,-0.005499999999999949,-0.200325,-0.16199999999999992,100.0,1.0,1.0,216.20333333333332,0.0,0.0,0.0,0.0,0.0,0.0,0.0,9164.0,0.0,55.0,5.0,252.10333333333335,0.0,0.0,0.0,0.0,0.0,0.0,1.0,0.0,1.5030000000000001,1.5030000000000001,0.0,0.0,0.0,55.0,616.79921,10000.0,85.000001,85.000001,85.000001,85.000001,395.0,0.0,0.0,0.0,1.0,333.33500000000004,30.624,30.624,26.169,26.169,34.0,-16.7525,17.43333333333333,-29.2375,30.240000000000002,0.0,1781.828,-0.25,100.0,31.373,30.771,42.88,42.63,0.0,0.0,100.0,0.0,0.0,0.0,0.0,3390.5714285714284,3320.8,3826.75,3814.0,304.3535,304.33866666666665,315.66025,315.448,21.937444444444445,20.8644,22.2643,21.5887,314.999998,314.999998,324.999988,324.999988,99.5535,99.51345,99.58145714285715,99.55152857142858,0.20866666666666678,-0.17399999999999993,-0.11499999999999999,0.11820000000000008,-0.03666666666666529,-0.04999999999999716,1.6389999999999998,1.6334999999999997,38.108999999999995,31.4025,40.152,35.9295,54.036,39.0095,63.938,54.171,52.382,37.911,62.182,52.21,51.876999999999995,37.3895,61.872,51.373,-0.22550000000000003,-0.18199999999999994,0.11238500000000001,0.111295,0.0,219.26666666666665,219.255,216.20333333333332,216.20333333333332,0.0,0.0
31,0.0,0.0,0.0,1.0,1.0,0.0,0.0,1.0,0.0,100.0,1.0,1.1856,26.0,0.0,0.0,0.0,59.999996,0.0,26.0,26.0,26.0,26.0,0.020444444444444487,0.26580000000000004,0.01785,270.401,-2.4859,-2.3334444444444444,-1.8701,-1.9171111111111112,-170.05,215.82999999999998,190.2805,0.0,0.0,0.0,0.0,0.06299999999999994,-5.498166666666667,-5.498166666666667,-0.5912000000000001,-0.8356666666666667,-0.016111111111110965,0.367,70.182,0.013500000000000068,-0.22862500000000002,-0.3520000000000003,100.0,1.0,1.0,216.57333333333332,0.0,0.0,0.0,0.0,0.0,0.0,0.0,9179.7,0.0,55.0,5.0,252.62666666666667,1.0,0.0,0.0,0.0,0.0,0.0,1.0,0.0,1.5569999999999986,1.5569999999999986,0.0,0.0,1.0,55.0,616.79921,10000.0,85.000001,85.000001,85.000001,85.000001,395.0,0.0,0.0,0.0,1.0,166.665,30.563,30.563,25.269,25.269,34.0,-17.34,19.310000000000002,-28.6125,31.688000000000002,0.0,1781.775,-0.23000000000000043,100.0,30.963,30.842,43.484,43.278,0.0,0.0,100.0,0.0,0.0,0.0,0.0,3359.714285714286,3580.8,3760.625,3854.5,304.6655,303.68733333333336,315.78925,315.4066,21.947333333333333,20.8716,22.276,21.5985,314.999998,314.999998,324.999988,324.999988,99.55352857142857,99.51346666666667,99.58161428571428,99.55168571428571,0.21333333333333337,-0.16199999999999992,-0.10079999999999989,0.1412,-0.027777777777778567,-0.03833333333332689,1.6295000000000002,1.6015000000000001,38.171,31.447499999999998,40.224999999999994,35.991,54.038,39.054,63.963499999999996,54.230000000000004,52.382999999999996,37.953,62.204,52.2665,51.876000000000005,37.43,61.8905,51.428,-0.22099999999999986,-0.1815,0.11354000000000002,0.106605,0.0,219.61666666666667,219.65,216.57333333333332,216.57333333333332,0.0,0.0
32,0.0,0.0,0.0,1.0,1.0,0.0,0.0,1.0,0.0,100.0,1.0,1.1856,26.0,0.0,0.0,0.0,59.999996,0.0,26.0,26.0,26.0,26.0,0.022777777777777786,0.28500000000000014,-0.0327,270.706,-2.396,-2.441222222222222,-1.8688,-1.8204444444444443,-166.68,215.815,190.256125,0.0,0.0,0.0,0.0,0.0649666666666665,-5.498166666666667,-5.498166666666667,-0.6005,0.28500000000000003,-0.035777777777777686,0.6040000000000001,70.306,0.022900000000000142,-0.21602500000000002,-0.37399999999999967,100.0,1.0,1.0,217.00666666666666,0.0,0.0,0.0,0.0,0.0,0.0,0.0,9198.1,0.0,55.0,5.0,253.07333333333332,0.0,0.0,0.0,0.0,0.0,0.0,1.0,0.0,1.6050000000000004,1.6050000000000004,0.0,0.0,0.0,55.0,616.79921,10000.0,85.000001,85.000001,85.000001,85.000001,395.0,0.0,0.0,0.0,1.0,333.33500000000004,31.158,31.158,25.833,25.833,34.0,-15.377500000000001,19.09,-28.21,31.992,0.0,1781.725,-0.23999999999999844,100.0,30.912,30.829,42.991,42.926,0.0,0.0,100.0,0.0,0.0,0.0,0.0,3256.0,3299.7,3808.5,3982.0,304.796,304.4286666666667,315.6595,315.1536,21.956222222222223,20.8779,22.2861,21.607,314.999998,314.999998,324.999988,324.999988,99.55355714285714,99.5135,99.58175714285714,99.55182857142857,0.22366666666666668,-0.15599999999999992,-0.08460000000000001,0.15280000000000005,-0.0288888888888863,-0.04999999999999716,1.6589999999999998,1.6475,38.226,31.487000000000002,40.288,36.0435,54.041,39.093,63.980000000000004,54.278,52.385,37.989,62.219,52.3125,51.876999999999995,37.465,61.9025,51.4725,-0.21649999999999991,-0.1865000000000001,0.11189,0.10695500000000001,0.0,220.04333333333335,220.07999999999998,217.00666666666666,217.00666666666666,0.0,0.0
33,0.0,0.0,0.0,1.0,1.0,0.0,0.0,1.0,0.0,100.0,1.0,1.1856,26.0,0.0,0.0,0.0,59.999996,0.0,26.0,26.0,26.0,26.0,0.04555555555555557,0.26370000000000005,-0.031875,270.8895,-2.4482,-2.4155555555555557,-1.8818000000000001,-1.8928888888888888,-163.3,215.8,190.230625,0.0,0.0,0.0,0.0,0.0669333333333334,-5.498166666666667,-5.498166666666667,-0.6097,-0.56,-0.01855555555555588,1.259,70.432,0.027800000000000047,-0.21072500000000002,-0.33000000000000007,100.0,1.0,1.0,217.34,0.0,0.0,0.0,0.0,0.0,0.0,0.0,9212.2,0.0,55.0,5.0,253.53,1.0,0.0,0.0,0.0,0.0,0.0,1.0,0.0,1.6529999999999987,1.6529999999999987,0.0,0.0,1.0,55.0,616.79921,10000.0,85.000001,85.000001,85.000001,85.000001,395.0,0.0,0.0,0.0,1.0,333.33500000000004,31.479,31.479,25.986,25.986,34.0,-15.2575,19.02166666666667,-27.765,32.516,0.0,1781.677,-0.2749999999999986,100.0,30.637999999999998,30.576999999999998,42.999,43.088,0.0,0.0,100.0,0.0,0.0,0.0,0.0,3225.714285714286,3280.6,3733.5,3909.6000000000004,304.987,304.51433333333335,315.82175,315.2112,21.96488888888889,20.8841,22.2963,21.6156,314.999998,314.999998,324.999988,324.999988,99.55358571428572,99.51351666666666,99.58191428571429,99.55198571428572,0.2326666666666668,-0.14866666666666672,-0.08320000000000005,0.15100000000000002,-0.03999999999999915,-0.036666666666668846,1.6364999999999998,1.5985,38.281,31.5255,40.352000000000004,36.097,54.044,39.1315,63.9995,54.332,52.387,38.025,62.237,52.3645,51.876000000000005,37.4995,61.9165,51.522999999999996,-0.22499999999999987,-0.17999999999999994,0.110255,0.108935,0.0,220.43333333333334,220.445,217.34,217.34,0.0,0.0
34,0.0,0.0,0.0,1.0,1.0,0.0,0.0,1.0,0.0,100.0,1.0,1.1856,26.0,0.0,0.0,0.0,59.999996,0.0,26.0,26.0,26.0,26.0,0.028888888888888964,0.2574000000000001,-0.08615,271.3165,-2.4778000000000002,-2.3383333333333334,-1.9481000000000002,-1.821888888888889,-159.70999999999998,215.785,190.2025,0.0,0.0,0.0,0.0,0.06899999999999995,-5.498166666666667,-5.498166666666667,-0.6422,-0.748,0.009777777777777885,0.02499999999999991,70.564,0.03249999999999997,-0.2195,-0.3099999999999996,100.0,1.0,1.0,217.83333333333331,0.0,0.0,0.0,0.0,0.0,0.0,0.0,9233.1,0.0,55.0,5.0,254.00666666666666,0.0,0.0,0.0,0.0,0.0,0.0,1.0,0.0,1.7040000000000006,1.7040000000000006,0.0,0.0,0.0,55.0,616.79921,10000.0,85.000001,85.000001,85.000001,85.000001,395.0,0.0,0.0,0.0,1.0,333.33500000000004,31.921,31.921,26.474,26.474,34.0,-15.607499999999998,17.549999999999997,-27.7725,30.048000000000002,0.0,1781.626,-0.25,100.0,30.259,30.503,42.621,43.157,0.0,0.0,100.0,0.0,0.0,0.0,0.0,3167.142857142857,3188.3,3676.75,3777.9,305.227,304.67566666666664,316.086,315.567,21.974222222222224,20.8907,22.3069,21.6246,314.999998,314.999998,324.999988,324.999988,99.55361428571429,99.51353333333333,99.58204285714285,99.55211428571428,0.22433333333333327,-0.15266666666666673,-0.08579999999999999,0.15300000000000002,-0.053333333333334565,-0.045000000000001705,1.6720000000000002,1.6759999999999997,38.339,31.566499999999998,40.418,36.153999999999996,54.046,39.167500000000004,64.0155,54.3825,52.388,38.0585,62.251,52.413,51.876000000000005,37.5315,61.9265,51.57,-0.22150000000000003,-0.17399999999999993,0.102855,0.11467500000000001,0.0,220.83666666666664,220.845,217.83333333333331,217.83333333333331,0.0,0.0
35,0.0,0.0,0.0,1.0,1.0,0.0,0.0,1.0,0.0,100.0,1.0,1.1856,26.0,0.0,0.0,0.0,59.999996,0.0,26.0,26.0,26.0,26.0,0.030888888888888966,0.2652000000000001,-0.082225,271.0265,-2.4455,-2.3676666666666666,-1.9142000000000001,-1.8155555555555556,-156.11,215.76999999999998,190.171875,0.0,0.0,0.0,0.0,0.07109999999999994,-5.498166666666667,-5.498166666666667,-0.6735,-0.0003333333333333333,-0.011666666666666714,-0.33099999999999996,70.695,0.03980000000000006,-0.21122500000000002,-0.4379999999999997,100.0,1.0,1.0,218.28,0.0,0.0,0.0,0.0,0.0,0.0,0.0,9252.1,0.0,55.0,5.0,254.47666666666666,1.0,0.0,0.0,0.0,0.0,0.0,1.0,0.0,1.754999999999999,1.754999999999999,0.0,0.0,1.0,55.0,616.79921,10000.0,85.000001,85.000001,85.000001,85.000001,395.0,0.0,0.0,0.0,1.0,166.665,31.036,31.036,25.97,25.97,34.0,-15.614999999999998,20.991666666666667,-26.1325,29.038,0.0,1781.576,-0.16499999999999915,100.0,30.29,30.785,42.567,42.709,0.0,0.0,100.0,0.0,0.0,0.0,0.0,3248.0,3604.4,3615.5,3672.1000000000004,304.928,303.55266666666665,316.15775,315.8508,21.98322222222222,20.8975,22.3176,21.633499999999998,314.999998,314.999998,324.999988,324.999988,99.55364285714286,99.51355,99.5822,99.55227142857143,0.2273333333333334,-0.1419999999999999,-0.06820000000000004,0.1554000000000002,-0.03888888888888786,-0.05833333333333002,1.6909999999999998,1.6724999999999999,38.394999999999996,31.6095,40.485,36.2095,54.046,39.208,64.033,54.432,52.388,38.0965,62.266,52.461,51.873999999999995,37.568,61.939,51.6165,-0.21299999999999986,-0.1895,0.10754000000000001,0.10007,0.0,221.23666666666668,221.255,218.28,218.28,0.0,0.0
