,ABS Active,ABS Enabled,AID Allow Tire Blankets,AID Auto Blip,AID Auto Clutch,AID Auto Shift,AID Fuel Rate,AID Ideal Line,AID Mech Damage,AID Stability,AID Tire Wear Rate,Air Density,Air Temp,Ballast,Best Lap Delta,Best Lap Time,Brake Bias,Brake Pos,Brake Temp FL,Brake Temp FR,Brake Temp RL,Brake Temp RR,CG Accel Lateral,CG Accel Longitudinal,CG Accel Vertical,CG Height,Camber FL,Camber FR,Camber RL,Camber RR,Car Coord X,Car Coord Y,Car Coord Z,Car Damage Front,Car Damage Left,Car Damage Rear,Car Damage Right,Car Pos Norm,Caster FL,Caster FR,Chassis Pitch Angle,Chassis Pitch Rate,Chassis Roll Angle,Chassis Roll Rate,Chassis Velocity X,Chassis Velocity Y,Chassis Velocity Z,Chassis Yaw Rate,Clutch Pos,DRS Active,DRS Available,Drive Train Speed,ERS Heat Charging,ERS Is Charging,ERS Max Energy,ERS Power Level,ERS Recovery Level,Engine Brake Setting,Engine Limiter,Engine RPM,Flags,Fuel Level,Gear,Ground Speed,HR Sample Clock,In Pit,KERS Charge,KERS Deployed Energy,KERS Input,KERS Max Energy,LR Sample Clock,Lap Invalidated,Lap Time,Lap Time2,Last Lap Time,Last Sector Time,MR Sample Clock,Max Fuel,Max Power,Max RPM,Max Sus Travel FL,Max Sus Travel FR,Max Sus Travel RL,Max Sus Travel RR,Max Torque,Max Turbo Boost,Num Tires Off Track,Penalties Enabled,Position,Raw Data Sample Rate,Ride Height FL,Ride Height FR,Ride Height RL,Ride Height RR,Road Temp,Self Align Torque FL,Self Align Torque FR,Self Align Torque RL,Self Align Torque RR,Session Lap Count,Session Time Left,Steering Angle,Surface Grip,Suspension Travel FL,Suspension Travel FR,Suspension Travel RL,Suspension Travel RR,TC Active,TC Enabled,Throttle Pos,Tire Dirt Level FL,Tire Dirt Level FR,Tire Dirt Level RL,Tire Dirt Level RR,Tire Load FL,Tire Load FR,Tire Load RL,Tire Load RR,Tire Loaded Radius FL,Tire Loaded Radius FR,Tire Loaded Radius RL,Tire Loaded Radius RR,Tire Pressure FL,Tire Pressure FR,Tire Pressure RL,Tire Pressure RR,Tire Radius FL,Tire Radius FR,Tire Radius RL,Tire Radius RR,Tire Rubber Grip FL,Tire Rubber Grip FR,Tire Rubber Grip RL,Tire Rubber Grip RR,Tire Slip Angle FL,Tire Slip Angle FR,Tire Slip Angle RL,Tire Slip Angle RR,Tire Slip Ratio FL,Tire Slip Ratio FR,Tire Slip Ratio RL,Tire Slip Ratio RR,Tire Temp Core FL,Tire Temp Core FR,Tire Temp Core RL,Tire Temp Core RR,Tire Temp Inner FL,Tire Temp Inner FR,Tire Temp Inner RL,Tire Temp Inner RR,Tire Temp Middle FL,Tire Temp Middle FR,Tire Temp Middle RL,Tire Temp Middle RR,Tire Temp Outer FL,Tire Temp Outer FR,Tire Temp Outer RL,Tire Temp Outer RR,Toe In FL,Toe In FR,Toe In RL,Toe In RR,Turbo Boost,Wheel Angular Speed FL,Wheel Angular Speed FR,Wheel Angular Speed RL,Wheel Angular Speed RR,Wind Direction,Wind Speed
0,0.0,0.0,0.0,1.0,1.0,0.0,0.0,1.0,0.0,100.0,1.0,1.1856,26.0,0.0,0.0,0.0,59.99999,0.0,26.0,26.0,26.0,26.0,-0.059250000000000025,0.29059999999999997,0.142025,279.663,-2.5413,-2.4459999999999997,-1.7206000000000001,-1.7182222222222223,-275.76,215.76,190.974125,0.0,0.0,0.0,0.0,0.0015333333333333334,-5.498166666666667,-5.498166666666667,-0.5626,1.3195000000000001,-0.0058888888888888324,-0.52,65.655,-0.02939999999999998,-0.21126,0.4299999999999997,100.0,1.0,1.0,202.83666666666667,0.0,0.0,0.0,0.0,0.0,0.0,0.0,8597.5,0.0,55.0,5.0,236.32666666666665,0.0,0.0,0.0,0.0,0.0,0.0,0.0,0.0,0.0030000000000001137,0.0030000000000001137,0.0,0.0,0.0,55.0,616.79921,10000.0,85.0,85.0,85.0,85.0,395.0,0.0,0.0,0.0,1.0,20.0,37.598,37.598,35.385,35.385,34.0,-26.54,24.79,-29.355,25.932,0.0,1783.501,0.5899999999999999,100.0,22.099,22.029,31.805,31.603,0.0,0.0,100.0,0.0,0.0,0.0,0.0,3599.75,4386.1,3860.375,3821.9,303.8396666666667,301.395,315.555,315.3275,21.682333333333332,20.6263,21.8953,21.3229,314.99999,314.99999,324.99998,324.99998,99.55407142857143,99.51083333333334,99.57392857142857,99.54667142857143,0.08024999999999993,-0.17533333333333334,-0.14459999999999984,0.07759999999999989,-0.0730000000000004,-0.06499999999999773,1.6480000000000001,1.646,36.515,29.914,37.846000000000004,34.268,54.58,36.703,62.262,52.336,52.742000000000004,35.784,60.613,50.558,52.098,35.3555,60.409,49.873,-0.10899999999999999,-0.1964999999999999,0.10743000000000001,0.11006,0.0,205.73333333333335,205.655,202.83666666666667,202.83666666666667,0.0,0.0
1,0.0,0.0,0.0,1.0,1.0,0.0,0.0,1.0,0.0,100.0,1.0,1.1856,26.0,0.0,0.0,0.0,59.999996,0.0,26.0,26.0,26.0,26.0,-0.08362499999999995,0.32510000000000017,0.10980000000000001,278.549,-2.4802,-2.510375,-1.7529,-1.5584444444444443,-272.4,215.7625,190.95375,0.0,0.0,0.0,0.0,0.0035,-5.498166666666667,-5.498166666666667,-0.45180000000000003,-0.2135,-0.04044444444444428,-0.007,65.811,-0.03189999999999993,-0.15124,0.9139999999999997,100.0,1.0,1.0,202.68333333333334,0.0,0.0,0.0,0.0,0.0,0.0,0.0,8591.0,0.0,55.0,5.0,236.88666666666666,1.0,0.0,0.0,0.0,0.0,0.0,0.0,0.0,0.053999999999998494,0.053999999999998494,0.0,0.0,1.0,55.0,616.79921,10000.0,85.000001,85.000001,85.000001,85.000001,395.0,0.0,0.0,0.0,1.0,166.665,40.833,40.833,32.837,32.837,34.0,-19.81,13.338000000000001,-40.8675,35.45,0.0,1783.45,0.615000000000002,100.0,22.545,22.22,34.004,34.048,0.0,0.0,100.0,0.0,0.0,0.0,0.0,2931.375,2597.2,4738.875,5236.700000000001,305.75266666666664,306.503,313.2825,311.636,21.69222222222222,20.6322,21.9069,21.3323,314.999998,314.999998,324.999988,324.999988,99.55408571428572,99.51086666666667,99.57408571428572,99.54682857142858,0.09600000000000009,-0.19966666666666666,-0.1564000000000001,0.05799999999999983,-0.01699999999999946,-0.03499999999999659,1.3345,1.3599999999999999,36.576,29.9515,37.918,34.327,54.574,36.7455,62.301,52.4025,52.736000000000004,35.823499999999996,60.6495,50.622,52.091,35.3935,60.442,49.935,-0.10749999999999993,-0.20199999999999996,0.10735000000000001,0.11542000000000001,0.0,206.20333333333332,206.135,202.68333333333334,202.68333333333334,0.0,0.0
2,0.0,0.0,0.0,1.0,1.0,0.0,0.0,1.0,0.0,100.0,1.0,1.1856,26.0,0.0,0.0,0.0,59.999996,0.0,26.0,26.0,26.0,26.0,-0.10324999999999995,0.2794000000000001,-0.082675,280.121,-2.4473000000000003,-2.493875,-1.7127,-1.7261111111111112,-269.04,215.765,190.93525,0.0,0.0,0.0,0.0,0.0054666666666666665,-5.498166666666667,-5.498166666666667,-0.5411,-0.2215,-0.028444444444444272,1.272,65.949,-0.03859999999999997,-0.24308000000000002,1.112,100.0,1.0,1.0,203.94333333333333,0.0,0.0,0.0,0.0,0.0,0.0,0.0,8644.4,0.0,55.0,5.0,237.38666666666666,0.0,0.0,0.0,0.0,0.0,0.0,0.0,0.0,0.10500000000000043,0.10500000000000043,0.0,0.0,0.0,55.0,616.79921,10000.0,85.000001,85.000001,85.000001,85.000001,395.0,0.0,0.0,0.0,1.0,333.33500000000004,39.23,39.23,36.147999999999996,36.147999999999996,34.0,-25.395,15.617999999999999,-28.28,20.894,0.0,1783.397,0.7600000000000016,100.0,22.718,21.985500000000002,33.713,33.263,0.0,0.0,100.0,0.0,0.0,0.0,0.0,3504.125,3088.7,3584.25,3332.6,304.14233333333334,304.89233333333334,316.11375,316.5725,21.701999999999998,20.6379,21.9181,21.3412,314.999998,314.999998,324.999988,324.999988,99.55408571428572,99.51088333333334,99.57421428571429,99.54695714285714,0.0665,-0.21266666666666656,-0.1854,0.05859999999999976,-0.05099999999999838,-0.05833333333333002,1.718,1.76,36.637,29.987000000000002,37.988,34.3825,54.568,36.7855,62.329499999999996,52.455,52.730000000000004,35.8605,60.6755,50.672,52.0835,35.429,60.465,49.984,-0.09349999999999992,-0.21150000000000002,0.11264,0.10745,0.0,206.62,206.555,203.94333333333333,203.94333333333333,0.0,0.0
3,0.0,0.0,0.0,1.0,1.0,0.0,0.0,1.0,0.0,100.0,1.0,1.1856,26.0,0.0,0.0,0.0,59.999996,0.0,26.0,26.0,26.0,26.0,-0.11249999999999993,0.31220000000000003,-0.02815,279.663,-2.4762,-2.515,-1.7035,-1.6793333333333333,-265.87,215.7625,190.916375,0.0,0.0,0.0,0.0,0.0073,-5.498166666666667,-5.498166666666667,-0.4858,0.9165,-0.004111111111110954,-1.7445,66.094,-0.05489999999999995,-0.17204000000000003,1.0660000000000007,100.0,1.0,1.0,203.90666666666667,0.0,0.0,0.0,0.0,0.0,0.0,0.0,8642.9,0.0,55.0,5.0,237.90666666666667,1.0,0.0,0.0,0.0,0.0,0.0,0.0,0.0,0.1529999999999987,0.1529999999999987,0.0,0.0,1.0,55.0,616.79921,10000.0,85.000001,85.000001,85.000001,85.000001,395.0,0.0,0.0,0.0,1.0,333.33500000000004,40.375,40.375,33.752,33.752,34.0,-21.75,15.155999999999999,-37.005,27.284,0.0,1783.35,0.7850000000000001,100.0,22.387,22.0045,33.359,33.036,0.0,0.0,100.0,0.0,0.0,0.0,0.0,3042.25,2967.9,4417.5,4152.0,305.6123333333333,305.202,314.175,314.43525,21.711111111111112,20.6435,21.9285,21.3497,314.999998,314.999998,324.999988,324.999988,99.5541,99.51091666666667,99.57435714285714,99.5471,0.06574999999999998,-0.21299999999999997,-0.17879999999999985,0.04720000000000013,-0.04400000000000048,-0.03833333333332689,1.506,1.5070000000000001,36.694,30.022,38.053,34.4355,54.56,36.827,62.3575,52.5135,52.722,35.899,60.701499999999996,50.728,52.0745,35.466,60.488,50.0385,-0.09050000000000002,-0.20650000000000013,0.106995,0.10898500000000001,0.0,207.11,207.025,203.90666666666667,203.90666666666667,0.0,0.0
4,0.0,0.0,0.0,1.0,1.0,0.0,0.0,1.0,0.0,100.0,1.0,1.1856,26.0,0.0,0.0,0.0,59.999996,0.0,26.0,26.0,26.0,26.0,-0.12075000000000002,0.30800000000000005,-0.037950000000000005,279.9835,-2.5034,-2.592375,-1.6476000000000002,-1.7907777777777778,-262.5,215.76,190.897,0.0,0.0,0.0,0.0,0.009266666666666668,-5.498166666666667,-5.498166666666667,-0.5046,-0.9495,-0.05655555555555569,-0.0925,66.241,-0.06399999999999995,-0.20276,1.2520000000000007,100.0,1.0,1.0,204.43666666666667,0.0,0.0,0.0,0.0,0.0,0.0,0.0,8665.4,0.0,55.0,5.0,238.44,0.0,0.0,0.0,0.0,0.0,0.0,0.0,0.0,0.20400000000000063,0.20400000000000063,0.0,0.0,0.0,55.0,616.79921,10000.0,85.000001,85.000001,85.000001,85.000001,395.0,0.0,0.0,0.0,1.0,333.33500000000004,40.497,40.497,34.47,34.47,34.0,-23.8975,15.796,-33.435,25.714,0.0,1783.298,0.8249999999999993,100.0,22.204,21.3225,34.081,33.114000000000004,0.0,0.0,100.0,0.0,0.0,0.0,0.0,3207.75,3016.8,4118.625,3854.2,305.025,305.317,314.8055,315.24825,21.720666666666666,20.6493,21.9399,21.3588,314.999998,314.999998,324.999988,324.999988,99.55411428571429,99.51093333333333,99.5745,99.54722857142858,0.05725000000000002,-0.21699999999999997,-0.18359999999999976,0.04220000000000024,-0.03500000000000014,-0.05666666666667197,1.548,1.5865,36.754000000000005,30.058,38.123999999999995,34.493,54.55,36.8685,62.3915,52.5725,52.712,35.937,60.733000000000004,50.7845,52.0635,35.5025,60.5165,50.0935,-0.08599999999999985,-0.21300000000000008,0.10357500000000001,0.10979000000000001,0.0,207.48666666666668,207.41500000000002,204.43666666666667,204.43666666666667,0.0,0.0
5,0.0,0.0,0.0,1.0,1.0,0.0,0.0,1.0,0.0,100.0,1.0,1.1856,26.0,0.0,0.0,0.0,59.999996,0.0,26.0,26.0,26.0,26.0,-0.125625,0.3023,-0.0245,280.258,-2.5271,-2.55075,-1.6971,-1.789777777777778,-258.92,215.7525,190.875875,0.0,0.0,0.0,0.0,0.011333333333333334,-5.498166666666667,-5.498166666666667,-0.5185000000000001,0.4425,-0.05077777777777781,0.913,66.394,-0.0804999999999999,-0.19736,1.2520000000000007,100.0,1.0,1.0,205.01666666666665,0.0,0.0,0.0,0.0,0.0,0.0,0.0,8689.9,0.0,55.0,5.0,238.99,1.0,0.0,0.0,0.0,0.0,0.0,0.0,0.0,0.2579999999999991,0.2579999999999991,0.0,0.0,1.0,55.0,616.79921,10000.0,85.000001,85.000001,85.000001,85.000001,395.0,0.0,0.0,0.0,1.0,166.665,40.436,40.436,35.233,35.233,34.0,-23.9175,16.41,-33.745,25.032,0.0,1783.245,0.41499999999999915,100.0,22.269,21.1855,33.584,32.487,0.0,0.0,100.0,0.0,0.0,0.0,0.0,3207.5,3082.2,3972.25,3937.5,304.939,305.10833333333335,315.2065,315.13,21.731,20.6555,21.9516,21.3682,314.999998,314.999998,324.999988,324.999988,99.55411428571429,99.51096666666666,99.57465714285715,99.54737142857142,0.06424999999999992,-0.20366666666666666,-0.2115999999999998,0.020399999999999974,-0.0470000000000006,-0.05333333333332746,1.5695000000000001,1.635,36.819,30.0965,38.197,34.5515,54.542,36.913,62.423,52.631,52.704,35.978,60.762,50.84,52.0545,35.5415,60.542500000000004,50.1475,-0.11599999999999988,-0.18299999999999983,0.10674000000000002,0.11254000000000002,0.0,208.01333333333332,207.935,205.01666666666665,205.01666666666665,0.0,0.0
6,0.0,0.0,0.0,1.0,1.0,0.0,0.0,1.0,0.0,100.0,1.0,1.1856,26.0,0.0,0.0,0.0,59.999996,0.0,26.0,26.0,26.0,26.0,-0.11862499999999998,0.2892000000000001,0.0066,280.0295,-2.4703,-2.613625,-1.7450999999999999,-1.7592222222222222,-255.73,215.7425,190.856375,0.0,0.0,0.0,0.0,0.0132,-5.498166666666667,-5.498166666666667,-0.5037,-0.0765,-0.05755555555555558,0.729,66.53399999999999,-0.08429999999999993,-0.1792,0.8840000000000003,100.0,1.0,1.0,205.2733333333333,0.0,0.0,0.0,0.0,0.0,0.0,0.0,8700.8,0.0,55.0,5.0,239.49,0.0,0.0,0.0,0.0,0.0,0.0,0.0,0.0,0.30600000000000094,0.30600000000000094,0.0,0.0,0.0,55.0,616.79921,10000.0,85.000001,85.000001,85.000001,85.000001,395.0,0.0,0.0,0.0,1.0,166.665,40.787,40.787,34.409,34.409,34.0,-23.015,16.524,-36.6025,26.798,0.0,1783.198,0.39000000000000057,100.0,22.089,21.0245,33.79,32.644,0.0,0.0,100.0,0.0,0.0,0.0,0.0,3152.25,3000.0,4246.125,4093.6000000000004,305.09866666666665,305.34433333333334,314.49925,314.728,21.740111111111112,20.660899999999998,21.9622,21.3768,314.999998,314.999998,324.999988,324.999988,99.55412857142858,99.51098333333333,99.57478571428571,99.54751428571429,0.06174999999999997,-0.20333333333333337,-0.19059999999999988,0.032399999999999984,-0.036999999999999034,-0.023333333333326323,1.5085,1.553,36.875,30.131,38.263999999999996,34.605000000000004,54.534,36.951499999999996,62.454,52.687,52.696,36.013999999999996,60.7905,50.8935,52.045500000000004,35.576,60.568,50.1995,-0.11850000000000005,-0.17200000000000015,0.10131000000000001,0.11195500000000001,0.0,208.43666666666667,208.35000000000002,205.2733333333333,205.2733333333333,0.0,0.0
7,0.0,0.0,0.0,1.0,1.0,0.0,0.0,1.0,0.0,100.0,1.0,1.1856,26.0,0.0,0.0,0.0,59.999996,0.0,26.0,26.0,26.0,26.0,-0.09062499999999996,0.2853000000000001,-0.002725,279.953,-2.4403,-2.603625,-1.7023000000000001,-1.8038888888888889,-252.32999999999998,215.72750000000002,190.83575,0.0,0.0,0.0,0.0,0.015166666666666667,-5.498166666666667,-5.498166666666667,-0.5134000000000001,0.051500000000000004,-0.051000000000000156,-0.31,66.678,-0.08019999999999994,-0.19562000000000002,0.774,100.0,1.0,1.0,205.8,0.0,0.0,0.0,0.0,0.0,0.0,0.0,8723.2,0.0,55.0,5.0,240.01,1.0,0.0,0.0,0.0,0.0,0.0,0.0,0.0,0.3569999999999993,0.3569999999999993,0.0,0.0,1.0,55.0,616.79921,10000.0,85.000001,85.000001,85.000001,85.000001,395.0,0.0,0.0,0.0,1.0,166.665,40.253,40.253,34.805,34.805,34.0,-23.165,16.592,-34.6125,25.184,0.0,1783.147,0.08000000000000185,100.0,22.264,21.4545,33.777,32.89,0.0,0.0,100.0,0.0,0.0,0.0,0.0,3296.125,2984.7,4078.125,3914.6000000000004,304.801,305.18333333333334,314.96275,315.06975,21.74988888888889,20.6668,21.973399999999998,21.3859,314.999998,314.999998,324.999988,324.999988,99.55412857142858,99.51101666666666,99.57494285714286,99.54764285714286,0.07525000000000004,-0.20133333333333336,-0.20300000000000007,0.01639999999999997,-0.05699999999999861,-0.03166666666666629,1.545,1.5859999999999999,36.937,30.1675,38.334,34.662,54.527,36.9935,62.485,52.7455,52.69,36.0525,60.8195,50.949,52.038,35.613,60.594,50.2535,-0.139,-0.15850000000000009,0.10584,0.10305500000000001,0.0,208.87,208.79000000000002,205.8,205.8,0.0,0.0
8,0.0,0.0,0.0,1.0,1.0,0.0,0.0,1.0,0.0,100.0,1.0,1.1856,26.0,0.0,0.0,0.0,59.999996,0.0,26.0,26.0,26.0,26.0,-0.06712499999999999,0.2822,-0.0112,279.9835,-2.5179,-2.538875,-1.682,-1.7963333333333333,-248.93,215.7125,190.815,0.0,0.0,0.0,0.0,0.017166666666666667,-5.498166666666667,-5.498166666666667,-0.5169,-0.2505,-0.035555555555555785,0.5805,66.82300000000001,-0.06529999999999991,-0.19618,0.3540000000000001,100.0,1.0,1.0,206.21666666666667,0.0,0.0,0.0,0.0,0.0,0.0,0.0,8740.8,0.0,55.0,5.0,240.53333333333333,0.0,0.0,0.0,0.0,0.0,0.0,0.0,0.0,0.40800000000000125,0.40800000000000125,0.0,0.0,0.0,55.0,616.79921,10000.0,85.000001,85.000001,85.000001,85.000001,395.0,0.0,0.0,0.0,1.0,166.665,40.482,40.482,34.409,34.409,34.0,-21.4025,18.278,-31.97,28.104,0.0,1783.095,-0.054999999999999716,100.0,22.097,21.414,33.928,32.985,0.0,0.0,100.0,0.0,0.0,0.0,0.0,3098.0,3155.0,3992.5,4017.5,305.29566666666665,304.88366666666667,315.0925,314.8785,21.759444444444444,20.6727,21.9846,21.395,314.999998,314.999998,324.999988,324.999988,99.55414285714286,99.51103333333333,99.57508571428572,99.54778571428571,0.09775,-0.17033333333333334,-0.1684000000000001,0.06000000000000005,-0.03599999999999781,-0.046666666666666856,1.5495,1.555,36.995999999999995,30.2045,38.403999999999996,34.719,54.519999999999996,37.0345,62.5165,52.804,52.682,36.0905,60.848,51.0055,52.028999999999996,35.649,60.6195,50.3085,-0.15100000000000002,-0.1379999999999999,0.09956000000000001,0.11148000000000001,0.0,209.28333333333333,209.275,206.21666666666667,206.21666666666667,0.0,0.0
9,0.0,0.0,0.0,1.0,1.0,0.0,0.0,1.0,0.0,100.0,1.0,1.1856,26.0,0.0,0.0,0.0,59.999996,0.0,26.0,26.0,26.0,26.0,-0.05074999999999996,0.28,-0.011775,279.7395,-2.4439,-2.546125,-1.7363,-1.7503333333333333,-245.92000000000002,215.6975,190.7965,0.0,0.0,0.0,0.0,0.0189,-5.498166666666667,-5.498166666666667,-0.5146000000000001,0.352,-0.045111111111111324,-0.5715,66.949,-0.05049999999999999,-0.18936,0.17600000000000016,100.0,1.0,1.0,206.61666666666667,0.0,0.0,0.0,0.0,0.0,0.0,0.0,8757.7,0.0,55.0,5.0,240.98666666666668,1.0,0.0,0.0,0.0,0.0,0.0,0.0,0.0,0.4529999999999994,0.4529999999999994,0.0,0.0,1.0,55.0,616.79921,10000.0,85.000001,85.000001,85.000001,85.000001,395.0,0.0,0.0,0.0,1.0,333.33500000000004,40.024,40.024,34.775,34.775,34.0,-22.125,18.372,-32.8525,27.622,0.0,1783.049,-0.23999999999999844,100.0,22.239,21.683,33.669,33.043,0.0,0.0,100.0,0.0,0.0,0.0,0.0,3359.375,3057.0,4081.0,4032.7,304.6616666666667,304.99766666666665,314.9925,314.824,21.768,20.678,21.9944,21.403,314.999998,314.999998,324.999988,324.999988,99.55415714285714,99.51105,99.57521428571428,99.54791428571428,0.10725000000000007,-0.15900000000000003,-0.1584000000000001,0.0591999999999997,-0.05699999999999861,-0.04833333333333201,1.555,1.5535,37.05,30.237000000000002,38.465,34.769,54.516,37.070499999999996,62.542500000000004,52.855000000000004,52.678,36.1235,60.8725,51.054,52.024,35.6805,60.641,50.356,-0.16399999999999992,-0.1299999999999999,0.09713000000000001,0.10609,0.0,209.70333333333332,209.67000000000002,206.61666666666667,206.61666666666667,0.0,0.0
10,0.0,0.0,0.0,1.0,1.0,0.0,0.0,1.0,0.0,100.0,1.0,1.1856,26.0,0.0,0.0,0.0,59.999996,0.0,26.0,26.0,26.0,26.0,-0.026499999999999968,0.29990000000000006,0.012950000000000001,279.648,-2.4998,-2.5255,-1.6995,-1.734888888888889,-242.5,215.6775,190.775625,0.0,0.0,0.0,0.0,0.020900000000000002,-5.498166666666667,-5.498166666666667,-0.5054000000000001,-0.359,-0.014333333333333087,1.7305,67.094,-0.029200000000000004,-0.18718,-0.16999999999999993,100.0,1.0,1.0,206.94666666666666,0.0,0.0,0.0,0.0,0.0,0.0,0.0,8771.6,0.0,55.0,5.0,241.51,0.0,0.0,0.0,0.0,0.0,0.0,1.0,0.0,0.5040000000000013,0.5040000000000013,0.0,0.0,0.0,55.0,616.79921,10000.0,85.000001,85.000001,85.000001,85.000001,395.0,0.0,0.0,0.0,1.0,333.33500000000004,40.497,40.497,34.164,34.164,34.0,-19.66,18.89,-31.95,30.966,0.0,1782.999,-0.254999999999999,100.0,22.3,21.491,33.992,33.375,0.0,0.0,100.0,0.0,0.0,0.0,0.0,3054.25,3113.2,4121.25,4240.9,305.4166666666667,305.065,314.787,314.37475,21.777666666666665,20.6839,22.0056,21.4123,314.999998,314.999998,324.999988,324.999988,99.55417142857142,99.51106666666666,99.57535714285714,99.54805714285715,0.1260000000000001,-0.1466666666666666,-0.13539999999999996,0.0918000000000001,-0.03399999999999892,-0.026666666666670835,1.5225,1.5125,37.11,30.274,38.535,34.827,54.510999999999996,37.1095,62.5745,52.916,52.673,36.1595,60.902,51.112,52.0175,35.715,60.667,50.412,-0.16849999999999987,-0.1259999999999999,0.11015000000000001,0.105895,0.0,210.10666666666668,210.11,206.94666666666666,206.94666666666666,0.0,0.0
11,0.0,0.0,0.0,1.0,1.0,0.0,0.0,1.0,0.0,100.0,1.0,1.1856,26.0,0.0,0.0,0.0,59.999996,0.0,26.0,26.0,26.0,26.0,0.006250000000000089,0.2864,-0.064975,280.014,-2.5181,-2.51125,-1.7591999999999999,-1.705111111111111,-239.07,215.6575,190.75475,0.0,0.0,0.0,0.0,0.022600000000000002,-5.498166666666667,-5.498166666666667,-0.5319,-0.2155,0.010999999999999899,-0.383,67.23400000000001,-0.012699999999999934,-0.20356,-0.2320000000000002,100.0,1.0,1.0,207.55333333333334,0.0,0.0,0.0,0.0,0.0,0.0,0.0,8797.5,0.0,55.0,5.0,242.01333333333332,1.0,0.0,0.0,0.0,0.0,0.0,1.0,0.0,0.5549999999999997,0.5549999999999997,0.0,0.0,1.0,55.0,616.79921,10000.0,85.000001,85.000001,85.000001,85.000001,395.0,0.0,0.0,0.0,1.0,166.665,40.298,40.298,34.958,34.958,34.0,-20.2725,19.814,-29.1025,29.068,0.0,1782.949,-0.4349999999999987,100.0,21.82,21.776,33.541,33.453,0.0,0.0,100.0,0.0,0.0,0.0,0.0,3216.25,3134.9,3862.25,3961.0,305.134,304.782,315.523,315.01925,21.787111111111113,20.6899,22.0166,21.4214,314.999998,314.999998,324.999988,324.999988,99.55418571428571,99.51108333333333,99.5755,99.5482,0.13850000000000007,-0.131,-0.12139999999999995,0.11819999999999986,-0.05900000000000105,-0.026666666666670835,1.605,1.6019999999999999,37.169,30.311500000000002,38.604,34.884,54.506,37.147999999999996,62.6015,52.9745,52.668,36.195499999999996,60.9265,51.168,52.010999999999996,35.7495,60.689,50.467,-0.1755,-0.11450000000000005,0.10442000000000001,0.114665,0.0,210.55,210.53,207.55333333333334,207.55333333333334,0.0,0.0
12,0.0,0.0,0.0,1.0,1.0,0.0,0.0,1.0,0.0,100.0,1.0,1.1856,26.0,0.0,0.0,0.0,59.999996,0.0,26.0,26.0,26.0,26.0,0.0044999999999999485,0.2945,0.0095,279.6175,-2.5427,-2.51,-1.7343000000000002,-1.7283333333333333,-235.84,215.64,190.734125,0.0,0.0,0.0,0.0,0.025466666666666665,-5.498166666666667,-5.498166666666667,-0.5218,0.3525,0.00855555555555565,-0.7030000000000001,67.369,0.0012000000000000899,-0.18226,-0.29000000000000004,100.0,1.0,1.0,207.86333333333334,0.0,0.0,0.0,0.0,0.0,0.0,0.0,8810.6,0.0,55.0,5.0,242.5,0.0,0.0,0.0,0.0,0.0,0.0,1.0,0.0,0.602999999999998,0.602999999999998,0.0,0.0,0.0,55.0,616.79921,10000.0,85.000001,85.000001,85.000001,85.000001,395.0,0.0,0.0,0.0,1.0,333.33500000000004,40.1,40.1,34.225,34.225,34.0,-20.415,20.342,-31.4375,31.216,0.0,1782.898,-0.384999999999998,100.0,21.879,22.0255,33.41,33.439,0.0,0.0,100.0,0.0,0.0,0.0,0.0,3239.0,3168.8,4166.25,4116.8,305.049,304.666,314.815,314.64675,21.796,20.6956,22.027,21.43,314.999998,314.999998,324.999988,324.999988,99.55421428571428,99.5111,99.57564285714285,99.54834285714286,0.14500000000000002,-0.125,-0.11399999999999988,0.12060000000000004,-0.045999999999999375,-0.03833333333332689,1.55,1.5305,37.224999999999994,30.3475,38.669,34.938,54.501999999999995,37.1875,62.629999999999995,53.033500000000004,52.664,36.2315,60.953,51.2245,52.006,35.7845,60.712,50.522,-0.17599999999999993,-0.12049999999999983,0.10829000000000001,0.11002,0.0,210.9766666666667,211.0,207.86333333333334,207.86333333333334,0.0,0.0
13,0.0,0.0,0.0,1.0,1.0,0.0,0.0,1.0,0.0,100.0,1.0,1.1856,26.0,0.0,0.0,0.0,59.999996,0.0,26.0,26.0,26.0,26.0,0.02387500000000009,0.28259999999999996,0.026350000000000002,279.2815,-2.5197000000000003,-2.515,-1.7662,-1.730888888888889,-232.2,215.6175,190.711125,0.0,0.0,0.0,0.0,0.02686666666666667,-5.498166666666667,-5.498166666666667,-0.5175000000000001,-0.2285,0.007555555555555538,-0.463,67.52,0.013000000000000123,-0.1913,-0.387999999999999,100.0,1.0,1.0,208.24,0.0,0.0,0.0,0.0,0.0,0.0,0.0,8826.6,0.0,55.0,5.0,243.04333333333335,1.0,0.0,0.0,0.0,0.0,0.0,1.0,0.0,0.657,0.657,0.0,0.0,1.0,55.0,616.79921,10000.0,85.000001,85.000001,85.000001,85.000001,395.0,0.0,0.0,0.0,1.0,166.665,39.886,39.886,33.997,33.997,34.0,-19.24,20.852,-30.9425,32.952,0.0,1782.847,-0.41499999999999915,100.0,22.113,22.198,33.754,33.936,0.0,0.0,100.0,0.0,0.0,0.0,0.0,3242.25,3147.9,4153.875,4235.9,305.04,304.7183333333333,314.80775,314.30325,21.80611111111111,20.7021,22.038899999999998,21.4399,314.999998,314.999998,324.999988,324.999988,99.55422857142857,99.51111666666667,99.57578571428571,99.54848571428572,0.16525000000000012,-0.11166666666666658,-0.0948,0.1280000000000001,-0.045999999999999375,-0.03166666666666629,1.528,1.502,37.288,30.387999999999998,38.742999999999995,34.9995,54.5,37.226,62.6605,53.095,52.661,36.2675,60.981,51.283500000000004,52.001999999999995,35.8185,60.737,50.579499999999996,-0.18049999999999988,-0.1200000000000001,0.10502,0.10938500000000001,0.0,211.43333333333334,211.45,208.24,208.24,0.0,0.0
14,0.0,0.0,0.0,1.0,1.0,0.0,0.0,1.0,0.0,100.0,1.0,1.1856,26.0,0.0,0.0,0.0,59.999996,0.0,26.0,26.0,26.0,26.0,0.04387500000000011,0.2763,-0.010400000000000001,279.526,-2.5373,-2.5238750000000003,-1.7618,-1.724888888888889,-228.95,215.60000000000002,190.691125,0.0,0.0,0.0,0.0,0.02876666666666667,-5.498166666666667,-5.498166666666667,-0.5293,-0.08650000000000001,0.023555555555555552,-0.3665,67.65,0.02059999999999995,-0.20368,-0.3899999999999997,100.0,1.0,1.0,208.74333333333334,0.0,0.0,0.0,0.0,0.0,0.0,0.0,8847.9,0.0,55.0,5.0,243.51333333333332,0.0,0.0,0.0,0.0,0.0,0.0,1.0,0.0,0.7049999999999983,0.7049999999999983,0.0,0.0,0.0,55.0,616.79921,10000.0,85.000001,85.000001,85.000001,85.000001,395.0,0.0,0.0,0.0,1.0,333.33500000000004,39.948,39.948,34.363,34.363,34.0,-18.697499999999998,21.194000000000003,-29.1625,31.238,0.0,1782.797,-0.46999999999999886,100.0,22.046,22.287,33.638,33.941,0.0,0.0,100.0,0.0,0.0,0.0,0.0,3196.125,3164.2,3984.375,4074.8,305.18466666666666,304.61966666666666,315.22525,314.72125,21.81511111111111,20.7079,22.0493,21.4486,314.999998,314.999998,324.999988,324.999988,99.55425714285714,99.51113333333333,99.57591428571429,99.54862857142857,0.17375000000000007,-0.10999999999999999,-0.09399999999999986,0.13059999999999983,-0.06400000000000006,-0.03499999999999659,1.5635,1.55,37.344,30.424500000000002,38.808,35.054,54.498000000000005,37.262,62.6865,53.150999999999996,52.659,36.301,61.004999999999995,51.3375,51.998000000000005,35.851,60.757999999999996,50.632,-0.18500000000000005,-0.11750000000000016,0.106355,0.10975000000000001,0.0,211.85333333333335,211.85000000000002,208.74333333333334,208.74333333333334,0.0,0.0
15,0.0,0.0,0.0,1.0,1.0,0.0,0.0,1.0,0.0,100.0,1.0,1.1856,26.0,0.0,0.0,0.0,59.999996,0.0,26.0,26.0,26.0,26.0,0.055749999999999966,0.2834000000000001,-0.018025,279.48,-2.5361000000000002,-2.495125,-1.776,-1.7364444444444445,-225.7,215.58249999999998,190.670625,0.0,0.0,0.0,0.0,0.03066666666666667,-5.498166666666667,-5.498166666666667,-0.5219,0.2005,0.039555555555555566,-0.719,67.783,0.026900000000000146,-0.18858,-0.46200000000000063,100.0,1.0,1.0,209.11,0.0,0.0,0.0,0.0,0.0,0.0,0.0,8863.4,0.0,55.0,5.0,243.99,1.0,0.0,0.0,0.0,0.0,0.0,1.0,0.0,0.7530000000000001,0.7530000000000001,0.0,0.0,1.0,55.0,616.79921,10000.0,85.000001,85.000001,85.000001,85.000001,395.0,0.0,0.0,0.0,1.0,166.665,40.039,40.039,34.225,34.225,34.0,-18.12,21.04,-29.075,33.436,0.0,1782.751,-0.375,100.0,22.048000000000002,22.3615,33.468,34.007,0.0,0.0,100.0,0.0,0.0,0.0,0.0,3123.25,3146.4,4040.75,4184.2,305.4053333333333,304.6573333333333,315.11125,314.4095,21.823888888888888,20.7137,22.0597,21.4573,314.999998,314.999998,324.999988,324.999988,99.55427142857143,99.51113333333333,99.57605714285714,99.54875714285714,0.17525000000000013,-0.10466666666666657,-0.07779999999999987,0.14580000000000037,-0.03999999999999915,-0.060000000000002274,1.552,1.514,37.4,30.461,38.873000000000005,35.1085,54.495999999999995,37.298,62.712,53.208,52.656,36.334,61.0285,51.391999999999996,51.9945,35.882999999999996,60.7785,50.685,-0.17700000000000005,-0.11850000000000005,0.10133500000000001,0.11555000000000001,0.0,212.24666666666667,212.285,209.11,209.11,0.0,0.0
16,0.0,0.0,0.0,1.0,1.0,0.0,0.0,1.0,0.0,100.0,1.0,1.1856,26.0,0.0,0.0,0.0,59.999996,0.0,26.0,26.0,26.0,26.0,0.04299999999999993,0.2670000000000001,-0.0023250000000000002,279.3885,-2.5899,-2.4495,-1.7516,-1.7361111111111112,-222.24,215.5675,190.6485,0.0,0.0,0.0,0.0,0.03266666666666667,-5.498166666666667,-5.498166666666667,-0.5352,-0.47950000000000004,0.029444444444444384,0.136,67.923,0.03279999999999994,-0.20024000000000003,-0.44399999999999995,100.0,1.0,1.0,209.5233333333333,0.0,0.0,0.0,0.0,0.0,0.0,0.0,8880.9,0.0,55.0,5.0,244.49333333333334,0.0,0.0,0.0,0.0,0.0,0.0,1.0,0.0,0.8039999999999985,0.8039999999999985,0.0,0.0,0.0,55.0,616.79921,10000.0,85.000001,85.000001,85.000001,85.000001,395.0,0.0,0.0,0.0,1.0,333.33500000000004,39.81,39.81,34.027,34.027,34.0,-18.9525,22.304000000000002,-28.432499999999997,32.97,0.0,1782.699,-0.28000000000000114,100.0,21.947,22.2295,33.751,34.013,0.0,0.0,100.0,0.0,0.0,0.0,0.0,3173.125,3359.0,3996.25,4093.6000000000004,305.15233333333333,304.252,315.134,314.6915,21.833222222222222,20.7199,22.0708,21.4666,314.999998,314.999998,324.999988,324.999988,99.55428571428571,99.51115,99.5762,99.54891428571429,0.17825000000000002,-0.09733333333333338,-0.07620000000000005,0.1572,-0.038000000000000256,-0.03166666666666629,1.5465,1.5295,37.458,30.499499999999998,38.943,35.1665,54.492000000000004,37.3365,62.7415,53.2685,52.652,36.3695,61.0555,51.45,51.9885,35.917,60.802,50.7415,-0.16849999999999987,-0.12950000000000017,0.10899,0.10270000000000001,0.0,212.66,212.66500000000002,209.5233333333333,209.5233333333333,0.0,0.0
17,0.0,0.0,0.0,1.0,1.0,0.0,0.0,1.0,0.0,100.0,1.0,1.1856,26.0,0.0,0.0,0.0,59.999996,0.0,26.0,26.0,26.0,26.0,0.036250000000000115,0.2781,0.030100000000000002,279.022,-2.5540000000000003,-2.4303749999999997,-1.7915,-1.6984444444444444,-218.78,215.55,190.626125,0.0,0.0,0.0,0.0,0.03466666666666667,-5.498166666666667,-5.498166666666667,-0.53,0.23450000000000001,0.004999999999999893,-0.8795000000000001,68.062,0.03269999999999995,-0.18914000000000003,-0.2920000000000007,100.0,1.0,1.0,209.9,0.0,0.0,0.0,0.0,0.0,0.0,0.0,8896.9,0.0,55.0,5.0,244.99,1.0,0.0,0.0,0.0,0.0,0.0,1.0,0.0,0.8550000000000004,0.8550000000000004,0.0,0.0,1.0,55.0,616.79921,10000.0,85.000001,85.000001,85.000001,85.000001,395.0,0.0,0.0,0.0,1.0,333.33500000000004,39.551,39.551,33.722,33.722,34.0,-19.83,21.036,-31.57,33.248,0.0,1782.647,-0.19500000000000028,100.0,22.216,22.5245,33.627,34.048,0.0,0.0,100.0,0.0,0.0,0.0,0.0,3320.0,3220.6,4316.875,4208.2,304.85333333333335,304.50233333333335,314.52925,314.43825,21.842666666666666,20.7262,22.0819,21.4759,314.999998,314.999998,324.999988,324.999988,99.55431428571428,99.51116666666667,99.57634285714286,99.54905714285714,0.17100000000000004,-0.10166666666666657,-0.07499999999999996,0.14980000000000038,-0.04199999999999804,-0.036666666666668846,1.531,1.5105,37.516999999999996,30.5385,39.012,35.224000000000004,54.489999999999995,37.375,62.7695,53.3275,52.65,36.4055,61.0815,51.5065,51.9855,35.951499999999996,60.8245,50.797,-0.16500000000000004,-0.13249999999999984,0.09546500000000001,0.109895,0.0,213.11333333333334,213.13,209.9,209.9,0.0,0.0
18,0.0,0.0,0.0,1.0,1.0,0.0,0.0,1.0,0.0,100.0,1.0,1.1856,26.0,0.0,0.0,0.0,59.999996,0.0,26.0,26.0,26.0,26.0,0.020874999999999977,0.27970000000000006,0.038650000000000004,278.946,-2.4907,-2.4148750000000003,-1.6993,-1.6576666666666668,-215.51,215.53750000000002,190.605,0.0,0.0,0.0,0.0,0.03656666666666667,-5.498166666666667,-5.498166666666667,-0.5408000000000001,-0.3635,0.012777777777777777,-0.5630000000000001,68.191,0.02760000000000007,-0.20218,-0.19599999999999973,100.0,1.0,1.0,210.29333333333335,0.0,0.0,0.0,0.0,0.0,0.0,0.0,8913.6,0.0,55.0,5.0,245.46,0.0,0.0,0.0,0.0,0.0,0.0,1.0,0.0,0.9029999999999987,0.9029999999999987,0.0,0.0,0.0,55.0,616.79921,10000.0,85.000001,85.000001,85.000001,85.000001,395.0,0.0,0.0,0.0,1.0,166.665,39.413,39.413,33.63,33.63,34.0,-19.1725,21.636,-30.235,32.06,0.0,1782.601,-0.21499999999999986,100.0,22.151,22.4425,33.814,34.211,0.0,0.0,100.0,0.0,0.0,0.0,0.0,3282.625,3365.3,4163.875,4218.0,304.893,304.11266666666666,314.75325,314.38525,21.851444444444443,20.732,22.0924,21.4847,314.999998,314.999998,324.999988,324.999988,99.55434285714286,99.51118333333334,99.57648571428571,99.5492,0.16725000000000012,-0.10733333333333339,-0.09440000000000004,0.13500000000000023,-0.04499999999999815,-0.026666666666670835,1.517,1.5155,37.572,30.575,39.077,35.2795,54.486999999999995,37.411,62.7965,53.385,52.647,36.439,61.1065,51.5615,51.980999999999995,35.9835,60.8465,50.85,-0.16599999999999993,-0.1339999999999999,0.11057000000000002,0.101995,0.0,213.50666666666666,213.505,210.29333333333335,210.29333333333335,0.0,0.0
19,0.0,0.0,0.0,1.0,1.0,0.0,0.0,1.0,0.0,100.0,1.0,1.1856,26.0,0.0,0.0,0.0,59.999996,0.0,26.0,26.0,26.0,26.0,0.04762500000000003,0.28570000000000007,0.05015,278.763,-2.4799,-2.528375,-1.7189,-1.7847777777777778,-212.01999999999998,215.5225,190.58225,0.0,0.0,0.0,0.0,0.0386,-5.498166666666667,-5.498166666666667,-0.5312,0.6405,0.018333333333333313,0.7845,68.328,0.021500000000000075,-0.1918,-0.22799999999999976,100.0,1.0,1.0,210.70333333333332,0.0,0.0,0.0,0.0,0.0,0.0,0.0,8930.9,0.0,55.0,5.0,245.95333333333335,1.0,0.0,0.0,0.0,0.0,0.0,1.0,0.0,0.9540000000000006,0.9540000000000006,0.0,0.0,1.0,55.0,616.79921,10000.0,85.000001,85.000001,85.000001,85.000001,395.0,0.0,0.0,0.0,1.0,166.665,39.2,39.2,33.783,33.783,34.0,-18.197499999999998,22.262,-29.810000000000002,35.49,0.0,1782.55,-0.17999999999999972,100.0,22.802,22.6925,33.825,34.17,0.0,0.0,100.0,0.0,0.0,0.0,0.0,3167.625,3285.9,4137.875,4342.1,305.03633333333335,304.35,314.80575,314.05875,21.861,20.7383,22.1034,21.494,314.999998,314.999998,324.999988,324.999988,99.55435714285714,99.5112,99.57662857142857,99.54934285714286,0.17300000000000004,-0.10633333333333339,-0.08340000000000014,0.14219999999999988,-0.03399999999999892,-0.03333333333333144,1.4969999999999999,1.5045,37.631,30.6145,39.146,35.3375,54.486000000000004,37.451499999999996,62.823499999999996,53.4445,52.646,36.4765,61.131,51.619,51.977999999999994,36.019,60.868,50.9065,-0.16300000000000003,-0.13600000000000012,0.10624000000000001,0.11299000000000001,0.0,213.94333333333333,213.96,210.70333333333332,210.70333333333332,0.0,0.0
20,0.0,0.0,0.0,1.0,1.0,0.0,0.0,1.0,0.0,100.0,1.0,1.1856,26.0,0.0,0.0,0.0,59.999996,0.0,26.0,26.0,26.0,26.0,0.02462500000000012,0.26249999999999996,-0.00865,279.007,-2.5555,-2.476,-1.7263000000000002,-1.7687777777777778,-208.54,215.51,190.559875,0.0,0.0,0.0,0.0,0.040633333333333334,-5.498166666666667,-5.498166666666667,-0.5356000000000001,-0.8735,0.016000000000000014,-1.014,68.46600000000001,0.01670000000000016,-0.20308,-0.05200000000000049,100.0,1.0,1.0,211.11,0.0,0.0,0.0,0.0,0.0,0.0,0.0,8948.2,0.0,55.0,5.0,246.45,0.0,0.0,0.0,0.0,0.0,0.0,0.0,0.0,1.004999999999999,1.004999999999999,0.0,0.0,0.0,55.0,616.79921,10000.0,85.000001,85.000001,85.000001,85.000001,395.0,0.0,0.0,0.0,1.0,333.33500000000004,39.81,39.81,33.478,33.478,34.0,-19.7275,20.206,-30.634999999999998,31.898,0.0,1782.498,-0.21499999999999986,100.0,22.178,22.5605,34.28,34.67,0.0,0.0,100.0,0.0,0.0,0.0,0.0,3219.625,3153.5,4130.0,4064.4,305.1813333333333,304.708,314.85925,314.646,21.87022222222222,20.7445,22.1146,21.5034,314.999998,314.999998,324.999988,324.999988,99.55438571428571,99.51121666666667,99.57677142857143,99.54948571428571,0.15850000000000009,-0.119,-0.09999999999999987,0.12539999999999996,-0.04499999999999815,-0.051666666666669414,1.5005,1.4975,37.689,30.653,39.216,35.3965,54.482,37.49,62.8535,53.506,52.641,36.512,61.159,51.6775,51.9725,36.0535,60.893,50.963499999999996,-0.16500000000000004,-0.1299999999999999,0.10178500000000001,0.10907000000000001,0.0,214.35000000000002,214.35000000000002,211.11,211.11,0.0,0.0
21,0.0,0.0,0.0,1.0,1.0,0.0,0.0,1.0,0.0,100.0,1.0,1.1856,26.0,0.0,0.0,0.0,59.999996,0.0,26.0,26.0,26.0,26.0,0.024499999999999966,0.27390000000000003,-0.038125,279.251,-2.5513,-2.4825,-1.7711999999999999,-1.7264444444444444,-205.25,215.5,190.53825,0.0,0.0,0.0,0.0,0.04253333333333333,-5.498166666666667,-5.498166666666667,-0.5547000000000001,0.1055,0.002555555555555644,-0.6875,68.59100000000001,0.014499999999999957,-0.20094,-0.20000000000000018,100.0,1.0,1.0,211.64333333333332,0.0,0.0,0.0,0.0,0.0,0.0,0.0,8970.8,0.0,55.0,5.0,246.9,1.0,0.0,0.0,0.0,0.0,0.0,0.0,0.0,1.0530000000000008,1.0530000000000008,0.0,0.0,1.0,55.0,616.79921,10000.0,85.000001,85.000001,85.000001,85.000001,395.0,0.0,0.0,0.0,1.0,166.665,39.612,39.612,34.21,34.21,34.0,-20.235,20.85,-30.0325,30.56,0.0,1782.451,-0.22499999999999787,100.0,22.316,22.485500000000002,33.895,34.196,0.0,0.0,100.0,0.0,0.0,0.0,0.0,3313.625,3195.1,4049.75,3989.6000000000004,304.883,304.6383333333333,315.1225,314.985,21.87911111111111,20.7504,22.1249,21.5121,314.999998,314.999998,324.999988,324.999988,99.5544,99.51121666666667,99.57691428571428,99.54962857142857,0.16149999999999998,-0.11199999999999999,-0.09979999999999989,0.13419999999999987,-0.04499999999999815,-0.04333333333332945,1.5855,1.565,37.745000000000005,30.689999999999998,39.281,35.4505,54.480000000000004,37.525999999999996,62.8775,53.5595,52.638999999999996,36.545500000000004,61.181,51.7285,51.9685,36.085499999999996,60.912,51.013,-0.17399999999999993,-0.13149999999999995,0.10981,0.10884500000000001,0.0,214.75333333333333,214.755,211.64333333333332,211.64333333333332,0.0,0.0
22,0.0,0.0,0.0,1.0,1.0,0.0,0.0,1.0,0.0,100.0,1.0,1.1856,26.0,0.0,0.0,0.0,59.999996,0.0,26.0,26.0,26.0,26.0,0.01912500000000006,0.28859999999999997,0.0017000000000000001,278.824,-2.6046,-2.45175,-1.7913000000000001,-1.7115555555555557,-201.74,215.4875,190.514375,0.0,0.0,0.0,0.0,0.04456666666666667,-5.498166666666667,-5.498166666666667,-0.5383,0.062,0.014111111111110963,1.097,68.729,0.017000000000000126,-0.17832,-0.3039999999999994,100.0,1.0,1.0,211.89333333333332,0.0,0.0,0.0,0.0,0.0,0.0,0.0,8981.3,0.0,55.0,5.0,247.39666666666665,0.0,0.0,0.0,0.0,0.0,0.0,0.0,0.0,1.1039999999999992,1.1039999999999992,0.0,0.0,0.0,55.0,616.79921,10000.0,85.000001,85.000001,85.000001,85.000001,395.0,0.0,0.0,0.0,1.0,166.665,39.734,39.734,33.278999999999996,33.278999999999996,34.0,-19.1725,21.234,-32.0725,34.306,0.0,1782.4,-0.2699999999999996,100.0,22.529,22.39,34.195,34.256,0.0,0.0,100.0,0.0,0.0,0.0,0.0,3129.875,3292.1,4232.25,4399.0,305.33133333333336,304.5536666666667,314.6135,314.06375,21.888555555555556,20.7566,22.136,21.5214,314.999998,314.999998,324.999988,324.999988,99.55442857142857,99.51125,99.57705714285714,99.54977142857143,0.16999999999999993,-0.10833333333333339,-0.09119999999999995,0.13260000000000005,-0.019999999999999574,-0.06333333333333258,1.4914999999999998,1.501,37.803,30.729,39.349999999999994,35.509,54.477999999999994,37.5655,62.907,53.6195,52.635999999999996,36.582499999999996,61.208,51.786,51.9645,36.121,60.9355,51.069,-0.1755,-0.1299999999999999,0.106755,0.10491,0.0,215.17000000000002,215.20499999999998,211.89333333333332,211.89333333333332,0.0,0.0
23,0.0,0.0,0.0,1.0,1.0,0.0,0.0,1.0,0.0,100.0,1.0,1.1856,26.0,0.0,0.0,0.0,59.999996,0.0,26.0,26.0,26.0,26.0,0.007249999999999979,0.26070000000000015,-0.029125,278.717,-2.4945,-2.482875,-1.8305,-1.6877777777777778,-198.24,215.47500000000002,190.490875,0.0,0.0,0.0,0.0,0.04663333333333333,-5.498166666666667,-5.498166666666667,-0.5536,-0.212,0.009777777777777885,-0.7175,68.863,0.01990000000000003,-0.20258,-0.21999999999999975,100.0,1.0,1.0,212.37333333333333,0.0,0.0,0.0,0.0,0.0,0.0,0.0,9001.8,0.0,55.0,5.0,247.88,1.0,0.0,0.0,0.0,0.0,0.0,0.0,0.0,1.1550000000000011,1.1550000000000011,0.0,0.0,1.0,55.0,616.79921,10000.0,85.000001,85.000001,85.000001,85.000001,395.0,0.0,0.0,0.0,1.0,166.665,39.139,39.139,33.752,33.752,34.0,-19.77,20.842,-31.9425,31.122,0.0,1782.349,-0.25,100.0,22.584,22.7165,34.254,34.556,0.0,0.0,100.0,0.0,0.0,0.0,0.0,3374.75,3215.9,4172.5,4122.1,304.578,304.51533333333333,314.878,314.66475,21.898,20.7629,22.147100000000002,21.5308,314.999998,314.999998,324.999988,324.999988,99.55445714285715,99.51125,99.57721428571429,99.54992857142857,0.16975000000000007,-0.11699999999999999,-0.09719999999999995,0.12959999999999994,-0.04299999999999926,-0.03999999999999915,1.5425,1.5495,37.861999999999995,30.7685,39.419,35.567499999999995,54.476,37.6055,62.935,53.6795,52.634,36.619,61.234,51.844,51.960499999999996,36.156,60.958,51.1255,-0.17300000000000004,-0.13050000000000006,0.106075,0.101485,0.0,215.58666666666664,215.60000000000002,212.37333333333333,212.37333333333333,0.0,0.0
24,0.0,0.0,0.0,1.0,1.0,0.0,0.0,1.0,0.0,100.0,1.0,1.1856,26.0,0.0,0.0,0.0,59.999996,0.0,26.0,26.0,26.0,26.0,0.03662500000000013,0.26150000000000007,-0.047575,279.129,-2.5404,-2.487125,-1.7414,-1.7405555555555556,-194.72,215.465,190.46675,0.0,0.0,0.0,0.0,0.04866666666666667,-5.498166666666667,-5.498166666666667,-0.5659000000000001,-0.462,0.02288888888888896,1.1465,68.998,0.02090000000000014,-0.19854000000000002,-0.3179999999999996,100.0,1.0,1.0,212.7733333333333,0.0,0.0,0.0,0.0,0.0,0.0,0.0,9018.6,0.0,55.0,5.0,248.36333333333334,0.0,0.0,0.0,0.0,0.0,0.0,0.0,0.0,1.2059999999999995,1.2059999999999995,0.0,0.0,0.0,55.0,616.79921,10000.0,85.000001,85.000001,85.000001,85.000001,395.0,0.0,0.0,0.0,1.0,166.665,40.009,40.009,33.615,33.615,34.0,-17.88,21.394,-29.82,32.988,0.0,1782.297,-0.245000000000001,100.0,22.483,22.2955,34.274,34.399,0.0,0.0,100.0,0.0,0.0,0.0,0.0,3032.5,3228.4,4083.5,4164.5,305.56166666666667,304.7063333333333,314.9185,314.58225,21.907222222222224,20.7691,22.1581,21.5401,314.999998,314.999998,324.999988,324.999988,99.55447142857143,99.51126666666667,99.57734285714285,99.55007142857143,0.17125000000000012,-0.10299999999999998,-0.08859999999999979,0.14219999999999988,-0.04299999999999926,-0.03999999999999915,1.5314999999999999,1.5190000000000001,37.92,30.807000000000002,39.488,35.626,54.473,37.643,62.9625,53.7385,52.631,36.653999999999996,61.2595,51.9005,51.956,36.189499999999995,60.980000000000004,51.18,-0.16949999999999998,-0.1280000000000001,0.10985500000000001,0.11191000000000001,0.0,216.0,216.0,212.7733333333333,212.7733333333333,0.0,0.0
25,0.0,0.0,0.0,1.0,1.0,0.0,0.0,1.0,0.0,100.0,1.0,1.1856,26.0,0.0,0.0,0.0,59.999996,0.0,26.0,26.0,26.0,26.0,0.03225000000000011,0.2683,-0.016375,278.763,-2.5175,-2.480625,-1.7804,-1.714777777777778,-191.2,215.45499999999998,190.441375,0.0,0.0,0.0,0.0,0.0507,-5.498166666666667,-5.498166666666667,-0.5831000000000001,0.166,0.024555555555555664,-0.9405,69.13,0.020199999999999996,-0.19578,-0.20399999999999974,100.0,1.0,1.0,213.23666666666668,0.0,0.0,0.0,0.0,0.0,0.0,0.0,9038.3,0.0,55.0,5.0,248.84,1.0,0.0,0.0,0.0,0.0,0.0,0.0,0.0,1.256999999999998,1.256999999999998,0.0,0.0,1.0,55.0,616.79921,10000.0,85.000001,85.000001,85.000001,85.000001,395.0,0.0,0.0,0.0,1.0,166.665,38.925,38.925,33.89,33.89,34.0,-19.982499999999998,22.408,-30.335,31.384,0.0,1782.247,-0.3049999999999997,100.0,22.405,22.7655,33.955,34.328,0.0,0.0,100.0,0.0,0.0,0.0,0.0,3400.875,3384.2,4061.375,4094.6000000000004,304.562,303.9956666666667,315.13775,314.71075,21.916555555555554,20.7754,22.1691,21.5494,314.999998,314.999998,324.999988,324.999988,99.55448571428572,99.51128333333334,99.5775,99.55022857142858,0.17300000000000004,-0.1103333333333334,-0.0988,0.13140000000000018,-0.06400000000000006,-0.03166666666666629,1.5495,1.5465,37.979,30.8465,39.557,35.684,54.47,37.6825,62.988,53.796,52.626999999999995,36.6905,61.283,51.956,51.951,36.225,61.0,51.234,-0.17849999999999988,-0.13350000000000017,0.107965,0.11020500000000001,0.0,216.43,216.42000000000002,213.23666666666668,213.23666666666668,0.0,0.0
26,0.0,0.0,0.0,1.0,1.0,0.0,0.0,1.0,0.0,100.0,1.0,1.1856,26.0,0.0,0.0,0.0,59.999996,0.0,26.0,26.0,26.0,26.0,0.050124999999999975,0.2754000000000001,0.07295,277.954,-2.5407,-2.476375,-1.7467000000000001,-1.737111111111111,-187.67000000000002,215.4475,190.41575,0.0,0.0,0.0,0.0,0.05276666666666666,-5.498166666666667,-5.498166666666667,-0.5528000000000001,0.2475,0.017222222222222028,1.014,69.266,0.02059999999999995,-0.17994000000000002,-0.36799999999999944,100.0,1.0,1.0,213.42666666666668,0.0,0.0,0.0,0.0,0.0,0.0,0.0,9046.3,0.0,55.0,5.0,249.32999999999998,0.0,0.0,0.0,0.0,0.0,0.0,0.0,0.0,1.3079999999999998,1.3079999999999998,0.0,0.0,0.0,55.0,616.79921,10000.0,85.000001,85.000001,85.000001,85.000001,395.0,0.0,0.0,0.0,1.0,166.665,38.864,38.864,32.653999999999996,32.653999999999996,34.0,-18.5175,22.18,-32.5225,36.684,0.0,1782.195,-0.33999999999999986,100.0,23.185,22.9805,34.605000000000004,34.781,0.0,0.0,100.0,0.0,0.0,0.0,0.0,3261.375,3323.9,4408.5,4490.6,304.87233333333336,304.4596666666667,314.1725,313.76075,21.926111111111112,20.7818,22.1802,21.5589,314.999998,314.999998,324.999988,324.999988,99.55451428571429,99.5113,99.57764285714286,99.55037142857142,0.19074999999999998,-0.09899999999999998,-0.07800000000000007,0.14380000000000015,-0.047999999999998266,-0.04333333333332945,1.455,1.4329999999999998,38.038,30.886499999999998,39.626999999999995,35.7435,54.471000000000004,37.7235,63.0185,53.8575,52.628,36.7285,61.311,52.015,51.95,36.260999999999996,61.0245,51.2915,-0.18700000000000006,-0.12700000000000022,0.10330500000000001,0.10625000000000001,0.0,216.85000000000002,216.865,213.42666666666668,213.42666666666668,0.0,0.0
27,0.0,0.0,0.0,1.0,1.0,0.0,0.0,1.0,0.0,100.0,1.0,1.1856,26.0,0.0,0.0,0.0,59.999996,0.0,26.0,26.0,26.0,26.0,0.038124999999999964,0.24660000000000015,-0.049,278.534,-2.5877,-2.490125,-1.804,-1.7215555555555557,-184.55,215.44,190.394125,0.0,0.0,0.0,0.0,0.054566666666666666,-5.498166666666667,-5.498166666666667,-0.5770000000000001,-0.901,0.019777777777777894,-0.67,69.381,0.024800000000000155,-0.21672,-0.347999999999999,100.0,1.0,1.0,213.92000000000002,0.0,0.0,0.0,0.0,0.0,0.0,0.0,9067.3,0.0,55.0,5.0,249.74666666666667,1.0,0.0,0.0,0.0,0.0,0.0,0.0,0.0,1.352999999999998,1.352999999999998,0.0,0.0,1.0,55.0,616.79921,10000.0,85.000001,85.000001,85.000001,85.000001,395.0,0.0,0.0,0.0,1.0,333.33500000000004,39.261,39.261,32.913,32.913,34.0,-19.3975,21.355999999999998,-31.1525,31.654,0.0,1782.149,-0.3200000000000003,100.0,22.64,23.064,34.802,35.093,0.0,0.0,100.0,0.0,0.0,0.0,0.0,3243.5,3236.8,4154.375,4064.7,305.1716666666667,304.44,314.8795,314.818,21.934333333333335,20.787399999999998,22.1901,21.5673,314.999998,314.999998,324.999988,324.999988,99.55452857142858,99.51131666666667,99.57778571428571,99.5505,0.1755,-0.1113333333333334,-0.08840000000000003,0.13819999999999988,-0.03300000000000125,-0.04999999999999716,1.5234999999999999,1.5150000000000001,38.089,30.9215,39.688,35.795500000000004,54.468,37.757999999999996,63.0445,53.911,52.625,36.7605,61.335,52.066,51.946,36.292,61.046,51.341,-0.17649999999999988,-0.129,0.107105,0.102845,0.0,217.16666666666666,217.175,213.92000000000002,213.92000000000002,0.0,0.0
28,0.0,0.0,0.0,1.0,1.0,0.0,0.0,1.0,0.0,100.0,1.0,1.1856,26.0,0.0,0.0,0.0,59.999996,0.0,26.0,26.0,26.0,26.0,0.04325000000000001,0.2695000000000001,-0.0584,278.702,-2.5176,-2.4751250000000002,-1.8155999999999999,-1.747111111111111,-180.8,215.4325,190.36725,0.0,0.0,0.0,0.0,0.05676666666666667,-5.498166666666667,-5.498166666666667,-0.5815,0.588,0.007777777777777883,-0.836,69.519,0.02760000000000007,-0.19222,-0.3639999999999999,100.0,1.0,1.0,214.42000000000002,0.0,0.0,0.0,0.0,0.0,0.0,0.0,9088.5,0.0,55.0,5.0,250.24,0.0,0.0,0.0,0.0,0.0,0.0,0.0,0.0,1.407,1.407,0.0,0.0,0.0,55.0,616.79921,10000.0,85.000001,85.000001,85.000001,85.000001,395.0,0.0,0.0,0.0,1.0,166.665,39.322,39.322,33.432,33.432,34.0,-18.3375,21.438,-31.765,32.76,0.0,1782.097,-0.3550000000000004,100.0,22.696,22.983,34.199,34.596000000000004,0.0,0.0,100.0,0.0,0.0,0.0,0.0,3215.625,3207.3,4200.125,4133.7,305.10366666666664,304.507,314.869,314.6715,21.944222222222223,20.7942,22.2016,21.5771,314.999998,314.999998,324.999988,324.999988,99.55457142857144,99.51131666666667,99.57792857142857,99.55065714285715,0.1815,-0.10233333333333339,-0.09399999999999986,0.14419999999999966,-0.053999999999998494,-0.046666666666666856,1.5495,1.549,38.150999999999996,30.9635,39.76,35.857,54.467,37.8,63.070499999999996,53.971000000000004,52.623999999999995,36.7995,61.3585,52.1235,51.943,36.329,61.066,51.397,-0.18249999999999988,-0.1259999999999999,0.112475,0.11100000000000002,0.0,217.64333333333335,217.65,214.42000000000002,214.42000000000002,0.0,0.0
29,0.0,0.0,0.0,1.0,1.0,0.0,0.0,1.0,0.0,100.0,1.0,1.1856,26.0,0.0,0.0,0.0,59.999996,0.0,26.0,26.0,26.0,26.0,0.05237500000000006,0.25160000000000005,-0.030100000000000002,278.5795,-2.5866,-2.40625,-1.7945,-1.730222222222222,-177.25,215.425,190.34075,0.0,0.0,0.0,0.0,0.058800000000000005,-5.498166666666667,-5.498166666666667,-0.5879,-0.746,0.0076666666666667105,0.785,69.652,0.027800000000000047,-0.19288,-0.3899999999999997,100.0,1.0,1.0,214.7,0.0,0.0,0.0,0.0,0.0,0.0,0.0,9100.4,0.0,55.0,5.0,250.72333333333336,1.0,0.0,0.0,0.0,0.0,0.0,0.0,0.0,1.4579999999999984,1.4579999999999984,0.0,0.0,1.0,55.0,616.79921,10000.0,85.000001,85.000001,85.000001,85.000001,395.0,0.0,0.0,0.0,1.0,166.665,39.49,39.49,33.31,33.31,34.0,-18.835,22.204,-30.4,35.268,0.0,1782.045,-0.4400000000000013,100.0,22.547,22.5805,34.609,34.79,0.0,0.0,100.0,0.0,0.0,0.0,0.0,3241.5,3370.5,4112.0,4296.6,305.10833333333335,304.4823333333333,314.91125,314.2705,21.953333333333333,20.8004,22.2128,21.5866,314.999998,314.999998,324.999988,324.999988,99.55458571428571,99.51133333333334,99.57808571428572,99.55081428571428,0.18825000000000003,-0.08766666666666656,-0.07899999999999996,0.1594000000000002,-0.03500000000000014,-0.041666666666671404,1.5005,1.4745,38.208,31.002499999999998,39.83,35.916,54.464,37.8375,63.0995,54.0315,52.620000000000005,36.8345,61.3855,52.1815,51.938,36.3625,61.0895,51.4535,-0.17999999999999994,-0.11799999999999988,0.10602500000000001,0.11490500000000001,0.0,217.99666666666667,218.03,214.7,214.7,0.0,0.0
30,0.0,0.0,0.0,1.0,1.0,0.0,0.0,1.0,0.0,100.0,1.0,1.1856,26.0,0.0,0.0,0.0,59.999996,0.0,26.0,26.0,26.0,26.0,0.031500000000000083,0.26270000000000016,0.02435,277.878,-2.5599,-2.4696249999999997,-1.8299,-1.646111111111111,-173.89999999999998,215.42000000000002,190.31575,0.0,0.0,0.0,0.0,0.06076666666666666,-5.498166666666667,-5.498166666666667,-0.5853,0.9155,0.009777777777777885,0.7415,69.773,0.03090000000000015,-0.19456,-0.5659999999999998,100.0,1.0,1.0,215.12666666666667,0.0,0.0,0.0,0.0,0.0,0.0,0.0,9118.5,0.0,55.0,5.0,251.15666666666667,0.0,0.0,0.0,0.0,0.0,0.0,1.0,0.0,1.5060000000000002,1.5060000000000002,0.0,0.0,0.0,55.0,616.79921,10000.0,85.000001,85.000001,85.000001,85.000001,395.0,0.0,0.0,0.0,1.0,166.665,37.994,37.994,33.096000000000004,33.096000000000004,34.0,-19.1225,23.212,-31.252499999999998,33.294,0.0,1781.998,-0.41499999999999915,100.0,23.489,23.445,34.398,34.742000000000004,0.0,0.0,100.0,0.0,0.0,0.0,0.0,3357.625,3463.1,4266.75,4299.7,304.49266666666665,303.7896666666667,314.70175,314.4425,21.962222222222223,20.8066,22.2231,21.595399999999998,314.999998,314.999998,324.999988,324.999988,99.55461428571428,99.51135,99.57821428571428,99.55095714285714,0.1975,-0.10399999999999998,-0.06719999999999993,0.15180000000000016,-0.053999999999998494,-0.04333333333332945,1.5375,1.5035,38.263999999999996,31.0415,39.894,35.9715,54.467,37.876999999999995,63.124,54.0865,52.622,36.871,61.408,52.234,51.938,36.3975,61.1085,51.504999999999995,-0.1895,-0.1280000000000001,0.10423,0.10323,0.0,218.41666666666666,218.445,215.12666666666667,215.12666666666667,0.0,0.0
31,0.0,0.0,0.0,1.0,1.0,0.0,0.0,1.0,0.0,100.0,1.0,1.1856,26.0,0.0,0.0,0.0,59.999996,0.0,26.0,26.0,26.0,26.0,0.04425000000000012,0.24940000000000007,0.058300000000000005,277.5725,-2.5387,-2.448875,-1.8343,-1.724777777777778,-170.34,215.41750000000002,190.29,0.0,0.0,0.0,0.0,0.06283333333333334,-5.498166666666667,-5.498166666666667,-0.5697,-0.3755,0.016555555555555657,-0.736,69.905,0.0343,-0.20192000000000002,-0.4399999999999995,100.0,1.0,1.0,215.39,0.0,0.0,0.0,0.0,0.0,0.0,0.0,9129.6,0.0,55.0,5.0,251.63333333333333,1.0,0.0,0.0,0.0,0.0,0.0,1.0,0.0,1.5569999999999986,1.5569999999999986,0.0,0.0,1.0,55.0,616.79921,10000.0,85.000001,85.000001,85.000001,85.000001,395.0,0.0,0.0,0.0,1.0,166.665,38.361,38.361,31.997999999999998,31.997999999999998,34.0,-18.4425,23.165999999999997,-32.1225,34.534,0.0,1781.946,-0.41999999999999815,100.0,23.103,23.6315,35.092,35.613,0.0,0.0,100.0,0.0,0.0,0.0,0.0,3289.625,3447.6,4291.625,4274.0,304.89733333333334,303.8713333333333,314.5015,314.18125,21.971555555555554,20.8131,22.2343,21.6051,314.999998,314.999998,324.999988,324.999988,99.55464285714285,99.51136666666666,99.57837142857143,99.5511,0.19399999999999995,-0.09733333333333338,-0.06759999999999988,0.14400000000000013,-0.053000000000000824,-0.03833333333332689,1.4635,1.448,38.322,31.082,39.964,36.032,54.466,37.917500000000004,63.155,54.149,52.620999999999995,36.908500000000004,61.437,52.2945,51.936,36.4335,61.134,51.563,-0.18700000000000006,-0.1259999999999999,0.099635,0.10733500000000001,0.0,218.8,218.825,215.39,215.39,0.0,0.0
32,0.0,0.0,0.0,1.0,1.0,0.0,0.0,1.0,0.0,100.0,1.0,1.1856,26.0,0.0,0.0,0.0,59.999996,0.0,26.0,26.0,26.0,26.0,0.06475000000000009,0.2621,-0.015300000000000001,278.1525,-2.5336,-2.503875,-1.7762,-1.8006666666666669,-166.98000000000002,215.41500000000002,190.266,0.0,0.0,0.0,0.0,0.0648,-5.498166666666667,-5.498166666666667,-0.5864,-0.319,-0.0012222222222222356,-0.976,70.024,0.03520000000000012,-0.20848000000000003,-0.4639999999999995,100.0,1.0,1.0,215.88666666666666,0.0,0.0,0.0,0.0,0.0,0.0,0.0,9150.7,0.0,55.0,5.0,252.06333333333333,0.0,0.0,0.0,0.0,0.0,0.0,1.0,0.0,1.6050000000000004,1.6050000000000004,0.0,0.0,0.0,55.0,616.79921,10000.0,85.000001,85.000001,85.000001,85.000001,395.0,0.0,0.0,0.0,1.0,333.33500000000004,39.016999999999996,39.016999999999996,32.944,32.944,34.0,-18.1725,22.174,-29.8525,35.176,0.0,1781.897,-0.4450000000000003,100.0,22.891,23.3955,34.89,35.437,0.0,0.0,100.0,0.0,0.0,0.0,0.0,3256.625,3209.5,4101.25,4218.6,305.05766666666665,304.55266666666665,314.98025,314.369,21.980222222222224,20.8192,22.2446,21.614,314.999998,314.999998,324.999988,324.999988,99.55467142857142,99.51138333333333,99.57851428571429,99.55124285714285,0.19300000000000006,-0.09199999999999997,-0.07779999999999987,0.15380000000000038,-0.05000000000000071,-0.04333333333332945,1.5225,1.5070000000000001,38.376000000000005,31.119999999999997,40.028999999999996,36.087,54.465,37.954499999999996,63.1795,54.204,52.620000000000005,36.943,61.459,52.347,51.933,36.466499999999996,61.153,51.6145,-0.1935,-0.11649999999999983,0.10545,0.10974,0.0,219.16666666666666,219.195,215.88666666666666,215.88666666666666,0.0,0.0
33,0.0,0.0,0.0,1.0,1.0,0.0,0.0,1.0,0.0,100.0,1.0,1.1856,26.0,0.0,0.0,0.0,59.999996,0.0,26.0,26.0,26.0,26.0,0.060249999999999915,0.252,-0.037825000000000004,278.427,-2.5458,-2.51525,-1.7826,-1.7663333333333333,-163.62,215.41500000000002,190.240875,0.0,0.0,0.0,0.0,0.06673333333333334,-5.498166666666667,-5.498166666666667,-0.5964,-0.253,-0.0033333333333334103,-0.249,70.146,0.03770000000000007,-0.19348,-0.4660000000000002,100.0,1.0,1.0,216.2733333333333,0.0,0.0,0.0,0.0,0.0,0.0,0.0,9167.0,0.0,55.0,5.0,252.49666666666667,1.0,0.0,0.0,0.0,0.0,0.0,1.0,0.0,1.6529999999999987,1.6529999999999987,0.0,0.0,1.0,55.0,616.79921,10000.0,85.000001,85.000001,85.000001,85.000001,395.0,0.0,0.0,0.0,1.0,333.33500000000004,39.246,39.246,33.278999999999996,33.278999999999996,34.0,-18.8475,21.497999999999998,-30.259999999999998,33.96,0.0,1781.85,-0.4349999999999987,100.0,22.707,23.11,34.653999999999996,35.167,0.0,0.0,100.0,0.0,0.0,0.0,0.0,3287.125,3149.7,4122.125,4168.2,304.989,304.745,314.97225,314.575,21.988777777777777,20.8251,22.2549,21.622799999999998,314.999998,314.999998,324.999988,324.999988,99.55468571428571,99.51138333333333,99.57865714285714,99.55138571428571,0.18575000000000008,-0.09899999999999998,-0.08259999999999978,0.15219999999999967,-0.04199999999999804,-0.01999999999999602,1.533,1.5155,38.43,31.157,40.093,36.1425,54.464,37.9895,63.204,54.257999999999996,52.617999999999995,36.9755,61.4815,52.399,51.93,36.4975,61.172,51.664500000000004,-0.18199999999999994,-0.121,0.11126000000000001,0.105675,0.0,219.54666666666668,219.54500000000002,216.2733333333333,216.2733333333333,0.0,0.0
34,0.0,0.0,0.0,1.0,1.0,0.0,0.0,1.0,0.0,100.0,1.0,1.1856,26.0,0.0,0.0,0.0,59.999996,0.0,26.0,26.0,26.0,26.0,0.058499999999999996,0.26249999999999996,-0.08990000000000001,278.656,-2.4984,-2.50475,-1.815,-1.7046666666666668,-160.04,215.41500000000002,190.21275,0.0,0.0,0.0,0.0,0.06883333333333334,-5.498166666666667,-5.498166666666667,-0.6231,-0.878,0.020444444444444265,0.9995,70.274,0.041200000000000125,-0.19872,-0.5420000000000007,100.0,1.0,1.0,216.62666666666667,0.0,0.0,0.0,0.0,0.0,0.0,0.0,9182.0,0.0,55.0,5.0,252.96,0.0,0.0,0.0,0.0,0.0,0.0,1.0,0.0,1.7040000000000006,1.7040000000000006,0.0,0.0,0.0,55.0,616.79921,10000.0,85.000001,85.000001,85.000001,85.000001,395.0,0.0,0.0,0.0,1.0,333.33500000000004,39.78,39.78,33.432,33.432,34.0,-16.785,22.275999999999996,-29.564999999999998,34.69,0.0,1781.798,-0.3949999999999996,100.0,22.626,22.674500000000002,34.617,35.149,0.0,0.0,100.0,0.0,0.0,0.0,0.0,3074.5,3220.9,4089.25,4248.9,305.47133333333335,304.7986666666667,315.011,314.43125,21.997888888888887,20.8313,22.2659,21.6322,314.999998,314.999998,324.999988,324.999988,99.55471428571428,99.5114,99.5788,99.55154285714286,0.19274999999999998,-0.08566666666666656,-0.06440000000000001,0.16860000000000008,-0.0259999999999998,-0.061666666666667425,1.531,1.514,38.486999999999995,31.195999999999998,40.162,36.201499999999996,54.462,38.0255,63.2295,54.317499999999995,52.616,37.009,61.504999999999995,52.456,51.9255,36.5295,61.192,51.72,-0.1835,-0.1200000000000001,0.10285000000000001,0.10831500000000001,0.0,219.91333333333336,219.95499999999998,216.62666666666667,216.62666666666667,0.0,0.0
35,0.0,0.0,0.0,1.0,1.0,0.0,0.0,1.0,0.0,100.0,1.0,1.1856,26.0,0.0,0.0,0.0,59.999996,0.0,26.0,26.0,26.0,26.0,0.05537499999999995,0.25770000000000004,-0.07745,278.5185,-2.6291,-2.4844999999999997,-1.8077,-1.6955555555555557,-156.24,215.41750000000002,190.180875,0.0,0.0,0.0,0.0,0.07103333333333334,-5.498166666666667,-5.498166666666667,-0.6616000000000001,-0.057,-0.0021111111111111747,-0.257,70.407,0.04520000000000013,-0.20392000000000002,-0.4900000000000002,100.0,1.0,1.0,217.13,0.0,0.0,0.0,0.0,0.0,0.0,0.0,9203.3,0.0,55.0,5.0,253.44333333333333,1.0,0.0,0.0,0.0,0.0,0.0,1.0,0.0,1.7579999999999991,1.7579999999999991,0.0,0.0,1.0,55.0,616.79921,10000.0,85.000001,85.000001,85.000001,85.000001,395.0,0.0,0.0,0.0,1.0,166.665,38.956,38.956,33.157,33.157,34.0,-19.18,24.137999999999998,-28.7175,32.426,0.0,1781.745,-0.21499999999999986,100.0,22.538,23.1265,34.368,34.623,0.0,0.0,100.0,0.0,0.0,0.0,0.0,3192.5,3518.5,4009.0,4073.9,305.11333333333334,303.7683333333333,315.158,314.83575,22.007444444444445,20.8382,22.2773,21.6421,314.999998,314.999998,324.999988,324.999988,99.55472857142857,99.51141666666666,99.57895714285715,99.5517,0.1865000000000001,-0.09466666666666657,-0.06379999999999986,0.16259999999999986,-0.04299999999999926,-0.041666666666671404,1.5535,1.5485,38.546,31.238999999999997,40.233000000000004,36.263,54.458,38.067499999999995,63.2555,54.376,52.611999999999995,37.048,61.528999999999996,52.512,51.92,36.567,61.2125,51.7745,-0.16999999999999993,-0.1419999999999999,0.11341000000000001,0.103785,0.0,220.35333333333335,220.375,217.13,217.13,0.0,0.0
36,0.0,0.0,0.0,1.0,1.0,0.0,0.0,1.0,0.0,100.0,1.0,1.1856,26.0,0.0,0.0,0.0,59.999996,0.0,26.0,26.0,26.0,26.0,0.05862499999999993,0.26070000000000015,0.02935,277.9235,-2.4837,-2.536625,-1.8359,-1.7742222222222221,-153.07,215.42000000000002,190.15325,0.0,0.0,0.0,0.0,0.07286666666666666,-5.498166666666667,-5.498166666666667,-0.6444000000000001,0.09,-0.04144444444444417,-1.2605,70.522,0.038799999999999946,-0.1811,-0.24600000000000044,100.0,1.0,1.0,217.26999999999998,0.0,0.0,0.0,0.0,0.0,0.0,0.0,9209.3,0.0,55.0,5.0,253.85333333333335,0.0,0.0,0.0,0.0,0.0,0.0,1.0,0.0,1.8030000000000008,1.8030000000000008,0.0,0.0,0.0,55.0,616.79921,10000.0,85.000001,85.000001,85.000001,85.000001,395.0,0.0,0.0,0.0,1.0,333.33500000000004,39.047,39.047,32.669,32.669,34.0,-17.599999999999998,21.254,-33.792500000000004,36.788,0.0,1781.699,-0.19500000000000028,100.0,22.988,23.3005,34.555,35.096000000000004,0.0,0.0,100.0,0.0,0.0,0.0,0.0,3224.5,3146.6,4421.5,4431.0,305.03266666666667,304.664,314.284,313.916,22.015555555555554,20.8439,22.2871,21.6505,314.999998,314.999998,324.999988,324.999988,99.55475714285714,99.51143333333333,99.57908571428571,99.55184285714286,0.19250000000000012,-0.11066666666666658,-0.07719999999999994,0.14719999999999978,-0.05000000000000071,-0.03499999999999659,1.4585,1.4535,38.597,31.2745,40.294,36.3155,54.458,38.1025,63.28,54.429,52.611999999999995,37.0805,61.5515,52.5635,51.918499999999995,36.598,61.232,51.8245,-0.17300000000000004,-0.1419999999999999,0.10547000000000001,0.10125500000000001,0.0,220.73000000000002,220.735,217.26999999999998,217.26999999999998,0.0,0.0
