,ABS Active,ABS Enabled,AID Allow Tire Blankets,AID Auto Blip,AID Auto Clutch,AID Auto Shift,AID Fuel Rate,AID Ideal Line,AID Mech Damage,AID Stability,AID Tire Wear Rate,Air Density,Air Temp,Ballast,Best Lap Delta,Best Lap Time,Brake Bias,Brake Pos,Brake Temp FL,Brake Temp FR,Brake Temp RL,Brake Temp RR,CG Accel Lateral,CG Accel Longitudinal,CG Accel Vertical,CG Height,Camber FL,Camber FR,Camber RL,Camber RR,Car Coord X,Car Coord Y,Car Coord Z,Car Damage Front,Car Damage Left,Car Damage Rear,Car Damage Right,Car Pos Norm,Caster FL,Caster FR,Chassis Pitch Angle,Chassis Pitch Rate,Chassis Roll Angle,Chassis Roll Rate,Chassis Velocity X,Chassis Velocity Y,Chassis Velocity Z,Chassis Yaw Rate,Clutch Pos,DRS Active,DRS Available,Drive Train Speed,ERS Heat Charging,ERS Is Charging,ERS Max Energy,ERS Power Level,ERS Recovery Level,Engine Brake Setting,Engine Limiter,Engine RPM,Flags,Fuel Level,Gear,Ground Speed,HR Sample Clock,In Pit,KERS Charge,KERS Deployed Energy,KERS Input,KERS Max Energy,LR Sample Clock,Lap Invalidated,Lap Time,Lap Time2,Last Lap Time,Last Sector Time,MR Sample Clock,Max Fuel,Max Power,Max RPM,Max Sus Travel FL,Max Sus Travel FR,Max Sus Travel RL,Max Sus Travel RR,Max Torque,Max Turbo Boost,Num Tires Off Track,Penalties Enabled,Position,Raw Data Sample Rate,Ride Height FL,Ride Height FR,Ride Height RL,Ride Height RR,Road Temp,Self Align Torque FL,Self Align Torque FR,Self Align Torque RL,Self Align Torque RR,Session Lap Count,Session Time Left,Steering Angle,Surface Grip,Suspension Travel FL,Suspension Travel FR,Suspension Travel RL,Suspension Travel RR,TC Active,TC Enabled,Throttle Pos,Tire Dirt Level FL,Tire Dirt Level FR,Tire Dirt Level RL,Tire Dirt Level RR,Tire Load FL,Tire Load FR,Tire Load RL,Tire Load RR,Tire Loaded Radius FL,Tire Loaded Radius FR,Tire Loaded Radius RL,Tire Loaded Radius RR,Tire Pressure FL,Tire Pressure FR,Tire Pressure RL,Tire Pressure RR,Tire Radius FL,Tire Radius FR,Tire Radius RL,Tire Radius RR,Tire Rubber Grip FL,Tire Rubber Grip FR,Tire Rubber Grip RL,Tire Rubber Grip RR,Tire Slip Angle FL,Tire Slip Angle FR,Tire Slip Angle RL,Tire Slip Angle RR,Tire Slip Ratio FL,Tire Slip Ratio FR,Tire Slip Ratio RL,Tire Slip Ratio RR,Tire Temp Core FL,Tire Temp Core FR,Tire Temp Core RL,Tire Temp Core RR,Tire Temp Inner FL,Tire Temp Inner FR,Tire Temp Inner RL,Tire Temp Inner RR,Tire Temp Middle FL,Tire Temp Middle FR,Tire Temp Middle RL,Tire Temp Middle RR,Tire Temp Outer FL,Tire Temp Outer FR,Tire Temp Outer RL,Tire Temp Outer RR,Toe In FL,Toe In FR,Toe In RL,Toe In RR,Turbo Boost,Wheel Angular Speed FL,Wheel Angular Speed FR,Wheel Angular Speed RL,Wheel Angular Speed RR,Wind Direction,Wind Speed
0,0.0,0.0,0.0,1.0,1.0,0.0,0.0,1.0,0.0,100.0,1.0,1.1856,26.0,0.0,0.0,0.0,59.99999,0.0,26.0,26.0,26.0,26.0,-0.09375,0.29980000000000007,0.09516666666666666,282.12,-2.55445,-2.504375,-1.6677,-1.717888888888889,-275.42,216.32,190.97425,0.0,0.0,0.0,0.0,0.0017333333333333645,-5.498166666666667,-5.498166666666667,-0.5642,1.374,-0.016555555555555657,-1.452,65.691,-0.03749999999999998,-0.2257,1.1679999999999993,100.0,1.0,1.0,202.92000000000002,0.0,0.0,0.0,0.0,0.0,0.0,0.0,8601.1,0.0,55.0,5.0,236.46,0.0,0.0,0.0,0.0,0.0,0.0,0.0,0.0,0.006000000000000227,0.006000000000000227,0.0,0.0,0.0,55.0,616.79921,10000.0,85.0,85.0,85.0,85.0,395.0,0.0,0.0,0.0,1.0,20.0,40.268,40.268,38.01,38.01,34.0,-25.7975,20.486666666666665,-31.2825,24.474,0.0,1783.524,0.865000000000002,100.0,20.8345,20.4065,29.37,29.2925,0.0,0.0,100.0,0.0,0.0,0.0,0.0,3379.125,3713.4,4032.4444444444443,3763.7,304.5996666666667,302.967,315.15625,315.46325,21.687,20.6124,21.909222222222223,21.3285,314.99999,314.99999,324.99998,324.99998,99.55398571428572,99.51051666666666,99.57461428571429,99.54681428571429,0.057,-0.19374999999999998,-0.16100000000000003,0.05600000000000005,-0.03599999999999781,-0.051666666666669414,1.5965,1.6515,36.544,29.8275,37.933,34.3035,54.579,36.478,62.471000000000004,52.3495,52.714,35.5895,60.8315,50.601,52.0415,35.183,60.6435,49.9465,-0.0685,-0.21050000000000013,0.10417000000000001,0.10151,0.0,205.83666666666667,205.76999999999998,202.92000000000002,202.92000000000002,0.0,0.0
1,0.0,0.0,0.0,1.0,1.0,0.0,0.0,1.0,0.0,100.0,1.0,1.1856,26.0,0.0,0.0,0.0,59.999996,0.0,26.0,26.0,26.0,26.0,-0.10925,0.2948000000000002,0.011066666666666667,281.204,-2.4768,-2.607625,-1.6869,-1.7074444444444443,-272.07,216.315,190.954125,0.0,0.0,0.0,0.0,0.0036999999999999256,-5.498166666666667,-5.498166666666667,-0.4854,-0.257,-0.05422222222222217,-0.3660000000000001,65.84700000000001,-0.054099999999999926,-0.1917,1.3720000000000008,100.0,1.0,1.0,202.94333333333333,0.0,0.0,0.0,0.0,0.0,0.0,0.0,8602.0,0.0,55.0,5.0,237.01999999999998,1.0,0.0,0.0,0.0,0.0,0.0,0.0,0.0,0.05699999999999861,0.05699999999999861,0.0,0.0,1.0,55.0,616.79921,10000.0,85.000001,85.000001,85.000001,85.000001,395.0,0.0,0.0,0.0,1.0,333.33500000000004,42.145,42.145,36.147999999999996,36.147999999999996,34.0,-22.685,14.685,-37.0775,33.016,0.0,1783.471,0.9149999999999991,100.0,20.9755,20.2705,31.687,30.663,0.0,0.0,100.0,0.0,0.0,0.0,0.0,3069.25,2778.3,4388.555555555556,4842.200000000001,305.35333333333335,305.99625,314.133,312.78825,21.69677777777778,20.6182,21.92088888888889,21.3379,314.999998,314.999998,324.999988,324.999988,99.554,99.51055,99.57475714285714,99.54697142857142,0.05375,-0.21275,-0.17466666666666664,0.03866666666666685,-0.04899999999999949,-0.04333333333332945,1.3785,1.4339999999999997,36.605000000000004,29.863999999999997,38.004999999999995,34.3615,54.572,36.521,62.5075,52.414500000000004,52.707,35.629,60.8655,50.6635,52.033,35.2205,60.6745,50.0075,-0.07000000000000006,-0.21499999999999986,0.10111,0.105175,0.0,206.35333333333335,206.215,202.94333333333333,202.94333333333333,0.0,0.0
2,0.0,0.0,0.0,1.0,1.0,0.0,0.0,1.0,0.0,100.0,1.0,1.1856,26.0,0.0,0.0,0.0,59.999996,0.0,26.0,26.0,26.0,26.0,-0.138125,0.2864,-0.14223333333333332,282.2115,-2.4629,-2.624375,-1.6573,-1.7510000000000001,-268.51,216.3075,190.934375,0.0,0.0,0.0,0.0,0.005766666666666587,-5.498166666666667,-5.498166666666667,-0.5407000000000001,0.1275,-0.03288888888888897,2.4859999999999998,65.997,-0.07439999999999991,-0.24782500000000002,1.5779999999999994,100.0,1.0,1.0,203.92333333333335,0.0,0.0,0.0,0.0,0.0,0.0,0.0,8643.6,0.0,55.0,5.0,237.55666666666667,0.0,0.0,0.0,0.0,0.0,0.0,0.0,0.0,0.11100000000000065,0.11100000000000065,0.0,0.0,0.0,55.0,616.79921,10000.0,85.000001,85.000001,85.000001,85.000001,395.0,0.0,0.0,0.0,1.0,166.665,41.183,41.183,38.544,38.544,34.0,-25.515,16.645,-30.105,22.924,0.0,1783.419,0.8049999999999997,100.0,21.303,20.113500000000002,31.22,30.1535,0.0,0.0,100.0,0.0,0.0,0.0,0.0,3329.875,3081.2,3669.5555555555557,3751.6000000000004,304.49,305.072,315.8995,315.609,21.707333333333334,20.6241,21.93277777777778,21.3473,314.999998,314.999998,324.999988,324.999988,99.554,99.51058333333333,99.57491428571429,99.54711428571429,0.04075,-0.21424999999999994,-0.21733333333333338,0.022499999999999964,-0.047999999999998266,-0.060000000000002274,1.655,1.7065000000000001,36.671,29.9005,38.08,34.421,54.564,36.563,62.5375,52.4735,52.699,35.667500000000004,60.8935,50.7195,52.0245,35.2575,60.6995,50.062,-0.08000000000000007,-0.20100000000000007,0.10368000000000001,0.113875,0.0,206.79000000000002,206.655,203.92333333333335,203.92333333333335,0.0,0.0
3,0.0,0.0,0.0,1.0,1.0,0.0,0.0,1.0,0.0,100.0,1.0,1.1856,26.0,0.0,0.0,0.0,59.999996,0.0,26.0,26.0,26.0,26.0,-0.14775,0.3062,0.0135,281.9825,-2.58825,-2.52125,-1.6763,-1.7346666666666668,-265.34,216.29500000000002,190.91575,0.0,0.0,0.0,0.0,0.00759999999999994,-5.498166666666667,-5.498166666666667,-0.5077,0.256,0.0,-0.6680000000000001,66.139,-0.08489999999999998,-0.195525,1.274,100.0,1.0,1.0,204.05333333333334,0.0,0.0,0.0,0.0,0.0,0.0,0.0,8649.1,0.0,55.0,5.0,238.07,1.0,0.0,0.0,0.0,0.0,0.0,0.0,0.0,0.15899999999999892,0.15899999999999892,0.0,0.0,1.0,55.0,616.79921,10000.0,85.000001,85.000001,85.000001,85.000001,395.0,0.0,0.0,0.0,1.0,166.665,42.267,42.267,36.56,36.56,34.0,-22.8525,14.636666666666667,-36.8525,26.43,0.0,1783.37,0.6449999999999996,100.0,20.8085,20.329,31.034,30.2625,0.0,0.0,100.0,0.0,0.0,0.0,0.0,2914.75,2905.5,4260.555555555556,4230.9,305.90133333333335,305.50525,314.523,314.3545,21.716333333333335,20.6295,21.94322222222222,21.3558,314.999998,314.999998,324.999988,324.999988,99.554,99.5106,99.57505714285715,99.54724285714286,0.03875,-0.21575,-0.21366666666666656,0.010833333333333472,-0.07099999999999795,-0.041666666666671404,1.5075,1.5505,36.727000000000004,29.9345,38.144999999999996,34.474000000000004,54.554,36.6035,62.5655,52.5305,52.689,35.705,60.9195,50.774,52.0135,35.2935,60.7225,50.1155,-0.08699999999999997,-0.1884999999999999,0.10615000000000001,0.10414500000000002,0.0,207.25,207.14499999999998,204.05333333333334,204.05333333333334,0.0,0.0
4,0.0,0.0,0.0,1.0,1.0,0.0,0.0,1.0,0.0,100.0,1.0,1.1856,26.0,0.0,0.0,0.0,59.999996,0.0,26.0,26.0,26.0,26.0,-0.1475,0.2833000000000001,0.004933333333333334,281.967,-2.5137,-2.572125,-1.6902,-1.746,-262.16,216.28,190.896875,0.0,0.0,0.0,0.0,0.009466666666666512,-5.498166666666667,-5.498166666666667,-0.5432,-0.758,-0.07011111111111124,-1.54,66.276,-0.08499999999999996,-0.23125,1.1660000000000004,100.0,1.0,1.0,204.60666666666668,0.0,0.0,0.0,0.0,0.0,0.0,0.0,8672.6,0.0,55.0,5.0,238.56666666666666,0.0,0.0,0.0,0.0,0.0,0.0,0.0,0.0,0.20700000000000074,0.20700000000000074,0.0,0.0,0.0,55.0,616.79921,10000.0,85.000001,85.000001,85.000001,85.000001,395.0,0.0,0.0,0.0,1.0,333.33500000000004,41.397,41.397,37.155,37.155,34.0,-26.259999999999998,15.79,-34.582499999999996,23.09,0.0,1783.321,0.5549999999999997,100.0,20.8055,20.322,31.423000000000002,30.298000000000002,0.0,0.0,100.0,0.0,0.0,0.0,0.0,3400.25,3010.6,4078.0,3697.9,304.5953333333333,305.19275,314.926,315.627,21.72533333333333,20.634900000000002,21.95388888888889,21.3644,314.999998,314.999998,324.999988,324.999988,99.55401428571429,99.51063333333333,99.57518571428571,99.54737142857142,0.0415,-0.21424999999999994,-0.20666666666666667,0.02416666666666667,-0.03999999999999915,-0.030000000000001137,1.5665,1.5924999999999998,36.783,29.968,38.212,34.527,54.543,36.6425,62.596000000000004,52.584,52.679,35.741,60.9475,50.8255,52.0025,35.328,60.748,50.165,-0.09749999999999992,-0.18550000000000022,0.102605,0.10493500000000001,0.0,207.62333333333333,207.505,204.60666666666668,204.60666666666668,0.0,0.0
5,0.0,0.0,0.0,1.0,1.0,0.0,0.0,1.0,0.0,100.0,1.0,1.1856,26.0,0.0,0.0,0.0,59.999996,0.0,26.0,26.0,26.0,26.0,-0.128125,0.3042,-0.03626666666666667,281.9215,-2.52095,-2.597875,-1.6741000000000001,-1.7332222222222222,-258.78,216.2625,190.8765,0.0,0.0,0.0,0.0,0.011433333333333295,-5.498166666666667,-5.498166666666667,-0.5341,0.467,-0.07022222222222219,1.189,66.422,-0.08460000000000001,-0.215975,0.968,100.0,1.0,1.0,204.98333333333335,0.0,0.0,0.0,0.0,0.0,0.0,0.0,8688.5,0.0,55.0,5.0,239.09333333333333,1.0,0.0,0.0,0.0,0.0,0.0,0.0,0.0,0.2579999999999991,0.2579999999999991,0.0,0.0,1.0,55.0,616.79921,10000.0,85.000001,85.000001,85.000001,85.000001,395.0,0.0,0.0,0.0,1.0,333.33500000000004,41.778999999999996,41.778999999999996,37.186,37.186,34.0,-23.865,16.898333333333333,-35.6975,26.098,0.0,1783.27,0.23000000000000043,100.0,21.058,20.065,31.269,30.0105,0.0,0.0,100.0,0.0,0.0,0.0,0.0,3213.0,2970.5,4174.777777777777,4097.9,304.9223333333333,305.42725,314.71825,314.73375,21.73511111111111,20.6407,21.96511111111111,21.3733,314.999998,314.999998,324.999988,324.999988,99.55401428571429,99.51065,99.57532857142857,99.54751428571429,0.0655,-0.1865,-0.21183333333333332,0.026999999999999913,-0.06199999999999761,-0.054999999999999716,1.5425,1.5705,36.845,30.003999999999998,38.282,34.583,54.537,36.6845,62.626999999999995,52.6405,52.673,35.7795,60.976,50.8795,51.995000000000005,35.365,60.7735,50.2175,-0.12250000000000005,-0.15900000000000025,0.107715,0.11621000000000001,0.0,208.10333333333335,208.01999999999998,204.98333333333335,204.98333333333335,0.0,0.0
6,0.0,0.0,0.0,1.0,1.0,0.0,0.0,1.0,0.0,100.0,1.0,1.1856,26.0,0.0,0.0,0.0,59.999996,0.0,26.0,26.0,26.0,26.0,-0.097375,0.2904,0.0045000000000000005,282.013,-2.49475,-2.628625,-1.7178,-1.7266666666666668,-255.59,216.2425,190.857375,0.0,0.0,0.0,0.0,0.013266666666666538,-5.498166666666667,-5.498166666666667,-0.5264,0.2005,-0.04933333333333367,0.8739999999999999,66.56,-0.07739999999999991,-0.21335,0.6440000000000001,100.0,1.0,1.0,205.42333333333335,0.0,0.0,0.0,0.0,0.0,0.0,0.0,8707.2,0.0,55.0,5.0,239.58666666666667,0.0,0.0,0.0,0.0,0.0,0.0,0.0,0.0,0.30600000000000094,0.30600000000000094,0.0,0.0,0.0,55.0,616.79921,10000.0,85.000001,85.000001,85.000001,85.000001,395.0,0.0,0.0,0.0,1.0,333.33500000000004,41.87,41.87,37.17,37.17,34.0,-22.564999999999998,18.483333333333334,-33.995,26.946,0.0,1783.223,0.08999999999999986,100.0,20.7735,19.8835,31.227,30.23,0.0,0.0,100.0,0.0,0.0,0.0,0.0,3150.625,3085.9,4079.8888888888887,4055.4,305.08233333333334,305.0225,314.939,314.832,21.744222222222223,20.6461,21.97577777777778,21.3819,314.999998,314.999998,324.999988,324.999988,99.55402857142857,99.51066666666667,99.57545714285715,99.54764285714286,0.0775,-0.17574999999999996,-0.18533333333333335,0.05166666666666675,-0.03999999999999915,-0.04333333333332945,1.551,1.5715,36.902,30.0385,38.348,34.637,54.53,36.7235,62.656,52.697,52.666,35.8155,61.003,50.933,51.986999999999995,35.399,60.7975,50.269999999999996,-0.131,-0.1419999999999999,0.09639,0.115915,0.0,208.50333333333333,208.445,205.42333333333335,205.42333333333335,0.0,0.0
7,0.0,0.0,0.0,1.0,1.0,0.0,0.0,1.0,0.0,100.0,1.0,1.1856,26.0,0.0,0.0,0.0,59.999996,0.0,26.0,26.0,26.0,26.0,-0.066,0.28490000000000015,0.016300000000000002,281.952,-2.4728,-2.587875,-1.6748,-1.7682222222222221,-252.19,216.2175,190.837,0.0,0.0,0.0,0.0,0.01526666666666654,-5.498166666666667,-5.498166666666667,-0.5286000000000001,0.02,-0.0427777777777778,-0.25,66.70400000000001,-0.061999999999999944,-0.21895,0.40200000000000014,100.0,1.0,1.0,205.85666666666668,0.0,0.0,0.0,0.0,0.0,0.0,0.0,8725.5,0.0,55.0,5.0,240.11,1.0,0.0,0.0,0.0,0.0,0.0,0.0,0.0,0.3569999999999993,0.3569999999999993,0.0,0.0,1.0,55.0,616.79921,10000.0,85.000001,85.000001,85.000001,85.000001,395.0,0.0,0.0,0.0,1.0,333.33500000000004,41.733,41.733,37.415,37.415,34.0,-22.83,18.413333333333334,-33.265,27.054000000000002,0.0,1783.171,-0.2049999999999983,100.0,20.616,19.9285,31.104,30.4955,0.0,0.0,100.0,0.0,0.0,0.0,0.0,3311.625,3027.8,4070.3333333333335,3980.2,304.72333333333336,305.0135,314.97725,314.88575,21.753888888888888,20.6519,21.987000000000002,21.3911,314.999998,314.999998,324.999988,324.999988,99.55402857142857,99.5107,99.5756,99.54778571428571,0.09275,-0.16325,-0.18233333333333335,0.049833333333333174,-0.05699999999999861,-0.041666666666671404,1.534,1.5499999999999998,36.962,30.0745,38.419,34.694,54.522999999999996,36.7635,62.686,52.756,52.659,35.8525,61.031,50.9895,51.979,35.4345,60.8225,50.325,-0.15399999999999991,-0.12300000000000022,0.10748500000000001,0.11130500000000002,0.0,208.95,208.89499999999998,205.85666666666668,205.85666666666668,0.0,0.0
8,0.0,0.0,0.0,1.0,1.0,0.0,0.0,1.0,0.0,100.0,1.0,1.1856,26.0,0.0,0.0,0.0,59.999996,0.0,26.0,26.0,26.0,26.0,-0.037625,0.29520000000000013,0.0263,282.196,-2.5515499999999998,-2.5635,-1.6552,-1.720888888888889,-248.78,216.19,190.816375,0.0,0.0,0.0,0.0,0.017233333333333323,-5.498166666666667,-5.498166666666667,-0.5332,-0.6655,-0.025111111111111306,0.6990000000000001,66.85,-0.042199999999999904,-0.211425,-0.0860000000000003,100.0,1.0,1.0,206.23333333333335,0.0,0.0,0.0,0.0,0.0,0.0,0.0,8741.5,0.0,55.0,5.0,240.63333333333333,0.0,0.0,0.0,0.0,0.0,0.0,0.0,0.0,0.40800000000000125,0.40800000000000125,0.0,0.0,0.0,55.0,616.79921,10000.0,85.000001,85.000001,85.000001,85.000001,395.0,0.0,0.0,0.0,1.0,333.33500000000004,42.435,42.435,36.819,36.819,34.0,-20.325,20.049999999999997,-31.7275,28.942,0.0,1783.119,-0.33500000000000085,100.0,20.2495,19.696,31.158,30.468,0.0,0.0,100.0,0.0,0.0,0.0,0.0,3037.5,3140.0,4082.3333333333335,4095.3,305.599,304.958,314.848,314.6645,21.763333333333332,20.6578,21.99822222222222,21.400199999999998,314.999998,314.999998,324.999988,324.999988,99.55404285714286,99.51071666666667,99.57575714285714,99.54792857142857,0.11575,-0.13324999999999998,-0.14900000000000002,0.08066666666666666,-0.04299999999999926,-0.04333333333332945,1.5210000000000001,1.5299999999999998,37.021,30.110999999999997,38.489000000000004,34.751,54.515,36.8025,62.716499999999996,52.815,52.650999999999996,35.8885,61.059,51.045500000000004,51.97,35.4685,60.8475,50.3795,-0.16300000000000003,-0.10950000000000015,0.11164500000000001,0.107865,0.0,209.35000000000002,209.365,206.23333333333335,206.23333333333335,0.0,0.0
9,0.0,0.0,0.0,1.0,1.0,0.0,0.0,1.0,0.0,100.0,1.0,1.1856,26.0,0.0,0.0,0.0,59.999996,0.0,26.0,26.0,26.0,26.0,-0.02125,0.2914000000000001,0.03646666666666667,281.769,-2.47805,-2.561,-1.7119,-1.7013333333333334,-245.57,216.16500000000002,190.796375,0.0,0.0,0.0,0.0,0.019100000000000006,-5.498166666666667,-5.498166666666667,-0.5355,0.7575000000000001,-0.025444444444444603,0.9319999999999999,66.98400000000001,-0.021299999999999986,-0.20975000000000002,-0.23599999999999977,100.0,1.0,1.0,206.74666666666667,0.0,0.0,0.0,0.0,0.0,0.0,0.0,8763.2,0.0,55.0,5.0,241.11,1.0,0.0,0.0,0.0,0.0,0.0,0.0,0.0,0.4559999999999995,0.4559999999999995,0.0,0.0,1.0,55.0,616.79921,10000.0,85.000001,85.000001,85.000001,85.000001,395.0,0.0,0.0,0.0,1.0,166.665,41.214,41.214,37.704,37.704,34.0,-21.0075,21.65833333333333,-30.4575,29.766,0.0,1783.073,-0.4250000000000007,100.0,20.8455,20.141,30.787,30.421,0.0,0.0,100.0,0.0,0.0,0.0,0.0,3339.75,3214.4,4024.5555555555557,4111.2,304.50666666666666,304.644,315.1415,314.7295,21.772444444444446,20.6634,22.008666666666667,21.4087,314.999998,314.999998,324.999988,324.999988,99.55405714285715,99.51073333333333,99.57588571428572,99.54807142857143,0.1385,-0.11175000000000002,-0.12883333333333336,0.10549999999999993,-0.027999999999998693,-0.046666666666666856,1.577,1.5659999999999998,37.078,30.1465,38.554,34.8045,54.512,36.8405,62.742,52.869,52.647999999999996,35.9235,61.082499999999996,51.097,51.9655,35.501999999999995,60.868,50.43,-0.17149999999999999,-0.10250000000000004,0.10793000000000001,0.111115,0.0,209.79666666666668,209.805,206.74666666666667,206.74666666666667,0.0,0.0
10,0.0,0.0,0.0,1.0,1.0,0.0,0.0,1.0,0.0,100.0,1.0,1.1856,26.0,0.0,0.0,0.0,59.999996,0.0,26.0,26.0,26.0,26.0,0.025750000000000002,0.2884,0.03863333333333333,281.8145,-2.5596,-2.5380000000000003,-1.699,-1.689888888888889,-241.95,216.135,190.7745,0.0,0.0,0.0,0.0,0.021199999999999997,-5.498166666666667,-5.498166666666667,-0.518,-0.8675,0.020333333333333314,1.566,67.138,0.0018000000000000238,-0.207425,-0.5720000000000001,100.0,1.0,1.0,207.0233333333333,0.0,0.0,0.0,0.0,0.0,0.0,0.0,8774.9,0.0,55.0,5.0,241.66666666666669,0.0,0.0,0.0,0.0,0.0,0.0,1.0,0.0,0.509999999999998,0.509999999999998,0.0,0.0,0.0,55.0,616.79921,10000.0,85.000001,85.000001,85.000001,85.000001,395.0,0.0,0.0,0.0,1.0,166.665,42.435,42.435,36.331,36.331,34.0,-17.7025,21.215,-30.6025,32.82,0.0,1783.019,-0.5199999999999996,100.0,20.4275,20.0025,31.323999999999998,31.1405,0.0,0.0,100.0,0.0,0.0,0.0,0.0,2914.5,3113.8,4170.888888888889,4288.7,305.9476666666667,305.04725,314.648,314.20575,21.782444444444444,20.6697,22.020555555555557,21.4187,314.999998,314.999998,324.999988,324.999988,99.55407142857143,99.51075,99.57604285714285,99.54821428571428,0.158,-0.09650000000000003,-0.09766666666666657,0.12616666666666676,-0.027000000000001023,-0.03499999999999659,1.502,1.4779999999999998,37.141,30.185499999999998,38.629000000000005,34.8665,54.507,36.8795,62.7755,52.935,52.643,35.9595,61.1135,51.161,51.9595,35.537,60.8955,50.492,-0.18249999999999988,-0.10199999999999987,0.10503000000000001,0.10114000000000001,0.0,210.22333333333336,210.26,207.0233333333333,207.0233333333333,0.0,0.0
11,0.0,0.0,0.0,1.0,1.0,0.0,0.0,1.0,0.0,100.0,1.0,1.1856,26.0,0.0,0.0,0.0,59.999996,0.0,26.0,26.0,26.0,26.0,0.0285,0.2893000000000001,-0.083,282.3335,-2.56235,-2.504,-1.7409,-1.6722222222222223,-238.72,216.11,190.754875,0.0,0.0,0.0,0.0,0.022599999999999953,-5.498166666666667,-5.498166666666667,-0.5571,-0.0385,0.032333333333333325,0.1499999999999999,67.267,0.020199999999999996,-0.23055,-0.6859999999999999,100.0,1.0,1.0,207.74333333333334,0.0,0.0,0.0,0.0,0.0,0.0,0.0,8805.5,0.0,55.0,5.0,242.13333333333333,1.0,0.0,0.0,0.0,0.0,0.0,1.0,0.0,0.5579999999999998,0.5579999999999998,0.0,0.0,1.0,55.0,616.79921,10000.0,85.000001,85.000001,85.000001,85.000001,395.0,0.0,0.0,0.0,1.0,333.33500000000004,41.763,41.763,37.964,37.964,34.0,-18.6825,23.105,-25.9225,28.922,0.0,1782.969,-0.5399999999999991,100.0,20.3255,20.285,30.631,30.9155,0.0,0.0,100.0,0.0,0.0,0.0,0.0,3084.0,3281.8,3715.8888888888887,3873.1000000000004,305.376,304.4445,315.91575,315.27525,21.791333333333334,20.6754,22.03088888888889,21.4273,314.999998,314.999998,324.999988,324.999988,99.5541,99.51075,99.57618571428571,99.54835714285714,0.16525,-0.07924999999999993,-0.08983333333333332,0.14416666666666678,-0.030999999999998806,-0.061666666666667425,1.6540000000000001,1.63,37.196,30.221,38.693,34.920500000000004,54.501999999999995,36.917500000000004,62.799,52.9925,52.638,35.9945,61.135,51.216,51.953,35.570499999999996,60.914,50.545500000000004,-0.17700000000000005,-0.09750000000000014,0.10823,0.09914500000000001,0.0,210.62,210.675,207.74333333333334,207.74333333333334,0.0,0.0
12,0.0,0.0,0.0,1.0,1.0,0.0,0.0,1.0,0.0,100.0,1.0,1.1856,26.0,0.0,0.0,0.0,59.999996,0.0,26.0,26.0,26.0,26.0,0.065375,0.28669999999999995,0.021433333333333335,281.662,-2.60345,-2.533375,-1.7046000000000001,-1.6791111111111112,-235.49,216.085,190.734,0.0,0.0,0.0,0.0,0.025466666666666526,-5.498166666666667,-5.498166666666667,-0.5408000000000001,0.279,0.01766666666666672,0.712,67.404,0.03600000000000003,-0.20125,-0.71,100.0,1.0,1.0,207.91333333333333,0.0,0.0,0.0,0.0,0.0,0.0,0.0,8812.7,0.0,55.0,5.0,242.62333333333333,0.0,0.0,0.0,0.0,0.0,0.0,1.0,0.0,0.6059999999999981,0.6059999999999981,0.0,0.0,0.0,55.0,616.79921,10000.0,85.000001,85.000001,85.000001,85.000001,395.0,0.0,0.0,0.0,1.0,166.665,41.656,41.656,36.53,36.53,34.0,-18.377499999999998,24.805,-29.235,33.9,0.0,1782.923,-0.5899999999999999,100.0,20.259,20.41,30.76,30.862000000000002,0.0,0.0,100.0,0.0,0.0,0.0,0.0,3138.0,3305.7,4183.0,4224.3,305.21433333333334,304.4045,314.692,314.43225,21.80011111111111,20.6811,22.041444444444444,21.4359,314.999998,314.999998,324.999988,324.999988,99.55412857142858,99.51075,99.57631428571429,99.54848571428572,0.18875,-0.05225000000000002,-0.0721666666666666,0.16666666666666674,-0.04199999999999804,-0.036666666666668846,1.5285,1.5135,37.251000000000005,30.256999999999998,38.759,34.9745,54.498999999999995,36.951,62.825,53.045,52.634,36.0255,61.159,51.266,51.948499999999996,35.6,60.9355,50.5945,-0.18249999999999988,-0.09100000000000019,0.10712,0.11231500000000001,0.0,211.06333333333333,211.10500000000002,207.91333333333333,207.91333333333333,0.0,0.0
13,0.0,0.0,0.0,1.0,1.0,0.0,0.0,1.0,0.0,100.0,1.0,1.1856,26.0,0.0,0.0,0.0,59.999996,0.0,26.0,26.0,26.0,26.0,0.0915,0.2783,0.05303333333333334,281.3265,-2.5549,-2.518625,-1.7442000000000002,-1.6966666666666668,-231.85,216.06,190.711,0.0,0.0,0.0,0.0,0.027066666666666572,-5.498166666666667,-5.498166666666667,-0.5354,-0.132,0.026999999999999913,1.028,67.553,0.04320000000000013,-0.214125,-0.8680000000000003,100.0,1.0,1.0,208.33333333333331,0.0,0.0,0.0,0.0,0.0,0.0,0.0,8830.5,0.0,55.0,5.0,243.16333333333336,1.0,0.0,0.0,0.0,0.0,0.0,1.0,0.0,0.6600000000000001,0.6600000000000001,0.0,0.0,1.0,55.0,616.79921,10000.0,85.000001,85.000001,85.000001,85.000001,395.0,0.0,0.0,0.0,1.0,166.665,41.397,41.397,36.591,36.591,34.0,-16.7975,24.995,-28.2525,35.718,0.0,1782.868,-0.7749999999999986,100.0,20.588,20.626,30.992,31.414,0.0,0.0,100.0,0.0,0.0,0.0,0.0,3116.25,3305.7,4112.777777777777,4340.5,305.22133333333335,304.39575,314.8515,314.089,21.810111111111112,20.6877,22.05322222222222,21.4459,314.999998,314.999998,324.999988,324.999988,99.55414285714286,99.51076666666667,99.57645714285714,99.54864285714285,0.2105,-0.04525000000000001,-0.051999999999999935,0.16949999999999998,-0.03599999999999781,-0.04999999999999716,1.5085,1.476,37.313,30.298000000000002,38.833,35.036500000000004,54.498999999999995,36.99,62.8555,53.1115,52.632999999999996,36.0615,61.187,51.329499999999996,51.945499999999996,35.6345,60.96,50.6565,-0.20199999999999996,-0.07699999999999996,0.10479000000000001,0.10898500000000001,0.0,211.51,211.575,208.33333333333331,208.33333333333331,0.0,0.0
14,0.0,0.0,0.0,1.0,1.0,0.0,0.0,1.0,0.0,100.0,1.0,1.1856,26.0,0.0,0.0,0.0,59.999996,0.0,26.0,26.0,26.0,26.0,0.096625,0.2662,-0.0089,281.6315,-2.5818,-2.464375,-1.7508,-1.6433333333333333,-228.6,216.0375,190.691,0.0,0.0,0.0,0.0,0.028966666666666585,-5.498166666666667,-5.498166666666667,-0.5453,-0.0915,0.05322222222222206,1.087,67.684,0.05370000000000008,-0.22535000000000002,-1.0579999999999998,100.0,1.0,1.0,208.82333333333332,0.0,0.0,0.0,0.0,0.0,0.0,0.0,8851.2,0.0,55.0,5.0,243.63333333333333,0.0,0.0,0.0,0.0,0.0,0.0,1.0,0.0,0.7079999999999984,0.7079999999999984,0.0,0.0,0.0,55.0,616.79921,10000.0,85.000001,85.000001,85.000001,85.000001,395.0,0.0,0.0,0.0,1.0,166.665,41.55,41.55,36.835,36.835,34.0,-15.814999999999998,25.411666666666665,-26.565,34.36,0.0,1782.822,-0.870000000000001,100.0,20.438,20.663,30.893,31.502000000000002,0.0,0.0,100.0,0.0,0.0,0.0,0.0,3008.375,3379.2,3932.0,4221.0,305.5643333333333,304.17375,315.31475,314.42975,21.819,20.6934,22.063666666666666,21.4547,314.999998,314.999998,324.999988,324.999988,99.55417142857142,99.51078333333334,99.5766,99.54878571428571,0.22275,-0.03849999999999998,-0.05116666666666658,0.18633333333333324,-0.01699999999999946,-0.061666666666667425,1.5575,1.525,37.369,30.334,38.897999999999996,35.091499999999996,54.498000000000005,37.024,62.8805,53.169,52.632,36.093,61.21,51.3845,51.943,35.664500000000004,60.9795,50.710499999999996,-0.20999999999999996,-0.07299999999999995,0.10923500000000001,0.10808500000000001,0.0,211.89,212.0,208.82333333333332,208.82333333333332,0.0,0.0
15,0.0,0.0,0.0,1.0,1.0,0.0,0.0,1.0,0.0,100.0,1.0,1.1856,26.0,0.0,0.0,0.0,59.999996,0.0,26.0,26.0,26.0,26.0,0.11525,0.27880000000000016,-0.0796,281.677,-2.5968999999999998,-2.48,-1.7771,-1.6642222222222223,-225.14,216.01749999999998,190.669375,0.0,0.0,0.0,0.0,0.030966666666666587,-5.498166666666667,-5.498166666666667,-0.534,0.17450000000000002,0.07855555555555571,-0.8570000000000002,67.825,0.06810000000000005,-0.203325,-1.1880000000000002,100.0,1.0,1.0,209.20666666666668,0.0,0.0,0.0,0.0,0.0,0.0,0.0,8867.6,0.0,55.0,5.0,244.14,1.0,0.0,0.0,0.0,0.0,0.0,1.0,0.0,0.7590000000000003,0.7590000000000003,0.0,0.0,1.0,55.0,616.79921,10000.0,85.000001,85.000001,85.000001,85.000001,395.0,0.0,0.0,0.0,1.0,166.665,41.931,41.931,36.728,36.728,34.0,-15.5475,24.545,-27.085,35.88,0.0,1782.77,-0.8299999999999983,100.0,20.258,20.8205,30.569,31.7085,0.0,0.0,100.0,0.0,0.0,0.0,0.0,2912.125,3198.9,4074.8888888888887,4300.2,305.999,304.50125,315.13775,314.10225,21.828333333333333,20.6996,22.074666666666666,21.464,314.999998,314.999998,324.999988,324.999988,99.5542,99.51078333333334,99.57674285714286,99.54892857142858,0.216,-0.03200000000000003,-0.03516666666666657,0.18866666666666676,-0.030999999999998806,-0.04999999999999716,1.5555,1.5030000000000001,37.427,30.372500000000002,38.967,35.15,54.497,37.0595,62.906,53.2305,52.631,36.126,61.233000000000004,51.444,51.94,35.696,60.9995,50.7685,-0.2084999999999999,-0.06850000000000023,0.104285,0.102065,0.0,212.34,212.435,209.20666666666668,209.20666666666668,0.0,0.0
16,0.0,0.0,0.0,1.0,1.0,0.0,0.0,1.0,0.0,100.0,1.0,1.1856,26.0,0.0,0.0,0.0,59.999996,0.0,26.0,26.0,26.0,26.0,0.133,0.2671000000000001,-0.0492,281.5855,-2.64745,-2.436,-1.7445,-1.6702222222222223,-221.89,216.0,190.6485,0.0,0.0,0.0,0.0,0.0328666666666666,-5.498166666666667,-5.498166666666667,-0.5607,-0.6515,0.05988888888888888,-1.126,67.955,0.08040000000000003,-0.22362500000000002,-1.1560000000000001,100.0,1.0,1.0,209.65666666666667,0.0,0.0,0.0,0.0,0.0,0.0,0.0,8886.6,0.0,55.0,5.0,244.61,0.0,0.0,0.0,0.0,0.0,0.0,1.0,0.0,0.8069999999999986,0.8069999999999986,0.0,0.0,0.0,55.0,616.79921,10000.0,85.000001,85.000001,85.000001,85.000001,395.0,0.0,0.0,0.0,1.0,166.665,41.412,41.412,36.789,36.789,34.0,-17.285,25.84,-25.05,34.392,0.0,1782.723,-0.7899999999999991,100.0,20.0345,20.9035,30.844,31.6845,0.0,0.0,100.0,0.0,0.0,0.0,0.0,3210.375,3354.4,3914.3333333333335,4085.6000000000004,305.288,304.12675,315.39125,314.6735,21.83688888888889,20.7055,22.08522222222222,21.4727,314.999998,314.999998,324.999988,324.999988,99.55422857142857,99.51078333333334,99.57688571428571,99.54907142857142,0.22625,-0.021749999999999936,-0.02616666666666656,0.20433333333333326,-0.0470000000000006,-0.03999999999999915,1.5715000000000001,1.525,37.480999999999995,30.409,39.033,35.204499999999996,54.492999999999995,37.093,62.9325,53.287,52.626999999999995,36.157,61.2575,51.498,51.935,35.726,61.021,50.821,-0.2024999999999999,-0.07600000000000007,0.10578000000000001,0.10031000000000001,0.0,212.72666666666666,212.8,209.65666666666667,209.65666666666667,0.0,0.0
17,0.0,0.0,0.0,1.0,1.0,0.0,0.0,1.0,0.0,100.0,1.0,1.1856,26.0,0.0,0.0,0.0,59.999996,0.0,26.0,26.0,26.0,26.0,0.126,0.28049999999999997,0.004333333333333334,281.1735,-2.6054500000000003,-2.4215,-1.7866,-1.6327777777777779,-218.42000000000002,215.9875,190.62575,0.0,0.0,0.0,0.0,0.03489999999999993,-5.498166666666667,-5.498166666666667,-0.5437000000000001,0.47100000000000003,0.04455555555555568,1.059,68.094,0.08460000000000001,-0.20090000000000002,-1.1680000000000001,100.0,1.0,1.0,209.9766666666667,0.0,0.0,0.0,0.0,0.0,0.0,0.0,8900.2,0.0,55.0,5.0,245.10666666666668,1.0,0.0,0.0,0.0,0.0,0.0,1.0,0.0,0.8580000000000005,0.8580000000000005,0.0,0.0,1.0,55.0,616.79921,10000.0,85.000001,85.000001,85.000001,85.000001,395.0,0.0,0.0,0.0,1.0,166.665,41.367,41.367,36.269999999999996,36.269999999999996,34.0,-15.692499999999999,25.28333333333333,-27.9925,38.074,0.0,1782.671,-0.8399999999999999,100.0,20.601,20.9485,30.801000000000002,31.5885,0.0,0.0,100.0,0.0,0.0,0.0,0.0,3106.5,3287.6,4281.111111111111,4409.7,305.325,304.48425,314.54275,314.0395,21.846333333333334,20.7118,22.096222222222224,21.482,314.999998,314.999998,324.999988,324.999988,99.55425714285714,99.51078333333334,99.57701428571428,99.54921428571429,0.2425,-0.014000000000000012,-0.014333333333333309,0.22216666666666685,-0.04499999999999815,-0.051666666666669414,1.537,1.4889999999999999,37.54,30.4485,39.101,35.2625,54.495000000000005,37.1295,62.959,53.3475,52.628,36.1905,61.2815,51.5565,51.9345,35.7585,61.042,50.878,-0.20899999999999985,-0.07500000000000018,0.105965,0.11305000000000001,0.0,213.19333333333333,213.28,209.9766666666667,209.9766666666667,0.0,0.0
18,0.0,0.0,0.0,1.0,1.0,0.0,0.0,1.0,0.0,100.0,1.0,1.1856,26.0,0.0,0.0,0.0,59.999996,0.0,26.0,26.0,26.0,26.0,0.130375,0.2742,-0.0011666666666666668,281.25,-2.6439,-2.389625,-1.8066,-1.5704444444444443,-215.14,215.97750000000002,190.60475,0.0,0.0,0.0,0.0,0.036799999999999944,-5.498166666666667,-5.498166666666667,-0.5574,-0.47150000000000003,0.07322222222222208,0.9530000000000001,68.223,0.08289999999999997,-0.221475,-1.2599999999999998,100.0,1.0,1.0,210.42666666666668,0.0,0.0,0.0,0.0,0.0,0.0,0.0,8919.2,0.0,55.0,5.0,245.57333333333332,0.0,0.0,0.0,0.0,0.0,0.0,1.0,0.0,0.9059999999999988,0.9059999999999988,0.0,0.0,0.0,55.0,616.79921,10000.0,85.000001,85.000001,85.000001,85.000001,395.0,0.0,0.0,0.0,1.0,166.665,41.183,41.183,36.391999999999996,36.391999999999996,34.0,-15.997499999999999,27.685,-25.9275,35.35,0.0,1782.624,-1.120000000000001,100.0,20.3,20.8815,31.009999999999998,31.936500000000002,0.0,0.0,100.0,0.0,0.0,0.0,0.0,3120.0,3524.8,3992.5555555555557,4269.9,305.348,303.79,315.20625,314.33675,21.85511111111111,20.7177,22.10677777777778,21.4909,314.999998,314.999998,324.999988,324.999988,99.55428571428571,99.5108,99.57715714285715,99.54935714285715,0.245,-0.0007500000000000284,-0.014666666666666606,0.21466666666666678,-0.0519999999999996,-0.04999999999999716,1.568,1.513,37.594,30.485500000000002,39.167,35.318,54.494,37.1625,62.9845,53.407,52.626999999999995,36.2215,61.305,51.6135,51.932,35.788,61.0625,50.934,-0.21899999999999986,-0.05549999999999988,0.10561000000000001,0.11130500000000002,0.0,213.57,213.64,210.42666666666668,210.42666666666668,0.0,0.0
19,0.0,0.0,0.0,1.0,1.0,0.0,0.0,1.0,0.0,100.0,1.0,1.1856,26.0,0.0,0.0,0.0,59.999996,0.0,26.0,26.0,26.0,26.0,0.17575000000000002,0.2854000000000001,0.061266666666666664,280.823,-2.5637,-2.490625,-1.738,-1.5575555555555556,-211.66,215.97,190.582125,0.0,0.0,0.0,0.0,0.038799999999999946,-5.498166666666667,-5.498166666666667,-0.5428000000000001,0.799,0.07766666666666677,-0.6000000000000001,68.36,0.09020000000000006,-0.20565,-1.6319999999999997,100.0,1.0,1.0,210.7866666666667,0.0,0.0,0.0,0.0,0.0,0.0,0.0,8934.4,0.0,55.0,5.0,246.06666666666666,1.0,0.0,0.0,0.0,0.0,0.0,1.0,0.0,0.9570000000000007,0.9570000000000007,0.0,0.0,1.0,55.0,616.79921,10000.0,85.000001,85.000001,85.000001,85.000001,395.0,0.0,0.0,0.0,1.0,166.665,40.878,40.878,36.133,36.133,34.0,-14.094999999999999,27.473333333333333,-26.0925,37.962,0.0,1782.573,-1.4899999999999984,100.0,20.5865,21.488,30.681,32.0385,0.0,0.0,100.0,0.0,0.0,0.0,0.0,3173.625,3298.2,4209.444444444444,4495.8,305.2033333333333,304.07175,314.712,313.76425,21.864444444444445,20.7241,22.117666666666665,21.5003,314.999998,314.999998,324.999988,324.999988,99.55431428571428,99.5108,99.5773,99.5495,0.2735,0.007249999999999979,-0.0014999999999999458,0.2206666666666668,-0.03500000000000014,-0.04333333333332945,1.5285,1.4815,37.653,30.5255,39.236000000000004,35.3765,54.498000000000005,37.2,63.009,53.469,52.629999999999995,36.256,61.328,51.673500000000004,51.933,35.821,61.0815,50.9925,-0.256,-0.028500000000000192,0.10010500000000001,0.108645,0.0,214.0,214.135,210.7866666666667,210.7866666666667,0.0,0.0
20,0.0,0.0,0.0,1.0,1.0,0.0,0.0,1.0,0.0,100.0,1.0,1.1856,26.0,0.0,0.0,0.0,59.999996,0.0,26.0,26.0,26.0,26.0,0.2225,0.2574000000000001,0.04186666666666667,281.3415,-2.66755,-2.440375,-1.751,-1.6704444444444444,-208.17000000000002,215.9675,190.55975,0.0,0.0,0.0,0.0,0.04083333333333339,-5.498166666666667,-5.498166666666667,-0.5563,-1.321,0.08966666666666678,0.498,68.497,0.10560000000000014,-0.223425,-2.074,100.0,1.0,1.0,211.18666666666667,0.0,0.0,0.0,0.0,0.0,0.0,0.0,8951.5,0.0,55.0,5.0,246.56333333333333,0.0,0.0,0.0,0.0,0.0,0.0,0.0,0.0,1.0079999999999991,1.0079999999999991,0.0,0.0,0.0,55.0,616.79921,10000.0,85.000001,85.000001,85.000001,85.000001,395.0,0.0,0.0,0.0,1.0,166.665,41.763,41.763,36.011,36.011,34.0,-12.354999999999997,29.223333333333333,-23.357499999999998,39.344,0.0,1782.521,-1.7199999999999989,100.0,20.076,20.9775,31.198,32.378,0.0,0.0,100.0,0.0,0.0,0.0,0.0,2913.625,3391.7,3955.1111111111113,4295.6,306.035,304.171,315.1935,314.171,21.873444444444445,20.7303,22.128888888888888,21.5098,314.999998,314.999998,324.999988,324.999988,99.55435714285714,99.5108,99.57744285714286,99.54965714285714,0.304,0.0475000000000001,0.02100000000000013,0.2510000000000001,-0.030999999999998806,-0.054999999999999716,1.5375,1.4495,37.709,30.5645,39.306,35.436,54.497,37.2355,63.038,53.533,52.628,36.289,61.3545,51.735,51.93,35.853,61.105000000000004,51.0525,-0.2789999999999999,-0.006000000000000227,0.10678000000000001,0.11182500000000001,0.0,214.35333333333335,214.51,211.18666666666667,211.18666666666667,0.0,0.0
21,0.0,0.0,0.0,1.0,1.0,0.0,0.0,1.0,0.0,100.0,1.0,1.1856,26.0,0.0,0.0,0.0,59.999996,0.0,26.0,26.0,26.0,26.0,0.18975,0.27300000000000013,-0.055766666666666666,281.4635,-2.6421,-2.432875,-1.8157,-1.6277777777777778,-204.68,215.97,190.5365,0.0,0.0,0.0,0.0,0.04286666666666661,-5.498166666666667,-5.498166666666667,-0.5721,0.639,0.07166666666666677,-1.0150000000000001,68.63,0.1322000000000001,-0.213975,-1.9439999999999995,100.0,1.0,1.0,211.75666666666666,0.0,0.0,0.0,0.0,0.0,0.0,0.0,8975.5,0.0,55.0,5.0,247.04000000000002,1.0,0.0,0.0,0.0,0.0,0.0,0.0,0.0,1.059000000000001,1.059000000000001,0.0,0.0,1.0,55.0,616.79921,10000.0,85.000001,85.000001,85.000001,85.000001,395.0,0.0,0.0,0.0,1.0,166.665,41.26,41.26,36.85,36.85,34.0,-16.3725,26.085,-23.315,36.72,0.0,1782.471,-0.23499999999999943,100.0,20.236,21.3465,30.353,31.9715,0.0,0.0,100.0,0.0,0.0,0.0,0.0,3153.375,3302.8,4043.0,4135.1,305.385,304.17725,315.211,314.647,21.882666666666665,20.7368,22.139666666666667,21.519,314.999998,314.999998,324.999988,324.999988,99.55438571428571,99.5108,99.57758571428572,99.54981428571429,0.23875000000000002,-0.009000000000000008,0.041166666666666796,0.2566666666666668,-0.0470000000000006,-0.046666666666666856,1.607,1.5335,37.766999999999996,30.605,39.373000000000005,35.4935,54.5,37.272999999999996,63.06,53.5925,52.629999999999995,36.324,61.374,51.792,51.93,35.8865,61.1215,51.1085,-0.18249999999999988,-0.09299999999999997,0.10130000000000002,0.10228000000000001,0.0,214.82333333333332,214.96,211.75666666666666,211.75666666666666,0.0,0.0
22,0.0,0.0,0.0,1.0,1.0,0.0,0.0,1.0,0.0,100.0,1.0,1.1856,26.0,0.0,0.0,0.0,59.999996,0.0,26.0,26.0,26.0,26.0,0.14175000000000001,0.27680000000000016,0.0013333333333333335,281.143,-2.69245,-2.495,-1.8032,-1.6283333333333332,-201.17000000000002,215.975,190.512625,0.0,0.0,0.0,0.0,0.04489999999999994,-5.498166666666667,-5.498166666666667,-0.555,-0.201,0.07133333333333325,0.548,68.768,0.1280000000000001,-0.2044,-0.6379999999999999,100.0,1.0,1.0,212.01,0.0,0.0,0.0,0.0,0.0,0.0,0.0,8986.3,0.0,55.0,5.0,247.53666666666666,0.0,0.0,0.0,0.0,0.0,0.0,0.0,0.0,1.1099999999999994,1.1099999999999994,0.0,0.0,0.0,55.0,616.79921,10000.0,85.000001,85.000001,85.000001,85.000001,395.0,0.0,0.0,0.0,1.0,166.665,41.672,41.672,35.888999999999996,35.888999999999996,34.0,-17.55,23.57,-25.84,39.852000000000004,0.0,1782.419,0.504999999999999,100.0,20.459,21.1755,31.044,32.2285,0.0,0.0,100.0,0.0,0.0,0.0,0.0,2923.5,3276.7,4158.666666666667,4411.3,306.0013333333333,304.446,314.7945,313.971,21.89188888888889,20.7431,22.15088888888889,21.5285,314.999998,314.999998,324.999988,324.999988,99.5544,99.51081666666667,99.57774285714285,99.54997142857142,0.19125,-0.06799999999999995,0.016833333333333478,0.25216666666666687,-0.04499999999999815,-0.04333333333332945,1.5005,1.4695,37.825,30.6445,39.443,35.553,54.497,37.311,63.089,53.657,52.626999999999995,36.359,61.4005,51.8535,51.926,35.92,61.1445,51.1685,-0.10549999999999993,-0.17600000000000016,0.11156500000000001,0.107575,0.0,215.28333333333336,215.32999999999998,212.01,212.01,0.0,0.0
23,0.0,0.0,0.0,1.0,1.0,0.0,0.0,1.0,0.0,100.0,1.0,1.1856,26.0,0.0,0.0,0.0,59.999996,0.0,26.0,26.0,26.0,26.0,0.051750000000000004,0.26060000000000016,-0.07223333333333334,281.128,-2.57595,-2.46625,-1.8298,-1.6276666666666668,-197.66,215.985,190.489125,0.0,0.0,0.0,0.0,0.0469666666666666,-5.498166666666667,-5.498166666666667,-0.5738,0.08750000000000001,0.03988888888888886,-0.996,68.9,0.08089999999999997,-0.22785000000000002,0.5640000000000001,100.0,1.0,1.0,212.56333333333333,0.0,0.0,0.0,0.0,0.0,0.0,0.0,9009.8,0.0,55.0,5.0,248.01333333333332,1.0,0.0,0.0,0.0,0.0,0.0,0.0,0.0,1.1610000000000014,1.1610000000000014,0.0,0.0,1.0,55.0,616.79921,10000.0,85.000001,85.000001,85.000001,85.000001,395.0,0.0,0.0,0.0,1.0,166.665,40.802,40.802,36.926,36.926,34.0,-21.447499999999998,21.058333333333334,-28.805,31.362000000000002,0.0,1782.369,0.8550000000000004,100.0,20.857,21.2765,31.107,32.209,0.0,0.0,100.0,0.0,0.0,0.0,0.0,3329.125,3227.3,4035.3333333333335,4018.1000000000004,304.78833333333336,304.45275,315.22575,314.9665,21.901333333333334,20.7495,22.16188888888889,21.5379,314.999998,314.999998,324.999988,324.999988,99.55442857142857,99.51083333333334,99.57788571428571,99.55011428571429,0.1455,-0.11099999999999999,-0.06099999999999994,0.17383333333333328,-0.05799999999999983,-0.045000000000001705,1.5555,1.572,37.882999999999996,30.6845,39.512,35.612,54.495000000000005,37.351,63.1145,53.7175,52.625,36.396,61.424,51.912,51.921499999999995,35.9555,61.164500000000004,51.2255,-0.07600000000000007,-0.20650000000000013,0.11070500000000001,0.10736000000000001,0.0,215.73333333333335,215.685,212.56333333333333,212.56333333333333,0.0,0.0
24,0.0,0.0,0.0,1.0,1.0,0.0,0.0,1.0,0.0,100.0,1.0,1.1856,26.0,0.0,0.0,0.0,59.999996,0.0,26.0,26.0,26.0,26.0,-0.00775,0.2764,-0.09893333333333335,281.418,-2.5776,-2.50075,-1.7331,-1.6754444444444443,-194.56,215.9975,190.468,0.0,0.0,0.0,0.0,0.048766666666666514,-5.498166666666667,-5.498166666666667,-0.5789000000000001,-0.7325,0.030111111111110977,0.5369999999999999,69.02,0.02980000000000005,-0.2154,1.0179999999999998,100.0,1.0,1.0,212.8,0.0,0.0,0.0,0.0,0.0,0.0,0.0,9019.8,0.0,55.0,5.0,248.44333333333333,0.0,0.0,0.0,0.0,0.0,0.0,0.0,0.0,1.2059999999999995,1.2059999999999995,0.0,0.0,0.0,55.0,616.79921,10000.0,85.000001,85.000001,85.000001,85.000001,395.0,0.0,0.0,0.0,1.0,166.665,42.053,42.053,36.011,36.011,34.0,-20.1675,18.655,-31.8425,30.876,0.0,1782.323,0.9499999999999993,100.0,20.6245,20.6925,31.526,31.881999999999998,0.0,0.0,100.0,0.0,0.0,0.0,0.0,2948.0,3104.6,4219.222222222223,4145.4,305.81933333333336,305.02725,314.61175,314.642,21.909333333333333,20.7548,22.171777777777777,21.5461,314.999998,314.999998,324.999988,324.999988,99.55444285714286,99.51083333333334,99.57801428571429,99.55024285714286,0.11175,-0.14774999999999994,-0.10333333333333339,0.1233333333333333,-0.030999999999998806,-0.04833333333333201,1.493,1.5379999999999998,37.934,30.7175,39.573,35.663,54.488,37.385,63.1395,53.769999999999996,52.617999999999995,36.428,61.447,51.962,51.914,35.986000000000004,61.1845,51.2745,-0.06549999999999989,-0.21750000000000025,0.10958500000000002,0.10239500000000001,0.0,216.10000000000002,216.035,212.8,212.8,0.0,0.0
25,0.0,0.0,0.0,1.0,1.0,0.0,0.0,1.0,0.0,100.0,1.0,1.1856,26.0,0.0,0.0,0.0,59.999996,0.0,26.0,26.0,26.0,26.0,-0.073,0.26290000000000013,-0.03696666666666667,281.189,-2.6063,-2.4985,-1.7116,-1.7093333333333334,-191.03,216.0075,190.442375,0.0,0.0,0.0,0.0,0.050799999999999956,-5.498166666666667,-5.498166666666667,-0.6098,0.274,-0.0067777777777777715,-1.9410000000000003,69.151,-0.027899999999999925,-0.22082500000000002,1.4740000000000002,100.0,1.0,1.0,213.36666666666667,0.0,0.0,0.0,0.0,0.0,0.0,0.0,9043.8,0.0,55.0,5.0,248.91666666666666,1.0,0.0,0.0,0.0,0.0,0.0,0.0,0.0,1.256999999999998,1.256999999999998,0.0,0.0,1.0,55.0,616.79921,10000.0,85.000001,85.000001,85.000001,85.000001,395.0,0.0,0.0,0.0,1.0,333.33500000000004,40.665,40.665,36.911,36.911,34.0,-26.822499999999998,18.50333333333333,-32.3975,26.3,0.0,1782.271,0.9050000000000011,100.0,20.849,20.946,31.286,31.3535,0.0,0.0,100.0,0.0,0.0,0.0,0.0,3503.5,3341.0,4028.8888888888887,3937.8,304.4046666666667,304.2085,315.2125,315.1205,21.918666666666667,20.7611,22.182666666666666,21.5553,314.999998,314.999998,324.999988,324.999988,99.55445714285715,99.51086666666667,99.57815714285714,99.5504,0.069,-0.18574999999999997,-0.16516666666666657,0.06233333333333335,-0.0519999999999996,-0.051666666666669414,1.545,1.604,37.992000000000004,30.7565,39.641999999999996,35.7205,54.480000000000004,37.4285,63.164,53.825,52.61,36.468,61.4695,52.015,51.905,36.0245,61.204,51.326,-0.0714999999999999,-0.21799999999999997,0.110905,0.09947,0.0,216.56,216.43,213.36666666666667,213.36666666666667,0.0,0.0
26,0.0,0.0,0.0,1.0,1.0,0.0,0.0,1.0,0.0,100.0,1.0,1.1856,26.0,0.0,0.0,0.0,59.999996,0.0,26.0,26.0,26.0,26.0,-0.124,0.27859999999999996,0.10550000000000001,280.1055,-2.5181,-2.618,-1.7324000000000002,-1.7363333333333333,-187.5,216.01749999999998,190.416625,0.0,0.0,0.0,0.0,0.052866666666666506,-5.498166666666667,-5.498166666666667,-0.5642,0.527,-0.05355555555555558,0.44999999999999996,69.288,-0.0693999999999999,-0.193075,1.4220000000000006,100.0,1.0,1.0,213.45666666666668,0.0,0.0,0.0,0.0,0.0,0.0,0.0,9047.6,0.0,55.0,5.0,249.40666666666667,0.0,0.0,0.0,0.0,0.0,0.0,0.0,0.0,1.3079999999999998,1.3079999999999998,0.0,0.0,0.0,55.0,616.79921,10000.0,85.000001,85.000001,85.000001,85.000001,395.0,0.0,0.0,0.0,1.0,333.33500000000004,40.756,40.756,34.836,34.836,34.0,-24.2725,17.546666666666667,-41.2325,30.746000000000002,0.0,1782.22,0.7250000000000014,100.0,21.8735,20.9825,32.42,31.533,0.0,0.0,100.0,0.0,0.0,0.0,0.0,3253.25,3131.8,4689.222222222223,4531.4,304.765,304.919,313.57525,313.773,21.92822222222222,20.7673,22.194,21.5647,314.999998,314.999998,324.999988,324.999988,99.55447142857143,99.51088333333334,99.57831428571428,99.55054285714286,0.06725,-0.20224999999999993,-0.18399999999999994,0.03833333333333333,-0.04199999999999804,-0.04833333333333201,1.408,1.455,38.052,30.796,39.713,35.778999999999996,54.476,37.4745,63.1975,53.8845,52.605999999999995,36.5105,61.501,52.072,51.899,36.065,61.232,51.3815,-0.08650000000000002,-0.20550000000000024,0.10021000000000001,0.11188500000000001,0.0,216.98666666666668,216.865,213.45666666666668,213.45666666666668,0.0,0.0
27,0.0,0.0,0.0,1.0,1.0,0.0,0.0,1.0,0.0,100.0,1.0,1.1856,26.0,0.0,0.0,0.0,59.999996,0.0,26.0,26.0,26.0,26.0,-0.12612500000000001,0.25649999999999995,-0.05436666666666667,280.838,-2.4715,-2.595625,-1.7121,-1.813,-184.17000000000002,216.0225,190.393625,0.0,0.0,0.0,0.0,0.05479999999999996,-5.498166666666667,-5.498166666666667,-0.5996,-1.0095,-0.06322222222222207,0.508,69.40899999999999,-0.08949999999999991,-0.2452,1.3360000000000003,100.0,1.0,1.0,214.04666666666668,0.0,0.0,0.0,0.0,0.0,0.0,0.0,9072.6,0.0,55.0,5.0,249.85000000000002,1.0,0.0,0.0,0.0,0.0,0.0,0.0,0.0,1.355999999999998,1.355999999999998,0.0,0.0,1.0,55.0,616.79921,10000.0,85.000001,85.000001,85.000001,85.000001,395.0,0.0,0.0,0.0,1.0,166.665,40.924,40.924,36.011,36.011,34.0,-25.0225,17.026666666666667,-34.535,25.744,0.0,1782.174,0.629999999999999,100.0,21.6065,20.637,32.897999999999996,31.7765,0.0,0.0,100.0,0.0,0.0,0.0,0.0,3312.0,3196.3,4015.6666666666665,3935.1000000000004,304.75733333333335,304.76025,315.06275,315.1075,21.93711111111111,20.773,22.204666666666668,21.5735,314.999998,314.999998,324.999988,324.999988,99.55447142857143,99.51091666666667,99.57845714285715,99.55068571428572,0.048,-0.21650000000000003,-0.20233333333333337,0.019333333333333425,-0.04400000000000048,-0.03833333333332689,1.5065,1.5589999999999997,38.107,30.8315,39.778999999999996,35.8345,54.468,37.516,63.227000000000004,53.939,52.598,36.5485,61.5285,52.124,51.89,36.1015,61.2565,51.4315,-0.09299999999999997,-0.19399999999999995,0.10046500000000001,0.11030500000000001,0.0,217.30666666666667,217.19,214.04666666666668,214.04666666666668,0.0,0.0
28,0.0,0.0,0.0,1.0,1.0,0.0,0.0,1.0,0.0,100.0,1.0,1.1856,26.0,0.0,0.0,0.0,59.999996,0.0,26.0,26.0,26.0,26.0,-0.144375,0.2692000000000001,-0.054766666666666665,280.9755,-2.48875,-2.58325,-1.6852,-1.7536666666666667,-180.42000000000002,216.025,190.3665,0.0,0.0,0.0,0.0,0.05696666666666661,-5.498166666666667,-5.498166666666667,-0.5926,0.618,-0.07066666666666643,0.802,69.548,-0.09970000000000001,-0.2029,1.1620000000000008,100.0,1.0,1.0,214.46,0.0,0.0,0.0,0.0,0.0,0.0,0.0,9090.2,0.0,55.0,5.0,250.34333333333336,0.0,0.0,0.0,0.0,0.0,0.0,0.0,0.0,1.4100000000000001,1.4100000000000001,0.0,0.0,0.0,55.0,616.79921,10000.0,85.000001,85.000001,85.000001,85.000001,395.0,0.0,0.0,0.0,1.0,166.665,41.29,41.29,36.072,36.072,34.0,-24.3175,16.384999999999998,-37.425,25.892,0.0,1782.118,0.4450000000000003,100.0,21.6665,20.4465,32.281,31.1465,0.0,0.0,100.0,0.0,0.0,0.0,0.0,3212.125,3093.4,4322.555555555556,4142.6,304.93233333333336,305.08625,314.517,314.7315,21.947222222222223,20.7795,22.216333333333335,21.583199999999998,314.999998,314.999998,324.999988,324.999988,99.55448571428572,99.51095,99.57861428571428,99.55082857142857,0.051500000000000004,-0.21375,-0.21033333333333337,0.00983333333333336,-0.02400000000000091,-0.05333333333332746,1.514,1.5669999999999997,38.17,30.871499999999997,39.852000000000004,35.894999999999996,54.46,37.563,63.256,53.9965,52.59,36.592,61.5555,52.179,51.8815,36.1425,61.28,51.4845,-0.10949999999999993,-0.17500000000000027,0.10214500000000001,0.10568500000000002,0.0,217.77666666666664,217.68,214.46,214.46,0.0,0.0
29,0.0,0.0,0.0,1.0,1.0,0.0,0.0,1.0,0.0,100.0,1.0,1.1856,26.0,0.0,0.0,0.0,59.999996,0.0,26.0,26.0,26.0,26.0,-0.135,0.2472000000000001,-0.006033333333333334,280.731,-2.4376,-2.6393750000000002,-1.6916,-1.7562222222222221,-177.07999999999998,216.025,190.3415,0.0,0.0,0.0,0.0,0.05889999999999995,-5.498166666666667,-5.498166666666667,-0.608,-0.686,-0.06977777777777794,0.7349999999999999,69.673,-0.09129999999999994,-0.218775,0.8879999999999999,100.0,1.0,1.0,214.76333333333332,0.0,0.0,0.0,0.0,0.0,0.0,0.0,9103.1,0.0,55.0,5.0,250.79666666666668,1.0,0.0,0.0,0.0,0.0,0.0,0.0,0.0,1.4579999999999984,1.4579999999999984,0.0,0.0,1.0,55.0,616.79921,10000.0,85.000001,85.000001,85.000001,85.000001,395.0,0.0,0.0,0.0,1.0,166.665,40.955,40.955,35.980000000000004,35.980000000000004,34.0,-25.465,17.156666666666666,-35.93,27.362000000000002,0.0,1782.071,0.4350000000000023,100.0,21.511,20.427500000000002,32.688,31.4145,0.0,0.0,100.0,0.0,0.0,0.0,0.0,3371.0,3172.5,4176.666666666667,4149.9,304.529,304.77625,314.71275,314.63525,21.956,20.7851,22.227,21.592,314.999998,314.999998,324.999988,324.999988,99.55448571428572,99.51096666666666,99.57875714285714,99.55097142857143,0.044,-0.22099999999999997,-0.1998333333333333,0.030333333333333323,-0.036999999999999034,-0.051666666666669414,1.478,1.5154999999999998,38.224999999999994,30.907,39.919,35.95,54.451,37.6035,63.286500000000004,54.0505,52.581,36.6295,61.584,52.2305,51.8715,36.1785,61.3055,51.5345,-0.10749999999999993,-0.1755,0.097165,0.11320000000000001,0.0,218.11,218.03,214.76333333333332,214.76333333333332,0.0,0.0
30,0.0,0.0,0.0,1.0,1.0,0.0,0.0,1.0,0.0,100.0,1.0,1.1856,26.0,0.0,0.0,0.0,59.999996,0.0,26.0,26.0,26.0,26.0,-0.107125,0.25760000000000005,0.04446666666666667,280.182,-2.49735,-2.6273750000000002,-1.6365,-1.8324444444444443,-173.73000000000002,216.0225,190.3165,0.0,0.0,0.0,0.0,0.060866666666666513,-5.498166666666667,-5.498166666666667,-0.5952000000000001,0.859,-0.06688888888888878,1.167,69.794,-0.08599999999999997,-0.2097,0.9060000000000006,100.0,1.0,1.0,215.16,0.0,0.0,0.0,0.0,0.0,0.0,0.0,9119.8,0.0,55.0,5.0,251.23333333333335,0.0,0.0,0.0,0.0,0.0,0.0,1.0,0.0,1.5060000000000002,1.5060000000000002,0.0,0.0,0.0,55.0,616.79921,10000.0,85.000001,85.000001,85.000001,85.000001,395.0,0.0,0.0,0.0,1.0,166.665,40.009,40.009,35.782,35.782,34.0,-25.7125,18.785,-36.3625,28.336,0.0,1782.023,0.23499999999999943,100.0,22.3105,21.026,32.572,31.4315,0.0,0.0,100.0,0.0,0.0,0.0,0.0,3483.375,3304.2,4303.444444444444,4164.6,304.16833333333335,304.5195,314.4605,314.56875,21.96511111111111,20.7911,22.237444444444446,21.6008,314.999998,314.999998,324.999988,324.999988,99.5545,99.511,99.5789,99.55111428571429,0.07200000000000001,-0.1995,-0.19699999999999995,0.02400000000000002,-0.0470000000000006,-0.04999999999999716,1.4575,1.4975,38.282,30.944499999999998,39.983999999999995,36.004999999999995,54.447,37.6475,63.3135,54.103,52.578,36.67,61.609,52.281,51.8665,36.2175,61.3275,51.5835,-0.1259999999999999,-0.17249999999999988,0.10652500000000001,0.10931500000000001,0.0,218.53,218.47,215.16,215.16,0.0,0.0
31,0.0,0.0,0.0,1.0,1.0,0.0,0.0,1.0,0.0,100.0,1.0,1.1856,26.0,0.0,0.0,0.0,59.999996,0.0,26.0,26.0,26.0,26.0,-0.098,0.25429999999999997,-0.008466666666666667,280.075,-2.5721,-2.501875,-1.6869,-1.802,-170.17000000000002,216.015,190.290875,0.0,0.0,0.0,0.0,0.0629333333333334,-5.498166666666667,-5.498166666666667,-0.5902000000000001,-0.7365,-0.0602222222222224,-0.8580000000000001,69.925,-0.07199999999999995,-0.2227,0.5600000000000005,100.0,1.0,1.0,215.46666666666667,0.0,0.0,0.0,0.0,0.0,0.0,0.0,9132.8,0.0,55.0,5.0,251.70333333333335,1.0,0.0,0.0,0.0,0.0,0.0,1.0,0.0,1.5569999999999986,1.5569999999999986,0.0,0.0,1.0,55.0,616.79921,10000.0,85.000001,85.000001,85.000001,85.000001,395.0,0.0,0.0,0.0,1.0,333.33500000000004,40.512,40.512,34.805,34.805,34.0,-25.607499999999998,17.631666666666668,-36.9975,29.608,0.0,1781.971,0.15000000000000213,100.0,21.6195,21.2195,33.06,32.1325,0.0,0.0,100.0,0.0,0.0,0.0,0.0,3410.875,3254.2,4345.444444444444,4282.6,304.695,304.5275,314.37775,314.28375,21.974444444444444,20.7973,22.24877777777778,21.6104,314.999998,314.999998,324.999988,324.999988,99.55451428571429,99.51101666666666,99.57905714285714,99.55127142857143,0.07025,-0.1925,-0.1881666666666666,0.03666666666666685,-0.03999999999999915,-0.03999999999999915,1.4605000000000001,1.4855,38.34,30.983,40.055,36.064499999999995,54.44,37.692,63.3465,54.163,52.571,36.711,61.64,52.338,51.8585,36.2565,61.355000000000004,51.638999999999996,-0.1359999999999999,-0.15549999999999997,0.10503000000000001,0.10917,0.0,218.88666666666666,218.82999999999998,215.46666666666667,215.46666666666667,0.0,0.0
32,0.0,0.0,0.0,1.0,1.0,0.0,0.0,1.0,0.0,100.0,1.0,1.1856,26.0,0.0,0.0,0.0,59.999996,0.0,26.0,26.0,26.0,26.0,-0.083375,0.26900000000000013,0.0027333333333333333,280.4565,-2.46915,-2.616375,-1.6762000000000001,-1.7162222222222223,-166.39,216.005,190.263625,0.0,0.0,0.0,0.0,0.06513333333333338,-5.498166666666667,-5.498166666666667,-0.6046,0.1305,-0.08988888888888891,-0.7909999999999999,70.06,-0.057499999999999996,-0.22257500000000002,0.44399999999999995,100.0,1.0,1.0,215.97333333333333,0.0,0.0,0.0,0.0,0.0,0.0,0.0,9154.4,0.0,55.0,5.0,252.19,0.0,0.0,0.0,0.0,0.0,0.0,1.0,0.0,1.6110000000000007,1.6110000000000007,0.0,0.0,0.0,55.0,616.79921,10000.0,85.000001,85.000001,85.000001,85.000001,395.0,0.0,0.0,0.0,1.0,166.665,40.771,40.771,35.675,35.675,34.0,-23.5825,18.310000000000002,-35.442499999999995,29.054000000000002,0.0,1781.919,0.07000000000000028,100.0,21.613500000000002,21.109,32.573,31.820500000000003,0.0,0.0,100.0,0.0,0.0,0.0,0.0,3398.625,3047.1,4286.0,4230.3,304.56666666666666,304.9945,314.53575,314.4725,21.984444444444446,20.8039,22.260444444444445,21.6202,314.999998,314.999998,324.999988,324.999988,99.55451428571429,99.51105,99.57921428571429,99.55142857142857,0.09175,-0.17599999999999993,-0.1768333333333334,0.06066666666666687,-0.05000000000000071,-0.030000000000001137,1.5,1.5114999999999998,38.403,31.0245,40.128,36.1265,54.434,37.738,63.375,54.221000000000004,52.565,36.7535,61.6665,52.394,51.8515,36.297,61.378,51.693,-0.13749999999999996,-0.15149999999999997,0.10672000000000001,0.113055,0.0,219.32666666666665,219.26999999999998,215.97333333333333,215.97333333333333,0.0,0.0
33,0.0,0.0,0.0,1.0,1.0,0.0,0.0,1.0,0.0,100.0,1.0,1.1856,26.0,0.0,0.0,0.0,59.999996,0.0,26.0,26.0,26.0,26.0,-0.058625000000000003,0.2533000000000001,-0.061066666666666665,280.731,-2.5313499999999998,-2.586125,-1.6935,-1.769777777777778,-163.03,215.9925,190.23825,0.0,0.0,0.0,0.0,0.06709999999999994,-5.498166666666667,-5.498166666666667,-0.6122000000000001,-0.56,-0.0645555555555557,0.16900000000000004,70.181,-0.04630000000000001,-0.213375,0.3179999999999996,100.0,1.0,1.0,216.31333333333333,0.0,0.0,0.0,0.0,0.0,0.0,0.0,9168.8,0.0,55.0,5.0,252.62666666666667,1.0,0.0,0.0,0.0,0.0,0.0,1.0,0.0,1.658999999999999,1.658999999999999,0.0,0.0,1.0,55.0,616.79921,10000.0,85.000001,85.000001,85.000001,85.000001,395.0,0.0,0.0,0.0,1.0,166.665,41.199,41.199,35.919,35.919,34.0,-22.905,18.391666666666666,-34.155,29.386,0.0,1781.87,0.0,100.0,21.374,20.8545,32.56,31.9495,0.0,0.0,100.0,0.0,0.0,0.0,0.0,3295.25,3040.7,4160.888888888889,4180.3,304.95633333333336,305.09475,314.835,314.48375,21.993222222222222,20.8096,22.271,21.6291,314.999998,314.999998,324.999988,324.999988,99.55452857142858,99.51106666666666,99.57935714285715,99.55155714285715,0.1,-0.16525,-0.16949999999999998,0.057666666666666755,-0.047999999999998266,-0.03166666666666629,1.479,1.5110000000000001,38.457,31.060000000000002,40.194,36.1815,54.429,37.775,63.4015,54.275,52.559,36.788,61.691,52.445499999999996,51.845,36.33,61.3995,51.743,-0.14900000000000002,-0.13850000000000007,0.11246,0.10382000000000001,0.0,219.66666666666666,219.635,216.31333333333333,216.31333333333333,0.0,0.0
34,0.0,0.0,0.0,1.0,1.0,0.0,0.0,1.0,0.0,100.0,1.0,1.1856,26.0,0.0,0.0,0.0,59.999996,0.0,26.0,26.0,26.0,26.0,-0.0425,0.2623,-0.10356666666666668,281.143,-2.5391,-2.572125,-1.7567,-1.7402222222222221,-159.64999999999998,215.98000000000002,190.21175,0.0,0.0,0.0,0.0,0.06903333333333339,-5.498166666666667,-5.498166666666667,-0.6469,-0.8585,-0.037555555555555564,-0.2290000000000001,70.301,-0.032399999999999984,-0.22505,0.22799999999999976,100.0,1.0,1.0,216.74333333333334,0.0,0.0,0.0,0.0,0.0,0.0,0.0,9186.9,0.0,55.0,5.0,253.05666666666667,0.0,0.0,0.0,0.0,0.0,0.0,1.0,0.0,1.7070000000000007,1.7070000000000007,0.0,0.0,0.0,55.0,616.79921,10000.0,85.000001,85.000001,85.000001,85.000001,395.0,0.0,0.0,0.0,1.0,166.665,41.611,41.611,36.438,36.438,34.0,-21.84,18.736666666666665,-33.025,28.602,0.0,1781.823,-0.004999999999999005,100.0,21.0455,20.6475,32.157,31.894,0.0,0.0,100.0,0.0,0.0,0.0,0.0,3188.75,3027.4,4101.333333333333,4068.9,305.182,305.12,315.0545,314.78075,22.00188888888889,20.8154,22.281333333333333,21.6379,314.999998,314.999998,324.999988,324.999988,99.55454285714286,99.5111,99.5795,99.5517,0.10825,-0.15274999999999994,-0.14916666666666656,0.07200000000000006,-0.05600000000000094,-0.046666666666666856,1.5330000000000001,1.5444999999999998,38.512,31.096,40.257999999999996,36.237,54.422,37.8125,63.4255,54.3285,52.553,36.8225,61.713,52.4965,51.8375,36.3625,61.4185,51.792500000000004,-0.1439999999999999,-0.14049999999999985,0.10314500000000001,0.10311000000000001,0.0,220.04000000000002,219.995,216.74333333333334,216.74333333333334,0.0,0.0
35,0.0,0.0,0.0,1.0,1.0,0.0,0.0,1.0,0.0,100.0,1.0,1.1856,26.0,0.0,0.0,0.0,59.999996,0.0,26.0,26.0,26.0,26.0,-0.033625,0.24120000000000008,-0.0944,280.96,-2.5312,-2.533125,-1.7095,-1.754888888888889,-156.07,215.9675,190.18125,0.0,0.0,0.0,0.0,0.07113333333333338,-5.498166666666667,-5.498166666666667,-0.6849000000000001,-0.0275,-0.048666666666666636,-0.07699999999999996,70.426,-0.01979999999999993,-0.2258,0.09799999999999986,100.0,1.0,1.0,217.22,0.0,0.0,0.0,0.0,0.0,0.0,0.0,9207.2,0.0,55.0,5.0,253.51,1.0,0.0,0.0,0.0,0.0,0.0,1.0,0.0,1.7579999999999991,1.7579999999999991,0.0,0.0,1.0,55.0,616.79921,10000.0,85.000001,85.000001,85.000001,85.000001,395.0,0.0,0.0,0.0,1.0,166.665,40.619,40.619,36.24,36.24,34.0,-21.645,22.451666666666668,-30.197499999999998,29.028,0.0,1781.771,0.030000000000001137,100.0,21.1065,21.012,31.906,31.3795,0.0,0.0,100.0,0.0,0.0,0.0,0.0,3265.875,3501.5,3993.3333333333335,3938.2,304.853,303.8435,315.292,315.18525,22.01088888888889,20.8217,22.29222222222222,21.647199999999998,314.999998,314.999998,324.999988,324.999988,99.55457142857144,99.5111,99.57965714285714,99.55184285714286,0.126,-0.13524999999999998,-0.126,0.10400000000000009,-0.06700000000000017,-0.03833333333332689,1.555,1.5629999999999997,38.568,31.1355,40.326,36.2945,54.415,37.854,63.4505,54.3815,52.546,36.861000000000004,61.736,52.5475,51.829,36.3995,61.438,51.842,-0.14349999999999996,-0.14449999999999985,0.10377000000000002,0.10558500000000001,0.0,220.45,220.4,217.22,217.22,0.0,0.0
36,0.0,0.0,0.0,1.0,1.0,0.0,0.0,1.0,0.0,100.0,1.0,1.1856,26.0,0.0,0.0,0.0,59.999996,0.0,26.0,26.0,26.0,26.0,-0.019625,0.24550000000000005,0.044666666666666674,280.2735,-2.48495,-2.607625,-1.6877,-1.7487777777777778,-152.47,215.9525,190.149625,0.0,0.0,0.0,0.0,0.07323333333333337,-5.498166666666667,-5.498166666666667,-0.6616000000000001,-0.108,-0.0863333333333336,-1.27,70.557,-0.01849999999999996,-0.198225,0.32200000000000095,100.0,1.0,1.0,217.33333333333331,0.0,0.0,0.0,0.0,0.0,0.0,0.0,9212.0,0.0,55.0,5.0,253.98000000000002,0.0,0.0,0.0,0.0,0.0,0.0,1.0,0.0,1.809000000000001,1.809000000000001,0.0,0.0,0.0,55.0,616.79921,10000.0,85.000001,85.000001,85.000001,85.000001,395.0,0.0,0.0,0.0,1.0,166.665,41.168,41.168,35.278,35.278,34.0,-20.28,18.871666666666666,-34.985,33.897999999999996,0.0,1781.72,-0.08500000000000085,100.0,21.4285,21.2845,32.21,32.1175,0.0,0.0,100.0,0.0,0.0,0.0,0.0,3156.125,2959.1,4469.444444444444,4420.5,305.199,305.1385,314.14625,313.87125,22.020222222222223,20.828,22.303444444444445,21.6567,314.999998,314.999998,324.999988,324.999988,99.55458571428571,99.51113333333333,99.5798,99.552,0.127,-0.15000000000000002,-0.12549999999999994,0.09866666666666668,-0.027000000000001023,-0.03833333333332689,1.4175,1.423,38.626000000000005,31.174999999999997,40.396,36.3545,54.412,37.896,63.479,54.4405,52.542,36.8995,61.7625,52.6045,51.824,36.4365,61.4615,51.897,-0.14449999999999985,-0.14449999999999985,0.09971500000000001,0.11116500000000001,0.0,220.85666666666668,220.825,217.33333333333331,217.33333333333331,0.0,0.0
