,ABS Active,ABS Enabled,AID Allow Tire Blankets,AID Auto Blip,AID Auto Clutch,AID Auto Shift,AID Fuel Rate,AID Ideal Line,AID Mech Damage,AID Stability,AID Tire Wear Rate,Air Density,Air Temp,Ballast,Best Lap Delta,Best Lap Time,Brake Bias,Brake Pos,Brake Temp FL,Brake Temp FR,Brake Temp RL,Brake Temp RR,CG Accel Lateral,CG Accel Longitudinal,CG Accel Vertical,CG Height,Camber FL,Camber FR,Camber RL,Camber RR,Car Coord X,Car Coord Y,Car Coord Z,Car Damage Front,Car Damage Left,Car Damage Rear,Car Damage Right,Car Pos Norm,Caster FL,Caster FR,Chassis Pitch Angle,Chassis Pitch Rate,Chassis Roll Angle,Chassis Roll Rate,Chassis Velocity X,Chassis Velocity Y,Chassis Velocity Z,Chassis Yaw Rate,Clutch Pos,DRS Active,DRS Available,Drive Train Speed,ERS Heat Charging,ERS Is Charging,ERS Max Energy,ERS Power Level,ERS Recovery Level,Engine Brake Setting,Engine Limiter,Engine RPM,Flags,Fuel Level,Gear,Ground Speed,HR Sample Clock,In Pit,KERS Charge,KERS Deployed Energy,KERS Input,KERS Max Energy,LR Sample Clock,Lap Invalidated,Lap Time,Lap Time2,Last Lap Time,Last Sector Time,MR Sample Clock,Max Fuel,Max Power,Max RPM,Max Sus Travel FL,Max Sus Travel FR,Max Sus Travel RL,Max Sus Travel RR,Max Torque,Max Turbo Boost,Num Tires Off Track,Penalties Enabled,Position,Raw Data Sample Rate,Ride Height FL,Ride Height FR,Ride Height RL,Ride Height RR,Road Temp,Self Align Torque FL,Self Align Torque FR,Self Align Torque RL,Self Align Torque RR,Session Lap Count,Session Time Left,Steering Angle,Surface Grip,Suspension Travel FL,Suspension Travel FR,Suspension Travel RL,Suspension Travel RR,TC Active,TC Enabled,Throttle Pos,Tire Dirt Level FL,Tire Dirt Level FR,Tire Dirt Level RL,Tire Dirt Level RR,Tire Load FL,Tire Load FR,Tire Load RL,Tire Load RR,Tire Loaded Radius FL,Tire Loaded Radius FR,Tire Loaded Radius RL,Tire Loaded Radius RR,Tire Pressure FL,Tire Pressure FR,Tire Pressure RL,Tire Pressure RR,Tire Radius FL,Tire Radius FR,Tire Radius RL,Tire Radius RR,Tire Rubber Grip FL,Tire Rubber Grip FR,Tire Rubber Grip RL,Tire Rubber Grip RR,Tire Slip Angle FL,Tire Slip Angle FR,Tire Slip Angle RL,Tire Slip Angle RR,Tire Slip Ratio FL,Tire Slip Ratio FR,Tire Slip Ratio RL,Tire Slip Ratio RR,Tire Temp Core FL,Tire Temp Core FR,Tire Temp Core RL,Tire Temp Core RR,Tire Temp Inner FL,Tire Temp Inner FR,Tire Temp Inner RL,Tire Temp Inner RR,Tire Temp Middle FL,Tire Temp Middle FR,Tire Temp Middle RL,Tire Temp Middle RR,Tire Temp Outer FL,Tire Temp Outer FR,Tire Temp Outer RL,Tire Temp Outer RR,Toe In FL,Toe In FR,Toe In RL,Toe In RR,Turbo Boost,Wheel Angular Speed FL,Wheel Angular Speed FR,Wheel Angular Speed RL,Wheel Angular Speed RR,Wind Direction,Wind Speed
0,0.0,0.0,0.0,1.0,1.0,0.0,0.0,1.0,0.0,100.0,1.0,1.1856,26.0,0.0,0.0,0.0,59.99999,0.0,26.0,26.0,26.0,26.0,-0.05974999999999997,0.2983,0.144325,283.661,-2.5886,-2.4838750000000003,-1.6600000000000001,-1.6538000000000002,-275.76,215.76749999999998,190.978125,0.0,0.0,0.0,0.0,0.0015333333333333334,-5.498166666666667,-5.498166666666667,-0.5892000000000001,1.196,-0.0023333333333335204,-0.5835,65.684,-0.02939999999999998,-0.24148000000000003,0.48249999999999993,100.0,1.0,1.0,202.91,0.0,0.0,0.0,0.0,0.0,0.0,0.0,8600.6,0.0,55.0,5.0,236.43333333333334,0.0,0.0,0.0,0.0,0.0,0.0,0.0,0.0,0.0030000000000001137,0.0030000000000001137,0.0,0.0,0.0,55.0,616.79921,10000.0,85.0,85.0,85.0,85.0,395.0,0.0,0.0,0.0,1.0,20.0,40.817,40.817,40.085,40.085,34.0,-27.98,26.45,-28.857499999999998,25.2925,0.0,1783.533,0.5599999999999987,100.0,18.9475,18.9025,27.07,26.9185,0.0,0.0,100.0,0.0,0.0,0.0,0.0,3569.875,4362.1,3872.4444444444443,3837.2,303.945,301.4845,315.523,315.28025,21.687375,20.6085,21.89675,21.325,314.99999,314.99999,324.99998,324.99998,99.55431428571428,99.51026666666667,99.574,99.54665714285714,0.05675000000000008,-0.15549999999999997,-0.14659999999999995,0.07720000000000016,-0.04100000000000037,-0.06499999999999773,1.6425,1.6395,36.546,29.802999999999997,37.855000000000004,34.281,54.726,36.3585,62.2555,52.274,52.818,35.473,60.6305,50.565,52.107,35.064499999999995,60.4505,49.948,-0.09250000000000003,-0.17249999999999988,0.10685000000000001,0.10642000000000001,0.0,205.77666666666667,205.76,202.91,202.91,0.0,0.0
1,0.0,0.0,0.0,1.0,1.0,0.0,0.0,1.0,0.0,100.0,1.0,1.1856,26.0,0.0,0.0,0.0,59.999996,0.0,26.0,26.0,26.0,26.0,-0.105375,0.33150000000000013,0.25455,282.654,-2.5213,-2.556875,-1.6862,-1.5001,-272.21,215.785,190.95675,0.0,0.0,0.0,0.0,0.0036000000000000003,-5.498166666666667,-5.498166666666667,-0.4824,-0.7715000000000001,-0.044222222222222385,-0.6775,65.851,-0.03809999999999991,-0.19164,1.0125000000000002,100.0,1.0,1.0,202.76666666666665,0.0,0.0,0.0,0.0,0.0,0.0,0.0,8594.5,0.0,55.0,5.0,237.03,1.0,0.0,0.0,0.0,0.0,0.0,0.0,0.0,0.05699999999999861,0.05699999999999861,0.0,0.0,1.0,55.0,616.79921,10000.0,85.000001,85.000001,85.000001,85.000001,395.0,0.0,0.0,0.0,1.0,166.665,44.159,44.159,37.735,37.735,34.0,-21.8,14.015,-40.66,33.195,0.0,1783.481,0.6500000000000021,100.0,19.257,18.9015,29.243000000000002,29.500999999999998,0.0,0.0,100.0,0.0,0.0,0.0,0.0,2979.125,2559.3,4749.222222222223,5176.9,305.73533333333336,306.623,313.25075,311.77175,21.69775,20.6146,21.909,21.335,314.999998,314.999998,324.999988,324.999988,99.55431428571428,99.5103,99.57415714285715,99.54681428571429,0.06299999999999994,-0.1845,-0.16700000000000004,0.04800000000000004,-0.0329999999999977,-0.02833333333332888,1.3155000000000001,1.3559999999999999,36.611000000000004,29.8415,37.931,34.344,54.718,36.403,62.297,52.3455,52.811,35.513999999999996,60.669,50.6335,52.098,35.104,60.4855,50.0145,-0.07899999999999996,-0.1844999999999999,0.10647500000000001,0.10602,0.0,206.32666666666665,206.23000000000002,202.76666666666665,202.76666666666665,0.0,0.0
2,0.0,0.0,0.0,1.0,1.0,0.0,0.0,1.0,0.0,100.0,1.0,1.1856,26.0,0.0,0.0,0.0,59.999996,0.0,26.0,26.0,26.0,26.0,-0.11887499999999995,0.2693000000000001,-0.096125,284.378,-2.4856,-2.54225,-1.6417000000000002,-1.6626,-269.05,215.7975,190.9395,0.0,0.0,0.0,0.0,0.005433333333333333,-5.498166666666667,-5.498166666666667,-0.5701,-0.2855000000000001,-0.03299999999999992,1.349,65.97800000000001,-0.048799999999999955,-0.27942,1.2599999999999998,100.0,1.0,1.0,204.01999999999998,0.0,0.0,0.0,0.0,0.0,0.0,0.0,8647.7,0.0,55.0,5.0,237.49333333333334,0.0,0.0,0.0,0.0,0.0,0.0,0.0,0.0,0.10500000000000043,0.10500000000000043,0.0,0.0,0.0,55.0,616.79921,10000.0,85.000001,85.000001,85.000001,85.000001,395.0,0.0,0.0,0.0,1.0,166.665,42.587,42.587,41.168,41.168,34.0,-27.3925,16.21,-28.1875,19.35,0.0,1783.433,0.8200000000000003,100.0,19.498,18.701,28.808,28.267,0.0,0.0,100.0,0.0,0.0,0.0,0.0,3497.5,3027.0,3594.777777777778,3313.7,304.171,305.07425,316.082,316.61675,21.707,20.6199,21.9195,21.3433,314.999998,314.999998,324.999988,324.999988,99.55432857142857,99.51031666666667,99.5743,99.54694285714285,0.03325,-0.20174999999999998,-0.1976,0.038000000000000034,-0.05699999999999861,-0.04999999999999716,1.6989999999999998,1.7485,36.669,29.874499999999998,37.997,34.396,54.711,36.44,62.323,52.3935,52.803,35.548,60.693,50.679,52.09,35.1365,60.5075,50.0595,-0.07250000000000001,-0.19499999999999984,0.10821000000000001,0.108355,0.0,206.72,206.61,204.01999999999998,204.01999999999998,0.0,0.0
3,0.0,0.0,0.0,1.0,1.0,0.0,0.0,1.0,0.0,100.0,1.0,1.1856,26.0,0.0,0.0,0.0,59.999996,0.0,26.0,26.0,26.0,26.0,-0.11524999999999996,0.2896000000000001,0.10455,283.8595,-2.5152,-2.565375,-1.6320999999999999,-1.6977,-265.68,215.8075,190.9195,0.0,0.0,0.0,0.0,0.0074,-5.498166666666667,-5.498166666666667,-0.5126000000000001,0.6855,-0.004444444444444251,-0.537,66.132,-0.06719999999999993,-0.20044,1.085,100.0,1.0,1.0,204.01,0.0,0.0,0.0,0.0,0.0,0.0,0.0,8647.2,0.0,55.0,5.0,238.04333333333335,1.0,0.0,0.0,0.0,0.0,0.0,0.0,0.0,0.1559999999999988,0.1559999999999988,0.0,0.0,1.0,55.0,616.79921,10000.0,85.000001,85.000001,85.000001,85.000001,395.0,0.0,0.0,0.0,1.0,166.665,43.747,43.747,38.681,38.681,34.0,-23.0325,16.990000000000002,-35.585,27.572499999999998,0.0,1783.382,0.875,100.0,19.183,18.543,28.588,28.012999999999998,0.0,0.0,100.0,0.0,0.0,0.0,0.0,3001.0,3032.9,4373.888888888889,4202.6,305.686,305.215,314.20375,314.47775,21.716625,20.625799999999998,21.930625,21.3524,314.999998,314.999998,324.999988,324.999988,99.55434285714286,99.51033333333334,99.57442857142857,99.54708571428571,0.036250000000000115,-0.18725000000000003,-0.17420000000000002,0.04400000000000004,-0.053999999999998494,-0.013333333333328312,1.4745,1.504,36.729,29.911,38.066,34.452,54.7,36.484,62.353,52.454499999999996,52.793,35.588499999999996,60.7205,50.738,52.078,35.1755,60.532,50.1165,-0.06699999999999995,-0.1835,0.10174000000000001,0.107535,0.0,207.26,207.11,204.01,204.01,0.0,0.0
4,0.0,0.0,0.0,1.0,1.0,0.0,0.0,1.0,0.0,100.0,1.0,1.1856,26.0,0.0,0.0,0.0,59.999996,0.0,26.0,26.0,26.0,26.0,-0.13249999999999995,0.26490000000000014,0.004775000000000001,284.1035,-2.5431,-2.64025,-1.5745,-1.7106000000000001,-262.3,215.815,190.9,0.0,0.0,0.0,0.0,0.009366666666666667,-5.498166666666667,-5.498166666666667,-0.5368,-0.9730000000000001,-0.06555555555555559,-1.4815,66.27799999999999,-0.0784999999999999,-0.23804000000000003,1.42,100.0,1.0,1.0,204.5366666666667,0.0,0.0,0.0,0.0,0.0,0.0,0.0,8669.6,0.0,55.0,5.0,238.57,0.0,0.0,0.0,0.0,0.0,0.0,0.0,0.0,0.20700000000000074,0.20700000000000074,0.0,0.0,0.0,55.0,616.79921,10000.0,85.000001,85.000001,85.000001,85.000001,395.0,0.0,0.0,0.0,1.0,166.665,43.686,43.686,39.337,39.337,34.0,-27.2675,15.648333333333333,-35.0025,23.29,0.0,1783.33,0.875,100.0,18.842,18.215,29.091,28.1985,0.0,0.0,100.0,0.0,0.0,0.0,0.0,3345.125,2907.7,4224.111111111111,3779.9,304.79333333333335,305.46725,314.6205,315.36875,21.72625,20.6314,21.942,21.3615,314.999998,314.999998,324.999988,324.999988,99.55434285714286,99.51036666666667,99.57457142857143,99.54721428571429,0.014000000000000012,-0.21824999999999994,-0.21439999999999992,0.02100000000000013,-0.027999999999998693,-0.01999999999999602,1.5339999999999998,1.565,36.789,29.945999999999998,38.138,34.509,54.687,36.5245,62.3875,52.5135,52.781,35.626,60.7525,50.794,52.066,35.2115,60.561,50.1715,-0.06000000000000005,-0.19750000000000023,0.10966500000000001,0.10627,0.0,207.62,207.5,204.5366666666667,204.5366666666667,0.0,0.0
5,0.0,0.0,0.0,1.0,1.0,0.0,0.0,1.0,0.0,100.0,1.0,1.1856,26.0,0.0,0.0,0.0,59.999996,0.0,26.0,26.0,26.0,26.0,-0.12837500000000002,0.28800000000000003,-0.0539,284.4085,-2.5654,-2.59725,-1.6497000000000002,-1.7322000000000002,-259.12,215.8175,190.881125,0.0,0.0,0.0,0.0,0.011233333333333333,-5.498166666666667,-5.498166666666667,-0.5506,0.375,-0.060555555555555696,-0.339,66.413,-0.0897,-0.23500000000000001,1.3575,100.0,1.0,1.0,205.07666666666665,0.0,0.0,0.0,0.0,0.0,0.0,0.0,8692.5,0.0,55.0,5.0,239.05666666666667,1.0,0.0,0.0,0.0,0.0,0.0,0.0,0.0,0.254999999999999,0.254999999999999,0.0,0.0,1.0,55.0,616.79921,10000.0,85.000001,85.000001,85.000001,85.000001,395.0,0.0,0.0,0.0,1.0,166.665,43.671,43.671,40.176,40.176,34.0,-27.4875,15.623333333333331,-34.504999999999995,23.2575,0.0,1783.282,0.7050000000000018,100.0,18.963,18.1785,28.659,27.5915,0.0,0.0,100.0,0.0,0.0,0.0,0.0,3320.125,2928.9,4026.4444444444443,3861.2,304.785,305.3975,315.14375,315.266,21.735500000000002,20.6368,21.9525,21.369799999999998,314.999998,314.999998,324.999988,324.999988,99.55435714285714,99.51038333333334,99.57471428571428,99.54734285714285,0.011500000000000066,-0.21299999999999997,-0.23299999999999998,0.010599999999999943,-0.05099999999999838,-0.04999999999999716,1.5869999999999997,1.6524999999999999,36.847,29.98,38.203,34.561,54.679,36.564,62.4155,52.564499999999995,52.772,35.6625,60.778999999999996,50.8425,52.056,35.246,60.5845,50.2185,-0.07250000000000001,-0.18199999999999994,0.11670000000000001,0.11208000000000001,0.0,208.08666666666664,207.97,205.07666666666665,205.07666666666665,0.0,0.0
6,0.0,0.0,0.0,1.0,1.0,0.0,0.0,1.0,0.0,100.0,1.0,1.1856,26.0,0.0,0.0,0.0,59.999996,0.0,26.0,26.0,26.0,26.0,-0.141625,0.28580000000000005,0.022425,284.149,-2.5158,-2.655125,-1.6712,-1.6965000000000001,-255.92,215.82,190.861625,0.0,0.0,0.0,0.0,0.013066666666666666,-5.498166666666667,-5.498166666666667,-0.5336000000000001,0.0685,-0.0644444444444443,-0.9485,66.553,-0.09609999999999996,-0.2127,1.2350000000000003,100.0,1.0,1.0,205.33666666666667,0.0,0.0,0.0,0.0,0.0,0.0,0.0,8703.5,0.0,55.0,5.0,239.55666666666667,0.0,0.0,0.0,0.0,0.0,0.0,0.0,0.0,0.3030000000000008,0.3030000000000008,0.0,0.0,0.0,55.0,616.79921,10000.0,85.000001,85.000001,85.000001,85.000001,395.0,0.0,0.0,0.0,1.0,166.665,43.93,43.93,39.337,39.337,34.0,-26.57,15.565000000000001,-37.8775,24.225,0.0,1783.235,0.6099999999999994,100.0,18.785,18.1145,28.718,27.752,0.0,0.0,100.0,0.0,0.0,0.0,0.0,3282.125,2859.8,4340.333333333333,4020.5,304.929,305.588,314.376,314.83375,21.744625,20.6421,21.963124999999998,21.3783,314.999998,314.999998,324.999988,324.999988,99.55435714285714,99.5104,99.57485714285714,99.54748571428571,0.012499999999999956,-0.21699999999999997,-0.21899999999999997,0.007600000000000051,-0.038000000000000256,-0.045000000000001705,1.4994999999999998,1.5510000000000002,36.903999999999996,30.012999999999998,38.269,34.614999999999995,54.669,36.603,62.4465,52.6205,52.763,35.698499999999996,60.8075,50.896,52.046,35.28,60.6105,50.2705,-0.08050000000000002,-0.17399999999999993,0.10198000000000002,0.11425500000000001,0.0,208.51666666666665,208.39499999999998,205.33666666666667,205.33666666666667,0.0,0.0
7,0.0,0.0,0.0,1.0,1.0,0.0,0.0,1.0,0.0,100.0,1.0,1.1856,26.0,0.0,0.0,0.0,59.999996,0.0,26.0,26.0,26.0,26.0,-0.11124999999999996,0.2842,0.010475,283.966,-2.4737,-2.6550000000000002,-1.6292,-1.7436,-252.53,215.8175,190.841,0.0,0.0,0.0,0.0,0.015066666666666666,-5.498166666666667,-5.498166666666667,-0.5456,-0.031500000000000083,-0.05366666666666653,1.063,66.697,-0.09549999999999992,-0.23446,0.9199999999999999,100.0,1.0,1.0,205.83333333333331,0.0,0.0,0.0,0.0,0.0,0.0,0.0,8724.5,0.0,55.0,5.0,240.07999999999998,1.0,0.0,0.0,0.0,0.0,0.0,0.0,0.0,0.3539999999999992,0.3539999999999992,0.0,0.0,1.0,55.0,616.79921,10000.0,85.000001,85.000001,85.000001,85.000001,395.0,0.0,0.0,0.0,1.0,333.33500000000004,43.274,43.274,39.703,39.703,34.0,-24.3275,18.4,-34.2325,24.560000000000002,0.0,1783.183,0.125,100.0,19.333,18.2245,28.953,27.864,0.0,0.0,100.0,0.0,0.0,0.0,0.0,3250.125,3067.4,4065.5555555555557,3976.3,304.784,305.09075,314.9165,314.97775,21.754375,20.6479,21.974375,21.3875,314.999998,314.999998,324.999988,324.999988,99.55435714285714,99.51043333333334,99.575,99.54761428571429,0.052999999999999936,-0.17999999999999994,-0.21339999999999992,0.010399999999999965,-0.05900000000000105,-0.030000000000001137,1.5345,1.569,36.965,30.049,38.34,34.672,54.66,36.6445,62.4785,52.679,52.754000000000005,35.7365,60.8375,50.952,52.036,35.3165,60.637,50.325,-0.11749999999999994,-0.13850000000000007,0.10143,0.10794500000000001,0.0,208.94666666666666,208.835,205.83333333333331,205.83333333333331,0.0,0.0
8,0.0,0.0,0.0,1.0,1.0,0.0,0.0,1.0,0.0,100.0,1.0,1.1856,26.0,0.0,0.0,0.0,59.999996,0.0,26.0,26.0,26.0,26.0,-0.08887499999999993,0.2841,-0.0066500000000000005,284.0575,-2.5606999999999998,-2.5841250000000002,-1.6105,-1.7326000000000001,-249.12,215.81,190.820375,0.0,0.0,0.0,0.0,0.017033333333333334,-5.498166666666667,-5.498166666666667,-0.5474,-0.33150000000000013,-0.04222222222222216,-0.9125,66.842,-0.07999999999999996,-0.23221999999999998,0.5274999999999999,100.0,1.0,1.0,206.2266666666667,0.0,0.0,0.0,0.0,0.0,0.0,0.0,8741.2,0.0,55.0,5.0,240.60333333333335,0.0,0.0,0.0,0.0,0.0,0.0,0.0,0.0,0.40500000000000114,0.40500000000000114,0.0,0.0,0.0,55.0,616.79921,10000.0,85.000001,85.000001,85.000001,85.000001,395.0,0.0,0.0,0.0,1.0,166.665,43.732,43.732,39.215,39.215,34.0,-24.6575,17.133333333333333,-33.925,25.762500000000003,0.0,1783.132,0.08000000000000185,100.0,18.8115,18.4215,28.907,28.09,0.0,0.0,100.0,0.0,0.0,0.0,0.0,3202.0,2997.4,4143.777777777777,3998.0,305.18766666666664,305.1875,314.787,314.8325,21.764,20.6536,21.985625,21.3966,314.999998,314.999998,324.999988,324.999988,99.55437142857143,99.51045,99.57514285714285,99.54775714285714,0.048250000000000126,-0.1855,-0.1956,0.02959999999999985,-0.045999999999999375,-0.021666666666668277,1.512,1.5430000000000001,37.025,30.085,38.41,34.729,54.65,36.6855,62.5105,52.7375,52.744,35.774,60.867,51.007999999999996,52.025999999999996,35.3525,60.664,50.3795,-0.12149999999999994,-0.133,0.10688500000000001,0.10641500000000001,0.0,209.35666666666668,209.305,206.2266666666667,206.2266666666667,0.0,0.0
9,0.0,0.0,0.0,1.0,1.0,0.0,0.0,1.0,0.0,100.0,1.0,1.1856,26.0,0.0,0.0,0.0,59.999996,0.0,26.0,26.0,26.0,26.0,-0.06487500000000002,0.28380000000000005,0.017725,283.8595,-2.4767,-2.599625,-1.6606,-1.6902000000000001,-245.71,215.8025,190.799375,0.0,0.0,0.0,0.0,0.019033333333333336,-5.498166666666667,-5.498166666666667,-0.5454,0.47450000000000003,-0.04844444444444429,0.927,66.98400000000001,-0.06379999999999997,-0.22478000000000004,0.28750000000000053,100.0,1.0,1.0,206.71333333333334,0.0,0.0,0.0,0.0,0.0,0.0,0.0,8761.8,0.0,55.0,5.0,241.11333333333334,1.0,0.0,0.0,0.0,0.0,0.0,0.0,0.0,0.4559999999999995,0.4559999999999995,0.0,0.0,1.0,55.0,616.79921,10000.0,85.000001,85.000001,85.000001,85.000001,395.0,0.0,0.0,0.0,1.0,166.665,43.152,43.152,39.81,39.81,34.0,-23.2075,19.653333333333332,-32.254999999999995,26.9325,0.0,1783.081,-0.14499999999999957,100.0,19.3475,18.387,28.77,27.929000000000002,0.0,0.0,100.0,0.0,0.0,0.0,0.0,3274.25,3121.0,4073.777777777778,4089.6000000000004,304.73566666666665,304.98,314.9895,314.761,21.773625,20.6595,21.99675,21.4056,314.999998,314.999998,324.999988,324.999988,99.55437142857143,99.51046666666667,99.5753,99.5479,0.08150000000000013,-0.14749999999999996,-0.16700000000000004,0.055400000000000116,-0.038000000000000256,-0.054999999999999716,1.5539999999999998,1.5659999999999998,37.085,30.122,38.480000000000004,34.785,54.643,36.726,62.54,52.795,52.736999999999995,35.812,60.8945,51.0625,52.016999999999996,35.3885,60.6885,50.4325,-0.14050000000000007,-0.1160000000000001,0.10363000000000001,0.101415,0.0,209.8,209.79500000000002,206.71333333333334,206.71333333333334,0.0,0.0
10,0.0,0.0,0.0,1.0,1.0,0.0,0.0,1.0,0.0,100.0,1.0,1.1856,26.0,0.0,0.0,0.0,59.999996,0.0,26.0,26.0,26.0,26.0,-0.050999999999999934,0.28269999999999995,0.0172,283.844,-2.5399000000000003,-2.570125,-1.6294,-1.6689,-242.49,215.79250000000002,190.779875,0.0,0.0,0.0,0.0,0.020900000000000002,-5.498166666666667,-5.498166666666667,-0.5348,-0.41300000000000003,-0.01644444444444426,1.8165,67.12100000000001,-0.044300000000000006,-0.22246,0.007500000000000284,100.0,1.0,1.0,207.00666666666666,0.0,0.0,0.0,0.0,0.0,0.0,0.0,8774.2,0.0,55.0,5.0,241.60666666666668,0.0,0.0,0.0,0.0,0.0,0.0,1.0,0.0,0.5040000000000013,0.5040000000000013,0.0,0.0,0.0,55.0,616.79921,10000.0,85.000001,85.000001,85.000001,85.000001,395.0,0.0,0.0,0.0,1.0,333.33500000000004,43.823,43.823,39.047,39.047,34.0,-21.287499999999998,19.21666666666667,-32.542500000000004,29.1725,0.0,1783.032,-0.14499999999999957,100.0,19.136,18.2965,29.031,28.323,0.0,0.0,100.0,0.0,0.0,0.0,0.0,3026.75,3057.4,4173.111111111111,4254.0,305.50666666666666,305.2465,314.6485,314.343,21.78275,20.6649,22.007375,21.4143,314.999998,314.999998,324.999988,324.999988,99.55438571428571,99.51048333333334,99.57542857142857,99.54802857142857,0.09224999999999994,-0.139,-0.1532,0.07220000000000004,-0.04100000000000037,-0.04833333333333201,1.4935,1.499,37.141999999999996,30.156,38.546,34.84,54.635999999999996,36.7625,62.570499999999996,52.852000000000004,52.730999999999995,35.845,60.923,51.117,52.01,35.420500000000004,60.714,50.489,-0.14449999999999985,-0.121,0.10660000000000001,0.11093000000000001,0.0,210.19666666666666,210.21,207.00666666666666,207.00666666666666,0.0,0.0
11,0.0,0.0,0.0,1.0,1.0,0.0,0.0,1.0,0.0,100.0,1.0,1.1856,26.0,0.0,0.0,0.0,59.999996,0.0,26.0,26.0,26.0,26.0,-0.023249999999999993,0.28,-0.082425,284.271,-2.5555,-2.56075,-1.6841,-1.641,-239.06,215.7825,190.759,0.0,0.0,0.0,0.0,0.022600000000000002,-5.498166666666667,-5.498166666666667,-0.5654,-0.1975,0.004222222222222127,-0.5415,67.26,-0.025899999999999923,-0.24266000000000001,-0.04499999999999993,100.0,1.0,1.0,207.65,0.0,0.0,0.0,0.0,0.0,0.0,0.0,8801.5,0.0,55.0,5.0,242.10666666666668,1.0,0.0,0.0,0.0,0.0,0.0,1.0,0.0,0.5549999999999997,0.5549999999999997,0.0,0.0,1.0,55.0,616.79921,10000.0,85.000001,85.000001,85.000001,85.000001,395.0,0.0,0.0,0.0,1.0,333.33500000000004,43.518,43.518,40.1,40.1,34.0,-22.5125,19.865000000000002,-29.299999999999997,26.5825,0.0,1782.982,-0.16999999999999815,100.0,18.706,18.5865,28.546,28.3435,0.0,0.0,100.0,0.0,0.0,0.0,0.0,3222.375,3085.0,3851.4444444444443,3908.9,305.117,304.93325,315.552,315.15475,21.79225,20.6708,22.018375,21.4235,314.999998,314.999998,324.999988,324.999988,99.5544,99.5105,99.57557142857142,99.54818571428571,0.09925000000000006,-0.132,-0.14759999999999995,0.09240000000000004,-0.053999999999998494,-0.051666666666669414,1.6015000000000001,1.6035,37.201,30.1925,38.614999999999995,34.897,54.628,36.8015,62.5975,52.91,52.723,35.881,60.948,51.1725,52.001000000000005,35.454499999999996,60.736,50.539500000000004,-0.1399999999999999,-0.11549999999999994,0.11132500000000001,0.10723500000000001,0.0,210.62666666666667,210.625,207.65,207.65,0.0,0.0
12,0.0,0.0,0.0,1.0,1.0,0.0,0.0,1.0,0.0,100.0,1.0,1.1856,26.0,0.0,0.0,0.0,59.999996,0.0,26.0,26.0,26.0,26.0,-0.007124999999999937,0.2964,0.011025,283.737,-2.5678,-2.5696250000000003,-1.6532,-1.6714,-235.63,215.76999999999998,190.737,0.0,0.0,0.0,0.0,0.025466666666666665,-5.498166666666667,-5.498166666666667,-0.5537000000000001,0.34199999999999997,-0.003444444444444361,0.7335,67.404,-0.011199999999999988,-0.21728000000000003,-0.1349999999999998,100.0,1.0,1.0,207.93,0.0,0.0,0.0,0.0,0.0,0.0,0.0,8813.3,0.0,55.0,5.0,242.62333333333333,0.0,0.0,0.0,0.0,0.0,0.0,1.0,0.0,0.6059999999999981,0.6059999999999981,0.0,0.0,0.0,55.0,616.79921,10000.0,85.000001,85.000001,85.000001,85.000001,395.0,0.0,0.0,0.0,1.0,166.665,43.289,43.289,39.078,39.078,34.0,-20.9425,22.273333333333333,-30.91,30.372500000000002,0.0,1782.932,0.1999999999999993,100.0,18.952,18.648,28.616,28.2575,0.0,0.0,100.0,0.0,0.0,0.0,0.0,3140.375,3235.8,4165.333333333333,4190.9,305.16866666666664,304.63375,314.7375,314.5385,21.801625,20.6768,22.0295,21.4326,314.999998,314.999998,324.999988,324.999988,99.5544,99.51051666666666,99.57571428571428,99.54832857142857,0.12674999999999992,-0.10275000000000001,-0.121,0.10820000000000007,-0.038000000000000256,-0.06333333333333258,1.5270000000000001,1.5324999999999998,37.26,30.23,38.684,34.954,54.620999999999995,36.8405,62.626999999999995,52.9685,52.716,35.917500000000004,60.9755,51.2285,51.992999999999995,35.489,60.7605,50.594,-0.13450000000000006,-0.11850000000000005,0.11491000000000001,0.10822000000000001,0.0,211.07999999999998,211.11,207.93,207.93,0.0,0.0
13,0.0,0.0,0.0,1.0,1.0,0.0,0.0,1.0,0.0,100.0,1.0,1.1856,26.0,0.0,0.0,0.0,59.999996,0.0,26.0,26.0,26.0,26.0,0.018874999999999975,0.2872000000000001,0.03485,283.3555,-2.5503,-2.5711250000000003,-1.6888,-1.6752,-232.19,215.7575,190.715125,0.0,0.0,0.0,0.0,0.02686666666666667,-5.498166666666667,-5.498166666666667,-0.5488000000000001,-0.20650000000000013,-0.003555555555555756,-0.34,67.54599999999999,-0.0050000000000000044,-0.22822,-0.21499999999999986,100.0,1.0,1.0,208.30333333333334,0.0,0.0,0.0,0.0,0.0,0.0,0.0,8829.2,0.0,55.0,5.0,243.13333333333333,1.0,0.0,0.0,0.0,0.0,0.0,1.0,0.0,0.657,0.657,0.0,0.0,1.0,55.0,616.79921,10000.0,85.000001,85.000001,85.000001,85.000001,395.0,0.0,0.0,0.0,1.0,166.665,43.03,43.03,38.94,38.94,34.0,-20.8725,21.516666666666666,-32.0925,31.372500000000002,0.0,1782.881,-0.28500000000000014,100.0,19.0785,18.9955,28.851,28.8325,0.0,0.0,100.0,0.0,0.0,0.0,0.0,3261.0,3117.5,4204.0,4248.3,304.9773333333333,304.80875,314.6845,314.2715,21.81125,20.6828,22.040625,21.4419,314.999998,314.999998,324.999988,324.999988,99.55442857142857,99.51053333333333,99.57585714285715,99.54845714285715,0.14050000000000007,-0.10299999999999998,-0.1267999999999999,0.1100000000000001,-0.0519999999999996,-0.04333333333332945,1.5065,1.4969999999999999,37.32,30.2675,38.754,35.012,54.617000000000004,36.879,62.658,53.03,52.712,35.9525,61.004,51.2875,51.988,35.522999999999996,60.7855,50.6515,-0.16799999999999993,-0.10050000000000026,0.10712,0.11159500000000001,0.0,211.52333333333334,211.51,208.30333333333334,208.30333333333334,0.0,0.0
14,0.0,0.0,0.0,1.0,1.0,0.0,0.0,1.0,0.0,100.0,1.0,1.1856,26.0,0.0,0.0,0.0,59.999996,0.0,26.0,26.0,26.0,26.0,0.024499999999999966,0.2734000000000001,-0.01585,283.676,-2.5685000000000002,-2.5765000000000002,-1.6891,-1.6621000000000001,-228.74,215.7475,190.693875,0.0,0.0,0.0,0.0,0.028900000000000002,-5.498166666666667,-5.498166666666667,-0.5609000000000001,-0.046499999999999986,0.02022222222222214,0.9415,67.684,0.0044999999999999485,-0.24198000000000003,-0.3099999999999996,100.0,1.0,1.0,208.82666666666665,0.0,0.0,0.0,0.0,0.0,0.0,0.0,8851.4,0.0,55.0,5.0,243.63333333333333,0.0,0.0,0.0,0.0,0.0,0.0,1.0,0.0,0.7079999999999984,0.7079999999999984,0.0,0.0,0.0,55.0,616.79921,10000.0,85.000001,85.000001,85.000001,85.000001,395.0,0.0,0.0,0.0,1.0,166.665,43.137,43.137,39.307,39.307,34.0,-19.912499999999998,22.888333333333335,-28.185,31.5825,0.0,1782.83,-0.3000000000000007,100.0,19.132,18.9675,28.779,28.793,0.0,0.0,100.0,0.0,0.0,0.0,0.0,3067.875,3233.1,3954.3333333333335,4152.3,305.3806666666667,304.572,315.23875,314.5975,21.82075,20.6888,22.05175,21.4512,314.999998,314.999998,324.999988,324.999988,99.55444285714286,99.51055,99.576,99.5486,0.13775000000000004,-0.09175,-0.09639999999999993,0.14100000000000001,-0.04100000000000037,-0.046666666666666856,1.557,1.5419999999999998,37.379999999999995,30.305500000000002,38.824,35.07,54.611999999999995,36.917500000000004,62.6855,53.0895,52.707,35.9885,61.0295,51.345,51.980999999999995,35.557,60.808,50.707499999999996,-0.14749999999999996,-0.10250000000000004,0.10806,0.11083000000000001,0.0,211.94666666666666,211.95499999999998,208.82666666666665,208.82666666666665,0.0,0.0
15,0.0,0.0,0.0,1.0,1.0,0.0,0.0,1.0,0.0,100.0,1.0,1.1856,26.0,0.0,0.0,0.0,59.999996,0.0,26.0,26.0,26.0,26.0,0.020874999999999977,0.28490000000000015,-0.01985,283.6305,-2.5712,-2.545,-1.7034,-1.6731,-225.69,215.7375,190.67475,0.0,0.0,0.0,0.0,0.03066666666666667,-5.498166666666667,-5.498166666666667,-0.5519000000000001,0.24349999999999994,0.03311111111111109,-0.7535000000000001,67.80799999999999,0.010499999999999954,-0.22504000000000002,-0.25,100.0,1.0,1.0,209.17000000000002,0.0,0.0,0.0,0.0,0.0,0.0,0.0,8866.0,0.0,55.0,5.0,244.07999999999998,1.0,0.0,0.0,0.0,0.0,0.0,1.0,0.0,0.7530000000000001,0.7530000000000001,0.0,0.0,1.0,55.0,616.79921,10000.0,85.000001,85.000001,85.000001,85.000001,395.0,0.0,0.0,0.0,1.0,333.33500000000004,43.259,43.259,39.185,39.185,34.0,-19.78,21.32333333333333,-29.612499999999997,31.3375,0.0,1782.783,-0.2749999999999986,100.0,18.983,19.128,28.562,28.9405,0.0,0.0,100.0,0.0,0.0,0.0,0.0,3103.375,3111.1,4060.777777777778,4213.1,305.465,304.74725,315.06425,314.332,21.829125,20.6942,22.0615,21.4594,314.999998,314.999998,324.999988,324.999988,99.55445714285715,99.51056666666666,99.57612857142857,99.54874285714286,0.14300000000000002,-0.10275000000000001,-0.10199999999999998,0.1177999999999999,-0.05699999999999861,-0.03333333333333144,1.5244999999999997,1.5310000000000001,37.432,30.3385,38.884,35.121,54.608000000000004,36.951,62.7095,53.1425,52.703,36.0195,61.0515,51.3955,51.976,35.587,60.8275,50.757,-0.15849999999999986,-0.10899999999999999,0.10705,0.109685,0.0,212.33666666666664,212.345,209.17000000000002,209.17000000000002,0.0,0.0
16,0.0,0.0,0.0,1.0,1.0,0.0,0.0,1.0,0.0,100.0,1.0,1.1856,26.0,0.0,0.0,0.0,59.999996,0.0,26.0,26.0,26.0,26.0,0.02287499999999998,0.2679,-0.029575,283.6,-2.6259,-2.4991250000000003,-1.6739000000000002,-1.6751,-222.01999999999998,215.725,190.651375,0.0,0.0,0.0,0.0,0.0328,-5.498166666666667,-5.498166666666667,-0.5687,-0.5235000000000001,0.0173333333333332,-1.258,67.955,0.018299999999999983,-0.23846,-0.1974999999999998,100.0,1.0,1.0,209.62666666666667,0.0,0.0,0.0,0.0,0.0,0.0,0.0,8885.4,0.0,55.0,5.0,244.61,0.0,0.0,0.0,0.0,0.0,0.0,1.0,0.0,0.8069999999999986,0.8069999999999986,0.0,0.0,0.0,55.0,616.79921,10000.0,85.000001,85.000001,85.000001,85.000001,395.0,0.0,0.0,0.0,1.0,166.665,43.045,43.045,39.047,39.047,34.0,-22.305,21.616666666666667,-28.715,30.07,0.0,1782.731,-0.120000000000001,100.0,18.6955,19.0875,28.781,28.950499999999998,0.0,0.0,100.0,0.0,0.0,0.0,0.0,3290.875,3233.6,4037.4444444444443,4029.7,305.028,304.4935,315.08675,314.79625,21.839,20.7006,22.07325,21.4692,314.999998,314.999998,324.999988,324.999988,99.55448571428572,99.51056666666666,99.57628571428572,99.5489,0.12850000000000006,-0.10499999999999998,-0.09499999999999997,0.12480000000000002,-0.04299999999999926,-0.02499999999999858,1.528,1.5259999999999998,37.492999999999995,30.3785,38.958,35.182,54.601,36.9915,62.741,53.2055,52.696,36.057,61.0805,51.456,51.968,35.6225,60.8535,50.8155,-0.139,-0.121,0.10777,0.103315,0.0,212.76,212.76999999999998,209.62666666666667,209.62666666666667,0.0,0.0
17,0.0,0.0,0.0,1.0,1.0,0.0,0.0,1.0,0.0,100.0,1.0,1.1856,26.0,0.0,0.0,0.0,59.999996,0.0,26.0,26.0,26.0,26.0,0.007749999999999924,0.2856000000000001,0.019825000000000002,283.249,-2.5804,-2.4918750000000003,-1.7098,-1.6422,-218.56,215.715,190.628875,0.0,0.0,0.0,0.0,0.034800000000000005,-5.498166666666667,-5.498166666666667,-0.5595,0.26249999999999996,-0.004777777777777992,0.6990000000000001,68.094,0.016199999999999992,-0.22232,-0.14499999999999957,100.0,1.0,1.0,209.98000000000002,0.0,0.0,0.0,0.0,0.0,0.0,0.0,8900.3,0.0,55.0,5.0,245.11,1.0,0.0,0.0,0.0,0.0,0.0,1.0,0.0,0.8580000000000005,0.8580000000000005,0.0,0.0,1.0,55.0,616.79921,10000.0,85.000001,85.000001,85.000001,85.000001,395.0,0.0,0.0,0.0,1.0,166.665,42.923,42.923,38.712,38.712,34.0,-20.68,22.531666666666666,-31.884999999999998,32.0025,0.0,1782.679,-0.14000000000000057,100.0,19.241,18.981,28.795,28.772,0.0,0.0,100.0,0.0,0.0,0.0,0.0,3217.375,3255.3,4317.333333333333,4291.1,304.98833333333334,304.592,314.43625,314.3145,21.8485,20.7067,22.084375,21.4784,314.999998,314.999998,324.999988,324.999988,99.5545,99.51058333333333,99.57642857142856,99.54902857142856,0.1472500000000001,-0.08350000000000002,-0.09760000000000002,0.12740000000000018,-0.038999999999997925,-0.041666666666671404,1.5030000000000001,1.5015,37.553,30.417,39.027,35.24,54.597,37.03,62.769,53.2645,52.692,36.0925,61.1065,51.5125,51.963,35.657,60.876,50.871,-0.1459999999999999,-0.11500000000000021,0.10843000000000001,0.104035,0.0,213.22666666666666,213.22500000000002,209.98000000000002,209.98000000000002,0.0,0.0
18,0.0,0.0,0.0,1.0,1.0,0.0,0.0,1.0,0.0,100.0,1.0,1.1856,26.0,0.0,0.0,0.0,59.999996,0.0,26.0,26.0,26.0,26.0,-0.008375000000000021,0.27990000000000004,0.023275,283.188,-2.5216000000000003,-2.472125,-1.7168999999999999,-1.5941,-215.28,215.70499999999998,190.60775,0.0,0.0,0.0,0.0,0.0367,-5.498166666666667,-5.498166666666667,-0.5718,-0.3760000000000001,0.008777777777777773,0.8975,68.224,0.013400000000000079,-0.23808000000000004,-0.125,100.0,1.0,1.0,210.38666666666666,0.0,0.0,0.0,0.0,0.0,0.0,0.0,8917.5,0.0,55.0,5.0,245.57666666666665,0.0,0.0,0.0,0.0,0.0,0.0,1.0,0.0,0.9059999999999988,0.9059999999999988,0.0,0.0,0.0,55.0,616.79921,10000.0,85.000001,85.000001,85.000001,85.000001,395.0,0.0,0.0,0.0,1.0,166.665,42.679,42.679,38.696,38.696,34.0,-20.447499999999998,22.945,-30.435000000000002,31.355,0.0,1782.632,-0.129999999999999,100.0,19.1375,18.9795,29.004,28.96,0.0,0.0,100.0,0.0,0.0,0.0,0.0,3207.0,3419.5,4147.222222222223,4258.7,304.95166666666665,304.11125,314.8105,314.36825,21.85725,20.7124,22.094875000000002,21.4872,314.999998,314.999998,324.999988,324.999988,99.55451428571429,99.5106,99.57657142857143,99.54917142857143,0.13949999999999996,-0.09750000000000003,-0.09739999999999993,0.13319999999999999,-0.036999999999999034,-0.045000000000001705,1.5219999999999998,1.5114999999999998,37.608000000000004,30.4525,39.093,35.295,54.592,37.066,62.7965,53.3215,52.687,36.126,61.132,51.567,51.956,35.689,60.899,50.924,-0.14050000000000007,-0.12199999999999989,0.10450000000000001,0.10708000000000001,0.0,213.60666666666668,213.595,210.38666666666666,210.38666666666666,0.0,0.0
19,0.0,0.0,0.0,1.0,1.0,0.0,0.0,1.0,0.0,100.0,1.0,1.1856,26.0,0.0,0.0,0.0,59.999996,0.0,26.0,26.0,26.0,26.0,0.009374999999999911,0.2815000000000001,0.06835000000000001,282.9285,-2.5255,-2.575,-1.646,-1.7203000000000002,-211.8,215.695,190.585125,0.0,0.0,0.0,0.0,0.038733333333333335,-5.498166666666667,-5.498166666666667,-0.5596,0.6825,0.01011111111111096,-0.8815000000000001,68.361,0.010099999999999998,-0.22604000000000002,-0.022499999999999964,100.0,1.0,1.0,210.78,0.0,0.0,0.0,0.0,0.0,0.0,0.0,8934.2,0.0,55.0,5.0,246.07,1.0,0.0,0.0,0.0,0.0,0.0,1.0,0.0,0.9570000000000007,0.9570000000000007,0.0,0.0,1.0,55.0,616.79921,10000.0,85.000001,85.000001,85.000001,85.000001,395.0,0.0,0.0,0.0,1.0,166.665,42.542,42.542,38.712,38.712,34.0,-21.5,21.55833333333333,-31.134999999999998,33.4525,0.0,1782.581,-0.120000000000001,100.0,19.464,19.5565,28.802,29.124000000000002,0.0,0.0,100.0,0.0,0.0,0.0,0.0,3268.5,3130.9,4250.0,4322.8,304.9273333333333,304.6385,314.621,314.0115,21.866875,20.7185,22.105875,21.4965,314.999998,314.999998,324.999988,324.999988,99.55452857142858,99.51061666666666,99.57671428571429,99.54932857142857,0.12450000000000006,-0.10899999999999999,-0.11060000000000003,0.12060000000000004,-0.053999999999998494,-0.041666666666671404,1.4855,1.4895,37.668,30.491,39.162,35.353,54.589,37.106,62.823,53.381,52.683,36.163,61.157,51.6245,51.952,35.7245,60.920500000000004,50.980000000000004,-0.13749999999999996,-0.12150000000000016,0.112185,0.11114500000000001,0.0,214.07999999999998,214.035,210.78,210.78,0.0,0.0
20,0.0,0.0,0.0,1.0,1.0,0.0,0.0,1.0,0.0,100.0,1.0,1.1856,26.0,0.0,0.0,0.0,59.999996,0.0,26.0,26.0,26.0,26.0,0.014124999999999943,0.26649999999999996,-0.013275,283.31,-2.6138,-2.5335,-1.6503999999999999,-1.7086000000000001,-208.31,215.6875,190.562625,0.0,0.0,0.0,0.0,0.04076666666666667,-5.498166666666667,-5.498166666666667,-0.5690000000000001,-1.024,0.010222222222222133,0.5355,68.498,0.007500000000000062,-0.24212,-0.04499999999999993,100.0,1.0,1.0,211.19666666666666,0.0,0.0,0.0,0.0,0.0,0.0,0.0,8951.9,0.0,55.0,5.0,246.56666666666666,0.0,0.0,0.0,0.0,0.0,0.0,0.0,0.0,1.0079999999999991,1.0079999999999991,0.0,0.0,0.0,55.0,616.79921,10000.0,85.000001,85.000001,85.000001,85.000001,395.0,0.0,0.0,0.0,1.0,166.665,43.152,43.152,38.513,38.513,34.0,-20.6225,22.11,-28.9375,32.04,0.0,1782.53,-0.09999999999999787,100.0,19.131,19.0385,29.459,29.372,0.0,0.0,100.0,0.0,0.0,0.0,0.0,3109.875,3226.2,4060.1111111111113,4136.8,305.362,304.6915,314.934,314.58275,21.876125000000002,20.7246,22.117125,21.5059,314.999998,314.999998,324.999988,324.999988,99.55455714285715,99.51061666666666,99.57685714285714,99.54947142857142,0.137,-0.09675,-0.09599999999999997,0.13340000000000019,-0.015000000000000568,-0.07166666666666544,1.4979999999999998,1.4939999999999998,37.726,30.5285,39.232,35.412,54.582,37.144,62.854,53.442,52.676,36.198,61.1855,51.683,51.944,35.757999999999996,60.946,51.037,-0.137,-0.1259999999999999,0.101565,0.11220500000000001,0.0,214.42000000000002,214.44,211.19666666666666,211.19666666666666,0.0,0.0
21,0.0,0.0,0.0,1.0,1.0,0.0,0.0,1.0,0.0,100.0,1.0,1.1856,26.0,0.0,0.0,0.0,59.999996,0.0,26.0,26.0,26.0,26.0,0.006750000000000034,0.27690000000000015,-0.06645000000000001,283.5845,-2.5853,-2.535875,-1.7198,-1.6629,-205.23000000000002,215.6775,190.542375,0.0,0.0,0.0,0.0,0.04256666666666667,-5.498166666666667,-5.498166666666667,-0.5866,0.23949999999999994,-0.006888888888889166,-0.8985,68.61500000000001,0.0031000000000001027,-0.2376,-0.01750000000000007,100.0,1.0,1.0,211.71333333333334,0.0,0.0,0.0,0.0,0.0,0.0,0.0,8973.8,0.0,55.0,5.0,246.98666666666668,1.0,0.0,0.0,0.0,0.0,0.0,0.0,0.0,1.0530000000000008,1.0530000000000008,0.0,0.0,1.0,55.0,616.79921,10000.0,85.000001,85.000001,85.000001,85.000001,395.0,0.0,0.0,0.0,1.0,333.33500000000004,42.969,42.969,39.368,39.368,34.0,-22.025,21.138333333333332,-30.5625,28.3,0.0,1782.483,-0.16000000000000014,100.0,19.137,19.177,28.829,28.98,0.0,0.0,100.0,0.0,0.0,0.0,0.0,3298.875,3135.8,4073.222222222222,3979.8,304.94233333333335,304.80475,315.10525,315.014,21.884375,20.73,22.12675,21.514,314.999998,314.999998,324.999988,324.999988,99.55457142857144,99.51063333333333,99.57698571428571,99.5496,0.1292500000000001,-0.10699999999999998,-0.12,0.1080000000000001,-0.047999999999998266,-0.045000000000001705,1.573,1.5855000000000001,37.777,30.5625,39.292,35.462,54.578,37.1785,62.8755,53.4915,52.672,36.2295,61.2055,51.730000000000004,51.938,35.788,60.963499999999996,51.083,-0.14349999999999996,-0.11949999999999994,0.10951000000000001,0.10279500000000001,0.0,214.84,214.825,211.71333333333334,211.71333333333334,0.0,0.0
22,0.0,0.0,0.0,1.0,1.0,0.0,0.0,1.0,0.0,100.0,1.0,1.1856,26.0,0.0,0.0,0.0,59.999996,0.0,26.0,26.0,26.0,26.0,0.007749999999999924,0.2794000000000001,-0.004375,283.1725,-2.6389,-2.593125,-1.7133,-1.6496000000000002,-201.72,215.67000000000002,190.5185,0.0,0.0,0.0,0.0,0.0446,-5.498166666666667,-5.498166666666667,-0.5689000000000001,0.05499999999999994,0.00533333333333319,1.169,68.753,0.0023999999999999577,-0.21611999999999998,-0.07749999999999968,100.0,1.0,1.0,211.96,0.0,0.0,0.0,0.0,0.0,0.0,0.0,8984.1,0.0,55.0,5.0,247.48000000000002,0.0,0.0,0.0,0.0,0.0,0.0,0.0,0.0,1.1039999999999992,1.1039999999999992,0.0,0.0,0.0,55.0,616.79921,10000.0,85.000001,85.000001,85.000001,85.000001,395.0,0.0,0.0,0.0,1.0,333.33500000000004,43.198,43.198,38.315,38.315,34.0,-20.4525,21.796666666666667,-31.8525,32.83,0.0,1782.432,-0.2049999999999983,100.0,19.3745,19.1485,29.206,29.1005,0.0,0.0,100.0,0.0,0.0,0.0,0.0,3049.375,3160.8,4237.555555555556,4378.8,305.5896666666667,304.8135,314.597,314.1235,21.89375,20.7361,22.137875,21.5233,314.999998,314.999998,324.999988,324.999988,99.55458571428571,99.51065,99.57712857142857,99.54974285714286,0.13474999999999993,-0.10675000000000001,-0.10599999999999998,0.125,-0.0470000000000006,-0.036666666666668846,1.483,1.4939999999999998,37.836,30.6005,39.361999999999995,35.521,54.573,37.2175,62.9055,53.5515,52.667,36.2655,61.233000000000004,51.7875,51.932,35.8225,60.988,51.138999999999996,-0.14449999999999985,-0.11949999999999994,0.10553000000000001,0.10912500000000001,0.0,215.26333333333332,215.245,211.96,211.96,0.0,0.0
23,0.0,0.0,0.0,1.0,1.0,0.0,0.0,1.0,0.0,100.0,1.0,1.1856,26.0,0.0,0.0,0.0,59.999996,0.0,26.0,26.0,26.0,26.0,0.007500000000000062,0.2641,-0.0639,283.0505,-2.5524,-2.533125,-1.7678,-1.6252,-198.20999999999998,215.66,190.494875,0.0,0.0,0.0,0.0,0.04663333333333333,-5.498166666666667,-5.498166666666667,-0.5860000000000001,-0.1795,0.0023333333333332984,-0.661,68.885,0.005600000000000049,-0.24194000000000002,-0.10250000000000004,100.0,1.0,1.0,212.47,0.0,0.0,0.0,0.0,0.0,0.0,0.0,9005.8,0.0,55.0,5.0,247.96,1.0,0.0,0.0,0.0,0.0,0.0,0.0,0.0,1.1550000000000011,1.1550000000000011,0.0,0.0,1.0,55.0,616.79921,10000.0,85.000001,85.000001,85.000001,85.000001,395.0,0.0,0.0,0.0,1.0,166.665,42.389,42.389,39.093,39.093,34.0,-22.2725,21.54,-31.32,29.16,0.0,1782.383,-0.1750000000000007,100.0,19.4705,19.431,29.197,29.381,0.0,0.0,100.0,0.0,0.0,0.0,0.0,3399.125,3171.0,4109.0,4067.6000000000004,304.561,304.65175,315.02925,314.81575,21.903125,20.7422,22.149,21.5328,314.999998,314.999998,324.999988,324.999988,99.5546,99.51066666666667,99.57727142857142,99.5499,0.135,-0.10475000000000001,-0.11299999999999999,0.11640000000000006,-0.06400000000000006,-0.03999999999999915,1.5419999999999998,1.5419999999999998,37.894999999999996,30.639,39.431,35.58,54.569,37.257,62.9335,53.6115,52.663,36.302,61.2595,51.845,51.927,35.8575,61.0105,51.1945,-0.14900000000000002,-0.11649999999999983,0.11143000000000002,0.104035,0.0,215.66666666666666,215.655,212.47,212.47,0.0,0.0
24,0.0,0.0,0.0,1.0,1.0,0.0,0.0,1.0,0.0,100.0,1.0,1.1856,26.0,0.0,0.0,0.0,59.999996,0.0,26.0,26.0,26.0,26.0,0.001875000000000071,0.2714000000000001,-0.037825000000000004,283.4015,-2.5757,-2.546625,-1.6558000000000002,-1.6514,-194.7,215.6525,190.470875,0.0,0.0,0.0,0.0,0.04866666666666667,-5.498166666666667,-5.498166666666667,-0.5962000000000001,-0.5525,0.017222222222222028,1.2355,69.021,0.010000000000000009,-0.23634000000000002,-0.14250000000000007,100.0,1.0,1.0,212.80666666666667,0.0,0.0,0.0,0.0,0.0,0.0,0.0,9020.2,0.0,55.0,5.0,248.44666666666666,0.0,0.0,0.0,0.0,0.0,0.0,0.0,0.0,1.2059999999999995,1.2059999999999995,0.0,0.0,0.0,55.0,616.79921,10000.0,85.000001,85.000001,85.000001,85.000001,395.0,0.0,0.0,0.0,1.0,166.665,43.457,43.457,38.605,38.605,34.0,-19.599999999999998,21.616666666666667,-29.915,31.192500000000003,0.0,1782.332,-0.1750000000000007,100.0,19.239,18.927,29.243000000000002,29.205,0.0,0.0,100.0,0.0,0.0,0.0,0.0,2993.75,3186.6,4138.888888888889,4202.1,305.652,304.8425,314.76525,314.51975,21.912375,20.7483,22.160125,21.5421,314.999998,314.999998,324.999988,324.999988,99.55461428571428,99.51066666666667,99.57742857142857,99.55004285714286,0.13375000000000004,-0.10324999999999995,-0.10199999999999998,0.12420000000000009,-0.021000000000000796,-0.041666666666671404,1.5185,1.5099999999999998,37.953,30.676499999999997,39.501000000000005,35.638,54.563,37.2945,62.9615,53.67,52.657,36.337,61.2855,51.9015,51.92,35.891,61.033500000000004,51.2495,-0.14149999999999996,-0.12150000000000016,0.11033000000000001,0.10781500000000001,0.0,216.05666666666667,216.065,212.80666666666667,212.80666666666667,0.0,0.0
25,0.0,0.0,0.0,1.0,1.0,0.0,0.0,1.0,0.0,100.0,1.0,1.1856,26.0,0.0,0.0,0.0,59.999996,0.0,26.0,26.0,26.0,26.0,0.02012499999999995,0.2599,-0.031925,283.1575,-2.6425,-2.504625,-1.7392,-1.6571,-191.17000000000002,215.64499999999998,190.4455,0.0,0.0,0.0,0.0,0.05073333333333333,-5.498166666666667,-5.498166666666667,-0.6175,0.19099999999999995,0.01588888888888884,-1.0455,69.152,0.009000000000000119,-0.23494,-0.07000000000000028,100.0,1.0,1.0,213.32,0.0,0.0,0.0,0.0,0.0,0.0,0.0,9041.8,0.0,55.0,5.0,248.92333333333335,1.0,0.0,0.0,0.0,0.0,0.0,0.0,0.0,1.256999999999998,1.256999999999998,0.0,0.0,1.0,55.0,616.79921,10000.0,85.000001,85.000001,85.000001,85.000001,395.0,0.0,0.0,0.0,1.0,166.665,42.282,42.282,39.185,39.185,34.0,-23.415,23.118333333333332,-29.572499999999998,30.195,0.0,1782.281,-0.22499999999999787,100.0,19.162,19.406,28.842,29.064999999999998,0.0,0.0,100.0,0.0,0.0,0.0,0.0,3440.75,3352.5,4036.777777777778,4057.7,304.559,304.1165,315.2125,314.801,21.92175,20.7545,22.171,21.5513,314.999998,314.999998,324.999988,324.999988,99.55462857142857,99.5107,99.57757142857143,99.55018571428572,0.13549999999999995,-0.09499999999999997,-0.09999999999999998,0.12959999999999994,-0.05000000000000071,-0.03833333333332689,1.5564999999999998,1.5495,38.010999999999996,30.7155,39.569,35.696,54.557,37.3335,62.987,53.727000000000004,52.652,36.3735,61.3085,51.956,51.913,35.9255,61.0535,51.303,-0.15349999999999997,-0.11249999999999982,0.10007,0.11741000000000001,0.0,216.48000000000002,216.47,213.32,213.32,0.0,0.0
26,0.0,0.0,0.0,1.0,1.0,0.0,0.0,1.0,0.0,100.0,1.0,1.1856,26.0,0.0,0.0,0.0,59.999996,0.0,26.0,26.0,26.0,26.0,0.01462500000000011,0.27990000000000004,0.0945,282.2115,-2.5768,-2.58275,-1.703,-1.7167000000000001,-187.64,215.635,190.419875,0.0,0.0,0.0,0.0,0.05276666666666666,-5.498166666666667,-5.498166666666667,-0.5821000000000001,0.37549999999999994,0.006888888888888944,0.911,69.288,0.011200000000000099,-0.21448000000000003,-0.2549999999999999,100.0,1.0,1.0,213.47,0.0,0.0,0.0,0.0,0.0,0.0,0.0,9048.3,0.0,55.0,5.0,249.41,0.0,0.0,0.0,0.0,0.0,0.0,0.0,0.0,1.3079999999999998,1.3079999999999998,0.0,0.0,0.0,55.0,616.79921,10000.0,85.000001,85.000001,85.000001,85.000001,395.0,0.0,0.0,0.0,1.0,166.665,42.313,42.313,37.567,37.567,34.0,-20.49,22.491666666666667,-33.894999999999996,36.332499999999996,0.0,1782.23,-0.259999999999998,100.0,19.954,19.6505,29.562,29.544,0.0,0.0,100.0,0.0,0.0,0.0,0.0,3190.5,3211.8,4496.555555555556,4550.3,304.96433333333334,304.65875,313.95775,313.60725,21.931125,20.7608,22.18225,21.5608,314.999998,314.999998,324.999988,324.999988,99.55465714285714,99.5107,99.57772857142857,99.55034285714285,0.14949999999999997,-0.09875,-0.09779999999999989,0.13140000000000018,-0.04100000000000037,-0.03499999999999659,1.4340000000000002,1.4224999999999999,38.07,30.755,39.638999999999996,35.754999999999995,54.556,37.374,63.0175,53.7885,52.65,36.4105,61.337,52.015,51.909,35.9615,61.079,51.3605,-0.15300000000000002,-0.11450000000000005,0.10682000000000001,0.10689000000000001,0.0,216.92666666666668,216.92000000000002,213.47,213.47,0.0,0.0
27,0.0,0.0,0.0,1.0,1.0,0.0,0.0,1.0,0.0,100.0,1.0,1.1856,26.0,0.0,0.0,0.0,59.999996,0.0,26.0,26.0,26.0,26.0,0.01649999999999996,0.25760000000000005,-0.060225,282.8825,-2.6153,-2.553125,-1.7233,-1.6721000000000001,-184.31,215.63,190.39675,0.0,0.0,0.0,0.0,0.054700000000000006,-5.498166666666667,-5.498166666666667,-0.6098,-0.9785000000000001,0.008000000000000007,0.6335000000000001,69.411,0.01429999999999998,-0.25638000000000005,-0.2524999999999995,100.0,1.0,1.0,214.01999999999998,0.0,0.0,0.0,0.0,0.0,0.0,0.0,9071.5,0.0,55.0,5.0,249.85333333333335,1.0,0.0,0.0,0.0,0.0,0.0,0.0,0.0,1.355999999999998,1.355999999999998,0.0,0.0,1.0,55.0,616.79921,10000.0,85.000001,85.000001,85.000001,85.000001,395.0,0.0,0.0,0.0,1.0,166.665,42.694,42.694,38.132,38.132,34.0,-20.3,22.933333333333334,-29.8325,31.285,0.0,1782.182,-0.254999999999999,100.0,19.5425,19.506,29.906,29.8315,0.0,0.0,100.0,0.0,0.0,0.0,0.0,3122.375,3296.3,4020.8888888888887,4077.5,305.35333333333335,304.4535,315.0325,314.832,21.939875,20.7666,22.192875,21.5698,314.999998,314.999998,324.999988,324.999988,99.55467142857142,99.51071666666667,99.57787142857143,99.55047142857143,0.14674999999999994,-0.09624999999999995,-0.10199999999999998,0.14240000000000008,-0.04400000000000048,-0.04833333333333201,1.517,1.509,38.123999999999995,30.7915,39.705,35.811,54.551,37.411,63.045,53.845,52.644999999999996,36.445,61.363,52.069,51.903,35.994,61.1015,51.413,-0.14700000000000002,-0.11699999999999999,0.11370000000000001,0.10754000000000001,0.0,217.25666666666666,217.26999999999998,214.01999999999998,214.01999999999998,0.0,0.0
28,0.0,0.0,0.0,1.0,1.0,0.0,0.0,1.0,0.0,100.0,1.0,1.1856,26.0,0.0,0.0,0.0,59.999996,0.0,26.0,26.0,26.0,26.0,0.03550000000000009,0.262,-0.054450000000000005,283.02,-2.5543,-2.53125,-1.7357,-1.6874,-180.76999999999998,215.6225,190.37125,0.0,0.0,0.0,0.0,0.05676666666666667,-5.498166666666667,-5.498166666666667,-0.6124,0.6265000000000001,-0.0018888888888888289,-0.636,69.53999999999999,0.011700000000000044,-0.22866,-0.15749999999999975,100.0,1.0,1.0,214.48000000000002,0.0,0.0,0.0,0.0,0.0,0.0,0.0,9091.0,0.0,55.0,5.0,250.31666666666666,0.0,0.0,0.0,0.0,0.0,0.0,0.0,0.0,1.407,1.407,0.0,0.0,0.0,55.0,616.79921,10000.0,85.000001,85.000001,85.000001,85.000001,395.0,0.0,0.0,0.0,1.0,166.665,42.647999999999996,42.647999999999996,38.650999999999996,38.650999999999996,34.0,-20.1475,21.806666666666665,-31.072499999999998,31.03,0.0,1782.131,-0.3249999999999993,100.0,19.4815,19.6185,29.151,29.4255,0.0,0.0,100.0,0.0,0.0,0.0,0.0,3226.0,3150.3,4184.444444444444,4131.7,305.07166666666666,304.68875,314.91375,314.68575,21.94925,20.7728,22.20375,21.579,314.999998,314.999998,324.999988,324.999988,99.5547,99.51073333333333,99.57801428571429,99.55062857142858,0.1532500000000001,-0.09575,-0.10460000000000003,0.1257999999999999,-0.045999999999999375,-0.04833333333333201,1.5484999999999998,1.5419999999999998,38.183,30.83,39.772999999999996,35.869,54.548,37.45,63.0695,53.9015,52.641999999999996,36.481,61.385,52.1235,51.899,36.0285,61.1205,51.4655,-0.16100000000000003,-0.10899999999999999,0.10464000000000001,0.10548,0.0,217.70333333333335,217.715,214.48000000000002,214.48000000000002,0.0,0.0
29,0.0,0.0,0.0,1.0,1.0,0.0,0.0,1.0,0.0,100.0,1.0,1.1856,26.0,0.0,0.0,0.0,59.999996,0.0,26.0,26.0,26.0,26.0,0.03762500000000002,0.2619,0.0037500000000000003,282.8215,-2.5381,-2.584,-1.6882000000000001,-1.6626,-177.43,215.615,190.34625,0.0,0.0,0.0,0.0,0.0587,-5.498166666666667,-5.498166666666667,-0.6166,-0.6675,0.0007777777777777661,-0.7875,69.666,0.015000000000000124,-0.22916,-0.27749999999999986,100.0,1.0,1.0,214.70666666666668,0.0,0.0,0.0,0.0,0.0,0.0,0.0,9100.7,0.0,55.0,5.0,250.77333333333334,1.0,0.0,0.0,0.0,0.0,0.0,0.0,0.0,1.4549999999999983,1.4549999999999983,0.0,0.0,1.0,55.0,616.79921,10000.0,85.000001,85.000001,85.000001,85.000001,395.0,0.0,0.0,0.0,1.0,166.665,42.892,42.892,38.147,38.147,34.0,-20.145,22.243333333333332,-31.0775,32.3825,0.0,1782.083,-0.33999999999999986,100.0,19.1745,19.502,29.5,29.747500000000002,0.0,0.0,100.0,0.0,0.0,0.0,0.0,3229.625,3126.4,4217.666666666667,4261.3,305.171,304.7295,314.6835,314.27025,21.957875,20.7786,22.21425,21.588,314.999998,314.999998,324.999988,324.999988,99.55471428571428,99.51075,99.57815714285714,99.55077142857142,0.14800000000000013,-0.09399999999999997,-0.10060000000000002,0.127,-0.04400000000000048,-0.046666666666666856,1.4714999999999998,1.48,38.236000000000004,30.866500000000002,39.839,35.925,54.542,37.4855,63.0975,53.9585,52.635999999999996,36.5135,61.411,52.178,51.891999999999996,36.06,61.1435,51.5185,-0.15900000000000003,-0.10650000000000004,0.10949,0.10721000000000001,0.0,218.05333333333334,218.07,214.70666666666668,214.70666666666668,0.0,0.0
30,0.0,0.0,0.0,1.0,1.0,0.0,0.0,1.0,0.0,100.0,1.0,1.1856,26.0,0.0,0.0,0.0,59.999996,0.0,26.0,26.0,26.0,26.0,0.04049999999999998,0.25760000000000005,0.015550000000000001,282.242,-2.5509,-2.473125,-1.6612,-1.7205000000000001,-174.07999999999998,215.61,190.32125,0.0,0.0,0.0,0.0,0.06066666666666667,-5.498166666666667,-5.498166666666667,-0.6163000000000001,0.844,-0.0037777777777776578,-0.655,69.786,0.018199999999999994,-0.23414000000000001,-0.28249999999999975,100.0,1.0,1.0,215.18666666666667,0.0,0.0,0.0,0.0,0.0,0.0,0.0,9121.0,0.0,55.0,5.0,251.20666666666665,0.0,0.0,0.0,0.0,0.0,0.0,1.0,0.0,1.5030000000000001,1.5030000000000001,0.0,0.0,0.0,55.0,616.79921,10000.0,85.000001,85.000001,85.000001,85.000001,395.0,0.0,0.0,0.0,1.0,166.665,41.321,41.321,38.498,38.498,34.0,-21.72,22.625,-29.072499999999998,31.8675,0.0,1782.035,-0.3249999999999993,100.0,20.132,20.237000000000002,29.391,29.7735,0.0,0.0,100.0,0.0,0.0,0.0,0.0,3473.625,3310.7,4147.333333333333,4085.0,304.278,304.125,314.91775,314.69,21.96675,20.7847,22.224625,21.5968,314.999998,314.999998,324.999988,324.999988,99.55472857142857,99.51075,99.5783,99.55091428571428,0.15850000000000009,-0.09475,-0.08739999999999992,0.135,-0.05600000000000094,-0.036666666666668846,1.5265,1.5034999999999998,38.292,30.9045,39.903999999999996,35.980000000000004,54.542,37.5245,63.1215,54.013,52.635999999999996,36.55,61.4335,52.2305,51.891,36.0945,61.1625,51.5695,-0.16549999999999998,-0.11249999999999982,0.10404000000000001,0.10885,0.0,218.45666666666665,218.47,215.18666666666667,215.18666666666667,0.0,0.0
31,0.0,0.0,0.0,1.0,1.0,0.0,0.0,1.0,0.0,100.0,1.0,1.1856,26.0,0.0,0.0,0.0,59.999996,0.0,26.0,26.0,26.0,26.0,0.036250000000000115,0.2519,0.036025,281.967,-2.634,-2.512125,-1.7044000000000001,-1.6209,-170.51999999999998,215.60500000000002,190.2955,0.0,0.0,0.0,0.0,0.06273333333333334,-5.498166666666667,-5.498166666666667,-0.5998,-0.4425000000000001,0.003444444444444361,0.687,69.918,0.023500000000000076,-0.2381,-0.33749999999999947,100.0,1.0,1.0,215.43,0.0,0.0,0.0,0.0,0.0,0.0,0.0,9131.2,0.0,55.0,5.0,251.68,1.0,0.0,0.0,0.0,0.0,0.0,1.0,0.0,1.5539999999999985,1.5539999999999985,0.0,0.0,1.0,55.0,616.79921,10000.0,85.000001,85.000001,85.000001,85.000001,395.0,0.0,0.0,0.0,1.0,333.33500000000004,41.916,41.916,37.064,37.064,34.0,-20.46,24.436666666666667,-30.612499999999997,33.195,0.0,1781.982,-0.33500000000000085,100.0,19.947,20.015,30.21,30.277,0.0,0.0,100.0,0.0,0.0,0.0,0.0,3229.625,3459.5,4283.888888888889,4306.9,305.04633333333334,304.03875,314.42475,314.196,21.976,20.7911,22.235875,21.6064,314.999998,314.999998,324.999988,324.999988,99.55475714285714,99.51076666666667,99.57844285714286,99.55105714285715,0.16474999999999995,-0.08250000000000002,-0.07099999999999995,0.14240000000000008,-0.021999999999998465,-0.06333333333333258,1.439,1.4340000000000002,38.349999999999994,30.944,39.974000000000004,36.04,54.539,37.564499999999995,63.1525,54.0755,52.632999999999996,36.587,61.4625,52.29,51.885999999999996,36.129999999999995,61.1885,51.6275,-0.16249999999999987,-0.11299999999999999,0.09326000000000001,0.106855,0.0,218.83666666666664,218.87,215.43,215.43,0.0,0.0
32,0.0,0.0,0.0,1.0,1.0,0.0,0.0,1.0,0.0,100.0,1.0,1.1856,26.0,0.0,0.0,0.0,59.999996,0.0,26.0,26.0,26.0,26.0,0.043625000000000025,0.2724,-0.009775,282.4705,-2.5620000000000003,-2.567,-1.6901000000000002,-1.6727,-166.95,215.60250000000002,190.27,0.0,0.0,0.0,0.0,0.0648,-5.498166666666667,-5.498166666666667,-0.6181,-0.2869999999999999,-0.01911111111111108,-0.9550000000000001,70.04599999999999,0.02429999999999999,-0.24616,-0.3250000000000002,100.0,1.0,1.0,215.91666666666669,0.0,0.0,0.0,0.0,0.0,0.0,0.0,9151.9,0.0,55.0,5.0,252.13666666666666,0.0,0.0,0.0,0.0,0.0,0.0,1.0,0.0,1.6050000000000004,1.6050000000000004,0.0,0.0,0.0,55.0,616.79921,10000.0,85.000001,85.000001,85.000001,85.000001,395.0,0.0,0.0,0.0,1.0,166.665,42.358,42.358,38.04,38.04,34.0,-20.24,22.676666666666666,-29.369999999999997,33.425,0.0,1781.933,-0.3299999999999983,100.0,19.648,19.979,29.786,30.0905,0.0,0.0,100.0,0.0,0.0,0.0,0.0,3280.875,3169.2,4171.888888888889,4295.8,304.98,304.674,314.796,314.30475,21.98525,20.7974,22.246875,21.6159,314.999998,314.999998,324.999988,324.999988,99.55478571428571,99.51078333333334,99.57858571428571,99.55121428571428,0.16025,-0.08675,-0.07979999999999998,0.14300000000000002,-0.04499999999999815,-0.046666666666666856,1.5324999999999998,1.5034999999999998,38.408,30.9835,40.043,36.099000000000004,54.536,37.6035,63.1785,54.1335,52.629000000000005,36.623,61.4865,52.346000000000004,51.881,36.164500000000004,61.209,51.682,-0.16199999999999992,-0.11050000000000004,0.09527000000000001,0.107865,0.0,219.23000000000002,219.245,215.91666666666669,215.91666666666669,0.0,0.0
33,0.0,0.0,0.0,1.0,1.0,0.0,0.0,1.0,0.0,100.0,1.0,1.1856,26.0,0.0,0.0,0.0,59.999996,0.0,26.0,26.0,26.0,26.0,0.03312500000000007,0.25280000000000014,-0.0385,282.73,-2.6008,-2.5557499999999997,-1.6999,-1.7071,-163.57999999999998,215.6,190.244875,0.0,0.0,0.0,0.0,0.06676666666666667,-5.498166666666667,-5.498166666666667,-0.6282,-0.2715000000000001,-0.015666666666666718,-0.111,70.166,0.023400000000000087,-0.23184000000000002,-0.24249999999999972,100.0,1.0,1.0,216.30666666666667,0.0,0.0,0.0,0.0,0.0,0.0,0.0,9168.4,0.0,55.0,5.0,252.57,1.0,0.0,0.0,0.0,0.0,0.0,1.0,0.0,1.6529999999999987,1.6529999999999987,0.0,0.0,1.0,55.0,616.79921,10000.0,85.000001,85.000001,85.000001,85.000001,395.0,0.0,0.0,0.0,1.0,166.665,42.633,42.633,38.376,38.376,34.0,-20.9275,22.196666666666665,-30.23,32.9425,0.0,1781.885,-0.33999999999999986,100.0,19.4705,19.719,29.573,29.886499999999998,0.0,0.0,100.0,0.0,0.0,0.0,0.0,3285.5,3125.3,4164.333333333333,4199.4,305.033,304.82025,314.86475,314.498,21.993875,20.8032,22.25725,21.6247,314.999998,314.999998,324.999988,324.999988,99.5548,99.51078333333334,99.57872857142857,99.55135714285714,0.15349999999999997,-0.08699999999999997,-0.09560000000000002,0.14040000000000008,-0.03999999999999915,-0.04833333333333201,1.524,1.4994999999999998,38.462,31.0195,40.108000000000004,36.153999999999996,54.532,37.638,63.203,54.1875,52.626000000000005,36.655,61.509,52.3975,51.876000000000005,36.195,61.2285,51.732,-0.16049999999999986,-0.10650000000000004,0.10461000000000001,0.115015,0.0,219.60333333333335,219.625,216.30666666666667,216.30666666666667,0.0,0.0
34,0.0,0.0,0.0,1.0,1.0,0.0,0.0,1.0,0.0,100.0,1.0,1.1856,26.0,0.0,0.0,0.0,59.999996,0.0,26.0,26.0,26.0,26.0,0.030000000000000027,0.25839999999999996,-0.054900000000000004,282.9435,-2.5339,-2.560375,-1.7621,-1.6420000000000001,-160.0,215.5975,190.21675,0.0,0.0,0.0,0.0,0.06883333333333334,-5.498166666666667,-5.498166666666667,-0.6547000000000001,-0.8400000000000001,0.010333333333333306,1.0210000000000001,70.294,0.024900000000000144,-0.23806,-0.35749999999999993,100.0,1.0,1.0,216.66666666666669,0.0,0.0,0.0,0.0,0.0,0.0,0.0,9183.7,0.0,55.0,5.0,253.03333333333336,0.0,0.0,0.0,0.0,0.0,0.0,1.0,0.0,1.7040000000000006,1.7040000000000006,0.0,0.0,0.0,55.0,616.79921,10000.0,85.000001,85.000001,85.000001,85.000001,395.0,0.0,0.0,0.0,1.0,333.33500000000004,42.999,42.999,38.62,38.62,34.0,-18.689999999999998,23.206666666666663,-30.25,32.4125,0.0,1781.832,-0.3099999999999987,100.0,19.443,19.2235,29.506,29.8425,0.0,0.0,100.0,0.0,0.0,0.0,0.0,3106.75,3241.7,4110.333333333333,4251.7,305.363,304.736,314.9645,314.4305,22.003,20.8093,22.268250000000002,21.6342,314.999998,314.999998,324.999988,324.999988,99.55481428571429,99.5108,99.57887142857143,99.55151428571429,0.16399999999999992,-0.08024999999999993,-0.08660000000000001,0.14059999999999984,-0.030000000000001137,-0.03999999999999915,1.5105,1.5084999999999997,38.519,31.058,40.176,36.214,54.528,37.6745,63.2285,54.247,52.620999999999995,36.6885,61.532,52.455,51.870000000000005,36.227000000000004,61.2485,51.7875,-0.16049999999999986,-0.10499999999999998,0.10516500000000001,0.10359000000000002,0.0,219.98333333333335,220.005,216.66666666666669,216.66666666666669,0.0,0.0
35,0.0,0.0,0.0,1.0,1.0,0.0,0.0,1.0,0.0,100.0,1.0,1.1856,26.0,0.0,0.0,0.0,59.999996,0.0,26.0,26.0,26.0,26.0,0.020874999999999977,0.25370000000000004,-0.09255000000000001,282.974,-2.5883000000000003,-2.502625,-1.728,-1.6341,-156.2,215.595,190.184875,0.0,0.0,0.0,0.0,0.07106666666666667,-5.498166666666667,-5.498166666666667,-0.6957,-0.09800000000000009,-0.01288888888888895,-0.1905,70.42699999999999,0.02880000000000016,-0.24446,-0.34999999999999964,100.0,1.0,1.0,217.19333333333333,0.0,0.0,0.0,0.0,0.0,0.0,0.0,9206.0,0.0,55.0,5.0,253.51333333333332,1.0,0.0,0.0,0.0,0.0,0.0,1.0,0.0,1.7579999999999991,1.7579999999999991,0.0,0.0,1.0,55.0,616.79921,10000.0,85.000001,85.000001,85.000001,85.000001,395.0,0.0,0.0,0.0,1.0,166.665,42.403999999999996,42.403999999999996,38.467,38.467,34.0,-19.995,24.743333333333332,-27.9975,30.060000000000002,0.0,1781.78,-0.1750000000000007,100.0,19.2975,19.6735,29.285,29.323500000000003,0.0,0.0,100.0,0.0,0.0,0.0,0.0,3158.25,3500.5,3962.0,4011.0,305.20366666666666,303.8285,315.279,315.0025,22.0125,20.816,22.27975,21.644,314.999998,314.999998,324.999988,324.999988,99.55484285714286,99.51081666666667,99.57902857142857,99.55167142857142,0.15549999999999997,-0.08324999999999994,-0.07879999999999998,0.1434000000000002,-0.03500000000000014,-0.05666666666667197,1.5545,1.557,38.578,31.1,40.248000000000005,36.275,54.521,37.7155,63.2545,54.3045,52.614000000000004,36.727000000000004,61.556,52.5105,51.861999999999995,36.263999999999996,61.269,51.841499999999996,-0.14700000000000002,-0.12349999999999994,0.10793000000000001,0.10175000000000001,0.0,220.4,220.43,217.19333333333333,217.19333333333333,0.0,0.0
36,0.0,0.0,0.0,1.0,1.0,0.0,0.0,1.0,0.0,100.0,1.0,1.1856,26.0,0.0,0.0,0.0,59.999996,0.0,26.0,26.0,26.0,26.0,0.05612499999999998,0.2673000000000001,0.0324,282.303,-2.5147,-2.5936250000000003,-1.7706,-1.6964000000000001,-152.82,215.595,190.15525,0.0,0.0,0.0,0.0,0.07303333333333334,-5.498166666666667,-5.498166666666667,-0.6752,0.034499999999999975,-0.05288888888888854,0.2255,70.549,0.023700000000000054,-0.21606,-0.10749999999999993,100.0,1.0,1.0,217.32,0.0,0.0,0.0,0.0,0.0,0.0,0.0,9211.3,0.0,55.0,5.0,253.95333333333335,0.0,0.0,0.0,0.0,0.0,0.0,1.0,0.0,1.806000000000001,1.806000000000001,0.0,0.0,0.0,55.0,616.79921,10000.0,85.000001,85.000001,85.000001,85.000001,395.0,0.0,0.0,0.0,1.0,166.665,42.618,42.618,37.781,37.781,34.0,-18.3075,22.41,-33.067499999999995,36.35,0.0,1781.732,-0.125,100.0,19.896,19.728,29.605,29.758000000000003,0.0,0.0,100.0,0.0,0.0,0.0,0.0,3021.875,3146.4,4419.0,4551.3,305.414,304.7115,314.35625,313.7315,22.02125,20.822,22.290125,21.6529,314.999998,314.999998,324.999988,324.999988,99.55485714285714,99.51083333333334,99.57917142857143,99.55181428571429,0.15949999999999998,-0.09550000000000003,-0.08199999999999996,0.14159999999999995,-0.036999999999999034,-0.051666666666669414,1.4375,1.452,38.632,31.1375,40.313,36.331,54.519,37.753,63.2805,54.361000000000004,52.611999999999995,36.760999999999996,61.5805,52.5645,51.858000000000004,36.2965,61.2905,51.894,-0.14300000000000002,-0.13100000000000023,0.10386000000000001,0.10585000000000001,0.0,220.80333333333334,220.815,217.32,217.32,0.0,0.0
