,ABS Active,ABS Enabled,AID Allow Tire Blankets,AID Auto Blip,AID Auto Clutch,AID Auto Shift,AID Fuel Rate,AID Ideal Line,AID Mech Damage,AID Stability,AID Tire Wear Rate,Air Density,Air Temp,Ballast,Best Lap Delta,Best Lap Time,Brake Bias,Brake Pos,Brake Temp FL,Brake Temp FR,Brake Temp RL,Brake Temp RR,CG Accel Lateral,CG Accel Longitudinal,CG Accel Vertical,CG Height,Camber FL,Camber FR,Camber RL,Camber RR,Car Coord X,Car Coord Y,Car Coord Z,Car Damage Front,Car Damage Left,Car Damage Rear,Car Damage Right,Car Pos Norm,Caster FL,Caster FR,Chassis Pitch Angle,Chassis Pitch Rate,Chassis Roll Angle,Chassis Roll Rate,Chassis Velocity X,Chassis Velocity Y,Chassis Velocity Z,Chassis Yaw Rate,Clutch Pos,DRS Active,DRS Available,Drive Train Speed,ERS Heat Charging,ERS Is Charging,ERS Max Energy,ERS Power Level,ERS Recovery Level,Engine Brake Setting,Engine Limiter,Engine RPM,Flags,Fuel Level,Gear,Ground Speed,HR Sample Clock,In Pit,KERS Charge,KERS Deployed Energy,KERS Input,KERS Max Energy,LR Sample Clock,Lap Invalidated,Lap Time,Lap Time2,Last Lap Time,Last Sector Time,MR Sample Clock,Max Fuel,Max Power,Max RPM,Max Sus Travel FL,Max Sus Travel FR,Max Sus Travel RL,Max Sus Travel RR,Max Torque,Max Turbo Boost,Num Tires Off Track,Penalties Enabled,Position,Raw Data Sample Rate,Ride Height FL,Ride Height FR,Ride Height RL,Ride Height RR,Road Temp,Self Align Torque FL,Self Align Torque FR,Self Align Torque RL,Self Align Torque RR,Session Lap Count,Session Time Left,Steering Angle,Surface Grip,Suspension Travel FL,Suspension Travel FR,Suspension Travel RL,Suspension Travel RR,TC Active,TC Enabled,Throttle Pos,Tire Dirt Level FL,Tire Dirt Level FR,Tire Dirt Level RL,Tire Dirt Level RR,Tire Load FL,Tire Load FR,Tire Load RL,Tire Load RR,Tire Loaded Radius FL,Tire Loaded Radius FR,Tire Loaded Radius RL,Tire Loaded Radius RR,Tire Pressure FL,Tire Pressure FR,Tire Pressure RL,Tire Pressure RR,Tire Radius FL,Tire Radius FR,Tire Radius RL,Tire Radius RR,Tire Rubber Grip FL,Tire Rubber Grip FR,Tire Rubber Grip RL,Tire Rubber Grip RR,Tire Slip Angle FL,Tire Slip Angle FR,Tire Slip Angle RL,Tire Slip Angle RR,Tire Slip Ratio FL,Tire Slip Ratio FR,Tire Slip Ratio RL,Tire Slip Ratio RR,Tire Temp Core FL,Tire Temp Core FR,Tire Temp Core RL,Tire Temp Core RR,Tire Temp Inner FL,Tire Temp Inner FR,Tire Temp Inner RL,Tire Temp Inner RR,Tire Temp Middle FL,Tire Temp Middle FR,Tire Temp Middle RL,Tire Temp Middle RR,Tire Temp Outer FL,Tire Temp Outer FR,Tire Temp Outer RL,Tire Temp Outer RR,Toe In FL,Toe In FR,Toe In RL,Toe In RR,Turbo Boost,Wheel Angular Speed FL,Wheel Angular Speed FR,Wheel Angular Speed RL,Wheel Angular Speed RR,Wind Direction,Wind Speed
0,0.0,0.0,0.0,1.0,1.0,0.0,0.0,1.0,0.0,100.0,1.0,1.1856,26.0,0.0,0.0,0.0,59.99999,0.0,26.0,26.0,26.0,26.0,-0.0675,0.29690000000000016,0.1441666666666667,278.412,-2.5568,-2.296375,-1.7749000000000001,-1.7623333333333333,-275.79,215.9725,190.972875,0.0,0.0,0.0,0.0,0.0015333333333333334,-5.498166666666667,-5.498166666666667,-0.48350000000000004,1.1026666666666667,-0.00011111111111095084,-0.9130000000000003,65.678,-0.037799999999999945,-0.12306666666666669,0.8125,100.0,1.0,1.0,202.93666666666667,0.0,0.0,0.0,0.0,0.0,0.0,0.0,8601.7,0.0,55.0,5.0,236.41,0.0,0.0,0.0,0.0,0.0,0.0,0.0,0.0,0.0030000000000001137,0.0030000000000001137,0.0,0.0,0.0,55.0,616.79921,10000.0,85.0,85.0,85.0,85.0,395.0,0.0,0.0,0.0,1.0,20.0,38.925,38.925,32.211,32.211,34.0,-26.1925,19.151666666666667,-30.675,25.7225,0.0,1783.642,0.6900000000000013,100.0,18.4135,18.225,24.246,24.222,0.0,0.0,100.0,0.0,0.0,0.0,0.0,3477.0,3976.8,3829.8888888888887,3803.8,304.31166666666667,302.16075,315.61425,315.3715,21.690333333333335,20.6173,21.8867,21.3357,314.99999,314.99999,324.99998,324.99998,99.55455714285715,99.51058333333333,99.57348571428571,99.54722857142858,0.067,-0.19825000000000004,-0.16416666666666657,0.06583333333333319,-0.08500000000000085,-0.01999999999999602,1.63,1.665,36.565,29.858,37.792,34.3485,54.828,36.519,62.194,52.5375,52.882999999999996,35.629,60.435,50.7485,52.1375,35.22,60.115,50.0585,-0.09099999999999997,-0.19899999999999984,0.10283,0.113,0.0,205.80666666666667,205.72,202.93666666666667,202.93666666666667,0.0,0.0
1,0.0,0.0,0.0,1.0,1.0,0.0,0.0,1.0,0.0,100.0,1.0,1.1856,26.0,0.0,0.0,0.0,59.999996,0.0,26.0,26.0,26.0,26.0,-0.12012499999999993,0.3216000000000001,0.27653333333333335,277.4355,-2.4731,-2.632375,-1.7789000000000001,-1.6173333333333333,-272.24,215.9925,190.951375,0.0,0.0,0.0,0.0,0.0036000000000000003,-5.498166666666667,-5.498166666666667,-0.385,-0.8140000000000001,-0.06033333333333335,-0.5540000000000003,65.845,-0.051999999999999935,-0.08225,1.2025000000000006,100.0,1.0,1.0,202.82666666666665,0.0,0.0,0.0,0.0,0.0,0.0,0.0,8597.0,0.0,55.0,5.0,237.01,1.0,0.0,0.0,0.0,0.0,0.0,0.0,0.0,0.05699999999999861,0.05699999999999861,0.0,0.0,1.0,55.0,616.79921,10000.0,85.000001,85.000001,85.000001,85.000001,395.0,0.0,0.0,0.0,1.0,166.665,41.626,41.626,29.938,29.938,34.0,-22.134999999999998,13.73,-43.07,33.0225,0.0,1783.587,0.8100000000000023,100.0,18.7235,18.176000000000002,26.324,26.000500000000002,0.0,0.0,100.0,0.0,0.0,0.0,0.0,3092.75,2592.4,4731.888888888889,4987.3,305.3996666666667,306.65225,313.2805,312.33575,21.700777777777777,20.6235,21.8989,21.3457,314.999998,314.999998,324.999988,324.999988,99.55457142857144,99.51061666666666,99.57364285714286,99.54738571428571,0.06725,-0.21124999999999994,-0.1848333333333334,0.03833333333333333,-0.01899999999999835,-0.05333333333332746,1.3053333333333335,1.373,36.629999999999995,29.897,37.867999999999995,34.4105,54.82,36.5655,62.2355,52.6065,52.875,35.672,60.4745,50.814499999999995,52.129,35.2615,60.1515,50.1225,-0.08399999999999985,-0.20699999999999985,0.11328500000000001,0.11141000000000001,0.0,206.31,206.23000000000002,202.82666666666665,202.82666666666665,0.0,0.0
2,0.0,0.0,0.0,1.0,1.0,0.0,0.0,1.0,0.0,100.0,1.0,1.1856,26.0,0.0,0.0,0.0,59.999996,0.0,26.0,26.0,26.0,26.0,-0.14200000000000002,0.27270000000000016,-0.1014,279.19,-2.44825,-2.5997500000000002,-1.744,-1.864,-269.07,216.005,190.9345,0.0,0.0,0.0,0.0,0.005433333333333333,-5.498166666666667,-5.498166666666667,-0.4732,-0.41333333333333333,-0.037555555555555564,1.82,65.974,-0.06209999999999993,-0.17200000000000001,1.4800000000000004,100.0,1.0,1.0,204.06666666666666,0.0,0.0,0.0,0.0,0.0,0.0,0.0,8649.6,0.0,55.0,5.0,237.48000000000002,0.0,0.0,0.0,0.0,0.0,0.0,0.0,0.0,0.10500000000000043,0.10500000000000043,0.0,0.0,0.0,55.0,616.79921,10000.0,85.000001,85.000001,85.000001,85.000001,395.0,0.0,0.0,0.0,1.0,166.665,40.268,40.268,33.554,33.554,34.0,-27.16,14.946666666666667,-28.8975,20.247500000000002,0.0,1783.54,1.0450000000000017,100.0,18.9385,18.012999999999998,25.798000000000002,24.9705,0.0,0.0,100.0,0.0,0.0,0.0,0.0,3513.0,3014.1,3500.5555555555557,3291.5,304.11066666666665,305.27125,316.2945,316.78175,21.71022222222222,20.6288,21.9093,21.354,314.999998,314.999998,324.999988,324.999988,99.55458571428571,99.51065,99.57377142857143,99.54751428571429,0.033,-0.238,-0.21533333333333338,0.019000000000000128,-0.08599999999999852,-0.03833333333332689,1.7376666666666667,1.789,36.689,29.93,37.933,34.4625,54.813,36.6035,62.262,52.655,52.867999999999995,35.707,60.499,50.8605,52.1215,35.2945,60.173,50.167,-0.06899999999999995,-0.2250000000000001,0.10744000000000001,0.10696000000000001,0.0,206.72333333333333,206.57999999999998,204.06666666666666,204.06666666666666,0.0,0.0
3,0.0,0.0,0.0,1.0,1.0,0.0,0.0,1.0,0.0,100.0,1.0,1.1856,26.0,0.0,0.0,0.0,59.999996,0.0,26.0,26.0,26.0,26.0,-0.14287499999999997,0.3075000000000001,0.0801,278.61,-2.48185,-2.51725,-1.7354,-1.808,-265.71,216.01749999999998,190.9145,0.0,0.0,0.0,0.0,0.0074,-5.498166666666667,-5.498166666666667,-0.4146,0.812,-0.0086666666666666,-0.4450000000000003,66.128,-0.0826,-0.08256666666666666,1.4125000000000005,100.0,1.0,1.0,204.04666666666668,0.0,0.0,0.0,0.0,0.0,0.0,0.0,8648.8,0.0,55.0,5.0,238.03,1.0,0.0,0.0,0.0,0.0,0.0,0.0,0.0,0.1559999999999988,0.1559999999999988,0.0,0.0,1.0,55.0,616.79921,10000.0,85.000001,85.000001,85.000001,85.000001,395.0,0.0,0.0,0.0,1.0,166.665,41.473,41.473,30.93,30.93,34.0,-23.009999999999998,13.891666666666666,-38.417500000000004,27.295,0.0,1783.488,1.0199999999999996,100.0,18.5625,17.8655,25.508,24.7275,0.0,0.0,100.0,0.0,0.0,0.0,0.0,3014.25,2960.7,4351.0,4192.1,305.64033333333333,305.42975,314.264,314.5075,21.71977777777778,20.6346,21.9203,21.363,314.999998,314.999998,324.999988,324.999988,99.55458571428571,99.51066666666667,99.57391428571428,99.54764285714286,0.033,-0.23775000000000002,-0.20466666666666666,0.012833333333333474,-0.047999999999998266,-0.06499999999999773,1.4696666666666665,1.5275,36.748999999999995,29.9665,38.001999999999995,34.5185,54.802,36.6485,62.2915,52.715,52.858000000000004,35.7485,60.525999999999996,50.917500000000004,52.11,35.3345,60.1975,50.223,-0.06699999999999995,-0.22150000000000025,0.11034000000000001,0.10690500000000001,0.0,207.24,207.125,204.04666666666668,204.04666666666668,0.0,0.0
4,0.0,0.0,0.0,1.0,1.0,0.0,0.0,1.0,0.0,100.0,1.0,1.1856,26.0,0.0,0.0,0.0,59.999996,0.0,26.0,26.0,26.0,26.0,-0.16125,0.3035000000000001,0.014700000000000001,278.6405,-2.5025500000000003,-2.614,-1.6753,-1.827,-262.33,216.025,190.894625,0.0,0.0,0.0,0.0,0.009366666666666667,-5.498166666666667,-5.498166666666667,-0.4431,-1.0420000000000003,-0.07511111111111157,-1.5179999999999998,66.276,-0.09659999999999991,-0.1250166666666667,1.6850000000000005,100.0,1.0,1.0,204.5366666666667,0.0,0.0,0.0,0.0,0.0,0.0,0.0,8669.5,0.0,55.0,5.0,238.56333333333333,0.0,0.0,0.0,0.0,0.0,0.0,0.0,0.0,0.20700000000000074,0.20700000000000074,0.0,0.0,0.0,55.0,616.79921,10000.0,85.000001,85.000001,85.000001,85.000001,395.0,0.0,0.0,0.0,1.0,166.665,41.122,41.122,31.235,31.235,34.0,-27.5075,13.851666666666667,-37.15,23.08,0.0,1783.437,0.990000000000002,100.0,18.262,17.6425,26.177,25.047,0.0,0.0,100.0,0.0,0.0,0.0,0.0,3402.0,2938.4,4249.333333333333,3710.0,304.611,305.376,314.55925,315.55175,21.729444444444443,20.6403,21.9316,21.3721,314.999998,314.999998,324.999988,324.999988,99.55458571428571,99.5107,99.57407142857143,99.54778571428571,0.0125,-0.25875000000000004,-0.22699999999999998,-0.0003333333333332966,-0.04499999999999815,-0.03499999999999659,1.5506666666666666,1.601,36.809,30.0015,38.073,34.5755,54.79,36.691,62.327,52.772999999999996,52.846000000000004,35.7875,60.5595,50.973,52.0975,35.372,60.228,50.2765,-0.0625,-0.22150000000000025,0.10187500000000001,0.11168000000000002,0.0,207.60333333333335,207.495,204.5366666666667,204.5366666666667,0.0,0.0
5,0.0,0.0,0.0,1.0,1.0,0.0,0.0,1.0,0.0,100.0,1.0,1.1856,26.0,0.0,0.0,0.0,59.999996,0.0,26.0,26.0,26.0,26.0,-0.16537499999999994,0.30190000000000006,-0.0448,278.9155,-2.5183,-2.578375,-1.7481,-1.851888888888889,-259.14,216.03,190.87575,0.0,0.0,0.0,0.0,0.0112,-5.498166666666667,-5.498166666666667,-0.4515,0.41433333333333333,-0.07411111111111124,-0.4330000000000003,66.412,-0.10880000000000001,-0.11866666666666668,1.585,100.0,1.0,1.0,205.06,0.0,0.0,0.0,0.0,0.0,0.0,0.0,8691.8,0.0,55.0,5.0,239.05,1.0,0.0,0.0,0.0,0.0,0.0,0.0,0.0,0.254999999999999,0.254999999999999,0.0,0.0,1.0,55.0,616.79921,10000.0,85.000001,85.000001,85.000001,85.000001,395.0,0.0,0.0,0.0,1.0,166.665,41.214,41.214,32.12,32.12,34.0,-27.0825,13.668333333333333,-36.519999999999996,23.22,0.0,1783.39,0.7899999999999991,100.0,18.4805,17.649,25.768,24.597,0.0,0.0,100.0,0.0,0.0,0.0,0.0,3343.375,2885.1,4051.5555555555557,3866.5,304.724,305.55075,315.083,315.25075,21.738666666666667,20.6457,21.942,21.3804,314.999998,314.999998,324.999988,324.999988,99.5546,99.51073333333333,99.5742,99.54791428571428,0.014750000000000001,-0.24849999999999994,-0.246,-0.022333333333333316,-0.036999999999999034,-0.046666666666666856,1.5993333333333333,1.659,36.867000000000004,30.0355,38.138,34.6275,54.781,36.732,62.356,52.824,52.838,35.8255,60.5865,51.0215,52.089,35.408,60.2525,50.323499999999996,-0.08250000000000002,-0.19750000000000023,0.10794000000000001,0.10582000000000001,0.0,208.07333333333332,207.935,205.06,205.06,0.0,0.0
6,0.0,0.0,0.0,1.0,1.0,0.0,0.0,1.0,0.0,100.0,1.0,1.1856,26.0,0.0,0.0,0.0,59.999996,0.0,26.0,26.0,26.0,26.0,-0.16525,0.29310000000000014,0.007533333333333333,278.5645,-2.467,-2.632875,-1.7757,-1.8133333333333332,-255.75,216.03,190.855,0.0,0.0,0.0,0.0,0.013166666666666667,-5.498166666666667,-5.498166666666667,-0.43520000000000003,0.12166666666666659,-0.06966666666666654,0.75,66.559,-0.11339999999999995,-0.10070000000000001,1.3325000000000005,100.0,1.0,1.0,205.39,0.0,0.0,0.0,0.0,0.0,0.0,0.0,8705.7,0.0,55.0,5.0,239.58333333333331,0.0,0.0,0.0,0.0,0.0,0.0,0.0,0.0,0.30600000000000094,0.30600000000000094,0.0,0.0,0.0,55.0,616.79921,10000.0,85.000001,85.000001,85.000001,85.000001,395.0,0.0,0.0,0.0,1.0,166.665,41.245,41.245,31.296,31.296,34.0,-24.7825,14.983333333333333,-38.43,24.7825,0.0,1783.338,0.46999999999999886,100.0,18.5895,17.523,26.078,24.777,0.0,0.0,100.0,0.0,0.0,0.0,0.0,3193.625,2974.7,4201.888888888889,4033.5,304.95933333333335,305.405,314.619,314.8935,21.748444444444445,20.6514,21.9532,21.389499999999998,314.999998,314.999998,324.999988,324.999988,99.5546,99.51075,99.57434285714285,99.54805714285715,0.03025,-0.23924999999999996,-0.23166666666666658,-0.010166666666666657,-0.03599999999999781,-0.05333333333332746,1.525,1.5805,36.928,30.070999999999998,38.208,34.6845,54.771,36.7755,62.3895,52.8825,52.829,35.8655,60.6175,51.077,52.0785,35.446,60.2805,50.3775,-0.09999999999999987,-0.19099999999999984,0.10255,0.10638500000000001,0.0,208.54000000000002,208.41,205.39,205.39,0.0,0.0
7,0.0,0.0,0.0,1.0,1.0,0.0,0.0,1.0,0.0,100.0,1.0,1.1856,26.0,0.0,0.0,0.0,59.999996,0.0,26.0,26.0,26.0,26.0,-0.13537500000000002,0.2781,0.018733333333333334,278.473,-2.436,-2.62475,-1.7338,-1.8587777777777779,-252.35,216.025,190.8345,0.0,0.0,0.0,0.0,0.015166666666666667,-5.498166666666667,-5.498166666666667,-0.44680000000000003,-0.09166666666666679,-0.06366666666666676,-0.30600000000000005,66.70400000000001,-0.1059,-0.12190000000000001,1.0600000000000005,100.0,1.0,1.0,205.87333333333333,0.0,0.0,0.0,0.0,0.0,0.0,0.0,8726.3,0.0,55.0,5.0,240.10666666666668,1.0,0.0,0.0,0.0,0.0,0.0,0.0,0.0,0.3569999999999993,0.3569999999999993,0.0,0.0,1.0,55.0,616.79921,10000.0,85.000001,85.000001,85.000001,85.000001,395.0,0.0,0.0,0.0,1.0,166.665,40.71,40.71,31.753999999999998,31.753999999999998,34.0,-25.5525,15.635,-36.355000000000004,24.1875,0.0,1783.288,0.27500000000000213,100.0,18.661,17.791,26.031,24.993000000000002,0.0,0.0,100.0,0.0,0.0,0.0,0.0,3396.5,2981.4,4072.0,3890.4,304.47866666666664,305.18175,314.9615,315.11425,21.758222222222223,20.6571,21.9644,21.398600000000002,314.999998,314.999998,324.999988,324.999988,99.5546,99.51078333333334,99.5745,99.5482,0.04275,-0.22724999999999995,-0.2313333333333334,-0.015833333333333366,-0.05699999999999861,-0.03833333333332689,1.5353333333333334,1.5825,36.989000000000004,30.107,38.278,34.7415,54.763,36.818,62.4225,52.9405,52.821,35.905,60.6485,51.1325,52.0695,35.4835,60.3085,50.431,-0.121,-0.1665000000000001,0.10498,0.10862500000000001,0.0,208.96333333333334,208.865,205.87333333333333,205.87333333333333,0.0,0.0
8,0.0,0.0,0.0,1.0,1.0,0.0,0.0,1.0,0.0,100.0,1.0,1.1856,26.0,0.0,0.0,0.0,59.999996,0.0,26.0,26.0,26.0,26.0,-0.11949999999999994,0.2914000000000001,0.0088,278.6405,-2.52245,-2.56825,-1.7160000000000002,-1.8495555555555556,-249.15,216.01749999999998,190.815125,0.0,0.0,0.0,0.0,0.017033333333333334,-5.498166666666667,-5.498166666666667,-0.4464,-0.3680000000000001,-0.04822222222222239,-0.738,66.84100000000001,-0.09109999999999996,-0.11320000000000001,0.6699999999999999,100.0,1.0,1.0,206.2266666666667,0.0,0.0,0.0,0.0,0.0,0.0,0.0,8741.2,0.0,55.0,5.0,240.5966666666667,0.0,0.0,0.0,0.0,0.0,0.0,0.0,0.0,0.40500000000000114,0.40500000000000114,0.0,0.0,0.0,55.0,616.79921,10000.0,85.000001,85.000001,85.000001,85.000001,395.0,0.0,0.0,0.0,1.0,333.33500000000004,41.473,41.473,31.097,31.097,34.0,-23.8275,15.754999999999999,-36.6175,26.4775,0.0,1783.238,0.15000000000000213,100.0,18.175,17.764499999999998,26.017,25.082,0.0,0.0,100.0,0.0,0.0,0.0,0.0,3193.5,2950.4,4177.333333333333,4016.5,305.218,305.34075,314.69525,314.7865,21.767222222222223,20.6626,21.974899999999998,21.4072,314.999998,314.999998,324.999988,324.999988,99.55461428571428,99.5108,99.57464285714286,99.54832857142857,0.05675,-0.20699999999999996,-0.21683333333333332,0.01100000000000012,-0.04400000000000048,-0.03999999999999915,1.5303333333333333,1.562,37.045,30.141,38.343,34.795,54.754000000000005,36.8575,62.453,52.9945,52.812,35.941,60.677,51.184,52.06,35.518,60.334,50.481,-0.1339999999999999,-0.14900000000000002,0.113735,0.11258000000000001,0.0,209.36333333333334,209.305,206.2266666666667,206.2266666666667,0.0,0.0
9,0.0,0.0,0.0,1.0,1.0,0.0,0.0,1.0,0.0,100.0,1.0,1.1856,26.0,0.0,0.0,0.0,59.999996,0.0,26.0,26.0,26.0,26.0,-0.09350000000000003,0.28659999999999997,-0.016533333333333334,278.3815,-2.4437,-2.577375,-1.7686000000000002,-1.8123333333333334,-245.94,216.0075,190.79525,0.0,0.0,0.0,0.0,0.0189,-5.498166666666667,-5.498166666666667,-0.44980000000000003,0.4993333333333333,-0.05466666666666642,-0.5800000000000001,66.974,-0.07509999999999994,-0.11115,0.5149999999999997,100.0,1.0,1.0,206.74333333333334,0.0,0.0,0.0,0.0,0.0,0.0,0.0,8763.2,0.0,55.0,5.0,241.07999999999998,1.0,0.0,0.0,0.0,0.0,0.0,0.0,0.0,0.4529999999999994,0.4529999999999994,0.0,0.0,1.0,55.0,616.79921,10000.0,85.000001,85.000001,85.000001,85.000001,395.0,0.0,0.0,0.0,1.0,166.665,40.512,40.512,31.982,31.982,34.0,-24.4675,16.93,-34.59,25.9825,0.0,1783.192,0.010000000000001563,100.0,18.659,18.0195,25.785,25.0565,0.0,0.0,100.0,0.0,0.0,0.0,0.0,3464.125,3016.6,4046.8888888888887,3950.9,304.309,305.10275,315.0815,315.03525,21.776444444444444,20.6681,21.9853,21.4157,314.999998,314.999998,324.999988,324.999988,99.55461428571428,99.51083333333334,99.57477142857142,99.54845714285715,0.0775,-0.1925,-0.1958333333333333,0.025833333333333375,-0.05999999999999872,-0.030000000000001137,1.5726666666666667,1.5875,37.102999999999994,30.176000000000002,38.408,34.848,54.747,36.897,62.481,53.0475,52.805,35.9775,60.7025,51.2345,52.0525,35.5535,60.3575,50.53,-0.14749999999999996,-0.14800000000000013,0.109115,0.10608500000000001,0.0,209.7866666666667,209.74,206.74333333333334,206.74333333333334,0.0,0.0
10,0.0,0.0,0.0,1.0,1.0,0.0,0.0,1.0,0.0,100.0,1.0,1.1856,26.0,0.0,0.0,0.0,59.999996,0.0,26.0,26.0,26.0,26.0,-0.07150000000000001,0.2694000000000001,-0.012700000000000001,278.305,-2.51445,-2.56025,-1.7447,-1.7782222222222221,-242.32,215.995,190.77325,0.0,0.0,0.0,0.0,0.021,-5.498166666666667,-5.498166666666667,-0.43220000000000003,-0.5183333333333333,-0.016555555555555657,0.246,67.129,-0.05399999999999994,-0.1052,0.16250000000000053,100.0,1.0,1.0,207.03333333333333,0.0,0.0,0.0,0.0,0.0,0.0,0.0,8775.4,0.0,55.0,5.0,241.63333333333333,0.0,0.0,0.0,0.0,0.0,0.0,1.0,0.0,0.5069999999999979,0.5069999999999979,0.0,0.0,0.0,55.0,616.79921,10000.0,85.000001,85.000001,85.000001,85.000001,395.0,0.0,0.0,0.0,1.0,166.665,41.428,41.428,30.746,30.746,34.0,-21.2525,16.671666666666667,-36.0775,28.96,0.0,1783.138,-0.129999999999999,100.0,18.45,17.9775,26.152,25.655,0.0,0.0,100.0,0.0,0.0,0.0,0.0,3094.0,2912.3,4261.333333333333,4170.7,305.49033333333335,305.46075,314.51075,314.4495,21.786666666666665,20.6743,21.9972,21.4255,314.999998,314.999998,324.999988,324.999988,99.55462857142857,99.51085,99.57492857142857,99.54861428571428,0.0955,-0.17799999999999994,-0.1768333333333334,0.050000000000000044,-0.027999999999998693,-0.04333333333332945,1.4913333333333334,1.5,37.167,30.2145,38.482,34.9095,54.739999999999995,36.939499999999995,62.5165,53.1115,52.799,36.0165,60.7355,51.295500000000004,52.045,35.5905,60.387,50.589,-0.15399999999999991,-0.13050000000000006,0.10723500000000001,0.10562500000000001,0.0,210.23333333333335,210.21,207.03333333333333,207.03333333333333,0.0,0.0
11,0.0,0.0,0.0,1.0,1.0,0.0,0.0,1.0,0.0,100.0,1.0,1.1856,26.0,0.0,0.0,0.0,59.999996,0.0,26.0,26.0,26.0,26.0,-0.02674999999999994,0.28,-0.09396666666666667,278.824,-2.51845,-2.545,-1.7988,-1.7854444444444444,-239.09,215.98250000000002,190.75375,0.0,0.0,0.0,0.0,0.022600000000000002,-5.498166666666667,-5.498166666666667,-0.46900000000000003,-0.246,0.005222222222222239,-0.6920000000000002,67.259,-0.0353,-0.1312,0.04750000000000032,100.0,1.0,1.0,207.71333333333334,0.0,0.0,0.0,0.0,0.0,0.0,0.0,8804.2,0.0,55.0,5.0,242.10333333333335,1.0,0.0,0.0,0.0,0.0,0.0,1.0,0.0,0.5549999999999997,0.5549999999999997,0.0,0.0,1.0,55.0,616.79921,10000.0,85.000001,85.000001,85.000001,85.000001,395.0,0.0,0.0,0.0,1.0,333.33500000000004,40.955,40.955,32.196,32.196,34.0,-21.6925,18.67,-29.75,26.8075,0.0,1783.089,-0.125,100.0,18.235500000000002,18.139499999999998,25.7,25.489,0.0,0.0,100.0,0.0,0.0,0.0,0.0,3238.375,3094.9,3753.1111111111113,3806.3,305.071,304.87275,315.79475,315.383,21.795666666666666,20.6799,22.0075,21.4341,314.999998,314.999998,324.999988,324.999988,99.55464285714285,99.51086666666667,99.57505714285715,99.54875714285714,0.11175,-0.15800000000000003,-0.15166666666666662,0.07966666666666677,-0.04899999999999949,-0.04333333333332945,1.6326666666666667,1.64,37.223,30.249499999999998,38.547,34.963,54.733000000000004,36.9775,62.5415,53.165,52.792,36.052,60.759,51.3465,52.0375,35.6245,60.408,50.6385,-0.15799999999999992,-0.13100000000000023,0.106685,0.10672500000000001,0.0,210.63333333333333,210.60500000000002,207.71333333333334,207.71333333333334,0.0,0.0
12,0.0,0.0,0.0,1.0,1.0,0.0,0.0,1.0,0.0,100.0,1.0,1.1856,26.0,0.0,0.0,0.0,59.999996,0.0,26.0,26.0,26.0,26.0,-0.02574999999999994,0.29100000000000015,0.0176,278.244,-2.56855,-2.54325,-1.764,-1.8071111111111111,-235.66,215.9675,190.731625,0.0,0.0,0.0,0.0,0.025466666666666665,-5.498166666666667,-5.498166666666667,-0.45570000000000005,0.279,-0.006222222222222129,0.681,67.404,-0.016799999999999926,-0.1013,-0.17250000000000032,100.0,1.0,1.0,207.95333333333332,0.0,0.0,0.0,0.0,0.0,0.0,0.0,8814.4,0.0,55.0,5.0,242.62333333333333,0.0,0.0,0.0,0.0,0.0,0.0,1.0,0.0,0.6059999999999981,0.6059999999999981,0.0,0.0,0.0,55.0,616.79921,10000.0,85.000001,85.000001,85.000001,85.000001,395.0,0.0,0.0,0.0,1.0,166.665,40.787,40.787,31.006,31.006,34.0,-22.07,19.405,-32.3275,32.019999999999996,0.0,1783.039,0.2699999999999996,100.0,18.3945,18.129,25.725,25.333,0.0,0.0,100.0,0.0,0.0,0.0,0.0,3172.5,3237.5,4155.888888888889,4153.3,305.107,304.63375,314.75225,314.61475,21.805222222222223,20.6859,22.0185,21.4432,314.999998,314.999998,324.999988,324.999988,99.55467142857142,99.51088333333334,99.57521428571428,99.5489,0.107,-0.15925,-0.1213333333333334,0.11050000000000004,-0.03300000000000125,-0.046666666666666856,1.5313333333333334,1.5305,37.282,30.287,38.616,35.019999999999996,54.727999999999994,37.0175,62.5715,53.2225,52.787,36.088499999999996,60.787,51.4015,52.031,35.6595,60.433,50.692,-0.13050000000000006,-0.1535000000000002,0.11428500000000001,0.10724500000000001,0.0,211.07999999999998,211.095,207.95333333333332,207.95333333333332,0.0,0.0
13,0.0,0.0,0.0,1.0,1.0,0.0,0.0,1.0,0.0,100.0,1.0,1.1856,26.0,0.0,0.0,0.0,59.999996,0.0,26.0,26.0,26.0,26.0,0.011624999999999996,0.2854000000000001,0.050333333333333334,277.878,-2.5371,-2.5465,-1.7883,-1.8003333333333333,-232.42000000000002,215.9525,190.711125,0.0,0.0,0.0,0.0,0.02673333333333333,-5.498166666666667,-5.498166666666667,-0.4496,-0.09499999999999997,-0.010555555555555873,1.065,67.538,-0.010499999999999954,-0.10928333333333333,-0.1274999999999995,100.0,1.0,1.0,208.29666666666668,0.0,0.0,0.0,0.0,0.0,0.0,0.0,8828.9,0.0,55.0,5.0,243.10666666666668,1.0,0.0,0.0,0.0,0.0,0.0,1.0,0.0,0.6539999999999999,0.6539999999999999,0.0,0.0,1.0,55.0,616.79921,10000.0,85.000001,85.000001,85.000001,85.000001,395.0,0.0,0.0,0.0,1.0,333.33500000000004,40.497,40.497,30.884,30.884,34.0,-19.525,21.64,-32.39,33.28,0.0,1782.989,-0.25,100.0,18.707,18.249,25.982,25.7085,0.0,0.0,100.0,0.0,0.0,0.0,0.0,3223.625,3211.3,4178.222222222223,4276.4,304.931,304.70225,314.654,314.3025,21.81422222222222,20.6916,22.0291,21.451999999999998,314.999998,314.999998,324.999988,324.999988,99.55468571428571,99.5109,99.57534285714286,99.54902857142856,0.16375,-0.10749999999999993,-0.10833333333333339,0.11149999999999993,-0.028999999999999915,-0.060000000000002274,1.5086666666666666,1.5075,37.339,30.322499999999998,38.682,35.075,54.724000000000004,37.0555,62.601,53.2795,52.783,36.1235,60.814,51.4555,52.025999999999996,35.693,60.457,50.745,-0.16999999999999993,-0.11850000000000005,0.10899500000000001,0.10968000000000001,0.0,211.48666666666668,211.515,208.29666666666668,208.29666666666668,0.0,0.0
14,0.0,0.0,0.0,1.0,1.0,0.0,0.0,1.0,0.0,100.0,1.0,1.1856,26.0,0.0,0.0,0.0,59.999996,0.0,26.0,26.0,26.0,26.0,0.00550000000000006,0.28580000000000005,-0.004200000000000001,278.137,-2.5433,-2.483,-1.7977,-1.7710000000000001,-228.97,215.9375,190.689875,0.0,0.0,0.0,0.0,0.02876666666666667,-5.498166666666667,-5.498166666666667,-0.461,-0.17900000000000005,0.015666666666666718,-0.13200000000000012,67.67699999999999,-0.0022999999999999687,-0.12560000000000002,-0.16000000000000014,100.0,1.0,1.0,208.82333333333332,0.0,0.0,0.0,0.0,0.0,0.0,0.0,8851.2,0.0,55.0,5.0,243.61,0.0,0.0,0.0,0.0,0.0,0.0,1.0,0.0,0.7049999999999983,0.7049999999999983,0.0,0.0,0.0,55.0,616.79921,10000.0,85.000001,85.000001,85.000001,85.000001,395.0,0.0,0.0,0.0,1.0,166.665,40.573,40.573,31.189,31.189,34.0,-20.185,20.21666666666667,-30.89,31.015,0.0,1782.939,-0.28000000000000114,100.0,18.4805,18.5235,25.867,25.967,0.0,0.0,100.0,0.0,0.0,0.0,0.0,3210.5,3191.8,4002.4444444444443,4077.3,305.1526666666667,304.60175,315.1625,314.7195,21.823777777777778,20.6977,22.0402,21.4613,314.999998,314.999998,324.999988,324.999988,99.5547,99.51091666666667,99.5755,99.54917142857143,0.14525,-0.12549999999999994,-0.11666666666666659,0.11283333333333334,-0.05999999999999872,-0.030000000000001137,1.5653333333333332,1.55,37.399,30.360500000000002,38.751000000000005,35.132999999999996,54.72,37.0945,62.629999999999995,53.338499999999996,52.778999999999996,36.16,60.841,51.512,52.021,35.7275,60.481,50.7995,-0.16649999999999987,-0.11949999999999994,0.10228000000000001,0.11035,0.0,211.92666666666668,211.92000000000002,208.82333333333332,208.82333333333332,0.0,0.0
15,0.0,0.0,0.0,1.0,1.0,0.0,0.0,1.0,0.0,100.0,1.0,1.1856,26.0,0.0,0.0,0.0,59.999996,0.0,26.0,26.0,26.0,26.0,0.015625,0.27790000000000004,0.0071666666666666675,278.1675,-2.53885,-2.5111250000000003,-1.8163,-1.720777777777778,-225.51999999999998,215.92000000000002,190.668125,0.0,0.0,0.0,0.0,0.03076666666666667,-5.498166666666667,-5.498166666666667,-0.45120000000000005,0.2656666666666666,0.03888888888888897,0.673,67.818,0.007100000000000106,-0.10451666666666667,-0.34499999999999975,100.0,1.0,1.0,209.22,0.0,0.0,0.0,0.0,0.0,0.0,0.0,8868.0,0.0,55.0,5.0,244.11333333333334,1.0,0.0,0.0,0.0,0.0,0.0,1.0,0.0,0.7560000000000002,0.7560000000000002,0.0,0.0,1.0,55.0,616.79921,10000.0,85.000001,85.000001,85.000001,85.000001,395.0,0.0,0.0,0.0,1.0,166.665,40.848,40.848,31.204,31.204,34.0,-17.88,21.366666666666667,-29.9325,33.0625,0.0,1782.889,-0.21000000000000085,100.0,18.6055,18.377,25.729,25.9135,0.0,0.0,100.0,0.0,0.0,0.0,0.0,2977.0,3227.4,3958.777777777778,4321.5,305.6773333333333,304.5795,315.24625,314.223,21.833333333333332,20.7038,22.0512,21.4705,314.999998,314.999998,324.999988,324.999988,99.55471428571428,99.51093333333333,99.57562857142857,99.54931428571429,0.16225,-0.11049999999999993,-0.09699999999999998,0.12366666666666681,-0.021999999999998465,-0.07000000000000028,1.5406666666666666,1.5334999999999999,37.458,30.3985,38.82,35.191,54.716,37.1335,62.657,53.397999999999996,52.775,36.196,60.866,51.569,52.016,35.762,60.503,50.855000000000004,-0.16749999999999998,-0.12400000000000011,0.10627500000000001,0.10677500000000001,0.0,212.36333333333334,212.39,209.22,209.22,0.0,0.0
16,0.0,0.0,0.0,1.0,1.0,0.0,0.0,1.0,0.0,100.0,1.0,1.1856,26.0,0.0,0.0,0.0,59.999996,0.0,26.0,26.0,26.0,26.0,0.01737499999999992,0.27500000000000013,-0.0245,278.183,-2.59575,-2.464875,-1.7864,-1.7850000000000001,-222.05,215.905,190.646125,0.0,0.0,0.0,0.0,0.03276666666666667,-5.498166666666667,-5.498166666666667,-0.47190000000000004,-0.6433333333333333,0.016999999999999904,-1.2540000000000004,67.957,0.01639999999999997,-0.1212,-0.17999999999999972,100.0,1.0,1.0,209.66,0.0,0.0,0.0,0.0,0.0,0.0,0.0,8886.8,0.0,55.0,5.0,244.61666666666667,0.0,0.0,0.0,0.0,0.0,0.0,1.0,0.0,0.8069999999999986,0.8069999999999986,0.0,0.0,0.0,55.0,616.79921,10000.0,85.000001,85.000001,85.000001,85.000001,395.0,0.0,0.0,0.0,1.0,166.665,40.649,40.649,31.021,31.021,34.0,-20.912499999999998,20.433333333333334,-30.0225,31.4,0.0,1782.838,-0.0799999999999983,100.0,18.123,18.507,25.914,26.012999999999998,0.0,0.0,100.0,0.0,0.0,0.0,0.0,3281.625,3229.3,3999.222222222222,4013.3,305.07366666666667,304.52425,315.1775,314.84125,21.842666666666666,20.7098,22.0623,21.4798,314.999998,314.999998,324.999988,324.999988,99.55472857142857,99.51093333333333,99.57578571428571,99.54947142857142,0.14975,-0.12224999999999997,-0.10166666666666657,0.12783333333333324,-0.04499999999999815,-0.036666666666668846,1.56,1.5454999999999999,37.516,30.436500000000002,38.888999999999996,35.2485,54.71,37.1725,62.687,53.456,52.768,36.232,60.894,51.6245,52.007999999999996,35.797,60.528,50.909,-0.15300000000000002,-0.14049999999999985,0.109975,0.10387,0.0,212.76,212.775,209.66,209.66,0.0,0.0
17,0.0,0.0,0.0,1.0,1.0,0.0,0.0,1.0,0.0,100.0,1.0,1.1856,26.0,0.0,0.0,0.0,59.999996,0.0,26.0,26.0,26.0,26.0,0.012499999999999956,0.29400000000000004,0.003166666666666667,277.771,-2.54885,-2.454375,-1.8232,-1.7504444444444445,-218.57999999999998,215.89249999999998,190.6235,0.0,0.0,0.0,0.0,0.034800000000000005,-5.498166666666667,-5.498166666666667,-0.46040000000000003,0.3996666666666666,-0.002777777777777768,0.8519999999999999,68.096,0.013100000000000112,-0.10215,-0.0625,100.0,1.0,1.0,210.02666666666667,0.0,0.0,0.0,0.0,0.0,0.0,0.0,8902.2,0.0,55.0,5.0,245.11666666666667,1.0,0.0,0.0,0.0,0.0,0.0,1.0,0.0,0.8580000000000005,0.8580000000000005,0.0,0.0,1.0,55.0,616.79921,10000.0,85.000001,85.000001,85.000001,85.000001,395.0,0.0,0.0,0.0,1.0,166.665,40.421,40.421,30.731,30.731,34.0,-19.5125,20.54,-32.4275,33.35,0.0,1782.787,-0.134999999999998,100.0,18.799500000000002,18.5355,25.908,25.895,0.0,0.0,100.0,0.0,0.0,0.0,0.0,3203.0,3216.8,4266.777777777777,4262.6,305.034,304.72925,314.5725,314.405,21.852222222222224,20.716,22.0733,21.489,314.999998,314.999998,324.999988,324.999988,99.55475714285714,99.51096666666666,99.57592857142858,99.5496,0.163,-0.11224999999999996,-0.08899999999999997,0.1326666666666667,-0.04899999999999949,-0.03499999999999659,1.526,1.5374999999999999,37.576,30.475,38.958,35.306,54.707,37.2125,62.715,53.5145,52.766,36.269,60.92,51.6805,52.0045,35.832499999999996,60.551,50.963499999999996,-0.15749999999999997,-0.13600000000000012,0.10417000000000001,0.1131,0.0,213.25333333333333,213.22500000000002,210.02666666666667,210.02666666666667,0.0,0.0
18,0.0,0.0,0.0,1.0,1.0,0.0,0.0,1.0,0.0,100.0,1.0,1.1856,26.0,0.0,0.0,0.0,59.999996,0.0,26.0,26.0,26.0,26.0,-0.0030000000000000027,0.2804,-0.007766666666666667,277.878,-2.5798,-2.42925,-1.835,-1.700888888888889,-215.51999999999998,215.88,190.60375,0.0,0.0,0.0,0.0,0.03656666666666667,-5.498166666666667,-5.498166666666667,-0.4713,-0.5296666666666667,0.013111111111111073,-0.3959999999999999,68.218,0.007400000000000073,-0.11803333333333334,-0.024999999999999467,100.0,1.0,1.0,210.42666666666668,0.0,0.0,0.0,0.0,0.0,0.0,0.0,8919.2,0.0,55.0,5.0,245.55666666666667,0.0,0.0,0.0,0.0,0.0,0.0,1.0,0.0,0.9029999999999987,0.9029999999999987,0.0,0.0,0.0,55.0,616.79921,10000.0,85.000001,85.000001,85.000001,85.000001,395.0,0.0,0.0,0.0,1.0,166.665,40.405,40.405,30.807,30.807,34.0,-21.025,20.1,-32.2675,30.6125,0.0,1782.742,-0.19500000000000028,100.0,18.417,18.5685,26.061,26.241,0.0,0.0,100.0,0.0,0.0,0.0,0.0,3303.5,3264.8,4107.111111111111,4106.9,304.98133333333334,304.4625,314.9775,314.68775,21.860444444444443,20.7214,22.0831,21.4973,314.999998,314.999998,324.999988,324.999988,99.55478571428571,99.51096666666666,99.57605714285714,99.54974285714286,0.14825,-0.12624999999999997,-0.11483333333333334,0.11916666666666687,-0.05000000000000071,-0.041666666666671404,1.553,1.555,37.628,30.508499999999998,39.019999999999996,35.358000000000004,54.703,37.2465,62.7415,53.567499999999995,52.762,36.3005,60.9445,51.731,51.9995,35.8625,60.5725,51.0125,-0.15949999999999998,-0.13200000000000012,0.10706500000000001,0.10771000000000001,0.0,213.60000000000002,213.57,210.42666666666668,210.42666666666668,0.0,0.0
19,0.0,0.0,0.0,1.0,1.0,0.0,0.0,1.0,0.0,100.0,1.0,1.1856,26.0,0.0,0.0,0.0,59.999996,0.0,26.0,26.0,26.0,26.0,-0.00012499999999993072,0.30000000000000004,0.040600000000000004,277.405,-2.48935,-2.42925,-1.8412000000000002,-1.6908888888888889,-212.03,215.865,190.581125,0.0,0.0,0.0,0.0,0.0386,-5.498166666666667,-5.498166666666667,-0.46290000000000003,0.8486666666666667,0.016222222222222138,0.766,68.355,0.009000000000000119,-0.10790000000000001,-0.1349999999999998,100.0,1.0,1.0,210.82999999999998,0.0,0.0,0.0,0.0,0.0,0.0,0.0,8936.3,0.0,55.0,5.0,246.05,1.0,0.0,0.0,0.0,0.0,0.0,1.0,0.0,0.9540000000000006,0.9540000000000006,0.0,0.0,1.0,55.0,616.79921,10000.0,85.000001,85.000001,85.000001,85.000001,395.0,0.0,0.0,0.0,1.0,333.33500000000004,39.749,39.749,30.64,30.64,34.0,-19.5525,21.173333333333332,-32.225,33.572500000000005,0.0,1782.689,-0.129999999999999,100.0,19.1,18.8295,25.933,26.0575,0.0,0.0,100.0,0.0,0.0,0.0,0.0,3238.625,3401.6,4207.666666666667,4352.1,304.806,304.10225,314.72475,314.221,21.87,20.7277,22.0941,21.5065,314.999998,314.999998,324.999988,324.999988,99.5548,99.511,99.5762,99.54988571428571,0.15725,-0.12324999999999997,-0.09133333333333338,0.13766666666666683,-0.05900000000000105,-0.036666666666668846,1.5356666666666667,1.5374999999999999,37.688,30.548000000000002,39.088,35.416,54.701,37.288,62.7685,53.6255,52.76,36.339,60.9695,51.787,51.9965,35.899,60.5945,51.067,-0.15900000000000003,-0.14100000000000001,0.10325500000000001,0.11635000000000001,0.0,214.05,214.04000000000002,210.82999999999998,210.82999999999998,0.0,0.0
20,0.0,0.0,0.0,1.0,1.0,0.0,0.0,1.0,0.0,100.0,1.0,1.1856,26.0,0.0,0.0,0.0,59.999996,0.0,26.0,26.0,26.0,26.0,0.02287499999999998,0.24850000000000017,0.013900000000000001,277.9235,-2.58495,-2.498125,-1.7649,-1.8133333333333332,-208.34,215.85,190.557375,0.0,0.0,0.0,0.0,0.04073333333333334,-5.498166666666667,-5.498166666666667,-0.4692,-1.2016666666666667,0.014222222222222136,0.484,68.502,0.007000000000000117,-0.1221,-0.10250000000000004,100.0,1.0,1.0,211.20666666666668,0.0,0.0,0.0,0.0,0.0,0.0,0.0,8952.3,0.0,55.0,5.0,246.57666666666665,0.0,0.0,0.0,0.0,0.0,0.0,0.0,0.0,1.0079999999999991,1.0079999999999991,0.0,0.0,0.0,55.0,616.79921,10000.0,85.000001,85.000001,85.000001,85.000001,395.0,0.0,0.0,0.0,1.0,166.665,40.909,40.909,30.441,30.441,34.0,-18.825,20.86,-30.4325,33.555,0.0,1782.636,-0.129999999999999,100.0,18.4665,18.4075,26.477,26.3875,0.0,0.0,100.0,0.0,0.0,0.0,0.0,3060.875,3227.1,4061.777777777778,4170.1,305.54466666666667,304.706,314.91825,314.49075,21.87977777777778,20.7341,22.106,21.5165,314.999998,314.999998,324.999988,324.999988,99.55481428571429,99.51101666666666,99.57635714285715,99.55004285714286,0.16225,-0.11624999999999996,-0.09550000000000003,0.12983333333333325,-0.036999999999999034,-0.041666666666671404,1.506,1.5075,37.748999999999995,30.5885,39.162,35.4785,54.695,37.3285,62.8015,53.69,52.753,36.3765,61.0005,51.8485,51.9885,35.9355,60.622,51.1265,-0.15900000000000003,-0.137,0.10608500000000001,0.104525,0.0,214.46333333333334,214.44,211.20666666666668,211.20666666666668,0.0,0.0
21,0.0,0.0,0.0,1.0,1.0,0.0,0.0,1.0,0.0,100.0,1.0,1.1856,26.0,0.0,0.0,0.0,59.999996,0.0,26.0,26.0,26.0,26.0,-0.002874999999999961,0.27760000000000007,-0.07023333333333334,278.137,-2.5467,-2.50475,-1.8278,-1.774888888888889,-205.05,215.8375,190.535625,0.0,0.0,0.0,0.0,0.04266666666666667,-5.498166666666667,-5.498166666666667,-0.4897,0.43899999999999995,-0.005555555555555536,0.3780000000000001,68.626,0.0037000000000000366,-0.1177,-0.08999999999999986,100.0,1.0,1.0,211.80333333333334,0.0,0.0,0.0,0.0,0.0,0.0,0.0,8977.6,0.0,55.0,5.0,247.02666666666664,1.0,0.0,0.0,0.0,0.0,0.0,0.0,0.0,1.056000000000001,1.056000000000001,0.0,0.0,1.0,55.0,616.79921,10000.0,85.000001,85.000001,85.000001,85.000001,395.0,0.0,0.0,0.0,1.0,166.665,40.466,40.466,31.448,31.448,34.0,-19.7725,21.096666666666664,-30.7025,30.345,0.0,1782.589,-0.14999999999999858,100.0,18.802,18.5035,25.857,25.9025,0.0,0.0,100.0,0.0,0.0,0.0,0.0,3195.25,3262.1,4002.6666666666665,3982.3,305.0636666666667,304.60525,315.24075,315.07325,21.888666666666666,20.74,22.1161,21.5251,314.999998,314.999998,324.999988,324.999988,99.55484285714286,99.51101666666666,99.57648571428571,99.55018571428572,0.15625,-0.11849999999999994,-0.10899999999999999,0.12383333333333324,-0.05999999999999872,-0.046666666666666856,1.5963333333333334,1.6039999999999999,37.804,30.625,39.226,35.532,54.692,37.3665,62.8245,53.7415,52.75,36.411500000000004,61.0215,51.897999999999996,51.9845,35.969,60.6405,51.1745,-0.15849999999999986,-0.13500000000000023,0.11335,0.10570500000000001,0.0,214.88666666666666,214.875,211.80333333333334,211.80333333333334,0.0,0.0
22,0.0,0.0,0.0,1.0,1.0,0.0,0.0,1.0,0.0,100.0,1.0,1.1856,26.0,0.0,0.0,0.0,59.999996,0.0,26.0,26.0,26.0,26.0,0.016250000000000098,0.2704,0.005033333333333334,277.6795,-2.48075,-2.556375,-1.8248000000000002,-1.7592222222222222,-201.75,215.825,190.513125,0.0,0.0,0.0,0.0,0.04456666666666667,-5.498166666666667,-5.498166666666667,-0.46940000000000004,0.09699999999999998,0.0058888888888888324,1.261,68.757,0.00550000000000006,-0.09908333333333334,-0.14499999999999957,100.0,1.0,1.0,211.99,0.0,0.0,0.0,0.0,0.0,0.0,0.0,8985.4,0.0,55.0,5.0,247.49666666666667,0.0,0.0,0.0,0.0,0.0,0.0,0.0,0.0,1.1039999999999992,1.1039999999999992,0.0,0.0,0.0,55.0,616.79921,10000.0,85.000001,85.000001,85.000001,85.000001,395.0,0.0,0.0,0.0,1.0,166.665,40.588,40.588,30.38,30.38,34.0,-17.7575,20.938333333333333,-32.8,33.7225,0.0,1782.54,-0.16000000000000014,100.0,18.8825,18.6495,26.247,26.133499999999998,0.0,0.0,100.0,0.0,0.0,0.0,0.0,3019.25,3191.2,4198.0,4356.3,305.48466666666667,304.70625,314.688,314.184,21.897555555555556,20.7458,22.1266,21.534,314.999998,314.999998,324.999988,324.999988,99.55485714285714,99.51103333333333,99.57662857142857,99.55031428571428,0.16125,-0.124,-0.10299999999999998,0.11699999999999999,-0.028999999999999915,-0.046666666666666856,1.4986666666666668,1.502,37.86,30.661,39.291,35.5875,54.688,37.403999999999996,62.8535,53.798,52.747,36.446,61.0485,51.952,51.980000000000004,36.002,60.664500000000004,51.227000000000004,-0.15700000000000003,-0.13850000000000007,0.11045500000000001,0.10689000000000001,0.0,215.26666666666665,215.285,211.99,211.99,0.0,0.0
23,0.0,0.0,0.0,1.0,1.0,0.0,0.0,1.0,0.0,100.0,1.0,1.1856,26.0,0.0,0.0,0.0,59.999996,0.0,26.0,26.0,26.0,26.0,0.016625000000000112,0.2538,-0.05776666666666667,277.725,-2.52065,-2.498,-1.8795000000000002,-1.8206666666666669,-198.24,215.8125,190.48975,0.0,0.0,0.0,0.0,0.0466,-5.498166666666667,-5.498166666666667,-0.49050000000000005,-0.2390000000000001,0.003555555555555534,-0.6590000000000003,68.89,0.007600000000000051,-0.1298,-0.019999999999999574,100.0,1.0,1.0,212.53333333333333,0.0,0.0,0.0,0.0,0.0,0.0,0.0,9008.5,0.0,55.0,5.0,247.97666666666666,1.0,0.0,0.0,0.0,0.0,0.0,0.0,0.0,1.1550000000000011,1.1550000000000011,0.0,0.0,1.0,55.0,616.79921,10000.0,85.000001,85.000001,85.000001,85.000001,395.0,0.0,0.0,0.0,1.0,333.33500000000004,39.841,39.841,31.448,31.448,34.0,-21.1675,20.384999999999998,-31.61,30.2275,0.0,1782.488,-0.14499999999999957,100.0,18.9225,18.903,26.192,26.425,0.0,0.0,100.0,0.0,0.0,0.0,0.0,3422.625,3186.0,3965.6666666666665,3932.2,304.484,304.6055,315.3945,315.03075,21.907,20.752,22.1377,21.5434,314.999998,314.999998,324.999988,324.999988,99.55487142857143,99.51105,99.57677142857143,99.55047142857143,0.15375,-0.12524999999999997,-0.11966666666666659,0.10949999999999993,-0.04299999999999926,-0.05333333333332746,1.553,1.566,37.919,30.7,39.36,35.646,54.685,37.444,62.8815,53.8575,52.744,36.4835,61.0745,52.0085,51.9755,36.0375,60.6875,51.282,-0.16149999999999998,-0.13600000000000012,0.11054000000000001,0.10497500000000001,0.0,215.66333333333336,215.685,212.53333333333333,212.53333333333333,0.0,0.0
24,0.0,0.0,0.0,1.0,1.0,0.0,0.0,1.0,0.0,100.0,1.0,1.1856,26.0,0.0,0.0,0.0,59.999996,0.0,26.0,26.0,26.0,26.0,0.0020000000000000018,0.27270000000000016,-0.042300000000000004,277.9845,-2.5448,-2.5085,-1.7985,-1.7623333333333333,-194.93,215.8,190.467125,0.0,0.0,0.0,0.0,0.04853333333333333,-5.498166666666667,-5.498166666666667,-0.49560000000000004,-0.3896666666666668,0.017888888888888843,-0.15200000000000014,69.018,0.011300000000000088,-0.11513333333333334,-0.10499999999999954,100.0,1.0,1.0,212.82333333333332,0.0,0.0,0.0,0.0,0.0,0.0,0.0,9020.8,0.0,55.0,5.0,248.43666666666667,0.0,0.0,0.0,0.0,0.0,0.0,0.0,0.0,1.2029999999999994,1.2029999999999994,0.0,0.0,0.0,55.0,616.79921,10000.0,85.000001,85.000001,85.000001,85.000001,395.0,0.0,0.0,0.0,1.0,333.33500000000004,41.046,41.046,30.518,30.518,34.0,-19.15,19.165,-32.8725,32.0875,0.0,1782.439,-0.129999999999999,100.0,18.574,18.5955,26.152,26.3245,0.0,0.0,100.0,0.0,0.0,0.0,0.0,3081.5,3035.7,4254.888888888889,4111.5,305.54533333333336,305.1175,314.596,314.68725,21.915777777777777,20.7577,22.148,21.5522,314.999998,314.999998,324.999988,324.999988,99.5549,99.51106666666666,99.57692857142857,99.55061428571429,0.1485,-0.12924999999999998,-0.10483333333333333,0.12716666666666687,-0.04400000000000048,-0.04333333333332945,1.528,1.5165,37.973,30.736,39.425,35.701,54.681,37.4825,62.91,53.9155,52.739000000000004,36.519,61.101,52.064,51.9695,36.0715,60.710499999999996,51.336,-0.15399999999999991,-0.13500000000000023,0.10788500000000001,0.11651000000000002,0.0,216.08333333333334,216.055,212.82333333333332,212.82333333333332,0.0,0.0
25,0.0,0.0,0.0,1.0,1.0,0.0,0.0,1.0,0.0,100.0,1.0,1.1856,26.0,0.0,0.0,0.0,59.999996,0.0,26.0,26.0,26.0,26.0,0.020375000000000032,0.25140000000000007,-0.0476,277.771,-2.60845,-2.4695,-1.8115999999999999,-1.765111111111111,-191.2,215.785,190.44025,0.0,0.0,0.0,0.0,0.0507,-5.498166666666667,-5.498166666666667,-0.5223,0.1313333333333333,0.016111111111110965,-1.1479999999999997,69.158,0.010000000000000009,-0.11786666666666668,-0.08000000000000007,100.0,1.0,1.0,213.38666666666666,0.0,0.0,0.0,0.0,0.0,0.0,0.0,9044.7,0.0,55.0,5.0,248.94,1.0,0.0,0.0,0.0,0.0,0.0,0.0,0.0,1.256999999999998,1.256999999999998,0.0,0.0,1.0,55.0,616.79921,10000.0,85.000001,85.000001,85.000001,85.000001,395.0,0.0,0.0,0.0,1.0,166.665,39.856,39.856,31.311,31.311,34.0,-21.974999999999998,21.821666666666665,-29.62,30.8525,0.0,1782.387,-0.19500000000000028,100.0,18.5705,18.8765,25.871,26.0925,0.0,0.0,100.0,0.0,0.0,0.0,0.0,3435.5,3361.1,3935.4444444444443,4012.1000000000004,304.58933333333334,304.10075,315.41025,314.9215,21.925555555555555,20.7643,22.1595,21.562,314.999998,314.999998,324.999988,324.999988,99.55491428571429,99.51108333333333,99.57707142857143,99.55077142857142,0.15575,-0.11575000000000002,-0.10233333333333339,0.12516666666666687,-0.047999999999998266,-0.041666666666671404,1.5873333333333333,1.5745,38.035,30.777,39.497,35.7625,54.676,37.522,62.935,53.9715,52.733999999999995,36.556,61.124,52.118,51.963499999999996,36.1065,60.731,51.3885,-0.15900000000000003,-0.12950000000000017,0.104275,0.10935,0.0,216.49666666666667,216.505,213.38666666666666,213.38666666666666,0.0,0.0
26,0.0,0.0,0.0,1.0,1.0,0.0,0.0,1.0,0.0,100.0,1.0,1.1856,26.0,0.0,0.0,0.0,59.999996,0.0,26.0,26.0,26.0,26.0,0.004124999999999934,0.2754000000000001,0.09256666666666667,276.7485,-2.5641,-2.5460000000000003,-1.8628,-1.7595555555555558,-187.88,215.775,190.416,0.0,0.0,0.0,0.0,0.05263333333333334,-5.498166666666667,-5.498166666666667,-0.48500000000000004,0.5826666666666667,0.00011111111111095084,-0.742,69.287,0.008099999999999996,-0.09580000000000001,-0.07749999999999968,100.0,1.0,1.0,213.50333333333333,0.0,0.0,0.0,0.0,0.0,0.0,0.0,9049.6,0.0,55.0,5.0,249.4,0.0,0.0,0.0,0.0,0.0,0.0,0.0,0.0,1.3049999999999997,1.3049999999999997,0.0,0.0,0.0,55.0,616.79921,10000.0,85.000001,85.000001,85.000001,85.000001,395.0,0.0,0.0,0.0,1.0,333.33500000000004,39.658,39.658,29.572,29.572,34.0,-20.3925,20.89,-37.1375,35.0975,0.0,1782.338,-0.3049999999999997,100.0,19.2875,19.379,26.403,26.567500000000003,0.0,0.0,100.0,0.0,0.0,0.0,0.0,3354.375,3154.5,4572.666666666667,4451.9,304.7343333333333,304.6125,313.92525,313.8495,21.934555555555555,20.7704,22.1699,21.5709,314.999998,314.999998,324.999988,324.999988,99.55494285714286,99.5111,99.57721428571429,99.55091428571428,0.16825,-0.12149999999999994,-0.10499999999999998,0.1180000000000001,-0.04199999999999804,-0.03166666666666629,1.4513333333333334,1.458,38.091,30.814999999999998,39.562,35.818,54.675,37.5615,62.964,54.0285,52.733999999999995,36.5925,61.150999999999996,52.1725,51.962,36.1415,60.754999999999995,51.441,-0.17849999999999988,-0.1280000000000001,0.09915500000000001,0.115235,0.0,216.92000000000002,216.935,213.50333333333333,213.50333333333333,0.0,0.0
27,0.0,0.0,0.0,1.0,1.0,0.0,0.0,1.0,0.0,100.0,1.0,1.1856,26.0,0.0,0.0,0.0,59.999996,0.0,26.0,26.0,26.0,26.0,0.021625000000000005,0.2499,-0.05433333333333334,277.542,-2.5315,-2.51175,-1.8507,-1.8266666666666669,-184.55,215.7625,190.393125,0.0,0.0,0.0,0.0,0.054566666666666666,-5.498166666666667,-5.498166666666667,-0.516,-1.0606666666666666,0.0029999999999998916,-0.7410000000000001,69.41,0.01100000000000012,-0.14961666666666668,-0.23749999999999982,100.0,1.0,1.0,214.06,0.0,0.0,0.0,0.0,0.0,0.0,0.0,9073.2,0.0,55.0,5.0,249.85000000000002,1.0,0.0,0.0,0.0,0.0,0.0,0.0,0.0,1.352999999999998,1.352999999999998,0.0,0.0,1.0,55.0,616.79921,10000.0,85.000001,85.000001,85.000001,85.000001,395.0,0.0,0.0,0.0,1.0,333.33500000000004,40.146,40.146,30.365000000000002,30.365000000000002,34.0,-19.31,20.843333333333334,-31.8975,31.405,0.0,1782.29,-0.3049999999999997,100.0,18.906,19.165,26.766,26.881,0.0,0.0,100.0,0.0,0.0,0.0,0.0,3214.0,3198.0,4033.0,3935.5,305.1716666666667,304.5755,315.12225,315.01625,21.943333333333335,20.7763,22.1804,21.5798,314.999998,314.999998,324.999988,324.999988,99.55495714285715,99.51111666666667,99.57734285714285,99.55104285714286,0.163,-0.12024999999999997,-0.11316666666666664,0.12749999999999995,-0.053000000000000824,-0.04333333333332945,1.534,1.523,38.146,30.8515,39.628,35.874,54.672,37.599000000000004,62.992,54.0845,52.730000000000004,36.626999999999995,61.177,52.226,51.957,36.1745,60.778,51.493,-0.17100000000000004,-0.129,0.10503000000000001,0.11378500000000001,0.0,217.26,217.255,214.06,214.06,0.0,0.0
28,0.0,0.0,0.0,1.0,1.0,0.0,0.0,1.0,0.0,100.0,1.0,1.1856,26.0,0.0,0.0,0.0,59.999996,0.0,26.0,26.0,26.0,26.0,0.028874999999999984,0.26480000000000015,-0.06886666666666666,277.71,-2.51875,-2.499875,-1.8425,-1.765111111111111,-180.8,215.75,190.366125,0.0,0.0,0.0,0.0,0.05676666666666667,-5.498166666666667,-5.498166666666667,-0.5137,0.7653333333333333,-0.0038888888888890527,-0.5710000000000002,69.548,0.015300000000000091,-0.10546666666666668,-0.23500000000000032,100.0,1.0,1.0,214.54000000000002,0.0,0.0,0.0,0.0,0.0,0.0,0.0,9093.6,0.0,55.0,5.0,250.34333333333336,0.0,0.0,0.0,0.0,0.0,0.0,0.0,0.0,1.407,1.407,0.0,0.0,0.0,55.0,616.79921,10000.0,85.000001,85.000001,85.000001,85.000001,395.0,0.0,0.0,0.0,1.0,166.665,40.283,40.283,30.96,30.96,34.0,-19.28,20.665,-31.9825,32.165,0.0,1782.238,-0.3049999999999997,100.0,18.9015,18.9665,25.967,26.2785,0.0,0.0,100.0,0.0,0.0,0.0,0.0,3220.75,3136.6,4154.222222222223,4126.4,305.08633333333336,304.73375,314.98875,314.71475,21.953222222222223,20.7829,22.1918,21.5896,314.999998,314.999998,324.999988,324.999988,99.55497142857143,99.51113333333333,99.5775,99.5512,0.163,-0.11224999999999996,-0.10083333333333333,0.13050000000000006,-0.05799999999999983,-0.04999999999999716,1.5583333333333333,1.559,38.208,30.893,39.699,35.935,54.669,37.6405,63.0175,54.143,52.727999999999994,36.6655,61.2005,52.282,51.953,36.2115,60.798,51.547,-0.16900000000000004,-0.1200000000000001,0.1044,0.11304000000000002,0.0,217.74333333333334,217.755,214.54000000000002,214.54000000000002,0.0,0.0
29,0.0,0.0,0.0,1.0,1.0,0.0,0.0,1.0,0.0,100.0,1.0,1.1856,26.0,0.0,0.0,0.0,59.999996,0.0,26.0,26.0,26.0,26.0,0.028124999999999956,0.2603,0.02613333333333333,277.359,-2.50645,-2.54825,-1.8005,-1.7690000000000001,-177.45,215.74,190.341,0.0,0.0,0.0,0.0,0.0587,-5.498166666666667,-5.498166666666667,-0.5213,-0.8346666666666669,0.0021111111111109526,-0.7720000000000002,69.675,0.020399999999999974,-0.11441666666666668,-0.3049999999999997,100.0,1.0,1.0,214.75333333333333,0.0,0.0,0.0,0.0,0.0,0.0,0.0,9102.6,0.0,55.0,5.0,250.80333333333334,1.0,0.0,0.0,0.0,0.0,0.0,0.0,0.0,1.4549999999999983,1.4549999999999983,0.0,0.0,1.0,55.0,616.79921,10000.0,85.000001,85.000001,85.000001,85.000001,395.0,0.0,0.0,0.0,1.0,166.665,40.253,40.253,30.212,30.212,34.0,-19.0575,21.475,-32.1025,33.4925,0.0,1782.189,-0.3149999999999977,100.0,18.6225,18.9535,26.469,26.688000000000002,0.0,0.0,100.0,0.0,0.0,0.0,0.0,3268.625,3191.0,4179.666666666667,4228.9,305.0486666666667,304.5305,314.75875,314.3455,21.961777777777776,20.7888,22.2022,21.5985,314.999998,314.999998,324.999988,324.999988,99.555,99.51115,99.57764285714286,99.55134285714286,0.17,-0.11499999999999999,-0.09883333333333333,0.12549999999999994,-0.03599999999999781,-0.03333333333333144,1.496,1.4825,38.260999999999996,30.93,39.763999999999996,35.991,54.664,37.6765,63.0465,54.1995,52.723,36.699,61.2275,52.336,51.947,36.2435,60.8215,51.5995,-0.17449999999999988,-0.12550000000000017,0.10767000000000002,0.10597000000000001,0.0,218.06666666666666,218.085,214.75333333333333,214.75333333333333,0.0,0.0
30,0.0,0.0,0.0,1.0,1.0,0.0,0.0,1.0,0.0,100.0,1.0,1.1856,26.0,0.0,0.0,0.0,59.999996,0.0,26.0,26.0,26.0,26.0,0.03337499999999993,0.2553000000000001,0.0074666666666666675,276.8095,-2.5551,-2.4398750000000002,-1.7679,-1.831,-174.11,215.73000000000002,190.316,0.0,0.0,0.0,0.0,0.06063333333333334,-5.498166666666667,-5.498166666666667,-0.5221,0.885,-0.0058888888888888324,-0.7749999999999999,69.795,0.024800000000000155,-0.11965,-0.2575000000000003,100.0,1.0,1.0,215.23000000000002,0.0,0.0,0.0,0.0,0.0,0.0,0.0,9122.8,0.0,55.0,5.0,251.23666666666668,0.0,0.0,0.0,0.0,0.0,0.0,1.0,0.0,1.5030000000000001,1.5030000000000001,0.0,0.0,0.0,55.0,616.79921,10000.0,85.000001,85.000001,85.000001,85.000001,395.0,0.0,0.0,0.0,1.0,333.33500000000004,38.849000000000004,38.849000000000004,30.67,30.67,34.0,-21.3375,21.36,-30.78,33.082499999999996,0.0,1782.14,-0.2699999999999996,100.0,19.627,19.7295,26.311,26.6615,0.0,0.0,100.0,0.0,0.0,0.0,0.0,3527.375,3287.2,4148.222222222223,4089.4,304.2,304.20075,314.91675,314.674,21.97088888888889,20.7949,22.2125,21.6073,314.999998,314.999998,324.999988,324.999988,99.55502857142856,99.51116666666667,99.57778571428571,99.55148571428572,0.17250000000000001,-0.11049999999999993,-0.09166666666666656,0.13050000000000006,-0.06499999999999773,-0.03166666666666629,1.5193333333333334,1.5195,38.318,30.9685,39.828,36.046,54.665,37.717,63.07,54.2535,52.724000000000004,36.736000000000004,61.2495,52.3875,51.9465,36.278999999999996,60.841,51.6495,-0.17249999999999988,-0.12449999999999983,0.10643000000000001,0.10602500000000001,0.0,218.5,218.49,215.23000000000002,215.23000000000002,0.0,0.0
31,0.0,0.0,0.0,1.0,1.0,0.0,0.0,1.0,0.0,100.0,1.0,1.1856,26.0,0.0,0.0,0.0,59.999996,0.0,26.0,26.0,26.0,26.0,0.02200000000000002,0.24060000000000015,0.02956666666666667,276.825,-2.606,-2.423625,-1.8139,-1.8247777777777778,-170.32999999999998,215.72,190.289,0.0,0.0,0.0,0.0,0.06283333333333334,-5.498166666666667,-5.498166666666667,-0.5112,-0.613,0.0024444444444442492,-0.7589999999999999,69.935,0.029300000000000104,-0.13355,-0.27499999999999947,100.0,1.0,1.0,215.56666666666666,0.0,0.0,0.0,0.0,0.0,0.0,0.0,9137.0,0.0,55.0,5.0,251.74,1.0,0.0,0.0,0.0,0.0,0.0,1.0,0.0,1.5569999999999986,1.5569999999999986,0.0,0.0,1.0,55.0,616.79921,10000.0,85.000001,85.000001,85.000001,85.000001,395.0,0.0,0.0,0.0,1.0,166.665,39.397999999999996,39.397999999999996,29.602,29.602,34.0,-20.395,22.06,-31.9925,34.29,0.0,1782.086,-0.29499999999999815,100.0,19.1585,19.5875,26.877,27.1625,0.0,0.0,100.0,0.0,0.0,0.0,0.0,3358.375,3412.6,4198.333333333333,4160.0,304.863,303.99175,314.71175,314.61775,21.980666666666668,20.8017,22.2243,21.6175,314.999998,314.999998,324.999988,324.999988,99.55505714285714,99.51118333333334,99.57794285714286,99.55165714285714,0.17525000000000002,-0.10849999999999993,-0.08816666666666662,0.14300000000000002,-0.045999999999999375,-0.03499999999999659,1.483,1.488,38.379000000000005,31.011,39.902,36.1095,54.663,37.76,63.1025,54.317499999999995,52.721000000000004,36.775999999999996,61.28,52.449,51.943,36.317499999999995,60.868,51.7095,-0.17599999999999993,-0.13500000000000023,0.11067,0.10716500000000001,0.0,218.89333333333335,218.905,215.56666666666666,215.56666666666666,0.0,0.0
32,0.0,0.0,0.0,1.0,1.0,0.0,0.0,1.0,0.0,100.0,1.0,1.1856,26.0,0.0,0.0,0.0,59.999996,0.0,26.0,26.0,26.0,26.0,0.04212499999999997,0.268,-0.04846666666666667,277.298,-2.5223,-2.5412500000000002,-1.7908,-1.7344444444444445,-166.76,215.7125,190.263375,0.0,0.0,0.0,0.0,0.0649,-5.498166666666667,-5.498166666666667,-0.5224,0.06699999999999995,-0.022333333333333094,0.30799999999999983,70.063,0.028000000000000025,-0.12408333333333334,-0.3700000000000001,100.0,1.0,1.0,216.01333333333332,0.0,0.0,0.0,0.0,0.0,0.0,0.0,9156.0,0.0,55.0,5.0,252.2,0.0,0.0,0.0,0.0,0.0,0.0,1.0,0.0,1.6080000000000005,1.6080000000000005,0.0,0.0,0.0,55.0,616.79921,10000.0,85.000001,85.000001,85.000001,85.000001,395.0,0.0,0.0,0.0,1.0,166.665,40.1,40.1,30.426000000000002,30.426000000000002,34.0,-18.107499999999998,22.395,-29.9025,34.765,0.0,1782.037,-0.29499999999999815,100.0,19.1685,19.1915,26.537,26.695500000000003,0.0,0.0,100.0,0.0,0.0,0.0,0.0,3145.5,3226.9,4092.8888888888887,4339.1,305.162,304.64175,314.93175,314.28775,21.98988888888889,20.8081,22.2351,21.6269,314.999998,314.999998,324.999988,324.999988,99.55507142857142,99.51118333333334,99.5781,99.5518,0.181,-0.09475,-0.0751666666666666,0.14933333333333332,-0.04400000000000048,-0.03166666666666629,1.5293333333333332,1.533,38.437,31.051000000000002,39.97,36.168,54.661,37.7995,63.128,54.3745,52.719,36.813,61.303,52.5035,51.939,36.353,60.888,51.762,-0.17049999999999987,-0.1200000000000001,0.10808500000000001,0.11004000000000001,0.0,219.30666666666667,219.305,216.01333333333332,216.01333333333332,0.0,0.0
33,0.0,0.0,0.0,1.0,1.0,0.0,0.0,1.0,0.0,100.0,1.0,1.1856,26.0,0.0,0.0,0.0,59.999996,0.0,26.0,26.0,26.0,26.0,0.03837500000000005,0.2611000000000001,-0.03086666666666667,277.405,-2.563,-2.52875,-1.8037,-1.8194444444444444,-163.61,215.70499999999998,190.239625,0.0,0.0,0.0,0.0,0.06673333333333334,-5.498166666666667,-5.498166666666667,-0.5299,-0.397,-0.02055555555555566,-0.2280000000000002,70.178,0.02750000000000008,-0.11146666666666669,-0.2575000000000003,100.0,1.0,1.0,216.33333333333331,0.0,0.0,0.0,0.0,0.0,0.0,0.0,9169.5,0.0,55.0,5.0,252.61,1.0,0.0,0.0,0.0,0.0,0.0,1.0,0.0,1.6529999999999987,1.6529999999999987,0.0,0.0,1.0,55.0,616.79921,10000.0,85.000001,85.000001,85.000001,85.000001,395.0,0.0,0.0,0.0,1.0,166.665,40.283,40.283,30.441,30.441,34.0,-19.485,20.953333333333333,-31.85,34.4075,0.0,1781.992,-0.28000000000000114,100.0,18.831,19.0225,26.415,26.737000000000002,0.0,0.0,100.0,0.0,0.0,0.0,0.0,3283.375,3131.2,4195.666666666667,4200.2,305.063,304.78875,314.78775,314.48225,21.998,20.8136,22.244799999999998,21.6352,314.999998,314.999998,324.999988,324.999988,99.5551,99.5112,99.57822857142857,99.55192857142858,0.17475000000000002,-0.11099999999999999,-0.09333333333333338,0.13850000000000007,-0.04199999999999804,-0.01999999999999602,1.5150000000000001,1.501,38.488,31.085,40.03,36.2195,54.658,37.832499999999996,63.152,54.425,52.716,36.843,61.3255,52.552,51.935,36.3815,60.9075,51.8085,-0.17100000000000004,-0.12550000000000017,0.10749500000000001,0.11221,0.0,219.64333333333335,219.64,216.33333333333331,216.33333333333331,0.0,0.0
34,0.0,0.0,0.0,1.0,1.0,0.0,0.0,1.0,0.0,100.0,1.0,1.1856,26.0,0.0,0.0,0.0,59.999996,0.0,26.0,26.0,26.0,26.0,0.03825000000000012,0.2499,-0.07733333333333334,277.6795,-2.59005,-2.454875,-1.8721,-1.7482222222222221,-159.81,215.7,190.209875,0.0,0.0,0.0,0.0,0.06896666666666666,-5.498166666666667,-5.498166666666667,-0.5635,-0.8016666666666667,0.008000000000000007,-0.42300000000000004,70.313,0.028200000000000003,-0.12445,-0.24249999999999972,100.0,1.0,1.0,216.77666666666667,0.0,0.0,0.0,0.0,0.0,0.0,0.0,9188.4,0.0,55.0,5.0,253.10000000000002,0.0,0.0,0.0,0.0,0.0,0.0,1.0,0.0,1.7070000000000007,1.7070000000000007,0.0,0.0,0.0,55.0,616.79921,10000.0,85.000001,85.000001,85.000001,85.000001,395.0,0.0,0.0,0.0,1.0,166.665,40.588,40.588,30.899,30.899,34.0,-19.2075,20.513333333333335,-31.3825,32.567499999999995,0.0,1781.938,-0.21999999999999886,100.0,18.705,18.8295,26.252,26.7925,0.0,0.0,100.0,0.0,0.0,0.0,0.0,3148.75,3139.8,4079.8888888888887,4137.1,305.319,304.737,315.09975,314.65725,22.007666666666665,20.8202,22.2563,21.6452,314.999998,314.999998,324.999988,324.999988,99.55512857142857,99.51121666666667,99.57838571428572,99.5521,0.1695,-0.10675000000000001,-0.08983333333333332,0.13616666666666677,-0.03300000000000125,-0.04833333333333201,1.5376666666666667,1.5294999999999999,38.548,31.125999999999998,40.102000000000004,36.2825,54.653999999999996,37.872,63.1785,54.4865,52.712,36.8795,61.35,52.611000000000004,51.93,36.4165,60.9285,51.866,-0.16199999999999992,-0.12950000000000017,0.10432500000000001,0.106425,0.0,220.03333333333336,220.065,216.77666666666667,216.77666666666667,0.0,0.0
35,0.0,0.0,0.0,1.0,1.0,0.0,0.0,1.0,0.0,100.0,1.0,1.1856,26.0,0.0,0.0,0.0,59.999996,0.0,26.0,26.0,26.0,26.0,0.029875000000000096,0.2459,-0.027266666666666668,277.6335,-2.5589,-2.464125,-1.8386,-1.7425555555555556,-156.44,215.695,190.1815,0.0,0.0,0.0,0.0,0.0709,-5.498166666666667,-5.498166666666667,-0.599,-0.20399999999999996,-0.01388888888888884,-1.2489999999999997,70.431,0.031300000000000106,-0.12611666666666668,-0.23249999999999993,100.0,1.0,1.0,217.23333333333335,0.0,0.0,0.0,0.0,0.0,0.0,0.0,9207.7,0.0,55.0,5.0,253.52666666666664,1.0,0.0,0.0,0.0,0.0,0.0,1.0,0.0,1.754999999999999,1.754999999999999,0.0,0.0,1.0,55.0,616.79921,10000.0,85.000001,85.000001,85.000001,85.000001,395.0,0.0,0.0,0.0,1.0,166.665,40.009,40.009,30.609,30.609,34.0,-19.8775,22.193333333333335,-30.0,31.39,0.0,1781.889,-0.14000000000000057,100.0,18.561,19.177,26.121,26.276,0.0,0.0,100.0,0.0,0.0,0.0,0.0,3267.5,3393.2,4012.777777777778,3945.5,305.03566666666666,304.01125,315.202,315.124,22.016111111111112,20.8262,22.2665,21.6539,314.999998,314.999998,324.999988,324.999988,99.55514285714285,99.51123333333334,99.57852857142858,99.55222857142857,0.16525,-0.11249999999999993,-0.08366666666666656,0.15283333333333338,-0.04400000000000048,-0.05666666666667197,1.5643333333333334,1.5445,38.601,31.164,40.165,36.3365,54.649,37.9095,63.202,54.537,52.707,36.914500000000004,61.372,52.6595,51.923500000000004,36.45,60.9475,51.913,-0.15949999999999998,-0.13949999999999996,0.11022000000000001,0.107535,0.0,220.42000000000002,220.45499999999998,217.23333333333335,217.23333333333335,0.0,0.0
