,ABS Active,ABS Enabled,AID Allow Tire Blankets,AID Auto Blip,AID Auto Clutch,AID Auto Shift,AID Fuel Rate,AID Ideal Line,AID Mech Damage,AID Stability,AID Tire Wear Rate,Air Density,Air Temp,Ballast,Best Lap Delta,Best Lap Time,Brake Bias,Brake Pos,Brake Temp FL,Brake Temp FR,Brake Temp RL,Brake Temp RR,CG Accel Lateral,CG Accel Longitudinal,CG Accel Vertical,CG Height,Camber FL,Camber FR,Camber RL,Camber RR,Car Coord X,Car Coord Y,Car Coord Z,Car Damage Front,Car Damage Left,Car Damage Rear,Car Damage Right,Car Pos Norm,Caster FL,Caster FR,Chassis Pitch Angle,Chassis Pitch Rate,Chassis Roll Angle,Chassis Roll Rate,Chassis Velocity X,Chassis Velocity Y,Chassis Velocity Z,Chassis Yaw Rate,Clutch Pos,DRS Active,DRS Available,Drive Train Speed,ERS Heat Charging,ERS Is Charging,ERS Max Energy,ERS Power Level,ERS Recovery Level,Engine Brake Setting,Engine Limiter,Engine RPM,Flags,Fuel Level,Gear,Ground Speed,HR Sample Clock,In Pit,KERS Charge,KERS Deployed Energy,KERS Input,KERS Max Energy,LR Sample Clock,Lap Invalidated,Lap Time,Lap Time2,Last Lap Time,Last Sector Time,MR Sample Clock,Max Fuel,Max Power,Max RPM,Max Sus Travel FL,Max Sus Travel FR,Max Sus Travel RL,Max Sus Travel RR,Max Torque,Max Turbo Boost,Num Tires Off Track,Penalties Enabled,Position,Raw Data Sample Rate,Ride Height FL,Ride Height FR,Ride Height RL,Ride Height RR,Road Temp,Self Align Torque FL,Self Align Torque FR,Self Align Torque RL,Self Align Torque RR,Session Lap Count,Session Time Left,Steering Angle,Surface Grip,Suspension Travel FL,Suspension Travel FR,Suspension Travel RL,Suspension Travel RR,TC Active,TC Enabled,Throttle Pos,Tire Dirt Level FL,Tire Dirt Level FR,Tire Dirt Level RL,Tire Dirt Level RR,Tire Load FL,Tire Load FR,Tire Load RL,Tire Load RR,Tire Loaded Radius FL,Tire Loaded Radius FR,Tire Loaded Radius RL,Tire Loaded Radius RR,Tire Pressure FL,Tire Pressure FR,Tire Pressure RL,Tire Pressure RR,Tire Radius FL,Tire Radius FR,Tire Radius RL,Tire Radius RR,Tire Rubber Grip FL,Tire Rubber Grip FR,Tire Rubber Grip RL,Tire Rubber Grip RR,Tire Slip Angle FL,Tire Slip Angle FR,Tire Slip Angle RL,Tire Slip Angle RR,Tire Slip Ratio FL,Tire Slip Ratio FR,Tire Slip Ratio RL,Tire Slip Ratio RR,Tire Temp Core FL,Tire Temp Core FR,Tire Temp Core RL,Tire Temp Core RR,Tire Temp Inner FL,Tire Temp Inner FR,Tire Temp Inner RL,Tire Temp Inner RR,Tire Temp Middle FL,Tire Temp Middle FR,Tire Temp Middle RL,Tire Temp Middle RR,Tire Temp Outer FL,Tire Temp Outer FR,Tire Temp Outer RL,Tire Temp Outer RR,Toe In FL,Toe In FR,Toe In RL,Toe In RR,Turbo Boost,Wheel Angular Speed FL,Wheel Angular Speed FR,Wheel Angular Speed RL,Wheel Angular Speed RR,Wind Direction,Wind Speed
0,0.0,0.0,0.0,1.0,1.0,0.0,0.0,1.0,0.0,100.0,1.0,1.1856,26.0,0.0,0.0,0.0,59.99999,0.0,26.0,26.0,26.0,26.0,-0.029888888888888854,0.29400000000000004,0.22160000000000002,277.2065,-2.6262,-2.432125,-1.8043,-1.7422222222222221,-275.47,215.39499999999998,190.970625,0.0,0.0,0.0,0.0,0.0016999999999999238,-5.498166666666667,-5.498166666666667,-0.47450000000000003,2.1373333333333338,0.00022222222222212373,-0.5129999999999999,65.649,-0.023,-0.12638333333333332,0.09200000000000053,100.0,1.0,1.0,202.79333333333335,0.0,0.0,0.0,0.0,0.0,0.0,0.0,8595.7,0.0,55.0,5.0,236.30666666666667,0.0,0.0,0.0,0.0,0.0,0.0,0.0,0.0,0.006000000000000227,0.006000000000000227,0.0,0.0,0.0,55.0,616.79921,10000.0,85.0,85.0,85.0,85.0,395.0,0.0,0.0,0.0,1.0,20.0,36.835,36.835,30.700499999999998,30.700499999999998,34.0,-27.13,28.818,-30.5,28.32,0.0,1783.514,0.15500000000000114,100.0,18.6775,19.3275,24.344,24.1465,0.0,0.0,100.0,0.0,0.0,0.0,0.0,3702.857142857143,4716.6,3922.25,3960.3,303.504,300.006,315.34225,315.05325,21.7577,20.5669,21.7672,21.3417,314.99999,314.99999,324.99998,324.99998,99.55778571428571,99.50885,99.56561428571429,99.54675714285715,0.10549999999999993,-0.15074999999999994,-0.133,0.09650000000000003,-0.05833333333333002,-0.054999999999999716,1.6305,1.6219999999999999,36.986000000000004,29.543,37.045,34.3855,55.954,35.4885,59.4535,52.399,53.936,34.635999999999996,57.804,50.5725,53.158,34.2205,57.4965,49.83566666666667,-0.1339999999999999,-0.16700000000000026,0.10686000000000001,0.11092,0.0,205.715,205.67000000000002,202.79333333333335,202.79333333333335,0.0,0.0
1,0.0,0.0,0.0,1.0,1.0,0.0,0.0,1.0,0.0,100.0,1.0,1.1856,26.0,0.0,0.0,0.0,59.999996,0.0,26.0,26.0,26.0,26.0,-0.06333333333333335,0.31610000000000005,0.3528333333333334,276.79449999999997,-2.5237,-2.5235,-1.8515000000000001,-1.6955555555555557,-271.92,215.4,190.949625,0.0,0.0,0.0,0.0,0.003766666666666585,-5.498166666666667,-5.498166666666667,-0.3836,-2.8983333333333334,-0.043333333333333446,-1.1470000000000002,65.82,-0.0212,-0.10536666666666668,0.476,100.0,1.0,1.0,202.64,0.0,0.0,0.0,0.0,0.0,0.0,0.0,8589.2,0.0,55.0,5.0,236.92000000000002,1.0,0.0,0.0,0.0,0.0,0.0,0.0,0.0,0.05999999999999872,0.05999999999999872,0.0,0.0,1.0,55.0,616.79921,10000.0,85.000001,85.000001,85.000001,85.000001,395.0,0.0,0.0,0.0,1.0,166.665,41.748,41.748,29.2055,29.2055,34.0,-18.755,14.178,-41.542500000000004,34.9275,0.0,1783.462,0.28500000000000014,100.0,18.8395,18.378,26.816,28.433500000000002,0.0,0.0,100.0,0.0,0.0,0.0,0.0,2896.0,2558.4,4739.5,4695.6,306.059,306.68666666666667,313.10275,312.3475,21.7682,20.5726,21.7789,21.3519,314.999998,314.999998,324.999988,324.999988,99.55781428571429,99.50886666666666,99.56578571428571,99.5469,0.12024999999999997,-0.17049999999999998,-0.1326666666666666,0.0641666666666667,-0.015000000000000568,-0.030000000000001137,1.2704999999999997,1.303,37.051,29.5785,37.117999999999995,34.449,55.943,35.528,59.503,52.4705,53.926,34.6725,57.8505,50.6405,53.1475,34.256,57.539500000000004,49.902,-0.131,-0.16433333333333344,0.10311000000000001,0.10665500000000001,0.0,206.155,206.10500000000002,202.64,202.64,0.0,0.0
2,0.0,0.0,0.0,1.0,1.0,0.0,0.0,1.0,0.0,100.0,1.0,1.1856,26.0,0.0,0.0,0.0,59.999996,0.0,26.0,26.0,26.0,26.0,-0.08877777777777784,0.30190000000000006,-0.15333333333333332,279.236,-2.5074,-2.476125,-1.8083,-1.7324444444444445,-268.56,215.405,190.9315,0.0,0.0,0.0,0.0,0.005733333333333368,-5.498166666666667,-5.498166666666667,-0.4922,1.2083333333333333,0.0033333333333331883,2.644,65.952,-0.024,-0.1742166666666667,0.6760000000000002,100.0,1.0,1.0,204.2,0.0,0.0,0.0,0.0,0.0,0.0,0.0,8655.3,0.0,55.0,5.0,237.39333333333332,0.0,0.0,0.0,0.0,0.0,0.0,0.0,0.0,0.11100000000000065,0.11100000000000065,0.0,0.0,0.0,55.0,616.79921,10000.0,85.000001,85.000001,85.000001,85.000001,395.0,0.0,0.0,0.0,1.0,166.665,39.795,39.795,33.8745,33.8745,34.0,-23.5525,17.92,-25.237499999999997,21.115000000000002,0.0,1783.411,0.4499999999999993,100.0,19.1815,18.5095,24.959,24.781,0.0,0.0,100.0,0.0,0.0,0.0,0.0,3310.285714285714,3278.3,3355.75,3305.8,304.5545,304.358,316.68775,316.765,21.7784,20.5782,21.789,21.3602,314.999998,314.999998,324.999988,324.999988,99.55781428571429,99.5089,99.56591428571429,99.54702857142857,0.08899999999999997,-0.18299999999999994,-0.15566666666666662,0.08233333333333337,-0.05333333333332746,-0.046666666666666856,1.8624999999999998,1.8725,37.114999999999995,29.613500000000002,37.181,34.501,55.936,35.5715,59.534,52.513999999999996,53.919,34.713,57.879,50.6825,53.1395,34.2945,57.5655,49.943,-0.10899999999999999,-0.18466666666666676,0.104855,0.11249500000000001,0.0,206.62,206.555,204.2,204.2,0.0,0.0
3,0.0,0.0,0.0,1.0,1.0,0.0,0.0,1.0,0.0,100.0,1.0,1.1856,26.0,0.0,0.0,0.0,59.999996,0.0,26.0,26.0,26.0,26.0,-0.07344444444444442,0.31220000000000003,-0.029300000000000003,278.2135,-2.5273,-2.5107500000000003,-1.7862,-1.7082222222222223,-265.59,215.4075,190.91325,0.0,0.0,0.0,0.0,0.0074666666666665105,-5.498166666666667,-5.498166666666667,-0.40490000000000004,0.8300000000000001,0.011111111111111072,-2.3260000000000005,66.094,-0.038,-0.07236666666666666,0.7220000000000004,100.0,1.0,1.0,203.80333333333334,0.0,0.0,0.0,0.0,0.0,0.0,0.0,8638.5,0.0,55.0,5.0,237.90666666666667,1.0,0.0,0.0,0.0,0.0,0.0,0.0,0.0,0.1559999999999988,0.1559999999999988,0.0,0.0,1.0,55.0,616.79921,10000.0,85.000001,85.000001,85.000001,85.000001,395.0,0.0,0.0,0.0,1.0,166.665,41.443,41.443,30.2885,30.2885,34.0,-20.037499999999998,16.13,-37.9725,30.265,0.0,1783.367,0.46000000000000085,100.0,18.4695,18.356,25.203,25.4035,0.0,0.0,100.0,0.0,0.0,0.0,0.0,2903.0,2931.3,4520.875,4376.1,306.0855,305.3093333333333,313.8565,313.8575,21.787,20.5832,21.7982,21.3683,314.999998,314.999998,324.999988,324.999988,99.55782857142857,99.50891666666666,99.56604285714286,99.54717142857143,0.09000000000000008,-0.18399999999999994,-0.14949999999999997,0.05883333333333329,-0.04333333333332945,-0.03499999999999659,1.4419999999999997,1.4905,37.169,29.645,37.239000000000004,34.552,55.924,35.6115,59.5685,52.573,53.908,34.75,57.911500000000004,50.7385,53.1275,34.33,57.5955,49.998,-0.11299999999999999,-0.18133333333333335,0.10828000000000002,0.10686000000000001,0.0,207.10500000000002,207.0,203.80333333333334,203.80333333333334,0.0,0.0
4,0.0,0.0,0.0,1.0,1.0,0.0,0.0,1.0,0.0,100.0,1.0,1.1856,26.0,0.0,0.0,0.0,59.999996,0.0,26.0,26.0,26.0,26.0,-0.08799999999999997,0.28910000000000013,-0.021466666666666665,278.5185,-2.5087,-2.581375,-1.7248999999999999,-1.8262222222222222,-262.21,215.4075,190.893875,0.0,0.0,0.0,0.0,0.009433333333333294,-5.498166666666667,-5.498166666666667,-0.4403,-1.0963333333333334,-0.04144444444444417,0.5840000000000001,66.238,-0.046200000000000005,-0.13118333333333332,0.8979999999999997,100.0,1.0,1.0,204.46,0.0,0.0,0.0,0.0,0.0,0.0,0.0,8666.4,0.0,55.0,5.0,238.43,0.0,0.0,0.0,0.0,0.0,0.0,0.0,0.0,0.20700000000000074,0.20700000000000074,0.0,0.0,0.0,55.0,616.79921,10000.0,85.000001,85.000001,85.000001,85.000001,395.0,0.0,0.0,0.0,1.0,166.665,40.955,40.955,31.5245,31.5245,34.0,-23.1925,17.39,-32.0125,26.8725,0.0,1783.314,0.5250000000000021,100.0,18.5275,17.7495,26.149,25.484,0.0,0.0,100.0,0.0,0.0,0.0,0.0,3226.5714285714284,3089.0,4004.25,3848.6000000000004,304.934,305.10366666666664,315.0185,315.27825,21.7969,20.5887,21.809,21.3774,314.999998,314.999998,324.999988,324.999988,99.55784285714286,99.50893333333333,99.56618571428571,99.5473,0.07925000000000004,-0.18799999999999994,-0.15983333333333338,0.06000000000000005,-0.03333333333333144,-0.05666666666667197,1.5785,1.603,37.230999999999995,29.679000000000002,37.306,34.609,55.913,35.6535,59.6115,52.6315,53.897,34.789,57.951499999999996,50.7945,53.116,34.3675,57.6325,50.05233333333334,-0.10099999999999998,-0.18766666666666643,0.10458500000000001,0.10608000000000001,0.0,207.47,207.405,204.46,204.46,0.0,0.0
5,0.0,0.0,0.0,1.0,1.0,0.0,0.0,1.0,0.0,100.0,1.0,1.1856,26.0,0.0,0.0,0.0,59.999996,0.0,26.0,26.0,26.0,26.0,-0.07655555555555549,0.29610000000000003,-0.0356,278.946,-2.4866,-2.555625,-1.7775,-1.8016666666666667,-258.63,215.405,190.872875,0.0,0.0,0.0,0.0,0.011499999999999955,-5.498166666666667,-5.498166666666667,-0.4469,0.6776666666666666,-0.022333333333333094,0.7439999999999998,66.391,-0.0627,-0.1165,0.8860000000000001,100.0,1.0,1.0,205.04666666666668,0.0,0.0,0.0,0.0,0.0,0.0,0.0,8691.1,0.0,55.0,5.0,238.98000000000002,1.0,0.0,0.0,0.0,0.0,0.0,0.0,0.0,0.26099999999999923,0.26099999999999923,0.0,0.0,1.0,55.0,616.79921,10000.0,85.000001,85.000001,85.000001,85.000001,395.0,0.0,0.0,0.0,1.0,166.665,41.29,41.29,32.028,32.028,34.0,-21.105,17.485999999999997,-32.0875,26.95,0.0,1783.262,0.1700000000000017,100.0,18.4865,17.8205,25.563,24.85,0.0,0.0,100.0,0.0,0.0,0.0,0.0,3044.857142857143,3055.0,3876.5,3976.0,305.428,305.1236666666667,315.40425,315.053,21.8075,20.5946,21.82,21.3868,314.999998,314.999998,324.999988,324.999988,99.55785714285715,99.50895,99.56634285714286,99.54744285714285,0.08949999999999991,-0.17699999999999994,-0.1805,0.050999999999999934,-0.036666666666668846,-0.05666666666667197,1.6095000000000002,1.6400000000000001,37.297,29.7165,37.375,34.667,55.903,35.7005,59.65,52.6905,53.887,34.832499999999996,57.987,50.851,53.105000000000004,34.409,57.665,50.10733333333333,-0.12450000000000006,-0.15833333333333366,0.10673500000000001,0.11680000000000001,0.0,207.985,207.95,205.04666666666668,205.04666666666668,0.0,0.0
6,0.0,0.0,0.0,1.0,1.0,0.0,0.0,1.0,0.0,100.0,1.0,1.1856,26.0,0.0,0.0,0.0,59.999996,0.0,26.0,26.0,26.0,26.0,-0.08444444444444443,0.28200000000000003,0.007966666666666667,278.7325,-2.5183999999999997,-2.544125,-1.7243,-1.8153333333333332,-255.44,215.4025,190.853375,0.0,0.0,0.0,0.0,0.013366666666666527,-5.498166666666667,-5.498166666666667,-0.4373,-0.365,-0.04122222222222227,0.5899999999999999,66.532,-0.0665,-0.09958333333333334,0.7679999999999998,100.0,1.0,1.0,205.30333333333334,0.0,0.0,0.0,0.0,0.0,0.0,0.0,8702.1,0.0,55.0,5.0,239.48333333333335,0.0,0.0,0.0,0.0,0.0,0.0,0.0,0.0,0.30900000000000105,0.30900000000000105,0.0,0.0,0.0,55.0,616.79921,10000.0,85.000001,85.000001,85.000001,85.000001,395.0,0.0,0.0,0.0,1.0,166.665,41.504,41.504,31.6315,31.6315,34.0,-23.32,16.65,-33.9725,28.395,0.0,1783.214,0.33500000000000085,100.0,18.2245,17.360500000000002,25.802,25.005000000000003,0.0,0.0,100.0,0.0,0.0,0.0,0.0,3200.4285714285716,3018.1,4093.0,4064.6000000000004,305.0525,305.37466666666666,314.7895,314.774,21.8167,20.5998,21.8299,21.3953,314.999998,314.999998,324.999988,324.999988,99.55785714285715,99.50898333333333,99.56647142857143,99.54758571428572,0.07325000000000004,-0.18574999999999997,-0.1755,0.05383333333333318,-0.04333333333332945,-0.046666666666666856,1.5139999999999998,1.563,37.355000000000004,29.7485,37.437,34.7205,55.891,35.74,59.688,52.747,53.876000000000005,34.869,58.0225,50.905,53.093,34.4445,57.6975,50.16,-0.10999999999999988,-0.16700000000000026,0.10349000000000001,0.10847000000000001,0.0,208.425,208.34,205.30333333333334,205.30333333333334,0.0,0.0
7,0.0,0.0,0.0,1.0,1.0,0.0,0.0,1.0,0.0,100.0,1.0,1.1856,26.0,0.0,0.0,0.0,59.999996,0.0,26.0,26.0,26.0,26.0,-0.07666666666666666,0.28880000000000017,-0.022833333333333334,278.61,-2.5204,-2.5997500000000002,-1.7798,-1.7718888888888888,-252.25,215.3975,190.833875,0.0,0.0,0.0,0.0,0.015233333333333321,-5.498166666666667,-5.498166666666667,-0.44470000000000004,0.007,-0.03111111111111109,1.4129999999999998,66.668,-0.06960000000000001,-0.11058333333333333,0.516,100.0,1.0,1.0,205.77666666666667,0.0,0.0,0.0,0.0,0.0,0.0,0.0,8722.2,0.0,55.0,5.0,239.97333333333333,1.0,0.0,0.0,0.0,0.0,0.0,0.0,0.0,0.3569999999999993,0.3569999999999993,0.0,0.0,1.0,55.0,616.79921,10000.0,85.000001,85.000001,85.000001,85.000001,395.0,0.0,0.0,0.0,1.0,333.33500000000004,41.122,41.122,31.54,31.54,34.0,-21.965,18.502000000000002,-34.58,27.285,0.0,1783.164,-0.10999999999999943,100.0,18.5335,17.704,25.852,25.0045,0.0,0.0,100.0,0.0,0.0,0.0,0.0,3185.142857142857,3057.1,4080.0,4000.9,305.0295,305.15366666666665,314.87075,315.008,21.8261,20.605,21.8399,21.4038,314.999998,314.999998,324.999988,324.999988,99.55787142857143,99.509,99.56661428571428,99.54771428571429,0.10250000000000004,-0.16300000000000003,-0.1818333333333334,0.056499999999999995,-0.036666666666668846,-0.06333333333333258,1.5579999999999998,1.5755,37.413,29.7815,37.498999999999995,34.7735,55.882,35.781,59.725,52.8015,53.867999999999995,34.907,58.057,50.957,53.084,34.4805,57.7295,50.21066666666667,-0.15599999999999992,-0.12933333333333374,0.10666,0.123325,0.0,208.825,208.775,205.77666666666667,205.77666666666667,0.0,0.0
8,0.0,0.0,0.0,1.0,1.0,0.0,0.0,1.0,0.0,100.0,1.0,1.1856,26.0,0.0,0.0,0.0,59.999996,0.0,26.0,26.0,26.0,26.0,-0.06599999999999995,0.28490000000000015,-0.02723333333333333,278.6255,-2.5285,-2.55275,-1.7894,-1.7875555555555558,-248.64,215.39,190.812,0.0,0.0,0.0,0.0,0.01733333333333331,-5.498166666666667,-5.498166666666667,-0.44870000000000004,-0.012666666666666666,-0.02388888888888907,0.1719999999999997,66.821,-0.0592,-0.11575,0.17600000000000016,100.0,1.0,1.0,206.25666666666666,0.0,0.0,0.0,0.0,0.0,0.0,0.0,8742.4,0.0,55.0,5.0,240.5233333333333,0.0,0.0,0.0,0.0,0.0,0.0,0.0,0.0,0.41100000000000136,0.41100000000000136,0.0,0.0,0.0,55.0,616.79921,10000.0,85.000001,85.000001,85.000001,85.000001,395.0,0.0,0.0,0.0,1.0,166.665,41.061,41.061,31.3265,31.3265,34.0,-21.23,19.054000000000002,-33.0775,27.4475,0.0,1783.111,-0.21499999999999986,100.0,18.355,17.9375,25.796,25.179000000000002,0.0,0.0,100.0,0.0,0.0,0.0,0.0,3127.285714285714,3147.0,4024.75,3978.0,305.2645,304.838,315.01425,315.02925,21.8365,20.6111,21.851,21.4134,314.999998,314.999998,324.999988,324.999988,99.55788571428572,99.50903333333333,99.56675714285714,99.54787142857143,0.10875000000000012,-0.15549999999999997,-0.16116666666666657,0.06000000000000005,-0.03833333333332689,-0.03499999999999659,1.5735000000000001,1.591,37.477999999999994,29.819,37.569,34.834,55.872,35.8275,59.7655,52.8645,53.857,34.9495,58.095,51.0175,53.0725,34.5215,57.7645,50.269333333333336,-0.15549999999999997,-0.12700000000000022,0.10632000000000001,0.10555500000000001,0.0,209.285,209.255,206.25666666666666,206.25666666666666,0.0,0.0
9,0.0,0.0,0.0,1.0,1.0,0.0,0.0,1.0,0.0,100.0,1.0,1.1856,26.0,0.0,0.0,0.0,59.999996,0.0,26.0,26.0,26.0,26.0,-0.031000000000000028,0.2943,-0.006200000000000001,278.3965,-2.5101,-2.5455,-1.7758,-1.788888888888889,-245.63,215.3825,190.7935,0.0,0.0,0.0,0.0,0.019066666666666565,-5.498166666666667,-5.498166666666667,-0.44470000000000004,0.18166666666666667,-0.03688888888888897,-0.7270000000000003,66.94800000000001,-0.044500000000000005,-0.10945,0.020000000000000462,100.0,1.0,1.0,206.61,0.0,0.0,0.0,0.0,0.0,0.0,0.0,8757.5,0.0,55.0,5.0,240.98333333333335,1.0,0.0,0.0,0.0,0.0,0.0,0.0,0.0,0.4559999999999995,0.4559999999999995,0.0,0.0,1.0,55.0,616.79921,10000.0,85.000001,85.000001,85.000001,85.000001,395.0,0.0,0.0,0.0,1.0,166.665,40.833,40.833,31.479,31.479,34.0,-22.099999999999998,18.502000000000002,-33.39,28.565,0.0,1783.066,-0.3049999999999997,100.0,18.39,18.096,25.692,25.3485,0.0,0.0,100.0,0.0,0.0,0.0,0.0,3307.714285714286,3044.8,4101.0,4035.0,304.8755,305.013,314.9155,314.80875,21.8453,20.6161,21.8603,21.4214,314.999998,314.999998,324.999988,324.999988,99.5579,99.50903333333333,99.56688571428572,99.54798571428572,0.11325000000000007,-0.15325,-0.15716666666666657,0.06699999999999995,-0.04833333333333201,-0.054999999999999716,1.561,1.5575,37.533,29.8505,37.626999999999995,34.884,55.864999999999995,35.8645,59.7995,52.916,53.851,34.984,58.126999999999995,51.0665,53.065,34.5545,57.794,50.317,-0.17049999999999987,-0.11466666666666647,0.10426,0.10632000000000001,0.0,209.685,209.66500000000002,206.61,206.61,0.0,0.0
10,0.0,0.0,0.0,1.0,1.0,0.0,0.0,1.0,0.0,100.0,1.0,1.1856,26.0,0.0,0.0,0.0,59.999996,0.0,26.0,26.0,26.0,26.0,-0.012777777777777777,0.28590000000000004,-0.0005333333333333334,278.3815,-2.5204,-2.5205,-1.7962,-1.7678888888888888,-242.01,215.3725,190.7715,0.0,0.0,0.0,0.0,0.021166666666666556,-5.498166666666667,-5.498166666666667,-0.4424,-0.3186666666666667,-0.007000000000000117,-0.23000000000000043,67.101,-0.0233,-0.11081666666666667,-0.20000000000000018,100.0,1.0,1.0,207.01999999999998,0.0,0.0,0.0,0.0,0.0,0.0,0.0,8774.8,0.0,55.0,5.0,241.53333333333333,0.0,0.0,0.0,0.0,0.0,0.0,1.0,0.0,0.509999999999998,0.509999999999998,0.0,0.0,0.0,55.0,616.79921,10000.0,85.000001,85.000001,85.000001,85.000001,395.0,0.0,0.0,0.0,1.0,166.665,41.153,41.153,31.2345,31.2345,34.0,-20.4975,18.881999999999998,-32.97,30.5325,0.0,1783.012,-0.34999999999999787,100.0,18.2315,18.05,25.769,25.6405,0.0,0.0,100.0,0.0,0.0,0.0,0.0,3169.857142857143,3052.8,4094.0,4155.4,305.2945,305.0036666666667,314.9075,314.48025,21.8557,20.622,21.8715,21.4311,314.999998,314.999998,324.999988,324.999988,99.55791428571429,99.50906666666667,99.56704285714285,99.54814285714286,0.12725000000000009,-0.14024999999999999,-0.1406666666666666,0.08816666666666673,-0.061666666666667425,-0.05833333333333002,1.5339999999999998,1.5385,37.598,29.8875,37.697,34.9445,55.855999999999995,35.908500000000004,59.841,52.9795,53.843,35.0245,58.1655,51.1275,53.056,34.5935,57.829,50.376333333333335,-0.17199999999999993,-0.11533333333333351,0.10534,0.10883000000000001,0.0,210.15,210.155,207.01999999999998,207.01999999999998,0.0,0.0
11,0.0,0.0,0.0,1.0,1.0,0.0,0.0,1.0,0.0,100.0,1.0,1.1856,26.0,0.0,0.0,0.0,59.999996,0.0,26.0,26.0,26.0,26.0,0.020444444444444487,0.28100000000000014,-0.02036666666666667,278.6405,-2.5538,-2.52,-1.7958,-1.744,-238.59,215.3625,190.750375,0.0,0.0,0.0,0.0,0.022599999999999953,-5.498166666666667,-5.498166666666667,-0.4631,-0.19066666666666665,0.017222222222222028,0.6959999999999997,67.243,-0.0095,-0.11948333333333333,-0.35799999999999965,100.0,1.0,1.0,207.55666666666667,0.0,0.0,0.0,0.0,0.0,0.0,0.0,8797.5,0.0,55.0,5.0,242.04333333333335,1.0,0.0,0.0,0.0,0.0,0.0,1.0,0.0,0.5609999999999999,0.5609999999999999,0.0,0.0,1.0,55.0,616.79921,10000.0,85.000001,85.000001,85.000001,85.000001,395.0,0.0,0.0,0.0,1.0,166.665,41.077,41.077,31.769,31.769,34.0,-18.6825,21.83,-29.185,30.7725,0.0,1782.96,-0.625,100.0,18.205,17.9655,25.534,25.505000000000003,0.0,0.0,100.0,0.0,0.0,0.0,0.0,3084.857142857143,3244.7,3863.875,4075.7,305.392,304.583,315.4315,314.77525,21.8653,20.6278,21.8819,21.4402,314.999998,314.999998,324.999988,324.999988,99.55794285714286,99.50908333333334,99.56718571428571,99.54828571428571,0.16399999999999992,-0.10275000000000001,-0.11099999999999999,0.11933333333333329,-0.036666666666668846,-0.04999999999999716,1.589,1.573,37.658,29.9235,37.762,35.0015,55.848,35.9495,59.8765,53.0385,53.834,35.0625,58.198499999999996,51.184,53.0465,34.629999999999995,57.8595,50.431333333333335,-0.1844999999999999,-0.09766666666666657,0.107895,0.10735000000000001,0.0,210.57,210.585,207.55666666666667,207.55666666666667,0.0,0.0
12,0.0,0.0,0.0,1.0,1.0,0.0,0.0,1.0,0.0,100.0,1.0,1.1856,26.0,0.0,0.0,0.0,59.999996,0.0,26.0,26.0,26.0,26.0,0.012222222222222134,0.2864,0.013466666666666667,278.2595,-2.5448,-2.50775,-1.7984,-1.7621111111111112,-235.56,215.35500000000002,190.731,0.0,0.0,0.0,0.0,0.025466666666666526,-5.498166666666667,-5.498166666666667,-0.45320000000000005,0.4003333333333333,0.015222222222222026,-0.9720000000000004,67.369,0.0066,-0.10110000000000001,-0.3719999999999999,100.0,1.0,1.0,207.87333333333333,0.0,0.0,0.0,0.0,0.0,0.0,0.0,8811.0,0.0,55.0,5.0,242.49666666666667,0.0,0.0,0.0,0.0,0.0,0.0,1.0,0.0,0.6059999999999981,0.6059999999999981,0.0,0.0,0.0,55.0,616.79921,10000.0,85.000001,85.000001,85.000001,85.000001,395.0,0.0,0.0,0.0,1.0,166.665,40.787,40.787,31.143,31.143,34.0,-20.3825,19.906,-31.3825,32.1025,0.0,1782.916,-0.3200000000000003,100.0,18.194,18.4015,25.399,25.5995,0.0,0.0,100.0,0.0,0.0,0.0,0.0,3197.285714285714,3179.2,4115.5,4168.7,305.217,304.59,314.891,314.509,21.8739,20.6329,21.8911,21.4483,314.999998,314.999998,324.999988,324.999988,99.55795714285715,99.50908333333334,99.56731428571429,99.54841428571429,0.13949999999999996,-0.13549999999999995,-0.10699999999999998,0.12050000000000005,-0.04999999999999716,-0.05833333333333002,1.5575,1.5474999999999999,37.712,29.956,37.819,35.0515,55.842,35.9865,59.909,53.0905,53.829,35.097,58.2285,51.2335,53.04,34.663,57.887,50.480000000000004,-0.16049999999999986,-0.1306666666666665,0.10453000000000001,0.10724,0.0,210.97,211.01,207.87333333333333,207.87333333333333,0.0,0.0
13,0.0,0.0,0.0,1.0,1.0,0.0,0.0,1.0,0.0,100.0,1.0,1.1856,26.0,0.0,0.0,0.0,59.999996,0.0,26.0,26.0,26.0,26.0,0.04322222222222227,0.28090000000000015,0.023433333333333334,278.0455,-2.5263,-2.526875,-1.828,-1.772888888888889,-232.12,215.345,190.709375,0.0,0.0,0.0,0.0,0.026933333333333365,-5.498166666666667,-5.498166666666667,-0.45030000000000003,-0.28200000000000003,0.013666666666666716,1.0989999999999998,67.511,0.01,-0.11228333333333333,-0.3779999999999992,100.0,1.0,1.0,208.24,0.0,0.0,0.0,0.0,0.0,0.0,0.0,8826.5,0.0,55.0,5.0,243.01,1.0,0.0,0.0,0.0,0.0,0.0,1.0,0.0,0.657,0.657,0.0,0.0,1.0,55.0,616.79921,10000.0,85.000001,85.000001,85.000001,85.000001,395.0,0.0,0.0,0.0,1.0,333.33500000000004,40.726,40.726,31.021,31.021,34.0,-17.7975,22.16,-30.990000000000002,34.0625,0.0,1782.863,-0.384999999999998,100.0,18.528,18.301000000000002,25.869,25.919,0.0,0.0,100.0,0.0,0.0,0.0,0.0,3100.0,3233.7,4055.375,4282.5,305.315,304.62766666666664,314.9445,314.288,21.8836,20.6387,21.901699999999998,21.4575,314.999998,314.999998,324.999988,324.999988,99.55797142857143,99.5091,99.56745714285714,99.54855714285715,0.1805000000000001,-0.09499999999999997,-0.09716666666666662,0.13366666666666682,-0.02833333333332888,-0.051666666666669414,1.5350000000000001,1.52,37.772999999999996,29.991999999999997,37.885999999999996,35.1095,55.836,36.028,59.948,53.1515,53.823,35.135,58.265,51.292500000000004,53.033,34.6995,57.920500000000004,50.537,-0.17700000000000005,-0.11433333333333362,0.103535,0.11329000000000002,0.0,211.385,211.42000000000002,208.24,208.24,0.0,0.0
14,0.0,0.0,0.0,1.0,1.0,0.0,0.0,1.0,0.0,100.0,1.0,1.1856,26.0,0.0,0.0,0.0,59.999996,0.0,26.0,26.0,26.0,26.0,0.043888888888888866,0.28310000000000013,-0.03396666666666667,278.3815,-2.5747,-2.540125,-1.8285,-1.7672222222222222,-228.47,215.3375,190.68675,0.0,0.0,0.0,0.0,0.029033333333333355,-5.498166666666667,-5.498166666666667,-0.46190000000000003,0.007333333333333333,0.02677777777777779,0.8500000000000001,67.65899999999999,0.014100000000000001,-0.11931666666666668,-0.45399999999999974,100.0,1.0,1.0,208.80333333333334,0.0,0.0,0.0,0.0,0.0,0.0,0.0,8850.4,0.0,55.0,5.0,243.54000000000002,0.0,0.0,0.0,0.0,0.0,0.0,1.0,0.0,0.7109999999999985,0.7109999999999985,0.0,0.0,0.0,55.0,616.79921,10000.0,85.000001,85.000001,85.000001,85.000001,395.0,0.0,0.0,0.0,1.0,166.665,40.909,40.909,31.494,31.494,34.0,-18.245,21.906,-29.0125,32.307500000000005,0.0,1782.81,-0.4399999999999977,100.0,18.4315,18.3095,25.635,25.865000000000002,0.0,0.0,100.0,0.0,0.0,0.0,0.0,3087.857142857143,3188.0,3938.0,4085.5,305.427,304.72633333333334,315.26925,314.736,21.8939,20.6449,21.9127,21.4672,314.999998,314.999998,324.999988,324.999988,99.558,99.50911666666667,99.5676,99.54871428571428,0.17799999999999994,-0.09650000000000003,-0.08416666666666661,0.14116666666666666,-0.03333333333333144,-0.046666666666666856,1.5884999999999998,1.5665,37.837,30.031,37.955,35.17,55.829,36.0715,59.986,53.2145,53.816,35.1755,58.3,51.3525,53.025,34.7385,57.9525,50.595666666666666,-0.18100000000000005,-0.1113333333333335,0.09871,0.10969000000000001,0.0,211.85500000000002,211.88,208.80333333333334,208.80333333333334,0.0,0.0
15,0.0,0.0,0.0,1.0,1.0,0.0,0.0,1.0,0.0,100.0,1.0,1.1856,26.0,0.0,0.0,0.0,59.999996,0.0,26.0,26.0,26.0,26.0,0.043888888888888866,0.272,-0.03256666666666667,278.351,-2.5103,-2.5205,-1.8343,-1.7923333333333333,-225.42000000000002,215.32999999999998,190.6675,0.0,0.0,0.0,0.0,0.03083333333333338,-5.498166666666667,-5.498166666666667,-0.4541,0.20800000000000002,0.025222222222222035,-0.8620000000000001,67.783,0.0212,-0.10571666666666668,-0.4220000000000006,100.0,1.0,1.0,209.15,0.0,0.0,0.0,0.0,0.0,0.0,0.0,8865.1,0.0,55.0,5.0,243.98666666666668,1.0,0.0,0.0,0.0,0.0,0.0,1.0,0.0,0.7560000000000002,0.7560000000000002,0.0,0.0,1.0,55.0,616.79921,10000.0,85.000001,85.000001,85.000001,85.000001,395.0,0.0,0.0,0.0,1.0,166.665,40.97,40.97,31.296,31.296,34.0,-18.4325,20.228,-30.93,32.2225,0.0,1782.766,-0.3149999999999977,100.0,18.258,18.508,25.482,25.9735,0.0,0.0,100.0,0.0,0.0,0.0,0.0,3148.285714285714,3054.6,4087.875,4053.5,305.375,304.932,315.00275,314.75975,21.9024,20.6501,21.9219,21.4753,314.999998,314.999998,324.999988,324.999988,99.55801428571428,99.50913333333334,99.56772857142857,99.54884285714286,0.16674999999999995,-0.11175000000000002,-0.09516666666666662,0.135,-0.04333333333332945,-0.041666666666671404,1.5670000000000002,1.5445,37.89,30.063499999999998,38.012,35.221000000000004,55.824,36.1075,60.018,53.266999999999996,53.811,35.209,58.33,51.403,53.019,34.7705,57.9795,50.644999999999996,-0.16999999999999993,-0.11966666666666637,0.11217,0.10382500000000001,0.0,212.255,212.26999999999998,209.15,209.15,0.0,0.0
16,0.0,0.0,0.0,1.0,1.0,0.0,0.0,1.0,0.0,100.0,1.0,1.1856,26.0,0.0,0.0,0.0,59.999996,0.0,26.0,26.0,26.0,26.0,0.035666666666666735,0.26270000000000016,-0.0083,278.1065,-2.5371,-2.4707500000000002,-1.8166,-1.7887777777777778,-221.96,215.325,190.6455,0.0,0.0,0.0,0.0,0.03283333333333338,-5.498166666666667,-5.498166666666667,-0.4647,-0.25133333333333335,0.02011111111111097,0.403,67.922,0.0257,-0.11853333333333334,-0.3020000000000005,100.0,1.0,1.0,209.57,0.0,0.0,0.0,0.0,0.0,0.0,0.0,8882.9,0.0,55.0,5.0,244.49333333333334,0.0,0.0,0.0,0.0,0.0,0.0,1.0,0.0,0.8069999999999986,0.8069999999999986,0.0,0.0,0.0,55.0,616.79921,10000.0,85.000001,85.000001,85.000001,85.000001,395.0,0.0,0.0,0.0,1.0,166.665,40.466,40.466,30.9755,30.9755,34.0,-18.49,22.284,-29.555,32.542500000000004,0.0,1782.716,-0.23999999999999844,100.0,18.425,18.484,25.802,25.991,0.0,0.0,100.0,0.0,0.0,0.0,0.0,3139.0,3356.3,3992.625,4030.8,305.199,304.25166666666667,315.08725,314.88875,21.912,20.6561,21.9325,21.4846,314.999998,314.999998,324.999988,324.999988,99.55804285714285,99.50913333333334,99.56788571428571,99.54898571428572,0.17375000000000007,-0.10124999999999995,-0.08499999999999996,0.14900000000000002,-0.03499999999999659,-0.060000000000002274,1.5699999999999998,1.5415,37.95,30.1005,38.078,35.2785,55.816,36.149,60.056,53.327,53.804,35.2475,58.3655,51.46,53.0105,34.808,58.012,50.70066666666666,-0.16100000000000003,-0.1280000000000001,0.11249,0.11153500000000001,0.0,212.67000000000002,212.695,209.57,209.57,0.0,0.0
17,0.0,0.0,0.0,1.0,1.0,0.0,0.0,1.0,0.0,100.0,1.0,1.1856,26.0,0.0,0.0,0.0,59.999996,0.0,26.0,26.0,26.0,26.0,0.04411111111111121,0.272,0.007633333333333333,278.015,-2.4945,-2.557125,-1.7762,-1.8106666666666669,-218.29,215.32,190.621875,0.0,0.0,0.0,0.0,0.03496666666666659,-5.498166666666667,-5.498166666666667,-0.4626,0.06266666666666666,-0.0024444444444444713,0.48599999999999977,68.07,0.0206,-0.1139,-0.20999999999999996,100.0,1.0,1.0,209.96666666666667,0.0,0.0,0.0,0.0,0.0,0.0,0.0,8899.7,0.0,55.0,5.0,245.02333333333334,1.0,0.0,0.0,0.0,0.0,0.0,1.0,0.0,0.8610000000000007,0.8610000000000007,0.0,0.0,1.0,55.0,616.79921,10000.0,85.000001,85.000001,85.000001,85.000001,395.0,0.0,0.0,0.0,1.0,166.665,40.68,40.68,30.8685,30.8685,34.0,-17.759999999999998,21.588,-30.45,33.9075,0.0,1782.662,-0.1750000000000007,100.0,18.646,18.5575,25.847,26.006500000000003,0.0,0.0,100.0,0.0,0.0,0.0,0.0,3060.714285714286,3169.5,4089.5,4182.0,305.404,304.71733333333333,314.8505,314.51475,21.9222,20.662399999999998,21.9436,21.4943,314.999998,314.999998,324.999988,324.999988,99.55805714285714,99.50915,99.56802857142857,99.54914285714285,0.16975000000000007,-0.10575000000000001,-0.09216666666666662,0.139,-0.03333333333333144,-0.060000000000002274,1.5270000000000001,1.5255,38.013999999999996,30.139499999999998,38.147,35.3395,55.81,36.1935,60.095,53.39,53.797,35.289,58.4015,51.521,53.003,34.8475,58.045,50.76,-0.15700000000000003,-0.13100000000000023,0.112085,0.10867,0.0,213.14,213.17000000000002,209.96666666666667,209.96666666666667,0.0,0.0
18,0.0,0.0,0.0,1.0,1.0,0.0,0.0,1.0,0.0,100.0,1.0,1.1856,26.0,0.0,0.0,0.0,59.999996,0.0,26.0,26.0,26.0,26.0,0.041888888888888864,0.2601,0.0007333333333333333,278.015,-2.4902,-2.5812500000000003,-1.7607,-1.8187777777777778,-215.22,215.315,190.602,0.0,0.0,0.0,0.0,0.036733333333333396,-5.498166666666667,-5.498166666666667,-0.4738,-0.3343333333333333,-0.0032222222222220154,-0.6520000000000001,68.19200000000001,0.0158,-0.1226,-0.12600000000000033,100.0,1.0,1.0,210.35000000000002,0.0,0.0,0.0,0.0,0.0,0.0,0.0,8916.0,0.0,55.0,5.0,245.46333333333334,0.0,0.0,0.0,0.0,0.0,0.0,1.0,0.0,0.9059999999999988,0.9059999999999988,0.0,0.0,0.0,55.0,616.79921,10000.0,85.000001,85.000001,85.000001,85.000001,395.0,0.0,0.0,0.0,1.0,166.665,40.558,40.558,31.1125,31.1125,34.0,-19.655,20.974,-30.3725,32.2375,0.0,1782.616,-0.16999999999999815,100.0,18.472,18.6535,25.858,26.209,0.0,0.0,100.0,0.0,0.0,0.0,0.0,3234.857142857143,3102.5,4029.25,4059.2,305.106,304.756,315.04225,314.6765,21.9307,20.6675,21.9528,21.5025,314.999998,314.999998,324.999988,324.999988,99.55807142857142,99.50916666666667,99.56815714285715,99.54927142857143,0.14949999999999997,-0.11699999999999999,-0.10766666666666658,0.12233333333333318,-0.036666666666668846,-0.03166666666666629,1.5339999999999998,1.523,38.067,30.172,38.205,35.3905,55.804,36.2295,60.1275,53.442499999999995,53.791,35.322,58.432,51.5715,52.995999999999995,34.8795,58.0725,50.809,-0.15700000000000003,-0.133,0.1121,0.10637500000000001,0.0,213.51,213.5,210.35000000000002,210.35000000000002,0.0,0.0
19,0.0,0.0,0.0,1.0,1.0,0.0,0.0,1.0,0.0,100.0,1.0,1.1856,26.0,0.0,0.0,0.0,59.999996,0.0,26.0,26.0,26.0,26.0,0.03955555555555579,0.27190000000000003,0.011766666666666668,277.8475,-2.4742,-2.546625,-1.7628,-1.8332222222222223,-211.74,215.31,190.57925,0.0,0.0,0.0,0.0,0.038766666666666505,-5.498166666666667,-5.498166666666667,-0.4621,0.5543333333333333,0.011888888888888838,0.875,68.32900000000001,0.0086,-0.10776666666666668,-0.06599999999999984,100.0,1.0,1.0,210.78333333333333,0.0,0.0,0.0,0.0,0.0,0.0,0.0,8934.3,0.0,55.0,5.0,245.95666666666665,1.0,0.0,0.0,0.0,0.0,0.0,1.0,0.0,0.9570000000000007,0.9570000000000007,0.0,0.0,1.0,55.0,616.79921,10000.0,85.000001,85.000001,85.000001,85.000001,395.0,0.0,0.0,0.0,1.0,333.33500000000004,40.344,40.344,31.0975,31.0975,34.0,-18.11,21.14,-30.0075,33.54,0.0,1782.563,-0.14499999999999957,100.0,19.0075,18.7635,25.851,26.130499999999998,0.0,0.0,100.0,0.0,0.0,0.0,0.0,3105.714285714286,3186.1,4038.625,4169.1,305.2805,304.686,315.00275,314.5305,21.9405,20.6735,21.9633,21.5117,314.999998,314.999998,324.999988,324.999988,99.5581,99.50918333333334,99.5683,99.54941428571429,0.1645000000000001,-0.11624999999999996,-0.09733333333333338,0.12766666666666682,-0.03166666666666629,-0.04999999999999716,1.5354999999999999,1.531,38.128,30.2095,38.269999999999996,35.448,55.799,36.2725,60.163,53.502,53.786,35.362,58.465,51.628,52.9895,34.918,58.103,50.864333333333335,-0.15999999999999992,-0.13533333333333353,0.10968000000000001,0.106505,0.0,213.95499999999998,213.95499999999998,210.78333333333333,210.78333333333333,0.0,0.0
20,0.0,0.0,0.0,1.0,1.0,0.0,0.0,1.0,0.0,100.0,1.0,1.1856,26.0,0.0,0.0,0.0,59.999996,0.0,26.0,26.0,26.0,26.0,0.007555555555555538,0.27090000000000014,-0.044533333333333334,277.9845,-2.5369,-2.5015,-1.8322,-1.7683333333333333,-208.05,215.3075,190.555625,0.0,0.0,0.0,0.0,0.040899999999999936,-5.498166666666667,-5.498166666666667,-0.4718,-0.661,0.008777777777777773,0.5289999999999999,68.474,0.0047,-0.12555,-0.07399999999999984,100.0,1.0,1.0,211.23000000000002,0.0,0.0,0.0,0.0,0.0,0.0,0.0,8953.2,0.0,55.0,5.0,246.48000000000002,0.0,0.0,0.0,0.0,0.0,0.0,0.0,0.0,1.0109999999999992,1.0109999999999992,0.0,0.0,0.0,55.0,616.79921,10000.0,85.000001,85.000001,85.000001,85.000001,395.0,0.0,0.0,0.0,1.0,166.665,40.649,40.649,30.761499999999998,30.761499999999998,34.0,-18.9425,20.848,-30.9575,31.052500000000002,0.0,1782.511,-0.14499999999999957,100.0,18.6065,18.5065,26.272,26.361,0.0,0.0,100.0,0.0,0.0,0.0,0.0,3105.0,3250.8,4004.125,4029.0,305.3485,304.5853333333333,315.06975,314.9315,21.9506,20.6798,21.9745,21.5216,314.999998,314.999998,324.999988,324.999988,99.55811428571428,99.5092,99.56847142857143,99.54957142857143,0.15850000000000009,-0.12149999999999994,-0.10533333333333339,0.1260000000000001,-0.036666666666668846,-0.051666666666669414,1.5499999999999998,1.5594999999999999,38.191,30.2485,38.34,35.51,55.79,36.317,60.204,53.566,53.778,35.403,58.5035,51.6895,52.9805,34.957,58.1375,50.924,-0.15900000000000003,-0.1323333333333334,0.10956,0.10938,0.0,214.37,214.37,211.23000000000002,211.23000000000002,0.0,0.0
21,0.0,0.0,0.0,1.0,1.0,0.0,0.0,1.0,0.0,100.0,1.0,1.1856,26.0,0.0,0.0,0.0,59.999996,0.0,26.0,26.0,26.0,26.0,0.017888888888888843,0.26980000000000004,-0.0392,278.0455,-2.5553,-2.469875,-1.7917,-1.7590000000000001,-204.95999999999998,215.305,190.53525,0.0,0.0,0.0,0.0,0.04269999999999996,-5.498166666666667,-5.498166666666667,-0.4853,0.112,-0.0007777777777779882,-0.6740000000000004,68.593,0.0031000000000000003,-0.11793333333333333,-0.002000000000000668,100.0,1.0,1.0,211.66,0.0,0.0,0.0,0.0,0.0,0.0,0.0,8971.6,0.0,55.0,5.0,246.91,1.0,0.0,0.0,0.0,0.0,0.0,0.0,0.0,1.056000000000001,1.056000000000001,0.0,0.0,1.0,55.0,616.79921,10000.0,85.000001,85.000001,85.000001,85.000001,395.0,0.0,0.0,0.0,1.0,333.33500000000004,40.421,40.421,31.2805,31.2805,34.0,-20.9225,20.266,-30.377499999999998,30.135,0.0,1782.464,-0.16000000000000014,100.0,18.5285,18.561,25.873,26.0895,0.0,0.0,100.0,0.0,0.0,0.0,0.0,3318.285714285714,3199.1,4009.625,4003.4,304.898,304.57733333333334,315.168,314.96925,21.9591,20.685,21.9836,21.5296,314.999998,314.999998,324.999988,324.999988,99.55814285714285,99.50921666666666,99.5686,99.54971428571429,0.14949999999999997,-0.12275000000000003,-0.10966666666666658,0.11450000000000005,-0.04333333333332945,-0.05333333333332746,1.5835,1.571,38.245000000000005,30.281,38.397,35.56,55.784,36.3565,60.2365,53.6195,53.772,35.439499999999995,58.533500000000004,51.741,52.973,34.9925,58.165,50.974000000000004,-0.16100000000000003,-0.13433333333333364,0.10550000000000001,0.10935,0.0,214.755,214.765,211.66,211.66,0.0,0.0
22,0.0,0.0,0.0,1.0,1.0,0.0,0.0,1.0,0.0,100.0,1.0,1.1856,26.0,0.0,0.0,0.0,59.999996,0.0,26.0,26.0,26.0,26.0,0.016111111111111187,0.26859999999999995,0.0354,277.4505,-2.5961,-2.5005,-1.8014999999999999,-1.816888888888889,-201.45999999999998,215.3025,190.51125,0.0,0.0,0.0,0.0,0.0447333333333334,-5.498166666666667,-5.498166666666667,-0.47050000000000003,-0.008333333333333335,0.010222222222222133,1.024,68.732,0.0012000000000000001,-0.09653333333333335,-0.1639999999999997,100.0,1.0,1.0,211.89666666666668,0.0,0.0,0.0,0.0,0.0,0.0,0.0,8981.5,0.0,55.0,5.0,247.40666666666667,0.0,0.0,0.0,0.0,0.0,0.0,0.0,0.0,1.1069999999999993,1.1069999999999993,0.0,0.0,0.0,55.0,616.79921,10000.0,85.000001,85.000001,85.000001,85.000001,395.0,0.0,0.0,0.0,1.0,333.33500000000004,40.298,40.298,30.365000000000002,30.365000000000002,34.0,-20.259999999999998,21.77,-32.6025,35.7175,0.0,1782.414,-0.23999999999999844,100.0,18.7645,18.5415,26.178,26.2065,0.0,0.0,100.0,0.0,0.0,0.0,0.0,3232.142857142857,3310.8,4231.25,4402.3,305.026,304.4313333333333,314.56775,314.00375,21.9687,20.6909,21.9941,21.538899999999998,314.999998,314.999998,324.999988,324.999988,99.55815714285714,99.50923333333333,99.56872857142857,99.54985714285715,0.16149999999999998,-0.11075000000000002,-0.09983333333333333,0.1263333333333332,-0.03166666666666629,-0.061666666666667425,1.4899999999999998,1.4805000000000001,38.305,30.317999999999998,38.463,35.618,55.778,36.396,60.272,53.676,53.766,35.4765,58.567,51.7945,52.966,35.0275,58.195499999999996,51.026666666666664,-0.16900000000000004,-0.13033333333333363,0.11203500000000001,0.10697000000000001,0.0,215.185,215.21,211.89666666666668,211.89666666666668,0.0,0.0
23,0.0,0.0,0.0,1.0,1.0,0.0,0.0,1.0,0.0,100.0,1.0,1.1856,26.0,0.0,0.0,0.0,59.999996,0.0,26.0,26.0,26.0,26.0,0.011777777777777887,0.2674000000000001,0.0012000000000000001,277.542,-2.4942,-2.528,-1.7597,-1.7678888888888888,-197.74,215.3,190.486375,0.0,0.0,0.0,0.0,0.04689999999999994,-5.498166666666667,-5.498166666666667,-0.48850000000000005,-0.35333333333333333,0.007777777777777883,0.9159999999999999,68.874,0.0046,-0.12645,-0.24600000000000044,100.0,1.0,1.0,212.39333333333332,0.0,0.0,0.0,0.0,0.0,0.0,0.0,9002.6,0.0,55.0,5.0,247.91666666666666,1.0,0.0,0.0,0.0,0.0,0.0,0.0,0.0,1.1610000000000014,1.1610000000000014,0.0,0.0,1.0,55.0,616.79921,10000.0,85.000001,85.000001,85.000001,85.000001,395.0,0.0,0.0,0.0,1.0,166.665,40.253,40.253,30.609,30.609,34.0,-18.9325,21.060000000000002,-30.7575,33.3425,0.0,1782.361,-0.23499999999999943,100.0,19.0265,18.7025,26.382,26.433,0.0,0.0,100.0,0.0,0.0,0.0,0.0,3171.142857142857,3236.1,4086.875,4227.7,305.096,304.59233333333333,314.80425,314.46625,21.9789,20.6973,22.0052,21.5488,314.999998,314.999998,324.999988,324.999988,99.55817142857143,99.50925,99.5689,99.55001428571428,0.16100000000000003,-0.12124999999999997,-0.09966666666666657,0.13016666666666676,-0.03833333333332689,-0.05333333333332746,1.516,1.5095,38.367999999999995,30.358,38.533,35.68,55.771,36.4415,60.3115,53.739,53.76,35.5185,58.6035,51.8555,52.9585,35.068,58.229,51.08533333333334,-0.16999999999999993,-0.1326666666666667,0.112655,0.10873000000000001,0.0,215.625,215.62,212.39333333333332,212.39333333333332,0.0,0.0
24,0.0,0.0,0.0,1.0,1.0,0.0,0.0,1.0,0.0,100.0,1.0,1.1856,26.0,0.0,0.0,0.0,59.999996,0.0,26.0,26.0,26.0,26.0,0.025666666666666726,0.25649999999999995,-0.05946666666666667,278.061,-2.547,-2.52475,-1.7751000000000001,-1.7827777777777778,-194.44,215.2975,190.463625,0.0,0.0,0.0,0.0,0.048833333333333395,-5.498166666666667,-5.498166666666667,-0.5018,-0.41333333333333333,0.01866666666666661,1.117,69.0,0.0059,-0.11873333333333333,-0.20000000000000018,100.0,1.0,1.0,212.83666666666667,0.0,0.0,0.0,0.0,0.0,0.0,0.0,9021.4,0.0,55.0,5.0,248.37,0.0,0.0,0.0,0.0,0.0,0.0,0.0,0.0,1.2089999999999996,1.2089999999999996,0.0,0.0,0.0,55.0,616.79921,10000.0,85.000001,85.000001,85.000001,85.000001,395.0,0.0,0.0,0.0,1.0,166.665,40.863,40.863,31.006,31.006,34.0,-18.66,20.772,-29.7875,32.432500000000005,0.0,1782.313,-0.23000000000000043,100.0,18.6775,18.428,26.172,26.255499999999998,0.0,0.0,100.0,0.0,0.0,0.0,0.0,3065.714285714286,3187.9,3980.75,4109.9,305.5,304.78333333333336,315.131,314.73375,21.9879,20.7028,22.015,21.5574,314.999998,314.999998,324.999988,324.999988,99.5582,99.50926666666666,99.56902857142857,99.55015714285715,0.1605000000000001,-0.118,-0.10066666666666657,0.13166666666666682,-0.03833333333332689,-0.05333333333332746,1.553,1.533,38.424,30.3925,38.594,35.734,55.763999999999996,36.480000000000004,60.345,53.793,53.753,35.554,58.6345,51.9075,52.9505,35.102000000000004,58.257,51.135999999999996,-0.16599999999999993,-0.129,0.10937000000000001,0.1101,0.0,216.005,216.015,212.83666666666667,212.83666666666667,0.0,0.0
25,0.0,0.0,0.0,1.0,1.0,0.0,0.0,1.0,0.0,100.0,1.0,1.1856,26.0,0.0,0.0,0.0,59.999996,0.0,26.0,26.0,26.0,26.0,0.0277777777777779,0.2673000000000001,0.013166666666666667,277.649,-2.5174,-2.5020000000000002,-1.8144,-1.7803333333333333,-191.12,215.2975,190.439625,0.0,0.0,0.0,0.0,0.050766666666666516,-5.498166666666667,-5.498166666666667,-0.513,0.25533333333333336,0.02022222222222214,0.2559999999999998,69.125,0.0081,-0.11226666666666668,-0.2060000000000004,100.0,1.0,1.0,213.23666666666668,0.0,0.0,0.0,0.0,0.0,0.0,0.0,9038.3,0.0,55.0,5.0,248.82333333333332,1.0,0.0,0.0,0.0,0.0,0.0,0.0,0.0,1.256999999999998,1.256999999999998,0.0,0.0,1.0,55.0,616.79921,10000.0,85.000001,85.000001,85.000001,85.000001,395.0,0.0,0.0,0.0,1.0,333.33500000000004,39.917,39.917,30.8685,30.8685,34.0,-19.4025,22.64,-30.2725,32.5075,0.0,1782.263,-0.28500000000000014,100.0,18.807,18.759,25.964,26.121000000000002,0.0,0.0,100.0,0.0,0.0,0.0,0.0,3255.4285714285716,3411.8,4035.125,4122.2,304.8975,304.042,315.092,314.711,21.9968,20.7085,22.0248,21.5661,314.999998,314.999998,324.999988,324.999988,99.55821428571429,99.50928333333333,99.56917142857142,99.55028571428572,0.16725000000000012,-0.11099999999999999,-0.09350000000000003,0.13216666666666677,-0.03499999999999659,-0.05833333333333002,1.5615,1.539,38.480000000000004,30.427999999999997,38.655,35.788,55.757,36.522999999999996,60.3795,53.8505,53.745999999999995,35.594,58.667,51.9625,52.943,35.1405,58.286500000000004,51.18966666666667,-0.17049999999999987,-0.13166666666666638,0.10605500000000001,0.11441000000000001,0.0,216.39499999999998,216.42000000000002,213.23666666666668,213.23666666666668,0.0,0.0
26,0.0,0.0,0.0,1.0,1.0,0.0,0.0,1.0,0.0,100.0,1.0,1.1856,26.0,0.0,0.0,0.0,59.999996,0.0,26.0,26.0,26.0,26.0,0.020000000000000018,0.2621,0.07383333333333333,276.886,-2.5487,-2.492375,-1.7794,-1.7844444444444443,-187.59,215.29500000000002,190.414125,0.0,0.0,0.0,0.0,0.05279999999999996,-5.498166666666667,-5.498166666666667,-0.4872,0.07166666666666667,0.007555555555555538,-0.5760000000000005,69.262,0.0102,-0.10393333333333334,-0.21200000000000063,100.0,1.0,1.0,213.44666666666666,0.0,0.0,0.0,0.0,0.0,0.0,0.0,9047.3,0.0,55.0,5.0,249.31333333333333,0.0,0.0,0.0,0.0,0.0,0.0,0.0,0.0,1.3079999999999998,1.3079999999999998,0.0,0.0,0.0,55.0,616.79921,10000.0,85.000001,85.000001,85.000001,85.000001,395.0,0.0,0.0,0.0,1.0,166.665,39.719,39.719,29.9225,29.9225,34.0,-20.724999999999998,20.594,-33.95,34.43,0.0,1782.214,-0.2749999999999986,100.0,19.216,19.172,26.434,26.7605,0.0,0.0,100.0,0.0,0.0,0.0,0.0,3342.285714285714,3205.3,4399.75,4355.8,304.722,304.5516666666667,314.218,314.01975,22.0065,20.7146,22.0354,21.575499999999998,314.999998,314.999998,324.999988,324.999988,99.55824285714286,99.5093,99.56931428571428,99.55044285714285,0.15825,-0.122,-0.09983333333333333,0.11333333333333329,-0.02499999999999858,-0.03999999999999915,1.463,1.452,38.541,30.4665,38.721000000000004,35.847,55.754000000000005,36.5635,60.4165,53.908500000000004,53.742999999999995,35.632,58.701499999999996,52.0175,52.938,35.177,58.317499999999995,51.24333333333333,-0.16849999999999987,-0.1286666666666667,0.10364500000000001,0.10376500000000001,0.0,216.825,216.845,213.44666666666666,213.44666666666666,0.0,0.0
27,0.0,0.0,0.0,1.0,1.0,0.0,0.0,1.0,0.0,100.0,1.0,1.1856,26.0,0.0,0.0,0.0,59.999996,0.0,26.0,26.0,26.0,26.0,0.025111111111111084,0.24940000000000007,-0.0461,277.603,-2.5984,-2.50325,-1.8412000000000002,-1.757888888888889,-184.26,215.29500000000002,190.39125,0.0,0.0,0.0,0.0,0.0547333333333333,-5.498166666666667,-5.498166666666667,-0.5168,-0.7023333333333334,0.019777777777777894,-0.4930000000000003,69.385,0.015700000000000002,-0.14336666666666667,-0.24799999999999933,100.0,1.0,1.0,214.01333333333332,0.0,0.0,0.0,0.0,0.0,0.0,0.0,9071.2,0.0,55.0,5.0,249.75666666666666,1.0,0.0,0.0,0.0,0.0,0.0,0.0,0.0,1.355999999999998,1.355999999999998,0.0,0.0,1.0,55.0,616.79921,10000.0,85.000001,85.000001,85.000001,85.000001,395.0,0.0,0.0,0.0,1.0,166.665,40.176,40.176,30.6245,30.6245,34.0,-20.4675,20.9,-30.5325,31.315,0.0,1782.167,-0.259999999999998,100.0,18.797,19.086,26.512,26.7145,0.0,0.0,100.0,0.0,0.0,0.0,0.0,3279.0,3203.7,3957.375,4034.9,305.1105,304.5156666666667,315.20025,314.893,22.0154,20.7203,22.0453,21.5843,314.999998,314.999998,324.999988,324.999988,99.55825714285714,99.5093,99.56947142857143,99.55058571428572,0.16074999999999995,-0.11824999999999997,-0.10350000000000004,0.12983333333333325,-0.060000000000002274,-0.03499999999999659,1.5590000000000002,1.544,38.597,30.502000000000002,38.783,35.902,55.748000000000005,36.6035,60.451,53.963499999999996,53.736999999999995,35.669,58.7335,52.070499999999996,52.931,35.2125,58.347,51.294666666666664,-0.16849999999999987,-0.1296666666666666,0.110335,0.10525500000000002,0.0,217.185,217.19,214.01333333333332,214.01333333333332,0.0,0.0
28,0.0,0.0,0.0,1.0,1.0,0.0,0.0,1.0,0.0,100.0,1.0,1.1856,26.0,0.0,0.0,0.0,59.999996,0.0,26.0,26.0,26.0,26.0,0.03722222222222227,0.27690000000000015,-0.04803333333333333,277.6795,-2.5206,-2.4991250000000003,-1.8475000000000001,-1.791777777777778,-180.72,215.29500000000002,190.365625,0.0,0.0,0.0,0.0,0.05679999999999996,-5.498166666666667,-5.498166666666667,-0.5113,0.5303333333333334,0.0043333333333333,0.32699999999999996,69.516,0.0167,-0.10438333333333333,-0.33399999999999963,100.0,1.0,1.0,214.39666666666668,0.0,0.0,0.0,0.0,0.0,0.0,0.0,9087.5,0.0,55.0,5.0,250.23000000000002,0.0,0.0,0.0,0.0,0.0,0.0,0.0,0.0,1.407,1.407,0.0,0.0,0.0,55.0,616.79921,10000.0,85.000001,85.000001,85.000001,85.000001,395.0,0.0,0.0,0.0,1.0,333.33500000000004,40.466,40.466,30.4565,30.4565,34.0,-17.607499999999998,21.804000000000002,-31.9675,33.317499999999995,0.0,1782.114,-0.3249999999999993,100.0,18.9015,18.808,26.099,26.246000000000002,0.0,0.0,100.0,0.0,0.0,0.0,0.0,3074.142857142857,3253.1,4214.375,4170.9,305.393,304.53766666666667,314.717,314.6415,22.0249,20.726399999999998,22.0557,21.5935,314.999998,314.999998,324.999988,324.999988,99.55828571428572,99.50933333333333,99.56961428571428,99.55072857142858,0.18125000000000013,-0.10224999999999995,-0.08583333333333332,0.13766666666666683,-0.021666666666668277,-0.06499999999999773,1.549,1.547,38.656,30.54,38.848,35.9595,55.741,36.646,60.4845,54.019999999999996,53.730999999999995,35.7085,58.7645,52.125,52.923500000000004,35.2505,58.375,51.34733333333333,-0.17249999999999988,-0.12266666666666648,0.11001000000000001,0.10935500000000001,0.0,217.625,217.65,214.39666666666668,214.39666666666668,0.0,0.0
29,0.0,0.0,0.0,1.0,1.0,0.0,0.0,1.0,0.0,100.0,1.0,1.1856,26.0,0.0,0.0,0.0,59.999996,0.0,26.0,26.0,26.0,26.0,0.02933333333333321,0.25639999999999996,0.015466666666666667,277.298,-2.5968999999999998,-2.426875,-1.8275000000000001,-1.7952222222222223,-176.95999999999998,215.2975,190.337625,0.0,0.0,0.0,0.0,0.05899999999999994,-5.498166666666667,-5.498166666666667,-0.5252,-0.7336666666666667,-0.0003333333333332966,0.6579999999999999,69.657,0.016300000000000002,-0.11681666666666668,-0.30600000000000005,100.0,1.0,1.0,214.75666666666666,0.0,0.0,0.0,0.0,0.0,0.0,0.0,9102.7,0.0,55.0,5.0,250.73666666666668,1.0,0.0,0.0,0.0,0.0,0.0,0.0,0.0,1.4609999999999985,1.4609999999999985,0.0,0.0,1.0,55.0,616.79921,10000.0,85.000001,85.000001,85.000001,85.000001,395.0,0.0,0.0,0.0,1.0,166.665,39.841,39.841,30.5175,30.5175,34.0,-20.535,22.793999999999997,-31.415,33.932500000000005,0.0,1782.061,-0.41499999999999915,100.0,18.809,18.701,26.462,26.54,0.0,0.0,100.0,0.0,0.0,0.0,0.0,3386.5714285714284,3467.9,4075.625,4190.0,304.681,304.055,314.94075,314.514,22.0349,20.7328,22.0669,21.6035,314.999998,314.999998,324.999988,324.999988,99.5583,99.50933333333333,99.56977142857143,99.55088571428571,0.17700000000000005,-0.09699999999999998,-0.09983333333333333,0.13850000000000007,-0.03333333333333144,-0.03999999999999915,1.5234999999999999,1.5045,38.718,30.58,38.918,36.022,55.733999999999995,36.689,60.524,54.0835,53.724000000000004,35.7485,58.802,52.1855,52.916,35.2885,58.408500000000004,51.406666666666666,-0.17849999999999988,-0.11533333333333351,0.118095,0.109185,0.0,217.995,218.03,214.75666666666666,214.75666666666666,0.0,0.0
30,0.0,0.0,0.0,1.0,1.0,0.0,0.0,1.0,0.0,100.0,1.0,1.1856,26.0,0.0,0.0,0.0,59.999996,0.0,26.0,26.0,26.0,26.0,0.027444444444444382,0.2793000000000001,0.058300000000000005,276.657,-2.567,-2.486,-1.8751,-1.6908888888888889,-173.82999999999998,215.3,190.314125,0.0,0.0,0.0,0.0,0.060799999999999965,-5.498166666666667,-5.498166666666667,-0.5187,0.936,0.002666666666666595,-0.36300000000000043,69.771,0.018500000000000003,-0.11325,-0.40200000000000014,100.0,1.0,1.0,215.12,0.0,0.0,0.0,0.0,0.0,0.0,0.0,9118.2,0.0,55.0,5.0,251.14666666666665,0.0,0.0,0.0,0.0,0.0,0.0,1.0,0.0,1.5060000000000002,1.5060000000000002,0.0,0.0,0.0,55.0,616.79921,10000.0,85.000001,85.000001,85.000001,85.000001,395.0,0.0,0.0,0.0,1.0,166.665,38.894999999999996,38.894999999999996,30.136,30.136,34.0,-20.74,22.357999999999997,-34.265,33.6325,0.0,1782.016,-0.4399999999999977,100.0,19.583,19.6215,26.24,26.625,0.0,0.0,100.0,0.0,0.0,0.0,0.0,3460.285714285714,3356.8,4350.75,4331.4,304.3705,303.94266666666664,314.48825,314.305,22.0435,20.7383,22.076,21.6117,314.999998,314.999998,324.999988,324.999988,99.55832857142858,99.50935,99.5699,99.55102857142857,0.17874999999999996,-0.11075000000000002,-0.09933333333333338,0.13850000000000007,-0.060000000000002274,-0.05666666666667197,1.537,1.5055,38.772,30.6145,38.975,36.073,55.733000000000004,36.7285,60.5545,54.1345,53.723,35.785,58.83,52.2345,52.9135,35.324,58.4345,51.45433333333334,-0.18900000000000006,-0.1160000000000001,0.11017500000000001,0.110085,0.0,218.42000000000002,218.44,215.12,215.12,0.0,0.0
31,0.0,0.0,0.0,1.0,1.0,0.0,0.0,1.0,0.0,100.0,1.0,1.1856,26.0,0.0,0.0,0.0,59.999996,0.0,26.0,26.0,26.0,26.0,0.058111111111111,0.2579,0.054066666666666666,276.718,-2.5462,-2.5365,-1.8713000000000002,-1.7630000000000001,-170.26999999999998,215.3025,190.288625,0.0,0.0,0.0,0.0,0.06286666666666652,-5.498166666666667,-5.498166666666667,-0.5064000000000001,-0.4906666666666667,0.01966666666666672,0.7890000000000001,69.904,0.0224,-0.13253333333333334,-0.4379999999999997,100.0,1.0,1.0,215.42666666666668,0.0,0.0,0.0,0.0,0.0,0.0,0.0,9131.1,0.0,55.0,5.0,251.62666666666667,1.0,0.0,0.0,0.0,0.0,0.0,1.0,0.0,1.5569999999999986,1.5569999999999986,0.0,0.0,1.0,55.0,616.79921,10000.0,85.000001,85.000001,85.000001,85.000001,395.0,0.0,0.0,0.0,1.0,166.665,39.459,39.459,29.48,29.48,34.0,-18.015,23.714,-31.905,35.385000000000005,0.0,1781.965,-0.41999999999999815,100.0,19.4225,19.53,26.907,27.1615,0.0,0.0,100.0,0.0,0.0,0.0,0.0,3127.857142857143,3430.7,4150.0,4295.2,305.233,303.91966666666667,314.684,314.211,22.0529,20.7446,22.0867,21.621299999999998,314.999998,314.999998,324.999988,324.999988,99.55835714285715,99.50936666666666,99.57004285714285,99.55117142857142,0.18599999999999994,-0.10124999999999995,-0.07833333333333337,0.15066666666666673,-0.036666666666668846,-0.030000000000001137,1.488,1.4755,38.831,30.6535,39.042,36.132999999999996,55.729,36.7725,60.5935,54.1965,53.718,35.8255,58.8665,52.294,52.9075,35.363,58.4675,51.512,-0.17900000000000005,-0.12366666666666637,0.10716,0.11381000000000001,0.0,218.785,218.79000000000002,215.42666666666668,215.42666666666668,0.0,0.0
32,0.0,0.0,0.0,1.0,1.0,0.0,0.0,1.0,0.0,100.0,1.0,1.1856,26.0,0.0,0.0,0.0,59.999996,0.0,26.0,26.0,26.0,26.0,0.06555555555555559,0.25239999999999996,-0.0755,277.603,-2.5433,-2.524375,-1.8056,-1.8393333333333333,-166.7,215.3075,190.26325,0.0,0.0,0.0,0.0,0.0649666666666665,-5.498166666666667,-5.498166666666667,-0.525,-0.189,-0.0067777777777777715,-1.069,70.03,0.0221,-0.12801666666666667,-0.39399999999999924,100.0,1.0,1.0,215.99666666666667,0.0,0.0,0.0,0.0,0.0,0.0,0.0,9155.3,0.0,55.0,5.0,252.08333333333334,0.0,0.0,0.0,0.0,0.0,0.0,1.0,0.0,1.6080000000000005,1.6080000000000005,0.0,0.0,0.0,55.0,616.79921,10000.0,85.000001,85.000001,85.000001,85.000001,395.0,0.0,0.0,0.0,1.0,166.665,40.268,40.268,30.838,30.838,34.0,-18.2725,21.402,-29.0375,32.83,0.0,1781.915,-0.4299999999999997,100.0,18.929,19.2625,26.349,26.884999999999998,0.0,0.0,100.0,0.0,0.0,0.0,0.0,3183.714285714286,3140.1,3958.625,4039.4,305.2865,304.751,315.26825,314.8105,22.0623,20.7507,22.097,21.6306,314.999998,314.999998,324.999988,324.999988,99.55838571428572,99.50938333333333,99.5702,99.55132857142857,0.18375000000000008,-0.10050000000000003,-0.08399999999999996,0.13566666666666682,-0.04833333333333201,-0.045000000000001705,1.569,1.5465,38.888999999999996,30.692,39.106,36.191,55.723,36.814,60.6265,54.2535,53.713,35.864,58.897,52.3485,52.9005,35.4,58.495,51.565,-0.17900000000000005,-0.11699999999999999,0.09944000000000001,0.109505,0.0,219.19,219.20499999999998,215.99666666666667,215.99666666666667,0.0,0.0
33,0.0,0.0,0.0,1.0,1.0,0.0,0.0,1.0,0.0,100.0,1.0,1.1856,26.0,0.0,0.0,0.0,59.999996,0.0,26.0,26.0,26.0,26.0,0.04933333333333323,0.2530000000000001,-0.05416666666666667,277.4965,-2.5603,-2.4863750000000002,-1.877,-1.8025555555555557,-163.32999999999998,215.3125,190.23775,0.0,0.0,0.0,0.0,0.06689999999999996,-5.498166666666667,-5.498166666666667,-0.5304,-0.23166666666666666,-0.004444444444444251,-0.30799999999999983,70.152,0.0256,-0.1066,-0.4119999999999999,100.0,1.0,1.0,216.29333333333335,0.0,0.0,0.0,0.0,0.0,0.0,0.0,9167.9,0.0,55.0,5.0,252.51999999999998,1.0,0.0,0.0,0.0,0.0,0.0,1.0,0.0,1.6559999999999988,1.6559999999999988,0.0,0.0,1.0,55.0,616.79921,10000.0,85.000001,85.000001,85.000001,85.000001,395.0,0.0,0.0,0.0,1.0,333.33500000000004,40.344,40.344,30.6245,30.6245,34.0,-19.5075,21.357999999999997,-32.26,33.695,0.0,1781.866,-0.41499999999999915,100.0,18.7365,18.9795,26.243,26.688499999999998,0.0,0.0,100.0,0.0,0.0,0.0,0.0,3270.142857142857,3163.0,4172.25,4157.0,305.08,304.713,314.87875,314.56,22.0712,20.7563,22.1068,21.6393,314.999998,314.999998,324.999988,324.999988,99.5584,99.5094,99.57034285714286,99.55147142857143,0.17300000000000004,-0.09650000000000003,-0.09299999999999997,0.13850000000000007,-0.03166666666666629,-0.026666666666670835,1.5550000000000002,1.524,38.945,30.727,39.168,36.2455,55.718,36.851,60.66,54.307,53.707,35.8985,58.928,52.4,52.894,35.433,58.522999999999996,51.615,-0.1815,-0.1120000000000001,0.11308000000000001,0.10704000000000001,0.0,219.56,219.585,216.29333333333335,216.29333333333335,0.0,0.0
34,0.0,0.0,0.0,1.0,1.0,0.0,0.0,1.0,0.0,100.0,1.0,1.1856,26.0,0.0,0.0,0.0,59.999996,0.0,26.0,26.0,26.0,26.0,0.05422222222222217,0.2631000000000001,-0.0732,277.7405,-2.5079000000000002,-2.523125,-1.8455,-1.746,-159.75,215.3175,190.209625,0.0,0.0,0.0,0.0,0.06899999999999995,-5.498166666666667,-5.498166666666667,-0.5640000000000001,-0.9773333333333334,0.016111111111110965,0.9790000000000001,70.281,0.027800000000000002,-0.12296666666666668,-0.4739999999999993,100.0,1.0,1.0,216.66666666666669,0.0,0.0,0.0,0.0,0.0,0.0,0.0,9183.7,0.0,55.0,5.0,252.98666666666668,0.0,0.0,0.0,0.0,0.0,0.0,1.0,0.0,1.7070000000000007,1.7070000000000007,0.0,0.0,0.0,55.0,616.79921,10000.0,85.000001,85.000001,85.000001,85.000001,395.0,0.0,0.0,0.0,1.0,166.665,40.756,40.756,30.8075,30.8075,34.0,-17.355,22.506,-30.005,34.292500000000004,0.0,1781.816,-0.36499999999999844,100.0,18.6695,18.575499999999998,26.233,26.688499999999998,0.0,0.0,100.0,0.0,0.0,0.0,0.0,3077.0,3253.1,4063.75,4235.5,305.5015,304.676,315.01025,314.47625,22.0805,20.7623,22.1172,21.648699999999998,314.999998,314.999998,324.999988,324.999988,99.55841428571429,99.5094,99.57048571428571,99.55161428571428,0.18274999999999997,-0.08950000000000002,-0.07033333333333336,0.15366666666666684,-0.041666666666671404,-0.04999999999999716,1.5350000000000001,1.526,39.003,30.764499999999998,39.233000000000004,36.3045,55.711,36.8905,60.694,54.3665,53.701,35.9355,58.96,52.457,52.8865,35.468,58.5515,51.67033333333333,-0.17649999999999988,-0.11833333333333362,0.10132000000000001,0.11256000000000001,0.0,219.93,219.97,216.66666666666669,216.66666666666669,0.0,0.0
35,0.0,0.0,0.0,1.0,1.0,0.0,0.0,1.0,0.0,100.0,1.0,1.1856,26.0,0.0,0.0,0.0,59.999996,0.0,26.0,26.0,26.0,26.0,0.050999999999999934,0.2632000000000001,-0.05233333333333334,277.5725,-2.6366,-2.499625,-1.8383,-1.8074444444444444,-156.16,215.3275,190.179375,0.0,0.0,0.0,0.0,0.07106666666666661,-5.498166666666667,-5.498166666666667,-0.5932000000000001,0.15166666666666667,-0.010555555555555873,-1.487,70.407,0.029300000000000003,-0.11863333333333333,-0.2759999999999998,100.0,1.0,1.0,217.15,0.0,0.0,0.0,0.0,0.0,0.0,0.0,9204.1,0.0,55.0,5.0,253.44,1.0,0.0,0.0,0.0,0.0,0.0,1.0,0.0,1.7579999999999991,1.7579999999999991,0.0,0.0,1.0,55.0,616.79921,10000.0,85.000001,85.000001,85.000001,85.000001,395.0,0.0,0.0,0.0,1.0,333.33500000000004,40.024,40.024,30.533,30.533,34.0,-20.325,22.65,-30.7375,33.025000000000006,0.0,1781.764,-0.23999999999999844,100.0,18.5795,19.2405,25.947,26.264,0.0,0.0,100.0,0.0,0.0,0.0,0.0,3262.0,3354.4,4067.125,4082.9,305.098,304.074,315.02,314.86375,22.0898,20.7686,22.1275,21.657899999999998,314.999998,314.999998,324.999988,324.999988,99.55844285714285,99.50941666666667,99.57064285714286,99.55177142857143,0.17149999999999999,-0.10499999999999998,-0.08933333333333338,0.14549999999999996,-0.04833333333333201,-0.05333333333332746,1.5635,1.561,39.061,30.804000000000002,39.297,36.362,55.703,36.9335,60.727000000000004,54.420500000000004,53.694,35.9755,58.9905,52.509,52.878,35.5065,58.579,51.720666666666666,-0.16349999999999998,-0.1323333333333334,0.10860500000000001,0.10864000000000001,0.0,220.36,220.37,217.15,217.15,0.0,0.0
