,ABS Active,ABS Enabled,AID Allow Tire Blankets,AID Auto Blip,AID Auto Clutch,AID Auto Shift,AID Fuel Rate,AID Ideal Line,AID Mech Damage,AID Stability,AID Tire Wear Rate,Air Density,Air Temp,Ballast,Best Lap Delta,Best Lap Time,Brake Bias,Brake Pos,Brake Temp FL,Brake Temp FR,Brake Temp RL,Brake Temp RR,CG Accel Lateral,CG Accel Longitudinal,CG Accel Vertical,CG Height,Camber FL,Camber FR,Camber RL,Camber RR,Car Coord X,Car Coord Y,Car Coord Z,Car Damage Front,Car Damage Left,Car Damage Rear,Car Damage Right,Car Pos Norm,Caster FL,Caster FR,Chassis Pitch Angle,Chassis Pitch Rate,Chassis Roll Angle,Chassis Roll Rate,Chassis Velocity X,Chassis Velocity Y,Chassis Velocity Z,Chassis Yaw Rate,Clutch Pos,DRS Active,DRS Available,Drive Train Speed,ERS Heat Charging,ERS Is Charging,ERS Max Energy,ERS Power Level,ERS Recovery Level,Engine Brake Setting,Engine Limiter,Engine RPM,Flags,Fuel Level,Gear,Ground Speed,HR Sample Clock,In Pit,KERS Charge,KERS Deployed Energy,KERS Input,KERS Max Energy,LR Sample Clock,Lap Invalidated,Lap Time,Lap Time2,Last Lap Time,Last Sector Time,MR Sample Clock,Max Fuel,Max Power,Max RPM,Max Sus Travel FL,Max Sus Travel FR,Max Sus Travel RL,Max Sus Travel RR,Max Torque,Max Turbo Boost,Num Tires Off Track,Penalties Enabled,Position,Raw Data Sample Rate,Ride Height FL,Ride Height FR,Ride Height RL,Ride Height RR,Road Temp,Self Align Torque FL,Self Align Torque FR,Self Align Torque RL,Self Align Torque RR,Session Lap Count,Session Time Left,Steering Angle,Surface Grip,Suspension Travel FL,Suspension Travel FR,Suspension Travel RL,Suspension Travel RR,TC Active,TC Enabled,Throttle Pos,Tire Dirt Level FL,Tire Dirt Level FR,Tire Dirt Level RL,Tire Dirt Level RR,Tire Load FL,Tire Load FR,Tire Load RL,Tire Load RR,Tire Loaded Radius FL,Tire Loaded Radius FR,Tire Loaded Radius RL,Tire Loaded Radius RR,Tire Pressure FL,Tire Pressure FR,Tire Pressure RL,Tire Pressure RR,Tire Radius FL,Tire Radius FR,Tire Radius RL,Tire Radius RR,Tire Rubber Grip FL,Tire Rubber Grip FR,Tire Rubber Grip RL,Tire Rubber Grip RR,Tire Slip Angle FL,Tire Slip Angle FR,Tire Slip Angle RL,Tire Slip Angle RR,Tire Slip Ratio FL,Tire Slip Ratio FR,Tire Slip Ratio RL,Tire Slip Ratio RR,Tire Temp Core FL,Tire Temp Core FR,Tire Temp Core RL,Tire Temp Core RR,Tire Temp Inner FL,Tire Temp Inner FR,Tire Temp Inner RL,Tire Temp Inner RR,Tire Temp Middle FL,Tire Temp Middle FR,Tire Temp Middle RL,Tire Temp Middle RR,Tire Temp Outer FL,Tire Temp Outer FR,Tire Temp Outer RL,Tire Temp Outer RR,Toe In FL,Toe In FR,Toe In RL,Toe In RR,Turbo Boost,Wheel Angular Speed FL,Wheel Angular Speed FR,Wheel Angular Speed RL,Wheel Angular Speed RR,Wind Direction,Wind Speed
0,0.0,0.0,0.0,1.0,1.0,0.0,0.0,1.0,0.0,100.0,1.0,1.1856,26.0,0.0,0.0,0.0,59.99999,0.0,26.0,26.0,26.0,26.0,-0.14012499999999994,0.3016000000000001,0.009633333333333334,283.3405,-2.6199500000000002,-2.5961428571428575,-1.691,-1.768875,-275.61,216.29500000000002,190.9765,0.0,0.0,0.0,0.0,0.0016333333333333755,-5.498166666666667,-5.498166666666667,-0.42010000000000003,1.258,-0.028000000000000025,-0.604,65.68299999999999,-0.06760000000000001,-0.06041428571428571,1.4120000000000008,100.0,1.0,1.0,202.95333333333332,0.0,0.0,0.0,0.0,0.0,0.0,0.0,8602.4,0.0,55.0,5.0,236.43,0.0,0.0,0.0,0.0,0.0,0.0,0.0,0.0,0.0030000000000001137,0.0030000000000001137,0.0,0.0,0.0,55.0,616.79921,10000.0,85.0,85.0,85.0,85.0,395.0,0.0,0.0,0.0,1.0,20.0,45.929,45.929,35.599000000000004,35.599000000000004,34.0,-29.16,20.873333333333335,-31.45,23.3375,0.0,1783.692,1.0650000000000013,100.0,18.2925,17.689,24.328,23.923000000000002,0.0,0.0,100.0,0.0,0.0,0.0,0.0,3375.625,3650.1,3907.222222222222,3722.0,304.44733333333335,303.243,315.39975,315.58475,21.670333333333332,20.5929,21.855333333333334,21.3082,314.99999,314.99999,324.99998,324.99998,99.55344285714285,99.5099,99.5717,99.54601428571429,0.0022500000000000853,-0.19774999999999998,-0.18666666666666665,0.027857142857142858,-0.03599999999999781,-0.07833333333332604,1.6313333333333333,1.6804999999999999,36.44,29.7055,37.596000000000004,34.176,54.435,36.045500000000004,61.5585,51.9915,52.47,35.189,59.87,50.2615,51.688,34.7945,59.6,49.612,-0.028999999999999915,-0.19450000000000012,0.10604000000000001,0.11385,0.0,205.82,205.735,202.95333333333332,202.95333333333332,0.0,0.0
1,0.0,0.0,0.0,1.0,1.0,0.0,0.0,1.0,0.0,100.0,1.0,1.1856,26.0,0.0,0.0,0.0,59.999996,0.0,26.0,26.0,26.0,26.0,-0.157875,0.31300000000000017,0.042966666666666674,282.3945,-2.53655,-2.6991428571428573,-1.7097,-1.760625,-272.06,216.29500000000002,190.95525,0.0,0.0,0.0,0.0,0.0036999999999999256,-5.498166666666667,-5.498166666666667,-0.331,-0.2893333333333332,-0.06966666666666654,-0.467,65.849,-0.0819,-0.01632857142857143,1.6060000000000008,100.0,1.0,1.0,202.95666666666668,0.0,0.0,0.0,0.0,0.0,0.0,0.0,8602.5,0.0,55.0,5.0,237.01999999999998,1.0,0.0,0.0,0.0,0.0,0.0,0.0,0.0,0.05699999999999861,0.05699999999999861,0.0,0.0,1.0,55.0,616.79921,10000.0,85.000001,85.000001,85.000001,85.000001,395.0,0.0,0.0,0.0,1.0,166.665,48.019,48.019,33.4015,33.4015,34.0,-24.83,14.61,-39.4525,30.8525,0.0,1783.638,1.0350000000000001,100.0,18.4785,17.632,26.58,25.356,0.0,0.0,100.0,0.0,0.0,0.0,0.0,3016.0,2638.6,4408.222222222223,4801.9,305.521,306.4386666666667,314.0715,312.8795,21.680666666666667,20.5989,21.867333333333335,21.3179,314.999998,314.999998,324.999988,324.999988,99.55345714285714,99.50993333333334,99.57187142857143,99.54617142857143,0.0035000000000000586,-0.21099999999999997,-0.21116666666666667,-0.0025714285714285717,-0.030000000000001137,-0.01666666666666572,1.3956666666666666,1.4585,36.504000000000005,29.743000000000002,37.671,34.237,54.425,36.091,61.6005,52.061,52.46,35.231,59.9095,50.3275,51.678,34.8345,59.6365,49.67633333333333,-0.02849999999999997,-0.1924999999999999,0.10215500000000001,0.09981500000000001,0.0,206.35000000000002,206.185,202.95666666666668,202.95666666666668,0.0,0.0
2,0.0,0.0,0.0,1.0,1.0,0.0,0.0,1.0,0.0,100.0,1.0,1.1856,26.0,0.0,0.0,0.0,59.999996,0.0,26.0,26.0,26.0,26.0,-0.17174999999999996,0.2963,-0.015166666666666667,283.493,-2.52585,-2.7175714285714285,-1.6800000000000002,-1.804,-268.7,216.29250000000002,190.93675,0.0,0.0,0.0,0.0,0.005666666666666598,-5.498166666666667,-5.498166666666667,-0.3941,-0.32133333333333325,-0.05166666666666675,1.999,65.989,-0.09330000000000001,-0.07831428571428571,1.8339999999999996,100.0,1.0,1.0,203.95333333333332,0.0,0.0,0.0,0.0,0.0,0.0,0.0,8644.8,0.0,55.0,5.0,237.53,0.0,0.0,0.0,0.0,0.0,0.0,0.0,0.0,0.10800000000000054,0.10800000000000054,0.0,0.0,0.0,55.0,616.79921,10000.0,85.000001,85.000001,85.000001,85.000001,395.0,0.0,0.0,0.0,1.0,166.665,46.89,46.89,36.0105,36.0105,34.0,-30.1575,16.348333333333333,-31.4675,20.415,0.0,1783.586,0.9649999999999999,100.0,18.62,17.488500000000002,26.035,24.773,0.0,0.0,100.0,0.0,0.0,0.0,0.0,3447.125,2946.8,3659.777777777778,3606.9,304.30766666666665,305.48466666666667,315.89925,315.94425,21.690444444444445,20.6041,21.878333333333334,21.3267,314.999998,314.999998,324.999988,324.999988,99.55345714285714,99.50995,99.572,99.5463,-0.02574999999999994,-0.22124999999999995,-0.24833333333333335,-0.022714285714285715,-0.045999999999999375,-0.06333333333333258,1.666,1.737,36.565,29.776,37.739999999999995,34.292,54.416,36.129,61.6325,52.116,52.452,35.266,59.939,50.379999999999995,51.669,34.868,59.664,49.727333333333334,-0.02949999999999986,-0.18199999999999994,0.11087500000000002,0.106005,0.0,206.74666666666667,206.635,203.95333333333332,203.95333333333332,0.0,0.0
3,0.0,0.0,0.0,1.0,1.0,0.0,0.0,1.0,0.0,100.0,1.0,1.1856,26.0,0.0,0.0,0.0,59.999996,0.0,26.0,26.0,26.0,26.0,-0.16549999999999998,0.32130000000000014,0.07486666666666666,283.325,-2.65365,-2.6094285714285714,-1.702,-1.777125,-265.73,216.285,190.919375,0.0,0.0,0.0,0.0,0.0073666666666665215,-5.498166666666667,-5.498166666666667,-0.3592,0.5923333333333334,-0.005666666666666931,0.36,66.123,-0.10500000000000001,-0.025214285714285713,1.4560000000000004,100.0,1.0,1.0,204.07,0.0,0.0,0.0,0.0,0.0,0.0,0.0,8649.8,0.0,55.0,5.0,238.01,1.0,0.0,0.0,0.0,0.0,0.0,0.0,0.0,0.1529999999999987,0.1529999999999987,0.0,0.0,1.0,55.0,616.79921,10000.0,85.000001,85.000001,85.000001,85.000001,395.0,0.0,0.0,0.0,1.0,166.665,47.974000000000004,47.974000000000004,34.1795,34.1795,34.0,-24.675,16.123333333333335,-37.2875,25.3675,0.0,1783.542,0.7349999999999994,100.0,18.2885,17.4235,25.666,24.6255,0.0,0.0,100.0,0.0,0.0,0.0,0.0,2900.375,2950.6,4195.222222222223,4175.8,305.871,305.476,314.6145,314.5375,21.698777777777778,20.609099999999998,21.887888888888888,21.334600000000002,314.999998,314.999998,324.999988,324.999988,99.55345714285714,99.50996666666667,99.57214285714285,99.54642857142858,0.004250000000000087,-0.20399999999999996,-0.22966666666666666,-0.010857142857142859,-0.027999999999998693,-0.04833333333333201,1.5216666666666667,1.556,36.617999999999995,29.807000000000002,37.8,34.341,54.406,36.167500000000004,61.661,52.17,52.443,35.301,59.9655,50.431,51.659,34.9015,59.6875,49.777,-0.05400000000000005,-0.16100000000000003,0.10869000000000001,0.10696000000000001,0.0,207.19333333333333,207.07999999999998,204.07,204.07,0.0,0.0
4,0.0,0.0,0.0,1.0,1.0,0.0,0.0,1.0,0.0,100.0,1.0,1.1856,26.0,0.0,0.0,0.0,59.999996,0.0,26.0,26.0,26.0,26.0,-0.17312499999999997,0.2783,-0.005933333333333334,283.539,-2.5841000000000003,-2.6672857142857143,-1.7127,-1.7926250000000001,-262.35,216.2725,190.899625,0.0,0.0,0.0,0.0,0.009333333333333305,-5.498166666666667,-5.498166666666667,-0.38630000000000003,-0.8380000000000001,-0.08266666666666644,-1.9180000000000001,66.27,-0.1004,-0.05531428571428571,1.298,100.0,1.0,1.0,204.59666666666666,0.0,0.0,0.0,0.0,0.0,0.0,0.0,8672.1,0.0,55.0,5.0,238.54333333333335,0.0,0.0,0.0,0.0,0.0,0.0,0.0,0.0,0.20400000000000063,0.20400000000000063,0.0,0.0,0.0,55.0,616.79921,10000.0,85.000001,85.000001,85.000001,85.000001,395.0,0.0,0.0,0.0,1.0,333.33500000000004,47.729,47.729,34.622,34.622,34.0,-28.535,16.26833333333333,-36.3575,21.995,0.0,1783.489,0.6999999999999993,100.0,17.908,17.274,25.968,24.7525,0.0,0.0,100.0,0.0,0.0,0.0,0.0,3317.75,2866.6,4127.888888888889,3629.6,304.8706666666667,305.59,314.78875,315.7645,21.708222222222222,20.6146,21.89911111111111,21.3436,314.999998,314.999998,324.999988,324.999988,99.55345714285714,99.50998333333334,99.57228571428571,99.54657142857143,-0.011249999999999982,-0.20299999999999996,-0.228,0.0,-0.05799999999999983,-0.045000000000001705,1.57,1.6175000000000002,36.676,29.8415,37.869,34.397,54.393,36.208,61.697,52.228,52.43,35.338499999999996,59.9995,50.487,51.646,34.937,59.7185,49.83133333333333,-0.050000000000000044,-0.15600000000000014,0.11230000000000001,0.10747000000000001,0.0,207.60666666666668,207.485,204.5966666666667,204.59666666666666,0.0,0.0
5,0.0,0.0,0.0,1.0,1.0,0.0,0.0,1.0,0.0,100.0,1.0,1.1856,26.0,0.0,0.0,0.0,59.999996,0.0,26.0,26.0,26.0,26.0,-0.15049999999999997,0.28880000000000017,-0.020666666666666667,283.539,-2.6033,-2.6812857142857145,-1.7038,-1.7713750000000001,-258.77,216.255,190.878,0.0,0.0,0.0,0.0,0.011433333333333295,-5.498166666666667,-5.498166666666667,-0.38330000000000003,0.33899999999999997,-0.07822222222222219,-0.08600000000000001,66.425,-0.09730000000000001,-0.037585714285714285,1.2120000000000006,100.0,1.0,1.0,205.04666666666668,0.0,0.0,0.0,0.0,0.0,0.0,0.0,8691.2,0.0,55.0,5.0,239.10000000000002,1.0,0.0,0.0,0.0,0.0,0.0,0.0,0.0,0.2579999999999991,0.2579999999999991,0.0,0.0,1.0,55.0,616.79921,10000.0,85.000001,85.000001,85.000001,85.000001,395.0,0.0,0.0,0.0,1.0,166.665,47.943,47.943,34.9275,34.9275,34.0,-27.197499999999998,16.723333333333333,-36.8975,23.752499999999998,0.0,1783.436,0.3000000000000007,100.0,18.0265,17.183,25.664,24.484,0.0,0.0,100.0,0.0,0.0,0.0,0.0,3252.375,2814.5,4162.555555555556,3961.0,305.0126666666667,305.778,314.7935,314.992,21.718444444444444,20.6205,21.910777777777778,21.352899999999998,314.999998,314.999998,324.999988,324.999988,99.55347142857143,99.51001666666667,99.57244285714286,99.54671428571429,0.010499999999999954,-0.1855,-0.23566666666666666,-0.01,-0.036999999999999034,-0.041666666666671404,1.5596666666666668,1.585,36.741,29.878,37.942,34.455,54.382999999999996,36.251,61.733000000000004,52.2875,52.421,35.378,60.033,50.543,51.635999999999996,34.9745,59.749,49.885666666666665,-0.08050000000000002,-0.13050000000000006,0.109645,0.11432500000000001,0.0,208.12333333333333,208.01,205.04666666666668,205.04666666666668,0.0,0.0
6,0.0,0.0,0.0,1.0,1.0,0.0,0.0,1.0,0.0,100.0,1.0,1.1856,26.0,0.0,0.0,0.0,59.999996,0.0,26.0,26.0,26.0,26.0,-0.12224999999999997,0.27290000000000014,0.0137,283.4015,-2.57015,-2.6568571428571426,-1.748,-1.76325,-255.77,216.2375,190.859875,0.0,0.0,0.0,0.0,0.013166666666666549,-5.498166666666667,-5.498166666666667,-0.3778,0.1233333333333334,-0.053777777777777924,0.92,66.554,-0.0896,-0.03585714285714286,0.7860000000000005,100.0,1.0,1.0,205.42666666666668,0.0,0.0,0.0,0.0,0.0,0.0,0.0,8707.3,0.0,55.0,5.0,239.56333333333333,0.0,0.0,0.0,0.0,0.0,0.0,0.0,0.0,0.3030000000000008,0.3030000000000008,0.0,0.0,0.0,55.0,616.79921,10000.0,85.000001,85.000001,85.000001,85.000001,395.0,0.0,0.0,0.0,1.0,166.665,47.699,47.699,34.7445,34.7445,34.0,-24.662499999999998,18.68,-35.06,25.42,0.0,1783.392,0.14499999999999957,100.0,18.107,17.2035,25.735,24.669,0.0,0.0,100.0,0.0,0.0,0.0,0.0,3114.5,3036.8,4053.222222222222,4012.7,305.1893333333333,305.251,314.985,314.93875,21.726888888888887,20.6254,21.920444444444446,21.3609,314.999998,314.999998,324.999988,324.999988,99.55347142857143,99.51003333333334,99.57255714285715,99.54684285714286,0.03875000000000006,-0.16749999999999998,-0.20366666666666666,0.019714285714285715,-0.05000000000000071,-0.06333333333333258,1.5323333333333333,1.5855000000000001,36.793,29.909,38.003,34.504999999999995,54.373999999999995,36.286500000000004,61.7625,52.3405,52.412,35.4105,60.0605,50.594,51.626,35.0055,59.774,49.935,-0.09299999999999997,-0.11949999999999994,0.10151500000000001,0.10615500000000001,0.0,208.49666666666667,208.44,205.42666666666668,205.42666666666668,0.0,0.0
7,0.0,0.0,0.0,1.0,1.0,0.0,0.0,1.0,0.0,100.0,1.0,1.1856,26.0,0.0,0.0,0.0,59.999996,0.0,26.0,26.0,26.0,26.0,-0.07399999999999995,0.2814000000000001,0.046533333333333336,283.2335,-2.54215,-2.670428571428572,-1.7063000000000001,-1.8058750000000001,-252.18,216.2125,190.838125,0.0,0.0,0.0,0.0,0.01526666666666654,-5.498166666666667,-5.498166666666667,-0.38420000000000004,-0.0033333333333334103,-0.04244444444444451,1.207,66.708,-0.07100000000000001,-0.048914285714285716,0.4320000000000004,100.0,1.0,1.0,205.88666666666666,0.0,0.0,0.0,0.0,0.0,0.0,0.0,8726.8,0.0,55.0,5.0,240.12,1.0,0.0,0.0,0.0,0.0,0.0,0.0,0.0,0.3569999999999993,0.3569999999999993,0.0,0.0,1.0,55.0,616.79921,10000.0,85.000001,85.000001,85.000001,85.000001,395.0,0.0,0.0,0.0,1.0,166.665,47.363,47.363,34.973,34.973,34.0,-23.9,20.123333333333335,-32.57,27.365000000000002,0.0,1783.338,-0.16000000000000014,100.0,18.243,17.328,25.72,24.89,0.0,0.0,100.0,0.0,0.0,0.0,0.0,3184.5,3058.2,3978.6666666666665,4003.0,304.93666666666667,305.105,315.114,314.9005,21.737111111111112,20.6314,21.932111111111112,21.3704,314.999998,314.999998,324.999988,324.999988,99.55347142857143,99.51005,99.57271428571428,99.54698571428571,0.06550000000000011,-0.14225,-0.178,0.04528571428571428,-0.04400000000000048,-0.060000000000002274,1.5476666666666667,1.5594999999999999,36.857,29.945999999999998,38.076,34.565,54.364999999999995,36.3275,61.7975,52.403999999999996,52.403,35.448499999999996,60.093,50.6545,51.617,35.0415,59.8035,49.99366666666667,-0.11799999999999988,-0.09949999999999992,0.108365,0.10814000000000001,0.0,208.94333333333333,208.91500000000002,205.88666666666666,205.88666666666666,0.0,0.0
8,0.0,0.0,0.0,1.0,1.0,0.0,0.0,1.0,0.0,100.0,1.0,1.1856,26.0,0.0,0.0,0.0,59.999996,0.0,26.0,26.0,26.0,26.0,-0.05212499999999998,0.28580000000000005,-0.010233333333333334,283.432,-2.62995,-2.6351428571428572,-1.691,-1.7557500000000001,-248.76999999999998,216.1875,190.8175,0.0,0.0,0.0,0.0,0.017233333333333323,-5.498166666666667,-5.498166666666667,-0.387,-0.532,-0.027555555555555777,-0.684,66.854,-0.049100000000000005,-0.04194285714285715,0.02400000000000002,100.0,1.0,1.0,206.2733333333333,0.0,0.0,0.0,0.0,0.0,0.0,0.0,8743.2,0.0,55.0,5.0,240.64666666666668,0.0,0.0,0.0,0.0,0.0,0.0,0.0,0.0,0.40800000000000125,0.40800000000000125,0.0,0.0,0.0,55.0,616.79921,10000.0,85.000001,85.000001,85.000001,85.000001,395.0,0.0,0.0,0.0,1.0,166.665,48.096000000000004,48.096000000000004,34.332499999999996,34.332499999999996,34.0,-23.2075,19.936666666666667,-32.5925,27.6025,0.0,1783.286,-0.3099999999999987,100.0,17.579,17.437,25.629,25.1045,0.0,0.0,100.0,0.0,0.0,0.0,0.0,3087.875,2959.3,4109.666666666667,4012.2,305.5833333333333,305.324,314.84725,314.78575,21.746444444444442,20.637,21.94311111111111,21.3794,314.999998,314.999998,324.999988,324.999988,99.55348571428571,99.51006666666666,99.57287142857143,99.54712857142857,0.07125000000000004,-0.12324999999999997,-0.15566666666666665,0.05714285714285715,-0.0470000000000006,-0.041666666666671404,1.5336666666666667,1.536,36.915,29.981,38.144999999999996,34.622,54.355000000000004,36.365,61.8305,52.463499999999996,52.394,35.483000000000004,60.1235,50.711,51.606,35.0745,59.831,50.049,-0.1259999999999999,-0.0794999999999999,0.10863500000000001,0.10928500000000001,0.0,209.37666666666667,209.37,206.2733333333333,206.2733333333333,0.0,0.0
9,0.0,0.0,0.0,1.0,1.0,0.0,0.0,1.0,0.0,100.0,1.0,1.1856,26.0,0.0,0.0,0.0,59.999996,0.0,26.0,26.0,26.0,26.0,-0.028749999999999942,0.2825,0.032,283.1115,-2.6125,-2.6395714285714287,-1.7453,-1.737875,-245.76,216.16500000000002,190.798875,0.0,0.0,0.0,0.0,0.018999999999999906,-5.498166666666667,-5.498166666666667,-0.39030000000000004,0.6346666666666667,-0.027888888888889074,0.768,66.979,-0.0304,-0.04005714285714286,-0.1459999999999999,100.0,1.0,1.0,206.7733333333333,0.0,0.0,0.0,0.0,0.0,0.0,0.0,8764.4,0.0,55.0,5.0,241.0966666666667,1.0,0.0,0.0,0.0,0.0,0.0,0.0,0.0,0.4529999999999994,0.4529999999999994,0.0,0.0,1.0,55.0,616.79921,10000.0,85.000001,85.000001,85.000001,85.000001,395.0,0.0,0.0,0.0,1.0,166.665,46.936,46.936,35.2785,35.2785,34.0,-23.5675,22.418333333333333,-30.045,28.405,0.0,1783.242,-0.4450000000000003,100.0,18.275,17.6425,25.405,24.9755,0.0,0.0,100.0,0.0,0.0,0.0,0.0,3308.625,3136.8,3924.777777777778,4038.1000000000004,304.67466666666667,304.88933333333335,315.325,314.882,21.75488888888889,20.6421,21.95277777777778,21.3874,314.999998,314.999998,324.999988,324.999988,99.5535,99.51008333333333,99.57298571428572,99.54725714285715,0.1080000000000001,-0.09675,-0.13066666666666665,0.08285714285714287,-0.04499999999999815,-0.05666666666667197,1.5853333333333333,1.5915,36.968,30.0135,38.205,34.671,54.349999999999994,36.399,61.856,52.515,52.388999999999996,35.513999999999996,60.147,50.76,51.6,35.1045,59.8525,50.096666666666664,-0.14100000000000001,-0.07399999999999984,0.104245,0.100235,0.0,209.76999999999998,209.765,206.7733333333333,206.7733333333333,0.0,0.0
10,0.0,0.0,0.0,1.0,1.0,0.0,0.0,1.0,0.0,100.0,1.0,1.1856,26.0,0.0,0.0,0.0,59.999996,0.0,26.0,26.0,26.0,26.0,-0.004750000000000032,0.2994000000000001,-0.010366666666666668,282.9895,-2.5917,-2.6171428571428574,-1.7264,-1.71825,-242.34,216.1375,190.778125,0.0,0.0,0.0,0.0,0.020966666666666578,-5.498166666666667,-5.498166666666667,-0.3669,-0.44700000000000006,0.010444444444444256,0.35000000000000003,67.126,-0.0066,-0.031400000000000004,-0.476,100.0,1.0,1.0,207.00333333333333,0.0,0.0,0.0,0.0,0.0,0.0,0.0,8774.1,0.0,55.0,5.0,241.62333333333333,0.0,0.0,0.0,0.0,0.0,0.0,1.0,0.0,0.5040000000000013,0.5040000000000013,0.0,0.0,0.0,55.0,616.79921,10000.0,85.000001,85.000001,85.000001,85.000001,395.0,0.0,0.0,0.0,1.0,166.665,48.05,48.05,33.7065,33.7065,34.0,-19.732499999999998,20.886666666666667,-32.76,31.425,0.0,1783.191,-0.4450000000000003,100.0,17.939,17.744,25.803,25.78,0.0,0.0,100.0,0.0,0.0,0.0,0.0,2916.875,2897.9,4268.333333333333,4219.4,305.9646666666667,305.49033333333335,314.46525,314.2975,21.764222222222223,20.6478,21.96388888888889,21.3966,314.999998,314.999998,324.999988,324.999988,99.5535,99.5101,99.57312857142857,99.5474,0.11575000000000002,-0.08450000000000002,-0.11850000000000001,0.10442857142857143,-0.028999999999999915,-0.023333333333326323,1.5156666666666667,1.5015,37.027,30.049,38.274,34.729,54.344,36.435,61.89,52.578,52.382999999999996,35.547,60.179,50.820499999999996,51.593,35.1355,59.881,50.15533333333333,-0.14700000000000002,-0.06199999999999983,0.114125,0.11055500000000001,0.0,210.19666666666666,210.22,207.00333333333333,207.00333333333333,0.0,0.0
11,0.0,0.0,0.0,1.0,1.0,0.0,0.0,1.0,0.0,100.0,1.0,1.1856,26.0,0.0,0.0,0.0,59.999996,0.0,26.0,26.0,26.0,26.0,0.024124999999999952,0.2715000000000001,-0.0854,283.5845,-2.63145,-2.5795714285714286,-1.7776,-1.711625,-238.91,216.11,190.757375,0.0,0.0,0.0,0.0,0.022599999999999953,-5.498166666666667,-5.498166666666667,-0.41040000000000004,-0.16900000000000004,0.03255555555555567,0.199,67.264,0.0149,-0.06127142857142857,-0.4739999999999993,100.0,1.0,1.0,207.76666666666665,0.0,0.0,0.0,0.0,0.0,0.0,0.0,8806.4,0.0,55.0,5.0,242.12,1.0,0.0,0.0,0.0,0.0,0.0,1.0,0.0,0.5549999999999997,0.5549999999999997,0.0,0.0,1.0,55.0,616.79921,10000.0,85.000001,85.000001,85.000001,85.000001,395.0,0.0,0.0,0.0,1.0,333.33500000000004,47.44,47.44,35.446,35.446,34.0,-20.7575,23.788333333333334,-25.557499999999997,29.035,0.0,1783.139,-0.2749999999999986,100.0,17.817,17.749,25.307,25.5075,0.0,0.0,100.0,0.0,0.0,0.0,0.0,3030.625,3218.5,3650.0,3826.7,305.51366666666667,304.643,316.02275,315.36675,21.773555555555557,20.6537,21.974666666666668,21.4057,314.999998,314.999998,324.999988,324.999988,99.55352857142857,99.5101,99.57327142857143,99.54754285714286,0.12424999999999997,-0.06825000000000003,-0.08366666666666667,0.1464285714285714,-0.0470000000000006,-0.045000000000001705,1.6526666666666667,1.6390000000000002,37.084,30.0855,38.342,34.785,54.336,36.472,61.917,52.637,52.375,35.581,60.204,50.8765,51.584,35.168,59.903,50.21,-0.12749999999999995,-0.07850000000000001,0.10296000000000001,0.11058000000000001,0.0,210.62,210.65,207.76666666666665,207.76666666666665,0.0,0.0
12,0.0,0.0,0.0,1.0,1.0,0.0,0.0,1.0,0.0,100.0,1.0,1.1856,26.0,0.0,0.0,0.0,59.999996,0.0,26.0,26.0,26.0,26.0,0.018124999999999947,0.2935000000000001,0.03726666666666667,282.974,-2.6776,-2.6128571428571425,-1.7334,-1.72125,-235.48,216.085,190.73525,0.0,0.0,0.0,0.0,0.025466666666666526,-5.498166666666667,-5.498166666666667,-0.3929,0.31333333333333335,0.005666666666666709,-1.0150000000000001,67.40899999999999,0.025,-0.02772857142857143,-0.28200000000000003,100.0,1.0,1.0,207.96666666666667,0.0,0.0,0.0,0.0,0.0,0.0,0.0,8814.9,0.0,55.0,5.0,242.64333333333332,0.0,0.0,0.0,0.0,0.0,0.0,1.0,0.0,0.6059999999999981,0.6059999999999981,0.0,0.0,0.0,55.0,616.79921,10000.0,85.000001,85.000001,85.000001,85.000001,395.0,0.0,0.0,0.0,1.0,166.665,47.44,47.44,34.0575,34.0575,34.0,-22.085,23.076666666666668,-30.945,31.6525,0.0,1783.087,-0.18999999999999773,100.0,17.6535,17.992,25.284,25.490000000000002,0.0,0.0,100.0,0.0,0.0,0.0,0.0,3177.5,3108.6,4239.222222222223,4101.2,305.2746666666667,304.83166666666665,314.63,314.645,21.782777777777778,20.6596,21.985555555555557,21.4147,314.999998,314.999998,324.999988,324.999988,99.55352857142857,99.51011666666666,99.57342857142856,99.54768571428572,0.1260000000000001,-0.07450000000000001,-0.09116666666666667,0.13242857142857142,-0.04499999999999815,-0.03999999999999915,1.5346666666666666,1.521,37.143,30.122500000000002,38.41,34.842,54.329,36.5085,61.948499999999996,52.6965,52.369,35.615,60.233000000000004,50.9335,51.577,35.2005,59.929,50.26566666666667,-0.121,-0.08550000000000013,0.106925,0.10969000000000001,0.0,211.10333333333335,211.11,207.96666666666667,207.96666666666667,0.0,0.0
13,0.0,0.0,0.0,1.0,1.0,0.0,0.0,1.0,0.0,100.0,1.0,1.1856,26.0,0.0,0.0,0.0,59.999996,0.0,26.0,26.0,26.0,26.0,0.025249999999999995,0.28170000000000006,0.04016666666666667,282.6235,-2.65315,-2.608,-1.7647,-1.708625,-232.24,216.06,190.71475,0.0,0.0,0.0,0.0,0.026866666666666594,-5.498166666666667,-5.498166666666667,-0.38730000000000003,-0.1156666666666668,0.005777777777777882,-0.661,67.543,0.0236,-0.036371428571428575,-0.16600000000000037,100.0,1.0,1.0,208.32333333333332,0.0,0.0,0.0,0.0,0.0,0.0,0.0,8830.1,0.0,55.0,5.0,243.12666666666667,1.0,0.0,0.0,0.0,0.0,0.0,1.0,0.0,0.6539999999999999,0.6539999999999999,0.0,0.0,1.0,55.0,616.79921,10000.0,85.000001,85.000001,85.000001,85.000001,395.0,0.0,0.0,0.0,1.0,333.33500000000004,47.134,47.134,34.0575,34.0575,34.0,-22.1925,23.183333333333334,-31.310000000000002,32.8975,0.0,1783.04,-0.21499999999999986,100.0,17.978,18.107,25.55,25.9135,0.0,0.0,100.0,0.0,0.0,0.0,0.0,3214.75,3093.6,4199.666666666667,4219.4,305.1446666666667,304.87,314.684,314.3325,21.791666666666668,20.6652,21.996,21.4234,314.999998,314.999998,324.999988,324.999988,99.55355714285714,99.51011666666666,99.57355714285714,99.54781428571428,0.12575000000000003,-0.06774999999999998,-0.09283333333333334,0.1365714285714286,-0.04899999999999949,-0.054999999999999716,1.5073333333333334,1.5095,37.198,30.1575,38.474999999999994,34.896,54.325,36.5435,61.9785,52.7555,52.364000000000004,35.647,60.2605,50.99,51.571,35.231,59.954,50.32033333333334,-0.12399999999999989,-0.08349999999999991,0.10978500000000001,0.11612000000000001,0.0,211.50666666666666,211.515,208.32333333333332,208.32333333333332,0.0,0.0
14,0.0,0.0,0.0,1.0,1.0,0.0,0.0,1.0,0.0,100.0,1.0,1.1856,26.0,0.0,0.0,0.0,59.999996,0.0,26.0,26.0,26.0,26.0,0.020750000000000046,0.2836000000000001,-0.0024333333333333334,282.898,-2.63855,-2.5598571428571426,-1.7645,-1.70275,-228.59,216.0325,190.69225,0.0,0.0,0.0,0.0,0.028966666666666585,-5.498166666666667,-5.498166666666667,-0.39930000000000004,-0.1413333333333333,0.024666666666666615,-0.531,67.691,0.0212,-0.05232857142857143,-0.1459999999999999,100.0,1.0,1.0,208.87333333333333,0.0,0.0,0.0,0.0,0.0,0.0,0.0,8853.3,0.0,55.0,5.0,243.66,0.0,0.0,0.0,0.0,0.0,0.0,1.0,0.0,0.7079999999999984,0.7079999999999984,0.0,0.0,0.0,55.0,616.79921,10000.0,85.000001,85.000001,85.000001,85.000001,395.0,0.0,0.0,0.0,1.0,166.665,47.211,47.211,34.3475,34.3475,34.0,-21.0975,23.036666666666665,-29.67,30.995,0.0,1782.985,-0.25,100.0,17.9255,18.177500000000002,25.559,25.963,0.0,0.0,100.0,0.0,0.0,0.0,0.0,3114.0,3161.7,3994.4444444444443,4072.2,305.442,304.6773333333333,315.207,314.71875,21.801555555555556,20.6714,22.007555555555555,21.4332,314.999998,314.999998,324.999988,324.999988,99.55357142857143,99.51013333333333,99.57371428571429,99.54797142857143,0.1292500000000001,-0.07399999999999995,-0.10316666666666667,0.13142857142857142,-0.05799999999999983,-0.04333333333332945,1.5656666666666665,1.5455,37.26,30.1965,38.547,34.957,54.319,36.582499999999996,62.01,52.82,52.358000000000004,35.683,60.29,51.0515,51.565,35.2655,59.980000000000004,50.38066666666667,-0.12749999999999995,-0.08349999999999991,0.11419000000000001,0.10720500000000001,0.0,211.95666666666665,211.97,208.87333333333333,208.87333333333333,0.0,0.0
15,0.0,0.0,0.0,1.0,1.0,0.0,0.0,1.0,0.0,100.0,1.0,1.1856,26.0,0.0,0.0,0.0,59.999996,0.0,26.0,26.0,26.0,26.0,0.02837500000000004,0.29080000000000017,0.0008666666666666666,282.959,-2.63885,-2.531285714285714,-1.7814,-1.6695,-225.54,216.01,190.673125,0.0,0.0,0.0,0.0,0.03073333333333339,-5.498166666666667,-5.498166666666667,-0.3884,0.29133333333333333,0.04733333333333323,0.81,67.815,0.0224,-0.030728571428571428,-0.242,100.0,1.0,1.0,209.2266666666667,0.0,0.0,0.0,0.0,0.0,0.0,0.0,8868.3,0.0,55.0,5.0,244.10333333333335,1.0,0.0,0.0,0.0,0.0,0.0,1.0,0.0,0.7530000000000001,0.7530000000000001,0.0,0.0,1.0,55.0,616.79921,10000.0,85.000001,85.000001,85.000001,85.000001,395.0,0.0,0.0,0.0,1.0,333.33500000000004,47.531,47.531,34.3935,34.3935,34.0,-19.205,23.07,-28.575,32.480000000000004,0.0,1782.941,-0.19500000000000028,100.0,18.1375,17.9545,25.506,25.835,0.0,0.0,100.0,0.0,0.0,0.0,0.0,2884.875,3195.1,3933.8888888888887,4306.3,305.953,304.76166666666666,315.2915,314.253,21.80977777777778,20.6767,22.017111111111113,21.4412,314.999998,314.999998,324.999988,324.999988,99.55358571428572,99.51013333333333,99.57382857142858,99.54811428571429,0.13600000000000012,-0.06925000000000003,-0.08416666666666667,0.132,-0.05799999999999983,-0.04999999999999716,1.558,1.5630000000000002,37.311,30.229,38.607,35.007999999999996,54.315,36.615,62.035,52.8735,52.354,35.713,60.313,51.103,51.559,35.294,60.0005,50.43066666666667,-0.1279999999999999,-0.09100000000000019,0.10343500000000001,0.10667000000000001,0.0,212.36,212.365,209.2266666666667,209.2266666666667,0.0,0.0
16,0.0,0.0,0.0,1.0,1.0,0.0,0.0,1.0,0.0,100.0,1.0,1.1856,26.0,0.0,0.0,0.0,59.999996,0.0,26.0,26.0,26.0,26.0,0.023249999999999993,0.2771000000000001,-0.03226666666666667,282.9895,-2.69155,-2.548857142857143,-1.7476,-1.736625,-222.07999999999998,215.9875,190.651,0.0,0.0,0.0,0.0,0.03276666666666661,-5.498166666666667,-5.498166666666667,-0.4128,-0.7263333333333333,0.021666666666666723,-1.333,67.955,0.0238,-0.047900000000000005,-0.13199999999999967,100.0,1.0,1.0,209.66333333333333,0.0,0.0,0.0,0.0,0.0,0.0,0.0,8886.8,0.0,55.0,5.0,244.61,0.0,0.0,0.0,0.0,0.0,0.0,1.0,0.0,0.8039999999999985,0.8039999999999985,0.0,0.0,0.0,55.0,616.79921,10000.0,85.000001,85.000001,85.000001,85.000001,395.0,0.0,0.0,0.0,1.0,333.33500000000004,47.363,47.363,34.2405,34.2405,34.0,-22.21,22.496666666666666,-28.6025,30.685,0.0,1782.888,-0.06499999999999773,100.0,17.6285,18.0715,25.723,25.8915,0.0,0.0,100.0,0.0,0.0,0.0,0.0,3192.625,3168.4,3967.222222222222,4007.7,305.3636666666667,304.723,315.2385,314.82625,21.81877777777778,20.6826,22.028111111111112,21.4504,314.999998,314.999998,324.999988,324.999988,99.5536,99.51015,99.57398571428571,99.54825714285714,0.12624999999999997,-0.08374999999999999,-0.08883333333333333,0.12714285714285714,-0.05099999999999838,-0.045000000000001705,1.5613333333333332,1.5545,37.367999999999995,30.266,38.676,35.065,54.305,36.653999999999996,62.0685,52.937,52.345,35.749,60.344,51.1635,51.549,35.3285,60.028,50.489666666666665,-0.11549999999999994,-0.10349999999999993,0.10502500000000001,0.10028500000000001,0.0,212.75666666666666,212.755,209.66333333333333,209.66333333333333,0.0,0.0
17,0.0,0.0,0.0,1.0,1.0,0.0,0.0,1.0,0.0,100.0,1.0,1.1856,26.0,0.0,0.0,0.0,59.999996,0.0,26.0,26.0,26.0,26.0,0.004625000000000101,0.29110000000000014,-0.0126,282.608,-2.63735,-2.545,-1.7784,-1.7075,-218.61,215.9625,190.628375,0.0,0.0,0.0,0.0,0.03476666666666661,-5.498166666666667,-5.498166666666667,-0.39880000000000004,0.503,-0.0043333333333333,0.8250000000000001,68.094,0.0178,-0.02772857142857143,-0.06199999999999939,100.0,1.0,1.0,210.04000000000002,0.0,0.0,0.0,0.0,0.0,0.0,0.0,8902.9,0.0,55.0,5.0,245.10666666666668,1.0,0.0,0.0,0.0,0.0,0.0,1.0,0.0,0.8550000000000004,0.8550000000000004,0.0,0.0,1.0,55.0,616.79921,10000.0,85.000001,85.000001,85.000001,85.000001,395.0,0.0,0.0,0.0,1.0,333.33500000000004,47.119,47.119,34.012,34.012,34.0,-21.0,22.39666666666667,-31.34,32.605000000000004,0.0,1782.839,-0.134999999999998,100.0,18.361,18.09,25.695,25.7215,0.0,0.0,100.0,0.0,0.0,0.0,0.0,3135.125,3128.5,4251.555555555556,4229.5,305.2323333333333,305.004,314.60275,314.481,21.828222222222223,20.6886,22.039,21.4595,314.999998,314.999998,324.999988,324.999988,99.55361428571429,99.51015,99.57412857142857,99.5484,0.13874999999999993,-0.07374999999999998,-0.08433333333333333,0.1362857142857143,-0.045999999999999375,-0.041666666666671404,1.5416666666666667,1.5345,37.426,30.3035,38.742999999999995,35.122,54.302,36.69,62.096000000000004,52.9925,52.341,35.782,60.37,51.217,51.544,35.36,60.051,50.541666666666664,-0.12399999999999989,-0.09600000000000009,0.106995,0.11095500000000001,0.0,213.24,213.215,210.04000000000002,210.04000000000002,0.0,0.0
18,0.0,0.0,0.0,1.0,1.0,0.0,0.0,1.0,0.0,100.0,1.0,1.1856,26.0,0.0,0.0,0.0,59.999996,0.0,26.0,26.0,26.0,26.0,-0.004375000000000018,0.27580000000000005,-0.008666666666666668,282.593,-2.67065,-2.516714285714286,-1.7944,-1.653375,-215.34,215.94,190.60725,0.0,0.0,0.0,0.0,0.036666666666666514,-5.498166666666667,-5.498166666666667,-0.4092,-0.5133333333333332,0.01822222222222214,0.9550000000000001,68.224,0.0122,-0.04505714285714286,-0.06400000000000006,100.0,1.0,1.0,210.44666666666666,0.0,0.0,0.0,0.0,0.0,0.0,0.0,8920.0,0.0,55.0,5.0,245.57666666666665,0.0,0.0,0.0,0.0,0.0,0.0,1.0,0.0,0.9029999999999987,0.9029999999999987,0.0,0.0,0.0,55.0,616.79921,10000.0,85.000001,85.000001,85.000001,85.000001,395.0,0.0,0.0,0.0,1.0,166.665,47.012,47.012,33.9355,33.9355,34.0,-21.732499999999998,23.791666666666664,-30.0625,30.955000000000002,0.0,1782.791,-0.16000000000000014,100.0,18.121,17.979,26.004,26.011499999999998,0.0,0.0,100.0,0.0,0.0,0.0,0.0,3137.625,3327.4,4037.1111111111113,4158.3,305.286,304.4316666666667,315.06875,314.61125,21.836777777777776,20.6941,22.049333333333333,21.4682,314.999998,314.999998,324.999988,324.999988,99.55364285714286,99.51016666666666,99.57427142857142,99.54852857142858,0.12874999999999992,-0.07250000000000001,-0.092,0.13071428571428573,-0.03200000000000003,-0.07333333333333059,1.5506666666666666,1.548,37.480000000000004,30.3385,38.808,35.176,54.296,36.7245,62.126,53.0505,52.335,35.814,60.3975,51.2725,51.538,35.3905,60.076,50.595666666666666,-0.119,-0.09250000000000025,0.10321000000000001,0.10984500000000001,0.0,213.59333333333336,213.615,210.44666666666666,210.44666666666666,0.0,0.0
19,0.0,0.0,0.0,1.0,1.0,0.0,0.0,1.0,0.0,100.0,1.0,1.1856,26.0,0.0,0.0,0.0,59.999996,0.0,26.0,26.0,26.0,26.0,-0.004874999999999963,0.2836000000000001,0.05703333333333334,282.181,-2.5823,-2.625,-1.8001,-1.645125,-211.85,215.91750000000002,190.58475,0.0,0.0,0.0,0.0,0.03869999999999996,-5.498166666666667,-5.498166666666667,-0.3992,0.8293333333333334,0.014000000000000012,-0.855,68.361,0.0122,-0.0337,-0.05399999999999938,100.0,1.0,1.0,210.8466666666667,0.0,0.0,0.0,0.0,0.0,0.0,0.0,8937.0,0.0,55.0,5.0,246.07,1.0,0.0,0.0,0.0,0.0,0.0,1.0,0.0,0.9540000000000006,0.9540000000000006,0.0,0.0,1.0,55.0,616.79921,10000.0,85.000001,85.000001,85.000001,85.000001,395.0,0.0,0.0,0.0,1.0,166.665,46.509,46.509,33.783,33.783,34.0,-21.9075,23.223333333333333,-33.165,31.985,0.0,1782.741,-0.15500000000000114,100.0,18.49,18.5475,25.684,25.997,0.0,0.0,100.0,0.0,0.0,0.0,0.0,3245.125,3151.9,4269.333333333333,4314.2,304.973,304.531,314.63275,314.22075,21.846222222222224,20.7002,22.060111111111112,21.4774,314.999998,314.999998,324.999988,324.999988,99.55365714285715,99.51018333333333,99.5744,99.54868571428571,0.12450000000000006,-0.08675,-0.11166666666666668,0.123,-0.053000000000000824,-0.02499999999999858,1.5356666666666667,1.5230000000000001,37.539,30.3765,38.876000000000005,35.234,54.292,36.7635,62.1545,53.111000000000004,52.332,35.85,60.424,51.33,51.533,35.425,60.0995,50.651666666666664,-0.123,-0.09600000000000009,0.10798500000000001,0.11375,0.0,214.07666666666665,214.05,210.8466666666667,210.8466666666667,0.0,0.0
20,0.0,0.0,0.0,1.0,1.0,0.0,0.0,1.0,0.0,100.0,1.0,1.1856,26.0,0.0,0.0,0.0,59.999996,0.0,26.0,26.0,26.0,26.0,0.01849999999999996,0.2713000000000001,0.017400000000000002,282.6995,-2.6759,-2.5867142857142857,-1.7224,-1.769125,-208.36,215.89499999999998,190.562375,0.0,0.0,0.0,0.0,0.0407333333333334,-5.498166666666667,-5.498166666666667,-0.4063,-1.1760000000000002,0.0129999999999999,0.502,68.5,0.012,-0.046085714285714285,-0.12399999999999967,100.0,1.0,1.0,211.19,0.0,0.0,0.0,0.0,0.0,0.0,0.0,8951.6,0.0,55.0,5.0,246.57333333333332,0.0,0.0,0.0,0.0,0.0,0.0,0.0,0.0,1.004999999999999,1.004999999999999,0.0,0.0,0.0,55.0,616.79921,10000.0,85.000001,85.000001,85.000001,85.000001,395.0,0.0,0.0,0.0,1.0,333.33500000000004,47.623,47.623,33.539,33.539,34.0,-20.697499999999998,22.72833333333333,-30.16,32.817499999999995,0.0,1782.689,-0.14499999999999957,100.0,17.978,17.931,26.287,26.195999999999998,0.0,0.0,100.0,0.0,0.0,0.0,0.0,2984.875,3156.5,4079.222222222222,4183.2,305.774,304.92,314.8575,314.44525,21.855222222222224,20.7061,22.07122222222222,21.4868,314.999998,314.999998,324.999988,324.999988,99.55367142857143,99.5102,99.57455714285715,99.54882857142857,0.12474999999999992,-0.08074999999999999,-0.098,0.12542857142857144,-0.030999999999998806,-0.04999999999999716,1.5046666666666666,1.5125000000000002,37.595,30.4135,38.945,35.292,54.283,36.8,62.1875,53.173,52.323,35.884,60.455,51.388999999999996,51.522999999999996,35.457,60.126999999999995,50.70933333333333,-0.119,-0.09350000000000014,0.114265,0.10811000000000001,0.0,214.42333333333335,214.445,211.19,211.19,0.0,0.0
21,0.0,0.0,0.0,1.0,1.0,0.0,0.0,1.0,0.0,100.0,1.0,1.1856,26.0,0.0,0.0,0.0,59.999996,0.0,26.0,26.0,26.0,26.0,0.0002500000000000835,0.28190000000000004,-0.0669,282.974,-2.63675,-2.5934285714285714,-1.7845,-1.726875,-205.07,215.8725,190.540625,0.0,0.0,0.0,0.0,0.0426333333333333,-5.498166666666667,-5.498166666666667,-0.42800000000000005,0.43399999999999994,-0.0037777777777776578,0.39,68.625,0.0086,-0.043757142857142856,-0.1120000000000001,100.0,1.0,1.0,211.81,0.0,0.0,0.0,0.0,0.0,0.0,0.0,8977.8,0.0,55.0,5.0,247.01999999999998,1.0,0.0,0.0,0.0,0.0,0.0,0.0,0.0,1.0530000000000008,1.0530000000000008,0.0,0.0,1.0,55.0,616.79921,10000.0,85.000001,85.000001,85.000001,85.000001,395.0,0.0,0.0,0.0,1.0,333.33500000000004,47.15,47.15,34.713499999999996,34.713499999999996,34.0,-21.259999999999998,23.39,-29.052500000000002,29.57,0.0,1782.641,-0.23000000000000043,100.0,18.296,18.0565,25.629,25.7165,0.0,0.0,100.0,0.0,0.0,0.0,0.0,3126.625,3191.8,3967.4444444444443,3972.2,305.27733333333333,304.81933333333336,315.31675,315.08825,21.863888888888887,20.7118,22.081333333333333,21.4952,314.999998,314.999998,324.999988,324.999988,99.55368571428572,99.5102,99.57468571428572,99.54897142857143,0.1312500000000001,-0.07374999999999998,-0.095,0.12285714285714286,-0.04499999999999815,-0.04999999999999716,1.6196666666666668,1.6095000000000002,37.65,30.4485,39.007999999999996,35.345,54.278999999999996,36.835499999999996,62.2115,53.2255,52.319,35.9165,60.4775,51.44,51.518,35.4885,60.147,50.75866666666667,-0.12749999999999995,-0.08800000000000008,0.10647000000000001,0.10519500000000001,0.0,214.86,214.86,211.81,211.81,0.0,0.0
22,0.0,0.0,0.0,1.0,1.0,0.0,0.0,1.0,0.0,100.0,1.0,1.1856,26.0,0.0,0.0,0.0,59.999996,0.0,26.0,26.0,26.0,26.0,0.013875000000000082,0.27380000000000004,0.0045000000000000005,282.501,-2.5784000000000002,-2.6358571428571427,-1.7864,-1.712,-201.57,215.85,190.51675,0.0,0.0,0.0,0.0,0.04466666666666652,-5.498166666666667,-5.498166666666667,-0.40790000000000004,0.0013333333333332975,0.0067777777777777715,-0.491,68.764,0.010100000000000001,-0.025657142857142858,-0.15200000000000014,100.0,1.0,1.0,212.01,0.0,0.0,0.0,0.0,0.0,0.0,0.0,8986.4,0.0,55.0,5.0,247.51999999999998,0.0,0.0,0.0,0.0,0.0,0.0,0.0,0.0,1.1039999999999992,1.1039999999999992,0.0,0.0,0.0,55.0,616.79921,10000.0,85.000001,85.000001,85.000001,85.000001,395.0,0.0,0.0,0.0,1.0,333.33500000000004,47.348,47.348,33.539,33.539,34.0,-20.15,22.14666666666667,-32.894999999999996,32.445,0.0,1782.59,-0.2699999999999996,100.0,18.163,18.3505,25.934,26.1125,0.0,0.0,100.0,0.0,0.0,0.0,0.0,3043.5,3016.1,4248.111111111111,4295.7,305.622,305.057,314.642,314.21425,21.87311111111111,20.7178,22.092333333333332,21.5045,314.999998,314.999998,324.999988,324.999988,99.5537,99.5102,99.57484285714285,99.54911428571428,0.127,-0.08524999999999994,-0.1085,0.11157142857142857,-0.04199999999999804,-0.051666666666669414,1.495,1.483,37.707,30.485999999999997,39.077,35.403,54.272999999999996,36.873,62.244,53.287,52.313,35.951,60.5075,51.4985,51.510999999999996,35.521,60.174,50.815666666666665,-0.129,-0.08499999999999996,0.105815,0.10295000000000001,0.0,215.28333333333336,215.29000000000002,212.01,212.01,0.0,0.0
23,0.0,0.0,0.0,1.0,1.0,0.0,0.0,1.0,0.0,100.0,1.0,1.1856,26.0,0.0,0.0,0.0,59.999996,0.0,26.0,26.0,26.0,26.0,0.010499999999999954,0.24860000000000015,-0.06273333333333334,282.4705,-2.61245,-2.5841428571428575,-1.8382,-1.6845,-197.85,215.8275,190.491875,0.0,0.0,0.0,0.0,0.04683333333333339,-5.498166666666667,-5.498166666666667,-0.4283,-0.07333333333333325,0.007444444444444365,-0.518,68.904,0.0146,-0.05331428571428572,-0.1459999999999999,100.0,1.0,1.0,212.58666666666667,0.0,0.0,0.0,0.0,0.0,0.0,0.0,9010.8,0.0,55.0,5.0,248.02666666666664,1.0,0.0,0.0,0.0,0.0,0.0,0.0,0.0,1.1580000000000013,1.1580000000000013,0.0,0.0,1.0,55.0,616.79921,10000.0,85.000001,85.000001,85.000001,85.000001,395.0,0.0,0.0,0.0,1.0,166.665,46.57,46.57,34.4695,34.4695,34.0,-22.68,22.990000000000002,-30.6725,29.712500000000002,0.0,1782.537,-0.2749999999999986,100.0,18.47,18.4645,25.926,26.2305,0.0,0.0,100.0,0.0,0.0,0.0,0.0,3315.5,3124.4,4025.1111111111113,4007.4,304.819,304.788,315.22525,314.966,21.88288888888889,20.7242,22.10388888888889,21.5144,314.999998,314.999998,324.999988,324.999988,99.55371428571429,99.51021666666666,99.57498571428572,99.54927142857143,0.12549999999999994,-0.07399999999999995,-0.10066666666666667,0.12485714285714286,-0.05900000000000105,-0.051666666666669414,1.5773333333333333,1.5655000000000001,37.768,30.526,39.149,35.465,54.268,36.913,62.275,53.351,52.308,35.988,60.536,51.56,51.504999999999995,35.556,60.1995,50.87533333333333,-0.12250000000000005,-0.08650000000000002,0.107215,0.10748500000000001,0.0,215.72666666666666,215.72,212.58666666666667,212.58666666666667,0.0,0.0
24,0.0,0.0,0.0,1.0,1.0,0.0,0.0,1.0,0.0,100.0,1.0,1.1856,26.0,0.0,0.0,0.0,59.999996,0.0,26.0,26.0,26.0,26.0,0.02187500000000009,0.2724,-0.061266666666666664,282.8215,-2.64435,-2.588714285714286,-1.7296,-1.70925,-194.54,215.8075,190.46925,0.0,0.0,0.0,0.0,0.048766666666666514,-5.498166666666667,-5.498166666666667,-0.4359,-0.5596666666666668,0.022444444444444267,-0.078,69.033,0.017,-0.043185714285714286,-0.1980000000000004,100.0,1.0,1.0,212.87666666666667,0.0,0.0,0.0,0.0,0.0,0.0,0.0,9023.0,0.0,55.0,5.0,248.49,0.0,0.0,0.0,0.0,0.0,0.0,0.0,0.0,1.2059999999999995,1.2059999999999995,0.0,0.0,0.0,55.0,616.79921,10000.0,85.000001,85.000001,85.000001,85.000001,395.0,0.0,0.0,0.0,1.0,166.665,47.729,47.729,33.7675,33.7675,34.0,-19.912499999999998,21.835,-30.740000000000002,31.6125,0.0,1782.488,-0.3049999999999997,100.0,18.0025,18.1305,25.915,26.184,0.0,0.0,100.0,0.0,0.0,0.0,0.0,2970.625,3000.9,4159.111111111111,4117.7,305.86566666666664,305.17833333333334,314.779,314.65575,21.891444444444446,20.7297,22.11411111111111,21.5231,314.999998,314.999998,324.999988,324.999988,99.55372857142856,99.51023333333333,99.57512857142856,99.54941428571429,0.1332500000000001,-0.07750000000000001,-0.09783333333333333,0.13171428571428573,-0.045999999999999375,-0.046666666666666856,1.5246666666666666,1.5260000000000002,37.822,30.561,39.213,35.519,54.262,36.946,62.303,53.407,52.302,36.0185,60.5625,51.6135,51.498,35.585499999999996,60.2225,50.92766666666667,-0.13650000000000007,-0.08099999999999996,0.102355,0.115,0.0,216.10000000000002,216.10500000000002,212.87666666666667,212.87666666666667,0.0,0.0
25,0.0,0.0,0.0,1.0,1.0,0.0,0.0,1.0,0.0,100.0,1.0,1.1856,26.0,0.0,0.0,0.0,59.999996,0.0,26.0,26.0,26.0,26.0,0.022250000000000103,0.25639999999999996,-0.0057,282.5315,-2.6991,-2.5584285714285717,-1.808,-1.717375,-191.01999999999998,215.785,190.44375,0.0,0.0,0.0,0.0,0.050799999999999956,-5.498166666666667,-5.498166666666667,-0.4597,0.29466666666666663,0.021777777777777896,-0.149,69.164,0.0195,-0.04152857142857143,-0.3200000000000003,100.0,1.0,1.0,213.41333333333333,0.0,0.0,0.0,0.0,0.0,0.0,0.0,9045.8,0.0,55.0,5.0,248.96333333333334,1.0,0.0,0.0,0.0,0.0,0.0,0.0,0.0,1.256999999999998,1.256999999999998,0.0,0.0,1.0,55.0,616.79921,10000.0,85.000001,85.000001,85.000001,85.000001,395.0,0.0,0.0,0.0,1.0,166.665,46.402,46.402,34.5305,34.5305,34.0,-22.705,26.085,-28.4625,31.3275,0.0,1782.438,-0.34499999999999886,100.0,18.254,18.339,25.641,25.852,0.0,0.0,100.0,0.0,0.0,0.0,0.0,3292.625,3432.4,3911.3333333333335,4051.6000000000004,304.86333333333334,304.08433333333335,315.47,314.87525,21.900555555555556,20.7359,22.124777777777776,21.5323,314.999998,314.999998,324.999988,324.999988,99.55374285714285,99.51023333333333,99.57527142857143,99.54955714285714,0.14050000000000007,-0.05325000000000002,-0.08416666666666667,0.14285714285714288,-0.05900000000000105,-0.045000000000001705,1.5896666666666666,1.5790000000000002,37.878,30.599,39.28,35.577,54.256,36.984,62.329,53.465,52.296,36.0535,60.5865,51.669,51.491,35.619,60.2435,50.98133333333333,-0.13650000000000007,-0.08099999999999996,0.11015000000000001,0.10471000000000001,0.0,216.52666666666664,216.53,213.41333333333333,213.41333333333333,0.0,0.0
26,0.0,0.0,0.0,1.0,1.0,0.0,0.0,1.0,0.0,100.0,1.0,1.1856,26.0,0.0,0.0,0.0,59.999996,0.0,26.0,26.0,26.0,26.0,0.02937499999999993,0.28690000000000015,0.07756666666666667,281.479,-2.661,-2.6331428571428575,-1.7695,-1.7846250000000001,-187.49,215.765,190.418,0.0,0.0,0.0,0.0,0.052866666666666506,-5.498166666666667,-5.498166666666667,-0.42010000000000003,0.33866666666666656,0.003666666666666707,-0.445,69.301,0.0247,-0.02,-0.3099999999999996,100.0,1.0,1.0,213.51666666666665,0.0,0.0,0.0,0.0,0.0,0.0,0.0,9050.2,0.0,55.0,5.0,249.45666666666665,0.0,0.0,0.0,0.0,0.0,0.0,0.0,0.0,1.3079999999999998,1.3079999999999998,0.0,0.0,0.0,55.0,616.79921,10000.0,85.000001,85.000001,85.000001,85.000001,395.0,0.0,0.0,0.0,1.0,166.665,46.539,46.539,32.593,32.593,34.0,-21.245,23.21,-34.215,37.167500000000004,0.0,1782.385,-0.379999999999999,100.0,18.772,18.8735,26.384,26.5865,0.0,0.0,100.0,0.0,0.0,0.0,0.0,3199.875,3056.5,4532.0,4493.9,305.13166666666666,304.962,313.91075,313.65175,21.90988888888889,20.742,22.13577777777778,21.5417,314.999998,314.999998,324.999988,324.999988,99.55377142857142,99.51025,99.57542857142857,99.54971428571429,0.14825,-0.06725000000000003,-0.083,0.13771428571428573,-0.04100000000000037,-0.026666666666670835,1.4489999999999998,1.444,37.937,30.637999999999998,39.349000000000004,35.635999999999996,54.254000000000005,37.0225,62.3625,53.5275,52.294,36.089,60.617,51.729,51.487,35.6525,60.271,51.03966666666666,-0.1459999999999999,-0.07850000000000001,0.11090000000000001,0.11456500000000001,0.0,216.94333333333333,216.97500000000002,213.51666666666665,213.51666666666665,0.0,0.0
27,0.0,0.0,0.0,1.0,1.0,0.0,0.0,1.0,0.0,100.0,1.0,1.1856,26.0,0.0,0.0,0.0,59.999996,0.0,26.0,26.0,26.0,26.0,0.037250000000000005,0.2574000000000001,-0.04006666666666667,282.2265,-2.6248,-2.5932857142857144,-1.8209,-1.777375,-184.36,215.7475,190.396375,0.0,0.0,0.0,0.0,0.05466666666666653,-5.498166666666667,-5.498166666666667,-0.4505,-1.0536666666666665,0.014222222222222136,0.762,69.416,0.0285,-0.06645714285714285,-0.45999999999999996,100.0,1.0,1.0,214.06,0.0,0.0,0.0,0.0,0.0,0.0,0.0,9073.3,0.0,55.0,5.0,249.87333333333333,1.0,0.0,0.0,0.0,0.0,0.0,0.0,0.0,1.352999999999998,1.352999999999998,0.0,0.0,1.0,55.0,616.79921,10000.0,85.000001,85.000001,85.000001,85.000001,395.0,0.0,0.0,0.0,1.0,166.665,46.844,46.844,33.371,33.371,34.0,-19.1825,24.87,-29.2725,32.72,0.0,1782.341,-0.3949999999999996,100.0,18.5095,18.5665,26.691,26.764499999999998,0.0,0.0,100.0,0.0,0.0,0.0,0.0,3006.375,3276.3,3956.777777777778,4042.9,305.599,304.52933333333334,315.16925,314.8325,21.91788888888889,20.7474,22.145555555555557,21.55,314.999998,314.999998,324.999988,324.999988,99.55378571428571,99.51026666666667,99.57555714285714,99.54984285714286,0.15650000000000008,-0.058250000000000024,-0.07816666666666668,0.14957142857142858,-0.05099999999999838,-0.04333333333332945,1.5376666666666667,1.5220000000000002,37.986999999999995,30.6715,39.41,35.688,54.248999999999995,37.055,62.39,53.5815,52.289,36.1195,60.6425,51.7805,51.481,35.6815,60.294,51.089666666666666,-0.14449999999999985,-0.08000000000000007,0.11170500000000001,0.10645500000000001,0.0,217.26,217.275,214.06,214.06,0.0,0.0
28,0.0,0.0,0.0,1.0,1.0,0.0,0.0,1.0,0.0,100.0,1.0,1.1856,26.0,0.0,0.0,0.0,59.999996,0.0,26.0,26.0,26.0,26.0,0.03025000000000011,0.27590000000000003,-0.041266666666666674,282.425,-2.6084,-2.5862857142857143,-1.8063,-1.7161250000000001,-180.61,215.72750000000002,190.3695,0.0,0.0,0.0,0.0,0.05686666666666651,-5.498166666666667,-5.498166666666667,-0.45130000000000003,0.6779999999999999,0.005555555555555536,0.651,69.554,0.0362,-0.03265714285714286,-0.524,100.0,1.0,1.0,214.54333333333335,0.0,0.0,0.0,0.0,0.0,0.0,0.0,9093.8,0.0,55.0,5.0,250.36666666666667,0.0,0.0,0.0,0.0,0.0,0.0,0.0,0.0,1.407,1.407,0.0,0.0,0.0,55.0,616.79921,10000.0,85.000001,85.000001,85.000001,85.000001,395.0,0.0,0.0,0.0,1.0,166.665,46.967,46.967,33.89,33.89,34.0,-18.9675,24.398333333333333,-29.77,32.22,0.0,1782.287,-0.36499999999999844,100.0,18.5725,18.4385,25.925,26.229,0.0,0.0,100.0,0.0,0.0,0.0,0.0,3008.0,3202.2,4118.888888888889,4166.7,305.544,304.7183333333333,315.00375,314.6535,21.927555555555557,20.7539,22.156777777777776,21.5597,314.999998,314.999998,324.999988,324.999988,99.5538,99.51026666666667,99.57571428571428,99.55,0.15949999999999998,-0.053749999999999964,-0.0735,0.1392857142857143,-0.05999999999999872,-0.04333333333332945,1.5826666666666667,1.5665,38.048,30.712,39.480000000000004,35.748,54.245000000000005,37.0945,62.417,53.641999999999996,52.285,36.1555,60.667500000000004,51.838499999999996,51.476,35.716,60.3155,51.146,-0.13949999999999996,-0.08400000000000007,0.10542000000000001,0.094575,0.0,217.75,217.765,214.54333333333335,214.54333333333335,0.0,0.0
29,0.0,0.0,0.0,1.0,1.0,0.0,0.0,1.0,0.0,100.0,1.0,1.1856,26.0,0.0,0.0,0.0,59.999996,0.0,26.0,26.0,26.0,26.0,0.06262499999999993,0.26670000000000016,-0.011300000000000001,282.2265,-2.59835,-2.633857142857143,-1.7617,-1.7217500000000001,-177.26999999999998,215.71,190.3445,0.0,0.0,0.0,0.0,0.05879999999999996,-5.498166666666667,-5.498166666666667,-0.4582,-0.7113333333333334,0.011222222222222022,0.9,69.68,0.038700000000000005,-0.0352,-0.4739999999999993,100.0,1.0,1.0,214.79333333333335,0.0,0.0,0.0,0.0,0.0,0.0,0.0,9104.2,0.0,55.0,5.0,250.82333333333332,1.0,0.0,0.0,0.0,0.0,0.0,0.0,0.0,1.4549999999999983,1.4549999999999983,0.0,0.0,1.0,55.0,616.79921,10000.0,85.000001,85.000001,85.000001,85.000001,395.0,0.0,0.0,0.0,1.0,333.33500000000004,47.043,47.043,33.5085,33.5085,34.0,-19.322499999999998,25.165,-28.807499999999997,34.9975,0.0,1782.239,-0.41000000000000014,100.0,18.252,18.326,26.326999999999998,26.512999999999998,0.0,0.0,100.0,0.0,0.0,0.0,0.0,3055.625,3205.9,4062.3333333333335,4289.8,305.491,304.68333333333334,314.9565,314.28375,21.936,20.7596,22.16711111111111,21.5686,314.999998,314.999998,324.999988,324.999988,99.55382857142857,99.51028333333333,99.57585714285715,99.55014285714286,0.1552500000000001,-0.048250000000000015,-0.064,0.15985714285714286,-0.04299999999999926,-0.05666666666667197,1.5036666666666667,1.4929999999999999,38.099999999999994,30.747500000000002,39.545,35.804,54.239000000000004,37.128,62.4465,53.7,52.278999999999996,36.1865,60.695,51.8935,51.469,35.7455,60.34,51.199666666666666,-0.1339999999999999,-0.07600000000000007,0.10485000000000001,0.10628000000000001,0.0,218.08333333333334,218.10500000000002,214.79333333333335,214.79333333333335,0.0,0.0
30,0.0,0.0,0.0,1.0,1.0,0.0,0.0,1.0,0.0,100.0,1.0,1.1856,26.0,0.0,0.0,0.0,59.999996,0.0,26.0,26.0,26.0,26.0,0.058499999999999996,0.2562,0.0419,281.6465,-2.6118,-2.524857142857143,-1.8266,-1.778875,-173.92000000000002,215.695,190.319375,0.0,0.0,0.0,0.0,0.060766666666666524,-5.498166666666667,-5.498166666666667,-0.4545,0.8756666666666667,0.007111111111111068,0.662,69.801,0.0383,-0.037085714285714284,-0.46199999999999974,100.0,1.0,1.0,215.25666666666666,0.0,0.0,0.0,0.0,0.0,0.0,0.0,9123.9,0.0,55.0,5.0,251.25666666666666,0.0,0.0,0.0,0.0,0.0,0.0,1.0,0.0,1.5030000000000001,1.5030000000000001,0.0,0.0,0.0,55.0,616.79921,10000.0,85.000001,85.000001,85.000001,85.000001,395.0,0.0,0.0,0.0,1.0,333.33500000000004,45.653999999999996,45.653999999999996,33.722,33.722,34.0,-20.695,25.163333333333334,-29.8575,34.19,0.0,1782.191,-0.40500000000000114,100.0,19.2005,19.108,26.159,26.5485,0.0,0.0,100.0,0.0,0.0,0.0,0.0,3272.0,3330.4,4159.666666666667,4122.3,304.73466666666667,304.26166666666666,314.95925,314.658,21.944777777777777,20.7657,22.177333333333333,21.5774,314.999998,314.999998,324.999988,324.999988,99.55384285714285,99.51028333333333,99.57598571428571,99.55028571428572,0.16525000000000012,-0.05049999999999999,-0.0605,0.16185714285714287,-0.04100000000000037,-0.06499999999999773,1.5386666666666666,1.5060000000000002,38.155,30.7855,39.608000000000004,35.858000000000004,54.238,37.1655,62.4715,53.756,52.278999999999996,36.221000000000004,60.7185,51.9475,51.467,35.7785,60.3605,51.251666666666665,-0.14749999999999996,-0.07900000000000018,0.10161,0.11097000000000001,0.0,218.49666666666667,218.535,215.25666666666666,215.25666666666666,0.0,0.0
31,0.0,0.0,0.0,1.0,1.0,0.0,0.0,1.0,0.0,100.0,1.0,1.1856,26.0,0.0,0.0,0.0,59.999996,0.0,26.0,26.0,26.0,26.0,0.037125000000000075,0.24470000000000014,0.03006666666666667,281.433,-2.70215,-2.5542857142857143,-1.7806000000000002,-1.776125,-170.36,215.68,190.29375,0.0,0.0,0.0,0.0,0.0628333333333333,-5.498166666666667,-5.498166666666667,-0.44210000000000005,-0.44999999999999996,0.009777777777777885,-0.878,69.93299999999999,0.0398,-0.045271428571428574,-0.42600000000000016,100.0,1.0,1.0,215.53333333333333,0.0,0.0,0.0,0.0,0.0,0.0,0.0,9135.7,0.0,55.0,5.0,251.73333333333335,1.0,0.0,0.0,0.0,0.0,0.0,1.0,0.0,1.5539999999999985,1.5539999999999985,0.0,0.0,1.0,55.0,616.79921,10000.0,85.000001,85.000001,85.000001,85.000001,395.0,0.0,0.0,0.0,1.0,333.33500000000004,46.082,46.082,32.4555,32.4555,34.0,-21.565,25.528333333333332,-31.5275,34.7175,0.0,1782.139,-0.4800000000000004,100.0,18.641,19.197499999999998,26.778,27.213,0.0,0.0,100.0,0.0,0.0,0.0,0.0,3273.0,3349.7,4246.333333333333,4217.0,305.1073333333333,304.17466666666667,314.5905,314.46575,21.95388888888889,20.7719,22.188333333333333,21.5869,314.999998,314.999998,324.999988,324.999988,99.55385714285714,99.51028333333333,99.57614285714286,99.55044285714285,0.15850000000000009,-0.05325000000000002,-0.07916666666666668,0.15085714285714286,-0.06599999999999895,-0.01666666666666572,1.471,1.4635000000000002,38.212,30.8245,39.677,35.918,54.235,37.2035,62.5045,53.819,52.275,36.2565,60.749,52.007999999999996,51.462,35.8125,60.3875,51.31066666666666,-0.1459999999999999,-0.07750000000000012,0.11467500000000001,0.10408500000000001,0.0,218.9,218.89,215.53333333333333,215.53333333333333,0.0,0.0
32,0.0,0.0,0.0,1.0,1.0,0.0,0.0,1.0,0.0,100.0,1.0,1.1856,26.0,0.0,0.0,0.0,59.999996,0.0,26.0,26.0,26.0,26.0,0.07387499999999991,0.25470000000000015,-0.002033333333333333,282.028,-2.6235,-2.619,-1.7576,-1.808875,-166.57999999999998,215.66500000000002,190.26675,0.0,0.0,0.0,0.0,0.06503333333333339,-5.498166666666667,-5.498166666666667,-0.4582,-0.22233333333333327,-0.017888888888888843,-1.108,70.069,0.0429,-0.04964285714285715,-0.5219999999999994,100.0,1.0,1.0,216.02666666666667,0.0,0.0,0.0,0.0,0.0,0.0,0.0,9156.6,0.0,55.0,5.0,252.22,0.0,0.0,0.0,0.0,0.0,0.0,1.0,0.0,1.6080000000000005,1.6080000000000005,0.0,0.0,0.0,55.0,616.79921,10000.0,85.000001,85.000001,85.000001,85.000001,395.0,0.0,0.0,0.0,1.0,166.665,46.783,46.783,33.539,33.539,34.0,-19.8425,23.933333333333334,-28.987499999999997,34.8525,0.0,1782.085,-0.4349999999999987,100.0,18.4805,18.856,26.416,26.945999999999998,0.0,0.0,100.0,0.0,0.0,0.0,0.0,3159.5,3087.3,4084.4444444444443,4168.0,305.315,304.856,315.00825,314.4435,21.963444444444445,20.7785,22.19977777777778,21.5968,314.999998,314.999998,324.999988,324.999988,99.55388571428571,99.5103,99.5763,99.55058571428572,0.16325000000000012,-0.05425000000000002,-0.06983333333333333,0.15457142857142858,-0.04899999999999949,-0.045000000000001705,1.5323333333333333,1.5115000000000003,38.271,30.865499999999997,39.748999999999995,35.980000000000004,54.230999999999995,37.2425,62.533500000000004,53.8815,52.271,36.292500000000004,60.775999999999996,52.068,51.457,35.8465,60.411500000000004,51.369,-0.14749999999999996,-0.08000000000000007,0.11300500000000001,0.10976500000000002,0.0,219.3,219.335,216.02666666666667,216.02666666666667,0.0,0.0
33,0.0,0.0,0.0,1.0,1.0,0.0,0.0,1.0,0.0,100.0,1.0,1.1856,26.0,0.0,0.0,0.0,59.999996,0.0,26.0,26.0,26.0,26.0,0.06574999999999998,0.2559,-0.048133333333333334,282.242,-2.65945,-2.6121428571428575,-1.7698,-1.765625,-163.42000000000002,215.655,190.243,0.0,0.0,0.0,0.0,0.06686666666666652,-5.498166666666667,-5.498166666666667,-0.46730000000000005,-0.31633333333333336,-0.008222222222222353,1.301,70.182,0.0444,-0.03542857142857143,-0.4939999999999998,100.0,1.0,1.0,216.38333333333333,0.0,0.0,0.0,0.0,0.0,0.0,0.0,9171.7,0.0,55.0,5.0,252.63,1.0,0.0,0.0,0.0,0.0,0.0,1.0,0.0,1.6529999999999987,1.6529999999999987,0.0,0.0,1.0,55.0,616.79921,10000.0,85.000001,85.000001,85.000001,85.000001,395.0,0.0,0.0,0.0,1.0,333.33500000000004,47.028,47.028,33.7525,33.7525,34.0,-19.4325,24.96333333333333,-28.2125,34.625,0.0,1782.04,-0.4250000000000007,100.0,18.486,18.377,26.341,26.643,0.0,0.0,100.0,0.0,0.0,0.0,0.0,3059.5,3189.4,4023.222222222222,4195.4,305.49066666666664,304.8036666666667,315.09275,314.51275,21.971333333333334,20.7838,22.209333333333333,21.605,314.999998,314.999998,324.999988,324.999988,99.55391428571428,99.5103,99.57642857142856,99.55072857142858,0.16674999999999995,-0.04325000000000001,-0.059666666666666666,0.16114285714285714,-0.05099999999999838,-0.04333333333332945,1.5313333333333334,1.5205000000000002,38.321,30.899,39.808,36.031,54.227000000000004,37.2735,62.558,53.933,52.266999999999996,36.321,60.799,52.117,51.452,35.874,60.431,51.416666666666664,-0.14250000000000007,-0.07900000000000018,0.1072,0.109365,0.0,219.66,219.685,216.38333333333333,216.38333333333333,0.0,0.0
34,0.0,0.0,0.0,1.0,1.0,0.0,0.0,1.0,0.0,100.0,1.0,1.1856,26.0,0.0,0.0,0.0,59.999996,0.0,26.0,26.0,26.0,26.0,0.05125000000000002,0.24819999999999998,-0.07400000000000001,282.5165,-2.6869,-2.5398571428571426,-1.8373,-1.698125,-159.63,215.64249999999998,190.213125,0.0,0.0,0.0,0.0,0.06906666666666661,-5.498166666666667,-5.498166666666667,-0.4993,-0.8936666666666668,0.019333333333333202,0.976,70.318,0.0456,-0.04278571428571429,-0.5039999999999996,100.0,1.0,1.0,216.79000000000002,0.0,0.0,0.0,0.0,0.0,0.0,0.0,9189.0,0.0,55.0,5.0,253.11666666666667,0.0,0.0,0.0,0.0,0.0,0.0,1.0,0.0,1.7070000000000007,1.7070000000000007,0.0,0.0,0.0,55.0,616.79921,10000.0,85.000001,85.000001,85.000001,85.000001,395.0,0.0,0.0,0.0,1.0,166.665,47.485,47.485,33.9205,33.9205,34.0,-18.47,24.268333333333334,-29.174999999999997,33.825,0.0,1781.987,-0.41499999999999915,100.0,18.181,18.1405,26.134,26.624000000000002,0.0,0.0,100.0,0.0,0.0,0.0,0.0,2909.125,3186.4,4029.222222222222,4226.9,305.85266666666666,304.79766666666666,315.14525,314.489,21.980666666666668,20.7902,22.220777777777776,21.615,314.999998,314.999998,324.999988,324.999988,99.55392857142857,99.51031666666667,99.57658571428571,99.55088571428571,0.17125000000000012,-0.04349999999999998,-0.06233333333333334,0.15942857142857142,-0.04400000000000048,-0.05666666666667197,1.538,1.5255,38.379000000000005,30.939,39.879999999999995,36.093,54.221000000000004,37.31,62.5865,53.9965,52.260999999999996,36.3545,60.825,52.178,51.445,35.906,60.454,51.47566666666667,-0.13850000000000007,-0.07399999999999984,0.11103500000000001,0.10568500000000002,0.0,220.05333333333334,220.095,216.79000000000002,216.79000000000002,0.0,0.0
