,ABS Active,ABS Enabled,AID Allow Tire Blankets,AID Auto Blip,AID Auto Clutch,AID Auto Shift,AID Fuel Rate,AID Ideal Line,AID Mech Damage,AID Stability,AID Tire Wear Rate,Air Density,Air Temp,Ballast,Best Lap Delta,Best Lap Time,Brake Bias,Brake Pos,Brake Temp FL,Brake Temp FR,Brake Temp RL,Brake Temp RR,CG Accel Lateral,CG Accel Longitudinal,CG Accel Vertical,CG Height,Camber FL,Camber FR,Camber RL,Camber RR,Car Coord X,Car Coord Y,Car Coord Z,Car Damage Front,Car Damage Left,Car Damage Rear,Car Damage Right,Car Pos Norm,Caster FL,Caster FR,Chassis Pitch Angle,Chassis Pitch Rate,Chassis Roll Angle,Chassis Roll Rate,Chassis Velocity X,Chassis Velocity Y,Chassis Velocity Z,Chassis Yaw Rate,Clutch Pos,DRS Active,DRS Available,Drive Train Speed,ERS Heat Charging,ERS Is Charging,ERS Max Energy,ERS Power Level,ERS Recovery Level,Engine Brake Setting,Engine Limiter,Engine RPM,Flags,Fuel Level,Gear,Ground Speed,HR Sample Clock,In Pit,KERS Charge,KERS Deployed Energy,KERS Input,KERS Max Energy,LR Sample Clock,Lap Invalidated,Lap Time,Lap Time2,Last Lap Time,Last Sector Time,MR Sample Clock,Max Fuel,Max Power,Max RPM,Max Sus Travel FL,Max Sus Travel FR,Max Sus Travel RL,Max Sus Travel RR,Max Torque,Max Turbo Boost,Num Tires Off Track,Penalties Enabled,Position,Raw Data Sample Rate,Ride Height FL,Ride Height FR,Ride Height RL,Ride Height RR,Road Temp,Self Align Torque FL,Self Align Torque FR,Self Align Torque RL,Self Align Torque RR,Session Lap Count,Session Time Left,Steering Angle,Surface Grip,Suspension Travel FL,Suspension Travel FR,Suspension Travel RL,Suspension Travel RR,TC Active,TC Enabled,Throttle Pos,Tire Dirt Level FL,Tire Dirt Level FR,Tire Dirt Level RL,Tire Dirt Level RR,Tire Load FL,Tire Load FR,Tire Load RL,Tire Load RR,Tire Loaded Radius FL,Tire Loaded Radius FR,Tire Loaded Radius RL,Tire Loaded Radius RR,Tire Pressure FL,Tire Pressure FR,Tire Pressure RL,Tire Pressure RR,Tire Radius FL,Tire Radius FR,Tire Radius RL,Tire Radius RR,Tire Rubber Grip FL,Tire Rubber Grip FR,Tire Rubber Grip RL,Tire Rubber Grip RR,Tire Slip Angle FL,Tire Slip Angle FR,Tire Slip Angle RL,Tire Slip Angle RR,Tire Slip Ratio FL,Tire Slip Ratio FR,Tire Slip Ratio RL,Tire Slip Ratio RR,Tire Temp Core FL,Tire Temp Core FR,Tire Temp Core RL,Tire Temp Core RR,Tire Temp Inner FL,Tire Temp Inner FR,Tire Temp Inner RL,Tire Temp Inner RR,Tire Temp Middle FL,Tire Temp Middle FR,Tire Temp Middle RL,Tire Temp Middle RR,Tire Temp Outer FL,Tire Temp Outer FR,Tire Temp Outer RL,Tire Temp Outer RR,Toe In FL,Toe In FR,Toe In RL,Toe In RR,Turbo Boost,Wheel Angular Speed FL,Wheel Angular Speed FR,Wheel Angular Speed RL,Wheel Angular Speed RR,Wind Direction,Wind Speed
0,0.0,0.0,0.0,1.0,1.0,0.0,0.0,1.0,0.0,100.0,1.0,1.1856,26.0,0.0,0.0,0.0,59.99999,0.0,26.0,26.0,26.0,26.0,-0.10150000000000003,0.3076000000000001,0.0098,286.5295,-2.6779,-2.62475,-1.6634,-1.68775,-275.61,216.1875,190.97975,0.0,0.0,0.0,0.0,0.0016333333333333332,-5.498166666666667,-5.498166666666667,-0.4163,1.3893333333333333,-0.010555555555555873,-0.353,65.66,-0.036599999999999966,-0.05358571428571429,1.0099999999999998,100.0,1.0,1.0,202.88333333333333,0.0,0.0,0.0,0.0,0.0,0.0,0.0,8599.4,0.0,55.0,5.0,236.3466666666667,0.0,0.0,0.0,0.0,0.0,0.0,0.0,0.0,0.0030000000000001137,0.0030000000000001137,0.0,0.0,0.0,55.0,616.79921,10000.0,85.0,85.0,85.0,85.0,395.0,0.0,0.0,0.0,1.0,20.0,49.21,49.21,38.681,38.681,34.0,-28.985,24.262,-29.2075,23.8475,0.0,1782.981,0.9149999999999991,100.0,17.9755,17.5415,24.076,23.9125,0.0,0.0,100.0,0.0,0.0,0.0,0.0,3319.4444444444443,3692.5,3881.375,3746.8,304.617,303.1065,315.4775,315.54025,21.682222222222222,20.5826,21.873555555555555,21.3163,314.99999,314.99999,324.99998,324.99998,99.55415714285714,99.50956666666667,99.5726,99.54624285714286,0.006500000000000001,-0.14675,-0.15049999999999997,0.057333333333333236,-0.053000000000000824,-0.054999999999999716,1.6336666666666666,1.6865,36.513999999999996,29.6415,37.71,34.227000000000004,54.72,35.881,61.8135,52.1055,52.7,35.016,60.1465,50.3965,51.873,34.6055,59.908,49.77433333333333,-0.014666666666666606,-0.15900000000000025,0.10185000000000001,0.10682000000000001,0.0,205.75,205.66500000000002,202.88333333333333,202.88333333333333,0.0,0.0
1,0.0,0.0,0.0,1.0,1.0,0.0,0.0,1.0,0.0,100.0,1.0,1.1856,26.0,0.0,0.0,0.0,59.999996,0.0,26.0,26.0,26.0,26.0,-0.12024999999999997,0.31790000000000007,0.043025,285.5835,-2.5985,-2.762375,-1.6763,-1.7081250000000001,-272.06,216.195,190.958375,0.0,0.0,0.0,0.0,0.0037,-5.498166666666667,-5.498166666666667,-0.3251,-0.5926666666666667,-0.05600000000000005,-0.375,65.827,-0.057599999999999985,-0.0129,1.4779999999999998,100.0,1.0,1.0,202.83666666666667,0.0,0.0,0.0,0.0,0.0,0.0,0.0,8597.6,0.0,55.0,5.0,236.94666666666666,1.0,0.0,0.0,0.0,0.0,0.0,0.0,0.0,0.05699999999999861,0.05699999999999861,0.0,0.0,1.0,55.0,616.79921,10000.0,85.000001,85.000001,85.000001,85.000001,395.0,0.0,0.0,0.0,1.0,166.665,51.422,51.422,36.407,36.407,34.0,-24.675,16.336,-38.885,32.2475,0.0,1782.928,0.990000000000002,100.0,18.1205,17.4595,26.139,25.48,0.0,0.0,100.0,0.0,0.0,0.0,0.0,2941.5555555555557,2614.2,4513.625,4829.8,305.767,306.5315,313.76875,312.79025,21.692444444444444,20.5885,21.885666666666665,21.3261,314.999998,314.999998,324.999988,324.999988,99.55415714285714,99.50958333333334,99.57275714285714,99.5464,0.002,-0.17200000000000001,-0.1855,0.02633333333333332,-0.01899999999999835,-0.03166666666666629,1.3763333333333334,1.4165,36.578,29.6785,37.786,34.288,54.708,35.924,61.855000000000004,52.175,52.688,35.0555,60.1855,50.463,51.8605,34.6435,59.944,49.83866666666667,-0.012333333333333307,-0.16849999999999987,0.10933000000000001,0.10633000000000001,0.0,206.24,206.14,202.83666666666667,202.83666666666667,0.0,0.0
2,0.0,0.0,0.0,1.0,1.0,0.0,0.0,1.0,0.0,100.0,1.0,1.1856,26.0,0.0,0.0,0.0,59.999996,0.0,26.0,26.0,26.0,26.0,-0.14712499999999995,0.2915000000000001,-0.01365,286.85,-2.58465,-2.734125,-1.6469,-1.74925,-268.7,216.1975,190.940125,0.0,0.0,0.0,0.0,0.005666666666666667,-5.498166666666667,-5.498166666666667,-0.39790000000000003,-0.2653333333333332,-0.03777777777777791,1.9100000000000001,65.96600000000001,-0.07679999999999998,-0.08071428571428571,1.7920000000000007,100.0,1.0,1.0,203.93333333333334,0.0,0.0,0.0,0.0,0.0,0.0,0.0,8644.0,0.0,55.0,5.0,237.45,0.0,0.0,0.0,0.0,0.0,0.0,0.0,0.0,0.10800000000000054,0.10800000000000054,0.0,0.0,0.0,55.0,616.79921,10000.0,85.000001,85.000001,85.000001,85.000001,395.0,0.0,0.0,0.0,1.0,166.665,50.14,50.14,39.459,39.459,34.0,-30.314999999999998,17.746,-29.165,19.9575,0.0,1782.877,1.0450000000000017,100.0,18.3305,17.348,25.626,24.647,0.0,0.0,100.0,0.0,0.0,0.0,0.0,3399.1111111111113,2966.2,3574.5,3545.1,304.46166666666664,305.441,316.12825,316.1125,21.702333333333332,20.5938,21.89666666666667,21.3349,314.999998,314.999998,324.999988,324.999988,99.55417142857142,99.5096,99.5729,99.54652857142857,-0.027,-0.19425,-0.22499999999999998,-0.005333333333333301,-0.08299999999999841,-0.07166666666666544,1.6913333333333334,1.778,36.638999999999996,29.711,37.854,34.343,54.699,35.9615,61.885,52.229,52.679,35.09,60.213,50.513999999999996,51.851,34.676,59.969,49.888666666666666,-0.010999999999999899,-0.16900000000000004,0.106685,0.09844000000000001,0.0,206.72333333333336,206.535,203.93333333333334,203.93333333333334,0.0,0.0
3,0.0,0.0,0.0,1.0,1.0,0.0,0.0,1.0,0.0,100.0,1.0,1.1856,26.0,0.0,0.0,0.0,59.999996,0.0,26.0,26.0,26.0,26.0,-0.17099999999999993,0.31289999999999996,-0.0013750000000000001,286.5145,-2.70615,-2.6500000000000004,-1.6598000000000002,-1.73525,-265.53,216.195,190.921375,0.0,0.0,0.0,0.0,0.007500000000000001,-5.498166666666667,-5.498166666666667,-0.3537,0.7146666666666667,-0.007333333333333414,-1.1219999999999999,66.111,-0.0968,-0.01655714285714286,1.6579999999999995,100.0,1.0,1.0,203.99333333333334,0.0,0.0,0.0,0.0,0.0,0.0,0.0,8646.6,0.0,55.0,5.0,237.96666666666667,1.0,0.0,0.0,0.0,0.0,0.0,0.0,0.0,0.1559999999999988,0.1559999999999988,0.0,0.0,1.0,55.0,616.79921,10000.0,85.000001,85.000001,85.000001,85.000001,395.0,0.0,0.0,0.0,1.0,166.665,51.331,51.331,37.247,37.247,34.0,-26.47,15.588000000000001,-38.0125,24.4075,0.0,1782.828,0.9800000000000004,100.0,17.9515,17.4495,25.301000000000002,24.59,0.0,0.0,100.0,0.0,0.0,0.0,0.0,2909.5555555555557,2784.1,4332.875,4154.5,305.93333333333334,305.81275,314.3715,314.52325,21.711222222222222,20.599,21.907,21.3433,314.999998,314.999998,324.999988,324.999988,99.55417142857142,99.50961666666667,99.57304285714285,99.54665714285714,-0.03225,-0.20325000000000001,-0.22650000000000003,-0.014333333333333309,-0.05699999999999861,-0.03999999999999915,1.501,1.584,36.695,29.744,37.919,34.394999999999996,54.687,36.001,61.914,52.2855,52.668,35.126,60.24,50.5685,51.8395,34.710499999999996,59.9935,49.94133333333333,-0.014666666666666606,-0.15900000000000025,0.09725500000000001,0.11353,0.0,207.16,207.025,203.99333333333334,203.99333333333334,0.0,0.0
4,0.0,0.0,0.0,1.0,1.0,0.0,0.0,1.0,0.0,100.0,1.0,1.1856,26.0,0.0,0.0,0.0,59.999996,0.0,26.0,26.0,26.0,26.0,-0.18062500000000004,0.28500000000000014,0.027225000000000003,286.621,-2.6367000000000003,-2.70725,-1.6753,-1.747125,-262.35,216.19,190.90275,0.0,0.0,0.0,0.0,0.009333333333333334,-5.498166666666667,-5.498166666666667,-0.3825,-0.9216666666666669,-0.0778888888888889,-1.978,66.249,-0.10599999999999998,-0.052442857142857145,1.6579999999999995,100.0,1.0,1.0,204.51,0.0,0.0,0.0,0.0,0.0,0.0,0.0,8668.4,0.0,55.0,5.0,238.46666666666667,0.0,0.0,0.0,0.0,0.0,0.0,0.0,0.0,0.20400000000000063,0.20400000000000063,0.0,0.0,0.0,55.0,616.79921,10000.0,85.000001,85.000001,85.000001,85.000001,395.0,0.0,0.0,0.0,1.0,333.33500000000004,50.934,50.934,37.613,37.613,34.0,-30.377499999999998,16.404,-37.0975,21.1175,0.0,1782.779,0.9750000000000014,100.0,17.6515,17.1045,25.821,24.7305,0.0,0.0,100.0,0.0,0.0,0.0,0.0,3323.0,2864.2,4177.0,3649.3,304.872,305.59175,314.6685,315.70525,21.720111111111112,20.6041,21.917555555555555,21.3517,314.999998,314.999998,324.999988,324.999988,99.55417142857142,99.50965,99.57317142857143,99.54678571428572,-0.04125,-0.20775000000000002,-0.2373333333333334,-0.011333333333333306,-0.0470000000000006,-0.061666666666667425,1.528,1.6115,36.751000000000005,29.7755,37.985,34.448,54.675,36.0385,61.9475,52.3405,52.656,35.1605,60.2715,50.6205,51.827,34.7435,60.022,49.992333333333335,-0.013666666666666716,-0.16300000000000026,0.10651000000000001,0.10522000000000001,0.0,207.53333333333336,207.42000000000002,204.51,204.51,0.0,0.0
5,0.0,0.0,0.0,1.0,1.0,0.0,0.0,1.0,0.0,100.0,1.0,1.1856,26.0,0.0,0.0,0.0,59.999996,0.0,26.0,26.0,26.0,26.0,-0.18437499999999996,0.3056000000000001,-0.025325,286.743,-2.6402,-2.735875,-1.6526,-1.7377500000000001,-258.97,216.18,190.8825,0.0,0.0,0.0,0.0,0.011300000000000001,-5.498166666666667,-5.498166666666667,-0.3824,0.42766666666666664,-0.08300000000000018,1.1440000000000001,66.394,-0.11459999999999992,-0.037585714285714285,1.5860000000000003,100.0,1.0,1.0,204.98333333333335,0.0,0.0,0.0,0.0,0.0,0.0,0.0,8688.4,0.0,55.0,5.0,238.99,1.0,0.0,0.0,0.0,0.0,0.0,0.0,0.0,0.254999999999999,0.254999999999999,0.0,0.0,1.0,55.0,616.79921,10000.0,85.000001,85.000001,85.000001,85.000001,395.0,0.0,0.0,0.0,1.0,166.665,51.193,51.193,38.147,38.147,34.0,-28.4775,17.092,-36.0375,22.6,0.0,1782.73,0.7100000000000009,100.0,18.0675,16.8475,25.66,24.264499999999998,0.0,0.0,100.0,0.0,0.0,0.0,0.0,3139.777777777778,2859.5,4101.125,3958.7,305.152,305.826,314.88625,315.085,21.729888888888887,20.6095,21.928555555555555,21.360500000000002,314.999998,314.999998,324.999988,324.999988,99.55418571428571,99.50966666666666,99.57331428571429,99.54692857142857,-0.032,-0.1915,-0.2413333333333334,-0.01966666666666661,-0.0470000000000006,-0.05333333333332746,1.5483333333333333,1.6155,36.812,29.8095,38.054,34.503,54.666,36.079,61.9805,52.394999999999996,52.647999999999996,35.198,60.302,50.6725,51.817499999999995,34.7785,60.05,50.04266666666666,-0.026000000000000023,-0.14550000000000018,0.10706,0.111765,0.0,208.04333333333335,207.905,204.98333333333335,204.98333333333335,0.0,0.0
6,0.0,0.0,0.0,1.0,1.0,0.0,0.0,1.0,0.0,100.0,1.0,1.1856,26.0,0.0,0.0,0.0,59.999996,0.0,26.0,26.0,26.0,26.0,-0.173875,0.28180000000000005,-0.001225,286.5905,-2.60095,-2.7668749999999998,-1.6924000000000001,-1.73825,-255.78,216.16750000000002,190.863125,0.0,0.0,0.0,0.0,0.013166666666666667,-5.498166666666667,-5.498166666666667,-0.372,0.16433333333333333,-0.07033333333333358,0.8580000000000001,66.533,-0.1149,-0.028842857142857146,1.3320000000000007,100.0,1.0,1.0,205.35666666666668,0.0,0.0,0.0,0.0,0.0,0.0,0.0,8704.3,0.0,55.0,5.0,239.48666666666668,0.0,0.0,0.0,0.0,0.0,0.0,0.0,0.0,0.3030000000000008,0.3030000000000008,0.0,0.0,0.0,55.0,616.79921,10000.0,85.000001,85.000001,85.000001,85.000001,395.0,0.0,0.0,0.0,1.0,166.665,51.071,51.071,37.766,37.766,34.0,-27.2925,18.002,-36.5175,23.44,0.0,1782.681,0.5549999999999997,100.0,17.9505,16.888,25.791,24.492,0.0,0.0,100.0,0.0,0.0,0.0,0.0,3115.222222222222,2919.3,4115.25,3982.3,305.19,305.55875,314.8335,315.01675,21.739,20.6147,21.939,21.369,314.999998,314.999998,324.999988,324.999988,99.55418571428571,99.50968333333333,99.57345714285714,99.54705714285714,-0.01675,-0.1885,-0.23466666666666658,-0.008166666666666655,-0.030999999999998806,-0.06333333333333258,1.528,1.5939999999999999,36.869,29.8415,38.119,34.556,54.656,36.117,62.012,52.451,52.638,35.233000000000004,60.3315,50.7255,51.8075,34.812,60.077,50.09433333333333,-0.04733333333333323,-0.1339999999999999,0.1033,0.11056,0.0,208.43666666666667,208.35000000000002,205.35666666666668,205.35666666666668,0.0,0.0
7,0.0,0.0,0.0,1.0,1.0,0.0,0.0,1.0,0.0,100.0,1.0,1.1856,26.0,0.0,0.0,0.0,59.999996,0.0,26.0,26.0,26.0,26.0,-0.13924999999999998,0.28280000000000016,0.030275,286.453,-2.56805,-2.764125,-1.6476000000000002,-1.782125,-252.18,216.1475,190.841375,0.0,0.0,0.0,0.0,0.015266666666666666,-5.498166666666667,-5.498166666666667,-0.3795,-0.023333333333333428,-0.06255555555555592,1.081,66.687,-0.1026999999999999,-0.04295714285714286,0.96,100.0,1.0,1.0,205.82666666666665,0.0,0.0,0.0,0.0,0.0,0.0,0.0,8724.2,0.0,55.0,5.0,240.04333333333335,1.0,0.0,0.0,0.0,0.0,0.0,0.0,0.0,0.3569999999999993,0.3569999999999993,0.0,0.0,1.0,55.0,616.79921,10000.0,85.000001,85.000001,85.000001,85.000001,395.0,0.0,0.0,0.0,1.0,166.665,50.735,50.735,38.04,38.04,34.0,-26.75,19.747999999999998,-34.305,24.2775,0.0,1782.628,0.19000000000000128,100.0,18.1255,16.9615,25.814,24.679000000000002,0.0,0.0,100.0,0.0,0.0,0.0,0.0,3187.5555555555557,2980.5,4017.75,3944.0,304.93733333333336,305.351,315.0235,315.054,21.749222222222222,20.6204,21.950777777777777,21.3785,314.999998,314.999998,324.999988,324.999988,99.55418571428571,99.5097,99.57361428571429,99.54721428571429,0.00725,-0.15675,-0.22150000000000003,0.0003333333333332966,-0.03599999999999781,-0.05333333333332746,1.5436666666666667,1.5819999999999999,36.932,29.877499999999998,38.193,34.616,54.644999999999996,36.158500000000004,62.0475,52.513,52.628,35.271,60.3645,50.785,51.796,34.848,60.107,50.152,-0.07066666666666666,-0.10349999999999993,0.11033000000000001,0.10401500000000001,0.0,208.90333333333334,208.82,205.82666666666665,205.82666666666665,0.0,0.0
8,0.0,0.0,0.0,1.0,1.0,0.0,0.0,1.0,0.0,100.0,1.0,1.1856,26.0,0.0,0.0,0.0,59.999996,0.0,26.0,26.0,26.0,26.0,-0.10724999999999996,0.29110000000000014,0.00235,286.6515,-2.6583,-2.69025,-1.6324,-1.731,-248.78,216.125,190.82075,0.0,0.0,0.0,0.0,0.017233333333333337,-5.498166666666667,-5.498166666666667,-0.3831,-0.5266666666666668,-0.0474444444444444,-0.692,66.832,-0.08239999999999992,-0.037771428571428574,0.5499999999999998,100.0,1.0,1.0,206.21,0.0,0.0,0.0,0.0,0.0,0.0,0.0,8740.4,0.0,55.0,5.0,240.56666666666666,0.0,0.0,0.0,0.0,0.0,0.0,0.0,0.0,0.40800000000000125,0.40800000000000125,0.0,0.0,0.0,55.0,616.79921,10000.0,85.000001,85.000001,85.000001,85.000001,395.0,0.0,0.0,0.0,1.0,166.665,51.392,51.392,37.476,37.476,34.0,-26.4325,18.812,-33.9975,25.322499999999998,0.0,1782.577,0.06500000000000128,100.0,17.428,17.0655,25.715,24.84,0.0,0.0,100.0,0.0,0.0,0.0,0.0,3131.3333333333335,2896.2,4119.0,3976.3,305.46233333333333,305.52425,314.83325,314.8785,21.758555555555557,20.6259,21.96188888888889,21.3875,314.999998,314.999998,324.999988,324.999988,99.55418571428571,99.50971666666666,99.57375714285715,99.54734285714285,0.01025,-0.15025,-0.1981666666666666,0.02499999999999991,-0.06899999999999906,-0.02833333333332888,1.5346666666666666,1.548,36.991,29.912,38.262,34.672,54.631,36.197,62.0805,52.571,52.614999999999995,35.306,60.3955,50.8405,51.783,34.8815,60.135,50.205666666666666,-0.08099999999999996,-0.08800000000000008,0.10966500000000001,0.11127000000000001,0.0,209.34,209.26999999999998,206.21,206.21,0.0,0.0
9,0.0,0.0,0.0,1.0,1.0,0.0,0.0,1.0,0.0,100.0,1.0,1.1856,26.0,0.0,0.0,0.0,59.999996,0.0,26.0,26.0,26.0,26.0,-0.07750000000000001,0.2954000000000001,-0.013600000000000001,286.2855,-2.58125,-2.70775,-1.6868,-1.72025,-245.57,216.1,190.800875,0.0,0.0,0.0,0.0,0.019100000000000002,-5.498166666666667,-5.498166666666667,-0.38320000000000004,0.6923333333333332,-0.05022222222222217,-0.47299999999999986,66.96600000000001,-0.0663999999999999,-0.03295714285714286,0.44200000000000017,100.0,1.0,1.0,206.71,0.0,0.0,0.0,0.0,0.0,0.0,0.0,8761.7,0.0,55.0,5.0,241.04666666666668,1.0,0.0,0.0,0.0,0.0,0.0,0.0,0.0,0.4559999999999995,0.4559999999999995,0.0,0.0,1.0,55.0,616.79921,10000.0,85.000001,85.000001,85.000001,85.000001,395.0,0.0,0.0,0.0,1.0,166.665,50.339,50.339,38.269,38.269,34.0,-26.705,20.567999999999998,-32.457499999999996,25.5625,0.0,1782.529,-0.1999999999999993,100.0,18.076999999999998,17.4395,25.433,24.8205,0.0,0.0,100.0,0.0,0.0,0.0,0.0,3362.4444444444443,2943.3,4057.75,3984.0,304.6143333333333,305.31725,315.09625,314.95925,21.767666666666667,20.6312,21.97211111111111,21.3959,314.999998,314.999998,324.999988,324.999988,99.5542,99.50975,99.57388571428571,99.54748571428571,0.04225,-0.1215,-0.17266666666666663,0.03766666666666674,-0.05699999999999861,-0.041666666666671404,1.58,1.5979999999999999,37.048,29.9455,38.326,34.725,54.623000000000005,36.2335,62.108000000000004,52.625,52.607,35.3395,60.4215,50.8915,51.7735,34.9135,60.158,50.256,-0.09999999999999987,-0.07450000000000001,0.09849500000000001,0.10819500000000001,0.0,209.78,209.715,206.71,206.71,0.0,0.0
10,0.0,0.0,0.0,1.0,1.0,0.0,0.0,1.0,0.0,100.0,1.0,1.1856,26.0,0.0,0.0,0.0,59.999996,0.0,26.0,26.0,26.0,26.0,-0.05612499999999998,0.27859999999999996,-0.007975000000000001,286.194,-2.6134,-2.692,-1.6628,-1.698,-242.35,216.075,190.781375,0.0,0.0,0.0,0.0,0.020966666666666668,-5.498166666666667,-5.498166666666667,-0.3645,-0.4850000000000001,-0.013777777777777889,0.28000000000000025,67.104,-0.046699999999999964,-0.027442857142857147,0.02800000000000047,100.0,1.0,1.0,206.94333333333333,0.0,0.0,0.0,0.0,0.0,0.0,0.0,8771.6,0.0,55.0,5.0,241.54333333333335,0.0,0.0,0.0,0.0,0.0,0.0,1.0,0.0,0.5040000000000013,0.5040000000000013,0.0,0.0,0.0,55.0,616.79921,10000.0,85.000001,85.000001,85.000001,85.000001,395.0,0.0,0.0,0.0,1.0,166.665,51.346000000000004,51.346000000000004,36.85,36.85,34.0,-22.482499999999998,19.994,-34.41,28.4125,0.0,1782.482,-0.3249999999999993,100.0,17.837,17.3735,25.892,25.4755,0.0,0.0,100.0,0.0,0.0,0.0,0.0,2951.222222222222,2825.8,4292.875,4171.0,305.8743333333333,305.72125,314.421,314.421,21.776555555555554,20.636499999999998,21.982666666666667,21.4046,314.999998,314.999998,324.999988,324.999988,99.5542,99.50975,99.57404285714286,99.54761428571429,0.059500000000000004,-0.10775,-0.15949999999999998,0.05916666666666681,-0.028999999999999915,-0.03333333333333144,1.4823333333333335,1.488,37.102999999999994,29.978,38.391999999999996,34.778999999999996,54.613,36.266999999999996,62.1405,52.683,52.598,35.3705,60.451499999999996,50.947,51.763999999999996,34.943,60.185,50.309666666666665,-0.1116666666666668,-0.06000000000000005,0.10977500000000001,0.10552500000000001,0.0,210.14333333333335,210.135,206.94333333333333,206.94333333333333,0.0,0.0
11,0.0,0.0,0.0,1.0,1.0,0.0,0.0,1.0,0.0,100.0,1.0,1.1856,26.0,0.0,0.0,0.0,59.999996,0.0,26.0,26.0,26.0,26.0,-0.02487499999999998,0.2744,-0.075475,286.7585,-2.6604,-2.677,-1.7155,-1.6912500000000001,-238.92000000000002,216.0475,190.760625,0.0,0.0,0.0,0.0,0.022600000000000002,-5.498166666666667,-5.498166666666667,-0.4062,-0.1503333333333332,0.012666666666666604,0.42500000000000027,67.243,-0.024599999999999955,-0.05648571428571429,-0.20000000000000018,100.0,1.0,1.0,207.68333333333334,0.0,0.0,0.0,0.0,0.0,0.0,0.0,8802.9,0.0,55.0,5.0,242.04333333333335,1.0,0.0,0.0,0.0,0.0,0.0,1.0,0.0,0.5549999999999997,0.5549999999999997,0.0,0.0,1.0,55.0,616.79921,10000.0,85.000001,85.000001,85.000001,85.000001,395.0,0.0,0.0,0.0,1.0,166.665,50.751,50.751,38.483,38.483,34.0,-22.759999999999998,23.718,-26.8725,26.5025,0.0,1782.43,-0.3249999999999993,100.0,17.7435,17.436,25.41,25.211,0.0,0.0,100.0,0.0,0.0,0.0,0.0,3041.5555555555557,3138.8,3685.875,3823.2,305.484,304.90425,315.93275,315.3835,21.785888888888888,20.6422,21.993555555555556,21.4136,314.999998,314.999998,324.999988,324.999988,99.55421428571428,99.50976666666666,99.57417142857143,99.54775714285714,0.08600000000000001,-0.07425,-0.12183333333333335,0.09650000000000003,-0.03500000000000014,-0.051666666666669414,1.6406666666666667,1.6389999999999998,37.162,30.0135,38.459,34.835,54.602000000000004,36.304,62.167,52.7405,52.587,35.4045,60.4765,51.002,51.753,34.9755,60.207499999999996,50.36333333333333,-0.11233333333333317,-0.05750000000000011,0.10620500000000001,0.1062,0.0,210.55666666666667,210.57,207.68333333333334,207.68333333333334,0.0,0.0
12,0.0,0.0,0.0,1.0,1.0,0.0,0.0,1.0,0.0,100.0,1.0,1.1856,26.0,0.0,0.0,0.0,59.999996,0.0,26.0,26.0,26.0,26.0,-0.0034999999999999476,0.2773000000000001,0.029275000000000002,286.133,-2.6753,-2.6723749999999997,-1.6817000000000002,-1.719375,-235.49,216.01749999999998,190.7385,0.0,0.0,0.0,0.0,0.025466666666666665,-5.498166666666667,-5.498166666666667,-0.38930000000000003,0.31833333333333336,-0.0076666666666667105,-0.839,67.388,-0.005599999999999938,-0.024242857142857142,-0.16999999999999993,100.0,1.0,1.0,207.89666666666668,0.0,0.0,0.0,0.0,0.0,0.0,0.0,8811.9,0.0,55.0,5.0,242.56666666666666,0.0,0.0,0.0,0.0,0.0,0.0,1.0,0.0,0.6059999999999981,0.6059999999999981,0.0,0.0,0.0,55.0,616.79921,10000.0,85.000001,85.000001,85.000001,85.000001,395.0,0.0,0.0,0.0,1.0,166.665,50.659,50.659,37.17,37.17,34.0,-23.54,23.336,-31.7575,30.2975,0.0,1782.379,-0.5300000000000011,100.0,17.5705,17.71,25.362000000000002,25.262999999999998,0.0,0.0,100.0,0.0,0.0,0.0,0.0,3174.1111111111113,3055.6,4233.5,4094.8,305.246,305.00075,314.64675,314.66175,21.795222222222222,20.6479,22.004444444444445,21.4227,314.999998,314.999998,324.999988,324.999988,99.55422857142857,99.50976666666666,99.57431428571428,99.5479,0.0935,-0.06925,-0.12016666666666664,0.10733333333333328,-0.03599999999999781,-0.03499999999999659,1.524,1.525,37.22,30.049500000000002,38.528,34.891999999999996,54.593,36.3405,62.198,52.799,52.578,35.438,60.504999999999995,51.058,51.743,35.0075,60.233000000000004,50.418,-0.11799999999999988,-0.0535000000000001,0.10550500000000002,0.11460500000000001,0.0,211.02333333333334,211.04000000000002,207.89666666666668,207.89666666666668,0.0,0.0
13,0.0,0.0,0.0,1.0,1.0,0.0,0.0,1.0,0.0,100.0,1.0,1.1856,26.0,0.0,0.0,0.0,59.999996,0.0,26.0,26.0,26.0,26.0,0.025125000000000064,0.27449999999999997,0.033850000000000005,285.8275,-2.6564,-2.66675,-1.7168999999999999,-1.6965000000000001,-231.85,215.9875,190.7155,0.0,0.0,0.0,0.0,0.02706666666666667,-5.498166666666667,-5.498166666666667,-0.3845,-0.20166666666666666,-0.0014444444444445814,-0.5700000000000001,67.539,0.006599999999999939,-0.03622857142857143,-0.2560000000000002,100.0,1.0,1.0,208.30666666666667,0.0,0.0,0.0,0.0,0.0,0.0,0.0,8829.3,0.0,55.0,5.0,243.11,1.0,0.0,0.0,0.0,0.0,0.0,1.0,0.0,0.6600000000000001,0.6600000000000001,0.0,0.0,1.0,55.0,616.79921,10000.0,85.000001,85.000001,85.000001,85.000001,395.0,0.0,0.0,0.0,1.0,111.11,50.461,50.461,37.201,37.201,34.0,-22.482499999999998,23.622,-30.622500000000002,31.375,0.0,1782.325,-0.46499999999999986,100.0,17.8415,17.8475,25.596,25.7845,0.0,0.0,100.0,0.0,0.0,0.0,0.0,3171.222222222222,3053.1,4171.25,4181.9,305.25233333333335,304.99225,314.7755,314.37925,21.80511111111111,20.6541,22.016111111111112,21.4325,314.999998,314.999998,324.999988,324.999988,99.55424285714285,99.50978333333333,99.57447142857143,99.54805714285715,0.11275,-0.06125,-0.09816666666666662,0.1166666666666667,-0.045999999999999375,-0.046666666666666856,1.5156666666666667,1.5215,37.282,30.088,38.601,34.953,54.585,36.3785,62.2305,52.8645,52.571,35.473,60.5355,51.121,51.7345,35.0405,60.26,50.479,-0.1283333333333332,-0.05900000000000016,0.10830500000000001,0.10851000000000001,0.0,211.48666666666668,211.5,208.30666666666667,208.30666666666667,0.0,0.0
14,0.0,0.0,0.0,1.0,1.0,0.0,0.0,1.0,0.0,100.0,1.0,1.1856,26.0,0.0,0.0,0.0,59.999996,0.0,26.0,26.0,26.0,26.0,0.03974999999999995,0.27290000000000014,-0.01305,286.133,-2.68115,-2.668125,-1.7212,-1.68275,-228.6,215.96,190.6955,0.0,0.0,0.0,0.0,0.02896666666666667,-5.498166666666667,-5.498166666666667,-0.3955,-0.137,0.02388888888888885,-0.32200000000000006,67.67,0.016800000000000148,-0.04805714285714286,-0.4139999999999997,100.0,1.0,1.0,208.80333333333334,0.0,0.0,0.0,0.0,0.0,0.0,0.0,8850.5,0.0,55.0,5.0,243.58333333333334,0.0,0.0,0.0,0.0,0.0,0.0,1.0,0.0,0.7079999999999984,0.7079999999999984,0.0,0.0,0.0,55.0,616.79921,10000.0,85.000001,85.000001,85.000001,85.000001,395.0,0.0,0.0,0.0,1.0,166.665,50.568,50.568,37.491,37.491,34.0,-21.585,24.54,-28.16,30.6825,0.0,1782.277,-0.47499999999999787,100.0,17.7165,17.947,25.53,25.8235,0.0,0.0,100.0,0.0,0.0,0.0,0.0,3084.1111111111113,3091.5,3964.25,4058.7,305.5346666666667,304.817,315.28475,314.7055,21.81388888888889,20.6595,22.026444444444444,21.4412,314.999998,314.999998,324.999988,324.999988,99.55425714285714,99.50978333333333,99.57461428571429,99.54818571428571,0.122,-0.04975,-0.08866666666666656,0.13116666666666688,-0.053000000000000824,-0.045000000000001705,1.564,1.5434999999999999,37.337,30.122,38.665,35.007,54.579,36.411500000000004,62.2575,52.921,52.565,35.5035,60.56,51.1745,51.727000000000004,35.07,60.282,50.531333333333336,-0.1303333333333332,-0.053999999999999826,0.10554000000000001,0.10952500000000001,0.0,211.89666666666665,211.91,208.80333333333334,208.80333333333334,0.0,0.0
15,0.0,0.0,0.0,1.0,1.0,0.0,0.0,1.0,0.0,100.0,1.0,1.1856,26.0,0.0,0.0,0.0,59.999996,0.0,26.0,26.0,26.0,26.0,0.04974999999999996,0.29200000000000004,-0.052725,286.1635,-2.68995,-2.6313750000000002,-1.7423000000000002,-1.684125,-225.35,215.9325,190.675125,0.0,0.0,0.0,0.0,0.03086666666666667,-5.498166666666667,-5.498166666666667,-0.38470000000000004,0.21766666666666656,0.04733333333333323,-0.8779999999999999,67.80199999999999,0.027700000000000058,-0.027042857142857146,-0.4639999999999995,100.0,1.0,1.0,209.17666666666668,0.0,0.0,0.0,0.0,0.0,0.0,0.0,8866.3,0.0,55.0,5.0,244.05666666666667,1.0,0.0,0.0,0.0,0.0,0.0,1.0,0.0,0.7560000000000002,0.7560000000000002,0.0,0.0,1.0,55.0,616.79921,10000.0,85.000001,85.000001,85.000001,85.000001,395.0,0.0,0.0,0.0,1.0,166.665,50.842,50.842,37.476,37.476,34.0,-20.5175,23.810000000000002,-27.7825,32.417500000000004,0.0,1782.229,-0.375,100.0,17.686,17.941,25.308,25.887999999999998,0.0,0.0,100.0,0.0,0.0,0.0,0.0,2941.8888888888887,3037.1,3970.625,4226.9,305.95366666666666,304.97625,315.27775,314.286,21.822666666666667,20.665,22.036666666666665,21.4498,314.999998,314.999998,324.999988,324.999988,99.55427142857143,99.5098,99.57474285714285,99.54832857142857,0.12175,-0.04775,-0.07299999999999995,0.13316666666666666,-0.04499999999999815,-0.02499999999999858,1.5506666666666666,1.5324999999999998,37.391,30.1565,38.729,35.061,54.572,36.445,62.283,52.978,52.558,35.5345,60.584,51.2295,51.7195,35.099000000000004,60.303,50.584666666666664,-0.11833333333333318,-0.058499999999999996,0.10213000000000001,0.10527,0.0,212.30666666666667,212.325,209.17666666666668,209.17666666666668,0.0,0.0
16,0.0,0.0,0.0,1.0,1.0,0.0,0.0,1.0,0.0,100.0,1.0,1.1856,26.0,0.0,0.0,0.0,59.999996,0.0,26.0,26.0,26.0,26.0,0.0495000000000001,0.2703,-0.020825,286.133,-2.7391,-2.58875,-1.7102,-1.69025,-222.09,215.9075,190.65425,0.0,0.0,0.0,0.0,0.03273333333333333,-5.498166666666667,-5.498166666666667,-0.40640000000000004,-0.6886666666666668,0.026666666666666616,-1.2610000000000001,67.934,0.03620000000000001,-0.043742857142857146,-0.3860000000000001,100.0,1.0,1.0,209.58666666666667,0.0,0.0,0.0,0.0,0.0,0.0,0.0,8883.6,0.0,55.0,5.0,244.53333333333336,0.0,0.0,0.0,0.0,0.0,0.0,1.0,0.0,0.8039999999999985,0.8039999999999985,0.0,0.0,0.0,55.0,616.79921,10000.0,85.000001,85.000001,85.000001,85.000001,395.0,0.0,0.0,0.0,1.0,333.33500000000004,50.613,50.613,37.308,37.308,34.0,-22.5575,24.555999999999997,-27.5175,31.192500000000003,0.0,1782.18,-0.29499999999999815,100.0,17.3875,17.9035,25.557,25.8705,0.0,0.0,100.0,0.0,0.0,0.0,0.0,3165.222222222222,3149.2,3985.125,4005.8,305.4413333333333,304.7395,315.22425,314.8275,21.831111111111113,20.6705,22.04711111111111,21.4585,314.999998,314.999998,324.999988,324.999988,99.55428571428571,99.5098,99.57487142857143,99.54845714285715,0.12375,-0.042,-0.0741666666666666,0.14983333333333326,-0.04899999999999949,-0.05833333333333002,1.5636666666666668,1.5495,37.445,30.191,38.794,35.116,54.562,36.478,62.312,53.034,52.549,35.565,60.6105,51.283,51.7095,35.128,60.327,50.637,-0.1096666666666668,-0.06300000000000017,0.10428000000000001,0.10924500000000001,0.0,212.68666666666667,212.72,209.58666666666667,209.58666666666667,0.0,0.0
17,0.0,0.0,0.0,1.0,1.0,0.0,0.0,1.0,0.0,100.0,1.0,1.1856,26.0,0.0,0.0,0.0,59.999996,0.0,26.0,26.0,26.0,26.0,0.033500000000000085,0.28380000000000005,0.034050000000000004,285.6905,-2.6996,-2.575625,-1.748,-1.654875,-218.42000000000002,215.88,190.630375,0.0,0.0,0.0,0.0,0.03486666666666667,-5.498166666666667,-5.498166666666667,-0.3935,0.40800000000000003,0.004555555555555646,-0.7329999999999999,68.082,0.034399999999999986,-0.023685714285714286,-0.274,100.0,1.0,1.0,209.96666666666667,0.0,0.0,0.0,0.0,0.0,0.0,0.0,8899.7,0.0,55.0,5.0,245.06333333333333,1.0,0.0,0.0,0.0,0.0,0.0,1.0,0.0,0.8580000000000005,0.8580000000000005,0.0,0.0,1.0,55.0,616.79921,10000.0,85.000001,85.000001,85.000001,85.000001,395.0,0.0,0.0,0.0,1.0,166.665,50.385,50.385,36.911,36.911,34.0,-22.54,23.718,-31.4375,32.3875,0.0,1782.127,-0.29499999999999815,100.0,17.901,18.064,25.462,25.8465,0.0,0.0,100.0,0.0,0.0,0.0,0.0,3200.0,3061.3,4347.75,4235.6,305.23333333333335,305.00475,314.45175,314.37575,21.841,20.6768,22.058666666666667,21.4682,314.999998,314.999998,324.999988,324.999988,99.5543,99.5098,99.57502857142858,99.54862857142857,0.125,-0.0405,-0.07799999999999996,0.1403333333333332,-0.03999999999999915,-0.051666666666669414,1.5150000000000001,1.5175,37.506,30.23,38.867000000000004,35.176,54.556,36.516,62.342,53.0965,52.543,35.6,60.6385,51.343,51.7025,35.161500000000004,60.3515,50.69566666666667,-0.1146666666666667,-0.06450000000000022,0.11024,0.10347,0.0,213.19333333333333,213.19,209.96666666666667,209.96666666666667,0.0,0.0
18,0.0,0.0,0.0,1.0,1.0,0.0,0.0,1.0,0.0,100.0,1.0,1.1856,26.0,0.0,0.0,0.0,59.999996,0.0,26.0,26.0,26.0,26.0,0.025500000000000078,0.28310000000000013,0.023175,285.66,-2.7268,-2.5515,-1.758,-1.604,-215.15,215.85500000000002,190.60925,0.0,0.0,0.0,0.0,0.0368,-5.498166666666667,-5.498166666666667,-0.40690000000000004,-0.45833333333333326,0.023333333333333206,-0.47499999999999987,68.212,0.03170000000000006,-0.0427,-0.23800000000000043,100.0,1.0,1.0,210.39,0.0,0.0,0.0,0.0,0.0,0.0,0.0,8917.7,0.0,55.0,5.0,245.53333333333336,0.0,0.0,0.0,0.0,0.0,0.0,1.0,0.0,0.9059999999999988,0.9059999999999988,0.0,0.0,0.0,55.0,616.79921,10000.0,85.000001,85.000001,85.000001,85.000001,395.0,0.0,0.0,0.0,1.0,166.665,50.095,50.095,36.972,36.972,34.0,-23.197499999999998,25.182000000000002,-29.5975,30.345,0.0,1782.079,-0.3149999999999977,100.0,17.7135,18.017,25.72,26.072,0.0,0.0,100.0,0.0,0.0,0.0,0.0,3233.1111111111113,3277.4,4105.125,4154.0,305.1653333333333,304.3865,314.97825,314.55125,21.849666666666668,20.682299999999998,22.069,21.477,314.999998,314.999998,324.999988,324.999988,99.55431428571428,99.50981666666667,99.57517142857142,99.54875714285714,0.1215,-0.045,-0.08033333333333337,0.1286666666666667,-0.03999999999999915,-0.02833333333332888,1.53,1.528,37.56,30.264499999999998,38.931,35.231,54.549,36.549,62.3695,53.1545,52.536,35.629999999999995,60.664500000000004,51.3985,51.6945,35.1905,60.3745,50.74933333333333,-0.10899999999999999,-0.06700000000000017,0.10228500000000001,0.10196500000000001,0.0,213.53333333333336,213.54500000000002,210.39,210.39,0.0,0.0
19,0.0,0.0,0.0,1.0,1.0,0.0,0.0,1.0,0.0,100.0,1.0,1.1856,26.0,0.0,0.0,0.0,59.999996,0.0,26.0,26.0,26.0,26.0,0.042874999999999996,0.2942,0.059925000000000006,285.385,-2.633,-2.66575,-1.6842000000000001,-1.598125,-211.67000000000002,215.83249999999998,190.586625,0.0,0.0,0.0,0.0,0.0388,-5.498166666666667,-5.498166666666667,-0.3935,0.7556666666666667,0.025222222222222035,0.6390000000000002,68.349,0.02960000000000007,-0.029285714285714283,-0.3360000000000003,100.0,1.0,1.0,210.76,0.0,0.0,0.0,0.0,0.0,0.0,0.0,8933.4,0.0,55.0,5.0,246.02666666666664,1.0,0.0,0.0,0.0,0.0,0.0,1.0,0.0,0.9570000000000007,0.9570000000000007,0.0,0.0,1.0,55.0,616.79921,10000.0,85.000001,85.000001,85.000001,85.000001,395.0,0.0,0.0,0.0,1.0,166.665,49.988,49.988,36.896,36.896,34.0,-20.555,25.235999999999997,-28.8175,33.6025,0.0,1782.029,-0.3000000000000007,100.0,18.3685,18.283,25.654,25.984,0.0,0.0,100.0,0.0,0.0,0.0,0.0,3044.1111111111113,3168.9,4140.75,4470.6,305.4166666666667,304.68475,314.789,313.90225,21.859,20.6884,22.07988888888889,21.4862,314.999998,314.999998,324.999988,324.999988,99.55434285714286,99.50981666666667,99.57531428571428,99.5489,0.13425,-0.047,-0.0731666666666666,0.13916666666666666,-0.053000000000000824,-0.06499999999999773,1.4963333333333333,1.5,37.619,30.302500000000002,38.998999999999995,35.289,54.543,36.586,62.3965,53.2145,52.53,35.664500000000004,60.689499999999995,51.4565,51.688,35.2235,60.397,50.806,-0.1146666666666667,-0.07200000000000006,0.10265,0.10109000000000001,0.0,214.02333333333334,214.04000000000002,210.76,210.76,0.0,0.0
20,0.0,0.0,0.0,1.0,1.0,0.0,0.0,1.0,0.0,100.0,1.0,1.1856,26.0,0.0,0.0,0.0,59.999996,0.0,26.0,26.0,26.0,26.0,0.04062499999999991,0.2650000000000001,0.010450000000000001,285.8735,-2.73065,-2.623625,-1.6888,-1.717875,-208.38,215.81,190.56575,0.0,0.0,0.0,0.0,0.04073333333333334,-5.498166666666667,-5.498166666666667,-0.4016,-1.085,0.023222222222222033,0.5640000000000001,68.479,0.02970000000000006,-0.0412,-0.3119999999999994,100.0,1.0,1.0,211.14333333333332,0.0,0.0,0.0,0.0,0.0,0.0,0.0,8949.6,0.0,55.0,5.0,246.49666666666667,0.0,0.0,0.0,0.0,0.0,0.0,0.0,0.0,1.004999999999999,1.004999999999999,0.0,0.0,0.0,55.0,616.79921,10000.0,85.000001,85.000001,85.000001,85.000001,395.0,0.0,0.0,0.0,1.0,166.665,50.873,50.873,36.667,36.667,34.0,-20.9275,24.560000000000002,-28.1425,33.425,0.0,1781.981,-0.23999999999999844,100.0,17.7235,17.775,26.127,26.2305,0.0,0.0,100.0,0.0,0.0,0.0,0.0,2946.1111111111113,3157.3,4046.375,4181.8,305.88233333333335,304.90575,314.95025,314.46175,21.867555555555555,20.6938,22.090333333333334,21.495,314.999998,314.999998,324.999988,324.999988,99.55435714285714,99.50983333333333,99.57544285714286,99.54904285714285,0.1235,-0.04625,-0.07333333333333336,0.14916666666666667,-0.0470000000000006,-0.03166666666666629,1.5073333333333334,1.4865,37.672,30.3365,39.065,35.344,54.534,36.6185,62.4265,53.272,52.521,35.6945,60.717,51.5115,51.678,35.251999999999995,60.4215,50.85966666666667,-0.10333333333333328,-0.07650000000000023,0.10845,0.10757000000000001,0.0,214.36666666666667,214.37,211.14333333333332,211.14333333333332,0.0,0.0
21,0.0,0.0,0.0,1.0,1.0,0.0,0.0,1.0,0.0,100.0,1.0,1.1856,26.0,0.0,0.0,0.0,59.999996,0.0,26.0,26.0,26.0,26.0,0.02774999999999994,0.27849999999999997,-0.04925,286.072,-2.69695,-2.627125,-1.7261000000000002,-1.6775,-204.89,215.7875,190.5425,0.0,0.0,0.0,0.0,0.04276666666666667,-5.498166666666667,-5.498166666666667,-0.42110000000000003,0.41900000000000004,0.002777777777777768,-0.885,68.612,0.025900000000000034,-0.03531428571428572,-0.22199999999999953,100.0,1.0,1.0,211.73333333333335,0.0,0.0,0.0,0.0,0.0,0.0,0.0,8974.6,0.0,55.0,5.0,246.97666666666666,1.0,0.0,0.0,0.0,0.0,0.0,0.0,0.0,1.056000000000001,1.056000000000001,0.0,0.0,1.0,55.0,616.79921,10000.0,85.000001,85.000001,85.000001,85.000001,395.0,0.0,0.0,0.0,1.0,166.665,50.415,50.415,37.567,37.567,34.0,-22.575,24.364,-28.5775,29.2175,0.0,1781.928,-0.28500000000000014,100.0,17.8205,18.009,25.426000000000002,25.822499999999998,0.0,0.0,100.0,0.0,0.0,0.0,0.0,3191.5555555555557,3099.6,4050.25,3977.1000000000004,305.2633333333333,304.89625,315.13575,315.02875,21.87677777777778,20.6998,22.101111111111113,21.5041,314.999998,314.999998,324.999988,324.999988,99.55437142857143,99.50983333333333,99.57558571428571,99.54918571428571,0.1225,-0.04475,-0.08366666666666656,0.125,-0.06700000000000017,-0.05333333333332746,1.591,1.5935000000000001,37.730000000000004,30.3735,39.132,35.400999999999996,54.527,36.6545,62.451499999999996,53.3285,52.515,35.728,60.7405,51.5655,51.670500000000004,35.283500000000004,60.442,50.912333333333336,-0.11333333333333329,-0.0674999999999999,0.103105,0.10119500000000001,0.0,214.82666666666665,214.82999999999998,211.73333333333335,211.73333333333335,0.0,0.0
22,0.0,0.0,0.0,1.0,1.0,0.0,0.0,1.0,0.0,100.0,1.0,1.1856,26.0,0.0,0.0,0.0,59.999996,0.0,26.0,26.0,26.0,26.0,0.03512500000000007,0.26980000000000004,-0.0007750000000000001,285.736,-2.6355,-2.67525,-1.7522000000000002,-1.662625,-201.59,215.765,190.520125,0.0,0.0,0.0,0.0,0.044666666666666674,-5.498166666666667,-5.498166666666667,-0.40390000000000004,-0.006000000000000005,0.015666666666666718,-0.482,68.743,0.02410000000000001,-0.019971428571428574,-0.2519999999999998,100.0,1.0,1.0,211.94666666666666,0.0,0.0,0.0,0.0,0.0,0.0,0.0,8983.6,0.0,55.0,5.0,247.44666666666666,0.0,0.0,0.0,0.0,0.0,0.0,0.0,0.0,1.1039999999999992,1.1039999999999992,0.0,0.0,0.0,55.0,616.79921,10000.0,85.000001,85.000001,85.000001,85.000001,395.0,0.0,0.0,0.0,1.0,166.665,50.766,50.766,36.667,36.667,34.0,-20.4425,23.525999999999996,-31.2975,32.815,0.0,1781.881,-0.34499999999999886,100.0,17.826,18.1435,25.751,26.109,0.0,0.0,100.0,0.0,0.0,0.0,0.0,2979.8888888888887,2992.0,4237.5,4304.6,305.82166666666666,305.1345,314.6735,314.2,21.885444444444445,20.7053,22.111555555555555,21.5129,314.999998,314.999998,324.999988,324.999988,99.55437142857143,99.50985,99.57572857142857,99.54932857142857,0.1205,-0.05475,-0.08950000000000002,0.13116666666666688,-0.0470000000000006,-0.03333333333333144,1.5013333333333332,1.4945,37.784,30.4085,39.197,35.456,54.519999999999996,36.688,62.4805,53.385999999999996,52.507999999999996,35.7585,60.766999999999996,51.6205,51.663,35.313,60.466,50.965666666666664,-0.11499999999999999,-0.06400000000000006,0.10529000000000001,0.111405,0.0,215.22666666666666,215.22,211.94666666666666,211.94666666666666,0.0,0.0
23,0.0,0.0,0.0,1.0,1.0,0.0,0.0,1.0,0.0,100.0,1.0,1.1856,26.0,0.0,0.0,0.0,59.999996,0.0,26.0,26.0,26.0,26.0,0.03312500000000007,0.2652000000000001,-0.046400000000000004,285.6295,-2.6299,-2.6251249999999997,-1.8016,-1.637625,-197.87,215.7425,190.49525,0.0,0.0,0.0,0.0,0.04683333333333333,-5.498166666666667,-5.498166666666667,-0.4234,-0.06633333333333336,0.013111111111111073,-0.6359999999999999,68.884,0.026900000000000146,-0.0463,-0.25,100.0,1.0,1.0,212.51,0.0,0.0,0.0,0.0,0.0,0.0,0.0,9007.5,0.0,55.0,5.0,247.95333333333335,1.0,0.0,0.0,0.0,0.0,0.0,0.0,0.0,1.1580000000000013,1.1580000000000013,0.0,0.0,1.0,55.0,616.79921,10000.0,85.000001,85.000001,85.000001,85.000001,395.0,0.0,0.0,0.0,1.0,166.665,49.911,49.911,37.415,37.415,34.0,-22.355,24.222,-30.1325,30.11,0.0,1781.828,-0.29499999999999815,100.0,18.1765,18.255,25.785,26.2125,0.0,0.0,100.0,0.0,0.0,0.0,0.0,3251.1111111111113,3106.3,4067.125,4042.8,304.97366666666665,304.835,315.13525,314.876,21.895222222222223,20.7117,22.12311111111111,21.5228,314.999998,314.999998,324.999988,324.999988,99.5544,99.50985,99.57588571428572,99.54948571428571,0.12625,-0.05025,-0.08916666666666662,0.13800000000000012,-0.05799999999999983,-0.04999999999999716,1.551,1.5549999999999997,37.845,30.448,39.269999999999996,35.516999999999996,54.513999999999996,36.7265,62.51,53.45,52.501999999999995,35.7945,60.795,51.6815,51.6555,35.347,60.49,51.025333333333336,-0.11933333333333329,-0.06300000000000017,0.102245,0.11236000000000002,0.0,215.66,215.65,212.51,212.51,0.0,0.0
24,0.0,0.0,0.0,1.0,1.0,0.0,0.0,1.0,0.0,100.0,1.0,1.1856,26.0,0.0,0.0,0.0,59.999996,0.0,26.0,26.0,26.0,26.0,0.036250000000000115,0.28049999999999997,-0.041775,285.965,-2.68765,-2.63775,-1.7229,-1.66575,-194.76999999999998,215.725,190.474,0.0,0.0,0.0,0.0,0.048633333333333334,-5.498166666666667,-5.498166666666667,-0.43,-0.528,0.027666666666666728,1.303,69.004,0.026800000000000157,-0.03661428571428572,-0.3179999999999996,100.0,1.0,1.0,212.7866666666667,0.0,0.0,0.0,0.0,0.0,0.0,0.0,9019.2,0.0,55.0,5.0,248.38666666666666,0.0,0.0,0.0,0.0,0.0,0.0,0.0,0.0,1.2029999999999994,1.2029999999999994,0.0,0.0,0.0,55.0,616.79921,10000.0,85.000001,85.000001,85.000001,85.000001,395.0,0.0,0.0,0.0,1.0,166.665,50.995,50.995,36.819,36.819,34.0,-19.877499999999998,24.418,-29.355,32.4,0.0,1781.782,-0.33500000000000085,100.0,17.897,17.748,25.893,26.052,0.0,0.0,100.0,0.0,0.0,0.0,0.0,2876.8888888888887,3107.4,4138.625,4177.1,306.0043333333333,305.088,314.79525,314.58125,21.903222222222222,20.7168,22.13277777777778,21.531,314.999998,314.999998,324.999988,324.999988,99.5544,99.50985,99.57601428571428,99.54961428571428,0.129,-0.0415,-0.07550000000000001,0.14933333333333332,-0.04299999999999926,-0.06499999999999773,1.529,1.5194999999999999,37.894999999999996,30.48,39.33,35.569,54.506,36.7565,62.5355,53.502,52.495000000000005,35.822,60.8185,51.732,51.6475,35.3735,60.510999999999996,51.074333333333335,-0.11233333333333317,-0.06499999999999995,0.10771000000000001,0.111405,0.0,216.01333333333332,216.035,212.7866666666667,212.7866666666667,0.0,0.0
25,0.0,0.0,0.0,1.0,1.0,0.0,0.0,1.0,0.0,100.0,1.0,1.1856,26.0,0.0,0.0,0.0,59.999996,0.0,26.0,26.0,26.0,26.0,0.037125000000000075,0.26570000000000005,-0.0415,285.8125,-2.75585,-2.595875,-1.7359,-1.670625,-191.25,215.70499999999998,190.448625,0.0,0.0,0.0,0.0,0.05066666666666667,-5.498166666666667,-5.498166666666667,-0.4546,0.1143333333333334,0.026000000000000023,-1.167,69.136,0.025700000000000056,-0.03791428571428572,-0.2939999999999996,100.0,1.0,1.0,213.31666666666666,0.0,0.0,0.0,0.0,0.0,0.0,0.0,9041.7,0.0,55.0,5.0,248.86333333333334,1.0,0.0,0.0,0.0,0.0,0.0,0.0,0.0,1.2540000000000013,1.2540000000000013,0.0,0.0,1.0,55.0,616.79921,10000.0,85.000001,85.000001,85.000001,85.000001,395.0,0.0,0.0,0.0,1.0,333.33500000000004,49.881,49.881,37.598,37.598,34.0,-24.085,25.83,-27.8375,30.155,0.0,1781.729,-0.40500000000000114,100.0,17.7525,18.1835,25.488,25.9005,0.0,0.0,100.0,0.0,0.0,0.0,0.0,3316.777777777778,3282.8,3912.5,4016.9,304.9413333333333,304.33125,315.4575,314.8925,21.912222222222223,20.7228,22.143555555555555,21.5402,314.999998,314.999998,324.999988,324.999988,99.55442857142857,99.50985,99.57615714285714,99.54977142857143,0.12425,-0.043000000000000003,-0.08866666666666656,0.13583333333333325,-0.05600000000000094,-0.03999999999999915,1.5843333333333334,1.5819999999999999,37.952,30.5175,39.397,35.626,54.498000000000005,36.792500000000004,62.5605,53.56,52.486999999999995,35.855000000000004,60.841499999999996,51.787,51.638,35.4055,60.5315,51.128,-0.1226666666666667,-0.06099999999999994,0.11034500000000001,0.10892500000000001,0.0,216.44,216.425,213.31666666666666,213.31666666666666,0.0,0.0
26,0.0,0.0,0.0,1.0,1.0,0.0,0.0,1.0,0.0,100.0,1.0,1.1856,26.0,0.0,0.0,0.0,59.999996,0.0,26.0,26.0,26.0,26.0,0.03475000000000006,0.2903,0.074325,284.775,-2.7131,-2.62775,-1.7328999999999999,-1.7357500000000001,-187.51,215.6875,190.4215,0.0,0.0,0.0,0.0,0.052866666666666666,-5.498166666666667,-5.498166666666667,-0.4158,0.34199999999999997,0.010333333333333306,-0.532,69.281,0.02740000000000009,-0.014328571428571428,-0.30600000000000005,100.0,1.0,1.0,213.46333333333334,0.0,0.0,0.0,0.0,0.0,0.0,0.0,9048.0,0.0,55.0,5.0,249.38333333333333,0.0,0.0,0.0,0.0,0.0,0.0,0.0,0.0,1.3079999999999998,1.3079999999999998,0.0,0.0,0.0,55.0,616.79921,10000.0,85.000001,85.000001,85.000001,85.000001,395.0,0.0,0.0,0.0,1.0,166.665,49.942,49.942,35.828,35.828,34.0,-22.18,23.89,-33.305,35.945,0.0,1781.677,-0.4349999999999987,100.0,18.467,18.601,26.217,26.521,0.0,0.0,100.0,0.0,0.0,0.0,0.0,3161.222222222222,3059.4,4501.25,4470.4,305.255,305.03875,314.0035,313.714,21.92211111111111,20.7293,22.15522222222222,21.5502,314.999998,314.999998,324.999988,324.999988,99.55444285714286,99.50986666666667,99.57631428571429,99.54992857142857,0.13225,-0.048,-0.08183333333333331,0.1333333333333333,-0.04899999999999949,-0.03999999999999915,1.446,1.4459999999999997,38.013,30.558,39.47,35.689,54.492999999999995,36.832499999999996,62.5935,53.625,52.482,35.891999999999996,60.8725,51.85,51.6325,35.44,60.5585,51.189,-0.12166666666666681,-0.0625,0.10509500000000001,0.114765,0.0,216.90333333333334,216.905,213.46333333333334,213.46333333333334,0.0,0.0
27,0.0,0.0,0.0,1.0,1.0,0.0,0.0,1.0,0.0,100.0,1.0,1.1856,26.0,0.0,0.0,0.0,59.999996,0.0,26.0,26.0,26.0,26.0,0.04499999999999993,0.2472000000000001,-0.058775,285.492,-2.72935,-2.641375,-1.7570000000000001,-1.685,-184.18,215.67000000000002,190.398375,0.0,0.0,0.0,0.0,0.0548,-5.498166666666667,-5.498166666666667,-0.44730000000000003,-0.9833333333333334,0.015555555555555545,-0.6459999999999999,69.404,0.029400000000000093,-0.05934285714285715,-0.4139999999999997,100.0,1.0,1.0,214.04333333333335,0.0,0.0,0.0,0.0,0.0,0.0,0.0,9072.5,0.0,55.0,5.0,249.82666666666665,1.0,0.0,0.0,0.0,0.0,0.0,0.0,0.0,1.355999999999998,1.355999999999998,0.0,0.0,1.0,55.0,616.79921,10000.0,85.000001,85.000001,85.000001,85.000001,395.0,0.0,0.0,0.0,1.0,166.665,50.14,50.14,36.621,36.621,34.0,-22.285,24.875999999999998,-28.6625,30.825000000000003,0.0,1781.628,-0.4299999999999997,100.0,18.034,18.4655,26.479,26.738,0.0,0.0,100.0,0.0,0.0,0.0,0.0,3154.5555555555557,3143.3,3954.5,4002.0,305.491,304.7585,315.26075,314.9535,21.930555555555557,20.7349,22.165666666666667,21.5591,314.999998,314.999998,324.999988,324.999988,99.55445714285715,99.50986666666667,99.57645714285714,99.55005714285714,0.12675,-0.04575,-0.08650000000000002,0.14416666666666678,-0.06599999999999895,-0.036666666666668846,1.5483333333333333,1.5314999999999999,38.066,30.593,39.535,35.744,54.486000000000004,36.866,62.6215,53.682,52.475,35.923,60.8985,51.9045,51.6245,35.4695,60.5815,51.242,-0.1266666666666667,-0.05650000000000022,0.11138500000000001,0.107435,0.0,217.24,217.235,214.04333333333335,214.04333333333335,0.0,0.0
28,0.0,0.0,0.0,1.0,1.0,0.0,0.0,1.0,0.0,100.0,1.0,1.1856,26.0,0.0,0.0,0.0,59.999996,0.0,26.0,26.0,26.0,26.0,0.05325000000000002,0.26480000000000015,-0.062875,285.6445,-2.6602,-2.625,-1.7658,-1.705,-180.85,215.655,190.374375,0.0,0.0,0.0,0.0,0.05673333333333334,-5.498166666666667,-5.498166666666667,-0.44880000000000003,0.6793333333333333,0.0038888888888888307,-0.69,69.526,0.03649999999999998,-0.030600000000000002,-0.46199999999999974,100.0,1.0,1.0,214.48333333333335,0.0,0.0,0.0,0.0,0.0,0.0,0.0,9091.1,0.0,55.0,5.0,250.26666666666665,0.0,0.0,0.0,0.0,0.0,0.0,0.0,0.0,1.404,1.404,0.0,0.0,0.0,55.0,616.79921,10000.0,85.000001,85.000001,85.000001,85.000001,395.0,0.0,0.0,0.0,1.0,166.665,50.186,50.186,37.155,37.155,34.0,-21.15,24.572000000000003,-29.2425,31.384999999999998,0.0,1781.58,-0.41000000000000014,100.0,18.152,18.3715,25.787,26.2435,0.0,0.0,100.0,0.0,0.0,0.0,0.0,3138.0,3081.3,4100.75,4077.0,305.33233333333334,304.888,315.112,314.82275,21.93922222222222,20.7406,22.175666666666665,21.5677,314.999998,314.999998,324.999988,324.999988,99.55448571428572,99.50988333333333,99.57658571428571,99.55021428571429,0.13975,-0.03775,-0.07833333333333337,0.14083333333333337,-0.05699999999999861,-0.06333333333333258,1.5783333333333334,1.5665,38.120000000000005,30.6285,39.598,35.798,54.480999999999995,36.9,62.6445,53.735,52.47,35.954,60.9195,51.9555,51.618,35.4995,60.6,51.291333333333334,-0.1306666666666667,-0.05500000000000016,0.10935,0.10365500000000001,0.0,217.64333333333335,217.685,214.48333333333335,214.48333333333335,0.0,0.0
29,0.0,0.0,0.0,1.0,1.0,0.0,0.0,1.0,0.0,100.0,1.0,1.1856,26.0,0.0,0.0,0.0,59.999996,0.0,26.0,26.0,26.0,26.0,0.06137499999999996,0.2571000000000001,-0.041925000000000004,285.4615,-2.74335,-2.5406250000000004,-1.7568000000000001,-1.675875,-177.09,215.6375,190.346375,0.0,0.0,0.0,0.0,0.0589,-5.498166666666667,-5.498166666666667,-0.45530000000000004,-0.7736666666666667,0.011666666666666714,-0.813,69.668,0.038799999999999946,-0.031485714285714284,-0.3799999999999999,100.0,1.0,1.0,214.76333333333332,0.0,0.0,0.0,0.0,0.0,0.0,0.0,9103.0,0.0,55.0,5.0,250.77666666666664,1.0,0.0,0.0,0.0,0.0,0.0,0.0,0.0,1.4579999999999984,1.4579999999999984,0.0,0.0,1.0,55.0,616.79921,10000.0,85.000001,85.000001,85.000001,85.000001,395.0,0.0,0.0,0.0,1.0,166.665,50.4,50.4,36.804,36.804,34.0,-22.71,24.032,-29.435000000000002,32.7,0.0,1781.527,-0.4299999999999997,100.0,17.819,18.2545,26.132,26.566,0.0,0.0,100.0,0.0,0.0,0.0,0.0,3227.3333333333335,3129.2,4092.25,4227.8,305.367,305.0155,315.032,314.34525,21.948666666666668,20.7469,22.187333333333335,21.5777,314.999998,314.999998,324.999988,324.999988,99.5545,99.50988333333333,99.57674285714286,99.55037142857142,0.1315,-0.035250000000000004,-0.07650000000000001,0.1383333333333332,-0.053999999999998494,-0.041666666666671404,1.5030000000000001,1.5105,38.179,30.668,39.671,35.86,54.472,36.9365,62.676,53.7995,52.461,35.988,60.949,52.016999999999996,51.6085,35.532,60.626,51.35166666666667,-0.12366666666666681,-0.05799999999999983,0.10951500000000002,0.10507000000000001,0.0,218.06,218.075,214.76333333333332,214.76333333333332,0.0,0.0
30,0.0,0.0,0.0,1.0,1.0,0.0,0.0,1.0,0.0,100.0,1.0,1.1856,26.0,0.0,0.0,0.0,59.999996,0.0,26.0,26.0,26.0,26.0,0.05174999999999996,0.24980000000000002,0.034300000000000004,284.836,-2.658,-2.569375,-1.784,-1.7355,-173.95,215.625,190.322875,0.0,0.0,0.0,0.0,0.06073333333333334,-5.498166666666667,-5.498166666666667,-0.4514,0.8776666666666667,0.007111111111111068,0.597,69.781,0.039000000000000146,-0.03308571428571429,-0.4939999999999998,100.0,1.0,1.0,215.20333333333332,0.0,0.0,0.0,0.0,0.0,0.0,0.0,9121.7,0.0,55.0,5.0,251.18666666666667,0.0,0.0,0.0,0.0,0.0,0.0,1.0,0.0,1.5030000000000001,1.5030000000000001,0.0,0.0,0.0,55.0,616.79921,10000.0,85.000001,85.000001,85.000001,85.000001,395.0,0.0,0.0,0.0,1.0,333.33500000000004,48.92,48.92,36.774,36.774,34.0,-21.7625,26.165999999999997,-30.08,32.980000000000004,0.0,1781.481,-0.4450000000000003,100.0,18.945,18.873,26.062,26.4875,0.0,0.0,100.0,0.0,0.0,0.0,0.0,3260.222222222222,3328.2,4169.125,4086.7,304.7816666666667,304.24775,314.94525,314.75075,21.956888888888887,20.7525,22.19688888888889,21.5859,314.999998,314.999998,324.999988,324.999988,99.55451428571429,99.50988333333333,99.57688571428571,99.5505,0.151,-0.038,-0.07333333333333336,0.15566666666666684,-0.03599999999999781,-0.05333333333332746,1.5273333333333334,1.505,38.230999999999995,30.703,39.730999999999995,35.912,54.47,36.971000000000004,62.699,53.8515,52.459,36.0195,60.97,52.067,51.6055,35.562,60.6445,51.39966666666667,-0.1316666666666666,-0.06550000000000011,0.11039500000000001,0.10463000000000001,0.0,218.42666666666668,218.45499999999998,215.20333333333332,215.20333333333332,0.0,0.0
31,0.0,0.0,0.0,1.0,1.0,0.0,0.0,1.0,0.0,100.0,1.0,1.1856,26.0,0.0,0.0,0.0,59.999996,0.0,26.0,26.0,26.0,26.0,0.04962500000000003,0.24829999999999997,0.0017250000000000002,284.607,-2.6765,-2.601125,-1.738,-1.732875,-170.18,215.6125,190.29575,0.0,0.0,0.0,0.0,0.06293333333333334,-5.498166666666667,-5.498166666666667,-0.43760000000000004,-0.379,0.014111111111110963,0.6739999999999999,69.92099999999999,0.04239999999999999,-0.04131428571428572,-0.5640000000000001,100.0,1.0,1.0,215.50333333333333,0.0,0.0,0.0,0.0,0.0,0.0,0.0,9134.4,0.0,55.0,5.0,251.69,1.0,0.0,0.0,0.0,0.0,0.0,1.0,0.0,1.5569999999999986,1.5569999999999986,0.0,0.0,1.0,55.0,616.79921,10000.0,85.000001,85.000001,85.000001,85.000001,395.0,0.0,0.0,0.0,1.0,166.665,49.316,49.316,35.614,35.614,34.0,-20.5025,28.253999999999998,-28.79,35.175,0.0,1781.428,-0.46000000000000085,100.0,18.601,18.8595,26.795,27.039,0.0,0.0,100.0,0.0,0.0,0.0,0.0,3083.4444444444443,3446.2,4128.625,4292.6,305.32366666666667,304.05375,314.8045,314.3595,21.966444444444445,20.759,22.208666666666666,21.5961,314.999998,314.999998,324.999988,324.999988,99.55452857142858,99.5099,99.57704285714286,99.55065714285715,0.1525,-0.019,-0.05733333333333335,0.16066666666666674,-0.03599999999999781,-0.04333333333332945,1.487,1.4794999999999998,38.291,30.743499999999997,39.804,35.975,54.464,37.0105,62.732,53.917500000000004,52.454,36.056,61.001,52.1305,51.5985,35.597,60.672,51.461333333333336,-0.1246666666666667,-0.05750000000000011,0.10811000000000001,0.108975,0.0,218.82999999999998,218.86,215.50333333333333,215.50333333333333,0.0,0.0
32,0.0,0.0,0.0,1.0,1.0,0.0,0.0,1.0,0.0,100.0,1.0,1.1856,26.0,0.0,0.0,0.0,59.999996,0.0,26.0,26.0,26.0,26.0,0.06662499999999993,0.27480000000000016,-0.034225,285.1255,-2.66775,-2.6654999999999998,-1.721,-1.762375,-166.82,215.60250000000002,190.27175,0.0,0.0,0.0,0.0,0.06486666666666667,-5.498166666666667,-5.498166666666667,-0.45370000000000005,-0.20833333333333326,-0.009666666666666934,0.22699999999999987,70.042,0.043500000000000094,-0.04528571428571428,-0.5339999999999998,100.0,1.0,1.0,215.94666666666666,0.0,0.0,0.0,0.0,0.0,0.0,0.0,9153.2,0.0,55.0,5.0,252.12333333333333,0.0,0.0,0.0,0.0,0.0,0.0,1.0,0.0,1.6050000000000004,1.6050000000000004,0.0,0.0,0.0,55.0,616.79921,10000.0,85.000001,85.000001,85.000001,85.000001,395.0,0.0,0.0,0.0,1.0,333.33500000000004,50.003,50.003,36.514,36.514,34.0,-20.2975,26.022,-27.6025,35.370000000000005,0.0,1781.379,-0.4250000000000007,100.0,18.436,18.5595,26.439,26.803,0.0,0.0,100.0,0.0,0.0,0.0,0.0,3048.1111111111113,3178.9,4049.875,4273.7,305.4993333333333,304.796,315.025,314.2915,21.974888888888888,20.7647,22.218888888888888,21.6049,314.999998,314.999998,324.999988,324.999988,99.55455714285715,99.5099,99.57718571428572,99.5508,0.14775,-0.02825,-0.0558333333333334,0.15983333333333327,-0.06199999999999761,-0.03833333333332689,1.5303333333333333,1.513,38.343,30.7795,39.867999999999995,36.031,54.458,37.044,62.757,53.973,52.448,36.087,61.024,52.1835,51.591499999999996,35.6265,60.692,51.513,-0.12033333333333318,-0.05900000000000016,0.10805000000000001,0.10936000000000001,0.0,219.21666666666667,219.23000000000002,215.94666666666666,215.94666666666666,0.0,0.0
33,0.0,0.0,0.0,1.0,1.0,0.0,0.0,1.0,0.0,100.0,1.0,1.1856,26.0,0.0,0.0,0.0,59.999996,0.0,26.0,26.0,26.0,26.0,0.06362500000000004,0.2511000000000001,-0.0526,285.4765,-2.7182500000000003,-2.623875,-1.7326000000000001,-1.7185000000000001,-163.25,215.5925,190.244875,0.0,0.0,0.0,0.0,0.06696666666666666,-5.498166666666667,-5.498166666666667,-0.4647,-0.30166666666666675,-0.006666666666666821,-0.16700000000000004,70.17,0.04090000000000016,-0.029385714285714286,-0.3799999999999999,100.0,1.0,1.0,216.36,0.0,0.0,0.0,0.0,0.0,0.0,0.0,9170.8,0.0,55.0,5.0,252.58666666666664,1.0,0.0,0.0,0.0,0.0,0.0,1.0,0.0,1.6559999999999988,1.6559999999999988,0.0,0.0,1.0,55.0,616.79921,10000.0,85.000001,85.000001,85.000001,85.000001,395.0,0.0,0.0,0.0,1.0,166.665,50.308,50.308,36.987,36.987,34.0,-21.245,24.427999999999997,-28.55,32.535,0.0,1781.329,-0.495000000000001,100.0,18.095,18.359,26.125,26.625,0.0,0.0,100.0,0.0,0.0,0.0,0.0,3153.222222222222,3058.5,4044.875,4129.0,305.4153333333333,305.06325,315.12375,314.62,21.983888888888888,20.7706,22.229666666666667,21.6142,314.999998,314.999998,324.999988,324.999988,99.55457142857144,99.5099,99.57732857142857,99.55094285714286,0.15025,-0.0335,-0.07533333333333336,0.14283333333333337,-0.06499999999999773,-0.03333333333333144,1.5386666666666666,1.517,38.399,30.816499999999998,39.936,36.089,54.452,37.0775,62.783500000000004,54.0305,52.441,36.118,61.0485,52.2385,51.584,35.656,60.713,51.56666666666666,-0.133,-0.05600000000000005,0.103565,0.10568500000000002,0.0,219.62666666666667,219.635,216.36,216.36,0.0,0.0
34,0.0,0.0,0.0,1.0,1.0,0.0,0.0,1.0,0.0,100.0,1.0,1.1856,26.0,0.0,0.0,0.0,59.999996,0.0,26.0,26.0,26.0,26.0,0.06424999999999992,0.2571000000000001,-0.07627500000000001,285.614,-2.73335,-2.6515,-1.7957,-1.657,-159.88,215.585,190.218375,0.0,0.0,0.0,0.0,0.06893333333333335,-5.498166666666667,-5.498166666666667,-0.4927,-0.869,0.015666666666666718,-0.43500000000000005,70.292,0.041200000000000125,-0.03805714285714286,-0.47199999999999953,100.0,1.0,1.0,216.7,0.0,0.0,0.0,0.0,0.0,0.0,0.0,9185.1,0.0,55.0,5.0,253.02333333333334,0.0,0.0,0.0,0.0,0.0,0.0,1.0,0.0,1.7040000000000006,1.7040000000000006,0.0,0.0,0.0,55.0,616.79921,10000.0,85.000001,85.000001,85.000001,85.000001,395.0,0.0,0.0,0.0,1.0,166.665,50.629,50.629,37.048,37.048,34.0,-21.08,25.022,-29.865000000000002,32.085,0.0,1781.281,-0.48499999999999943,100.0,17.865,18.1165,26.011,26.6545,0.0,0.0,100.0,0.0,0.0,0.0,0.0,3060.6666666666665,3076.2,4088.75,4166.4,305.58,305.0415,315.07075,314.56725,21.99222222222222,20.7762,22.23988888888889,21.6231,314.999998,314.999998,324.999988,324.999988,99.55458571428571,99.50991666666667,99.57745714285714,99.5511,0.14325000000000002,-0.02825,-0.07783333333333331,0.14450000000000007,-0.04100000000000037,-0.045000000000001705,1.5333333333333332,1.5190000000000001,38.451,30.8515,39.998999999999995,36.144,54.445,37.109,62.808,54.087,52.435,36.147,61.071,52.292500000000004,51.576499999999996,35.6835,60.733000000000004,51.619,-0.1296666666666666,-0.051000000000000156,0.10826500000000001,0.10042000000000001,0.0,219.96333333333334,219.985,216.7,216.7,0.0,0.0
35,0.0,0.0,0.0,1.0,1.0,0.0,0.0,1.0,0.0,100.0,1.0,1.1856,26.0,0.0,0.0,0.0,59.999996,0.0,26.0,26.0,26.0,26.0,0.07099999999999995,0.23360000000000003,-0.057100000000000005,285.6295,-2.7041,-2.59125,-1.7602,-1.648125,-156.07999999999998,215.5775,190.186375,0.0,0.0,0.0,0.0,0.07113333333333334,-5.498166666666667,-5.498166666666667,-0.5302,-0.008333333333333304,-0.005555555555555536,-1.3719999999999999,70.425,0.04459999999999997,-0.03945714285714286,-0.47799999999999976,100.0,1.0,1.0,217.22,0.0,0.0,0.0,0.0,0.0,0.0,0.0,9207.2,0.0,55.0,5.0,253.50333333333333,1.0,0.0,0.0,0.0,0.0,0.0,1.0,0.0,1.7579999999999991,1.7579999999999991,0.0,0.0,1.0,55.0,616.79921,10000.0,85.000001,85.000001,85.000001,85.000001,395.0,0.0,0.0,0.0,1.0,166.665,50.003,50.003,36.896,36.896,34.0,-21.4925,26.73,-27.3775,30.91,0.0,1781.227,-0.3099999999999987,100.0,17.7595,18.575,25.782,26.126,0.0,0.0,100.0,0.0,0.0,0.0,0.0,3118.3333333333335,3340.6,3934.0,3975.4,305.479,304.149,315.4005,315.04775,22.001555555555555,20.7827,22.25122222222222,21.6328,314.999998,314.999998,324.999988,324.999988,99.5546,99.50991666666667,99.57761428571429,99.55125714285714,0.1365,-0.035,-0.0655,0.16366666666666685,-0.038000000000000256,-0.04833333333333201,1.5666666666666667,1.561,38.51,30.892,40.07,36.205,54.435,37.1475,62.834,54.144999999999996,52.426,36.183,61.0955,52.3485,51.5665,35.7175,60.754,51.67333333333333,-0.11133333333333328,-0.0674999999999999,0.104635,0.11553000000000001,0.0,220.38666666666666,220.425,217.22,217.22,0.0,0.0
