,ABS Active,ABS Enabled,AID Allow Tire Blankets,AID Auto Blip,AID Auto Clutch,AID Auto Shift,AID Fuel Rate,AID Ideal Line,AID Mech Damage,AID Stability,AID Tire Wear Rate,Air Density,Air Temp,Ballast,Best Lap Delta,Best Lap Time,Brake Bias,Brake Pos,Brake Temp FL,Brake Temp FR,Brake Temp RL,Brake Temp RR,CG Accel Lateral,CG Accel Longitudinal,CG Accel Vertical,CG Height,Camber FL,Camber FR,Camber RL,Camber RR,Car Coord X,Car Coord Y,Car Coord Z,Car Damage Front,Car Damage Left,Car Damage Rear,Car Damage Right,Car Pos Norm,Caster FL,Caster FR,Chassis Pitch Angle,Chassis Pitch Rate,Chassis Roll Angle,Chassis Roll Rate,Chassis Velocity X,Chassis Velocity Y,Chassis Velocity Z,Chassis Yaw Rate,Clutch Pos,DRS Active,DRS Available,Drive Train Speed,ERS Heat Charging,ERS Is Charging,ERS Max Energy,ERS Power Level,ERS Recovery Level,Engine Brake Setting,Engine Limiter,Engine RPM,Flags,Fuel Level,Gear,Ground Speed,HR Sample Clock,In Pit,KERS Charge,KERS Deployed Energy,KERS Input,KERS Max Energy,LR Sample Clock,Lap Invalidated,Lap Time,Lap Time2,Last Lap Time,Last Sector Time,MR Sample Clock,Max Fuel,Max Power,Max RPM,Max Sus Travel FL,Max Sus Travel FR,Max Sus Travel RL,Max Sus Travel RR,Max Torque,Max Turbo Boost,Num Tires Off Track,Penalties Enabled,Position,Raw Data Sample Rate,Ride Height FL,Ride Height FR,Ride Height RL,Ride Height RR,Road Temp,Self Align Torque FL,Self Align Torque FR,Self Align Torque RL,Self Align Torque RR,Session Lap Count,Session Time Left,Steering Angle,Surface Grip,Suspension Travel FL,Suspension Travel FR,Suspension Travel RL,Suspension Travel RR,TC Active,TC Enabled,Throttle Pos,Tire Dirt Level FL,Tire Dirt Level FR,Tire Dirt Level RL,Tire Dirt Level RR,Tire Load FL,Tire Load FR,Tire Load RL,Tire Load RR,Tire Loaded Radius FL,Tire Loaded Radius FR,Tire Loaded Radius RL,Tire Loaded Radius RR,Tire Pressure FL,Tire Pressure FR,Tire Pressure RL,Tire Pressure RR,Tire Radius FL,Tire Radius FR,Tire Radius RL,Tire Radius RR,Tire Rubber Grip FL,Tire Rubber Grip FR,Tire Rubber Grip RL,Tire Rubber Grip RR,Tire Slip Angle FL,Tire Slip Angle FR,Tire Slip Angle RL,Tire Slip Angle RR,Tire Slip Ratio FL,Tire Slip Ratio FR,Tire Slip Ratio RL,Tire Slip Ratio RR,Tire Temp Core FL,Tire Temp Core FR,Tire Temp Core RL,Tire Temp Core RR,Tire Temp Inner FL,Tire Temp Inner FR,Tire Temp Inner RL,Tire Temp Inner RR,Tire Temp Middle FL,Tire Temp Middle FR,Tire Temp Middle RL,Tire Temp Middle RR,Tire Temp Outer FL,Tire Temp Outer FR,Tire Temp Outer RL,Tire Temp Outer RR,Toe In FL,Toe In FR,Toe In RL,Toe In RR,Turbo Boost,Wheel Angular Speed FL,Wheel Angular Speed FR,Wheel Angular Speed RL,Wheel Angular Speed RR,Wind Direction,Wind Speed
0,0.0,0.0,0.0,1.0,1.0,0.0,0.0,1.0,0.0,100.0,1.0,1.1856,26.0,0.0,0.0,0.0,59.99999,0.0,26.0,26.0,26.0,26.0,-0.052000000000000005,0.5873000000000002,0.14495,303.2225,-2.43475,-2.2592222222222222,-1.0654000000000001,-1.0208,-275.61,215.555,190.99714285714285,0.0,0.0,0.0,0.0,0.0016333333333333755,-5.498166666666667,-5.498166666666667,-1.8578000000000001,1.036,-0.0017499999999999183,-0.121,65.024,-0.017666666666666497,-1.6880000000000002,0.086666666666666,100.0,1.0,1.0,200.24666666666667,0.0,0.0,0.0,0.0,0.0,0.0,0.0,8487.666666666666,0.0,55.0,5.0,234.13333333333333,0.0,0.0,0.0,0.0,0.0,0.0,0.0,0.0,0.0030000000000001137,0.0030000000000001137,0.0,0.0,0.0,55.0,616.79921,10000.0,85.0,85.0,85.0,85.0,395.0,0.0,0.0,0.0,1.0,20.0,21.82,21.82,92.133,92.133,34.0,-26.482499999999998,23.578,-15.157499999999999,13.665999999999999,0.0,1782.327,0.29499999999999993,100.0,35.896,36.655,19.791,19.544,0.0,0.0,0.0,0.0,0.0,0.0,0.0,4071.4,4857.9,3021.25,2975.0,302.2753333333333,299.73875,317.6655,317.43775,21.5262,20.8015,22.223625,21.2305,314.99999,314.99999,324.99998,324.99998,99.54472857142858,99.5162,99.594775,99.54441428571428,0.1253333333333333,-0.19566666666666666,-0.15900000000000003,0.13600000000000012,-0.0649999999999995,-0.06949999999999967,2.072857142857143,2.0660000000000003,35.538,31.0095,39.897999999999996,33.6905,50.8675,39.591499999999996,68.282,50.9695,49.459,38.4155,67.07900000000001,49.576499999999996,49.114,37.846000000000004,67.55799999999999,49.247,-0.209,-0.261,0.11708,0.12945,0.0,203.81333333333333,203.7866666666667,200.24666666666667,200.24666666666667,0.0,0.0
1,0.0,0.0,0.0,1.0,1.0,0.0,0.0,1.0,0.0,100.0,1.0,1.1856,26.0,0.0,0.0,0.0,59.999996,0.0,26.0,26.0,26.0,26.0,-0.05722222222222222,0.35340000000000016,0.178475,301.956,-2.3345000000000002,-2.2937777777777777,-1.1451,-0.8473999999999999,-272.29,215.565,190.97685714285714,0.0,0.0,0.0,0.0,0.003566666666666607,-5.498166666666667,-5.498166666666667,-1.7102,0.2565,-0.006000000000000227,0.04699999999999993,65.17699999999999,-0.018333333333333535,-1.5704,0.6066666666666665,100.0,1.0,1.0,200.95,0.0,0.0,0.0,0.0,0.0,0.0,0.0,8517.555555555555,0.0,55.0,5.0,234.67000000000002,1.0,0.0,0.0,0.0,0.0,0.0,0.0,0.0,0.053999999999998494,0.053999999999998494,0.0,0.0,1.0,55.0,616.79921,10000.0,85.000001,85.000001,85.000001,85.000001,395.0,0.0,0.0,0.0,1.0,166.665,26.657,26.657,88.699,88.699,34.0,-15.349999999999998,11.96,-29.1375,23.504,0.0,1782.278,0.20000000000000018,100.0,36.518,36.768,21.734,22.8,0.0,0.0,100.0,0.0,0.0,0.0,0.0,2854.7,2679.8,4348.375,5004.0,305.989,306.326,314.355,312.0975,21.5353,20.808,22.236,21.2391,314.999998,314.999998,324.999988,324.999988,99.54474285714285,99.51623333333333,99.5949125,99.54454285714286,0.1563333333333332,-0.20166666666666666,-0.18199999999999994,0.10499999999999998,-0.031000000000000583,-0.01049999999999951,1.3814285714285717,1.42,35.595,31.0505,39.974999999999994,33.7445,50.8765,39.6285,68.288,51.0265,49.466499999999996,38.4505,67.084,49.632,49.1195,37.879999999999995,67.559,49.302,-0.221,-0.26,0.12560000000000002,0.11803000000000001,0.0,204.31333333333333,204.26333333333332,200.95,200.95,0.0,0.0
2,0.0,0.0,0.0,1.0,1.0,0.0,0.0,1.0,0.0,100.0,1.0,1.1856,26.0,0.0,0.0,0.0,59.999996,0.0,26.0,26.0,26.0,26.0,-0.07366666666666667,0.28459999999999996,-0.052500000000000005,303.3905,-2.2965,-2.285333333333333,-1.0957000000000001,-1.022,-268.96,215.5725,190.958,0.0,0.0,0.0,0.0,0.005499999999999949,-5.498166666666667,-5.498166666666667,-1.8052,-0.468,-0.0009999999999998899,0.761,65.315,-0.018666666666666387,-1.68225,0.7066666666666661,100.0,1.0,1.0,202.42000000000002,0.0,0.0,0.0,0.0,0.0,0.0,0.0,8579.777777777777,0.0,55.0,5.0,235.18,0.0,0.0,0.0,0.0,0.0,0.0,0.0,0.0,0.10500000000000043,0.10500000000000043,0.0,0.0,0.0,55.0,616.79921,10000.0,85.000001,85.000001,85.000001,85.000001,395.0,0.0,0.0,0.0,1.0,333.33500000000004,24.46,24.46,91.888,91.888,34.0,-21.69,14.696,-17.34,12.505999999999998,0.0,1782.225,0.5600000000000005,100.0,36.608000000000004,36.324,21.894,22.102,0.0,0.0,100.0,0.0,0.0,0.0,0.0,3617.2,3405.2,3090.75,2863.0,303.7386666666667,303.923,317.426,317.71675,21.5443,20.8145,22.248125,21.2474,314.999998,314.999998,324.999988,324.999988,99.54475714285714,99.51625,99.5950375,99.54467142857143,0.12033333333333318,-0.22299999999999998,-0.18499999999999994,0.11100000000000021,-0.06049999999999933,-0.04300000000000015,1.895714285714286,1.9500000000000002,35.652,31.091,40.051,33.796,50.8835,39.665,68.28999999999999,51.072,49.4725,38.4845,67.08500000000001,49.6765,49.124,37.913,67.557,49.347,-0.192,-0.2805,0.11522500000000001,0.12541000000000002,0.0,204.66666666666669,204.63,202.42000000000002,202.42000000000002,0.0,0.0
3,0.0,0.0,0.0,1.0,1.0,0.0,0.0,1.0,0.0,100.0,1.0,1.1856,26.0,0.0,0.0,0.0,59.999996,0.0,26.0,26.0,26.0,26.0,-0.073,0.3296000000000001,-0.023375,303.192,-2.30525,-2.325222222222222,-1.0301,-0.9915,-265.82,215.5775,190.93957142857144,0.0,0.0,0.0,0.0,0.007333333333333303,-5.498166666666667,-5.498166666666667,-1.7526,1.0775000000000001,0.005624999999999991,-1.9609999999999999,65.46600000000001,-0.03299999999999992,-1.62355,0.8166666666666664,100.0,1.0,1.0,202.38,0.0,0.0,0.0,0.0,0.0,0.0,0.0,8578.111111111111,0.0,55.0,5.0,235.71333333333334,1.0,0.0,0.0,0.0,0.0,0.0,0.0,0.0,0.1529999999999987,0.1529999999999987,0.0,0.0,1.0,55.0,616.79921,10000.0,85.000001,85.000001,85.000001,85.000001,395.0,0.0,0.0,0.0,1.0,333.33500000000004,25.817999999999998,25.817999999999998,89.935,89.935,34.0,-18.4575,13.934,-22.9725,16.594,0.0,1782.177,0.5650000000000004,100.0,36.447,36.311,21.563,21.614,0.0,0.0,100.0,0.0,0.0,0.0,0.0,3135.1,3149.3,3855.0,3588.2,305.23766666666666,304.67425,315.70075,315.82375,21.5527,20.8209,22.259375,21.2552,314.999998,314.999998,324.999988,324.999988,99.54477142857142,99.51626666666667,99.595175,99.5448,0.11933333333333329,-0.22199999999999998,-0.19199999999999995,0.1030000000000002,-0.03849999999999909,-0.01774999999999949,1.6557142857142857,1.6799999999999997,35.704,31.131,40.120999999999995,33.845,50.888999999999996,39.704499999999996,68.292,51.123,49.477000000000004,38.5215,67.086,49.7265,49.126999999999995,37.948499999999996,67.556,49.397,-0.196,-0.276,0.12442500000000001,0.12095000000000002,0.0,205.21,205.14666666666668,202.38,202.38,0.0,0.0
4,0.0,0.0,0.0,1.0,1.0,0.0,0.0,1.0,0.0,100.0,1.0,1.1856,26.0,0.0,0.0,0.0,59.999996,0.0,26.0,26.0,26.0,26.0,-0.079,0.29510000000000014,-0.053875,303.528,-2.311375,-2.3922222222222222,-0.9807,-1.096,-262.48,215.58249999999998,190.92042857142857,0.0,0.0,0.0,0.0,0.009266666666666534,-5.498166666666667,-5.498166666666667,-1.7624,-0.9645,-0.03925000000000001,-0.21599999999999997,65.617,-0.04833333333333334,-1.6392,1.083333333333334,100.0,1.0,1.0,202.90333333333334,0.0,0.0,0.0,0.0,0.0,0.0,0.0,8600.333333333334,0.0,55.0,5.0,236.26,0.0,0.0,0.0,0.0,0.0,0.0,0.0,0.0,0.20400000000000063,0.20400000000000063,0.0,0.0,0.0,55.0,616.79921,10000.0,85.000001,85.000001,85.000001,85.000001,395.0,0.0,0.0,0.0,1.0,333.33500000000004,26.122999999999998,26.122999999999998,90.546,90.546,34.0,-19.405,13.898,-21.134999999999998,15.624,0.0,1782.127,0.5949999999999998,100.0,36.306,35.636,22.291,21.611,0.0,0.0,100.0,0.0,0.0,0.0,0.0,3223.6,3094.0,3596.125,3378.3,304.925,305.079,316.22425,316.40775,21.5615,20.8274,22.271625,21.2637,314.999998,314.999998,324.999988,324.999988,99.54478571428571,99.5163,99.5953125,99.54494285714286,0.1146666666666667,-0.22766666666666657,-0.20699999999999996,0.08499999999999996,-0.03849999999999909,-0.04300000000000015,1.7157142857142853,1.7480000000000002,35.759,31.171,40.197,33.897999999999996,50.893,39.7405,68.299,51.175,49.4795,38.5555,67.09100000000001,49.777,49.128,37.981,67.55799999999999,49.4475,-0.185,-0.28350000000000003,0.12294500000000001,0.11993000000000001,0.0,205.63333333333333,205.55666666666667,202.90333333333334,202.90333333333334,0.0,0.0
5,0.0,0.0,0.0,1.0,1.0,0.0,0.0,1.0,0.0,100.0,1.0,1.1856,26.0,0.0,0.0,0.0,59.999996,0.0,26.0,26.0,26.0,26.0,-0.09733333333333333,0.3024,-0.050275,303.6955,-2.314,-2.354888888888889,-1.0265,-1.0939,-258.93,215.585,190.89942857142856,0.0,0.0,0.0,0.0,0.011333333333333306,-5.498166666666667,-5.498166666666667,-1.7916,0.382,-0.03774999999999995,0.604,65.773,-0.06666666666666643,-1.65965,1.0166666666666657,100.0,1.0,1.0,203.5966666666667,0.0,0.0,0.0,0.0,0.0,0.0,0.0,8629.666666666666,0.0,55.0,5.0,236.82666666666665,1.0,0.0,0.0,0.0,0.0,0.0,0.0,0.0,0.2579999999999991,0.2579999999999991,0.0,0.0,1.0,55.0,616.79921,10000.0,85.000001,85.000001,85.000001,85.000001,395.0,0.0,0.0,0.0,1.0,166.665,25.512999999999998,25.512999999999998,91.461,91.461,34.0,-20.3625,14.684,-20.3175,14.148,0.0,1782.074,0.40000000000000036,100.0,36.512,35.707,21.878999999999998,20.928333333333335,0.0,0.0,100.0,0.0,0.0,0.0,0.0,3348.2,3286.8,3360.0,3323.7,304.39633333333336,304.474,316.83675,316.63825,21.5711,20.8343,22.28425,21.2723,314.999998,314.999998,324.999988,324.999988,99.54481428571428,99.51633333333334,99.5954625,99.54507142857143,0.1166666666666667,-0.22433333333333338,-0.22599999999999998,0.06400000000000006,-0.037499999999999645,-0.04099999999999948,1.8100000000000005,1.846,35.819,31.2145,40.275999999999996,33.952,50.9,39.7815,68.3,51.226,49.4855,38.5935,67.092,49.827,49.132,38.018,67.556,49.497,-0.20750000000000002,-0.2605,0.11959000000000002,0.11580000000000001,0.0,206.15333333333334,206.05,203.59666666666666,203.5966666666667,0.0,0.0
6,0.0,0.0,0.0,1.0,1.0,0.0,0.0,1.0,0.0,100.0,1.0,1.1856,26.0,0.0,0.0,0.0,59.999996,0.0,26.0,26.0,26.0,26.0,-0.10422222222222223,0.3084,0.07525,303.5735,-2.3015,-2.417666666666667,-1.0270000000000001,-1.069,-255.96,215.585,190.88128571428572,0.0,0.0,0.0,0.0,0.01306666666666656,-5.498166666666667,-5.498166666666667,-1.7727,0.048,-0.04974999999999996,-0.6679999999999999,65.91,-0.07200000000000006,-1.637,0.8799999999999999,100.0,1.0,1.0,203.7733333333333,0.0,0.0,0.0,0.0,0.0,0.0,0.0,8637.222222222223,0.0,55.0,5.0,237.31666666666666,0.0,0.0,0.0,0.0,0.0,0.0,0.0,0.0,0.3030000000000008,0.3030000000000008,0.0,0.0,0.0,55.0,616.79921,10000.0,85.000001,85.000001,85.000001,85.000001,395.0,0.0,0.0,0.0,1.0,166.665,26.154,26.154,90.591,90.591,34.0,-21.0875,13.458,-23.79,15.324,0.0,1782.029,0.3650000000000002,100.0,36.097,35.579,21.915,21.046333333333333,0.0,0.0,100.0,0.0,0.0,0.0,0.0,3396.7,3062.2,3766.75,3488.0,304.50966666666665,305.07625,315.857,316.1465,21.579,20.8401,22.29475,21.2797,314.999998,314.999998,324.999988,324.999988,99.54482857142857,99.51635,99.595575,99.5452,0.10133333333333328,-0.24066666666666658,-0.22399999999999998,0.06899999999999995,-0.04349999999999987,-0.040750000000000064,1.67,1.7119999999999997,35.869,31.250500000000002,40.343,33.9985,50.9045,39.8155,68.305,51.272,49.4895,38.625,67.096,49.8715,49.1345,38.048500000000004,67.557,49.5415,-0.20600000000000002,-0.26,0.11838000000000001,0.12221000000000001,0.0,206.57333333333332,206.49,203.77333333333334,203.7733333333333,0.0,0.0
7,0.0,0.0,0.0,1.0,1.0,0.0,0.0,1.0,0.0,100.0,1.0,1.1856,26.0,0.0,0.0,0.0,59.999996,0.0,26.0,26.0,26.0,26.0,-0.07577777777777778,0.28800000000000003,0.014450000000000001,303.5735,-2.265875,-2.420888888888889,-1.0259,-1.1184,-252.6,215.58249999999998,190.861,0.0,0.0,0.0,0.0,0.015033333333333343,-5.498166666666667,-5.498166666666667,-1.7772999999999999,0.07200000000000001,-0.04150000000000009,0.846,66.05799999999999,-0.07600000000000007,-1.65285,0.6933333333333342,100.0,1.0,1.0,204.31666666666666,0.0,0.0,0.0,0.0,0.0,0.0,0.0,8660.222222222223,0.0,55.0,5.0,237.85000000000002,1.0,0.0,0.0,0.0,0.0,0.0,0.0,0.0,0.3539999999999992,0.3539999999999992,0.0,0.0,1.0,55.0,616.79921,10000.0,85.000001,85.000001,85.000001,85.000001,395.0,0.0,0.0,0.0,1.0,333.33500000000004,25.863999999999997,25.863999999999997,90.927,90.927,34.0,-18.5575,16.092,-21.81,15.628,0.0,1781.976,-0.06000000000000005,100.0,36.433,35.327,22.082,21.079333333333334,0.0,0.0,100.0,0.0,0.0,0.0,0.0,3298.2,3275.7,3521.625,3432.4,304.5776666666667,304.518,316.381,316.32,21.588,20.8467,22.306874999999998,21.2882,314.999998,314.999998,324.999988,324.999988,99.54484285714285,99.51638333333334,99.5957125,99.54532857142857,0.1353333333333333,-0.20933333333333337,-0.22199999999999998,0.07200000000000006,-0.0365000000000002,-0.04174999999999951,1.7071428571428573,1.7400000000000002,35.925,31.2915,40.418,34.051,50.911500000000004,39.854,68.30799999999999,51.324,49.4955,38.661,67.098,49.922,49.1385,38.0835,67.557,49.591499999999996,-0.23850000000000002,-0.2255,0.11799000000000001,0.12145000000000002,0.0,207.01,206.95666666666668,204.31666666666666,204.31666666666666,0.0,0.0
8,0.0,0.0,0.0,1.0,1.0,0.0,0.0,1.0,0.0,100.0,1.0,1.1856,26.0,0.0,0.0,0.0,59.999996,0.0,26.0,26.0,26.0,26.0,-0.06122222222222222,0.2932000000000001,-0.0129,303.894,-2.33575,-2.369222222222222,-1.0442,-1.1165,-249.01999999999998,215.5775,190.83957142857142,0.0,0.0,0.0,0.0,0.017100000000000004,-5.498166666666667,-5.498166666666667,-1.7797,-0.137,-0.038374999999999826,0.46199999999999997,66.21600000000001,-0.06666666666666643,-1.6581000000000001,0.31666666666666643,100.0,1.0,1.0,204.80333333333334,0.0,0.0,0.0,0.0,0.0,0.0,0.0,8680.777777777777,0.0,55.0,5.0,238.42000000000002,0.0,0.0,0.0,0.0,0.0,0.0,0.0,0.0,0.40800000000000125,0.40800000000000125,0.0,0.0,0.0,55.0,616.79921,10000.0,85.000001,85.000001,85.000001,85.000001,395.0,0.0,0.0,0.0,1.0,166.665,26.337,26.337,90.897,90.897,34.0,-18.4,16.576,-20.9025,16.304000000000002,0.0,1781.924,-0.14000000000000012,100.0,35.94,35.144999999999996,22.015,20.997666666666667,0.0,0.0,100.0,0.0,0.0,0.0,0.0,3215.2,3305.9,3468.25,3405.8,304.85833333333335,304.462,316.53875,316.3865,21.5975,20.8537,22.3195,21.2971,314.999998,314.999998,324.999988,324.999988,99.54485714285714,99.51641666666667,99.595875,99.54545714285715,0.14200000000000013,-0.19133333333333336,-0.20899999999999996,0.09399999999999986,-0.04299999999999926,-0.05074999999999985,1.7442857142857147,1.7539999999999996,35.983999999999995,31.3355,40.497,34.1065,50.918,39.8945,68.312,51.378,49.5005,38.698499999999996,67.102,49.975,49.141999999999996,38.1195,67.557,49.6445,-0.245,-0.219,0.124075,0.12768000000000002,0.0,207.48000000000002,207.45333333333332,204.80333333333334,204.80333333333334,0.0,0.0
9,0.0,0.0,0.0,1.0,1.0,0.0,0.0,1.0,0.0,100.0,1.0,1.1856,26.0,0.0,0.0,0.0,59.999996,0.0,26.0,26.0,26.0,26.0,-0.04722222222222222,0.30090000000000017,0.014375,303.8025,-2.2640000000000002,-2.3786666666666667,-1.0475,-1.0698,-245.84,215.5725,190.82014285714286,0.0,0.0,0.0,0.0,0.018933333333333358,-5.498166666666667,-5.498166666666667,-1.7755,0.298,-0.043874999999999886,0.863,66.355,-0.051666666666666305,-1.64965,0.013333333333333641,100.0,1.0,1.0,205.23333333333335,0.0,0.0,0.0,0.0,0.0,0.0,0.0,8699.111111111111,0.0,55.0,5.0,238.92333333333335,1.0,0.0,0.0,0.0,0.0,0.0,0.0,0.0,0.4559999999999995,0.4559999999999995,0.0,0.0,1.0,55.0,616.79921,10000.0,85.000001,85.000001,85.000001,85.000001,395.0,0.0,0.0,0.0,1.0,166.665,26.137999999999998,26.137999999999998,91.202,91.202,34.0,-17.849999999999998,17.204,-20.2675,16.606,0.0,1781.876,-0.2599999999999998,100.0,36.019999999999996,35.062,21.838,20.923666666666666,0.0,0.0,100.0,0.0,0.0,0.0,0.0,3327.1,3313.5,3479.25,3511.4,304.5133333333333,304.45275,316.515,316.17875,21.6059,20.8599,22.330750000000002,21.3049,314.999998,314.999998,324.999988,324.999988,99.54487142857143,99.51643333333334,99.596,99.5456,0.1523333333333332,-0.18133333333333335,-0.19099999999999995,0.0990000000000002,-0.03999999999999915,-0.05250000000000021,1.7442857142857147,1.7480000000000002,36.037,31.374499999999998,40.567,34.156,50.9255,39.9295,68.315,51.4255,49.507,38.7315,67.103,50.021,49.1465,38.150999999999996,67.555,49.6905,-0.259,-0.2025,0.12415500000000002,0.12265000000000001,0.0,207.92333333333335,207.91,205.23333333333335,205.23333333333335,0.0,0.0
10,0.0,0.0,0.0,1.0,1.0,0.0,0.0,1.0,0.0,100.0,1.0,1.1856,26.0,0.0,0.0,0.0,59.999996,0.0,26.0,26.0,26.0,26.0,-0.02666666666666667,0.29710000000000014,0.0028,303.6345,-2.3265000000000002,-2.3529999999999998,-1.0087000000000002,-1.0541,-242.45,215.565,190.79942857142856,0.0,0.0,0.0,0.0,0.02093333333333336,-5.498166666666667,-5.498166666666667,-1.7679,-0.29,-0.02112500000000006,-0.03299999999999992,66.505,-0.031333333333333435,-1.64825,-0.07333333333333325,100.0,1.0,1.0,205.56333333333333,0.0,0.0,0.0,0.0,0.0,0.0,0.0,8713.111111111111,0.0,55.0,5.0,239.46,0.0,0.0,0.0,0.0,0.0,0.0,1.0,0.0,0.5069999999999979,0.5069999999999979,0.0,0.0,0.0,55.0,616.79921,10000.0,85.000001,85.000001,85.000001,85.000001,395.0,0.0,0.0,0.0,1.0,166.665,26.459,26.459,90.668,90.668,34.0,-18.36,15.806000000000001,-20.7175,18.264,0.0,1781.825,-0.2250000000000001,100.0,35.796,35.191,21.938,21.429666666666666,0.0,0.0,100.0,0.0,0.0,0.0,0.0,3293.8,3187.1,3642.125,3602.0,304.8106666666667,304.688,316.1875,315.85175,21.6148,20.8665,22.342875,21.3135,314.999998,314.999998,324.999988,324.999988,99.54488571428571,99.51645,99.59615,99.54572857142857,0.14800000000000013,-0.19166666666666665,-0.18199999999999994,0.12300000000000022,-0.051000000000000156,-0.04300000000000015,1.692857142857143,1.6799999999999997,36.093,31.416,40.643,34.209,50.9335,39.9655,68.319,51.4785,49.5135,38.7655,67.106,50.0725,49.150999999999996,38.184,67.555,49.7415,-0.251,-0.2155,0.11990500000000001,0.13193000000000002,0.0,208.36666666666667,208.36333333333334,205.56333333333333,205.56333333333333,0.0,0.0
11,0.0,0.0,0.0,1.0,1.0,0.0,0.0,1.0,0.0,100.0,1.0,1.1856,26.0,0.0,0.0,0.0,59.999996,0.0,26.0,26.0,26.0,26.0,-0.00488888888888889,0.2844,-0.04055,303.9855,-2.333875,-2.3472222222222223,-1.0646,-1.0279,-239.26,215.5575,190.77985714285714,0.0,0.0,0.0,0.0,0.022599999999999953,-5.498166666666667,-5.498166666666667,-1.7915,-0.387,0.002375000000000016,-0.248,66.641,-0.0173333333333332,-1.6697000000000002,-0.22666666666666657,100.0,1.0,1.0,206.15,0.0,0.0,0.0,0.0,0.0,0.0,0.0,8738.0,0.0,55.0,5.0,239.95333333333335,1.0,0.0,0.0,0.0,0.0,0.0,1.0,0.0,0.5549999999999997,0.5549999999999997,0.0,0.0,1.0,55.0,616.79921,10000.0,85.000001,85.000001,85.000001,85.000001,395.0,0.0,0.0,0.0,1.0,166.665,26.352,26.352,91.324,91.324,34.0,-18.125,17.464,-18.3925,16.898,0.0,1781.777,-0.28500000000000014,100.0,35.508,35.284,21.717,21.398666666666667,0.0,0.0,100.0,0.0,0.0,0.0,0.0,3345.6,3270.3,3370.625,3403.9,304.6653333333333,304.43575,316.83275,316.37475,21.6231,20.872799999999998,22.354,21.3214,314.999998,314.999998,324.999988,324.999988,99.54491428571428,99.51648333333333,99.5962625,99.54585714285714,0.16100000000000003,-0.16666666666666663,-0.16200000000000003,0.13200000000000012,-0.04749999999999943,-0.051249999999999574,1.781428571428572,1.758,36.144999999999996,31.455,40.713,34.259,50.9405,39.9995,68.319,51.527,49.5195,38.797,67.106,50.12,49.1555,38.2145,67.55199999999999,49.789,-0.256,-0.2105,0.123935,0.12196000000000001,0.0,208.76999999999998,208.78333333333333,206.15,206.15,0.0,0.0
12,0.0,0.0,0.0,1.0,1.0,0.0,0.0,1.0,0.0,100.0,1.0,1.1856,26.0,0.0,0.0,0.0,59.999996,0.0,26.0,26.0,26.0,26.0,0.004555555555555556,0.30000000000000004,-0.0012000000000000001,303.726,-2.36675,-2.3387777777777776,-1.0449,-1.0446,-236.05,215.55,190.75957142857143,0.0,0.0,0.0,0.0,0.025466666666666526,-5.498166666666667,-5.498166666666667,-1.7878,0.3815,0.003374999999999906,-0.532,66.78,-0.0019999999999997797,-1.65635,-0.25666666666666593,100.0,1.0,1.0,206.52666666666664,0.0,0.0,0.0,0.0,0.0,0.0,0.0,8753.888888888889,0.0,55.0,5.0,240.45,0.0,0.0,0.0,0.0,0.0,0.0,1.0,0.0,0.602999999999998,0.602999999999998,0.0,0.0,0.0,55.0,616.79921,10000.0,85.000001,85.000001,85.000001,85.000001,395.0,0.0,0.0,0.0,1.0,333.33500000000004,26.093,26.093,90.927,90.927,34.0,-18.52,17.612,-18.8525,18.294,0.0,1781.727,-0.029999999999999805,100.0,35.534,35.59,21.466,21.274333333333335,0.0,0.0,100.0,0.0,0.0,0.0,0.0,3369.6,3306.5,3556.875,3500.0,304.565,304.30425,316.4285,316.1685,21.6315,20.8792,22.365125,21.3293,314.999998,314.999998,324.999988,324.999988,99.54494285714286,99.5165,99.5964,99.54598571428572,0.16366666666666685,-0.16666666666666663,-0.14700000000000002,0.1459999999999999,-0.05850000000000044,-0.04300000000000015,1.7400000000000002,1.742,36.197,31.494999999999997,40.782,34.3085,50.9495,40.036,68.319,51.5785,49.527,38.8315,67.105,50.170500000000004,49.161500000000004,38.2475,67.549,49.839,-0.243,-0.2245,0.12183500000000001,0.11977000000000002,0.0,209.2266666666667,209.23333333333335,206.52666666666664,206.52666666666667,0.0,0.0
13,0.0,0.0,0.0,1.0,1.0,0.0,0.0,1.0,0.0,100.0,1.0,1.1856,26.0,0.0,0.0,0.0,59.999996,0.0,26.0,26.0,26.0,26.0,0.03077777777777778,0.29469999999999996,0.023775,303.314,-2.345,-2.3436666666666666,-1.0772000000000002,-1.047,-232.44,215.54250000000002,190.7367142857143,0.0,0.0,0.0,0.0,0.026733333333333387,-5.498166666666667,-5.498166666666667,-1.7792,-0.2205,0.005249999999999977,-0.44300000000000006,66.936,0.009666666666666934,-1.6614,-0.3466666666666658,100.0,1.0,1.0,206.84666666666666,0.0,0.0,0.0,0.0,0.0,0.0,0.0,8767.444444444445,0.0,55.0,5.0,241.01333333333332,1.0,0.0,0.0,0.0,0.0,0.0,1.0,0.0,0.657,0.657,0.0,0.0,1.0,55.0,616.79921,10000.0,85.000001,85.000001,85.000001,85.000001,395.0,0.0,0.0,0.0,1.0,166.665,25.939999999999998,25.939999999999998,90.5,90.5,34.0,-16.7225,18.418,-19.627499999999998,20.36,0.0,1781.675,-0.2799999999999998,100.0,35.718,35.8,21.73,21.729666666666667,0.0,0.0,100.0,0.0,0.0,0.0,0.0,3365.8,3272.9,3648.25,3669.7,304.58633333333336,304.4025,316.17825,315.68925,21.6409,20.886400000000002,22.37775,21.3385,314.999998,314.999998,324.999988,324.999988,99.54495714285714,99.51651666666666,99.59655,99.54612857142857,0.19366666666666688,-0.14733333333333332,-0.137,0.16000000000000014,-0.04899999999999949,-0.05900000000000016,1.6828571428571433,1.6499999999999995,36.256,31.54,40.861000000000004,34.3655,50.9595,40.072,68.322,51.632999999999996,49.536,38.865,67.107,50.224000000000004,49.168,38.28,67.548,49.8925,-0.2615,-0.20350000000000001,0.12033,0.125,0.0,209.69333333333333,209.71333333333334,206.84666666666666,206.8466666666667,0.0,0.0
14,0.0,0.0,0.0,1.0,1.0,0.0,0.0,1.0,0.0,100.0,1.0,1.1856,26.0,0.0,0.0,0.0,59.999996,0.0,26.0,26.0,26.0,26.0,0.03944444444444444,0.2861,0.0077,303.4365,-2.3565,-2.354,-1.0706,-1.0423,-229.22,215.535,190.7167142857143,0.0,0.0,0.0,0.0,0.02859999999999996,-5.498166666666667,-5.498166666666667,-1.7952,-0.20450000000000002,0.018750000000000044,-0.3360000000000001,67.07,0.020000000000000462,-1.68465,-0.3533333333333335,100.0,1.0,1.0,207.38333333333333,0.0,0.0,0.0,0.0,0.0,0.0,0.0,8790.222222222223,0.0,55.0,5.0,241.5,0.0,0.0,0.0,0.0,0.0,0.0,1.0,0.0,0.7049999999999983,0.7049999999999983,0.0,0.0,0.0,55.0,616.79921,10000.0,85.000001,85.000001,85.000001,85.000001,395.0,0.0,0.0,0.0,1.0,166.665,25.695999999999998,25.695999999999998,90.82,90.82,34.0,-16.9375,18.598,-17.4925,19.194,0.0,1781.627,-0.23999999999999977,100.0,35.844,36.076,21.698999999999998,21.82133333333333,0.0,0.0,100.0,0.0,0.0,0.0,0.0,3354.5,3317.1,3466.0,3495.3,304.624,304.21175,316.61025,316.13675,21.6493,20.8928,22.388875,21.3465,314.999998,314.999998,324.999988,324.999988,99.54498571428572,99.51653333333333,99.596675,99.54627142857143,0.19100000000000006,-0.15266666666666662,-0.12,0.16700000000000026,-0.03549999999999898,-0.05649999999999977,1.7271428571428578,1.7299999999999995,36.308,31.58,40.931,34.4155,50.9695,40.1055,68.32300000000001,51.683,49.544,38.8965,67.107,50.2725,49.1745,38.3105,67.544,49.941,-0.2545,-0.2195,0.11531000000000001,0.12669,0.0,210.09333333333333,210.13333333333333,207.38333333333333,207.38333333333333,0.0,0.0
15,0.0,0.0,0.0,1.0,1.0,0.0,0.0,1.0,0.0,100.0,1.0,1.1856,26.0,0.0,0.0,0.0,59.999996,0.0,26.0,26.0,26.0,26.0,0.04211111111111111,0.29370000000000007,0.0073750000000000005,303.406,-2.355125,-2.3223333333333334,-1.085,-1.0531,-226.0,215.5275,190.69642857142858,0.0,0.0,0.0,0.0,0.03046666666666653,-5.498166666666667,-5.498166666666667,-1.7917,0.241,0.03499999999999992,-0.6440000000000001,67.207,0.024333333333333762,-1.6776,-0.29666666666666597,100.0,1.0,1.0,207.78333333333336,0.0,0.0,0.0,0.0,0.0,0.0,0.0,8807.222222222223,0.0,55.0,5.0,241.98666666666668,1.0,0.0,0.0,0.0,0.0,0.0,1.0,0.0,0.7530000000000001,0.7530000000000001,0.0,0.0,1.0,55.0,616.79921,10000.0,85.000001,85.000001,85.000001,85.000001,395.0,0.0,0.0,0.0,1.0,333.33500000000004,25.726,25.726,90.851,90.851,34.0,-16.62,18.322,-17.8525,20.526,0.0,1781.578,-0.21999999999999975,100.0,35.839,36.192,21.444,21.809333333333335,0.0,0.0,100.0,0.0,0.0,0.0,0.0,3309.6,3315.7,3486.5,3589.2,304.75266666666664,304.18775,316.587,315.87,21.6577,20.8992,22.4,21.3545,314.999998,314.999998,324.999988,324.999988,99.545,99.51655,99.5968,99.5464,0.19199999999999995,-0.15166666666666662,-0.122,0.17899999999999983,-0.04100000000000037,-0.046499999999999986,1.7314285714285722,1.7119999999999997,36.36,31.619999999999997,41.0,34.466,50.9795,40.14,68.322,51.7335,49.553,38.9285,67.105,50.322,49.1815,38.341499999999996,67.53999999999999,49.99,-0.2495,-0.2155,0.11672500000000001,0.13645000000000002,0.0,210.54333333333335,210.57,207.78333333333336,207.78333333333333,0.0,0.0
16,0.0,0.0,0.0,1.0,1.0,0.0,0.0,1.0,0.0,100.0,1.0,1.1856,26.0,0.0,0.0,0.0,59.999996,0.0,26.0,26.0,26.0,26.0,0.024444444444444442,0.28869999999999996,0.00235,303.2685,-2.411625,-2.2751111111111113,-1.0616,-1.0513,-222.57,215.5225,190.67442857142856,0.0,0.0,0.0,0.0,0.03246666666666653,-5.498166666666667,-5.498166666666667,-1.799,-0.514,0.02774999999999994,0.237,67.352,0.026333333333333542,-1.6852,-0.2400000000000002,100.0,1.0,1.0,208.16,0.0,0.0,0.0,0.0,0.0,0.0,0.0,8823.111111111111,0.0,55.0,5.0,242.51333333333332,0.0,0.0,0.0,0.0,0.0,0.0,1.0,0.0,0.8039999999999985,0.8039999999999985,0.0,0.0,0.0,55.0,616.79921,10000.0,85.000001,85.000001,85.000001,85.000001,395.0,0.0,0.0,0.0,1.0,333.33500000000004,25.665,25.665,90.408,90.408,34.0,-16.5675,19.394,-17.4725,20.62,0.0,1781.526,-0.1549999999999998,100.0,35.711,36.091,21.808,21.872,0.0,0.0,100.0,0.0,0.0,0.0,0.0,3294.1,3470.1,3486.625,3595.7,304.7126666666667,303.9805,316.48875,315.909,21.6664,20.906,22.411875,21.3631,314.999998,314.999998,324.999988,324.999988,99.54502857142857,99.51658333333333,99.5969375,99.54652857142857,0.20466666666666677,-0.136,-0.11399999999999999,0.17899999999999983,-0.032999999999999474,-0.05675000000000008,1.6799999999999997,1.6819999999999995,36.415,31.663,41.074,34.5195,50.988,40.1755,68.32300000000001,51.7875,49.5605,38.962,67.106,50.3745,49.187,38.374,67.537,50.042500000000004,-0.245,-0.227,0.122175,0.11941000000000002,0.0,210.96666666666667,210.99666666666667,208.16,208.16,0.0,0.0
17,0.0,0.0,0.0,1.0,1.0,0.0,0.0,1.0,0.0,100.0,1.0,1.1856,26.0,0.0,0.0,0.0,59.999996,0.0,26.0,26.0,26.0,26.0,0.015444444444444445,0.2893000000000001,0.025125,302.994,-2.37275,-2.2592222222222222,-1.1034000000000002,-1.0142,-218.92000000000002,215.51749999999998,190.651,0.0,0.0,0.0,0.0,0.034599999999999964,-5.498166666666667,-5.498166666666667,-1.8001,0.154,0.004249999999999865,0.472,67.502,0.025333333333333208,-1.6853,-0.21333333333333382,100.0,1.0,1.0,208.63666666666666,0.0,0.0,0.0,0.0,0.0,0.0,0.0,8843.333333333334,0.0,55.0,5.0,243.05333333333334,1.0,0.0,0.0,0.0,0.0,0.0,1.0,0.0,0.8580000000000005,0.8580000000000005,0.0,0.0,1.0,55.0,616.79921,10000.0,85.000001,85.000001,85.000001,85.000001,395.0,0.0,0.0,0.0,1.0,166.665,25.253,25.253,90.393,90.393,34.0,-17.0975,18.676,-18.88,20.606,0.0,1781.474,-0.06499999999999995,100.0,36.173,36.278,21.746,21.772,0.0,0.0,100.0,0.0,0.0,0.0,0.0,3375.9,3463.4,3626.375,3656.2,304.4286666666667,304.00125,316.2185,315.837,21.6758,20.9133,22.424375,21.3722,314.999998,314.999998,324.999988,324.999988,99.54505714285715,99.5166,99.5970875,99.54668571428572,0.19599999999999995,-0.14533333333333331,-0.11699999999999999,0.18199999999999994,-0.0470000000000006,-0.04574999999999996,1.7028571428571428,1.694,36.474000000000004,31.7085,41.152,34.576,51.0005,40.214,68.32300000000001,51.8425,49.571,38.9985,67.105,50.4285,49.195499999999996,38.409,67.533,50.097,-0.23750000000000002,-0.23700000000000002,0.12464000000000001,0.12267000000000002,0.0,211.45666666666668,211.47,208.63666666666666,208.63666666666666,0.0,0.0
18,0.0,0.0,0.0,1.0,1.0,0.0,0.0,1.0,0.0,100.0,1.0,1.1856,26.0,0.0,0.0,0.0,59.999996,0.0,26.0,26.0,26.0,26.0,0.008333333333333335,0.27780000000000005,0.028625,302.887,-2.30225,-2.251333333333333,-1.0942,-0.9775,-215.68,215.5125,190.63,0.0,0.0,0.0,0.0,0.036466666666666536,-5.498166666666667,-5.498166666666667,-1.8098,-0.4025,0.008124999999999938,0.915,67.637,0.0216666666666665,-1.6971500000000002,-0.09333333333333371,100.0,1.0,1.0,209.00333333333333,0.0,0.0,0.0,0.0,0.0,0.0,0.0,8859.0,0.0,55.0,5.0,243.54000000000002,0.0,0.0,0.0,0.0,0.0,0.0,1.0,0.0,0.9059999999999988,0.9059999999999988,0.0,0.0,0.0,55.0,616.79921,10000.0,85.000001,85.000001,85.000001,85.000001,395.0,0.0,0.0,0.0,1.0,166.665,25.146,25.146,90.317,90.317,34.0,-16.12,19.126,-18.849999999999998,20.09,0.0,1781.426,-0.06499999999999995,100.0,36.150999999999996,36.201,21.875,21.888666666666666,0.0,0.0,100.0,0.0,0.0,0.0,0.0,3365.9,3567.8,3603.5,3703.3,304.3913333333333,303.74875,316.257,315.723,21.684,20.9197,22.4355,21.3803,314.999998,314.999998,324.999988,324.999988,99.54508571428572,99.51661666666666,99.597225,99.54681428571429,0.19966666666666666,-0.14633333333333332,-0.121,0.17200000000000015,-0.04100000000000037,-0.04549999999999965,1.6871428571428577,1.6799999999999997,36.525,31.7485,41.221000000000004,34.6265,51.01,40.2475,68.324,51.893,49.579,39.03,67.105,50.478,49.202,38.4395,67.53,50.146,-0.244,-0.2335,0.115625,0.12053000000000001,0.0,211.85666666666668,211.86333333333334,209.00333333333333,209.00333333333333,0.0,0.0
19,0.0,0.0,0.0,1.0,1.0,0.0,0.0,1.0,0.0,100.0,1.0,1.1856,26.0,0.0,0.0,0.0,59.999996,0.0,26.0,26.0,26.0,26.0,0.0014444444444444444,0.2865,0.064525,302.5515,-2.30075,-2.354222222222222,-1.0262,-0.9649,-212.43,215.5075,190.60885714285715,0.0,0.0,0.0,0.0,0.03836666666666655,-5.498166666666667,-5.498166666666667,-1.8075,0.658,0.013624999999999998,0.681,67.77,0.0173333333333332,-1.6983000000000001,-0.07000000000000028,100.0,1.0,1.0,209.44333333333333,0.0,0.0,0.0,0.0,0.0,0.0,0.0,8877.444444444445,0.0,55.0,5.0,244.01666666666665,1.0,0.0,0.0,0.0,0.0,0.0,1.0,0.0,0.9540000000000006,0.9540000000000006,0.0,0.0,1.0,55.0,616.79921,10000.0,85.000001,85.000001,85.000001,85.000001,395.0,0.0,0.0,0.0,1.0,166.665,24.551000000000002,24.551000000000002,90.393,90.393,34.0,-16.49,19.644,-18.4425,20.62,0.0,1781.378,-0.0349999999999997,100.0,36.753,36.677,21.742,21.823,0.0,0.0,100.0,0.0,0.0,0.0,0.0,3391.3,3509.6,3589.125,3824.7,304.276,303.65075,316.2645,315.48475,21.6925,20.9263,22.446375,21.3883,314.999998,314.999998,324.999988,324.999988,99.54511428571429,99.51663333333333,99.59735,99.54695714285714,0.19566666666666688,-0.15666666666666662,-0.131,0.16999999999999993,-0.03950000000000031,-0.040750000000000064,1.6885714285714286,1.6760000000000002,36.578,31.7895,41.29,34.677,51.021,40.284,68.32300000000001,51.942499999999995,49.589,39.064,67.103,50.5265,49.21,38.4725,67.526,50.1945,-0.2405,-0.241,0.12271000000000001,0.12660000000000002,0.0,212.2866666666667,212.28333333333333,209.44333333333333,209.44333333333333,0.0,0.0
20,0.0,0.0,0.0,1.0,1.0,0.0,0.0,1.0,0.0,100.0,1.0,1.1856,26.0,0.0,0.0,0.0,59.999996,0.0,26.0,26.0,26.0,26.0,0.02033333333333333,0.27449999999999997,0.025025000000000002,302.704,-2.395875,-2.3049999999999997,-1.0304,-1.0846,-208.97,215.505,190.58642857142857,0.0,0.0,0.0,0.0,0.04036666666666655,-5.498166666666667,-5.498166666666667,-1.8024,-0.767,0.00924999999999998,-0.9510000000000001,67.913,0.012000000000000455,-1.70195,0.016666666666666607,100.0,1.0,1.0,209.73666666666668,0.0,0.0,0.0,0.0,0.0,0.0,0.0,8890.0,0.0,55.0,5.0,244.53666666666666,0.0,0.0,0.0,0.0,0.0,0.0,0.0,0.0,1.004999999999999,1.004999999999999,0.0,0.0,0.0,55.0,616.79921,10000.0,85.000001,85.000001,85.000001,85.000001,395.0,0.0,0.0,0.0,1.0,333.33500000000004,25.391,25.391,89.737,89.737,34.0,-17.8325,17.254,-19.5575,20.646,0.0,1781.326,-0.06999999999999984,100.0,36.263,36.629,22.250999999999998,22.392666666666667,0.0,0.0,100.0,0.0,0.0,0.0,0.0,3342.3,3272.1,3716.75,3650.4,304.74033333333335,304.4045,316.0,315.6345,21.7012,20.9331,22.45825,21.397,314.999998,314.999998,324.999988,324.999988,99.54512857142858,99.51665,99.5974875,99.54708571428571,0.17966666666666686,-0.16333333333333333,-0.134,0.15399999999999991,-0.0389999999999997,-0.03950000000000031,1.6285714285714281,1.62,36.632999999999996,31.832,41.364000000000004,34.7315,51.03,40.32,68.326,51.9975,49.5965,39.098,67.106,50.58,49.2155,38.504999999999995,67.525,50.248,-0.243,-0.2335,0.11834000000000001,0.12472000000000001,0.0,212.70333333333332,212.72,209.73666666666668,209.73666666666668,0.0,0.0
21,0.0,0.0,0.0,1.0,1.0,0.0,0.0,1.0,0.0,100.0,1.0,1.1856,26.0,0.0,0.0,0.0,59.999996,0.0,26.0,26.0,26.0,26.0,0.003777777777777778,0.26980000000000004,-0.047025000000000004,303.177,-2.369875,-2.304555555555556,-1.1076000000000001,-1.0385,-205.7,215.5025,190.56514285714286,0.0,0.0,0.0,0.0,0.042266666666666564,-5.498166666666667,-5.498166666666667,-1.8296999999999999,-0.1545,0.0004999999999999449,-0.808,68.041,0.006999999999999673,-1.7192500000000002,0.006666666666666821,100.0,1.0,1.0,210.42000000000002,0.0,0.0,0.0,0.0,0.0,0.0,0.0,8918.888888888889,0.0,55.0,5.0,244.99666666666667,1.0,0.0,0.0,0.0,0.0,0.0,0.0,0.0,1.0530000000000008,1.0530000000000008,0.0,0.0,1.0,55.0,616.79921,10000.0,85.000001,85.000001,85.000001,85.000001,395.0,0.0,0.0,0.0,1.0,333.33500000000004,25.223,25.223,91.003,91.003,34.0,-18.2675,17.464,-18.83,17.838,0.0,1781.278,-0.11499999999999977,100.0,36.364000000000004,36.564,21.863,22.013333333333332,0.0,0.0,100.0,0.0,0.0,0.0,0.0,3455.1,3309.6,3459.125,3393.5,304.3813333333333,304.36525,316.688,316.4135,21.709600000000002,20.9396,22.469125,21.405,314.999998,314.999998,324.999988,324.999988,99.54515714285715,99.51668333333333,99.5976125,99.54721428571429,0.17933333333333334,-0.16233333333333333,-0.14600000000000002,0.15300000000000002,-0.045999999999999375,-0.020999999999999908,1.7642857142857142,1.7480000000000002,36.685,31.872500000000002,41.432,34.7815,51.04,40.3545,68.324,52.0445,49.605000000000004,39.1305,67.103,50.6265,49.2225,38.536500000000004,67.519,50.294,-0.2485,-0.2325,0.1228,0.11823000000000002,0.0,213.12,213.10333333333335,210.42000000000002,210.42000000000002,0.0,0.0
22,0.0,0.0,0.0,1.0,1.0,0.0,0.0,1.0,0.0,100.0,1.0,1.1856,26.0,0.0,0.0,0.0,59.999996,0.0,26.0,26.0,26.0,26.0,0.001,0.2876000000000001,-0.02095,302.8715,-2.290375,-2.370222222222222,-1.0905,-1.0307,-202.23000000000002,215.4975,190.54157142857142,0.0,0.0,0.0,0.0,0.044300000000000006,-5.498166666666667,-5.498166666666667,-1.8155999999999999,0.28350000000000003,0.0040000000000000036,1.146,68.18299999999999,0.004000000000000448,-1.6971500000000002,-0.09999999999999964,100.0,1.0,1.0,210.7,0.0,0.0,0.0,0.0,0.0,0.0,0.0,8930.888888888889,0.0,55.0,5.0,245.50666666666666,0.0,0.0,0.0,0.0,0.0,0.0,0.0,0.0,1.1039999999999992,1.1039999999999992,0.0,0.0,0.0,55.0,616.79921,10000.0,85.000001,85.000001,85.000001,85.000001,395.0,0.0,0.0,0.0,1.0,333.33500000000004,25.253,25.253,90.179,90.179,34.0,-15.349999999999998,19.108,-19.895,20.002000000000002,0.0,1781.227,-0.20999999999999996,100.0,36.697,36.513999999999996,21.992,21.839,0.0,0.0,100.0,0.0,0.0,0.0,0.0,3213.7,3389.1,3645.875,3692.5,304.8616666666667,304.22025,316.17825,315.81125,21.7184,20.9465,22.480875,21.4135,314.999998,314.999998,324.999988,324.999988,99.54518571428571,99.5167,99.5977625,99.54735714285714,0.19599999999999995,-0.15200000000000002,-0.14,0.15900000000000025,-0.041499999999999204,-0.04824999999999946,1.6971428571428575,1.7000000000000002,36.74,31.916,41.504999999999995,34.8345,51.051,40.391999999999996,68.325,52.0965,49.615,39.1655,67.103,50.677,49.230000000000004,38.570499999999996,67.51599999999999,50.3445,-0.25,-0.2245,0.12049000000000001,0.12244000000000001,0.0,213.57333333333332,213.57666666666665,210.7,210.7,0.0,0.0
23,0.0,0.0,0.0,1.0,1.0,0.0,0.0,1.0,0.0,100.0,1.0,1.1856,26.0,0.0,0.0,0.0,59.999996,0.0,26.0,26.0,26.0,26.0,0.021666666666666667,0.26170000000000004,-0.0296,302.7345,-2.334375,-2.3084444444444445,-1.1506,-1.0892,-198.75,215.495,190.51814285714286,0.0,0.0,0.0,0.0,0.04633333333333334,-5.498166666666667,-5.498166666666667,-1.8265,-0.41500000000000004,0.005125000000000046,-0.9239999999999999,68.322,0.009333333333333194,-1.71865,-0.13999999999999968,100.0,1.0,1.0,211.14,0.0,0.0,0.0,0.0,0.0,0.0,0.0,8949.444444444445,0.0,55.0,5.0,246.01,1.0,0.0,0.0,0.0,0.0,0.0,0.0,0.0,1.1550000000000011,1.1550000000000011,0.0,0.0,1.0,55.0,616.79921,10000.0,85.000001,85.000001,85.000001,85.000001,395.0,0.0,0.0,0.0,1.0,333.33500000000004,24.78,24.78,90.591,90.591,34.0,-18.357499999999998,17.738,-19.7675,19.314,0.0,1781.175,-0.1349999999999998,100.0,36.53,36.784,22.07,22.224333333333334,0.0,0.0,100.0,0.0,0.0,0.0,0.0,3542.8,3357.9,3561.5,3486.5,304.18066666666664,304.1505,316.5055,316.0805,21.7273,20.9535,22.492625,21.4223,314.999998,314.999998,324.999988,324.999988,99.54521428571428,99.51671666666667,99.5979125,99.54751428571429,0.17933333333333334,-0.16466666666666663,-0.137,0.15200000000000014,-0.04800000000000004,-0.012500000000000178,1.692857142857143,1.6799999999999997,36.795,31.959,41.579,34.888999999999996,51.0615,40.4295,68.326,52.1505,49.624,39.2005,67.104,50.7295,49.237,38.6045,67.513,50.3965,-0.246,-0.227,0.12007500000000002,0.11997000000000001,0.0,213.96666666666667,213.96333333333334,211.14,211.14,0.0,0.0
24,0.0,0.0,0.0,1.0,1.0,0.0,0.0,1.0,0.0,100.0,1.0,1.1856,26.0,0.0,0.0,0.0,59.999996,0.0,26.0,26.0,26.0,26.0,0.010777777777777778,0.2853000000000001,-0.02895,302.948,-2.332875,-2.320666666666667,-1.1305,-1.0342,-195.45999999999998,215.4925,190.49585714285715,0.0,0.0,0.0,0.0,0.04823333333333335,-5.498166666666667,-5.498166666666667,-1.8414,-0.3215,0.010375000000000023,-0.40000000000000013,68.452,0.016000000000000014,-1.7266,-0.19333333333333336,100.0,1.0,1.0,211.56,0.0,0.0,0.0,0.0,0.0,0.0,0.0,8967.333333333334,0.0,55.0,5.0,246.47666666666666,0.0,0.0,0.0,0.0,0.0,0.0,0.0,0.0,1.2029999999999994,1.2029999999999994,0.0,0.0,0.0,55.0,616.79921,10000.0,85.000001,85.000001,85.000001,85.000001,395.0,0.0,0.0,0.0,1.0,333.33500000000004,25.223,25.223,90.561,90.561,34.0,-16.794999999999998,17.22,-20.2425,18.85,0.0,1781.127,-0.09499999999999975,100.0,36.618,36.635,21.938,22.111666666666668,0.0,0.0,100.0,0.0,0.0,0.0,0.0,3367.9,3258.4,3667.75,3513.0,304.58733333333333,304.479,316.252,316.13125,21.735599999999998,20.9599,22.503625,21.4303,314.999998,314.999998,324.999988,324.999988,99.54522857142857,99.51673333333333,99.5980375,99.54764285714286,0.19100000000000006,-0.16533333333333333,-0.139,0.15700000000000003,-0.045999999999999375,-0.044500000000000206,1.725714285714286,1.7199999999999998,36.847,31.999499999999998,41.647,34.939499999999995,51.072,40.463499999999996,68.326,52.199,49.632999999999996,39.2325,67.103,50.7775,49.244,38.6355,67.509,50.4445,-0.2535,-0.2305,0.12075000000000001,0.12039000000000001,0.0,214.38333333333333,214.39666666666668,211.56,211.56,0.0,0.0
25,0.0,0.0,0.0,1.0,1.0,0.0,0.0,1.0,0.0,100.0,1.0,1.1856,26.0,0.0,0.0,0.0,59.999996,0.0,26.0,26.0,26.0,26.0,0.01666666666666667,0.26280000000000014,-0.023625,302.9175,-2.398375,-2.2903333333333333,-1.0696,-1.0327,-191.76,215.49,190.46942857142858,0.0,0.0,0.0,0.0,0.05036666666666656,-5.498166666666667,-5.498166666666667,-1.8637,-0.132,0.021374999999999922,-0.7750000000000001,68.59700000000001,0.017000000000000348,-1.7294,-0.08000000000000007,100.0,1.0,1.0,212.07666666666665,0.0,0.0,0.0,0.0,0.0,0.0,0.0,8989.222222222223,0.0,55.0,5.0,247.0,1.0,0.0,0.0,0.0,0.0,0.0,0.0,0.0,1.256999999999998,1.256999999999998,0.0,0.0,1.0,55.0,616.79921,10000.0,85.000001,85.000001,85.000001,85.000001,395.0,0.0,0.0,0.0,1.0,166.665,24.704,24.704,90.82,90.82,34.0,-18.555,18.554,-17.655,18.608,0.0,1781.075,-0.1499999999999999,100.0,36.384,36.784,21.759,21.863,0.0,0.0,100.0,0.0,0.0,0.0,0.0,3534.2,3498.2,3428.375,3488.4,304.24033333333335,303.7675,316.7485,316.2135,21.744799999999998,20.9672,22.515875,21.4394,314.999998,314.999998,324.999988,324.999988,99.54527142857143,99.51676666666667,99.5981875,99.54778571428571,0.18833333333333324,-0.16100000000000003,-0.131,0.15900000000000025,-0.028499999999999304,-0.052999999999999936,1.7442857142857147,1.758,36.905,32.045500000000004,41.724000000000004,34.996,51.082,40.503,68.324,52.2525,49.6415,39.2695,67.1,50.829499999999996,49.2505,38.6715,67.50399999999999,50.4965,-0.2525,-0.229,0.11762000000000002,0.11407,0.0,214.82333333333332,214.85333333333335,212.07666666666665,212.07666666666665,0.0,0.0
26,0.0,0.0,0.0,1.0,1.0,0.0,0.0,1.0,0.0,100.0,1.0,1.1856,26.0,0.0,0.0,0.0,59.999996,0.0,26.0,26.0,26.0,26.0,0.021666666666666667,0.29290000000000016,0.06507500000000001,301.9105,-2.329125,-2.3743333333333334,-1.1117000000000001,-1.033,-188.26,215.4875,190.44385714285715,0.0,0.0,0.0,0.0,0.05243333333333333,-5.498166666666667,-5.498166666666667,-1.8355,0.677,0.011749999999999927,0.6659999999999999,68.738,0.017000000000000348,-1.70875,-0.20999999999999996,100.0,1.0,1.0,212.24,0.0,0.0,0.0,0.0,0.0,0.0,0.0,8996.111111111111,0.0,55.0,5.0,247.50333333333333,0.0,0.0,0.0,0.0,0.0,0.0,0.0,0.0,1.3079999999999998,1.3079999999999998,0.0,0.0,0.0,55.0,616.79921,10000.0,85.000001,85.000001,85.000001,85.000001,395.0,0.0,0.0,0.0,1.0,166.665,24.185000000000002,24.185000000000002,89.539,89.539,34.0,-15.9175,19.632,-21.49,22.756,0.0,1781.024,-0.19499999999999984,100.0,37.347,37.269,22.128999999999998,22.118666666666666,0.0,0.0,100.0,0.0,0.0,0.0,0.0,3402.8,3443.7,3905.75,3932.9,304.3086666666667,303.974,315.6135,315.20175,21.7538,20.9744,22.5275,21.448,314.999998,314.999998,324.999988,324.999988,99.54528571428571,99.51678333333334,99.598325,99.54792857142857,0.21333333333333337,-0.15133333333333332,-0.127,0.17600000000000016,-0.04299999999999926,-0.046499999999999986,1.6171428571428574,1.6139999999999999,36.961,32.0895,41.797,35.0505,51.0955,40.542500000000004,68.325,52.3065,49.6535,39.3065,67.101,50.8825,49.2605,38.707,67.501,50.549,-0.2585,-0.226,0.12606,0.13085000000000002,0.0,215.29000000000002,215.29666666666668,212.24,212.24,0.0,0.0
27,0.0,0.0,0.0,1.0,1.0,0.0,0.0,1.0,0.0,100.0,1.0,1.1856,26.0,0.0,0.0,0.0,59.999996,0.0,26.0,26.0,26.0,26.0,0.031,0.26239999999999997,0.005725,302.124,-2.3465,-2.306222222222222,-1.0777,-1.1089,-184.95,215.485,190.4207142857143,0.0,0.0,0.0,0.0,0.054333333333333345,-5.498166666666667,-5.498166666666667,-1.8498,-0.9460000000000001,0.017749999999999932,0.7989999999999999,68.866,0.015666666666666273,-1.7454,-0.20999999999999996,100.0,1.0,1.0,212.67666666666668,0.0,0.0,0.0,0.0,0.0,0.0,0.0,9014.555555555555,0.0,55.0,5.0,247.97,1.0,0.0,0.0,0.0,0.0,0.0,0.0,0.0,1.355999999999998,1.355999999999998,0.0,0.0,1.0,55.0,616.79921,10000.0,85.000001,85.000001,85.000001,85.000001,395.0,0.0,0.0,0.0,1.0,166.665,24.506,24.506,89.447,89.447,34.0,-15.564999999999998,19.67,-19.23,21.726,0.0,1780.976,-0.2250000000000001,100.0,37.114000000000004,37.231,22.746,22.711666666666666,0.0,0.0,100.0,0.0,0.0,0.0,0.0,3271.9,3492.5,3618.25,3648.1,304.715,303.92025,316.187,315.776,21.7621,20.9809,22.53875,21.4564,314.999998,314.999998,324.999988,324.999988,99.54531428571428,99.5168,99.5984625,99.54807142857143,0.20999999999999996,-0.1406666666666666,-0.126,0.17500000000000027,-0.04049999999999976,-0.04574999999999996,1.6342857142857143,1.63,37.013,32.1305,41.867000000000004,35.1025,51.106,40.577,68.328,52.3585,49.6625,39.339,67.103,50.933,49.2675,38.7385,67.5,50.5995,-0.2515,-0.221,0.11693,0.12906,0.0,215.64333333333332,215.66333333333333,212.67666666666668,212.67666666666668,0.0,0.0
28,0.0,0.0,0.0,1.0,1.0,0.0,0.0,1.0,0.0,100.0,1.0,1.1856,26.0,0.0,0.0,0.0,59.999996,0.0,26.0,26.0,26.0,26.0,0.017777777777777778,0.2623,-0.047425,302.49,-2.362,-2.3052222222222225,-1.0762,-1.0507,-181.64999999999998,215.485,190.39714285714285,0.0,0.0,0.0,0.0,0.056266666666666576,-5.498166666666667,-5.498166666666667,-1.8723,0.244,0.008624999999999883,0.387,68.99000000000001,0.015666666666666273,-1.7537500000000001,-0.2166666666666659,100.0,1.0,1.0,213.32666666666665,0.0,0.0,0.0,0.0,0.0,0.0,0.0,9042.111111111111,0.0,55.0,5.0,248.41666666666666,0.0,0.0,0.0,0.0,0.0,0.0,0.0,0.0,1.404,1.404,0.0,0.0,0.0,55.0,616.79921,10000.0,85.000001,85.000001,85.000001,85.000001,395.0,0.0,0.0,0.0,1.0,333.33500000000004,24.109,24.109,90.775,90.775,34.0,-16.25,19.31,-16.9925,19.598,0.0,1780.927,-0.29000000000000004,100.0,37.258,37.333,22.147,22.277,0.0,0.0,100.0,0.0,0.0,0.0,0.0,3437.8,3507.4,3349.875,3481.0,304.248,303.85175,316.8925,316.281,21.7704,20.9875,22.549500000000002,21.4644,314.999998,314.999998,324.999988,324.999988,99.54534285714286,99.51683333333334,99.5986,99.5482,0.21733333333333338,-0.14966666666666661,-0.124,0.17899999999999983,-0.038000000000000256,-0.06099999999999994,1.7628571428571425,1.742,37.065,32.172,41.934,35.1525,51.118,40.613,68.325,52.405,49.673,39.373,67.099,50.979,49.275999999999996,38.771,67.492,50.644999999999996,-0.2635,-0.227,0.116445,0.13505,0.0,216.05333333333334,216.05666666666667,213.32666666666665,213.32666666666665,0.0,0.0
29,0.0,0.0,0.0,1.0,1.0,0.0,0.0,1.0,0.0,100.0,1.0,1.1856,26.0,0.0,0.0,0.0,59.999996,0.0,26.0,26.0,26.0,26.0,0.035222222222222224,0.2752000000000001,0.034125,302.185,-2.31,-2.3535555555555554,-1.0639,-1.038,-178.12,215.485,190.371,0.0,0.0,0.0,0.0,0.05829999999999991,-5.498166666666667,-5.498166666666667,-1.8645,-0.3865,0.0017499999999999183,-0.752,69.13,0.019000000000000128,-1.7328999999999999,-0.27333333333333343,100.0,1.0,1.0,213.47333333333336,0.0,0.0,0.0,0.0,0.0,0.0,0.0,9048.333333333334,0.0,55.0,5.0,248.91666666666666,1.0,0.0,0.0,0.0,0.0,0.0,0.0,0.0,1.4549999999999983,1.4549999999999983,0.0,0.0,1.0,55.0,616.79921,10000.0,85.000001,85.000001,85.000001,85.000001,395.0,0.0,0.0,0.0,1.0,333.33500000000004,24.536,24.536,89.508,89.508,34.0,-15.9225,19.074,-19.955,20.694,0.0,1780.875,-0.32499999999999973,100.0,36.86,37.316,22.256,22.450333333333333,0.0,0.0,100.0,0.0,0.0,0.0,0.0,3395.3,3365.2,3782.0,3695.8,304.5466666666667,304.028,315.91225,315.6825,21.7792,20.9945,22.561125,21.4731,314.999998,314.999998,324.999988,324.999988,99.54537142857143,99.51685,99.5987375,99.54834285714286,0.20566666666666666,-0.15100000000000002,-0.127,0.16400000000000015,-0.04849999999999888,-0.045250000000000234,1.6514285714285721,1.6360000000000001,37.12,32.2155,42.007,35.2065,51.1285,40.649,68.326,52.458,49.682,39.407,67.099,51.0305,49.283,38.804,67.49,50.6965,-0.2655,-0.217,0.12190500000000001,0.11879,0.0,216.48333333333335,216.49,213.47333333333336,213.47333333333333,0.0,0.0
30,0.0,0.0,0.0,1.0,1.0,0.0,0.0,1.0,0.0,100.0,1.0,1.1856,26.0,0.0,0.0,0.0,59.999996,0.0,26.0,26.0,26.0,26.0,0.04711111111111112,0.25340000000000007,0.053175,301.6665,-2.36725,-2.384444444444444,-1.0453000000000001,-1.0928,-174.59,215.485,190.34457142857144,0.0,0.0,0.0,0.0,0.06036666666666657,-5.498166666666667,-5.498166666666667,-1.876,0.406,0.005125000000000046,0.5780000000000001,69.262,0.02400000000000002,-1.7512500000000002,-0.4399999999999995,100.0,1.0,1.0,214.00666666666666,0.0,0.0,0.0,0.0,0.0,0.0,0.0,9071.0,0.0,55.0,5.0,249.39666666666665,0.0,0.0,0.0,0.0,0.0,0.0,1.0,0.0,1.5060000000000002,1.5060000000000002,0.0,0.0,0.0,55.0,616.79921,10000.0,85.000001,85.000001,85.000001,85.000001,395.0,0.0,0.0,0.0,1.0,166.665,22.98,22.98,90.225,90.225,34.0,-17.7425,22.592,-17.2,21.496000000000002,0.0,1780.826,-0.2650000000000001,100.0,37.699,37.743,22.243,22.420666666666666,0.0,0.0,100.0,0.0,0.0,0.0,0.0,3675.1,3773.5,3484.25,3633.9,303.63433333333336,303.10025,316.55925,315.8425,21.7881,21.0016,22.57275,21.4818,314.999998,314.999998,324.999988,324.999988,99.5454,99.51686666666667,99.598875,99.54848571428572,0.21399999999999997,-0.138,-0.11199999999999999,0.18000000000000016,-0.024499999999999744,-0.04624999999999968,1.6900000000000004,1.67,37.176,32.2605,42.08,35.260999999999996,51.1425,40.688,68.324,52.51,49.695,39.4435,67.09700000000001,51.082,49.294,38.839,67.484,50.7475,-0.266,-0.223,0.11636,0.12129000000000001,0.0,216.89333333333335,216.92000000000002,214.00666666666666,214.00666666666666,0.0,0.0
31,0.0,0.0,0.0,1.0,1.0,0.0,0.0,1.0,0.0,100.0,1.0,1.1856,26.0,0.0,0.0,0.0,59.999996,0.0,26.0,26.0,26.0,26.0,0.031,0.2832000000000001,0.0523,301.193,-2.418,-2.324111111111111,-1.1251,-1.1252,-171.26,215.485,190.32014285714286,0.0,0.0,0.0,0.0,0.06229999999999991,-5.498166666666667,-5.498166666666667,-1.8515,-0.0415,0.014000000000000012,0.865,69.393,0.03000000000000025,-1.7441,-0.37333333333333396,100.0,1.0,1.0,214.12,0.0,0.0,0.0,0.0,0.0,0.0,0.0,9075.777777777777,0.0,55.0,5.0,249.86333333333334,1.0,0.0,0.0,0.0,0.0,0.0,1.0,0.0,1.5539999999999985,1.5539999999999985,0.0,0.0,1.0,55.0,616.79921,10000.0,85.000001,85.000001,85.000001,85.000001,395.0,0.0,0.0,0.0,1.0,333.33500000000004,23.758,23.758,88.516,88.516,34.0,-15.780000000000001,19.552,-21.8275,26.162,0.0,1780.777,-0.2450000000000001,100.0,37.836,38.032,22.789,22.927666666666667,0.0,0.0,100.0,0.0,0.0,0.0,0.0,3288.9,3497.6,3991.0,4112.7,304.6673333333333,303.87325,315.42325,314.7825,21.7965,21.0084,22.583875,21.490099999999998,314.999998,314.999998,324.999988,324.999988,99.54542857142857,99.51688333333334,99.5990125,99.54862857142857,0.22333333333333338,-0.14833333333333332,-0.11599999999999999,0.18900000000000006,-0.0389999999999997,-0.051000000000000156,1.5842857142857145,1.5679999999999996,37.228,32.3025,42.149,35.3135,51.156,40.7245,68.327,52.563,49.7065,39.4775,67.099,51.1335,49.3035,38.8725,67.483,50.7985,-0.2665,-0.229,0.12095500000000001,0.12529,0.0,217.29333333333335,217.31666666666666,214.12,214.12,0.0,0.0
32,0.0,0.0,0.0,1.0,1.0,0.0,0.0,1.0,0.0,100.0,1.0,1.1856,26.0,0.0,0.0,0.0,59.999996,0.0,26.0,26.0,26.0,26.0,0.025777777777777778,0.26080000000000014,-0.047125,301.758,-2.375875,-2.316222222222222,-1.1495,-1.0373,-167.51,215.4875,190.29342857142856,0.0,0.0,0.0,0.0,0.06446666666666656,-5.498166666666667,-5.498166666666667,-1.8742,-0.325,-0.0017499999999999183,0.258,69.529,0.0346666666666664,-1.7728000000000002,-0.36666666666666625,100.0,1.0,1.0,214.79666666666668,0.0,0.0,0.0,0.0,0.0,0.0,0.0,9104.444444444445,0.0,55.0,5.0,250.36,0.0,0.0,0.0,0.0,0.0,0.0,1.0,0.0,1.6080000000000005,1.6080000000000005,0.0,0.0,0.0,55.0,616.79921,10000.0,85.000001,85.000001,85.000001,85.000001,395.0,0.0,0.0,0.0,1.0,166.665,23.666,23.666,89.691,89.691,34.0,-15.95,19.782,-18.349999999999998,21.381999999999998,0.0,1780.724,-0.23499999999999988,100.0,37.673,38.045,22.695999999999998,22.873666666666665,0.0,0.0,100.0,0.0,0.0,0.0,0.0,3416.9,3500.0,3586.5,3681.4,304.35266666666666,303.895,316.40325,315.853,21.8058,21.0159,22.596125,21.4994,314.999998,314.999998,324.999988,324.999988,99.54545714285715,99.5169,99.5991625,99.54878571428571,0.22333333333333338,-0.14200000000000002,-0.09899999999999998,0.18900000000000006,-0.03200000000000003,-0.054999999999999716,1.7028571428571428,1.6899999999999995,37.286,32.3495,42.226,35.3715,51.1695,40.765,68.326,52.6185,49.7185,39.516,67.09700000000001,51.188,49.313,38.909,67.478,50.8525,-0.2595,-0.2315,0.11713000000000001,0.11952000000000002,0.0,217.71,217.74,214.79666666666668,214.79666666666668,0.0,0.0
33,0.0,0.0,0.0,1.0,1.0,0.0,0.0,1.0,0.0,100.0,1.0,1.1856,26.0,0.0,0.0,0.0,59.999996,0.0,26.0,26.0,26.0,26.0,0.04911111111111111,0.26080000000000014,-0.045200000000000004,302.124,-2.375875,-2.299444444444444,-1.1145,-1.0724,-164.38,215.49,190.2702857142857,0.0,0.0,0.0,0.0,0.06629999999999991,-5.498166666666667,-5.498166666666667,-1.886,-0.1905,-0.010499999999999954,-0.349,69.646,0.03533333333333388,-1.768,-0.3633333333333333,100.0,1.0,1.0,215.17666666666668,0.0,0.0,0.0,0.0,0.0,0.0,0.0,9120.555555555555,0.0,55.0,5.0,250.78,1.0,0.0,0.0,0.0,0.0,0.0,1.0,0.0,1.6529999999999987,1.6529999999999987,0.0,0.0,1.0,55.0,616.79921,10000.0,85.000001,85.000001,85.000001,85.000001,395.0,0.0,0.0,0.0,1.0,333.33500000000004,24.063000000000002,24.063000000000002,89.951,89.951,34.0,-16.1325,18.812,-18.9625,20.186,0.0,1780.678,-0.29000000000000004,100.0,37.43,37.942,22.333,22.671333333333333,0.0,0.0,100.0,0.0,0.0,0.0,0.0,3412.5,3371.4,3613.875,3558.5,304.56,304.13225,316.36625,316.06125,21.8136,21.022100000000002,22.60625,21.506999999999998,314.999998,314.999998,324.999988,324.999988,99.5455,99.51693333333333,99.5993,99.5489,0.21700000000000008,-0.14400000000000002,-0.12,0.16999999999999993,-0.04349999999999987,-0.014499999999999957,1.717142857142857,1.7039999999999997,37.335,32.388,42.289,35.419,51.181,40.797,68.325,52.6635,49.7285,39.545500000000004,67.095,51.232,49.321,38.938,67.47200000000001,50.8965,-0.2715,-0.227,0.12596500000000002,0.11443,0.0,218.06666666666666,218.07666666666665,215.17666666666668,215.17666666666668,0.0,0.0
34,0.0,0.0,0.0,1.0,1.0,0.0,0.0,1.0,0.0,100.0,1.0,1.1856,26.0,0.0,0.0,0.0,59.999996,0.0,26.0,26.0,26.0,26.0,0.037333333333333336,0.26839999999999997,-0.06385,302.2765,-2.3975,-2.2484444444444445,-1.1372,-1.0414,-160.82,215.495,190.2427142857143,0.0,0.0,0.0,0.0,0.06836666666666658,-5.498166666666667,-5.498166666666667,-1.9059,-0.679,0.01574999999999993,0.912,69.779,0.03866666666666685,-1.7667000000000002,-0.37333333333333396,100.0,1.0,1.0,215.54666666666668,0.0,0.0,0.0,0.0,0.0,0.0,0.0,9136.222222222223,0.0,55.0,5.0,251.26,0.0,0.0,0.0,0.0,0.0,0.0,1.0,0.0,1.7040000000000006,1.7040000000000006,0.0,0.0,0.0,55.0,616.79921,10000.0,85.000001,85.000001,85.000001,85.000001,395.0,0.0,0.0,0.0,1.0,166.665,24.368000000000002,24.368000000000002,90.546,90.546,34.0,-15.98,18.686,-17.905,21.662,0.0,1780.628,-0.21999999999999975,100.0,37.292,37.514,22.198,22.591,0.0,0.0,100.0,0.0,0.0,0.0,0.0,3360.4,3387.4,3499.125,3706.5,304.58366666666666,304.27825,316.6035,315.7045,21.8223,21.029,22.617625,21.5157,314.999998,314.999998,324.999988,324.999988,99.54551428571429,99.51695,99.5994375,99.54905714285714,0.22100000000000009,-0.1343333333333333,-0.10399999999999998,0.18800000000000017,-0.050499999999999545,-0.04349999999999987,1.6914285714285722,1.694,37.388999999999996,32.431,42.36,35.4735,51.192499999999995,40.8315,68.322,52.716499999999996,49.739,39.578,67.092,51.283500000000004,49.329,38.9695,67.46600000000001,50.948,-0.261,-0.2235,0.11771000000000001,0.12582000000000002,0.0,218.45333333333335,218.49,215.54666666666668,215.54666666666668,0.0,0.0
35,0.0,0.0,0.0,1.0,1.0,0.0,0.0,1.0,0.0,100.0,1.0,1.1856,26.0,0.0,0.0,0.0,59.999996,0.0,26.0,26.0,26.0,26.0,0.04111111111111111,0.26239999999999997,-0.044700000000000004,302.368,-2.441375,-2.2334444444444443,-1.0464,-1.056,-157.26,215.5,190.21328571428572,0.0,0.0,0.0,0.0,0.07043333333333335,-5.498166666666667,-5.498166666666667,-1.9517,-0.5695,0.007125000000000048,-1.226,69.90899999999999,0.04266666666666641,-1.7864,-0.32333333333333325,100.0,1.0,1.0,216.06,0.0,0.0,0.0,0.0,0.0,0.0,0.0,9158.0,0.0,55.0,5.0,251.72666666666666,1.0,0.0,0.0,0.0,0.0,0.0,1.0,0.0,1.754999999999999,1.754999999999999,0.0,0.0,1.0,55.0,616.79921,10000.0,85.000001,85.000001,85.000001,85.000001,395.0,0.0,0.0,0.0,1.0,333.33500000000004,24.063000000000002,24.063000000000002,90.225,90.225,34.0,-17.45,19.328,-16.7975,19.48,0.0,1780.575,-0.125,100.0,36.896,37.837,21.944,22.294666666666668,0.0,0.0,100.0,0.0,0.0,0.0,0.0,3426.1,3560.4,3489.75,3391.5,304.4413333333333,303.554,316.58225,316.38375,21.8309,21.0361,22.629,21.5243,314.999998,314.999998,324.999988,324.999988,99.54554285714286,99.51696666666666,99.599575,99.5492,0.20866666666666678,-0.1426666666666666,-0.10699999999999998,0.18599999999999994,-0.027499999999999858,-0.06400000000000006,1.7571428571428571,1.742,37.443,32.4755,42.431,35.527,51.2025,40.868,68.319,52.766,49.7475,39.6125,67.087,51.332499999999996,49.336,39.003,67.458,50.9965,-0.2545,-0.2315,0.12273,0.11562000000000001,0.0,218.85666666666668,218.91666666666669,216.06,216.06,0.0,0.0
36,0.0,0.0,0.0,1.0,1.0,0.0,0.0,1.0,0.0,100.0,1.0,1.1856,26.0,0.0,0.0,0.0,59.999996,0.0,26.0,26.0,26.0,26.0,0.03188888888888889,0.27190000000000003,0.01795,301.758,-2.422125,-2.291555555555556,-1.0721,-1.0332,-153.69,215.505,190.18242857142857,0.0,0.0,0.0,0.0,0.07250000000000001,-5.498166666666667,-5.498166666666667,-1.9394,0.4195,-0.03275000000000006,0.14500000000000002,70.043,0.038333333333333997,-1.7596,-0.14333333333333353,100.0,1.0,1.0,216.27666666666664,0.0,0.0,0.0,0.0,0.0,0.0,0.0,9167.111111111111,0.0,55.0,5.0,252.20666666666665,0.0,0.0,0.0,0.0,0.0,0.0,1.0,0.0,1.806000000000001,1.806000000000001,0.0,0.0,0.0,55.0,616.79921,10000.0,85.000001,85.000001,85.000001,85.000001,395.0,0.0,0.0,0.0,1.0,166.665,23.682000000000002,23.682000000000002,89.951,89.951,34.0,-16.825,19.478,-18.55,23.637999999999998,0.0,1780.526,-0.054999999999999716,100.0,37.61,37.934,22.044,22.217333333333332,0.0,0.0,100.0,0.0,0.0,0.0,0.0,3501.5,3498.3,3737.75,3868.3,304.17066666666665,303.95725,315.982,315.4005,21.8397,21.0433,22.64025,21.533,314.999998,314.999998,324.999988,324.999988,99.54557142857144,99.51698333333333,99.5997125,99.54934285714286,0.2250000000000001,-0.1416666666666666,-0.09799999999999998,0.20500000000000007,-0.029500000000000526,-0.03575000000000017,1.6314285714285717,1.63,37.498,32.5205,42.501999999999995,35.581,51.216499999999996,40.9065,68.31700000000001,52.817499999999995,49.76,39.649,67.08500000000001,51.382999999999996,49.346000000000004,39.038,67.453,51.0465,-0.2505,-0.248,0.11739000000000001,0.12996000000000002,0.0,219.31,219.32333333333332,216.27666666666664,216.27666666666664,0.0,0.0
