,ABS Active,ABS Enabled,AID Allow Tire Blankets,AID Auto Blip,AID Auto Clutch,AID Auto Shift,AID Fuel Rate,AID Ideal Line,AID Mech Damage,AID Stability,AID Tire Wear Rate,Air Density,Air Temp,Ballast,Best Lap Delta,Best Lap Time,Brake Bias,Brake Pos,Brake Temp FL,Brake Temp FR,Brake Temp RL,Brake Temp RR,CG Accel Lateral,CG Accel Longitudinal,CG Accel Vertical,CG Height,Camber FL,Camber FR,Camber RL,Camber RR,Car Coord X,Car Coord Y,Car Coord Z,Car Damage Front,Car Damage Left,Car Damage Rear,Car Damage Right,Car Pos Norm,Caster FL,Caster FR,Chassis Pitch Angle,Chassis Pitch Rate,Chassis Roll Angle,Chassis Roll Rate,Chassis Velocity X,Chassis Velocity Y,Chassis Velocity Z,Chassis Yaw Rate,Clutch Pos,DRS Active,DRS Available,Drive Train Speed,ERS Heat Charging,ERS Is Charging,ERS Max Energy,ERS Power Level,ERS Recovery Level,Engine Brake Setting,Engine Limiter,Engine RPM,Flags,Fuel Level,Gear,Ground Speed,HR Sample Clock,In Pit,KERS Charge,KERS Deployed Energy,KERS Input,KERS Max Energy,LR Sample Clock,Lap Invalidated,Lap Time,Lap Time2,Last Lap Time,Last Sector Time,MR Sample Clock,Max Fuel,Max Power,Max RPM,Max Sus Travel FL,Max Sus Travel FR,Max Sus Travel RL,Max Sus Travel RR,Max Torque,Max Turbo Boost,Num Tires Off Track,Penalties Enabled,Position,Raw Data Sample Rate,Ride Height FL,Ride Height FR,Ride Height RL,Ride Height RR,Road Temp,Self Align Torque FL,Self Align Torque FR,Self Align Torque RL,Self Align Torque RR,Session Lap Count,Session Time Left,Steering Angle,Surface Grip,Suspension Travel FL,Suspension Travel FR,Suspension Travel RL,Suspension Travel RR,TC Active,TC Enabled,Throttle Pos,Tire Dirt Level FL,Tire Dirt Level FR,Tire Dirt Level RL,Tire Dirt Level RR,Tire Load FL,Tire Load FR,Tire Load RL,Tire Load RR,Tire Loaded Radius FL,Tire Loaded Radius FR,Tire Loaded Radius RL,Tire Loaded Radius RR,Tire Pressure FL,Tire Pressure FR,Tire Pressure RL,Tire Pressure RR,Tire Radius FL,Tire Radius FR,Tire Radius RL,Tire Radius RR,Tire Rubber Grip FL,Tire Rubber Grip FR,Tire Rubber Grip RL,Tire Rubber Grip RR,Tire Slip Angle FL,Tire Slip Angle FR,Tire Slip Angle RL,Tire Slip Angle RR,Tire Slip Ratio FL,Tire Slip Ratio FR,Tire Slip Ratio RL,Tire Slip Ratio RR,Tire Temp Core FL,Tire Temp Core FR,Tire Temp Core RL,Tire Temp Core RR,Tire Temp Inner FL,Tire Temp Inner FR,Tire Temp Inner RL,Tire Temp Inner RR,Tire Temp Middle FL,Tire Temp Middle FR,Tire Temp Middle RL,Tire Temp Middle RR,Tire Temp Outer FL,Tire Temp Outer FR,Tire Temp Outer RL,Tire Temp Outer RR,Toe In FL,Toe In FR,Toe In RL,Toe In RR,Turbo Boost,Wheel Angular Speed FL,Wheel Angular Speed FR,Wheel Angular Speed RL,Wheel Angular Speed RR,Wind Direction,Wind Speed
0,0.0,0.0,0.0,1.0,1.0,0.0,0.0,1.0,0.0,100.0,1.0,1.1856,26.0,0.0,0.0,0.0,59.99999,0.0,26.0,26.0,26.0,26.0,-0.03414285714285714,0.30820000000000003,0.20656666666666665,269.2415,-2.4364,-2.2643750000000002,-1.8352,-1.79025,-275.54,215.495,190.962875,0.0,0.0,0.0,0.0,0.0016666666666666668,-5.498166666666667,-5.498166666666667,-0.6816,2.4553333333333334,-0.004249999999999865,-0.30400000000000027,65.727,-0.012624999999999997,-0.35200000000000004,0.20000000000000107,100.0,1.0,1.0,203.00666666666666,0.0,0.0,0.0,0.0,0.0,0.0,0.0,8604.8,0.0,55.0,5.0,236.58666666666667,0.0,0.0,0.0,0.0,0.0,0.0,0.0,0.0,0.006000000000000227,0.006000000000000227,0.0,0.0,0.0,55.0,616.79921,10000.0,85.0,85.0,85.0,85.0,395.0,0.0,0.0,0.0,1.0,20.0,23.087,23.087,27.878,27.878,34.0,-20.53,19.75,-32.055,30.55,0.0,1783.757,0.39000000000000057,100.0,35.618,35.911,24.293,23.8425,0.0,0.0,100.0,0.0,0.0,0.0,0.0,3697.625,4731.6,4027.375,4032.0,303.362,300.0613333333333,315.216,314.88125,21.5303,20.7704,22.084625,21.3012,314.99999,314.99999,324.99998,324.99998,99.54568571428571,99.51593333333334,99.58635714285714,99.54644285714286,0.18266666666666675,-0.238,-0.13166666666666665,0.115,-0.05149999999999899,-0.028999999999999915,1.5910000000000002,1.5859999999999999,35.565,30.814999999999998,39.028999999999996,34.1325,51.376000000000005,39.497,66.494,52.3965,49.935,38.3525,64.693,50.525999999999996,49.573499999999996,37.811,64.4855,49.75,-0.2044999999999999,-0.2736666666666667,0.10888,0.11085,0.0,205.94333333333333,205.92333333333335,203.00666666666666,203.00666666666666,0.0,0.0
1,0.0,0.0,0.0,1.0,1.0,0.0,0.0,1.0,0.0,100.0,1.0,1.1856,26.0,0.0,0.0,0.0,59.999996,0.0,26.0,26.0,26.0,26.0,-0.04485714285714282,0.3295000000000001,0.3321,268.8295,-2.3496,-2.326,-1.8943,-1.6483750000000001,-272.18,215.5,190.943125,0.0,0.0,0.0,0.0,0.003633333333333334,-5.498166666666667,-5.498166666666667,-0.6019,-2.786,-0.03275000000000006,-0.18700000000000028,65.89,-0.015625,-0.35455000000000003,0.5875000000000004,100.0,1.0,1.0,202.84,0.0,0.0,0.0,0.0,0.0,0.0,0.0,8597.7,0.0,55.0,5.0,237.17333333333335,1.0,0.0,0.0,0.0,0.0,0.0,0.0,0.0,0.05699999999999861,0.05699999999999861,0.0,0.0,1.0,55.0,616.79921,10000.0,85.000001,85.000001,85.000001,85.000001,395.0,0.0,0.0,0.0,1.0,166.665,27.054000000000002,27.054000000000002,27.023,27.023,34.0,-14.8675,10.738333333333333,-41.7975,38.612,0.0,1783.706,0.33000000000000185,100.0,35.824,35.734,26.252,27.134,0.0,0.0,100.0,0.0,0.0,0.0,0.0,3037.375,2735.9,4620.375,5194.6,305.5056666666667,306.20866666666666,313.525,311.54225,21.5395,20.7768,22.09725,21.3108,314.999998,314.999998,324.999988,324.999988,99.54571428571428,99.51598333333334,99.58651428571429,99.5466,0.19433333333333325,-0.245,-0.14766666666666667,0.077,-0.038000000000000256,-0.021000000000000796,1.2970000000000002,1.314,35.622,30.8555,39.108000000000004,34.192499999999995,51.385,39.5345,66.521,52.467,49.942,38.387,64.718,50.593,49.5785,37.845,64.5065,49.8155,-0.20799999999999996,-0.26000000000000023,0.106535,0.11603500000000001,0.0,206.37666666666667,206.34,202.84,202.84,0.0,0.0
2,0.0,0.0,0.0,1.0,1.0,0.0,0.0,1.0,0.0,100.0,1.0,1.1856,26.0,0.0,0.0,0.0,59.999996,0.0,26.0,26.0,26.0,26.0,-0.08099999999999996,0.2875000000000001,-0.3572,271.4385,-2.3142,-2.2963750000000003,-1.8316,-1.774,-268.82,215.5025,190.92525,0.0,0.0,0.0,0.0,0.005566666666666667,-5.498166666666667,-5.498166666666667,-0.7212000000000001,1.6520000000000001,-0.009625000000000217,1.4219999999999997,66.02,-0.018749999999999933,-0.4364,0.6724999999999994,100.0,1.0,1.0,204.57999999999998,0.0,0.0,0.0,0.0,0.0,0.0,0.0,8671.4,0.0,55.0,5.0,237.64333333333332,0.0,0.0,0.0,0.0,0.0,0.0,0.0,0.0,0.10800000000000054,0.10800000000000054,0.0,0.0,0.0,55.0,616.79921,10000.0,85.000001,85.000001,85.000001,85.000001,395.0,0.0,0.0,0.0,1.0,166.665,25.146,25.146,32.013,32.013,34.0,-18.31,12.428333333333333,-24.384999999999998,19.816000000000003,0.0,1783.654,0.5500000000000007,100.0,36.514,35.856,24.31,24.082,0.0,0.0,100.0,0.0,0.0,0.0,0.0,3428.875,3310.0,3252.875,3107.2,304.092,304.13933333333335,317.09233333333333,317.2455,21.5488,20.7835,22.108875,21.3192,314.999998,314.999998,324.999988,324.999988,99.54572857142857,99.516,99.58664285714286,99.54672857142857,0.16799999999999993,-0.261,-0.16033333333333336,0.089,-0.054499999999999105,-0.019999999999999574,1.931,1.971,35.68,30.897,39.18,34.245,51.394999999999996,39.576,66.52799999999999,52.51,49.951,38.426,64.724,50.634,49.585499999999996,37.8825,64.509,49.856,-0.18999999999999995,-0.27633333333333354,0.10679500000000001,0.104105,0.0,206.85333333333335,206.78,204.57999999999998,204.57999999999998,0.0,0.0
3,0.0,0.0,0.0,1.0,1.0,0.0,0.0,1.0,0.0,100.0,1.0,1.1856,26.0,0.0,0.0,0.0,59.999996,0.0,26.0,26.0,26.0,26.0,-0.0794285714285714,0.3055000000000001,0.10006666666666666,270.0045,-2.3212,-2.342,-1.8102,-1.75925,-265.64,215.505,190.905375,0.0,0.0,0.0,0.0,0.0074333333333333335,-5.498166666666667,-5.498166666666667,-0.6207,0.22066666666666665,-0.003874999999999851,-1.5909999999999997,66.175,-0.029000000000000026,-0.322125,0.75,100.0,1.0,1.0,204.02666666666667,0.0,0.0,0.0,0.0,0.0,0.0,0.0,8648.0,0.0,55.0,5.0,238.2,1.0,0.0,0.0,0.0,0.0,0.0,0.0,0.0,0.1559999999999988,0.1559999999999988,0.0,0.0,1.0,55.0,616.79921,10000.0,85.000001,85.000001,85.000001,85.000001,395.0,0.0,0.0,0.0,1.0,166.665,26.703,26.703,27.603,27.603,34.0,-16.0325,11.701666666666668,-39.6625,32.678,0.0,1783.608,0.615000000000002,100.0,35.873,35.533,25.089,24.869500000000002,0.0,0.0,100.0,0.0,0.0,0.0,0.0,3047.125,3064.0,4592.875,4360.5,305.56166666666667,305.04466666666667,313.776,313.884,21.5572,20.7898,22.12025,21.3278,314.999998,314.999998,324.999988,324.999988,99.54574285714286,99.51603333333334,99.58678571428571,99.54685714285715,0.16266666666666674,-0.262,-0.156,0.08766666666666667,-0.032999999999999474,-0.038000000000000256,1.432,1.438,35.733000000000004,30.936500000000002,39.251999999999995,34.299,51.399,39.615,66.548,52.572,49.954,38.4625,64.741,50.6935,49.587,37.917500000000004,64.5235,49.9135,-0.18049999999999988,-0.28033333333333355,0.106685,0.12016,0.0,207.34,207.26999999999998,204.02666666666667,204.02666666666667,0.0,0.0
4,0.0,0.0,0.0,1.0,1.0,0.0,0.0,1.0,0.0,100.0,1.0,1.1856,26.0,0.0,0.0,0.0,59.999996,0.0,26.0,26.0,26.0,26.0,-0.07757142857142851,0.28770000000000007,-0.06296666666666667,270.691,-2.3199,-2.387125,-1.7604000000000002,-1.8523749999999999,-262.26,215.5025,190.88625,0.0,0.0,0.0,0.0,0.0094,-5.498166666666667,-5.498166666666667,-0.6824,-0.9186666666666666,-0.03874999999999984,0.33699999999999974,66.319,-0.03762500000000002,-0.41552500000000003,0.9224999999999994,100.0,1.0,1.0,204.89,0.0,0.0,0.0,0.0,0.0,0.0,0.0,8684.5,0.0,55.0,5.0,238.72,0.0,0.0,0.0,0.0,0.0,0.0,0.0,0.0,0.20700000000000074,0.20700000000000074,0.0,0.0,0.0,55.0,616.79921,10000.0,85.000001,85.000001,85.000001,85.000001,395.0,0.0,0.0,0.0,1.0,166.665,25.817999999999998,25.817999999999998,29.861,29.861,34.0,-18.134999999999998,12.941666666666666,-29.92,25.446,0.0,1783.557,0.6700000000000017,100.0,36.093,35.283,25.512,24.797,0.0,0.0,100.0,0.0,0.0,0.0,0.0,3361.375,3309.6,3754.0,3578.3,304.41066666666666,304.4266666666667,315.78866666666664,315.9415,21.5664,20.7965,22.1325,21.3368,314.999998,314.999998,324.999988,324.999988,99.54577142857143,99.51606666666666,99.58692857142857,99.547,0.16266666666666674,-0.2673333333333333,-0.16466666666666666,0.08133333333333333,-0.032999999999999474,-0.030999999999998806,1.645,1.682,35.79,30.978,39.328,34.355000000000004,51.406,39.6565,66.56700000000001,52.6275,49.96,38.5015,64.758,50.7465,49.591,37.955,64.5365,49.9655,-0.1815,-0.28200000000000003,0.10473,0.10891,0.0,207.71666666666667,207.66,204.89,204.89,0.0,0.0
5,0.0,0.0,0.0,1.0,1.0,0.0,0.0,1.0,0.0,100.0,1.0,1.1856,26.0,0.0,0.0,0.0,59.999996,0.0,26.0,26.0,26.0,26.0,-0.07828571428571429,0.29900000000000015,-0.05043333333333334,270.874,-2.2903000000000002,-2.3751249999999997,-1.8041,-1.841375,-258.68,215.5,190.865125,0.0,0.0,0.0,0.0,0.011466666666666668,-5.498166666666667,-5.498166666666667,-0.6636000000000001,0.8913333333333334,-0.030625000000000124,0.5339999999999998,66.476,-0.05587500000000001,-0.36115,0.9375,100.0,1.0,1.0,205.29333333333335,0.0,0.0,0.0,0.0,0.0,0.0,0.0,8701.7,0.0,55.0,5.0,239.28333333333333,1.0,0.0,0.0,0.0,0.0,0.0,0.0,0.0,0.26099999999999923,0.26099999999999923,0.0,0.0,1.0,55.0,616.79921,10000.0,85.000001,85.000001,85.000001,85.000001,395.0,0.0,0.0,0.0,1.0,166.665,26.672,26.672,29.556,29.556,34.0,-16.25,12.115,-33.2325,27.372,0.0,1783.502,0.33999999999999986,100.0,35.926,35.164,25.073,24.2745,0.0,0.0,100.0,0.0,0.0,0.0,0.0,3127.75,3118.0,3945.75,3957.0,305.1023333333333,304.9506666666667,315.3686666666667,315.09375,21.5761,20.8036,22.145125,21.3461,314.999998,314.999998,324.999988,324.999988,99.54578571428571,99.5161,99.58707142857143,99.54714285714286,0.16599999999999993,-0.2646666666666666,-0.18,0.054,-0.038000000000000256,-0.05600000000000094,1.592,1.642,35.851,31.022,39.407,34.4135,51.414,39.701,66.583,52.685,49.966,38.542500000000004,64.77199999999999,50.8015,49.5955,37.995,64.547,50.019,-0.2024999999999999,-0.2610000000000001,0.09721500000000001,0.11186000000000001,0.0,208.26,208.22,205.29333333333335,205.29333333333335,0.0,0.0
6,0.0,0.0,0.0,1.0,1.0,0.0,0.0,1.0,0.0,100.0,1.0,1.1856,26.0,0.0,0.0,0.0,59.999996,0.0,26.0,26.0,26.0,26.0,-0.10757142857142854,0.2994000000000001,0.06093333333333334,270.523,-2.3327,-2.411625,-1.7636,-1.82375,-255.68,215.495,190.846625,0.0,0.0,0.0,0.0,0.013233333333333335,-5.498166666666667,-5.498166666666667,-0.6659,-0.7673333333333334,-0.04300000000000015,-0.71,66.608,-0.06062499999999993,-0.3662,0.7949999999999999,100.0,1.0,1.0,205.55333333333334,0.0,0.0,0.0,0.0,0.0,0.0,0.0,8712.7,0.0,55.0,5.0,239.76333333333332,0.0,0.0,0.0,0.0,0.0,0.0,0.0,0.0,0.30600000000000094,0.30600000000000094,0.0,0.0,0.0,55.0,616.79921,10000.0,85.000001,85.000001,85.000001,85.000001,395.0,0.0,0.0,0.0,1.0,166.665,26.428,26.428,29.16,29.16,34.0,-19.4,11.981666666666666,-34.8125,27.086,0.0,1783.456,0.33000000000000185,100.0,35.595,35.046,25.464,24.7365,0.0,0.0,100.0,0.0,0.0,0.0,0.0,3440.0,3108.7,4085.75,3907.2,304.438,304.9286666666667,314.998,315.089,21.5841,20.8093,22.15575,21.3542,314.999998,314.999998,324.999988,324.999988,99.5458,99.51613333333333,99.58721428571428,99.54725714285715,0.1463333333333332,-0.275,-0.18966666666666665,0.05266666666666667,-0.050499999999999545,-0.062000000000001165,1.568,1.5819999999999999,35.900999999999996,31.058,39.474000000000004,34.463499999999996,51.418,39.736,66.6,52.7375,49.97,38.575,64.788,50.8515,49.5975,38.025999999999996,64.5595,50.067499999999995,-0.20100000000000007,-0.2546666666666666,0.10149000000000001,0.11593500000000001,0.0,208.65666666666667,208.57999999999998,205.55333333333334,205.55333333333334,0.0,0.0
7,0.0,0.0,0.0,1.0,1.0,0.0,0.0,1.0,0.0,100.0,1.0,1.1856,26.0,0.0,0.0,0.0,59.999996,0.0,26.0,26.0,26.0,26.0,-0.06428571428571428,0.2875000000000001,-0.018266666666666667,270.5385,-2.3186,-2.417125,-1.8081,-1.873125,-252.28,215.49,190.826,0.0,0.0,0.0,0.0,0.0152,-5.498166666666667,-5.498166666666667,-0.6731,0.4146666666666667,-0.037374999999999936,0.9569999999999999,66.753,-0.06187500000000001,-0.37985,0.4924999999999997,100.0,1.0,1.0,206.12666666666667,0.0,0.0,0.0,0.0,0.0,0.0,0.0,8737.0,0.0,55.0,5.0,240.28333333333333,1.0,0.0,0.0,0.0,0.0,0.0,0.0,0.0,0.3569999999999993,0.3569999999999993,0.0,0.0,1.0,55.0,616.79921,10000.0,85.000001,85.000001,85.000001,85.000001,395.0,0.0,0.0,0.0,1.0,166.665,26.137999999999998,26.137999999999998,29.326999999999998,29.326999999999998,34.0,-16.6475,13.87,-33.735,27.182,0.0,1783.405,0.03500000000000014,100.0,36.185,35.162,25.412,24.53,0.0,0.0,100.0,0.0,0.0,0.0,0.0,3278.75,3239.1,4004.625,3815.0,304.643,304.6136666666667,315.2146666666667,315.39875,21.5934,20.8161,22.167749999999998,21.3631,314.999998,314.999998,324.999988,324.999988,99.54582857142857,99.51616666666666,99.58734285714286,99.54741428571428,0.18233333333333324,-0.2493333333333334,-0.17766666666666667,0.06266666666666666,-0.050499999999999545,-0.053999999999998494,1.6110000000000002,1.607,35.959,31.101,39.549,34.5195,51.427,39.778999999999996,66.616,52.793,49.977999999999994,38.6155,64.80199999999999,50.9045,49.6035,38.065,64.5705,50.119,-0.23550000000000004,-0.2330000000000001,0.10339500000000001,0.10953500000000001,0.0,209.11,209.07,206.12666666666667,206.12666666666667,0.0,0.0
8,0.0,0.0,0.0,1.0,1.0,0.0,0.0,1.0,0.0,100.0,1.0,1.1856,26.0,0.0,0.0,0.0,59.999996,0.0,26.0,26.0,26.0,26.0,-0.06328571428571428,0.2804,-0.04876666666666667,270.6755,-2.3411,-2.35475,-1.8170000000000002,-1.870875,-248.87,215.48000000000002,190.805375,0.0,0.0,0.0,0.0,0.017166666666666667,-5.498166666666667,-5.498166666666667,-0.671,-0.19833333333333333,-0.03500000000000014,-0.9909999999999997,66.9,-0.04749999999999999,-0.38035,0.22250000000000014,100.0,1.0,1.0,206.54333333333335,0.0,0.0,0.0,0.0,0.0,0.0,0.0,8754.7,0.0,55.0,5.0,240.81333333333333,0.0,0.0,0.0,0.0,0.0,0.0,0.0,0.0,0.40800000000000125,0.40800000000000125,0.0,0.0,0.0,55.0,616.79921,10000.0,85.000001,85.000001,85.000001,85.000001,395.0,0.0,0.0,0.0,1.0,166.665,26.459,26.459,29.099,29.099,34.0,-16.9075,13.161666666666667,-33.435,27.186,0.0,1783.355,-0.054999999999999716,100.0,35.684,35.231,25.422,24.749000000000002,0.0,0.0,100.0,0.0,0.0,0.0,0.0,3283.0,3195.6,3981.75,3779.8,304.878,304.604,315.2986666666667,315.39075,21.6025,20.8229,22.179875,21.3722,314.999998,314.999998,324.999988,324.999988,99.54585714285714,99.5162,99.5875,99.54754285714286,0.17866666666666675,-0.2476666666666666,-0.17333333333333334,0.067,-0.026500000000000412,-0.047999999999998266,1.5990000000000002,1.6059999999999999,36.016,31.143,39.623999999999995,34.576,51.434,39.82,66.634,52.8505,49.983000000000004,38.653999999999996,64.818,50.9595,49.6075,38.102000000000004,64.583,50.1725,-0.24049999999999994,-0.22466666666666635,0.10837000000000001,0.10439000000000001,0.0,209.53333333333333,209.51666666666665,206.54333333333335,206.54333333333335,0.0,0.0
9,0.0,0.0,0.0,1.0,1.0,0.0,0.0,1.0,0.0,100.0,1.0,1.1856,26.0,0.0,0.0,0.0,59.999996,0.0,26.0,26.0,26.0,26.0,-0.032571428571428584,0.2915000000000001,-0.013600000000000001,270.508,-2.2724,-2.3672500000000003,-1.8059,-1.824125,-245.66,215.47,190.78575,0.0,0.0,0.0,0.0,0.019066666666666666,-5.498166666666667,-5.498166666666667,-0.6701,0.2663333333333333,-0.04087500000000022,-0.5620000000000003,67.037,-0.03137499999999993,-0.372425,0.0,100.0,1.0,1.0,206.95666666666668,0.0,0.0,0.0,0.0,0.0,0.0,0.0,8772.1,0.0,55.0,5.0,241.30666666666667,1.0,0.0,0.0,0.0,0.0,0.0,0.0,0.0,0.4559999999999995,0.4559999999999995,0.0,0.0,1.0,55.0,616.79921,10000.0,85.000001,85.000001,85.000001,85.000001,395.0,0.0,0.0,0.0,1.0,333.33500000000004,26.154,26.154,29.404,29.404,34.0,-16.474999999999998,14.038333333333332,-32.045,28.486,0.0,1783.306,-0.14999999999999858,100.0,35.747,35.21,25.287,24.7075,0.0,0.0,100.0,0.0,0.0,0.0,0.0,3413.125,3236.9,3972.0,3901.7,304.44233333333335,304.48833333333334,315.36633333333333,315.13775,21.6111,20.8292,22.191,21.3806,314.999998,314.999998,324.999988,324.999988,99.54587142857143,99.51623333333333,99.58762857142857,99.54767142857143,0.18799999999999994,-0.23666666666666658,-0.15066666666666667,0.08600000000000001,-0.04449999999999932,-0.03999999999999915,1.604,1.607,36.07,31.183,39.694,34.629,51.443,39.8585,66.649,52.903,49.991,38.689499999999995,64.832,51.0095,49.6135,38.1365,64.5935,50.2215,-0.23849999999999993,-0.22366666666666646,0.10437,0.10287500000000001,0.0,209.97333333333333,209.95333333333332,206.95666666666668,206.95666666666668,0.0,0.0
10,0.0,0.0,0.0,1.0,1.0,0.0,0.0,1.0,0.0,100.0,1.0,1.1856,26.0,0.0,0.0,0.0,59.999996,0.0,26.0,26.0,26.0,26.0,-0.021285714285714352,0.2903,-0.002366666666666667,270.4775,-2.3349,-2.3395,-1.8256999999999999,-1.8078750000000001,-242.04,215.46,190.76375,0.0,0.0,0.0,0.0,0.021166666666666667,-5.498166666666667,-5.498166666666667,-0.6654,-0.382,-0.013374999999999915,-0.23599999999999977,67.19200000000001,-0.010749999999999926,-0.37472500000000003,-0.1999999999999993,100.0,1.0,1.0,207.35666666666668,0.0,0.0,0.0,0.0,0.0,0.0,0.0,8789.1,0.0,55.0,5.0,241.86333333333334,0.0,0.0,0.0,0.0,0.0,0.0,1.0,0.0,0.509999999999998,0.509999999999998,0.0,0.0,0.0,55.0,616.79921,10000.0,85.000001,85.000001,85.000001,85.000001,395.0,0.0,0.0,0.0,1.0,166.665,26.535,26.535,29.099,29.099,34.0,-15.7975,14.466666666666667,-32.63,30.352,0.0,1783.253,-0.15500000000000114,100.0,35.576,35.131,25.353,25.046,0.0,0.0,100.0,0.0,0.0,0.0,0.0,3267.875,3221.0,4011.25,4022.9,304.892,304.55533333333335,315.23633333333333,314.794,21.6208,20.8364,22.20375,21.3903,314.999998,314.999998,324.999988,324.999988,99.5459,99.51625,99.58778571428572,99.54784285714285,0.19866666666666677,-0.22033333333333338,-0.14466666666666667,0.10133333333333333,-0.04550000000000054,-0.027999999999998693,1.5700000000000003,1.565,36.129999999999995,31.2275,39.772999999999996,34.689499999999995,51.453,39.9,66.667,52.965,49.998999999999995,38.7285,64.848,51.069,49.62,38.174,64.6055,50.2795,-0.24499999999999988,-0.2143333333333337,0.11526000000000002,0.10005000000000001,0.0,210.41666666666669,210.42666666666668,207.35666666666668,207.35666666666668,0.0,0.0
11,0.0,0.0,0.0,1.0,1.0,0.0,0.0,1.0,0.0,100.0,1.0,1.1856,26.0,0.0,0.0,0.0,59.999996,0.0,26.0,26.0,26.0,26.0,0.00728571428571434,0.28290000000000015,-0.06083333333333334,270.813,-2.3397,-2.338375,-1.8248000000000002,-1.7846250000000001,-238.81,215.4475,190.743875,0.0,0.0,0.0,0.0,0.022600000000000002,-5.498166666666667,-5.498166666666667,-0.6865,-0.178,0.008375000000000021,-0.2809999999999997,67.325,0.0020000000000000018,-0.38320000000000004,-0.24499999999999922,100.0,1.0,1.0,207.90666666666667,0.0,0.0,0.0,0.0,0.0,0.0,0.0,8812.4,0.0,55.0,5.0,242.34333333333336,1.0,0.0,0.0,0.0,0.0,0.0,1.0,0.0,0.5579999999999998,0.5579999999999998,0.0,0.0,1.0,55.0,616.79921,10000.0,85.000001,85.000001,85.000001,85.000001,395.0,0.0,0.0,0.0,1.0,166.665,26.489,26.489,29.694,29.694,34.0,-15.342500000000001,15.665,-29.21,29.714,0.0,1783.204,-0.379999999999999,100.0,35.301,35.178,25.051,24.932000000000002,0.0,0.0,100.0,0.0,0.0,0.0,0.0,3302.625,3295.1,3786.625,3881.4,304.7923333333333,304.33366666666666,315.77566666666667,315.21075,21.6292,20.8428,22.214875,21.3988,314.999998,314.999998,324.999988,324.999988,99.54592857142858,99.51628333333333,99.58791428571429,99.54797142857143,0.21266666666666678,-0.20399999999999996,-0.123,0.12933333333333336,-0.059499999999999886,-0.0329999999999977,1.624,1.625,36.183,31.2675,39.843,34.7425,51.461,39.9365,66.68,53.018,50.007,38.7625,64.859,51.1195,49.6255,38.207,64.6135,50.329,-0.24750000000000005,-0.20866666666666678,0.10244500000000001,0.116775,0.0,210.85666666666668,210.82999999999998,207.90666666666667,207.90666666666667,0.0,0.0
12,0.0,0.0,0.0,1.0,1.0,0.0,0.0,1.0,0.0,100.0,1.0,1.1856,26.0,0.0,0.0,0.0,59.999996,0.0,26.0,26.0,26.0,26.0,0.02114285714285713,0.29290000000000016,0.030933333333333334,270.34,-2.3726000000000003,-2.3282499999999997,-1.8412000000000002,-1.798375,-235.37,215.4375,190.722,0.0,0.0,0.0,0.0,0.025466666666666665,-5.498166666666667,-5.498166666666667,-0.6721,0.3706666666666667,0.015625,0.6340000000000003,67.471,0.010250000000000092,-0.3594,-0.27500000000000036,100.0,1.0,1.0,208.20666666666668,0.0,0.0,0.0,0.0,0.0,0.0,0.0,8825.1,0.0,55.0,5.0,242.86666666666667,0.0,0.0,0.0,0.0,0.0,0.0,1.0,0.0,0.6089999999999982,0.6089999999999982,0.0,0.0,0.0,55.0,616.79921,10000.0,85.000001,85.000001,85.000001,85.000001,395.0,0.0,0.0,0.0,1.0,166.665,26.259999999999998,26.259999999999998,28.854,28.854,34.0,-14.73,16.476666666666667,-31.06,33.282,0.0,1783.155,-0.05999999999999872,100.0,35.449,35.402,25.063,24.9375,0.0,0.0,100.0,0.0,0.0,0.0,0.0,3199.625,3425.2,4011.5,4169.6,304.92033333333336,304.08,315.2196666666667,314.5785,21.6383,20.8497,22.226625,21.407899999999998,314.999998,314.999998,324.999988,324.999988,99.54595714285715,99.51631666666667,99.58807142857142,99.54811428571429,0.22366666666666668,-0.19799999999999995,-0.10666666666666667,0.14033333333333334,-0.04449999999999932,-0.04899999999999949,1.572,1.573,36.239000000000004,31.310499999999998,39.917,34.7995,51.472,39.9765,66.695,53.076499999999996,50.016,38.7995,64.872,51.1755,49.6325,38.2425,64.623,50.3835,-0.23299999999999987,-0.22966666666666669,0.10917500000000001,0.11144000000000001,0.0,211.30333333333334,211.31666666666666,208.20666666666668,208.20666666666668,0.0,0.0
13,0.0,0.0,0.0,1.0,1.0,0.0,0.0,1.0,0.0,100.0,1.0,1.1856,26.0,0.0,0.0,0.0,59.999996,0.0,26.0,26.0,26.0,26.0,0.052999999999999936,0.28800000000000003,0.024866666666666665,270.2485,-2.3464,-2.339625,-1.8458999999999999,-1.803625,-232.13,215.4275,190.70175,0.0,0.0,0.0,0.0,0.026933333333333333,-5.498166666666667,-5.498166666666667,-0.6779000000000001,-0.4053333333333333,0.015249999999999986,1.0030000000000001,67.606,0.014874999999999972,-0.383125,-0.47499999999999964,100.0,1.0,1.0,208.61666666666667,0.0,0.0,0.0,0.0,0.0,0.0,0.0,8842.4,0.0,55.0,5.0,243.35666666666668,1.0,0.0,0.0,0.0,0.0,0.0,1.0,0.0,0.657,0.657,0.0,0.0,1.0,55.0,616.79921,10000.0,85.000001,85.000001,85.000001,85.000001,395.0,0.0,0.0,0.0,1.0,166.665,26.062,26.062,29.068,29.068,34.0,-12.982499999999998,17.761666666666667,-29.049999999999997,33.49,0.0,1783.106,-0.33999999999999986,100.0,35.667,35.535,25.311,25.301000000000002,0.0,0.0,100.0,0.0,0.0,0.0,0.0,3231.75,3398.3,3893.125,4110.3,304.8213333333333,304.179,315.4413333333333,314.69275,21.6468,20.8562,22.237875,21.4166,314.999998,314.999998,324.999988,324.999988,99.54598571428572,99.51633333333334,99.5882,99.54824285714285,0.256,-0.17266666666666663,-0.08533333333333333,0.15133333333333335,-0.04699999999999882,-0.0329999999999977,1.5870000000000002,1.549,36.293,31.351,39.986999999999995,34.854,51.483999999999995,40.0125,66.71000000000001,53.1325,50.025999999999996,38.8335,64.88499999999999,51.2295,49.641,38.275,64.633,50.436,-0.26449999999999996,-0.20299999999999985,0.10165,0.11256500000000001,0.0,211.69666666666666,211.71,208.61666666666667,208.61666666666667,0.0,0.0
14,0.0,0.0,0.0,1.0,1.0,0.0,0.0,1.0,0.0,100.0,1.0,1.1856,26.0,0.0,0.0,0.0,59.999996,0.0,26.0,26.0,26.0,26.0,0.05028571428571427,0.27490000000000014,-0.0307,270.523,-2.3599,-2.35075,-1.8402,-1.796875,-228.47,215.41750000000002,190.679,0.0,0.0,0.0,0.0,0.02903333333333333,-5.498166666666667,-5.498166666666667,-0.6880000000000001,0.113,0.028000000000000025,0.7649999999999997,67.755,0.022625000000000117,-0.384075,-0.46749999999999936,100.0,1.0,1.0,209.17666666666668,0.0,0.0,0.0,0.0,0.0,0.0,0.0,8866.2,0.0,55.0,5.0,243.89,0.0,0.0,0.0,0.0,0.0,0.0,1.0,0.0,0.7109999999999985,0.7109999999999985,0.0,0.0,0.0,55.0,616.79921,10000.0,85.000001,85.000001,85.000001,85.000001,395.0,0.0,0.0,0.0,1.0,166.665,26.215,26.215,29.48,29.48,34.0,-13.462499999999999,17.365000000000002,-28.2425,32.3,0.0,1783.053,-0.33999999999999986,100.0,35.626,35.697,25.026,25.186500000000002,0.0,0.0,100.0,0.0,0.0,0.0,0.0,3234.625,3324.8,3831.625,3980.9,304.9476666666667,304.3693333333333,315.674,314.988,21.6564,20.8635,22.250375,21.4262,314.999998,314.999998,324.999988,324.999988,99.54602857142856,99.51635,99.58835714285715,99.5484,0.248,-0.17433333333333334,-0.08666666666666667,0.159,-0.02800000000000047,-0.027999999999998693,1.6139999999999999,1.5979999999999999,36.352000000000004,31.397,40.065,34.914,51.497,40.053,66.724,53.1935,50.037,38.8715,64.89699999999999,51.288,49.6495,38.312,64.641,50.493,-0.25849999999999995,-0.20766666666666644,0.09880000000000001,0.11236000000000002,0.0,212.13666666666666,212.17333333333335,209.17666666666668,209.17666666666668,0.0,0.0
15,0.0,0.0,0.0,1.0,1.0,0.0,0.0,1.0,0.0,100.0,1.0,1.1856,26.0,0.0,0.0,0.0,59.999996,0.0,26.0,26.0,26.0,26.0,0.04200000000000004,0.2893000000000001,-0.017566666666666668,270.294,-2.3538,-2.3235,-1.8454000000000002,-1.819375,-225.42000000000002,215.41,190.6595,0.0,0.0,0.0,0.0,0.0308,-5.498166666666667,-5.498166666666667,-0.6804,0.06866666666666667,0.03275000000000006,-0.8120000000000003,67.881,0.027875000000000094,-0.375075,-0.40249999999999986,100.0,1.0,1.0,209.49333333333334,0.0,0.0,0.0,0.0,0.0,0.0,0.0,8879.6,0.0,55.0,5.0,244.34666666666666,1.0,0.0,0.0,0.0,0.0,0.0,1.0,0.0,0.7560000000000002,0.7560000000000002,0.0,0.0,1.0,55.0,616.79921,10000.0,85.000001,85.000001,85.000001,85.000001,395.0,0.0,0.0,0.0,1.0,166.665,26.093,26.093,29.099,29.099,34.0,-13.997499999999999,16.005,-29.685000000000002,32.738,0.0,1783.008,-0.23999999999999844,100.0,35.541,36.015,25.014,25.4605,0.0,0.0,100.0,0.0,0.0,0.0,0.0,3277.0,3226.3,3957.75,3990.4,304.8806666666667,304.483,315.39366666666666,314.89025,21.6644,20.8696,22.26075,21.4343,314.999998,314.999998,324.999988,324.999988,99.54605714285714,99.51638333333334,99.58847142857142,99.54852857142858,0.2396666666666667,-0.18733333333333335,-0.089,0.154,-0.05550000000000033,-0.03399999999999892,1.5820000000000003,1.562,36.402,31.435000000000002,40.129999999999995,34.9645,51.507,40.087,66.736,53.246,50.046,38.9035,64.908,51.338,49.657,38.3425,64.649,50.542,-0.25249999999999995,-0.21333333333333337,0.10692000000000002,0.11167500000000001,0.0,212.57,212.58666666666667,209.49333333333334,209.49333333333334,0.0,0.0
16,0.0,0.0,0.0,1.0,1.0,0.0,0.0,1.0,0.0,100.0,1.0,1.1856,26.0,0.0,0.0,0.0,59.999996,0.0,26.0,26.0,26.0,26.0,0.039285714285714146,0.2774000000000001,-0.017466666666666665,270.2025,-2.3123,-2.332375,-1.8395000000000001,-1.818,-221.75,215.4025,190.63625,0.0,0.0,0.0,0.0,0.032933333333333335,-5.498166666666667,-5.498166666666667,-0.6979000000000001,-0.17966666666666667,0.02024999999999988,-0.9269999999999996,68.03,0.03200000000000003,-0.39730000000000004,-0.3074999999999992,100.0,1.0,1.0,210.00666666666666,0.0,0.0,0.0,0.0,0.0,0.0,0.0,8901.4,0.0,55.0,5.0,244.88333333333333,0.0,0.0,0.0,0.0,0.0,0.0,1.0,0.0,0.8099999999999987,0.8099999999999987,0.0,0.0,0.0,55.0,616.79921,10000.0,85.000001,85.000001,85.000001,85.000001,395.0,0.0,0.0,0.0,1.0,166.665,25.528,25.528,29.099,29.099,34.0,-14.004999999999999,17.201666666666668,-28.615000000000002,30.976,0.0,1782.954,-0.18999999999999773,100.0,35.565,36.223,25.133,25.412,0.0,0.0,100.0,0.0,0.0,0.0,0.0,3396.5,3384.8,3861.125,3827.0,304.4753333333333,303.97133333333335,315.61266666666666,315.3225,21.6739,20.877,22.27325,21.4441,314.999998,314.999998,324.999988,324.999988,99.54608571428571,99.5164,99.58862857142857,99.54868571428571,0.2423333333333333,-0.18399999999999994,-0.09033333333333333,0.15433333333333335,-0.049999999999998934,-0.04400000000000048,1.626,1.588,36.462,31.4815,40.208,35.0255,51.519,40.1285,66.752,53.307,50.057,38.942499999999995,64.92099999999999,51.397,49.6655,38.3805,64.6585,50.5995,-0.248,-0.2153333333333336,0.10551500000000001,0.10992,0.0,213.01,213.01999999999998,210.00666666666666,210.00666666666666,0.0,0.0
17,0.0,0.0,0.0,1.0,1.0,0.0,0.0,1.0,0.0,100.0,1.0,1.1856,26.0,0.0,0.0,0.0,59.999996,0.0,26.0,26.0,26.0,26.0,0.0365714285714287,0.2885,0.05076666666666667,269.943,-2.2867,-2.35475,-1.772,-1.834125,-218.48,215.39499999999998,190.61525,0.0,0.0,0.0,0.0,0.03486666666666667,-5.498166666666667,-5.498166666666667,-0.6904,0.10233333333333333,0.0040000000000000036,-0.9279999999999999,68.164,0.03025000000000011,-0.384375,-0.22749999999999915,100.0,1.0,1.0,210.3,0.0,0.0,0.0,0.0,0.0,0.0,0.0,8913.9,0.0,55.0,5.0,245.36333333333334,1.0,0.0,0.0,0.0,0.0,0.0,1.0,0.0,0.8580000000000005,0.8580000000000005,0.0,0.0,1.0,55.0,616.79921,10000.0,85.000001,85.000001,85.000001,85.000001,395.0,0.0,0.0,0.0,1.0,166.665,25.695999999999998,25.695999999999998,28.701999999999998,28.701999999999998,34.0,-13.4925,16.15833333333333,-30.0225,33.842,0.0,1782.904,-0.06499999999999773,100.0,35.751,36.296,25.143,25.482,0.0,0.0,100.0,0.0,0.0,0.0,0.0,3332.0,3259.7,4078.5,4070.5,304.65066666666667,304.29966666666667,315.10366666666664,314.69125,21.6824,20.8836,22.284375,21.4527,314.999998,314.999998,324.999988,324.999988,99.54611428571428,99.51643333333334,99.58875714285715,99.54881428571429,0.2410000000000001,-0.19633333333333336,-0.09,0.15366666666666667,-0.05349999999999966,-0.04499999999999815,1.5470000000000002,1.537,36.515,31.5225,40.277,35.079499999999996,51.531,40.1655,66.765,53.362,50.067,38.977000000000004,64.93299999999999,51.4495,49.6735,38.4135,64.667,50.650999999999996,-0.24350000000000005,-0.22666666666666657,0.10152000000000001,0.11607,0.0,213.44333333333333,213.44666666666666,210.3,210.3,0.0,0.0
18,0.0,0.0,0.0,1.0,1.0,0.0,0.0,1.0,0.0,100.0,1.0,1.1856,26.0,0.0,0.0,0.0,59.999996,0.0,26.0,26.0,26.0,26.0,0.05128571428571416,0.2623,0.005666666666666667,270.1415,-2.3004,-2.3845,-1.799,-1.84325,-215.0,215.39,190.592625,0.0,0.0,0.0,0.0,0.03686666666666667,-5.498166666666667,-5.498166666666667,-0.7073,-0.378,0.007500000000000062,0.6280000000000001,68.303,0.02400000000000002,-0.401675,-0.17249999999999943,100.0,1.0,1.0,210.7866666666667,0.0,0.0,0.0,0.0,0.0,0.0,0.0,8934.4,0.0,55.0,5.0,245.86666666666667,0.0,0.0,0.0,0.0,0.0,0.0,1.0,0.0,0.9089999999999989,0.9089999999999989,0.0,0.0,0.0,55.0,616.79921,10000.0,85.000001,85.000001,85.000001,85.000001,395.0,0.0,0.0,0.0,1.0,166.665,25.634999999999998,25.634999999999998,29.282,29.282,34.0,-13.3875,17.438333333333333,-27.8525,32.53,0.0,1782.854,-0.05999999999999872,100.0,35.957,36.077,25.262,25.467,0.0,0.0,100.0,0.0,0.0,0.0,0.0,3268.0,3372.1,3811.25,3959.1000000000004,304.718,304.185,315.64433333333335,314.9885,21.6914,20.8905,22.296125,21.4619,314.999998,314.999998,324.999988,324.999988,99.54614285714285,99.51645,99.5889,99.54897142857143,0.242,-0.18666666666666665,-0.08533333333333333,0.15033333333333335,-0.023999999999999133,-0.062000000000001165,1.564,1.566,36.571,31.5655,40.351,35.137,51.542,40.204,66.779,53.420500000000004,50.077,39.013,64.945,51.5055,49.6815,38.448499999999996,64.6755,50.7055,-0.23750000000000004,-0.2330000000000001,0.10657000000000001,0.10636500000000002,0.0,213.84333333333333,213.87333333333333,210.7866666666667,210.7866666666667,0.0,0.0
19,0.0,0.0,0.0,1.0,1.0,0.0,0.0,1.0,0.0,100.0,1.0,1.1856,26.0,0.0,0.0,0.0,59.999996,0.0,26.0,26.0,26.0,26.0,0.045571428571428596,0.2735000000000001,0.025,269.8365,-2.2982,-2.356125,-1.7957,-1.8645,-211.72,215.385,190.571125,0.0,0.0,0.0,0.0,0.03876666666666667,-5.498166666666667,-5.498166666666667,-0.6941,0.49333333333333335,0.012249999999999872,0.7599999999999998,68.434,0.019749999999999934,-0.386075,-0.11999999999999922,100.0,1.0,1.0,211.15333333333334,0.0,0.0,0.0,0.0,0.0,0.0,0.0,8950.0,0.0,55.0,5.0,246.33666666666664,1.0,0.0,0.0,0.0,0.0,0.0,1.0,0.0,0.9570000000000007,0.9570000000000007,0.0,0.0,1.0,55.0,616.79921,10000.0,85.000001,85.000001,85.000001,85.000001,395.0,0.0,0.0,0.0,1.0,333.33500000000004,25.345,25.345,29.068,29.068,34.0,-13.467500000000001,16.288333333333334,-29.6575,33.372,0.0,1782.804,-0.019999999999999574,100.0,36.497,36.41,25.237,25.442,0.0,0.0,100.0,0.0,0.0,0.0,0.0,3244.875,3323.8,3950.875,4064.3,304.75466666666665,304.328,315.34633333333335,314.76725,21.7001,20.897100000000002,22.307125,21.4706,314.999998,314.999998,324.999988,324.999988,99.54618571428571,99.51648333333333,99.58904285714286,99.5491,0.23833333333333329,-0.19799999999999995,-0.09833333333333333,0.14066666666666666,-0.030999999999998806,-0.027999999999998693,1.5590000000000002,1.5590000000000002,36.625,31.607,40.42,35.191,51.555,40.2425,66.791,53.475,50.088,39.049,64.956,51.558,49.6905,38.4835,64.68299999999999,50.7565,-0.23649999999999993,-0.2373333333333334,0.10802500000000001,0.10463000000000001,0.0,214.29666666666668,214.29000000000002,211.15333333333334,211.15333333333334,0.0,0.0
20,0.0,0.0,0.0,1.0,1.0,0.0,0.0,1.0,0.0,100.0,1.0,1.1856,26.0,0.0,0.0,0.0,59.999996,0.0,26.0,26.0,26.0,26.0,0.010571428571428676,0.25429999999999997,-0.05026666666666667,270.05,-2.3548,-2.292125,-1.8679000000000001,-1.845875,-208.23000000000002,215.38,190.54875,0.0,0.0,0.0,0.0,0.0408,-5.498166666666667,-5.498166666666667,-0.7106,-0.8576666666666667,0.00912500000000005,-0.7069999999999999,68.57300000000001,0.018000000000000016,-0.4142,-0.01249999999999929,100.0,1.0,1.0,211.62333333333333,0.0,0.0,0.0,0.0,0.0,0.0,0.0,8969.9,0.0,55.0,5.0,246.84,0.0,0.0,0.0,0.0,0.0,0.0,0.0,0.0,1.0079999999999991,1.0079999999999991,0.0,0.0,0.0,55.0,616.79921,10000.0,85.000001,85.000001,85.000001,85.000001,395.0,0.0,0.0,0.0,1.0,166.665,25.482,25.482,28.992,28.992,34.0,-14.965,15.525,-30.43,29.936,0.0,1782.756,-0.05999999999999872,100.0,36.014,36.388999999999996,25.543,25.705,0.0,0.0,100.0,0.0,0.0,0.0,0.0,3374.375,3312.1,3873.25,3773.8,304.62533333333334,304.289,315.566,315.42875,21.7091,20.9041,22.319,21.4798,314.999998,314.999998,324.999988,324.999988,99.54621428571429,99.5165,99.5892,99.54924285714286,0.23033333333333328,-0.19933333333333336,-0.11333333333333333,0.13466666666666666,-0.0519999999999996,-0.030999999999998806,1.573,1.596,36.682,31.6505,40.494,35.249,51.565,40.282,66.807,53.533500000000004,50.097,39.086,64.97,51.614,49.6975,38.519,64.693,50.811,-0.23849999999999993,-0.22533333333333339,0.11253,0.10801000000000001,0.0,214.69,214.67333333333335,211.62333333333333,211.62333333333333,0.0,0.0
21,0.0,0.0,0.0,1.0,1.0,0.0,0.0,1.0,0.0,100.0,1.0,1.1856,26.0,0.0,0.0,0.0,59.999996,0.0,26.0,26.0,26.0,26.0,0.012428571428571455,0.2836000000000001,-0.031,270.0655,-2.3728,-2.303,-1.827,-1.7846250000000001,-204.93,215.3775,190.527,0.0,0.0,0.0,0.0,0.04273333333333333,-5.498166666666667,-5.498166666666667,-0.7206,0.3223333333333333,0.0022499999999998632,-0.617,68.702,0.01475000000000004,-0.39555,-0.027499999999999858,100.0,1.0,1.0,212.06333333333333,0.0,0.0,0.0,0.0,0.0,0.0,0.0,8988.5,0.0,55.0,5.0,247.3,1.0,0.0,0.0,0.0,0.0,0.0,0.0,0.0,1.056000000000001,1.056000000000001,0.0,0.0,1.0,55.0,616.79921,10000.0,85.000001,85.000001,85.000001,85.000001,395.0,0.0,0.0,0.0,1.0,166.665,25.375,25.375,29.343,29.343,34.0,-15.384999999999998,15.793333333333333,-30.0,29.942,0.0,1782.707,-0.11499999999999844,100.0,36.077,36.308,25.131,25.296,0.0,0.0,100.0,0.0,0.0,0.0,0.0,3439.125,3351.3,3920.75,3914.5,304.41833333333335,304.20433333333335,315.526,315.19,21.7176,20.9106,22.33,21.4884,314.999998,314.999998,324.999988,324.999988,99.54624285714286,99.51653333333333,99.58932857142857,99.54938571428572,0.2330000000000001,-0.19999999999999996,-0.11233333333333333,0.128,-0.036999999999999034,-0.06299999999999883,1.6219999999999999,1.631,36.735,31.691499999999998,40.562,35.3025,51.576,40.319,66.81700000000001,53.585,50.107,39.1205,64.979,51.6635,49.705,38.5525,64.699,50.8595,-0.24249999999999994,-0.2243333333333335,0.10763,0.10355500000000001,0.0,215.10000000000002,215.11333333333334,212.06333333333333,212.06333333333333,0.0,0.0
22,0.0,0.0,0.0,1.0,1.0,0.0,0.0,1.0,0.0,100.0,1.0,1.1856,26.0,0.0,0.0,0.0,59.999996,0.0,26.0,26.0,26.0,26.0,0.025428571428571356,0.2722,0.050466666666666674,269.516,-2.4091,-2.307375,-1.8335,-1.786,-201.42000000000002,215.3725,190.503125,0.0,0.0,0.0,0.0,0.04476666666666667,-5.498166666666667,-5.498166666666667,-0.7068,-0.25466666666666665,0.011249999999999982,0.8849999999999998,68.842,0.01462500000000011,-0.38375000000000004,-0.192499999999999,100.0,1.0,1.0,212.2866666666667,0.0,0.0,0.0,0.0,0.0,0.0,0.0,8998.0,0.0,55.0,5.0,247.80666666666667,0.0,0.0,0.0,0.0,0.0,0.0,0.0,0.0,1.1069999999999993,1.1069999999999993,0.0,0.0,0.0,55.0,616.79921,10000.0,85.000001,85.000001,85.000001,85.000001,395.0,0.0,0.0,0.0,1.0,166.665,25.253,25.253,28.442,28.442,34.0,-15.134999999999998,16.57333333333333,-31.685,34.094,0.0,1782.657,-0.14499999999999957,100.0,36.265,36.188,25.489,25.462,0.0,0.0,100.0,0.0,0.0,0.0,0.0,3365.75,3477.0,4124.625,4259.1,304.531,303.997,314.95666666666665,314.3315,21.7266,20.9176,22.34175,21.497700000000002,314.999998,314.999998,324.999988,324.999988,99.54627142857143,99.51655,99.58947142857143,99.54952857142857,0.24,-0.19666666666666666,-0.094,0.13466666666666666,-0.03599999999999959,-0.03500000000000014,1.5260000000000002,1.521,36.791,31.735,40.635999999999996,35.3605,51.588,40.359,66.833,53.644,50.117000000000004,39.158,64.992,51.72,49.713499999999996,38.588499999999996,64.7095,50.914500000000004,-0.2469999999999999,-0.2280000000000002,0.09541500000000001,0.10475000000000001,0.0,215.5366666666667,215.53333333333333,212.2866666666667,212.2866666666667,0.0,0.0
23,0.0,0.0,0.0,1.0,1.0,0.0,0.0,1.0,0.0,100.0,1.0,1.1856,26.0,0.0,0.0,0.0,59.999996,0.0,26.0,26.0,26.0,26.0,-0.00014285714285711126,0.2802,-0.004366666666666666,269.6535,-2.3105,-2.326625,-1.8984,-1.7605,-197.91,215.37,190.479625,0.0,0.0,0.0,0.0,0.0468,-5.498166666666667,-5.498166666666667,-0.7289,-0.18266666666666667,0.007874999999999854,-0.548,68.97800000000001,0.013374999999999915,-0.41505000000000003,-0.16000000000000014,100.0,1.0,1.0,212.82333333333332,0.0,0.0,0.0,0.0,0.0,0.0,0.0,9020.8,0.0,55.0,5.0,248.29333333333335,1.0,0.0,0.0,0.0,0.0,0.0,0.0,0.0,1.1580000000000013,1.1580000000000013,0.0,0.0,1.0,55.0,616.79921,10000.0,85.000001,85.000001,85.000001,85.000001,395.0,0.0,0.0,0.0,1.0,166.665,25.055,25.055,28.931,28.931,34.0,-14.4775,15.871666666666668,-32.6325,30.67,0.0,1782.604,-0.21000000000000085,100.0,36.484,36.599000000000004,25.422,25.602,0.0,0.0,100.0,0.0,0.0,0.0,0.0,3432.5,3307.9,4074.625,3985.0,304.3573333333333,304.24966666666666,315.18966666666665,315.00675,21.735599999999998,20.9247,22.3535,21.5069,314.999998,314.999998,324.999988,324.999988,99.54631428571429,99.51658333333333,99.58962857142858,99.54968571428572,0.2370000000000001,-0.20033333333333336,-0.11566666666666667,0.13066666666666665,-0.037499999999999645,-0.03999999999999915,1.593,1.5819999999999999,36.848,31.7795,40.71,35.418,51.601,40.3995,66.84700000000001,53.701,50.128,39.196,65.004,51.7745,49.723,38.6255,64.7175,50.9675,-0.25449999999999995,-0.2193333333333336,0.11211000000000002,0.110765,0.0,215.94666666666666,215.95333333333332,212.82333333333332,212.82333333333332,0.0,0.0
24,0.0,0.0,0.0,1.0,1.0,0.0,0.0,1.0,0.0,100.0,1.0,1.1856,26.0,0.0,0.0,0.0,59.999996,0.0,26.0,26.0,26.0,26.0,0.01842857142857146,0.2631000000000001,-0.045233333333333334,270.0805,-2.3623,-2.32925,-1.8093,-1.8090000000000002,-194.6,215.3675,190.456875,0.0,0.0,0.0,0.0,0.04873333333333334,-5.498166666666667,-5.498166666666667,-0.7378,-0.399,0.018750000000000044,-0.17300000000000004,69.106,0.016124999999999945,-0.40265,-0.20749999999999957,100.0,1.0,1.0,213.21,0.0,0.0,0.0,0.0,0.0,0.0,0.0,9037.2,0.0,55.0,5.0,248.75666666666666,0.0,0.0,0.0,0.0,0.0,0.0,0.0,0.0,1.2059999999999995,1.2059999999999995,0.0,0.0,0.0,55.0,616.79921,10000.0,85.000001,85.000001,85.000001,85.000001,395.0,0.0,0.0,0.0,1.0,166.665,25.756999999999998,25.756999999999998,29.037,29.037,34.0,-14.4725,15.27,-30.4675,31.656,0.0,1782.558,-0.134999999999998,100.0,36.175,36.366,25.302,25.499000000000002,0.0,0.0,100.0,0.0,0.0,0.0,0.0,3258.875,3231.5,3971.625,3958.5,304.9746666666667,304.54766666666666,315.3523333333333,315.0315,21.744,20.9312,22.3645,21.5156,314.999998,314.999998,324.999988,324.999988,99.54634285714286,99.51661666666666,99.58975714285714,99.54981428571429,0.23033333333333328,-0.20366666666666666,-0.11,0.14133333333333334,-0.041999999999999815,-0.047999999999998266,1.576,1.5670000000000002,36.9,31.82,40.778,35.472,51.611000000000004,40.4355,66.859,53.754,50.137,39.2295,65.015,51.8255,49.7295,38.6575,64.7245,51.016999999999996,-0.24950000000000006,-0.22299999999999986,0.10493500000000001,0.11403,0.0,216.35000000000002,216.35666666666668,213.21,213.21,0.0,0.0
25,0.0,0.0,0.0,1.0,1.0,0.0,0.0,1.0,0.0,100.0,1.0,1.1856,26.0,0.0,0.0,0.0,59.999996,0.0,26.0,26.0,26.0,26.0,0.0345714285714287,0.2763,0.011233333333333333,269.562,-2.3316,-2.30525,-1.8491,-1.8086250000000001,-191.07,215.365,190.43125,0.0,0.0,0.0,0.0,0.050800000000000005,-5.498166666666667,-5.498166666666667,-0.7534000000000001,0.25066666666666665,0.022499999999999964,0.20800000000000018,69.241,0.018874999999999975,-0.40115,-0.22749999999999915,100.0,1.0,1.0,213.66333333333333,0.0,0.0,0.0,0.0,0.0,0.0,0.0,9056.4,0.0,55.0,5.0,249.24333333333334,1.0,0.0,0.0,0.0,0.0,0.0,0.0,0.0,1.256999999999998,1.256999999999998,0.0,0.0,1.0,55.0,616.79921,10000.0,85.000001,85.000001,85.000001,85.000001,395.0,0.0,0.0,0.0,1.0,166.665,24.597,24.597,29.007,29.007,34.0,-14.29,17.55833333333333,-29.8525,31.768,0.0,1782.506,-0.1999999999999993,100.0,36.441,36.626,25.23,25.356,0.0,0.0,100.0,0.0,0.0,0.0,0.0,3456.875,3600.7,3932.25,3996.4,304.2033333333333,303.532,315.48,315.0075,21.753,20.938299999999998,22.37625,21.5247,314.999998,314.999998,324.999988,324.999988,99.54635714285715,99.51663333333333,99.5899,99.54997142857142,0.2483333333333333,-0.19233333333333336,-0.098,0.14066666666666666,-0.0389999999999997,-0.062000000000001165,1.6019999999999999,1.591,36.956,31.8645,40.851,35.5295,51.623000000000005,40.4765,66.871,53.81,50.147,39.268,65.025,51.879,49.7375,38.695,64.7315,51.0695,-0.252,-0.22866666666666635,0.10887000000000001,0.10347500000000001,0.0,216.76,216.76999999999998,213.66333333333333,213.66333333333333,0.0,0.0
26,0.0,0.0,0.0,1.0,1.0,0.0,0.0,1.0,0.0,100.0,1.0,1.1856,26.0,0.0,0.0,0.0,59.999996,0.0,26.0,26.0,26.0,26.0,0.022285714285714464,0.28090000000000015,0.0775,268.9055,-2.3633,-2.292125,-1.8151000000000002,-1.808375,-187.53,215.3625,190.40575,0.0,0.0,0.0,0.0,0.052833333333333336,-5.498166666666667,-5.498166666666667,-0.7298,-0.08266666666666668,0.013249999999999984,-0.5190000000000001,69.379,0.02012499999999995,-0.4006,-0.22499999999999964,100.0,1.0,1.0,213.88333333333333,0.0,0.0,0.0,0.0,0.0,0.0,0.0,9065.7,0.0,55.0,5.0,249.74,0.0,0.0,0.0,0.0,0.0,0.0,0.0,0.0,1.3079999999999998,1.3079999999999998,0.0,0.0,0.0,55.0,616.79921,10000.0,85.000001,85.000001,85.000001,85.000001,395.0,0.0,0.0,0.0,1.0,166.665,24.46,24.46,28.122,28.122,34.0,-14.692499999999999,15.946666666666667,-32.7775,34.722,0.0,1782.454,-0.21499999999999986,100.0,37.0,37.162,25.677,25.9435,0.0,0.0,100.0,0.0,0.0,0.0,0.0,3431.75,3358.4,4246.625,4208.4,304.3333333333333,304.17833333333334,314.72833333333335,314.36225,21.7622,20.9455,22.388125,21.5341,314.999998,314.999998,324.999988,324.999988,99.5464,99.51666666666667,99.59005714285715,99.55011428571429,0.2450000000000001,-0.19599999999999995,-0.09733333333333333,0.14300000000000002,-0.03200000000000003,-0.03500000000000014,1.504,1.478,37.013,31.909,40.926,35.588499999999996,51.638,40.518,66.887,53.8695,50.161,39.3065,65.039,51.9365,49.749,38.732,64.742,51.125,-0.25649999999999995,-0.22366666666666646,0.10382500000000001,0.11056500000000001,0.0,217.19,217.20333333333335,213.88333333333333,213.88333333333333,0.0,0.0
27,0.0,0.0,0.0,1.0,1.0,0.0,0.0,1.0,0.0,100.0,1.0,1.1856,26.0,0.0,0.0,0.0,59.999996,0.0,26.0,26.0,26.0,26.0,0.029714285714285804,0.2733000000000001,-0.07336666666666666,269.638,-2.4045,-2.306625,-1.8712,-1.7875,-184.2,215.36,190.38275,0.0,0.0,0.0,0.0,0.054766666666666665,-5.498166666666667,-5.498166666666667,-0.7652,-0.6746666666666666,0.02024999999999988,-0.5229999999999997,69.503,0.02212499999999995,-0.442525,-0.25,100.0,1.0,1.0,214.5,0.0,0.0,0.0,0.0,0.0,0.0,0.0,9091.8,0.0,55.0,5.0,250.19,1.0,0.0,0.0,0.0,0.0,0.0,0.0,0.0,1.355999999999998,1.355999999999998,0.0,0.0,1.0,55.0,616.79921,10000.0,85.000001,85.000001,85.000001,85.000001,395.0,0.0,0.0,0.0,1.0,166.665,24.734,24.734,29.068,29.068,34.0,-15.067499999999999,16.634999999999998,-28.515,30.546,0.0,1782.408,-0.23499999999999943,100.0,36.684,37.127,25.654,25.795,0.0,0.0,100.0,0.0,0.0,0.0,0.0,3415.5,3381.9,3771.75,3846.8,304.569,304.081,315.801,315.35625,21.7706,20.9521,22.399124999999998,21.5429,314.999998,314.999998,324.999988,324.999988,99.54642857142858,99.5167,99.59018571428571,99.55025714285715,0.2430000000000001,-0.18866666666666665,-0.095,0.15266666666666667,-0.06799999999999962,-0.04400000000000048,1.63,1.616,37.066,31.951,40.995000000000005,35.643,51.649,40.5555,66.899,53.9225,50.171,39.3425,65.05,51.987,49.757,38.7665,64.749,51.1745,-0.2569999999999999,-0.22233333333333372,0.10930000000000001,0.11124,0.0,217.57,217.56,214.5,214.5,0.0,0.0
28,0.0,0.0,0.0,1.0,1.0,0.0,0.0,1.0,0.0,100.0,1.0,1.1856,26.0,0.0,0.0,0.0,59.999996,0.0,26.0,26.0,26.0,26.0,0.04400000000000004,0.27870000000000017,-0.025833333333333333,269.5005,-2.33,-2.30175,-1.8785,-1.8207499999999999,-180.64999999999998,215.36,190.356875,0.0,0.0,0.0,0.0,0.05683333333333334,-5.498166666666667,-5.498166666666667,-0.7527,0.5700000000000001,0.00550000000000006,0.4630000000000001,69.637,0.02499999999999991,-0.3945,-0.3699999999999992,100.0,1.0,1.0,214.81666666666666,0.0,0.0,0.0,0.0,0.0,0.0,0.0,9105.3,0.0,55.0,5.0,250.66666666666666,0.0,0.0,0.0,0.0,0.0,0.0,0.0,0.0,1.407,1.407,0.0,0.0,0.0,55.0,616.79921,10000.0,85.000001,85.000001,85.000001,85.000001,395.0,0.0,0.0,0.0,1.0,166.665,25.009,25.009,28.473,28.473,34.0,-12.870000000000001,16.986666666666665,-31.7475,33.828,0.0,1782.357,-0.26500000000000057,100.0,36.808,36.886,25.356,25.429000000000002,0.0,0.0,100.0,0.0,0.0,0.0,0.0,3215.5,3406.4,4151.0,4104.5,304.8673333333333,304.1483333333333,315.01366666666667,314.80075,21.7796,20.9593,22.410625,21.552,314.999998,314.999998,324.999988,324.999988,99.54647142857142,99.51671666666667,99.59034285714286,99.5504,0.2543333333333333,-0.18166666666666664,-0.08633333333333333,0.15666666666666665,-0.038000000000000256,-0.054999999999999716,1.581,1.565,37.122,31.9955,41.067,35.7,51.662,40.5955,66.91,53.9775,50.182,39.379999999999995,65.059,52.04,49.766,38.8025,64.755,51.226,-0.25449999999999995,-0.22199999999999998,0.109825,0.10851500000000001,0.0,217.99,218.03666666666666,214.81666666666666,214.81666666666666,0.0,0.0
29,0.0,0.0,0.0,1.0,1.0,0.0,0.0,1.0,0.0,100.0,1.0,1.1856,26.0,0.0,0.0,0.0,59.999996,0.0,26.0,26.0,26.0,26.0,0.029714285714285804,0.252,-0.05156666666666666,269.348,-2.4049,-2.222,-1.8636,-1.8203749999999999,-177.1,215.36,190.3305,0.0,0.0,0.0,0.0,0.0589,-5.498166666666667,-5.498166666666667,-0.7722,-0.9093333333333334,0.00374999999999992,-0.5629999999999997,69.772,0.026124999999999954,-0.42255000000000004,-0.29999999999999893,100.0,1.0,1.0,215.19666666666666,0.0,0.0,0.0,0.0,0.0,0.0,0.0,9121.3,0.0,55.0,5.0,251.15666666666667,1.0,0.0,0.0,0.0,0.0,0.0,0.0,0.0,1.4579999999999984,1.4579999999999984,0.0,0.0,1.0,55.0,616.79921,10000.0,85.000001,85.000001,85.000001,85.000001,395.0,0.0,0.0,0.0,1.0,166.665,24.582,24.582,28.87,28.87,34.0,-15.607499999999998,16.58,-30.4625,32.234,0.0,1782.304,-0.3200000000000003,100.0,36.465,36.885,25.593,25.8385,0.0,0.0,100.0,0.0,0.0,0.0,0.0,3587.0,3507.4,3947.125,3975.7,304.13966666666664,303.86466666666666,315.451,314.93275,21.7885,20.9663,22.4225,21.5614,314.999998,314.999998,324.999988,324.999988,99.5465,99.51675,99.59048571428572,99.55055714285714,0.2483333333333333,-0.18266666666666664,-0.09866666666666668,0.14300000000000002,-0.03200000000000003,-0.03999999999999915,1.5540000000000003,1.554,37.178,32.039500000000004,41.14,35.7585,51.675,40.6345,66.924,54.036,50.193,39.416,65.072,52.096000000000004,49.775,38.838,64.7645,51.2805,-0.262,-0.2143333333333337,0.10253500000000002,0.11084500000000001,0.0,218.37666666666667,218.40333333333334,215.19666666666666,215.19666666666666,0.0,0.0
30,0.0,0.0,0.0,1.0,1.0,0.0,0.0,1.0,0.0,100.0,1.0,1.1856,26.0,0.0,0.0,0.0,59.999996,0.0,26.0,26.0,26.0,26.0,0.020000000000000018,0.27590000000000003,0.047566666666666674,268.677,-2.3821,-2.2824999999999998,-1.9003,-1.713625,-173.74,215.3625,190.3055,0.0,0.0,0.0,0.0,0.060866666666666666,-5.498166666666667,-5.498166666666667,-0.7626000000000001,1.058,0.008624999999999883,-0.5249999999999995,69.895,0.031500000000000083,-0.41015,-0.46499999999999986,100.0,1.0,1.0,215.59,0.0,0.0,0.0,0.0,0.0,0.0,0.0,9138.1,0.0,55.0,5.0,251.59666666666666,0.0,0.0,0.0,0.0,0.0,0.0,1.0,0.0,1.5060000000000002,1.5060000000000002,0.0,0.0,0.0,55.0,616.79921,10000.0,85.000001,85.000001,85.000001,85.000001,395.0,0.0,0.0,0.0,1.0,333.33500000000004,23.59,23.59,28.366,28.366,34.0,-14.745000000000001,16.586666666666666,-32.9,32.986,0.0,1782.256,-0.29499999999999815,100.0,37.482,37.782,25.4,25.762999999999998,0.0,0.0,100.0,0.0,0.0,0.0,0.0,3533.0,3472.3,4217.5,4197.6,304.042,303.67533333333336,314.967,314.63125,21.7973,20.9732,22.43325,21.5701,314.999998,314.999998,324.999988,324.999988,99.54654285714285,99.51676666666667,99.59062857142857,99.5507,0.2570000000000001,-0.19599999999999995,-0.09333333333333332,0.15066666666666667,-0.032999999999999474,-0.04499999999999815,1.573,1.558,37.233000000000004,32.082499999999996,41.208,35.813,51.691,40.675,66.935,54.088499999999996,50.208,39.454,65.081,52.1465,49.7875,38.8745,64.7695,51.33,-0.2689999999999999,-0.22166666666666668,0.11265000000000001,0.10723,0.0,218.79333333333335,218.83333333333334,215.59,215.59,0.0,0.0
31,0.0,0.0,0.0,1.0,1.0,0.0,0.0,1.0,0.0,100.0,1.0,1.1856,26.0,0.0,0.0,0.0,59.999996,0.0,26.0,26.0,26.0,26.0,0.06000000000000005,0.25370000000000004,0.042633333333333336,268.692,-2.3486000000000002,-2.34075,-1.8979,-1.792,-170.17000000000002,215.365,190.279875,0.0,0.0,0.0,0.0,0.06293333333333334,-5.498166666666667,-5.498166666666667,-0.758,-0.7073333333333334,0.016874999999999973,0.6319999999999997,70.03,0.03612499999999996,-0.438,-0.4574999999999996,100.0,1.0,1.0,215.92000000000002,0.0,0.0,0.0,0.0,0.0,0.0,0.0,9152.0,0.0,55.0,5.0,252.08666666666664,1.0,0.0,0.0,0.0,0.0,0.0,1.0,0.0,1.5569999999999986,1.5569999999999986,0.0,0.0,1.0,55.0,616.79921,10000.0,85.000001,85.000001,85.000001,85.000001,395.0,0.0,0.0,0.0,1.0,166.665,23.819,23.819,27.924,27.924,34.0,-12.774999999999999,18.65833333333333,-30.2175,33.726,0.0,1782.205,-0.3049999999999997,100.0,37.394999999999996,37.745000000000005,26.082,26.246000000000002,0.0,0.0,100.0,0.0,0.0,0.0,0.0,3312.75,3597.8,3964.5,4069.1000000000004,304.584,303.5,315.2846666666667,314.751,21.8063,20.9804,22.445125,21.5796,314.999998,314.999998,324.999988,324.999988,99.54657142857143,99.5168,99.59077142857143,99.55084285714285,0.26866666666666683,-0.18099999999999994,-0.074,0.15933333333333335,-0.029500000000000526,-0.03599999999999781,1.5260000000000002,1.5110000000000001,37.289,32.128,41.282,35.8725,51.705,40.716,66.951,54.1485,50.22,39.4925,65.095,52.204499999999996,49.7975,38.911500000000004,64.78,51.3855,-0.262,-0.22166666666666668,0.11085,0.10366,0.0,219.18,219.19333333333333,215.92000000000002,215.92000000000002,0.0,0.0
32,0.0,0.0,0.0,1.0,1.0,0.0,0.0,1.0,0.0,100.0,1.0,1.1856,26.0,0.0,0.0,0.0,59.999996,0.0,26.0,26.0,26.0,26.0,0.06571428571428584,0.25639999999999996,-0.07786666666666667,269.394,-2.3521,-2.317,-1.8406,-1.8635000000000002,-166.6,215.37,190.25425,0.0,0.0,0.0,0.0,0.065,-5.498166666666667,-5.498166666666667,-0.7784000000000001,-0.11533333333333333,-0.0015000000000000568,-0.8010000000000002,70.15899999999999,0.036250000000000115,-0.436275,-0.4175000000000004,100.0,1.0,1.0,216.49333333333334,0.0,0.0,0.0,0.0,0.0,0.0,0.0,9176.4,0.0,55.0,5.0,252.55,0.0,0.0,0.0,0.0,0.0,0.0,1.0,0.0,1.6080000000000005,1.6080000000000005,0.0,0.0,0.0,55.0,616.79921,10000.0,85.000001,85.000001,85.000001,85.000001,395.0,0.0,0.0,0.0,1.0,166.665,24.414,24.414,29.099,29.099,34.0,-12.9025,16.86333333333333,-27.807499999999997,32.72,0.0,1782.154,-0.3149999999999977,100.0,37.09,37.722,25.509,25.9725,0.0,0.0,100.0,0.0,0.0,0.0,0.0,3338.75,3306.3,3786.375,3911.2,304.68333333333334,304.2703333333333,315.8233333333333,315.121,21.8152,20.9876,22.4565,21.5888,314.999998,314.999998,324.999988,324.999988,99.54661428571428,99.51681666666667,99.59091428571429,99.551,0.2673333333333332,-0.17899999999999994,-0.08366666666666667,0.16,-0.03399999999999892,-0.03500000000000014,1.6070000000000002,1.588,37.345,32.1725,41.352999999999994,35.93,51.719,40.7555,66.96000000000001,54.2035,50.232,39.53,65.103,52.257,49.8075,38.9475,64.7845,51.437,-0.2715000000000001,-0.21300000000000008,0.10242000000000001,0.11529,0.0,219.58666666666664,219.62666666666667,216.49333333333334,216.49333333333334,0.0,0.0
33,0.0,0.0,0.0,1.0,1.0,0.0,0.0,1.0,0.0,100.0,1.0,1.1856,26.0,0.0,0.0,0.0,59.999996,0.0,26.0,26.0,26.0,26.0,0.04714285714285715,0.2642,-0.02206666666666667,269.2415,-2.3725,-2.277,-1.9152,-1.8242500000000001,-163.23000000000002,215.3725,190.22875,0.0,0.0,0.0,0.0,0.06696666666666666,-5.498166666666667,-5.498166666666667,-0.7825000000000001,-0.3213333333333333,0.003874999999999851,-0.242,70.283,0.037250000000000005,-0.415675,-0.3699999999999992,100.0,1.0,1.0,216.76999999999998,0.0,0.0,0.0,0.0,0.0,0.0,0.0,9188.1,0.0,55.0,5.0,252.99666666666667,1.0,0.0,0.0,0.0,0.0,0.0,1.0,0.0,1.6559999999999988,1.6559999999999988,0.0,0.0,1.0,55.0,616.79921,10000.0,85.000001,85.000001,85.000001,85.000001,395.0,0.0,0.0,0.0,1.0,166.665,24.475,24.475,28.809,28.809,34.0,-14.195,15.993333333333332,-30.9375,33.01,0.0,1782.108,-0.3200000000000003,100.0,36.900999999999996,37.51,25.434,25.9455,0.0,0.0,100.0,0.0,0.0,0.0,0.0,3430.5,3340.2,4036.125,4014.3,304.4923333333333,304.278,315.34233333333333,314.9015,21.8236,20.9943,22.467375,21.5975,314.999998,314.999998,324.999988,324.999988,99.54664285714286,99.51685,99.59105714285714,99.55114285714286,0.2546666666666668,-0.18966666666666665,-0.08366666666666667,0.15233333333333335,-0.036999999999999034,-0.0470000000000006,1.588,1.56,37.397,32.214,41.421,35.9845,51.732,40.791,66.971,54.2565,50.242999999999995,39.563,65.113,52.308,49.8165,38.9795,64.7905,51.4865,-0.2649999999999999,-0.22133333333333338,0.09924500000000001,0.11048000000000001,0.0,219.96333333333334,220.00666666666666,216.76999999999998,216.76999999999998,0.0,0.0
34,0.0,0.0,0.0,1.0,1.0,0.0,0.0,1.0,0.0,100.0,1.0,1.1856,26.0,0.0,0.0,0.0,59.999996,0.0,26.0,26.0,26.0,26.0,0.05985714285714283,0.2632000000000001,-0.0936,269.47,-2.3193,-2.31425,-1.885,-1.7694999999999999,-159.64,215.38,190.200375,0.0,0.0,0.0,0.0,0.06906666666666667,-5.498166666666667,-5.498166666666667,-0.8181,-0.9146666666666666,0.023499999999999854,0.7430000000000003,70.414,0.03687499999999999,-0.43570000000000003,-0.45500000000000007,100.0,1.0,1.0,217.18,0.0,0.0,0.0,0.0,0.0,0.0,0.0,9205.5,0.0,55.0,5.0,253.46666666666667,0.0,0.0,0.0,0.0,0.0,0.0,1.0,0.0,1.7070000000000007,1.7070000000000007,0.0,0.0,0.0,55.0,616.79921,10000.0,85.000001,85.000001,85.000001,85.000001,395.0,0.0,0.0,0.0,1.0,166.665,24.841,24.841,29.114,29.114,34.0,-12.2025,17.68,-29.2225,33.372,0.0,1782.057,-0.34999999999999787,100.0,36.831,37.165,25.437,25.928,0.0,0.0,100.0,0.0,0.0,0.0,0.0,3265.0,3424.8,3885.0,4062.9,304.83733333333333,304.19466666666665,315.5953333333333,314.878,21.8324,21.0013,22.478875,21.6069,314.999998,314.999998,324.999988,324.999988,99.54668571428572,99.51686666666667,99.59121428571429,99.55128571428571,0.2683333333333333,-0.17166666666666663,-0.082,0.16933333333333334,-0.03599999999999959,-0.04100000000000037,1.597,1.579,37.453,32.257999999999996,41.492999999999995,36.043,51.744,40.8285,66.982,54.314,50.254999999999995,39.598,65.122,52.363,49.8255,39.0135,64.79599999999999,51.54,-0.26649999999999996,-0.21700000000000008,0.11024,0.11180000000000001,0.0,220.35000000000002,220.38,217.18,217.18,0.0,0.0
35,0.0,0.0,0.0,1.0,1.0,0.0,0.0,1.0,0.0,100.0,1.0,1.1856,26.0,0.0,0.0,0.0,59.999996,0.0,26.0,26.0,26.0,26.0,0.05042857142857127,0.2751000000000001,-0.07216666666666667,269.165,-2.4277,-2.301625,-1.8659,-1.77525,-155.84,215.3875,190.168125,0.0,0.0,0.0,0.0,0.07126666666666667,-5.498166666666667,-5.498166666666667,-0.8402000000000001,0.3283333333333333,-0.008875000000000188,-0.31599999999999984,70.549,0.04225000000000012,-0.4173,-0.41000000000000014,100.0,1.0,1.0,217.65,0.0,0.0,0.0,0.0,0.0,0.0,0.0,9225.4,0.0,55.0,5.0,253.95333333333335,1.0,0.0,0.0,0.0,0.0,0.0,1.0,0.0,1.7609999999999992,1.7609999999999992,0.0,0.0,1.0,55.0,616.79921,10000.0,85.000001,85.000001,85.000001,85.000001,395.0,0.0,0.0,0.0,1.0,166.665,24.048000000000002,24.048000000000002,28.687,28.687,34.0,-14.715,18.4,-28.619999999999997,32.792,0.0,1782.003,-0.16000000000000014,100.0,36.836,37.603,25.341,25.508,0.0,0.0,100.0,0.0,0.0,0.0,0.0,3484.5,3600.8,3918.5,4000.4,304.308,303.53133333333335,315.5276666666667,315.1135,21.8418,21.009,22.491,21.6165,314.999998,314.999998,324.999988,324.999988,99.54672857142857,99.5169,99.59137142857143,99.55145714285715,0.262,-0.17699999999999994,-0.06866666666666667,0.17266666666666666,-0.04449999999999932,-0.053000000000000824,1.6030000000000002,1.595,37.510999999999996,32.3065,41.569,36.1035,51.757,40.872,66.993,54.3695,50.266,39.638999999999996,65.131,52.4165,49.8345,39.053,64.8015,51.5925,-0.2509999999999999,-0.23466666666666658,0.10901500000000001,0.10838500000000001,0.0,220.80333333333334,220.84666666666666,217.65,217.65,0.0,0.0
