,ABS Active,ABS Enabled,AID Allow Tire Blankets,AID Auto Blip,AID Auto Clutch,AID Auto Shift,AID Fuel Rate,AID Ideal Line,AID Mech Damage,AID Stability,AID Tire Wear Rate,Air Density,Air Temp,Ballast,Best Lap Delta,Best Lap Time,Brake Bias,Brake Pos,Brake Temp FL,Brake Temp FR,Brake Temp RL,Brake Temp RR,CG Accel Lateral,CG Accel Longitudinal,CG Accel Vertical,CG Height,Camber FL,Camber FR,Camber RL,Camber RR,Car Coord X,Car Coord Y,Car Coord Z,Car Damage Front,Car Damage Left,Car Damage Rear,Car Damage Right,Car Pos Norm,Caster FL,Caster FR,Chassis Pitch Angle,Chassis Pitch Rate,Chassis Roll Angle,Chassis Roll Rate,Chassis Velocity X,Chassis Velocity Y,Chassis Velocity Z,Chassis Yaw Rate,Clutch Pos,DRS Active,DRS Available,Drive Train Speed,ERS Heat Charging,ERS Is Charging,ERS Max Energy,ERS Power Level,ERS Recovery Level,Engine Brake Setting,Engine Limiter,Engine RPM,Flags,Fuel Level,Gear,Ground Speed,HR Sample Clock,In Pit,KERS Charge,KERS Deployed Energy,KERS Input,KERS Max Energy,LR Sample Clock,Lap Invalidated,Lap Time,Lap Time2,Last Lap Time,Last Sector Time,MR Sample Clock,Max Fuel,Max Power,Max RPM,Max Sus Travel FL,Max Sus Travel FR,Max Sus Travel RL,Max Sus Travel RR,Max Torque,Max Turbo Boost,Num Tires Off Track,Penalties Enabled,Position,Raw Data Sample Rate,Ride Height FL,Ride Height FR,Ride Height RL,Ride Height RR,Road Temp,Self Align Torque FL,Self Align Torque FR,Self Align Torque RL,Self Align Torque RR,Session Lap Count,Session Time Left,Steering Angle,Surface Grip,Suspension Travel FL,Suspension Travel FR,Suspension Travel RL,Suspension Travel RR,TC Active,TC Enabled,Throttle Pos,Tire Dirt Level FL,Tire Dirt Level FR,Tire Dirt Level RL,Tire Dirt Level RR,Tire Load FL,Tire Load FR,Tire Load RL,Tire Load RR,Tire Loaded Radius FL,Tire Loaded Radius FR,Tire Loaded Radius RL,Tire Loaded Radius RR,Tire Pressure FL,Tire Pressure FR,Tire Pressure RL,Tire Pressure RR,Tire Radius FL,Tire Radius FR,Tire Radius RL,Tire Radius RR,Tire Rubber Grip FL,Tire Rubber Grip FR,Tire Rubber Grip RL,Tire Rubber Grip RR,Tire Slip Angle FL,Tire Slip Angle FR,Tire Slip Angle RL,Tire Slip Angle RR,Tire Slip Ratio FL,Tire Slip Ratio FR,Tire Slip Ratio RL,Tire Slip Ratio RR,Tire Temp Core FL,Tire Temp Core FR,Tire Temp Core RL,Tire Temp Core RR,Tire Temp Inner FL,Tire Temp Inner FR,Tire Temp Inner RL,Tire Temp Inner RR,Tire Temp Middle FL,Tire Temp Middle FR,Tire Temp Middle RL,Tire Temp Middle RR,Tire Temp Outer FL,Tire Temp Outer FR,Tire Temp Outer RL,Tire Temp Outer RR,Toe In FL,Toe In FR,Toe In RL,Toe In RR,Turbo Boost,Wheel Angular Speed FL,Wheel Angular Speed FR,Wheel Angular Speed RL,Wheel Angular Speed RR,Wind Direction,Wind Speed
0,0.0,0.0,0.0,1.0,1.0,0.0,0.0,1.0,0.0,100.0,1.0,1.1856,26.0,0.0,0.0,0.0,59.99999,0.0,26.0,26.0,26.0,26.0,-0.11312500000000003,0.30889999999999995,0.14295,270.4925,-2.3520000000000003,-2.320888888888889,-1.7777,-1.843625,-275.47,216.35750000000002,190.962875,0.0,0.0,0.0,0.0,0.0017333333333333333,-5.498166666666667,-5.498166666666667,-0.6727000000000001,1.9896666666666667,-0.02475000000000005,-1.229,65.742,-0.043571428571428594,-0.3456,1.3800000000000008,100.0,1.0,1.0,203.09666666666666,0.0,0.0,0.0,0.0,0.0,0.0,0.0,8608.6,0.0,55.0,5.0,236.64333333333332,0.0,0.0,0.0,0.0,0.0,0.0,0.0,0.0,0.006000000000000227,0.006000000000000227,0.0,0.0,0.0,55.0,616.79921,10000.0,85.0,85.0,85.0,85.0,395.0,0.0,0.0,0.0,1.0,20.0,25.391,25.391,29.205,29.205,34.0,-20.275,13.29,-34.485,26.4475,0.0,1783.481,0.9849999999999994,100.0,35.725,35.001,24.185,23.8825,0.0,0.0,100.0,0.0,0.0,0.0,0.0,3400.222222222222,3789.7,4103.428571428572,3825.7,304.443,302.826,315.061,315.3222,21.52288888888889,20.7825,22.11425,21.3059,314.99999,314.99999,324.99998,324.99998,99.54534285714286,99.51638333333334,99.58772857142857,99.5466,0.1293333333333333,-0.2846666666666666,-0.18333333333333335,0.055333333333333234,-0.06074999999999964,-0.05550000000000033,1.6019999999999999,1.6450000000000005,35.518,30.8905,39.214,34.162,51.251999999999995,39.7265,66.951,52.4055,49.82,38.5745,65.132,50.54,49.4645,38.037,64.9175,49.7705,-0.15500000000000003,-0.31200000000000006,0.1028,0.11072000000000001,0.0,206.07,205.95666666666668,203.09666666666666,203.09666666666666,0.0,0.0
1,0.0,0.0,0.0,1.0,1.0,0.0,0.0,1.0,0.0,100.0,1.0,1.1856,26.0,0.0,0.0,0.0,59.999996,0.0,26.0,26.0,26.0,26.0,-0.12275000000000003,0.31410000000000005,0.24745,269.8515,-2.2702,-2.4272222222222224,-1.7953000000000001,-1.7962500000000001,-271.91,216.35500000000002,190.941875,0.0,0.0,0.0,0.0,0.0038,-5.498166666666667,-5.498166666666667,-0.618,-1.6813333333333333,-0.06899999999999995,-1.216,65.91,-0.06557142857142861,-0.3589,1.455,100.0,1.0,1.0,203.22,0.0,0.0,0.0,0.0,0.0,0.0,0.0,8613.7,0.0,55.0,5.0,237.24666666666667,1.0,0.0,0.0,0.0,0.0,0.0,0.0,0.0,0.05999999999999872,0.05999999999999872,0.0,0.0,1.0,55.0,616.79921,10000.0,85.000001,85.000001,85.000001,85.000001,395.0,0.0,0.0,0.0,1.0,166.665,26.794,26.794,28.198,28.198,34.0,-18.982499999999998,10.388,-38.0375,30.875,0.0,1783.428,0.9350000000000005,100.0,35.705,34.903,26.524,25.4225,0.0,0.0,100.0,0.0,0.0,0.0,0.0,3328.4444444444443,2957.9,4177.857142857143,4455.1,304.694,305.5043333333333,314.72333333333336,313.5786,21.532666666666668,20.7895,22.127625000000002,21.3158,314.999998,314.999998,324.999988,324.999988,99.54538571428571,99.51643333333334,99.58788571428572,99.54675714285715,0.1273333333333333,-0.29733333333333334,-0.21,0.032333333333333325,-0.027499999999999858,-0.026999999999999247,1.416,1.471,35.579,30.9345,39.298,34.224000000000004,51.257999999999996,39.7705,66.976,52.474000000000004,49.825,38.6155,65.154,50.6055,49.468,38.077,64.9365,49.834,-0.16300000000000003,-0.30000000000000004,0.106285,0.11207500000000001,0.0,206.49,206.37666666666667,203.22,203.22,0.0,0.0
2,0.0,0.0,0.0,1.0,1.0,0.0,0.0,1.0,0.0,100.0,1.0,1.1856,26.0,0.0,0.0,0.0,59.999996,0.0,26.0,26.0,26.0,26.0,-0.14312499999999995,0.29290000000000016,-0.0466,271.103,-2.2494,-2.4465555555555554,-1.7533,-1.8755000000000002,-268.74,216.3475,190.924625,0.0,0.0,0.0,0.0,0.005633333333333334,-5.498166666666667,-5.498166666666667,-0.6819000000000001,0.256,-0.050875000000000004,1.932,66.041,-0.07885714285714296,-0.40395000000000003,1.5675000000000008,100.0,1.0,1.0,204.2733333333333,0.0,0.0,0.0,0.0,0.0,0.0,0.0,8658.4,0.0,55.0,5.0,237.72,0.0,0.0,0.0,0.0,0.0,0.0,0.0,0.0,0.10800000000000054,0.10800000000000054,0.0,0.0,0.0,55.0,616.79921,10000.0,85.000001,85.000001,85.000001,85.000001,395.0,0.0,0.0,0.0,1.0,333.33500000000004,25.817999999999998,25.817999999999998,31.021,31.021,34.0,-21.2075,10.748,-29.7725,21.425,0.0,1783.378,0.870000000000001,100.0,36.427,34.862,25.388,24.107,0.0,0.0,100.0,0.0,0.0,0.0,0.0,3510.3333333333335,3204.6,3535.285714285714,3459.1,304.014,304.733,316.3353333333333,316.3496,21.541555555555554,20.7956,22.138875,21.323900000000002,314.999998,314.999998,324.999988,324.999988,99.5454,99.51646666666667,99.58801428571428,99.54688571428571,0.10633333333333339,-0.31466666666666665,-0.22966666666666666,0.015000000000000124,-0.04675000000000029,-0.04349999999999987,1.759,1.803,35.635,30.9725,39.367999999999995,34.275,51.266,39.8085,66.988,52.519999999999996,49.832,38.650999999999996,65.164,50.6495,49.473,38.111000000000004,64.9435,49.876999999999995,-0.16449999999999998,-0.29899999999999993,0.10365500000000001,0.110005,0.0,206.93666666666667,206.80333333333334,204.2733333333333,204.2733333333333,0.0,0.0
3,0.0,0.0,0.0,1.0,1.0,0.0,0.0,1.0,0.0,100.0,1.0,1.1856,26.0,0.0,0.0,0.0,59.999996,0.0,26.0,26.0,26.0,26.0,-0.16462500000000002,0.3043,0.06470000000000001,270.4775,-2.3715,-2.344888888888889,-1.776,-1.86525,-265.37,216.3375,190.9045,0.0,0.0,0.0,0.0,0.0076,-5.498166666666667,-5.498166666666667,-0.633,-0.016000000000000014,-0.017625000000000224,-0.898,66.197,-0.08599999999999985,-0.338125,1.2825000000000006,100.0,1.0,1.0,204.21666666666667,0.0,0.0,0.0,0.0,0.0,0.0,0.0,8656.0,0.0,55.0,5.0,238.28,1.0,0.0,0.0,0.0,0.0,0.0,0.0,0.0,0.15899999999999892,0.15899999999999892,0.0,0.0,1.0,55.0,616.79921,10000.0,85.000001,85.000001,85.000001,85.000001,395.0,0.0,0.0,0.0,1.0,166.665,27.008,27.008,28.259,28.259,34.0,-18.595,9.334000000000001,-39.7875,28.225,0.0,1783.329,0.8000000000000007,100.0,35.988,34.968,25.481,24.464,0.0,0.0,100.0,0.0,0.0,0.0,0.0,2998.8888888888887,3043.3,4343.428571428572,4190.5,305.607,305.12033333333335,314.413,314.4278,21.550555555555555,20.8023,22.151,21.333,314.999998,314.999998,324.999988,324.999988,99.54541428571429,99.51651666666666,99.58817142857143,99.54702857142857,0.1100000000000001,-0.31066666666666665,-0.22366666666666665,0.015333333333333421,-0.037499999999999645,-0.042500000000000426,1.486,1.5419999999999998,35.691,31.014,39.443,34.331,51.268,39.8515,67.006,52.58,49.833,38.691,65.181,50.707,49.4725,38.1495,64.9565,49.933,-0.17149999999999999,-0.28400000000000003,0.10914000000000001,0.10902,0.0,207.43,207.32333333333332,204.21666666666667,204.21666666666667,0.0,0.0
4,0.0,0.0,0.0,1.0,1.0,0.0,0.0,1.0,0.0,100.0,1.0,1.1856,26.0,0.0,0.0,0.0,59.999996,0.0,26.0,26.0,26.0,26.0,-0.15587499999999999,0.27680000000000016,-0.031900000000000005,270.752,-2.2979000000000003,-2.3965555555555556,-1.7872,-1.872125,-262.19,216.3225,190.885875,0.0,0.0,0.0,0.0,0.009433333333333334,-5.498166666666667,-5.498166666666667,-0.6859000000000001,-0.6930000000000001,-0.08674999999999988,-1.6520000000000001,66.333,-0.08514285714285696,-0.40315,1.3025000000000002,100.0,1.0,1.0,204.94,0.0,0.0,0.0,0.0,0.0,0.0,0.0,8686.7,0.0,55.0,5.0,238.7733333333333,0.0,0.0,0.0,0.0,0.0,0.0,0.0,0.0,0.20700000000000074,0.20700000000000074,0.0,0.0,0.0,55.0,616.79921,10000.0,85.000001,85.000001,85.000001,85.000001,395.0,0.0,0.0,0.0,1.0,333.33500000000004,25.894,25.894,29.602,29.602,34.0,-21.732499999999998,10.674000000000001,-34.5275,22.09,0.0,1783.279,0.6899999999999995,100.0,35.968,35.004,25.723,24.326999999999998,0.0,0.0,100.0,0.0,0.0,0.0,0.0,3568.222222222222,3212.8,3898.8571428571427,3428.8,304.012,304.54833333333335,315.4533333333333,316.2916,21.55911111111111,20.8086,22.1625,21.3413,314.999998,314.999998,324.999988,324.999988,99.54541428571429,99.51655,99.5883,99.54715714285715,0.11133333333333328,-0.30766666666666664,-0.229,0.02499999999999991,-0.05924999999999958,-0.036999999999999034,1.646,1.6989999999999998,35.745000000000005,31.054000000000002,39.515,34.382999999999996,51.271,39.893,67.023,52.6305,49.835,38.7295,65.196,50.754999999999995,49.4735,38.1865,64.9685,49.9795,-0.17699999999999994,-0.28600000000000003,0.111335,0.10389500000000002,0.0,207.82999999999998,207.69666666666666,204.94,204.94,0.0,0.0
5,0.0,0.0,0.0,1.0,1.0,0.0,0.0,1.0,0.0,100.0,1.0,1.1856,26.0,0.0,0.0,0.0,59.999996,0.0,26.0,26.0,26.0,26.0,-0.12512499999999993,0.29790000000000005,-0.006500000000000001,270.706,-2.3089,-2.4202222222222223,-1.7719,-1.860375,-258.8,216.305,190.865375,0.0,0.0,0.0,0.0,0.0114,-5.498166666666667,-5.498166666666667,-0.6606000000000001,0.518,-0.08662500000000017,1.107,66.483,-0.08942857142857119,-0.35825,1.012500000000001,100.0,1.0,1.0,205.23333333333335,0.0,0.0,0.0,0.0,0.0,0.0,0.0,8699.1,0.0,55.0,5.0,239.30666666666667,1.0,0.0,0.0,0.0,0.0,0.0,0.0,0.0,0.2579999999999991,0.2579999999999991,0.0,0.0,1.0,55.0,616.79921,10000.0,85.000001,85.000001,85.000001,85.000001,395.0,0.0,0.0,0.0,1.0,166.665,26.764,26.764,29.221,29.221,34.0,-18.4925,11.328,-36.9775,26.9375,0.0,1783.23,0.3000000000000007,100.0,36.231,34.638999999999996,25.558,24.0325,0.0,0.0,100.0,0.0,0.0,0.0,0.0,3218.4444444444443,3074.3,4156.571428571428,3995.3,304.87166666666667,305.179,314.85066666666665,314.9882,21.568444444444445,20.8153,22.174500000000002,21.3501,314.999998,314.999998,324.999988,324.999988,99.54544285714286,99.51658333333333,99.58844285714285,99.54728571428572,0.13400000000000012,-0.28600000000000003,-0.21833333333333335,0.02833333333333332,-0.027499999999999858,-0.0470000000000006,1.576,1.5869999999999997,35.803,31.0955,39.591,34.438,51.278,39.935,67.041,52.6845,49.841,38.7685,65.212,50.8065,49.4775,38.224000000000004,64.981,50.0295,-0.20699999999999996,-0.25550000000000006,0.10833500000000001,0.11398000000000001,0.0,208.31666666666666,208.21333333333334,205.23333333333335,205.23333333333335,0.0,0.0
6,0.0,0.0,0.0,1.0,1.0,0.0,0.0,1.0,0.0,100.0,1.0,1.1856,26.0,0.0,0.0,0.0,59.999996,0.0,26.0,26.0,26.0,26.0,-0.10575000000000001,0.29200000000000004,0.0047,270.63,-2.2817,-2.446777777777778,-1.8186,-1.8515000000000001,-255.61,216.285,190.846125,0.0,0.0,0.0,0.0,0.013266666666666666,-5.498166666666667,-5.498166666666667,-0.6664,-0.07533333333333325,-0.06450000000000022,0.925,66.62100000000001,-0.07842857142857129,-0.37517500000000004,0.6099999999999994,100.0,1.0,1.0,205.71666666666667,0.0,0.0,0.0,0.0,0.0,0.0,0.0,8719.6,0.0,55.0,5.0,239.81,0.0,0.0,0.0,0.0,0.0,0.0,0.0,0.0,0.30600000000000094,0.30600000000000094,0.0,0.0,0.0,55.0,616.79921,10000.0,85.000001,85.000001,85.000001,85.000001,395.0,0.0,0.0,0.0,1.0,166.665,26.245,26.245,29.388,29.388,34.0,-17.84,13.34,-34.35,25.8125,0.0,1783.18,0.16500000000000092,100.0,36.067,34.695,25.611,24.368000000000002,0.0,0.0,100.0,0.0,0.0,0.0,0.0,3295.8888888888887,3299.1,3945.5714285714284,3840.4,304.57533333333333,304.40866666666665,315.3453333333333,315.3604,21.576999999999998,20.8216,22.186,21.3587,314.999998,314.999998,324.999988,324.999988,99.54545714285715,99.51661666666666,99.58858571428571,99.54742857142857,0.15300000000000002,-0.272,-0.19966666666666666,0.03666666666666685,-0.04024999999999945,-0.0519999999999996,1.599,1.6260000000000003,35.855999999999995,31.134999999999998,39.663,34.492000000000004,51.284,39.9745,67.057,52.7385,49.846000000000004,38.805,65.226,50.858000000000004,49.481,38.2595,64.9925,50.079499999999996,-0.21950000000000003,-0.242,0.10679500000000001,0.10691,0.0,208.68,208.63,205.71666666666667,205.71666666666667,0.0,0.0
7,0.0,0.0,0.0,1.0,1.0,0.0,0.0,1.0,0.0,100.0,1.0,1.1856,26.0,0.0,0.0,0.0,59.999996,0.0,26.0,26.0,26.0,26.0,-0.07599999999999996,0.27790000000000004,0.02295,270.462,-2.26,-2.3777777777777778,-1.778,-1.892,-252.21,216.26,190.825625,0.0,0.0,0.0,0.0,0.015233333333333335,-5.498166666666667,-5.498166666666667,-0.6674,0.1343333333333333,-0.05387500000000012,-0.216,66.768,-0.05957142857142861,-0.380625,0.41249999999999964,100.0,1.0,1.0,206.12333333333333,0.0,0.0,0.0,0.0,0.0,0.0,0.0,8736.8,0.0,55.0,5.0,240.34,1.0,0.0,0.0,0.0,0.0,0.0,0.0,0.0,0.3569999999999993,0.3569999999999993,0.0,0.0,1.0,55.0,616.79921,10000.0,85.000001,85.000001,85.000001,85.000001,395.0,0.0,0.0,0.0,1.0,166.665,26.047,26.047,29.526,29.526,34.0,-17.564999999999998,12.918,-33.3625,27.97,0.0,1783.131,0.005000000000000782,100.0,36.021,34.961,25.468,24.6115,0.0,0.0,100.0,0.0,0.0,0.0,0.0,3430.4444444444443,3213.0,3977.4285714285716,3857.4,304.26166666666666,304.52066666666667,315.2923333333333,315.1858,21.586222222222222,20.8284,22.198125,21.3677,314.999998,314.999998,324.999988,324.999988,99.54548571428572,99.51665,99.58874285714286,99.54755714285714,0.16833333333333322,-0.2596666666666666,-0.17966666666666667,0.06033333333333335,-0.06424999999999947,-0.05599999999999916,1.572,1.572,35.914,31.177500000000002,39.738,34.548,51.293,40.016,67.074,52.795500000000004,49.852999999999994,38.844,65.241,50.912,49.486,38.2965,65.0035,50.1325,-0.237,-0.22950000000000004,0.10328000000000001,0.11120000000000001,0.0,209.16,209.12,206.12333333333333,206.12333333333333,0.0,0.0
8,0.0,0.0,0.0,1.0,1.0,0.0,0.0,1.0,0.0,100.0,1.0,1.1856,26.0,0.0,0.0,0.0,59.999996,0.0,26.0,26.0,26.0,26.0,-0.03862500000000002,0.2984,0.059550000000000006,270.7215,-2.3384,-2.370333333333333,-1.76,-1.8465,-248.8,216.235,190.805,0.0,0.0,0.0,0.0,0.017233333333333337,-5.498166666666667,-5.498166666666667,-0.6694,-0.8193333333333332,-0.038000000000000256,0.516,66.916,-0.04042857142857126,-0.371525,-0.03500000000000014,100.0,1.0,1.0,206.50666666666666,0.0,0.0,0.0,0.0,0.0,0.0,0.0,8753.0,0.0,55.0,5.0,240.87,0.0,0.0,0.0,0.0,0.0,0.0,0.0,0.0,0.40800000000000125,0.40800000000000125,0.0,0.0,0.0,55.0,616.79921,10000.0,85.000001,85.000001,85.000001,85.000001,395.0,0.0,0.0,0.0,1.0,333.33500000000004,26.871,26.871,28.824,28.824,34.0,-15.3525,14.956,-32.480000000000004,29.622500000000002,0.0,1783.078,-0.1999999999999993,100.0,35.648,34.676,25.605,24.652,0.0,0.0,100.0,0.0,0.0,0.0,0.0,3133.222222222222,3294.3,4005.4285714285716,3948.6000000000004,305.2746666666667,304.542,315.1173333333333,315.01,21.595222222222223,20.8351,22.210125,21.3767,314.999998,314.999998,324.999988,324.999988,99.5455,99.51668333333333,99.58887142857142,99.5477,0.19300000000000006,-0.22199999999999998,-0.15433333333333335,0.09133333333333327,-0.0495000000000001,-0.03200000000000003,1.556,1.5659999999999998,35.97,31.2195,39.814,34.604,51.299,40.055,67.09,52.852000000000004,49.858000000000004,38.8805,65.256,50.966499999999996,49.4895,38.3315,65.015,50.185,-0.24349999999999994,-0.21300000000000008,0.10676500000000001,0.11425500000000001,0.0,209.56333333333333,209.55,206.50666666666666,206.50666666666666,0.0,0.0
9,0.0,0.0,0.0,1.0,1.0,0.0,0.0,1.0,0.0,100.0,1.0,1.1856,26.0,0.0,0.0,0.0,59.999996,0.0,26.0,26.0,26.0,26.0,-0.028374999999999928,0.30920000000000014,-0.0029000000000000002,270.2025,-2.2677,-2.370333333333333,-1.816,-1.8335,-245.38,216.20749999999998,190.783625,0.0,0.0,0.0,0.0,0.019200000000000002,-5.498166666666667,-5.498166666666667,-0.6721,0.902,-0.03887499999999999,-0.145,67.059,-0.019857142857142795,-0.368375,-0.15000000000000036,100.0,1.0,1.0,207.05333333333334,0.0,0.0,0.0,0.0,0.0,0.0,0.0,8776.3,0.0,55.0,5.0,241.38666666666666,1.0,0.0,0.0,0.0,0.0,0.0,0.0,0.0,0.45899999999999963,0.45899999999999963,0.0,0.0,1.0,55.0,616.79921,10000.0,85.000001,85.000001,85.000001,85.000001,395.0,0.0,0.0,0.0,1.0,166.665,25.528,25.528,29.678,29.678,34.0,-15.932499999999997,15.187999999999999,-31.9375,29.57,0.0,1783.029,-0.34499999999999886,100.0,36.175,35.429,25.178,24.709,0.0,0.0,100.0,0.0,0.0,0.0,0.0,3547.4444444444443,3270.4,3993.714285714286,3938.7,303.953,304.36466666666666,315.34866666666665,315.0894,21.604444444444443,20.8421,22.222125,21.3857,314.999998,314.999998,324.999988,324.999988,99.54552857142858,99.5167,99.58901428571428,99.54784285714285,0.21166666666666667,-0.21833333333333338,-0.14333333333333334,0.10266666666666668,-0.05525000000000002,-0.04800000000000004,1.6219999999999999,1.6240000000000006,36.028,31.262999999999998,39.888,34.66,51.311,40.096000000000004,67.103,52.9075,49.867999999999995,38.9185,65.267,51.019,49.4975,38.3685,65.023,50.2365,-0.25849999999999995,-0.20700000000000007,0.10541500000000001,0.111255,0.0,210.04333333333335,210.04000000000002,207.05333333333334,207.05333333333334,0.0,0.0
10,0.0,0.0,0.0,1.0,1.0,0.0,0.0,1.0,0.0,100.0,1.0,1.1856,26.0,0.0,0.0,0.0,59.999996,0.0,26.0,26.0,26.0,26.0,-0.0026249999999999885,0.28659999999999997,-0.017650000000000002,270.294,-2.3137,-2.3408888888888892,-1.804,-1.798125,-242.16,216.1825,190.76425,0.0,0.0,0.0,0.0,0.021066666666666668,-5.498166666666667,-5.498166666666667,-0.657,-0.8316666666666668,0.008624999999999883,0.366,67.199,0.0009999999999998899,-0.3784,-0.4875000000000007,100.0,1.0,1.0,207.28333333333333,0.0,0.0,0.0,0.0,0.0,0.0,0.0,8786.0,0.0,55.0,5.0,241.89,0.0,0.0,0.0,0.0,0.0,0.0,1.0,0.0,0.5069999999999979,0.5069999999999979,0.0,0.0,0.0,55.0,616.79921,10000.0,85.000001,85.000001,85.000001,85.000001,395.0,0.0,0.0,0.0,1.0,166.665,26.672,26.672,28.412,28.412,34.0,-13.292499999999997,14.942,-32.905,32.375,0.0,1782.981,-0.41000000000000014,100.0,35.9,35.397999999999996,25.558,25.3985,0.0,0.0,100.0,0.0,0.0,0.0,0.0,3036.0,3149.6,4160.285714285715,4084.8,305.5176666666667,304.769,314.84133333333335,314.6278,21.61288888888889,20.8485,22.233625,21.3944,314.999998,314.999998,324.999988,324.999988,99.54555714285715,99.51673333333333,99.58915714285715,99.54797142857143,0.22133333333333338,-0.20333333333333337,-0.12,0.127,-0.031500000000000306,-0.03500000000000014,1.523,1.5030000000000001,36.081,31.302999999999997,39.96,34.715,51.32,40.1315,67.12,52.965,49.876999999999995,38.951499999999996,65.282,51.074,49.5045,38.4,65.0345,50.29,-0.26249999999999996,-0.19599999999999995,0.107605,0.11268500000000001,0.0,210.42666666666668,210.45333333333332,207.28333333333333,207.28333333333333,0.0,0.0
11,0.0,0.0,0.0,1.0,1.0,0.0,0.0,1.0,0.0,100.0,1.0,1.1856,26.0,0.0,0.0,0.0,59.999996,0.0,26.0,26.0,26.0,26.0,0.03962500000000002,0.28,-0.07780000000000001,270.935,-2.3429,-2.313888888888889,-1.8439,-1.790875,-238.73,216.155,190.7435,0.0,0.0,0.0,0.0,0.022600000000000002,-5.498166666666667,-5.498166666666667,-0.7042,0.10333333333333339,0.024124999999999952,-0.06,67.337,0.021714285714285797,-0.396175,-0.6524999999999999,100.0,1.0,1.0,208.10666666666668,0.0,0.0,0.0,0.0,0.0,0.0,0.0,8820.8,0.0,55.0,5.0,242.39,1.0,0.0,0.0,0.0,0.0,0.0,1.0,0.0,0.5579999999999998,0.5579999999999998,0.0,0.0,1.0,55.0,616.79921,10000.0,85.000001,85.000001,85.000001,85.000001,395.0,0.0,0.0,0.0,1.0,333.33500000000004,25.955,25.955,30.365,30.365,34.0,-13.082499999999996,17.852,-25.447499999999998,28.6025,0.0,1782.929,-0.254999999999999,100.0,35.873,35.586,24.782,24.876,0.0,0.0,100.0,0.0,0.0,0.0,0.0,3206.0,3414.4,3584.285714285714,3670.5,304.975,304.089,316.33566666666667,315.7866,21.621777777777776,20.8555,22.245375,21.4034,314.999998,314.999998,324.999988,324.999988,99.54558571428572,99.51675,99.5893,99.54811428571429,0.2496666666666667,-0.16766666666666663,-0.08633333333333333,0.1563333333333332,-0.04824999999999946,-0.054499999999999105,1.741,1.694,36.135999999999996,31.3465,40.033,34.771,51.33,40.17,67.129,53.0195,49.885,38.9875,65.28999999999999,51.1265,49.5105,38.435,65.0385,50.341,-0.26049999999999995,-0.19650000000000012,0.10472500000000001,0.107795,0.0,210.85666666666668,210.90666666666667,208.10666666666668,208.10666666666668,0.0,0.0
12,0.0,0.0,0.0,1.0,1.0,0.0,0.0,1.0,0.0,100.0,1.0,1.1856,26.0,0.0,0.0,0.0,59.999996,0.0,26.0,26.0,26.0,26.0,0.06862499999999994,0.2856000000000001,0.06960000000000001,269.8975,-2.3865,-2.3096666666666668,-1.8098,-1.80225,-235.49,216.13,190.72225,0.0,0.0,0.0,0.0,0.025466666666666665,-5.498166666666667,-5.498166666666667,-0.6831,0.05799999999999994,0.006624999999999881,0.804,67.477,0.03485714285714314,-0.36560000000000004,-0.6325000000000003,100.0,1.0,1.0,208.17666666666668,0.0,0.0,0.0,0.0,0.0,0.0,0.0,8823.9,0.0,55.0,5.0,242.89,0.0,0.0,0.0,0.0,0.0,0.0,1.0,0.0,0.6059999999999981,0.6059999999999981,0.0,0.0,0.0,55.0,616.79921,10000.0,85.000001,85.000001,85.000001,85.000001,395.0,0.0,0.0,0.0,1.0,166.665,25.65,25.65,28.442,28.442,34.0,-11.899999999999999,19.483999999999998,-30.585,34.925,0.0,1782.881,-0.9399999999999995,100.0,35.911,35.856,25.182,25.0455,0.0,0.0,100.0,0.0,0.0,0.0,0.0,3293.222222222222,3461.9,4154.857142857143,4126.2,304.72133333333335,303.98833333333334,314.83933333333334,314.6562,21.630111111111113,20.862099999999998,22.256625,21.4119,314.999998,314.999998,324.999988,324.999988,99.54561428571428,99.51678333333334,99.58944285714286,99.54824285714285,0.28966666666666674,-0.14,-0.07566666666666667,0.17533333333333334,-0.03974999999999973,-0.05649999999999977,1.552,1.5190000000000001,36.188,31.387999999999998,40.104,34.824,51.34,40.2055,67.145,53.074,49.894,39.021,65.303,51.179,49.5175,38.467,65.049,50.391999999999996,-0.29100000000000004,-0.1705000000000001,0.108435,0.11638000000000001,0.0,211.31,211.35000000000002,208.17666666666668,208.17666666666668,0.0,0.0
13,0.0,0.0,0.0,1.0,1.0,0.0,0.0,1.0,0.0,100.0,1.0,1.1856,26.0,0.0,0.0,0.0,59.999996,0.0,26.0,26.0,26.0,26.0,0.06637500000000007,0.2782,0.04025,269.76,-2.3895,-2.2906666666666666,-1.8596,-1.767125,-232.05,216.10500000000002,190.700625,0.0,0.0,0.0,0.0,0.02696666666666667,-5.498166666666667,-5.498166666666667,-0.6882,-0.16333333333333333,0.028249999999999886,-0.437,67.62,0.045428571428571374,-0.399,-0.8149999999999995,100.0,1.0,1.0,208.65333333333334,0.0,0.0,0.0,0.0,0.0,0.0,0.0,8844.0,0.0,55.0,5.0,243.40666666666667,1.0,0.0,0.0,0.0,0.0,0.0,1.0,0.0,0.657,0.657,0.0,0.0,1.0,55.0,616.79921,10000.0,85.000001,85.000001,85.000001,85.000001,395.0,0.0,0.0,0.0,1.0,333.33500000000004,25.177,25.177,28.915,28.915,34.0,-13.174999999999997,18.186,-28.807499999999997,34.32,0.0,1782.829,-0.7050000000000001,100.0,36.04,36.488,25.162,25.622,0.0,0.0,100.0,0.0,0.0,0.0,0.0,3403.5555555555557,3381.0,3958.4285714285716,4110.9,304.4843333333333,304.0253333333333,315.3643333333333,314.6008,21.639222222222223,20.8691,22.268625,21.4212,314.999998,314.999998,324.999988,324.999988,99.54565714285714,99.5168,99.58958571428572,99.54841428571429,0.2743333333333333,-0.15500000000000003,-0.06466666666666668,0.17333333333333334,-0.047250000000000014,-0.06199999999999939,1.57,1.5350000000000001,36.245000000000005,31.432000000000002,40.179,34.882,51.357,40.2455,67.15899999999999,53.1385,49.909,39.058,65.315,51.2405,49.53,38.503,65.057,50.4525,-0.2845,-0.1785000000000001,0.10616,0.1154,0.0,211.73333333333335,211.79666666666668,208.65333333333334,208.65333333333334,0.0,0.0
14,0.0,0.0,0.0,1.0,1.0,0.0,0.0,1.0,0.0,100.0,1.0,1.1856,26.0,0.0,0.0,0.0,59.999996,0.0,26.0,26.0,26.0,26.0,0.10149999999999992,0.2813000000000001,0.0031000000000000003,270.1875,-2.3787000000000003,-2.2666666666666666,-1.8588,-1.7545000000000002,-228.6,216.08249999999998,190.6795,0.0,0.0,0.0,0.0,0.02896666666666667,-5.498166666666667,-5.498166666666667,-0.6929000000000001,-0.04166666666666674,0.05149999999999988,0.916,67.761,0.0608571428571425,-0.39905,-1.08,100.0,1.0,1.0,209.17000000000002,0.0,0.0,0.0,0.0,0.0,0.0,0.0,8865.9,0.0,55.0,5.0,243.91333333333336,0.0,0.0,0.0,0.0,0.0,0.0,1.0,0.0,0.7079999999999984,0.7079999999999984,0.0,0.0,0.0,55.0,616.79921,10000.0,85.000001,85.000001,85.000001,85.000001,395.0,0.0,0.0,0.0,1.0,166.665,25.681,25.681,29.205,29.205,34.0,-10.915,19.456,-25.915,34.43,0.0,1782.779,-0.5999999999999996,100.0,35.927,36.259,24.956,25.5175,0.0,0.0,100.0,0.0,0.0,0.0,0.0,3125.777777777778,3482.6,3796.8571428571427,4048.5,305.163,303.92466666666667,315.735,314.85,21.648222222222223,20.8762,22.2805,21.4304,314.999998,314.999998,324.999988,324.999988,99.54568571428571,99.51681666666667,99.58972857142857,99.54854285714286,0.29466666666666685,-0.134,-0.03666666666666667,0.20033333333333325,-0.04800000000000004,-0.04349999999999987,1.617,1.5780000000000003,36.301,31.476,40.253,34.94,51.370999999999995,40.278999999999996,67.169,53.194,49.921,39.0895,65.324,51.294,49.54,38.533500000000004,65.0625,50.5045,-0.2865,-0.18599999999999994,0.10421000000000001,0.10537,0.0,212.17000000000002,212.2266666666667,209.17000000000002,209.17000000000002,0.0,0.0
15,0.0,0.0,0.0,1.0,1.0,0.0,0.0,1.0,0.0,100.0,1.0,1.1856,26.0,0.0,0.0,0.0,59.999996,0.0,26.0,26.0,26.0,26.0,0.08949999999999991,0.2893000000000001,-0.06695000000000001,270.1415,-2.3971999999999998,-2.273888888888889,-1.8845,-1.7922500000000001,-225.14,216.0625,190.65775,0.0,0.0,0.0,0.0,0.03096666666666667,-5.498166666666667,-5.498166666666667,-0.6813,0.11599999999999999,0.07650000000000001,-0.895,67.904,0.07442857142857173,-0.37705,-0.8300000000000001,100.0,1.0,1.0,209.53333333333333,0.0,0.0,0.0,0.0,0.0,0.0,0.0,8881.3,0.0,55.0,5.0,244.42666666666668,1.0,0.0,0.0,0.0,0.0,0.0,1.0,0.0,0.7590000000000003,0.7590000000000003,0.0,0.0,1.0,55.0,616.79921,10000.0,85.000001,85.000001,85.000001,85.000001,395.0,0.0,0.0,0.0,1.0,166.665,25.97,25.97,28.976,28.976,34.0,-12.045000000000002,17.614,-27.5425,36.557500000000005,0.0,1782.73,-0.1899999999999995,100.0,35.691,36.388999999999996,24.72,25.73,0.0,0.0,100.0,0.0,0.0,0.0,0.0,3071.222222222222,3339.6,3955.8571428571427,4182.7,305.44466666666665,304.13033333333334,315.5126666666667,314.3856,21.65711111111111,20.8832,22.29225,21.4396,314.999998,314.999998,324.999988,324.999988,99.54572857142857,99.51683333333334,99.58985714285714,99.54868571428571,0.2693333333333332,-0.15800000000000003,-0.03933333333333334,0.19833333333333325,-0.04549999999999965,-0.03449999999999953,1.5979999999999999,1.5570000000000004,36.357,31.52,40.327,34.997,51.384,40.315,67.18,53.2545,49.933,39.1235,65.333,51.352000000000004,49.55,38.566,65.068,50.5615,-0.24849999999999994,-0.21500000000000008,0.10459500000000001,0.11489500000000001,0.0,212.61,212.66666666666669,209.53333333333333,209.53333333333333,0.0,0.0
16,0.0,0.0,0.0,1.0,1.0,0.0,0.0,1.0,0.0,100.0,1.0,1.1856,26.0,0.0,0.0,0.0,59.999996,0.0,26.0,26.0,26.0,26.0,0.0665,0.26990000000000003,-0.07665000000000001,270.1415,-2.4359,-2.239111111111111,-1.8449,-1.7501250000000002,-221.87,216.04500000000002,190.636875,0.0,0.0,0.0,0.0,0.03286666666666667,-5.498166666666667,-5.498166666666667,-0.7124,-0.637,0.046875,-1.285,68.036,0.07242857142857151,-0.40565,-0.35999999999999943,100.0,1.0,1.0,210.01999999999998,0.0,0.0,0.0,0.0,0.0,0.0,0.0,8902.0,0.0,55.0,5.0,244.90333333333334,0.0,0.0,0.0,0.0,0.0,0.0,1.0,0.0,0.8069999999999986,0.8069999999999986,0.0,0.0,0.0,55.0,616.79921,10000.0,85.000001,85.000001,85.000001,85.000001,395.0,0.0,0.0,0.0,1.0,166.665,25.375,25.375,29.221,29.221,34.0,-14.545000000000002,17.124,-26.0375,32.14,0.0,1782.68,0.07500000000000107,100.0,35.627,36.532,25.024,25.636,0.0,0.0,100.0,0.0,0.0,0.0,0.0,3370.777777777778,3451.7,3768.285714285714,3867.5,304.68733333333336,303.8933333333333,315.8263333333333,315.2154,21.665333333333333,20.8898,22.3035,21.4482,314.999998,314.999998,324.999988,324.999988,99.54575714285714,99.51685,99.59,99.54882857142857,0.2543333333333333,-0.17133333333333334,-0.04933333333333334,0.19199999999999995,-0.035499999999999865,-0.028999999999999915,1.624,1.6130000000000004,36.409,31.561500000000002,40.397,35.051,51.394,40.3505,67.19200000000001,53.309,49.941,39.1565,65.344,51.403999999999996,49.556,38.5985,65.0755,50.612,-0.22350000000000003,-0.24550000000000005,0.11171,0.1048,0.0,212.99666666666667,213.02666666666667,210.01999999999998,210.01999999999998,0.0,0.0
17,0.0,0.0,0.0,1.0,1.0,0.0,0.0,1.0,0.0,100.0,1.0,1.1856,26.0,0.0,0.0,0.0,59.999996,0.0,26.0,26.0,26.0,26.0,0.032625000000000126,0.29259999999999997,-0.01565,269.6685,-2.3857,-2.234888888888889,-1.8756,-1.7417500000000001,-218.4,216.0275,190.614125,0.0,0.0,0.0,0.0,0.0349,-5.498166666666667,-5.498166666666667,-0.6915,0.4663333333333334,0.019625000000000004,0.749,68.178,0.053857142857142826,-0.37555,-0.007500000000000284,100.0,1.0,1.0,210.31,0.0,0.0,0.0,0.0,0.0,0.0,0.0,8914.3,0.0,55.0,5.0,245.41,1.0,0.0,0.0,0.0,0.0,0.0,1.0,0.0,0.8580000000000005,0.8580000000000005,0.0,0.0,1.0,55.0,616.79921,10000.0,85.000001,85.000001,85.000001,85.000001,395.0,0.0,0.0,0.0,1.0,333.33500000000004,25.391,25.391,28.58,28.58,34.0,-13.837499999999999,15.77,-31.33,34.6775,0.0,1782.628,0.14499999999999957,100.0,36.225,36.549,25.09,25.438,0.0,0.0,100.0,0.0,0.0,0.0,0.0,3305.1111111111113,3315.1,4203.714285714285,4230.2,304.64733333333334,304.44933333333336,314.826,314.4756,21.674555555555557,20.8969,22.31525,21.4573,314.999998,314.999998,324.999988,324.999988,99.54578571428571,99.51688333333334,99.59014285714285,99.54898571428572,0.2543333333333333,-0.17999999999999994,-0.067,0.16966666666666685,-0.03725000000000023,-0.050499999999999545,1.561,1.5490000000000004,36.466,31.6055,40.471000000000004,35.108000000000004,51.409,40.388999999999996,67.204,53.3675,49.954,39.193,65.354,51.46,49.567,38.6335,65.082,50.667,-0.22150000000000003,-0.25,0.11017500000000001,0.10562,0.0,213.50666666666666,213.51333333333332,210.31,210.31,0.0,0.0
18,0.0,0.0,0.0,1.0,1.0,0.0,0.0,1.0,0.0,100.0,1.0,1.1856,26.0,0.0,0.0,0.0,59.999996,0.0,26.0,26.0,26.0,26.0,-0.0010000000000000009,0.28290000000000015,0.0091,269.745,-2.4102,-2.213888888888889,-1.8837000000000002,-1.71475,-214.92000000000002,216.01,190.591875,0.0,0.0,0.0,0.0,0.03693333333333333,-5.498166666666667,-5.498166666666667,-0.7155,-0.46633333333333327,0.029125000000000068,-0.734,68.31700000000001,0.03557142857142859,-0.41275,0.1974999999999998,100.0,1.0,1.0,210.84333333333333,0.0,0.0,0.0,0.0,0.0,0.0,0.0,8936.9,0.0,55.0,5.0,245.91666666666666,0.0,0.0,0.0,0.0,0.0,0.0,1.0,0.0,0.9089999999999989,0.9089999999999989,0.0,0.0,0.0,55.0,616.79921,10000.0,85.000001,85.000001,85.000001,85.000001,395.0,0.0,0.0,0.0,1.0,166.665,24.887,24.887,28.946,28.946,34.0,-16.200000000000003,15.686,-30.2625,29.8175,0.0,1782.579,0.19500000000000028,100.0,36.006,36.565,25.269,25.6355,0.0,0.0,100.0,0.0,0.0,0.0,0.0,3504.6666666666665,3536.0,3917.4285714285716,3935.6000000000004,304.2583333333333,303.6476666666667,315.534,315.1068,21.683444444444444,20.9039,22.32725,21.4666,314.999998,314.999998,324.999988,324.999988,99.54582857142857,99.5169,99.59028571428571,99.54912857142857,0.2313333333333334,-0.20099999999999996,-0.10133333333333333,0.1383333333333332,-0.05924999999999958,-0.027499999999999858,1.6,1.617,36.522,31.6495,40.545,35.166,51.421,40.428,67.216,53.4265,49.964,39.229,65.365,51.516999999999996,49.575,38.6685,65.0895,50.722,-0.22150000000000003,-0.25,0.10815000000000001,0.09573500000000001,0.0,213.91,213.86666666666667,210.84333333333333,210.84333333333333,0.0,0.0
19,0.0,0.0,0.0,1.0,1.0,0.0,0.0,1.0,0.0,100.0,1.0,1.1856,26.0,0.0,0.0,0.0,59.999996,0.0,26.0,26.0,26.0,26.0,-0.018000000000000016,0.2982,0.07725,269.3635,-2.313,-2.3352222222222223,-1.8805,-1.7155,-211.64,215.9975,190.5705,0.0,0.0,0.0,0.0,0.03883333333333333,-5.498166666666667,-5.498166666666667,-0.6929000000000001,0.9083333333333333,0.01937499999999992,-1.0130000000000001,68.44800000000001,0.020142857142857018,-0.383075,0.29749999999999943,100.0,1.0,1.0,211.14666666666668,0.0,0.0,0.0,0.0,0.0,0.0,0.0,8949.7,0.0,55.0,5.0,246.38666666666666,1.0,0.0,0.0,0.0,0.0,0.0,1.0,0.0,0.9570000000000007,0.9570000000000007,0.0,0.0,1.0,55.0,616.79921,10000.0,85.000001,85.000001,85.000001,85.000001,395.0,0.0,0.0,0.0,1.0,166.665,24.902,24.902,28.549,28.549,34.0,-15.165,14.958,-34.005,32.832499999999996,0.0,1782.53,0.22499999999999964,100.0,36.59,36.79,25.108,25.463,0.0,0.0,100.0,0.0,0.0,0.0,0.0,3395.1111111111113,3308.9,4241.428571428572,4267.2,304.44866666666667,304.1143333333333,314.82533333333333,314.3366,21.69211111111111,20.9106,22.33825,21.4752,314.999998,314.999998,324.999988,324.999988,99.54585714285714,99.51693333333333,99.59042857142857,99.54925714285714,0.22133333333333338,-0.22166666666666657,-0.11033333333333332,0.13166666666666682,-0.04774999999999974,-0.05649999999999977,1.532,1.5540000000000003,36.576,31.691499999999998,40.614000000000004,35.22,51.434,40.466499999999996,67.227,53.4805,49.976,39.2655,65.374,51.5685,49.585,38.7035,65.0955,50.772999999999996,-0.22099999999999997,-0.2590000000000001,0.10469,0.112625,0.0,214.36666666666667,214.32333333333332,211.14666666666668,211.14666666666668,0.0,0.0
20,0.0,0.0,0.0,1.0,1.0,0.0,0.0,1.0,0.0,100.0,1.0,1.1856,26.0,0.0,0.0,0.0,59.999996,0.0,26.0,26.0,26.0,26.0,0.00012499999999993072,0.26449999999999996,0.0233,269.943,-2.3913,-2.3084444444444445,-1.7909000000000002,-1.8485,-208.14,215.98000000000002,190.548125,0.0,0.0,0.0,0.0,0.04086666666666667,-5.498166666666667,-5.498166666666667,-0.7157,-1.495,0.006750000000000034,0.015,68.589,0.008714285714285896,-0.41792500000000005,0.2575000000000003,100.0,1.0,1.0,211.59333333333333,0.0,0.0,0.0,0.0,0.0,0.0,0.0,8968.7,0.0,55.0,5.0,246.89666666666665,0.0,0.0,0.0,0.0,0.0,0.0,0.0,0.0,1.0079999999999991,1.0079999999999991,0.0,0.0,0.0,55.0,616.79921,10000.0,85.000001,85.000001,85.000001,85.000001,395.0,0.0,0.0,0.0,1.0,333.33500000000004,25.589,25.589,28.717,28.717,34.0,-15.344999999999999,15.286000000000001,-29.802500000000002,31.23,0.0,1782.478,0.28500000000000014,100.0,36.233000000000004,36.213,25.822,25.6255,0.0,0.0,100.0,0.0,0.0,0.0,0.0,3252.777777777778,3392.5,3881.285714285714,3919.3,304.9293333333333,304.25866666666667,315.4603333333333,315.0784,21.701,20.9175,22.35025,21.4845,314.999998,314.999998,324.999988,324.999988,99.54588571428572,99.51696666666666,99.59057142857142,99.54941428571429,0.21900000000000008,-0.21299999999999997,-0.113,0.1286666666666667,-0.027000000000000135,-0.0470000000000006,1.55,1.5670000000000002,36.631,31.7345,40.689,35.278,51.442,40.5055,67.243,53.5385,49.983000000000004,39.302,65.388,51.6245,49.59,38.7385,65.1055,50.8275,-0.21899999999999997,-0.25249999999999995,0.100555,0.10656500000000001,0.0,214.70666666666668,214.70333333333332,211.59333333333333,211.59333333333333,0.0,0.0
21,0.0,0.0,0.0,1.0,1.0,0.0,0.0,1.0,0.0,100.0,1.0,1.1856,26.0,0.0,0.0,0.0,59.999996,0.0,26.0,26.0,26.0,26.0,-0.028124999999999956,0.29069999999999996,-0.02755,269.9585,-2.3467000000000002,-2.3214444444444444,-1.8467,-1.814375,-204.64,215.965,190.52475,0.0,0.0,0.0,0.0,0.0429,-5.498166666666667,-5.498166666666667,-0.7214,0.9463333333333334,-0.019750000000000156,-0.885,68.723,-0.005428571428571338,-0.38735,0.3800000000000008,100.0,1.0,1.0,212.13,0.0,0.0,0.0,0.0,0.0,0.0,0.0,8991.4,0.0,55.0,5.0,247.37666666666667,1.0,0.0,0.0,0.0,0.0,0.0,0.0,0.0,1.059000000000001,1.059000000000001,0.0,0.0,1.0,55.0,616.79921,10000.0,85.000001,85.000001,85.000001,85.000001,395.0,0.0,0.0,0.0,1.0,166.665,25.269,25.269,29.205,29.205,34.0,-16.2975,14.296,-32.75,29.19,0.0,1782.429,0.15500000000000114,100.0,36.5,36.442,25.102,25.0505,0.0,0.0,100.0,0.0,0.0,0.0,0.0,3431.222222222222,3260.0,4088.0,3911.3,304.44666666666666,304.4166666666667,315.2033333333333,315.219,21.71011111111111,20.924599999999998,22.361875,21.4934,314.999998,314.999998,324.999988,324.999988,99.54591428571429,99.51698333333333,99.59071428571428,99.54955714285714,0.20933333333333337,-0.22499999999999998,-0.134,0.10499999999999998,-0.04750000000000032,-0.03399999999999892,1.6280000000000001,1.6280000000000001,36.688,31.7785,40.762,35.334,51.454,40.5465,67.252,53.591499999999996,49.994,39.3405,65.396,51.6755,49.5985,38.775999999999996,65.1095,50.8765,-0.22450000000000003,-0.2490000000000001,0.10827,0.11010500000000001,0.0,215.21,215.18333333333334,212.13,212.13,0.0,0.0
22,0.0,0.0,0.0,1.0,1.0,0.0,0.0,1.0,0.0,100.0,1.0,1.1856,26.0,0.0,0.0,0.0,59.999996,0.0,26.0,26.0,26.0,26.0,-0.038250000000000006,0.2762,-0.0008,269.638,-2.2835,-2.369111111111111,-1.8514,-1.7998750000000001,-201.34,215.9475,190.50225,0.0,0.0,0.0,0.0,0.0448,-5.498166666666667,-5.498166666666667,-0.7093,-0.45133333333333336,-0.008249999999999869,-0.656,68.856,-0.011714285714285788,-0.394925,0.2575000000000003,100.0,1.0,1.0,212.36,0.0,0.0,0.0,0.0,0.0,0.0,0.0,9001.2,0.0,55.0,5.0,247.85666666666668,0.0,0.0,0.0,0.0,0.0,0.0,0.0,0.0,1.1069999999999993,1.1069999999999993,0.0,0.0,0.0,55.0,616.79921,10000.0,85.000001,85.000001,85.000001,85.000001,395.0,0.0,0.0,0.0,1.0,166.665,25.451999999999998,25.451999999999998,28.381,28.381,34.0,-15.092500000000001,14.086,-34.1725,30.79,0.0,1782.381,0.07000000000000028,100.0,36.519,36.489000000000004,25.767,25.592,0.0,0.0,100.0,0.0,0.0,0.0,0.0,3259.3333333333335,3220.7,4113.857142857143,4078.9,304.89866666666666,304.50266666666664,315.06233333333336,314.6814,21.718666666666667,20.9312,22.37325,21.5022,314.999998,314.999998,324.999988,324.999988,99.54594285714286,99.51701666666666,99.59085714285715,99.54968571428572,0.20199999999999996,-0.236,-0.14466666666666667,0.09766666666666679,-0.04300000000000015,-0.03200000000000003,1.535,1.5330000000000004,36.742000000000004,31.82,40.832,35.388999999999996,51.465,40.585,67.267,53.6475,50.003,39.376,65.40899999999999,51.729,49.6055,38.81,65.12,50.929,-0.22850000000000004,-0.246,0.10817,0.10712500000000001,0.0,215.59333333333333,215.54000000000002,212.36,212.36,0.0,0.0
23,0.0,0.0,0.0,1.0,1.0,0.0,0.0,1.0,0.0,100.0,1.0,1.1856,26.0,0.0,0.0,0.0,59.999996,0.0,26.0,26.0,26.0,26.0,-0.029249999999999998,0.24870000000000014,-0.0671,269.821,-2.3034,-2.3294444444444444,-1.8923,-1.7795,-197.82,215.93,190.479,0.0,0.0,0.0,0.0,0.04686666666666667,-5.498166666666667,-5.498166666666667,-0.7336,0.16366666666666663,-0.012500000000000178,0.784,68.99000000000001,-0.011285714285714121,-0.420125,0.20250000000000057,100.0,1.0,1.0,213.00666666666666,0.0,0.0,0.0,0.0,0.0,0.0,0.0,9028.5,0.0,55.0,5.0,248.33666666666664,1.0,0.0,0.0,0.0,0.0,0.0,0.0,0.0,1.1580000000000013,1.1580000000000013,0.0,0.0,1.0,55.0,616.79921,10000.0,85.000001,85.000001,85.000001,85.000001,395.0,0.0,0.0,0.0,1.0,333.33500000000004,24.658,24.658,29.755,29.755,34.0,-15.564999999999998,15.24,-30.8275,28.065,0.0,1782.328,-0.004999999999999005,100.0,37.086,36.433,25.554,25.331,0.0,0.0,100.0,0.0,0.0,0.0,0.0,3446.6666666666665,3405.6,3816.5714285714284,3783.1,304.157,304.1723333333333,315.812,315.5986,21.727777777777778,20.938299999999998,22.384999999999998,21.511400000000002,314.999998,314.999998,324.999988,324.999988,99.54597142857143,99.51705,99.591,99.54982857142858,0.2186666666666668,-0.22033333333333338,-0.13533333333333333,0.11833333333333318,-0.03950000000000031,-0.04499999999999993,1.6179999999999999,1.6429999999999998,36.799,31.863999999999997,40.906,35.446,51.477000000000004,40.6265,67.278,53.7025,50.013999999999996,39.4155,65.419,51.782,49.6145,38.848,65.126,50.980000000000004,-0.24149999999999994,-0.23750000000000004,0.10548,0.11100000000000002,0.0,216.0,215.99,213.00666666666666,213.00666666666666,0.0,0.0
24,0.0,0.0,0.0,1.0,1.0,0.0,0.0,1.0,0.0,100.0,1.0,1.1856,26.0,0.0,0.0,0.0,59.999996,0.0,26.0,26.0,26.0,26.0,-0.01749999999999996,0.28469999999999995,-0.028450000000000003,269.974,-2.3425000000000002,-2.326888888888889,-1.8241,-1.79825,-194.51,215.9125,190.456125,0.0,0.0,0.0,0.0,0.04876666666666667,-5.498166666666667,-5.498166666666667,-0.7355,-0.8956666666666668,0.007249999999999979,0.859,69.12100000000001,-0.006142857142857006,-0.399775,0.037499999999999645,100.0,1.0,1.0,213.19,0.0,0.0,0.0,0.0,0.0,0.0,0.0,9036.3,0.0,55.0,5.0,248.81333333333333,0.0,0.0,0.0,0.0,0.0,0.0,0.0,0.0,1.2059999999999995,1.2059999999999995,0.0,0.0,0.0,55.0,616.79921,10000.0,85.000001,85.000001,85.000001,85.000001,395.0,0.0,0.0,0.0,1.0,333.33500000000004,25.878999999999998,25.878999999999998,28.58,28.58,34.0,-14.162500000000001,14.636,-32.345,30.8175,0.0,1782.28,-0.015000000000000568,100.0,36.589,36.178,25.677,25.3515,0.0,0.0,100.0,0.0,0.0,0.0,0.0,3080.777777777778,3261.9,4068.1428571428573,4040.3,305.387,304.62333333333333,315.077,314.8936,21.73611111111111,20.9447,22.396125,21.52,314.999998,314.999998,324.999988,324.999988,99.546,99.51708333333333,99.59112857142857,99.54997142857142,0.21500000000000008,-0.21699999999999997,-0.122,0.11133333333333328,-0.04549999999999965,-0.037499999999999645,1.553,1.5570000000000004,36.851,31.9045,40.976,35.5,51.485,40.6625,67.292,53.756,50.021,39.449,65.431,51.833,49.62,38.879999999999995,65.1345,51.03,-0.23549999999999993,-0.23350000000000004,0.105175,0.107325,0.0,216.38,216.38333333333333,213.19,213.19,0.0,0.0
25,0.0,0.0,0.0,1.0,1.0,0.0,0.0,1.0,0.0,100.0,1.0,1.1856,26.0,0.0,0.0,0.0,59.999996,0.0,26.0,26.0,26.0,26.0,-0.010624999999999996,0.27470000000000017,-0.014950000000000001,269.348,-2.3853,-2.301111111111111,-1.8597000000000001,-1.8175,-190.76999999999998,215.89249999999998,190.428875,0.0,0.0,0.0,0.0,0.050966666666666674,-5.498166666666667,-5.498166666666667,-0.7664000000000001,0.6183333333333333,-0.006124999999999936,-0.169,69.262,-0.0007142857142856673,-0.407075,0.0024999999999995026,100.0,1.0,1.0,213.79333333333335,0.0,0.0,0.0,0.0,0.0,0.0,0.0,9061.9,0.0,55.0,5.0,249.31666666666666,1.0,0.0,0.0,0.0,0.0,0.0,0.0,0.0,1.259999999999998,1.259999999999998,0.0,0.0,1.0,55.0,616.79921,10000.0,85.000001,85.000001,85.000001,85.000001,395.0,0.0,0.0,0.0,1.0,166.665,23.911,23.911,29.297,29.297,34.0,-16.589999999999996,17.362000000000002,-30.497500000000002,29.8575,0.0,1782.228,-0.07499999999999929,100.0,36.986000000000004,36.792,25.339,25.136,0.0,0.0,100.0,0.0,0.0,0.0,0.0,3635.0,3686.6,3897.5714285714284,3882.7,303.72766666666666,303.3306666666667,315.63,315.31,21.745666666666665,20.9523,22.4085,21.5296,314.999998,314.999998,324.999988,324.999988,99.54602857142856,99.51711666666667,99.5913,99.55012857142857,0.23399999999999999,-0.20266666666666666,-0.12066666666666667,0.125,-0.04174999999999951,-0.038000000000000256,1.633,1.6370000000000005,36.91,31.951999999999998,41.053,35.56,51.497,40.707499999999996,67.30199999999999,53.8125,50.031,39.4905,65.439,51.8875,49.628,38.920500000000004,65.1395,51.083,-0.247,-0.2370000000000001,0.11158000000000001,0.10843000000000001,0.0,216.84,216.83333333333331,213.79333333333335,213.79333333333335,0.0,0.0
26,0.0,0.0,0.0,1.0,1.0,0.0,0.0,1.0,0.0,100.0,1.0,1.1856,26.0,0.0,0.0,0.0,59.999996,0.0,26.0,26.0,26.0,26.0,-0.0003750000000000142,0.2804,0.12085,268.5395,-2.3581000000000003,-2.363777777777778,-1.8357,-1.8011249999999999,-187.45,215.875,190.40475,0.0,0.0,0.0,0.0,0.0529,-5.498166666666667,-5.498166666666667,-0.7268,0.014333333333333309,-0.004624999999999879,1.125,69.394,0.0040000000000000036,-0.39985000000000004,-0.14250000000000007,100.0,1.0,1.0,213.86,0.0,0.0,0.0,0.0,0.0,0.0,0.0,9064.7,0.0,55.0,5.0,249.79000000000002,0.0,0.0,0.0,0.0,0.0,0.0,0.0,0.0,1.3079999999999998,1.3079999999999998,0.0,0.0,0.0,55.0,616.79921,10000.0,85.000001,85.000001,85.000001,85.000001,395.0,0.0,0.0,0.0,1.0,166.665,24.338,24.338,27.42,27.42,34.0,-14.262499999999996,16.168,-35.0125,36.5875,0.0,1782.18,-0.1850000000000005,100.0,37.586,37.238,26.109,25.847,0.0,0.0,100.0,0.0,0.0,0.0,0.0,3272.8888888888887,3391.9,4377.285714285715,4456.0,304.63733333333334,304.194,314.3163333333333,313.918,21.754333333333335,20.9591,22.41975,21.5385,314.999998,314.999998,324.999988,324.999988,99.54605714285714,99.51715,99.59142857142857,99.55027142857143,0.2390000000000001,-0.20899999999999996,-0.10366666666666667,0.1373333333333333,-0.025749999999999496,-0.03950000000000031,1.471,1.4649999999999999,36.965,31.994500000000002,41.123999999999995,35.616,51.512,40.7475,67.318,53.869,50.044,39.528,65.45400000000001,51.9415,49.638999999999996,38.9565,65.1505,51.1355,-0.25649999999999995,-0.2330000000000001,0.10403000000000001,0.11343500000000001,0.0,217.24666666666667,217.26,213.86,213.86,0.0,0.0
27,0.0,0.0,0.0,1.0,1.0,0.0,0.0,1.0,0.0,100.0,1.0,1.1856,26.0,0.0,0.0,0.0,59.999996,0.0,26.0,26.0,26.0,26.0,0.0044999999999999485,0.2509000000000001,-0.08375,269.7295,-2.3543000000000003,-2.3257777777777777,-1.8767,-1.861875,-184.11,215.85750000000002,190.382,0.0,0.0,0.0,0.0,0.05483333333333334,-5.498166666666667,-5.498166666666667,-0.7746000000000001,-0.9283333333333332,-0.004249999999999865,0.218,69.516,0.008857142857142897,-0.456675,-0.23000000000000043,100.0,1.0,1.0,214.61333333333334,0.0,0.0,0.0,0.0,0.0,0.0,0.0,9096.7,0.0,55.0,5.0,250.23666666666668,1.0,0.0,0.0,0.0,0.0,0.0,0.0,0.0,1.355999999999998,1.355999999999998,0.0,0.0,1.0,55.0,616.79921,10000.0,85.000001,85.000001,85.000001,85.000001,395.0,0.0,0.0,0.0,1.0,166.665,24.506,24.506,29.327,29.327,34.0,-13.887499999999996,16.912,-28.122500000000002,28.8675,0.0,1782.132,-0.254999999999999,100.0,37.161,37.078,25.893,25.77,0.0,0.0,100.0,0.0,0.0,0.0,0.0,3333.222222222222,3462.4,3631.4285714285716,3661.0,304.70533333333333,303.97433333333333,316.11966666666666,315.7832,21.762666666666668,20.9659,22.430875,21.5472,314.999998,314.999998,324.999988,324.999988,99.54608571428571,99.51716666666667,99.59157142857143,99.5504,0.248,-0.19466666666666665,-0.114,0.13566666666666682,-0.04324999999999957,-0.04749999999999943,1.631,1.6340000000000003,37.016999999999996,32.036500000000004,41.193,35.67,51.522999999999996,40.7855,67.328,53.921,50.054,39.5635,65.463,51.9915,49.6465,38.991,65.156,51.184,-0.26449999999999996,-0.22599999999999998,0.11170000000000001,0.10412500000000001,0.0,217.59,217.59,214.61333333333334,214.61333333333334,0.0,0.0
28,0.0,0.0,0.0,1.0,1.0,0.0,0.0,1.0,0.0,100.0,1.0,1.1856,26.0,0.0,0.0,0.0,59.999996,0.0,26.0,26.0,26.0,26.0,0.012124999999999941,0.2873000000000001,-0.01805,269.3635,-2.3164,-2.309111111111111,-1.848,-1.799,-180.56,215.8375,190.356,0.0,0.0,0.0,0.0,0.056900000000000006,-5.498166666666667,-5.498166666666667,-0.7543000000000001,0.7586666666666666,-0.00912500000000005,-0.328,69.651,0.021285714285714352,-0.392425,-0.34500000000000064,100.0,1.0,1.0,214.85333333333335,0.0,0.0,0.0,0.0,0.0,0.0,0.0,9106.9,0.0,55.0,5.0,250.72,0.0,0.0,0.0,0.0,0.0,0.0,0.0,0.0,1.407,1.407,0.0,0.0,0.0,55.0,616.79921,10000.0,85.000001,85.000001,85.000001,85.000001,395.0,0.0,0.0,0.0,1.0,166.665,24.765,24.765,28.687,28.687,34.0,-13.780000000000001,15.76,-32.34,32.315,0.0,1782.08,-0.20999999999999908,100.0,37.051,37.124,25.319,25.447,0.0,0.0,100.0,0.0,0.0,0.0,0.0,3333.4444444444443,3286.7,4180.571428571428,4098.9,304.66833333333335,304.376,315.028,314.7696,21.77166666666667,20.973,22.4425,21.5563,314.999998,314.999998,324.999988,324.999988,99.54611428571428,99.5172,99.59171428571429,99.55055714285714,0.2426666666666668,-0.19599999999999995,-0.10200000000000001,0.131,-0.04974999999999952,-0.00849999999999973,1.571,1.564,37.073,32.081,41.265,35.727000000000004,51.537,40.8245,67.338,53.9755,50.066,39.6005,65.471,52.0435,49.6565,39.0265,65.161,51.2345,-0.26,-0.21950000000000003,0.10627,0.109395,0.0,218.05333333333334,218.05333333333334,214.85333333333335,214.85333333333335,0.0,0.0
29,0.0,0.0,0.0,1.0,1.0,0.0,0.0,1.0,0.0,100.0,1.0,1.1856,26.0,0.0,0.0,0.0,59.999996,0.0,26.0,26.0,26.0,26.0,0.04150000000000009,0.25750000000000006,-0.009850000000000001,269.333,-2.3081,-2.3513333333333333,-1.8304,-1.7995,-177.01,215.82,190.3295,0.0,0.0,0.0,0.0,0.05896666666666667,-5.498166666666667,-5.498166666666667,-0.7825000000000001,-0.9483333333333333,0.0035000000000000586,0.674,69.786,0.030571428571428694,-0.433475,-0.3949999999999996,100.0,1.0,1.0,215.25,0.0,0.0,0.0,0.0,0.0,0.0,0.0,9123.7,0.0,55.0,5.0,251.20666666666665,1.0,0.0,0.0,0.0,0.0,0.0,0.0,0.0,1.4579999999999984,1.4579999999999984,0.0,0.0,1.0,55.0,616.79921,10000.0,85.000001,85.000001,85.000001,85.000001,395.0,0.0,0.0,0.0,1.0,333.33500000000004,24.46,24.46,28.961,28.961,34.0,-13.339999999999996,17.506,-28.2225,33.045,0.0,1782.028,-0.24499999999999922,100.0,36.957,37.037,25.793,25.8075,0.0,0.0,100.0,0.0,0.0,0.0,0.0,3367.4444444444443,3472.4,3805.4285714285716,4038.2,304.4773333333333,303.91333333333336,315.69533333333334,314.8854,21.780555555555555,20.9802,22.454375,21.5657,314.999998,314.999998,324.999988,324.999988,99.54615714285714,99.51723333333334,99.59188571428571,99.55071428571429,0.2533333333333332,-0.19033333333333335,-0.08466666666666667,0.15566666666666684,-0.051249999999999574,-0.03549999999999898,1.564,1.5520000000000005,37.129000000000005,32.126,41.34,35.786,51.549,40.8665,67.352,54.0375,50.077,39.6395,65.483,52.103,49.6655,39.064,65.169,51.292500000000004,-0.255,-0.22799999999999998,0.10715000000000001,0.10105000000000001,0.0,218.41333333333333,218.43333333333334,215.25,215.25,0.0,0.0
30,0.0,0.0,0.0,1.0,1.0,0.0,0.0,1.0,0.0,100.0,1.0,1.1856,26.0,0.0,0.0,0.0,59.999996,0.0,26.0,26.0,26.0,26.0,0.038000000000000034,0.2670000000000001,-0.020050000000000002,268.738,-2.3277,-2.337222222222222,-1.8935,-1.721125,-173.44,215.8025,190.303,0.0,0.0,0.0,0.0,0.06103333333333334,-5.498166666666667,-5.498166666666667,-0.7578,1.1603333333333334,0.00012499999999993072,-0.219,69.917,0.03442857142857125,-0.406325,-0.3725000000000005,100.0,1.0,1.0,215.65,0.0,0.0,0.0,0.0,0.0,0.0,0.0,9140.7,0.0,55.0,5.0,251.67666666666668,0.0,0.0,0.0,0.0,0.0,0.0,1.0,0.0,1.5090000000000003,1.5090000000000003,0.0,0.0,0.0,55.0,616.79921,10000.0,85.000001,85.000001,85.000001,85.000001,395.0,0.0,0.0,0.0,1.0,166.665,23.727,23.727,28.29,28.29,34.0,-13.574999999999996,17.336,-33.295,32.16,0.0,1781.979,-0.28999999999999915,100.0,37.653,37.855000000000004,25.468,25.7455,0.0,0.0,100.0,0.0,0.0,0.0,0.0,3471.6666666666665,3429.6,4272.0,4117.7,304.239,303.9916666666667,314.84366666666665,314.859,21.78977777777778,20.9876,22.466,21.5749,314.999998,314.999998,324.999988,324.999988,99.5462,99.51725,99.59201428571428,99.55085714285714,0.2610000000000001,-0.18666666666666665,-0.09166666666666667,0.14933333333333332,-0.055749999999999744,-0.04849999999999888,1.565,1.5670000000000002,37.186,32.1725,41.413,35.843,51.567,40.9065,67.361,54.0895,50.093,39.677,65.491,52.153,49.679,39.1005,65.174,51.341,-0.26849999999999996,-0.21999999999999997,0.10836000000000001,0.10451,0.0,218.89666666666668,218.92000000000002,215.65,215.65,0.0,0.0
31,0.0,0.0,0.0,1.0,1.0,0.0,0.0,1.0,0.0,100.0,1.0,1.1856,26.0,0.0,0.0,0.0,59.999996,0.0,26.0,26.0,26.0,26.0,0.03574999999999995,0.24960000000000004,0.02295,268.646,-2.4295999999999998,-2.219666666666667,-1.8466,-1.847375,-170.07999999999998,215.7875,190.279,0.0,0.0,0.0,0.0,0.06296666666666667,-5.498166666666667,-5.498166666666667,-0.7657,-0.869,0.00649999999999995,-0.763,70.044,0.040142857142857036,-0.4431,-0.3774999999999995,100.0,1.0,1.0,215.99666666666667,0.0,0.0,0.0,0.0,0.0,0.0,0.0,9155.3,0.0,55.0,5.0,252.13333333333333,1.0,0.0,0.0,0.0,0.0,0.0,1.0,0.0,1.5569999999999986,1.5569999999999986,0.0,0.0,1.0,55.0,616.79921,10000.0,85.000001,85.000001,85.000001,85.000001,395.0,0.0,0.0,0.0,1.0,166.665,23.560000000000002,23.560000000000002,28.061,28.061,34.0,-14.6725,17.502000000000002,-30.2125,33.6325,0.0,1781.93,-0.3100000000000005,100.0,37.297,37.956,25.991,26.3035,0.0,0.0,100.0,0.0,0.0,0.0,0.0,3507.3333333333335,3621.6,3988.5714285714284,4037.8,304.30733333333336,303.4356666666667,315.37333333333333,314.899,21.798111111111112,20.9945,22.477249999999998,21.5838,314.999998,314.999998,324.999988,324.999988,99.54622857142857,99.51726666666667,99.59215714285715,99.551,0.264,-0.17833333333333334,-0.09,0.15399999999999991,-0.0495000000000001,-0.032999999999999474,1.556,1.5339999999999998,37.238,32.2155,41.483000000000004,35.899,51.579,40.9445,67.375,54.146,50.104,39.7125,65.503,52.207,49.688,39.1345,65.182,51.394,-0.261,-0.21750000000000003,0.10781,0.10408500000000001,0.0,219.21333333333334,219.25,215.99666666666667,215.99666666666667,0.0,0.0
32,0.0,0.0,0.0,1.0,1.0,0.0,0.0,1.0,0.0,100.0,1.0,1.1856,26.0,0.0,0.0,0.0,59.999996,0.0,26.0,26.0,26.0,26.0,0.054624999999999924,0.2673000000000001,-0.0032500000000000003,269.15,-2.3336,-2.329888888888889,-1.8243,-1.82925,-166.3,215.76999999999998,190.251625,0.0,0.0,0.0,0.0,0.06516666666666666,-5.498166666666667,-5.498166666666667,-0.7777000000000001,0.016666666666666607,-0.019375000000000142,-0.605,70.181,0.046428571428571264,-0.4298,-0.4900000000000002,100.0,1.0,1.0,216.49333333333334,0.0,0.0,0.0,0.0,0.0,0.0,0.0,9176.3,0.0,55.0,5.0,252.63,0.0,0.0,0.0,0.0,0.0,0.0,1.0,0.0,1.6110000000000007,1.6110000000000007,0.0,0.0,0.0,55.0,616.79921,10000.0,85.000001,85.000001,85.000001,85.000001,395.0,0.0,0.0,0.0,1.0,166.665,24.261,24.261,28.854,28.854,34.0,-12.740000000000002,16.732,-28.6875,34.3175,0.0,1781.878,-0.2699999999999996,100.0,37.234,37.897999999999996,25.534,25.9455,0.0,0.0,100.0,0.0,0.0,0.0,0.0,3371.1111111111113,3270.3,3925.714285714286,4041.0,304.5903333333333,304.42133333333334,315.50233333333335,314.8154,21.807666666666666,21.0022,22.489375,21.5935,314.999998,314.999998,324.999988,324.999988,99.54627142857143,99.5173,99.59231428571428,99.55115714285714,0.26900000000000013,-0.17966666666666664,-0.07866666666666668,0.17133333333333334,-0.03624999999999989,-0.04100000000000037,1.593,1.553,37.298,32.2635,41.559,35.96,51.595,40.9855,67.384,54.204,50.117999999999995,39.751,65.511,52.263,49.7,39.1715,65.1855,51.448,-0.263,-0.2230000000000001,0.10677,0.11467500000000001,0.0,219.66,219.71,216.49333333333334,216.49333333333334,0.0,0.0
33,0.0,0.0,0.0,1.0,1.0,0.0,0.0,1.0,0.0,100.0,1.0,1.1856,26.0,0.0,0.0,0.0,59.999996,0.0,26.0,26.0,26.0,26.0,0.06150000000000011,0.2573000000000001,-0.052250000000000005,269.1195,-2.3914999999999997,-2.304777777777778,-1.8543,-1.82725,-163.14,215.7575,190.227625,0.0,0.0,0.0,0.0,0.06703333333333333,-5.498166666666667,-5.498166666666667,-0.7876000000000001,-0.5283333333333333,0.002874999999999961,1.247,70.298,0.04971428571428582,-0.42610000000000003,-0.4375,100.0,1.0,1.0,216.8,0.0,0.0,0.0,0.0,0.0,0.0,0.0,9189.4,0.0,55.0,5.0,253.05,1.0,0.0,0.0,0.0,0.0,0.0,1.0,0.0,1.6559999999999988,1.6559999999999988,0.0,0.0,1.0,55.0,616.79921,10000.0,85.000001,85.000001,85.000001,85.000001,395.0,0.0,0.0,0.0,1.0,166.665,24.261,24.261,28.915,28.915,34.0,-13.255000000000003,17.497999999999998,-28.2875,35.115,0.0,1781.832,-0.2599999999999998,100.0,37.247,37.726,25.616,25.990000000000002,0.0,0.0,100.0,0.0,0.0,0.0,0.0,3324.6666666666665,3371.5,3860.8571428571427,4104.4,304.64433333333335,304.263,315.60366666666664,314.7336,21.815444444444445,21.0084,22.499625,21.6018,314.999998,314.999998,324.999988,324.999988,99.54631428571429,99.51731666666667,99.59244285714286,99.55128571428571,0.26866666666666683,-0.16866666666666663,-0.07,0.17766666666666686,-0.027499999999999858,-0.024499999999999744,1.564,1.5540000000000003,37.347,32.3025,41.623000000000005,36.010999999999996,51.608000000000004,41.0175,67.393,54.254999999999995,50.129000000000005,39.781,65.518,52.3115,49.709,39.2005,65.19,51.4955,-0.26,-0.22550000000000003,0.10584500000000001,0.10802,0.0,219.99,220.0233333333333,216.8,216.8,0.0,0.0
34,0.0,0.0,0.0,1.0,1.0,0.0,0.0,1.0,0.0,100.0,1.0,1.1856,26.0,0.0,0.0,0.0,59.999996,0.0,26.0,26.0,26.0,26.0,0.04187500000000011,0.2674000000000001,-0.06295,269.4395,-2.4127,-2.2305555555555556,-1.9184,-1.7618749999999999,-159.55,215.745,190.199375,0.0,0.0,0.0,0.0,0.06910000000000001,-5.498166666666667,-5.498166666666667,-0.8236,-0.7966666666666669,0.026000000000000023,-0.356,70.42699999999999,0.04971428571428582,-0.44045,-0.3774999999999995,100.0,1.0,1.0,217.25333333333333,0.0,0.0,0.0,0.0,0.0,0.0,0.0,9208.6,0.0,55.0,5.0,253.51666666666665,0.0,0.0,0.0,0.0,0.0,0.0,1.0,0.0,1.7070000000000007,1.7070000000000007,0.0,0.0,0.0,55.0,616.79921,10000.0,85.000001,85.000001,85.000001,85.000001,395.0,0.0,0.0,0.0,1.0,333.33500000000004,24.689,24.689,29.144,29.144,34.0,-12.604999999999997,16.192,-29.0975,32.955,0.0,1781.779,-0.3149999999999995,100.0,36.9,37.604,25.318,26.064500000000002,0.0,0.0,100.0,0.0,0.0,0.0,0.0,3254.4444444444443,3331.8,3870.1428571428573,4011.8,304.9153333333333,304.27233333333334,315.7006666666667,314.9682,21.824333333333335,21.0156,22.511125,21.6111,314.999998,314.999998,324.999988,324.999988,99.54634285714286,99.51735,99.59258571428572,99.55144285714286,0.27900000000000014,-0.17566666666666664,-0.075,0.17266666666666675,-0.05525000000000002,-0.06049999999999933,1.597,1.5860000000000003,37.402,32.347,41.695,36.069,51.622,41.0545,67.4,54.312,50.141,39.816,65.524,52.367,49.719,39.234,65.1925,51.549,-0.27049999999999996,-0.21649999999999991,0.10712,0.112765,0.0,220.40666666666667,220.44,217.25333333333333,217.25333333333333,0.0,0.0
35,0.0,0.0,0.0,1.0,1.0,0.0,0.0,1.0,0.0,100.0,1.0,1.1856,26.0,0.0,0.0,0.0,59.999996,0.0,26.0,26.0,26.0,26.0,0.050875000000000004,0.25280000000000014,-0.05595,269.1805,-2.4644000000000004,-2.262888888888889,-1.873,-1.767625,-155.74,215.73250000000002,190.167,0.0,0.0,0.0,0.0,0.07133333333333335,-5.498166666666667,-5.498166666666667,-0.8484,0.29466666666666663,-0.007000000000000117,-1.534,70.563,0.0517142857142856,-0.424825,-0.4350000000000005,100.0,1.0,1.0,217.72,0.0,0.0,0.0,0.0,0.0,0.0,0.0,9228.4,0.0,55.0,5.0,254.00333333333333,1.0,0.0,0.0,0.0,0.0,0.0,1.0,0.0,1.7609999999999992,1.7609999999999992,0.0,0.0,1.0,55.0,616.79921,10000.0,85.000001,85.000001,85.000001,85.000001,395.0,0.0,0.0,0.0,1.0,166.665,23.911,23.911,28.732,28.732,34.0,-15.267499999999998,17.744,-28.4725,32.375,0.0,1781.727,-0.20500000000000007,100.0,36.796,37.999,25.199,25.566,0.0,0.0,100.0,0.0,0.0,0.0,0.0,3531.222222222222,3548.8,3885.5714285714284,3950.3,304.3833333333333,303.48566666666665,315.679,315.2036,21.833555555555556,21.0234,22.52325,21.6208,314.999998,314.999998,324.999988,324.999988,99.54638571428572,99.51736666666666,99.59274285714285,99.5516,0.2613333333333332,-0.17833333333333334,-0.07233333333333333,0.17666666666666675,-0.0235000000000003,-0.05400000000000027,1.611,1.6029999999999998,37.46,32.396,41.771,36.129999999999995,51.635999999999996,41.096000000000004,67.40899999999999,54.3685,50.153,39.855000000000004,65.532,52.421,49.7285,39.272,65.196,51.602000000000004,-0.258,-0.22399999999999998,0.11009500000000001,0.110765,0.0,220.84333333333336,220.88,217.72,217.72,0.0,0.0
