,ABS Active,ABS Enabled,AID Allow Tire Blankets,AID Auto Blip,AID Auto Clutch,AID Auto Shift,AID Fuel Rate,AID Ideal Line,AID Mech Damage,AID Stability,AID Tire Wear Rate,Air Density,Air Temp,Ballast,Best Lap Delta,Best Lap Time,Brake Bias,Brake Pos,Brake Temp FL,Brake Temp FR,Brake Temp RL,Brake Temp RR,CG Accel Lateral,CG Accel Longitudinal,CG Accel Vertical,CG Height,Camber FL,Camber FR,Camber RL,Camber RR,Car Coord X,Car Coord Y,Car Coord Z,Car Damage Front,Car Damage Left,Car Damage Rear,Car Damage Right,Car Pos Norm,Caster FL,Caster FR,Chassis Pitch Angle,Chassis Pitch Rate,Chassis Roll Angle,Chassis Roll Rate,Chassis Velocity X,Chassis Velocity Y,Chassis Velocity Z,Chassis Yaw Rate,Clutch Pos,DRS Active,DRS Available,Drive Train Speed,ERS Heat Charging,ERS Is Charging,ERS Max Energy,ERS Power Level,ERS Recovery Level,Engine Brake Setting,Engine Limiter,Engine RPM,Flags,Fuel Level,Gear,Ground Speed,HR Sample Clock,In Pit,KERS Charge,KERS Deployed Energy,KERS Input,KERS Max Energy,LR Sample Clock,Lap Invalidated,Lap Time,Lap Time2,Last Lap Time,Last Sector Time,MR Sample Clock,Max Fuel,Max Power,Max RPM,Max Sus Travel FL,Max Sus Travel FR,Max Sus Travel RL,Max Sus Travel RR,Max Torque,Max Turbo Boost,Num Tires Off Track,Penalties Enabled,Position,Raw Data Sample Rate,Ride Height FL,Ride Height FR,Ride Height RL,Ride Height RR,Road Temp,Self Align Torque FL,Self Align Torque FR,Self Align Torque RL,Self Align Torque RR,Session Lap Count,Session Time Left,Steering Angle,Surface Grip,Suspension Travel FL,Suspension Travel FR,Suspension Travel RL,Suspension Travel RR,TC Active,TC Enabled,Throttle Pos,Tire Dirt Level FL,Tire Dirt Level FR,Tire Dirt Level RL,Tire Dirt Level RR,Tire Load FL,Tire Load FR,Tire Load RL,Tire Load RR,Tire Loaded Radius FL,Tire Loaded Radius FR,Tire Loaded Radius RL,Tire Loaded Radius RR,Tire Pressure FL,Tire Pressure FR,Tire Pressure RL,Tire Pressure RR,Tire Radius FL,Tire Radius FR,Tire Radius RL,Tire Radius RR,Tire Rubber Grip FL,Tire Rubber Grip FR,Tire Rubber Grip RL,Tire Rubber Grip RR,Tire Slip Angle FL,Tire Slip Angle FR,Tire Slip Angle RL,Tire Slip Angle RR,Tire Slip Ratio FL,Tire Slip Ratio FR,Tire Slip Ratio RL,Tire Slip Ratio RR,Tire Temp Core FL,Tire Temp Core FR,Tire Temp Core RL,Tire Temp Core RR,Tire Temp Inner FL,Tire Temp Inner FR,Tire Temp Inner RL,Tire Temp Inner RR,Tire Temp Middle FL,Tire Temp Middle FR,Tire Temp Middle RL,Tire Temp Middle RR,Tire Temp Outer FL,Tire Temp Outer FR,Tire Temp Outer RL,Tire Temp Outer RR,Toe In FL,Toe In FR,Toe In RL,Toe In RR,Turbo Boost,Wheel Angular Speed FL,Wheel Angular Speed FR,Wheel Angular Speed RL,Wheel Angular Speed RR,Wind Direction,Wind Speed
0,0.0,0.0,0.0,1.0,1.0,0.0,0.0,1.0,0.0,100.0,1.0,1.1856,26.0,0.0,0.0,0.0,59.99999,0.0,26.0,26.0,26.0,26.0,-0.10849999999999993,0.2913000000000001,0.02636666666666667,270.569,-2.3479,-2.32275,-1.7761,-1.8444444444444443,-275.53,216.3375,190.96325,0.0,0.0,0.0,0.0,0.0016666666666665941,-5.498166666666667,-5.498166666666667,-0.6799000000000001,2.013666666666667,-0.024333333333333318,-0.7320000000000002,65.662,-0.04630000000000001,-0.3532,1.234,100.0,1.0,1.0,202.9,0.0,0.0,0.0,0.0,0.0,0.0,0.0,8600.1,0.0,55.0,5.0,236.35333333333335,0.0,0.0,0.0,0.0,0.0,0.0,0.0,0.0,0.006000000000000227,0.006000000000000227,0.0,0.0,0.0,55.0,616.79921,10000.0,85.0,85.0,85.0,85.0,395.0,0.0,0.0,0.0,1.0,20.0,25.299,25.299,29.465,29.465,34.0,-19.4725,13.091999999999999,-33.245,26.38,0.0,1783.669,0.9550000000000018,100.0,35.911,34.975,24.151,23.7905,0.0,0.0,100.0,0.0,0.0,0.0,0.0,3363.714285714286,3810.3,4000.6666666666665,3793.9,304.479,302.7393333333333,315.2635,315.4484,21.634,20.7007,22.004,21.3513,314.99999,314.99999,324.99998,324.99998,99.5509,99.51353333333333,99.58115714285714,99.54842857142857,0.14225,-0.28925,-0.18299999999999994,0.05983333333333318,-0.059499999999999886,-0.041666666666671404,1.6295,1.6455,36.213,30.378999999999998,38.525,34.446,53.315,38.2505,64.72,53.167,51.753,37.202,62.9675,51.239,51.344,36.7065,62.747,50.432,-0.16449999999999987,-0.3123333333333336,0.11083000000000001,0.1087,0.0,205.79000000000002,205.69,202.9,202.9,0.0,0.0
1,0.0,0.0,0.0,1.0,1.0,0.0,0.0,1.0,0.0,100.0,1.0,1.1856,26.0,0.0,0.0,0.0,59.999996,0.0,26.0,26.0,26.0,26.0,-0.11299999999999999,0.3155000000000001,0.2544666666666667,269.7145,-2.2678000000000003,-2.4290000000000003,-1.7919,-1.8407777777777778,-272.18,216.335,190.943125,0.0,0.0,0.0,0.0,0.0036333333333333773,-5.498166666666667,-5.498166666666667,-0.6102000000000001,-1.1553333333333333,-0.07111111111111157,-0.7240000000000002,65.821,-0.0633999999999999,-0.343075,1.4459999999999997,100.0,1.0,1.0,202.90333333333334,0.0,0.0,0.0,0.0,0.0,0.0,0.0,8600.3,0.0,55.0,5.0,236.92666666666668,1.0,0.0,0.0,0.0,0.0,0.0,0.0,0.0,0.05699999999999861,0.05699999999999861,0.0,0.0,1.0,55.0,616.79921,10000.0,85.000001,85.000001,85.000001,85.000001,395.0,0.0,0.0,0.0,1.0,166.665,26.84,26.84,27.878,27.878,34.0,-19.1525,9.91,-38.6275,32.9225,0.0,1783.619,0.9699999999999989,100.0,35.838,34.985,26.563,25.2015,0.0,0.0,100.0,0.0,0.0,0.0,0.0,3321.285714285714,2890.6,4289.666666666667,4649.5,304.73,305.693,314.4085,313.2468,21.64377777777778,20.707,22.016125,21.3607,314.999998,314.999998,324.999988,324.999988,99.55091428571428,99.51356666666666,99.58132857142857,99.54857142857144,0.12349999999999994,-0.30199999999999994,-0.1993999999999999,0.02950000000000008,-0.051000000000000156,-0.036666666666668846,1.419,1.4685000000000001,36.272999999999996,30.4185,38.601,34.504999999999995,53.317,38.296,64.751,53.229,51.754000000000005,37.2445,62.995999999999995,51.2985,51.343,36.7475,62.772,50.4895,-0.15900000000000003,-0.30600000000000005,0.102855,0.10407500000000001,0.0,206.25333333333333,206.10500000000002,202.90333333333334,202.90333333333334,0.0,0.0
2,0.0,0.0,0.0,1.0,1.0,0.0,0.0,1.0,0.0,100.0,1.0,1.1856,26.0,0.0,0.0,0.0,59.999996,0.0,26.0,26.0,26.0,26.0,-0.14749999999999996,0.30380000000000007,-0.07093333333333333,271.1335,-2.2542999999999997,-2.441125,-1.7575,-1.8711111111111112,-268.62,216.3275,190.923875,0.0,0.0,0.0,0.0,0.005699999999999927,-5.498166666666667,-5.498166666666667,-0.6826,0.4296666666666667,-0.04688888888888876,1.73,65.971,-0.07979999999999998,-0.405025,1.6180000000000003,100.0,1.0,1.0,204.06666666666666,0.0,0.0,0.0,0.0,0.0,0.0,0.0,8649.7,0.0,55.0,5.0,237.47,0.0,0.0,0.0,0.0,0.0,0.0,0.0,0.0,0.11100000000000065,0.11100000000000065,0.0,0.0,0.0,55.0,616.79921,10000.0,85.000001,85.000001,85.000001,85.000001,395.0,0.0,0.0,0.0,1.0,166.665,25.803,25.803,31.082,31.082,34.0,-21.48,10.245999999999999,-29.5175,21.5375,0.0,1783.565,0.870000000000001,100.0,36.416,34.945,25.344,24.0285,0.0,0.0,100.0,0.0,0.0,0.0,0.0,3511.285714285714,3182.6,3478.4444444444443,3506.0,304.0645,304.7223333333333,316.44625,316.247,21.654222222222224,20.7135,22.02825,21.3701,314.999998,314.999998,324.999988,324.999988,99.55094285714286,99.5136,99.58145714285715,99.5487,0.10275000000000012,-0.32199999999999995,-0.23739999999999994,0.010499999999999954,-0.04899999999999949,-0.030000000000001137,1.7485,1.812,36.339,30.4595,38.676,34.563,53.32,38.343,64.7705,53.281,51.756,37.288,63.0135,51.348,51.343,36.789,62.786,50.538,-0.16599999999999993,-0.2993333333333337,0.10516,0.10701500000000001,0.0,206.70666666666668,206.565,204.06666666666666,204.06666666666666,0.0,0.0
3,0.0,0.0,0.0,1.0,1.0,0.0,0.0,1.0,0.0,100.0,1.0,1.1856,26.0,0.0,0.0,0.0,59.999996,0.0,26.0,26.0,26.0,26.0,-0.13674999999999993,0.32420000000000004,0.13043333333333335,270.584,-2.3659,-2.356625,-1.7692999999999999,-1.868,-265.65,216.3175,190.906125,0.0,0.0,0.0,0.0,0.007433333333333292,-5.498166666666667,-5.498166666666667,-0.632,0.262,-0.020222222222222364,-0.03600000000000003,66.10900000000001,-0.09039999999999992,-0.3342,1.3120000000000012,100.0,1.0,1.0,203.98000000000002,0.0,0.0,0.0,0.0,0.0,0.0,0.0,8645.9,0.0,55.0,5.0,237.96333333333334,1.0,0.0,0.0,0.0,0.0,0.0,0.0,0.0,0.1559999999999988,0.1559999999999988,0.0,0.0,1.0,55.0,616.79921,10000.0,85.000001,85.000001,85.000001,85.000001,395.0,0.0,0.0,0.0,1.0,166.665,27.069,27.069,28.397,28.397,34.0,-17.845,10.116,-38.7775,28.497500000000002,0.0,1783.519,0.7199999999999989,100.0,36.022,34.696,25.475,24.189,0.0,0.0,100.0,0.0,0.0,0.0,0.0,3014.285714285714,3108.7,4271.555555555556,4205.7,305.567,305.01866666666666,314.47875,314.4628,21.662555555555556,20.7191,22.0385,21.3781,314.999998,314.999998,324.999988,324.999988,99.55094285714286,99.51363333333333,99.5816,99.54884285714286,0.12975000000000003,-0.30025,-0.22139999999999993,0.020499999999999963,-0.04349999999999987,-0.04333333333332945,1.5005,1.568,36.391,30.494500000000002,38.741,34.613,53.317,38.384,64.792,53.332,51.753,37.326499999999996,63.033,51.3975,51.339,36.826499999999996,62.8025,50.586,-0.18199999999999994,-0.28000000000000025,0.10651000000000001,0.1106,0.0,207.16333333333333,207.06,203.98000000000002,203.98000000000002,0.0,0.0
4,0.0,0.0,0.0,1.0,1.0,0.0,0.0,1.0,0.0,100.0,1.0,1.1856,26.0,0.0,0.0,0.0,59.999996,0.0,26.0,26.0,26.0,26.0,-0.155625,0.2883,-0.06253333333333334,270.9045,-2.2902,-2.41125,-1.778,-1.8776666666666668,-262.07,216.3025,190.88525,0.0,0.0,0.0,0.0,0.009499999999999953,-5.498166666666667,-5.498166666666667,-0.6826,-0.6516666666666666,-0.09177777777777774,-0.274,66.264,-0.09019999999999995,-0.39925,1.2100000000000009,100.0,1.0,1.0,204.74,0.0,0.0,0.0,0.0,0.0,0.0,0.0,8678.2,0.0,55.0,5.0,238.5233333333333,0.0,0.0,0.0,0.0,0.0,0.0,0.0,0.0,0.21000000000000085,0.21000000000000085,0.0,0.0,0.0,55.0,616.79921,10000.0,85.000001,85.000001,85.000001,85.000001,395.0,0.0,0.0,0.0,1.0,166.665,26.123,26.123,29.709,29.709,34.0,-20.8975,11.379999999999999,-33.425,22.5,0.0,1783.465,0.6099999999999994,100.0,35.994,34.635,25.797,24.094,0.0,0.0,100.0,0.0,0.0,0.0,0.0,3481.857142857143,3264.8,3833.1111111111113,3471.2,304.1385,304.5373333333333,315.5185,316.2348,21.672555555555554,20.7258,22.051000000000002,21.3877,314.999998,314.999998,324.999988,324.999988,99.55097142857143,99.51366666666667,99.58174285714286,99.54898571428572,0.1180000000000001,-0.29899999999999993,-0.22079999999999989,0.023333333333333428,-0.03549999999999898,-0.04999999999999716,1.6440000000000001,1.67,36.454,30.5365,38.818,34.673,53.316,38.4335,64.818,53.3875,51.751000000000005,37.372,63.057,51.45,51.336,36.8705,62.823499999999996,50.6375,-0.1775,-0.2766666666666664,0.10824,0.106715,0.0,207.58333333333331,207.495,204.74,204.74,0.0,0.0
5,0.0,0.0,0.0,1.0,1.0,0.0,0.0,1.0,0.0,100.0,1.0,1.1856,26.0,0.0,0.0,0.0,59.999996,0.0,26.0,26.0,26.0,26.0,-0.125,0.31010000000000004,-0.005233333333333334,270.8435,-2.3124000000000002,-2.4232500000000003,-1.7713,-1.8587777777777779,-258.89,216.285,190.866,0.0,0.0,0.0,0.0,0.011366666666666525,-5.498166666666667,-5.498166666666667,-0.6595000000000001,0.547,-0.08722222222222209,1.074,66.405,-0.09329999999999994,-0.3552,1.0239999999999991,100.0,1.0,1.0,205.00666666666666,0.0,0.0,0.0,0.0,0.0,0.0,0.0,8689.4,0.0,55.0,5.0,239.03,1.0,0.0,0.0,0.0,0.0,0.0,0.0,0.0,0.2579999999999991,0.2579999999999991,0.0,0.0,1.0,55.0,616.79921,10000.0,85.000001,85.000001,85.000001,85.000001,395.0,0.0,0.0,0.0,1.0,333.33500000000004,26.947,26.947,29.358,29.358,34.0,-18.6525,11.317999999999998,-36.2025,27.025,0.0,1783.416,0.28000000000000114,100.0,36.041,34.467,25.543,23.883,0.0,0.0,100.0,0.0,0.0,0.0,0.0,3240.714285714286,3060.8,4095.3333333333335,4007.7,304.8465,305.19933333333336,314.962,314.9774,21.681666666666665,20.7318,22.061875,21.3961,314.999998,314.999998,324.999988,324.999988,99.55098571428572,99.51371666666667,99.58188571428572,99.54911428571428,0.1352500000000001,-0.28500000000000003,-0.21739999999999993,0.029166666666666785,-0.0365000000000002,-0.046666666666666856,1.578,1.6035,36.510999999999996,30.5735,38.887,34.726,53.318,38.476,64.84,53.437,51.751999999999995,37.411500000000004,63.077,51.4975,51.335,36.908500000000004,62.84,50.6835,-0.20750000000000002,-0.2536666666666667,0.104855,0.113225,0.0,208.04333333333335,207.97,205.00666666666666,205.00666666666666,0.0,0.0
6,0.0,0.0,0.0,1.0,1.0,0.0,0.0,1.0,0.0,100.0,1.0,1.1856,26.0,0.0,0.0,0.0,59.999996,0.0,26.0,26.0,26.0,26.0,-0.11524999999999996,0.28710000000000013,-0.0061333333333333335,270.6755,-2.2818,-2.452,-1.8145,-1.8553333333333333,-255.5,216.265,190.8455,0.0,0.0,0.0,0.0,0.013333333333333308,-5.498166666666667,-5.498166666666667,-0.6624,-0.06466666666666668,-0.07155555555555582,-0.5049999999999999,66.55199999999999,-0.08399999999999996,-0.369775,0.7160000000000011,100.0,1.0,1.0,205.49,0.0,0.0,0.0,0.0,0.0,0.0,0.0,8710.0,0.0,55.0,5.0,239.56,0.0,0.0,0.0,0.0,0.0,0.0,0.0,0.0,0.30900000000000105,0.30900000000000105,0.0,0.0,0.0,55.0,616.79921,10000.0,85.000001,85.000001,85.000001,85.000001,395.0,0.0,0.0,0.0,1.0,166.665,26.459,26.459,29.326999999999998,29.326999999999998,34.0,-19.099999999999998,12.334,-35.36,25.405,0.0,1783.367,0.10000000000000142,100.0,35.787,34.724000000000004,25.609,24.372500000000002,0.0,0.0,100.0,0.0,0.0,0.0,0.0,3412.5714285714284,3137.1,3994.0,3827.3,304.457,304.7026666666667,315.243,315.3344,21.691333333333333,20.7381,22.0735,21.4053,314.999998,314.999998,324.999988,324.999988,99.551,99.51375,99.58202857142857,99.54925714285714,0.14000000000000012,-0.28,-0.2136,0.026499999999999968,-0.0389999999999997,-0.05333333333332746,1.5865,1.6285,36.571,30.613500000000002,38.96,34.783,53.319,38.521,64.8635,53.493,51.753,37.453,63.0985,51.551,51.334,36.948499999999996,62.8585,50.735,-0.22550000000000003,-0.238,0.10822500000000002,0.110725,0.0,208.49,208.43,205.49,205.49,0.0,0.0
7,0.0,0.0,0.0,1.0,1.0,0.0,0.0,1.0,0.0,100.0,1.0,1.1856,26.0,0.0,0.0,0.0,59.999996,0.0,26.0,26.0,26.0,26.0,-0.08237499999999998,0.3026,0.020800000000000003,270.4925,-2.255,-2.3827499999999997,-1.776,-1.8937777777777778,-252.3,216.2425,190.82625,0.0,0.0,0.0,0.0,0.015199999999999991,-5.498166666666667,-5.498166666666667,-0.6662,0.042333333333333334,-0.056888888888888545,-0.1160000000000001,66.691,-0.0673999999999999,-0.37945,0.40000000000000036,100.0,1.0,1.0,205.9,0.0,0.0,0.0,0.0,0.0,0.0,0.0,8727.3,0.0,55.0,5.0,240.06,1.0,0.0,0.0,0.0,0.0,0.0,0.0,0.0,0.3569999999999993,0.3569999999999993,0.0,0.0,1.0,55.0,616.79921,10000.0,85.000001,85.000001,85.000001,85.000001,395.0,0.0,0.0,0.0,1.0,166.665,26.108,26.108,29.526,29.526,34.0,-18.162499999999998,13.212,-33.675,27.4925,0.0,1783.319,-0.07000000000000028,100.0,35.93,34.843,25.547,24.515,0.0,0.0,100.0,0.0,0.0,0.0,0.0,3464.857142857143,3201.0,3942.222222222222,3879.9,304.205,304.5253333333333,315.327,315.1442,21.700444444444443,20.7442,22.0845,21.413899999999998,314.999998,314.999998,324.999988,324.999988,99.55102857142857,99.51378333333334,99.58217142857143,99.54938571428572,0.16025,-0.25325,-0.1976,0.04699999999999993,-0.04100000000000037,-0.02833333333332888,1.5935,1.596,36.628,30.651,39.028,34.837,53.323,38.5625,64.885,53.5445,51.756,37.492,63.1175,51.6005,51.335,36.9855,62.8745,50.783500000000004,-0.23899999999999988,-0.22199999999999998,0.107035,0.11384000000000001,0.0,208.89333333333332,208.85000000000002,205.9,205.9,0.0,0.0
8,0.0,0.0,0.0,1.0,1.0,0.0,0.0,1.0,0.0,100.0,1.0,1.1856,26.0,0.0,0.0,0.0,59.999996,0.0,26.0,26.0,26.0,26.0,-0.037124999999999964,0.30390000000000006,0.060500000000000005,270.7365,-2.3387000000000002,-2.373625,-1.7589000000000001,-1.8482222222222222,-248.89,216.215,190.8055,0.0,0.0,0.0,0.0,0.017166666666666552,-5.498166666666667,-5.498166666666667,-0.6673,-0.725,-0.03888888888888875,0.5859999999999999,66.839,-0.047599999999999976,-0.36825,-0.019999999999999574,100.0,1.0,1.0,206.26666666666665,0.0,0.0,0.0,0.0,0.0,0.0,0.0,8742.9,0.0,55.0,5.0,240.59333333333333,0.0,0.0,0.0,0.0,0.0,0.0,0.0,0.0,0.40800000000000125,0.40800000000000125,0.0,0.0,0.0,55.0,616.79921,10000.0,85.000001,85.000001,85.000001,85.000001,395.0,0.0,0.0,0.0,1.0,333.33500000000004,26.978,26.978,28.793,28.793,34.0,-15.682500000000001,14.440000000000001,-32.3425,29.692500000000003,0.0,1783.266,-0.26500000000000057,100.0,35.577,34.634,25.623,24.609,0.0,0.0,100.0,0.0,0.0,0.0,0.0,3137.5714285714284,3258.0,3999.222222222222,3981.0,305.2945,304.623,315.09125,314.9536,21.709777777777777,20.7506,22.096125,21.423099999999998,314.999998,314.999998,324.999988,324.999988,99.55104285714286,99.5138,99.5823,99.54952857142857,0.18724999999999992,-0.22875,-0.15539999999999998,0.08600000000000008,-0.037499999999999645,-0.036666666666668846,1.575,1.5710000000000002,36.686,30.691,39.099999999999994,34.894,53.324,38.605000000000004,64.9075,53.5995,51.756,37.5315,63.138,51.653,51.334,37.024,62.8915,50.8345,-0.25249999999999995,-0.21099999999999985,0.10985500000000001,0.11252500000000001,0.0,209.32666666666665,209.32,206.26666666666665,206.26666666666665,0.0,0.0
9,0.0,0.0,0.0,1.0,1.0,0.0,0.0,1.0,0.0,100.0,1.0,1.1856,26.0,0.0,0.0,0.0,59.999996,0.0,26.0,26.0,26.0,26.0,-0.025000000000000022,0.29390000000000005,0.03316666666666667,270.3855,-2.3253000000000004,-2.3762499999999998,-1.8147000000000002,-1.8251111111111111,-245.68,216.19,190.785625,0.0,0.0,0.0,0.0,0.019033333333333347,-5.498166666666667,-5.498166666666667,-0.6735,0.756,-0.0385555555555559,0.919,66.973,-0.028200000000000003,-0.368325,-0.20399999999999974,100.0,1.0,1.0,206.81666666666666,0.0,0.0,0.0,0.0,0.0,0.0,0.0,8766.2,0.0,55.0,5.0,241.07666666666665,1.0,0.0,0.0,0.0,0.0,0.0,0.0,0.0,0.4559999999999995,0.4559999999999995,0.0,0.0,1.0,55.0,616.79921,10000.0,85.000001,85.000001,85.000001,85.000001,395.0,0.0,0.0,0.0,1.0,333.33500000000004,25.665,25.665,29.861,29.861,34.0,-16.34,16.105999999999998,-30.990000000000002,29.495,0.0,1783.218,-0.40500000000000114,100.0,36.09,35.132,25.188,24.509999999999998,0.0,0.0,100.0,0.0,0.0,0.0,0.0,3508.5714285714284,3348.7,3882.222222222222,3958.1000000000004,304.0335,304.248,315.53675,315.1248,21.718888888888888,20.7568,22.106875,21.4316,314.999998,314.999998,324.999988,324.999988,99.55107142857143,99.51383333333334,99.58244285714285,99.54965714285714,0.21425000000000005,-0.20699999999999996,-0.14679999999999993,0.10099999999999998,-0.027499999999999858,-0.04999999999999716,1.6265,1.629,36.742999999999995,30.73,39.168,34.948,53.33,38.6465,64.925,53.6495,51.760999999999996,37.57,63.153999999999996,51.701,51.338,37.061,62.9045,50.881,-0.268,-0.20433333333333348,0.1154,0.11135500000000001,0.0,209.76333333333332,209.785,206.81666666666666,206.81666666666666,0.0,0.0
10,0.0,0.0,0.0,1.0,1.0,0.0,0.0,1.0,0.0,100.0,1.0,1.1856,26.0,0.0,0.0,0.0,59.999996,0.0,26.0,26.0,26.0,26.0,-0.0024999999999999467,0.30479999999999996,-0.002966666666666667,270.3705,-2.3109,-2.3453749999999998,-1.8003,-1.7992222222222223,-242.26,216.1625,190.765,0.0,0.0,0.0,0.0,0.02103333333333335,-5.498166666666667,-5.498166666666667,-0.6553,-0.734,0.006333333333333302,0.383,67.123,-0.0040000000000000036,-0.3745,-0.5099999999999998,100.0,1.0,1.0,207.06,0.0,0.0,0.0,0.0,0.0,0.0,0.0,8776.4,0.0,55.0,5.0,241.61666666666667,0.0,0.0,0.0,0.0,0.0,0.0,1.0,0.0,0.5069999999999979,0.5069999999999979,0.0,0.0,0.0,55.0,616.79921,10000.0,85.000001,85.000001,85.000001,85.000001,395.0,0.0,0.0,0.0,1.0,333.33500000000004,26.779,26.779,28.488,28.488,34.0,-13.607499999999998,15.056,-32.41,32.0525,0.0,1783.167,-0.4250000000000007,100.0,35.765,35.307,25.504,25.314500000000002,0.0,0.0,100.0,0.0,0.0,0.0,0.0,3076.857142857143,3121.6,4142.666666666667,4088.3,305.4465,304.81966666666665,314.8305,314.6322,21.728444444444445,20.7633,22.1185,21.441,314.999998,314.999998,324.999988,324.999988,99.5511,99.51385,99.58258571428571,99.5498,0.21875,-0.19799999999999995,-0.11720000000000008,0.1200000000000001,-0.05349999999999966,-0.054999999999999716,1.547,1.517,36.802,30.7705,39.241,35.006,53.336,38.6875,64.949,53.7085,51.766,37.6085,63.176,51.757,51.341,37.098,62.923,50.936,-0.26649999999999996,-0.19099999999999984,0.10331000000000001,0.111505,0.0,210.19333333333333,210.235,207.06,207.06,0.0,0.0
11,0.0,0.0,0.0,1.0,1.0,0.0,0.0,1.0,0.0,100.0,1.0,1.1856,26.0,0.0,0.0,0.0,59.999996,0.0,26.0,26.0,26.0,26.0,0.04025000000000012,0.29400000000000004,-0.08183333333333334,271.0265,-2.3485,-2.3126249999999997,-1.8458999999999999,-1.7902222222222222,-238.84,216.135,190.74425,0.0,0.0,0.0,0.0,0.022599999999999953,-5.498166666666667,-5.498166666666667,-0.7008,0.061,0.02588888888888885,0.03799999999999981,67.262,0.01859999999999995,-0.393975,-0.6660000000000004,100.0,1.0,1.0,207.87,0.0,0.0,0.0,0.0,0.0,0.0,0.0,8810.8,0.0,55.0,5.0,242.11666666666667,1.0,0.0,0.0,0.0,0.0,0.0,1.0,0.0,0.5579999999999998,0.5579999999999998,0.0,0.0,1.0,55.0,616.79921,10000.0,85.000001,85.000001,85.000001,85.000001,395.0,0.0,0.0,0.0,1.0,333.33500000000004,26.137999999999998,26.137999999999998,30.38,30.38,34.0,-13.217500000000001,17.259999999999998,-25.2025,28.572499999999998,0.0,1783.116,-0.384999999999998,100.0,35.702,35.424,24.761,24.8785,0.0,0.0,100.0,0.0,0.0,0.0,0.0,3210.142857142857,3401.3,3554.1111111111113,3687.1,304.9955,304.09366666666665,316.34075,315.7458,21.737666666666666,20.7699,22.129875,21.4501,314.999998,314.999998,324.999988,324.999988,99.55112857142858,99.51388333333334,99.58272857142858,99.54994285714285,0.24924999999999997,-0.17674999999999996,-0.08520000000000005,0.1523333333333332,-0.04449999999999932,-0.046666666666666856,1.738,1.7105000000000001,36.861000000000004,30.811999999999998,39.311,35.063,53.341,38.729,64.9645,53.760999999999996,51.769999999999996,37.6475,63.189499999999995,51.808,51.342,37.1355,62.9335,50.9855,-0.26649999999999996,-0.20166666666666666,0.10375500000000001,0.10573500000000001,0.0,210.59333333333333,210.655,207.87,207.87,0.0,0.0
12,0.0,0.0,0.0,1.0,1.0,0.0,0.0,1.0,0.0,100.0,1.0,1.1856,26.0,0.0,0.0,0.0,59.999996,0.0,26.0,26.0,26.0,26.0,0.06550000000000011,0.2876000000000001,0.05556666666666667,270.0655,-2.393,-2.309875,-1.8075,-1.7982222222222222,-235.6,216.11,190.723125,0.0,0.0,0.0,0.0,0.025466666666666526,-5.498166666666667,-5.498166666666667,-0.6803,0.08,0.00955555555555554,0.8210000000000002,67.401,0.03380000000000005,-0.362275,-0.6799999999999997,100.0,1.0,1.0,207.94666666666666,0.0,0.0,0.0,0.0,0.0,0.0,0.0,8814.1,0.0,55.0,5.0,242.62,0.0,0.0,0.0,0.0,0.0,0.0,1.0,0.0,0.6059999999999981,0.6059999999999981,0.0,0.0,0.0,55.0,616.79921,10000.0,85.000001,85.000001,85.000001,85.000001,395.0,0.0,0.0,0.0,1.0,166.665,25.864,25.864,28.519,28.519,34.0,-12.169999999999998,19.222,-29.994999999999997,34.375,0.0,1783.069,-0.7850000000000001,100.0,35.715,35.674,25.078,25.029,0.0,0.0,100.0,0.0,0.0,0.0,0.0,3279.285714285714,3439.8,4132.333333333333,4126.8,304.8025,304.023,314.84425,314.676,21.746444444444442,20.7762,22.140625,21.4588,314.999998,314.999998,324.999988,324.999988,99.55115714285714,99.5139,99.58287142857142,99.55008571428571,0.28525,-0.14174999999999993,-0.06920000000000004,0.16399999999999992,-0.05299999999999905,-0.04833333333333201,1.551,1.52,36.916,30.851,39.379000000000005,35.117,53.346000000000004,38.768,64.986,53.8135,51.774,37.6835,63.209,51.8585,51.345,37.170500000000004,62.9495,51.035,-0.2909999999999999,-0.17533333333333356,0.104315,0.10467000000000001,0.0,211.07,211.125,207.94666666666666,207.94666666666666,0.0,0.0
13,0.0,0.0,0.0,1.0,1.0,0.0,0.0,1.0,0.0,100.0,1.0,1.1856,26.0,0.0,0.0,0.0,59.999996,0.0,26.0,26.0,26.0,26.0,0.057374999999999954,0.29390000000000005,0.0346,269.8515,-2.3923,-2.29125,-1.8593000000000002,-1.7666666666666668,-232.16,216.085,190.7015,0.0,0.0,0.0,0.0,0.026899999999999924,-5.498166666666667,-5.498166666666667,-0.6853,-0.17133333333333334,0.025666666666666726,-0.43100000000000005,67.545,0.04469999999999996,-0.39437500000000003,-0.8360000000000003,100.0,1.0,1.0,208.42000000000002,0.0,0.0,0.0,0.0,0.0,0.0,0.0,8834.1,0.0,55.0,5.0,243.13333333333333,1.0,0.0,0.0,0.0,0.0,0.0,1.0,0.0,0.657,0.657,0.0,0.0,1.0,55.0,616.79921,10000.0,85.000001,85.000001,85.000001,85.000001,395.0,0.0,0.0,0.0,1.0,333.33500000000004,25.375,25.375,28.961,28.961,34.0,-13.247499999999999,18.266,-29.055,33.99,0.0,1783.017,-0.6699999999999982,100.0,35.899,36.307,25.056,25.5995,0.0,0.0,100.0,0.0,0.0,0.0,0.0,3402.857142857143,3369.1,3968.6666666666665,4111.2,304.5345,304.0296666666667,315.2925,314.6204,21.756,20.783,22.15225,21.4681,314.999998,314.999998,324.999988,324.999988,99.5512,99.51391666666666,99.58301428571428,99.55022857142858,0.274,-0.15125,-0.06999999999999995,0.16749999999999998,-0.02800000000000047,-0.04333333333332945,1.5855,1.548,36.974999999999994,30.8935,39.451,35.176,53.357,38.809,65.006,53.872,51.784,37.722,63.227000000000004,51.914500000000004,51.352000000000004,37.208,62.964,51.0895,-0.28400000000000003,-0.17766666666666664,0.10332500000000001,0.10591500000000001,0.0,211.48666666666668,211.565,208.42000000000002,208.42000000000002,0.0,0.0
14,0.0,0.0,0.0,1.0,1.0,0.0,0.0,1.0,0.0,100.0,1.0,1.1856,26.0,0.0,0.0,0.0,59.999996,0.0,26.0,26.0,26.0,26.0,0.09337499999999999,0.2792000000000001,-0.04836666666666667,270.2635,-2.3836000000000004,-2.318,-1.8599999999999999,-1.7993333333333332,-228.51,216.0625,190.679125,0.0,0.0,0.0,0.0,0.029033333333333355,-5.498166666666667,-5.498166666666667,-0.6910000000000001,0.0036666666666666666,0.050999999999999934,-0.2250000000000001,67.695,0.059800000000000075,-0.39615,-1.0199999999999996,100.0,1.0,1.0,208.97,0.0,0.0,0.0,0.0,0.0,0.0,0.0,8857.5,0.0,55.0,5.0,243.67333333333335,0.0,0.0,0.0,0.0,0.0,0.0,1.0,0.0,0.7109999999999985,0.7109999999999985,0.0,0.0,0.0,55.0,616.79921,10000.0,85.000001,85.000001,85.000001,85.000001,395.0,0.0,0.0,0.0,1.0,166.665,25.756999999999998,25.756999999999998,29.19,29.19,34.0,-11.587499999999999,19.328,-26.9125,34.005,0.0,1782.965,-0.7399999999999984,100.0,35.698,36.289,24.813,25.599,0.0,0.0,100.0,0.0,0.0,0.0,0.0,3254.142857142857,3355.5,3838.5555555555557,3986.2,305.089,304.02133333333336,315.6475,314.9158,21.766,20.7901,22.16425,21.478,314.999998,314.999998,324.999988,324.999988,99.55124285714285,99.51395,99.58315714285715,99.55037142857142,0.2902500000000001,-0.135,-0.05279999999999996,0.18833333333333324,-0.02200000000000024,-0.030000000000001137,1.6185,1.5755,37.037,30.938000000000002,39.525999999999996,35.237,53.367000000000004,38.8505,65.025,53.932,51.792,37.760999999999996,63.2435,51.972,51.358000000000004,37.2455,62.977000000000004,51.146,-0.2909999999999999,-0.17600000000000016,0.10168500000000001,0.10821000000000001,0.0,211.94,212.005,208.97,208.97,0.0,0.0
15,0.0,0.0,0.0,1.0,1.0,0.0,0.0,1.0,0.0,100.0,1.0,1.1856,26.0,0.0,0.0,0.0,59.999996,0.0,26.0,26.0,26.0,26.0,0.09487500000000004,0.28059999999999996,-0.060066666666666664,270.233,-2.4045,-2.27125,-1.8901,-1.7166666666666668,-225.26,216.04250000000002,190.658625,0.0,0.0,0.0,0.0,0.030899999999999928,-5.498166666666667,-5.498166666666667,-0.6795,0.128,0.08233333333333315,-0.7360000000000002,67.82900000000001,0.07160000000000011,-0.375075,-0.9459999999999997,100.0,1.0,1.0,209.31666666666666,0.0,0.0,0.0,0.0,0.0,0.0,0.0,8872.1,0.0,55.0,5.0,244.15666666666667,1.0,0.0,0.0,0.0,0.0,0.0,1.0,0.0,0.7590000000000003,0.7590000000000003,0.0,0.0,1.0,55.0,616.79921,10000.0,85.000001,85.000001,85.000001,85.000001,395.0,0.0,0.0,0.0,1.0,166.665,26.062,26.062,29.114,29.114,34.0,-11.504999999999999,18.086,-27.5375,35.9975,0.0,1782.917,-0.4299999999999997,100.0,35.553,36.254,24.605,25.750500000000002,0.0,0.0,100.0,0.0,0.0,0.0,0.0,3081.857142857143,3349.4,3897.6666666666665,4231.6,305.4645,304.0586666666667,315.6085,314.3582,21.77477777777778,20.7964,22.174875,21.4867,314.999998,314.999998,324.999988,324.999988,99.55127142857143,99.51396666666666,99.58328571428571,99.55052857142857,0.28325,-0.14874999999999994,-0.0474,0.19933333333333336,-0.041499999999999204,-0.04999999999999716,1.587,1.565,37.092,30.9775,39.593,35.292,53.375,38.8875,65.041,53.987,51.799,37.795500000000004,63.257999999999996,52.025,51.363,37.278999999999996,62.988,51.1975,-0.2709999999999999,-0.19666666666666677,0.104245,0.11292500000000001,0.0,212.36666666666667,212.45,209.31666666666666,209.31666666666666,0.0,0.0
16,0.0,0.0,0.0,1.0,1.0,0.0,0.0,1.0,0.0,100.0,1.0,1.1856,26.0,0.0,0.0,0.0,59.999996,0.0,26.0,26.0,26.0,26.0,0.07737499999999997,0.2773000000000001,-0.0699,270.294,-2.4466,-2.2348749999999997,-1.8512,-1.7433333333333334,-222.0,216.025,190.637875,0.0,0.0,0.0,0.0,0.03279999999999994,-5.498166666666667,-5.498166666666667,-0.7086,-0.6726666666666666,0.054444444444444295,-1.3449999999999998,67.962,0.07600000000000007,-0.4016,-0.5479999999999992,100.0,1.0,1.0,209.79333333333335,0.0,0.0,0.0,0.0,0.0,0.0,0.0,8892.4,0.0,55.0,5.0,244.63666666666666,0.0,0.0,0.0,0.0,0.0,0.0,1.0,0.0,0.8069999999999986,0.8069999999999986,0.0,0.0,0.0,55.0,616.79921,10000.0,85.000001,85.000001,85.000001,85.000001,395.0,0.0,0.0,0.0,1.0,166.665,25.681,25.681,29.19,29.19,34.0,-14.224999999999998,17.308,-26.405,32.51,0.0,1782.868,-0.02499999999999858,100.0,35.392,36.363,24.89,25.681,0.0,0.0,100.0,0.0,0.0,0.0,0.0,3343.0,3439.6,3778.3333333333335,3888.8,304.8445,303.8976666666667,315.75475,315.1742,21.78333333333333,20.8028,22.185625,21.4955,314.999998,314.999998,324.999988,324.999988,99.5513,99.51398333333333,99.58342857142857,99.55065714285715,0.2602500000000001,-0.16525,-0.05359999999999998,0.1958333333333333,-0.026999999999999247,-0.045000000000001705,1.6185,1.6059999999999999,37.146,31.0175,39.66,35.347,53.379999999999995,38.926,65.06,54.039500000000004,51.803,37.8315,63.275,52.0755,51.364999999999995,37.314,63.0015,51.247,-0.23299999999999987,-0.2333333333333334,0.11748000000000001,0.108575,0.0,212.74666666666667,212.82,209.79333333333335,209.79333333333335,0.0,0.0
17,0.0,0.0,0.0,1.0,1.0,0.0,0.0,1.0,0.0,100.0,1.0,1.1856,26.0,0.0,0.0,0.0,59.999996,0.0,26.0,26.0,26.0,26.0,0.04837500000000006,0.28980000000000006,-0.02586666666666667,269.867,-2.3911,-2.2346250000000003,-1.8772000000000002,-1.7586666666666668,-218.53,216.0075,190.615125,0.0,0.0,0.0,0.0,0.03483333333333338,-5.498166666666667,-5.498166666666667,-0.6882,0.496,0.022222222222222143,0.7519999999999998,68.10300000000001,0.06259999999999999,-0.37157500000000004,-0.12399999999999967,100.0,1.0,1.0,210.10666666666668,0.0,0.0,0.0,0.0,0.0,0.0,0.0,8905.6,0.0,55.0,5.0,245.14333333333335,1.0,0.0,0.0,0.0,0.0,0.0,1.0,0.0,0.8580000000000005,0.8580000000000005,0.0,0.0,1.0,55.0,616.79921,10000.0,85.000001,85.000001,85.000001,85.000001,395.0,0.0,0.0,0.0,1.0,333.33500000000004,25.65,25.65,28.748,28.748,34.0,-13.835,16.095999999999997,-30.0875,35.2025,0.0,1782.815,0.19000000000000128,100.0,36.059,36.328,24.876,25.47,0.0,0.0,100.0,0.0,0.0,0.0,0.0,3275.5714285714284,3317.0,4183.0,4187.9,304.789,304.42333333333335,314.83025,314.6016,21.79288888888889,20.8096,22.197,21.5047,314.999998,314.999998,324.999988,324.999988,99.55134285714286,99.514,99.58358571428572,99.55081428571428,0.25275000000000003,-0.17274999999999996,-0.04820000000000002,0.18283333333333318,-0.03500000000000014,-0.030000000000001137,1.578,1.5425,37.206,31.060000000000002,39.730999999999995,35.403999999999996,53.39,38.9705,65.08,54.0985,51.812,37.873,63.293,52.1325,51.372,37.354,63.016,51.3025,-0.22249999999999992,-0.24766666666666648,0.10663,0.104025,0.0,213.28,213.255,210.10666666666668,210.10666666666668,0.0,0.0
18,0.0,0.0,0.0,1.0,1.0,0.0,0.0,1.0,0.0,100.0,1.0,1.1856,26.0,0.0,0.0,0.0,59.999996,0.0,26.0,26.0,26.0,26.0,0.003375000000000128,0.27990000000000004,-0.0037,269.867,-2.4188,-2.20825,-1.8867,-1.710888888888889,-215.05,215.9925,190.59275,0.0,0.0,0.0,0.0,0.036833333333333385,-5.498166666666667,-5.498166666666667,-0.7118,-0.5053333333333333,0.03588888888888886,-0.6720000000000002,68.243,0.04059999999999997,-0.40637500000000004,0.20199999999999996,100.0,1.0,1.0,210.63333333333333,0.0,0.0,0.0,0.0,0.0,0.0,0.0,8927.9,0.0,55.0,5.0,245.65,0.0,0.0,0.0,0.0,0.0,0.0,1.0,0.0,0.9089999999999989,0.9089999999999989,0.0,0.0,0.0,55.0,616.79921,10000.0,85.000001,85.000001,85.000001,85.000001,395.0,0.0,0.0,0.0,1.0,166.665,25.146,25.146,29.007,29.007,34.0,-16.03,15.815999999999999,-29.490000000000002,30.5625,0.0,1782.767,0.22500000000000142,100.0,35.835,36.384,25.147,25.7245,0.0,0.0,100.0,0.0,0.0,0.0,0.0,3470.0,3519.1,3896.3333333333335,3931.0,304.43,303.668,315.53825,315.1416,21.802333333333333,20.8163,22.2085,21.514,314.999998,314.999998,324.999988,324.999988,99.55137142857143,99.51403333333333,99.58371428571428,99.55094285714286,0.23324999999999996,-0.19525000000000003,-0.08920000000000006,0.15466666666666673,-0.05550000000000033,-0.046666666666666856,1.605,1.6085,37.263999999999996,31.102,39.803,35.463,53.396,39.01,65.098,54.152,51.817,37.91,63.309,52.1835,51.375,37.39,63.0285,51.3525,-0.22099999999999986,-0.25133333333333363,0.10603000000000001,0.117305,0.0,213.70666666666668,213.64,210.63333333333333,210.63333333333333,0.0,0.0
19,0.0,0.0,0.0,1.0,1.0,0.0,0.0,1.0,0.0,100.0,1.0,1.1856,26.0,0.0,0.0,0.0,59.999996,0.0,26.0,26.0,26.0,26.0,-0.02124999999999999,0.3043,0.068,269.394,-2.3176,-2.3341250000000002,-1.8816000000000002,-1.7132222222222222,-211.76999999999998,215.98000000000002,190.571375,0.0,0.0,0.0,0.0,0.0387333333333334,-5.498166666666667,-5.498166666666667,-0.6924,0.935,0.022555555555555662,-1.0300000000000002,68.375,0.020299999999999985,-0.38022500000000004,0.34999999999999964,100.0,1.0,1.0,210.94333333333333,0.0,0.0,0.0,0.0,0.0,0.0,0.0,8941.1,0.0,55.0,5.0,246.12333333333333,1.0,0.0,0.0,0.0,0.0,0.0,1.0,0.0,0.9570000000000007,0.9570000000000007,0.0,0.0,1.0,55.0,616.79921,10000.0,85.000001,85.000001,85.000001,85.000001,395.0,0.0,0.0,0.0,1.0,166.665,24.872,24.872,28.58,28.58,34.0,-15.259999999999998,15.306,-33.785,32.13,0.0,1782.719,0.26000000000000156,100.0,36.489,36.681,25.019,25.5295,0.0,0.0,100.0,0.0,0.0,0.0,0.0,3416.714285714286,3347.9,4207.888888888889,4229.4,304.4225,303.9506666666667,314.85975,314.4628,21.811222222222224,20.8227,22.21925,21.5227,314.999998,314.999998,324.999988,324.999988,99.5514,99.51405,99.58384285714286,99.55108571428572,0.2230000000000001,-0.21824999999999994,-0.11460000000000004,0.1263333333333332,-0.029500000000000526,-0.04833333333333201,1.5485,1.5655000000000001,37.32,31.142,39.870000000000005,35.516999999999996,53.405,39.0525,65.11449999999999,54.204,51.824,37.95,63.324,52.234,51.379999999999995,37.4285,63.0405,51.4015,-0.22550000000000003,-0.2530000000000001,0.103605,0.11358000000000001,0.0,214.12666666666667,214.11,210.94333333333333,210.94333333333333,0.0,0.0
20,0.0,0.0,0.0,1.0,1.0,0.0,0.0,1.0,0.0,100.0,1.0,1.1856,26.0,0.0,0.0,0.0,59.999996,0.0,26.0,26.0,26.0,26.0,-0.008749999999999925,0.2744,0.025,269.943,-2.3932,-2.309375,-1.7919,-1.8485555555555557,-208.28,215.965,190.549125,0.0,0.0,0.0,0.0,0.04076666666666651,-5.498166666666667,-5.498166666666667,-0.7112,-1.4843333333333333,0.007333333333333192,0.03600000000000003,68.516,0.0045999999999999375,-0.41392500000000004,0.35599999999999987,100.0,1.0,1.0,211.36333333333334,0.0,0.0,0.0,0.0,0.0,0.0,0.0,8958.9,0.0,55.0,5.0,246.63333333333333,0.0,0.0,0.0,0.0,0.0,0.0,0.0,0.0,1.0079999999999991,1.0079999999999991,0.0,0.0,0.0,55.0,616.79921,10000.0,85.000001,85.000001,85.000001,85.000001,395.0,0.0,0.0,0.0,1.0,166.665,25.742,25.742,28.61,28.61,34.0,-15.555,14.972000000000001,-30.38,31.0475,0.0,1782.667,0.2699999999999996,100.0,36.168,36.084,25.778,25.685499999999998,0.0,0.0,100.0,0.0,0.0,0.0,0.0,3235.285714285714,3376.7,3919.3333333333335,3947.6000000000004,305.0255,304.2633333333333,315.31225,315.022,21.820444444444444,20.8294,22.230875,21.5321,314.999998,314.999998,324.999988,324.999988,99.55142857142857,99.51408333333333,99.58398571428572,99.55124285714285,0.2137500000000001,-0.21724999999999994,-0.11639999999999995,0.1166666666666667,-0.04800000000000004,-0.045000000000001705,1.5385,1.5554999999999999,37.378,31.183500000000002,39.943,35.576,53.408,39.095,65.137,54.26,51.826,37.9895,63.3445,52.288,51.379999999999995,37.467,63.0575,51.454,-0.21150000000000002,-0.2586666666666666,0.10871000000000001,0.10067500000000001,0.0,214.50333333333333,214.47,211.36333333333334,211.36333333333334,0.0,0.0
21,0.0,0.0,0.0,1.0,1.0,0.0,0.0,1.0,0.0,100.0,1.0,1.1856,26.0,0.0,0.0,0.0,59.999996,0.0,26.0,26.0,26.0,26.0,-0.026499999999999968,0.29269999999999996,-0.08043333333333334,270.157,-2.3439,-2.324125,-1.8450000000000002,-1.8151111111111111,-204.99,215.95,190.52725,0.0,0.0,0.0,0.0,0.04269999999999996,-5.498166666666667,-5.498166666666667,-0.7239,0.8716666666666667,-0.017888888888888843,0.2450000000000001,68.642,-0.012499999999999956,-0.3924,0.3960000000000008,100.0,1.0,1.0,211.94333333333333,0.0,0.0,0.0,0.0,0.0,0.0,0.0,8983.4,0.0,55.0,5.0,247.08333333333334,1.0,0.0,0.0,0.0,0.0,0.0,0.0,0.0,1.056000000000001,1.056000000000001,0.0,0.0,1.0,55.0,616.79921,10000.0,85.000001,85.000001,85.000001,85.000001,395.0,0.0,0.0,0.0,1.0,166.665,25.375,25.375,29.48,29.48,34.0,-15.5125,14.911999999999999,-30.9675,29.08,0.0,1782.62,0.120000000000001,100.0,36.588,36.171,25.107,24.9735,0.0,0.0,100.0,0.0,0.0,0.0,0.0,3332.714285714286,3349.7,3946.1111111111113,3879.7,304.6195,304.33,315.45125,315.36,21.829333333333334,20.8358,22.241375,21.5406,314.999998,314.999998,324.999988,324.999988,99.55145714285715,99.51411666666667,99.58412857142856,99.55137142857143,0.21625000000000005,-0.21899999999999997,-0.12879999999999991,0.11250000000000004,-0.018499999999999517,-0.05833333333333002,1.6655,1.6604999999999999,37.434,31.2235,40.007999999999996,35.629,53.414,39.1375,65.1515,54.307,51.831,38.028999999999996,63.357,52.333,51.384,37.504999999999995,63.067,51.498,-0.22849999999999993,-0.2456666666666667,0.10715000000000001,0.10848000000000001,0.0,214.93333333333334,214.93,211.94333333333333,211.94333333333333,0.0,0.0
22,0.0,0.0,0.0,1.0,1.0,0.0,0.0,1.0,0.0,100.0,1.0,1.1856,26.0,0.0,0.0,0.0,59.999996,0.0,26.0,26.0,26.0,26.0,-0.046499999999999986,0.2823,0.011300000000000001,269.684,-2.2787,-2.375,-1.8446,-1.8055555555555558,-201.49,215.935,190.503375,0.0,0.0,0.0,0.0,0.0447333333333334,-5.498166666666667,-5.498166666666667,-0.7069000000000001,-0.369,-0.013666666666666938,-0.6560000000000001,68.78399999999999,-0.019399999999999973,-0.391175,0.34999999999999964,100.0,1.0,1.0,212.14,0.0,0.0,0.0,0.0,0.0,0.0,0.0,8991.8,0.0,55.0,5.0,247.59666666666666,0.0,0.0,0.0,0.0,0.0,0.0,0.0,0.0,1.1069999999999993,1.1069999999999993,0.0,0.0,0.0,55.0,616.79921,10000.0,85.000001,85.000001,85.000001,85.000001,395.0,0.0,0.0,0.0,1.0,166.665,25.512999999999998,25.512999999999998,28.427,28.427,34.0,-15.267499999999998,13.854,-34.365,30.3925,0.0,1782.569,0.07499999999999929,100.0,36.480000000000004,36.354,25.721,25.4875,0.0,0.0,100.0,0.0,0.0,0.0,0.0,3293.285714285714,3200.6,4119.222222222223,4093.3,304.842,304.522,315.0055,314.6704,21.83877777777778,20.8425,22.253,21.55,314.999998,314.999998,324.999988,324.999988,99.55148571428572,99.51415,99.58428571428571,99.55151428571429,0.2015,-0.23949999999999994,-0.14959999999999996,0.08533333333333326,-0.04349999999999987,-0.036666666666668846,1.532,1.5385,37.492000000000004,31.2655,40.081,35.687,53.42,39.1815,65.1745,54.364,51.836,38.070499999999996,63.378,52.3875,51.387,37.5445,63.0845,51.5515,-0.23399999999999999,-0.2416666666666667,0.10219500000000001,0.10695500000000001,0.0,215.37,215.335,212.14,212.14,0.0,0.0
23,0.0,0.0,0.0,1.0,1.0,0.0,0.0,1.0,0.0,100.0,1.0,1.1856,26.0,0.0,0.0,0.0,59.999996,0.0,26.0,26.0,26.0,26.0,-0.01924999999999999,0.24550000000000005,-0.04493333333333333,269.9125,-2.3039,-2.333,-1.8900000000000001,-1.7803333333333333,-197.97,215.91750000000002,190.48,0.0,0.0,0.0,0.0,0.04676666666666651,-5.498166666666667,-5.498166666666667,-0.7324,0.08033333333333333,-0.014666666666666828,0.7319999999999998,68.918,-0.021299999999999986,-0.418675,0.27200000000000024,100.0,1.0,1.0,212.7866666666667,0.0,0.0,0.0,0.0,0.0,0.0,0.0,9019.3,0.0,55.0,5.0,248.07999999999998,1.0,0.0,0.0,0.0,0.0,0.0,0.0,0.0,1.1580000000000013,1.1580000000000013,0.0,0.0,1.0,55.0,616.79921,10000.0,85.000001,85.000001,85.000001,85.000001,395.0,0.0,0.0,0.0,1.0,333.33500000000004,24.75,24.75,29.846,29.846,34.0,-15.98,15.072000000000001,-30.7775,27.5175,0.0,1782.517,-0.00999999999999801,100.0,37.025,36.287,25.54,25.28,0.0,0.0,100.0,0.0,0.0,0.0,0.0,3468.5714285714284,3403.2,3782.8888888888887,3767.4,304.146,304.14633333333336,315.86225,315.6488,21.848333333333333,20.8493,22.264375,21.5592,314.999998,314.999998,324.999988,324.999988,99.55151428571429,99.51418333333334,99.58442857142857,99.55165714285714,0.2137500000000001,-0.22375,-0.14439999999999997,0.1076666666666668,-0.041499999999999204,-0.04833333333333201,1.6255,1.6395,37.552,31.308,40.152,35.745,53.427,39.227000000000004,65.1925,54.417,51.842,38.1125,63.394,52.4385,51.391,37.585499999999996,63.097,51.601,-0.23950000000000005,-0.23833333333333373,0.108895,0.11046,0.0,215.7866666666667,215.755,212.7866666666667,212.7866666666667,0.0,0.0
24,0.0,0.0,0.0,1.0,1.0,0.0,0.0,1.0,0.0,100.0,1.0,1.1856,26.0,0.0,0.0,0.0,59.999996,0.0,26.0,26.0,26.0,26.0,-0.01849999999999996,0.2895000000000001,-0.0181,270.0195,-2.3345000000000002,-2.3355,-1.8159,-1.8038888888888889,-194.66,215.9025,190.45725,0.0,0.0,0.0,0.0,0.048699999999999966,-5.498166666666667,-5.498166666666667,-0.7319,-0.8,0.0,0.8969999999999998,69.05,-0.01319999999999999,-0.39690000000000003,0.0259999999999998,100.0,1.0,1.0,212.97333333333333,0.0,0.0,0.0,0.0,0.0,0.0,0.0,9027.2,0.0,55.0,5.0,248.55333333333334,0.0,0.0,0.0,0.0,0.0,0.0,0.0,0.0,1.2059999999999995,1.2059999999999995,0.0,0.0,0.0,55.0,616.79921,10000.0,85.000001,85.000001,85.000001,85.000001,395.0,0.0,0.0,0.0,1.0,166.665,25.986,25.986,28.58,28.58,34.0,-14.782499999999999,14.464000000000002,-32.7775,30.795,0.0,1782.469,0.010000000000001563,100.0,36.572,35.952,25.67,25.298000000000002,0.0,0.0,100.0,0.0,0.0,0.0,0.0,3105.285714285714,3269.5,4094.777777777778,4029.8,305.345,304.6116666666667,314.95925,314.9434,21.857,20.8555,22.275125,21.568,314.999998,314.999998,324.999988,324.999988,99.55154285714286,99.5142,99.58455714285714,99.5518,0.2037500000000001,-0.22199999999999998,-0.12939999999999996,0.11083333333333334,-0.038000000000000256,-0.04333333333332945,1.5665,1.5585,37.605999999999995,31.3465,40.219,35.8,53.431,39.2665,65.212,54.468,51.845,38.1495,63.412,52.488,51.391999999999996,37.621,63.1115,51.6485,-0.23699999999999988,-0.23666666666666636,0.10064000000000001,0.11545000000000001,0.0,216.17333333333335,216.16500000000002,212.97333333333333,212.97333333333333,0.0,0.0
25,0.0,0.0,0.0,1.0,1.0,0.0,0.0,1.0,0.0,100.0,1.0,1.1856,26.0,0.0,0.0,0.0,59.999996,0.0,26.0,26.0,26.0,26.0,-0.017124999999999946,0.274,-0.04286666666666667,269.684,-2.3897000000000004,-2.302375,-1.8216,-1.816888888888889,-191.14,215.8825,190.431625,0.0,0.0,0.0,0.0,0.0507333333333333,-5.498166666666667,-5.498166666666667,-0.7656000000000001,0.25066666666666665,-0.00855555555555565,-1.0700000000000003,69.18299999999999,-0.007299999999999973,-0.406725,0.1120000000000001,100.0,1.0,1.0,213.57,0.0,0.0,0.0,0.0,0.0,0.0,0.0,9052.5,0.0,55.0,5.0,249.03333333333336,1.0,0.0,0.0,0.0,0.0,0.0,0.0,0.0,1.256999999999998,1.256999999999998,0.0,0.0,1.0,55.0,616.79921,10000.0,85.000001,85.000001,85.000001,85.000001,395.0,0.0,0.0,0.0,1.0,333.33500000000004,24.429000000000002,24.429000000000002,29.448999999999998,29.448999999999998,34.0,-17.9625,15.549999999999999,-29.564999999999998,28.8425,0.0,1782.417,-0.03999999999999915,100.0,36.637,36.555,25.308,25.141,0.0,0.0,100.0,0.0,0.0,0.0,0.0,3648.142857142857,3512.7,3833.1111111111113,3818.1000000000004,303.931,303.657,315.712,315.437,21.866333333333333,20.8623,22.286375,21.5771,314.999998,314.999998,324.999988,324.999988,99.55157142857144,99.51423333333334,99.58471428571428,99.55194285714286,0.20999999999999996,-0.22075,-0.12379999999999991,0.11233333333333317,-0.038000000000000256,-0.054999999999999716,1.637,1.62,37.665,31.389499999999998,40.29,35.857,53.435,39.312,65.229,54.519,51.848,38.192,63.427,52.537,51.394,37.662,63.123,51.6965,-0.23449999999999993,-0.2330000000000001,0.10071000000000001,0.10599000000000001,0.0,216.59,216.585,213.57,213.57,0.0,0.0
26,0.0,0.0,0.0,1.0,1.0,0.0,0.0,1.0,0.0,100.0,1.0,1.1856,26.0,0.0,0.0,0.0,59.999996,0.0,26.0,26.0,26.0,26.0,-0.022375000000000034,0.2876000000000001,0.11693333333333333,268.6005,-2.3581000000000003,-2.365125,-1.8307,-1.802888888888889,-187.39999999999998,215.8625,190.4045,0.0,0.0,0.0,0.0,0.05293333333333339,-5.498166666666667,-5.498166666666667,-0.7255,-0.050666666666666665,-0.01188888888888906,-0.42100000000000026,69.331,-0.0030000000000000027,-0.39792500000000003,-0.05600000000000005,100.0,1.0,1.0,213.66666666666669,0.0,0.0,0.0,0.0,0.0,0.0,0.0,9056.5,0.0,55.0,5.0,249.56666666666666,0.0,0.0,0.0,0.0,0.0,0.0,0.0,0.0,1.311,1.311,0.0,0.0,0.0,55.0,616.79921,10000.0,85.000001,85.000001,85.000001,85.000001,395.0,0.0,0.0,0.0,1.0,166.665,24.475,24.475,27.496,27.496,34.0,-15.145,14.989999999999998,-36.1225,34.7825,0.0,1782.365,-0.2049999999999983,100.0,37.346000000000004,37.217,26.029,25.8685,0.0,0.0,100.0,0.0,0.0,0.0,0.0,3394.5714285714284,3260.6,4411.0,4404.1,304.519,304.36566666666664,314.259,313.983,21.876444444444445,20.8697,22.298625,21.5872,314.999998,314.999998,324.999988,324.999988,99.5516,99.51426666666667,99.58487142857143,99.55211428571428,0.23175000000000012,-0.22075,-0.12179999999999991,0.11033333333333317,-0.042500000000000426,-0.03499999999999659,1.4649999999999999,1.469,37.727999999999994,31.435499999999998,40.366,35.92,53.446,39.3605,65.2535,54.58,51.858000000000004,38.2375,63.4495,52.595,51.400999999999996,37.706,63.141999999999996,51.753,-0.262,-0.22566666666666668,0.10742000000000002,0.10454000000000001,0.0,217.07,217.06,213.66666666666669,213.66666666666669,0.0,0.0
27,0.0,0.0,0.0,1.0,1.0,0.0,0.0,1.0,0.0,100.0,1.0,1.1856,26.0,0.0,0.0,0.0,59.999996,0.0,26.0,26.0,26.0,26.0,0.018124999999999947,0.24019999999999997,-0.12623333333333334,269.7905,-2.3542,-2.3036250000000003,-1.8714,-1.8634444444444445,-184.07,215.845,190.38175,0.0,0.0,0.0,0.0,0.05486666666666651,-5.498166666666667,-5.498166666666667,-0.7726000000000001,-0.7806666666666666,-0.009333333333333194,-0.5249999999999999,69.453,0.0045999999999999375,-0.45405,-0.17600000000000016,100.0,1.0,1.0,214.43,0.0,0.0,0.0,0.0,0.0,0.0,0.0,9088.9,0.0,55.0,5.0,250.01,1.0,0.0,0.0,0.0,0.0,0.0,0.0,0.0,1.3589999999999982,1.3589999999999982,0.0,0.0,1.0,55.0,616.79921,10000.0,85.000001,85.000001,85.000001,85.000001,395.0,0.0,0.0,0.0,1.0,166.665,24.628,24.628,29.373,29.373,34.0,-15.274999999999999,15.508,-27.9725,28.7575,0.0,1782.317,-0.21499999999999986,100.0,36.955,37.068,25.817,25.7115,0.0,0.0,100.0,0.0,0.0,0.0,0.0,3438.142857142857,3357.0,3650.4444444444443,3644.4,304.5565,304.1293333333333,316.06225,315.8174,21.88522222222222,20.8762,22.30925,21.5959,314.999998,314.999998,324.999988,324.999988,99.55162857142857,99.5143,99.585,99.55224285714286,0.23075,-0.20675,-0.1097999999999999,0.1353333333333333,-0.04449999999999932,-0.02499999999999858,1.637,1.6375000000000002,37.783,31.476,40.433,35.975,53.452,39.402,65.27,54.6295,51.863,38.275999999999996,63.464,52.6425,51.403999999999996,37.743,63.1535,51.799,-0.26249999999999996,-0.2243333333333335,0.10077000000000001,0.11146,0.0,217.39333333333332,217.41,214.43,214.43,0.0,0.0
28,0.0,0.0,0.0,1.0,1.0,0.0,0.0,1.0,0.0,100.0,1.0,1.1856,26.0,0.0,0.0,0.0,59.999996,0.0,26.0,26.0,26.0,26.0,0.011500000000000066,0.2782,-0.039400000000000004,269.531,-2.3186,-2.310625,-1.8487,-1.798,-180.73000000000002,215.8275,190.357375,0.0,0.0,0.0,0.0,0.05679999999999996,-5.498166666666667,-5.498166666666667,-0.7525000000000001,0.8260000000000001,-0.008444444444444255,-0.4710000000000001,69.581,0.012199999999999989,-0.39135000000000003,-0.21200000000000063,100.0,1.0,1.0,214.67333333333335,0.0,0.0,0.0,0.0,0.0,0.0,0.0,9099.1,0.0,55.0,5.0,250.46333333333334,0.0,0.0,0.0,0.0,0.0,0.0,0.0,0.0,1.407,1.407,0.0,0.0,0.0,55.0,616.79921,10000.0,85.000001,85.000001,85.000001,85.000001,395.0,0.0,0.0,0.0,1.0,166.665,24.933,24.933,28.9,28.9,34.0,-14.092500000000001,15.122,-32.09,32.0875,0.0,1782.269,-0.25,100.0,36.895,36.921,25.225,25.3975,0.0,0.0,100.0,0.0,0.0,0.0,0.0,3354.285714285714,3271.0,4109.0,4074.6000000000004,304.6565,304.36566666666664,315.15375,314.8494,21.894111111111112,20.8826,22.31975,21.6046,314.999998,314.999998,324.999988,324.999988,99.55167142857142,99.51431666666667,99.58514285714286,99.55238571428572,0.23924999999999996,-0.20724999999999993,-0.1127999999999999,0.13250000000000006,-0.036999999999999034,-0.03166666666666629,1.589,1.5835,37.838,31.516,40.498999999999995,36.028999999999996,53.46,39.442499999999995,65.285,54.6785,51.870000000000005,38.314499999999995,63.4775,52.69,51.409,37.78,63.1635,51.8455,-0.262,-0.21766666666666667,0.104535,0.11197000000000001,0.0,217.84333333333333,217.84,214.67333333333335,214.67333333333335,0.0,0.0
29,0.0,0.0,0.0,1.0,1.0,0.0,0.0,1.0,0.0,100.0,1.0,1.1856,26.0,0.0,0.0,0.0,59.999996,0.0,26.0,26.0,26.0,26.0,0.04112500000000008,0.2513000000000001,-0.0091,269.394,-2.3072,-2.35725,-1.8281,-1.8012222222222223,-177.18,215.81,190.330875,0.0,0.0,0.0,0.0,0.05886666666666651,-5.498166666666667,-5.498166666666667,-0.7739,-0.9876666666666667,0.002666666666666595,0.734,69.71600000000001,0.018000000000000016,-0.426275,-0.35999999999999943,100.0,1.0,1.0,215.02666666666667,0.0,0.0,0.0,0.0,0.0,0.0,0.0,9114.3,0.0,55.0,5.0,250.95666666666665,1.0,0.0,0.0,0.0,0.0,0.0,0.0,0.0,1.4579999999999984,1.4579999999999984,0.0,0.0,1.0,55.0,616.79921,10000.0,85.000001,85.000001,85.000001,85.000001,395.0,0.0,0.0,0.0,1.0,333.33500000000004,24.704,24.704,28.823999999999998,28.823999999999998,34.0,-13.212499999999999,17.948,-29.307499999999997,33.0975,0.0,1782.217,-0.33500000000000085,100.0,36.789,36.801,25.757,25.7835,0.0,0.0,100.0,0.0,0.0,0.0,0.0,3361.714285714286,3461.6,3849.3333333333335,4043.1000000000004,304.542,303.9026666666667,315.532,314.89,21.903333333333332,20.8894,22.33125,21.6141,314.999998,314.999998,324.999988,324.999988,99.5517,99.51435,99.5853,99.55252857142857,0.25525,-0.1815,-0.09899999999999998,0.15349999999999997,-0.015499999999999403,-0.05833333333333002,1.548,1.5390000000000001,37.896,31.558999999999997,40.57,36.088,53.466,39.485,65.3055,54.735,51.875,38.354,63.4965,52.7445,51.412,37.818,63.1785,51.897999999999996,-0.26550000000000007,-0.21233333333333348,0.10972000000000001,0.10941500000000001,0.0,218.19333333333333,218.22,215.02666666666667,215.02666666666667,0.0,0.0
30,0.0,0.0,0.0,1.0,1.0,0.0,0.0,1.0,0.0,100.0,1.0,1.1856,26.0,0.0,0.0,0.0,59.999996,0.0,26.0,26.0,26.0,26.0,0.03925000000000001,0.2510000000000001,0.03233333333333333,268.9515,-2.3192000000000004,-2.25075,-1.8904,-1.8564444444444443,-173.82999999999998,215.79250000000002,190.306,0.0,0.0,0.0,0.0,0.060799999999999965,-5.498166666666667,-5.498166666666667,-0.7582,1.0846666666666667,-0.0025555555555558662,0.766,69.839,0.026800000000000157,-0.40915,-0.43599999999999994,100.0,1.0,1.0,215.47,0.0,0.0,0.0,0.0,0.0,0.0,0.0,9132.9,0.0,55.0,5.0,251.39666666666665,0.0,0.0,0.0,0.0,0.0,0.0,1.0,0.0,1.5060000000000002,1.5060000000000002,0.0,0.0,0.0,55.0,616.79921,10000.0,85.000001,85.000001,85.000001,85.000001,395.0,0.0,0.0,0.0,1.0,333.33500000000004,23.712,23.712,28.945999999999998,28.945999999999998,34.0,-13.05,16.444000000000003,-30.822499999999998,33.1,0.0,1782.167,-0.3000000000000007,100.0,37.756,37.551,25.45,25.661,0.0,0.0,100.0,0.0,0.0,0.0,0.0,3448.4285714285716,3452.5,4047.4444444444443,3984.8,304.1675,303.923,315.306,315.0352,21.912333333333333,20.8962,22.34175,21.622799999999998,314.999998,314.999998,324.999988,324.999988,99.55172857142857,99.51436666666666,99.58544285714285,99.55268571428572,0.26925,-0.1865,-0.08560000000000001,0.15183333333333326,-0.04749999999999943,-0.02833333333332888,1.571,1.5465,37.952,31.601,40.635999999999996,36.143,53.479,39.531,65.322,54.788,51.885999999999996,38.397,63.5105,52.795500000000004,51.421,37.8595,63.189499999999995,51.948,-0.27,-0.22133333333333338,0.10239500000000001,0.10659500000000001,0.0,218.64333333333335,218.65,215.47,215.47,0.0,0.0
31,0.0,0.0,0.0,1.0,1.0,0.0,0.0,1.0,0.0,100.0,1.0,1.1856,26.0,0.0,0.0,0.0,59.999996,0.0,26.0,26.0,26.0,26.0,0.034250000000000114,0.2571000000000001,0.0037666666666666664,268.753,-2.4307,-2.2258750000000003,-1.8457,-1.8496666666666668,-170.26,215.7775,190.280375,0.0,0.0,0.0,0.0,0.06286666666666652,-5.498166666666667,-5.498166666666667,-0.7629,-0.8913333333333334,0.00533333333333319,-0.6219999999999999,69.975,0.034499999999999975,-0.4389,-0.3700000000000001,100.0,1.0,1.0,215.77666666666667,0.0,0.0,0.0,0.0,0.0,0.0,0.0,9146.0,0.0,55.0,5.0,251.88666666666666,1.0,0.0,0.0,0.0,0.0,0.0,1.0,0.0,1.5569999999999986,1.5569999999999986,0.0,0.0,1.0,55.0,616.79921,10000.0,85.000001,85.000001,85.000001,85.000001,395.0,0.0,0.0,0.0,1.0,166.665,23.743000000000002,23.743000000000002,28.0,28.0,34.0,-14.879999999999999,17.067999999999998,-29.8825,33.6475,0.0,1782.119,-0.33999999999999986,100.0,37.233000000000004,37.743,25.946,26.264499999999998,0.0,0.0,100.0,0.0,0.0,0.0,0.0,3495.285714285714,3587.4,3996.0,4013.7,304.403,303.5013333333333,315.2415,314.9796,21.921666666666667,20.9032,22.35325,21.6324,314.999998,314.999998,324.999988,324.999988,99.55177142857143,99.5144,99.58558571428571,99.55282857142858,0.2597499999999999,-0.18325000000000002,-0.08079999999999998,0.15866666666666673,-0.04049999999999976,-0.041666666666671404,1.5585,1.5394999999999999,38.01,31.6445,40.708,36.202,53.486999999999995,39.572,65.342,54.842,51.891999999999996,38.4355,63.528999999999996,52.8475,51.425,37.897,63.204499999999996,51.9985,-0.268,-0.21766666666666667,0.10526,0.10593000000000001,0.0,219.00333333333333,219.01999999999998,215.77666666666667,215.77666666666667,0.0,0.0
32,0.0,0.0,0.0,1.0,1.0,0.0,0.0,1.0,0.0,100.0,1.0,1.1856,26.0,0.0,0.0,0.0,59.999996,0.0,26.0,26.0,26.0,26.0,0.057374999999999954,0.2814000000000001,-0.0363,269.0735,-2.3311,-2.33875,-1.8235000000000001,-1.7573333333333332,-166.69,215.76,190.254625,0.0,0.0,0.0,0.0,0.0649666666666665,-5.498166666666667,-5.498166666666667,-0.7751,0.244,-0.017555555555555546,0.41400000000000015,70.105,0.03930000000000011,-0.43025,-0.5360000000000005,100.0,1.0,1.0,216.24666666666667,0.0,0.0,0.0,0.0,0.0,0.0,0.0,9165.9,0.0,55.0,5.0,252.35333333333335,0.0,0.0,0.0,0.0,0.0,0.0,1.0,0.0,1.6080000000000005,1.6080000000000005,0.0,0.0,0.0,55.0,616.79921,10000.0,85.000001,85.000001,85.000001,85.000001,395.0,0.0,0.0,0.0,1.0,333.33500000000004,24.277,24.277,28.687,28.687,34.0,-12.245000000000001,17.868,-28.595,34.8725,0.0,1782.066,-0.33999999999999986,100.0,37.374,37.623000000000005,25.54,25.8275,0.0,0.0,100.0,0.0,0.0,0.0,0.0,3310.0,3399.3,3962.6666666666665,4192.7,304.6255,304.1206666666667,315.3085,314.6346,21.931,20.9102,22.364375,21.6416,314.999998,314.999998,324.999988,324.999988,99.55181428571429,99.51443333333333,99.58572857142858,99.55297142857142,0.27525,-0.17149999999999999,-0.06879999999999997,0.1765000000000001,-0.04499999999999993,-0.04333333333332945,1.593,1.5635,38.069,31.688499999999998,40.777,36.26,53.495999999999995,39.6155,65.3575,54.8945,51.900999999999996,38.476,63.542500000000004,52.897999999999996,51.432,37.936,63.2145,52.0475,-0.27049999999999996,-0.21899999999999986,0.10170000000000001,0.11282,0.0,219.43,219.45,216.24666666666667,216.24666666666667,0.0,0.0
33,0.0,0.0,0.0,1.0,1.0,0.0,0.0,1.0,0.0,100.0,1.0,1.1856,26.0,0.0,0.0,0.0,59.999996,0.0,26.0,26.0,26.0,26.0,0.04299999999999993,0.2582,-0.0352,269.3025,-2.3925,-2.310625,-1.8518,-1.8306666666666669,-163.11,215.745,190.227625,0.0,0.0,0.0,0.0,0.06703333333333339,-5.498166666666667,-5.498166666666667,-0.7845000000000001,-0.6083333333333334,-0.002666666666666817,0.005999999999999783,70.236,0.041100000000000136,-0.4227,-0.3899999999999997,100.0,1.0,1.0,216.63333333333333,0.0,0.0,0.0,0.0,0.0,0.0,0.0,9182.3,0.0,55.0,5.0,252.82666666666665,1.0,0.0,0.0,0.0,0.0,0.0,1.0,0.0,1.658999999999999,1.658999999999999,0.0,0.0,1.0,55.0,616.79921,10000.0,85.000001,85.000001,85.000001,85.000001,395.0,0.0,0.0,0.0,1.0,166.665,24.536,24.536,28.992,28.992,34.0,-13.892499999999998,16.48,-29.45,33.6,0.0,1782.017,-0.33500000000000085,100.0,36.972,37.448,25.481,26.0225,0.0,0.0,100.0,0.0,0.0,0.0,0.0,3409.4285714285716,3307.8,3891.8888888888887,4021.4,304.617,304.2973333333333,315.5305,314.8894,21.94022222222222,20.917,22.375625,21.6511,314.999998,314.999998,324.999988,324.999988,99.55184285714286,99.51445,99.58587142857142,99.55312857142857,0.26275000000000004,-0.18399999999999994,-0.09179999999999988,0.1605000000000001,-0.03500000000000014,-0.046666666666666856,1.5695000000000001,1.5605,38.126000000000005,31.731,40.848,36.319,53.504999999999995,39.6555,65.3745,54.9495,51.908,38.5135,63.5575,52.951,51.437,37.9725,63.226,52.099000000000004,-0.2649999999999999,-0.2163333333333335,0.11040000000000001,0.109835,0.0,219.82999999999998,219.845,216.63333333333333,216.63333333333333,0.0,0.0
34,0.0,0.0,0.0,1.0,1.0,0.0,0.0,1.0,0.0,100.0,1.0,1.1856,26.0,0.0,0.0,0.0,59.999996,0.0,26.0,26.0,26.0,26.0,0.03875000000000006,0.25950000000000006,-0.07390000000000001,269.577,-2.4058,-2.241625,-1.9112,-1.7676666666666667,-159.74,215.73250000000002,190.201,0.0,0.0,0.0,0.0,0.06899999999999995,-5.498166666666667,-5.498166666666667,-0.8164,-0.7346666666666667,0.01922222222222203,-0.26000000000000023,70.35900000000001,0.045600000000000085,-0.433275,-0.4500000000000002,100.0,1.0,1.0,217.05,0.0,0.0,0.0,0.0,0.0,0.0,0.0,9200.0,0.0,55.0,5.0,253.26999999999998,0.0,0.0,0.0,0.0,0.0,0.0,1.0,0.0,1.7070000000000007,1.7070000000000007,0.0,0.0,0.0,55.0,616.79921,10000.0,85.000001,85.000001,85.000001,85.000001,395.0,0.0,0.0,0.0,1.0,333.33500000000004,24.902,24.902,29.221,29.221,34.0,-13.48,15.866,-29.4625,32.44,0.0,1781.968,-0.28999999999999915,100.0,36.782,37.236000000000004,25.254,26.003500000000003,0.0,0.0,100.0,0.0,0.0,0.0,0.0,3277.5714285714284,3307.0,3885.777777777778,3981.9,304.889,304.2916666666667,315.61325,315.0638,21.948888888888888,20.9234,22.386125,21.6599,314.999998,314.999998,324.999988,324.999988,99.55188571428572,99.51446666666666,99.58601428571428,99.55327142857143,0.2630000000000001,-0.1815,-0.08239999999999992,0.16583333333333328,-0.0519999999999996,-0.054999999999999716,1.5985,1.5819999999999999,38.181,31.7715,40.913,36.374,53.513,39.6935,65.3885,55.0005,51.915,38.549,63.57,53.0,51.442,38.007,63.235,52.147,-0.266,-0.2160000000000002,0.10794000000000001,0.10708500000000001,0.0,220.19333333333333,220.22500000000002,217.05,217.05,0.0,0.0
35,0.0,0.0,0.0,1.0,1.0,0.0,0.0,1.0,0.0,100.0,1.0,1.1856,26.0,0.0,0.0,0.0,59.999996,0.0,26.0,26.0,26.0,26.0,0.047125000000000083,0.24950000000000006,-0.05676666666666667,269.348,-2.3746,-2.26525,-1.8746,-1.762,-155.93,215.72,190.16875,0.0,0.0,0.0,0.0,0.07119999999999993,-5.498166666666667,-5.498166666666667,-0.8455,0.14566666666666667,-0.004777777777777992,-1.4020000000000001,70.495,0.05130000000000012,-0.4214,-0.4639999999999995,100.0,1.0,1.0,217.52666666666667,0.0,0.0,0.0,0.0,0.0,0.0,0.0,9220.1,0.0,55.0,5.0,253.75666666666666,1.0,0.0,0.0,0.0,0.0,0.0,1.0,0.0,1.7609999999999992,1.7609999999999992,0.0,0.0,1.0,55.0,616.79921,10000.0,85.000001,85.000001,85.000001,85.000001,395.0,0.0,0.0,0.0,1.0,166.665,24.185000000000002,24.185000000000002,28.717,28.717,34.0,-13.535,17.665999999999997,-28.189999999999998,31.4375,0.0,1781.915,-0.1750000000000007,100.0,36.653999999999996,37.66,25.173,25.5685,0.0,0.0,100.0,0.0,0.0,0.0,0.0,3394.4285714285716,3581.2,3855.3333333333335,3874.8,304.62,303.337,315.6985,315.3316,21.958555555555556,20.9309,22.397875,21.6696,314.999998,314.999998,324.999988,324.999988,99.55191428571429,99.5145,99.58617142857143,99.55341428571428,0.26475000000000004,-0.18299999999999994,-0.07279999999999998,0.16983333333333328,-0.03500000000000014,-0.03499999999999659,1.6179999999999999,1.5955,38.241,31.817999999999998,40.986999999999995,36.435,53.519999999999996,39.739,65.405,55.054,51.921,38.592,63.5845,53.052,51.445,38.048,63.246,52.197,-0.25350000000000006,-0.22999999999999998,0.10550500000000002,0.09903500000000001,0.0,220.61666666666667,220.65,217.52666666666667,217.52666666666667,0.0,0.0
