,ABS Active,ABS Enabled,AID Allow Tire Blankets,AID Auto Blip,AID Auto Clutch,AID Auto Shift,AID Fuel Rate,AID Ideal Line,AID Mech Damage,AID Stability,AID Tire Wear Rate,Air Density,Air Temp,Ballast,Best Lap Delta,Best Lap Time,Brake Bias,Brake Pos,Brake Temp FL,Brake Temp FR,Brake Temp RL,Brake Temp RR,CG Accel Lateral,CG Accel Longitudinal,CG Accel Vertical,CG Height,Camber FL,Camber FR,Camber RL,Camber RR,Car Coord X,Car Coord Y,Car Coord Z,Car Damage Front,Car Damage Left,Car Damage Rear,Car Damage Right,Car Pos Norm,Caster FL,Caster FR,Chassis Pitch Angle,Chassis Pitch Rate,Chassis Roll Angle,Chassis Roll Rate,Chassis Velocity X,Chassis Velocity Y,Chassis Velocity Z,Chassis Yaw Rate,Clutch Pos,DRS Active,DRS Available,Drive Train Speed,ERS Heat Charging,ERS Is Charging,ERS Max Energy,ERS Power Level,ERS Recovery Level,Engine Brake Setting,Engine Limiter,Engine RPM,Flags,Fuel Level,Gear,Ground Speed,HR Sample Clock,In Pit,KERS Charge,KERS Deployed Energy,KERS Input,KERS Max Energy,LR Sample Clock,Lap Invalidated,Lap Time,Lap Time2,Last Lap Time,Last Sector Time,MR Sample Clock,Max Fuel,Max Power,Max RPM,Max Sus Travel FL,Max Sus Travel FR,Max Sus Travel RL,Max Sus Travel RR,Max Torque,Max Turbo Boost,Num Tires Off Track,Penalties Enabled,Position,Raw Data Sample Rate,Ride Height FL,Ride Height FR,Ride Height RL,Ride Height RR,Road Temp,Self Align Torque FL,Self Align Torque FR,Self Align Torque RL,Self Align Torque RR,Session Lap Count,Session Time Left,Steering Angle,Surface Grip,Suspension Travel FL,Suspension Travel FR,Suspension Travel RL,Suspension Travel RR,TC Active,TC Enabled,Throttle Pos,Tire Dirt Level FL,Tire Dirt Level FR,Tire Dirt Level RL,Tire Dirt Level RR,Tire Load FL,Tire Load FR,Tire Load RL,Tire Load RR,Tire Loaded Radius FL,Tire Loaded Radius FR,Tire Loaded Radius RL,Tire Loaded Radius RR,Tire Pressure FL,Tire Pressure FR,Tire Pressure RL,Tire Pressure RR,Tire Radius FL,Tire Radius FR,Tire Radius RL,Tire Radius RR,Tire Rubber Grip FL,Tire Rubber Grip FR,Tire Rubber Grip RL,Tire Rubber Grip RR,Tire Slip Angle FL,Tire Slip Angle FR,Tire Slip Angle RL,Tire Slip Angle RR,Tire Slip Ratio FL,Tire Slip Ratio FR,Tire Slip Ratio RL,Tire Slip Ratio RR,Tire Temp Core FL,Tire Temp Core FR,Tire Temp Core RL,Tire Temp Core RR,Tire Temp Inner FL,Tire Temp Inner FR,Tire Temp Inner RL,Tire Temp Inner RR,Tire Temp Middle FL,Tire Temp Middle FR,Tire Temp Middle RL,Tire Temp Middle RR,Tire Temp Outer FL,Tire Temp Outer FR,Tire Temp Outer RL,Tire Temp Outer RR,Toe In FL,Toe In FR,Toe In RL,Toe In RR,Turbo Boost,Wheel Angular Speed FL,Wheel Angular Speed FR,Wheel Angular Speed RL,Wheel Angular Speed RR,Wind Direction,Wind Speed
0,0.0,0.0,0.0,1.0,1.0,0.0,0.0,1.0,0.0,100.0,1.0,1.1856,26.0,0.0,0.0,0.0,59.99999,0.0,26.0,26.0,26.0,26.0,-0.07799999999999996,0.3106,0.02095,270.63,-2.3674,-2.300625,-1.7921,-1.828,-275.62,216.3375,190.963875,0.0,0.0,0.0,0.0,0.0016333333333333755,-5.498166666666667,-5.498166666666667,-0.6749,1.9486666666666668,-0.010444444444444478,-0.601,65.664,-0.02729999999999999,-0.35503333333333337,1.136000000000001,100.0,1.0,1.0,202.89333333333332,0.0,0.0,0.0,0.0,0.0,0.0,0.0,8599.9,0.0,55.0,5.0,236.36,0.0,0.0,0.0,0.0,0.0,0.0,0.0,0.0,0.0030000000000001137,0.0030000000000001137,0.0,0.0,0.0,55.0,616.79921,10000.0,85.0,85.0,85.0,85.0,395.0,0.0,0.0,0.0,1.0,20.0,25.391,25.391,29.602,29.602,34.0,-18.7425,14.668,-31.2275,27.005,0.0,1783.626,0.8399999999999999,100.0,35.761,35.101,23.965,23.9815,0.0,0.0,100.0,0.0,0.0,0.0,0.0,3327.625,3801.3,3940.125,3822.4,304.6166666666667,302.75475,315.38525,315.387,21.676,20.6766,21.963124999999998,21.3677,314.99999,314.99999,324.99998,324.99998,99.55328571428572,99.51261666666667,99.57888571428572,99.54911428571428,0.15599999999999992,-0.25775000000000003,-0.14859999999999995,0.07720000000000016,-0.05099999999999838,-0.06666666666666998,1.6365,1.696,36.474999999999994,30.229,38.269,34.548,54.224000000000004,37.7455,63.9955,53.427,52.562,36.7595,62.2325,51.494,52.085,36.3045,61.977000000000004,50.691,-0.16649999999999987,-0.2945000000000002,0.09745000000000001,0.10542000000000001,0.0,205.78,205.72500000000002,202.89333333333332,202.89333333333332,0.0,0.0
1,0.0,0.0,0.0,1.0,1.0,0.0,0.0,1.0,0.0,100.0,1.0,1.1856,26.0,0.0,0.0,0.0,59.999996,0.0,26.0,26.0,26.0,26.0,-0.09550000000000003,0.30889999999999995,0.05065,269.7905,-2.2827,-2.411375,-1.808,-1.7810000000000001,-272.07,216.33249999999998,190.942625,0.0,0.0,0.0,0.0,0.0036999999999999256,-5.498166666666667,-5.498166666666667,-0.6145,-1.1863333333333332,-0.05233333333333334,-0.31400000000000006,65.831,-0.04999999999999993,-0.3532666666666667,1.3120000000000012,100.0,1.0,1.0,202.97333333333333,0.0,0.0,0.0,0.0,0.0,0.0,0.0,8603.3,0.0,55.0,5.0,236.96333333333334,1.0,0.0,0.0,0.0,0.0,0.0,0.0,0.0,0.05699999999999861,0.05699999999999861,0.0,0.0,1.0,55.0,616.79921,10000.0,85.000001,85.000001,85.000001,85.000001,395.0,0.0,0.0,0.0,1.0,166.665,26.84,26.84,28.091,28.091,34.0,-17.79,10.666,-36.545,32.93,0.0,1783.574,0.865000000000002,100.0,35.794,35.104,26.429000000000002,25.375500000000002,0.0,0.0,100.0,0.0,0.0,0.0,0.0,3206.5,2935.8,4154.125,4611.4,304.92766666666665,305.5395,314.69725,313.2626,21.686374999999998,20.6832,21.975749999999998,21.3777,314.999998,314.999998,324.999988,324.999988,99.5533,99.51265,99.57904285714285,99.54927142857143,0.14225,-0.28525,-0.18399999999999994,0.04899999999999993,-0.038000000000000256,-0.045000000000001705,1.438,1.4685,36.54,30.27,38.348,34.611000000000004,54.224000000000004,37.791,64.027,53.4895,52.561,36.8015,62.2615,51.554,52.083,36.3455,62.0025,50.749,-0.16449999999999987,-0.2945000000000002,0.10499000000000001,0.11114,0.0,206.26,206.16500000000002,202.97333333333333,202.97333333333333,0.0,0.0
2,0.0,0.0,0.0,1.0,1.0,0.0,0.0,1.0,0.0,100.0,1.0,1.1856,26.0,0.0,0.0,0.0,59.999996,0.0,26.0,26.0,26.0,26.0,-0.13049999999999995,0.2904,-0.18915,271.1335,-2.2551,-2.4385000000000003,-1.7575,-1.8723750000000001,-268.91,216.325,190.925625,0.0,0.0,0.0,0.0,0.00553333333333339,-5.498166666666667,-5.498166666666667,-0.6827000000000001,0.20033333333333334,-0.044333333333333336,2.436,65.963,-0.0686,-0.40990000000000004,1.4619999999999997,100.0,1.0,1.0,204.04000000000002,0.0,0.0,0.0,0.0,0.0,0.0,0.0,8648.5,0.0,55.0,5.0,237.44,0.0,0.0,0.0,0.0,0.0,0.0,0.0,0.0,0.10500000000000043,0.10500000000000043,0.0,0.0,0.0,55.0,616.79921,10000.0,85.000001,85.000001,85.000001,85.000001,395.0,0.0,0.0,0.0,1.0,333.33500000000004,25.848,25.848,31.067,31.067,34.0,-20.197499999999998,11.46,-29.049999999999997,21.9325,0.0,1783.525,0.8000000000000007,100.0,36.393,34.994,25.383,24.201,0.0,0.0,100.0,0.0,0.0,0.0,0.0,3472.25,3166.5,3489.5,3445.3,304.034,304.83,316.3705,316.4154,21.695875,20.6889,21.986375,21.3861,314.999998,314.999998,324.999988,324.999988,99.55331428571428,99.51268333333333,99.57917142857143,99.5494,0.12525000000000008,-0.29474999999999996,-0.22160000000000002,0.03180000000000005,-0.05000000000000071,-0.045000000000001705,1.7575,1.8105,36.599000000000004,30.305999999999997,38.415,34.663,54.226,37.832,64.04599999999999,53.5345,52.563,36.84,62.2785,51.597,52.082,36.382,62.016999999999996,50.7915,-0.17049999999999987,-0.29400000000000004,0.105575,0.110545,0.0,206.7,206.535,204.04000000000002,204.04000000000002,0.0,0.0
3,0.0,0.0,0.0,1.0,1.0,0.0,0.0,1.0,0.0,100.0,1.0,1.1856,26.0,0.0,0.0,0.0,59.999996,0.0,26.0,26.0,26.0,26.0,-0.14649999999999996,0.29610000000000003,-0.01965,270.523,-2.3837,-2.335375,-1.783,-1.8551250000000001,-265.54,216.3125,190.9055,0.0,0.0,0.0,0.0,0.007499999999999951,-5.498166666666667,-5.498166666666667,-0.6317,0.23166666666666666,-0.008444444444444255,-1.0859999999999999,66.12,-0.08209999999999995,-0.3377333333333334,1.290000000000001,100.0,1.0,1.0,204.0,0.0,0.0,0.0,0.0,0.0,0.0,0.0,8646.8,0.0,55.0,5.0,238.0,1.0,0.0,0.0,0.0,0.0,0.0,0.0,0.0,0.1559999999999988,0.1559999999999988,0.0,0.0,1.0,55.0,616.79921,10000.0,85.000001,85.000001,85.000001,85.000001,395.0,0.0,0.0,0.0,1.0,166.665,27.023,27.023,28.32,28.32,34.0,-18.384999999999998,9.578000000000003,-38.81,28.1625,0.0,1783.476,0.6750000000000007,100.0,35.857,35.034,25.342,24.48,0.0,0.0,100.0,0.0,0.0,0.0,0.0,3024.125,3019.7,4306.0,4182.2,305.58133333333336,305.1095,314.448,314.4474,21.7055,20.6952,21.99775,21.3953,314.999998,314.999998,324.999988,324.999988,99.55334285714285,99.51271666666666,99.57931428571429,99.54954285714285,0.12250000000000005,-0.30174999999999996,-0.21299999999999997,0.017400000000000082,-0.04400000000000048,-0.01666666666666572,1.496,1.548,36.66,30.345,38.486000000000004,34.721000000000004,54.222,37.8795,64.071,53.592,52.558,36.8835,62.302,51.652,52.077,36.4245,62.037,50.845,-0.1755,-0.2845,0.10436500000000001,0.10273,0.0,207.2,207.07,204.0,204.0,0.0,0.0
4,0.0,0.0,0.0,1.0,1.0,0.0,0.0,1.0,0.0,100.0,1.0,1.1856,26.0,0.0,0.0,0.0,59.999996,0.0,26.0,26.0,26.0,26.0,-0.14512499999999995,0.26150000000000007,-0.017400000000000002,270.874,-2.3103,-2.3895,-1.7938,-1.8645,-262.36,216.2975,190.887,0.0,0.0,0.0,0.0,0.009333333333333305,-5.498166666666667,-5.498166666666667,-0.6803,-0.8150000000000001,-0.07944444444444443,-1.714,66.257,-0.08299999999999996,-0.3986333333333334,1.1899999999999995,100.0,1.0,1.0,204.67666666666668,0.0,0.0,0.0,0.0,0.0,0.0,0.0,8675.6,0.0,55.0,5.0,238.5,0.0,0.0,0.0,0.0,0.0,0.0,0.0,0.0,0.20400000000000063,0.20400000000000063,0.0,0.0,0.0,55.0,616.79921,10000.0,85.000001,85.000001,85.000001,85.000001,395.0,0.0,0.0,0.0,1.0,166.665,26.198999999999998,26.198999999999998,29.526,29.526,34.0,-21.47,11.204,-33.965,22.3025,0.0,1783.428,0.6099999999999994,100.0,35.673,34.924,25.644,24.376,0.0,0.0,100.0,0.0,0.0,0.0,0.0,3562.5,3163.4,3906.375,3468.4,304.1086666666667,304.66,315.367,316.2056,21.714624999999998,20.7011,22.00875,21.4039,314.999998,314.999998,324.999988,324.999988,99.55335714285714,99.51275,99.57945714285714,99.54965714285714,0.11875000000000013,-0.29125,-0.2118,0.02079999999999993,-0.0730000000000004,-0.03999999999999915,1.6325,1.6644999999999999,36.717,30.381999999999998,38.554,34.774,54.219,37.924,64.096,53.641,52.555,36.925,62.325,51.699,52.072,36.4645,62.057,50.8905,-0.18300000000000005,-0.2709999999999999,0.10655,0.105645,0.0,207.58666666666667,207.45499999999998,204.67666666666668,204.67666666666668,0.0,0.0
5,0.0,0.0,0.0,1.0,1.0,0.0,0.0,1.0,0.0,100.0,1.0,1.1856,26.0,0.0,0.0,0.0,59.999996,0.0,26.0,26.0,26.0,26.0,-0.12062499999999998,0.31820000000000004,-0.00685,270.874,-2.3212,-2.4126250000000002,-1.7801,-1.8511250000000001,-258.98,216.28,190.8665,0.0,0.0,0.0,0.0,0.011299999999999977,-5.498166666666667,-5.498166666666667,-0.6597000000000001,0.5640000000000001,-0.07811111111111124,1.017,66.406,-0.08629999999999993,-0.3554,0.9639999999999995,100.0,1.0,1.0,205.01,0.0,0.0,0.0,0.0,0.0,0.0,0.0,8689.7,0.0,55.0,5.0,239.03333333333333,1.0,0.0,0.0,0.0,0.0,0.0,0.0,0.0,0.254999999999999,0.254999999999999,0.0,0.0,1.0,55.0,616.79921,10000.0,85.000001,85.000001,85.000001,85.000001,395.0,0.0,0.0,0.0,1.0,333.33500000000004,26.947,26.947,29.373,29.373,34.0,-18.474999999999998,11.125999999999998,-35.8425,26.6475,0.0,1783.375,0.254999999999999,100.0,35.955,34.611,25.436,23.9795,0.0,0.0,100.0,0.0,0.0,0.0,0.0,3232.5,3048.7,4077.75,4017.2,304.892,305.22925,314.99225,314.9618,21.7245,20.7073,22.020125,21.4129,314.999998,314.999998,324.999988,324.999988,99.55337142857142,99.51278333333333,99.5796,99.5498,0.13975000000000004,-0.2855,-0.21220000000000006,0.0242,-0.03999999999999915,-0.045000000000001705,1.5835,1.634,36.778,30.4205,38.626000000000005,34.83,54.219,37.97,64.121,53.692499999999995,52.555,36.9675,62.348,51.7485,52.07,36.5055,62.077,50.9385,-0.2104999999999999,-0.2585000000000002,0.110155,0.117,0.0,208.06333333333333,207.985,205.01,205.01,0.0,0.0
6,0.0,0.0,0.0,1.0,1.0,0.0,0.0,1.0,0.0,100.0,1.0,1.1856,26.0,0.0,0.0,0.0,59.999996,0.0,26.0,26.0,26.0,26.0,-0.10137499999999999,0.2881,0.00975,270.691,-2.2873,-2.3907499999999997,-1.8202,-1.848875,-255.79,216.26,190.84725,0.0,0.0,0.0,0.0,0.013166666666666549,-5.498166666666667,-5.498166666666667,-0.6633,-0.08766666666666667,-0.06144444444444419,0.8900000000000001,66.545,-0.07939999999999992,-0.3702666666666667,0.7000000000000002,100.0,1.0,1.0,205.4766666666667,0.0,0.0,0.0,0.0,0.0,0.0,0.0,8709.5,0.0,55.0,5.0,239.5366666666667,0.0,0.0,0.0,0.0,0.0,0.0,0.0,0.0,0.3030000000000008,0.3030000000000008,0.0,0.0,0.0,55.0,616.79921,10000.0,85.000001,85.000001,85.000001,85.000001,395.0,0.0,0.0,0.0,1.0,333.33500000000004,26.381999999999998,26.381999999999998,29.404,29.404,34.0,-17.974999999999998,13.015999999999998,-34.095,26.33,0.0,1783.327,0.09499999999999886,100.0,35.855000000000004,34.658,25.575,24.366500000000002,0.0,0.0,100.0,0.0,0.0,0.0,0.0,3329.75,3278.9,3920.25,3859.1000000000004,304.534,304.504,315.35025,315.3348,21.73375,20.7132,22.030875,21.421599999999998,314.999998,314.999998,324.999988,324.999988,99.55338571428571,99.51283333333333,99.57972857142857,99.54992857142857,0.15625,-0.26325,-0.2006,0.042400000000000215,-0.04400000000000048,-0.054999999999999716,1.5959999999999999,1.6039999999999999,36.836,30.4575,38.693,34.885,54.219,38.013,64.145,53.7445,52.554,37.0075,62.3695,51.798,52.068,36.5435,62.096000000000004,50.9865,-0.21849999999999992,-0.23450000000000015,0.10652,0.11192500000000001,0.0,208.46,208.405,205.4766666666667,205.4766666666667,0.0,0.0
7,0.0,0.0,0.0,1.0,1.0,0.0,0.0,1.0,0.0,100.0,1.0,1.1856,26.0,0.0,0.0,0.0,59.999996,0.0,26.0,26.0,26.0,26.0,-0.09250000000000003,0.2942,0.0177,270.462,-2.2649,-2.373125,-1.7850000000000001,-1.886125,-252.39,216.235,190.82675,0.0,0.0,0.0,0.0,0.015133333333333332,-5.498166666666667,-5.498166666666667,-0.6655,0.08266666666666668,-0.04822222222222239,-0.1419999999999999,66.69200000000001,-0.06429999999999991,-0.37766666666666665,0.3860000000000001,100.0,1.0,1.0,205.9,0.0,0.0,0.0,0.0,0.0,0.0,0.0,8727.4,0.0,55.0,5.0,240.06666666666666,1.0,0.0,0.0,0.0,0.0,0.0,0.0,0.0,0.3539999999999992,0.3539999999999992,0.0,0.0,1.0,55.0,616.79921,10000.0,85.000001,85.000001,85.000001,85.000001,395.0,0.0,0.0,0.0,1.0,166.665,26.108,26.108,29.495,29.495,34.0,-17.79,13.168,-33.8125,27.6475,0.0,1783.277,-0.10999999999999943,100.0,35.799,34.927,25.436,24.622500000000002,0.0,0.0,100.0,0.0,0.0,0.0,0.0,3482.125,3222.5,3955.625,3902.7,304.15933333333334,304.4945,315.28125,315.0984,21.743625,20.7196,22.042375,21.4308,314.999998,314.999998,324.999988,324.999988,99.5534,99.51285,99.57988571428571,99.55007142857143,0.17149999999999999,-0.25349999999999995,-0.19479999999999997,0.047599999999999865,-0.04899999999999949,-0.051666666666669414,1.588,1.5925,36.897999999999996,30.497500000000002,38.765,34.942,54.22,38.058,64.17,53.799,52.555,37.0495,62.391999999999996,51.85,52.067,36.584,62.115,51.0375,-0.24099999999999988,-0.2200000000000002,0.10687,0.11277500000000001,0.0,208.90333333333334,208.865,205.9,205.9,0.0,0.0
8,0.0,0.0,0.0,1.0,1.0,0.0,0.0,1.0,0.0,100.0,1.0,1.1856,26.0,0.0,0.0,0.0,59.999996,0.0,26.0,26.0,26.0,26.0,-0.03149999999999997,0.29700000000000015,0.047850000000000004,270.767,-2.3464,-2.364625,-1.7643,-1.817125,-248.98,216.21,190.806125,0.0,0.0,0.0,0.0,0.017100000000000004,-5.498166666666667,-5.498166666666667,-0.6655,-0.709,-0.031444444444444386,0.6470000000000002,66.84,-0.04459999999999997,-0.3674,-0.05399999999999938,100.0,1.0,1.0,206.28,0.0,0.0,0.0,0.0,0.0,0.0,0.0,8743.4,0.0,55.0,5.0,240.60000000000002,0.0,0.0,0.0,0.0,0.0,0.0,0.0,0.0,0.40500000000000114,0.40500000000000114,0.0,0.0,0.0,55.0,616.79921,10000.0,85.000001,85.000001,85.000001,85.000001,395.0,0.0,0.0,0.0,1.0,333.33500000000004,27.084,27.084,28.762999999999998,28.762999999999998,34.0,-15.6875,14.558,-32.5325,30.015,0.0,1783.224,-0.2749999999999986,100.0,35.427,34.664,25.513,24.67,0.0,0.0,100.0,0.0,0.0,0.0,0.0,3112.75,3243.1,4014.125,4017.1000000000004,305.32533333333333,304.6385,315.03025,314.892,21.75325,20.7259,22.05375,21.44,314.999998,314.999998,324.999988,324.999988,99.55342857142857,99.51288333333333,99.58001428571428,99.55021428571429,0.18674999999999997,-0.22275,-0.15200000000000002,0.0935999999999999,-0.05000000000000071,-0.045000000000001705,1.5454999999999999,1.561,36.958,30.5365,38.836,35.0,54.22,38.1015,64.1945,53.8535,52.554,37.09,62.414500000000004,51.902,52.065,36.623,62.1345,51.088,-0.24449999999999994,-0.2044999999999999,0.1044,0.11489500000000001,0.0,209.35000000000002,209.32999999999998,206.28,206.28,0.0,0.0
9,0.0,0.0,0.0,1.0,1.0,0.0,0.0,1.0,0.0,100.0,1.0,1.1856,26.0,0.0,0.0,0.0,59.999996,0.0,26.0,26.0,26.0,26.0,-0.016000000000000014,0.28700000000000014,0.02295,270.4925,-2.3342,-2.370125,-1.8207,-1.819375,-245.76999999999998,216.1825,190.78625,0.0,0.0,0.0,0.0,0.018966666666666576,-5.498166666666667,-5.498166666666667,-0.6734,0.731,-0.03266666666666662,0.8420000000000001,66.975,-0.026799999999999935,-0.3677666666666667,-0.1979999999999995,100.0,1.0,1.0,206.85000000000002,0.0,0.0,0.0,0.0,0.0,0.0,0.0,8767.6,0.0,55.0,5.0,241.07999999999998,1.0,0.0,0.0,0.0,0.0,0.0,0.0,0.0,0.4529999999999994,0.4529999999999994,0.0,0.0,1.0,55.0,616.79921,10000.0,85.000001,85.000001,85.000001,85.000001,395.0,0.0,0.0,0.0,1.0,333.33500000000004,25.802999999999997,25.802999999999997,29.938,29.938,34.0,-16.03,16.46,-30.46,29.555,0.0,1783.176,-0.4399999999999977,100.0,35.913,35.131,25.115,24.5605,0.0,0.0,100.0,0.0,0.0,0.0,0.0,3500.75,3341.7,3830.0,3930.1000000000004,304.07933333333335,304.2635,315.61325,315.1856,21.7625,20.732,22.064375,21.4486,314.999998,314.999998,324.999988,324.999988,99.55345714285714,99.5129,99.58015714285715,99.55034285714285,0.22124999999999995,-0.19774999999999998,-0.14439999999999997,0.10840000000000005,-0.03599999999999781,-0.06666666666666998,1.6335,1.627,37.015,30.575,38.902,35.054,54.224000000000004,38.144,64.2155,53.903,52.557,37.1315,62.434,51.9525,52.066,36.663,62.1495,51.137,-0.268,-0.19450000000000012,0.10923500000000001,0.10909500000000001,0.0,209.7733333333333,209.79500000000002,206.85000000000002,206.85,0.0,0.0
10,0.0,0.0,0.0,1.0,1.0,0.0,0.0,1.0,0.0,100.0,1.0,1.1856,26.0,0.0,0.0,0.0,59.999996,0.0,26.0,26.0,26.0,26.0,0.023249999999999993,0.2945,0.0651,270.4165,-2.3561,-2.34375,-1.8049,-1.7946250000000001,-242.15,216.155,190.764375,0.0,0.0,0.0,0.0,0.021100000000000008,-5.498166666666667,-5.498166666666667,-0.6558,-0.985,0.014555555555555655,1.6320000000000001,67.133,-0.0012999999999999678,-0.3728666666666667,-0.5920000000000005,100.0,1.0,1.0,207.09333333333333,0.0,0.0,0.0,0.0,0.0,0.0,0.0,8777.9,0.0,55.0,5.0,241.65,0.0,0.0,0.0,0.0,0.0,0.0,1.0,0.0,0.5069999999999979,0.5069999999999979,0.0,0.0,0.0,55.0,616.79921,10000.0,85.000001,85.000001,85.000001,85.000001,395.0,0.0,0.0,0.0,1.0,166.665,26.825,26.825,28.488,28.488,34.0,-13.1025,16.119999999999997,-31.125,33.17,0.0,1783.125,-0.4450000000000003,100.0,35.715,35.133,25.543,25.3,0.0,0.0,100.0,0.0,0.0,0.0,0.0,3025.25,3239.4,4052.375,4153.5,305.567,304.651,314.95175,314.5704,21.77275,20.7388,22.0765,21.4586,314.999998,314.999998,324.999988,324.999988,99.55348571428571,99.51293333333334,99.5803,99.5505,0.23449999999999993,-0.18599999999999994,-0.10460000000000003,0.1342000000000001,-0.03399999999999892,-0.046666666666666856,1.544,1.523,37.079,30.616999999999997,38.977999999999994,35.116,54.227999999999994,38.188,64.2415,53.9645,52.56,37.170500000000004,62.457499999999996,52.0085,52.068,36.7005,62.171,51.1915,-0.2689999999999999,-0.18800000000000017,0.10543000000000001,0.11248500000000002,0.0,210.22333333333333,210.255,207.09333333333333,207.09333333333333,0.0,0.0
11,0.0,0.0,0.0,1.0,1.0,0.0,0.0,1.0,0.0,100.0,1.0,1.1856,26.0,0.0,0.0,0.0,59.999996,0.0,26.0,26.0,26.0,26.0,0.04262499999999991,0.28370000000000006,-0.14775000000000002,271.0265,-2.3582,-2.3045,-1.8496000000000001,-1.78675,-238.72,216.1275,190.743625,0.0,0.0,0.0,0.0,0.022599999999999953,-5.498166666666667,-5.498166666666667,-0.6998000000000001,0.27,0.02877777777777779,-0.8280000000000001,67.271,0.01990000000000003,-0.3923666666666667,-0.6219999999999999,100.0,1.0,1.0,207.90333333333334,0.0,0.0,0.0,0.0,0.0,0.0,0.0,8812.2,0.0,55.0,5.0,242.15,1.0,0.0,0.0,0.0,0.0,0.0,1.0,0.0,0.5579999999999998,0.5579999999999998,0.0,0.0,1.0,55.0,616.79921,10000.0,85.000001,85.000001,85.000001,85.000001,395.0,0.0,0.0,0.0,1.0,166.665,26.154,26.154,30.304,30.304,34.0,-13.912499999999998,16.652,-26.2175,29.055,0.0,1783.074,-0.4399999999999977,100.0,35.509,35.622,24.656,24.9585,0.0,0.0,100.0,0.0,0.0,0.0,0.0,3285.125,3301.9,3601.0,3688.8,304.88733333333334,304.21475,316.2635,315.745,21.78225,20.7453,22.087625,21.4677,314.999998,314.999998,324.999988,324.999988,99.55351428571429,99.51295,99.58045714285714,99.55064285714286,0.24350000000000005,-0.17799999999999994,-0.09920000000000007,0.16259999999999986,-0.04299999999999926,-0.045000000000001705,1.7215,1.6935,37.138999999999996,30.658,39.048,35.173,54.230999999999995,38.231,64.259,54.0165,52.562,37.210499999999996,62.4735,52.0585,52.068,36.739,62.1835,51.2405,-0.268,-0.1924999999999999,0.10838500000000001,0.11547500000000001,0.0,210.66,210.70499999999998,207.90333333333334,207.90333333333334,0.0,0.0
12,0.0,0.0,0.0,1.0,1.0,0.0,0.0,1.0,0.0,100.0,1.0,1.1856,26.0,0.0,0.0,0.0,59.999996,0.0,26.0,26.0,26.0,26.0,0.0631250000000001,0.3014000000000001,0.046150000000000004,270.157,-2.4028,-2.3055000000000003,-1.8101,-1.793,-235.69,216.10500000000002,190.72375,0.0,0.0,0.0,0.0,0.025466666666666526,-5.498166666666667,-5.498166666666667,-0.6777000000000001,0.154,0.015222222222222026,0.7810000000000001,67.40299999999999,0.03290000000000015,-0.35900000000000004,-0.6579999999999995,100.0,1.0,1.0,207.95666666666668,0.0,0.0,0.0,0.0,0.0,0.0,0.0,8814.5,0.0,55.0,5.0,242.62333333333333,0.0,0.0,0.0,0.0,0.0,0.0,1.0,0.0,0.602999999999998,0.602999999999998,0.0,0.0,0.0,55.0,616.79921,10000.0,85.000001,85.000001,85.000001,85.000001,395.0,0.0,0.0,0.0,1.0,333.33500000000004,26.076999999999998,26.076999999999998,28.534,28.534,34.0,-12.802499999999998,18.54,-29.862499999999997,34.4775,0.0,1783.027,-0.5799999999999983,100.0,35.52,35.586,24.992,25.041,0.0,0.0,100.0,0.0,0.0,0.0,0.0,3259.0,3432.3,4120.375,4145.8,304.86333333333334,304.0385,314.859,314.6452,21.790625,20.7511,22.09775,21.4759,314.999998,314.999998,324.999988,324.999988,99.55354285714286,99.51298333333334,99.58057142857143,99.55077142857142,0.27374999999999994,-0.15300000000000002,-0.06820000000000004,0.16620000000000013,-0.03399999999999892,-0.04333333333332945,1.551,1.542,37.191,30.694,39.111000000000004,35.225,54.233999999999995,38.268,64.281,54.0655,52.564,37.245,62.4935,52.1055,52.069,36.7725,62.2005,51.286500000000004,-0.27449999999999997,-0.18599999999999994,0.10208500000000001,0.11092500000000001,0.0,211.06333333333333,211.10500000000002,207.95666666666668,207.95666666666668,0.0,0.0
13,0.0,0.0,0.0,1.0,1.0,0.0,0.0,1.0,0.0,100.0,1.0,1.1856,26.0,0.0,0.0,0.0,59.999996,0.0,26.0,26.0,26.0,26.0,0.06362500000000004,0.2895000000000001,0.0313,269.943,-2.3922,-2.2967500000000003,-1.8915000000000002,-1.7670000000000001,-232.25,216.07999999999998,190.702125,0.0,0.0,0.0,0.0,0.026833333333333376,-5.498166666666667,-5.498166666666667,-0.6824,-0.18666666666666665,0.024777777777777787,-0.5089999999999999,67.54599999999999,0.0414000000000001,-0.3891333333333334,-0.8379999999999992,100.0,1.0,1.0,208.42000000000002,0.0,0.0,0.0,0.0,0.0,0.0,0.0,8834.2,0.0,55.0,5.0,243.14,1.0,0.0,0.0,0.0,0.0,0.0,1.0,0.0,0.6539999999999999,0.6539999999999999,0.0,0.0,1.0,55.0,616.79921,10000.0,85.000001,85.000001,85.000001,85.000001,395.0,0.0,0.0,0.0,1.0,333.33500000000004,25.512999999999998,25.512999999999998,28.945999999999998,28.945999999999998,34.0,-13.0775,18.354,-30.0425,33.675,0.0,1782.975,-0.7349999999999994,100.0,35.757,36.15,25.017,25.591,0.0,0.0,100.0,0.0,0.0,0.0,0.0,3399.625,3356.0,3995.25,4102.6,304.565,304.0605,315.246,314.6508,21.80025,20.7577,22.109125,21.4854,314.999998,314.999998,324.999988,324.999988,99.55358571428572,99.513,99.58071428571428,99.55091428571428,0.27675000000000005,-0.14900000000000002,-0.07779999999999998,0.1632,-0.019999999999999574,-0.04833333333333201,1.5795,1.5534999999999999,37.251999999999995,30.735999999999997,39.182,35.284,54.242000000000004,38.31,64.3035,54.123,52.571,37.2845,62.5135,52.161,52.074,36.8105,62.2175,51.3405,-0.2869999999999999,-0.17600000000000016,0.11085,0.106925,0.0,211.4766666666667,211.555,208.42000000000002,208.42000000000002,0.0,0.0
14,0.0,0.0,0.0,1.0,1.0,0.0,0.0,1.0,0.0,100.0,1.0,1.1856,26.0,0.0,0.0,0.0,59.999996,0.0,26.0,26.0,26.0,26.0,0.08737499999999998,0.2895000000000001,-0.025,270.3095,-2.3836000000000004,-2.260875,-1.8585,-1.754125,-228.6,216.055,190.679625,0.0,0.0,0.0,0.0,0.028966666666666585,-5.498166666666667,-5.498166666666667,-0.6896,-0.028333333333333332,0.05022222222222217,-0.19399999999999995,67.696,0.05720000000000014,-0.39383333333333337,-1.0300000000000002,100.0,1.0,1.0,208.97,0.0,0.0,0.0,0.0,0.0,0.0,0.0,8857.4,0.0,55.0,5.0,243.68,0.0,0.0,0.0,0.0,0.0,0.0,1.0,0.0,0.7079999999999984,0.7079999999999984,0.0,0.0,0.0,55.0,616.79921,10000.0,85.000001,85.000001,85.000001,85.000001,395.0,0.0,0.0,0.0,1.0,166.665,25.848,25.848,29.19,29.19,34.0,-11.844999999999999,18.672,-27.1325,33.3125,0.0,1782.924,-0.7949999999999982,100.0,35.604,36.159,24.799,25.58,0.0,0.0,100.0,0.0,0.0,0.0,0.0,3227.0,3388.8,3838.375,4009.0,305.0756666666667,303.9895,315.63225,314.915,21.810375,20.7647,22.121,21.4953,314.999998,314.999998,324.999988,324.999988,99.55361428571429,99.51301666666667,99.58085714285714,99.55107142857143,0.2842500000000001,-0.13849999999999996,-0.05799999999999994,0.18199999999999994,-0.04899999999999949,-0.046666666666666856,1.6175,1.577,37.315,30.7795,39.257,35.345,54.248999999999995,38.353,64.3245,54.1825,52.578,37.3245,62.533,52.218,52.078,36.849000000000004,62.233000000000004,51.3955,-0.2929999999999999,-0.16749999999999998,0.10570500000000001,0.10976000000000001,0.0,211.95666666666668,212.035,208.97,208.97,0.0,0.0
15,0.0,0.0,0.0,1.0,1.0,0.0,0.0,1.0,0.0,100.0,1.0,1.1856,26.0,0.0,0.0,0.0,59.999996,0.0,26.0,26.0,26.0,26.0,0.12212500000000004,0.28680000000000017,0.02145,270.2635,-2.3646000000000003,-2.2175000000000002,-1.8901,-1.7165000000000001,-225.55,216.0375,190.6605,0.0,0.0,0.0,0.0,0.03073333333333339,-5.498166666666667,-5.498166666666667,-0.6788000000000001,0.20766666666666667,0.08611111111111103,1.0230000000000001,67.822,0.06950000000000012,-0.37296666666666667,-1.1820000000000004,100.0,1.0,1.0,209.31333333333333,0.0,0.0,0.0,0.0,0.0,0.0,0.0,8872.1,0.0,55.0,5.0,244.13,1.0,0.0,0.0,0.0,0.0,0.0,1.0,0.0,0.7530000000000001,0.7530000000000001,0.0,0.0,1.0,55.0,616.79921,10000.0,85.000001,85.000001,85.000001,85.000001,395.0,0.0,0.0,0.0,1.0,166.665,26.047,26.047,29.19,29.19,34.0,-9.807499999999997,19.278,-26.335,36.875,0.0,1782.879,-0.8149999999999977,100.0,35.696,36.006,24.667,25.6215,0.0,0.0,100.0,0.0,0.0,0.0,0.0,3007.875,3473.8,3789.75,4280.9,305.54133333333334,303.9055,315.68675,314.343,21.818875,20.7706,22.131,21.5035,314.999998,314.999998,324.999988,324.999988,99.55365714285715,99.51303333333334,99.581,99.5512,0.30574999999999997,-0.125,-0.03759999999999997,0.2105999999999999,-0.02400000000000091,-0.041666666666671404,1.6005,1.572,37.367999999999995,30.816,39.318,35.397,54.256,38.3885,64.342,54.2325,52.583,37.3575,62.5485,52.2665,52.082,36.881,62.2455,51.443,-0.29600000000000004,-0.17600000000000016,0.10626500000000001,0.11688000000000001,0.0,212.34333333333333,212.425,209.31333333333333,209.31333333333333,0.0,0.0
16,0.0,0.0,0.0,1.0,1.0,0.0,0.0,1.0,0.0,100.0,1.0,1.1856,26.0,0.0,0.0,0.0,59.999996,0.0,26.0,26.0,26.0,26.0,0.12250000000000005,0.27100000000000013,-0.05525,270.3245,-2.4571,-2.225375,-1.8615,-1.746625,-222.09,216.01749999999998,190.638375,0.0,0.0,0.0,0.0,0.03276666666666661,-5.498166666666667,-5.498166666666667,-0.7065,-0.7266666666666667,0.06733333333333325,-1.063,67.963,0.07950000000000013,-0.40026666666666666,-1.1360000000000001,100.0,1.0,1.0,209.78333333333333,0.0,0.0,0.0,0.0,0.0,0.0,0.0,8892.0,0.0,55.0,5.0,244.64,0.0,0.0,0.0,0.0,0.0,0.0,1.0,0.0,0.8039999999999985,0.8039999999999985,0.0,0.0,0.0,55.0,616.79921,10000.0,85.000001,85.000001,85.000001,85.000001,395.0,0.0,0.0,0.0,1.0,333.33500000000004,25.817999999999998,25.817999999999998,29.16,29.16,34.0,-11.479999999999997,19.68,-24.96,34.207499999999996,0.0,1782.826,-0.7749999999999986,100.0,35.254,36.345,24.813,25.7405,0.0,0.0,100.0,0.0,0.0,0.0,0.0,3298.125,3441.6,3767.0,3957.0,305.013,303.852,315.785,315.0516,21.828125,20.7773,22.14225,21.5129,314.999998,314.999998,324.999988,324.999988,99.5537,99.51305,99.58112857142856,99.55135714285714,0.31125,-0.11775000000000002,-0.023399999999999976,0.21479999999999988,-0.04899999999999949,-0.030000000000001137,1.632,1.5745,37.426,30.858,39.388999999999996,35.456,54.260999999999996,38.4285,64.364,54.2885,52.587,37.394999999999996,62.5685,52.32,52.083,36.917,62.262,51.4955,-0.2954999999999999,-0.1705000000000001,0.10018,0.109115,0.0,212.75,212.82999999999998,209.78333333333333,209.78333333333333,0.0,0.0
17,0.0,0.0,0.0,1.0,1.0,0.0,0.0,1.0,0.0,100.0,1.0,1.1856,26.0,0.0,0.0,0.0,59.999996,0.0,26.0,26.0,26.0,26.0,0.12637500000000013,0.2966,-0.01425,269.943,-2.4111000000000002,-2.213875,-1.8985,-1.736875,-218.62,216.0025,190.61575,0.0,0.0,0.0,0.0,0.03476666666666661,-5.498166666666667,-5.498166666666667,-0.6884,0.5393333333333333,0.04688888888888898,0.8479999999999999,68.104,0.08489999999999998,-0.3710333333333334,-1.226,100.0,1.0,1.0,210.13666666666666,0.0,0.0,0.0,0.0,0.0,0.0,0.0,8906.9,0.0,55.0,5.0,245.14666666666665,1.0,0.0,0.0,0.0,0.0,0.0,1.0,0.0,0.8550000000000004,0.8550000000000004,0.0,0.0,1.0,55.0,616.79921,10000.0,85.000001,85.000001,85.000001,85.000001,395.0,0.0,0.0,0.0,1.0,333.33500000000004,25.711,25.711,28.839,28.839,34.0,-10.29,19.646,-27.8475,37.075,0.0,1782.774,-0.8299999999999983,100.0,35.86,36.421,24.664,25.6095,0.0,0.0,100.0,0.0,0.0,0.0,0.0,3221.625,3369.5,4100.0,4218.9,304.97266666666667,304.2545,315.028,314.54,21.83775,20.784,22.1535,21.522199999999998,314.999998,314.999998,324.999988,324.999988,99.55374285714285,99.51306666666666,99.58128571428571,99.5515,0.3215000000000001,-0.10324999999999995,-0.015000000000000013,0.2198,-0.019999999999999574,-0.054999999999999716,1.595,1.538,37.486000000000004,30.9005,39.459,35.513999999999996,54.271,38.471000000000004,64.385,54.348,52.596000000000004,37.4345,62.5875,52.3775,52.09,36.9555,62.2775,51.5515,-0.2954999999999999,-0.17249999999999988,0.10552,0.10833000000000001,0.0,213.2266666666667,213.325,210.13666666666666,210.13666666666666,0.0,0.0
18,0.0,0.0,0.0,1.0,1.0,0.0,0.0,1.0,0.0,100.0,1.0,1.1856,26.0,0.0,0.0,0.0,59.999996,0.0,26.0,26.0,26.0,26.0,0.13012500000000005,0.28280000000000016,-0.02615,270.05,-2.4475,-2.18575,-1.9178000000000002,-1.67875,-215.35,215.9925,190.59475,0.0,0.0,0.0,0.0,0.036666666666666514,-5.498166666666667,-5.498166666666667,-0.7089000000000001,-0.631,0.07600000000000007,1.0660000000000003,68.236,0.09030000000000005,-0.40336666666666665,-1.362,100.0,1.0,1.0,210.60333333333335,0.0,0.0,0.0,0.0,0.0,0.0,0.0,8926.8,0.0,55.0,5.0,245.62333333333333,0.0,0.0,0.0,0.0,0.0,0.0,1.0,0.0,0.9029999999999987,0.9029999999999987,0.0,0.0,0.0,55.0,616.79921,10000.0,85.000001,85.000001,85.000001,85.000001,395.0,0.0,0.0,0.0,1.0,333.33500000000004,25.436,25.436,29.099,29.099,34.0,-9.942500000000003,21.54,-25.669999999999998,34.34,0.0,1782.727,-1.0449999999999982,100.0,35.656,36.337,24.866,25.944000000000003,0.0,0.0,100.0,0.0,0.0,0.0,0.0,3247.75,3632.0,3782.25,4020.3,304.96566666666666,303.4995,315.73725,314.9744,21.846625,20.7903,22.164125,21.5312,314.999998,314.999998,324.999988,324.999988,99.55377142857142,99.51308333333333,99.58141428571429,99.55164285714285,0.33725000000000005,-0.09424999999999994,-0.01959999999999995,0.22420000000000018,-0.02499999999999858,-0.05833333333333002,1.623,1.576,37.542,30.9395,39.525999999999996,35.57,54.278,38.5055,64.4035,54.399,52.602000000000004,37.467,62.604,52.426,52.094,36.987,62.2915,51.5995,-0.31000000000000005,-0.16199999999999992,0.11160500000000001,0.10560000000000001,0.0,213.59333333333333,213.68,210.60333333333335,210.60333333333335,0.0,0.0
19,0.0,0.0,0.0,1.0,1.0,0.0,0.0,1.0,0.0,100.0,1.0,1.1856,26.0,0.0,0.0,0.0,59.999996,0.0,26.0,26.0,26.0,26.0,0.17599999999999993,0.2955000000000001,0.0736,269.409,-2.371,-2.2807500000000003,-1.9351,-1.658375,-211.66,215.985,190.570625,0.0,0.0,0.0,0.0,0.038799999999999946,-5.498166666666667,-5.498166666666667,-0.6908000000000001,0.893,0.08944444444444422,0.9649999999999999,68.384,0.10460000000000003,-0.38020000000000004,-1.766,100.0,1.0,1.0,210.96,0.0,0.0,0.0,0.0,0.0,0.0,0.0,8941.8,0.0,55.0,5.0,246.15333333333334,1.0,0.0,0.0,0.0,0.0,0.0,1.0,0.0,0.9570000000000007,0.9570000000000007,0.0,0.0,1.0,55.0,616.79921,10000.0,85.000001,85.000001,85.000001,85.000001,395.0,0.0,0.0,0.0,1.0,166.665,24.994,24.994,28.519,28.519,34.0,-7.829999999999998,22.948,-26.9075,39.76,0.0,1782.675,-1.3350000000000009,100.0,36.181,36.965,24.628,25.944499999999998,0.0,0.0,100.0,0.0,0.0,0.0,0.0,3179.625,3527.0,4052.75,4446.5,304.988,303.55125,315.13425,314.0048,21.856875,20.7977,22.175875,21.5411,314.999998,314.999998,324.999988,324.999988,99.55382857142857,99.5131,99.58157142857142,99.5518,0.3587500000000001,-0.07874999999999999,0.007200000000000095,0.2427999999999999,-0.027000000000001023,-0.030000000000001137,1.583,1.507,37.605000000000004,30.985500000000002,39.599000000000004,35.632,54.291,38.5485,64.4235,54.4595,52.613,37.507,62.6215,52.4845,52.102999999999994,37.0255,62.3055,51.6565,-0.3365,-0.14049999999999985,0.10627,0.10411500000000001,0.0,214.07999999999998,214.21,210.96,210.96,0.0,0.0
20,0.0,0.0,0.0,1.0,1.0,0.0,0.0,1.0,0.0,100.0,1.0,1.1856,26.0,0.0,0.0,0.0,59.999996,0.0,26.0,26.0,26.0,26.0,0.22162499999999996,0.27900000000000014,0.053450000000000004,269.9125,-2.4735,-2.2277500000000003,-1.867,-1.774375,-208.37,215.98250000000002,190.549625,0.0,0.0,0.0,0.0,0.0407333333333334,-5.498166666666667,-5.498166666666667,-0.7098,-1.5350000000000001,0.09611111111111104,0.371,68.516,0.1201000000000001,-0.4119333333333333,-2.0519999999999996,100.0,1.0,1.0,211.35000000000002,0.0,0.0,0.0,0.0,0.0,0.0,0.0,8958.4,0.0,55.0,5.0,246.63666666666666,0.0,0.0,0.0,0.0,0.0,0.0,0.0,0.0,1.004999999999999,1.004999999999999,0.0,0.0,0.0,55.0,616.79921,10000.0,85.000001,85.000001,85.000001,85.000001,395.0,0.0,0.0,0.0,1.0,166.665,25.741999999999997,25.741999999999997,28.488,28.488,34.0,-7.272500000000001,23.677999999999997,-23.355,39.38,0.0,1782.627,-1.5350000000000001,100.0,35.597,36.713,25.059,26.423000000000002,0.0,0.0,100.0,0.0,0.0,0.0,0.0,3046.875,3530.3,3805.75,4118.1,305.63733333333334,303.75775,315.572,314.595,21.8655,20.804,22.186625,21.5501,314.999998,314.999998,324.999988,324.999988,99.55385714285714,99.5131,99.5817,99.55194285714286,0.38225,-0.049250000000000016,0.026799999999999935,0.27,-0.0259999999999998,-0.03999999999999915,1.579,1.5025,37.659,31.025,39.666,35.688,54.298,38.582499999999996,64.445,54.515,52.619,37.539,62.641,52.538,52.107,37.057,62.3215,51.709,-0.3494999999999999,-0.12199999999999989,0.10763,0.108975,0.0,214.4,214.555,211.35000000000002,211.35000000000002,0.0,0.0
21,0.0,0.0,0.0,1.0,1.0,0.0,0.0,1.0,0.0,100.0,1.0,1.1856,26.0,0.0,0.0,0.0,59.999996,0.0,26.0,26.0,26.0,26.0,0.20537500000000009,0.27960000000000007,-0.06785000000000001,270.157,-2.396,-2.272875,-1.9321000000000002,-1.7275,-205.07999999999998,215.98250000000002,190.52775,0.0,0.0,0.0,0.0,0.0426333333333333,-5.498166666666667,-5.498166666666667,-0.7272000000000001,0.8953333333333334,0.08499999999999996,0.3580000000000001,68.642,0.14159999999999995,-0.39640000000000003,-2.162,100.0,1.0,1.0,211.97333333333333,0.0,0.0,0.0,0.0,0.0,0.0,0.0,8984.8,0.0,55.0,5.0,247.08333333333334,1.0,0.0,0.0,0.0,0.0,0.0,0.0,0.0,1.0530000000000008,1.0530000000000008,0.0,0.0,1.0,55.0,616.79921,10000.0,85.000001,85.000001,85.000001,85.000001,395.0,0.0,0.0,0.0,1.0,166.665,25.269,25.269,29.587,29.587,34.0,-8.600000000000001,21.988,-22.3025,37.315,0.0,1782.579,-0.5649999999999977,100.0,35.908,36.99,24.185,25.894,0.0,0.0,100.0,0.0,0.0,0.0,0.0,3138.125,3513.5,3768.0,3993.0,305.15633333333335,303.719,315.878,315.085,21.874375,20.8105,22.19675,21.558799999999998,314.999998,314.999998,324.999988,324.999988,99.55391428571428,99.51311666666666,99.58184285714286,99.55208571428571,0.34624999999999995,-0.09150000000000003,0.04600000000000004,0.2889999999999999,-0.028999999999999915,-0.05833333333333002,1.699,1.6105,37.715,31.066,39.730000000000004,35.742000000000004,54.309,38.619,64.4585,54.5655,52.629000000000005,37.573499999999996,62.653,52.587,52.114999999999995,37.09,62.3305,51.7565,-0.29800000000000004,-0.1884999999999999,0.10790500000000001,0.10550500000000002,0.0,214.85666666666668,215.015,211.97333333333333,211.97333333333333,0.0,0.0
22,0.0,0.0,0.0,1.0,1.0,0.0,0.0,1.0,0.0,100.0,1.0,1.1856,26.0,0.0,0.0,0.0,59.999996,0.0,26.0,26.0,26.0,26.0,0.15000000000000013,0.2743,0.0247,269.577,-2.3849,-2.26875,-1.9264000000000001,-1.723875,-201.57,215.99,190.503875,0.0,0.0,0.0,0.0,0.04466666666666652,-5.498166666666667,-5.498166666666667,-0.7063,-0.274,0.0835555555555556,-0.9059999999999999,68.783,0.14250000000000007,-0.39216666666666666,-0.7320000000000002,100.0,1.0,1.0,212.14333333333332,0.0,0.0,0.0,0.0,0.0,0.0,0.0,8992.0,0.0,55.0,5.0,247.59666666666666,0.0,0.0,0.0,0.0,0.0,0.0,0.0,0.0,1.1039999999999992,1.1039999999999992,0.0,0.0,0.0,55.0,616.79921,10000.0,85.000001,85.000001,85.000001,85.000001,395.0,0.0,0.0,0.0,1.0,166.665,25.33,25.33,28.381,28.381,34.0,-12.085,17.694000000000003,-26.25,38.7725,0.0,1782.527,0.48499999999999943,100.0,35.798,37.186,24.765,26.488500000000002,0.0,0.0,100.0,0.0,0.0,0.0,0.0,3174.25,3372.0,4028.5,4210.4,305.2246666666667,303.94125,315.204,314.4406,21.883875,20.8174,22.208125,21.5684,314.999998,314.999998,324.999988,324.999988,99.55395714285714,99.51313333333333,99.58197142857144,99.55224285714286,0.27574999999999994,-0.15949999999999998,0.017000000000000126,0.25340000000000007,-0.04499999999999815,-0.041666666666671404,1.5465,1.5225,37.774,31.1085,39.801,35.802,54.316,38.661500000000004,64.482,54.6265,52.635,37.613,62.6745,52.6455,52.119,37.128,62.348,51.814,-0.1984999999999999,-0.27249999999999996,0.10283,0.10113000000000001,0.0,215.31666666666666,215.38,212.14333333333332,212.14333333333332,0.0,0.0
23,0.0,0.0,0.0,1.0,1.0,0.0,0.0,1.0,0.0,100.0,1.0,1.1856,26.0,0.0,0.0,0.0,59.999996,0.0,26.0,26.0,26.0,26.0,0.07787499999999992,0.24860000000000015,-0.05985,269.867,-2.3827,-2.2515,-1.8215,-1.814625,-198.06,216.0,190.480625,0.0,0.0,0.0,0.0,0.04673333333333329,-5.498166666666667,-5.498166666666667,-0.7335,-0.08133333333333333,0.0537777777777777,0.03400000000000025,68.917,0.0948,-0.4231333333333333,0.5499999999999998,100.0,1.0,1.0,212.79333333333335,0.0,0.0,0.0,0.0,0.0,0.0,0.0,9019.5,0.0,55.0,5.0,248.07999999999998,1.0,0.0,0.0,0.0,0.0,0.0,0.0,0.0,1.1550000000000011,1.1550000000000011,0.0,0.0,1.0,55.0,616.79921,10000.0,85.000001,85.000001,85.000001,85.000001,395.0,0.0,0.0,0.0,1.0,333.33500000000004,24.658,24.658,29.953,29.953,34.0,-14.79,16.247999999999998,-24.305,32.207499999999996,0.0,1782.476,0.9450000000000003,100.0,36.488,36.953,24.844,26.1575,0.0,0.0,100.0,0.0,0.0,0.0,0.0,3393.5,3477.7,3621.0,3743.3,304.4053333333333,303.88725,316.079,315.5752,21.893375,20.8242,22.219375,21.5778,314.999998,314.999998,324.999988,324.999988,99.554,99.51315,99.58212857142857,99.55238571428572,0.24524999999999997,-0.1915,-0.04139999999999999,0.20599999999999996,-0.036999999999999034,-0.04833333333333201,1.613,1.6225,37.833,31.1515,39.870999999999995,35.861000000000004,54.322,38.7065,64.5005,54.682,52.64,37.655,62.691,52.699,52.122,37.169,62.361,51.866,-0.16399999999999992,-0.31599999999999984,0.10534500000000001,0.113225,0.0,215.78666666666666,215.745,212.79333333333335,212.79333333333335,0.0,0.0
24,0.0,0.0,0.0,1.0,1.0,0.0,0.0,1.0,0.0,100.0,1.0,1.1856,26.0,0.0,0.0,0.0,59.999996,0.0,26.0,26.0,26.0,26.0,-0.009499999999999953,0.27580000000000005,-0.11525,269.989,-2.3821000000000003,-2.2855,-1.8458,-1.775625,-194.75,216.0125,190.457875,0.0,0.0,0.0,0.0,0.048633333333333306,-5.498166666666667,-5.498166666666667,-0.731,-0.6876666666666666,0.038111111111110985,0.3900000000000001,69.049,0.03400000000000003,-0.39730000000000004,1.1280000000000001,100.0,1.0,1.0,212.98666666666668,0.0,0.0,0.0,0.0,0.0,0.0,0.0,9027.7,0.0,55.0,5.0,248.55,0.0,0.0,0.0,0.0,0.0,0.0,0.0,0.0,1.2029999999999994,1.2029999999999994,0.0,0.0,0.0,55.0,616.79921,10000.0,85.000001,85.000001,85.000001,85.000001,395.0,0.0,0.0,0.0,1.0,166.665,25.986,25.986,28.564,28.564,34.0,-15.282499999999999,12.828,-32.335,31.545,0.0,1782.428,0.995000000000001,100.0,36.242,36.582,25.2,25.799,0.0,0.0,100.0,0.0,0.0,0.0,0.0,3076.75,3199.3,4112.25,4012.7,305.43533333333335,304.765,314.898,314.9892,21.902124999999998,20.8304,22.23,21.5865,314.999998,314.999998,324.999988,324.999988,99.55401428571429,99.51318333333333,99.58225714285715,99.55252857142857,0.19999999999999996,-0.23775000000000002,-0.10660000000000003,0.13859999999999983,-0.03300000000000125,-0.02833333333332888,1.5374999999999999,1.5735,37.888999999999996,31.189999999999998,39.937,35.916,54.324,38.747,64.521,54.733000000000004,52.64,37.693,62.7095,52.748,52.120999999999995,37.2055,62.3765,51.914,-0.1519999999999999,-0.31700000000000017,0.10680500000000001,0.11040000000000001,0.0,216.22,216.115,212.98666666666668,212.98666666666668,0.0,0.0
25,0.0,0.0,0.0,1.0,1.0,0.0,0.0,1.0,0.0,100.0,1.0,1.1856,26.0,0.0,0.0,0.0,59.999996,0.0,26.0,26.0,26.0,26.0,-0.07487500000000002,0.26449999999999996,-0.052450000000000004,269.7145,-2.4057000000000004,-2.285625,-1.8250000000000002,-1.8135000000000001,-191.23000000000002,216.0225,190.43225,0.0,0.0,0.0,0.0,0.05069999999999997,-5.498166666666667,-5.498166666666667,-0.7699,0.18633333333333335,-0.002000000000000224,-2.026,69.182,-0.026799999999999935,-0.4119333333333333,1.6039999999999992,100.0,1.0,1.0,213.57666666666665,0.0,0.0,0.0,0.0,0.0,0.0,0.0,9052.8,0.0,55.0,5.0,249.03,1.0,0.0,0.0,0.0,0.0,0.0,0.0,0.0,1.2540000000000013,1.2540000000000013,0.0,0.0,1.0,55.0,616.79921,10000.0,85.000001,85.000001,85.000001,85.000001,395.0,0.0,0.0,0.0,1.0,166.665,24.46,24.46,29.448999999999998,29.448999999999998,34.0,-21.055,12.322,-32.485,26.22,0.0,1782.377,0.9649999999999999,100.0,36.528,36.774,25.128,25.2925,0.0,0.0,100.0,0.0,0.0,0.0,0.0,3648.5,3474.1,3863.625,3768.1000000000004,303.9603333333333,303.765,315.6355,315.5588,21.91175,20.8371,22.241125,21.5957,314.999998,314.999998,324.999988,324.999988,99.55404285714286,99.51321666666666,99.58241428571428,99.55267142857143,0.15825,-0.27225,-0.17999999999999994,0.06920000000000015,-0.03200000000000003,-0.04999999999999716,1.613,1.6755,37.948,31.2315,40.007,35.973,54.324,38.795500000000004,64.5395,54.783500000000004,52.64,37.738,62.726,52.797,52.119,37.249,62.39,51.9615,-0.15900000000000003,-0.3134999999999999,0.10947000000000001,0.10754500000000002,0.0,216.65,216.525,213.57666666666665,213.57666666666665,0.0,0.0
26,0.0,0.0,0.0,1.0,1.0,0.0,0.0,1.0,0.0,100.0,1.0,1.1856,26.0,0.0,0.0,0.0,59.999996,0.0,26.0,26.0,26.0,26.0,-0.12362499999999998,0.27270000000000016,0.12455000000000001,268.585,-2.3070000000000004,-2.411,-1.84,-1.84575,-187.69,216.0325,190.406375,0.0,0.0,0.0,0.0,0.0527333333333333,-5.498166666666667,-5.498166666666667,-0.7253000000000001,0.40166666666666667,-0.05677777777777804,0.28200000000000003,69.322,-0.07189999999999996,-0.3913666666666667,1.5199999999999996,100.0,1.0,1.0,213.68333333333334,0.0,0.0,0.0,0.0,0.0,0.0,0.0,9057.3,0.0,55.0,5.0,249.53333333333336,0.0,0.0,0.0,0.0,0.0,0.0,0.0,0.0,1.3049999999999997,1.3049999999999997,0.0,0.0,0.0,55.0,616.79921,10000.0,85.000001,85.000001,85.000001,85.000001,395.0,0.0,0.0,0.0,1.0,333.33500000000004,24.246000000000002,24.246000000000002,27.542,27.542,34.0,-19.224999999999998,11.672,-41.2175,30.0875,0.0,1782.325,0.7699999999999996,100.0,37.882,36.887,26.274,25.367,0.0,0.0,100.0,0.0,0.0,0.0,0.0,3457.5,3299.5,4486.625,4310.8,304.227,304.383,314.0895,314.3486,21.921625,20.8439,22.2525,21.6051,314.999998,314.999998,324.999988,324.999988,99.55405714285715,99.51326666666667,99.58257142857143,99.55282857142858,0.15274999999999994,-0.29725,-0.19899999999999995,0.03479999999999994,-0.038999999999997925,-0.04833333333333201,1.454,1.509,38.01,31.274,40.078,36.032,54.328,38.847,64.5665,54.8375,52.644,37.786500000000004,62.7515,52.849000000000004,52.120999999999995,37.295500000000004,62.411500000000004,52.0115,-0.17849999999999988,-0.3054999999999999,0.10474000000000001,0.102345,0.0,217.10333333333335,216.985,213.68333333333334,213.68333333333334,0.0,0.0
27,0.0,0.0,0.0,1.0,1.0,0.0,0.0,1.0,0.0,100.0,1.0,1.1856,26.0,0.0,0.0,0.0,59.999996,0.0,26.0,26.0,26.0,26.0,-0.13674999999999993,0.25150000000000006,-0.07095,269.577,-2.258,-2.396,-1.8111000000000002,-1.9255,-184.36,216.0375,190.38375,0.0,0.0,0.0,0.0,0.05466666666666653,-5.498166666666667,-5.498166666666667,-0.7703,-1.071,-0.07066666666666643,0.42799999999999994,69.446,-0.09589999999999999,-0.45746666666666674,1.4779999999999998,100.0,1.0,1.0,214.35333333333335,0.0,0.0,0.0,0.0,0.0,0.0,0.0,9085.6,0.0,55.0,5.0,249.98333333333335,1.0,0.0,0.0,0.0,0.0,0.0,0.0,0.0,1.352999999999998,1.352999999999998,0.0,0.0,1.0,55.0,616.79921,10000.0,85.000001,85.000001,85.000001,85.000001,395.0,0.0,0.0,0.0,1.0,333.33500000000004,24.551000000000002,24.551000000000002,29.114,29.114,34.0,-19.4875,10.846,-33.5775,24.665,0.0,1782.277,0.6799999999999997,100.0,37.649,36.488,26.541,25.3035,0.0,0.0,100.0,0.0,0.0,0.0,0.0,3425.5,3358.2,3769.25,3638.4,304.3136666666667,304.29975,315.6825,315.8494,21.930625,20.85,22.26325,21.614,314.999998,314.999998,324.999988,324.999988,99.55407142857143,99.5133,99.5827,99.55295714285714,0.13375000000000004,-0.31325000000000003,-0.22299999999999998,0.0244000000000002,-0.05999999999999872,-0.051666666666669414,1.6015,1.638,38.067,31.3125,40.144999999999996,36.087,54.328,38.894,64.59,54.885999999999996,52.643,37.829499999999996,62.7725,52.894999999999996,52.117999999999995,37.337,62.4295,52.0565,-0.18999999999999995,-0.29349999999999987,0.106755,0.114195,0.0,217.44333333333333,217.32,214.35333333333335,214.35333333333335,0.0,0.0
28,0.0,0.0,0.0,1.0,1.0,0.0,0.0,1.0,0.0,100.0,1.0,1.1856,26.0,0.0,0.0,0.0,59.999996,0.0,26.0,26.0,26.0,26.0,-0.16162500000000002,0.26859999999999995,-0.0193,269.5465,-2.2878,-2.383,-1.7553,-1.887625,-180.82,216.04250000000002,190.358,0.0,0.0,0.0,0.0,0.0567333333333333,-5.498166666666667,-5.498166666666667,-0.7512000000000001,0.8236666666666667,-0.07844444444444454,-0.5449999999999999,69.58,-0.11219999999999997,-0.3922333333333334,1.3760000000000012,100.0,1.0,1.0,214.68666666666667,0.0,0.0,0.0,0.0,0.0,0.0,0.0,9099.7,0.0,55.0,5.0,250.46333333333334,0.0,0.0,0.0,0.0,0.0,0.0,0.0,0.0,1.404,1.404,0.0,0.0,0.0,55.0,616.79921,10000.0,85.000001,85.000001,85.000001,85.000001,395.0,0.0,0.0,0.0,1.0,333.33500000000004,24.872,24.872,29.022,29.022,34.0,-20.925,9.734000000000002,-38.3725,25.535,0.0,1782.225,0.495000000000001,100.0,37.502,36.426,25.863,24.7325,0.0,0.0,100.0,0.0,0.0,0.0,0.0,3507.75,3122.2,4168.125,3952.8,304.213,304.84,314.95625,315.1248,21.940375,20.8566,22.274375,21.6231,314.999998,314.999998,324.999988,324.999988,99.5541,99.51333333333334,99.58285714285714,99.55311428571429,0.12074999999999991,-0.31699999999999995,-0.24919999999999998,-0.0031999999999999806,-0.0519999999999996,-0.04999999999999716,1.5425,1.6019999999999999,38.128,31.3535,40.215,36.144,54.328,38.946,64.612,54.938,52.643,37.8785,62.793,52.945,52.116,37.384,62.4465,52.1045,-0.20350000000000001,-0.27600000000000025,0.11153500000000001,0.10782000000000001,0.0,217.90666666666667,217.79500000000002,214.68666666666667,214.68666666666667,0.0,0.0
29,0.0,0.0,0.0,1.0,1.0,0.0,0.0,1.0,0.0,100.0,1.0,1.1856,26.0,0.0,0.0,0.0,59.999996,0.0,26.0,26.0,26.0,26.0,-0.12887499999999996,0.2695000000000001,0.01965,269.211,-2.2202,-2.4606250000000003,-1.7921,-1.869,-177.26999999999998,216.04000000000002,190.3315,0.0,0.0,0.0,0.0,0.05879999999999996,-5.498166666666667,-5.498166666666667,-0.7753,-0.974,-0.07888888888888879,0.629,69.715,-0.10499999999999998,-0.4284,0.9699999999999998,100.0,1.0,1.0,215.01999999999998,0.0,0.0,0.0,0.0,0.0,0.0,0.0,9113.9,0.0,55.0,5.0,250.95333333333335,1.0,0.0,0.0,0.0,0.0,0.0,0.0,0.0,1.4549999999999983,1.4549999999999983,0.0,0.0,1.0,55.0,616.79921,10000.0,85.000001,85.000001,85.000001,85.000001,395.0,0.0,0.0,0.0,1.0,166.665,24.353,24.353,28.732,28.732,34.0,-19.9625,12.274000000000001,-35.95,26.4325,0.0,1782.177,0.41000000000000014,100.0,37.53,36.272,26.546,25.0235,0.0,0.0,100.0,0.0,0.0,0.0,0.0,3584.125,3382.9,3979.125,3929.5,303.87033333333335,304.1025,315.1965,315.18,21.95,20.8631,22.28575,21.6325,314.999998,314.999998,324.999988,324.999988,99.55411428571429,99.51338333333334,99.58301428571428,99.55325714285715,0.13549999999999995,-0.30325,-0.22220000000000006,0.021200000000000108,-0.053999999999998494,-0.04833333333333201,1.5285,1.57,38.188,31.3945,40.286,36.203,54.327,38.9925,64.6375,54.988,52.641,37.9215,62.8165,52.993,52.114000000000004,37.425,62.467,52.150999999999996,-0.20950000000000002,-0.26849999999999996,0.10976000000000001,0.107215,0.0,218.25,218.16,215.01999999999998,215.01999999999998,0.0,0.0
30,0.0,0.0,0.0,1.0,1.0,0.0,0.0,1.0,0.0,100.0,1.0,1.1856,26.0,0.0,0.0,0.0,59.999996,0.0,26.0,26.0,26.0,26.0,-0.11149999999999993,0.2723,0.0504,268.7685,-2.2782,-2.43225,-1.7302,-1.9455,-173.92000000000002,216.035,190.3065,0.0,0.0,0.0,0.0,0.060766666666666524,-5.498166666666667,-5.498166666666667,-0.7624000000000001,0.975,-0.07866666666666644,1.1360000000000001,69.839,-0.09619999999999995,-0.4114333333333333,0.9060000000000006,100.0,1.0,1.0,215.41666666666669,0.0,0.0,0.0,0.0,0.0,0.0,0.0,9130.8,0.0,55.0,5.0,251.39666666666665,0.0,0.0,0.0,0.0,0.0,0.0,1.0,0.0,1.5030000000000001,1.5030000000000001,0.0,0.0,0.0,55.0,616.79921,10000.0,85.000001,85.000001,85.000001,85.000001,395.0,0.0,0.0,0.0,1.0,166.665,23.682000000000002,23.682000000000002,28.656,28.656,34.0,-19.775,12.379999999999999,-35.6925,28.7375,0.0,1782.128,0.26000000000000156,100.0,38.462,36.894,26.304000000000002,24.931,0.0,0.0,100.0,0.0,0.0,0.0,0.0,3605.875,3406.8,4144.25,4021.8,303.78366666666665,304.242,314.88225,314.9446,21.959375,20.8695,22.296375,21.6412,314.999998,314.999998,324.999988,324.999988,99.55414285714286,99.51341666666667,99.58315714285715,99.55338571428571,0.15425,-0.29500000000000004,-0.2006,0.030999999999999917,-0.04400000000000048,-0.03166666666666629,1.5465,1.5605,38.245999999999995,31.4345,40.352000000000004,36.257999999999996,54.332,39.042,64.658,55.035,52.644999999999996,37.9675,62.835,53.038,52.116,37.4695,62.4825,52.1945,-0.22350000000000003,-0.2650000000000001,0.094875,0.11260500000000001,0.0,218.70333333333335,218.59,215.41666666666669,215.41666666666669,0.0,0.0
31,0.0,0.0,0.0,1.0,1.0,0.0,0.0,1.0,0.0,100.0,1.0,1.1856,26.0,0.0,0.0,0.0,59.999996,0.0,26.0,26.0,26.0,26.0,-0.11375000000000002,0.27080000000000015,-0.02695,268.814,-2.3484,-2.30725,-1.7810000000000001,-1.9176250000000001,-170.35,216.0275,190.280875,0.0,0.0,0.0,0.0,0.0628333333333333,-5.498166666666667,-5.498166666666667,-0.7663000000000001,-0.9863333333333334,-0.07111111111111157,-0.7349999999999999,69.974,-0.07989999999999997,-0.43870000000000003,0.5920000000000005,100.0,1.0,1.0,215.76333333333332,0.0,0.0,0.0,0.0,0.0,0.0,0.0,9145.4,0.0,55.0,5.0,251.88333333333333,1.0,0.0,0.0,0.0,0.0,0.0,1.0,0.0,1.5539999999999985,1.5539999999999985,0.0,0.0,1.0,55.0,616.79921,10000.0,85.000001,85.000001,85.000001,85.000001,395.0,0.0,0.0,0.0,1.0,333.33500000000004,24.124000000000002,24.124000000000002,27.878,27.878,34.0,-19.7125,11.2,-36.0675,29.115000000000002,0.0,1782.075,0.16000000000000014,100.0,37.883,37.147,26.753,25.5405,0.0,0.0,100.0,0.0,0.0,0.0,0.0,3511.25,3368.2,4124.75,3993.7,304.3566666666667,304.2195,314.906,315.0256,21.969,20.8762,22.307875,21.6508,314.999998,314.999998,324.999988,324.999988,99.55415714285714,99.51346666666667,99.58331428571428,99.55354285714286,0.15474999999999994,-0.28900000000000003,-0.1966,0.05040000000000022,-0.05000000000000071,-0.036666666666668846,1.5325,1.55,38.306,31.4765,40.424,36.317,54.332,39.095,64.6855,55.091499999999996,52.644999999999996,38.016999999999996,62.861,53.0925,52.114000000000004,37.516999999999996,62.5045,52.2475,-0.23699999999999988,-0.2520000000000002,0.10069,0.11357500000000001,0.0,219.04333333333335,218.97,215.76333333333332,215.76333333333332,0.0,0.0
32,0.0,0.0,0.0,1.0,1.0,0.0,0.0,1.0,0.0,100.0,1.0,1.1856,26.0,0.0,0.0,0.0,59.999996,0.0,26.0,26.0,26.0,26.0,-0.10724999999999996,0.2832000000000001,-0.05995,269.043,-2.2215,-2.351375,-1.8386,-1.8235000000000001,-166.78,216.01749999999998,190.255,0.0,0.0,0.0,0.0,0.06489999999999996,-5.498166666666667,-5.498166666666667,-0.7771,0.538,-0.09399999999999986,0.5220000000000002,70.10300000000001,-0.0676,-0.4279666666666667,0.4920000000000009,100.0,1.0,1.0,216.29333333333335,0.0,0.0,0.0,0.0,0.0,0.0,0.0,9167.8,0.0,55.0,5.0,252.34666666666666,0.0,0.0,0.0,0.0,0.0,0.0,1.0,0.0,1.6050000000000004,1.6050000000000004,0.0,0.0,0.0,55.0,616.79921,10000.0,85.000001,85.000001,85.000001,85.000001,395.0,0.0,0.0,0.0,1.0,166.665,24.002000000000002,24.002000000000002,28.778,28.778,34.0,-16.9725,12.582,-35.7475,28.355,0.0,1782.026,0.02500000000000213,100.0,38.039,37.105000000000004,26.13,25.009999999999998,0.0,0.0,100.0,0.0,0.0,0.0,0.0,3500.0,3326.1,4110.0,4037.3,304.0296666666667,304.36525,315.07625,315.0904,21.978625,20.883,22.318875,21.6599,314.999998,314.999998,324.999988,324.999988,99.55418571428571,99.5135,99.58345714285714,99.55368571428572,0.1825000000000001,-0.26874999999999993,-0.1906,0.06320000000000014,-0.03500000000000014,-0.04833333333333201,1.6075,1.6225,38.366,31.5185,40.492999999999995,36.375,54.336,39.1415,64.704,55.137,52.647999999999996,38.0605,62.8775,53.135999999999996,52.114999999999995,37.559,62.518,52.289500000000004,-0.244,-0.24800000000000022,0.110905,0.10695,0.0,219.47666666666666,219.425,216.29333333333335,216.29333333333335,0.0,0.0
33,0.0,0.0,0.0,1.0,1.0,0.0,0.0,1.0,0.0,100.0,1.0,1.1856,26.0,0.0,0.0,0.0,59.999996,0.0,26.0,26.0,26.0,26.0,-0.06687500000000002,0.2742,0.00355,269.104,-2.3070000000000004,-2.3901250000000003,-1.7877,-1.83025,-163.41,216.005,190.229625,0.0,0.0,0.0,0.0,0.06686666666666652,-5.498166666666667,-5.498166666666667,-0.7798,-0.652,-0.07277777777777805,1.504,70.229,-0.05259999999999998,-0.4229666666666667,0.22799999999999976,100.0,1.0,1.0,216.53333333333333,0.0,0.0,0.0,0.0,0.0,0.0,0.0,9178.0,0.0,55.0,5.0,252.80333333333334,1.0,0.0,0.0,0.0,0.0,0.0,1.0,0.0,1.6529999999999987,1.6529999999999987,0.0,0.0,1.0,55.0,616.79921,10000.0,85.000001,85.000001,85.000001,85.000001,395.0,0.0,0.0,0.0,1.0,333.33500000000004,24.521,24.521,28.534,28.534,34.0,-16.4875,13.735999999999997,-34.005,30.855,0.0,1781.977,-0.02499999999999858,100.0,37.756,36.788,26.272,25.2935,0.0,0.0,100.0,0.0,0.0,0.0,0.0,3370.125,3316.7,4042.375,4172.2,304.5563333333333,304.42025,315.05925,314.676,21.987625,20.8892,22.3295,21.6689,314.999998,314.999998,324.999988,324.999988,99.55421428571428,99.51353333333333,99.5836,99.55382857142857,0.19425000000000003,-0.25349999999999995,-0.16799999999999993,0.07679999999999998,-0.038999999999997925,-0.03499999999999659,1.5345,1.5285,38.423,31.557499999999997,40.559,36.43,54.338,39.1845,64.7255,55.1865,52.65,38.1,62.8975,53.184,52.114999999999995,37.597,62.535,52.336,-0.24950000000000006,-0.23850000000000016,0.10733500000000001,0.11106500000000001,0.0,219.82666666666665,219.79000000000002,216.53333333333333,216.53333333333333,0.0,0.0
34,0.0,0.0,0.0,1.0,1.0,0.0,0.0,1.0,0.0,100.0,1.0,1.1856,26.0,0.0,0.0,0.0,59.999996,0.0,26.0,26.0,26.0,26.0,-0.040000000000000036,0.2603,-0.1058,269.7755,-2.3192000000000004,-2.37275,-1.8524,-1.848875,-159.62,215.99,190.2,0.0,0.0,0.0,0.0,0.06906666666666661,-5.498166666666667,-5.498166666666667,-0.8185,-0.5906666666666667,-0.041888888888888864,0.996,70.36500000000001,-0.03509999999999991,-0.4345333333333333,0.15600000000000058,100.0,1.0,1.0,217.11,0.0,0.0,0.0,0.0,0.0,0.0,0.0,9202.5,0.0,55.0,5.0,253.29000000000002,0.0,0.0,0.0,0.0,0.0,0.0,1.0,0.0,1.7070000000000007,1.7070000000000007,0.0,0.0,0.0,55.0,616.79921,10000.0,85.000001,85.000001,85.000001,85.000001,395.0,0.0,0.0,0.0,1.0,166.665,25.101,25.101,29.448999999999998,29.448999999999998,34.0,-15.517499999999998,14.120000000000001,-31.877499999999998,29.455,0.0,1781.924,-0.00999999999999801,100.0,37.369,36.545,25.778,25.2855,0.0,0.0,100.0,0.0,0.0,0.0,0.0,3231.625,3264.5,3875.625,3900.9,304.857,304.55125,315.597,315.2926,21.997625,20.8962,22.34125,21.6788,314.999998,314.999998,324.999988,324.999988,99.55424285714285,99.51356666666666,99.58375714285714,99.55397142857143,0.20250000000000012,-0.23775000000000002,-0.15179999999999993,0.09959999999999991,-0.027999999999998693,-0.041666666666671404,1.5895,1.6075,38.485,31.6015,40.632,36.492,54.341,39.2325,64.745,55.2405,52.652,38.144999999999996,62.915,53.2355,52.116,37.64,62.549,52.385999999999996,-0.242,-0.2370000000000001,0.10615000000000001,0.11274,0.0,220.23000000000002,220.2,217.11,217.11,0.0,0.0
35,0.0,0.0,0.0,1.0,1.0,0.0,0.0,1.0,0.0,100.0,1.0,1.1856,26.0,0.0,0.0,0.0,59.999996,0.0,26.0,26.0,26.0,26.0,-0.028124999999999956,0.2522,-0.0494,269.3785,-2.3179,-2.3289999999999997,-1.8175,-1.8635,-156.23000000000002,215.975,190.17125,0.0,0.0,0.0,0.0,0.07103333333333339,-5.498166666666667,-5.498166666666667,-0.8469,-0.14833333333333334,-0.051444444444444404,-0.16399999999999992,70.486,-0.02210000000000001,-0.4215666666666667,0.09200000000000053,100.0,1.0,1.0,217.49333333333334,0.0,0.0,0.0,0.0,0.0,0.0,0.0,9218.8,0.0,55.0,5.0,253.73000000000002,1.0,0.0,0.0,0.0,0.0,0.0,1.0,0.0,1.754999999999999,1.754999999999999,0.0,0.0,1.0,55.0,616.79921,10000.0,85.000001,85.000001,85.000001,85.000001,395.0,0.0,0.0,0.0,1.0,333.33500000000004,24.216,24.216,28.823999999999998,28.823999999999998,34.0,-16.005,15.962,-30.52,29.475,0.0,1781.876,-0.00999999999999801,100.0,37.2,36.916,25.689,25.0575,0.0,0.0,100.0,0.0,0.0,0.0,0.0,3420.75,3632.3,3859.875,3823.7,304.452,303.4735,315.563,315.4698,22.006375,20.9026,22.351625,21.6875,314.999998,314.999998,324.999988,324.999988,99.55427142857143,99.5136,99.58391428571429,99.55412857142858,0.21075,-0.22799999999999998,-0.13219999999999998,0.11040000000000005,-0.03999999999999915,-0.04999999999999716,1.595,1.5979999999999999,38.54,31.6415,40.697,36.547,54.341,39.2765,64.763,55.286500000000004,52.652,38.186,62.9315,53.2795,52.114000000000004,37.6795,62.5625,52.4285,-0.24099999999999988,-0.24149999999999983,0.10677,0.107255,0.0,220.61,220.61,217.49333333333334,217.49333333333334,0.0,0.0
36,0.0,0.0,0.0,1.0,1.0,0.0,0.0,1.0,0.0,100.0,1.0,1.1856,26.0,0.0,0.0,0.0,59.999996,0.0,26.0,26.0,26.0,26.0,-0.01674999999999993,0.2653000000000001,0.113,268.341,-2.2679,-2.29075,-1.7928000000000002,-1.86,-152.85,215.96,190.141375,0.0,0.0,0.0,0.0,0.07299999999999995,-5.498166666666667,-5.498166666666667,-0.8301000000000001,-0.11866666666666667,-0.08522222222222231,0.2869999999999999,70.612,-0.01639999999999997,-0.4102,0.15399999999999991,100.0,1.0,1.0,217.59,0.0,0.0,0.0,0.0,0.0,0.0,0.0,9222.8,0.0,55.0,5.0,254.18,0.0,0.0,0.0,0.0,0.0,0.0,1.0,0.0,1.8030000000000008,1.8030000000000008,0.0,0.0,0.0,55.0,616.79921,10000.0,85.000001,85.000001,85.000001,85.000001,395.0,0.0,0.0,0.0,1.0,166.665,23.834,23.834,27.878,27.878,34.0,-14.485,15.228,-34.14,35.615,0.0,1781.828,-0.07499999999999929,100.0,37.835,37.29,26.103,25.636499999999998,0.0,0.0,100.0,0.0,0.0,0.0,0.0,3396.75,3497.8,4265.125,4391.9,304.219,303.89425,314.568,314.123,22.0155,20.9092,22.362125,21.6964,314.999998,314.999998,324.999988,324.999988,99.55428571428571,99.51363333333333,99.58404285714286,99.55427142857143,0.22975000000000012,-0.22075,-0.12039999999999995,0.11440000000000006,-0.0470000000000006,-0.03333333333333144,1.476,1.4749999999999999,38.596000000000004,31.682499999999997,40.763,36.603,54.347,39.3215,64.7845,55.3375,52.657,38.228,62.951499999999996,53.329,52.117000000000004,37.72,62.5785,52.476,-0.24550000000000005,-0.24149999999999983,0.10487,0.110725,0.0,221.04333333333335,220.99,217.59,217.59,0.0,0.0
