,ABS Active,ABS Enabled,AID Allow Tire Blankets,AID Auto Blip,AID Auto Clutch,AID Auto Shift,AID Fuel Rate,AID Ideal Line,AID Mech Damage,AID Stability,AID Tire Wear Rate,Air Density,Air Temp,Ballast,Best Lap Delta,Best Lap Time,Brake Bias,Brake Pos,Brake Temp FL,Brake Temp FR,Brake Temp RL,Brake Temp RR,CG Accel Lateral,CG Accel Longitudinal,CG Accel Vertical,CG Height,Camber FL,Camber FR,Camber RL,Camber RR,Car Coord X,Car Coord Y,Car Coord Z,Car Damage Front,Car Damage Left,Car Damage Rear,Car Damage Right,Car Pos Norm,Caster FL,Caster FR,Chassis Pitch Angle,Chassis Pitch Rate,Chassis Roll Angle,Chassis Roll Rate,Chassis Velocity X,Chassis Velocity Y,Chassis Velocity Z,Chassis Yaw Rate,Clutch Pos,DRS Active,DRS Available,Drive Train Speed,ERS Heat Charging,ERS Is Charging,ERS Max Energy,ERS Power Level,ERS Recovery Level,Engine Brake Setting,Engine Limiter,Engine RPM,Flags,Fuel Level,Gear,Ground Speed,HR Sample Clock,In Pit,KERS Charge,KERS Deployed Energy,KERS Input,KERS Max Energy,LR Sample Clock,Lap Invalidated,Lap Time,Lap Time2,Last Lap Time,Last Sector Time,MR Sample Clock,Max Fuel,Max Power,Max RPM,Max Sus Travel FL,Max Sus Travel FR,Max Sus Travel RL,Max Sus Travel RR,Max Torque,Max Turbo Boost,Num Tires Off Track,Penalties Enabled,Position,Raw Data Sample Rate,Ride Height FL,Ride Height FR,Ride Height RL,Ride Height RR,Road Temp,Self Align Torque FL,Self Align Torque FR,Self Align Torque RL,Self Align Torque RR,Session Lap Count,Session Time Left,Steering Angle,Surface Grip,Suspension Travel FL,Suspension Travel FR,Suspension Travel RL,Suspension Travel RR,TC Active,TC Enabled,Throttle Pos,Tire Dirt Level FL,Tire Dirt Level FR,Tire Dirt Level RL,Tire Dirt Level RR,Tire Load FL,Tire Load FR,Tire Load RL,Tire Load RR,Tire Loaded Radius FL,Tire Loaded Radius FR,Tire Loaded Radius RL,Tire Loaded Radius RR,Tire Pressure FL,Tire Pressure FR,Tire Pressure RL,Tire Pressure RR,Tire Radius FL,Tire Radius FR,Tire Radius RL,Tire Radius RR,Tire Rubber Grip FL,Tire Rubber Grip FR,Tire Rubber Grip RL,Tire Rubber Grip RR,Tire Slip Angle FL,Tire Slip Angle FR,Tire Slip Angle RL,Tire Slip Angle RR,Tire Slip Ratio FL,Tire Slip Ratio FR,Tire Slip Ratio RL,Tire Slip Ratio RR,Tire Temp Core FL,Tire Temp Core FR,Tire Temp Core RL,Tire Temp Core RR,Tire Temp Inner FL,Tire Temp Inner FR,Tire Temp Inner RL,Tire Temp Inner RR,Tire Temp Middle FL,Tire Temp Middle FR,Tire Temp Middle RL,Tire Temp Middle RR,Tire Temp Outer FL,Tire Temp Outer FR,Tire Temp Outer RL,Tire Temp Outer RR,Toe In FL,Toe In FR,Toe In RL,Toe In RR,Turbo Boost,Wheel Angular Speed FL,Wheel Angular Speed FR,Wheel Angular Speed RL,Wheel Angular Speed RR,Wind Direction,Wind Speed
0,0.0,0.0,0.0,1.0,1.0,0.0,0.0,1.0,0.0,100.0,1.0,1.1856,26.0,0.0,0.0,0.0,59.99999,0.0,26.0,26.0,26.0,26.0,-0.13388888888888895,0.29679999999999995,0.063875,270.447,-2.3564,-2.131875,-1.7817,-1.8186666666666669,-275.66,216.1625,190.964,0.0,0.0,0.0,0.0,0.0016,-5.498166666666667,-5.498166666666667,-0.6713,1.9586666666666668,-0.017444444444444596,-0.6805,65.77,-0.049300000000000004,-0.3421,1.6079999999999997,100.0,1.0,1.0,203.17666666666668,0.0,0.0,0.0,0.0,0.0,0.0,0.0,8612.0,0.0,55.0,5.0,236.74333333333334,0.0,0.0,0.0,0.0,0.0,0.0,0.0,0.0,0.0030000000000001137,0.0030000000000001137,0.0,0.0,0.0,55.0,616.79921,10000.0,85.0,85.0,85.0,85.0,395.0,0.0,0.0,0.0,1.0,20.0,25.421,25.421,29.16,29.16,34.0,-21.5775,9.448,-34.62,26.92,0.0,1782.56,1.4299999999999997,100.0,35.683,34.908,24.229,23.931,0.0,0.0,100.0,0.0,0.0,0.0,0.0,3388.5714285714284,3798.9,4048.8888888888887,3922.4,304.4415,302.735,315.09025,315.1378,21.723111111111113,20.6422,21.8978,21.3726,314.99999,314.99999,324.99998,324.99998,99.55584285714286,99.51131666666667,99.57461428571429,99.54898571428572,0.106,-0.3065,-0.195,0.053,-0.05833333333333002,-0.03333333333333144,1.5755,1.625,36.769999999999996,30.014,37.861000000000004,34.579,55.257,37.0025,62.55,53.3915,53.467,36.082499999999996,60.8005,51.4855,52.897999999999996,35.6655,60.5075,50.7095,-0.119,-0.3340000000000001,0.10978,0.11418,0.0,206.14,206.03,203.17666666666668,203.17666666666668,0.0,0.0
1,0.0,0.0,0.0,1.0,1.0,0.0,0.0,1.0,0.0,100.0,1.0,1.1856,26.0,0.0,0.0,0.0,59.999996,0.0,26.0,26.0,26.0,26.0,-0.16188888888888886,0.31679999999999997,0.057025,269.8365,-2.2536,-2.4735,-1.7793,-1.8583333333333334,-272.1,216.1825,190.942875,0.0,0.0,0.0,0.0,0.0036666666666666666,-5.498166666666667,-5.498166666666667,-0.6143000000000001,-1.4036666666666666,-0.08422222222222242,-0.36,65.937,-0.0854,-0.357275,2.064,100.0,1.0,1.0,203.28333333333333,0.0,0.0,0.0,0.0,0.0,0.0,0.0,8616.5,0.0,55.0,5.0,237.3466666666667,1.0,0.0,0.0,0.0,0.0,0.0,0.0,0.0,0.05699999999999861,0.05699999999999861,0.0,0.0,1.0,55.0,616.79921,10000.0,85.000001,85.000001,85.000001,85.000001,395.0,0.0,0.0,0.0,1.0,166.665,26.947,26.947,28.091,28.091,34.0,-20.599999999999998,8.458000000000002,-39.365,30.7175,0.0,1782.507,1.4699999999999989,100.0,35.932,34.854,26.67,25.239,0.0,0.0,100.0,0.0,0.0,0.0,0.0,3283.0,2832.7,4218.111111111111,4550.8,304.7225,305.8693333333333,314.4925,313.5142,21.733888888888888,20.6486,21.9102,21.3827,314.999998,314.999998,324.999988,324.999988,99.55587142857142,99.51136666666666,99.57478571428571,99.54912857142857,0.08875,-0.339,-0.23333333333333334,0.0041666666666666675,-0.03833333333332689,-0.026666666666670835,1.4304999999999999,1.5005,36.837,30.0535,37.938,34.641999999999996,55.251000000000005,37.056,62.5905,53.4565,53.462,36.132,60.8375,51.548,52.891999999999996,35.713,60.541,50.769999999999996,-0.11650000000000005,-0.3433333333333337,0.11170500000000001,0.101915,0.0,206.60000000000002,206.44,203.28333333333333,203.28333333333333,0.0,0.0
2,0.0,0.0,0.0,1.0,1.0,0.0,0.0,1.0,0.0,100.0,1.0,1.1856,26.0,0.0,0.0,0.0,59.999996,0.0,26.0,26.0,26.0,26.0,-0.2155555555555555,0.28400000000000003,-0.223925,271.286,-2.2235,-2.45525,-1.7281,-1.8984444444444444,-268.94,216.195,190.925875,0.0,0.0,0.0,0.0,0.0055000000000000005,-5.498166666666667,-5.498166666666667,-0.6863,0.3766666666666666,-0.07411111111111124,2.5875,66.06700000000001,-0.11900000000000001,-0.410675,2.476,100.0,1.0,1.0,204.41333333333333,0.0,0.0,0.0,0.0,0.0,0.0,0.0,8664.4,0.0,55.0,5.0,237.81666666666666,0.0,0.0,0.0,0.0,0.0,0.0,0.0,0.0,0.10500000000000043,0.10500000000000043,0.0,0.0,0.0,55.0,616.79921,10000.0,85.000001,85.000001,85.000001,85.000001,395.0,0.0,0.0,0.0,1.0,333.33500000000004,25.924999999999997,25.924999999999997,31.281,31.281,34.0,-23.89,7.763999999999999,-31.095,18.605,0.0,1782.458,1.4600000000000009,100.0,36.552,34.823,25.538,23.805,0.0,0.0,100.0,0.0,0.0,0.0,0.0,3550.142857142857,3051.7,3494.0,3350.5,303.813,305.17466666666667,316.34775,316.6826,21.743666666666666,20.654,21.9205,21.3909,314.999998,314.999998,324.999988,324.999988,99.55587142857142,99.5114,99.57491428571429,99.54925714285714,0.059250000000000004,-0.36575,-0.28600000000000003,-0.03783333333333334,-0.04333333333332945,-0.05833333333333002,1.774,1.8585,36.897999999999996,30.0875,38.003,34.6935,55.248000000000005,37.1015,62.6145,53.5,53.458,36.174,60.86,51.5895,52.887,35.7535,60.5605,50.81,-0.11850000000000005,-0.33999999999999986,0.10817,0.104315,0.0,207.06,206.875,204.41333333333333,204.41333333333333,0.0,0.0
3,0.0,0.0,0.0,1.0,1.0,0.0,0.0,1.0,0.0,100.0,1.0,1.1856,26.0,0.0,0.0,0.0,59.999996,0.0,26.0,26.0,26.0,26.0,-0.2313333333333334,0.32400000000000007,0.04585,270.4315,-2.3487999999999998,-2.369375,-1.7525,-1.884888888888889,-265.76,216.2025,190.90675,0.0,0.0,0.0,0.0,0.007366666666666667,-5.498166666666667,-5.498166666666667,-0.6297,0.5916666666666667,-0.04033333333333333,-0.99,66.215,-0.1467,-0.33077500000000004,2.16,100.0,1.0,1.0,204.29666666666668,0.0,0.0,0.0,0.0,0.0,0.0,0.0,8659.4,0.0,55.0,5.0,238.34333333333333,1.0,0.0,0.0,0.0,0.0,0.0,0.0,0.0,0.1529999999999987,0.1529999999999987,0.0,0.0,1.0,55.0,616.79921,10000.0,85.000001,85.000001,85.000001,85.000001,395.0,0.0,0.0,0.0,1.0,333.33500000000004,26.855,26.855,28.275,28.275,34.0,-22.037499999999998,6.721999999999998,-43.515,24.8625,0.0,1782.409,1.1750000000000007,100.0,36.104,34.886,25.558,24.081,0.0,0.0,100.0,0.0,0.0,0.0,0.0,3156.714285714286,2957.1,4399.222222222223,4179.4,305.1475,305.28766666666667,314.19775,314.5174,21.75311111111111,20.6597,21.931,21.3995,314.999998,314.999998,324.999988,324.999988,99.55588571428571,99.51143333333333,99.57505714285715,99.5494,0.05725,-0.3655,-0.2926666666666667,-0.049166666666666664,-0.03499999999999659,-0.02499999999999858,1.4815,1.574,36.957,30.122999999999998,38.069,34.747,55.239999999999995,37.15,62.6435,53.555,53.45,36.219,60.887,51.641999999999996,52.878,35.797,60.585,50.861000000000004,-0.14500000000000002,-0.31733333333333347,0.10410000000000001,0.11175500000000001,0.0,207.51,207.32999999999998,204.29666666666668,204.29666666666668,0.0,0.0
4,0.0,0.0,0.0,1.0,1.0,0.0,0.0,1.0,0.0,100.0,1.0,1.1856,26.0,0.0,0.0,0.0,59.999996,0.0,26.0,26.0,26.0,26.0,-0.24255555555555552,0.2784,-0.052675,270.7365,-2.2652,-2.43225,-1.7603,-1.9026666666666667,-262.38,216.20499999999998,190.887,0.0,0.0,0.0,0.0,0.009333333333333334,-5.498166666666667,-5.498166666666667,-0.6797000000000001,-1.0066666666666668,-0.1161111111111115,-0.547,66.361,-0.1516,-0.40255,2.0279999999999996,100.0,1.0,1.0,204.98666666666668,0.0,0.0,0.0,0.0,0.0,0.0,0.0,8688.7,0.0,55.0,5.0,238.87333333333333,0.0,0.0,0.0,0.0,0.0,0.0,0.0,0.0,0.20400000000000063,0.20400000000000063,0.0,0.0,0.0,55.0,616.79921,10000.0,85.000001,85.000001,85.000001,85.000001,395.0,0.0,0.0,0.0,1.0,166.665,26.093,26.093,29.373,29.373,34.0,-24.4675,8.161999999999999,-37.4575,19.884999999999998,0.0,1782.36,1.0899999999999999,100.0,36.158,34.586,26.165,24.0335,0.0,0.0,100.0,0.0,0.0,0.0,0.0,3561.5714285714284,3181.7,3941.0,3453.7,303.949,304.77666666666664,315.178,316.2604,21.76311111111111,20.6657,21.9424,21.4087,314.999998,314.999998,324.999988,324.999988,99.5559,99.51148333333333,99.5752,99.54952857142857,0.05575,-0.36075,-0.28650000000000003,-0.043500000000000004,-0.02833333333332888,-0.05666666666667197,1.6139999999999999,1.679,37.019999999999996,30.1605,38.14,34.804,55.230999999999995,37.202,62.6775,53.6075,53.442,36.266999999999996,60.9185,51.692,52.869,35.843,60.614,50.91,-0.14100000000000001,-0.31366666666666676,0.10493000000000001,0.10691500000000001,0.0,207.89499999999998,207.75,204.98666666666668,204.98666666666668,0.0,0.0
5,0.0,0.0,0.0,1.0,1.0,0.0,0.0,1.0,0.0,100.0,1.0,1.1856,26.0,0.0,0.0,0.0,59.999996,0.0,26.0,26.0,26.0,26.0,-0.23444444444444446,0.30410000000000004,-0.025475,270.813,-2.2874,-2.4446250000000003,-1.7467000000000001,-1.8813333333333333,-258.99,216.2025,190.866625,0.0,0.0,0.0,0.0,0.011300000000000001,-5.498166666666667,-5.498166666666667,-0.6619,0.5996666666666667,-0.11555555555555586,-0.167,66.508,-0.16010000000000002,-0.358725,1.8560000000000008,100.0,1.0,1.0,205.36666666666667,0.0,0.0,0.0,0.0,0.0,0.0,0.0,8704.8,0.0,55.0,5.0,239.4,1.0,0.0,0.0,0.0,0.0,0.0,0.0,0.0,0.254999999999999,0.254999999999999,0.0,0.0,1.0,55.0,616.79921,10000.0,85.000001,85.000001,85.000001,85.000001,395.0,0.0,0.0,0.0,1.0,333.33500000000004,26.84,26.84,29.419,29.419,34.0,-23.3475,7.714000000000002,-40.31,22.064999999999998,0.0,1782.307,0.6950000000000003,100.0,36.094,34.569,25.773,23.6895,0.0,0.0,100.0,0.0,0.0,0.0,0.0,3433.857142857143,2889.4,4127.0,3918.5,304.4425,305.575,314.909,315.138,21.773444444444443,20.6716,21.9535,21.4176,314.999998,314.999998,324.999988,324.999988,99.5559,99.51153333333333,99.57534285714286,99.54967142857143,0.0605,-0.35525,-0.30783333333333335,-0.06266666666666666,-0.046666666666666856,-0.03833333333332689,1.5705,1.6455,37.084,30.197499999999998,38.209,34.86,55.226,37.251999999999995,62.709,53.658,53.437,36.3135,60.9475,51.7405,52.863,35.888,60.64,50.9565,-0.1815,-0.278,0.10525000000000001,0.114195,0.0,208.42000000000002,208.25,205.36666666666667,205.36666666666667,0.0,0.0
6,0.0,0.0,0.0,1.0,1.0,0.0,0.0,1.0,0.0,100.0,1.0,1.1856,26.0,0.0,0.0,0.0,59.999996,0.0,26.0,26.0,26.0,26.0,-0.19744444444444442,0.2995000000000001,0.005475,270.6755,-2.2483,-2.4850000000000003,-1.7883,-1.8814444444444445,-255.6,216.195,190.846,0.0,0.0,0.0,0.0,0.013266666666666666,-5.498166666666667,-5.498166666666667,-0.6608,-0.06766666666666676,-0.09866666666666646,0.89,66.656,-0.15180000000000002,-0.367325,1.4060000000000006,100.0,1.0,1.0,205.80333333333334,0.0,0.0,0.0,0.0,0.0,0.0,0.0,8723.2,0.0,55.0,5.0,239.93333333333334,0.0,0.0,0.0,0.0,0.0,0.0,0.0,0.0,0.30600000000000094,0.30600000000000094,0.0,0.0,0.0,55.0,616.79921,10000.0,85.000001,85.000001,85.000001,85.000001,395.0,0.0,0.0,0.0,1.0,166.665,26.505,26.505,29.266,29.266,34.0,-21.5575,9.948,-38.44,22.965,0.0,1782.258,0.3000000000000007,100.0,36.078,34.428,25.97,23.988,0.0,0.0,100.0,0.0,0.0,0.0,0.0,3399.0,3132.9,4009.5555555555557,3867.4,304.343,304.8953333333333,315.0995,315.313,21.783555555555555,20.677599999999998,21.9647,21.4268,314.999998,314.999998,324.999988,324.999988,99.55591428571428,99.51156666666667,99.5755,99.54981428571429,0.08675000000000001,-0.33325,-0.2806666666666667,-0.0365,-0.030000000000001137,-0.045000000000001705,1.562,1.6365,37.147,30.2345,38.278999999999996,34.917500000000004,55.221000000000004,37.302,62.741,53.714,53.431,36.36,60.9775,51.793,52.855999999999995,35.932,60.6665,51.007999999999996,-0.2004999999999999,-0.2606666666666664,0.10332500000000001,0.11625,0.0,208.82999999999998,208.70499999999998,205.80333333333334,205.80333333333334,0.0,0.0
7,0.0,0.0,0.0,1.0,1.0,0.0,0.0,1.0,0.0,100.0,1.0,1.1856,26.0,0.0,0.0,0.0,59.999996,0.0,26.0,26.0,26.0,26.0,-0.15155555555555555,0.2984,0.048475000000000004,270.4925,-2.2232,-2.41725,-1.749,-1.9196666666666669,-252.39,216.1825,190.82675,0.0,0.0,0.0,0.0,0.015133333333333335,-5.498166666666667,-5.498166666666667,-0.6673,0.055333333333333345,-0.08400000000000007,1.223,66.794,-0.134,-0.379975,0.96,100.0,1.0,1.0,206.22,0.0,0.0,0.0,0.0,0.0,0.0,0.0,8740.8,0.0,55.0,5.0,240.43333333333334,1.0,0.0,0.0,0.0,0.0,0.0,0.0,0.0,0.3539999999999992,0.3539999999999992,0.0,0.0,1.0,55.0,616.79921,10000.0,85.000001,85.000001,85.000001,85.000001,395.0,0.0,0.0,0.0,1.0,166.665,26.061999999999998,26.061999999999998,29.541,29.541,34.0,-20.0125,10.916,-35.81,25.0075,0.0,1782.21,0.03500000000000014,100.0,36.242,34.588,25.865,24.121000000000002,0.0,0.0,100.0,0.0,0.0,0.0,0.0,3474.285714285714,3229.7,3934.3333333333335,3899.6000000000004,304.046,304.6413333333333,315.2445,315.1834,21.793222222222223,20.6832,21.9752,21.4354,314.999998,314.999998,324.999988,324.999988,99.55592857142857,99.5116,99.57564285714285,99.54994285714285,0.12275,-0.30625,-0.2515,-0.011,-0.041666666666671404,-0.051666666666669414,1.5805,1.6285,37.208,30.2705,38.345,34.9715,55.218,37.3485,62.769999999999996,53.765,53.428,36.403,61.0045,51.842,52.852000000000004,35.9735,60.6905,51.055,-0.23199999999999998,-0.2373333333333334,0.10098000000000001,0.109825,0.0,209.235,209.155,206.22,206.22,0.0,0.0
8,0.0,0.0,0.0,1.0,1.0,0.0,0.0,1.0,0.0,100.0,1.0,1.1856,26.0,0.0,0.0,0.0,59.999996,0.0,26.0,26.0,26.0,26.0,-0.12277777777777776,0.29900000000000015,-0.02985,270.7215,-2.3139,-2.395125,-1.736,-1.8683333333333334,-248.98,216.16500000000002,190.806125,0.0,0.0,0.0,0.0,0.0171,-5.498166666666667,-5.498166666666667,-0.6662,-0.5383333333333333,-0.06522222222222229,-0.418,66.941,-0.10350000000000001,-0.36967500000000003,0.3639999999999999,100.0,1.0,1.0,206.57999999999998,0.0,0.0,0.0,0.0,0.0,0.0,0.0,8756.2,0.0,55.0,5.0,240.96,0.0,0.0,0.0,0.0,0.0,0.0,0.0,0.0,0.40500000000000114,0.40500000000000114,0.0,0.0,0.0,55.0,616.79921,10000.0,85.000001,85.000001,85.000001,85.000001,395.0,0.0,0.0,0.0,1.0,333.33500000000004,26.993000000000002,26.993000000000002,28.762999999999998,28.762999999999998,34.0,-18.615,11.344000000000001,-35.9825,26.567500000000003,0.0,1782.157,-0.09499999999999886,100.0,35.626,34.691,25.778,24.3885,0.0,0.0,100.0,0.0,0.0,0.0,0.0,3253.857142857143,3074.0,4089.222222222222,3947.8,304.9985,304.968,314.902,314.9778,21.80311111111111,20.6893,21.9864,21.4446,314.999998,314.999998,324.999988,324.999988,99.55594285714285,99.51165,99.57578571428571,99.55008571428571,0.13575,-0.28150000000000003,-0.22066666666666665,0.0205,-0.03999999999999915,-0.030000000000001137,1.5635,1.5805,37.269999999999996,30.308,38.415,35.028999999999996,55.213,37.3955,62.8005,53.819,53.423,36.4465,61.033,51.8935,52.846000000000004,36.0155,60.716,51.105000000000004,-0.23899999999999988,-0.21266666666666678,0.10490500000000001,0.11328,0.0,209.67000000000002,209.62,206.57999999999998,206.57999999999998,0.0,0.0
9,0.0,0.0,0.0,1.0,1.0,0.0,0.0,1.0,0.0,100.0,1.0,1.1856,26.0,0.0,0.0,0.0,59.999996,0.0,26.0,26.0,26.0,26.0,-0.08266666666666656,0.3017000000000001,-0.018375000000000002,270.4315,-2.3071,-2.3977500000000003,-1.7959,-1.8454444444444444,-245.76999999999998,216.1475,190.78625,0.0,0.0,0.0,0.0,0.019,-5.498166666666667,-5.498166666666667,-0.6714,0.6623333333333333,-0.059222222222222065,-0.234,67.075,-0.0751,-0.37067500000000003,0.23000000000000043,100.0,1.0,1.0,207.14,0.0,0.0,0.0,0.0,0.0,0.0,0.0,8779.9,0.0,55.0,5.0,241.44333333333333,1.0,0.0,0.0,0.0,0.0,0.0,0.0,0.0,0.4529999999999994,0.4529999999999994,0.0,0.0,1.0,55.0,616.79921,10000.0,85.000001,85.000001,85.000001,85.000001,395.0,0.0,0.0,0.0,1.0,333.33500000000004,25.726,25.726,29.861,29.861,34.0,-19.57,12.698,-32.9725,26.465,0.0,1782.109,-0.254999999999999,100.0,36.053,35.132,25.358,24.3755,0.0,0.0,100.0,0.0,0.0,0.0,0.0,3655.285714285714,3186.4,3903.8888888888887,3869.9,303.783,304.56266666666664,315.4395,315.27139999999997,21.812666666666665,20.6952,21.9968,21.4532,314.999998,314.999998,324.999988,324.999988,99.55595714285714,99.51168333333334,99.57592857142858,99.55022857142858,0.166,-0.26525,-0.1925,0.0455,-0.045000000000001705,-0.051666666666669414,1.6335,1.641,37.329,30.345,38.480000000000004,35.082499999999996,55.213,37.4445,62.827,53.8715,53.423,36.492,61.0575,51.9435,52.844,36.059,60.7375,51.153999999999996,-0.25750000000000006,-0.21466666666666656,0.10099000000000001,0.108755,0.0,210.095,210.07999999999998,207.14,207.14,0.0,0.0
10,0.0,0.0,0.0,1.0,1.0,0.0,0.0,1.0,0.0,100.0,1.0,1.1856,26.0,0.0,0.0,0.0,59.999996,0.0,26.0,26.0,26.0,26.0,-0.053888888888888875,0.28690000000000015,-0.0164,270.401,-2.3338,-2.363625,-1.7849,-1.8141111111111112,-242.14,216.125,190.76425,0.0,0.0,0.0,0.0,0.0211,-5.498166666666667,-5.498166666666667,-0.6573,-0.8226666666666669,-0.011333333333333417,0.303,67.233,-0.0431,-0.37567500000000004,-0.1899999999999995,100.0,1.0,1.0,207.41333333333333,0.0,0.0,0.0,0.0,0.0,0.0,0.0,8791.5,0.0,55.0,5.0,242.01,0.0,0.0,0.0,0.0,0.0,0.0,1.0,0.0,0.5069999999999979,0.5069999999999979,0.0,0.0,0.0,55.0,616.79921,10000.0,85.000001,85.000001,85.000001,85.000001,395.0,0.0,0.0,0.0,1.0,166.665,26.779,26.779,28.549,28.549,34.0,-15.599999999999998,13.232,-34.3075,29.835,0.0,1782.057,-0.33500000000000085,100.0,35.803,35.205,25.695,25.127000000000002,0.0,0.0,100.0,0.0,0.0,0.0,0.0,3160.857142857143,3075.9,4114.222222222223,4068.3,305.286,304.95,314.86925,314.7014,21.82322222222222,20.7017,22.0087,21.4631,314.999998,314.999998,324.999988,324.999988,99.55598571428571,99.5117,99.57607142857142,99.55037142857142,0.19075,-0.23525000000000001,-0.16466666666666666,0.07583333333333334,-0.036666666666668846,-0.02499999999999858,1.534,1.524,37.394999999999996,30.3855,38.554,35.1445,55.213,37.4895,62.858000000000004,53.929,53.422,36.534,61.086,51.999,52.842,36.0995,60.763,51.207499999999996,-0.26049999999999995,-0.20033333333333347,0.10974500000000001,0.1106,0.0,210.535,210.54500000000002,207.41333333333333,207.41333333333333,0.0,0.0
11,0.0,0.0,0.0,1.0,1.0,0.0,0.0,1.0,0.0,100.0,1.0,1.1856,26.0,0.0,0.0,0.0,59.999996,0.0,26.0,26.0,26.0,26.0,-0.006111111111111067,0.2825,-0.104025,270.9505,-2.3335,-2.3293749999999998,-1.83,-1.804888888888889,-238.71,216.10250000000002,190.7435,0.0,0.0,0.0,0.0,0.022600000000000002,-5.498166666666667,-5.498166666666667,-0.6971,0.2593333333333333,0.010666666666666602,0.28750000000000003,67.37100000000001,-0.016800000000000002,-0.39080000000000004,-0.34199999999999964,100.0,1.0,1.0,208.18333333333334,0.0,0.0,0.0,0.0,0.0,0.0,0.0,8824.1,0.0,55.0,5.0,242.51,1.0,0.0,0.0,0.0,0.0,0.0,1.0,0.0,0.5579999999999998,0.5579999999999998,0.0,0.0,1.0,55.0,616.79921,10000.0,85.000001,85.000001,85.000001,85.000001,395.0,0.0,0.0,0.0,1.0,166.665,26.198999999999998,26.198999999999998,30.182,30.182,34.0,-14.442499999999999,15.742,-27.4175,27.465,0.0,1782.006,-0.48499999999999943,100.0,35.713,35.316,24.936,24.7405,0.0,0.0,100.0,0.0,0.0,0.0,0.0,3259.4285714285716,3357.3,3629.8888888888887,3726.7,304.8355,304.20933333333335,316.1355,315.6782,21.833111111111112,20.7081,22.0195,21.4722,314.999998,314.999998,324.999988,324.999988,99.556,99.51173333333334,99.57621428571429,99.5505,0.2275,-0.20475000000000002,-0.12516666666666668,0.114,-0.03833333333332689,-0.061666666666667425,1.71,1.7075,37.457,30.4255,38.622,35.201499999999996,55.212,37.536,62.8805,53.981,53.421,36.577,61.1065,52.048500000000004,52.839,36.1405,60.7805,51.256,-0.2609999999999999,-0.19899999999999984,0.11246,0.11216500000000001,0.0,210.95499999999998,211.0,208.18333333333334,208.18333333333334,0.0,0.0
12,0.0,0.0,0.0,1.0,1.0,0.0,0.0,1.0,0.0,100.0,1.0,1.1856,26.0,0.0,0.0,0.0,59.999996,0.0,26.0,26.0,26.0,26.0,0.028888888888888964,0.2881,0.053575000000000005,270.1415,-2.3861,-2.35425,-1.8023,-1.8074444444444444,-235.47,216.07999999999998,190.722375,0.0,0.0,0.0,0.0,0.025466666666666665,-5.498166666666667,-5.498166666666667,-0.6764,0.07033333333333336,-0.0006666666666665932,0.7695,67.511,0.0048000000000000004,-0.362275,-0.5219999999999994,100.0,1.0,1.0,208.29333333333335,0.0,0.0,0.0,0.0,0.0,0.0,0.0,8828.7,0.0,55.0,5.0,243.01,0.0,0.0,0.0,0.0,0.0,0.0,1.0,0.0,0.6059999999999981,0.6059999999999981,0.0,0.0,0.0,55.0,616.79921,10000.0,85.000001,85.000001,85.000001,85.000001,395.0,0.0,0.0,0.0,1.0,166.665,26.031,26.031,28.519,28.519,34.0,-14.594999999999999,17.02,-31.265,33.5075,0.0,1781.958,-0.46999999999999886,100.0,35.609,35.468,25.215,24.9105,0.0,0.0,100.0,0.0,0.0,0.0,0.0,3311.285714285714,3404.8,4111.0,4140.7,304.704,304.108,314.8525,314.6538,21.842333333333332,20.7141,22.03,21.481,314.999998,314.999998,324.999988,324.999988,99.55604285714286,99.51175,99.57635714285715,99.55064285714286,0.24075,-0.18975,-0.1,0.14166666666666666,-0.041666666666671404,-0.03999999999999915,1.554,1.5265,37.513999999999996,30.463,38.687,35.256,55.213,37.578,62.908500000000004,54.033500000000004,53.421,36.616,61.132,52.099000000000004,52.838,36.1785,60.803,51.3045,-0.26750000000000007,-0.20033333333333347,0.10986000000000001,0.10851500000000001,0.0,211.41,211.44,208.29333333333335,208.29333333333335,0.0,0.0
13,0.0,0.0,0.0,1.0,1.0,0.0,0.0,1.0,0.0,100.0,1.0,1.1856,26.0,0.0,0.0,0.0,59.999996,0.0,26.0,26.0,26.0,26.0,0.05588888888888888,0.2946,0.061700000000000005,269.9585,-2.3698,-2.338625,-1.8406,-1.7830000000000001,-232.23,216.06,190.702,0.0,0.0,0.0,0.0,0.02686666666666667,-5.498166666666667,-5.498166666666667,-0.6815,-0.17966666666666686,0.009777777777777885,1.105,67.645,0.019,-0.38682500000000003,-0.758,100.0,1.0,1.0,208.7266666666667,0.0,0.0,0.0,0.0,0.0,0.0,0.0,8847.1,0.0,55.0,5.0,243.49666666666667,1.0,0.0,0.0,0.0,0.0,0.0,1.0,0.0,0.6539999999999999,0.6539999999999999,0.0,0.0,1.0,55.0,616.79921,10000.0,85.000001,85.000001,85.000001,85.000001,395.0,0.0,0.0,0.0,1.0,166.665,25.573999999999998,25.573999999999998,28.976,28.976,34.0,-13.2725,18.522,-29.362499999999997,33.605000000000004,0.0,1781.91,-0.6699999999999982,100.0,36.024,35.814,25.261,25.317,0.0,0.0,100.0,0.0,0.0,0.0,0.0,3333.142857142857,3419.5,3945.3333333333335,4155.5,304.605,304.039,315.2405,314.6144,21.851666666666667,20.7201,22.040399999999998,21.4898,314.999998,314.999998,324.999988,324.999988,99.55607142857143,99.51178333333333,99.57648571428571,99.55078571428571,0.265,-0.159,-0.08383333333333333,0.14916666666666667,-0.03999999999999915,-0.041666666666671404,1.581,1.549,37.573,30.500999999999998,38.751999999999995,35.3115,55.217,37.62,62.9335,54.087,53.425,36.655,61.1555,52.15,52.84,36.216,60.823499999999996,51.3545,-0.28549999999999986,-0.18100000000000005,0.10229500000000001,0.11099,0.0,211.8,211.85500000000002,208.7266666666667,208.7266666666667,0.0,0.0
14,0.0,0.0,0.0,1.0,1.0,0.0,0.0,1.0,0.0,100.0,1.0,1.1856,26.0,0.0,0.0,0.0,59.999996,0.0,26.0,26.0,26.0,26.0,0.06344444444444441,0.2885,-0.011375,270.2485,-2.3769,-2.272125,-1.8502,-1.7633333333333332,-228.76999999999998,216.0375,190.68075,0.0,0.0,0.0,0.0,0.02886666666666667,-5.498166666666667,-5.498166666666667,-0.6898000000000001,-0.08899999999999997,0.03988888888888886,-0.1235,67.786,0.037700000000000004,-0.39515,-0.8819999999999997,100.0,1.0,1.0,209.24,0.0,0.0,0.0,0.0,0.0,0.0,0.0,8868.9,0.0,55.0,5.0,244.00333333333333,0.0,0.0,0.0,0.0,0.0,0.0,1.0,0.0,0.7049999999999983,0.7049999999999983,0.0,0.0,0.0,55.0,616.79921,10000.0,85.000001,85.000001,85.000001,85.000001,395.0,0.0,0.0,0.0,1.0,333.33500000000004,25.817999999999998,25.817999999999998,29.189999999999998,29.189999999999998,34.0,-12.6175,17.872,-28.237499999999997,32.3525,0.0,1781.857,-0.7349999999999994,100.0,35.727000000000004,36.078,24.934,25.509500000000003,0.0,0.0,100.0,0.0,0.0,0.0,0.0,3276.0,3371.4,3847.4444444444443,4003.3,304.963,304.0303333333333,315.551,314.925,21.861444444444444,20.7266,22.0514,21.4991,314.999998,314.999998,324.999988,324.999988,99.5561,99.5118,99.57664285714286,99.55092857142857,0.272,-0.15425,-0.08083333333333333,0.16016666666666665,-0.03166666666666629,-0.051666666666669414,1.609,1.5795,37.634,30.541,38.821,35.3695,55.221000000000004,37.663,62.9585,54.143,53.428,36.695499999999996,61.178,52.2035,52.841,36.254999999999995,60.843,51.4065,-0.2885,-0.17866666666666653,0.10935500000000001,0.11145500000000001,0.0,212.22500000000002,212.305,209.24,209.24,0.0,0.0
15,0.0,0.0,0.0,1.0,1.0,0.0,0.0,1.0,0.0,100.0,1.0,1.1856,26.0,0.0,0.0,0.0,59.999996,0.0,26.0,26.0,26.0,26.0,0.10055555555555573,0.2881,0.0313,270.218,-2.3859,-2.28925,-1.8774000000000002,-1.727888888888889,-225.31,216.01749999999998,190.659,0.0,0.0,0.0,0.0,0.03086666666666667,-5.498166666666667,-5.498166666666667,-0.6789000000000001,0.14300000000000002,0.0734444444444442,0.641,67.928,0.0563,-0.373475,-1.116,100.0,1.0,1.0,209.61666666666667,0.0,0.0,0.0,0.0,0.0,0.0,0.0,8884.9,0.0,55.0,5.0,244.51666666666665,1.0,0.0,0.0,0.0,0.0,0.0,1.0,0.0,0.7560000000000002,0.7560000000000002,0.0,0.0,1.0,55.0,616.79921,10000.0,85.000001,85.000001,85.000001,85.000001,395.0,0.0,0.0,0.0,1.0,166.665,26.047,26.047,29.114,29.114,34.0,-10.799999999999997,19.2,-27.0075,36.417500000000004,0.0,1781.808,-0.6099999999999994,100.0,35.785,35.973,24.753,25.569000000000003,0.0,0.0,100.0,0.0,0.0,0.0,0.0,3039.0,3428.0,3859.4444444444443,4285.8,305.519,303.946,315.6025,314.3216,21.871222222222222,20.7331,22.0623,21.508499999999998,314.999998,314.999998,324.999988,324.999988,99.55614285714286,99.51181666666666,99.57677142857143,99.55108571428572,0.29175,-0.1375,-0.0465,0.19466666666666665,-0.01999999999999602,-0.06333333333333258,1.6019999999999999,1.5514999999999999,37.695,30.582,38.888999999999996,35.428,55.224999999999994,37.706,62.9825,54.2,53.432,36.7355,61.2,52.2585,52.843,36.2935,60.862,51.460499999999996,-0.2905,-0.17833333333333368,0.10574000000000001,0.10888,0.0,212.67000000000002,212.76999999999998,209.61666666666667,209.61666666666667,0.0,0.0
16,0.0,0.0,0.0,1.0,1.0,0.0,0.0,1.0,0.0,100.0,1.0,1.1856,26.0,0.0,0.0,0.0,59.999996,0.0,26.0,26.0,26.0,26.0,0.08533333333333326,0.27270000000000016,-0.033625,270.294,-2.4382,-2.245875,-1.8468,-1.7890000000000001,-222.05,216.0025,190.638125,0.0,0.0,0.0,0.0,0.03276666666666667,-5.498166666666667,-5.498166666666667,-0.7063,-0.683,0.05266666666666664,-0.052000000000000005,68.061,0.0729,-0.3997,-0.9039999999999999,100.0,1.0,1.0,210.09333333333333,0.0,0.0,0.0,0.0,0.0,0.0,0.0,8905.0,0.0,55.0,5.0,244.99333333333334,0.0,0.0,0.0,0.0,0.0,0.0,1.0,0.0,0.8039999999999985,0.8039999999999985,0.0,0.0,0.0,55.0,616.79921,10000.0,85.000001,85.000001,85.000001,85.000001,395.0,0.0,0.0,0.0,1.0,166.665,25.756999999999998,25.756999999999998,29.128999999999998,29.128999999999998,34.0,-13.267499999999998,18.522,-25.3925,33.975,0.0,1781.76,-0.2049999999999983,100.0,35.534,36.066,25.005,25.578,0.0,0.0,100.0,0.0,0.0,0.0,0.0,3261.0,3541.3,3751.3333333333335,3948.1000000000004,304.991,303.739,315.7335,315.0768,21.880111111111113,20.7392,22.0727,21.5173,314.999998,314.999998,324.999988,324.999988,99.55617142857143,99.51183333333333,99.57691428571428,99.55121428571428,0.27125,-0.15275,-0.037333333333333336,0.2015,-0.026666666666670835,-0.054999999999999716,1.6265,1.5865,37.751000000000005,30.6205,38.954,35.483000000000004,55.226,37.747,63.0075,54.2515,53.432,36.7735,61.223,52.3085,52.842,36.3305,60.882,51.5085,-0.25249999999999995,-0.21099999999999985,0.11134000000000001,0.10131000000000001,0.0,213.06,213.14,210.09333333333333,210.09333333333333,0.0,0.0
17,0.0,0.0,0.0,1.0,1.0,0.0,0.0,1.0,0.0,100.0,1.0,1.1856,26.0,0.0,0.0,0.0,59.999996,0.0,26.0,26.0,26.0,26.0,0.06633333333333336,0.3062,0.037075000000000004,269.882,-2.395,-2.231125,-1.8806,-1.755888888888889,-218.57,215.9875,190.615375,0.0,0.0,0.0,0.0,0.034800000000000005,-5.498166666666667,-5.498166666666667,-0.6893,0.45599999999999996,0.02288888888888896,-0.7315,68.202,0.0685,-0.37110000000000004,-0.3899999999999997,100.0,1.0,1.0,210.42000000000002,0.0,0.0,0.0,0.0,0.0,0.0,0.0,8918.9,0.0,55.0,5.0,245.5,1.0,0.0,0.0,0.0,0.0,0.0,1.0,0.0,0.8550000000000004,0.8550000000000004,0.0,0.0,1.0,55.0,616.79921,10000.0,85.000001,85.000001,85.000001,85.000001,395.0,0.0,0.0,0.0,1.0,333.33500000000004,25.665,25.665,28.762999999999998,28.762999999999998,34.0,-13.98,16.067999999999998,-30.9025,34.675,0.0,1781.707,-0.019999999999999574,100.0,35.932,36.338,24.776,25.5485,0.0,0.0,100.0,0.0,0.0,0.0,0.0,3370.857142857143,3270.5,4214.111111111111,4139.5,304.7375,304.38666666666666,314.7935,314.6566,21.89,20.7458,22.0836,21.5266,314.999998,314.999998,324.999988,324.999988,99.55621428571429,99.51186666666666,99.57704285714286,99.55135714285714,0.25775,-0.16925,-0.059500000000000004,0.18166666666666667,-0.036666666666668846,-0.03833333333332689,1.564,1.558,37.812,30.6615,39.022999999999996,35.5415,55.230999999999995,37.792,63.0325,54.307,53.437,36.815,61.246,52.3615,52.844,36.371,60.9015,51.5605,-0.238,-0.2323333333333335,0.10613500000000001,0.10893000000000001,0.0,213.565,213.57,210.42000000000002,210.42000000000002,0.0,0.0
18,0.0,0.0,0.0,1.0,1.0,0.0,0.0,1.0,0.0,100.0,1.0,1.1856,26.0,0.0,0.0,0.0,59.999996,0.0,26.0,26.0,26.0,26.0,0.020444444444444487,0.2753000000000001,-0.014,269.989,-2.4219,-2.2098750000000003,-1.8884,-1.7072222222222222,-215.3,215.975,190.594375,0.0,0.0,0.0,0.0,0.0367,-5.498166666666667,-5.498166666666667,-0.7091000000000001,-0.5906666666666667,0.039555555555555566,-0.511,68.333,0.0523,-0.4032,-0.07200000000000006,100.0,1.0,1.0,210.90333333333334,0.0,0.0,0.0,0.0,0.0,0.0,0.0,8939.4,0.0,55.0,5.0,245.97333333333336,0.0,0.0,0.0,0.0,0.0,0.0,1.0,0.0,0.9029999999999987,0.9029999999999987,0.0,0.0,0.0,55.0,616.79921,10000.0,85.000001,85.000001,85.000001,85.000001,395.0,0.0,0.0,0.0,1.0,333.33500000000004,25.36,25.36,29.037,29.037,34.0,-15.2375,16.354,-29.3325,30.93,0.0,1781.659,0.05000000000000071,100.0,35.766,36.247,25.075,25.7325,0.0,0.0,100.0,0.0,0.0,0.0,0.0,3431.285714285714,3496.5,3886.1111111111113,3947.5,304.593,303.72266666666667,315.51775,315.1058,21.89911111111111,20.752,22.0941,21.5355,314.999998,314.999998,324.999988,324.999988,99.55625714285715,99.51188333333333,99.57718571428572,99.5515,0.245,-0.183,-0.08716666666666667,0.1585,-0.036666666666668846,-0.046666666666666856,1.5979999999999999,1.595,37.869,30.7,39.088,35.597,55.233999999999995,37.8335,63.057,54.3605,53.438,36.8545,61.2685,52.413,52.845,36.408500000000004,60.921,51.6105,-0.22649999999999992,-0.238,0.11214,0.10173000000000001,0.0,213.935,213.95499999999998,210.90333333333334,210.90333333333334,0.0,0.0
19,0.0,0.0,0.0,1.0,1.0,0.0,0.0,1.0,0.0,100.0,1.0,1.1856,26.0,0.0,0.0,0.0,59.999996,0.0,26.0,26.0,26.0,26.0,0.02244444444444449,0.2993000000000001,0.056375,269.394,-2.3177,-2.3325,-1.8853,-1.7095555555555557,-211.81,215.9625,190.571625,0.0,0.0,0.0,0.0,0.038733333333333335,-5.498166666666667,-5.498166666666667,-0.6926,0.902,0.03133333333333321,0.5640000000000001,68.47200000000001,0.0366,-0.38067500000000004,0.017999999999999794,100.0,1.0,1.0,211.24333333333334,0.0,0.0,0.0,0.0,0.0,0.0,0.0,8953.9,0.0,55.0,5.0,246.47333333333336,1.0,0.0,0.0,0.0,0.0,0.0,1.0,0.0,0.9540000000000006,0.9540000000000006,0.0,0.0,1.0,55.0,616.79921,10000.0,85.000001,85.000001,85.000001,85.000001,395.0,0.0,0.0,0.0,1.0,333.33500000000004,24.826,24.826,28.534,28.534,34.0,-13.817499999999999,17.0,-31.595,34.39,0.0,1781.608,0.129999999999999,100.0,36.639,36.555,25.056,25.53,0.0,0.0,100.0,0.0,0.0,0.0,0.0,3312.142857142857,3466.3,4133.555555555556,4295.8,304.6,303.73066666666665,314.91475,314.3804,21.909,20.7586,22.105,21.5448,314.999998,314.999998,324.999988,324.999988,99.55628571428572,99.51191666666666,99.57732857142857,99.55165714285714,0.24275,-0.19525,-0.08366666666666667,0.16066666666666665,-0.04833333333333201,-0.036666666666668846,1.5615,1.563,37.931,30.741500000000002,39.156,35.655,55.238,37.881,63.081,54.4155,53.442,36.8985,61.2905,52.466,52.847,36.451499999999996,60.939499999999995,51.662,-0.22150000000000003,-0.246,0.10716,0.11112000000000001,0.0,214.41500000000002,214.42000000000002,211.24333333333334,211.24333333333334,0.0,0.0
20,0.0,0.0,0.0,1.0,1.0,0.0,0.0,1.0,0.0,100.0,1.0,1.1856,26.0,0.0,0.0,0.0,59.999996,0.0,26.0,26.0,26.0,26.0,0.02444444444444427,0.26380000000000003,-0.00935,269.974,-2.4038,-2.29875,-1.8,-1.8403333333333334,-208.11,215.9525,190.548,0.0,0.0,0.0,0.0,0.04086666666666667,-5.498166666666667,-5.498166666666667,-0.7143,-1.3673333333333337,0.01911111111111108,0.227,68.62,0.0195,-0.418825,0.15200000000000014,100.0,1.0,1.0,211.71333333333334,0.0,0.0,0.0,0.0,0.0,0.0,0.0,8973.7,0.0,55.0,5.0,247.01,0.0,0.0,0.0,0.0,0.0,0.0,0.0,0.0,1.0079999999999991,1.0079999999999991,0.0,0.0,0.0,55.0,616.79921,10000.0,85.000001,85.000001,85.000001,85.000001,395.0,0.0,0.0,0.0,1.0,166.665,25.619999999999997,25.619999999999997,28.748,28.748,34.0,-14.989999999999998,16.142,-28.7575,32.07,0.0,1781.556,0.1750000000000007,100.0,36.092,36.155,25.653,25.7545,0.0,0.0,100.0,0.0,0.0,0.0,0.0,3257.285714285714,3420.5,3845.1111111111113,3934.3,304.9575,304.08866666666665,315.458,315.0762,21.91922222222222,20.7655,22.1168,21.5548,314.999998,314.999998,324.999988,324.999988,99.55631428571428,99.51193333333333,99.57748571428571,99.5518,0.2305,-0.1965,-0.09766666666666668,0.14416666666666667,-0.03999999999999915,-0.045000000000001705,1.5645,1.555,37.995000000000005,30.784,39.230000000000004,35.718,55.238,37.929,63.111,54.4745,53.441,36.943,61.318,52.5225,52.844,36.4945,60.964,51.7175,-0.22299999999999986,-0.2490000000000001,0.10554500000000001,0.10338000000000001,0.0,214.82999999999998,214.8,211.71333333333334,211.71333333333334,0.0,0.0
21,0.0,0.0,0.0,1.0,1.0,0.0,0.0,1.0,0.0,100.0,1.0,1.1856,26.0,0.0,0.0,0.0,59.999996,0.0,26.0,26.0,26.0,26.0,0.002666666666666595,0.2924,-0.073225,270.2025,-2.3609,-2.30975,-1.8564,-1.8052222222222223,-205.01,215.9425,190.527375,0.0,0.0,0.0,0.0,0.04266666666666667,-5.498166666666667,-5.498166666666667,-0.7206,0.836,-0.00755555555555576,-1.07,68.738,0.0022,-0.392525,0.30799999999999983,100.0,1.0,1.0,212.24666666666667,0.0,0.0,0.0,0.0,0.0,0.0,0.0,8996.4,0.0,55.0,5.0,247.43333333333334,1.0,0.0,0.0,0.0,0.0,0.0,0.0,0.0,1.0530000000000008,1.0530000000000008,0.0,0.0,1.0,55.0,616.79921,10000.0,85.000001,85.000001,85.000001,85.000001,395.0,0.0,0.0,0.0,1.0,333.33500000000004,25.451999999999998,25.451999999999998,29.526,29.526,34.0,-15.9725,14.367999999999999,-30.799999999999997,29.1125,0.0,1781.509,0.06500000000000128,100.0,36.339,36.387,24.927,25.195500000000003,0.0,0.0,100.0,0.0,0.0,0.0,0.0,3414.4285714285716,3249.0,3951.1111111111113,3842.6000000000004,304.5985,304.4456666666667,315.44525,315.415,21.927888888888887,20.7713,22.1263,21.5629,314.999998,314.999998,324.999988,324.999988,99.55634285714285,99.51196666666667,99.57761428571429,99.55194285714286,0.21725,-0.2185,-0.12283333333333334,0.12166666666666667,-0.06499999999999773,-0.01666666666666572,1.6635,1.6604999999999999,38.049,30.8205,39.289,35.768,55.239999999999995,37.9735,63.1315,54.522,53.443,36.9845,61.3365,52.5685,52.844,36.5345,60.9795,51.762,-0.23449999999999993,-0.2453333333333334,0.105495,0.10885,0.0,215.26999999999998,215.20499999999998,212.24666666666667,212.24666666666667,0.0,0.0
22,0.0,0.0,0.0,1.0,1.0,0.0,0.0,1.0,0.0,100.0,1.0,1.1856,26.0,0.0,0.0,0.0,59.999996,0.0,26.0,26.0,26.0,26.0,-0.020444444444444487,0.2654000000000001,0.00355,269.7145,-2.2912,-2.3657500000000002,-1.8538999999999999,-1.797,-201.3,215.93,190.502,0.0,0.0,0.0,0.0,0.044833333333333336,-5.498166666666667,-5.498166666666667,-0.7075,-0.4693333333333334,-0.0021111111111111747,-0.6515,68.888,-0.0085,-0.39065,0.2160000000000002,100.0,1.0,1.0,212.46666666666667,0.0,0.0,0.0,0.0,0.0,0.0,0.0,9005.7,0.0,55.0,5.0,247.97,0.0,0.0,0.0,0.0,0.0,0.0,0.0,0.0,1.1069999999999993,1.1069999999999993,0.0,0.0,0.0,55.0,616.79921,10000.0,85.000001,85.000001,85.000001,85.000001,395.0,0.0,0.0,0.0,1.0,166.665,25.604,25.604,28.381,28.381,34.0,-14.875,14.17,-33.83,31.21,0.0,1781.457,0.015000000000000568,100.0,36.368,36.425,25.613,25.6555,0.0,0.0,100.0,0.0,0.0,0.0,0.0,3268.4285714285716,3197.0,4114.222222222223,4094.9,304.973,304.51533333333333,314.96875,314.6792,21.938222222222223,20.7781,22.1381,21.5729,314.999998,314.999998,324.999988,324.999988,99.55637142857142,99.512,99.57777142857142,99.55208571428571,0.20925,-0.23025,-0.13683333333333333,0.10283333333333333,-0.04833333333333201,-0.026666666666670835,1.526,1.5305,38.114000000000004,30.863500000000002,39.363,35.8305,55.242000000000004,38.019999999999996,63.1605,54.5785,53.444,37.028,61.3635,52.6225,52.844,36.576,61.0035,51.8145,-0.238,-0.23899999999999988,0.10816,0.105645,0.0,215.695,215.655,212.46666666666667,212.46666666666667,0.0,0.0
23,0.0,0.0,0.0,1.0,1.0,0.0,0.0,1.0,0.0,100.0,1.0,1.1856,26.0,0.0,0.0,0.0,59.999996,0.0,26.0,26.0,26.0,26.0,-0.025000000000000022,0.26070000000000015,-0.0596,269.821,-2.3147,-2.323125,-1.8978000000000002,-1.7724444444444445,-197.78,215.91750000000002,190.47875,0.0,0.0,0.0,0.0,0.04686666666666667,-5.498166666666667,-5.498166666666667,-0.7324,0.17333333333333334,-0.0043333333333333,0.6985,69.021,-0.012400000000000001,-0.41755000000000003,0.22200000000000042,100.0,1.0,1.0,213.10000000000002,0.0,0.0,0.0,0.0,0.0,0.0,0.0,9032.5,0.0,55.0,5.0,248.45333333333335,1.0,0.0,0.0,0.0,0.0,0.0,0.0,0.0,1.1580000000000013,1.1580000000000013,0.0,0.0,1.0,55.0,616.79921,10000.0,85.000001,85.000001,85.000001,85.000001,395.0,0.0,0.0,0.0,1.0,166.665,24.704,24.704,29.663,29.663,34.0,-15.995000000000001,15.192,-30.945,28.155,0.0,1781.406,-0.03999999999999915,100.0,37.031,36.433,25.447,25.375500000000002,0.0,0.0,100.0,0.0,0.0,0.0,0.0,3450.857142857143,3406.6,3813.8888888888887,3838.8,304.2465,304.094,315.73375,315.4896,21.94811111111111,20.7848,22.149,21.5822,314.999998,314.999998,324.999988,324.999988,99.5564,99.51201666666667,99.57791428571429,99.55222857142857,0.21425,-0.21925,-0.14083333333333334,0.11133333333333333,-0.036666666666668846,-0.051666666666669414,1.642,1.658,38.176,30.9045,39.431,35.888999999999996,55.245000000000005,38.0685,63.1845,54.6315,53.446,37.073,61.3855,52.673,52.845,36.6195,61.022,51.8635,-0.238,-0.23966666666666647,0.11207,0.10731,0.0,216.095,216.09,213.10000000000002,213.10000000000002,0.0,0.0
24,0.0,0.0,0.0,1.0,1.0,0.0,0.0,1.0,0.0,100.0,1.0,1.1856,26.0,0.0,0.0,0.0,59.999996,0.0,26.0,26.0,26.0,26.0,-0.00822222222222213,0.26760000000000006,-0.0347,270.0045,-2.3418,-2.3295000000000003,-1.8215,-1.7987777777777778,-194.47,215.9075,190.455875,0.0,0.0,0.0,0.0,0.0488,-5.498166666666667,-5.498166666666667,-0.7348,-0.839,0.007444444444444365,1.059,69.153,-0.0097,-0.4011,0.02600000000000069,100.0,1.0,1.0,213.3,0.0,0.0,0.0,0.0,0.0,0.0,0.0,9040.9,0.0,55.0,5.0,248.92333333333335,0.0,0.0,0.0,0.0,0.0,0.0,0.0,0.0,1.2059999999999995,1.2059999999999995,0.0,0.0,0.0,55.0,616.79921,10000.0,85.000001,85.000001,85.000001,85.000001,395.0,0.0,0.0,0.0,1.0,166.665,25.955,25.955,28.595,28.595,34.0,-14.5275,14.73,-32.0525,31.28,0.0,1781.358,-0.015000000000000568,100.0,36.487,36.066,25.619,25.375999999999998,0.0,0.0,100.0,0.0,0.0,0.0,0.0,3119.0,3263.3,4058.6666666666665,4043.7,305.3235,304.5756666666667,314.99875,314.922,21.95722222222222,20.7907,22.159399999999998,21.5911,314.999998,314.999998,324.999988,324.999988,99.55642857142857,99.51205,99.57805714285715,99.55237142857143,0.21275,-0.21475,-0.12083333333333333,0.11866666666666667,-0.04333333333332945,-0.03166666666666629,1.569,1.551,38.232,30.942,39.495999999999995,35.944,55.244,38.1105,63.210499999999996,54.6825,53.445,37.112,61.4095,52.722,52.842,36.657,61.043,51.911,-0.23750000000000004,-0.2290000000000001,0.102675,0.11219000000000001,0.0,216.5,216.47500000000002,213.3,213.3,0.0,0.0
25,0.0,0.0,0.0,1.0,1.0,0.0,0.0,1.0,0.0,100.0,1.0,1.1856,26.0,0.0,0.0,0.0,59.999996,0.0,26.0,26.0,26.0,26.0,-0.011888888888888949,0.26639999999999997,-0.040275000000000005,269.76,-2.4003,-2.2952500000000002,-1.8301,-1.8083333333333333,-191.14,215.89499999999998,190.43175,0.0,0.0,0.0,0.0,0.05073333333333333,-5.498166666666667,-5.498166666666667,-0.7637,0.2856666666666666,0.004666666666666597,-0.0845,69.277,-0.0099,-0.40587500000000004,0.08199999999999985,100.0,1.0,1.0,213.85666666666668,0.0,0.0,0.0,0.0,0.0,0.0,0.0,9064.6,0.0,55.0,5.0,249.37333333333333,1.0,0.0,0.0,0.0,0.0,0.0,0.0,0.0,1.2540000000000013,1.2540000000000013,0.0,0.0,1.0,55.0,616.79921,10000.0,85.000001,85.000001,85.000001,85.000001,395.0,0.0,0.0,0.0,1.0,166.665,24.567,24.567,29.448999999999998,29.448999999999998,34.0,-16.865,16.33,-29.5675,29.9825,0.0,1781.31,-0.0799999999999983,100.0,36.552,36.424,25.208,25.119500000000002,0.0,0.0,100.0,0.0,0.0,0.0,0.0,3543.4285714285716,3594.7,3784.222222222222,3889.5,304.1085,303.52933333333334,315.752,315.3092,21.966333333333335,20.797,22.1696,21.5998,314.999998,314.999998,324.999988,324.999988,99.55645714285714,99.51208333333334,99.5782,99.55251428571428,0.22425,-0.21025,-0.13166666666666665,0.12716666666666668,-0.03166666666666629,-0.05333333333332746,1.6425,1.6305,38.29,30.9815,39.56,35.9985,55.245000000000005,38.156,63.2315,54.7305,53.446,37.1545,61.429,52.7685,52.841,36.698,61.0595,51.956,-0.24449999999999994,-0.23433333333333373,0.109825,0.11346,0.0,216.875,216.875,213.85666666666668,213.85666666666668,0.0,0.0
26,0.0,0.0,0.0,1.0,1.0,0.0,0.0,1.0,0.0,100.0,1.0,1.1856,26.0,0.0,0.0,0.0,59.999996,0.0,26.0,26.0,26.0,26.0,-0.009222222222222132,0.2781,0.12465000000000001,268.631,-2.356,-2.370625,-1.8293,-1.8054444444444444,-187.39999999999998,215.88,190.4045,0.0,0.0,0.0,0.0,0.05293333333333334,-5.498166666666667,-5.498166666666667,-0.7237,-0.06966666666666677,-0.010000000000000231,0.894,69.425,-0.006500000000000001,-0.394,-0.038000000000000256,100.0,1.0,1.0,213.96333333333334,0.0,0.0,0.0,0.0,0.0,0.0,0.0,9069.1,0.0,55.0,5.0,249.90333333333334,0.0,0.0,0.0,0.0,0.0,0.0,0.0,0.0,1.3079999999999998,1.3079999999999998,0.0,0.0,0.0,55.0,616.79921,10000.0,85.000001,85.000001,85.000001,85.000001,395.0,0.0,0.0,0.0,1.0,166.665,24.597,24.597,27.466,27.466,34.0,-14.6675,15.58,-35.49,36.1425,0.0,1781.256,-0.16000000000000014,100.0,37.409,36.997,26.057,25.814,0.0,0.0,100.0,0.0,0.0,0.0,0.0,3297.714285714286,3349.2,4369.666666666667,4449.8,304.6655,304.269,314.238,313.9618,21.976888888888887,20.8041,22.1814,21.6099,314.999998,314.999998,324.999988,324.999988,99.55648571428571,99.51211666666667,99.57835714285714,99.55267142857143,0.23375,-0.2165,-0.11683333333333333,0.1275,-0.011666666666670267,-0.06333333333333258,1.4705,1.4595,38.355000000000004,31.026,39.634,36.0615,55.25,38.208,63.263,54.7905,53.45,37.203,61.458,52.826,52.843,36.7445,61.0845,52.012,-0.2549999999999999,-0.2313333333333336,0.099125,0.11401000000000001,0.0,217.34,217.35500000000002,213.96333333333334,213.96333333333334,0.0,0.0
27,0.0,0.0,0.0,1.0,1.0,0.0,0.0,1.0,0.0,100.0,1.0,1.1856,26.0,0.0,0.0,0.0,59.999996,0.0,26.0,26.0,26.0,26.0,0.002888888888888941,0.24829999999999997,-0.08637500000000001,269.638,-2.3248,-2.331,-1.8689,-1.867888888888889,-184.26999999999998,215.87,190.383125,0.0,0.0,0.0,0.0,0.05473333333333334,-5.498166666666667,-5.498166666666667,-0.7691,-0.9673333333333334,-0.009666666666666934,-0.5055000000000001,69.53999999999999,-0.0031000000000000003,-0.453675,-0.08199999999999985,100.0,1.0,1.0,214.65,0.0,0.0,0.0,0.0,0.0,0.0,0.0,9098.2,0.0,55.0,5.0,250.32333333333332,1.0,0.0,0.0,0.0,0.0,0.0,0.0,0.0,1.352999999999998,1.352999999999998,0.0,0.0,1.0,55.0,616.79921,10000.0,85.000001,85.000001,85.000001,85.000001,395.0,0.0,0.0,0.0,1.0,166.665,24.643,24.643,29.037,29.037,34.0,-15.0975,15.475999999999999,-29.5775,28.9925,0.0,1781.211,-0.21000000000000085,100.0,36.973,37.062,25.958,25.859,0.0,0.0,100.0,0.0,0.0,0.0,0.0,3432.4285714285716,3357.6,3703.4444444444443,3691.6000000000004,304.5975,304.07866666666666,315.86,315.691,21.985444444444443,20.81,22.1911,21.6182,314.999998,314.999998,324.999988,324.999988,99.55651428571429,99.51213333333334,99.57848571428572,99.5528,0.2275,-0.213,-0.13266666666666665,0.12483333333333334,-0.03833333333332689,-0.036666666666668846,1.609,1.605,38.409,31.0625,39.694,36.1135,55.251999999999995,38.25,63.285,54.837,53.451,37.242,61.478,52.8705,52.843,36.782,61.102000000000004,52.055,-0.256,-0.22366666666666646,0.11077500000000001,0.11289500000000001,0.0,217.66,217.66500000000002,214.65,214.65,0.0,0.0
28,0.0,0.0,0.0,1.0,1.0,0.0,0.0,1.0,0.0,100.0,1.0,1.1856,26.0,0.0,0.0,0.0,59.999996,0.0,26.0,26.0,26.0,26.0,-0.0050000000000000044,0.28310000000000013,-0.029475,269.455,-2.318,-2.3115,-1.8476,-1.7992222222222223,-180.51,215.85500000000002,190.35575,0.0,0.0,0.0,0.0,0.05693333333333334,-5.498166666666667,-5.498166666666667,-0.7501,0.7443333333333333,-0.00955555555555554,-0.636,69.682,0.0031000000000000003,-0.389675,-0.1459999999999999,100.0,1.0,1.0,214.95333333333332,0.0,0.0,0.0,0.0,0.0,0.0,0.0,9111.0,0.0,55.0,5.0,250.82999999999998,0.0,0.0,0.0,0.0,0.0,0.0,0.0,0.0,1.407,1.407,0.0,0.0,0.0,55.0,616.79921,10000.0,85.000001,85.000001,85.000001,85.000001,395.0,0.0,0.0,0.0,1.0,166.665,24.994,24.994,28.61,28.61,34.0,-14.489999999999998,15.08,-33.41,31.8125,0.0,1781.157,-0.22499999999999787,100.0,36.915,36.926,25.284,25.473,0.0,0.0,100.0,0.0,0.0,0.0,0.0,3338.285714285714,3252.2,4188.333333333333,4112.8,304.7575,304.39,314.91925,314.7522,21.99577777777778,20.817,22.2025,21.628,314.999998,314.999998,324.999988,324.999988,99.55655714285714,99.51216666666667,99.57864285714285,99.55295714285714,0.23025,-0.20600000000000002,-0.12266666666666667,0.11750000000000001,-0.04999999999999716,-0.03999999999999915,1.5675,1.5715,38.474000000000004,31.106,39.765,36.175,55.254999999999995,38.299,63.309,54.891999999999996,53.454,37.288,61.5,52.923,52.844,36.826499999999996,61.1205,52.106,-0.25950000000000006,-0.21700000000000008,0.110115,0.10652,0.0,218.16500000000002,218.155,214.95333333333332,214.95333333333332,0.0,0.0
29,0.0,0.0,0.0,1.0,1.0,0.0,0.0,1.0,0.0,100.0,1.0,1.1856,26.0,0.0,0.0,0.0,59.999996,0.0,26.0,26.0,26.0,26.0,0.020888888888888957,0.24750000000000005,-0.0075250000000000004,269.3635,-2.3022,-2.362,-1.8213,-1.8074444444444444,-177.16,215.8425,190.33075,0.0,0.0,0.0,0.0,0.058866666666666664,-5.498166666666667,-5.498166666666667,-0.7739,-0.9856666666666667,-0.006444444444444475,-0.6585,69.809,0.0117,-0.42750000000000005,-0.2160000000000002,100.0,1.0,1.0,215.31,0.0,0.0,0.0,0.0,0.0,0.0,0.0,9126.2,0.0,55.0,5.0,251.29000000000002,1.0,0.0,0.0,0.0,0.0,0.0,0.0,0.0,1.4549999999999983,1.4549999999999983,0.0,0.0,1.0,55.0,616.79921,10000.0,85.000001,85.000001,85.000001,85.000001,395.0,0.0,0.0,0.0,1.0,333.33500000000004,24.643,24.643,28.823999999999998,28.823999999999998,34.0,-14.9175,16.094,-29.8525,31.6025,0.0,1781.107,-0.18999999999999773,100.0,36.749,36.919,25.727,25.8425,0.0,0.0,100.0,0.0,0.0,0.0,0.0,3492.4285714285716,3345.5,3916.6666666666665,3977.2,304.369,304.0493333333333,315.389,314.991,22.00488888888889,20.8232,22.2129,21.637,314.999998,314.999998,324.999988,324.999988,99.55658571428572,99.5122,99.57878571428571,99.5531,0.2325,-0.20750000000000002,-0.10300000000000001,0.132,-0.030000000000001137,-0.030000000000001137,1.56,1.545,38.53,31.145,39.831,36.231,55.256,38.3425,63.3345,54.944,53.455,37.3285,61.524,52.973,52.844,36.8655,61.1415,52.1545,-0.256,-0.22366666666666646,0.10421000000000001,0.10813,0.0,218.48000000000002,218.495,215.31,215.31,0.0,0.0
30,0.0,0.0,0.0,1.0,1.0,0.0,0.0,1.0,0.0,100.0,1.0,1.1856,26.0,0.0,0.0,0.0,59.999996,0.0,26.0,26.0,26.0,26.0,0.018777777777777782,0.25170000000000003,-0.0134,268.921,-2.3174,-2.2506250000000003,-1.794,-1.8622222222222222,-173.81,215.83249999999998,190.30575,0.0,0.0,0.0,0.0,0.0608,-5.498166666666667,-5.498166666666667,-0.7616,1.08,-0.0086666666666666,-0.47250000000000003,69.932,0.016800000000000002,-0.40997500000000003,-0.16000000000000014,100.0,1.0,1.0,215.76,0.0,0.0,0.0,0.0,0.0,0.0,0.0,9145.3,0.0,55.0,5.0,251.73000000000002,0.0,0.0,0.0,0.0,0.0,0.0,1.0,0.0,1.5030000000000001,1.5030000000000001,0.0,0.0,0.0,55.0,616.79921,10000.0,85.000001,85.000001,85.000001,85.000001,395.0,0.0,0.0,0.0,1.0,166.665,23.712,23.712,28.915,28.915,34.0,-14.622499999999999,14.685999999999998,-30.6025,32.205,0.0,1781.061,-0.1999999999999993,100.0,37.714,37.657,25.433,25.7215,0.0,0.0,100.0,0.0,0.0,0.0,0.0,3566.714285714286,3328.1,4042.5555555555557,3938.4,304.0245,304.085,315.181,315.0906,22.014222222222223,20.8297,22.2231,21.6458,314.999998,314.999998,324.999988,324.999988,99.55661428571429,99.51221666666666,99.57892857142858,99.55324285714286,0.249,-0.2095,-0.1055,0.13966666666666666,-0.045000000000001705,-0.026666666666670835,1.5705,1.558,38.589,31.186,39.894,36.286,55.263,38.3895,63.3555,54.993,53.461,37.372,61.543,53.0205,52.848,36.9075,61.1575,52.2005,-0.2629999999999999,-0.23066666666666658,0.11003500000000001,0.11199,0.0,218.925,218.935,215.76,215.76,0.0,0.0
31,0.0,0.0,0.0,1.0,1.0,0.0,0.0,1.0,0.0,100.0,1.0,1.1856,26.0,0.0,0.0,0.0,59.999996,0.0,26.0,26.0,26.0,26.0,0.023777777777777898,0.24570000000000003,-0.027950000000000003,268.7225,-2.4201,-2.2342500000000003,-1.8387,-1.857888888888889,-170.24,215.82,190.280125,0.0,0.0,0.0,0.0,0.0629,-5.498166666666667,-5.498166666666667,-0.7627,-0.9233333333333333,-0.0005555555555556424,0.4445,70.066,0.022500000000000003,-0.4394,-0.28200000000000003,100.0,1.0,1.0,216.06333333333333,0.0,0.0,0.0,0.0,0.0,0.0,0.0,9158.1,0.0,55.0,5.0,252.21666666666667,1.0,0.0,0.0,0.0,0.0,0.0,1.0,0.0,1.5539999999999985,1.5539999999999985,0.0,0.0,1.0,55.0,616.79921,10000.0,85.000001,85.000001,85.000001,85.000001,395.0,0.0,0.0,0.0,1.0,166.665,23.788,23.788,27.939,27.939,34.0,-14.4525,16.908,-30.2625,33.86,0.0,1781.009,-0.23000000000000043,100.0,37.434,37.568,26.099,26.174,0.0,0.0,100.0,0.0,0.0,0.0,0.0,3425.142857142857,3659.5,3961.222222222222,4067.2,304.4885,303.4343333333333,315.2055,314.8978,22.023777777777777,20.8365,22.2342,21.6554,314.999998,314.999998,324.999988,324.999988,99.55665714285715,99.51225,99.57907142857142,99.55338571428571,0.26125,-0.19225,-0.0935,0.15033333333333335,-0.03833333333332689,-0.03166666666666629,1.541,1.5365,38.649,31.2285,39.964,36.346000000000004,55.266,38.4375,63.384,55.0495,53.464,37.417,61.5695,53.0745,52.849000000000004,36.9505,61.1805,52.253,-0.264,-0.2336666666666667,0.10648500000000001,0.11033000000000001,0.0,219.29000000000002,219.31,216.06333333333333,216.06333333333333,0.0,0.0
32,0.0,0.0,0.0,1.0,1.0,0.0,0.0,1.0,0.0,100.0,1.0,1.1856,26.0,0.0,0.0,0.0,59.999996,0.0,26.0,26.0,26.0,26.0,0.02444444444444427,0.2802,0.010100000000000001,269.043,-2.3219,-2.342625,-1.8299,-1.7662222222222221,-166.66,215.8075,190.254375,0.0,0.0,0.0,0.0,0.06496666666666667,-5.498166666666667,-5.498166666666667,-0.7763,0.18533333333333335,-0.029555555555555557,-0.7995,70.196,0.0224,-0.431225,-0.26399999999999935,100.0,1.0,1.0,216.53333333333333,0.0,0.0,0.0,0.0,0.0,0.0,0.0,9178.1,0.0,55.0,5.0,252.68333333333334,0.0,0.0,0.0,0.0,0.0,0.0,1.0,0.0,1.6050000000000004,1.6050000000000004,0.0,0.0,0.0,55.0,616.79921,10000.0,85.000001,85.000001,85.000001,85.000001,395.0,0.0,0.0,0.0,1.0,333.33500000000004,24.185000000000002,24.185000000000002,28.687,28.687,34.0,-14.055,16.14,-30.25,32.965,0.0,1780.958,-0.23999999999999844,100.0,37.379,37.68,25.528,25.8475,0.0,0.0,100.0,0.0,0.0,0.0,0.0,3439.5714285714284,3300.8,4018.6666666666665,4116.2,304.452,304.20733333333334,315.18075,314.7816,22.033444444444445,20.8433,22.245,21.6647,314.999998,314.999998,324.999988,324.999988,99.5567,99.51228333333333,99.57922857142857,99.55352857142857,0.24875,-0.1975,-0.09233333333333334,0.15066666666666667,-0.04999999999999716,-0.03499999999999659,1.5859999999999999,1.5815000000000001,38.709,31.2705,40.031,36.4045,55.271,38.4845,63.406,55.1005,53.468,37.461,61.5895,53.124,52.851,36.993,61.1975,52.301,-0.26150000000000007,-0.2240000000000002,0.10723500000000001,0.10899,0.0,219.73000000000002,219.735,216.53333333333333,216.53333333333333,0.0,0.0
33,0.0,0.0,0.0,1.0,1.0,0.0,0.0,1.0,0.0,100.0,1.0,1.1856,26.0,0.0,0.0,0.0,59.999996,0.0,26.0,26.0,26.0,26.0,0.020888888888888957,0.2590000000000001,-0.0126,269.1955,-2.3726000000000003,-2.32325,-1.8393000000000002,-1.8425555555555557,-163.29,215.7975,190.228875,0.0,0.0,0.0,0.0,0.06693333333333334,-5.498166666666667,-5.498166666666667,-0.7831,-0.6006666666666667,-0.01622222222222236,-0.134,70.32,0.022600000000000002,-0.42307500000000003,-0.18599999999999994,100.0,1.0,1.0,216.86666666666667,0.0,0.0,0.0,0.0,0.0,0.0,0.0,9192.2,0.0,55.0,5.0,253.13,1.0,0.0,0.0,0.0,0.0,0.0,1.0,0.0,1.6529999999999987,1.6529999999999987,0.0,0.0,1.0,55.0,616.79921,10000.0,85.000001,85.000001,85.000001,85.000001,395.0,0.0,0.0,0.0,1.0,166.665,24.490000000000002,24.490000000000002,28.793,28.793,34.0,-14.502499999999998,15.782,-30.744999999999997,32.72,0.0,1780.911,-0.23000000000000043,100.0,37.135,37.4,25.56,25.968,0.0,0.0,100.0,0.0,0.0,0.0,0.0,3429.142857142857,3296.1,3975.3333333333335,4046.9,304.597,304.2923333333333,315.28175,314.8238,22.042444444444445,20.8495,22.2552,21.6736,314.999998,314.999998,324.999988,324.999988,99.55671428571429,99.5123,99.57935714285715,99.55368571428572,0.24925,-0.19925,-0.105,0.13066666666666665,-0.045000000000001705,-0.045000000000001705,1.5535,1.5375,38.766,31.3095,40.095,36.46,55.274,38.525999999999996,63.429,55.1515,53.47,37.4995,61.611,53.1725,52.852000000000004,37.0305,61.2155,52.348,-0.26350000000000007,-0.22599999999999998,0.10346000000000001,0.10487,0.0,220.085,220.10500000000002,216.86666666666667,216.86666666666667,0.0,0.0
34,0.0,0.0,0.0,1.0,1.0,0.0,0.0,1.0,0.0,100.0,1.0,1.1856,26.0,0.0,0.0,0.0,59.999996,0.0,26.0,26.0,26.0,26.0,0.018888888888888955,0.24280000000000013,-0.0752,269.577,-2.3890000000000002,-2.2590000000000003,-1.899,-1.7787777777777778,-159.7,215.7875,190.20075,0.0,0.0,0.0,0.0,0.06903333333333334,-5.498166666666667,-5.498166666666667,-0.8172,-0.6753333333333333,0.008999999999999897,0.855,70.449,0.0262,-0.435775,-0.2860000000000005,100.0,1.0,1.0,217.33333333333331,0.0,0.0,0.0,0.0,0.0,0.0,0.0,9211.9,0.0,55.0,5.0,253.59333333333336,0.0,0.0,0.0,0.0,0.0,0.0,1.0,0.0,1.7040000000000006,1.7040000000000006,0.0,0.0,0.0,55.0,616.79921,10000.0,85.000001,85.000001,85.000001,85.000001,395.0,0.0,0.0,0.0,1.0,166.665,24.918,24.918,29.266,29.266,34.0,-13.54,15.985999999999999,-29.66,32.06,0.0,1780.858,-0.17999999999999972,100.0,37.083,36.903,25.384,25.822499999999998,0.0,0.0,100.0,0.0,0.0,0.0,0.0,3186.0,3401.3,3859.4444444444443,4012.2,305.02,304.13366666666667,315.59225,315.0582,22.052,20.8561,22.266,21.683,314.999998,314.999998,324.999988,324.999988,99.55675714285714,99.51233333333333,99.5795,99.55382857142857,0.25225000000000003,-0.19025,-0.09483333333333333,0.15033333333333335,-0.04833333333333201,-0.046666666666666856,1.6005,1.5855,38.825,31.351,40.162,36.519,55.277,38.571,63.4505,55.204499999999996,53.472,37.5415,61.6305,53.224000000000004,52.852000000000004,37.070499999999996,61.232,52.397999999999996,-0.25049999999999994,-0.22566666666666668,0.10795,0.102275,0.0,220.49,220.485,217.33333333333331,217.33333333333331,0.0,0.0
35,0.0,0.0,0.0,1.0,1.0,0.0,0.0,1.0,0.0,100.0,1.0,1.1856,26.0,0.0,0.0,0.0,59.999996,0.0,26.0,26.0,26.0,26.0,0.024222222222222145,0.24130000000000007,-0.046,269.4245,-2.3625,-2.286875,-1.8645,-1.7745555555555557,-156.1,215.7775,190.17025,0.0,0.0,0.0,0.0,0.0711,-5.498166666666667,-5.498166666666667,-0.8437,0.08633333333333337,-0.018000000000000238,-1.314,70.577,0.0296,-0.4212,-0.2239999999999993,100.0,1.0,1.0,217.78333333333333,0.0,0.0,0.0,0.0,0.0,0.0,0.0,9231.1,0.0,55.0,5.0,254.05666666666667,1.0,0.0,0.0,0.0,0.0,0.0,1.0,0.0,1.754999999999999,1.754999999999999,0.0,0.0,1.0,55.0,616.79921,10000.0,85.000001,85.000001,85.000001,85.000001,395.0,0.0,0.0,0.0,1.0,333.33500000000004,24.323,24.323,28.762999999999998,28.762999999999998,34.0,-14.587499999999999,17.357999999999997,-29.04,30.635,0.0,1780.808,-0.10999999999999943,100.0,36.713,37.363,25.254,25.4645,0.0,0.0,100.0,0.0,0.0,0.0,0.0,3422.4285714285716,3576.5,3864.6666666666665,3831.3,304.5845,303.452,315.5875,315.4486,22.061444444444444,20.863,22.2768,21.6923,314.999998,314.999998,324.999988,324.999988,99.5568,99.51236666666667,99.57965714285714,99.55397142857143,0.24525,-0.19075,-0.09216666666666667,0.15783333333333335,-0.041666666666671404,-0.030000000000001137,1.6305,1.5955,38.884,31.3935,40.230000000000004,36.577,55.278,38.618,63.4735,55.2535,53.473,37.585,61.6515,53.271,52.851,37.113,61.2495,52.4435,-0.25150000000000006,-0.2323333333333335,0.10472500000000001,0.10952,0.0,220.885,220.905,217.78333333333333,217.78333333333333,0.0,0.0
36,0.0,0.0,0.0,1.0,1.0,0.0,0.0,1.0,0.0,100.0,1.0,1.1856,26.0,0.0,0.0,0.0,59.999996,0.0,26.0,26.0,26.0,26.0,0.03433333333333333,0.26970000000000005,0.06897500000000001,268.677,-2.2885,-2.358375,-1.8183,-1.8287777777777778,-152.71,215.76999999999998,190.1405,0.0,0.0,0.0,0.0,0.07306666666666667,-5.498166666666667,-5.498166666666667,-0.8282,-0.264,-0.05655555555555569,-1.3945,70.702,0.0247,-0.40985,-0.05399999999999938,100.0,1.0,1.0,217.89666666666668,0.0,0.0,0.0,0.0,0.0,0.0,0.0,9235.9,0.0,55.0,5.0,254.50666666666666,0.0,0.0,0.0,0.0,0.0,0.0,1.0,0.0,1.8030000000000008,1.8030000000000008,0.0,0.0,0.0,55.0,616.79921,10000.0,85.000001,85.000001,85.000001,85.000001,395.0,0.0,0.0,0.0,1.0,166.665,24.429000000000002,24.429000000000002,28.091,28.091,34.0,-13.469999999999999,15.652000000000001,-32.59,35.695,0.0,1780.761,-0.02499999999999858,100.0,37.332,37.545,25.676,26.076999999999998,0.0,0.0,100.0,0.0,0.0,0.0,0.0,3323.857142857143,3219.1,4227.777777777777,4283.6,304.702,304.29,314.7145,314.2108,22.070555555555554,20.8694,22.2871,21.7013,314.999998,314.999998,324.999988,324.999988,99.55682857142857,99.51238333333333,99.5798,99.55412857142858,0.24375,-0.20425000000000001,-0.09566666666666668,0.14066666666666666,-0.041666666666671404,-0.036666666666668846,1.4945,1.492,38.941,31.433500000000002,40.294,36.632999999999996,55.282,38.6625,63.498,55.3065,53.476,37.6265,61.674,53.322,52.852999999999994,37.153,61.269,52.4925,-0.24449999999999994,-0.2373333333333334,0.10351500000000001,0.11107500000000001,0.0,221.31,221.285,217.89666666666668,217.89666666666668,0.0,0.0
