,ABS Active,ABS Enabled,AID Allow Tire Blankets,AID Auto Blip,AID Auto Clutch,AID Auto Shift,AID Fuel Rate,AID Ideal Line,AID Mech Damage,AID Stability,AID Tire Wear Rate,Air Density,Air Temp,Ballast,Best Lap Delta,Best Lap Time,Brake Bias,Brake Pos,Brake Temp FL,Brake Temp FR,Brake Temp RL,Brake Temp RR,CG Accel Lateral,CG Accel Longitudinal,CG Accel Vertical,CG Height,Camber FL,Camber FR,Camber RL,Camber RR,Car Coord X,Car Coord Y,Car Coord Z,Car Damage Front,Car Damage Left,Car Damage Rear,Car Damage Right,Car Pos Norm,Caster FL,Caster FR,Chassis Pitch Angle,Chassis Pitch Rate,Chassis Roll Angle,Chassis Roll Rate,Chassis Velocity X,Chassis Velocity Y,Chassis Velocity Z,Chassis Yaw Rate,Clutch Pos,DRS Active,DRS Available,Drive Train Speed,ERS Heat Charging,ERS Is Charging,ERS Max Energy,ERS Power Level,ERS Recovery Level,Engine Brake Setting,Engine Limiter,Engine RPM,Flags,Fuel Level,Gear,Ground Speed,HR Sample Clock,In Pit,KERS Charge,KERS Deployed Energy,KERS Input,KERS Max Energy,LR Sample Clock,Lap Invalidated,Lap Time,Lap Time2,Last Lap Time,Last Sector Time,MR Sample Clock,Max Fuel,Max Power,Max RPM,Max Sus Travel FL,Max Sus Travel FR,Max Sus Travel RL,Max Sus Travel RR,Max Torque,Max Turbo Boost,Num Tires Off Track,Penalties Enabled,Position,Raw Data Sample Rate,Ride Height FL,Ride Height FR,Ride Height RL,Ride Height RR,Road Temp,Self Align Torque FL,Self Align Torque FR,Self Align Torque RL,Self Align Torque RR,Session Lap Count,Session Time Left,Steering Angle,Surface Grip,Suspension Travel FL,Suspension Travel FR,Suspension Travel RL,Suspension Travel RR,TC Active,TC Enabled,Throttle Pos,Tire Dirt Level FL,Tire Dirt Level FR,Tire Dirt Level RL,Tire Dirt Level RR,Tire Load FL,Tire Load FR,Tire Load RL,Tire Load RR,Tire Loaded Radius FL,Tire Loaded Radius FR,Tire Loaded Radius RL,Tire Loaded Radius RR,Tire Pressure FL,Tire Pressure FR,Tire Pressure RL,Tire Pressure RR,Tire Radius FL,Tire Radius FR,Tire Radius RL,Tire Radius RR,Tire Rubber Grip FL,Tire Rubber Grip FR,Tire Rubber Grip RL,Tire Rubber Grip RR,Tire Slip Angle FL,Tire Slip Angle FR,Tire Slip Angle RL,Tire Slip Angle RR,Tire Slip Ratio FL,Tire Slip Ratio FR,Tire Slip Ratio RL,Tire Slip Ratio RR,Tire Temp Core FL,Tire Temp Core FR,Tire Temp Core RL,Tire Temp Core RR,Tire Temp Inner FL,Tire Temp Inner FR,Tire Temp Inner RL,Tire Temp Inner RR,Tire Temp Middle FL,Tire Temp Middle FR,Tire Temp Middle RL,Tire Temp Middle RR,Tire Temp Outer FL,Tire Temp Outer FR,Tire Temp Outer RL,Tire Temp Outer RR,Toe In FL,Toe In FR,Toe In RL,Toe In RR,Turbo Boost,Wheel Angular Speed FL,Wheel Angular Speed FR,Wheel Angular Speed RL,Wheel Angular Speed RR,Wind Direction,Wind Speed
0,0.0,0.0,0.0,1.0,1.0,0.0,0.0,1.0,0.0,100.0,1.0,1.1856,26.0,0.0,0.0,0.0,63.99999,0.0,26.0,26.0,26.0,26.0,-0.11866666666666659,0.3124,0.0227,294.128,-2.7025,-2.678,-1.4985,-1.5725555555555557,-275.74,216.23250000000002,190.988,0.0,0.0,0.0,0.0,0.0015666666666666051,-5.498166666666667,-5.498166666666667,-0.5458000000000001,1.1593333333333333,-0.028555555555555667,-1.181,65.483,-0.060500000000000005,-0.21227500000000002,1.4159999999999986,100.0,1.0,1.0,202.18,0.0,0.0,0.0,0.0,0.0,0.0,0.0,8569.7,0.0,55.0,5.0,235.70666666666668,0.0,0.0,0.0,0.0,0.0,0.0,0.0,0.0,0.0030000000000001137,0.0030000000000001137,0.0,0.0,0.0,55.0,616.79921,10000.0,85.0,85.0,85.0,85.0,395.0,0.0,0.0,0.0,1.0,20.0,52.887,52.887,49.744,49.744,34.0,-28.247500000000002,21.588,-31.633333333333333,22.89,0.0,1783.141,1.1449999999999996,100.0,27.445,26.762999999999998,40.655,40.334,0.0,0.0,100.0,0.0,0.0,0.0,0.0,3087.0,3292.0,4133.25,3939.9,305.512,304.2925,314.83525,314.9745,21.767125,20.5147,21.764777777777777,21.3086,314.99999,314.99999,324.99998,324.99998,99.55831428571429,99.50726666666667,99.56474285714286,99.54497142857143,-0.03325,-0.15100000000000002,-0.1898333333333334,0.02833333333333332,-0.046666666666666856,-0.06499999999999773,1.5533333333333332,1.5955,37.045,29.2165,37.03,34.179,56.075,34.4845,58.9075,51.5025,54.009,33.6665,57.54,49.869,53.188,33.241,57.504,49.298,0.008000000000000007,-0.1575000000000002,0.09969000000000001,0.10527,0.0,205.23000000000002,205.11,202.18,202.18,0.0,0.0
1,0.0,0.0,0.0,1.0,1.0,0.0,0.0,1.0,0.0,100.0,1.0,1.1856,26.0,0.0,0.0,0.0,63.999999,0.0,26.0,26.0,26.0,26.0,-0.16588888888888886,0.31120000000000014,0.036475,293.106,-2.6243,-2.793125,-1.4975,-1.568888888888889,-272.4,216.2375,190.96775,0.0,0.0,0.0,0.0,0.0034999999999999476,-5.498166666666667,-5.498166666666667,-0.4955,-0.4103333333333333,-0.07933333333333348,-0.06800000000000006,65.637,-0.0796,-0.19387500000000002,1.8000000000000007,100.0,1.0,1.0,202.3,0.0,0.0,0.0,0.0,0.0,0.0,0.0,8574.7,0.0,55.0,5.0,236.26333333333332,1.0,0.0,0.0,0.0,0.0,0.0,0.0,0.0,0.053999999999998494,0.053999999999998494,0.0,0.0,1.0,55.0,616.79921,10000.0,85.000001,85.000001,85.000001,85.000001,395.0,0.0,0.0,0.0,1.0,333.33500000000004,53.619,53.619,48.309,48.309,34.0,-28.5125,16.47,-37.269999999999996,26.945,0.0,1783.09,1.1799999999999997,100.0,27.799,26.819,42.55,41.256,0.0,0.0,100.0,0.0,0.0,0.0,0.0,3088.285714285714,2608.0,4508.75,4694.0,305.29,306.54325,313.764,313.18225,21.777124999999998,20.5198,21.775555555555556,21.3176,314.999998,314.999998,324.999988,324.999988,99.55831428571429,99.50728333333333,99.56488571428571,99.54511428571429,-0.04800000000000004,-0.1725,-0.20766666666666667,-0.0001666666666666483,-0.04333333333332945,-0.04999999999999716,1.3820000000000001,1.4620000000000002,37.107,29.2485,37.097,34.235,56.062,34.524,58.952,51.5635,53.997,33.703,57.582,49.9275,53.175,33.275999999999996,57.5435,49.355333333333334,0.02300000000000013,-0.16449999999999987,0.10175000000000001,0.10669000000000001,0.0,205.715,205.56,202.3,202.3,0.0,0.0
2,0.0,0.0,0.0,1.0,1.0,0.0,0.0,1.0,0.0,100.0,1.0,1.1856,26.0,0.0,0.0,0.0,63.999999,0.0,26.0,26.0,26.0,26.0,-0.18055555555555558,0.28680000000000017,-0.0402,293.884,-2.5839,-2.815,-1.4831,-1.6257777777777778,-269.05,216.24,190.949125,0.0,0.0,0.0,0.0,0.005466666666666509,-5.498166666666667,-5.498166666666667,-0.5557,-0.082,-0.06933333333333369,1.6179999999999999,65.779,-0.1018,-0.26195,2.0500000000000007,100.0,1.0,1.0,203.28,0.0,0.0,0.0,0.0,0.0,0.0,0.0,8616.3,0.0,55.0,5.0,236.77666666666667,0.0,0.0,0.0,0.0,0.0,0.0,0.0,0.0,0.10500000000000043,0.10500000000000043,0.0,0.0,0.0,55.0,616.79921,10000.0,85.000001,85.000001,85.000001,85.000001,395.0,0.0,0.0,0.0,1.0,333.33500000000004,52.444,52.444,50.507,50.507,34.0,-32.3825,18.004,-30.63,17.65,0.0,1783.041,1.0749999999999993,100.0,28.342,26.822,42.549,41.061,0.0,0.0,100.0,0.0,0.0,0.0,0.0,3459.285714285714,2874.8,3739.375,3564.1,304.289,305.65075,315.6535,316.0645,21.78725,20.5247,21.786,21.3263,314.999998,314.999998,324.999988,324.999988,99.55832857142858,99.5073,99.56502857142857,99.54524285714285,-0.057499999999999885,-0.18999999999999995,-0.259,-0.033333333333333326,-0.04999999999999716,-0.07166666666666544,1.6473333333333335,1.7245,37.17,29.2795,37.163,34.29,56.053,34.565,58.9915,51.6205,53.988,33.7405,57.619,49.982,53.165,33.312,57.5775,49.40866666666666,0.004999999999999893,-0.16000000000000014,0.11290000000000001,0.099335,0.0,206.14,205.96,203.28,203.28,0.0,0.0
3,0.0,0.0,0.0,1.0,1.0,0.0,0.0,1.0,0.0,100.0,1.0,1.1856,26.0,0.0,0.0,0.0,63.999999,0.0,26.0,26.0,26.0,26.0,-0.17388888888888887,0.2943,-0.043050000000000005,293.533,-2.7048,-2.71475,-1.4867,-1.6093333333333333,-265.88,216.235,190.9305,0.0,0.0,0.0,0.0,0.007299999999999973,-5.498166666666667,-5.498166666666667,-0.5107,0.7486666666666666,-0.034555555555555895,-0.915,65.923,-0.12040000000000001,-0.1996,1.67,100.0,1.0,1.0,203.39,0.0,0.0,0.0,0.0,0.0,0.0,0.0,8620.9,0.0,55.0,5.0,237.2866666666667,1.0,0.0,0.0,0.0,0.0,0.0,0.0,0.0,0.1529999999999987,0.1529999999999987,0.0,0.0,1.0,55.0,616.79921,10000.0,85.000001,85.000001,85.000001,85.000001,395.0,0.0,0.0,0.0,1.0,166.665,53.543,53.543,48.325,48.325,34.0,-27.7175,16.502,-37.45,21.8675,0.0,1782.994,0.8449999999999989,100.0,28.056,26.94,42.355000000000004,41.074,0.0,0.0,100.0,0.0,0.0,0.0,0.0,2943.5714285714284,2733.8,4406.75,4156.7,305.822,305.93025,314.12425,314.52025,21.7965,20.5295,21.79577777777778,21.334600000000002,314.999998,314.999998,324.999988,324.999988,99.55832857142858,99.50731666666667,99.56515714285715,99.54538571428571,-0.05424999999999991,-0.18499999999999994,-0.2453333333333334,-0.031000000000000028,-0.03166666666666629,-0.021666666666668277,1.482,1.5525000000000002,37.227999999999994,29.3095,37.224000000000004,34.341,56.04,34.606,59.0295,51.679,53.976,33.7785,57.6545,50.038,53.152,33.348,57.6105,49.46366666666667,-0.01550000000000007,-0.13350000000000017,0.10207500000000001,0.10506000000000001,0.0,206.595,206.46,203.39,203.39,0.0,0.0
4,0.0,0.0,0.0,1.0,1.0,0.0,0.0,1.0,0.0,100.0,1.0,1.1856,26.0,0.0,0.0,0.0,63.999999,0.0,26.0,26.0,26.0,26.0,-0.19255555555555548,0.2932000000000001,-0.026750000000000003,293.655,-2.6397,-2.7670000000000003,-1.5099,-1.615,-262.52,216.22750000000002,190.91075,0.0,0.0,0.0,0.0,0.009233333333333316,-5.498166666666667,-5.498166666666667,-0.5433,-0.972,-0.09577777777777774,-0.5590000000000002,66.07,-0.1199,-0.23715,1.4480000000000004,100.0,1.0,1.0,203.94,0.0,0.0,0.0,0.0,0.0,0.0,0.0,8644.2,0.0,55.0,5.0,237.82333333333332,0.0,0.0,0.0,0.0,0.0,0.0,0.0,0.0,0.20400000000000063,0.20400000000000063,0.0,0.0,0.0,55.0,616.79921,10000.0,85.000001,85.000001,85.000001,85.000001,395.0,0.0,0.0,0.0,1.0,166.665,53.131,53.131,48.721000000000004,48.721000000000004,34.0,-30.23,18.567999999999998,-34.29333333333334,19.740000000000002,0.0,1782.942,0.8099999999999987,100.0,27.891,26.529,43.038,41.196,0.0,0.0,100.0,0.0,0.0,0.0,0.0,3224.5714285714284,2947.3,4101.25,3701.8,305.0505,305.496,314.7255,315.60975,21.806125,20.5346,21.806444444444445,21.3435,314.999998,314.999998,324.999988,324.999988,99.55834285714286,99.50733333333334,99.56531428571428,99.54551428571429,-0.056499999999999995,-0.1775,-0.24,-0.014499999999999957,-0.041666666666671404,-0.036666666666668846,1.5486666666666666,1.5975000000000001,37.289,29.341,37.29,34.397,56.025,34.6485,59.073499999999996,51.7385,53.961,33.817499999999995,57.696,50.0955,53.135999999999996,33.385,57.649,49.519333333333336,-0.011500000000000066,-0.13249999999999984,0.10907000000000001,0.10702500000000001,0.0,206.97,206.835,203.94,203.94,0.0,0.0
5,0.0,0.0,0.0,1.0,1.0,0.0,0.0,1.0,0.0,100.0,1.0,1.1856,26.0,0.0,0.0,0.0,63.999999,0.0,26.0,26.0,26.0,26.0,-0.16633333333333333,0.31200000000000006,-0.02785,293.73199999999997,-2.6511,-2.78425,-1.491,-1.603222222222222,-259.14,216.2175,190.8905,0.0,0.0,0.0,0.0,0.011199999999999988,-5.498166666666667,-5.498166666666667,-0.5381,0.4366666666666667,-0.10233333333333361,-0.2560000000000002,66.21600000000001,-0.1223,-0.21675,1.452,100.0,1.0,1.0,204.39,0.0,0.0,0.0,0.0,0.0,0.0,0.0,8663.4,0.0,55.0,5.0,238.3466666666667,1.0,0.0,0.0,0.0,0.0,0.0,0.0,0.0,0.254999999999999,0.254999999999999,0.0,0.0,1.0,55.0,616.79921,10000.0,85.000001,85.000001,85.000001,85.000001,395.0,0.0,0.0,0.0,1.0,333.33500000000004,53.467,53.467,49.149,49.149,34.0,-30.0475,17.31,-35.64,21.12,0.0,1782.889,0.5100000000000016,100.0,27.915,26.615000000000002,42.669,40.913,0.0,0.0,100.0,0.0,0.0,0.0,0.0,3232.0,2716.6,4180.625,3999.1000000000004,305.1025,306.081,314.71475,314.898,21.81625,20.5396,21.816777777777776,21.3522,314.999998,314.999998,324.999988,324.999988,99.55835714285715,99.50735,99.56545714285714,99.54565714285714,-0.04974999999999996,-0.17325000000000002,-0.2616666666666666,-0.02200000000000002,-0.05833333333333002,-0.03833333333332689,1.5423333333333333,1.5950000000000002,37.351,29.372500000000002,37.355000000000004,34.451,56.013999999999996,34.6905,59.1145,51.795500000000004,53.951,33.856,57.7345,50.15,53.125,33.422,57.6845,49.57266666666666,-0.038999999999999924,-0.11500000000000021,0.11064,0.11211000000000002,0.0,207.485,207.345,204.39,204.39,0.0,0.0
6,0.0,0.0,0.0,1.0,1.0,0.0,0.0,1.0,0.0,100.0,1.0,1.1856,26.0,0.0,0.0,0.0,63.999999,0.0,26.0,26.0,26.0,26.0,-0.14200000000000002,0.2895000000000001,-0.00965,293.51800000000003,-2.618,-2.764125,-1.5344,-1.6,-255.96,216.2,190.871125,0.0,0.0,0.0,0.0,0.01306666666666656,-5.498166666666667,-5.498166666666667,-0.5316000000000001,0.07100000000000001,-0.08577777777777795,-0.528,66.354,-0.114,-0.21525,1.0359999999999996,100.0,1.0,1.0,204.78333333333333,0.0,0.0,0.0,0.0,0.0,0.0,0.0,8680.0,0.0,55.0,5.0,238.8466666666667,0.0,0.0,0.0,0.0,0.0,0.0,0.0,0.0,0.3030000000000008,0.3030000000000008,0.0,0.0,0.0,55.0,616.79921,10000.0,85.000001,85.000001,85.000001,85.000001,395.0,0.0,0.0,0.0,1.0,166.665,53.177,53.177,48.843,48.843,34.0,-29.325,18.604,-34.85333333333334,21.490000000000002,0.0,1782.843,0.14000000000000057,100.0,27.792,26.691,42.796,41.282,0.0,0.0,100.0,0.0,0.0,0.0,0.0,3268.142857142857,2844.2,4151.25,3955.0,304.9875,305.63,314.7685,314.9975,21.825499999999998,20.5444,21.826666666666668,21.360599999999998,314.999998,314.999998,324.999988,324.999988,99.55835714285715,99.50736666666667,99.56558571428572,99.54578571428571,-0.03049999999999997,-0.16174999999999995,-0.23949999999999994,-0.010000000000000009,-0.07833333333332604,-0.05833333333333002,1.5463333333333333,1.573,37.409,29.4025,37.417,34.504,56.001000000000005,34.729,59.153999999999996,51.8535,53.939,33.8915,57.7715,50.2055,53.111999999999995,33.456,57.719,49.627,-0.058499999999999996,-0.09100000000000019,0.105605,0.108145,0.0,207.905,207.8,204.78333333333333,204.78333333333333,0.0,0.0
7,0.0,0.0,0.0,1.0,1.0,0.0,0.0,1.0,0.0,100.0,1.0,1.1856,26.0,0.0,0.0,0.0,63.999999,0.0,26.0,26.0,26.0,26.0,-0.12822222222222213,0.2884,0.0466,293.213,-2.5922,-2.7516249999999998,-1.4969000000000001,-1.5854444444444444,-252.57999999999998,216.18,190.850625,0.0,0.0,0.0,0.0,0.015033333333333343,-5.498166666666667,-5.498166666666667,-0.5353,-0.029,-0.06811111111111146,1.2349999999999999,66.5,-0.0925,-0.22387500000000002,0.572000000000001,100.0,1.0,1.0,205.19666666666666,0.0,0.0,0.0,0.0,0.0,0.0,0.0,8697.5,0.0,55.0,5.0,239.37333333333333,1.0,0.0,0.0,0.0,0.0,0.0,0.0,0.0,0.3539999999999992,0.3539999999999992,0.0,0.0,1.0,55.0,616.79921,10000.0,85.000001,85.000001,85.000001,85.000001,395.0,0.0,0.0,0.0,1.0,333.33500000000004,52.826,52.826,48.888999999999996,48.888999999999996,34.0,-27.61,21.194000000000003,-32.06,23.947499999999998,0.0,1782.79,-0.015000000000000568,100.0,28.037,26.609,42.931,41.473,0.0,0.0,100.0,0.0,0.0,0.0,0.0,3248.4285714285716,3026.9,4066.125,4109.9,304.796,305.25425,314.8525,314.684,21.835375,20.549599999999998,21.837222222222223,21.3696,314.999998,314.999998,324.999988,324.999988,99.55835714285715,99.50738333333334,99.56572857142856,99.54592857142858,0.006750000000000256,-0.12575000000000003,-0.2038333333333333,0.021166666666666556,-0.036666666666668846,-0.06499999999999773,1.529,1.5535,37.471000000000004,29.435000000000002,37.482,34.56,55.986999999999995,34.7695,59.195499999999996,51.914500000000004,53.925,33.9285,57.81,50.263999999999996,53.098,33.4915,57.7545,49.684,-0.08050000000000002,-0.07450000000000001,0.10702500000000001,0.104105,0.0,208.31,208.265,205.19666666666666,205.19666666666666,0.0,0.0
8,0.0,0.0,0.0,1.0,1.0,0.0,0.0,1.0,0.0,100.0,1.0,1.1856,26.0,0.0,0.0,0.0,63.999999,0.0,26.0,26.0,26.0,26.0,-0.08611111111111103,0.2903,-0.021425,293.488,-2.6804,-2.732375,-1.4806,-1.566,-249.18,216.1575,190.830125,0.0,0.0,0.0,0.0,0.016999999999999904,-5.498166666666667,-5.498166666666667,-0.5345,-0.42633333333333334,-0.052999999999999936,-0.5899999999999999,66.646,-0.0702,-0.21405000000000002,0.27999999999999936,100.0,1.0,1.0,205.57999999999998,0.0,0.0,0.0,0.0,0.0,0.0,0.0,8713.8,0.0,55.0,5.0,239.89666666666668,0.0,0.0,0.0,0.0,0.0,0.0,0.0,0.0,0.40500000000000114,0.40500000000000114,0.0,0.0,0.0,55.0,616.79921,10000.0,85.000001,85.000001,85.000001,85.000001,395.0,0.0,0.0,0.0,1.0,333.33500000000004,53.741,53.741,48.111,48.111,34.0,-25.4025,20.046,-32.303333333333335,24.42,0.0,1782.741,-0.054999999999999716,100.0,27.504,26.743,42.814,41.681,0.0,0.0,100.0,0.0,0.0,0.0,0.0,3002.5714285714284,2851.5,4241.75,4114.1,305.7945,305.627,314.47925,314.55475,21.845125,20.5547,21.847666666666665,21.3785,314.999998,314.999998,324.999988,324.999988,99.55837142857143,99.5074,99.56588571428571,99.54607142857142,0.012249999999999872,-0.11924999999999997,-0.1798333333333334,0.02983333333333338,-0.03833333333332689,-0.03333333333333144,1.5086666666666666,1.5225,37.532,29.467,37.548,34.616,55.97,34.809,59.236,51.975,53.909,33.965,57.8475,50.322,53.082,33.525999999999996,57.789500000000004,49.741,-0.08299999999999996,-0.06850000000000023,0.10514000000000001,0.09880000000000001,0.0,208.75,208.70499999999998,205.57999999999998,205.57999999999998,0.0,0.0
9,0.0,0.0,0.0,1.0,1.0,0.0,0.0,1.0,0.0,100.0,1.0,1.1856,26.0,0.0,0.0,0.0,63.999999,0.0,26.0,26.0,26.0,26.0,-0.06033333333333335,0.27980000000000005,-0.018875,293.228,-2.664,-2.740125,-1.5358,-1.573777777777778,-245.98,216.135,190.81025,0.0,0.0,0.0,0.0,0.018866666666666587,-5.498166666666667,-5.498166666666667,-0.5442,0.5376666666666666,-0.05744444444444419,-0.42200000000000015,66.78,-0.0505,-0.218775,0.27999999999999936,100.0,1.0,1.0,206.13666666666666,0.0,0.0,0.0,0.0,0.0,0.0,0.0,8737.4,0.0,55.0,5.0,240.37666666666667,1.0,0.0,0.0,0.0,0.0,0.0,0.0,0.0,0.4529999999999994,0.4529999999999994,0.0,0.0,1.0,55.0,616.79921,10000.0,85.000001,85.000001,85.000001,85.000001,395.0,0.0,0.0,0.0,1.0,333.33500000000004,52.475,52.475,49.225,49.225,34.0,-28.377499999999998,22.055999999999997,-30.216666666666665,24.6675,0.0,1782.692,-0.14999999999999858,100.0,27.919,27.149,42.554,41.676,0.0,0.0,100.0,0.0,0.0,0.0,0.0,3411.714285714286,2967.7,4010.25,3982.2,304.5645,305.22175,315.124,314.95575,21.854375,20.5597,21.857444444444443,21.3869,314.999998,314.999998,324.999988,324.999988,99.55837142857143,99.50741666666667,99.56601428571429,99.5462,0.03299999999999992,-0.09624999999999995,-0.1738333333333334,0.05683333333333329,-0.054999999999999716,-0.03833333333332689,1.568,1.576,37.59,29.4985,37.608999999999995,34.668,55.958,34.847,59.271,52.0305,53.897,34.0,57.8805,50.375,53.068,33.5595,57.82,49.793,-0.09250000000000003,-0.06599999999999984,0.112555,0.10601000000000001,0.0,209.18,209.135,206.13666666666666,206.13666666666666,0.0,0.0
10,0.0,0.0,0.0,1.0,1.0,0.0,0.0,1.0,0.0,100.0,1.0,1.1856,26.0,0.0,0.0,0.0,63.999999,0.0,26.0,26.0,26.0,26.0,-0.03700000000000003,0.2942,0.052225,292.953,-2.638,-2.733375,-1.5131000000000001,-1.553777777777778,-242.57,216.10750000000002,190.7895,0.0,0.0,0.0,0.0,0.02083333333333337,-5.498166666666667,-5.498166666666667,-0.5181,-0.3773333333333333,-0.013333333333333197,1.855,66.92699999999999,-0.0361,-0.20545000000000002,-0.002000000000000668,100.0,1.0,1.0,206.36333333333334,0.0,0.0,0.0,0.0,0.0,0.0,0.0,8746.9,0.0,55.0,5.0,240.90666666666667,0.0,0.0,0.0,0.0,0.0,0.0,1.0,0.0,0.5040000000000013,0.5040000000000013,0.0,0.0,0.0,55.0,616.79921,10000.0,85.000001,85.000001,85.000001,85.000001,395.0,0.0,0.0,0.0,1.0,333.33500000000004,53.452,53.452,47.668,47.668,34.0,-22.1675,22.576,-31.22,28.925,0.0,1782.641,-0.28000000000000114,100.0,27.961,27.018,43.003,42.325,0.0,0.0,100.0,0.0,0.0,0.0,0.0,2869.857142857143,2930.6,4297.0,4326.3,305.9915,305.56425,314.26425,314.127,21.864125,20.565,21.868,21.396,314.999998,314.999998,324.999988,324.999988,99.55837142857143,99.50741666666667,99.56615714285714,99.54634285714286,0.06000000000000005,-0.06699999999999995,-0.1363333333333333,0.08533333333333326,-0.026666666666670835,-0.03999999999999915,1.4783333333333333,1.4785,37.65,29.531,37.675,34.725,55.944,34.8855,59.313,52.0945,53.884,34.0355,57.9195,50.4365,53.055,33.5935,57.856,49.853,-0.09650000000000003,-0.04899999999999993,0.10314500000000001,0.11741000000000001,0.0,209.60000000000002,209.595,206.36333333333334,206.36333333333334,0.0,0.0
11,0.0,0.0,0.0,1.0,1.0,0.0,0.0,1.0,0.0,100.0,1.0,1.1856,26.0,0.0,0.0,0.0,63.999999,0.0,26.0,26.0,26.0,26.0,-0.001777777777777767,0.27360000000000007,-0.0969,293.533,-2.6875,-2.706,-1.5332,-1.5418888888888889,-239.15,216.07999999999998,190.76875,0.0,0.0,0.0,0.0,0.022599999999999953,-5.498166666666667,-5.498166666666667,-0.561,-0.2966666666666667,0.00955555555555554,-0.738,67.066,-0.0211,-0.23902500000000002,-0.11599999999999966,100.0,1.0,1.0,207.10333333333335,0.0,0.0,0.0,0.0,0.0,0.0,0.0,8778.3,0.0,55.0,5.0,241.41,1.0,0.0,0.0,0.0,0.0,0.0,1.0,0.0,0.5549999999999997,0.5549999999999997,0.0,0.0,1.0,55.0,616.79921,10000.0,85.000001,85.000001,85.000001,85.000001,395.0,0.0,0.0,0.0,1.0,333.33500000000004,52.856,52.856,49.286,49.286,34.0,-24.8175,23.738,-25.183333333333337,24.82,0.0,1782.589,-0.26500000000000057,100.0,27.575,27.398,42.558,42.397999999999996,0.0,0.0,100.0,0.0,0.0,0.0,0.0,3133.142857142857,3044.4,3703.875,3826.9,305.4185,304.99125,315.83825,315.319,21.873625,20.5703,21.878333333333334,21.405,314.999998,314.999998,324.999988,324.999988,99.55838571428572,99.50743333333334,99.5663,99.54648571428571,0.058250000000000135,-0.06425000000000003,-0.1276666666666666,0.09616666666666673,-0.04333333333332945,-0.051666666666669414,1.6306666666666665,1.62,37.71,29.5645,37.739999999999995,34.781,55.928,34.924,59.3485,52.1545,53.869,34.071,57.9525,50.494,53.039,33.6275,57.885999999999996,49.909333333333336,-0.09799999999999986,-0.04899999999999993,0.10559,0.10712,0.0,210.025,210.025,207.10333333333335,207.10333333333335,0.0,0.0
12,0.0,0.0,0.0,1.0,1.0,0.0,0.0,1.0,0.0,100.0,1.0,1.1856,26.0,0.0,0.0,0.0,63.999999,0.0,26.0,26.0,26.0,26.0,-0.0024444444444444713,0.2905,0.03055,292.984,-2.7343,-2.707125,-1.5292,-1.5482222222222222,-235.93,216.055,190.748,0.0,0.0,0.0,0.0,0.025466666666666526,-5.498166666666667,-5.498166666666667,-0.5463,0.3183333333333333,-0.010777777777777775,-0.9609999999999999,67.203,-0.0071,-0.20605,-0.13599999999999923,100.0,1.0,1.0,207.30666666666667,0.0,0.0,0.0,0.0,0.0,0.0,0.0,8787.0,0.0,55.0,5.0,241.9,0.0,0.0,0.0,0.0,0.0,0.0,1.0,0.0,0.602999999999998,0.602999999999998,0.0,0.0,0.0,55.0,616.79921,10000.0,85.000001,85.000001,85.000001,85.000001,395.0,0.0,0.0,0.0,1.0,333.33500000000004,52.887,52.887,47.989,47.989,34.0,-25.259999999999998,23.922,-30.083333333333336,28.5375,0.0,1782.541,-0.22499999999999787,100.0,27.492,27.526,42.453,42.282,0.0,0.0,100.0,0.0,0.0,0.0,0.0,3176.5714285714284,3030.0,4272.375,4128.8,305.3335,305.05825,314.5055,314.5815,21.882625,20.5754,21.88811111111111,21.4134,314.999998,314.999998,324.999988,324.999988,99.55838571428572,99.50743333333334,99.56644285714286,99.54661428571428,0.06625000000000014,-0.05625000000000002,-0.12383333333333335,0.11250000000000004,-0.05833333333333002,-0.03833333333332689,1.5316666666666667,1.525,37.766,29.5965,37.801,34.834,55.915,34.960499999999996,59.385,52.210499999999996,53.857,34.1045,57.9865,50.548,53.025999999999996,33.6595,57.917,49.96233333333333,-0.09850000000000003,-0.05799999999999983,0.11155000000000001,0.11424000000000001,0.0,210.47,210.45499999999998,207.30666666666667,207.30666666666667,0.0,0.0
13,0.0,0.0,0.0,1.0,1.0,0.0,0.0,1.0,0.0,100.0,1.0,1.1856,26.0,0.0,0.0,0.0,63.999999,0.0,26.0,26.0,26.0,26.0,0.007444444444444587,0.2945,0.036950000000000004,292.557,-2.7114,-2.699625,-1.5655999999999999,-1.564888888888889,-232.3,216.025,190.725,0.0,0.0,0.0,0.0,0.026833333333333376,-5.498166666666667,-5.498166666666667,-0.5391,-0.10133333333333333,-0.007444444444444365,-0.56,67.354,-0.0007,-0.21502500000000002,-0.129999999999999,100.0,1.0,1.0,207.71,0.0,0.0,0.0,0.0,0.0,0.0,0.0,8804.1,0.0,55.0,5.0,242.44333333333333,1.0,0.0,0.0,0.0,0.0,0.0,1.0,0.0,0.657,0.657,0.0,0.0,1.0,55.0,616.79921,10000.0,85.000001,85.000001,85.000001,85.000001,395.0,0.0,0.0,0.0,1.0,166.665,52.475,52.475,47.882,47.882,34.0,-24.725,24.578,-29.883333333333333,29.6625,0.0,1782.489,-0.41000000000000014,100.0,27.849,27.726,42.75,42.802,0.0,0.0,100.0,0.0,0.0,0.0,0.0,3214.142857142857,3033.1,4239.0,4255.9,305.1865,305.034,314.54325,314.2375,21.89275,20.5812,21.89922222222222,21.423099999999998,314.999998,314.999998,324.999988,324.999988,99.5584,99.50745,99.56658571428571,99.54677142857143,0.08225000000000016,-0.03974999999999995,-0.11249999999999993,0.10583333333333322,-0.03833333333332689,-0.03166666666666629,1.5083333333333333,1.4945,37.83,29.6325,37.870000000000005,34.894,55.903,35.001,59.4265,52.278,53.844,34.141999999999996,58.0255,50.6125,53.012,33.695499999999996,57.953,50.025333333333336,-0.10949999999999993,-0.04349999999999987,0.09782,0.10494,0.0,210.92000000000002,210.91,207.71,207.71,0.0,0.0
14,0.0,0.0,0.0,1.0,1.0,0.0,0.0,1.0,0.0,100.0,1.0,1.1856,26.0,0.0,0.0,0.0,63.999999,0.0,26.0,26.0,26.0,26.0,0.023666666666666725,0.2844,-0.006900000000000001,292.786,-2.7043,-2.6494999999999997,-1.6018,-1.5434444444444444,-229.06,216.0,190.705,0.0,0.0,0.0,0.0,0.028699999999999948,-5.498166666666667,-5.498166666666667,-0.5489,-0.18533333333333335,0.014111111111110963,-0.11100000000000021,67.485,0.0064,-0.22870000000000001,-0.25,100.0,1.0,1.0,208.19333333333333,0.0,0.0,0.0,0.0,0.0,0.0,0.0,8824.5,0.0,55.0,5.0,242.92000000000002,0.0,0.0,0.0,0.0,0.0,0.0,1.0,0.0,0.7049999999999983,0.7049999999999983,0.0,0.0,0.0,55.0,616.79921,10000.0,85.000001,85.000001,85.000001,85.000001,395.0,0.0,0.0,0.0,1.0,333.33500000000004,52.582,52.582,48.111,48.111,34.0,-23.3925,24.576,-28.353333333333335,28.73,0.0,1782.44,-0.4349999999999987,100.0,27.825,27.78,42.766,42.965,0.0,0.0,100.0,0.0,0.0,0.0,0.0,3116.714285714286,3084.9,4075.625,4108.9,305.4695,304.90375,314.96075,314.62525,21.90175,20.5863,21.909111111111113,21.4316,314.999998,314.999998,324.999988,324.999988,99.55841428571429,99.50745,99.56671428571428,99.5469,0.09200000000000008,-0.040000000000000036,-0.10350000000000004,0.12116666666666687,-0.046666666666666856,-0.04333333333332945,1.544,1.533,37.885999999999996,29.6645,37.932,34.948,55.891999999999996,35.036500000000004,59.4625,52.336,53.834,34.1745,58.0585,50.6685,53.001000000000005,33.727000000000004,57.983000000000004,50.08,-0.11050000000000004,-0.04249999999999998,0.10583000000000001,0.112375,0.0,211.32,211.325,208.19333333333333,208.19333333333333,0.0,0.0
15,0.0,0.0,0.0,1.0,1.0,0.0,0.0,1.0,0.0,100.0,1.0,1.1856,26.0,0.0,0.0,0.0,63.999999,0.0,26.0,26.0,26.0,26.0,0.029777777777777903,0.30000000000000004,-0.039,292.831,-2.6769,-2.60725,-1.599,-1.4852222222222222,-225.82,215.9725,190.68475,0.0,0.0,0.0,0.0,0.03059999999999996,-5.498166666666667,-5.498166666666667,-0.541,0.295,0.0431111111111111,-0.17600000000000016,67.617,0.0151,-0.21245,-0.32399999999999984,100.0,1.0,1.0,208.59333333333333,0.0,0.0,0.0,0.0,0.0,0.0,0.0,8841.6,0.0,55.0,5.0,243.39333333333335,1.0,0.0,0.0,0.0,0.0,0.0,1.0,0.0,0.7530000000000001,0.7530000000000001,0.0,0.0,1.0,55.0,616.79921,10000.0,85.000001,85.000001,85.000001,85.000001,395.0,0.0,0.0,0.0,1.0,333.33500000000004,52.765,52.765,48.248,48.248,34.0,-21.5925,24.242,-27.78333333333333,29.595,0.0,1782.391,-0.41000000000000014,100.0,27.838,27.82,42.528999999999996,42.968,0.0,0.0,100.0,0.0,0.0,0.0,0.0,2975.5714285714284,3058.2,4030.375,4268.0,305.8285,304.972,315.07525,314.26575,21.91075,20.5915,21.918888888888887,21.4402,314.999998,314.999998,324.999988,324.999988,99.55842857142858,99.50745,99.56685714285715,99.54704285714286,0.10175000000000001,-0.033499999999999974,-0.10033333333333339,0.1280000000000001,-0.05333333333332746,-0.05833333333333002,1.5406666666666666,1.5314999999999999,37.942,29.697,37.992999999999995,35.001,55.881,35.072,59.4965,52.394,53.823,34.207499999999996,58.0905,50.724000000000004,52.989000000000004,33.7585,58.012,50.135,-0.11199999999999988,-0.04349999999999987,0.100885,0.11392000000000001,0.0,211.75,211.76,208.59333333333333,208.59333333333333,0.0,0.0
16,0.0,0.0,0.0,1.0,1.0,0.0,0.0,1.0,0.0,100.0,1.0,1.1856,26.0,0.0,0.0,0.0,63.999999,0.0,26.0,26.0,26.0,26.0,0.02499999999999991,0.2751000000000001,-0.01145,292.847,-2.7649,-2.648,-1.5691000000000002,-1.488,-222.36,215.9475,190.66275,0.0,0.0,0.0,0.0,0.03259999999999996,-5.498166666666667,-5.498166666666667,-0.5596,-0.751,0.02977777777777768,0.03499999999999992,67.758,0.0224,-0.22385000000000002,-0.4060000000000006,100.0,1.0,1.0,209.01333333333332,0.0,0.0,0.0,0.0,0.0,0.0,0.0,8859.3,0.0,55.0,5.0,243.9,0.0,0.0,0.0,0.0,0.0,0.0,1.0,0.0,0.8039999999999985,0.8039999999999985,0.0,0.0,0.0,55.0,616.79921,10000.0,85.000001,85.000001,85.000001,85.000001,395.0,0.0,0.0,0.0,1.0,166.665,52.765,52.765,47.852000000000004,47.852000000000004,34.0,-22.5375,26.024,-26.063333333333333,29.427500000000002,0.0,1782.342,-0.29499999999999815,100.0,27.59,27.721,42.889,43.003,0.0,0.0,100.0,0.0,0.0,0.0,0.0,2996.714285714286,3202.4,3985.125,4135.6,305.8035,304.70525,315.11375,314.6245,21.92,20.597,21.929333333333332,21.4493,314.999998,314.999998,324.999988,324.999988,99.55842857142858,99.50746666666667,99.567,99.54718571428572,0.10099999999999998,-0.02674999999999994,-0.07866666666666666,0.14516666666666667,-0.045000000000001705,-0.05833333333333002,1.5350000000000001,1.5150000000000001,38.0,29.7315,38.058,35.058,55.864999999999995,35.1095,59.535,52.4555,53.808,34.2425,58.1265,50.783500000000004,52.974000000000004,33.792,58.045,50.193,-0.10149999999999992,-0.04899999999999993,0.10232500000000001,0.109835,0.0,212.14,212.16500000000002,209.01333333333332,209.01333333333332,0.0,0.0
17,0.0,0.0,0.0,1.0,1.0,0.0,0.0,1.0,0.0,100.0,1.0,1.1856,26.0,0.0,0.0,0.0,63.999999,0.0,26.0,26.0,26.0,26.0,0.022333333333333316,0.28659999999999997,0.0063750000000000005,292.557,-2.7242,-2.606,-1.6016,-1.5132222222222222,-218.91,215.92000000000002,190.640125,0.0,0.0,0.0,0.0,0.034599999999999964,-5.498166666666667,-5.498166666666667,-0.551,0.5116666666666667,0.0012222222222222356,-0.7890000000000001,67.897,0.0217,-0.20695000000000002,-0.18599999999999994,100.0,1.0,1.0,209.42000000000002,0.0,0.0,0.0,0.0,0.0,0.0,0.0,8876.6,0.0,55.0,5.0,244.4,1.0,0.0,0.0,0.0,0.0,0.0,1.0,0.0,0.8550000000000004,0.8550000000000004,0.0,0.0,1.0,55.0,616.79921,10000.0,85.000001,85.000001,85.000001,85.000001,395.0,0.0,0.0,0.0,1.0,333.33500000000004,52.429,52.429,47.913,47.913,34.0,-23.85,23.787999999999997,-29.486666666666665,29.355,0.0,1782.289,-0.3000000000000007,100.0,27.974,28.129,42.613,43.022999999999996,0.0,0.0,100.0,0.0,0.0,0.0,0.0,3181.285714285714,2990.0,4278.375,4174.3,305.3365,305.22925,314.5845,314.52425,21.929625,20.6026,21.939666666666668,21.4583,314.999998,314.999998,324.999988,324.999988,99.55844285714285,99.50746666666667,99.56714285714285,99.54734285714285,0.09724999999999984,-0.028000000000000025,-0.09416666666666662,0.13183333333333325,-0.05333333333332746,-0.02833333333332888,1.5336666666666665,1.5340000000000003,38.06,29.7665,38.123000000000005,35.114,55.855000000000004,35.1485,59.5715,52.516,53.798,34.2785,58.1605,50.841499999999996,52.962,33.826,58.076,50.25,-0.10399999999999987,-0.04850000000000021,0.10505,0.11104000000000001,0.0,212.625,212.62,209.42000000000002,209.42000000000002,0.0,0.0
18,0.0,0.0,0.0,1.0,1.0,0.0,0.0,1.0,0.0,100.0,1.0,1.1856,26.0,0.0,0.0,0.0,63.999999,0.0,26.0,26.0,26.0,26.0,0.011555555555555541,0.27880000000000016,-0.005425,292.419,-2.7499000000000002,-2.5862499999999997,-1.6143,-1.464777777777778,-215.44,215.89499999999998,190.61775,0.0,0.0,0.0,0.0,0.036633333333333296,-5.498166666666667,-5.498166666666667,-0.5606,-0.5096666666666667,0.023222222222222033,1.0070000000000001,68.036,0.0236,-0.22425,-0.27200000000000024,100.0,1.0,1.0,209.84,0.0,0.0,0.0,0.0,0.0,0.0,0.0,8894.3,0.0,55.0,5.0,244.9,0.0,0.0,0.0,0.0,0.0,0.0,1.0,0.0,0.9059999999999988,0.9059999999999988,0.0,0.0,0.0,55.0,616.79921,10000.0,85.000001,85.000001,85.000001,85.000001,395.0,0.0,0.0,0.0,1.0,166.665,52.260999999999996,52.260999999999996,47.668,47.668,34.0,-23.424999999999997,26.286,-27.423333333333332,29.285,0.0,1782.24,-0.28000000000000114,100.0,27.919,27.828,43.073,43.282,0.0,0.0,100.0,0.0,0.0,0.0,0.0,3103.285714285714,3301.1,4070.875,4196.1,305.4355,304.489,314.94325,314.51625,21.939125,20.6081,21.950222222222223,21.4675,314.999998,314.999998,324.999988,324.999988,99.55845714285714,99.50746666666667,99.56728571428572,99.54748571428571,0.10075000000000012,-0.026499999999999968,-0.08133333333333337,0.13983333333333325,-0.05333333333332746,-0.05666666666667197,1.5443333333333333,1.5255,38.119,29.8005,38.189,35.172,55.842,35.186,59.611,52.5785,53.786,34.313,58.197,50.902,52.949,33.8595,58.1095,50.309,-0.10099999999999998,-0.053999999999999826,0.106755,0.10702500000000001,0.0,213.005,213.015,209.84,209.84,0.0,0.0
19,0.0,0.0,0.0,1.0,1.0,0.0,0.0,1.0,0.0,100.0,1.0,1.1856,26.0,0.0,0.0,0.0,63.999999,0.0,26.0,26.0,26.0,26.0,0.014666666666666606,0.2896000000000001,0.0502,291.946,-2.6658,-2.6866250000000003,-1.6243,-1.4516666666666669,-211.97,215.87,190.59525,0.0,0.0,0.0,0.0,0.0386333333333333,-5.498166666666667,-5.498166666666667,-0.5505,0.8356666666666667,0.02444444444444427,-0.6920000000000002,68.173,0.024800000000000003,-0.212475,-0.20399999999999885,100.0,1.0,1.0,210.23333333333335,0.0,0.0,0.0,0.0,0.0,0.0,0.0,8911.0,0.0,55.0,5.0,245.39333333333335,1.0,0.0,0.0,0.0,0.0,0.0,1.0,0.0,0.9570000000000007,0.9570000000000007,0.0,0.0,1.0,55.0,616.79921,10000.0,85.000001,85.000001,85.000001,85.000001,395.0,0.0,0.0,0.0,1.0,166.665,51.697,51.697,47.455,47.455,34.0,-23.52,25.846,-30.053333333333335,30.515,0.0,1782.19,-0.26500000000000057,100.0,28.309,28.463,42.766,43.319,0.0,0.0,100.0,0.0,0.0,0.0,0.0,3199.857142857143,3152.4,4290.125,4365.5,305.1375,304.49675,314.538,314.0955,21.94875,20.6138,21.960555555555555,21.4766,314.999998,314.999998,324.999988,324.999988,99.55848571428571,99.50748333333334,99.56744285714285,99.54762857142858,0.10000000000000009,-0.039000000000000035,-0.09533333333333338,0.13816666666666677,-0.05333333333332746,-0.03499999999999659,1.5246666666666666,1.5065,38.18,29.8365,38.254000000000005,35.229,55.832,35.226,59.6465,52.64,53.777,34.35,58.2305,50.961,52.939,33.894999999999996,58.1395,50.367,-0.09650000000000003,-0.059499999999999886,0.10515500000000001,0.111155,0.0,213.485,213.48000000000002,210.23333333333335,210.23333333333335,0.0,0.0
20,0.0,0.0,0.0,1.0,1.0,0.0,0.0,1.0,0.0,100.0,1.0,1.1856,26.0,0.0,0.0,0.0,63.999999,0.0,26.0,26.0,26.0,26.0,0.028000000000000025,0.27470000000000017,-0.02585,292.313,-2.7641,-2.642625,-1.5472000000000001,-1.5742222222222222,-208.69,215.8475,190.57425,0.0,0.0,0.0,0.0,0.04053333333333331,-5.498166666666667,-5.498166666666667,-0.5519000000000001,-1.0093333333333334,0.02200000000000002,-0.9940000000000002,68.305,0.023200000000000002,-0.220525,-0.20999999999999908,100.0,1.0,1.0,210.54000000000002,0.0,0.0,0.0,0.0,0.0,0.0,0.0,8924.0,0.0,55.0,5.0,245.87,0.0,0.0,0.0,0.0,0.0,0.0,0.0,0.0,1.004999999999999,1.004999999999999,0.0,0.0,0.0,55.0,616.79921,10000.0,85.000001,85.000001,85.000001,85.000001,395.0,0.0,0.0,0.0,1.0,333.33500000000004,52.841,52.841,46.89,46.89,34.0,-22.425,24.078,-28.443333333333335,31.355,0.0,1782.139,-0.259999999999998,100.0,27.746,28.073,43.35,43.711,0.0,0.0,100.0,0.0,0.0,0.0,0.0,2977.0,3021.0,4254.5,4264.7,305.969,305.09925,314.48875,314.10775,21.9575,20.619,21.970555555555556,21.4854,314.999998,314.999998,324.999988,324.999988,99.55848571428571,99.50748333333334,99.56757142857143,99.54777142857142,0.09699999999999998,-0.03700000000000003,-0.08450000000000002,0.12716666666666687,-0.03499999999999659,-0.030000000000001137,1.4793333333333334,1.4645000000000001,38.233999999999995,29.868499999999997,38.316,35.284,55.819,35.260999999999996,59.685,52.6995,53.763999999999996,34.382,58.266,51.0185,52.925,33.926,58.1725,50.42366666666666,-0.09749999999999992,-0.05650000000000022,0.10033500000000001,0.10271000000000001,0.0,213.82999999999998,213.835,210.54000000000002,210.54000000000002,0.0,0.0
21,0.0,0.0,0.0,1.0,1.0,0.0,0.0,1.0,0.0,100.0,1.0,1.1856,26.0,0.0,0.0,0.0,63.999999,0.0,26.0,26.0,26.0,26.0,0.029777777777777903,0.28869999999999996,-0.07525,292.725,-2.6727,-2.7041250000000003,-1.612,-1.5365555555555557,-205.41,215.825,190.552625,0.0,0.0,0.0,0.0,0.04243333333333332,-5.498166666666667,-5.498166666666667,-0.5780000000000001,0.359,0.0032222222222222374,-0.9079999999999999,68.429,0.019200000000000002,-0.22610000000000002,-0.15799999999999947,100.0,1.0,1.0,211.18,0.0,0.0,0.0,0.0,0.0,0.0,0.0,8951.2,0.0,55.0,5.0,246.31666666666666,1.0,0.0,0.0,0.0,0.0,0.0,0.0,0.0,1.0530000000000008,1.0530000000000008,0.0,0.0,1.0,55.0,616.79921,10000.0,85.000001,85.000001,85.000001,85.000001,395.0,0.0,0.0,0.0,1.0,333.33500000000004,52.338,52.338,48.325,48.325,34.0,-22.9925,24.676,-27.36,27.78,0.0,1782.092,-0.29499999999999815,100.0,27.993,28.136,42.786,43.259,0.0,0.0,100.0,0.0,0.0,0.0,0.0,3156.4285714285716,3034.5,4004.5,3964.9,305.3365,305.0005,315.2225,315.05525,21.966375,20.624299999999998,21.980222222222224,21.4938,314.999998,314.999998,324.999988,324.999988,99.5585,99.50748333333334,99.5677,99.5479,0.10325000000000006,-0.04049999999999998,-0.09916666666666663,0.13400000000000012,-0.041666666666671404,-0.061666666666667425,1.6003333333333334,1.5905,38.29,29.9015,38.376000000000005,35.336,55.808,35.2975,59.716499999999996,52.754,53.753,34.416,58.295,51.071,52.914,33.9585,58.199,50.475,-0.10299999999999998,-0.05750000000000011,0.10799,0.109465,0.0,214.245,214.25,211.18,211.18,0.0,0.0
22,0.0,0.0,0.0,1.0,1.0,0.0,0.0,1.0,0.0,100.0,1.0,1.1856,26.0,0.0,0.0,0.0,63.999999,0.0,26.0,26.0,26.0,26.0,0.02200000000000002,0.26880000000000015,0.000375,292.221,-2.6558,-2.706625,-1.608,-1.5225555555555557,-201.92000000000002,215.8025,190.528875,0.0,0.0,0.0,0.0,0.04446666666666654,-5.498166666666667,-5.498166666666667,-0.5572,0.14466666666666667,0.017444444444444374,1.256,68.568,0.0166,-0.20425000000000001,-0.22799999999999976,100.0,1.0,1.0,211.40333333333334,0.0,0.0,0.0,0.0,0.0,0.0,0.0,8960.6,0.0,55.0,5.0,246.81666666666666,0.0,0.0,0.0,0.0,0.0,0.0,0.0,0.0,1.1039999999999992,1.1039999999999992,0.0,0.0,0.0,55.0,616.79921,10000.0,85.000001,85.000001,85.000001,85.000001,395.0,0.0,0.0,0.0,1.0,166.665,52.399,52.399,47.195,47.195,34.0,-21.0075,25.746000000000002,-29.206666666666663,31.075,0.0,1782.042,-0.384999999999998,100.0,28.207,28.094,43.194,43.372,0.0,0.0,100.0,0.0,0.0,0.0,0.0,2924.0,3133.5,4195.5,4360.6,305.8015,304.825,314.63875,314.16525,21.97575,20.6299,21.99077777777778,21.503,314.999998,314.999998,324.999988,324.999988,99.55851428571428,99.5075,99.56785714285714,99.54805714285715,0.10650000000000004,-0.03400000000000003,-0.09216666666666662,0.1286666666666667,-0.036666666666668846,-0.04833333333333201,1.488,1.476,38.349000000000004,29.936500000000002,38.442,35.394,55.797,35.336,59.7555,52.8165,53.742000000000004,34.451499999999996,58.332,51.131,52.902,33.9925,58.2325,50.53333333333333,-0.10850000000000004,-0.053999999999999826,0.10730500000000001,0.10425000000000001,0.0,214.68,214.68,211.40333333333334,211.40333333333334,0.0,0.0
23,0.0,0.0,0.0,1.0,1.0,0.0,0.0,1.0,0.0,100.0,1.0,1.1856,26.0,0.0,0.0,0.0,63.999999,0.0,26.0,26.0,26.0,26.0,0.023666666666666725,0.2529000000000001,-0.01135,292.206,-2.6903,-2.655125,-1.6613,-1.5862222222222222,-198.20999999999998,215.78,190.504,0.0,0.0,0.0,0.0,0.046633333333333304,-5.498166666666667,-5.498166666666667,-0.5759000000000001,-0.179,0.016111111111110965,0.56,68.71000000000001,0.0175,-0.229325,-0.22600000000000087,100.0,1.0,1.0,211.95333333333332,0.0,0.0,0.0,0.0,0.0,0.0,0.0,8983.9,0.0,55.0,5.0,247.32999999999998,1.0,0.0,0.0,0.0,0.0,0.0,0.0,0.0,1.1580000000000013,1.1580000000000013,0.0,0.0,1.0,55.0,616.79921,10000.0,85.000001,85.000001,85.000001,85.000001,395.0,0.0,0.0,0.0,1.0,166.665,51.788,51.788,48.096000000000004,48.096000000000004,34.0,-23.72,26.064,-27.626666666666665,29.6125,0.0,1781.988,-0.35999999999999943,100.0,28.381,28.197,43.247,43.644,0.0,0.0,100.0,0.0,0.0,0.0,0.0,3204.857142857143,3202.7,3989.25,4012.5,305.014,304.7085,315.238,314.88925,21.98575,20.6359,22.00177777777778,21.5128,314.999998,314.999998,324.999988,324.999988,99.55852857142857,99.5075,99.56801428571428,99.54821428571428,0.10499999999999998,-0.028000000000000025,-0.08883333333333332,0.14450000000000007,-0.04333333333332945,-0.061666666666667425,1.5506666666666666,1.5460000000000003,38.411,29.974,38.510999999999996,35.455,55.785,35.376999999999995,59.795,52.882,53.730999999999995,34.4895,58.3685,51.194,52.888999999999996,34.0285,58.2655,50.595333333333336,-0.10699999999999998,-0.05449999999999999,0.110975,0.10887500000000001,0.0,215.09,215.115,211.95333333333332,211.95333333333332,0.0,0.0
24,0.0,0.0,0.0,1.0,1.0,0.0,0.0,1.0,0.0,100.0,1.0,1.1856,26.0,0.0,0.0,0.0,63.999999,0.0,26.0,26.0,26.0,26.0,0.025111111111111084,0.2772000000000001,-0.029325,292.389,-2.7161,-2.661,-1.5795,-1.5256666666666667,-195.11,215.76,190.482875,0.0,0.0,0.0,0.0,0.04843333333333333,-5.498166666666667,-5.498166666666667,-0.5801000000000001,-0.381,0.02299999999999991,-0.18100000000000005,68.83,0.0222,-0.21880000000000002,-0.2779999999999987,100.0,1.0,1.0,212.22333333333333,0.0,0.0,0.0,0.0,0.0,0.0,0.0,8995.3,0.0,55.0,5.0,247.76,0.0,0.0,0.0,0.0,0.0,0.0,0.0,0.0,1.2029999999999994,1.2029999999999994,0.0,0.0,0.0,55.0,616.79921,10000.0,85.000001,85.000001,85.000001,85.000001,395.0,0.0,0.0,0.0,1.0,333.33500000000004,52.811,52.811,47.241,47.241,34.0,-22.14,23.932000000000002,-29.736666666666665,29.1475,0.0,1781.941,-0.3550000000000004,100.0,27.987000000000002,28.107,43.176,43.652,0.0,0.0,100.0,0.0,0.0,0.0,0.0,2999.0,2958.4,4301.5,4147.7,305.832,305.327,314.4245,314.577,21.994,20.6407,22.011,21.5209,314.999998,314.999998,324.999988,324.999988,99.55854285714285,99.5075,99.56814285714286,99.54834285714286,0.10075000000000012,-0.02949999999999997,-0.09616666666666662,0.12566666666666682,-0.03999999999999915,-0.03833333333332689,1.5153333333333334,1.5165000000000002,38.462,30.0045,38.569,35.504999999999995,55.774,35.409,59.828,52.9355,53.72,34.5195,58.399,51.246,52.878,34.0575,58.2935,50.646,-0.10699999999999998,-0.04850000000000021,0.112475,0.101555,0.0,215.465,215.49,212.22333333333333,212.22333333333333,0.0,0.0
25,0.0,0.0,0.0,1.0,1.0,0.0,0.0,1.0,0.0,100.0,1.0,1.1856,26.0,0.0,0.0,0.0,63.999999,0.0,26.0,26.0,26.0,26.0,0.018333333333333313,0.2714000000000001,-0.06380000000000001,292.374,-2.7829,-2.623,-1.599,-1.5278888888888889,-191.6,215.74,190.457625,0.0,0.0,0.0,0.0,0.05046666666666655,-5.498166666666667,-5.498166666666667,-0.6088,-0.07133333333333333,0.03177777777777768,0.16500000000000004,68.963,0.0247,-0.223925,-0.3739999999999988,100.0,1.0,1.0,212.75333333333333,0.0,0.0,0.0,0.0,0.0,0.0,0.0,9017.8,0.0,55.0,5.0,248.24,1.0,0.0,0.0,0.0,0.0,0.0,0.0,0.0,1.2540000000000013,1.2540000000000013,0.0,0.0,1.0,55.0,616.79921,10000.0,85.000001,85.000001,85.000001,85.000001,395.0,0.0,0.0,0.0,1.0,333.33500000000004,52.002,52.002,47.928,47.928,34.0,-23.6175,27.144,-25.96333333333333,29.76,0.0,1781.89,-0.379999999999999,100.0,27.969,28.126,43.034,43.387,0.0,0.0,100.0,0.0,0.0,0.0,0.0,3165.0,3350.2,3924.625,4102.3,305.3035,304.28075,315.33125,314.76575,22.003125,20.6464,22.02122222222222,21.53,314.999998,314.999998,324.999988,324.999988,99.55854285714285,99.5075,99.56828571428571,99.54848571428572,0.11525000000000007,-0.02774999999999994,-0.08283333333333331,0.15066666666666673,-0.05833333333333002,-0.04999999999999716,1.5819999999999999,1.557,38.519999999999996,30.04,38.632999999999996,35.562,55.76,35.4475,59.8625,52.9945,53.707,34.555,58.431,51.303,52.864000000000004,34.091499999999996,58.3225,50.70166666666667,-0.10850000000000004,-0.051000000000000156,0.10966500000000001,0.11084000000000001,0.0,215.885,215.89499999999998,212.75333333333333,212.75333333333333,0.0,0.0
26,0.0,0.0,0.0,1.0,1.0,0.0,0.0,1.0,0.0,100.0,1.0,1.1856,26.0,0.0,0.0,0.0,63.999999,0.0,26.0,26.0,26.0,26.0,0.0367777777777778,0.2815000000000001,0.07295,291.26,-2.7404,-2.692125,-1.6457000000000002,-1.5187777777777778,-188.07999999999998,215.72,190.431875,0.0,0.0,0.0,0.0,0.05253333333333332,-5.498166666666667,-5.498166666666667,-0.5727,0.7126666666666667,0.014111111111110963,-0.8140000000000001,69.099,0.0262,-0.197325,-0.31400000000000006,100.0,1.0,1.0,212.91666666666669,0.0,0.0,0.0,0.0,0.0,0.0,0.0,9024.7,0.0,55.0,5.0,248.73000000000002,0.0,0.0,0.0,0.0,0.0,0.0,0.0,0.0,1.3049999999999997,1.3049999999999997,0.0,0.0,0.0,55.0,616.79921,10000.0,85.000001,85.000001,85.000001,85.000001,395.0,0.0,0.0,0.0,1.0,333.33500000000004,51.453,51.453,46.371,46.371,34.0,-23.77,25.692,-32.52333333333333,32.8675,0.0,1781.84,-0.40500000000000114,100.0,28.688,28.927,43.325,43.836,0.0,0.0,100.0,0.0,0.0,0.0,0.0,3224.285714285714,3086.6,4563.5,4486.7,305.1575,304.777,313.89125,313.75425,22.01275,20.6522,22.031777777777776,21.5393,314.999998,314.999998,324.999988,324.999988,99.55857142857143,99.5075,99.56844285714286,99.54864285714285,0.11375000000000002,-0.02749999999999997,-0.08483333333333332,0.13650000000000007,-0.041666666666671404,-0.046666666666666856,1.4473333333333334,1.4515000000000002,38.579,30.0765,38.699,35.62,55.751999999999995,35.488,59.9015,53.0575,53.699,34.592,58.4675,51.3635,52.854,34.1275,58.3555,50.760666666666665,-0.11599999999999988,-0.04800000000000004,0.108645,0.107325,0.0,216.345,216.345,212.91666666666669,212.91666666666669,0.0,0.0
27,0.0,0.0,0.0,1.0,1.0,0.0,0.0,1.0,0.0,100.0,1.0,1.1856,26.0,0.0,0.0,0.0,63.999999,0.0,26.0,26.0,26.0,26.0,0.04833333333333334,0.25550000000000006,-0.026000000000000002,291.656,-2.7073,-2.6546250000000002,-1.6386,-1.589777777777778,-184.76,215.7025,190.40875,0.0,0.0,0.0,0.0,0.05446666666666655,-5.498166666666667,-5.498166666666667,-0.5942000000000001,-1.0456666666666667,0.016555555555555657,-0.786,69.223,0.0281,-0.239925,-0.3460000000000001,100.0,1.0,1.0,213.38666666666666,0.0,0.0,0.0,0.0,0.0,0.0,0.0,9044.7,0.0,55.0,5.0,249.18,1.0,0.0,0.0,0.0,0.0,0.0,0.0,0.0,1.352999999999998,1.352999999999998,0.0,0.0,1.0,55.0,616.79921,10000.0,85.000001,85.000001,85.000001,85.000001,395.0,0.0,0.0,0.0,1.0,333.33500000000004,51.894999999999996,51.894999999999996,46.585,46.585,34.0,-22.4175,25.598,-28.65,30.6525,0.0,1781.792,-0.4450000000000003,100.0,28.351,28.759,44.025,44.473,0.0,0.0,100.0,0.0,0.0,0.0,0.0,3113.142857142857,3118.0,4163.875,4090.0,305.519,304.785,314.75375,314.602,22.021375,20.6576,22.041777777777778,21.548099999999998,314.999998,314.999998,324.999988,324.999988,99.55857142857143,99.50751666666666,99.56857142857143,99.54877142857143,0.11474999999999991,-0.026000000000000023,-0.08016666666666661,0.1413333333333333,-0.030000000000001137,-0.03833333333332689,1.5043333333333333,1.4815,38.634,30.11,38.760999999999996,35.676,55.741,35.524,59.939,53.117,53.689,34.6255,58.5025,51.420500000000004,52.842,34.159,58.3875,50.817,-0.11999999999999988,-0.045500000000000096,0.10441500000000001,0.10878000000000002,0.0,216.66,216.675,213.38666666666666,213.38666666666666,0.0,0.0
28,0.0,0.0,0.0,1.0,1.0,0.0,0.0,1.0,0.0,100.0,1.0,1.1856,26.0,0.0,0.0,0.0,63.999999,0.0,26.0,26.0,26.0,26.0,0.036555555555555674,0.2530000000000001,-0.053675,291.977,-2.6861,-2.658375,-1.6318000000000001,-1.5542222222222222,-181.23000000000002,215.6825,190.3835,0.0,0.0,0.0,0.0,0.056499999999999995,-5.498166666666667,-5.498166666666667,-0.6034,0.633,0.010666666666666602,0.597,69.35300000000001,0.031,-0.219675,-0.45199999999999996,100.0,1.0,1.0,213.93666666666667,0.0,0.0,0.0,0.0,0.0,0.0,0.0,9068.1,0.0,55.0,5.0,249.64333333333335,0.0,0.0,0.0,0.0,0.0,0.0,0.0,0.0,1.404,1.404,0.0,0.0,0.0,55.0,616.79921,10000.0,85.000001,85.000001,85.000001,85.000001,395.0,0.0,0.0,0.0,1.0,333.33500000000004,51.757999999999996,51.757999999999996,47.714,47.714,34.0,-21.81,26.392,-26.606666666666662,30.5075,0.0,1781.742,-0.4450000000000003,100.0,28.608,28.524,43.418,43.858000000000004,0.0,0.0,100.0,0.0,0.0,0.0,0.0,3095.0,3203.6,3988.0,4139.6,305.3415,304.685,315.261,314.69675,22.03075,20.6633,22.052,21.5572,314.999998,314.999998,324.999988,324.999988,99.5586,99.50751666666666,99.56871428571428,99.54892857142858,0.12700000000000022,-0.022499999999999964,-0.07733333333333337,0.15066666666666673,-0.03833333333332689,-0.051666666666669414,1.5643333333333334,1.5425,38.692,30.146,38.825,35.732,55.730999999999995,35.563,59.9715,53.175,53.679,34.661500000000004,58.5325,51.4765,52.832,34.1935,58.414500000000004,50.87166666666667,-0.123,-0.047499999999999876,0.10919000000000001,0.11087500000000002,0.0,217.115,217.125,213.93666666666667,213.93666666666667,0.0,0.0
29,0.0,0.0,0.0,1.0,1.0,0.0,0.0,1.0,0.0,100.0,1.0,1.1856,26.0,0.0,0.0,0.0,63.999999,0.0,26.0,26.0,26.0,26.0,0.06033333333333335,0.2835000000000001,0.052225,291.626,-2.6773,-2.699,-1.5844,-1.538,-177.69,215.66750000000002,190.357125,0.0,0.0,0.0,0.0,0.058566666666666545,-5.498166666666667,-5.498166666666667,-0.6027,-0.672,0.011888888888888838,-0.653,69.488,0.034,-0.21307500000000001,-0.4039999999999999,100.0,1.0,1.0,214.14,0.0,0.0,0.0,0.0,0.0,0.0,0.0,9076.6,0.0,55.0,5.0,250.13,1.0,0.0,0.0,0.0,0.0,0.0,0.0,0.0,1.4549999999999983,1.4549999999999983,0.0,0.0,1.0,55.0,616.79921,10000.0,85.000001,85.000001,85.000001,85.000001,395.0,0.0,0.0,0.0,1.0,333.33500000000004,52.063,52.063,46.524,46.524,34.0,-22.2875,26.043999999999997,-28.203333333333333,32.06,0.0,1781.691,-0.4450000000000003,100.0,28.069,28.543,43.702,44.222,0.0,0.0,100.0,0.0,0.0,0.0,0.0,3140.4285714285716,3113.5,4264.25,4289.8,305.472,304.74,314.496,314.1895,22.039875,20.669,22.062555555555555,21.5665,314.999998,314.999998,324.999988,324.999988,99.55861428571428,99.50753333333333,99.56887142857143,99.54907142857142,0.1160000000000001,-0.02574999999999994,-0.0691666666666666,0.14850000000000008,-0.046666666666666856,-0.04333333333332945,1.491,1.471,38.748999999999995,30.180999999999997,38.891,35.791,55.718,35.6,60.010999999999996,53.2375,53.667,34.696,58.5695,51.537,52.819,34.2265,58.448,50.93033333333334,-0.11650000000000005,-0.04300000000000015,0.10186500000000001,0.107325,0.0,217.495,217.525,214.14,214.14,0.0,0.0
30,0.0,0.0,0.0,1.0,1.0,0.0,0.0,1.0,0.0,100.0,1.0,1.1856,26.0,0.0,0.0,0.0,63.999999,0.0,26.0,26.0,26.0,26.0,0.050999999999999934,0.2663,0.036075,291.168,-2.7335,-2.5852500000000003,-1.5592000000000001,-1.5911111111111111,-174.35,215.6525,190.33225,0.0,0.0,0.0,0.0,0.0605,-5.498166666666667,-5.498166666666667,-0.6074,0.725,0.01011111111111096,-0.8279999999999998,69.60900000000001,0.0359,-0.2218,-0.4800000000000004,100.0,1.0,1.0,214.62666666666667,0.0,0.0,0.0,0.0,0.0,0.0,0.0,9097.3,0.0,55.0,5.0,250.56666666666666,0.0,0.0,0.0,0.0,0.0,0.0,1.0,0.0,1.5030000000000001,1.5030000000000001,0.0,0.0,0.0,55.0,616.79921,10000.0,85.000001,85.000001,85.000001,85.000001,395.0,0.0,0.0,0.0,1.0,166.665,50.613,50.613,47.15,47.15,34.0,-24.765,26.618,-27.006666666666668,31.69,0.0,1781.642,-0.4400000000000013,100.0,28.901,29.251,43.49,44.192,0.0,0.0,100.0,0.0,0.0,0.0,0.0,3409.0,3262.2,4142.75,4171.8,304.578,304.19775,314.8675,314.4415,22.04875,20.674599999999998,22.072222222222223,21.5752,314.999998,314.999998,324.999988,324.999988,99.55862857142857,99.50753333333333,99.56901428571429,99.54921428571429,0.12575000000000003,-0.023249999999999993,-0.07633333333333336,0.14816666666666678,-0.061666666666667425,-0.030000000000001137,1.5276666666666667,1.4885000000000002,38.805,30.216,38.952,35.845,55.711,35.6385,60.043,53.295,53.66,34.7315,58.5995,51.592,52.811,34.260999999999996,58.475,50.98433333333333,-0.121,-0.045500000000000096,0.10963,0.109075,0.0,217.91,217.9,214.62666666666667,214.62666666666667,0.0,0.0
31,0.0,0.0,0.0,1.0,1.0,0.0,0.0,1.0,0.0,100.0,1.0,1.1856,26.0,0.0,0.0,0.0,63.999999,0.0,26.0,26.0,26.0,26.0,0.03600000000000003,0.26249999999999996,0.038575000000000005,290.878,-2.7726,-2.6241250000000003,-1.6016,-1.4922222222222221,-170.79,215.6375,190.306375,0.0,0.0,0.0,0.0,0.06256666666666655,-5.498166666666667,-5.498166666666667,-0.5879,-0.4476666666666667,0.016999999999999904,0.6519999999999999,69.742,0.0407,-0.218775,-0.5099999999999998,100.0,1.0,1.0,214.86666666666667,0.0,0.0,0.0,0.0,0.0,0.0,0.0,9107.3,0.0,55.0,5.0,251.04666666666668,1.0,0.0,0.0,0.0,0.0,0.0,1.0,0.0,1.5539999999999985,1.5539999999999985,0.0,0.0,1.0,55.0,616.79921,10000.0,85.000001,85.000001,85.000001,85.000001,395.0,0.0,0.0,0.0,1.0,333.33500000000004,51.331,51.331,45.563,45.563,34.0,-22.3675,27.63,-29.213333333333335,32.53,0.0,1781.59,-0.4800000000000004,100.0,28.879,29.094,44.309,44.797,0.0,0.0,100.0,0.0,0.0,0.0,0.0,3072.285714285714,3339.2,4351.125,4359.6,305.5765,304.40025,314.1915,314.05425,22.058125,20.6804,22.08288888888889,21.584699999999998,314.999998,314.999998,324.999988,324.999988,99.55864285714286,99.50753333333333,99.56915714285714,99.54937142857143,0.12449999999999983,-0.013000000000000012,-0.06399999999999995,0.15466666666666673,-0.041666666666671404,-0.04833333333333201,1.4426666666666668,1.427,38.863,30.252499999999998,39.018,35.903999999999996,55.701,35.678,60.0835,53.359,53.65,34.768,58.637,51.6535,52.799,34.296,58.509,51.044666666666664,-0.11549999999999994,-0.04899999999999993,0.10890000000000001,0.10167000000000001,0.0,218.29000000000002,218.32,214.86666666666667,214.86666666666667,0.0,0.0
32,0.0,0.0,0.0,1.0,1.0,0.0,0.0,1.0,0.0,100.0,1.0,1.1856,26.0,0.0,0.0,0.0,63.999999,0.0,26.0,26.0,26.0,26.0,0.04988888888888887,0.2804,-0.0363,291.214,-2.6985,-2.6805000000000003,-1.5886,-1.5473333333333332,-167.01999999999998,215.625,190.27925,0.0,0.0,0.0,0.0,0.06476666666666653,-5.498166666666667,-5.498166666666667,-0.6054,-0.12,-0.0032222222222220154,0.31499999999999995,69.877,0.041100000000000005,-0.229275,-0.5399999999999991,100.0,1.0,1.0,215.40333333333334,0.0,0.0,0.0,0.0,0.0,0.0,0.0,9130.2,0.0,55.0,5.0,251.53,0.0,0.0,0.0,0.0,0.0,0.0,1.0,0.0,1.6080000000000005,1.6080000000000005,0.0,0.0,0.0,55.0,616.79921,10000.0,85.000001,85.000001,85.000001,85.000001,395.0,0.0,0.0,0.0,1.0,166.665,51.483000000000004,51.483000000000004,46.432,46.432,34.0,-21.28,27.378,-27.203333333333333,32.9375,0.0,1781.538,-0.4800000000000004,100.0,28.82,29.045,44.125,44.644999999999996,0.0,0.0,100.0,0.0,0.0,0.0,0.0,3078.285714285714,3199.6,4159.875,4351.2,305.433,304.684,314.71475,314.22325,22.067875,20.6866,22.093888888888888,21.5945,314.999998,314.999998,324.999988,324.999988,99.55865714285714,99.50753333333333,99.5693,99.54952857142857,0.13775000000000004,-0.0040000000000000036,-0.06633333333333336,0.15933333333333333,-0.04999999999999716,-0.054999999999999716,1.5243333333333333,1.5020000000000002,38.924,30.2915,39.087,35.966,55.69,35.7195,60.121,53.4225,53.64,34.8065,58.6715,51.715,52.788,34.332499999999996,58.5405,51.10466666666667,-0.12149999999999994,-0.04600000000000026,0.105465,0.10444500000000001,0.0,218.70499999999998,218.74,215.40333333333334,215.40333333333334,0.0,0.0
33,0.0,0.0,0.0,1.0,1.0,0.0,0.0,1.0,0.0,100.0,1.0,1.1856,26.0,0.0,0.0,0.0,63.999999,0.0,26.0,26.0,26.0,26.0,0.06177777777777793,0.2552000000000001,-0.060075,291.519,-2.7356,-2.673375,-1.5964,-1.5835555555555556,-163.67000000000002,215.6125,190.25425,0.0,0.0,0.0,0.0,0.06669999999999998,-5.498166666666667,-5.498166666666667,-0.6142000000000001,-0.2583333333333333,-0.0015555555555555323,1.037,69.998,0.0383,-0.21625,-0.4399999999999995,100.0,1.0,1.0,215.78,0.0,0.0,0.0,0.0,0.0,0.0,0.0,9146.1,0.0,55.0,5.0,251.96666666666667,1.0,0.0,0.0,0.0,0.0,0.0,1.0,0.0,1.6559999999999988,1.6559999999999988,0.0,0.0,1.0,55.0,616.79921,10000.0,85.000001,85.000001,85.000001,85.000001,395.0,0.0,0.0,0.0,1.0,166.665,51.849000000000004,51.849000000000004,46.768,46.768,34.0,-21.53,26.584,-26.813333333333333,32.6125,0.0,1781.49,-0.504999999999999,100.0,28.668,28.772,43.977000000000004,44.498999999999995,0.0,0.0,100.0,0.0,0.0,0.0,0.0,3051.4285714285716,3141.9,4122.5,4261.8,305.608,304.87625,314.8445,314.38625,22.0765,20.6919,22.103666666666665,21.6032,314.999998,314.999998,324.999988,324.999988,99.55867142857143,99.50753333333333,99.56944285714286,99.54967142857143,0.133,-0.007499999999999951,-0.06233333333333335,0.15783333333333327,-0.03166666666666629,-0.060000000000002274,1.5133333333333334,1.5075000000000003,38.977999999999994,30.3245,39.147999999999996,36.019999999999996,55.68,35.754,60.153999999999996,53.479,53.629999999999995,34.838499999999996,58.7025,51.7695,52.777,34.3635,58.5685,51.157666666666664,-0.12450000000000006,-0.04200000000000026,0.10425000000000001,0.10910500000000001,0.0,219.075,219.115,215.78,215.78,0.0,0.0
34,0.0,0.0,0.0,1.0,1.0,0.0,0.0,1.0,0.0,100.0,1.0,1.1856,26.0,0.0,0.0,0.0,63.999999,0.0,26.0,26.0,26.0,26.0,0.05133333333333323,0.25260000000000016,-0.051775,291.702,-2.6715999999999998,-2.668,-1.6545,-1.5492222222222223,-160.3,215.60500000000002,190.227875,0.0,0.0,0.0,0.0,0.06866666666666654,-5.498166666666667,-5.498166666666667,-0.639,-0.735,0.020999999999999908,0.923,70.12,0.040100000000000004,-0.22165,-0.5020000000000007,100.0,1.0,1.0,216.14333333333332,0.0,0.0,0.0,0.0,0.0,0.0,0.0,9161.6,0.0,55.0,5.0,252.40666666666667,0.0,0.0,0.0,0.0,0.0,0.0,1.0,0.0,1.7040000000000006,1.7040000000000006,0.0,0.0,0.0,55.0,616.79921,10000.0,85.000001,85.000001,85.000001,85.000001,395.0,0.0,0.0,0.0,1.0,166.665,52.138999999999996,52.138999999999996,47.134,47.134,34.0,-20.915,26.024,-27.683333333333337,31.6825,0.0,1781.442,-0.504999999999999,100.0,28.428,28.484,43.833,44.541,0.0,0.0,100.0,0.0,0.0,0.0,0.0,3020.142857142857,3092.4,4085.0,4252.5,305.6485,304.94825,314.96,314.38025,22.085125,20.6972,22.113333333333333,21.612000000000002,314.999998,314.999998,324.999988,324.999988,99.5587,99.50755,99.56958571428571,99.54981428571429,0.129,-0.010749999999999926,-0.0701666666666666,0.14949999999999997,-0.02499999999999858,-0.05666666666667197,1.5143333333333335,1.5030000000000001,39.032,30.3575,39.208,36.075,55.669,35.788,60.1865,53.537,53.620000000000005,34.8695,58.733000000000004,51.825,52.766,34.3935,58.5955,51.212,-0.11850000000000005,-0.03750000000000009,0.11112000000000001,0.10289000000000001,0.0,219.43,219.465,216.14333333333332,216.14333333333332,0.0,0.0
35,0.0,0.0,0.0,1.0,1.0,0.0,0.0,1.0,0.0,100.0,1.0,1.1856,26.0,0.0,0.0,0.0,63.999999,0.0,26.0,26.0,26.0,26.0,0.07011111111111101,0.24890000000000012,-0.042550000000000004,291.763,-2.7406,-2.60475,-1.5519,-1.569888888888889,-156.72,215.595,190.198125,0.0,0.0,0.0,0.0,0.07073333333333331,-5.498166666666667,-5.498166666666667,-0.6789000000000001,-0.3183333333333333,0.007333333333333192,-1.142,70.247,0.0438,-0.22890000000000002,-0.4740000000000002,100.0,1.0,1.0,216.60333333333335,0.0,0.0,0.0,0.0,0.0,0.0,0.0,9181.1,0.0,55.0,5.0,252.86333333333334,1.0,0.0,0.0,0.0,0.0,0.0,1.0,0.0,1.754999999999999,1.754999999999999,0.0,0.0,1.0,55.0,616.79921,10000.0,85.000001,85.000001,85.000001,85.000001,395.0,0.0,0.0,0.0,1.0,166.665,51.757999999999996,51.757999999999996,46.692,46.692,34.0,-22.48,27.28,-26.516666666666666,30.3475,0.0,1781.391,-0.3550000000000004,100.0,28.012,28.801000000000002,43.544,44.107,0.0,0.0,100.0,0.0,0.0,0.0,0.0,3144.142857142857,3319.4,4141.25,4052.3,305.4595,304.1905,314.90625,314.9205,22.094125,20.7031,22.123555555555555,21.6211,314.999998,314.999998,324.999988,324.999988,99.55871428571429,99.50755,99.56974285714286,99.54995714285714,0.12674999999999992,-0.020499999999999963,-0.07050000000000001,0.15766666666666684,-0.03333333333333144,-0.04833333333333201,1.5426666666666666,1.536,39.088,30.394,39.272,36.132,55.656,35.826499999999996,60.221000000000004,53.594,53.607,34.9055,58.7645,51.879999999999995,52.751999999999995,34.4275,58.624,51.266,-0.11250000000000004,-0.052000000000000046,0.10758500000000001,0.10219500000000001,0.0,219.82,219.865,216.60333333333335,216.60333333333335,0.0,0.0
