,ABS Active,ABS Enabled,AID Allow Tire Blankets,AID Auto Blip,AID Auto Clutch,AID Auto Shift,AID Fuel Rate,AID Ideal Line,AID Mech Damage,AID Stability,AID Tire Wear Rate,Air Density,Air Temp,Ballast,Best Lap Delta,Best Lap Time,Brake Bias,Brake Pos,Brake Temp FL,Brake Temp FR,Brake Temp RL,Brake Temp RR,CG Accel Lateral,CG Accel Longitudinal,CG Accel Vertical,CG Height,Camber FL,Camber FR,Camber RL,Camber RR,Car Coord X,Car Coord Y,Car Coord Z,Car Damage Front,Car Damage Left,Car Damage Rear,Car Damage Right,Car Pos Norm,Caster FL,Caster FR,Chassis Pitch Angle,Chassis Pitch Rate,Chassis Roll Angle,Chassis Roll Rate,Chassis Velocity X,Chassis Velocity Y,Chassis Velocity Z,Chassis Yaw Rate,Clutch Pos,DRS Active,DRS Available,Drive Train Speed,ERS Heat Charging,ERS Is Charging,ERS Max Energy,ERS Power Level,ERS Recovery Level,Engine Brake Setting,Engine Limiter,Engine RPM,Flags,Fuel Level,Gear,Ground Speed,HR Sample Clock,In Pit,KERS Charge,KERS Deployed Energy,KERS Input,KERS Max Energy,LR Sample Clock,Lap Invalidated,Lap Time,Lap Time2,Last Lap Time,Last Sector Time,MR Sample Clock,Max Fuel,Max Power,Max RPM,Max Sus Travel FL,Max Sus Travel FR,Max Sus Travel RL,Max Sus Travel RR,Max Torque,Max Turbo Boost,Num Tires Off Track,Penalties Enabled,Position,Raw Data Sample Rate,Ride Height FL,Ride Height FR,Ride Height RL,Ride Height RR,Road Temp,Self Align Torque FL,Self Align Torque FR,Self Align Torque RL,Self Align Torque RR,Session Lap Count,Session Time Left,Steering Angle,Surface Grip,Suspension Travel FL,Suspension Travel FR,Suspension Travel RL,Suspension Travel RR,TC Active,TC Enabled,Throttle Pos,Tire Dirt Level FL,Tire Dirt Level FR,Tire Dirt Level RL,Tire Dirt Level RR,Tire Load FL,Tire Load FR,Tire Load RL,Tire Load RR,Tire Loaded Radius FL,Tire Loaded Radius FR,Tire Loaded Radius RL,Tire Loaded Radius RR,Tire Pressure FL,Tire Pressure FR,Tire Pressure RL,Tire Pressure RR,Tire Radius FL,Tire Radius FR,Tire Radius RL,Tire Radius RR,Tire Rubber Grip FL,Tire Rubber Grip FR,Tire Rubber Grip RL,Tire Rubber Grip RR,Tire Slip Angle FL,Tire Slip Angle FR,Tire Slip Angle RL,Tire Slip Angle RR,Tire Slip Ratio FL,Tire Slip Ratio FR,Tire Slip Ratio RL,Tire Slip Ratio RR,Tire Temp Core FL,Tire Temp Core FR,Tire Temp Core RL,Tire Temp Core RR,Tire Temp Inner FL,Tire Temp Inner FR,Tire Temp Inner RL,Tire Temp Inner RR,Tire Temp Middle FL,Tire Temp Middle FR,Tire Temp Middle RL,Tire Temp Middle RR,Tire Temp Outer FL,Tire Temp Outer FR,Tire Temp Outer RL,Tire Temp Outer RR,Toe In FL,Toe In FR,Toe In RL,Toe In RR,Turbo Boost,Wheel Angular Speed FL,Wheel Angular Speed FR,Wheel Angular Speed RL,Wheel Angular Speed RR,Wind Direction,Wind Speed
0,0.0,0.0,0.0,1.0,1.0,0.0,0.0,1.0,0.0,100.0,1.0,1.1856,26.0,0.0,0.0,0.0,63.99999,0.0,26.0,26.0,26.0,26.0,-0.06288888888888888,0.2923,0.017675,293.671,-2.71025,-2.4802222222222223,-1.52005,-1.5358,-275.65,215.96,190.987375,0.0,0.0,0.0,0.0,0.0015999999999999348,-5.498166666666667,-5.498166666666667,-0.5565,2.364,-0.016111111111110965,-0.6469999999999998,65.46600000000001,-0.0398,-0.220225,0.6099999999999994,100.0,1.0,1.0,202.13,0.0,0.0,0.0,0.0,0.0,0.0,0.0,8567.5,0.0,55.0,5.0,235.64666666666668,0.0,0.0,0.0,0.0,0.0,0.0,0.0,0.0,0.0030000000000001137,0.0030000000000001137,0.0,0.0,0.0,55.0,616.79921,10000.0,85.0,85.0,85.0,85.0,395.0,0.0,0.0,0.0,1.0,20.0,51.865,51.865,49.301,49.301,34.0,-27.855,23.701999999999998,-31.043333333333333,25.425,0.0,1783.105,0.7300000000000004,100.0,27.474,27.221,40.295,40.025999999999996,0.0,0.0,100.0,0.0,0.0,0.0,0.0,3165.5714285714284,3628.3,4177.333333333333,4063.5,305.056,303.02775,314.72975,314.731,21.742444444444445,20.5125,21.7881,21.3034,314.99999,314.99999,324.99998,324.99998,99.55698571428572,99.50718333333333,99.56578571428571,99.54474285714285,0.005250000000000199,-0.1213333333333334,-0.16366666666666663,0.07016666666666671,-0.05833333333333002,-0.046666666666666856,1.5503333333333333,1.5695000000000001,36.89,29.2035,37.176,34.1465,55.611000000000004,34.414500000000004,59.2225,51.376999999999995,53.592,33.632,57.858000000000004,49.771,52.8,33.24,57.835,49.22366666666667,-0.028000000000000025,-0.12300000000000022,0.11507,0.11108000000000001,0.0,205.175,205.125,202.13,202.13,0.0,0.0
1,0.0,0.0,0.0,1.0,1.0,0.0,0.0,1.0,0.0,100.0,1.0,1.1856,26.0,0.0,0.0,0.0,63.999999,0.0,26.0,26.0,26.0,26.0,-0.11888888888888893,0.3137000000000001,0.222,293.076,-2.6545,-2.7088888888888887,-1.546,-1.368,-272.31,215.9625,190.9675,0.0,0.0,0.0,0.0,0.003566666666666607,-5.498166666666667,-5.498166666666667,-0.4844,-1.291,-0.053444444444444184,-0.5579999999999998,65.625,-0.048,-0.18765,1.1940000000000008,100.0,1.0,1.0,202.14333333333332,0.0,0.0,0.0,0.0,0.0,0.0,0.0,8568.1,0.0,55.0,5.0,236.21666666666667,1.0,0.0,0.0,0.0,0.0,0.0,0.0,0.0,0.053999999999998494,0.053999999999998494,0.0,0.0,1.0,55.0,616.79921,10000.0,85.000001,85.000001,85.000001,85.000001,395.0,0.0,0.0,0.0,1.0,333.33500000000004,54.245,54.245,48.157,48.157,34.0,-25.924999999999997,16.264,-36.46,27.765,0.0,1783.053,0.7349999999999994,100.0,27.344,26.858,42.480000000000004,41.988,0.0,0.0,100.0,0.0,0.0,0.0,0.0,2969.142857142857,2470.5,4519.111111111111,4930.2,305.841,306.9125,313.76675,312.42525,21.752111111111113,20.5175,21.7991,21.3127,314.999998,314.999998,324.999988,324.999988,99.55698571428572,99.50721666666666,99.56594285714286,99.54488571428571,-0.01550000000000007,-0.1323333333333333,-0.17566666666666664,0.03433333333333333,-0.015000000000000568,-0.03333333333333144,1.3436666666666666,1.3980000000000001,36.951,29.2345,37.244,34.204499999999996,55.596000000000004,34.453,59.269999999999996,51.445499999999996,53.577,33.667500000000004,57.9025,49.8365,52.785,33.274,57.8765,49.288,-0.010499999999999954,-0.12550000000000017,0.10748500000000001,0.10722000000000001,0.0,205.60500000000002,205.485,202.14333333333332,202.14333333333332,0.0,0.0
2,0.0,0.0,0.0,1.0,1.0,0.0,0.0,1.0,0.0,100.0,1.0,1.1856,26.0,0.0,0.0,0.0,63.999999,0.0,26.0,26.0,26.0,26.0,-0.15088888888888885,0.26580000000000004,-0.08927500000000001,294.159,-2.60475,-2.779777777777778,-1.5019,-1.6318000000000001,-268.96,215.965,190.94875,0.0,0.0,0.0,0.0,0.005499999999999949,-5.498166666666667,-5.498166666666667,-0.5655,0.3195,-0.04233333333333311,2.511,65.762,-0.061900000000000004,-0.263075,1.4600000000000009,100.0,1.0,1.0,203.35333333333332,0.0,0.0,0.0,0.0,0.0,0.0,0.0,8619.4,0.0,55.0,5.0,236.71333333333334,0.0,0.0,0.0,0.0,0.0,0.0,0.0,0.0,0.10500000000000043,0.10500000000000043,0.0,0.0,0.0,55.0,616.79921,10000.0,85.000001,85.000001,85.000001,85.000001,395.0,0.0,0.0,0.0,1.0,333.33500000000004,52.46,52.46,50.903,50.903,34.0,-29.814999999999998,20.496,-27.02,19.53,0.0,1783.003,0.870000000000001,100.0,28.23,26.789,42.11,41.103,0.0,0.0,100.0,0.0,0.0,0.0,0.0,3330.5714285714284,3046.1,3611.6666666666665,3451.1,304.5195,305.25375,316.003,316.42925,21.76211111111111,20.5225,21.8094,21.3212,314.999998,314.999998,324.999988,324.999988,99.55698571428572,99.50723333333333,99.56608571428572,99.54502857142857,-0.021749999999999936,-0.15033333333333332,-0.20366666666666666,0.03249999999999997,-0.05833333333333002,-0.026666666666670835,1.703,1.767,37.013,29.266,37.309,34.2575,55.584,34.493,59.305,51.499,53.566,33.704499999999996,57.935,49.888,52.772999999999996,33.3095,57.906,49.33833333333333,-0.014000000000000012,-0.14650000000000007,0.10518000000000001,0.115125,0.0,206.065,205.92000000000002,203.35333333333335,203.35333333333332,0.0,0.0
3,0.0,0.0,0.0,1.0,1.0,0.0,0.0,1.0,0.0,100.0,1.0,1.1856,26.0,0.0,0.0,0.0,63.999999,0.0,26.0,26.0,26.0,26.0,-0.14288888888888884,0.3022,0.11547500000000001,293.427,-2.6394,-2.711555555555556,-1.4985,-1.5791000000000002,-265.8,215.965,190.92975,0.0,0.0,0.0,0.0,0.007333333333333303,-5.498166666666667,-5.498166666666667,-0.5055000000000001,0.6054999999999999,-0.014333333333333087,-0.14900000000000002,65.90899999999999,-0.08120000000000001,-0.190275,1.2060000000000013,100.0,1.0,1.0,203.3,0.0,0.0,0.0,0.0,0.0,0.0,0.0,8617.1,0.0,55.0,5.0,237.24,1.0,0.0,0.0,0.0,0.0,0.0,0.0,0.0,0.1529999999999987,0.1529999999999987,0.0,0.0,1.0,55.0,616.79921,10000.0,85.000001,85.000001,85.000001,85.000001,395.0,0.0,0.0,0.0,1.0,333.33500000000004,53.558,53.558,48.065,48.065,34.0,-25.725,18.951999999999998,-35.086666666666666,25.39,0.0,1782.953,0.865000000000002,100.0,27.801000000000002,26.931,42.257,41.264,0.0,0.0,100.0,0.0,0.0,0.0,0.0,2921.285714285714,2906.9,4401.111111111111,4280.6,305.944,305.59575,314.08025,314.278,21.77122222222222,20.5274,21.8193,21.3296,314.999998,314.999998,324.999988,324.999988,99.55698571428572,99.50723333333333,99.56621428571428,99.54517142857142,-0.024249999999999883,-0.14933333333333332,-0.19499999999999995,0.024333333333333318,-0.030000000000001137,-0.060000000000002274,1.4633333333333334,1.504,37.07,29.2965,37.370000000000005,34.31,55.57,34.534,59.341499999999996,51.56,53.552,33.742,57.9695,49.9465,52.757999999999996,33.345,57.938,49.39566666666666,-0.012499999999999956,-0.13600000000000012,0.10646000000000001,0.10813500000000001,0.0,206.515,206.43,203.3,203.3,0.0,0.0
4,0.0,0.0,0.0,1.0,1.0,0.0,0.0,1.0,0.0,100.0,1.0,1.1856,26.0,0.0,0.0,0.0,63.999999,0.0,26.0,26.0,26.0,26.0,-0.13577777777777778,0.27480000000000016,-0.001475,293.64,-2.66875,-2.7824444444444443,-1.44035,-1.5939,-262.43,215.96,190.91025,0.0,0.0,0.0,0.0,0.009299999999999975,-5.498166666666667,-5.498166666666667,-0.5357000000000001,-0.8975,-0.0775555555555556,-1.6509999999999998,66.055,-0.0906,-0.23422500000000002,1.5239999999999991,100.0,1.0,1.0,203.87666666666667,0.0,0.0,0.0,0.0,0.0,0.0,0.0,8641.6,0.0,55.0,5.0,237.76999999999998,0.0,0.0,0.0,0.0,0.0,0.0,0.0,0.0,0.20400000000000063,0.20400000000000063,0.0,0.0,0.0,55.0,616.79921,10000.0,85.000001,85.000001,85.000001,85.000001,395.0,0.0,0.0,0.0,1.0,333.33500000000004,53.299,53.299,48.721000000000004,48.721000000000004,34.0,-30.612499999999997,18.494,-33.303333333333335,20.905,0.0,1782.903,0.875,100.0,27.476,26.714,42.816,41.597,0.0,0.0,100.0,0.0,0.0,0.0,0.0,3292.0,2832.6,4190.444444444444,3736.4,304.9755,305.66425,314.66425,315.4735,21.78088888888889,20.5325,21.8299,21.3385,314.999998,314.999998,324.999988,324.999988,99.557,99.50726666666667,99.56635714285714,99.5453,-0.046499999999999986,-0.16600000000000004,-0.22316666666666662,0.010499999999999954,-0.054999999999999716,-0.03833333333332689,1.5236666666666667,1.6015000000000001,37.131,29.328,37.437,34.366,55.556,34.5755,59.384,51.621,53.539,33.78,58.0085,50.0045,52.744,33.3815,57.9745,49.452666666666666,-0.0044999999999999485,-0.13500000000000023,0.10826000000000001,0.10918000000000001,0.0,206.945,206.815,203.87666666666667,203.87666666666667,0.0,0.0
5,0.0,0.0,0.0,1.0,1.0,0.0,0.0,1.0,0.0,100.0,1.0,1.1856,26.0,0.0,0.0,0.0,63.999999,0.0,26.0,26.0,26.0,26.0,-0.1611111111111111,0.30380000000000007,-0.04115,293.839,-2.6727499999999997,-2.759888888888889,-1.50925,-1.6242,-259.06,215.9525,190.890125,0.0,0.0,0.0,0.0,0.011266666666666536,-5.498166666666667,-5.498166666666667,-0.5381,0.495,-0.07944444444444443,0.8340000000000005,66.201,-0.1005,-0.216975,1.362,100.0,1.0,1.0,204.38333333333333,0.0,0.0,0.0,0.0,0.0,0.0,0.0,8663.1,0.0,55.0,5.0,238.29333333333335,1.0,0.0,0.0,0.0,0.0,0.0,0.0,0.0,0.254999999999999,0.254999999999999,0.0,0.0,1.0,55.0,616.79921,10000.0,85.000001,85.000001,85.000001,85.000001,395.0,0.0,0.0,0.0,1.0,166.665,53.513,53.513,49.271,49.271,34.0,-28.715,18.497999999999998,-33.17,22.4075,0.0,1782.853,0.6849999999999987,100.0,27.783,26.451999999999998,42.583,41.004,0.0,0.0,100.0,0.0,0.0,0.0,0.0,3129.5714285714284,2857.7,4071.777777777778,3991.7,305.21,305.77675,314.944,314.98975,21.790777777777777,20.5375,21.8404,21.3472,314.999998,314.999998,324.999988,324.999988,99.557,99.50728333333333,99.5665,99.54544285714286,-0.03325,-0.16133333333333333,-0.2283333333333334,0.0013333333333334085,-0.046666666666666856,-0.05666666666667197,1.557,1.6084999999999998,37.192,29.3595,37.501999999999995,34.42,55.544,34.617,59.4225,51.678,53.527,33.818,58.0445,50.059,52.732,33.417500000000004,58.0075,49.50566666666667,-0.024499999999999966,-0.12550000000000017,0.10690500000000001,0.10672500000000001,0.0,207.425,207.315,204.38333333333333,204.38333333333333,0.0,0.0
6,0.0,0.0,0.0,1.0,1.0,0.0,0.0,1.0,0.0,100.0,1.0,1.1856,26.0,0.0,0.0,0.0,63.999999,0.0,26.0,26.0,26.0,26.0,-0.15755555555555556,0.28400000000000003,0.0051,293.518,-2.62845,-2.808,-1.54065,-1.5859,-255.88,215.94,190.87075,0.0,0.0,0.0,0.0,0.0131,-5.498166666666667,-5.498166666666667,-0.5262,0.005499999999999949,-0.07566666666666677,0.8070000000000004,66.34,-0.1032,-0.20597500000000002,1.1579999999999995,100.0,1.0,1.0,204.69666666666666,0.0,0.0,0.0,0.0,0.0,0.0,0.0,8676.3,0.0,55.0,5.0,238.79666666666668,0.0,0.0,0.0,0.0,0.0,0.0,0.0,0.0,0.3030000000000008,0.3030000000000008,0.0,0.0,0.0,55.0,616.79921,10000.0,85.000001,85.000001,85.000001,85.000001,395.0,0.0,0.0,0.0,1.0,333.33500000000004,53.482,53.482,48.584,48.584,34.0,-28.2,19.534,-34.84,23.23,0.0,1782.803,0.3949999999999996,100.0,27.725,26.421,42.816,41.275,0.0,0.0,100.0,0.0,0.0,0.0,0.0,3121.5714285714284,2902.5,4212.666666666667,4087.3,305.2475,305.61625,314.54125,314.7395,21.799888888888887,20.5423,21.8504,21.3556,314.999998,314.999998,324.999988,324.999988,99.55701428571429,99.5073,99.56664285714285,99.54557142857144,-0.03275000000000006,-0.15500000000000003,-0.21799999999999997,0.00983333333333336,-0.045000000000001705,-0.06499999999999773,1.5070000000000001,1.5425,37.248999999999995,29.389499999999998,37.565,34.4725,55.532,34.6555,59.461,51.736000000000004,53.516,33.854,58.081,50.115,52.719,33.451499999999996,58.041,49.56,-0.03699999999999992,-0.10950000000000015,0.10024000000000001,0.11751500000000001,0.0,207.84,207.75,204.69666666666666,204.69666666666666,0.0,0.0
7,0.0,0.0,0.0,1.0,1.0,0.0,0.0,1.0,0.0,100.0,1.0,1.1856,26.0,0.0,0.0,0.0,63.999999,0.0,26.0,26.0,26.0,26.0,-0.12088888888888893,0.28080000000000016,0.00645,293.503,-2.5967000000000002,-2.800222222222222,-1.4994,-1.6306,-252.29,215.925,190.849125,0.0,0.0,0.0,0.0,0.015199999999999991,-5.498166666666667,-5.498166666666667,-0.5359,0.08650000000000002,-0.06499999999999995,1.0410000000000004,66.494,-0.099,-0.223475,0.8640000000000008,100.0,1.0,1.0,205.22333333333333,0.0,0.0,0.0,0.0,0.0,0.0,0.0,8698.7,0.0,55.0,5.0,239.35000000000002,1.0,0.0,0.0,0.0,0.0,0.0,0.0,0.0,0.3569999999999993,0.3569999999999993,0.0,0.0,1.0,55.0,616.79921,10000.0,85.000001,85.000001,85.000001,85.000001,395.0,0.0,0.0,0.0,1.0,166.665,53.07,53.07,49.010999999999996,49.010999999999996,34.0,-26.747500000000002,20.992,-31.906666666666666,23.1675,0.0,1782.751,0.10500000000000043,100.0,27.987000000000002,26.64,42.846000000000004,41.449,0.0,0.0,100.0,0.0,0.0,0.0,0.0,3140.4285714285716,2952.1,4016.3333333333335,3981.2,305.102,305.42375,315.00475,314.95925,21.810222222222222,20.5477,21.8615,21.365,314.999998,314.999998,324.999988,324.999988,99.55702857142857,99.50731666666667,99.5668,99.54571428571428,0.0030000000000001137,-0.128,-0.21166666666666656,0.011500000000000066,-0.04999999999999716,-0.060000000000002274,1.542,1.5644999999999998,37.314,29.423499999999997,37.635,34.5315,55.519,34.6995,59.5035,51.8005,53.503,33.894,58.1205,50.1765,52.706,33.49,58.0775,49.620333333333335,-0.0734999999999999,-0.08099999999999996,0.10613500000000001,0.10224000000000001,0.0,208.305,208.23000000000002,205.22333333333333,205.22333333333333,0.0,0.0
8,0.0,0.0,0.0,1.0,1.0,0.0,0.0,1.0,0.0,100.0,1.0,1.1856,26.0,0.0,0.0,0.0,63.999999,0.0,26.0,26.0,26.0,26.0,-0.0892222222222222,0.2905,-0.014525000000000001,293.564,-2.681,-2.7335555555555557,-1.4784000000000002,-1.6219000000000001,-248.9,215.905,190.828375,0.0,0.0,0.0,0.0,0.017166666666666552,-5.498166666666667,-5.498166666666667,-0.5379,-0.43799999999999994,-0.05544444444444441,-0.7679999999999998,66.64,-0.08020000000000001,-0.218475,0.47000000000000064,100.0,1.0,1.0,205.60666666666668,0.0,0.0,0.0,0.0,0.0,0.0,0.0,8714.9,0.0,55.0,5.0,239.87666666666667,0.0,0.0,0.0,0.0,0.0,0.0,0.0,0.0,0.40800000000000125,0.40800000000000125,0.0,0.0,0.0,55.0,616.79921,10000.0,85.000001,85.000001,85.000001,85.000001,395.0,0.0,0.0,0.0,1.0,166.665,53.558,53.558,48.477000000000004,48.477000000000004,34.0,-27.1525,20.15,-32.01,24.189999999999998,0.0,1782.7,-0.004999999999999005,100.0,27.387,26.758,42.814,41.677,0.0,0.0,100.0,0.0,0.0,0.0,0.0,3131.5714285714284,2890.1,4112.666666666667,4002.2,305.4745,305.5055,314.8145,314.81425,21.81988888888889,20.5529,21.8721,21.3739,314.999998,314.999998,324.999988,324.999988,99.55702857142857,99.50733333333334,99.56694285714286,99.54585714285714,-0.0015000000000000568,-0.125,-0.2005,0.027833333333333377,-0.06499999999999773,-0.04833333333333201,1.5286666666666666,1.5474999999999999,37.373999999999995,29.4555,37.701,34.587,55.503,34.739,59.5435,51.8615,53.488,33.9305,58.1575,50.2345,52.69,33.5245,58.112,49.67733333333334,-0.07450000000000001,-0.07050000000000001,0.11196500000000001,0.10562,0.0,208.73000000000002,208.685,205.60666666666668,205.60666666666668,0.0,0.0
9,0.0,0.0,0.0,1.0,1.0,0.0,0.0,1.0,0.0,100.0,1.0,1.1856,26.0,0.0,0.0,0.0,63.999999,0.0,26.0,26.0,26.0,26.0,-0.08055555555555549,0.28200000000000003,0.027625,293.304,-2.6029,-2.7415555555555557,-1.53395,-1.5730000000000002,-245.89,215.8875,190.809875,0.0,0.0,0.0,0.0,0.018899999999999917,-5.498166666666667,-5.498166666666667,-0.5384,0.499,-0.05566666666666675,0.9000000000000004,66.766,-0.06280000000000001,-0.214375,0.27200000000000024,100.0,1.0,1.0,206.06,0.0,0.0,0.0,0.0,0.0,0.0,0.0,8734.2,0.0,55.0,5.0,240.32999999999998,1.0,0.0,0.0,0.0,0.0,0.0,0.0,0.0,0.4529999999999994,0.4529999999999994,0.0,0.0,1.0,55.0,616.79921,10000.0,85.000001,85.000001,85.000001,85.000001,395.0,0.0,0.0,0.0,1.0,333.33500000000004,52.795,52.795,49.088,49.088,34.0,-26.59,22.418,-30.44,25.375,0.0,1782.654,-0.21499999999999986,100.0,27.954,26.851,42.626,41.57,0.0,0.0,100.0,0.0,0.0,0.0,0.0,3232.285714285714,3026.6,4024.6666666666665,4082.3,304.886,305.23775,315.034,314.774,21.828444444444443,20.5575,21.8813,21.3817,314.999998,314.999998,324.999988,324.999988,99.55702857142857,99.50733333333334,99.56707142857142,99.54598571428572,0.027000000000000135,-0.09466666666666657,-0.17216666666666658,0.056499999999999995,-0.03333333333333144,-0.05333333333332746,1.5470000000000002,1.5590000000000002,37.428,29.4845,37.757999999999996,34.635999999999996,55.492000000000004,34.775,59.576,51.914,53.477999999999994,33.963499999999996,58.188,50.285,52.679,33.556,58.14,49.726333333333336,-0.08349999999999991,-0.059499999999999886,0.10450000000000001,0.10827,0.0,209.125,209.10500000000002,206.06,206.06,0.0,0.0
10,0.0,0.0,0.0,1.0,1.0,0.0,0.0,1.0,0.0,100.0,1.0,1.1856,26.0,0.0,0.0,0.0,63.999999,0.0,26.0,26.0,26.0,26.0,-0.0411111111111111,0.28390000000000004,-0.007,293.243,-2.675,-2.737,-1.5061,-1.5501,-242.49,215.865,190.789125,0.0,0.0,0.0,0.0,0.02089999999999992,-5.498166666666667,-5.498166666666667,-0.5235000000000001,-0.4195,-0.02300000000000013,0.23800000000000043,66.912,-0.0438,-0.2097,0.019999999999999574,100.0,1.0,1.0,206.36333333333334,0.0,0.0,0.0,0.0,0.0,0.0,0.0,8747.1,0.0,55.0,5.0,240.85666666666668,0.0,0.0,0.0,0.0,0.0,0.0,1.0,0.0,0.5040000000000013,0.5040000000000013,0.0,0.0,0.0,55.0,616.79921,10000.0,85.000001,85.000001,85.000001,85.000001,395.0,0.0,0.0,0.0,1.0,166.665,53.558,53.558,48.111,48.111,34.0,-24.235,21.294,-31.796666666666667,26.700000000000003,0.0,1782.604,-0.3249999999999993,100.0,27.618,26.991,42.822,42.221000000000004,0.0,0.0,100.0,0.0,0.0,0.0,0.0,3019.857142857143,2819.4,4253.888888888889,4196.8,305.733,305.718,314.4935,314.371,21.838,20.5627,21.8919,21.3908,314.999998,314.999998,324.999988,324.999988,99.55702857142857,99.50735,99.56721428571429,99.54612857142857,0.0442499999999999,-0.08133333333333337,-0.16033333333333333,0.0625,-0.04333333333332945,-0.04833333333333201,1.492,1.4805000000000001,37.488,29.517,37.825,34.692499999999995,55.479,34.813,59.6165,51.977000000000004,53.465,33.998,58.226,50.3455,52.665,33.5895,58.1745,49.785666666666664,-0.10250000000000004,-0.04499999999999993,0.10601000000000001,0.10907000000000001,0.0,209.555,209.55,206.36333333333334,206.36333333333334,0.0,0.0
11,0.0,0.0,0.0,1.0,1.0,0.0,0.0,1.0,0.0,100.0,1.0,1.1856,26.0,0.0,0.0,0.0,63.999999,0.0,26.0,26.0,26.0,26.0,-0.031888888888888856,0.28070000000000017,-0.0577,293.671,-2.6835,-2.7182222222222223,-1.56365,-1.5207000000000002,-239.07,215.84,190.768375,0.0,0.0,0.0,0.0,0.022599999999999953,-5.498166666666667,-5.498166666666667,-0.5559000000000001,-0.12050000000000005,0.006000000000000005,0.6850000000000005,67.05199999999999,-0.0223,-0.22975,-0.2560000000000002,100.0,1.0,1.0,207.02666666666667,0.0,0.0,0.0,0.0,0.0,0.0,0.0,8775.1,0.0,55.0,5.0,241.36,1.0,0.0,0.0,0.0,0.0,0.0,1.0,0.0,0.5549999999999997,0.5549999999999997,0.0,0.0,1.0,55.0,616.79921,10000.0,85.000001,85.000001,85.000001,85.000001,395.0,0.0,0.0,0.0,1.0,333.33500000000004,53.192,53.192,49.24,49.24,34.0,-23.65,24.328,-26.336666666666666,25.55,0.0,1782.552,-0.33999999999999986,100.0,27.477,26.988,42.47,42.114000000000004,0.0,0.0,100.0,0.0,0.0,0.0,0.0,3029.0,3099.0,3793.222222222222,3942.9,305.542,305.00725,315.62525,315.12125,21.847555555555555,20.5681,21.9023,21.3997,314.999998,314.999998,324.999988,324.999988,99.55704285714286,99.50736666666667,99.56735714285715,99.54627142857143,0.0674999999999999,-0.05933333333333335,-0.12616666666666665,0.09850000000000003,-0.06666666666666998,-0.06499999999999773,1.6053333333333333,1.5989999999999998,37.547,29.5505,37.888999999999996,34.7485,55.466,34.8515,59.6515,52.037,53.452,34.034,58.2585,50.403,52.650999999999996,33.6235,58.204,49.842,-0.10399999999999987,-0.04899999999999993,0.11129000000000001,0.10397,0.0,209.985,210.005,207.02666666666667,207.02666666666667,0.0,0.0
12,0.0,0.0,0.0,1.0,1.0,0.0,0.0,1.0,0.0,100.0,1.0,1.1856,26.0,0.0,0.0,0.0,63.999999,0.0,26.0,26.0,26.0,26.0,-0.01244444444444448,0.2835000000000001,0.009725000000000001,293.152,-2.7077,-2.706666666666667,-1.53655,-1.5696,-235.85,215.8175,190.74775,0.0,0.0,0.0,0.0,0.025466666666666526,-5.498166666666667,-5.498166666666667,-0.544,0.30199999999999994,-0.0003333333333332966,0.8010000000000002,67.188,-0.0035,-0.20522500000000002,-0.3179999999999996,100.0,1.0,1.0,207.29000000000002,0.0,0.0,0.0,0.0,0.0,0.0,0.0,8786.2,0.0,55.0,5.0,241.8466666666667,0.0,0.0,0.0,0.0,0.0,0.0,1.0,0.0,0.602999999999998,0.602999999999998,0.0,0.0,0.0,55.0,616.79921,10000.0,85.000001,85.000001,85.000001,85.000001,395.0,0.0,0.0,0.0,1.0,333.33500000000004,53.024,53.024,48.263999999999996,48.263999999999996,34.0,-23.975,24.794,-28.576666666666668,29.8,0.0,1782.504,-0.18499999999999872,100.0,27.475,27.188,42.417,42.103,0.0,0.0,100.0,0.0,0.0,0.0,0.0,3052.285714285714,3136.3,4145.555555555556,4178.8,305.4565,304.90625,314.735,314.5365,21.856444444444445,20.5732,21.9121,21.4082,314.999998,314.999998,324.999988,324.999988,99.55704285714286,99.50736666666667,99.56748571428571,99.5464,0.07050000000000001,-0.05366666666666664,-0.11099999999999999,0.12416666666666676,-0.03999999999999915,-0.03833333333332689,1.5283333333333333,1.5124999999999997,37.602999999999994,29.582,37.951,34.801,55.454,34.888,59.6865,52.0945,53.441,34.067,58.291,50.458,52.638999999999996,33.6555,58.234,49.896,-0.08749999999999991,-0.05900000000000016,0.11393500000000001,0.109975,0.0,210.41500000000002,210.41500000000002,207.29000000000002,207.29000000000002,0.0,0.0
13,0.0,0.0,0.0,1.0,1.0,0.0,0.0,1.0,0.0,100.0,1.0,1.1856,26.0,0.0,0.0,0.0,63.999999,0.0,26.0,26.0,26.0,26.0,0.024222222222222145,0.28510000000000013,0.031175,292.77,-2.68835,-2.694111111111111,-1.57205,-1.5476,-232.42000000000002,215.79250000000002,190.726,0.0,0.0,0.0,0.0,0.026733333333333387,-5.498166666666667,-5.498166666666667,-0.5385,-0.15749999999999997,0.0006666666666665932,-0.43199999999999994,67.332,0.006200000000000001,-0.21382500000000002,-0.2939999999999996,100.0,1.0,1.0,207.64333333333332,0.0,0.0,0.0,0.0,0.0,0.0,0.0,8801.2,0.0,55.0,5.0,242.36333333333334,1.0,0.0,0.0,0.0,0.0,0.0,1.0,0.0,0.6539999999999999,0.6539999999999999,0.0,0.0,1.0,55.0,616.79921,10000.0,85.000001,85.000001,85.000001,85.000001,395.0,0.0,0.0,0.0,1.0,333.33500000000004,52.719,52.719,48.065,48.065,34.0,-23.485,24.552,-29.473333333333333,30.1025,0.0,1782.452,-0.46000000000000085,100.0,27.619,27.594,42.594,42.704,0.0,0.0,100.0,0.0,0.0,0.0,0.0,3170.714285714286,3030.4,4211.444444444444,4239.7,305.2655,305.0505,314.621,314.28475,21.866,20.5786,21.9227,21.4173,314.999998,314.999998,324.999988,324.999988,99.55705714285715,99.50736666666667,99.56762857142857,99.54654285714285,0.09775,-0.03833333333333333,-0.10733333333333339,0.1213333333333333,-0.060000000000002274,-0.03166666666666629,1.5056666666666667,1.492,37.662,29.616500000000002,38.016999999999996,34.858000000000004,55.443,34.926,59.7255,52.158,53.43,34.1025,58.327,50.5195,52.628,33.689,58.266999999999996,49.955666666666666,-0.11650000000000005,-0.03849999999999998,0.10662,0.11192500000000001,0.0,210.845,210.85000000000002,207.64333333333332,207.64333333333332,0.0,0.0
14,0.0,0.0,0.0,1.0,1.0,0.0,0.0,1.0,0.0,100.0,1.0,1.1856,26.0,0.0,0.0,0.0,63.999999,0.0,26.0,26.0,26.0,26.0,0.02933333333333321,0.27570000000000006,-0.0167,292.969,-2.7043,-2.7053333333333334,-1.57285,-1.5374,-228.98,215.76999999999998,190.70475,0.0,0.0,0.0,0.0,0.02873333333333339,-5.498166666666667,-5.498166666666667,-0.5504,-0.08450000000000002,0.02444444444444427,1.1349999999999998,67.471,0.016300000000000002,-0.22835,-0.4579999999999993,100.0,1.0,1.0,208.16666666666669,0.0,0.0,0.0,0.0,0.0,0.0,0.0,8823.5,0.0,55.0,5.0,242.87,0.0,0.0,0.0,0.0,0.0,0.0,1.0,0.0,0.7049999999999983,0.7049999999999983,0.0,0.0,0.0,55.0,616.79921,10000.0,85.000001,85.000001,85.000001,85.000001,395.0,0.0,0.0,0.0,1.0,166.665,52.719,52.719,48.309,48.309,34.0,-21.93,26.5,-26.483333333333334,29.605,0.0,1782.403,-0.48999999999999844,100.0,27.745,27.585,42.591,42.729,0.0,0.0,100.0,0.0,0.0,0.0,0.0,2981.0,3174.1,3969.4444444444443,4161.6,305.669,304.70725,315.14525,314.56475,21.875444444444444,20.5841,21.9332,21.4264,314.999998,314.999998,324.999988,324.999988,99.55707142857143,99.50738333333334,99.56778571428572,99.54668571428572,0.10400000000000009,-0.023666666666666614,-0.08899999999999997,0.1326666666666667,-0.03999999999999915,-0.04833333333333201,1.5443333333333333,1.5295,37.722,29.6505,38.082,34.915,55.432,34.964,59.7615,52.22,53.42,34.137,58.361,50.579,52.616,33.7225,58.2975,50.013999999999996,-0.11349999999999993,-0.03600000000000003,0.105065,0.10548500000000001,0.0,211.255,211.3,208.16666666666669,208.16666666666669,0.0,0.0
15,0.0,0.0,0.0,1.0,1.0,0.0,0.0,1.0,0.0,100.0,1.0,1.1856,26.0,0.0,0.0,0.0,63.999999,0.0,26.0,26.0,26.0,26.0,0.03944444444444439,0.2772000000000001,0.010725,292.877,-2.71025,-2.669,-1.5922,-1.5453000000000001,-225.74,215.7475,190.68425,0.0,0.0,0.0,0.0,0.0306333333333334,-5.498166666666667,-5.498166666666667,-0.5422,0.2835,0.04600000000000004,0.7830000000000004,67.604,0.024300000000000002,-0.211825,-0.516,100.0,1.0,1.0,208.54333333333335,0.0,0.0,0.0,0.0,0.0,0.0,0.0,8839.3,0.0,55.0,5.0,243.34666666666666,1.0,0.0,0.0,0.0,0.0,0.0,1.0,0.0,0.7530000000000001,0.7530000000000001,0.0,0.0,1.0,55.0,616.79921,10000.0,85.000001,85.000001,85.000001,85.000001,395.0,0.0,0.0,0.0,1.0,333.33500000000004,52.795,52.795,48.218,48.218,34.0,-20.857499999999998,26.294,-26.62,31.950000000000003,0.0,1782.354,-0.4250000000000007,100.0,27.782,27.7,42.471000000000004,42.862,0.0,0.0,100.0,0.0,0.0,0.0,0.0,2895.285714285714,3153.5,3991.3333333333335,4319.5,305.9355,304.76025,315.1225,314.146,21.884333333333334,20.5893,21.943,21.4349,314.999998,314.999998,324.999988,324.999988,99.55708571428572,99.50738333333334,99.56791428571428,99.54682857142858,0.11350000000000016,-0.016666666666666607,-0.08250000000000002,0.1463333333333332,-0.03999999999999915,-0.061666666666667425,1.528,1.5135,37.777,29.683,38.144,34.968,55.423,34.9995,59.7945,52.278999999999996,53.41,34.17,58.3915,50.6355,52.605999999999995,33.7535,58.3255,50.06966666666666,-0.10799999999999987,-0.03750000000000009,0.10730500000000001,0.10679000000000001,0.0,211.69,211.715,208.54333333333335,208.54333333333335,0.0,0.0
16,0.0,0.0,0.0,1.0,1.0,0.0,0.0,1.0,0.0,100.0,1.0,1.1856,26.0,0.0,0.0,0.0,63.999999,0.0,26.0,26.0,26.0,26.0,0.055222222222222284,0.2812000000000001,-0.016925000000000003,292.877,-2.77175,-2.617,-1.56545,-1.5459,-222.29,215.725,190.66225,0.0,0.0,0.0,0.0,0.0326333333333334,-5.498166666666667,-5.498166666666667,-0.5572,-0.577,0.028666666666666618,-1.1999999999999997,67.744,0.031400000000000004,-0.22460000000000002,-0.39200000000000035,100.0,1.0,1.0,208.95666666666668,0.0,0.0,0.0,0.0,0.0,0.0,0.0,8857.0,0.0,55.0,5.0,243.85333333333335,0.0,0.0,0.0,0.0,0.0,0.0,1.0,0.0,0.8039999999999985,0.8039999999999985,0.0,0.0,0.0,55.0,616.79921,10000.0,85.000001,85.000001,85.000001,85.000001,395.0,0.0,0.0,0.0,1.0,333.33500000000004,52.734,52.734,47.974000000000004,47.974000000000004,34.0,-23.6575,25.676000000000002,-26.47,29.73,0.0,1782.303,-0.3249999999999993,100.0,27.283,27.818,42.662,43.071,0.0,0.0,100.0,0.0,0.0,0.0,0.0,3142.142857142857,3140.5,4051.3333333333335,4070.6000000000004,305.469,304.72075,315.023,314.65675,21.893666666666668,20.5948,21.9535,21.444,314.999998,314.999998,324.999988,324.999988,99.5571,99.50738333333334,99.56805714285714,99.54697142857142,0.10325000000000006,-0.01966666666666661,-0.07966666666666666,0.14500000000000002,-0.030000000000001137,-0.05333333333332746,1.5463333333333333,1.5339999999999998,37.835,29.7175,38.209,35.025,55.41,35.037,59.832499999999996,52.341,53.397999999999996,34.205,58.4265,50.695499999999996,52.592,33.787,58.3575,50.128,-0.10599999999999987,-0.04499999999999993,0.10430500000000001,0.10879000000000001,0.0,212.09,212.13,208.95666666666668,208.95666666666668,0.0,0.0
17,0.0,0.0,0.0,1.0,1.0,0.0,0.0,1.0,0.0,100.0,1.0,1.1856,26.0,0.0,0.0,0.0,63.999999,0.0,26.0,26.0,26.0,26.0,0.02100000000000013,0.2801,0.013000000000000001,292.557,-2.7249,-2.6093333333333333,-1.6036000000000001,-1.5114,-218.82999999999998,215.70499999999998,190.639875,0.0,0.0,0.0,0.0,0.034633333333333294,-5.498166666666667,-5.498166666666667,-0.5493,0.3245,0.007111111111111068,0.5469999999999997,67.884,0.031200000000000002,-0.20852500000000002,-0.33999999999999986,100.0,1.0,1.0,209.35666666666668,0.0,0.0,0.0,0.0,0.0,0.0,0.0,8873.9,0.0,55.0,5.0,244.35000000000002,1.0,0.0,0.0,0.0,0.0,0.0,1.0,0.0,0.8550000000000004,0.8550000000000004,0.0,0.0,1.0,55.0,616.79921,10000.0,85.000001,85.000001,85.000001,85.000001,395.0,0.0,0.0,0.0,1.0,333.33500000000004,52.505,52.505,47.806,47.806,34.0,-22.66,25.794,-28.706666666666667,31.375,0.0,1782.253,-0.3000000000000007,100.0,27.881,27.781,42.631,42.891999999999996,0.0,0.0,100.0,0.0,0.0,0.0,0.0,3088.0,3172.4,4250.777777777777,4277.9,305.4135,304.81825,314.5705,314.342,21.903111111111112,20.6004,21.9639,21.453,314.999998,314.999998,324.999988,324.999988,99.5571,99.5074,99.5682,99.54711428571429,0.11125000000000007,-0.016666666666666607,-0.08050000000000002,0.15316666666666667,-0.041666666666671404,-0.04833333333333201,1.5266666666666666,1.5070000000000001,37.894,29.752499999999998,38.275,35.081,55.4,35.076,59.868,52.4025,53.388,34.2405,58.4595,50.754,52.582,33.821,58.3875,50.18566666666666,-0.10199999999999987,-0.05500000000000016,0.109325,0.10654000000000001,0.0,212.565,212.585,209.35666666666668,209.35666666666668,0.0,0.0
18,0.0,0.0,0.0,1.0,1.0,0.0,0.0,1.0,0.0,100.0,1.0,1.1856,26.0,0.0,0.0,0.0,63.999999,0.0,26.0,26.0,26.0,26.0,0.013111111111111073,0.2824,-0.0026750000000000003,292.45,-2.74245,-2.5955555555555554,-1.6058,-1.4708,-215.57,215.685,190.61875,0.0,0.0,0.0,0.0,0.03653333333333331,-5.498166666666667,-5.498166666666667,-0.56,-0.4515,0.016666666666666607,0.9790000000000001,68.014,0.028,-0.22262500000000002,-0.2599999999999998,100.0,1.0,1.0,209.75666666666666,0.0,0.0,0.0,0.0,0.0,0.0,0.0,8890.8,0.0,55.0,5.0,244.82333333333332,0.0,0.0,0.0,0.0,0.0,0.0,1.0,0.0,0.9029999999999987,0.9029999999999987,0.0,0.0,0.0,55.0,616.79921,10000.0,85.000001,85.000001,85.000001,85.000001,395.0,0.0,0.0,0.0,1.0,166.665,52.322,52.322,47.699,47.699,34.0,-23.105,26.768,-28.293333333333333,30.1525,0.0,1782.205,-0.3299999999999983,100.0,27.809,27.729,42.923,43.164,0.0,0.0,100.0,0.0,0.0,0.0,0.0,3124.4285714285716,3305.7,4127.222222222223,4231.1,305.345,304.4595,314.80775,314.4265,21.91188888888889,20.6055,21.9739,21.4616,314.999998,314.999998,324.999988,324.999988,99.55711428571429,99.5074,99.56834285714285,99.54725714285715,0.11125000000000007,-0.019000000000000017,-0.08950000000000002,0.14900000000000002,-0.046666666666666856,-0.04333333333332945,1.5236666666666667,1.5219999999999998,37.949,29.7845,38.337,35.135,55.388999999999996,35.111,59.9035,52.4615,53.378,34.272999999999996,58.493,50.811,52.57,33.852000000000004,58.417500000000004,50.24133333333333,-0.10199999999999987,-0.052999999999999936,0.11179000000000001,0.11339,0.0,212.945,212.945,209.75666666666666,209.75666666666666,0.0,0.0
19,0.0,0.0,0.0,1.0,1.0,0.0,0.0,1.0,0.0,100.0,1.0,1.1856,26.0,0.0,0.0,0.0,63.999999,0.0,26.0,26.0,26.0,26.0,0.03922222222222227,0.27770000000000006,0.06465,292.084,-2.6644,-2.6935555555555557,-1.5415,-1.5892000000000002,-211.89,215.66500000000002,190.59475,0.0,0.0,0.0,0.0,0.038666666666666516,-5.498166666666667,-5.498166666666667,-0.5498000000000001,0.706,0.026555555555555665,0.6850000000000005,68.16,0.024,-0.2129,-0.2920000000000007,100.0,1.0,1.0,210.17666666666668,0.0,0.0,0.0,0.0,0.0,0.0,0.0,8908.5,0.0,55.0,5.0,245.34666666666666,1.0,0.0,0.0,0.0,0.0,0.0,1.0,0.0,0.9570000000000007,0.9570000000000007,0.0,0.0,1.0,55.0,616.79921,10000.0,85.000001,85.000001,85.000001,85.000001,395.0,0.0,0.0,0.0,1.0,166.665,51.987,51.987,47.607,47.607,34.0,-21.8175,26.398,-27.66,33.6125,0.0,1782.151,-0.29499999999999815,100.0,28.364,28.265,42.805,43.230000000000004,0.0,0.0,100.0,0.0,0.0,0.0,0.0,3035.142857142857,3178.8,4160.0,4420.1,305.4735,304.62,314.70925,313.85575,21.921888888888887,20.6115,21.9849,21.4712,314.999998,314.999998,324.999988,324.999988,99.55714285714286,99.5074,99.56848571428571,99.54741428571428,0.11025000000000018,-0.027666666666666617,-0.08599999999999997,0.14366666666666683,-0.03333333333333144,-0.061666666666667425,1.4893333333333334,1.4785,38.012,29.822,38.406,35.195,55.379999999999995,35.153,59.9405,52.527,53.369,34.312,58.527,50.8745,52.56,33.8895,58.448499999999996,50.303666666666665,-0.10599999999999987,-0.05650000000000022,0.10578000000000001,0.11141500000000001,0.0,213.435,213.45499999999998,210.17666666666668,210.17666666666668,0.0,0.0
20,0.0,0.0,0.0,1.0,1.0,0.0,0.0,1.0,0.0,100.0,1.0,1.1856,26.0,0.0,0.0,0.0,63.999999,0.0,26.0,26.0,26.0,26.0,0.043333333333333224,0.24930000000000008,-0.02375,292.358,-2.7586,-2.648111111111111,-1.5434999999999999,-1.5809,-208.41,215.6475,190.572375,0.0,0.0,0.0,0.0,0.04069999999999996,-5.498166666666667,-5.498166666666667,-0.5577,-0.9884999999999999,0.017222222222222028,-1.0070000000000001,68.298,0.0227,-0.22735000000000002,-0.17799999999999905,100.0,1.0,1.0,210.59333333333333,0.0,0.0,0.0,0.0,0.0,0.0,0.0,8926.2,0.0,55.0,5.0,245.84666666666666,0.0,0.0,0.0,0.0,0.0,0.0,0.0,0.0,1.0079999999999991,1.0079999999999991,0.0,0.0,0.0,55.0,616.79921,10000.0,85.000001,85.000001,85.000001,85.000001,395.0,0.0,0.0,0.0,1.0,166.665,52.536,52.536,47.272,47.272,34.0,-23.53,24.38,-28.003333333333334,30.302500000000002,0.0,1782.1,-0.23499999999999943,100.0,27.771,28.14,43.337,43.775999999999996,0.0,0.0,100.0,0.0,0.0,0.0,0.0,3113.142857142857,3042.2,4143.444444444444,4066.5,305.573,305.02375,314.763,314.62575,21.93111111111111,20.617,21.9956,21.4805,314.999998,314.999998,324.999988,324.999988,99.55715714285714,99.5074,99.56862857142858,99.54755714285714,0.09724999999999984,-0.03600000000000003,-0.09533333333333338,0.14183333333333326,-0.061666666666667425,-0.04833333333333201,1.4953333333333334,1.487,38.07,29.8565,38.472,35.253,55.367000000000004,35.191,59.9795,52.5905,53.357,34.3465,58.5635,50.935,52.547,33.9225,58.482,50.363,-0.09799999999999986,-0.06199999999999983,0.11350500000000001,0.111585,0.0,213.835,213.815,210.59333333333333,210.59333333333333,0.0,0.0
21,0.0,0.0,0.0,1.0,1.0,0.0,0.0,1.0,0.0,100.0,1.0,1.1856,26.0,0.0,0.0,0.0,63.999999,0.0,26.0,26.0,26.0,26.0,0.010555555555555651,0.26970000000000005,-0.076125,292.618,-2.7249499999999998,-2.6562222222222225,-1.6139999999999999,-1.5348000000000002,-205.32999999999998,215.6325,190.552125,0.0,0.0,0.0,0.0,0.04249999999999998,-5.498166666666667,-5.498166666666667,-0.5752,0.22899999999999998,0.00855555555555565,0.47299999999999986,68.416,0.019700000000000002,-0.2243,-0.2560000000000002,100.0,1.0,1.0,211.10000000000002,0.0,0.0,0.0,0.0,0.0,0.0,0.0,8947.7,0.0,55.0,5.0,246.26999999999998,1.0,0.0,0.0,0.0,0.0,0.0,0.0,0.0,1.0530000000000008,1.0530000000000008,0.0,0.0,1.0,55.0,616.79921,10000.0,85.000001,85.000001,85.000001,85.000001,395.0,0.0,0.0,0.0,1.0,333.33500000000004,52.368,52.368,48.111,48.111,34.0,-22.7825,25.582,-27.043333333333333,28.439999999999998,0.0,1782.053,-0.28999999999999915,100.0,28.08,27.98,42.975,43.264,0.0,0.0,100.0,0.0,0.0,0.0,0.0,3083.285714285714,3158.0,4010.1111111111113,4038.7,305.4275,304.878,315.16325,314.90425,21.939333333333334,20.622,22.0047,21.4884,314.999998,314.999998,324.999988,324.999988,99.55715714285714,99.5074,99.56875714285714,99.54768571428572,0.1080000000000001,-0.028666666666666618,-0.08833333333333337,0.1346666666666667,-0.041666666666671404,-0.06333333333333258,1.5859999999999999,1.573,38.120999999999995,29.8875,38.528999999999996,35.3025,55.358000000000004,35.225,60.0085,52.641999999999996,53.348,34.378,58.5905,50.985,52.537,33.9525,58.506,50.41166666666666,-0.10399999999999987,-0.05500000000000016,0.10833000000000001,0.09947,0.0,214.20499999999998,214.22500000000002,211.10000000000002,211.10000000000002,0.0,0.0
22,0.0,0.0,0.0,1.0,1.0,0.0,0.0,1.0,0.0,100.0,1.0,1.1856,26.0,0.0,0.0,0.0,63.999999,0.0,26.0,26.0,26.0,26.0,0.03822222222222216,0.2734000000000001,0.005875,292.297,-2.6602,-2.703444444444444,-1.60765,-1.5233,-201.84,215.615,190.528375,0.0,0.0,0.0,0.0,0.044533333333333314,-5.498166666666667,-5.498166666666667,-0.5568000000000001,0.08550000000000002,0.014222222222222136,-0.508,68.555,0.0178,-0.202,-0.18599999999999994,100.0,1.0,1.0,211.3466666666667,0.0,0.0,0.0,0.0,0.0,0.0,0.0,8958.2,0.0,55.0,5.0,246.76666666666665,0.0,0.0,0.0,0.0,0.0,0.0,0.0,0.0,1.1039999999999992,1.1039999999999992,0.0,0.0,0.0,55.0,616.79921,10000.0,85.000001,85.000001,85.000001,85.000001,395.0,0.0,0.0,0.0,1.0,166.665,52.658,52.658,47.119,47.119,34.0,-21.59,24.22,-29.91333333333333,30.96,0.0,1782.004,-0.370000000000001,100.0,27.919,28.168,43.089,43.489000000000004,0.0,0.0,100.0,0.0,0.0,0.0,0.0,2991.714285714286,2989.8,4299.222222222223,4313.4,305.8025,305.10025,314.48675,314.18125,21.948666666666668,20.6276,22.0152,21.4976,314.999998,314.999998,324.999988,324.999988,99.55717142857142,99.50741666666667,99.5689,99.54784285714285,0.10124999999999984,-0.04266666666666663,-0.09283333333333332,0.13283333333333336,-0.03999999999999915,-0.05333333333332746,1.5063333333333333,1.496,38.179,29.9225,38.595,35.3595,55.347,35.2635,60.0465,52.704499999999996,53.338,34.4135,58.6255,51.045,52.525999999999996,33.987,58.538,50.47,-0.10250000000000004,-0.05699999999999994,0.10379500000000001,0.10906500000000001,0.0,214.64,214.65,211.3466666666667,211.3466666666667,0.0,0.0
23,0.0,0.0,0.0,1.0,1.0,0.0,0.0,1.0,0.0,100.0,1.0,1.1856,26.0,0.0,0.0,0.0,63.999999,0.0,26.0,26.0,26.0,26.0,0.014777777777777779,0.26370000000000005,-0.02185,292.175,-2.6891,-2.658333333333333,-1.65795,-1.5001,-198.34,215.5975,190.504875,0.0,0.0,0.0,0.0,0.046566666666666534,-5.498166666666667,-5.498166666666667,-0.5739000000000001,-0.23249999999999993,0.014999999999999902,0.5549999999999997,68.689,0.017,-0.2257,-0.2400000000000002,100.0,1.0,1.0,211.86333333333334,0.0,0.0,0.0,0.0,0.0,0.0,0.0,8980.0,0.0,55.0,5.0,247.25333333333333,1.0,0.0,0.0,0.0,0.0,0.0,0.0,0.0,1.1550000000000011,1.1550000000000011,0.0,0.0,1.0,55.0,616.79921,10000.0,85.000001,85.000001,85.000001,85.000001,395.0,0.0,0.0,0.0,1.0,333.33500000000004,51.849000000000004,51.849000000000004,47.882,47.882,34.0,-23.857499999999998,26.132,-27.99,28.8625,0.0,1781.951,-0.36499999999999844,100.0,28.27,28.119,43.301,43.623000000000005,0.0,0.0,100.0,0.0,0.0,0.0,0.0,3245.0,3204.7,4052.6666666666665,4114.1,304.9985,304.6945,315.07175,314.7515,21.958,20.6332,22.0257,21.5068,314.999998,314.999998,324.999988,324.999988,99.55718571428571,99.50741666666667,99.56905714285715,99.54798571428572,0.10650000000000004,-0.028000000000000025,-0.08583333333333332,0.13616666666666677,-0.03333333333333144,-0.05333333333332746,1.553,1.5255,38.238,29.9575,38.661,35.417500000000004,55.337,35.3025,60.082499999999996,52.766999999999996,53.328,34.4495,58.659,51.105000000000004,52.513999999999996,34.021,58.5685,50.528666666666666,-0.11050000000000004,-0.051000000000000156,0.100445,0.101675,0.0,215.01999999999998,215.055,211.86333333333334,211.86333333333334,0.0,0.0
24,0.0,0.0,0.0,1.0,1.0,0.0,0.0,1.0,0.0,100.0,1.0,1.1856,26.0,0.0,0.0,0.0,63.999999,0.0,26.0,26.0,26.0,26.0,0.01866666666666661,0.27859999999999996,-0.0409,292.404,-2.7113,-2.668111111111111,-1.5804,-1.5282,-195.04,215.58249999999998,190.482375,0.0,0.0,0.0,0.0,0.04846666666666655,-5.498166666666667,-5.498166666666667,-0.5812,-0.38949999999999996,0.025222222222222035,1.1550000000000002,68.81700000000001,0.0176,-0.219025,-0.29600000000000026,100.0,1.0,1.0,212.18333333333334,0.0,0.0,0.0,0.0,0.0,0.0,0.0,8993.7,0.0,55.0,5.0,247.71333333333334,0.0,0.0,0.0,0.0,0.0,0.0,0.0,0.0,1.2029999999999994,1.2029999999999994,0.0,0.0,0.0,55.0,616.79921,10000.0,85.000001,85.000001,85.000001,85.000001,395.0,0.0,0.0,0.0,1.0,166.665,52.795,52.795,47.256,47.256,34.0,-21.2175,25.189999999999998,-28.64333333333333,30.335,0.0,1781.905,-0.41499999999999915,100.0,28.073999999999998,27.873,43.307,43.556,0.0,0.0,100.0,0.0,0.0,0.0,0.0,2917.5714285714284,3085.1,4213.111111111111,4218.9,305.894,305.099,314.578,314.47075,21.966666666666665,20.6384,22.0355,21.5154,314.999998,314.999998,324.999988,324.999988,99.5572,99.50743333333334,99.56918571428571,99.54811428571429,0.10999999999999988,-0.024333333333333318,-0.08766666666666656,0.13783333333333325,-0.045000000000001705,-0.03833333333332689,1.5203333333333333,1.5145,38.292,29.990000000000002,38.722,35.471000000000004,55.327,35.3375,60.1165,52.8245,53.318,34.482,58.6905,51.16,52.503,34.052,58.597,50.583,-0.11199999999999988,-0.04600000000000026,0.10552,0.104525,0.0,215.425,215.445,212.18333333333334,212.18333333333334,0.0,0.0
25,0.0,0.0,0.0,1.0,1.0,0.0,0.0,1.0,0.0,100.0,1.0,1.1856,26.0,0.0,0.0,0.0,63.999999,0.0,26.0,26.0,26.0,26.0,0.034777777777777796,0.2533000000000001,-0.029875000000000002,292.297,-2.7591,-2.6225555555555555,-1.59745,-1.5311000000000001,-191.53,215.5675,190.457125,0.0,0.0,0.0,0.0,0.05053333333333332,-5.498166666666667,-5.498166666666667,-0.6045,-0.052999999999999936,0.028555555555555667,-0.9180000000000001,68.95,0.0201,-0.220925,-0.33000000000000007,100.0,1.0,1.0,212.68666666666667,0.0,0.0,0.0,0.0,0.0,0.0,0.0,9015.0,0.0,55.0,5.0,248.19,1.0,0.0,0.0,0.0,0.0,0.0,0.0,0.0,1.2540000000000013,1.2540000000000013,0.0,0.0,1.0,55.0,616.79921,10000.0,85.000001,85.000001,85.000001,85.000001,395.0,0.0,0.0,0.0,1.0,333.33500000000004,51.941,51.941,47.897,47.897,34.0,-25.09,26.402,-27.0,29.2325,0.0,1781.854,-0.3999999999999986,100.0,27.794,28.195,42.961,43.42,0.0,0.0,100.0,0.0,0.0,0.0,0.0,3296.5714285714284,3258.1,4000.777777777778,4095.9,305.0445,304.38825,315.19525,314.72125,21.97588888888889,20.6441,22.0459,21.5244,314.999998,314.999998,324.999988,324.999988,99.55721428571428,99.50743333333334,99.56934285714286,99.54827142857143,0.09925000000000006,-0.030000000000000027,-0.09133333333333338,0.1363333333333332,-0.054999999999999716,-0.03333333333333144,1.5646666666666667,1.5295,38.349000000000004,30.0255,38.787,35.5275,55.315,35.376,60.1505,52.884,53.306,34.516999999999996,58.7225,51.2175,52.491,34.086,58.6255,50.638999999999996,-0.10549999999999993,-0.045500000000000096,0.10653000000000001,0.104275,0.0,215.85500000000002,215.835,212.68666666666667,212.68666666666667,0.0,0.0
26,0.0,0.0,0.0,1.0,1.0,0.0,0.0,1.0,0.0,100.0,1.0,1.1856,26.0,0.0,0.0,0.0,63.999999,0.0,26.0,26.0,26.0,26.0,0.037555555555555786,0.2783,0.085675,291.29,-2.68645,-2.7184444444444447,-1.62325,-1.5188000000000001,-188.01,215.555,190.4315,0.0,0.0,0.0,0.0,0.05256666666666654,-5.498166666666667,-5.498166666666667,-0.5736,0.5509999999999999,0.018888888888888955,0.7679999999999998,69.086,0.0236,-0.199975,-0.41999999999999993,100.0,1.0,1.0,212.87333333333333,0.0,0.0,0.0,0.0,0.0,0.0,0.0,9022.9,0.0,55.0,5.0,248.68,0.0,0.0,0.0,0.0,0.0,0.0,0.0,0.0,1.3049999999999997,1.3049999999999997,0.0,0.0,0.0,55.0,616.79921,10000.0,85.000001,85.000001,85.000001,85.000001,395.0,0.0,0.0,0.0,1.0,333.33500000000004,51.59,51.59,46.387,46.387,34.0,-22.4075,26.356,-31.426666666666666,34.16,0.0,1781.801,-0.41000000000000014,100.0,28.776,28.667,43.496,43.781,0.0,0.0,100.0,0.0,0.0,0.0,0.0,3113.285714285714,3164.1,4505.444444444444,4546.8,305.296,304.74725,313.95325,313.679,21.985333333333333,20.6499,22.0564,21.5337,314.999998,314.999998,324.999988,324.999988,99.55722857142857,99.50743333333334,99.56948571428572,99.54841428571429,0.1160000000000001,-0.029000000000000026,-0.0781666666666666,0.15000000000000013,-0.03999999999999915,-0.054999999999999716,1.443,1.4325,38.408,30.061500000000002,38.852999999999994,35.585499999999996,55.307,35.4185,60.191,52.951,53.298,34.5565,58.76,51.282,52.480999999999995,34.1235,58.6595,50.702,-0.11349999999999993,-0.051000000000000156,0.11074,0.112445,0.0,216.285,216.32,212.87333333333333,212.87333333333333,0.0,0.0
27,0.0,0.0,0.0,1.0,1.0,0.0,0.0,1.0,0.0,100.0,1.0,1.1856,26.0,0.0,0.0,0.0,63.999999,0.0,26.0,26.0,26.0,26.0,0.04266666666666685,0.24870000000000014,-0.03295,291.794,-2.70765,-2.657222222222222,-1.5910000000000002,-1.6104,-184.69,215.54250000000002,190.408375,0.0,0.0,0.0,0.0,0.05449999999999999,-5.498166666666667,-5.498166666666667,-0.5946,-0.9625000000000001,0.02400000000000002,0.7030000000000003,69.21000000000001,0.024800000000000003,-0.2384,-0.40200000000000014,100.0,1.0,1.0,213.37,0.0,0.0,0.0,0.0,0.0,0.0,0.0,9044.0,0.0,55.0,5.0,249.13,1.0,0.0,0.0,0.0,0.0,0.0,0.0,0.0,1.352999999999998,1.352999999999998,0.0,0.0,1.0,55.0,616.79921,10000.0,85.000001,85.000001,85.000001,85.000001,395.0,0.0,0.0,0.0,1.0,166.665,51.971000000000004,51.971000000000004,46.661,46.661,34.0,-21.37,26.664,-27.583333333333332,31.425,0.0,1781.755,-0.41499999999999915,100.0,28.441,28.546,43.998000000000005,44.278999999999996,0.0,0.0,100.0,0.0,0.0,0.0,0.0,2967.5714285714284,3233.6,4093.0,4120.0,305.7485,304.618,314.861,314.618,21.994,20.6552,22.0664,21.5425,314.999998,314.999998,324.999988,324.999988,99.55724285714285,99.50743333333334,99.56962857142857,99.54855714285715,0.1160000000000001,-0.021666666666666612,-0.08099999999999996,0.14766666666666683,-0.03499999999999659,-0.04333333333332945,1.496,1.475,38.462,30.095,38.915,35.6405,55.297,35.4525,60.2245,53.0065,53.288,34.588,58.791,51.335499999999996,52.471000000000004,34.1535,58.688,50.754,-0.11250000000000004,-0.05049999999999999,0.10408,0.10964000000000002,0.0,216.615,216.65,213.37,213.37,0.0,0.0
28,0.0,0.0,0.0,1.0,1.0,0.0,0.0,1.0,0.0,100.0,1.0,1.1856,26.0,0.0,0.0,0.0,63.999999,0.0,26.0,26.0,26.0,26.0,0.055333333333333234,0.2692000000000001,-0.066775,291.992,-2.691,-2.6470000000000002,-1.6318000000000001,-1.5612000000000001,-181.16,215.53,190.383,0.0,0.0,0.0,0.0,0.056533333333333324,-5.498166666666667,-5.498166666666667,-0.6042000000000001,0.5720000000000001,0.00855555555555565,-0.8289999999999997,69.34,0.027200000000000002,-0.220475,-0.3860000000000001,100.0,1.0,1.0,213.89333333333332,0.0,0.0,0.0,0.0,0.0,0.0,0.0,9066.1,0.0,55.0,5.0,249.59666666666666,0.0,0.0,0.0,0.0,0.0,0.0,0.0,0.0,1.404,1.404,0.0,0.0,0.0,55.0,616.79921,10000.0,85.000001,85.000001,85.000001,85.000001,395.0,0.0,0.0,0.0,1.0,166.665,51.804,51.804,47.607,47.607,34.0,-22.82,25.556,-27.586666666666666,29.752499999999998,0.0,1781.703,-0.4499999999999993,100.0,28.417,28.663,43.313,43.853,0.0,0.0,100.0,0.0,0.0,0.0,0.0,3185.142857142857,3107.5,4076.5555555555557,4085.6000000000004,305.2515,304.8075,315.094,314.759,22.00322222222222,20.661,22.0767,21.5516,314.999998,314.999998,324.999988,324.999988,99.55725714285714,99.50745,99.56977142857143,99.5487,0.11699999999999999,-0.023333333333333317,-0.08366666666666656,0.14200000000000013,-0.03499999999999659,-0.05333333333332746,1.5696666666666665,1.5474999999999999,38.519999999999996,30.131,38.979,35.6975,55.288,35.492,60.257,53.065,53.278999999999996,34.624,58.821,51.3915,52.461,34.1885,58.7145,50.809,-0.121,-0.045500000000000096,0.10883000000000001,0.10068,0.0,217.05,217.09,213.89333333333332,213.89333333333332,0.0,0.0
29,0.0,0.0,0.0,1.0,1.0,0.0,0.0,1.0,0.0,100.0,1.0,1.1856,26.0,0.0,0.0,0.0,63.999999,0.0,26.0,26.0,26.0,26.0,0.06666666666666687,0.2639,-0.005425,291.824,-2.67695,-2.700555555555556,-1.5826500000000001,-1.5390000000000001,-177.41,215.51749999999998,190.355125,0.0,0.0,0.0,0.0,0.058733333333333304,-5.498166666666667,-5.498166666666667,-0.6053000000000001,-0.7,0.010999999999999899,-0.685,69.483,0.0303,-0.21630000000000002,-0.4239999999999995,100.0,1.0,1.0,214.15,0.0,0.0,0.0,0.0,0.0,0.0,0.0,9077.0,0.0,55.0,5.0,250.11,1.0,0.0,0.0,0.0,0.0,0.0,0.0,0.0,1.4579999999999984,1.4579999999999984,0.0,0.0,1.0,55.0,616.79921,10000.0,85.000001,85.000001,85.000001,85.000001,395.0,0.0,0.0,0.0,1.0,166.665,52.277,52.277,46.86,46.86,34.0,-22.0225,25.57,-28.14,31.9725,0.0,1781.65,-0.46000000000000085,100.0,28.049,28.486,43.678,44.162,0.0,0.0,100.0,0.0,0.0,0.0,0.0,3104.714285714286,3035.6,4178.111111111111,4274.8,305.5795,304.98475,314.725,314.22025,22.012888888888888,20.6669,22.0879,21.5614,314.999998,314.999998,324.999988,324.999988,99.55727142857143,99.50745,99.56992857142858,99.54887142857143,0.11500000000000021,-0.019000000000000017,-0.08083333333333331,0.14900000000000002,-0.05333333333332746,-0.026666666666670835,1.4809999999999999,1.4695,38.58,30.1685,39.049,35.759,55.275999999999996,35.5315,60.297,53.131,53.268,34.6605,58.8585,51.4555,52.448,34.223,58.7485,50.87133333333333,-0.11050000000000004,-0.038000000000000256,0.10319500000000001,0.11463500000000001,0.0,217.48000000000002,217.49,214.15,214.15,0.0,0.0
30,0.0,0.0,0.0,1.0,1.0,0.0,0.0,1.0,0.0,100.0,1.0,1.1856,26.0,0.0,0.0,0.0,63.999999,0.0,26.0,26.0,26.0,26.0,0.05566666666666675,0.25029999999999997,0.03895,291.214,-2.68835,-2.5917777777777777,-1.5575,-1.5918,-174.28,215.51,190.33175,0.0,0.0,0.0,0.0,0.06053333333333333,-5.498166666666667,-5.498166666666667,-0.6071000000000001,0.7615,0.011666666666666714,0.3860000000000001,69.595,0.0313,-0.22012500000000002,-0.492,100.0,1.0,1.0,214.61666666666667,0.0,0.0,0.0,0.0,0.0,0.0,0.0,9096.8,0.0,55.0,5.0,250.51999999999998,0.0,0.0,0.0,0.0,0.0,0.0,1.0,0.0,1.5030000000000001,1.5030000000000001,0.0,0.0,0.0,55.0,616.79921,10000.0,85.000001,85.000001,85.000001,85.000001,395.0,0.0,0.0,0.0,1.0,166.665,50.568,50.568,47.256,47.256,34.0,-23.7625,27.887999999999998,-26.593333333333334,31.6425,0.0,1781.605,-0.46000000000000085,100.0,29.048000000000002,29.065,43.552,44.062,0.0,0.0,100.0,0.0,0.0,0.0,0.0,3295.142857142857,3377.5,4044.8888888888887,4156.0,304.687,303.98425,315.06625,314.564,22.02111111111111,20.6722,22.097,21.569499999999998,314.999998,314.999998,324.999988,324.999988,99.55728571428571,99.50745,99.57005714285714,99.549,0.12199999999999989,-0.016666666666666607,-0.08199999999999996,0.15416666666666679,-0.05666666666667197,-0.05666666666667197,1.5236666666666667,1.5099999999999998,38.632,30.2015,39.105999999999995,35.8095,55.269999999999996,35.568,60.326499999999996,53.185,53.262,34.6945,58.8855,51.507,52.441,34.2555,58.772999999999996,50.92166666666667,-0.11549999999999994,-0.0495000000000001,0.11313000000000001,0.10996,0.0,217.85500000000002,217.885,214.61666666666667,214.61666666666667,0.0,0.0
31,0.0,0.0,0.0,1.0,1.0,0.0,0.0,1.0,0.0,100.0,1.0,1.1856,26.0,0.0,0.0,0.0,63.999999,0.0,26.0,26.0,26.0,26.0,0.03644444444444428,0.24829999999999997,0.037175,290.833,-2.77225,-2.6246666666666667,-1.6468,-1.4938,-170.51999999999998,215.5025,190.304375,0.0,0.0,0.0,0.0,0.06273333333333331,-5.498166666666667,-5.498166666666667,-0.5887,-0.4385000000000001,0.016555555555555657,0.7750000000000004,69.736,0.0335,-0.221275,-0.4560000000000004,100.0,1.0,1.0,214.86,0.0,0.0,0.0,0.0,0.0,0.0,0.0,9107.2,0.0,55.0,5.0,251.02666666666664,1.0,0.0,0.0,0.0,0.0,0.0,1.0,0.0,1.5569999999999986,1.5569999999999986,0.0,0.0,1.0,55.0,616.79921,10000.0,85.000001,85.000001,85.000001,85.000001,395.0,0.0,0.0,0.0,1.0,166.665,51.086,51.086,45.746,45.746,34.0,-22.6825,28.322,-29.38,32.4625,0.0,1781.55,-0.5249999999999986,100.0,28.927,29.091,44.361000000000004,44.753,0.0,0.0,100.0,0.0,0.0,0.0,0.0,3132.142857142857,3396.7,4270.888888888889,4353.0,305.3635,304.1875,314.40525,314.06975,22.03088888888889,20.6784,22.1083,21.5796,314.999998,314.999998,324.999988,324.999988,99.5573,99.50745,99.57021428571429,99.54915714285714,0.12924999999999986,-0.011666666666666603,-0.0678333333333333,0.15466666666666673,-0.03999999999999915,-0.06666666666666998,1.455,1.4329999999999998,38.693,30.240000000000002,39.177,35.872,55.260999999999996,35.61,60.368,53.253,53.253,34.7335,58.9245,51.5725,52.431,34.292500000000004,58.808,50.98566666666667,-0.123,-0.04700000000000015,0.10623,0.10505,0.0,218.26999999999998,218.3,214.86,214.86,0.0,0.0
32,0.0,0.0,0.0,1.0,1.0,0.0,0.0,1.0,0.0,100.0,1.0,1.1856,26.0,0.0,0.0,0.0,63.999999,0.0,26.0,26.0,26.0,26.0,0.04577777777777792,0.2639,-0.039825,291.275,-2.7045,-2.676555555555556,-1.5928499999999999,-1.5421,-167.16,215.495,190.2805,0.0,0.0,0.0,0.0,0.06466666666666654,-5.498166666666667,-5.498166666666667,-0.6053000000000001,-0.19999999999999996,0.002555555555555644,0.4219999999999997,69.856,0.0362,-0.23065000000000002,-0.5539999999999994,100.0,1.0,1.0,215.3466666666667,0.0,0.0,0.0,0.0,0.0,0.0,0.0,9127.7,0.0,55.0,5.0,251.45666666666665,0.0,0.0,0.0,0.0,0.0,0.0,1.0,0.0,1.6050000000000004,1.6050000000000004,0.0,0.0,0.0,55.0,616.79921,10000.0,85.000001,85.000001,85.000001,85.000001,395.0,0.0,0.0,0.0,1.0,333.33500000000004,51.513999999999996,51.513999999999996,46.463,46.463,34.0,-21.455,27.168,-27.083333333333336,32.99,0.0,1781.501,-0.5,100.0,28.797,28.983,44.127,44.602000000000004,0.0,0.0,100.0,0.0,0.0,0.0,0.0,3060.0,3213.0,4134.888888888889,4335.4,305.4795,304.655,314.777,314.25525,22.039444444444445,20.6839,22.1181,21.5883,314.999998,314.999998,324.999988,324.999988,99.55731428571428,99.50746666666667,99.57035714285715,99.5493,0.13175000000000026,-0.01100000000000001,-0.0655,0.16333333333333333,-0.03166666666666629,-0.06333333333333258,1.5126666666666666,1.4914999999999998,38.747,30.274,39.238,35.9265,55.251999999999995,35.647,60.4005,53.31,53.244,34.7675,58.954499999999996,51.6275,52.421,34.3255,58.835,51.039,-0.121,-0.04349999999999987,0.10743000000000001,0.110045,0.0,218.635,218.675,215.3466666666667,215.3466666666667,0.0,0.0
33,0.0,0.0,0.0,1.0,1.0,0.0,0.0,1.0,0.0,100.0,1.0,1.1856,26.0,0.0,0.0,0.0,63.999999,0.0,26.0,26.0,26.0,26.0,0.05966666666666676,0.25870000000000015,-0.066675,291.58,-2.73455,-2.673222222222222,-1.59645,-1.5831000000000002,-163.81,215.49,190.2555,0.0,0.0,0.0,0.0,0.06663333333333332,-5.498166666666667,-5.498166666666667,-0.6137,-0.1995,-0.0014444444444445814,0.9359999999999999,69.97800000000001,0.038400000000000004,-0.217175,-0.5120000000000005,100.0,1.0,1.0,215.73000000000002,0.0,0.0,0.0,0.0,0.0,0.0,0.0,9144.1,0.0,55.0,5.0,251.89333333333335,1.0,0.0,0.0,0.0,0.0,0.0,1.0,0.0,1.6529999999999987,1.6529999999999987,0.0,0.0,1.0,55.0,616.79921,10000.0,85.000001,85.000001,85.000001,85.000001,395.0,0.0,0.0,0.0,1.0,333.33500000000004,51.894999999999996,51.894999999999996,46.814,46.814,34.0,-21.3825,26.344,-27.103333333333335,32.5325,0.0,1781.453,-0.48499999999999943,100.0,28.607,28.723,43.949,44.436,0.0,0.0,100.0,0.0,0.0,0.0,0.0,3054.714285714286,3136.6,4120.333333333333,4229.0,305.5785,304.893,314.861,314.46375,22.048111111111112,20.6892,22.1279,21.596899999999998,314.999998,314.999998,324.999988,324.999988,99.55732857142857,99.50746666666667,99.57048571428571,99.54944285714285,0.13675000000000015,-0.01200000000000001,-0.0678333333333333,0.16166666666666685,-0.021666666666668277,-0.06666666666666998,1.5083333333333333,1.5025,38.801,30.307499999999997,39.299,35.9805,55.242999999999995,35.682,60.433,53.3665,53.236000000000004,34.8,58.9845,51.6815,52.411,34.356,58.862,51.092,-0.12349999999999994,-0.040999999999999925,0.10215,0.11106,0.0,219.01,219.05,215.73000000000002,215.73000000000002,0.0,0.0
34,0.0,0.0,0.0,1.0,1.0,0.0,0.0,1.0,0.0,100.0,1.0,1.1856,26.0,0.0,0.0,0.0,63.999999,0.0,26.0,26.0,26.0,26.0,0.05788888888888888,0.25690000000000013,-0.05645,291.87,-2.6788,-2.663222222222222,-1.63425,-1.5453000000000001,-160.24,215.485,190.2275,0.0,0.0,0.0,0.0,0.06869999999999998,-5.498166666666667,-5.498166666666667,-0.6392,-0.871,0.020888888888888957,-0.2709999999999999,70.107,0.040400000000000005,-0.22062500000000002,-0.44599999999999973,100.0,1.0,1.0,216.10333333333335,0.0,0.0,0.0,0.0,0.0,0.0,0.0,9159.8,0.0,55.0,5.0,252.36,0.0,0.0,0.0,0.0,0.0,0.0,1.0,0.0,1.7040000000000006,1.7040000000000006,0.0,0.0,0.0,55.0,616.79921,10000.0,85.000001,85.000001,85.000001,85.000001,395.0,0.0,0.0,0.0,1.0,166.665,52.383,52.383,47.15,47.15,34.0,-21.74,24.852,-27.856666666666666,31.05,0.0,1781.404,-0.47499999999999787,100.0,28.162,28.493000000000002,43.733000000000004,44.56,0.0,0.0,100.0,0.0,0.0,0.0,0.0,3081.0,2983.5,4127.666666666667,4180.7,305.665,305.1625,314.91475,314.488,22.057111111111112,20.6948,22.1382,21.6062,314.999998,314.999998,324.999988,324.999988,99.55734285714286,99.50746666666667,99.57064285714286,99.5496,0.11724999999999985,-0.016666666666666607,-0.0738333333333333,0.14883333333333337,-0.045000000000001705,-0.046666666666666856,1.52,1.5019999999999998,38.857,30.3425,39.364000000000004,36.039,55.232,35.718,60.467,53.4275,53.224999999999994,34.833,59.016,51.7405,52.4,34.388,58.89,51.14966666666667,-0.11499999999999999,-0.03849999999999998,0.10899,0.10754000000000001,0.0,219.4,219.42000000000002,216.10333333333335,216.10333333333335,0.0,0.0
35,0.0,0.0,0.0,1.0,1.0,0.0,0.0,1.0,0.0,100.0,1.0,1.1856,26.0,0.0,0.0,0.0,63.999999,0.0,26.0,26.0,26.0,26.0,0.052999999999999936,0.2571000000000001,-0.09757500000000001,291.87,-2.7362,-2.6117777777777778,-1.54855,-1.5732000000000002,-156.66,215.48250000000002,190.19775,0.0,0.0,0.0,0.0,0.07079999999999997,-5.498166666666667,-5.498166666666667,-0.6778000000000001,-0.2330000000000001,0.007444444444444365,-0.09600000000000009,70.23400000000001,0.0413,-0.22717500000000002,-0.5,100.0,1.0,1.0,216.57666666666665,0.0,0.0,0.0,0.0,0.0,0.0,0.0,9179.8,0.0,55.0,5.0,252.81666666666666,1.0,0.0,0.0,0.0,0.0,0.0,1.0,0.0,1.754999999999999,1.754999999999999,0.0,0.0,1.0,55.0,616.79921,10000.0,85.000001,85.000001,85.000001,85.000001,395.0,0.0,0.0,0.0,1.0,333.33500000000004,51.819,51.819,46.814,46.814,34.0,-21.89,28.458,-25.663333333333334,30.567500000000003,0.0,1781.352,-0.35999999999999943,100.0,28.089,28.63,43.542,43.982,0.0,0.0,100.0,0.0,0.0,0.0,0.0,3042.714285714286,3400.8,4077.1111111111113,4058.6000000000004,305.582,304.1,315.029,314.93625,22.066,20.7007,22.1485,21.6153,314.999998,314.999998,324.999988,324.999988,99.55737142857143,99.50748333333334,99.57078571428572,99.54974285714286,0.12424999999999997,-0.009000000000000008,-0.0648333333333333,0.16199999999999992,-0.03333333333333144,-0.051666666666669414,1.5623333333333334,1.5430000000000001,38.912,30.3795,39.428,36.096000000000004,55.22,35.757,60.4995,53.485,53.214,34.869,59.0465,51.796,52.387,34.423,58.917,51.20366666666666,-0.10899999999999999,-0.052000000000000046,0.10955000000000001,0.103995,0.0,219.79500000000002,219.82,216.57666666666665,216.57666666666665,0.0,0.0
