,ABS Active,ABS Enabled,AID Allow Tire Blankets,AID Auto Blip,AID Auto Clutch,AID Auto Shift,AID Fuel Rate,AID Ideal Line,AID Mech Damage,AID Stability,AID Tire Wear Rate,Air Density,Air Temp,Ballast,Best Lap Delta,Best Lap Time,Brake Bias,Brake Pos,Brake Temp FL,Brake Temp FR,Brake Temp RL,Brake Temp RR,CG Accel Lateral,CG Accel Longitudinal,CG Accel Vertical,CG Height,Camber FL,Camber FR,Camber RL,Camber RR,Car Coord X,Car Coord Y,Car Coord Z,Car Damage Front,Car Damage Left,Car Damage Rear,Car Damage Right,Car Pos Norm,Caster FL,Caster FR,Chassis Pitch Angle,Chassis Pitch Rate,Chassis Roll Angle,Chassis Roll Rate,Chassis Velocity X,Chassis Velocity Y,Chassis Velocity Z,Chassis Yaw Rate,Clutch Pos,DRS Active,DRS Available,Drive Train Speed,ERS Heat Charging,ERS Is Charging,ERS Max Energy,ERS Power Level,ERS Recovery Level,Engine Brake Setting,Engine Limiter,Engine RPM,Flags,Fuel Level,Gear,Ground Speed,HR Sample Clock,In Pit,KERS Charge,KERS Deployed Energy,KERS Input,KERS Max Energy,LR Sample Clock,Lap Invalidated,Lap Time,Lap Time2,Last Lap Time,Last Sector Time,MR Sample Clock,Max Fuel,Max Power,Max RPM,Max Sus Travel FL,Max Sus Travel FR,Max Sus Travel RL,Max Sus Travel RR,Max Torque,Max Turbo Boost,Num Tires Off Track,Penalties Enabled,Position,Raw Data Sample Rate,Ride Height FL,Ride Height FR,Ride Height RL,Ride Height RR,Road Temp,Self Align Torque FL,Self Align Torque FR,Self Align Torque RL,Self Align Torque RR,Session Lap Count,Session Time Left,Steering Angle,Surface Grip,Suspension Travel FL,Suspension Travel FR,Suspension Travel RL,Suspension Travel RR,TC Active,TC Enabled,Throttle Pos,Tire Dirt Level FL,Tire Dirt Level FR,Tire Dirt Level RL,Tire Dirt Level RR,Tire Load FL,Tire Load FR,Tire Load RL,Tire Load RR,Tire Loaded Radius FL,Tire Loaded Radius FR,Tire Loaded Radius RL,Tire Loaded Radius RR,Tire Pressure FL,Tire Pressure FR,Tire Pressure RL,Tire Pressure RR,Tire Radius FL,Tire Radius FR,Tire Radius RL,Tire Radius RR,Tire Rubber Grip FL,Tire Rubber Grip FR,Tire Rubber Grip RL,Tire Rubber Grip RR,Tire Slip Angle FL,Tire Slip Angle FR,Tire Slip Angle RL,Tire Slip Angle RR,Tire Slip Ratio FL,Tire Slip Ratio FR,Tire Slip Ratio RL,Tire Slip Ratio RR,Tire Temp Core FL,Tire Temp Core FR,Tire Temp Core RL,Tire Temp Core RR,Tire Temp Inner FL,Tire Temp Inner FR,Tire Temp Inner RL,Tire Temp Inner RR,Tire Temp Middle FL,Tire Temp Middle FR,Tire Temp Middle RL,Tire Temp Middle RR,Tire Temp Outer FL,Tire Temp Outer FR,Tire Temp Outer RL,Tire Temp Outer RR,Toe In FL,Toe In FR,Toe In RL,Toe In RR,Turbo Boost,Wheel Angular Speed FL,Wheel Angular Speed FR,Wheel Angular Speed RL,Wheel Angular Speed RR,Wind Direction,Wind Speed
0,0.0,0.0,0.0,1.0,1.0,0.0,0.0,1.0,0.0,100.0,1.0,1.1856,26.0,0.0,0.0,0.0,63.99999,0.0,26.0,26.0,26.0,26.0,-0.096125,0.29980000000000007,0.04392,293.915,-2.7116,-2.488375,-1.50655,-1.538,-275.66,216.06,190.9875,0.0,0.0,0.0,0.0,0.0015999999999999348,-5.498166666666667,-5.498166666666667,-0.5486,1.84,-0.015555555555555767,-0.31699999999999995,65.493,-0.0448,-0.21335,0.7799999999999994,100.0,1.0,1.0,202.2,0.0,0.0,0.0,0.0,0.0,0.0,0.0,8570.6,0.0,55.0,5.0,235.74333333333334,0.0,0.0,0.0,0.0,0.0,0.0,0.0,0.0,0.0030000000000001137,0.0030000000000001137,0.0,0.0,0.0,55.0,616.79921,10000.0,85.0,85.0,85.0,85.0,395.0,0.0,0.0,0.0,1.0,20.0,52.475,52.475,49.408,49.408,34.0,-27.744999999999997,23.053333333333335,-30.599999999999998,24.6125,0.0,1782.881,0.6950000000000003,100.0,27.239,26.762999999999998,40.528,40.174,0.0,0.0,100.0,0.0,0.0,0.0,0.0,3111.714285714286,3571.8,4120.625,4065.0,305.252,303.39325,314.8195,314.745,21.7685,20.5146,21.7659,21.309,314.99999,314.99999,324.99998,324.99998,99.55841428571429,99.50725,99.5647,99.54492857142857,-0.005749999999999922,-0.12366666666666659,-0.16700000000000004,0.055500000000000105,-0.03499999999999659,-0.05833333333333002,1.5453333333333332,1.593,37.053,29.216,37.037,34.1815,56.117999999999995,34.4745,58.8935,51.4895,54.048,33.6565,57.5265,49.857,53.224000000000004,33.231,57.49,49.28633333333333,-0.020000000000000018,-0.12400000000000011,0.11006,0.10211,0.0,205.255,205.175,202.2,202.2,0.0,0.0
1,0.0,0.0,0.0,1.0,1.0,0.0,0.0,1.0,0.0,100.0,1.0,1.1856,26.0,0.0,0.0,0.0,63.999999,0.0,26.0,26.0,26.0,26.0,-0.12275,0.3126,0.19588,293.274,-2.6494,-2.8062500000000004,-1.52045,-1.3723,-272.32,216.065,190.967625,0.0,0.0,0.0,0.0,0.0035333333333333883,-5.498166666666667,-5.498166666666667,-0.4867,-0.9905,-0.06111111111111134,-0.8840000000000001,65.648,-0.0529,-0.18665,1.2599999999999998,100.0,1.0,1.0,202.32999999999998,0.0,0.0,0.0,0.0,0.0,0.0,0.0,8576.1,0.0,55.0,5.0,236.3,1.0,0.0,0.0,0.0,0.0,0.0,0.0,0.0,0.053999999999998494,0.053999999999998494,0.0,0.0,1.0,55.0,616.79921,10000.0,85.000001,85.000001,85.000001,85.000001,395.0,0.0,0.0,0.0,1.0,166.665,54.291,54.291,48.34,48.34,34.0,-26.9,16.965,-34.57666666666667,26.84,0.0,1782.832,0.9050000000000011,100.0,27.221,26.65,42.698,41.746,0.0,0.0,100.0,0.0,0.0,0.0,0.0,3044.5714285714284,2541.0,4376.625,4787.5,305.6265,306.802,314.0995,312.849,21.7783,20.5196,21.776699999999998,21.3182,314.999998,314.999998,324.999988,324.999988,99.55842857142858,99.50726666666667,99.56485714285714,99.54507142857143,-0.02124999999999999,-0.14500000000000002,-0.1755,0.03600000000000003,-0.06333333333333258,-0.03833333333332689,1.3706666666666667,1.4165,37.114000000000004,29.247500000000002,37.104,34.239,56.101,34.5145,58.94,51.5565,54.032,33.6935,57.57,49.921,53.208,33.266,57.531,49.349333333333334,0.0,-0.14250000000000007,0.10368000000000001,0.11259500000000001,0.0,205.685,205.585,202.32999999999998,202.32999999999998,0.0,0.0
2,0.0,0.0,0.0,1.0,1.0,0.0,0.0,1.0,0.0,100.0,1.0,1.1856,26.0,0.0,0.0,0.0,63.999999,0.0,26.0,26.0,26.0,26.0,-0.146875,0.2835000000000001,-0.09988,294.083,-2.591,-2.7963750000000003,-1.4894,-1.6462,-268.96,216.0675,190.94875,0.0,0.0,0.0,0.0,0.005499999999999949,-5.498166666666667,-5.498166666666667,-0.5546,0.146,-0.05755555555555558,2.6390000000000002,65.788,-0.07100000000000001,-0.25220000000000004,1.6479999999999997,100.0,1.0,1.0,203.36333333333334,0.0,0.0,0.0,0.0,0.0,0.0,0.0,8619.8,0.0,55.0,5.0,236.81,0.0,0.0,0.0,0.0,0.0,0.0,0.0,0.0,0.10500000000000043,0.10500000000000043,0.0,0.0,0.0,55.0,616.79921,10000.0,85.000001,85.000001,85.000001,85.000001,395.0,0.0,0.0,0.0,1.0,166.665,52.689,52.689,50.613,50.613,34.0,-30.2175,19.68,-28.46,19.5175,0.0,1782.78,0.8949999999999996,100.0,28.17,26.559,42.402,41.06,0.0,0.0,100.0,0.0,0.0,0.0,0.0,3340.714285714286,2962.1,3687.875,3537.5,304.5025,305.4975,315.78925,316.185,21.7884,20.5246,21.787,21.3268,314.999998,314.999998,324.999988,324.999988,99.55842857142858,99.50728333333333,99.56498571428571,99.5452,-0.03125,-0.15800000000000003,-0.21933333333333338,0.010333333333333306,-0.06499999999999773,-0.07000000000000028,1.6576666666666666,1.729,37.178,29.2785,37.169,34.292500000000004,56.089,34.5535,58.9775,51.6115,54.021,33.7295,57.605000000000004,49.974000000000004,53.196,33.3005,57.563,49.400999999999996,-0.00550000000000006,-0.14550000000000018,0.1062,0.10483500000000001,0.0,206.155,205.99,203.36333333333334,203.36333333333334,0.0,0.0
3,0.0,0.0,0.0,1.0,1.0,0.0,0.0,1.0,0.0,100.0,1.0,1.1856,26.0,0.0,0.0,0.0,63.999999,0.0,26.0,26.0,26.0,26.0,-0.147375,0.29790000000000005,0.07816000000000001,293.442,-2.6357,-2.6995,-1.49715,-1.5833000000000002,-265.8,216.0675,190.929875,0.0,0.0,0.0,0.0,0.007333333333333303,-5.498166666666667,-5.498166666666667,-0.5067,0.5185,-0.018000000000000238,0.118,65.93299999999999,-0.0916,-0.19305,1.3740000000000006,100.0,1.0,1.0,203.4,0.0,0.0,0.0,0.0,0.0,0.0,0.0,8621.3,0.0,55.0,5.0,237.32666666666665,1.0,0.0,0.0,0.0,0.0,0.0,0.0,0.0,0.1529999999999987,0.1529999999999987,0.0,0.0,1.0,55.0,616.79921,10000.0,85.000001,85.000001,85.000001,85.000001,395.0,0.0,0.0,0.0,1.0,166.665,53.528,53.528,48.141,48.141,34.0,-26.497500000000002,18.163333333333334,-35.53666666666666,24.605,0.0,1782.733,0.8599999999999994,100.0,27.781,26.778,42.38,41.198,0.0,0.0,100.0,0.0,0.0,0.0,0.0,2958.857142857143,2904.4,4350.125,4264.5,305.8205,305.57925,314.18525,314.30675,21.7976,20.5295,21.7968,21.3352,314.999998,314.999998,324.999988,324.999988,99.55844285714285,99.5073,99.56512857142857,99.54534285714286,-0.03424999999999989,-0.16633333333333333,-0.21183333333333332,0.012499999999999956,-0.054999999999999716,-0.05333333333332746,1.4506666666666668,1.5305,37.235,29.308999999999997,37.230000000000004,34.345,56.075,34.5945,59.015,51.6715,54.007,33.7675,57.6405,50.0315,53.182,33.337,57.5955,49.45766666666667,-0.012499999999999956,-0.14449999999999985,0.10874,0.110475,0.0,206.625,206.505,203.4,203.4,0.0,0.0
4,0.0,0.0,0.0,1.0,1.0,0.0,0.0,1.0,0.0,100.0,1.0,1.1856,26.0,0.0,0.0,0.0,63.999999,0.0,26.0,26.0,26.0,26.0,-0.156,0.2946,0.00428,293.716,-2.6612,-2.791125,-1.43295,-1.5998,-262.44,216.0625,190.910375,0.0,0.0,0.0,0.0,0.009299999999999975,-5.498166666666667,-5.498166666666667,-0.5357000000000001,-0.8265,-0.08566666666666656,-1.8650000000000002,66.08,-0.0983,-0.232825,1.5640000000000018,100.0,1.0,1.0,203.96,0.0,0.0,0.0,0.0,0.0,0.0,0.0,8645.2,0.0,55.0,5.0,237.85666666666668,0.0,0.0,0.0,0.0,0.0,0.0,0.0,0.0,0.20400000000000063,0.20400000000000063,0.0,0.0,0.0,55.0,616.79921,10000.0,85.000001,85.000001,85.000001,85.000001,395.0,0.0,0.0,0.0,1.0,333.33500000000004,53.406,53.406,48.676,48.676,34.0,-30.945,17.935000000000002,-33.95333333333333,20.0075,0.0,1782.681,0.9200000000000017,100.0,27.413,26.591,42.83,41.436,0.0,0.0,100.0,0.0,0.0,0.0,0.0,3305.285714285714,2821.6,4221.75,3714.9,304.9435,305.693,314.586,315.53275,21.807299999999998,20.5345,21.8074,21.3441,314.999998,314.999998,324.999988,324.999988,99.55844285714285,99.50731666666667,99.56527142857144,99.54548571428572,-0.05249999999999999,-0.18033333333333335,-0.23416666666666663,-0.006833333333333358,-0.05666666666667197,-0.01833333333333087,1.5413333333333332,1.604,37.296,29.3405,37.296,34.400999999999996,56.06,34.6365,59.0585,51.732,53.992999999999995,33.806,57.681,50.0895,53.166,33.3735,57.6335,49.51433333333333,-0.00649999999999995,-0.1419999999999999,0.110045,0.102845,0.0,207.01,206.875,203.96,203.96,0.0,0.0
5,0.0,0.0,0.0,1.0,1.0,0.0,0.0,1.0,0.0,100.0,1.0,1.1856,26.0,0.0,0.0,0.0,63.999999,0.0,26.0,26.0,26.0,26.0,-0.165125,0.3053000000000001,-0.03082,293.869,-2.6641,-2.76925,-1.4999,-1.6348,-259.06,216.0525,190.89025,0.0,0.0,0.0,0.0,0.011266666666666536,-5.498166666666667,-5.498166666666667,-0.5365,0.395,-0.08911111111111136,0.987,66.226,-0.1085,-0.21425000000000002,1.5299999999999994,100.0,1.0,1.0,204.44666666666666,0.0,0.0,0.0,0.0,0.0,0.0,0.0,8665.7,0.0,55.0,5.0,238.38333333333333,1.0,0.0,0.0,0.0,0.0,0.0,0.0,0.0,0.254999999999999,0.254999999999999,0.0,0.0,1.0,55.0,616.79921,10000.0,85.000001,85.000001,85.000001,85.000001,395.0,0.0,0.0,0.0,1.0,166.665,53.619,53.619,49.254999999999995,49.254999999999995,34.0,-28.755,18.221666666666668,-33.656666666666666,22.62,0.0,1782.631,0.625,100.0,27.784,26.323,42.623000000000005,40.893,0.0,0.0,100.0,0.0,0.0,0.0,0.0,3130.857142857143,2829.8,4095.75,4011.0,305.224,305.8825,314.86625,314.94275,21.8173,20.5395,21.8178,21.3528,314.999998,314.999998,324.999988,324.999988,99.55845714285714,99.50733333333334,99.56541428571428,99.54561428571428,-0.03574999999999995,-0.16433333333333333,-0.235,-0.0001666666666666483,-0.06499999999999773,-0.054999999999999716,1.5496666666666667,1.604,37.358000000000004,29.372,37.361000000000004,34.455,56.048,34.678,59.0985,51.7885,53.980999999999995,33.844,57.7185,50.144,53.153999999999996,33.41,57.6685,49.56733333333334,-0.03200000000000003,-0.121,0.102345,0.12083500000000001,0.0,207.51,207.375,204.44666666666666,204.44666666666666,0.0,0.0
6,0.0,0.0,0.0,1.0,1.0,0.0,0.0,1.0,0.0,100.0,1.0,1.1856,26.0,0.0,0.0,0.0,63.999999,0.0,26.0,26.0,26.0,26.0,-0.177,0.2954000000000001,0.00708,293.533,-2.6198,-2.815125,-1.53455,-1.5893000000000002,-255.88,216.04250000000002,190.870625,0.0,0.0,0.0,0.0,0.0131,-5.498166666666667,-5.498166666666667,-0.5281,0.0845,-0.08211111111111125,0.675,66.364,-0.1131,-0.20750000000000002,1.2440000000000015,100.0,1.0,1.0,204.78333333333333,0.0,0.0,0.0,0.0,0.0,0.0,0.0,8680.1,0.0,55.0,5.0,238.88333333333333,0.0,0.0,0.0,0.0,0.0,0.0,0.0,0.0,0.3030000000000008,0.3030000000000008,0.0,0.0,0.0,55.0,616.79921,10000.0,85.000001,85.000001,85.000001,85.000001,395.0,0.0,0.0,0.0,1.0,333.33500000000004,53.345,53.345,48.66,48.66,34.0,-28.7675,19.619999999999997,-34.92666666666666,21.795,0.0,1782.581,0.490000000000002,100.0,27.793,26.436,42.854,41.204,0.0,0.0,100.0,0.0,0.0,0.0,0.0,3159.4285714285716,2913.7,4178.25,4053.5,305.139,305.56875,314.631,314.82925,21.8265,20.5443,21.8276,21.3612,314.999998,314.999998,324.999988,324.999988,99.55845714285714,99.50735,99.56555714285714,99.54575714285714,-0.038000000000000034,-0.15666666666666662,-0.23116666666666663,-0.013000000000000012,-0.03833333333332689,-0.051666666666669414,1.5263333333333333,1.564,37.416,29.402,37.423,34.507,56.035,34.7175,59.138,51.8465,53.969,33.879999999999995,57.7555,50.199,53.141,33.4445,57.7025,49.62166666666667,-0.03349999999999986,-0.10950000000000015,0.10378000000000001,0.09892500000000001,0.0,207.925,207.825,204.78333333333333,204.78333333333333,0.0,0.0
7,0.0,0.0,0.0,1.0,1.0,0.0,0.0,1.0,0.0,100.0,1.0,1.1856,26.0,0.0,0.0,0.0,63.999999,0.0,26.0,26.0,26.0,26.0,-0.130125,0.29100000000000015,0.018480000000000003,293.35,-2.5905,-2.80725,-1.4913,-1.6387,-252.49,216.025,190.85025,0.0,0.0,0.0,0.0,0.015066666666666562,-5.498166666666667,-5.498166666666667,-0.5357000000000001,-0.037,-0.07677777777777806,-0.2230000000000001,66.51,-0.1037,-0.224475,1.040000000000001,100.0,1.0,1.0,205.24333333333334,0.0,0.0,0.0,0.0,0.0,0.0,0.0,8699.5,0.0,55.0,5.0,239.40666666666667,1.0,0.0,0.0,0.0,0.0,0.0,0.0,0.0,0.3539999999999992,0.3539999999999992,0.0,0.0,1.0,55.0,616.79921,10000.0,85.000001,85.000001,85.000001,85.000001,395.0,0.0,0.0,0.0,1.0,166.665,52.917,52.917,48.935,48.935,34.0,-29.435000000000002,19.895,-33.58,22.4625,0.0,1782.532,0.13500000000000156,100.0,27.905,26.715,42.84,41.502,0.0,0.0,100.0,0.0,0.0,0.0,0.0,3322.714285714286,2874.0,4112.75,3954.4,304.765,305.46875,314.806,314.9435,21.8365,20.5494,21.8382,21.3701,314.999998,314.999998,324.999988,324.999988,99.55845714285714,99.50736666666667,99.5657,99.54588571428572,-0.02400000000000002,-0.14600000000000002,-0.22916666666666663,-0.0018333333333333535,-0.054999999999999716,-0.051666666666669414,1.5303333333333333,1.5789999999999997,37.477999999999994,29.433999999999997,37.488,34.563,56.022,34.7585,59.18,51.9075,53.957,33.918,57.7945,50.2575,53.128,33.4805,57.739,49.678333333333335,-0.0605,-0.08349999999999991,0.103495,0.11041500000000001,0.0,208.365,208.265,205.24333333333334,205.24333333333334,0.0,0.0
8,0.0,0.0,0.0,1.0,1.0,0.0,0.0,1.0,0.0,100.0,1.0,1.1856,26.0,0.0,0.0,0.0,63.999999,0.0,26.0,26.0,26.0,26.0,-0.095,0.29069999999999996,0.028460000000000003,293.51800000000003,-2.6712,-2.7403750000000002,-1.47465,-1.6261,-249.1,216.005,190.829625,0.0,0.0,0.0,0.0,0.017066666666666563,-5.498166666666667,-5.498166666666667,-0.5369,-0.4835,-0.056111111111111445,0.734,66.656,-0.0888,-0.21652500000000002,0.4740000000000002,100.0,1.0,1.0,205.63666666666666,0.0,0.0,0.0,0.0,0.0,0.0,0.0,8716.1,0.0,55.0,5.0,239.93333333333334,0.0,0.0,0.0,0.0,0.0,0.0,0.0,0.0,0.40500000000000114,0.40500000000000114,0.0,0.0,0.0,55.0,616.79921,10000.0,85.000001,85.000001,85.000001,85.000001,395.0,0.0,0.0,0.0,1.0,333.33500000000004,53.619,53.619,48.325,48.325,34.0,-25.560000000000002,20.895,-31.613333333333333,25.145,0.0,1782.479,-0.004999999999999005,100.0,27.652,26.566,42.952,41.532,0.0,0.0,100.0,0.0,0.0,0.0,0.0,2986.142857142857,2969.9,4110.0,4114.2,305.718,305.45875,314.72225,314.61525,21.8462,20.5546,21.8486,21.379,314.999998,314.999998,324.999988,324.999988,99.55845714285714,99.5074,99.56584285714285,99.54604285714285,0.006250000000000089,-0.11866666666666659,-0.1898333333333334,0.030666666666666842,-0.04999999999999716,-0.06333333333333258,1.51,1.5434999999999999,37.538,29.466,37.554,34.619,56.006,34.7985,59.221000000000004,51.9675,53.941,33.954499999999996,57.833,50.315,53.111000000000004,33.5155,57.7745,49.735,-0.0734999999999999,-0.06899999999999995,0.105135,0.10928,0.0,208.785,208.745,205.63666666666666,205.63666666666666,0.0,0.0
9,0.0,0.0,0.0,1.0,1.0,0.0,0.0,1.0,0.0,100.0,1.0,1.1856,26.0,0.0,0.0,0.0,63.999999,0.0,26.0,26.0,26.0,26.0,-0.0725,0.2922,-0.0071400000000000005,293.182,-2.5968,-2.741375,-1.528,-1.5759,-245.69,215.98250000000002,190.8085,0.0,0.0,0.0,0.0,0.019033333333333347,-5.498166666666667,-5.498166666666667,-0.539,0.6175,-0.06355555555555581,-0.40700000000000003,66.799,-0.0695,-0.21457500000000002,0.38200000000000145,100.0,1.0,1.0,206.16,0.0,0.0,0.0,0.0,0.0,0.0,0.0,8738.4,0.0,55.0,5.0,240.44666666666666,1.0,0.0,0.0,0.0,0.0,0.0,0.0,0.0,0.4559999999999995,0.4559999999999995,0.0,0.0,1.0,55.0,616.79921,10000.0,85.000001,85.000001,85.000001,85.000001,395.0,0.0,0.0,0.0,1.0,166.665,52.582,52.582,49.072,49.072,34.0,-27.64,21.21333333333333,-31.286666666666665,23.7,0.0,1782.43,-0.17999999999999972,100.0,28.022,27.102,42.606,41.661,0.0,0.0,100.0,0.0,0.0,0.0,0.0,3356.4285714285716,2924.8,4100.625,4027.2,304.6705,305.373,314.9395,314.848,21.856099999999998,20.5599,21.859,21.3879,314.999998,314.999998,324.999988,324.999988,99.55847142857142,99.5074,99.56598571428572,99.54617142857143,0.02475000000000005,-0.10799999999999998,-0.18066666666666664,0.030833333333333268,-0.030000000000001137,-0.04833333333333201,1.557,1.58,37.599999999999994,29.499000000000002,37.619,34.674,55.992000000000004,34.839,59.259,52.027,53.928,33.992,57.8685,50.372,53.097,33.5515,57.8075,49.790333333333336,-0.09099999999999997,-0.06099999999999994,0.10196000000000001,0.10633000000000001,0.0,209.215,209.2,206.16,206.16,0.0,0.0
10,0.0,0.0,0.0,1.0,1.0,0.0,0.0,1.0,0.0,100.0,1.0,1.1856,26.0,0.0,0.0,0.0,63.999999,0.0,26.0,26.0,26.0,26.0,-0.043375000000000004,0.28390000000000004,-0.0070599999999999994,293.091,-2.6689,-2.741625,-1.5044,-1.5689000000000002,-242.48,215.96,190.789,0.0,0.0,0.0,0.0,0.02089999999999992,-5.498166666666667,-5.498166666666667,-0.5217,-0.405,-0.026222222222222147,0.356,66.937,-0.0477,-0.209125,0.016000000000000014,100.0,1.0,1.0,206.42000000000002,0.0,0.0,0.0,0.0,0.0,0.0,0.0,8749.4,0.0,55.0,5.0,240.94,0.0,0.0,0.0,0.0,0.0,0.0,1.0,0.0,0.5040000000000013,0.5040000000000013,0.0,0.0,0.0,55.0,616.79921,10000.0,85.000001,85.000001,85.000001,85.000001,395.0,0.0,0.0,0.0,1.0,166.665,53.482,53.482,47.882,47.882,34.0,-23.945,20.848333333333333,-32.583333333333336,26.765,0.0,1782.381,-0.3099999999999987,100.0,27.811,27.087,42.96,42.281,0.0,0.0,100.0,0.0,0.0,0.0,0.0,3001.142857142857,2806.7,4302.875,4210.2,305.792,305.762,314.355,314.3245,21.8653,20.564799999999998,21.869,21.3965,314.999998,314.999998,324.999988,324.999988,99.55848571428571,99.50741666666667,99.56612857142858,99.54631428571429,0.04600000000000026,-0.09099999999999997,-0.16600000000000004,0.05716666666666681,-0.03833333333332689,-0.030000000000001137,1.4803333333333333,1.4899999999999998,37.658,29.5295,37.681,34.728,55.979,34.875,59.299,52.0865,53.915,34.0255,57.906,50.429,53.084,33.583,57.842,49.846000000000004,-0.10499999999999998,-0.04700000000000015,0.10386000000000001,0.106825,0.0,209.64,209.62,206.42000000000002,206.42000000000002,0.0,0.0
11,0.0,0.0,0.0,1.0,1.0,0.0,0.0,1.0,0.0,100.0,1.0,1.1856,26.0,0.0,0.0,0.0,63.999999,0.0,26.0,26.0,26.0,26.0,-0.030375,0.28100000000000014,-0.06844,293.579,-2.6813,-2.718125,-1.5634000000000001,-1.5546,-239.07,215.9325,190.76825,0.0,0.0,0.0,0.0,0.022599999999999953,-5.498166666666667,-5.498166666666667,-0.5586,-0.1555,0.00477777777777777,0.5820000000000001,67.076,-0.0261,-0.23435,-0.18200000000000038,100.0,1.0,1.0,207.11333333333334,0.0,0.0,0.0,0.0,0.0,0.0,0.0,8778.7,0.0,55.0,5.0,241.44666666666666,1.0,0.0,0.0,0.0,0.0,0.0,1.0,0.0,0.5549999999999997,0.5549999999999997,0.0,0.0,1.0,55.0,616.79921,10000.0,85.000001,85.000001,85.000001,85.000001,395.0,0.0,0.0,0.0,1.0,333.33500000000004,53.009,53.009,49.225,49.225,34.0,-23.725,24.253333333333334,-26.23,25.4475,0.0,1782.329,-0.3550000000000004,100.0,27.66,27.145,42.568,42.173,0.0,0.0,100.0,0.0,0.0,0.0,0.0,3040.4285714285716,3103.9,3760.75,3896.8,305.525,304.99075,315.7,315.1965,21.8749,20.5701,21.8793,21.4054,314.999998,314.999998,324.999988,324.999988,99.55848571428571,99.50741666666667,99.56625714285714,99.54644285714286,0.0674999999999999,-0.061999999999999944,-0.1313333333333333,0.09499999999999997,-0.04333333333332945,-0.04999999999999716,1.6193333333333333,1.613,37.718,29.563000000000002,37.745000000000005,34.784,55.963,34.914,59.3345,52.146,53.9,34.061,57.939,50.4865,53.069,33.6175,57.872,49.90233333333333,-0.10299999999999998,-0.05049999999999999,0.10535000000000001,0.106395,0.0,210.05,210.05,207.11333333333334,207.11333333333334,0.0,0.0
12,0.0,0.0,0.0,1.0,1.0,0.0,0.0,1.0,0.0,100.0,1.0,1.1856,26.0,0.0,0.0,0.0,63.999999,0.0,26.0,26.0,26.0,26.0,-0.015875,0.2822,0.0135,293.091,-2.7329,-2.712875,-1.5321500000000001,-1.5742,-235.84,215.9075,190.747625,0.0,0.0,0.0,0.0,0.025466666666666526,-5.498166666666667,-5.498166666666667,-0.5445,0.342,-0.006888888888889166,0.687,67.212,-0.0085,-0.205675,-0.2699999999999996,100.0,1.0,1.0,207.35000000000002,0.0,0.0,0.0,0.0,0.0,0.0,0.0,8788.7,0.0,55.0,5.0,241.93333333333334,0.0,0.0,0.0,0.0,0.0,0.0,1.0,0.0,0.602999999999998,0.602999999999998,0.0,0.0,0.0,55.0,616.79921,10000.0,85.000001,85.000001,85.000001,85.000001,395.0,0.0,0.0,0.0,1.0,333.33500000000004,52.979,52.979,48.141,48.141,34.0,-24.1475,25.240000000000002,-29.2,29.545,0.0,1782.281,-0.379999999999999,100.0,27.561,27.231,42.511,42.099000000000004,0.0,0.0,100.0,0.0,0.0,0.0,0.0,3079.857142857143,3127.1,4168.875,4180.1,305.424,304.936,314.67275,314.53525,21.884,20.5752,21.889,21.4138,314.999998,314.999998,324.999988,324.999988,99.55848571428571,99.50743333333334,99.5664,99.54658571428571,0.0767500000000001,-0.041999999999999926,-0.12049999999999994,0.11766666666666681,-0.03333333333333144,-0.07666666666666799,1.5266666666666666,1.513,37.775,29.595,37.806,34.8365,55.95,34.95,59.371,52.203,53.888,34.0945,57.973,50.541,53.055,33.6495,57.903,49.956,-0.10349999999999993,-0.04349999999999987,0.11629,0.112335,0.0,210.495,210.51,207.35000000000002,207.35000000000002,0.0,0.0
13,0.0,0.0,0.0,1.0,1.0,0.0,0.0,1.0,0.0,100.0,1.0,1.1856,26.0,0.0,0.0,0.0,63.999999,0.0,26.0,26.0,26.0,26.0,0.016,0.27970000000000006,0.03542,292.694,-2.682,-2.700875,-1.5674000000000001,-1.5612000000000001,-232.41,215.8825,190.725875,0.0,0.0,0.0,0.0,0.026766666666666605,-5.498166666666667,-5.498166666666667,-0.5373,-0.1285,-0.004888888888888943,-0.42399999999999993,67.355,0.004200000000000001,-0.21227500000000002,-0.2919999999999998,100.0,1.0,1.0,207.71666666666667,0.0,0.0,0.0,0.0,0.0,0.0,0.0,8804.4,0.0,55.0,5.0,242.45,1.0,0.0,0.0,0.0,0.0,0.0,1.0,0.0,0.6539999999999999,0.6539999999999999,0.0,0.0,1.0,55.0,616.79921,10000.0,85.000001,85.000001,85.000001,85.000001,395.0,0.0,0.0,0.0,1.0,166.665,52.689,52.689,47.989,47.989,34.0,-23.8025,24.555,-30.12,29.7525,0.0,1782.232,-0.46999999999999886,100.0,27.688,27.591,42.68,42.724000000000004,0.0,0.0,100.0,0.0,0.0,0.0,0.0,3189.4285714285716,3020.9,4233.375,4244.5,305.2175,305.07975,314.55875,314.26825,21.8936,20.5806,21.8996,21.423000000000002,314.999998,314.999998,324.999988,324.999988,99.5585,99.50743333333334,99.56654285714286,99.54672857142857,0.09299999999999997,-0.03733333333333333,-0.11649999999999994,0.10899999999999999,-0.04333333333332945,-0.03166666666666629,1.4953333333333334,1.479,37.835,29.628999999999998,37.872,34.8935,55.938,34.988,59.411,52.266,53.876999999999995,34.1295,58.01,50.6015,53.043,33.683,57.9375,50.01533333333333,-0.11599999999999988,-0.03750000000000009,0.11016000000000001,0.10805000000000001,0.0,210.92000000000002,210.91500000000002,207.71666666666667,207.71666666666667,0.0,0.0
14,0.0,0.0,0.0,1.0,1.0,0.0,0.0,1.0,0.0,100.0,1.0,1.1856,26.0,0.0,0.0,0.0,63.999999,0.0,26.0,26.0,26.0,26.0,0.02275,0.28059999999999996,-0.01396,292.892,-2.7039999999999997,-2.64725,-1.57145,-1.5365,-228.97,215.85500000000002,190.704625,0.0,0.0,0.0,0.0,0.028766666666666607,-5.498166666666667,-5.498166666666667,-0.5494,-0.1205,0.02288888888888896,1.241,67.495,0.016,-0.22742500000000002,-0.46799999999999997,100.0,1.0,1.0,208.23666666666668,0.0,0.0,0.0,0.0,0.0,0.0,0.0,8826.3,0.0,55.0,5.0,242.95333333333335,0.0,0.0,0.0,0.0,0.0,0.0,1.0,0.0,0.7049999999999983,0.7049999999999983,0.0,0.0,0.0,55.0,616.79921,10000.0,85.000001,85.000001,85.000001,85.000001,395.0,0.0,0.0,0.0,1.0,333.33500000000004,52.673,52.673,48.218,48.218,34.0,-21.947499999999998,26.265,-26.36,29.9125,0.0,1782.179,-0.46999999999999886,100.0,27.798000000000002,27.573,42.703,42.794,0.0,0.0,100.0,0.0,0.0,0.0,0.0,2990.0,3212.0,3971.5,4171.5,305.652,304.6745,315.1285,314.54825,21.9032,20.5861,21.91,21.4321,314.999998,314.999998,324.999988,324.999988,99.55851428571428,99.50743333333334,99.56668571428571,99.54687142857144,0.10524999999999984,-0.022666666666666613,-0.08683333333333332,0.13749999999999996,-0.045000000000001705,-0.07000000000000028,1.5473333333333332,1.5310000000000001,37.894999999999996,29.663,37.937,34.9505,55.926,35.025999999999996,59.448,52.3285,53.864999999999995,34.164500000000004,58.045,50.661500000000004,53.03,33.716499999999996,57.969,50.074,-0.11349999999999993,-0.040000000000000036,0.10778000000000001,0.10697500000000001,0.0,211.35000000000002,211.37,208.23666666666668,208.23666666666668,0.0,0.0
15,0.0,0.0,0.0,1.0,1.0,0.0,0.0,1.0,0.0,100.0,1.0,1.1856,26.0,0.0,0.0,0.0,63.999999,0.0,26.0,26.0,26.0,26.0,0.049375,0.27290000000000014,-0.04044,292.862,-2.7146,-2.6635,-1.5951,-1.5438,-225.53,215.82999999999998,190.682875,0.0,0.0,0.0,0.0,0.03076666666666661,-5.498166666666667,-5.498166666666667,-0.5401,0.225,0.04488888888888898,-0.746,67.635,0.0264,-0.209675,-0.44200000000000017,100.0,1.0,1.0,208.63666666666666,0.0,0.0,0.0,0.0,0.0,0.0,0.0,8843.3,0.0,55.0,5.0,243.46,1.0,0.0,0.0,0.0,0.0,0.0,1.0,0.0,0.7560000000000002,0.7560000000000002,0.0,0.0,1.0,55.0,616.79921,10000.0,85.000001,85.000001,85.000001,85.000001,395.0,0.0,0.0,0.0,1.0,166.665,52.872,52.872,48.141,48.141,34.0,-21.605,24.83,-26.83,31.295,0.0,1782.13,-0.41999999999999815,100.0,27.636,27.861,42.439,43.041,0.0,0.0,100.0,0.0,0.0,0.0,0.0,2968.142857142857,3038.9,4033.375,4258.2,305.903,304.941,315.075,314.2055,21.9127,20.5916,21.9203,21.4412,314.999998,314.999998,324.999988,324.999988,99.55852857142857,99.50745,99.56682857142857,99.54701428571428,0.10650000000000004,-0.02966666666666662,-0.07966666666666666,0.14149999999999996,-0.05666666666667197,-0.046666666666666856,1.5143333333333333,1.5034999999999998,37.954,29.697499999999998,38.001999999999995,35.0075,55.915,35.0635,59.4845,52.3905,53.854,34.1995,58.0785,50.7215,53.018,33.75,57.9995,50.132999999999996,-0.11149999999999993,-0.046499999999999986,0.10541500000000001,0.11070500000000001,0.0,211.79500000000002,211.82,208.63666666666666,208.63666666666666,0.0,0.0
16,0.0,0.0,0.0,1.0,1.0,0.0,0.0,1.0,0.0,100.0,1.0,1.1856,26.0,0.0,0.0,0.0,63.999999,0.0,26.0,26.0,26.0,26.0,0.0365,0.2754000000000001,-0.016900000000000002,292.816,-2.7731,-2.6171249999999997,-1.5683,-1.5444,-222.28,215.8075,190.662125,0.0,0.0,0.0,0.0,0.0326333333333334,-5.498166666666667,-5.498166666666667,-0.5581,-0.6695,0.030000000000000027,-1.2389999999999999,67.767,0.0337,-0.224425,-0.4120000000000008,100.0,1.0,1.0,209.03333333333333,0.0,0.0,0.0,0.0,0.0,0.0,0.0,8860.2,0.0,55.0,5.0,243.93666666666667,0.0,0.0,0.0,0.0,0.0,0.0,1.0,0.0,0.8039999999999985,0.8039999999999985,0.0,0.0,0.0,55.0,616.79921,10000.0,85.000001,85.000001,85.000001,85.000001,395.0,0.0,0.0,0.0,1.0,333.33500000000004,52.689,52.689,47.882,47.882,34.0,-23.57,25.501666666666665,-26.586666666666666,29.55,0.0,1782.08,-0.29499999999999815,100.0,27.329,27.856,42.719,43.134,0.0,0.0,100.0,0.0,0.0,0.0,0.0,3134.0,3139.7,4041.625,4077.7,305.5285,304.7345,315.037,314.64025,21.9214,20.5968,21.9301,21.4498,314.999998,314.999998,324.999988,324.999988,99.55854285714285,99.50745,99.56695714285715,99.54715714285715,0.10325000000000006,-0.023666666666666614,-0.08216666666666661,0.139,-0.05666666666667197,-0.046666666666666856,1.539,1.516,38.009,29.7295,38.063,35.061,55.900999999999996,35.099000000000004,59.521,52.448499999999996,53.841,34.232,58.1125,50.777,53.004000000000005,33.7815,58.031,50.187666666666665,-0.10199999999999987,-0.052999999999999936,0.11071500000000001,0.09929,0.0,212.18,212.195,209.03333333333333,209.03333333333333,0.0,0.0
17,0.0,0.0,0.0,1.0,1.0,0.0,0.0,1.0,0.0,100.0,1.0,1.1856,26.0,0.0,0.0,0.0,63.999999,0.0,26.0,26.0,26.0,26.0,0.022875,0.29400000000000004,-0.00542,292.572,-2.7260999999999997,-2.605375,-1.6053000000000002,-1.5098,-218.82,215.7825,190.63975,0.0,0.0,0.0,0.0,0.03466666666666651,-5.498166666666667,-5.498166666666667,-0.5495,0.40850000000000003,0.0086666666666666,0.618,67.906,0.0325,-0.20755,-0.3379999999999992,100.0,1.0,1.0,209.43333333333334,0.0,0.0,0.0,0.0,0.0,0.0,0.0,8877.2,0.0,55.0,5.0,244.43333333333334,1.0,0.0,0.0,0.0,0.0,0.0,1.0,0.0,0.8550000000000004,0.8550000000000004,0.0,0.0,1.0,55.0,616.79921,10000.0,85.000001,85.000001,85.000001,85.000001,395.0,0.0,0.0,0.0,1.0,166.665,52.49,52.49,47.806,47.806,34.0,-22.415,25.455,-28.413333333333334,31.1575,0.0,1782.031,-0.3099999999999987,100.0,27.936,27.887,42.635,42.945,0.0,0.0,100.0,0.0,0.0,0.0,0.0,3081.5714285714284,3136.4,4244.25,4269.5,305.4425,304.92375,314.58425,314.371,21.931,20.6024,21.9405,21.4588,314.999998,314.999998,324.999988,324.999988,99.55855714285714,99.50745,99.56711428571428,99.5473,0.1160000000000001,-0.016000000000000014,-0.07650000000000001,0.15216666666666678,-0.051666666666669414,-0.04999999999999716,1.5366666666666666,1.5185,38.069,29.764499999999998,38.128,35.1175,55.891,35.1375,59.5575,52.5095,53.831,34.2675,58.1465,50.836,52.992999999999995,33.8155,58.062,50.245,-0.10450000000000004,-0.05650000000000022,0.10833000000000001,0.10549000000000001,0.0,212.65,212.66500000000002,209.43333333333334,209.43333333333334,0.0,0.0
18,0.0,0.0,0.0,1.0,1.0,0.0,0.0,1.0,0.0,100.0,1.0,1.1856,26.0,0.0,0.0,0.0,63.999999,0.0,26.0,26.0,26.0,26.0,0.020375,0.2754000000000001,-0.00906,292.465,-2.7491,-2.5885,-1.6118000000000001,-1.464,-215.55,215.7625,190.618625,0.0,0.0,0.0,0.0,0.03653333333333331,-5.498166666666667,-5.498166666666667,-0.5593,-0.4615,0.023333333333333206,0.995,68.037,0.027800000000000002,-0.22125,-0.22199999999999953,100.0,1.0,1.0,209.82999999999998,0.0,0.0,0.0,0.0,0.0,0.0,0.0,8893.9,0.0,55.0,5.0,244.90666666666667,0.0,0.0,0.0,0.0,0.0,0.0,1.0,0.0,0.9029999999999987,0.9029999999999987,0.0,0.0,0.0,55.0,616.79921,10000.0,85.000001,85.000001,85.000001,85.000001,395.0,0.0,0.0,0.0,1.0,166.665,52.353,52.353,47.684,47.684,34.0,-22.9,26.708333333333336,-27.503333333333334,30.2325,0.0,1781.983,-0.33500000000000085,100.0,27.775,27.75,42.948,43.253,0.0,0.0,100.0,0.0,0.0,0.0,0.0,3109.285714285714,3307.6,4095.5,4227.3,305.4045,304.45825,314.8825,314.44025,21.939799999999998,20.6075,21.9503,21.4675,314.999998,314.999998,324.999988,324.999988,99.55857142857143,99.50745,99.56724285714286,99.54742857142857,0.11425000000000018,-0.019000000000000017,-0.07850000000000001,0.1523333333333332,-0.046666666666666856,-0.054999999999999716,1.5313333333333334,1.5154999999999998,38.123999999999995,29.797,38.19,35.172,55.879000000000005,35.1725,59.594,52.5685,53.819,34.3,58.1805,50.8925,52.980999999999995,33.8465,58.093,50.300666666666665,-0.10149999999999992,-0.0535000000000001,0.09973000000000001,0.11392500000000001,0.0,213.015,213.035,209.82999999999998,209.82999999999998,0.0,0.0
19,0.0,0.0,0.0,1.0,1.0,0.0,0.0,1.0,0.0,100.0,1.0,1.1856,26.0,0.0,0.0,0.0,63.999999,0.0,26.0,26.0,26.0,26.0,0.037125,0.29200000000000004,0.06624000000000001,292.007,-2.6641,-2.691,-1.5416,-1.4515,-211.88,215.74,190.594625,0.0,0.0,0.0,0.0,0.03869999999999996,-5.498166666666667,-5.498166666666667,-0.5483,0.7555000000000001,0.028111111111110976,0.6679999999999999,68.18299999999999,0.022500000000000003,-0.211375,-0.2859999999999996,100.0,1.0,1.0,210.23333333333335,0.0,0.0,0.0,0.0,0.0,0.0,0.0,8911.0,0.0,55.0,5.0,245.43,1.0,0.0,0.0,0.0,0.0,0.0,1.0,0.0,0.9570000000000007,0.9570000000000007,0.0,0.0,1.0,55.0,616.79921,10000.0,85.000001,85.000001,85.000001,85.000001,395.0,0.0,0.0,0.0,1.0,166.665,51.956,51.956,47.501,47.501,34.0,-21.695,26.718333333333334,-27.596666666666664,32.0525,0.0,1781.929,-0.34999999999999787,100.0,28.347,28.291,42.82,43.286,0.0,0.0,100.0,0.0,0.0,0.0,0.0,3052.285714285714,3184.6,4186.25,4507.4,305.427,304.58775,314.6315,313.80575,21.95,20.613599999999998,21.9613,21.4772,314.999998,314.999998,324.999988,324.999988,99.55858571428571,99.50746666666667,99.5674,99.54758571428572,0.11675000000000013,-0.02100000000000002,-0.08050000000000002,0.14383333333333326,-0.05666666666667197,-0.036666666666668846,1.4853333333333334,1.4914999999999998,38.187,29.8345,38.257999999999996,35.2325,55.867999999999995,35.215,59.632,52.634,53.809,34.339,58.216,50.956,52.969,33.884,58.125,50.363,-0.10899999999999999,-0.05250000000000021,0.10901500000000001,0.10594500000000001,0.0,213.515,213.505,210.23333333333335,210.23333333333335,0.0,0.0
20,0.0,0.0,0.0,1.0,1.0,0.0,0.0,1.0,0.0,100.0,1.0,1.1856,26.0,0.0,0.0,0.0,63.999999,0.0,26.0,26.0,26.0,26.0,0.035125,0.26080000000000014,0.04182,292.328,-2.7577,-2.6502499999999998,-1.5459,-1.5771000000000002,-208.6,215.72,190.573625,0.0,0.0,0.0,0.0,0.04059999999999997,-5.498166666666667,-5.498166666666667,-0.554,-1.0495,0.02400000000000002,0.477,68.313,0.020200000000000003,-0.22310000000000002,-0.2839999999999989,100.0,1.0,1.0,210.59,0.0,0.0,0.0,0.0,0.0,0.0,0.0,8926.1,0.0,55.0,5.0,245.90333333333334,0.0,0.0,0.0,0.0,0.0,0.0,0.0,0.0,1.004999999999999,1.004999999999999,0.0,0.0,0.0,55.0,616.79921,10000.0,85.000001,85.000001,85.000001,85.000001,395.0,0.0,0.0,0.0,1.0,166.665,52.719,52.719,47.104,47.104,34.0,-21.7475,25.638333333333335,-27.71,32.0975,0.0,1781.88,-0.3099999999999987,100.0,27.854,27.916,43.423,43.66,0.0,0.0,100.0,0.0,0.0,0.0,0.0,2956.285714285714,3147.8,4130.75,4246.4,305.8925,304.90025,314.70175,314.25975,21.9587,20.6187,21.9712,21.486,314.999998,314.999998,324.999988,324.999988,99.5586,99.50746666666667,99.56752857142857,99.54772857142858,0.11175000000000024,-0.023666666666666614,-0.08716666666666661,0.14549999999999996,-0.04833333333333201,-0.04999999999999716,1.4726666666666666,1.4565000000000001,38.242000000000004,29.866999999999997,38.32,35.287,55.855000000000004,35.2495,59.67,52.694,53.796,34.3715,58.2515,51.0135,52.956,33.915,58.1575,50.419,-0.10549999999999993,-0.052999999999999936,0.10995500000000001,0.11123000000000001,0.0,213.86,213.88,210.59,210.59,0.0,0.0
21,0.0,0.0,0.0,1.0,1.0,0.0,0.0,1.0,0.0,100.0,1.0,1.1856,26.0,0.0,0.0,0.0,63.999999,0.0,26.0,26.0,26.0,26.0,0.012750000000000001,0.27300000000000013,-0.07234,292.709,-2.7228,-2.6553750000000003,-1.6117,-1.5365,-205.32,215.7,190.552,0.0,0.0,0.0,0.0,0.04249999999999998,-5.498166666666667,-5.498166666666667,-0.5747,0.281,0.00477777777777777,0.375,68.439,0.0189,-0.223675,-0.2699999999999996,100.0,1.0,1.0,211.18666666666667,0.0,0.0,0.0,0.0,0.0,0.0,0.0,8951.4,0.0,55.0,5.0,246.35000000000002,1.0,0.0,0.0,0.0,0.0,0.0,0.0,0.0,1.0530000000000008,1.0530000000000008,0.0,0.0,1.0,55.0,616.79921,10000.0,85.000001,85.000001,85.000001,85.000001,395.0,0.0,0.0,0.0,1.0,333.33500000000004,52.444,52.444,48.218,48.218,34.0,-22.8625,25.60333333333333,-26.91,28.5375,0.0,1781.83,-0.3200000000000003,100.0,28.068,27.942,42.878,43.203,0.0,0.0,100.0,0.0,0.0,0.0,0.0,3074.0,3156.3,4010.125,4029.2,305.472,304.89175,315.1615,314.933,21.9676,20.624,21.9808,21.4944,314.999998,314.999998,324.999988,324.999988,99.55861428571428,99.50748333333334,99.56768571428572,99.54787142857143,0.10375000000000023,-0.02733333333333332,-0.08599999999999997,0.13850000000000007,-0.036666666666668846,-0.046666666666666856,1.5783333333333334,1.5804999999999998,38.297,29.9,38.379999999999995,35.34,55.843,35.288,59.704,52.752,53.785,34.407,58.283,51.0695,52.944,33.949,58.186,50.474000000000004,-0.10399999999999987,-0.05500000000000016,0.10767000000000002,0.10170000000000001,0.0,214.265,214.28,211.18666666666667,211.18666666666667,0.0,0.0
22,0.0,0.0,0.0,1.0,1.0,0.0,0.0,1.0,0.0,100.0,1.0,1.1856,26.0,0.0,0.0,0.0,63.999999,0.0,26.0,26.0,26.0,26.0,0.027375,0.27649999999999997,0.00884,292.282,-2.662,-2.7030000000000003,-1.6081500000000002,-1.5210000000000001,-201.82,215.68,190.52825,0.0,0.0,0.0,0.0,0.044533333333333314,-5.498166666666667,-5.498166666666667,-0.5574,0.0735,0.014666666666666606,-0.4830000000000001,68.577,0.019200000000000002,-0.2031,-0.23600000000000065,100.0,1.0,1.0,211.42666666666668,0.0,0.0,0.0,0.0,0.0,0.0,0.0,8961.6,0.0,55.0,5.0,246.85000000000002,0.0,0.0,0.0,0.0,0.0,0.0,0.0,0.0,1.1039999999999992,1.1039999999999992,0.0,0.0,0.0,55.0,616.79921,10000.0,85.000001,85.000001,85.000001,85.000001,395.0,0.0,0.0,0.0,1.0,166.665,52.612,52.612,47.18,47.18,34.0,-21.9775,24.314999999999998,-30.533333333333335,30.2075,0.0,1781.782,-0.35999999999999943,100.0,27.945,28.187,43.057,43.45,0.0,0.0,100.0,0.0,0.0,0.0,0.0,3006.714285714286,2999.9,4288.75,4319.8,305.771,305.06825,314.50075,314.16475,21.977,20.6296,21.9913,21.5036,314.999998,314.999998,324.999988,324.999988,99.55862857142857,99.50748333333334,99.56781428571429,99.54801428571429,0.09549999999999992,-0.042333333333333334,-0.10383333333333333,0.11766666666666681,-0.05666666666667197,-0.03999999999999915,1.4809999999999999,1.4855,38.355999999999995,29.935000000000002,38.446,35.3975,55.832,35.3245,59.741,52.8105,53.775,34.4405,58.317499999999995,51.1255,52.932,33.981,58.2175,50.528999999999996,-0.10099999999999998,-0.051000000000000156,0.10719000000000001,0.10127000000000001,0.0,214.715,214.72,211.42666666666668,211.42666666666668,0.0,0.0
23,0.0,0.0,0.0,1.0,1.0,0.0,0.0,1.0,0.0,100.0,1.0,1.1856,26.0,0.0,0.0,0.0,63.999999,0.0,26.0,26.0,26.0,26.0,0.018125,0.2574000000000001,-0.0246,292.221,-2.6901,-2.656625,-1.6593,-1.4969000000000001,-198.32,215.6625,190.50475,0.0,0.0,0.0,0.0,0.046566666666666534,-5.498166666666667,-5.498166666666667,-0.5748,-0.23850000000000002,0.016222222222222138,0.605,68.711,0.020200000000000003,-0.228025,-0.24799999999999933,100.0,1.0,1.0,211.94,0.0,0.0,0.0,0.0,0.0,0.0,0.0,8983.4,0.0,55.0,5.0,247.33333333333334,1.0,0.0,0.0,0.0,0.0,0.0,0.0,0.0,1.1550000000000011,1.1550000000000011,0.0,0.0,1.0,55.0,616.79921,10000.0,85.000001,85.000001,85.000001,85.000001,395.0,0.0,0.0,0.0,1.0,333.33500000000004,51.865,51.865,48.019,48.019,34.0,-23.475,26.063333333333333,-27.643333333333334,29.205000000000002,0.0,1781.729,-0.34499999999999886,100.0,28.297,28.144,43.249,43.6,0.0,0.0,100.0,0.0,0.0,0.0,0.0,3206.714285714286,3200.7,4012.375,4090.0,305.014,304.70825,315.16175,314.811,21.9865,20.6352,22.0018,21.5129,314.999998,314.999998,324.999988,324.999988,99.55862857142857,99.50748333333334,99.56795714285714,99.54815714285715,0.1107499999999999,-0.02833333333333332,-0.08466666666666656,0.14933333333333332,-0.046666666666666856,-0.054999999999999716,1.545,1.5419999999999998,38.415,29.97,38.510999999999996,35.4555,55.821,35.363,59.778,52.8725,53.763999999999996,34.476,58.352000000000004,51.1855,52.92,34.0155,58.249,50.587666666666664,-0.10499999999999998,-0.052999999999999936,0.10590000000000001,0.11731000000000001,0.0,215.10500000000002,215.13,211.94,211.94,0.0,0.0
24,0.0,0.0,0.0,1.0,1.0,0.0,0.0,1.0,0.0,100.0,1.0,1.1856,26.0,0.0,0.0,0.0,63.999999,0.0,26.0,26.0,26.0,26.0,0.035625000000000004,0.2761,-0.029360000000000004,292.45,-2.7199,-2.660625,-1.5483,-1.5236,-194.82,215.64499999999998,190.480875,0.0,0.0,0.0,0.0,0.04859999999999998,-5.498166666666667,-5.498166666666667,-0.5830000000000001,-0.4385,0.025777777777777677,-0.17999999999999994,68.84700000000001,0.0218,-0.219525,-0.2699999999999996,100.0,1.0,1.0,212.2733333333333,0.0,0.0,0.0,0.0,0.0,0.0,0.0,8997.5,0.0,55.0,5.0,247.82333333333332,0.0,0.0,0.0,0.0,0.0,0.0,0.0,0.0,1.2059999999999995,1.2059999999999995,0.0,0.0,0.0,55.0,616.79921,10000.0,85.000001,85.000001,85.000001,85.000001,395.0,0.0,0.0,0.0,1.0,166.665,52.826,52.826,47.256,47.256,34.0,-21.93,24.04,-28.09,30.09,0.0,1781.68,-0.34499999999999886,100.0,27.895,28.027,43.178,43.617000000000004,0.0,0.0,100.0,0.0,0.0,0.0,0.0,2984.0,3001.9,4226.375,4174.5,305.8765,305.189,314.57725,314.515,21.9958,20.6407,22.0121,21.522,314.999998,314.999998,324.999988,324.999988,99.55865714285714,99.50748333333334,99.56811428571429,99.54831428571428,0.10349999999999993,-0.03700000000000003,-0.08499999999999996,0.13883333333333336,-0.045000000000001705,-0.03999999999999915,1.5203333333333333,1.5015,38.474000000000004,30.0045,38.576,35.5125,55.808,35.4,59.8155,52.9335,53.751999999999995,34.51,58.3865,51.244,52.907,34.048,58.2805,50.644999999999996,-0.10799999999999987,-0.05149999999999988,0.104705,0.11337000000000001,0.0,215.51999999999998,215.525,212.2733333333333,212.2733333333333,0.0,0.0
25,0.0,0.0,0.0,1.0,1.0,0.0,0.0,1.0,0.0,100.0,1.0,1.1856,26.0,0.0,0.0,0.0,63.999999,0.0,26.0,26.0,26.0,26.0,0.034875,0.2674000000000001,-0.037880000000000004,292.313,-2.7869,-2.619125,-1.5988,-1.5273,-191.51,215.6275,190.457,0.0,0.0,0.0,0.0,0.05053333333333332,-5.498166666666667,-5.498166666666667,-0.6062000000000001,-0.0305,0.030111111111110977,-0.9530000000000001,68.97200000000001,0.020300000000000002,-0.22210000000000002,-0.27399999999999913,100.0,1.0,1.0,212.76,0.0,0.0,0.0,0.0,0.0,0.0,0.0,9018.1,0.0,55.0,5.0,248.27333333333334,1.0,0.0,0.0,0.0,0.0,0.0,0.0,0.0,1.2540000000000013,1.2540000000000013,0.0,0.0,1.0,55.0,616.79921,10000.0,85.000001,85.000001,85.000001,85.000001,395.0,0.0,0.0,0.0,1.0,333.33500000000004,51.926,51.926,47.928,47.928,34.0,-25.197499999999998,26.613333333333333,-26.916666666666664,29.087500000000002,0.0,1781.631,-0.41000000000000014,100.0,27.809,28.226,42.939,43.412,0.0,0.0,100.0,0.0,0.0,0.0,0.0,3291.5714285714284,3271.6,3980.0,4098.5,305.074,304.3415,315.2395,314.71975,22.0046,20.6461,22.0218,21.5306,314.999998,314.999998,324.999988,324.999988,99.55865714285714,99.5075,99.56824285714286,99.54845714285715,0.10199999999999987,-0.02733333333333332,-0.09283333333333332,0.13516666666666666,-0.05333333333332746,-0.04333333333332945,1.5643333333333334,1.545,38.528999999999996,30.038,38.635999999999996,35.566,55.796,35.436,59.848,52.9895,53.739999999999995,34.544,58.417,51.298,52.894,34.0805,58.308,50.69766666666666,-0.10399999999999987,-0.04850000000000021,0.10482000000000001,0.10744000000000001,0.0,215.91500000000002,215.91,212.76,212.76,0.0,0.0
26,0.0,0.0,0.0,1.0,1.0,0.0,0.0,1.0,0.0,100.0,1.0,1.1856,26.0,0.0,0.0,0.0,63.999999,0.0,26.0,26.0,26.0,26.0,0.03325,0.27570000000000006,0.06720000000000001,291.229,-2.6907,-2.715,-1.5965500000000001,-1.5207000000000002,-187.78,215.61,190.429875,0.0,0.0,0.0,0.0,0.05269999999999997,-5.498166666666667,-5.498166666666667,-0.5722,0.4,0.015444444444444372,-0.655,69.116,0.0239,-0.20045000000000002,-0.379999999999999,100.0,1.0,1.0,212.94333333333333,0.0,0.0,0.0,0.0,0.0,0.0,0.0,9025.9,0.0,55.0,5.0,248.79000000000002,0.0,0.0,0.0,0.0,0.0,0.0,0.0,0.0,1.3079999999999998,1.3079999999999998,0.0,0.0,0.0,55.0,616.79921,10000.0,85.000001,85.000001,85.000001,85.000001,395.0,0.0,0.0,0.0,1.0,166.665,51.635999999999996,51.635999999999996,46.326,46.326,34.0,-23.3275,25.045,-31.816666666666663,32.792500000000004,0.0,1781.578,-0.4349999999999987,100.0,28.677,28.863,43.506,43.947,0.0,0.0,100.0,0.0,0.0,0.0,0.0,3208.0,3026.8,4538.875,4536.4,305.218,304.9895,313.86125,313.6615,22.0147,20.6522,22.032899999999998,21.5405,314.999998,314.999998,324.999988,324.999988,99.55867142857143,99.5075,99.5684,99.5486,0.10924999999999985,-0.03366666666666662,-0.08566666666666656,0.12549999999999994,-0.03499999999999659,-0.04833333333333201,1.4246666666666665,1.4215,38.592,30.0765,38.706,35.628,55.787,35.4785,59.8895,53.056,53.730999999999995,34.583,58.4555,51.3625,52.884,34.118,58.343,50.760666666666665,-0.119,-0.051000000000000156,0.10539000000000001,0.100985,0.0,216.38,216.41,212.94333333333333,212.94333333333333,0.0,0.0
27,0.0,0.0,0.0,1.0,1.0,0.0,0.0,1.0,0.0,100.0,1.0,1.1856,26.0,0.0,0.0,0.0,63.999999,0.0,26.0,26.0,26.0,26.0,0.04525,0.24629999999999996,-0.03088,291.748,-2.7028,-2.659125,-1.5882,-1.5906,-184.67000000000002,215.5975,190.40825,0.0,0.0,0.0,0.0,0.05449999999999999,-5.498166666666667,-5.498166666666667,-0.596,-0.968,0.02111111111111108,0.787,69.232,0.0269,-0.24035,-0.4239999999999995,100.0,1.0,1.0,213.44,0.0,0.0,0.0,0.0,0.0,0.0,0.0,9046.9,0.0,55.0,5.0,249.21,1.0,0.0,0.0,0.0,0.0,0.0,0.0,0.0,1.352999999999998,1.352999999999998,0.0,0.0,1.0,55.0,616.79921,10000.0,85.000001,85.000001,85.000001,85.000001,395.0,0.0,0.0,0.0,1.0,333.33500000000004,51.941,51.941,46.661,46.661,34.0,-21.395,26.516666666666666,-27.563333333333333,31.560000000000002,0.0,1781.533,-0.375,100.0,28.509,28.576999999999998,44.033,44.265,0.0,0.0,100.0,0.0,0.0,0.0,0.0,2980.285714285714,3234.9,4088.625,4122.6,305.7165,304.61675,314.85975,314.6165,22.0229,20.6572,22.0423,21.5487,314.999998,314.999998,324.999988,324.999988,99.5587,99.5075,99.56852857142857,99.54874285714286,0.11724999999999985,-0.025666666666666615,-0.08199999999999996,0.15583333333333327,-0.03333333333333144,-0.03166666666666629,1.4966666666666666,1.479,38.643,30.1075,38.763999999999996,35.6795,55.775999999999996,35.5125,59.924,53.111000000000004,53.72,34.6145,58.4875,51.4155,52.873000000000005,34.147999999999996,58.3725,50.812333333333335,-0.10949999999999993,-0.05750000000000011,0.10183500000000001,0.11125000000000002,0.0,216.70499999999998,216.7,213.44,213.44,0.0,0.0
28,0.0,0.0,0.0,1.0,1.0,0.0,0.0,1.0,0.0,100.0,1.0,1.1856,26.0,0.0,0.0,0.0,63.999999,0.0,26.0,26.0,26.0,26.0,0.03025,0.2683,-0.04376000000000001,291.977,-2.6867,-2.65125,-1.63155,-1.5627,-180.92000000000002,215.58249999999998,190.381375,0.0,0.0,0.0,0.0,0.05666666666666653,-5.498166666666667,-5.498166666666667,-0.6021000000000001,0.644,0.011111111111111072,0.5309999999999999,69.37,0.028,-0.216375,-0.41600000000000037,100.0,1.0,1.0,213.96333333333334,0.0,0.0,0.0,0.0,0.0,0.0,0.0,9069.1,0.0,55.0,5.0,249.70333333333335,0.0,0.0,0.0,0.0,0.0,0.0,0.0,0.0,1.407,1.407,0.0,0.0,0.0,55.0,616.79921,10000.0,85.000001,85.000001,85.000001,85.000001,395.0,0.0,0.0,0.0,1.0,166.665,51.849000000000004,51.849000000000004,47.424,47.424,34.0,-21.195,26.490000000000002,-28.02,30.6,0.0,1781.479,-0.46499999999999986,100.0,28.576999999999998,28.509,43.321,43.775999999999996,0.0,0.0,100.0,0.0,0.0,0.0,0.0,3030.4285714285716,3203.6,4118.75,4170.9,305.5095,304.69875,314.9695,314.63475,22.0328,20.6633,22.0531,21.5584,314.999998,314.999998,324.999988,324.999988,99.55871428571429,99.5075,99.56868571428572,99.5489,0.12975000000000003,-0.018333333333333313,-0.08483333333333332,0.14650000000000007,-0.051666666666669414,-0.045000000000001705,1.5656666666666665,1.556,38.705,30.146,38.832,35.7395,55.765,35.554,59.959,53.173500000000004,53.71,34.6525,58.5205,51.475,52.861000000000004,34.1845,58.4015,50.870666666666665,-0.11949999999999994,-0.04700000000000015,0.11130000000000001,0.11080500000000001,0.0,217.18,217.18,213.96333333333334,213.96333333333334,0.0,0.0
29,0.0,0.0,0.0,1.0,1.0,0.0,0.0,1.0,0.0,100.0,1.0,1.1856,26.0,0.0,0.0,0.0,63.999999,0.0,26.0,26.0,26.0,26.0,0.051875000000000004,0.26890000000000014,-0.01034,291.748,-2.6708,-2.7043749999999998,-1.5808,-1.5391000000000001,-177.59,215.57,190.3565,0.0,0.0,0.0,0.0,0.058633333333333315,-5.498166666666667,-5.498166666666667,-0.6042000000000001,-0.6695,0.01288888888888895,0.895,69.497,0.0303,-0.214925,-0.4939999999999998,100.0,1.0,1.0,214.18,0.0,0.0,0.0,0.0,0.0,0.0,0.0,9078.3,0.0,55.0,5.0,250.16333333333336,1.0,0.0,0.0,0.0,0.0,0.0,0.0,0.0,1.4549999999999983,1.4549999999999983,0.0,0.0,1.0,55.0,616.79921,10000.0,85.000001,85.000001,85.000001,85.000001,395.0,0.0,0.0,0.0,1.0,333.33500000000004,52.185,52.185,46.692,46.692,34.0,-20.91,26.883333333333333,-27.833333333333336,32.447500000000005,0.0,1781.429,-0.5,100.0,28.255,28.357,43.771,44.06,0.0,0.0,100.0,0.0,0.0,0.0,0.0,3006.857142857143,3172.9,4164.5,4343.1,305.685,304.73975,314.648,314.14325,22.0413,20.6686,22.063,21.5672,314.999998,314.999998,324.999988,324.999988,99.55872857142857,99.50751666666666,99.56882857142857,99.54902857142856,0.12575000000000003,-0.015000000000000013,-0.07499999999999996,0.14866666666666672,-0.04333333333332945,-0.046666666666666856,1.48,1.4689999999999999,38.757999999999996,30.179000000000002,38.894,35.7945,55.753,35.589,59.9965,53.232,53.699,34.685,58.555,51.532,52.849000000000004,34.216,58.4335,50.926,-0.11650000000000005,-0.040999999999999925,0.11188000000000001,0.10798,0.0,217.51999999999998,217.54500000000002,214.18,214.18,0.0,0.0
30,0.0,0.0,0.0,1.0,1.0,0.0,0.0,1.0,0.0,100.0,1.0,1.1856,26.0,0.0,0.0,0.0,63.999999,0.0,26.0,26.0,26.0,26.0,0.05375,0.25480000000000014,0.052579999999999995,291.214,-2.6903,-2.590375,-1.55645,-1.5928,-174.25,215.56,190.331625,0.0,0.0,0.0,0.0,0.060566666666666547,-5.498166666666667,-5.498166666666667,-0.6078,0.746,0.011555555555555541,0.548,69.618,0.0341,-0.22105000000000002,-0.5199999999999996,100.0,1.0,1.0,214.67666666666668,0.0,0.0,0.0,0.0,0.0,0.0,0.0,9099.3,0.0,55.0,5.0,250.59666666666666,0.0,0.0,0.0,0.0,0.0,0.0,1.0,0.0,1.5030000000000001,1.5030000000000001,0.0,0.0,0.0,55.0,616.79921,10000.0,85.000001,85.000001,85.000001,85.000001,395.0,0.0,0.0,0.0,1.0,166.665,50.568,50.568,47.272,47.272,34.0,-23.5075,27.788333333333334,-26.196666666666665,32.332499999999996,0.0,1781.382,-0.4450000000000003,100.0,29.072,29.076,43.483000000000004,44.025999999999996,0.0,0.0,100.0,0.0,0.0,0.0,0.0,3298.142857142857,3372.5,4076.0,4169.9,304.685,304.02875,314.97375,314.5325,22.0503,20.6742,22.0727,21.5759,314.999998,314.999998,324.999988,324.999988,99.55872857142857,99.50751666666666,99.56895714285714,99.54918571428571,0.12849999999999984,-0.016666666666666607,-0.0691666666666666,0.16333333333333333,-0.03999999999999915,-0.05666666666667197,1.5150000000000001,1.4929999999999999,38.814,30.214,38.954,35.849000000000004,55.745999999999995,35.628,60.028999999999996,53.289,53.692,34.721000000000004,58.585499999999996,51.5865,52.84,34.25,58.460499999999996,50.97966666666667,-0.12199999999999989,-0.04400000000000004,0.10172,0.11480000000000001,0.0,217.91500000000002,217.95499999999998,214.67666666666668,214.67666666666668,0.0,0.0
31,0.0,0.0,0.0,1.0,1.0,0.0,0.0,1.0,0.0,100.0,1.0,1.1856,26.0,0.0,0.0,0.0,63.999999,0.0,26.0,26.0,26.0,26.0,0.051500000000000004,0.25780000000000003,0.03846,290.833,-2.7824,-2.613625,-1.6046,-1.4899,-170.7,215.5475,190.30575,0.0,0.0,0.0,0.0,0.06263333333333332,-5.498166666666667,-5.498166666666667,-0.5888,-0.4205,0.01822222222222214,-0.8660000000000001,69.75,0.0349,-0.220425,-0.3739999999999988,100.0,1.0,1.0,214.89333333333332,0.0,0.0,0.0,0.0,0.0,0.0,0.0,9108.6,0.0,55.0,5.0,251.07666666666665,1.0,0.0,0.0,0.0,0.0,0.0,1.0,0.0,1.5539999999999985,1.5539999999999985,0.0,0.0,1.0,55.0,616.79921,10000.0,85.000001,85.000001,85.000001,85.000001,395.0,0.0,0.0,0.0,1.0,166.665,51.208,51.208,45.67,45.67,34.0,-23.665,26.788333333333334,-30.113333333333333,31.695,0.0,1781.331,-0.5249999999999986,100.0,28.740000000000002,29.306,44.165,44.861000000000004,0.0,0.0,100.0,0.0,0.0,0.0,0.0,3210.5714285714284,3261.3,4377.25,4328.0,305.3475,304.43025,314.22125,314.0385,22.0595,20.6801,22.0833,21.5853,314.999998,314.999998,324.999988,324.999988,99.55875714285715,99.50751666666666,99.56911428571429,99.54932857142857,0.11900000000000022,-0.019000000000000017,-0.07733333333333337,0.14316666666666666,-0.05666666666667197,-0.03999999999999915,1.439,1.432,38.872,30.250500000000002,39.021,35.908500000000004,55.736000000000004,35.667500000000004,60.069,53.353,53.682,34.7575,58.623,51.6485,52.829,34.285,58.4945,51.040333333333336,-0.11699999999999999,-0.046499999999999986,0.10605,0.101315,0.0,218.335,218.335,214.89333333333332,214.89333333333332,0.0,0.0
32,0.0,0.0,0.0,1.0,1.0,0.0,0.0,1.0,0.0,100.0,1.0,1.1856,26.0,0.0,0.0,0.0,63.999999,0.0,26.0,26.0,26.0,26.0,0.04625,0.2714000000000001,-0.0425,291.275,-2.7016,-2.678,-1.5905,-1.5439,-167.14,215.54000000000002,190.28025,0.0,0.0,0.0,0.0,0.06469999999999998,-5.498166666666667,-5.498166666666667,-0.6061000000000001,-0.184,-0.0003333333333332966,0.30299999999999994,69.878,0.0357,-0.23135,-0.5500000000000007,100.0,1.0,1.0,215.41333333333333,0.0,0.0,0.0,0.0,0.0,0.0,0.0,9130.5,0.0,55.0,5.0,251.53333333333336,0.0,0.0,0.0,0.0,0.0,0.0,1.0,0.0,1.6050000000000004,1.6050000000000004,0.0,0.0,0.0,55.0,616.79921,10000.0,85.000001,85.000001,85.000001,85.000001,395.0,0.0,0.0,0.0,1.0,166.665,51.498,51.498,46.494,46.494,34.0,-21.37,27.081666666666667,-27.026666666666664,32.8675,0.0,1781.281,-0.504999999999999,100.0,28.813,28.993000000000002,44.074,44.591,0.0,0.0,100.0,0.0,0.0,0.0,0.0,3069.5714285714284,3208.7,4150.875,4325.0,305.4635,304.6685,314.72975,314.28425,22.0688,20.6859,22.0937,21.5946,314.999998,314.999998,324.999988,324.999988,99.55877142857143,99.50753333333333,99.56925714285714,99.54948571428571,0.13474999999999993,-0.01200000000000001,-0.06466666666666665,0.16383333333333328,-0.03499999999999659,-0.04833333333333201,1.5373333333333332,1.5084999999999997,38.93,30.287,39.086,35.966499999999996,55.726,35.7065,60.1045,53.4135,53.672,34.794,58.656,51.7065,52.818,34.32,58.5245,51.097,-0.12050000000000005,-0.04700000000000015,0.10918000000000001,0.10949,0.0,218.69,218.745,215.41333333333333,215.41333333333333,0.0,0.0
33,0.0,0.0,0.0,1.0,1.0,0.0,0.0,1.0,0.0,100.0,1.0,1.1856,26.0,0.0,0.0,0.0,63.999999,0.0,26.0,26.0,26.0,26.0,0.063,0.25550000000000006,-0.0388,291.595,-2.7388,-2.66925,-1.5977000000000001,-1.5828,-163.57,215.5325,190.253625,0.0,0.0,0.0,0.0,0.06676666666666653,-5.498166666666667,-5.498166666666667,-0.615,-0.242,-0.0037777777777776578,-0.17199999999999993,70.007,0.038900000000000004,-0.21655000000000002,-0.45199999999999996,100.0,1.0,1.0,215.82,0.0,0.0,0.0,0.0,0.0,0.0,0.0,9147.8,0.0,55.0,5.0,251.99666666666667,1.0,0.0,0.0,0.0,0.0,0.0,1.0,0.0,1.6559999999999988,1.6559999999999988,0.0,0.0,1.0,55.0,616.79921,10000.0,85.000001,85.000001,85.000001,85.000001,395.0,0.0,0.0,0.0,1.0,166.665,51.879999999999995,51.879999999999995,46.89,46.89,34.0,-22.7225,25.1,-27.666666666666664,31.4525,0.0,1781.23,-0.48999999999999844,100.0,28.475,28.83,43.848,44.480000000000004,0.0,0.0,100.0,0.0,0.0,0.0,0.0,3173.4285714285716,3044.4,4148.0,4203.4,305.409,305.02775,314.814,314.477,22.078,20.6916,22.1041,21.6039,314.999998,314.999998,324.999988,324.999988,99.55878571428572,99.50753333333333,99.56941428571429,99.54964285714286,0.12524999999999986,-0.024333333333333318,-0.07666666666666666,0.1443333333333332,-0.04999999999999716,-0.03999999999999915,1.5313333333333334,1.5059999999999998,38.986999999999995,30.322499999999998,39.15,36.024,55.715,35.7435,60.1405,53.473,53.661,34.828,58.689,51.763999999999996,52.807,34.3525,58.5545,51.15266666666667,-0.11949999999999994,-0.046499999999999986,0.108355,0.10836000000000001,0.0,219.12,219.14,215.82,215.82,0.0,0.0
34,0.0,0.0,0.0,1.0,1.0,0.0,0.0,1.0,0.0,100.0,1.0,1.1856,26.0,0.0,0.0,0.0,63.999999,0.0,26.0,26.0,26.0,26.0,0.07137500000000001,0.26460000000000017,-0.05702000000000001,291.87,-2.6794000000000002,-2.6626250000000002,-1.63585,-1.5442,-160.20999999999998,215.525,190.22725,0.0,0.0,0.0,0.0,0.06873333333333331,-5.498166666666667,-5.498166666666667,-0.64,-0.8685,0.02299999999999991,-0.18999999999999995,70.128,0.041100000000000005,-0.2214,-0.4559999999999995,100.0,1.0,1.0,216.17333333333335,0.0,0.0,0.0,0.0,0.0,0.0,0.0,9162.8,0.0,55.0,5.0,252.43666666666667,0.0,0.0,0.0,0.0,0.0,0.0,1.0,0.0,1.7040000000000006,1.7040000000000006,0.0,0.0,0.0,55.0,616.79921,10000.0,85.000001,85.000001,85.000001,85.000001,395.0,0.0,0.0,0.0,1.0,333.33500000000004,52.338,52.338,47.18,47.18,34.0,-21.6875,25.113333333333333,-27.91,31.2925,0.0,1781.18,-0.46000000000000085,100.0,28.163,28.496000000000002,43.69,44.561,0.0,0.0,100.0,0.0,0.0,0.0,0.0,3089.5714285714284,2998.5,4124.25,4188.9,305.6485,305.11525,314.91325,314.4715,22.0865,20.6968,22.1138,21.6127,314.999998,314.999998,324.999988,324.999988,99.5588,99.50753333333333,99.56955714285715,99.54977142857143,0.12049999999999983,-0.013333333333333308,-0.07399999999999995,0.15316666666666667,-0.036666666666668846,-0.03833333333332689,1.5086666666666666,1.509,39.041,30.355,39.211,36.079,55.704,35.7775,60.173,53.5305,53.650999999999996,34.8595,58.7195,51.8195,52.795,34.3825,58.5815,51.207,-0.11799999999999988,-0.04200000000000026,0.10820500000000001,0.10675000000000001,0.0,219.46,219.49,216.17333333333335,216.17333333333335,0.0,0.0
35,0.0,0.0,0.0,1.0,1.0,0.0,0.0,1.0,0.0,100.0,1.0,1.1856,26.0,0.0,0.0,0.0,63.999999,0.0,26.0,26.0,26.0,26.0,0.060875,0.26249999999999996,-0.09214,291.824,-2.7371,-2.6107500000000003,-1.5487000000000002,-1.5713000000000001,-156.63,215.51999999999998,190.197375,0.0,0.0,0.0,0.0,0.07079999999999997,-5.498166666666667,-5.498166666666667,-0.6785,-0.241,0.007777777777777883,-0.14200000000000013,70.255,0.0429,-0.2275,-0.49799999999999933,100.0,1.0,1.0,216.64,0.0,0.0,0.0,0.0,0.0,0.0,0.0,9182.6,0.0,55.0,5.0,252.89333333333335,1.0,0.0,0.0,0.0,0.0,0.0,1.0,0.0,1.754999999999999,1.754999999999999,0.0,0.0,1.0,55.0,616.79921,10000.0,85.000001,85.000001,85.000001,85.000001,395.0,0.0,0.0,0.0,1.0,166.665,51.788,51.788,46.753,46.753,34.0,-21.884999999999998,28.513333333333332,-25.79,31.115000000000002,0.0,1781.13,-0.3249999999999993,100.0,28.118,28.67,43.519999999999996,44.018,0.0,0.0,100.0,0.0,0.0,0.0,0.0,3044.5714285714284,3401.4,4104.25,4070.5,305.5955,304.09875,314.95125,314.9045,22.0955,20.7027,22.1241,21.6218,314.999998,314.999998,324.999988,324.999988,99.55881428571429,99.50753333333333,99.5697,99.54992857142857,0.12475000000000014,-0.0076666666666665995,-0.06299999999999994,0.16983333333333328,-0.021666666666668277,-0.05833333333333002,1.561,1.5295,39.097,30.392,39.275,36.1365,55.69,35.8165,60.207,53.5875,53.638,34.8955,58.751,51.8745,52.781,34.417500000000004,58.61,51.260666666666665,-0.10499999999999998,-0.05900000000000016,0.11336500000000001,0.10838,0.0,219.85000000000002,219.89,216.64,216.64,0.0,0.0
36,0.0,0.0,0.0,1.0,1.0,0.0,0.0,1.0,0.0,100.0,1.0,1.1856,26.0,0.0,0.0,0.0,63.999999,0.0,26.0,26.0,26.0,26.0,0.0525,0.26180000000000003,0.054400000000000004,291.046,-2.6542,-2.70925,-1.5784,-1.5486,-153.25,215.51749999999998,190.168,0.0,0.0,0.0,0.0,0.07276666666666654,-5.498166666666667,-5.498166666666667,-0.6627000000000001,0.1715,-0.035555555555555785,0.22599999999999998,70.377,0.039,-0.2018,-0.2779999999999987,100.0,1.0,1.0,216.82,0.0,0.0,0.0,0.0,0.0,0.0,0.0,9190.2,0.0,55.0,5.0,253.33333333333334,0.0,0.0,0.0,0.0,0.0,0.0,1.0,0.0,1.8030000000000008,1.8030000000000008,0.0,0.0,0.0,55.0,616.79921,10000.0,85.000001,85.000001,85.000001,85.000001,395.0,0.0,0.0,0.0,1.0,333.33500000000004,51.453,51.453,46.463,46.463,34.0,-21.525,27.115000000000002,-28.986666666666665,34.8725,0.0,1781.081,-0.254999999999999,100.0,28.862000000000002,28.832,43.772,44.224000000000004,0.0,0.0,100.0,0.0,0.0,0.0,0.0,3066.285714285714,3194.2,4345.0,4519.2,305.316,304.6425,314.30825,313.78775,22.1042,20.7082,22.1339,21.6306,314.999998,314.999998,324.999988,324.999988,99.55884285714286,99.50753333333333,99.56984285714286,99.55007142857143,0.125,-0.01733333333333331,-0.06966666666666665,0.15916666666666668,-0.03499999999999659,-0.04833333333333201,1.454,1.4409999999999998,39.150999999999996,30.426499999999997,39.337,36.1915,55.681,35.8535,60.2415,53.644999999999996,53.629000000000005,34.93,58.783,51.93,52.771,34.4505,58.638999999999996,51.315333333333335,-0.09999999999999987,-0.06050000000000022,0.11213000000000001,0.10616,0.0,220.275,220.29500000000002,216.82,216.82,0.0,0.0
