,ABS Active,ABS Enabled,AID Allow Tire Blankets,AID Auto Blip,AID Auto Clutch,AID Auto Shift,AID Fuel Rate,AID Ideal Line,AID Mech Damage,AID Stability,AID Tire Wear Rate,Air Density,Air Temp,Ballast,Best Lap Delta,Best Lap Time,Brake Bias,Brake Pos,Brake Temp FL,Brake Temp FR,Brake Temp RL,Brake Temp RR,CG Accel Lateral,CG Accel Longitudinal,CG Accel Vertical,CG Height,Camber FL,Camber FR,Camber RL,Camber RR,Car Coord X,Car Coord Y,Car Coord Z,Car Damage Front,Car Damage Left,Car Damage Rear,Car Damage Right,Car Pos Norm,Caster FL,Caster FR,Chassis Pitch Angle,Chassis Pitch Rate,Chassis Roll Angle,Chassis Roll Rate,Chassis Velocity X,Chassis Velocity Y,Chassis Velocity Z,Chassis Yaw Rate,Clutch Pos,DRS Active,DRS Available,Drive Train Speed,ERS Heat Charging,ERS Is Charging,ERS Max Energy,ERS Power Level,ERS Recovery Level,Engine Brake Setting,Engine Limiter,Engine RPM,Flags,Fuel Level,Gear,Ground Speed,HR Sample Clock,In Pit,KERS Charge,KERS Deployed Energy,KERS Input,KERS Max Energy,LR Sample Clock,Lap Invalidated,Lap Time,Lap Time2,Last Lap Time,Last Sector Time,MR Sample Clock,Max Fuel,Max Power,Max RPM,Max Sus Travel FL,Max Sus Travel FR,Max Sus Travel RL,Max Sus Travel RR,Max Torque,Max Turbo Boost,Num Tires Off Track,Penalties Enabled,Position,Raw Data Sample Rate,Ride Height FL,Ride Height FR,Ride Height RL,Ride Height RR,Road Temp,Self Align Torque FL,Self Align Torque FR,Self Align Torque RL,Self Align Torque RR,Session Lap Count,Session Time Left,Steering Angle,Surface Grip,Suspension Travel FL,Suspension Travel FR,Suspension Travel RL,Suspension Travel RR,TC Active,TC Enabled,Throttle Pos,Tire Dirt Level FL,Tire Dirt Level FR,Tire Dirt Level RL,Tire Dirt Level RR,Tire Load FL,Tire Load FR,Tire Load RL,Tire Load RR,Tire Loaded Radius FL,Tire Loaded Radius FR,Tire Loaded Radius RL,Tire Loaded Radius RR,Tire Pressure FL,Tire Pressure FR,Tire Pressure RL,Tire Pressure RR,Tire Radius FL,Tire Radius FR,Tire Radius RL,Tire Radius RR,Tire Rubber Grip FL,Tire Rubber Grip FR,Tire Rubber Grip RL,Tire Rubber Grip RR,Tire Slip Angle FL,Tire Slip Angle FR,Tire Slip Angle RL,Tire Slip Angle RR,Tire Slip Ratio FL,Tire Slip Ratio FR,Tire Slip Ratio RL,Tire Slip Ratio RR,Tire Temp Core FL,Tire Temp Core FR,Tire Temp Core RL,Tire Temp Core RR,Tire Temp Inner FL,Tire Temp Inner FR,Tire Temp Inner RL,Tire Temp Inner RR,Tire Temp Middle FL,Tire Temp Middle FR,Tire Temp Middle RL,Tire Temp Middle RR,Tire Temp Outer FL,Tire Temp Outer FR,Tire Temp Outer RL,Tire Temp Outer RR,Toe In FL,Toe In FR,Toe In RL,Toe In RR,Turbo Boost,Wheel Angular Speed FL,Wheel Angular Speed FR,Wheel Angular Speed RL,Wheel Angular Speed RR,Wind Direction,Wind Speed
0,0.0,0.0,0.0,1.0,1.0,0.0,0.0,1.0,0.0,100.0,1.0,1.1856,26.0,0.0,0.0,0.0,63.99999,0.0,26.0,26.0,26.0,26.0,-0.017888888888888843,0.29300000000000015,0.13403333333333334,292.984,-2.7842,-2.4690000000000003,-1.5550000000000002,-1.5113333333333332,-275.54,215.5275,190.986625,0.0,0.0,0.0,0.0,0.0016666666666666668,-5.498166666666667,-5.498166666666667,-0.555,2.2876666666666665,-0.004875000000000185,-0.392,65.482,-0.0298,-0.221275,0.11000000000000032,100.0,1.0,1.0,202.15,0.0,0.0,0.0,0.0,0.0,0.0,0.0,8568.3,0.0,55.0,5.0,235.70333333333332,0.0,0.0,0.0,0.0,0.0,0.0,0.0,0.0,0.006000000000000227,0.006000000000000227,0.0,0.0,0.0,55.0,616.79921,10000.0,85.0,85.0,85.0,85.0,395.0,0.0,0.0,0.0,1.0,20.0,50.674,50.674,48.34,48.34,34.0,-28.795,29.446666666666665,-29.606666666666666,26.6625,0.0,1781.699,0.19000000000000128,100.0,27.496,27.536,40.482,40.099000000000004,0.0,0.0,100.0,0.0,0.0,0.0,0.0,3269.833333333333,4153.0,4123.625,4154.7,304.765,301.257,314.80566666666664,314.54725,21.7745,20.5156,21.7636,21.310200000000002,314.99999,314.99999,324.99998,324.99998,99.5587,99.50716666666666,99.5647,99.54498571428572,0.02375000000000016,-0.09250000000000003,-0.1343333333333333,0.08699999999999997,-0.041666666666671404,-0.051666666666669414,1.5526666666666666,1.554,37.091,29.22233333333333,37.022999999999996,34.189,56.218,34.485,58.906,51.528,54.138999999999996,33.663,57.536,49.8935,53.311,33.2345,57.499,49.32366666666667,-0.06099999999999994,-0.09250000000000025,0.10543000000000001,0.11222000000000001,0.0,205.195,205.175,202.15,202.15,0.0,0.0
1,0.0,0.0,0.0,1.0,1.0,0.0,0.0,1.0,0.0,100.0,1.0,1.1856,26.0,0.0,0.0,0.0,63.999999,0.0,26.0,26.0,26.0,26.0,-0.08577777777777784,0.29469999999999996,0.1787,292.542,-2.6846,-2.7115,-1.59605,-1.4576666666666667,-272.0,215.5375,190.96575,0.0,0.0,0.0,0.0,0.0037333333333333337,-5.498166666666667,-5.498166666666667,-0.48510000000000003,-2.5333333333333337,-0.054749999999999854,-0.6619999999999999,65.648,-0.0275,-0.19975,0.6280000000000001,100.0,1.0,1.0,202.16,0.0,0.0,0.0,0.0,0.0,0.0,0.0,8568.9,0.0,55.0,5.0,236.30333333333334,1.0,0.0,0.0,0.0,0.0,0.0,0.0,0.0,0.05999999999999872,0.05999999999999872,0.0,0.0,1.0,55.0,616.79921,10000.0,85.000001,85.000001,85.000001,85.000001,395.0,0.0,0.0,0.0,1.0,166.665,54.337,54.337,47.638,47.638,34.0,-23.377499999999998,17.03,-37.49333333333334,30.795,0.0,1781.646,0.4250000000000007,100.0,27.478,26.889,42.662,43.763,0.0,0.0,100.0,0.0,0.0,0.0,0.0,2854.0,2461.6,4647.5,4706.5,306.1765,307.00166666666667,313.341,312.35675,21.7847,20.5207,21.775199999999998,21.3202,314.999998,314.999998,324.999988,324.999988,99.55871428571429,99.5072,99.56485714285714,99.54514285714286,0.028750000000000053,-0.10524999999999995,-0.15116666666666656,0.06433333333333335,-0.03166666666666629,-0.02499999999999858,1.29,1.318,37.155,29.254666666666665,37.095,34.251,56.199,34.522999999999996,58.957499999999996,51.603,54.120999999999995,33.698,57.5845,49.965,53.292,33.2685,57.544,49.394,-0.038999999999999924,-0.10499999999999998,0.11012000000000001,0.11238500000000001,0.0,205.635,205.595,202.16,202.16,0.0,0.0
2,0.0,0.0,0.0,1.0,1.0,0.0,0.0,1.0,0.0,100.0,1.0,1.1856,26.0,0.0,0.0,0.0,63.999999,0.0,26.0,26.0,26.0,26.0,-0.09188888888888891,0.2896000000000001,-0.24333333333333337,293.976,-2.6673,-2.651625,-1.57095,-1.5106666666666668,-268.84,215.5475,190.947875,0.0,0.0,0.0,0.0,0.005566666666666667,-5.498166666666667,-5.498166666666667,-0.5756,1.0150000000000001,-0.0068749999999999645,2.133,65.775,-0.0328,-0.26925,0.8940000000000001,100.0,1.0,1.0,203.48333333333335,0.0,0.0,0.0,0.0,0.0,0.0,0.0,8624.9,0.0,55.0,5.0,236.76,0.0,0.0,0.0,0.0,0.0,0.0,0.0,0.0,0.10800000000000054,0.10800000000000054,0.0,0.0,0.0,55.0,616.79921,10000.0,85.000001,85.000001,85.000001,85.000001,395.0,0.0,0.0,0.0,1.0,166.665,52.048,52.048,50.812,50.812,34.0,-28.515,21.491666666666667,-25.526666666666664,19.085,0.0,1781.597,0.5749999999999993,100.0,28.22,27.474,41.789,41.514,0.0,0.0,100.0,0.0,0.0,0.0,0.0,3255.166666666667,3098.2,3501.75,3422.8,304.748,304.7506666666667,316.3206666666667,316.42825,21.7943,20.5256,21.7847,21.328,314.999998,314.999998,324.999988,324.999988,99.55871428571429,99.50721666666666,99.56498571428571,99.54527142857143,0.004249999999999865,-0.11749999999999994,-0.18099999999999994,0.06099999999999994,-0.041666666666671404,-0.08166666666667055,1.7633333333333334,1.8245,37.214,29.285333333333334,37.153999999999996,34.3,56.187,34.5615,58.9895,51.6475,54.108999999999995,33.7335,57.614,50.007999999999996,53.28,33.3025,57.5715,49.436,-0.03299999999999992,-0.1200000000000001,0.10829000000000001,0.10763,0.0,206.075,206.01999999999998,203.48333333333335,203.48333333333335,0.0,0.0
3,0.0,0.0,0.0,1.0,1.0,0.0,0.0,1.0,0.0,100.0,1.0,1.1856,26.0,0.0,0.0,0.0,63.999999,0.0,26.0,26.0,26.0,26.0,-0.07855555555555549,0.30100000000000016,0.0364,293.076,-2.6585,-2.6865,-1.5465499999999999,-1.4872222222222222,-265.68,215.5525,190.92875,0.0,0.0,0.0,0.0,0.0074,-5.498166666666667,-5.498166666666667,-0.5006,0.5733333333333334,0.0,-2.138,65.923,-0.0463,-0.186275,0.7779999999999996,100.0,1.0,1.0,203.27666666666667,0.0,0.0,0.0,0.0,0.0,0.0,0.0,8616.2,0.0,55.0,5.0,237.29333333333335,1.0,0.0,0.0,0.0,0.0,0.0,0.0,0.0,0.1559999999999988,0.1559999999999988,0.0,0.0,1.0,55.0,616.79921,10000.0,85.000001,85.000001,85.000001,85.000001,395.0,0.0,0.0,0.0,1.0,333.33500000000004,53.345,53.345,47.562,47.562,34.0,-24.5125,19.376666666666665,-35.59,26.735,0.0,1781.548,0.6600000000000001,100.0,27.734,27.446,42.035,41.984,0.0,0.0,100.0,0.0,0.0,0.0,0.0,2887.5,2855.0,4541.25,4332.3,306.127,305.548,313.791,313.975,21.8034,20.5306,21.7945,21.3365,314.999998,314.999998,324.999988,324.999988,99.55871428571429,99.50721666666666,99.56511428571429,99.5454,0.000500000000000167,-0.12849999999999995,-0.16666666666666663,0.05916666666666681,-0.045000000000001705,-0.041666666666671404,1.4363333333333332,1.4585,37.271,29.316333333333333,37.216,34.353,56.169,34.6015,59.0275,51.711,54.093,33.7705,57.6495,50.069,53.263,33.338,57.604,49.495666666666665,-0.024499999999999966,-0.12550000000000017,0.11277500000000001,0.104565,0.0,206.55,206.505,203.27666666666667,203.27666666666667,0.0,0.0
4,0.0,0.0,0.0,1.0,1.0,0.0,0.0,1.0,0.0,100.0,1.0,1.1856,26.0,0.0,0.0,0.0,63.999999,0.0,26.0,26.0,26.0,26.0,-0.08866666666666656,0.29869999999999997,0.00036666666666666667,293.442,-2.6513,-2.7545,-1.48085,-1.603888888888889,-262.12,215.56,190.90825,0.0,0.0,0.0,0.0,0.009466666666666668,-5.498166666666667,-5.498166666666667,-0.5359,-0.7836666666666666,-0.05549999999999988,-0.6499999999999999,66.078,-0.056900000000000006,-0.2376,1.2279999999999998,100.0,1.0,1.0,203.96333333333334,0.0,0.0,0.0,0.0,0.0,0.0,0.0,8645.2,0.0,55.0,5.0,237.85333333333335,0.0,0.0,0.0,0.0,0.0,0.0,0.0,0.0,0.21000000000000085,0.21000000000000085,0.0,0.0,0.0,55.0,616.79921,10000.0,85.000001,85.000001,85.000001,85.000001,395.0,0.0,0.0,0.0,1.0,166.665,53.024,53.024,48.782,48.782,34.0,-28.4825,19.336666666666666,-31.12,22.677500000000002,0.0,1781.495,0.7349999999999994,100.0,27.713,27.061,42.772,42.024,0.0,0.0,100.0,0.0,0.0,0.0,0.0,3241.5,2865.1,4103.5,3793.4,305.081,305.602,314.8453333333333,315.3795,21.8138,20.536,21.805799999999998,21.3459,314.999998,314.999998,324.999988,324.999988,99.55872857142857,99.50723333333333,99.56527142857144,99.54554285714286,-0.010999999999999899,-0.14449999999999996,-0.18699999999999994,0.03966666666666674,-0.046666666666666856,-0.05666666666667197,1.5496666666666665,1.6225,37.336,29.35,37.286,34.412,56.152,34.644,59.073,51.7735,54.076,33.8095,57.692,50.129,53.245000000000005,33.375,57.6435,49.55433333333333,-0.022499999999999964,-0.133,0.10192000000000001,0.10953500000000001,0.0,206.995,206.9,203.96333333333334,203.96333333333334,0.0,0.0
5,0.0,0.0,0.0,1.0,1.0,0.0,0.0,1.0,0.0,100.0,1.0,1.1856,26.0,0.0,0.0,0.0,63.999999,0.0,26.0,26.0,26.0,26.0,-0.08777777777777784,0.30110000000000015,-0.04526666666666667,293.762,-2.6736,-2.7102500000000003,-1.5203,-1.5833333333333333,-258.94,215.5625,190.8895,0.0,0.0,0.0,0.0,0.011333333333333334,-5.498166666666667,-5.498166666666667,-0.5389,0.5746666666666667,-0.03949999999999987,-0.514,66.214,-0.0757,-0.22365000000000002,1.2119999999999997,100.0,1.0,1.0,204.45666666666668,0.0,0.0,0.0,0.0,0.0,0.0,0.0,8666.2,0.0,55.0,5.0,238.34,1.0,0.0,0.0,0.0,0.0,0.0,0.0,0.0,0.2579999999999991,0.2579999999999991,0.0,0.0,1.0,55.0,616.79921,10000.0,85.000001,85.000001,85.000001,85.000001,395.0,0.0,0.0,0.0,1.0,333.33500000000004,53.284,53.284,49.254999999999995,49.254999999999995,34.0,-27.6875,19.455,-30.813333333333333,22.4325,0.0,1781.446,0.40000000000000213,100.0,27.612,26.959,42.364000000000004,41.522999999999996,0.0,0.0,100.0,0.0,0.0,0.0,0.0,3144.333333333333,2880.1,3967.875,3930.6000000000004,305.3165,305.501,315.21733333333333,315.09525,21.8231,20.5409,21.8155,21.3541,314.999998,314.999998,324.999988,324.999988,99.55872857142857,99.50725,99.5654,99.54567142857142,-0.008999999999999897,-0.136,-0.19999999999999996,0.021333333333333426,-0.06333333333333258,-0.045000000000001705,1.5776666666666666,1.6280000000000001,37.394999999999996,29.380333333333333,37.347,34.463,56.138,34.683,59.109,51.8275,54.063,33.8455,57.7255,50.1805,53.230999999999995,33.4095,57.6745,49.605333333333334,-0.04499999999999993,-0.10349999999999993,0.10219,0.11674000000000001,0.0,207.47,207.365,204.45666666666668,204.45666666666668,0.0,0.0
6,0.0,0.0,0.0,1.0,1.0,0.0,0.0,1.0,0.0,100.0,1.0,1.1856,26.0,0.0,0.0,0.0,63.999999,0.0,26.0,26.0,26.0,26.0,-0.11744444444444446,0.3057000000000001,0.023333333333333334,293.564,-2.6513999999999998,-2.78625,-1.5116,-1.5711111111111111,-255.76,215.5625,190.870125,0.0,0.0,0.0,0.0,0.013166666666666667,-5.498166666666667,-5.498166666666667,-0.5256000000000001,-0.21133333333333335,-0.060875000000000234,-1.117,66.355,-0.0809,-0.20370000000000002,0.9800000000000004,100.0,1.0,1.0,204.71,0.0,0.0,0.0,0.0,0.0,0.0,0.0,8677.0,0.0,55.0,5.0,238.85000000000002,0.0,0.0,0.0,0.0,0.0,0.0,0.0,0.0,0.30600000000000094,0.30600000000000094,0.0,0.0,0.0,55.0,616.79921,10000.0,85.000001,85.000001,85.000001,85.000001,395.0,0.0,0.0,0.0,1.0,333.33500000000004,53.711,53.711,48.507999999999996,48.507999999999996,34.0,-28.545,18.583333333333332,-34.349999999999994,23.2675,0.0,1781.398,0.48499999999999943,100.0,27.34,26.611,42.617000000000004,41.689,0.0,0.0,100.0,0.0,0.0,0.0,0.0,3181.166666666667,2751.0,4290.25,4031.9,305.2625,305.905,314.389,314.785,21.8323,20.5456,21.8254,21.3625,314.999998,314.999998,324.999988,324.999988,99.55872857142857,99.50726666666667,99.56554285714286,99.5458,-0.02675000000000005,-0.14874999999999994,-0.20233333333333337,0.019333333333333425,-0.03999999999999915,-0.041666666666671404,1.4986666666666668,1.5385,37.452,29.410333333333334,37.409,34.5155,56.122,34.7205,59.1485,51.8855,54.048,33.879999999999995,57.7625,50.236000000000004,53.215,33.442499999999995,57.7085,49.659666666666666,-0.035499999999999865,-0.1080000000000001,0.10500500000000001,0.11018000000000001,0.0,207.87,207.79000000000002,204.71,204.71,0.0,0.0
7,0.0,0.0,0.0,1.0,1.0,0.0,0.0,1.0,0.0,100.0,1.0,1.1856,26.0,0.0,0.0,0.0,63.999999,0.0,26.0,26.0,26.0,26.0,-0.0875555555555555,0.2833000000000001,-0.011033333333333334,293.564,-2.6654,-2.782375,-1.5642,-1.6165555555555557,-252.17,215.5575,190.848375,0.0,0.0,0.0,0.0,0.015266666666666666,-5.498166666666667,-5.498166666666667,-0.5329,0.12366666666666667,-0.05074999999999985,-0.20199999999999996,66.508,-0.0826,-0.21457500000000002,0.758,100.0,1.0,1.0,205.26,0.0,0.0,0.0,0.0,0.0,0.0,0.0,8700.2,0.0,55.0,5.0,239.4,1.0,0.0,0.0,0.0,0.0,0.0,0.0,0.0,0.35999999999999943,0.35999999999999943,0.0,0.0,1.0,55.0,616.79921,10000.0,85.000001,85.000001,85.000001,85.000001,395.0,0.0,0.0,0.0,1.0,166.665,53.36,53.36,48.737,48.737,34.0,-27.28,20.263333333333332,-33.54333333333334,22.965,0.0,1781.345,-0.030000000000001137,100.0,27.629,26.821,42.646,41.647,0.0,0.0,100.0,0.0,0.0,0.0,0.0,3184.666666666667,2824.1,4163.375,3925.4,305.253,305.667,314.7436666666667,315.04975,21.8428,20.551099999999998,21.8365,21.3719,314.999998,314.999998,324.999988,324.999988,99.55872857142857,99.50728333333333,99.5657,99.54595714285715,0.007249999999999979,-0.12024999999999997,-0.20233333333333337,0.01849999999999996,-0.054999999999999716,-0.054999999999999716,1.545,1.573,37.518,29.444333333333333,37.477999999999994,34.574,56.107,34.763,59.1915,51.948499999999996,54.033,33.919,57.8025,50.2965,53.2,33.480000000000004,57.7455,49.718666666666664,-0.0814999999999999,-0.07050000000000001,0.10261,0.10619500000000001,0.0,208.35500000000002,208.26,205.26,205.26,0.0,0.0
8,0.0,0.0,0.0,1.0,1.0,0.0,0.0,1.0,0.0,100.0,1.0,1.1856,26.0,0.0,0.0,0.0,63.999999,0.0,26.0,26.0,26.0,26.0,-0.060111111111111115,0.29190000000000005,-0.0267,293.564,-2.6968,-2.712625,-1.5421,-1.6087777777777779,-248.98,215.5525,190.828875,0.0,0.0,0.0,0.0,0.017133333333333334,-5.498166666666667,-5.498166666666667,-0.5374,-0.21033333333333334,-0.03862500000000013,-0.99,66.645,-0.0726,-0.2199,0.4400000000000004,100.0,1.0,1.0,205.67333333333335,0.0,0.0,0.0,0.0,0.0,0.0,0.0,8717.8,0.0,55.0,5.0,239.89333333333332,0.0,0.0,0.0,0.0,0.0,0.0,0.0,0.0,0.40800000000000125,0.40800000000000125,0.0,0.0,0.0,55.0,616.79921,10000.0,85.000001,85.000001,85.000001,85.000001,395.0,0.0,0.0,0.0,1.0,166.665,53.391,53.391,48.569,48.569,34.0,-26.465,21.075,-31.383333333333333,24.247500000000002,0.0,1781.297,-0.08999999999999986,100.0,27.345,26.966,42.646,41.832,0.0,0.0,100.0,0.0,0.0,0.0,0.0,3121.666666666667,2932.0,4063.125,3953.6000000000004,305.459,305.35266666666666,314.9803333333333,314.95,21.852,20.556,21.8463,21.3803,314.999998,314.999998,324.999988,324.999988,99.55872857142857,99.5073,99.56582857142857,99.54608571428571,0.018000000000000238,-0.10649999999999993,-0.1835,0.04133333333333322,-0.051666666666669414,-0.051666666666669414,1.5433333333333334,1.572,37.575,29.475,37.54,34.626999999999995,56.092,34.8005,59.229,52.006,54.019,33.954,57.8375,50.352000000000004,53.185,33.513,57.778,49.772666666666666,-0.08549999999999991,-0.06150000000000011,0.09985500000000001,0.11159000000000001,0.0,208.745,208.70499999999998,205.67333333333335,205.67333333333335,0.0,0.0
9,0.0,0.0,0.0,1.0,1.0,0.0,0.0,1.0,0.0,100.0,1.0,1.1856,26.0,0.0,0.0,0.0,63.999999,0.0,26.0,26.0,26.0,26.0,-0.05233333333333334,0.2801,-0.008533333333333334,293.304,-2.616,-2.72925,-1.54325,-1.5652222222222223,-245.78,215.5475,190.80925,0.0,0.0,0.0,0.0,0.019,-5.498166666666667,-5.498166666666667,-0.5344,0.2643333333333333,-0.04862499999999992,-0.688,66.781,-0.0596,-0.212425,0.21799999999999997,100.0,1.0,1.0,206.07666666666665,0.0,0.0,0.0,0.0,0.0,0.0,0.0,8734.9,0.0,55.0,5.0,240.38,1.0,0.0,0.0,0.0,0.0,0.0,0.0,0.0,0.4559999999999995,0.4559999999999995,0.0,0.0,1.0,55.0,616.79921,10000.0,85.000001,85.000001,85.000001,85.000001,395.0,0.0,0.0,0.0,1.0,166.665,53.009,53.009,48.782,48.782,34.0,-26.57,21.723333333333333,-31.31,25.4925,0.0,1781.25,-0.23999999999999844,100.0,27.627,27.05,42.596000000000004,41.870000000000005,0.0,0.0,100.0,0.0,0.0,0.0,0.0,3243.833333333333,2931.6,4089.625,4064.7,305.069,305.359,314.9116666666667,314.728,21.8612,20.561,21.8562,21.3887,314.999998,314.999998,324.999988,324.999988,99.55874285714286,99.5073,99.56595714285714,99.54622857142857,0.027000000000000135,-0.09375,-0.17566666666666664,0.06000000000000005,-0.04833333333333201,-0.061666666666667425,1.5363333333333333,1.54,37.632999999999996,29.506,37.601,34.679,56.078,34.838,59.266,52.0625,54.006,33.988,57.872,50.406,53.171,33.546,57.8095,49.82566666666666,-0.09749999999999992,-0.04899999999999993,0.110225,0.11814000000000001,0.0,209.17000000000002,209.16,206.07666666666665,206.07666666666665,0.0,0.0
10,0.0,0.0,0.0,1.0,1.0,0.0,0.0,1.0,0.0,100.0,1.0,1.1856,26.0,0.0,0.0,0.0,63.999999,0.0,26.0,26.0,26.0,26.0,-0.024666666666666615,0.2934000000000001,-0.0024000000000000002,293.213,-2.6797,-2.702375,-1.508,-1.5481111111111112,-242.17000000000002,215.5375,190.78725,0.0,0.0,0.0,0.0,0.0211,-5.498166666666667,-5.498166666666667,-0.529,-0.3676666666666667,-0.019874999999999865,-0.08499999999999996,66.934,-0.041600000000000005,-0.212075,-0.013999999999999346,100.0,1.0,1.0,206.46333333333334,0.0,0.0,0.0,0.0,0.0,0.0,0.0,8751.2,0.0,55.0,5.0,240.93333333333334,0.0,0.0,0.0,0.0,0.0,0.0,1.0,0.0,0.509999999999998,0.509999999999998,0.0,0.0,0.0,55.0,616.79921,10000.0,85.000001,85.000001,85.000001,85.000001,395.0,0.0,0.0,0.0,1.0,166.665,53.329,53.329,48.278999999999996,48.278999999999996,34.0,-24.822499999999998,21.86,-30.693333333333335,26.6525,0.0,1781.195,-0.3249999999999993,100.0,27.507,27.019,42.746,42.294,0.0,0.0,100.0,0.0,0.0,0.0,0.0,3091.333333333333,2923.4,4156.875,4180.7,305.5485,305.41066666666666,314.75033333333334,314.39975,21.8715,20.5665,21.8673,21.3982,314.999998,314.999998,324.999988,324.999988,99.55874285714286,99.50731666666667,99.56611428571429,99.54637142857143,0.04700000000000015,-0.08250000000000002,-0.15849999999999997,0.0665,-0.060000000000002274,-0.03833333333332689,1.516,1.5155,37.697,29.540666666666667,37.671,34.739,56.063,34.8785,59.3085,52.128,53.991,34.0255,57.912,50.469,53.156,33.5815,57.8465,49.88733333333333,-0.10450000000000004,-0.0495000000000001,0.10762500000000001,0.10865500000000002,0.0,209.63,209.615,206.46333333333334,206.46333333333334,0.0,0.0
11,0.0,0.0,0.0,1.0,1.0,0.0,0.0,1.0,0.0,100.0,1.0,1.1856,26.0,0.0,0.0,0.0,63.999999,0.0,26.0,26.0,26.0,26.0,-0.021777777777777785,0.28880000000000017,-0.03486666666666667,293.488,-2.6803,-2.7022500000000003,-1.5607,-1.5232222222222223,-238.75,215.53,190.76625,0.0,0.0,0.0,0.0,0.022600000000000002,-5.498166666666667,-5.498166666666667,-0.5509000000000001,-0.14133333333333334,0.004750000000000032,0.7550000000000001,67.076,-0.0253,-0.223225,-0.24600000000000044,100.0,1.0,1.0,207.01999999999998,0.0,0.0,0.0,0.0,0.0,0.0,0.0,8774.9,0.0,55.0,5.0,241.44333333333333,1.0,0.0,0.0,0.0,0.0,0.0,1.0,0.0,0.5609999999999999,0.5609999999999999,0.0,0.0,1.0,55.0,616.79921,10000.0,85.000001,85.000001,85.000001,85.000001,395.0,0.0,0.0,0.0,1.0,166.665,53.253,53.253,48.859,48.859,34.0,-23.46,24.50333333333333,-27.403333333333336,26.745,0.0,1781.145,-0.370000000000001,100.0,27.436,26.968,42.528,42.194,0.0,0.0,100.0,0.0,0.0,0.0,0.0,3014.0,3117.2,3905.5,4066.9,305.6005,304.9753333333333,315.35,314.78575,21.8811,20.5718,21.8777,21.4072,314.999998,314.999998,324.999988,324.999988,99.55875714285715,99.50731666666667,99.56625714285714,99.54651428571428,0.06850000000000023,-0.05499999999999994,-0.128,0.09933333333333327,-0.036666666666668846,-0.06333333333333258,1.584,1.575,37.757,29.573666666666668,37.736000000000004,34.795,56.048,34.9165,59.345,52.188,53.977000000000004,34.061,57.946,50.5265,53.141,33.6155,57.878,49.944,-0.10050000000000003,-0.04600000000000026,0.10441500000000001,0.10762000000000001,0.0,210.065,210.055,207.01999999999998,207.01999999999998,0.0,0.0
12,0.0,0.0,0.0,1.0,1.0,0.0,0.0,1.0,0.0,100.0,1.0,1.1856,26.0,0.0,0.0,0.0,63.999999,0.0,26.0,26.0,26.0,26.0,0.0086666666666666,0.2792000000000001,0.010333333333333333,293.106,-2.7138,-2.691625,-1.54125,-1.5432222222222223,-235.73,215.5225,190.746875,0.0,0.0,0.0,0.0,0.025466666666666665,-5.498166666666667,-5.498166666666667,-0.5423,0.3716666666666667,0.0021249999999999325,-0.728,67.202,-0.0112,-0.2054,-0.20199999999999996,100.0,1.0,1.0,207.33333333333331,0.0,0.0,0.0,0.0,0.0,0.0,0.0,8788.0,0.0,55.0,5.0,241.89666666666665,0.0,0.0,0.0,0.0,0.0,0.0,1.0,0.0,0.6059999999999981,0.6059999999999981,0.0,0.0,0.0,55.0,616.79921,10000.0,85.000001,85.000001,85.000001,85.000001,395.0,0.0,0.0,0.0,1.0,333.33500000000004,52.994,52.994,48.278999999999996,48.278999999999996,34.0,-24.715,23.931666666666665,-29.24,27.8125,0.0,1781.098,-0.375,100.0,27.413,27.39,42.365,42.277,0.0,0.0,100.0,0.0,0.0,0.0,0.0,3130.5,3049.5,4157.5,4156.8,305.425,304.997,314.7796666666667,314.535,21.889499999999998,20.5766,21.8869,21.4151,314.999998,314.999998,324.999988,324.999988,99.55875714285715,99.50733333333334,99.56638571428572,99.54664285714286,0.06599999999999984,-0.05699999999999994,-0.123,0.09616666666666673,-0.03833333333332689,-0.04999999999999716,1.5296666666666665,1.527,37.81,29.60333333333333,37.793,34.8445,56.036,34.951,59.3785,52.2415,53.965,34.0925,57.9775,50.578,53.128,33.6455,57.9065,49.994,-0.10549999999999993,-0.04700000000000015,0.10833500000000001,0.10204500000000001,0.0,210.45499999999998,210.48000000000002,207.33333333333331,207.33333333333331,0.0,0.0
13,0.0,0.0,0.0,1.0,1.0,0.0,0.0,1.0,0.0,100.0,1.0,1.1856,26.0,0.0,0.0,0.0,63.999999,0.0,26.0,26.0,26.0,26.0,0.027888888888888852,0.2741,0.024300000000000002,292.831,-2.6801,-2.70525,-1.5706,-1.552888888888889,-232.3,215.5125,190.72525,0.0,0.0,0.0,0.0,0.026833333333333334,-5.498166666666667,-5.498166666666667,-0.5379,-0.226,0.00275000000000003,1.2429999999999999,67.345,-0.0044,-0.21377500000000002,-0.35599999999999987,100.0,1.0,1.0,207.7,0.0,0.0,0.0,0.0,0.0,0.0,0.0,8803.6,0.0,55.0,5.0,242.41333333333336,1.0,0.0,0.0,0.0,0.0,0.0,1.0,0.0,0.657,0.657,0.0,0.0,1.0,55.0,616.79921,10000.0,85.000001,85.000001,85.000001,85.000001,395.0,0.0,0.0,0.0,1.0,333.33500000000004,52.856,52.856,48.065,48.065,34.0,-22.197499999999998,25.72833333333333,-28.963333333333335,30.5975,0.0,1781.047,-0.35999999999999943,100.0,27.8,27.362000000000002,42.805,42.612,0.0,0.0,100.0,0.0,0.0,0.0,0.0,3028.5,3112.8,4102.25,4299.0,305.5385,304.9893333333333,314.788,314.238,21.8991,20.582,21.8974,21.4243,314.999998,314.999998,324.999988,324.999988,99.55877142857143,99.50733333333334,99.56652857142858,99.54678571428572,0.10199999999999987,-0.025000000000000022,-0.1133333333333334,0.12166666666666681,-0.023333333333326323,-0.06666666666666998,1.5053333333333332,1.488,37.869,29.637333333333334,37.858999999999995,34.9015,56.022999999999996,34.989,59.419,52.3045,53.953,34.1275,58.0145,50.6385,53.114999999999995,33.6795,57.9405,50.053333333333335,-0.11799999999999988,-0.03049999999999997,0.10491500000000001,0.113805,0.0,210.88,210.9,207.7,207.7,0.0,0.0
14,0.0,0.0,0.0,1.0,1.0,0.0,0.0,1.0,0.0,100.0,1.0,1.1856,26.0,0.0,0.0,0.0,63.999999,0.0,26.0,26.0,26.0,26.0,0.039111111111111097,0.27590000000000003,-0.02856666666666667,293.06,-2.7063,-2.70625,-1.56825,-1.5415555555555558,-228.86,215.505,190.704,0.0,0.0,0.0,0.0,0.028833333333333332,-5.498166666666667,-5.498166666666667,-0.5504,-0.05333333333333334,0.01849999999999996,-0.40900000000000003,67.485,0.005,-0.22567500000000001,-0.34999999999999964,100.0,1.0,1.0,208.23000000000002,0.0,0.0,0.0,0.0,0.0,0.0,0.0,8826.0,0.0,55.0,5.0,242.91666666666666,0.0,0.0,0.0,0.0,0.0,0.0,1.0,0.0,0.7079999999999984,0.7079999999999984,0.0,0.0,0.0,55.0,616.79921,10000.0,85.000001,85.000001,85.000001,85.000001,395.0,0.0,0.0,0.0,1.0,333.33500000000004,52.856,52.856,48.431,48.431,34.0,-23.265,24.465,-27.326666666666664,28.17,0.0,1780.995,-0.41499999999999915,100.0,27.584,27.708,42.559,42.8,0.0,0.0,100.0,0.0,0.0,0.0,0.0,3092.333333333333,3014.4,3997.125,4081.5,305.5455,305.05733333333336,315.144,314.701,21.9087,20.5874,21.9078,21.4333,314.999998,314.999998,324.999988,324.999988,99.55878571428572,99.50735,99.56667142857142,99.54692857142857,0.09025000000000016,-0.04074999999999995,-0.10499999999999998,0.11633333333333318,-0.051666666666669414,-0.054999999999999716,1.5463333333333333,1.545,37.929,29.671333333333333,37.924,34.958,56.01,35.027,59.456,52.3655,53.941,34.1625,58.049,50.697,53.102000000000004,33.713,57.972,50.11066666666667,-0.10949999999999993,-0.03750000000000009,0.10452,0.10302000000000001,0.0,211.325,211.345,208.23000000000002,208.23000000000002,0.0,0.0
15,0.0,0.0,0.0,1.0,1.0,0.0,0.0,1.0,0.0,100.0,1.0,1.1856,26.0,0.0,0.0,0.0,63.999999,0.0,26.0,26.0,26.0,26.0,0.05222222222222217,0.2701,-0.018966666666666666,292.953,-2.6999,-2.68025,-1.57835,-1.558888888888889,-225.61,215.4975,190.6835,0.0,0.0,0.0,0.0,0.0307,-5.498166666666667,-5.498166666666667,-0.5426,0.191,0.02937499999999993,-0.83,67.617,0.0128,-0.211675,-0.3260000000000005,100.0,1.0,1.0,208.59,0.0,0.0,0.0,0.0,0.0,0.0,0.0,8841.4,0.0,55.0,5.0,243.39333333333335,1.0,0.0,0.0,0.0,0.0,0.0,1.0,0.0,0.7560000000000002,0.7560000000000002,0.0,0.0,1.0,55.0,616.79921,10000.0,85.000001,85.000001,85.000001,85.000001,395.0,0.0,0.0,0.0,1.0,333.33500000000004,52.887,52.887,48.233000000000004,48.233000000000004,34.0,-23.119999999999997,24.095,-27.683333333333334,29.915,0.0,1780.947,-0.3049999999999997,100.0,27.575,27.779,42.433,42.908,0.0,0.0,100.0,0.0,0.0,0.0,0.0,3056.166666666667,2996.2,4089.75,4147.2,305.6595,305.0946666666667,314.93833333333333,314.49625,21.9177,20.5926,21.9176,21.4418,314.999998,314.999998,324.999988,324.999988,99.55878571428572,99.50735,99.56681428571429,99.54707142857143,0.0847500000000001,-0.04074999999999995,-0.09333333333333338,0.13116666666666688,-0.046666666666666856,-0.03833333333332689,1.53,1.516,37.985,29.703666666666663,37.985,35.0115,55.998000000000005,35.063,59.491,52.424,53.929,34.195499999999996,58.0815,50.753,53.09,33.7445,58.0015,50.16566666666667,-0.09999999999999987,-0.04800000000000004,0.105355,0.11159500000000001,0.0,211.755,211.755,208.59,208.59,0.0,0.0
16,0.0,0.0,0.0,1.0,1.0,0.0,0.0,1.0,0.0,100.0,1.0,1.1856,26.0,0.0,0.0,0.0,63.999999,0.0,26.0,26.0,26.0,26.0,0.03255555555555567,0.2791000000000001,-0.012366666666666668,292.77,-2.7565,-2.629375,-1.55335,-1.5581111111111112,-221.96,215.49,190.660125,0.0,0.0,0.0,0.0,0.03283333333333333,-5.498166666666667,-5.498166666666667,-0.5556,-0.3133333333333333,0.018124999999999947,-1.093,67.766,0.015700000000000002,-0.225475,-0.1899999999999995,100.0,1.0,1.0,209.05333333333334,0.0,0.0,0.0,0.0,0.0,0.0,0.0,8861.0,0.0,55.0,5.0,243.93,0.0,0.0,0.0,0.0,0.0,0.0,1.0,0.0,0.8099999999999987,0.8099999999999987,0.0,0.0,0.0,55.0,616.79921,10000.0,85.000001,85.000001,85.000001,85.000001,395.0,0.0,0.0,0.0,1.0,166.665,52.46,52.46,48.05,48.05,34.0,-25.0075,25.583333333333336,-26.903333333333332,28.5375,0.0,1780.895,-0.23499999999999943,100.0,27.496,27.88,42.697,43.028,0.0,0.0,100.0,0.0,0.0,0.0,0.0,3231.333333333333,3158.9,4039.5,4015.2,305.223,304.67333333333335,315.02166666666665,314.838,21.9277,20.5984,21.9287,21.4515,314.999998,314.999998,324.999988,324.999988,99.5588,99.50735,99.56695714285715,99.54721428571429,0.08725000000000005,-0.028249999999999997,-0.09216666666666662,0.1280000000000001,-0.04833333333333201,-0.046666666666666856,1.5376666666666665,1.5265,38.048,29.740000000000002,38.055,35.072,55.983999999999995,35.1035,59.5315,52.489,53.915,34.233000000000004,58.12,50.816,53.075,33.7805,58.036500000000004,50.227333333333334,-0.09450000000000003,-0.04899999999999993,0.10419500000000001,0.1044,0.0,212.16500000000002,212.185,209.05333333333334,209.05333333333334,0.0,0.0
17,0.0,0.0,0.0,1.0,1.0,0.0,0.0,1.0,0.0,100.0,1.0,1.1856,26.0,0.0,0.0,0.0,63.999999,0.0,26.0,26.0,26.0,26.0,0.021444444444444377,0.28259999999999996,0.02916666666666667,292.435,-2.6261,-2.615875,-1.49985,-1.5223333333333333,-218.7,215.48250000000002,190.639125,0.0,0.0,0.0,0.0,0.03473333333333333,-5.498166666666667,-5.498166666666667,-0.5497000000000001,0.211,-0.005125000000000046,-0.973,67.897,0.0143,-0.213675,-0.11799999999999944,100.0,1.0,1.0,209.38,0.0,0.0,0.0,0.0,0.0,0.0,0.0,8874.9,0.0,55.0,5.0,244.4,1.0,0.0,0.0,0.0,0.0,0.0,1.0,0.0,0.8580000000000005,0.8580000000000005,0.0,0.0,1.0,55.0,616.79921,10000.0,85.000001,85.000001,85.000001,85.000001,395.0,0.0,0.0,0.0,1.0,166.665,52.353,52.353,47.577,47.577,34.0,-23.6625,24.086666666666666,-28.39,29.785,0.0,1780.847,-0.16000000000000014,100.0,27.8,27.956,42.696,43.007,0.0,0.0,100.0,0.0,0.0,0.0,0.0,3184.833333333333,3095.0,4316.75,4204.7,305.186,304.84833333333336,314.3736666666667,314.43325,21.9367,20.6036,21.9385,21.46,314.999998,314.999998,324.999988,324.999988,99.55881428571429,99.50736666666667,99.5671,99.54735714285714,0.08524999999999983,-0.04774999999999996,-0.09050000000000002,0.12949999999999995,-0.06666666666666998,-0.03499999999999659,1.5086666666666666,1.5030000000000001,38.104,29.772666666666666,38.116,35.125,55.972,35.1395,59.567499999999995,52.546,53.903999999999996,34.266999999999996,58.153,50.871,53.062,33.813,58.067,50.281333333333336,-0.08949999999999991,-0.06800000000000006,0.108255,0.11189,0.0,212.615,212.60500000000002,209.38,209.38,0.0,0.0
18,0.0,0.0,0.0,1.0,1.0,0.0,0.0,1.0,0.0,100.0,1.0,1.1856,26.0,0.0,0.0,0.0,63.999999,0.0,26.0,26.0,26.0,26.0,0.015666666666666718,0.27780000000000005,0.04873333333333334,292.404,-2.6503,-2.73975,-1.50015,-1.4827777777777778,-215.44,215.47750000000002,190.618,0.0,0.0,0.0,0.0,0.03663333333333333,-5.498166666666667,-5.498166666666667,-0.5605,-0.3676666666666667,0.0008749999999999591,-0.5229999999999999,68.028,0.0064,-0.225225,0.0039999999999995595,100.0,1.0,1.0,209.7733333333333,0.0,0.0,0.0,0.0,0.0,0.0,0.0,8891.5,0.0,55.0,5.0,244.87333333333333,0.0,0.0,0.0,0.0,0.0,0.0,1.0,0.0,0.9059999999999988,0.9059999999999988,0.0,0.0,0.0,55.0,616.79921,10000.0,85.000001,85.000001,85.000001,85.000001,395.0,0.0,0.0,0.0,1.0,166.665,52.307,52.307,47.668,47.668,34.0,-23.9725,25.628333333333334,-28.283333333333335,28.5975,0.0,1780.799,-0.23000000000000043,100.0,27.769,27.909,42.909,43.168,0.0,0.0,100.0,0.0,0.0,0.0,0.0,3180.833333333333,3118.8,4153.625,4234.3,305.2535,304.64433333333335,314.718,314.33475,21.9457,20.6087,21.9484,21.4686,314.999998,314.999998,324.999988,324.999988,99.55882857142858,99.50736666666667,99.56724285714286,99.5475,0.08124999999999982,-0.046499999999999986,-0.11066666666666658,0.11233333333333317,-0.03833333333332689,-0.051666666666669414,1.4946666666666668,1.5045,38.161,29.804666666666666,38.178,35.179,55.959,35.1755,59.6035,52.6045,53.891999999999996,34.3,58.1865,50.927,53.049,33.8445,58.098,50.336,-0.09549999999999992,-0.058499999999999996,0.10474000000000001,0.10672500000000001,0.0,213.005,212.995,209.7733333333333,209.7733333333333,0.0,0.0
19,0.0,0.0,0.0,1.0,1.0,0.0,0.0,1.0,0.0,100.0,1.0,1.1856,26.0,0.0,0.0,0.0,63.999999,0.0,26.0,26.0,26.0,26.0,0.023777777777777898,0.2894000000000001,0.0526,292.221,-2.6448,-2.7119999999999997,-1.5239500000000001,-1.6065555555555557,-211.97,215.4725,190.595375,0.0,0.0,0.0,0.0,0.03863333333333333,-5.498166666666667,-5.498166666666667,-0.551,0.592,0.00912500000000005,0.6779999999999999,68.16499999999999,0.0005,-0.21430000000000002,-0.10799999999999965,100.0,1.0,1.0,210.20666666666668,0.0,0.0,0.0,0.0,0.0,0.0,0.0,8909.9,0.0,55.0,5.0,245.36666666666667,1.0,0.0,0.0,0.0,0.0,0.0,1.0,0.0,0.9570000000000007,0.9570000000000007,0.0,0.0,1.0,55.0,616.79921,10000.0,85.000001,85.000001,85.000001,85.000001,395.0,0.0,0.0,0.0,1.0,166.665,52.063,52.063,47.745,47.745,34.0,-22.68,25.15,-28.45,31.22,0.0,1780.748,-0.19000000000000128,100.0,28.42,28.151,42.929,43.11,0.0,0.0,100.0,0.0,0.0,0.0,0.0,3065.833333333333,3131.1,4137.125,4314.3,305.3975,304.803,314.75466666666665,314.12975,21.9554,20.6143,21.9588,21.4777,314.999998,314.999998,324.999988,324.999988,99.55884285714286,99.50736666666667,99.56737142857143,99.54764285714286,0.09224999999999994,-0.04974999999999996,-0.10983333333333334,0.11416666666666675,-0.041666666666671404,-0.054999999999999716,1.495,1.4935,38.221000000000004,29.839666666666666,38.242000000000004,35.236,55.948,35.215,59.6395,52.6655,53.881,34.3365,58.2205,50.986000000000004,53.037,33.879999999999995,58.1285,50.39366666666667,-0.09899999999999998,-0.059499999999999886,0.11024500000000001,0.10492000000000001,0.0,213.45,213.45,210.20666666666668,210.20666666666668,0.0,0.0
20,0.0,0.0,0.0,1.0,1.0,0.0,0.0,1.0,0.0,100.0,1.0,1.1856,26.0,0.0,0.0,0.0,63.999999,0.0,26.0,26.0,26.0,26.0,0.020333333333333314,0.2662,-0.016133333333333336,292.404,-2.7156000000000002,-2.651625,-1.5288,-1.593,-208.49,215.4675,190.572875,0.0,0.0,0.0,0.0,0.04066666666666667,-5.498166666666667,-5.498166666666667,-0.5566,-0.8253333333333334,0.004624999999999879,-0.857,68.303,0.0006000000000000001,-0.2272,0.03000000000000025,100.0,1.0,1.0,210.62,0.0,0.0,0.0,0.0,0.0,0.0,0.0,8927.4,0.0,55.0,5.0,245.86666666666667,0.0,0.0,0.0,0.0,0.0,0.0,0.0,0.0,1.0079999999999991,1.0079999999999991,0.0,0.0,0.0,55.0,616.79921,10000.0,85.000001,85.000001,85.000001,85.000001,395.0,0.0,0.0,0.0,1.0,333.33500000000004,52.551,52.551,47.44,47.44,34.0,-24.18,23.461666666666666,-29.03,28.585,0.0,1780.697,-0.14999999999999858,100.0,27.883,28.042,43.381,43.593,0.0,0.0,100.0,0.0,0.0,0.0,0.0,3135.166666666667,3024.0,4139.75,4035.5,305.466,305.099,314.77733333333333,314.71675,21.9648,20.6198,21.9694,21.487000000000002,314.999998,314.999998,324.999988,324.999988,99.55885714285715,99.50738333333334,99.56752857142857,99.54778571428571,0.0794999999999999,-0.05449999999999999,-0.12016666666666664,0.11250000000000004,-0.046666666666666856,-0.03166666666666629,1.499,1.516,38.28,29.873666666666665,38.309,35.2935,55.933,35.2535,59.6795,52.728,53.867000000000004,34.372,58.257999999999996,51.045500000000004,53.022999999999996,33.9135,58.163,50.452333333333335,-0.09299999999999997,-0.06499999999999995,0.11406500000000001,0.11247000000000001,0.0,213.835,213.84,210.62,210.62,0.0,0.0
21,0.0,0.0,0.0,1.0,1.0,0.0,0.0,1.0,0.0,100.0,1.0,1.1856,26.0,0.0,0.0,0.0,63.999999,0.0,26.0,26.0,26.0,26.0,0.011444444444444368,0.27870000000000017,-0.0426,292.603,-2.7153,-2.6652500000000003,-1.5790000000000002,-1.5342222222222222,-205.20999999999998,215.4625,190.55125,0.0,0.0,0.0,0.0,0.04256666666666667,-5.498166666666667,-5.498166666666667,-0.5740000000000001,0.12066666666666667,-0.004249999999999865,-0.723,68.43,-0.001,-0.223425,-0.02799999999999958,100.0,1.0,1.0,211.12666666666667,0.0,0.0,0.0,0.0,0.0,0.0,0.0,8948.9,0.0,55.0,5.0,246.32,1.0,0.0,0.0,0.0,0.0,0.0,0.0,0.0,1.056000000000001,1.056000000000001,0.0,0.0,1.0,55.0,616.79921,10000.0,85.000001,85.000001,85.000001,85.000001,395.0,0.0,0.0,0.0,1.0,166.665,52.383,52.383,48.065,48.065,34.0,-25.1625,24.29,-28.7,27.175,0.0,1780.649,-0.2049999999999983,100.0,27.957,27.962,43.025999999999996,43.202,0.0,0.0,100.0,0.0,0.0,0.0,0.0,3223.666666666667,3069.4,4066.5,4012.4,305.198,304.984,315.026,314.934,21.9737,20.625,21.9791,21.4954,314.999998,314.999998,324.999988,324.999988,99.55885714285715,99.50738333333334,99.56767142857143,99.54791428571428,0.0754999999999999,-0.04674999999999996,-0.12016666666666664,0.11233333333333317,-0.06666666666666998,-0.046666666666666856,1.5653333333333332,1.568,38.336,29.906333333333336,38.369,35.3465,55.921,35.29,59.713,52.7825,53.855000000000004,34.4055,58.2885,51.0985,53.01,33.946,58.191,50.504,-0.09250000000000003,-0.05650000000000022,0.11048500000000001,0.10947000000000001,0.0,214.265,214.245,211.12666666666667,211.12666666666667,0.0,0.0
22,0.0,0.0,0.0,1.0,1.0,0.0,0.0,1.0,0.0,100.0,1.0,1.1856,26.0,0.0,0.0,0.0,63.999999,0.0,26.0,26.0,26.0,26.0,-0.006000000000000005,0.2754000000000001,0.004366666666666666,292.145,-2.7686,-2.635375,-1.596,-1.5341111111111112,-201.70999999999998,215.45749999999998,190.5275,0.0,0.0,0.0,0.0,0.0446,-5.498166666666667,-5.498166666666667,-0.5579000000000001,0.021666666666666667,0.006000000000000005,1.0859999999999999,68.568,-0.0024000000000000002,-0.2011,-0.12799999999999923,100.0,1.0,1.0,211.38,0.0,0.0,0.0,0.0,0.0,0.0,0.0,8959.6,0.0,55.0,5.0,246.81666666666666,0.0,0.0,0.0,0.0,0.0,0.0,0.0,0.0,1.1069999999999993,1.1069999999999993,0.0,0.0,0.0,55.0,616.79921,10000.0,85.000001,85.000001,85.000001,85.000001,395.0,0.0,0.0,0.0,1.0,333.33500000000004,52.46,52.46,47.15,47.15,34.0,-23.7775,24.545,-30.426666666666666,30.9025,0.0,1780.598,-0.26500000000000057,100.0,28.162,27.898,43.325,43.272,0.0,0.0,100.0,0.0,0.0,0.0,0.0,3062.666666666667,3156.6,4257.125,4404.2,305.5705,304.92966666666666,314.48633333333333,314.0435,21.9832,20.6306,21.9896,21.5046,314.999998,314.999998,324.999988,324.999988,99.55887142857142,99.5074,99.56781428571429,99.54807142857143,0.08824999999999994,-0.047250000000000014,-0.10749999999999993,0.11533333333333329,-0.03833333333332689,-0.04999999999999716,1.4776666666666667,1.4809999999999999,38.394999999999996,29.941,38.435,35.4035,55.908,35.329,59.7515,52.844,53.843,34.4415,58.325,51.1575,52.997,33.9805,58.224000000000004,50.56166666666667,-0.10250000000000004,-0.06099999999999994,0.10745500000000001,0.10589000000000001,0.0,214.685,214.685,211.38,211.38,0.0,0.0
23,0.0,0.0,0.0,1.0,1.0,0.0,0.0,1.0,0.0,100.0,1.0,1.1856,26.0,0.0,0.0,0.0,63.999999,0.0,26.0,26.0,26.0,26.0,-0.0024444444444444713,0.27560000000000007,-0.018066666666666665,292.038,-2.6581,-2.691625,-1.6372499999999999,-1.5077777777777779,-198.20999999999998,215.45499999999998,190.504,0.0,0.0,0.0,0.0,0.04663333333333333,-5.498166666666667,-5.498166666666667,-0.5730000000000001,-0.178,0.002375000000000016,-0.735,68.703,0.0009000000000000001,-0.224975,-0.07200000000000006,100.0,1.0,1.0,211.86666666666667,0.0,0.0,0.0,0.0,0.0,0.0,0.0,8980.3,0.0,55.0,5.0,247.30333333333334,1.0,0.0,0.0,0.0,0.0,0.0,0.0,0.0,1.1580000000000013,1.1580000000000013,0.0,0.0,1.0,55.0,616.79921,10000.0,85.000001,85.000001,85.000001,85.000001,395.0,0.0,0.0,0.0,1.0,333.33500000000004,51.91,51.91,47.546,47.546,34.0,-24.86,24.331666666666667,-30.759999999999998,27.875,0.0,1780.547,-0.245000000000001,100.0,28.27,28.224,43.386,43.594,0.0,0.0,100.0,0.0,0.0,0.0,0.0,3264.0,3067.7,4212.5,4139.4,304.9545,304.89233333333334,314.7203333333333,314.61375,21.9927,20.6362,22.0001,21.5138,314.999998,314.999998,324.999988,324.999988,99.55888571428571,99.5074,99.56795714285714,99.54821428571428,0.08174999999999999,-0.05399999999999994,-0.11683333333333334,0.1096666666666668,-0.03833333333332689,-0.04999999999999716,1.5190000000000001,1.5354999999999999,38.454,29.976,38.5,35.4615,55.896,35.3685,59.789500000000004,52.9055,53.831,34.478,58.36,51.216499999999996,52.983999999999995,34.0155,58.2565,50.61966666666667,-0.10099999999999998,-0.05449999999999999,0.10626000000000001,0.10872000000000001,0.0,215.07,215.09,211.86666666666667,211.86666666666667,0.0,0.0
24,0.0,0.0,0.0,1.0,1.0,0.0,0.0,1.0,0.0,100.0,1.0,1.1856,26.0,0.0,0.0,0.0,63.999999,0.0,26.0,26.0,26.0,26.0,0.02022222222222214,0.2816000000000001,-0.021166666666666667,292.419,-2.6839,-2.668875,-1.5463,-1.5647777777777778,-194.91,215.45,190.4815,0.0,0.0,0.0,0.0,0.04856666666666667,-5.498166666666667,-5.498166666666667,-0.5843,-0.36633333333333334,0.009874999999999856,-0.21399999999999997,68.83,0.0047,-0.221725,-0.15200000000000014,100.0,1.0,1.0,212.23666666666668,0.0,0.0,0.0,0.0,0.0,0.0,0.0,8995.9,0.0,55.0,5.0,247.76,0.0,0.0,0.0,0.0,0.0,0.0,0.0,0.0,1.2059999999999995,1.2059999999999995,0.0,0.0,0.0,55.0,616.79921,10000.0,85.000001,85.000001,85.000001,85.000001,395.0,0.0,0.0,0.0,1.0,333.33500000000004,52.719,52.719,47.394,47.394,34.0,-22.83,23.258333333333333,-29.39,28.7,0.0,1780.499,-0.245000000000001,100.0,28.058,27.985,43.356,43.53,0.0,0.0,100.0,0.0,0.0,0.0,0.0,3048.333333333333,2980.5,4204.875,4118.5,305.6795,305.251,314.639,314.62325,22.0015,20.6413,22.009900000000002,21.5224,314.999998,314.999998,324.999988,324.999988,99.5589,99.5074,99.56808571428571,99.54835714285714,0.08800000000000008,-0.05349999999999999,-0.11383333333333334,0.11149999999999993,-0.04333333333332945,-0.04333333333332945,1.522,1.5245,38.509,30.008333333333333,38.562,35.515,55.882999999999996,35.4035,59.8245,52.962,53.819,34.5105,58.393,51.271,52.971000000000004,34.0465,58.286,50.673,-0.10149999999999992,-0.05699999999999994,0.11568,0.105895,0.0,215.47500000000002,215.47,212.23666666666668,212.23666666666668,0.0,0.0
25,0.0,0.0,0.0,1.0,1.0,0.0,0.0,1.0,0.0,100.0,1.0,1.1856,26.0,0.0,0.0,0.0,63.999999,0.0,26.0,26.0,26.0,26.0,0.01333333333333342,0.27870000000000017,-0.015700000000000002,292.16,-2.746,-2.6502499999999998,-1.5899,-1.5545555555555557,-191.39999999999998,215.445,190.456125,0.0,0.0,0.0,0.0,0.0506,-5.498166666666667,-5.498166666666667,-0.6025,0.083,0.020624999999999893,0.33499999999999996,68.963,0.0061,-0.21887500000000001,-0.16999999999999993,100.0,1.0,1.0,212.71,0.0,0.0,0.0,0.0,0.0,0.0,0.0,9016.0,0.0,55.0,5.0,248.24,1.0,0.0,0.0,0.0,0.0,0.0,0.0,0.0,1.256999999999998,1.256999999999998,0.0,0.0,1.0,55.0,616.79921,10000.0,85.000001,85.000001,85.000001,85.000001,395.0,0.0,0.0,0.0,1.0,333.33500000000004,51.804,51.804,47.791,47.791,34.0,-24.7775,27.046666666666667,-27.293333333333333,29.6975,0.0,1780.448,-0.259999999999998,100.0,28.13,28.055,43.194,43.266999999999996,0.0,0.0,100.0,0.0,0.0,0.0,0.0,3241.833333333333,3342.1,4006.0,4158.1,305.0435,304.28066666666666,315.16333333333336,314.59925,22.0107,20.6469,22.0202,21.5315,314.999998,314.999998,324.999988,324.999988,99.5589,99.50741666666667,99.56824285714286,99.5485,0.09775,-0.034499999999999975,-0.09733333333333338,0.13050000000000006,-0.04999999999999716,-0.04833333333333201,1.5536666666666665,1.542,38.567,30.043333333333333,38.626000000000005,35.572,55.870000000000005,35.442499999999995,59.86,53.021,53.806,34.5465,58.4255,51.328,52.957,34.0815,58.316,50.72866666666667,-0.10299999999999998,-0.05650000000000022,0.10674000000000002,0.11245000000000001,0.0,215.89499999999998,215.9,212.71,212.71,0.0,0.0
26,0.0,0.0,0.0,1.0,1.0,0.0,0.0,1.0,0.0,100.0,1.0,1.1856,26.0,0.0,0.0,0.0,63.999999,0.0,26.0,26.0,26.0,26.0,0.0277777777777779,0.2834000000000001,0.061766666666666664,291.367,-2.7072,-2.72675,-1.5522,-1.5575555555555556,-187.88,215.4425,190.430625,0.0,0.0,0.0,0.0,0.05263333333333334,-5.498166666666667,-5.498166666666667,-0.5733,0.342,0.0058749999999998526,-0.764,69.099,0.004,-0.20175,-0.10799999999999965,100.0,1.0,1.0,212.9,0.0,0.0,0.0,0.0,0.0,0.0,0.0,9024.0,0.0,55.0,5.0,248.73000000000002,0.0,0.0,0.0,0.0,0.0,0.0,0.0,0.0,1.3079999999999998,1.3079999999999998,0.0,0.0,0.0,55.0,616.79921,10000.0,85.000001,85.000001,85.000001,85.000001,395.0,0.0,0.0,0.0,1.0,333.33500000000004,51.727,51.727,46.57,46.57,34.0,-24.494999999999997,23.976666666666667,-31.776666666666664,31.69,0.0,1780.396,-0.34499999999999886,100.0,28.677,28.679000000000002,43.551,43.819,0.0,0.0,100.0,0.0,0.0,0.0,0.0,3262.666666666667,2990.1,4498.5,4456.8,305.1115,305.11266666666666,313.969,313.7855,22.0202,20.6527,22.0307,21.5408,314.999998,314.999998,324.999988,324.999988,99.55892857142857,99.50741666666667,99.56838571428571,99.54865714285714,0.09624999999999995,-0.05399999999999994,-0.10399999999999998,0.10850000000000004,-0.05666666666667197,-0.04333333333332945,1.4366666666666668,1.444,38.626000000000005,30.079333333333334,38.692,35.629999999999995,55.86,35.483000000000004,59.899,53.084,53.797,34.584,58.4625,51.3885,52.947,34.117,58.3495,50.788,-0.11549999999999994,-0.05500000000000016,0.102635,0.10759500000000001,0.0,216.35000000000002,216.35000000000002,212.9,212.9,0.0,0.0
27,0.0,0.0,0.0,1.0,1.0,0.0,0.0,1.0,0.0,100.0,1.0,1.1856,26.0,0.0,0.0,0.0,63.999999,0.0,26.0,26.0,26.0,26.0,0.029777777777777903,0.25,-0.0482,291.855,-2.7479,-2.671875,-1.6082,-1.5432222222222223,-184.56,215.44,190.4075,0.0,0.0,0.0,0.0,0.054566666666666666,-5.498166666666667,-5.498166666666667,-0.597,-0.8473333333333334,0.010375000000000023,-0.5760000000000001,69.223,0.007500000000000001,-0.238175,-0.2079999999999993,100.0,1.0,1.0,213.43333333333334,0.0,0.0,0.0,0.0,0.0,0.0,0.0,9046.6,0.0,55.0,5.0,249.17666666666668,1.0,0.0,0.0,0.0,0.0,0.0,0.0,0.0,1.355999999999998,1.355999999999998,0.0,0.0,1.0,55.0,616.79921,10000.0,85.000001,85.000001,85.000001,85.000001,395.0,0.0,0.0,0.0,1.0,333.33500000000004,51.987,51.987,46.753,46.753,34.0,-24.197499999999998,24.726666666666667,-29.876666666666665,28.0425,0.0,1780.348,-0.3049999999999997,100.0,28.374,28.589,43.977000000000004,44.132999999999996,0.0,0.0,100.0,0.0,0.0,0.0,0.0,3146.0,3104.2,4170.375,4054.4,305.502,304.8156666666667,314.7823333333333,314.843,22.0289,20.658,22.0407,21.549599999999998,314.999998,314.999998,324.999988,324.999988,99.55892857142857,99.50743333333334,99.56852857142857,99.54878571428571,0.08749999999999991,-0.04774999999999996,-0.11183333333333334,0.11516666666666686,-0.051666666666669414,-0.05666666666667197,1.5036666666666667,1.5145,38.681,30.112333333333332,38.754000000000005,35.685,55.848,35.5195,59.936,53.141999999999996,53.785,34.618,58.4965,51.444,52.934,34.1495,58.3805,50.842,-0.10450000000000004,-0.05750000000000011,0.10885,0.10211500000000001,0.0,216.685,216.695,213.43333333333334,213.43333333333334,0.0,0.0
28,0.0,0.0,0.0,1.0,1.0,0.0,0.0,1.0,0.0,100.0,1.0,1.1856,26.0,0.0,0.0,0.0,63.999999,0.0,26.0,26.0,26.0,26.0,0.02244444444444449,0.26490000000000014,-0.0328,291.962,-2.6786,-2.6595,-1.62395,-1.5703333333333334,-181.01999999999998,215.4375,190.382125,0.0,0.0,0.0,0.0,0.05663333333333334,-5.498166666666667,-5.498166666666667,-0.6016,0.5753333333333334,0.00374999999999992,0.45399999999999996,69.35300000000001,0.0095,-0.216175,-0.2699999999999996,100.0,1.0,1.0,213.91,0.0,0.0,0.0,0.0,0.0,0.0,0.0,9066.8,0.0,55.0,5.0,249.64666666666665,0.0,0.0,0.0,0.0,0.0,0.0,0.0,0.0,1.407,1.407,0.0,0.0,0.0,55.0,616.79921,10000.0,85.000001,85.000001,85.000001,85.000001,395.0,0.0,0.0,0.0,1.0,333.33500000000004,51.88,51.88,47.363,47.363,34.0,-22.09,25.868333333333332,-28.713333333333335,30.2875,0.0,1780.296,-0.384999999999998,100.0,28.605,28.423000000000002,43.492000000000004,43.641999999999996,0.0,0.0,100.0,0.0,0.0,0.0,0.0,3072.0,3193.7,4124.0,4164.8,305.4335,304.731,314.9556666666667,314.62125,22.0383,20.6637,22.0509,21.5587,314.999998,314.999998,324.999988,324.999988,99.55894285714285,99.50743333333334,99.56867142857143,99.54892857142858,0.11399999999999988,-0.03225,-0.09750000000000003,0.13616666666666677,-0.051666666666669414,-0.06499999999999773,1.5433333333333334,1.5335,38.739000000000004,30.148,38.818,35.7415,55.836,35.5595,59.97,53.2,53.774,34.6545,58.528,51.5,52.922,34.1845,58.409,50.897,-0.11099999999999999,-0.053999999999999826,0.10623,0.10945500000000001,0.0,217.115,217.115,213.91,213.91,0.0,0.0
29,0.0,0.0,0.0,1.0,1.0,0.0,0.0,1.0,0.0,100.0,1.0,1.1856,26.0,0.0,0.0,0.0,63.999999,0.0,26.0,26.0,26.0,26.0,0.03955555555555579,0.25690000000000013,-0.014066666666666667,291.84,-2.6617,-2.716875,-1.5681500000000002,-1.5514444444444444,-177.48000000000002,215.435,190.35575,0.0,0.0,0.0,0.0,0.058666666666666666,-5.498166666666667,-5.498166666666667,-0.6049,-0.6900000000000001,-0.002375000000000238,-0.765,69.488,0.0123,-0.21532500000000002,-0.29000000000000004,100.0,1.0,1.0,214.17000000000002,0.0,0.0,0.0,0.0,0.0,0.0,0.0,9077.9,0.0,55.0,5.0,250.13,1.0,0.0,0.0,0.0,0.0,0.0,0.0,0.0,1.4579999999999984,1.4579999999999984,0.0,0.0,1.0,55.0,616.79921,10000.0,85.000001,85.000001,85.000001,85.000001,395.0,0.0,0.0,0.0,1.0,166.665,52.307,52.307,46.829,46.829,34.0,-22.7575,24.505,-29.193333333333335,30.6825,0.0,1780.248,-0.41000000000000014,100.0,28.134,28.406,43.81,44.067,0.0,0.0,100.0,0.0,0.0,0.0,0.0,3130.833333333333,2997.8,4204.875,4252.2,305.518,305.107,314.6483333333333,314.28075,22.0475,20.6693,22.0615,21.568,314.999998,314.999998,324.999988,324.999988,99.55895714285714,99.50743333333334,99.56882857142857,99.54908571428571,0.09975000000000023,-0.03974999999999995,-0.10099999999999998,0.12516666666666687,-0.07000000000000028,-0.04333333333332945,1.49,1.468,38.797,30.183,38.884,35.8,55.823,35.5965,60.009,53.262,53.760999999999996,34.689,58.564499999999995,51.56,52.908,34.218,58.442499999999995,50.955,-0.11650000000000005,-0.046499999999999986,0.102855,0.11047000000000001,0.0,217.505,217.5,214.17000000000002,214.17000000000002,0.0,0.0
30,0.0,0.0,0.0,1.0,1.0,0.0,0.0,1.0,0.0,100.0,1.0,1.1856,26.0,0.0,0.0,0.0,63.999999,0.0,26.0,26.0,26.0,26.0,0.04800000000000004,0.2549000000000001,0.0049,291.229,-2.7256,-2.64825,-1.6403500000000002,-1.6004444444444443,-174.14,215.435,190.33075,0.0,0.0,0.0,0.0,0.06063333333333334,-5.498166666666667,-5.498166666666667,-0.6062000000000001,0.8483333333333334,0.00012499999999993072,-0.5209999999999999,69.60900000000001,0.016800000000000002,-0.218275,-0.3360000000000003,100.0,1.0,1.0,214.66333333333333,0.0,0.0,0.0,0.0,0.0,0.0,0.0,9098.8,0.0,55.0,5.0,250.56666666666666,0.0,0.0,0.0,0.0,0.0,0.0,1.0,0.0,1.5060000000000002,1.5060000000000002,0.0,0.0,0.0,55.0,616.79921,10000.0,85.000001,85.000001,85.000001,85.000001,395.0,0.0,0.0,0.0,1.0,333.33500000000004,50.583,50.583,47.119,47.119,34.0,-25.525,26.40833333333333,-30.033333333333335,29.21,0.0,1780.199,-0.370000000000001,100.0,29.053,29.128,43.573,43.998000000000005,0.0,0.0,100.0,0.0,0.0,0.0,0.0,3387.833333333333,3274.8,4216.625,4051.8,304.579,304.15133333333335,314.83366666666666,314.7765,22.0565,20.6748,22.0712,21.5766,314.999998,314.999998,324.999988,324.999988,99.55897142857143,99.50745,99.56895714285714,99.54922857142857,0.10625000000000018,-0.04425000000000001,-0.10433333333333339,0.12233333333333318,-0.041666666666671404,-0.051666666666669414,1.5256666666666665,1.529,38.852999999999994,30.217666666666666,38.945,35.854,55.815,35.635999999999996,60.042,53.318,53.754000000000005,34.7255,58.5955,51.6135,52.899,34.2525,58.47,51.007666666666665,-0.11599999999999988,-0.058499999999999996,0.11461,0.09999000000000001,0.0,217.885,217.91500000000002,214.66333333333333,214.66333333333333,0.0,0.0
31,0.0,0.0,0.0,1.0,1.0,0.0,0.0,1.0,0.0,100.0,1.0,1.1856,26.0,0.0,0.0,0.0,63.999999,0.0,26.0,26.0,26.0,26.0,0.02100000000000013,0.2591000000000001,0.0492,290.741,-2.7641,-2.631875,-1.6418,-1.4994444444444444,-170.59,215.4325,190.304875,0.0,0.0,0.0,0.0,0.0627,-5.498166666666667,-5.498166666666667,-0.5885,-0.3913333333333333,0.008999999999999897,0.819,69.742,0.024300000000000002,-0.220025,-0.4239999999999995,100.0,1.0,1.0,214.85333333333335,0.0,0.0,0.0,0.0,0.0,0.0,0.0,9106.9,0.0,55.0,5.0,251.04666666666668,1.0,0.0,0.0,0.0,0.0,0.0,1.0,0.0,1.5569999999999986,1.5569999999999986,0.0,0.0,1.0,55.0,616.79921,10000.0,85.000001,85.000001,85.000001,85.000001,395.0,0.0,0.0,0.0,1.0,333.33500000000004,51.071,51.071,45.624,45.624,34.0,-23.255,27.39,-30.349999999999998,31.815,0.0,1780.146,-0.375,100.0,29.069,29.075,44.491,44.715,0.0,0.0,100.0,0.0,0.0,0.0,0.0,3142.333333333333,3374.2,4308.875,4412.8,305.3475,304.263,314.29833333333335,313.917,22.0659,20.6806,22.0818,21.586100000000002,314.999998,314.999998,324.999988,324.999988,99.55898571428571,99.50745,99.56912857142858,99.5494,0.11649999999999983,-0.028249999999999997,-0.08083333333333331,0.13183333333333325,-0.03833333333332689,-0.045000000000001705,1.454,1.4315,38.912,30.253999999999998,39.012,35.913,55.804,35.678,60.085,53.3855,53.742999999999995,34.7645,58.6355,51.679,52.887,34.29,58.5065,51.071333333333335,-0.11549999999999994,-0.06099999999999994,0.10926500000000001,0.09670000000000001,0.0,218.285,218.31,214.85333333333335,214.85333333333335,0.0,0.0
32,0.0,0.0,0.0,1.0,1.0,0.0,0.0,1.0,0.0,100.0,1.0,1.1856,26.0,0.0,0.0,0.0,63.999999,0.0,26.0,26.0,26.0,26.0,0.05466666666666686,0.2572000000000001,-0.015300000000000001,291.275,-2.6993,-2.6807499999999997,-1.5877,-1.6215555555555556,-167.03,215.435,190.2795,0.0,0.0,0.0,0.0,0.06476666666666667,-5.498166666666667,-5.498166666666667,-0.6059,-0.28500000000000003,-0.007124999999999826,-0.989,69.869,0.0275,-0.2315,-0.3279999999999994,100.0,1.0,1.0,215.39333333333332,0.0,0.0,0.0,0.0,0.0,0.0,0.0,9129.8,0.0,55.0,5.0,251.50333333333333,0.0,0.0,0.0,0.0,0.0,0.0,1.0,0.0,1.6080000000000005,1.6080000000000005,0.0,0.0,0.0,55.0,616.79921,10000.0,85.000001,85.000001,85.000001,85.000001,395.0,0.0,0.0,0.0,1.0,166.665,51.528999999999996,51.528999999999996,46.555,46.555,34.0,-23.122500000000002,25.28333333333333,-27.98,31.9575,0.0,1780.097,-0.3550000000000004,100.0,28.742,29.091,44.185,44.66,0.0,0.0,100.0,0.0,0.0,0.0,0.0,3171.333333333333,3091.2,4139.875,4248.0,305.3565,304.86766666666665,314.82233333333335,314.28725,22.0752,20.6864,22.0922,21.595399999999998,314.999998,314.999998,324.999988,324.999988,99.559,99.50745,99.56925714285714,99.54952857142857,0.10899999999999999,-0.033499999999999974,-0.08416666666666661,0.1323333333333332,-0.04999999999999716,-0.045000000000001705,1.5026666666666668,1.491,38.97,30.29,39.077,35.971000000000004,55.793,35.715,60.1185,53.442,53.732,34.799,58.6665,51.733000000000004,52.876000000000005,34.323,58.5345,51.12433333333333,-0.10899999999999999,-0.05799999999999983,0.10219500000000001,0.096335,0.0,218.70499999999998,218.70499999999998,215.39333333333332,215.39333333333332,0.0,0.0
33,0.0,0.0,0.0,1.0,1.0,0.0,0.0,1.0,0.0,100.0,1.0,1.1856,26.0,0.0,0.0,0.0,63.999999,0.0,26.0,26.0,26.0,26.0,0.053888888888888875,0.26880000000000015,-0.05413333333333334,291.595,-2.7288,-2.6935000000000002,-1.5924,-1.5884444444444443,-163.67000000000002,215.435,190.254375,0.0,0.0,0.0,0.0,0.06670000000000001,-5.498166666666667,-5.498166666666667,-0.6152000000000001,-0.21833333333333335,-0.009250000000000203,-0.275,69.991,0.0251,-0.21785000000000002,-0.26200000000000045,100.0,1.0,1.0,215.78,0.0,0.0,0.0,0.0,0.0,0.0,0.0,9146.1,0.0,55.0,5.0,251.94,1.0,0.0,0.0,0.0,0.0,0.0,1.0,0.0,1.6559999999999988,1.6559999999999988,0.0,0.0,1.0,55.0,616.79921,10000.0,85.000001,85.000001,85.000001,85.000001,395.0,0.0,0.0,0.0,1.0,333.33500000000004,51.849000000000004,51.849000000000004,46.906,46.906,34.0,-23.310000000000002,24.575,-28.526666666666664,30.8,0.0,1780.047,-0.3949999999999996,100.0,28.569,28.803,43.949,44.422,0.0,0.0,100.0,0.0,0.0,0.0,0.0,3181.5,3025.8,4154.625,4173.0,305.3795,305.075,314.82933333333335,314.554,22.0839,20.6917,22.102,21.604,314.999998,314.999998,324.999988,324.999988,99.55901428571428,99.50746666666667,99.5694,99.54967142857143,0.11175000000000024,-0.03849999999999998,-0.09366666666666656,0.13683333333333336,-0.051666666666669414,-0.036666666666668846,1.5253333333333334,1.5205,39.025,30.323333333333334,39.137,36.025,55.782,35.7505,60.152,53.4975,53.722,34.8315,58.6975,51.786500000000004,52.864000000000004,34.354,58.5625,51.17633333333333,-0.11599999999999988,-0.059499999999999886,0.11517000000000001,0.10787500000000001,0.0,219.07999999999998,219.075,215.78,215.78,0.0,0.0
34,0.0,0.0,0.0,1.0,1.0,0.0,0.0,1.0,0.0,100.0,1.0,1.1856,26.0,0.0,0.0,0.0,63.999999,0.0,26.0,26.0,26.0,26.0,0.04266666666666685,0.26290000000000013,-0.07603333333333334,291.916,-2.6641,-2.68525,-1.62405,-1.5250000000000001,-160.1,215.44,190.2265,0.0,0.0,0.0,0.0,0.0688,-5.498166666666667,-5.498166666666667,-0.641,-0.839,0.01475000000000004,0.984,70.12,0.024800000000000003,-0.221675,-0.3860000000000001,100.0,1.0,1.0,216.14,0.0,0.0,0.0,0.0,0.0,0.0,0.0,9161.3,0.0,55.0,5.0,252.40666666666667,0.0,0.0,0.0,0.0,0.0,0.0,1.0,0.0,1.7070000000000007,1.7070000000000007,0.0,0.0,0.0,55.0,616.79921,10000.0,85.000001,85.000001,85.000001,85.000001,395.0,0.0,0.0,0.0,1.0,333.33500000000004,52.46,52.46,47.18,47.18,34.0,-21.237499999999997,25.47833333333333,-27.669999999999998,31.255,0.0,1779.998,-0.3949999999999996,100.0,28.335,28.234,43.843,44.325,0.0,0.0,100.0,0.0,0.0,0.0,0.0,2987.6666666666665,3097.6,4103.125,4250.7,305.771,305.144,314.91366666666664,314.4255,22.0931,20.6973,22.1124,21.6133,314.999998,314.999998,324.999988,324.999988,99.55902857142857,99.50746666666667,99.56955714285715,99.54982857142858,0.11299999999999999,-0.022499999999999964,-0.07666666666666666,0.14983333333333326,-0.03166666666666629,-0.054999999999999716,1.5346666666666666,1.509,39.082,30.358,39.202,36.0835,55.769,35.786500000000004,60.187,53.558,53.71,34.865,58.7305,51.845,52.851,34.385999999999996,58.592,51.233666666666664,-0.10850000000000004,-0.04800000000000004,0.1067,0.10823,0.0,219.435,219.46,216.14,216.14,0.0,0.0
35,0.0,0.0,0.0,1.0,1.0,0.0,0.0,1.0,0.0,100.0,1.0,1.1856,26.0,0.0,0.0,0.0,63.999999,0.0,26.0,26.0,26.0,26.0,0.03944444444444439,0.25890000000000013,-0.08586666666666666,291.84,-2.7988,-2.6605,-1.61815,-1.5174444444444444,-156.31,215.4425,190.19475,0.0,0.0,0.0,0.0,0.07100000000000001,-5.498166666666667,-5.498166666666667,-0.6779000000000001,-0.07566666666666667,-0.006375000000000242,-0.18099999999999994,70.254,0.0244,-0.22407500000000002,-0.30799999999999983,100.0,1.0,1.0,216.64333333333332,0.0,0.0,0.0,0.0,0.0,0.0,0.0,9182.7,0.0,55.0,5.0,252.89,1.0,0.0,0.0,0.0,0.0,0.0,1.0,0.0,1.7609999999999992,1.7609999999999992,0.0,0.0,1.0,55.0,616.79921,10000.0,85.000001,85.000001,85.000001,85.000001,395.0,0.0,0.0,0.0,1.0,166.665,51.819,51.819,46.86,46.86,34.0,-23.3975,28.063333333333333,-26.91,29.392500000000002,0.0,1779.945,-0.259999999999998,100.0,28.179,28.621000000000002,43.606,43.826,0.0,0.0,100.0,0.0,0.0,0.0,0.0,3066.833333333333,3377.2,4041.0,4073.5,305.535,304.15933333333334,315.015,314.83025,22.1027,20.7035,22.1232,21.623,314.999998,314.999998,324.999988,324.999988,99.55904285714286,99.50748333333334,99.56971428571428,99.54998571428571,0.10725000000000007,-0.023249999999999993,-0.07299999999999995,0.14816666666666678,-0.026666666666670835,-0.054999999999999716,1.5496666666666665,1.544,39.141999999999996,30.39666666666667,39.269999999999996,36.1435,55.754000000000005,35.8285,60.223,53.618,53.696,34.9035,58.763999999999996,51.9025,52.836,34.423500000000004,58.622,51.28966666666666,-0.09499999999999997,-0.05699999999999994,0.102995,0.10769000000000001,0.0,219.85500000000002,219.9,216.64333333333335,216.64333333333332,0.0,0.0
