,ABS Active,ABS Enabled,AID Allow Tire Blankets,AID Auto Blip,AID Auto Clutch,AID Auto Shift,AID Fuel Rate,AID Ideal Line,AID Mech Damage,AID Stability,AID Tire Wear Rate,Air Density,Air Temp,Ballast,Best Lap Delta,Best Lap Time,Brake Bias,Brake Pos,Brake Temp FL,Brake Temp FR,Brake Temp RL,Brake Temp RR,CG Accel Lateral,CG Accel Longitudinal,CG Accel Vertical,CG Height,Camber FL,Camber FR,Camber RL,Camber RR,Car Coord X,Car Coord Y,Car Coord Z,Car Damage Front,Car Damage Left,Car Damage Rear,Car Damage Right,Car Pos Norm,Caster FL,Caster FR,Chassis Pitch Angle,Chassis Pitch Rate,Chassis Roll Angle,Chassis Roll Rate,Chassis Velocity X,Chassis Velocity Y,Chassis Velocity Z,Chassis Yaw Rate,Clutch Pos,DRS Active,DRS Available,Drive Train Speed,ERS Heat Charging,ERS Is Charging,ERS Max Energy,ERS Power Level,ERS Recovery Level,Engine Brake Setting,Engine Limiter,Engine RPM,Flags,Fuel Level,Gear,Ground Speed,HR Sample Clock,In Pit,KERS Charge,KERS Deployed Energy,KERS Input,KERS Max Energy,LR Sample Clock,Lap Invalidated,Lap Time,Lap Time2,Last Lap Time,Last Sector Time,MR Sample Clock,Max Fuel,Max Power,Max RPM,Max Sus Travel FL,Max Sus Travel FR,Max Sus Travel RL,Max Sus Travel RR,Max Torque,Max Turbo Boost,Num Tires Off Track,Penalties Enabled,Position,Raw Data Sample Rate,Ride Height FL,Ride Height FR,Ride Height RL,Ride Height RR,Road Temp,Self Align Torque FL,Self Align Torque FR,Self Align Torque RL,Self Align Torque RR,Session Lap Count,Session Time Left,Steering Angle,Surface Grip,Suspension Travel FL,Suspension Travel FR,Suspension Travel RL,Suspension Travel RR,TC Active,TC Enabled,Throttle Pos,Tire Dirt Level FL,Tire Dirt Level FR,Tire Dirt Level RL,Tire Dirt Level RR,Tire Load FL,Tire Load FR,Tire Load RL,Tire Load RR,Tire Loaded Radius FL,Tire Loaded Radius FR,Tire Loaded Radius RL,Tire Loaded Radius RR,Tire Pressure FL,Tire Pressure FR,Tire Pressure RL,Tire Pressure RR,Tire Radius FL,Tire Radius FR,Tire Radius RL,Tire Radius RR,Tire Rubber Grip FL,Tire Rubber Grip FR,Tire Rubber Grip RL,Tire Rubber Grip RR,Tire Slip Angle FL,Tire Slip Angle FR,Tire Slip Angle RL,Tire Slip Angle RR,Tire Slip Ratio FL,Tire Slip Ratio FR,Tire Slip Ratio RL,Tire Slip Ratio RR,Tire Temp Core FL,Tire Temp Core FR,Tire Temp Core RL,Tire Temp Core RR,Tire Temp Inner FL,Tire Temp Inner FR,Tire Temp Inner RL,Tire Temp Inner RR,Tire Temp Middle FL,Tire Temp Middle FR,Tire Temp Middle RL,Tire Temp Middle RR,Tire Temp Outer FL,Tire Temp Outer FR,Tire Temp Outer RL,Tire Temp Outer RR,Toe In FL,Toe In FR,Toe In RL,Toe In RR,Turbo Boost,Wheel Angular Speed FL,Wheel Angular Speed FR,Wheel Angular Speed RL,Wheel Angular Speed RR,Wind Direction,Wind Speed
0,0.0,0.0,0.0,1.0,1.0,0.0,0.0,1.0,0.0,100.0,1.0,1.1856,26.0,0.0,0.0,0.0,63.99999,0.0,26.0,26.0,26.0,26.0,-0.0778888888888889,0.3044,-0.0018750000000000001,294.083,-2.7243,-2.6532222222222224,-1.51965,-1.5537,-275.73,216.29250000000002,190.987875,0.0,0.0,0.0,0.0,0.0015666666666666667,-5.498166666666667,-5.498166666666667,-0.5507000000000001,1.1709999999999998,-0.005555555555555536,-1.258,65.525,-0.0318,-0.2155,0.976,100.0,1.0,1.0,202.31333333333333,0.0,0.0,0.0,0.0,0.0,0.0,0.0,8575.4,0.0,55.0,5.0,235.86,0.0,0.0,0.0,0.0,0.0,0.0,0.0,0.0,0.0030000000000001137,0.0030000000000001137,0.0,0.0,0.0,55.0,616.79921,10000.0,85.0,85.0,85.0,85.0,395.0,0.0,0.0,0.0,1.0,20.0,52.795,52.795,49.713,49.713,34.0,-26.439999999999998,23.154,-30.13,24.6825,0.0,1782.262,0.8200000000000003,100.0,27.437,27.009,40.456,40.595,0.0,0.0,100.0,0.0,0.0,0.0,0.0,3009.285714285714,3328.1,4115.75,3974.9,305.7235,304.1673333333333,314.8785,314.88025,21.7732,20.5131,21.7702,21.3078,314.99999,314.99999,324.99998,324.99998,99.55851428571428,99.50715,99.56515714285715,99.54495714285714,-0.0024999999999999467,-0.1186666666666667,-0.15716666666666657,0.06316666666666682,-0.051666666666669414,-0.06333333333333258,1.5536666666666668,1.5815000000000001,37.083,29.206666666666663,37.064,34.174,56.169,34.4495,59.068,51.5235,54.101,33.6355,57.7,49.8845,53.282,33.2145,57.6695,49.309333333333335,-0.013500000000000068,-0.13500000000000023,0.10951000000000001,0.11102000000000001,0.0,205.365,205.26,202.31333333333333,202.31333333333333,0.0,0.0
1,0.0,0.0,0.0,1.0,1.0,0.0,0.0,1.0,0.0,100.0,1.0,1.1856,26.0,0.0,0.0,0.0,63.999999,0.0,26.0,26.0,26.0,26.0,-0.10944444444444446,0.3185,0.206325,293.015,-2.6363,-2.7671111111111113,-1.5242499999999999,-1.5499,-272.19,216.28750000000002,190.9665,0.0,0.0,0.0,0.0,0.003633333333333334,-5.498166666666667,-5.498166666666667,-0.5004000000000001,-0.633,-0.056888888888888545,-0.9340000000000002,65.689,-0.049100000000000005,-0.19655,1.37,100.0,1.0,1.0,202.4766666666667,0.0,0.0,0.0,0.0,0.0,0.0,0.0,8582.3,0.0,55.0,5.0,236.44666666666666,1.0,0.0,0.0,0.0,0.0,0.0,0.0,0.0,0.05699999999999861,0.05699999999999861,0.0,0.0,1.0,55.0,616.79921,10000.0,85.000001,85.000001,85.000001,85.000001,395.0,0.0,0.0,0.0,1.0,166.665,53.467,53.467,48.34,48.34,34.0,-27.4775,18.406,-34.27333333333333,28.915,0.0,1782.21,0.9050000000000011,100.0,27.565,27.004,42.595,41.665,0.0,0.0,100.0,0.0,0.0,0.0,0.0,3153.0,2711.1,4346.375,4708.1,305.318,306.1893333333333,314.218,313.1175,21.7837,20.5185,21.7816,21.3174,314.999998,314.999998,324.999988,324.999988,99.55851428571428,99.50718333333333,99.56531428571428,99.5451,-0.011500000000000066,-0.1359999999999999,-0.1805,0.03533333333333322,-0.07166666666666544,-0.07000000000000028,1.4273333333333333,1.4785,37.147999999999996,29.240666666666666,37.135,34.234,56.153,34.49,59.1135,51.588499999999996,54.086,33.673,57.7425,49.9465,53.266999999999996,33.2505,57.709,49.370666666666665,-0.006000000000000005,-0.14650000000000007,0.10502500000000001,0.10670500000000001,0.0,205.845,205.72500000000002,202.4766666666667,202.4766666666667,0.0,0.0
2,0.0,0.0,0.0,1.0,1.0,0.0,0.0,1.0,0.0,100.0,1.0,1.1856,26.0,0.0,0.0,0.0,63.999999,0.0,26.0,26.0,26.0,26.0,-0.1507777777777778,0.2855000000000001,-0.07195,293.671,-2.6032,-2.7953333333333332,-1.4908000000000001,-1.6063,-268.83,216.28,190.94775,0.0,0.0,0.0,0.0,0.005566666666666667,-5.498166666666667,-5.498166666666667,-0.549,0.13450000000000006,-0.04555555555555557,2.63,65.831,-0.068,-0.25305,1.5499999999999998,100.0,1.0,1.0,203.39333333333332,0.0,0.0,0.0,0.0,0.0,0.0,0.0,8621.2,0.0,55.0,5.0,236.96,0.0,0.0,0.0,0.0,0.0,0.0,0.0,0.0,0.10800000000000054,0.10800000000000054,0.0,0.0,0.0,55.0,616.79921,10000.0,85.000001,85.000001,85.000001,85.000001,395.0,0.0,0.0,0.0,1.0,166.665,52.429,52.429,50.156,50.156,34.0,-29.555,20.275999999999996,-28.723333333333333,20.67,0.0,1782.159,0.6950000000000003,100.0,28.434,26.943,42.564,41.328,0.0,0.0,100.0,0.0,0.0,0.0,0.0,3287.714285714286,2993.3,3743.75,3730.8,304.652,305.38733333333334,315.65075,315.66525,21.7938,20.5235,21.7921,21.3262,314.999998,314.999998,324.999988,324.999988,99.55852857142857,99.50718333333333,99.56545714285714,99.54524285714285,-0.02574999999999994,-0.1499999999999999,-0.21099999999999997,0.013666666666666716,-0.021666666666668277,-0.04999999999999716,1.641,1.6935,37.211,29.27166666666667,37.201,34.2885,56.141,34.5295,59.1515,51.6455,54.075,33.709,57.778,50.0015,53.254000000000005,33.285,57.742,49.42433333333334,-0.016000000000000014,-0.13900000000000023,0.104705,0.10660000000000001,0.0,206.265,206.135,203.39333333333332,203.39333333333332,0.0,0.0
3,0.0,0.0,0.0,1.0,1.0,0.0,0.0,1.0,0.0,100.0,1.0,1.1856,26.0,0.0,0.0,0.0,63.999999,0.0,26.0,26.0,26.0,26.0,-0.13411111111111107,0.3057000000000001,-0.033775,293.472,-2.7287,-2.6894444444444443,-1.51125,-1.5895000000000001,-265.87,216.26999999999998,190.930375,0.0,0.0,0.0,0.0,0.0073,-5.498166666666667,-5.498166666666667,-0.5111,0.6485000000000001,-0.010111111111111182,-0.8050000000000002,65.964,-0.0833,-0.20247500000000002,1.2879999999999994,100.0,1.0,1.0,203.5233333333333,0.0,0.0,0.0,0.0,0.0,0.0,0.0,8626.6,0.0,55.0,5.0,237.44,1.0,0.0,0.0,0.0,0.0,0.0,0.0,0.0,0.1529999999999987,0.1529999999999987,0.0,0.0,1.0,55.0,616.79921,10000.0,85.000001,85.000001,85.000001,85.000001,395.0,0.0,0.0,0.0,1.0,333.33500000000004,53.482,53.482,48.248,48.248,34.0,-26.057499999999997,18.034,-35.49666666666667,24.045,0.0,1782.112,0.6350000000000016,100.0,27.923000000000002,27.124,42.306,41.391999999999996,0.0,0.0,100.0,0.0,0.0,0.0,0.0,2891.4285714285716,2796.9,4336.875,4190.5,305.9875,305.72933333333333,314.3045,314.426,21.8025,20.528,21.8013,21.334,314.999998,314.999998,324.999988,324.999988,99.55852857142857,99.50721666666666,99.56558571428572,99.54535714285714,-0.020000000000000018,-0.1519999999999999,-0.21683333333333332,0.011333333333333417,-0.03999999999999915,-0.01833333333333087,1.499,1.5670000000000002,37.266,29.299999999999997,37.257999999999996,34.3375,56.126999999999995,34.567,59.186,51.701,54.061,33.744,57.81,50.0545,53.239999999999995,33.3185,57.7715,49.476333333333336,-0.03200000000000003,-0.11949999999999994,0.10656500000000001,0.11540500000000001,0.0,206.7,206.595,203.5233333333333,203.5233333333333,0.0,0.0
4,0.0,0.0,0.0,1.0,1.0,0.0,0.0,1.0,0.0,100.0,1.0,1.1856,26.0,0.0,0.0,0.0,63.999999,0.0,26.0,26.0,26.0,26.0,-0.1466666666666666,0.29410000000000003,-0.0187,293.625,-2.662,-2.7431111111111113,-1.53,-1.5968,-262.5,216.255,190.910625,0.0,0.0,0.0,0.0,0.009266666666666668,-5.498166666666667,-5.498166666666667,-0.5432,-0.9020000000000001,-0.07388888888888889,-0.677,66.111,-0.0857,-0.236325,1.0940000000000003,100.0,1.0,1.0,204.08666666666667,0.0,0.0,0.0,0.0,0.0,0.0,0.0,8650.5,0.0,55.0,5.0,237.97333333333333,0.0,0.0,0.0,0.0,0.0,0.0,0.0,0.0,0.20400000000000063,0.20400000000000063,0.0,0.0,0.0,55.0,616.79921,10000.0,85.000001,85.000001,85.000001,85.000001,395.0,0.0,0.0,0.0,1.0,333.33500000000004,53.101,53.101,48.706,48.706,34.0,-28.549999999999997,19.88,-32.54666666666667,21.3475,0.0,1782.062,0.6050000000000004,100.0,27.768,26.752,42.858000000000004,41.507,0.0,0.0,100.0,0.0,0.0,0.0,0.0,3183.285714285714,2980.7,4071.625,3710.0,305.1855,305.38666666666666,314.81425,315.5915,21.8122,20.5331,21.812,21.3429,314.999998,314.999998,324.999988,324.999988,99.55852857142857,99.50723333333333,99.56572857142856,99.5455,-0.02224999999999988,-0.14666666666666672,-0.20466666666666666,0.024833333333333263,-0.03999999999999915,-0.07000000000000028,1.5416666666666667,1.6059999999999999,37.326,29.332,37.325,34.393,56.108999999999995,34.6085,59.228,51.760999999999996,54.044,33.782,57.8495,50.112,53.222,33.3545,57.808,49.532666666666664,-0.024499999999999966,-0.12349999999999994,0.11474000000000001,0.10790000000000001,0.0,207.10500000000002,206.995,204.08666666666667,204.08666666666667,0.0,0.0
5,0.0,0.0,0.0,1.0,1.0,0.0,0.0,1.0,0.0,100.0,1.0,1.1856,26.0,0.0,0.0,0.0,63.999999,0.0,26.0,26.0,26.0,26.0,-0.12522222222222212,0.30520000000000014,-0.0108,293.655,-2.6733000000000002,-2.762,-1.5101499999999999,-1.5855000000000001,-259.13,216.2375,190.89025,0.0,0.0,0.0,0.0,0.011233333333333333,-5.498166666666667,-5.498166666666667,-0.5366000000000001,0.41649999999999987,-0.08300000000000018,-0.28200000000000003,66.258,-0.0868,-0.21507500000000002,1.0920000000000005,100.0,1.0,1.0,204.5,0.0,0.0,0.0,0.0,0.0,0.0,0.0,8668.0,0.0,55.0,5.0,238.5,1.0,0.0,0.0,0.0,0.0,0.0,0.0,0.0,0.254999999999999,0.254999999999999,0.0,0.0,1.0,55.0,616.79921,10000.0,85.000001,85.000001,85.000001,85.000001,395.0,0.0,0.0,0.0,1.0,333.33500000000004,53.436,53.436,49.010999999999996,49.010999999999996,34.0,-28.5075,18.698,-33.78666666666666,22.634999999999998,0.0,1782.011,0.370000000000001,100.0,27.78,26.781,42.537,41.213,0.0,0.0,100.0,0.0,0.0,0.0,0.0,3201.0,2759.7,4183.125,4024.0,305.206,305.9406666666667,314.71275,314.835,21.8222,20.5382,21.822400000000002,21.3516,314.999998,314.999998,324.999988,324.999988,99.55854285714285,99.50723333333333,99.56587142857143,99.54564285714285,-0.016750000000000043,-0.14066666666666672,-0.21783333333333332,0.008000000000000007,-0.03333333333333144,-0.026666666666670835,1.5366666666666666,1.577,37.388999999999996,29.363666666666667,37.39,34.4475,56.095,34.6495,59.268,51.8185,54.031,33.8195,57.8865,50.167,53.208,33.3905,57.842,49.586333333333336,-0.05049999999999999,-0.10050000000000026,0.10924500000000001,0.1072,0.0,207.60000000000002,207.485,204.5,204.5,0.0,0.0
6,0.0,0.0,0.0,1.0,1.0,0.0,0.0,1.0,0.0,100.0,1.0,1.1856,26.0,0.0,0.0,0.0,63.999999,0.0,26.0,26.0,26.0,26.0,-0.11566666666666658,0.2964,-0.01035,293.457,-2.6407,-2.7385555555555556,-1.5538500000000002,-1.6228,-255.94,216.2175,190.870875,0.0,0.0,0.0,0.0,0.013066666666666666,-5.498166666666667,-5.498166666666667,-0.5312,0.06400000000000006,-0.06377777777777771,-0.4939999999999998,66.396,-0.08310000000000001,-0.2152,0.8279999999999994,100.0,1.0,1.0,204.91,0.0,0.0,0.0,0.0,0.0,0.0,0.0,8685.4,0.0,55.0,5.0,239.0,0.0,0.0,0.0,0.0,0.0,0.0,0.0,0.0,0.3030000000000008,0.3030000000000008,0.0,0.0,0.0,55.0,616.79921,10000.0,85.000001,85.000001,85.000001,85.000001,395.0,0.0,0.0,0.0,1.0,166.665,53.116,53.116,48.782,48.782,34.0,-28.03,20.14,-33.04333333333334,23.252499999999998,0.0,1781.964,0.010000000000001563,100.0,27.688,26.892,42.667,41.586,0.0,0.0,100.0,0.0,0.0,0.0,0.0,3225.4285714285716,2891.8,4115.875,3957.9,305.1225,305.475,314.85775,314.94975,21.8315,20.543,21.8324,21.3601,314.999998,314.999998,324.999988,324.999988,99.55854285714285,99.50725,99.56601428571429,99.54577142857143,-0.006000000000000005,-0.127,-0.20399999999999996,0.016666666666666607,-0.05333333333332746,-0.05833333333333002,1.5403333333333333,1.5585,37.447,29.394,37.452,34.5005,56.081,34.6875,59.306,51.8765,54.016999999999996,33.8545,57.922,50.223,53.194,33.424,57.875,49.641,-0.06600000000000006,-0.07650000000000023,0.10022,0.10757000000000001,0.0,207.995,207.92000000000002,204.91,204.91,0.0,0.0
7,0.0,0.0,0.0,1.0,1.0,0.0,0.0,1.0,0.0,100.0,1.0,1.1856,26.0,0.0,0.0,0.0,63.999999,0.0,26.0,26.0,26.0,26.0,-0.06877777777777783,0.2795000000000001,0.01965,293.198,-2.6142,-2.727666666666667,-1.5152999999999999,-1.6248,-252.35,216.1925,190.84925,0.0,0.0,0.0,0.0,0.015166666666666667,-5.498166666666667,-5.498166666666667,-0.5347000000000001,0.0044999999999999485,-0.0517777777777777,-0.254,66.55,-0.0665,-0.22415000000000002,0.3799999999999999,100.0,1.0,1.0,205.36,0.0,0.0,0.0,0.0,0.0,0.0,0.0,8704.4,0.0,55.0,5.0,239.55333333333334,1.0,0.0,0.0,0.0,0.0,0.0,0.0,0.0,0.3569999999999993,0.3569999999999993,0.0,0.0,1.0,55.0,616.79921,10000.0,85.000001,85.000001,85.000001,85.000001,395.0,0.0,0.0,0.0,1.0,166.665,52.78,52.78,48.828,48.828,34.0,-26.86,21.796,-31.31,24.7575,0.0,1781.91,-0.2049999999999983,100.0,27.822,26.961,42.711,41.858000000000004,0.0,0.0,100.0,0.0,0.0,0.0,0.0,3272.5714285714284,2951.5,4081.125,4012.5,304.87,305.25166666666667,314.8955,314.78875,21.8419,20.5485,21.8436,21.3696,314.999998,314.999998,324.999988,324.999988,99.55854285714285,99.50726666666667,99.56615714285714,99.54592857142858,0.02925000000000022,-0.09666666666666668,-0.18299999999999994,0.035833333333333384,-0.05666666666667197,-0.054999999999999716,1.5286666666666666,1.537,37.512,29.428333333333335,37.522,34.5595,56.065,34.729,59.348,51.9415,54.001999999999995,33.893,57.9615,50.285,53.178,33.461,57.911,49.702,-0.09149999999999991,-0.0535000000000001,0.10339000000000001,0.102495,0.0,208.465,208.42000000000002,205.36,205.36,0.0,0.0
8,0.0,0.0,0.0,1.0,1.0,0.0,0.0,1.0,0.0,100.0,1.0,1.1856,26.0,0.0,0.0,0.0,63.999999,0.0,26.0,26.0,26.0,26.0,-0.04355555555555557,0.3105,-0.021500000000000002,293.442,-2.6978999999999997,-2.7142222222222223,-1.499,-1.5518,-249.15,216.16750000000002,190.829875,0.0,0.0,0.0,0.0,0.017033333333333334,-5.498166666666667,-5.498166666666667,-0.5342,-0.43400000000000016,-0.0344444444444445,-0.43900000000000006,66.688,-0.0473,-0.21385,0.006000000000000227,100.0,1.0,1.0,205.70666666666668,0.0,0.0,0.0,0.0,0.0,0.0,0.0,8719.1,0.0,55.0,5.0,240.04666666666668,0.0,0.0,0.0,0.0,0.0,0.0,0.0,0.0,0.40500000000000114,0.40500000000000114,0.0,0.0,0.0,55.0,616.79921,10000.0,85.000001,85.000001,85.000001,85.000001,395.0,0.0,0.0,0.0,1.0,333.33500000000004,53.696,53.696,48.05,48.05,34.0,-23.915,21.494,-31.263333333333335,26.2825,0.0,1781.86,-0.3200000000000003,100.0,27.394,26.914,42.682,41.933,0.0,0.0,100.0,0.0,0.0,0.0,0.0,2972.857142857143,2891.7,4223.5,4134.7,305.884,305.50233333333335,314.5225,314.50625,21.8509,20.5534,21.8535,21.378,314.999998,314.999998,324.999988,324.999988,99.55854285714285,99.50728333333333,99.56628571428571,99.54605714285714,0.04600000000000026,-0.08699999999999997,-0.15900000000000003,0.06600000000000006,-0.03999999999999915,-0.051666666666669414,1.5186666666666666,1.5194999999999999,37.568,29.458666666666666,37.584,34.6125,56.049,34.7655,59.388,51.9985,53.986999999999995,33.928,57.9985,50.3435,53.163,33.4945,57.9435,49.759,-0.10250000000000004,-0.04800000000000004,0.10558500000000001,0.11170000000000001,0.0,208.86,208.86,205.70666666666668,205.70666666666668,0.0,0.0
9,0.0,0.0,0.0,1.0,1.0,0.0,0.0,1.0,0.0,100.0,1.0,1.1856,26.0,0.0,0.0,0.0,63.999999,0.0,26.0,26.0,26.0,26.0,-0.03411111111111109,0.28659999999999997,0.035325,293.106,-2.6814,-2.7204444444444444,-1.55505,-1.5551,-245.75,216.14,190.80875,0.0,0.0,0.0,0.0,0.019,-5.498166666666667,-5.498166666666667,-0.5418000000000001,0.6619999999999999,-0.03188888888888908,0.8170000000000002,66.83,-0.028,-0.216375,-0.137999999999999,100.0,1.0,1.0,206.2733333333333,0.0,0.0,0.0,0.0,0.0,0.0,0.0,8743.2,0.0,55.0,5.0,240.56,1.0,0.0,0.0,0.0,0.0,0.0,0.0,0.0,0.4559999999999995,0.4559999999999995,0.0,0.0,1.0,55.0,616.79921,10000.0,85.000001,85.000001,85.000001,85.000001,395.0,0.0,0.0,0.0,1.0,166.665,52.383,52.383,49.194,49.194,34.0,-25.4825,24.47,-27.893333333333334,27.245,0.0,1781.81,-0.5249999999999986,100.0,27.982,27.21,42.419,41.867000000000004,0.0,0.0,100.0,0.0,0.0,0.0,0.0,3294.4285714285716,3102.8,3963.75,4095.3,304.7595,304.959,315.19725,314.739,21.8607,20.5587,21.8638,21.3869,314.999998,314.999998,324.999988,324.999988,99.55855714285714,99.50728333333333,99.56644285714286,99.5462,0.07975000000000021,-0.05800000000000005,-0.12949999999999995,0.09733333333333327,-0.04833333333333201,-0.06333333333333258,1.5886666666666667,1.5765,37.629999999999995,29.491999999999997,37.649,34.668,56.037,34.805,59.422,52.0585,53.976,33.9625,58.03,50.3975,53.15,33.5275,57.974000000000004,49.81166666666667,-0.11749999999999994,-0.04249999999999998,0.10656,0.11456500000000001,0.0,209.32,209.32,206.2733333333333,206.2733333333333,0.0,0.0
10,0.0,0.0,0.0,1.0,1.0,0.0,0.0,1.0,0.0,100.0,1.0,1.1856,26.0,0.0,0.0,0.0,63.999999,0.0,26.0,26.0,26.0,26.0,0.003555555555555534,0.28380000000000005,0.051175000000000005,292.923,-2.6549,-2.7061111111111114,-1.53125,-1.5371000000000001,-242.54,216.115,190.78925,0.0,0.0,0.0,0.0,0.020866666666666665,-5.498166666666667,-5.498166666666667,-0.5174,-0.38850000000000007,0.006444444444444253,1.795,66.968,-0.0099,-0.204775,-0.49600000000000044,100.0,1.0,1.0,206.48333333333335,0.0,0.0,0.0,0.0,0.0,0.0,0.0,8752.1,0.0,55.0,5.0,241.05666666666667,0.0,0.0,0.0,0.0,0.0,0.0,1.0,0.0,0.5040000000000013,0.5040000000000013,0.0,0.0,0.0,55.0,616.79921,10000.0,85.000001,85.000001,85.000001,85.000001,395.0,0.0,0.0,0.0,1.0,333.33500000000004,53.421,53.421,47.577,47.577,34.0,-20.705,23.882,-29.846666666666664,30.2025,0.0,1781.762,-0.6400000000000006,100.0,27.842,27.183,42.86,42.582,0.0,0.0,100.0,0.0,0.0,0.0,0.0,2827.714285714286,2964.3,4280.75,4345.5,306.127,305.45466666666664,314.30775,314.079,21.8699,20.5637,21.8738,21.3955,314.999998,314.999998,324.999988,324.999988,99.55857142857143,99.5073,99.56657142857142,99.54632857142857,0.09125000000000005,-0.035666666666666735,-0.10883333333333334,0.10949999999999993,-0.03166666666666629,-0.05333333333332746,1.4766666666666666,1.471,37.687,29.523,37.712,34.722,56.025999999999996,34.8395,59.460499999999996,52.119,53.964,33.9945,58.066,50.4555,53.137,33.558,58.0075,49.86866666666667,-0.12450000000000006,-0.022499999999999964,0.096695,0.10745,0.0,209.72,209.745,206.48333333333335,206.48333333333335,0.0,0.0
11,0.0,0.0,0.0,1.0,1.0,0.0,0.0,1.0,0.0,100.0,1.0,1.1856,26.0,0.0,0.0,0.0,63.999999,0.0,26.0,26.0,26.0,26.0,0.025333333333333208,0.2783,-0.071775,293.533,-2.703,-2.6883333333333335,-1.5879500000000002,-1.5253,-238.92000000000002,216.085,190.767375,0.0,0.0,0.0,0.0,0.022600000000000002,-5.498166666666667,-5.498166666666667,-0.5622,-0.16849999999999987,0.03177777777777768,0.30400000000000027,67.11500000000001,0.0114,-0.237275,-0.6739999999999995,100.0,1.0,1.0,207.25,0.0,0.0,0.0,0.0,0.0,0.0,0.0,8784.6,0.0,55.0,5.0,241.58666666666664,1.0,0.0,0.0,0.0,0.0,0.0,1.0,0.0,0.5579999999999998,0.5579999999999998,0.0,0.0,1.0,55.0,616.79921,10000.0,85.000001,85.000001,85.000001,85.000001,395.0,0.0,0.0,0.0,1.0,166.665,52.811,52.811,49.286,49.286,34.0,-21.9925,26.672,-23.83,26.8425,0.0,1781.709,-0.754999999999999,100.0,27.582,27.422,42.322,42.495000000000005,0.0,0.0,100.0,0.0,0.0,0.0,0.0,3006.5714285714284,3185.7,3694.375,3883.4,305.645,304.7133333333333,315.88025,315.22425,21.8799,20.5694,21.8848,21.405,314.999998,314.999998,324.999988,324.999988,99.55857142857143,99.5073,99.56671428571428,99.54648571428571,0.10599999999999987,-0.016999999999999904,-0.08616666666666661,0.13516666666666666,-0.036666666666668846,-0.060000000000002274,1.6466666666666667,1.617,37.748999999999995,29.558999999999997,37.78,34.7815,56.010999999999996,34.8795,59.497,52.1825,53.95,34.0315,58.1,50.5165,53.122,33.5935,58.038,49.928666666666665,-0.12349999999999994,-0.020000000000000018,0.108795,0.098125,0.0,210.14499999999998,210.2,207.25,207.25,0.0,0.0
12,0.0,0.0,0.0,1.0,1.0,0.0,0.0,1.0,0.0,100.0,1.0,1.1856,26.0,0.0,0.0,0.0,63.999999,0.0,26.0,26.0,26.0,26.0,0.050000000000000044,0.28780000000000006,0.027600000000000003,292.984,-2.7612,-2.679444444444444,-1.55165,-1.5232999999999999,-235.89,216.0625,190.747875,0.0,0.0,0.0,0.0,0.025466666666666665,-5.498166666666667,-5.498166666666667,-0.5469,0.3354999999999999,0.01644444444444426,-0.8540000000000001,67.244,0.030100000000000002,-0.207325,-0.7160000000000002,100.0,1.0,1.0,207.42666666666668,0.0,0.0,0.0,0.0,0.0,0.0,0.0,8792.0,0.0,55.0,5.0,242.04666666666668,0.0,0.0,0.0,0.0,0.0,0.0,1.0,0.0,0.602999999999998,0.602999999999998,0.0,0.0,0.0,55.0,616.79921,10000.0,85.000001,85.000001,85.000001,85.000001,395.0,0.0,0.0,0.0,1.0,166.665,52.887,52.887,47.989,47.989,34.0,-23.5775,25.58,-27.596666666666664,30.7025,0.0,1781.664,-0.4250000000000007,100.0,27.307,27.718,42.187,42.516,0.0,0.0,100.0,0.0,0.0,0.0,0.0,3126.0,3087.2,4234.625,4160.0,305.484,304.872,314.59475,314.503,21.8883,20.5743,21.894,21.4129,314.999998,314.999998,324.999988,324.999988,99.5586,99.5073,99.56684285714286,99.54661428571428,0.10024999999999995,-0.02299999999999991,-0.07799999999999996,0.1543333333333332,-0.03833333333332689,-0.03999999999999915,1.5446666666666666,1.502,37.802,29.589,37.837,34.831,56.0,34.913,59.5305,52.236000000000004,53.939,34.062,58.131,50.5685,53.111000000000004,33.623,58.0665,49.97933333333333,-0.11250000000000004,-0.03500000000000014,0.11345500000000001,0.108435,0.0,210.555,210.615,207.42666666666668,207.42666666666668,0.0,0.0
13,0.0,0.0,0.0,1.0,1.0,0.0,0.0,1.0,0.0,100.0,1.0,1.1856,26.0,0.0,0.0,0.0,63.999999,0.0,26.0,26.0,26.0,26.0,0.07444444444444431,0.28300000000000014,0.050525,292.587,-2.7345,-2.674555555555556,-1.6237,-1.5070000000000001,-232.46,216.0375,190.726,0.0,0.0,0.0,0.0,0.02673333333333333,-5.498166666666667,-5.498166666666667,-0.539,-0.059499999999999886,0.024666666666666615,1.0990000000000002,67.386,0.0393,-0.2136,-0.8620000000000001,100.0,1.0,1.0,207.8,0.0,0.0,0.0,0.0,0.0,0.0,0.0,8807.9,0.0,55.0,5.0,242.56333333333333,1.0,0.0,0.0,0.0,0.0,0.0,1.0,0.0,0.6539999999999999,0.6539999999999999,0.0,0.0,1.0,55.0,616.79921,10000.0,85.000001,85.000001,85.000001,85.000001,395.0,0.0,0.0,0.0,1.0,333.33500000000004,52.521,52.521,47.928,47.928,34.0,-20.662499999999998,28.158,-26.843333333333334,33.0525,0.0,1781.611,-0.8299999999999983,100.0,27.781,27.752,42.525,42.931,0.0,0.0,100.0,0.0,0.0,0.0,0.0,3049.0,3185.9,4157.375,4358.1,305.5055,304.7416666666667,314.69375,314.08325,21.8979,20.5798,21.9045,21.4221,314.999998,314.999998,324.999988,324.999988,99.55861428571428,99.5073,99.567,99.54675714285715,0.15225,0.022333333333333094,-0.050999999999999934,0.1688333333333334,-0.05333333333332746,-0.036666666666668846,1.5066666666666666,1.479,37.861999999999995,29.623666666666665,37.903,34.888,55.989000000000004,34.951,59.569,52.3005,53.929,34.0975,58.167,50.629999999999995,53.1,33.657,58.0995,50.04,-0.14549999999999996,-0.01200000000000001,0.102275,0.104355,0.0,211.01,211.035,207.8,207.8,0.0,0.0
14,0.0,0.0,0.0,1.0,1.0,0.0,0.0,1.0,0.0,100.0,1.0,1.1856,26.0,0.0,0.0,0.0,63.999999,0.0,26.0,26.0,26.0,26.0,0.09644444444444433,0.28770000000000007,-0.006,292.801,-2.7415,-2.6123333333333334,-1.6323500000000002,-1.5108000000000001,-229.01999999999998,216.015,190.70475,0.0,0.0,0.0,0.0,0.028733333333333333,-5.498166666666667,-5.498166666666667,-0.5487000000000001,-0.15949999999999998,0.05088888888888898,-0.04800000000000004,67.526,0.0509,-0.227975,-0.9639999999999995,100.0,1.0,1.0,208.31333333333333,0.0,0.0,0.0,0.0,0.0,0.0,0.0,8829.6,0.0,55.0,5.0,243.06333333333333,0.0,0.0,0.0,0.0,0.0,0.0,1.0,0.0,0.7049999999999983,0.7049999999999983,0.0,0.0,0.0,55.0,616.79921,10000.0,85.000001,85.000001,85.000001,85.000001,395.0,0.0,0.0,0.0,1.0,333.33500000000004,52.597,52.597,48.126,48.126,34.0,-20.544999999999998,27.644,-25.803333333333335,31.1025,0.0,1781.562,-0.9250000000000007,100.0,27.551,28.002,42.425,43.278999999999996,0.0,0.0,100.0,0.0,0.0,0.0,0.0,3048.4285714285716,3160.8,4028.25,4165.2,305.681,304.65666666666664,315.0805,314.4855,21.9074,20.5853,21.9149,21.4312,314.999998,314.999998,324.999988,324.999988,99.55862857142857,99.50731666666667,99.56712857142857,99.5469,0.15225,0.02400000000000002,-0.0538333333333334,0.16599999999999993,-0.04833333333333201,-0.045000000000001705,1.5606666666666666,1.5265,37.922,29.658,37.968,34.945499999999996,55.980000000000004,34.989,59.6055,52.3635,53.92,34.1325,58.201,50.691,53.089,33.6905,58.129999999999995,50.099666666666664,-0.1499999999999999,-0.0015000000000000568,0.10400500000000001,0.10393500000000001,0.0,211.43,211.47500000000002,208.31333333333333,208.31333333333333,0.0,0.0
15,0.0,0.0,0.0,1.0,1.0,0.0,0.0,1.0,0.0,100.0,1.0,1.1856,26.0,0.0,0.0,0.0,63.999999,0.0,26.0,26.0,26.0,26.0,0.11977777777777776,0.2843,-0.04275,292.831,-2.7138999999999998,-2.5723333333333334,-1.63005,-1.4517,-225.78,215.995,190.6845,0.0,0.0,0.0,0.0,0.030600000000000002,-5.498166666666667,-5.498166666666667,-0.5401,0.2929999999999999,0.08099999999999996,-0.17499999999999982,67.657,0.0664,-0.21115,-1.1559999999999997,100.0,1.0,1.0,208.71333333333334,0.0,0.0,0.0,0.0,0.0,0.0,0.0,8846.7,0.0,55.0,5.0,243.53666666666666,1.0,0.0,0.0,0.0,0.0,0.0,1.0,0.0,0.7530000000000001,0.7530000000000001,0.0,0.0,1.0,55.0,616.79921,10000.0,85.000001,85.000001,85.000001,85.000001,395.0,0.0,0.0,0.0,1.0,333.33500000000004,52.795,52.795,48.233000000000004,48.233000000000004,34.0,-18.8825,27.166,-24.8,32.3825,0.0,1781.512,-0.9450000000000003,100.0,27.571,28.05,42.178,43.333,0.0,0.0,100.0,0.0,0.0,0.0,0.0,2897.0,3125.3,3989.625,4317.4,306.0705,304.755,315.17975,314.1415,21.9164,20.5905,21.924599999999998,21.439799999999998,314.999998,314.999998,324.999988,324.999988,99.55864285714286,99.50731666666667,99.56725714285714,99.54704285714286,0.15974999999999984,0.02933333333333321,-0.04016666666666657,0.17866666666666675,-0.041666666666671404,-0.04999999999999716,1.5556666666666668,1.502,37.977000000000004,29.691,38.028999999999996,34.999,55.971000000000004,35.025999999999996,59.6385,52.4225,53.911,34.1665,58.2315,50.748,53.079,33.723,58.1575,50.15566666666666,-0.1459999999999999,-0.006000000000000227,0.10995,0.10253000000000001,0.0,211.835,211.91500000000002,208.71333333333334,208.71333333333334,0.0,0.0
16,0.0,0.0,0.0,1.0,1.0,0.0,0.0,1.0,0.0,100.0,1.0,1.1856,26.0,0.0,0.0,0.0,63.999999,0.0,26.0,26.0,26.0,26.0,0.12988888888888894,0.2733000000000001,-0.012,292.862,-2.8057,-2.6093333333333333,-1.59945,-1.454,-222.32,215.97750000000002,190.6625,0.0,0.0,0.0,0.0,0.032600000000000004,-5.498166666666667,-5.498166666666667,-0.5602,-0.7774999999999999,0.07111111111111112,0.16100000000000003,67.798,0.0784,-0.224425,-1.2359999999999998,100.0,1.0,1.0,209.13333333333333,0.0,0.0,0.0,0.0,0.0,0.0,0.0,8864.5,0.0,55.0,5.0,244.04666666666668,0.0,0.0,0.0,0.0,0.0,0.0,1.0,0.0,0.8039999999999985,0.8039999999999985,0.0,0.0,0.0,55.0,616.79921,10000.0,85.000001,85.000001,85.000001,85.000001,395.0,0.0,0.0,0.0,1.0,333.33500000000004,52.765,52.765,47.882,47.882,34.0,-19.405,29.43,-22.786666666666665,32.7225,0.0,1781.462,-0.870000000000001,100.0,27.324,27.988,42.524,43.387,0.0,0.0,100.0,0.0,0.0,0.0,0.0,2913.5714285714284,3283.3,3925.0,4179.6,306.0615,304.44266666666664,315.26375,314.515,21.9256,20.5962,21.9351,21.448999999999998,314.999998,314.999998,324.999988,324.999988,99.55865714285714,99.50731666666667,99.56741428571429,99.54718571428572,0.16875000000000018,0.04266666666666685,-0.01633333333333331,0.21166666666666667,-0.05333333333332746,-0.04999999999999716,1.5663333333333334,1.518,38.035,29.726,38.094,35.0565,55.958,35.0655,59.6765,52.4855,53.899,34.203,58.2665,50.8085,53.066,33.7585,58.189499999999995,50.215,-0.1419999999999999,-0.00749999999999984,0.10578000000000001,0.10884500000000001,0.0,212.235,212.31,209.13333333333333,209.13333333333333,0.0,0.0
17,0.0,0.0,0.0,1.0,1.0,0.0,0.0,1.0,0.0,100.0,1.0,1.1856,26.0,0.0,0.0,0.0,63.999999,0.0,26.0,26.0,26.0,26.0,0.12844444444444436,0.2845,-0.003225,292.557,-2.7676,-2.560777777777778,-1.6412499999999999,-1.4748,-218.86,215.9625,190.639875,0.0,0.0,0.0,0.0,0.034633333333333335,-5.498166666666667,-5.498166666666667,-0.5513,0.534,0.047222222222222054,-0.782,67.936,0.08270000000000001,-0.207125,-1.1180000000000003,100.0,1.0,1.0,209.54333333333335,0.0,0.0,0.0,0.0,0.0,0.0,0.0,8881.7,0.0,55.0,5.0,244.54000000000002,1.0,0.0,0.0,0.0,0.0,0.0,1.0,0.0,0.8550000000000004,0.8550000000000004,0.0,0.0,1.0,55.0,616.79921,10000.0,85.000001,85.000001,85.000001,85.000001,395.0,0.0,0.0,0.0,1.0,333.33500000000004,52.429,52.429,47.897,47.897,34.0,-20.065,26.759999999999998,-25.963333333333335,33.0975,0.0,1781.412,-0.9149999999999991,100.0,27.694,28.427,42.173,43.433,0.0,0.0,100.0,0.0,0.0,0.0,0.0,3089.142857142857,3073.3,4237.625,4245.1,305.6245,304.952,314.689,314.36875,21.9351,20.6019,21.9454,21.4581,314.999998,314.999998,324.999988,324.999988,99.55868571428572,99.50731666666667,99.56755714285714,99.54734285714285,0.17474999999999996,0.035666666666666735,-0.02533333333333332,0.20066666666666677,-0.05333333333332746,-0.05666666666667197,1.5446666666666666,1.512,38.094,29.761666666666667,38.159,35.1135,55.95,35.1065,59.7115,52.5475,53.891,34.2415,58.299,50.868,53.057,33.795,58.219,50.274,-0.15300000000000002,-0.010000000000000231,0.114375,0.107855,0.0,212.71,212.78,209.54333333333335,209.54333333333335,0.0,0.0
18,0.0,0.0,0.0,1.0,1.0,0.0,0.0,1.0,0.0,100.0,1.0,1.1856,26.0,0.0,0.0,0.0,63.999999,0.0,26.0,26.0,26.0,26.0,0.1346666666666667,0.2721,-0.053925,292.542,-2.7988,-2.537888888888889,-1.6565,-1.4220000000000002,-215.6,215.95,190.61875,0.0,0.0,0.0,0.0,0.036533333333333334,-5.498166666666667,-5.498166666666667,-0.5595,-0.5720000000000001,0.07200000000000006,-0.040000000000000036,68.06700000000001,0.082,-0.222725,-1.1660000000000004,100.0,1.0,1.0,209.94666666666666,0.0,0.0,0.0,0.0,0.0,0.0,0.0,8898.9,0.0,55.0,5.0,245.01333333333332,0.0,0.0,0.0,0.0,0.0,0.0,1.0,0.0,0.9029999999999987,0.9029999999999987,0.0,0.0,0.0,55.0,616.79921,10000.0,85.000001,85.000001,85.000001,85.000001,395.0,0.0,0.0,0.0,1.0,333.33500000000004,52.444,52.444,47.76,47.76,34.0,-19.565,28.864,-24.343333333333334,32.0475,0.0,1781.362,-1.25,100.0,27.467,28.248,42.554,43.837,0.0,0.0,100.0,0.0,0.0,0.0,0.0,3052.0,3252.6,4034.875,4178.3,305.7695,304.471,315.094,314.499,21.9439,20.6071,21.9553,21.4669,314.999998,314.999998,324.999988,324.999988,99.55871428571429,99.50733333333334,99.56768571428572,99.54747142857143,0.18575000000000008,0.049666666666666526,-0.018166666666666553,0.20533333333333337,-0.046666666666666856,-0.04833333333333201,1.564,1.5095,38.149,29.794666666666664,38.221000000000004,35.168,55.942,35.144,59.747,52.6085,53.882999999999996,34.275999999999996,58.332,50.927,53.047,33.8285,58.249,50.33133333333333,-0.16999999999999993,0.011500000000000066,0.10379000000000001,0.10778000000000001,0.0,213.07999999999998,213.15,209.94666666666666,209.94666666666666,0.0,0.0
19,0.0,0.0,0.0,1.0,1.0,0.0,0.0,1.0,0.0,100.0,1.0,1.1856,26.0,0.0,0.0,0.0,63.999999,0.0,26.0,26.0,26.0,26.0,0.14900000000000002,0.2836000000000001,0.028550000000000002,292.023,-2.7692,-2.527333333333333,-1.6723,-1.4011,-212.12,215.9425,190.596125,0.0,0.0,0.0,0.0,0.038533333333333336,-5.498166666666667,-5.498166666666667,-0.5523,0.8565,0.08599999999999985,0.8740000000000001,68.20400000000001,0.08800000000000001,-0.21252500000000002,-1.5939999999999994,100.0,1.0,1.0,210.36333333333334,0.0,0.0,0.0,0.0,0.0,0.0,0.0,8916.5,0.0,55.0,5.0,245.50333333333333,1.0,0.0,0.0,0.0,0.0,0.0,1.0,0.0,0.9540000000000006,0.9540000000000006,0.0,0.0,1.0,55.0,616.79921,10000.0,85.000001,85.000001,85.000001,85.000001,395.0,0.0,0.0,0.0,1.0,333.33500000000004,51.666,51.666,47.653,47.653,34.0,-18.224999999999998,31.792,-24.253333333333334,34.7025,0.0,1781.312,-1.5449999999999982,100.0,28.086,28.631,42.332,43.718,0.0,0.0,100.0,0.0,0.0,0.0,0.0,3037.857142857143,3412.7,4107.875,4429.4,305.532,304.019,314.9325,314.01675,21.9534,20.613,21.9656,21.4761,314.999998,314.999998,324.999988,324.999988,99.55872857142857,99.50735,99.56782857142858,99.54762857142858,0.2137500000000001,0.08199999999999985,-0.0013333333333332975,0.22033333333333327,-0.021666666666668277,-0.060000000000002274,1.5513333333333332,1.5085000000000002,38.209,29.831333333333333,38.285,35.2255,55.936,35.1885,59.781,52.6715,53.876999999999995,34.317,58.3635,50.988,53.04,33.868,58.277,50.391666666666666,-0.1904999999999999,0.03049999999999997,0.10656,0.10554000000000001,0.0,213.515,213.63,210.36333333333334,210.36333333333334,0.0,0.0
20,0.0,0.0,0.0,1.0,1.0,0.0,0.0,1.0,0.0,100.0,1.0,1.1856,26.0,0.0,0.0,0.0,63.999999,0.0,26.0,26.0,26.0,26.0,0.2052222222222222,0.2702,0.052475,292.313,-2.8223,-2.5861111111111112,-1.6076000000000001,-1.5171000000000001,-208.43,215.94,190.5725,0.0,0.0,0.0,0.0,0.0407,-5.498166666666667,-5.498166666666667,-0.5568000000000001,-1.2685,0.09511111111111115,0.625,68.35,0.1042,-0.22387500000000002,-2.0860000000000003,100.0,1.0,1.0,210.71,0.0,0.0,0.0,0.0,0.0,0.0,0.0,8931.2,0.0,55.0,5.0,246.03666666666666,0.0,0.0,0.0,0.0,0.0,0.0,0.0,0.0,1.0079999999999991,1.0079999999999991,0.0,0.0,0.0,55.0,616.79921,10000.0,85.000001,85.000001,85.000001,85.000001,395.0,0.0,0.0,0.0,1.0,166.665,52.719,52.719,46.951,46.951,34.0,-15.587499999999999,32.232,-21.956666666666663,37.4225,0.0,1781.259,-1.8150000000000013,100.0,27.441,28.368000000000002,42.881,44.303,0.0,0.0,100.0,0.0,0.0,0.0,0.0,2791.714285714286,3294.4,4045.875,4328.0,306.441,304.439,314.91275,314.02825,21.9631,20.619,21.9768,21.4861,314.999998,314.999998,324.999988,324.999988,99.55875714285715,99.50735,99.56798571428571,99.54778571428571,0.24449999999999994,0.1123333333333334,0.02300000000000013,0.24533333333333318,-0.03166666666666629,-0.04333333333332945,1.5156666666666667,1.4375,38.269,29.868666666666666,38.355000000000004,35.288,55.926,35.2345,59.8225,52.7415,53.867000000000004,34.3595,58.402,51.0555,53.028999999999996,33.908500000000004,58.312,50.45766666666667,-0.21750000000000003,0.06499999999999995,0.10749500000000001,0.10447500000000001,0.0,213.89,214.04500000000002,210.71,210.71,0.0,0.0
21,0.0,0.0,0.0,1.0,1.0,0.0,0.0,1.0,0.0,100.0,1.0,1.1856,26.0,0.0,0.0,0.0,63.999999,0.0,26.0,26.0,26.0,26.0,0.24377777777777787,0.2702,-0.07805000000000001,292.572,-2.7493,-2.623,-1.6844999999999999,-1.4661,-205.36,215.94,190.552125,0.0,0.0,0.0,0.0,0.04246666666666667,-5.498166666666667,-5.498166666666667,-0.5802,0.47,0.08877777777777784,-0.71,68.46600000000001,0.1269,-0.22805,-2.366,100.0,1.0,1.0,211.31333333333333,0.0,0.0,0.0,0.0,0.0,0.0,0.0,8956.9,0.0,55.0,5.0,246.45,1.0,0.0,0.0,0.0,0.0,0.0,0.0,0.0,1.0530000000000008,1.0530000000000008,0.0,0.0,1.0,55.0,616.79921,10000.0,85.000001,85.000001,85.000001,85.000001,395.0,0.0,0.0,0.0,1.0,166.665,52.094,52.094,48.294,48.294,34.0,-16.7525,32.122,-20.54,34.66,0.0,1781.214,-1.0949999999999989,100.0,27.587,28.835,42.099000000000004,44.058,0.0,0.0,100.0,0.0,0.0,0.0,0.0,3015.5714285714284,3232.0,3872.375,4077.5,305.7635,304.3553333333333,315.55575,314.778,21.9713,20.6242,21.9857,21.4941,314.999998,314.999998,324.999988,324.999988,99.55878571428572,99.50736666666667,99.56811428571429,99.54791428571428,0.2360000000000002,0.10899999999999999,0.036833333333333274,0.272,-0.05666666666667197,-0.054999999999999716,1.631,1.554,38.321,29.901333333333334,38.411,35.338,55.921,35.275999999999996,59.85,52.795,53.861999999999995,34.397999999999996,58.427,51.107,53.022999999999996,33.945499999999996,58.3345,50.50866666666667,-0.1915,0.04049999999999998,0.11008000000000001,0.11319000000000001,0.0,214.29000000000002,214.46,211.31333333333333,211.31333333333333,0.0,0.0
22,0.0,0.0,0.0,1.0,1.0,0.0,0.0,1.0,0.0,100.0,1.0,1.1856,26.0,0.0,0.0,0.0,63.999999,0.0,26.0,26.0,26.0,26.0,0.18866666666666676,0.27059999999999995,0.024175000000000002,292.038,-2.7387,-2.618333333333333,-1.67625,-1.5069,-201.86,215.9475,190.52825,0.0,0.0,0.0,0.0,0.044500000000000005,-5.498166666666667,-5.498166666666667,-0.5574,0.13149999999999995,0.09799999999999986,0.8690000000000002,68.605,0.14550000000000002,-0.207575,-1.3999999999999995,100.0,1.0,1.0,211.51,0.0,0.0,0.0,0.0,0.0,0.0,0.0,8965.2,0.0,55.0,5.0,246.95333333333335,0.0,0.0,0.0,0.0,0.0,0.0,0.0,0.0,1.1039999999999992,1.1039999999999992,0.0,0.0,0.0,55.0,616.79921,10000.0,85.000001,85.000001,85.000001,85.000001,395.0,0.0,0.0,0.0,1.0,333.33500000000004,52.155,52.155,47.104,47.104,34.0,-18.44,29.098,-22.173333333333336,38.9125,0.0,1781.162,0.10500000000000043,100.0,27.802,28.785,42.533,44.314,0.0,0.0,100.0,0.0,0.0,0.0,0.0,2811.714285714286,3305.6,4113.75,4407.8,306.1515,304.25733333333335,314.8505,313.966,21.9806,20.63,21.9962,21.5034,314.999998,314.999998,324.999988,324.999988,99.55881428571429,99.50738333333334,99.56825714285715,99.54807142857143,0.1652499999999999,0.02300000000000013,0.04416666666666669,0.2656666666666667,-0.03833333333332689,-0.06333333333333258,1.5053333333333332,1.4485000000000001,38.378,29.937666666666665,38.476,35.3965,55.912,35.319,59.888,52.861000000000004,53.852999999999994,34.438,58.4625,51.171,53.012,33.984,58.3665,50.571333333333335,-0.08099999999999996,-0.07850000000000001,0.10579000000000001,0.10411000000000001,0.0,214.745,214.845,211.51,211.51,0.0,0.0
23,0.0,0.0,0.0,1.0,1.0,0.0,0.0,1.0,0.0,100.0,1.0,1.1856,26.0,0.0,0.0,0.0,63.999999,0.0,26.0,26.0,26.0,26.0,0.09288888888888902,0.24680000000000013,-0.01645,292.114,-2.7484,-2.5924444444444443,-1.57775,-1.5470000000000002,-198.14999999999998,215.96,190.5035,0.0,0.0,0.0,0.0,0.04666666666666667,-5.498166666666667,-5.498166666666667,-0.5769000000000001,-0.22100000000000009,0.06699999999999995,0.019000000000000128,68.747,0.11,-0.233325,0.10799999999999965,100.0,1.0,1.0,212.07,0.0,0.0,0.0,0.0,0.0,0.0,0.0,8988.9,0.0,55.0,5.0,247.46333333333334,1.0,0.0,0.0,0.0,0.0,0.0,0.0,0.0,1.1580000000000013,1.1580000000000013,0.0,0.0,1.0,55.0,616.79921,10000.0,85.000001,85.000001,85.000001,85.000001,395.0,0.0,0.0,0.0,1.0,166.665,51.635999999999996,51.635999999999996,48.141,48.141,34.0,-23.0525,26.454,-22.206666666666663,32.44,0.0,1781.109,0.8150000000000013,100.0,28.168,28.675,42.787,44.396,0.0,0.0,100.0,0.0,0.0,0.0,0.0,3129.285714285714,3281.6,3864.375,4019.5,305.2555,304.447,315.39125,314.857,21.9904,20.6362,22.0073,21.5133,314.999998,314.999998,324.999988,324.999988,99.55882857142858,99.50738333333334,99.5684,99.54822857142857,0.11775000000000002,-0.023333333333333206,-0.015000000000000013,0.21166666666666667,-0.03999999999999915,-0.05833333333333002,1.5263333333333333,1.541,38.44,29.976,38.545,35.458,55.9,35.361,59.926,52.929,53.841,34.477000000000004,58.4975,51.2365,52.998999999999995,34.0215,58.397999999999996,50.635666666666665,-0.024499999999999966,-0.1419999999999999,0.10705500000000001,0.09897,0.0,215.22500000000002,215.22,212.07,212.07,0.0,0.0
24,0.0,0.0,0.0,1.0,1.0,0.0,0.0,1.0,0.0,100.0,1.0,1.1856,26.0,0.0,0.0,0.0,63.999999,0.0,26.0,26.0,26.0,26.0,0.024333333333333318,0.27659999999999996,0.004350000000000001,292.358,-2.7477,-2.6275555555555554,-1.59935,-1.5103,-195.06,215.9725,190.482375,0.0,0.0,0.0,0.0,0.04846666666666667,-5.498166666666667,-5.498166666666667,-0.5783,-0.44750000000000023,0.047222222222222054,-0.5869999999999997,68.867,0.0591,-0.216425,0.8979999999999997,100.0,1.0,1.0,212.32333333333332,0.0,0.0,0.0,0.0,0.0,0.0,0.0,8999.7,0.0,55.0,5.0,247.89333333333335,0.0,0.0,0.0,0.0,0.0,0.0,0.0,0.0,1.2029999999999994,1.2029999999999994,0.0,0.0,0.0,55.0,616.79921,10000.0,85.000001,85.000001,85.000001,85.000001,395.0,0.0,0.0,0.0,1.0,166.665,52.856,52.856,47.089,47.089,34.0,-23.41,21.666,-29.736666666666665,29.39,0.0,1781.065,1.0150000000000006,100.0,27.863,28.4,42.918,44.089,0.0,0.0,100.0,0.0,0.0,0.0,0.0,2933.5714285714284,2951.3,4358.875,4111.3,306.0425,305.3713333333333,314.28525,314.6815,21.9986,20.6411,22.0165,21.5214,314.999998,314.999998,324.999988,324.999988,99.55884285714286,99.50738333333334,99.56854285714286,99.54835714285714,0.06125000000000025,-0.07699999999999996,-0.08066666666666666,0.14216666666666677,-0.05666666666667197,-0.03499999999999659,1.4973333333333332,1.5270000000000001,38.491,30.006666666666668,38.602999999999994,35.5085,55.887,35.394999999999996,59.959,52.983000000000004,53.829,34.5085,58.528,51.2885,52.986000000000004,34.0515,58.426,50.68666666666667,0.0009999999999998899,-0.16000000000000014,0.11131500000000001,0.09998000000000001,0.0,215.64,215.56,212.32333333333332,212.32333333333332,0.0,0.0
25,0.0,0.0,0.0,1.0,1.0,0.0,0.0,1.0,0.0,100.0,1.0,1.1856,26.0,0.0,0.0,0.0,63.999999,0.0,26.0,26.0,26.0,26.0,-0.056777777777777816,0.26570000000000005,-0.078125,292.404,-2.7782999999999998,-2.625888888888889,-1.58355,-1.5445,-191.54,215.985,190.457125,0.0,0.0,0.0,0.0,0.0505,-5.498166666666667,-5.498166666666667,-0.614,-0.09750000000000014,0.01822222222222214,-0.6999999999999997,68.999,-0.0059,-0.228525,1.4100000000000001,100.0,1.0,1.0,212.88333333333333,0.0,0.0,0.0,0.0,0.0,0.0,0.0,9023.4,0.0,55.0,5.0,248.37,1.0,0.0,0.0,0.0,0.0,0.0,0.0,0.0,1.2540000000000013,1.2540000000000013,0.0,0.0,1.0,55.0,616.79921,10000.0,85.000001,85.000001,85.000001,85.000001,395.0,0.0,0.0,0.0,1.0,333.33500000000004,51.941,51.941,47.958,47.958,34.0,-27.6375,22.997999999999998,-29.156666666666666,26.1525,0.0,1781.012,1.0350000000000001,100.0,28.116,28.212,43.041,43.437,0.0,0.0,100.0,0.0,0.0,0.0,0.0,3189.0,3301.0,3966.625,3977.7,305.269,304.448,315.23725,315.0685,22.0078,20.6467,22.0269,21.5304,314.999998,314.999998,324.999988,324.999988,99.55884285714286,99.5074,99.56868571428572,99.54851428571429,0.026250000000000107,-0.10899999999999999,-0.1426666666666666,0.09699999999999998,-0.04833333333333201,-0.030000000000001137,1.5443333333333333,1.593,38.549,30.041666666666664,38.668,35.565,55.870000000000005,35.4365,59.9935,53.0405,53.812,34.547,58.56,51.344,52.969,34.088499999999996,58.455,50.74133333333333,0.0015000000000000568,-0.16199999999999992,0.11027,0.106075,0.0,216.065,215.91500000000002,212.88333333333333,212.88333333333333,0.0,0.0
26,0.0,0.0,0.0,1.0,1.0,0.0,0.0,1.0,0.0,100.0,1.0,1.1856,26.0,0.0,0.0,0.0,63.999999,0.0,26.0,26.0,26.0,26.0,-0.13411111111111107,0.2682,0.09680000000000001,291.138,-2.67,-2.760111111111111,-1.5870000000000002,-1.5825,-187.81,216.0,190.42975,0.0,0.0,0.0,0.0,0.05266666666666667,-5.498166666666667,-5.498166666666667,-0.5699000000000001,0.7204999999999999,-0.05055555555555591,-0.05699999999999994,69.143,-0.0629,-0.195225,1.6340000000000003,100.0,1.0,1.0,213.04666666666668,0.0,0.0,0.0,0.0,0.0,0.0,0.0,9030.2,0.0,55.0,5.0,248.88666666666666,0.0,0.0,0.0,0.0,0.0,0.0,0.0,0.0,1.3079999999999998,1.3079999999999998,0.0,0.0,0.0,55.0,616.79921,10000.0,85.000001,85.000001,85.000001,85.000001,395.0,0.0,0.0,0.0,1.0,166.665,51.437,51.437,46.112,46.112,34.0,-28.1025,20.689999999999998,-38.87,27.0375,0.0,1780.959,0.8099999999999987,100.0,29.32,28.491,44.064,43.396,0.0,0.0,100.0,0.0,0.0,0.0,0.0,3224.4285714285716,3043.4,4650.875,4453.0,304.9855,305.11133333333333,313.614,313.97975,22.0181,20.6527,22.0381,21.5402,314.999998,314.999998,324.999988,324.999988,99.55884285714286,99.50741666666667,99.56884285714285,99.54867142857142,0.00649999999999995,-0.14666666666666672,-0.19033333333333335,0.028000000000000025,-0.03833333333332689,-0.045000000000001705,1.4096666666666666,1.472,38.613,30.079333333333334,38.738,35.626,55.855999999999995,35.485,60.0375,53.1045,53.799,34.591499999999996,58.601,51.4055,52.955,34.131,58.4925,50.80133333333333,-0.014000000000000012,-0.15249999999999986,0.11093000000000001,0.099705,0.0,216.56,216.41,213.04666666666668,213.04666666666668,0.0,0.0
27,0.0,0.0,0.0,1.0,1.0,0.0,0.0,1.0,0.0,100.0,1.0,1.1856,26.0,0.0,0.0,0.0,63.999999,0.0,26.0,26.0,26.0,26.0,-0.12477777777777777,0.2518,-0.0053750000000000004,291.534,-2.6169000000000002,-2.7457777777777777,-1.5588000000000002,-1.6729,-184.7,216.0075,190.408125,0.0,0.0,0.0,0.0,0.0545,-5.498166666666667,-5.498166666666667,-0.5962000000000001,-1.1070000000000002,-0.0725555555555557,-0.8500000000000001,69.26,-0.08990000000000001,-0.24200000000000002,1.5839999999999996,100.0,1.0,1.0,213.5,0.0,0.0,0.0,0.0,0.0,0.0,0.0,9049.5,0.0,55.0,5.0,249.31,1.0,0.0,0.0,0.0,0.0,0.0,0.0,0.0,1.352999999999998,1.352999999999998,0.0,0.0,1.0,55.0,616.79921,10000.0,85.000001,85.000001,85.000001,85.000001,395.0,0.0,0.0,0.0,1.0,166.665,51.697,51.697,46.661,46.661,34.0,-30.112499999999997,19.116,-36.06666666666666,23.9125,0.0,1780.914,0.740000000000002,100.0,29.018,28.248,44.862,43.801,0.0,0.0,100.0,0.0,0.0,0.0,0.0,3330.5714285714284,2963.6,4250.375,4001.1000000000004,304.828,305.30333333333334,314.538,314.82875,22.0265,20.6575,22.0476,21.5484,314.999998,314.999998,324.999988,324.999988,99.55885714285715,99.50743333333334,99.56897142857143,99.5488,-0.030750000000000055,-0.16799999999999993,-0.22499999999999998,0.004833333333333467,-0.030000000000001137,-0.04333333333332945,1.4616666666666667,1.5245,38.665,30.109333333333332,38.798,35.6775,55.843,35.5225,60.0755,53.158500000000004,53.787,34.626,58.637,51.457,52.941,34.164,58.5255,50.851333333333336,-0.02200000000000002,-0.14250000000000007,0.10813500000000001,0.10674000000000002,0.0,216.85000000000002,216.71,213.5,213.5,0.0,0.0
28,0.0,0.0,0.0,1.0,1.0,0.0,0.0,1.0,0.0,100.0,1.0,1.1856,26.0,0.0,0.0,0.0,63.999999,0.0,26.0,26.0,26.0,26.0,-0.1594444444444444,0.26439999999999997,-0.060050000000000006,291.87,-2.633,-2.7431111111111113,-1.5032999999999999,-1.6393,-181.16,216.015,190.382875,0.0,0.0,0.0,0.0,0.05653333333333334,-5.498166666666667,-5.498166666666667,-0.6021000000000001,0.6555,-0.08066666666666666,0.6390000000000002,69.389,-0.1107,-0.2179,1.4639999999999995,100.0,1.0,1.0,214.03,0.0,0.0,0.0,0.0,0.0,0.0,0.0,9072.0,0.0,55.0,5.0,249.77333333333334,0.0,0.0,0.0,0.0,0.0,0.0,0.0,0.0,1.404,1.404,0.0,0.0,0.0,55.0,616.79921,10000.0,85.000001,85.000001,85.000001,85.000001,395.0,0.0,0.0,0.0,1.0,333.33500000000004,51.757999999999996,51.757999999999996,47.516,47.516,34.0,-29.515,19.482,-34.14,23.2375,0.0,1780.861,0.5800000000000018,100.0,29.339,27.962,44.367000000000004,43.034,0.0,0.0,100.0,0.0,0.0,0.0,0.0,3276.857142857143,3006.6,4121.75,4080.6000000000004,304.849,305.325,314.84875,314.84775,22.0361,20.663,22.058,21.557299999999998,314.999998,314.999998,324.999988,324.999988,99.55885714285715,99.50745,99.56912857142858,99.54894285714286,-0.021749999999999936,-0.16266666666666674,-0.23249999999999993,-0.002666666666666595,-0.036666666666668846,-0.07166666666666544,1.514,1.566,38.726,30.143333333333334,38.861999999999995,35.7335,55.83,35.5665,60.1115,53.214,53.775,34.667,58.670500000000004,51.5105,52.928,34.203,58.556,50.903333333333336,-0.04299999999999993,-0.129,0.10766,0.10695,0.0,217.29500000000002,217.18,214.03,214.03,0.0,0.0
29,0.0,0.0,0.0,1.0,1.0,0.0,0.0,1.0,0.0,100.0,1.0,1.1856,26.0,0.0,0.0,0.0,63.999999,0.0,26.0,26.0,26.0,26.0,-0.16222222222222216,0.2654000000000001,0.038200000000000005,291.428,-2.5734,-2.8182222222222224,-1.5336,-1.6239,-177.62,216.01749999999998,190.356375,0.0,0.0,0.0,0.0,0.058600000000000006,-5.498166666666667,-5.498166666666667,-0.6064,-0.7854999999999999,-0.08644444444444455,-0.6589999999999998,69.523,-0.11080000000000001,-0.216625,1.186,100.0,1.0,1.0,214.26333333333332,0.0,0.0,0.0,0.0,0.0,0.0,0.0,9081.8,0.0,55.0,5.0,250.25666666666666,1.0,0.0,0.0,0.0,0.0,0.0,0.0,0.0,1.4549999999999983,1.4549999999999983,0.0,0.0,1.0,55.0,616.79921,10000.0,85.000001,85.000001,85.000001,85.000001,395.0,0.0,0.0,0.0,1.0,333.33500000000004,51.59,51.59,46.463,46.463,34.0,-30.759999999999998,20.176,-37.31333333333333,23.887500000000003,0.0,1780.812,0.5,100.0,28.92,27.906,44.743,43.332,0.0,0.0,100.0,0.0,0.0,0.0,0.0,3430.142857142857,3029.5,4373.875,4132.0,304.5685,304.96866666666665,314.219,314.58425,22.0455,20.6683,22.0686,21.5666,314.999998,314.999998,324.999988,324.999988,99.55885714285715,99.50748333333334,99.56928571428571,99.54908571428571,-0.03224999999999989,-0.17333333333333312,-0.22983333333333333,-0.0001666666666666483,-0.046666666666666856,-0.03999999999999915,1.458,1.5035,38.785,30.177,38.929,35.791,55.815,35.609,60.153999999999996,53.2735,53.76,34.706,58.710499999999996,51.568,52.913,34.2405,58.593,50.959,-0.04499999999999993,-0.1160000000000001,0.100095,0.11774500000000002,0.0,217.655,217.555,214.26333333333332,214.26333333333332,0.0,0.0
30,0.0,0.0,0.0,1.0,1.0,0.0,0.0,1.0,0.0,100.0,1.0,1.1856,26.0,0.0,0.0,0.0,63.999999,0.0,26.0,26.0,26.0,26.0,-0.15288888888888885,0.26760000000000006,0.043550000000000005,291.0,-2.6282,-2.687222222222222,-1.47355,-1.6968,-174.28,216.015,190.331375,0.0,0.0,0.0,0.0,0.06053333333333334,-5.498166666666667,-5.498166666666667,-0.6051000000000001,0.841,-0.08722222222222209,-0.718,69.644,-0.1044,-0.22005000000000002,1.12,100.0,1.0,1.0,214.68333333333334,0.0,0.0,0.0,0.0,0.0,0.0,0.0,9099.7,0.0,55.0,5.0,250.69333333333333,0.0,0.0,0.0,0.0,0.0,0.0,1.0,0.0,1.5030000000000001,1.5030000000000001,0.0,0.0,0.0,55.0,616.79921,10000.0,85.000001,85.000001,85.000001,85.000001,395.0,0.0,0.0,0.0,1.0,333.33500000000004,50.797,50.797,46.799,46.799,34.0,-31.5925,18.934,-36.39666666666667,24.975,0.0,1780.762,0.2950000000000017,100.0,29.801000000000002,28.678,44.597,43.322,0.0,0.0,100.0,0.0,0.0,0.0,0.0,3536.0,2968.7,4394.125,4211.8,304.208,305.18766666666664,314.25575,314.3335,22.0548,20.6736,22.0785,21.5752,314.999998,314.999998,324.999988,324.999988,99.55887142857142,99.5075,99.56942857142857,99.54922857142857,-0.0129999999999999,-0.1633333333333331,-0.22750000000000004,-0.01100000000000001,-0.04333333333332945,-0.04999999999999716,1.46,1.506,38.842,30.210333333333335,38.991,35.845,55.805,35.653,60.19,53.328,53.751000000000005,34.7465,58.744,51.62,52.903,34.278999999999996,58.6235,51.01,-0.06699999999999995,-0.10499999999999998,0.10869500000000001,0.10586500000000001,0.0,218.07999999999998,217.99,214.68333333333334,214.68333333333334,0.0,0.0
31,0.0,0.0,0.0,1.0,1.0,0.0,0.0,1.0,0.0,100.0,1.0,1.1856,26.0,0.0,0.0,0.0,63.999999,0.0,26.0,26.0,26.0,26.0,-0.127,0.262,0.008700000000000001,291.031,-2.6936,-2.767888888888889,-1.56095,-1.6728,-170.72,216.01,190.305625,0.0,0.0,0.0,0.0,0.0626,-5.498166666666667,-5.498166666666667,-0.5898,-0.6724999999999999,-0.07555555555555582,0.5840000000000001,69.777,-0.0897,-0.22030000000000002,0.6079999999999997,100.0,1.0,1.0,214.99333333333334,0.0,0.0,0.0,0.0,0.0,0.0,0.0,9112.8,0.0,55.0,5.0,251.17000000000002,1.0,0.0,0.0,0.0,0.0,0.0,1.0,0.0,1.5539999999999985,1.5539999999999985,0.0,0.0,1.0,55.0,616.79921,10000.0,85.000001,85.000001,85.000001,85.000001,395.0,0.0,0.0,0.0,1.0,333.33500000000004,51.544,51.544,45.456,45.456,34.0,-27.4225,20.862000000000002,-36.16,27.525000000000002,0.0,1780.711,0.21999999999999886,100.0,29.558,28.547,45.329,43.854,0.0,0.0,100.0,0.0,0.0,0.0,0.0,3157.5714285714284,3050.9,4443.125,4265.5,305.3755,305.134,314.03475,314.415,22.0643,20.6792,22.089199999999998,21.584600000000002,314.999998,314.999998,324.999988,324.999988,99.55887142857142,99.50751666666666,99.56958571428571,99.54937142857143,0.006000000000000227,-0.14500000000000002,-0.18599999999999994,0.03666666666666685,-0.04833333333333201,-0.03833333333332689,1.446,1.4735,38.902,30.244999999999997,39.058,35.9035,55.79,35.697,60.233000000000004,53.3895,53.736999999999995,34.787,58.7845,51.679,52.888,34.317499999999995,58.661,51.06766666666667,-0.07299999999999995,-0.09699999999999998,0.10279,0.11104000000000001,0.0,218.425,218.38,214.99333333333334,214.99333333333334,0.0,0.0
32,0.0,0.0,0.0,1.0,1.0,0.0,0.0,1.0,0.0,100.0,1.0,1.1856,26.0,0.0,0.0,0.0,63.999999,0.0,26.0,26.0,26.0,26.0,-0.09955555555555551,0.2533000000000001,-0.07735,291.321,-2.6492,-2.7045555555555554,-1.5902,-1.578,-167.16,216.0025,190.28,0.0,0.0,0.0,0.0,0.06466666666666666,-5.498166666666667,-5.498166666666667,-0.6115,0.17100000000000004,-0.09777777777777796,-0.7479999999999998,69.903,-0.0781,-0.23142500000000002,0.734,100.0,1.0,1.0,215.57333333333332,0.0,0.0,0.0,0.0,0.0,0.0,0.0,9137.4,0.0,55.0,5.0,251.62333333333333,0.0,0.0,0.0,0.0,0.0,0.0,1.0,0.0,1.6050000000000004,1.6050000000000004,0.0,0.0,0.0,55.0,616.79921,10000.0,85.000001,85.000001,85.000001,85.000001,395.0,0.0,0.0,0.0,1.0,333.33500000000004,51.132,51.132,46.829,46.829,34.0,-29.32,20.742,-33.95333333333333,24.6575,0.0,1780.661,0.14499999999999957,100.0,29.417,28.747,44.786,43.67,0.0,0.0,100.0,0.0,0.0,0.0,0.0,3432.5714285714284,3002.7,4213.625,4067.2,304.59,305.1716666666667,314.77025,314.9375,22.0738,20.6849,22.0997,21.5937,314.999998,314.999998,324.999988,324.999988,99.55887142857142,99.50753333333333,99.56974285714286,99.54952857142857,0.015499999999999847,-0.1283333333333332,-0.1935,0.0431666666666668,-0.05333333333332746,-0.02833333333332888,1.538,1.5545,38.961,30.28033333333333,39.123,35.961,55.775999999999996,35.741,60.2695,53.446,53.724000000000004,34.8275,58.819,51.7335,52.873999999999995,34.3565,58.692,51.120333333333335,-0.07600000000000007,-0.09549999999999992,0.10111500000000001,0.10601000000000001,0.0,218.85500000000002,218.745,215.57333333333332,215.57333333333332,0.0,0.0
33,0.0,0.0,0.0,1.0,1.0,0.0,0.0,1.0,0.0,100.0,1.0,1.1856,26.0,0.0,0.0,0.0,63.999999,0.0,26.0,26.0,26.0,26.0,-0.09377777777777785,0.26839999999999997,-0.012075,291.336,-2.6499,-2.7363333333333335,-1.55695,-1.589,-163.8,215.9925,190.254875,0.0,0.0,0.0,0.0,0.06663333333333334,-5.498166666666667,-5.498166666666667,-0.6111,-0.35950000000000015,-0.08611111111111125,0.08400000000000007,70.026,-0.07060000000000001,-0.215375,0.508,100.0,1.0,1.0,215.81,0.0,0.0,0.0,0.0,0.0,0.0,0.0,9147.3,0.0,55.0,5.0,252.06666666666666,1.0,0.0,0.0,0.0,0.0,0.0,1.0,0.0,1.6529999999999987,1.6529999999999987,0.0,0.0,1.0,55.0,616.79921,10000.0,85.000001,85.000001,85.000001,85.000001,395.0,0.0,0.0,0.0,1.0,166.665,51.788,51.788,46.356,46.356,34.0,-26.96,20.984,-35.2,26.2175,0.0,1780.615,-0.0799999999999983,100.0,29.173000000000002,28.503,44.751,43.808,0.0,0.0,100.0,0.0,0.0,0.0,0.0,3250.4285714285716,2933.9,4366.0,4247.4,305.1785,305.4393333333333,314.3395,314.37025,22.0827,20.69,22.1096,21.6024,314.999998,314.999998,324.999988,324.999988,99.55887142857142,99.50755,99.56987142857143,99.54967142857143,0.02674999999999983,-0.11399999999999988,-0.18866666666666665,0.03649999999999998,-0.051666666666669414,-0.04333333333332945,1.468,1.4905,39.016999999999996,30.312333333333335,39.185,36.0155,55.762,35.778,60.306,53.5025,53.711,34.862,58.853,51.7875,52.86,34.3895,58.723,51.172666666666665,-0.08899999999999997,-0.07650000000000023,0.10483,0.10857000000000001,0.0,219.21,219.15,215.81,215.81,0.0,0.0
34,0.0,0.0,0.0,1.0,1.0,0.0,0.0,1.0,0.0,100.0,1.0,1.1856,26.0,0.0,0.0,0.0,63.999999,0.0,26.0,26.0,26.0,26.0,-0.0858888888888889,0.2592000000000001,-0.0685,291.702,-2.716,-2.7093333333333334,-1.5925,-1.6092,-160.23000000000002,215.98000000000002,190.227125,0.0,0.0,0.0,0.0,0.0687,-5.498166666666667,-5.498166666666667,-0.6456000000000001,-0.722,-0.05022222222222217,1.125,70.154,-0.0539,-0.22787500000000002,0.2839999999999998,100.0,1.0,1.0,216.27666666666667,0.0,0.0,0.0,0.0,0.0,0.0,0.0,9167.1,0.0,55.0,5.0,252.53,0.0,0.0,0.0,0.0,0.0,0.0,1.0,0.0,1.7040000000000006,1.7040000000000006,0.0,0.0,0.0,55.0,616.79921,10000.0,85.000001,85.000001,85.000001,85.000001,395.0,0.0,0.0,0.0,1.0,333.33500000000004,51.971000000000004,51.971000000000004,47.379,47.379,34.0,-26.4625,21.672,-31.406666666666666,27.305,0.0,1780.561,-0.05000000000000071,100.0,29.031,28.087,44.53,43.842,0.0,0.0,100.0,0.0,0.0,0.0,0.0,3174.4285714285716,3013.4,4059.5,4185.8,305.158,305.35633333333334,315.03375,314.54575,22.092,20.6954,22.12,21.6117,314.999998,314.999998,324.999988,324.999988,99.55888571428571,99.50756666666666,99.57004285714285,99.54982857142858,0.04300000000000015,-0.1036666666666668,-0.16466666666666663,0.06366666666666676,-0.02499999999999858,-0.051666666666669414,1.5070000000000001,1.5305,39.075,30.346333333333334,39.25,36.073,55.745999999999995,35.8195,60.3435,53.565,53.695,34.9,58.888,51.8475,52.844,34.426,58.754999999999995,51.23133333333333,-0.08599999999999985,-0.07750000000000012,0.10910500000000001,0.10847000000000001,0.0,219.56,219.535,216.27666666666664,216.27666666666667,0.0,0.0
35,0.0,0.0,0.0,1.0,1.0,0.0,0.0,1.0,0.0,100.0,1.0,1.1856,26.0,0.0,0.0,0.0,63.999999,0.0,26.0,26.0,26.0,26.0,-0.0494444444444444,0.2570000000000001,-0.06835000000000001,291.748,-2.7235,-2.6871111111111112,-1.564,-1.6155,-156.64999999999998,215.965,190.197125,0.0,0.0,0.0,0.0,0.0708,-5.498166666666667,-5.498166666666667,-0.6853,-0.4235000000000002,-0.05677777777777804,-0.9630000000000001,70.281,-0.0362,-0.23092500000000002,0.15799999999999947,100.0,1.0,1.0,216.71666666666667,0.0,0.0,0.0,0.0,0.0,0.0,0.0,9185.8,0.0,55.0,5.0,252.98666666666668,1.0,0.0,0.0,0.0,0.0,0.0,1.0,0.0,1.754999999999999,1.754999999999999,0.0,0.0,1.0,55.0,616.79921,10000.0,85.000001,85.000001,85.000001,85.000001,395.0,0.0,0.0,0.0,1.0,333.33500000000004,51.62,51.62,46.921,46.921,34.0,-27.0825,24.064,-30.523333333333333,26.017500000000002,0.0,1780.511,-0.054999999999999716,100.0,28.627,28.435000000000002,44.162,43.493,0.0,0.0,100.0,0.0,0.0,0.0,0.0,3287.0,3234.9,4097.375,3945.1000000000004,305.119,304.509,314.922,315.1035,22.1011,20.701,22.1304,21.6208,314.999998,314.999998,324.999988,324.999988,99.55888571428571,99.50758333333333,99.57018571428571,99.54995714285714,0.046499999999999986,-0.09133333333333327,-0.15116666666666656,0.07533333333333325,-0.03999999999999915,-0.051666666666669414,1.555,1.5554999999999999,39.132,30.381333333333334,39.315,36.129999999999995,55.730000000000004,35.8575,60.3765,53.617,53.68,34.935,58.9185,51.8975,52.828,34.4595,58.7825,51.28033333333333,-0.08650000000000002,-0.07399999999999984,0.10826000000000001,0.102605,0.0,219.965,219.935,216.71666666666667,216.71666666666667,0.0,0.0
