,ABS Active,ABS Enabled,AID Allow Tire Blankets,AID Auto Blip,AID Auto Clutch,AID Auto Shift,AID Fuel Rate,AID Ideal Line,AID Mech Damage,AID Stability,AID Tire Wear Rate,Air Density,Air Temp,Ballast,Best Lap Delta,Best Lap Time,Brake Bias,Brake Pos,Brake Temp FL,Brake Temp FR,Brake Temp RL,Brake Temp RR,CG Accel Lateral,CG Accel Longitudinal,CG Accel Vertical,CG Height,Camber FL,Camber FR,Camber RL,Camber RR,Car Coord X,Car Coord Y,Car Coord Z,Car Damage Front,Car Damage Left,Car Damage Rear,Car Damage Right,Car Pos Norm,Caster FL,Caster FR,Chassis Pitch Angle,Chassis Pitch Rate,Chassis Roll Angle,Chassis Roll Rate,Chassis Velocity X,Chassis Velocity Y,Chassis Velocity Z,Chassis Yaw Rate,Clutch Pos,DRS Active,DRS Available,Drive Train Speed,ERS Heat Charging,ERS Is Charging,ERS Max Energy,ERS Power Level,ERS Recovery Level,Engine Brake Setting,Engine Limiter,Engine RPM,Flags,Fuel Level,Gear,Ground Speed,HR Sample Clock,In Pit,KERS Charge,KERS Deployed Energy,KERS Input,KERS Max Energy,LR Sample Clock,Lap Invalidated,Lap Time,Lap Time2,Last Lap Time,Last Sector Time,MR Sample Clock,Max Fuel,Max Power,Max RPM,Max Sus Travel FL,Max Sus Travel FR,Max Sus Travel RL,Max Sus Travel RR,Max Torque,Max Turbo Boost,Num Tires Off Track,Penalties Enabled,Position,Raw Data Sample Rate,Ride Height FL,Ride Height FR,Ride Height RL,Ride Height RR,Road Temp,Self Align Torque FL,Self Align Torque FR,Self Align Torque RL,Self Align Torque RR,Session Lap Count,Session Time Left,Steering Angle,Surface Grip,Suspension Travel FL,Suspension Travel FR,Suspension Travel RL,Suspension Travel RR,TC Active,TC Enabled,Throttle Pos,Tire Dirt Level FL,Tire Dirt Level FR,Tire Dirt Level RL,Tire Dirt Level RR,Tire Load FL,Tire Load FR,Tire Load RL,Tire Load RR,Tire Loaded Radius FL,Tire Loaded Radius FR,Tire Loaded Radius RL,Tire Loaded Radius RR,Tire Pressure FL,Tire Pressure FR,Tire Pressure RL,Tire Pressure RR,Tire Radius FL,Tire Radius FR,Tire Radius RL,Tire Radius RR,Tire Rubber Grip FL,Tire Rubber Grip FR,Tire Rubber Grip RL,Tire Rubber Grip RR,Tire Slip Angle FL,Tire Slip Angle FR,Tire Slip Angle RL,Tire Slip Angle RR,Tire Slip Ratio FL,Tire Slip Ratio FR,Tire Slip Ratio RL,Tire Slip Ratio RR,Tire Temp Core FL,Tire Temp Core FR,Tire Temp Core RL,Tire Temp Core RR,Tire Temp Inner FL,Tire Temp Inner FR,Tire Temp Inner RL,Tire Temp Inner RR,Tire Temp Middle FL,Tire Temp Middle FR,Tire Temp Middle RL,Tire Temp Middle RR,Tire Temp Outer FL,Tire Temp Outer FR,Tire Temp Outer RL,Tire Temp Outer RR,Toe In FL,Toe In FR,Toe In RL,Toe In RR,Turbo Boost,Wheel Angular Speed FL,Wheel Angular Speed FR,Wheel Angular Speed RL,Wheel Angular Speed RR,Wind Direction,Wind Speed
0,0.0,0.0,0.0,1.0,1.0,0.0,0.0,1.0,0.0,100.0,1.0,1.1856,26.0,0.0,0.0,0.0,63.99999,0.0,26.0,26.0,26.0,26.0,-0.07666666666666666,0.29500000000000015,0.027800000000000002,294.022,-2.722,-2.6528888888888886,-1.5196,-1.5524,-275.73,216.29000000000002,190.987875,0.0,0.0,0.0,0.0,0.0015666666666666667,-5.498166666666667,-5.498166666666667,-0.5502,1.418,-0.005222222222222239,-1.2530000000000001,65.538,-0.033,-0.21527500000000002,0.9620000000000006,100.0,1.0,1.0,202.34,0.0,0.0,0.0,0.0,0.0,0.0,0.0,8576.5,0.0,55.0,5.0,235.90333333333334,0.0,0.0,0.0,0.0,0.0,0.0,0.0,0.0,0.0030000000000001137,0.0030000000000001137,0.0,0.0,0.0,55.0,616.79921,10000.0,85.0,85.0,85.0,85.0,395.0,0.0,0.0,0.0,1.0,20.0,52.765,52.765,49.652,49.652,34.0,-26.15,23.301666666666666,-30.64666666666666,24.7275,0.0,1782.719,0.7100000000000009,100.0,27.515,27.081,40.416,40.578,0.0,0.0,100.0,0.0,0.0,0.0,0.0,3007.285714285714,3318.6,4151.125,4003.4,305.7535,304.181,314.8015,314.81875,21.8009,20.5197,21.7726,21.3137,314.99999,314.99999,324.99998,324.99998,99.56024285714285,99.50736666666667,99.56525714285715,99.54518571428571,0.0034999999999998366,-0.11399999999999988,-0.16033333333333333,0.0601666666666667,-0.04999999999999716,-0.026666666666670835,1.5403333333333333,1.5815000000000001,37.254999999999995,29.248333333333335,37.079,34.210499999999996,56.763999999999996,34.5935,59.101,51.6125,54.643,33.7425,57.7285,49.9695,53.794,33.287,57.6945,49.39333333333333,-0.020000000000000018,-0.12650000000000006,0.10719000000000001,0.11176000000000001,0.0,205.385,205.3,202.34,202.34,0.0,0.0
1,0.0,0.0,0.0,1.0,1.0,0.0,0.0,1.0,0.0,100.0,1.0,1.1856,26.0,0.0,0.0,0.0,63.999999,0.0,26.0,26.0,26.0,26.0,-0.10811111111111105,0.3123,0.00036666666666666667,293.091,-2.6503,-2.764333333333333,-1.5257,-1.5471000000000001,-272.38,216.285,190.967625,0.0,0.0,0.0,0.0,0.0035,-5.498166666666667,-5.498166666666667,-0.4968,-0.3825,-0.05366666666666653,-0.15200000000000002,65.69200000000001,-0.048600000000000004,-0.19365000000000002,1.347999999999999,100.0,1.0,1.0,202.51333333333332,0.0,0.0,0.0,0.0,0.0,0.0,0.0,8583.8,0.0,55.0,5.0,236.46,1.0,0.0,0.0,0.0,0.0,0.0,0.0,0.0,0.053999999999998494,0.053999999999998494,0.0,0.0,1.0,55.0,616.79921,10000.0,85.000001,85.000001,85.000001,85.000001,395.0,0.0,0.0,0.0,1.0,333.33500000000004,53.558,53.558,48.309,48.309,34.0,-26.497500000000002,18.248333333333335,-33.95,29.525,0.0,1782.669,0.8399999999999999,100.0,27.68,27.019,42.659,41.551,0.0,0.0,100.0,0.0,0.0,0.0,0.0,3035.5714285714284,2684.9,4328.125,4704.0,305.471,306.2955,314.233,313.163,21.8109,20.5249,21.7834,21.3228,314.999998,314.999998,324.999988,324.999988,99.56025714285714,99.5074,99.56541428571428,99.54532857142857,-0.006249999999999867,-0.1336666666666666,-0.1728333333333334,0.045666666666666744,-0.03999999999999915,-0.021666666666668277,1.388,1.4585,37.318,29.28033333333333,37.146,34.2675,56.745999999999995,34.634,59.1465,51.677,54.626000000000005,33.78,57.771,50.0315,53.775999999999996,33.323,57.734,49.454,-0.007500000000000062,-0.1459999999999999,0.10731500000000001,0.10511000000000001,0.0,205.82,205.72,202.51333333333332,202.51333333333332,0.0,0.0
2,0.0,0.0,0.0,1.0,1.0,0.0,0.0,1.0,0.0,100.0,1.0,1.1856,26.0,0.0,0.0,0.0,63.999999,0.0,26.0,26.0,26.0,26.0,-0.134,0.2811000000000001,-0.024866666666666665,293.671,-2.5977,-2.799555555555556,-1.4847000000000001,-1.6142,-269.03,216.2775,190.94875,0.0,0.0,0.0,0.0,0.0054666666666666665,-5.498166666666667,-5.498166666666667,-0.5501,-0.058,-0.054888888888888765,1.629,65.834,-0.0683,-0.25472500000000003,1.5860000000000003,100.0,1.0,1.0,203.41,0.0,0.0,0.0,0.0,0.0,0.0,0.0,8621.8,0.0,55.0,5.0,236.97333333333333,0.0,0.0,0.0,0.0,0.0,0.0,0.0,0.0,0.10500000000000043,0.10500000000000043,0.0,0.0,0.0,55.0,616.79921,10000.0,85.000001,85.000001,85.000001,85.000001,395.0,0.0,0.0,0.0,1.0,166.665,52.383,52.383,50.125,50.125,34.0,-30.634999999999998,19.77,-29.42,19.7925,0.0,1782.619,0.7250000000000014,100.0,28.304000000000002,27.012999999999998,42.615,41.418,0.0,0.0,100.0,0.0,0.0,0.0,0.0,3431.0,2900.1,3786.5,3642.7,304.3925,305.5705,315.559,315.8635,21.8212,20.5298,21.7939,21.3316,314.999998,314.999998,324.999988,324.999988,99.56025714285714,99.5074,99.56555714285714,99.54545714285715,-0.022750000000000048,-0.1476666666666666,-0.21850000000000003,0.004666666666666597,-0.036666666666668846,-0.036666666666668846,1.6286666666666667,1.6925,37.382,29.311333333333334,37.212,34.3225,56.732,34.673,59.1845,51.7345,54.613,33.8155,57.8065,50.0865,53.762,33.357,57.766999999999996,49.50833333333333,-0.018999999999999906,-0.13549999999999995,0.10788,0.10658500000000001,0.0,206.29000000000002,206.125,203.41,203.41,0.0,0.0
3,0.0,0.0,0.0,1.0,1.0,0.0,0.0,1.0,0.0,100.0,1.0,1.1856,26.0,0.0,0.0,0.0,63.999999,0.0,26.0,26.0,26.0,26.0,-0.13377777777777777,0.30580000000000007,-0.03976666666666667,293.427,-2.7269,-2.688888888888889,-1.5106000000000002,-1.5913000000000002,-265.87,216.265,190.930375,0.0,0.0,0.0,0.0,0.0073,-5.498166666666667,-5.498166666666667,-0.51,0.639,-0.010333333333333083,-0.765,65.977,-0.08410000000000001,-0.201875,1.2639999999999993,100.0,1.0,1.0,203.54000000000002,0.0,0.0,0.0,0.0,0.0,0.0,0.0,8627.3,0.0,55.0,5.0,237.48666666666668,1.0,0.0,0.0,0.0,0.0,0.0,0.0,0.0,0.1529999999999987,0.1529999999999987,0.0,0.0,1.0,55.0,616.79921,10000.0,85.000001,85.000001,85.000001,85.000001,395.0,0.0,0.0,0.0,1.0,333.33500000000004,53.513,53.513,48.203,48.203,34.0,-26.095,18.006666666666668,-35.54,24.0625,0.0,1782.57,0.5800000000000018,100.0,27.954,27.133,42.322,41.402,0.0,0.0,100.0,0.0,0.0,0.0,0.0,2883.5714285714284,2788.7,4354.0,4203.0,306.018,305.75875,314.2585,314.395,21.8305,20.5347,21.8037,21.34,314.999998,314.999998,324.999988,324.999988,99.56027142857143,99.50741666666667,99.56568571428572,99.5456,-0.023249999999999993,-0.15100000000000002,-0.21483333333333332,0.008333333333333304,-0.03833333333332689,-0.03166666666666629,1.5053333333333332,1.544,37.441,29.342,37.272999999999996,34.375,56.716,34.7125,59.221000000000004,51.7935,54.597,33.8525,57.8405,50.143,53.745999999999995,33.3925,57.7985,49.56366666666666,-0.03249999999999997,-0.12049999999999983,0.10710000000000001,0.11357500000000001,0.0,206.71,206.66,203.54000000000002,203.54000000000002,0.0,0.0
4,0.0,0.0,0.0,1.0,1.0,0.0,0.0,1.0,0.0,100.0,1.0,1.1856,26.0,0.0,0.0,0.0,63.999999,0.0,26.0,26.0,26.0,26.0,-0.13588888888888895,0.3014000000000001,-0.0246,293.671,-2.6575,-2.7443333333333335,-1.5237,-1.5996000000000001,-262.3,216.25,190.9095,0.0,0.0,0.0,0.0,0.009366666666666667,-5.498166666666667,-5.498166666666667,-0.5463,-0.708,-0.08066666666666666,-1.722,66.132,-0.08270000000000001,-0.238675,1.1099999999999994,100.0,1.0,1.0,204.17000000000002,0.0,0.0,0.0,0.0,0.0,0.0,0.0,8654.0,0.0,55.0,5.0,238.04666666666668,0.0,0.0,0.0,0.0,0.0,0.0,0.0,0.0,0.20700000000000074,0.20700000000000074,0.0,0.0,0.0,55.0,616.79921,10000.0,85.000001,85.000001,85.000001,85.000001,395.0,0.0,0.0,0.0,1.0,166.665,53.024,53.024,48.888999999999996,48.888999999999996,34.0,-29.905,19.111666666666665,-32.24666666666667,20.7925,0.0,1782.517,0.6050000000000004,100.0,27.698,26.891,42.749,41.442,0.0,0.0,100.0,0.0,0.0,0.0,0.0,3295.857142857143,2887.2,4085.625,3658.3,304.971,305.492,314.858,315.71175,21.8409,20.5402,21.8149,21.3494,314.999998,314.999998,324.999988,324.999988,99.56027142857143,99.50743333333334,99.56584285714285,99.54574285714286,-0.03049999999999997,-0.15266666666666673,-0.20299999999999996,0.020166666666666666,-0.051666666666669414,-0.07833333333332604,1.573,1.617,37.506,29.375999999999998,37.343,34.4335,56.696,34.756,59.265,51.856,54.578,33.891999999999996,57.882,50.203,53.726,33.4305,57.8365,49.62233333333333,-0.022499999999999964,-0.12550000000000017,0.1024,0.10632000000000001,0.0,207.16,207.07999999999998,204.17000000000002,204.17000000000002,0.0,0.0
5,0.0,0.0,0.0,1.0,1.0,0.0,0.0,1.0,0.0,100.0,1.0,1.1856,26.0,0.0,0.0,0.0,63.999999,0.0,26.0,26.0,26.0,26.0,-0.11944444444444446,0.29780000000000006,-0.024233333333333336,293.655,-2.6723,-2.7654444444444444,-1.5101,-1.5858,-259.12,216.23250000000002,190.89025,0.0,0.0,0.0,0.0,0.011233333333333333,-5.498166666666667,-5.498166666666667,-0.5365,0.449,-0.08277777777777784,-0.17399999999999993,66.27,-0.0859,-0.214175,1.0920000000000005,100.0,1.0,1.0,204.54333333333335,0.0,0.0,0.0,0.0,0.0,0.0,0.0,8669.9,0.0,55.0,5.0,238.54333333333335,1.0,0.0,0.0,0.0,0.0,0.0,0.0,0.0,0.254999999999999,0.254999999999999,0.0,0.0,1.0,55.0,616.79921,10000.0,85.000001,85.000001,85.000001,85.000001,395.0,0.0,0.0,0.0,1.0,333.33500000000004,53.436,53.436,49.025999999999996,49.025999999999996,34.0,-27.987499999999997,19.063333333333333,-33.71666666666667,22.755,0.0,1782.468,0.245000000000001,100.0,27.812,26.762999999999998,42.524,41.181,0.0,0.0,100.0,0.0,0.0,0.0,0.0,3187.5714285714284,2760.4,4183.25,4033.2,305.2515,305.94,314.712,314.819,21.8505,20.545,21.8247,21.357599999999998,314.999998,314.999998,324.999988,324.999988,99.56027142857143,99.50745,99.56598571428572,99.54587142857143,-0.007500000000000062,-0.1316666666666666,-0.21583333333333332,0.008499999999999952,-0.06333333333333258,-0.04333333333332945,1.53,1.5715,37.565,29.406333333333336,37.403999999999996,34.485,56.682,34.794,59.3025,51.9095,54.565,33.927,57.917,50.2545,53.712,33.464,57.869,49.672666666666665,-0.05600000000000005,-0.08650000000000002,0.10587500000000001,0.109865,0.0,207.66,207.535,204.54333333333335,204.54333333333335,0.0,0.0
6,0.0,0.0,0.0,1.0,1.0,0.0,0.0,1.0,0.0,100.0,1.0,1.1856,26.0,0.0,0.0,0.0,63.999999,0.0,26.0,26.0,26.0,26.0,-0.10544444444444445,0.2986,-0.0064666666666666674,293.442,-2.6421,-2.7383333333333333,-1.5545,-1.582,-255.94,216.2125,190.870875,0.0,0.0,0.0,0.0,0.013066666666666666,-5.498166666666667,-5.498166666666667,-0.5316000000000001,0.0365,-0.06322222222222207,-0.546,66.40899999999999,-0.0815,-0.21580000000000002,0.7839999999999998,100.0,1.0,1.0,204.93666666666667,0.0,0.0,0.0,0.0,0.0,0.0,0.0,8686.5,0.0,55.0,5.0,239.04333333333335,0.0,0.0,0.0,0.0,0.0,0.0,0.0,0.0,0.3030000000000008,0.3030000000000008,0.0,0.0,0.0,55.0,616.79921,10000.0,85.000001,85.000001,85.000001,85.000001,395.0,0.0,0.0,0.0,1.0,333.33500000000004,53.085,53.085,48.766999999999996,48.766999999999996,34.0,-27.747500000000002,20.133333333333333,-33.39666666666666,22.82,0.0,1782.419,0.08999999999999986,100.0,27.704,26.898,42.647999999999996,41.572,0.0,0.0,100.0,0.0,0.0,0.0,0.0,3229.857142857143,2901.9,4128.625,3986.7,305.122,305.4435,314.82675,314.918,21.8599,20.5499,21.834600000000002,21.3661,314.999998,314.999998,324.999988,324.999988,99.56028571428571,99.50746666666667,99.56611428571429,99.546,0.0022500000000000853,-0.1293333333333333,-0.20699999999999996,0.015666666666666718,-0.051666666666669414,-0.036666666666668846,1.5243333333333333,1.5585,37.623999999999995,29.436666666666667,37.466,34.538,56.666,34.8315,59.3405,51.968,54.55,33.962,57.9525,50.3105,53.696,33.497,57.9015,49.727000000000004,-0.0685,-0.08199999999999985,0.11013,0.102275,0.0,208.025,207.945,204.93666666666667,204.93666666666667,0.0,0.0
7,0.0,0.0,0.0,1.0,1.0,0.0,0.0,1.0,0.0,100.0,1.0,1.1856,26.0,0.0,0.0,0.0,63.999999,0.0,26.0,26.0,26.0,26.0,-0.0832222222222222,0.2845,0.0439,293.152,-2.6092,-2.734888888888889,-1.5117,-1.5718,-252.55,216.1875,190.850375,0.0,0.0,0.0,0.0,0.015033333333333334,-5.498166666666667,-5.498166666666667,-0.5354,-0.004,-0.05077777777777781,1.202,66.554,-0.0651,-0.224275,0.3639999999999999,100.0,1.0,1.0,205.36,0.0,0.0,0.0,0.0,0.0,0.0,0.0,8704.4,0.0,55.0,5.0,239.56333333333333,1.0,0.0,0.0,0.0,0.0,0.0,0.0,0.0,0.3539999999999992,0.3539999999999992,0.0,0.0,1.0,55.0,616.79921,10000.0,85.000001,85.000001,85.000001,85.000001,395.0,0.0,0.0,0.0,1.0,166.665,52.734,52.734,48.798,48.798,34.0,-26.1575,22.778333333333332,-30.566666666666663,25.7175,0.0,1782.37,-0.2049999999999983,100.0,27.977,26.813,42.799,41.738,0.0,0.0,100.0,0.0,0.0,0.0,0.0,3219.142857142857,3060.4,4056.875,4117.9,304.9,305.144,314.88,314.6655,21.869799999999998,20.5551,21.8451,21.3751,314.999998,314.999998,324.999988,324.999988,99.56028571428571,99.50748333333334,99.56625714285714,99.54614285714285,0.03675000000000006,-0.09099999999999997,-0.17133333333333334,0.05600000000000005,-0.046666666666666856,-0.061666666666667425,1.5296666666666667,1.533,37.686,29.46933333333333,37.532,34.5945,56.65,34.871,59.3805,52.028999999999996,54.534,33.998,57.9895,50.369,53.681,33.532,57.936,49.784333333333336,-0.09299999999999997,-0.06099999999999994,0.10133,0.10833000000000001,0.0,208.47500000000002,208.43,205.36,205.36,0.0,0.0
8,0.0,0.0,0.0,1.0,1.0,0.0,0.0,1.0,0.0,100.0,1.0,1.1856,26.0,0.0,0.0,0.0,63.999999,0.0,26.0,26.0,26.0,26.0,-0.04322222222222216,0.29500000000000015,-0.021933333333333336,293.427,-2.698,-2.711888888888889,-1.4995,-1.5509000000000002,-249.15,216.1625,190.829875,0.0,0.0,0.0,0.0,0.017033333333333334,-5.498166666666667,-5.498166666666667,-0.534,-0.421,-0.03311111111111131,-0.509,66.7,-0.0472,-0.21395,0.009999999999999787,100.0,1.0,1.0,205.74333333333334,0.0,0.0,0.0,0.0,0.0,0.0,0.0,8720.8,0.0,55.0,5.0,240.09,0.0,0.0,0.0,0.0,0.0,0.0,0.0,0.0,0.40500000000000114,0.40500000000000114,0.0,0.0,0.0,55.0,616.79921,10000.0,85.000001,85.000001,85.000001,85.000001,395.0,0.0,0.0,0.0,1.0,333.33500000000004,53.696,53.696,48.065,48.065,34.0,-23.9725,21.801666666666666,-31.376666666666665,26.3375,0.0,1782.318,-0.33999999999999986,100.0,27.384,26.913,42.699,41.956,0.0,0.0,100.0,0.0,0.0,0.0,0.0,2976.5714285714284,2896.0,4212.875,4141.3,305.8835,305.4865,314.55225,314.4905,21.8796,20.5603,21.8556,21.3841,314.999998,314.999998,324.999988,324.999988,99.56028571428571,99.5075,99.5664,99.54628571428572,0.04574999999999996,-0.07966666666666677,-0.16233333333333333,0.06633333333333336,-0.051666666666669414,-0.045000000000001705,1.513,1.5215,37.747,29.502000000000002,37.597,34.650999999999996,56.632,34.909,59.42,52.0895,54.518,34.033,58.025999999999996,50.427,53.663,33.5655,57.9695,49.84133333333333,-0.10149999999999992,-0.045500000000000096,0.11274,0.11155500000000002,0.0,208.905,208.88,205.74333333333334,205.74333333333334,0.0,0.0
9,0.0,0.0,0.0,1.0,1.0,0.0,0.0,1.0,0.0,100.0,1.0,1.1856,26.0,0.0,0.0,0.0,63.999999,0.0,26.0,26.0,26.0,26.0,-0.020888888888888846,0.28590000000000004,-0.020300000000000002,293.167,-2.6862,-2.721222222222222,-1.5541,-1.5562,-245.94,216.1375,190.81,0.0,0.0,0.0,0.0,0.0189,-5.498166666666667,-5.498166666666667,-0.5425,0.5585,-0.036555555555555674,-0.46399999999999997,66.833,-0.0269,-0.21727500000000002,-0.10599999999999987,100.0,1.0,1.0,206.29666666666668,0.0,0.0,0.0,0.0,0.0,0.0,0.0,8744.2,0.0,55.0,5.0,240.57,1.0,0.0,0.0,0.0,0.0,0.0,0.0,0.0,0.4529999999999994,0.4529999999999994,0.0,0.0,1.0,55.0,616.79921,10000.0,85.000001,85.000001,85.000001,85.000001,395.0,0.0,0.0,0.0,1.0,333.33500000000004,52.475,52.475,49.164,49.164,34.0,-26.7025,23.77166666666667,-28.46333333333333,26.0,0.0,1782.269,-0.46000000000000085,100.0,27.791,27.316,42.406,41.969,0.0,0.0,100.0,0.0,0.0,0.0,0.0,3377.714285714286,3001.9,3994.25,4008.8,304.683,305.11125,315.1665,314.89125,21.8889,20.5654,21.8653,21.3925,314.999998,314.999998,324.999988,324.999988,99.5603,99.5075,99.56652857142858,99.54641428571429,0.06674999999999986,-0.057333333333333236,-0.1366666666666666,0.08450000000000002,-0.036666666666668846,-0.045000000000001705,1.5806666666666667,1.5775000000000001,37.806,29.533666666666665,37.658,34.7035,56.619,34.945499999999996,59.454,52.144999999999996,54.504999999999995,34.067,58.058,50.4805,53.649,33.598,57.9985,49.89366666666667,-0.11399999999999988,-0.04150000000000009,0.10301,0.107075,0.0,209.32,209.325,206.29666666666668,206.29666666666668,0.0,0.0
10,0.0,0.0,0.0,1.0,1.0,0.0,0.0,1.0,0.0,100.0,1.0,1.1856,26.0,0.0,0.0,0.0,63.999999,0.0,26.0,26.0,26.0,26.0,0.005666666666666709,0.2965,0.05216666666666667,292.923,-2.6585,-2.709111111111111,-1.5335,-1.5351000000000001,-242.53,216.11,190.78925,0.0,0.0,0.0,0.0,0.020866666666666665,-5.498166666666667,-5.498166666666667,-0.5176000000000001,-0.428,0.008888888888888946,1.87,66.98,-0.008,-0.20515,-0.492,100.0,1.0,1.0,206.51333333333332,0.0,0.0,0.0,0.0,0.0,0.0,0.0,8753.4,0.0,55.0,5.0,241.10000000000002,0.0,0.0,0.0,0.0,0.0,0.0,1.0,0.0,0.5040000000000013,0.5040000000000013,0.0,0.0,0.0,55.0,616.79921,10000.0,85.000001,85.000001,85.000001,85.000001,395.0,0.0,0.0,0.0,1.0,333.33500000000004,53.436,53.436,47.607,47.607,34.0,-20.662499999999998,24.001666666666665,-29.32,30.3375,0.0,1782.218,-0.620000000000001,100.0,27.844,27.183,42.877,42.61,0.0,0.0,100.0,0.0,0.0,0.0,0.0,2822.0,2979.3,4261.125,4352.6,306.157,305.40825,314.35275,314.063,21.898699999999998,20.5707,21.8759,21.4018,314.999998,314.999998,324.999988,324.999988,99.56031428571428,99.5075,99.56668571428571,99.54655714285714,0.09200000000000008,-0.036666666666666625,-0.10283333333333333,0.11099999999999999,-0.03499999999999659,-0.07000000000000028,1.4923333333333333,1.468,37.867000000000004,29.566666666666666,37.724999999999994,34.760999999999996,56.605000000000004,34.9825,59.4945,52.209,54.492000000000004,34.101,58.096000000000004,50.542,53.635,33.6305,58.033500000000004,49.954,-0.12349999999999994,-0.02499999999999991,0.10176500000000001,0.10909500000000001,0.0,209.745,209.79500000000002,206.51333333333332,206.51333333333332,0.0,0.0
11,0.0,0.0,0.0,1.0,1.0,0.0,0.0,1.0,0.0,100.0,1.0,1.1856,26.0,0.0,0.0,0.0,63.999999,0.0,26.0,26.0,26.0,26.0,0.05422222222222217,0.27259999999999995,-0.09616666666666666,293.51800000000003,-2.7079,-2.6831111111111112,-1.5907,-1.5234,-239.11,216.08249999999998,190.7685,0.0,0.0,0.0,0.0,0.022600000000000002,-5.498166666666667,-5.498166666666667,-0.5619000000000001,-0.28350000000000003,0.03177777777777768,-0.6990000000000001,67.119,0.0111,-0.23905,-0.5920000000000005,100.0,1.0,1.0,207.26999999999998,0.0,0.0,0.0,0.0,0.0,0.0,0.0,8785.4,0.0,55.0,5.0,241.60000000000002,1.0,0.0,0.0,0.0,0.0,0.0,1.0,0.0,0.5549999999999997,0.5549999999999997,0.0,0.0,1.0,55.0,616.79921,10000.0,85.000001,85.000001,85.000001,85.000001,395.0,0.0,0.0,0.0,1.0,333.33500000000004,52.841,52.841,49.286,49.286,34.0,-22.810000000000002,25.61,-24.426666666666662,26.8075,0.0,1782.167,-0.6499999999999986,100.0,27.459,27.573,42.335,42.612,0.0,0.0,100.0,0.0,0.0,0.0,0.0,3093.285714285714,3088.5,3703.0,3854.4,305.5535,304.85025,315.88025,315.25475,21.9083,20.5761,21.8863,21.410800000000002,314.999998,314.999998,324.999988,324.999988,99.56031428571428,99.5075,99.56682857142857,99.54671428571429,0.10099999999999998,-0.02400000000000002,-0.09650000000000003,0.13766666666666683,-0.05833333333333002,-0.046666666666666856,1.6276666666666666,1.6045,37.927,29.600666666666665,37.789,34.817499999999995,56.588,35.022,59.531,52.2725,54.476,34.1375,58.1295,50.603,53.619,33.6655,58.064,50.013666666666666,-0.125,-0.025500000000000078,0.109545,0.10532000000000001,0.0,210.175,210.20499999999998,207.26999999999998,207.26999999999998,0.0,0.0
12,0.0,0.0,0.0,1.0,1.0,0.0,0.0,1.0,0.0,100.0,1.0,1.1856,26.0,0.0,0.0,0.0,63.999999,0.0,26.0,26.0,26.0,26.0,0.05499999999999994,0.2997000000000001,0.02886666666666667,292.953,-2.7611,-2.679333333333333,-1.5512000000000001,-1.5261,-235.89,216.0575,190.74775,0.0,0.0,0.0,0.0,0.025466666666666665,-5.498166666666667,-5.498166666666667,-0.5465,0.325,0.016000000000000014,-0.868,67.255,0.028300000000000002,-0.2069,-0.6520000000000001,100.0,1.0,1.0,207.46,0.0,0.0,0.0,0.0,0.0,0.0,0.0,8793.4,0.0,55.0,5.0,242.09,0.0,0.0,0.0,0.0,0.0,0.0,1.0,0.0,0.602999999999998,0.602999999999998,0.0,0.0,0.0,55.0,616.79921,10000.0,85.000001,85.000001,85.000001,85.000001,395.0,0.0,0.0,0.0,1.0,333.33500000000004,52.841,52.841,47.958,47.958,34.0,-23.1525,25.985,-27.89333333333333,30.48,0.0,1782.119,-0.6750000000000007,100.0,27.332,27.732,42.232,42.551,0.0,0.0,100.0,0.0,0.0,0.0,0.0,3135.285714285714,3087.9,4235.75,4166.8,305.468,304.87175,314.594,314.487,21.9174,20.5813,21.896,21.4193,314.999998,314.999998,324.999988,324.999988,99.56032857142857,99.50751666666666,99.56695714285715,99.54684285714286,0.1120000000000001,-0.013333333333333197,-0.08283333333333331,0.14883333333333337,-0.03166666666666629,-0.05833333333333002,1.5356666666666667,1.5145,37.983999999999995,29.633,37.849999999999994,34.8705,56.576,35.055,59.564499999999995,52.326,54.464,34.168,58.161,50.6545,53.605999999999995,33.695,58.0925,50.064,-0.12749999999999995,-0.025500000000000078,0.11539500000000001,0.1125,0.0,210.585,210.65,207.46,207.46,0.0,0.0
13,0.0,0.0,0.0,1.0,1.0,0.0,0.0,1.0,0.0,100.0,1.0,1.1856,26.0,0.0,0.0,0.0,63.999999,0.0,26.0,26.0,26.0,26.0,0.08522222222222209,0.2953000000000001,0.03506666666666667,292.557,-2.7403,-2.6695555555555557,-1.5903,-1.5392000000000001,-232.25,216.03,190.72475,0.0,0.0,0.0,0.0,0.026833333333333334,-5.498166666666667,-5.498166666666667,-0.5393,-0.1225,0.023111111111111082,-0.41500000000000004,67.406,0.0381,-0.21607500000000002,-0.7960000000000003,100.0,1.0,1.0,207.86,0.0,0.0,0.0,0.0,0.0,0.0,0.0,8810.4,0.0,55.0,5.0,242.63333333333333,1.0,0.0,0.0,0.0,0.0,0.0,1.0,0.0,0.657,0.657,0.0,0.0,1.0,55.0,616.79921,10000.0,85.000001,85.000001,85.000001,85.000001,395.0,0.0,0.0,0.0,1.0,166.665,52.475,52.475,47.913,47.913,34.0,-21.9025,26.766666666666666,-27.123333333333335,32.4225,0.0,1782.067,-0.8249999999999993,100.0,27.655,27.963,42.47,43.103,0.0,0.0,100.0,0.0,0.0,0.0,0.0,3158.5714285714284,3087.9,4196.5,4294.3,305.3675,304.8625,314.6475,314.14325,21.9277,20.5872,21.9072,21.429,314.999998,314.999998,324.999988,324.999988,99.56034285714286,99.50751666666666,99.5671,99.54698571428571,0.14124999999999988,0.0076666666666667105,-0.06066666666666665,0.15599999999999992,-0.05333333333332746,-0.045000000000001705,1.5063333333333333,1.4729999999999999,38.048,29.669666666666664,37.92,34.9315,56.564,35.095,59.605000000000004,52.3935,54.453,34.205,58.198499999999996,50.7195,53.593,33.7305,58.1275,50.128,-0.14500000000000002,-0.009500000000000064,0.09545500000000001,0.10863,0.0,211.06,211.10500000000002,207.86,207.86,0.0,0.0
14,0.0,0.0,0.0,1.0,1.0,0.0,0.0,1.0,0.0,100.0,1.0,1.1856,26.0,0.0,0.0,0.0,63.999999,0.0,26.0,26.0,26.0,26.0,0.09011111111111103,0.2771000000000001,-0.008400000000000001,292.786,-2.7391,-2.612222222222222,-1.633,-1.5105000000000002,-229.01,216.01,190.70475,0.0,0.0,0.0,0.0,0.028733333333333333,-5.498166666666667,-5.498166666666667,-0.5494,-0.1695,0.050999999999999934,-0.09199999999999997,67.537,0.049800000000000004,-0.22885,-0.9779999999999998,100.0,1.0,1.0,208.35333333333335,0.0,0.0,0.0,0.0,0.0,0.0,0.0,8831.4,0.0,55.0,5.0,243.10666666666668,0.0,0.0,0.0,0.0,0.0,0.0,1.0,0.0,0.7049999999999983,0.7049999999999983,0.0,0.0,0.0,55.0,616.79921,10000.0,85.000001,85.000001,85.000001,85.000001,395.0,0.0,0.0,0.0,1.0,166.665,52.567,52.567,48.111,48.111,34.0,-20.5825,27.498333333333335,-26.07333333333333,30.9075,0.0,1782.019,-0.9400000000000013,100.0,27.581,28.039,42.437,43.298,0.0,0.0,100.0,0.0,0.0,0.0,0.0,3048.4285714285716,3162.0,4022.875,4160.3,305.6955,304.656,315.095,314.5,21.936799999999998,20.5924,21.917,21.4377,314.999998,314.999998,324.999988,324.999988,99.56037142857143,99.50751666666666,99.56724285714286,99.54712857142857,0.15100000000000025,0.020333333333333314,-0.0595,0.16266666666666674,-0.03833333333332689,-0.051666666666669414,1.5566666666666666,1.521,38.105000000000004,29.702333333333335,37.980999999999995,34.9855,56.554,35.1305,59.6395,52.4525,54.442,34.238,58.2305,50.775999999999996,53.582,33.762,58.156,50.18366666666667,-0.15049999999999986,-0.0030000000000001137,0.10909500000000001,0.10304,0.0,211.45499999999998,211.515,208.35333333333335,208.35333333333335,0.0,0.0
15,0.0,0.0,0.0,1.0,1.0,0.0,0.0,1.0,0.0,100.0,1.0,1.1856,26.0,0.0,0.0,0.0,63.999999,0.0,26.0,26.0,26.0,26.0,0.11511111111111116,0.28800000000000003,-0.041600000000000005,292.816,-2.7133000000000003,-2.572111111111111,-1.6295000000000002,-1.4534,-225.76999999999998,215.99,190.684375,0.0,0.0,0.0,0.0,0.030600000000000002,-5.498166666666667,-5.498166666666667,-0.5405,0.308,0.08000000000000007,-0.16999999999999993,67.669,0.0653,-0.211625,-1.1499999999999995,100.0,1.0,1.0,208.74666666666667,0.0,0.0,0.0,0.0,0.0,0.0,0.0,8848.0,0.0,55.0,5.0,243.57999999999998,1.0,0.0,0.0,0.0,0.0,0.0,1.0,0.0,0.7530000000000001,0.7530000000000001,0.0,0.0,1.0,55.0,616.79921,10000.0,85.000001,85.000001,85.000001,85.000001,395.0,0.0,0.0,0.0,1.0,333.33500000000004,52.75,52.75,48.203,48.203,34.0,-18.7175,27.186666666666667,-24.776666666666664,32.485,0.0,1781.97,-0.9600000000000009,100.0,27.628,28.08,42.211,43.355000000000004,0.0,0.0,100.0,0.0,0.0,0.0,0.0,2900.4285714285716,3130.1,3997.25,4319.4,306.07,304.73925,315.164,314.14075,21.9459,20.5976,21.9267,21.4463,314.999998,314.999998,324.999988,324.999988,99.56038571428572,99.50753333333333,99.56737142857143,99.54725714285715,0.16425,0.028666666666666618,-0.03816666666666657,0.17999999999999994,-0.04999999999999716,-0.045000000000001705,1.5483333333333333,1.5065,38.162,29.735333333333333,38.042,35.039500000000004,56.543,35.167,59.6725,52.5115,54.432,34.2715,58.260999999999996,50.833,53.571,33.7945,58.1835,50.239333333333335,-0.15799999999999992,-0.0009999999999998899,0.10999500000000001,0.100665,0.0,211.88,211.945,208.74666666666667,208.74666666666667,0.0,0.0
16,0.0,0.0,0.0,1.0,1.0,0.0,0.0,1.0,0.0,100.0,1.0,1.1856,26.0,0.0,0.0,0.0,63.999999,0.0,26.0,26.0,26.0,26.0,0.13200000000000012,0.27790000000000004,-0.008166666666666668,292.831,-2.8027,-2.6096666666666666,-1.6012,-1.4552,-222.31,215.9725,190.662375,0.0,0.0,0.0,0.0,0.032633333333333334,-5.498166666666667,-5.498166666666667,-0.5627,-0.805,0.06711111111111112,0.09699999999999998,67.809,0.0777,-0.224925,-1.2520000000000007,100.0,1.0,1.0,209.17666666666668,0.0,0.0,0.0,0.0,0.0,0.0,0.0,8866.3,0.0,55.0,5.0,244.08666666666664,0.0,0.0,0.0,0.0,0.0,0.0,1.0,0.0,0.8039999999999985,0.8039999999999985,0.0,0.0,0.0,55.0,616.79921,10000.0,85.000001,85.000001,85.000001,85.000001,395.0,0.0,0.0,0.0,1.0,333.33500000000004,52.704,52.704,47.867,47.867,34.0,-19.115,29.395,-23.316666666666663,33.019999999999996,0.0,1781.917,-0.870000000000001,100.0,27.39,28.019,42.555,43.429,0.0,0.0,100.0,0.0,0.0,0.0,0.0,2919.857142857143,3284.4,3925.875,4166.6,306.061,304.44175,315.26275,314.54475,21.9552,20.6033,21.9372,21.4555,314.999998,314.999998,324.999988,324.999988,99.5604,99.50753333333333,99.56752857142857,99.54742857142857,0.17625000000000002,0.04133333333333322,-0.026000000000000023,0.21933333333333338,-0.051666666666669414,-0.04833333333333201,1.5613333333333332,1.518,38.22,29.770333333333333,38.108000000000004,35.097,56.528,35.2085,59.712,52.5775,54.418,34.31,58.2975,50.8965,53.556,33.8315,58.217,50.302,-0.1459999999999999,-0.008999999999999897,0.11096500000000001,0.11610500000000001,0.0,212.26,212.365,209.17666666666668,209.17666666666668,0.0,0.0
17,0.0,0.0,0.0,1.0,1.0,0.0,0.0,1.0,0.0,100.0,1.0,1.1856,26.0,0.0,0.0,0.0,63.999999,0.0,26.0,26.0,26.0,26.0,0.13022222222222224,0.28990000000000005,0.001,292.511,-2.7667,-2.561111111111111,-1.6421000000000001,-1.4759,-218.85,215.95749999999998,190.63975,0.0,0.0,0.0,0.0,0.034633333333333335,-5.498166666666667,-5.498166666666667,-0.5517000000000001,0.5315,0.04655555555555568,-0.7030000000000001,67.94800000000001,0.08220000000000001,-0.20735,-1.1239999999999997,100.0,1.0,1.0,209.57666666666665,0.0,0.0,0.0,0.0,0.0,0.0,0.0,8883.2,0.0,55.0,5.0,244.58333333333334,1.0,0.0,0.0,0.0,0.0,0.0,1.0,0.0,0.8550000000000004,0.8550000000000004,0.0,0.0,1.0,55.0,616.79921,10000.0,85.000001,85.000001,85.000001,85.000001,395.0,0.0,0.0,0.0,1.0,166.665,52.399,52.399,47.882,47.882,34.0,-20.134999999999998,27.21,-25.983333333333334,33.2325,0.0,1781.869,-0.9250000000000007,100.0,27.733,28.473,42.204,43.457,0.0,0.0,100.0,0.0,0.0,0.0,0.0,3097.285714285714,3076.4,4244.125,4247.5,305.6085,304.95125,314.673,314.368,21.9649,20.609,21.947499999999998,21.4646,314.999998,314.999998,324.999988,324.999988,99.56042857142857,99.50753333333333,99.56765714285714,99.54755714285714,0.17474999999999996,0.046333333333333115,-0.02533333333333332,0.20250000000000012,-0.04999999999999716,-0.054999999999999716,1.5583333333333333,1.51,38.28,29.806333333333335,38.172,35.1535,56.519999999999996,35.247,59.745,52.6355,54.41,34.346000000000004,58.328,50.953,53.546,33.866,58.2445,50.357,-0.15249999999999986,0.0015000000000000568,0.10834500000000001,0.10967,0.0,212.745,212.82,209.57666666666665,209.57666666666665,0.0,0.0
18,0.0,0.0,0.0,1.0,1.0,0.0,0.0,1.0,0.0,100.0,1.0,1.1856,26.0,0.0,0.0,0.0,63.999999,0.0,26.0,26.0,26.0,26.0,0.13711111111111118,0.2815000000000001,-0.0634,292.496,-2.8004,-2.535,-1.6583999999999999,-1.4206,-215.57999999999998,215.945,190.618625,0.0,0.0,0.0,0.0,0.036533333333333334,-5.498166666666667,-5.498166666666667,-0.5593,-0.5465,0.07266666666666666,-0.10999999999999999,68.078,0.084,-0.222475,-1.2279999999999998,100.0,1.0,1.0,209.9766666666667,0.0,0.0,0.0,0.0,0.0,0.0,0.0,8900.1,0.0,55.0,5.0,245.05333333333334,0.0,0.0,0.0,0.0,0.0,0.0,1.0,0.0,0.9029999999999987,0.9029999999999987,0.0,0.0,0.0,55.0,616.79921,10000.0,85.000001,85.000001,85.000001,85.000001,395.0,0.0,0.0,0.0,1.0,333.33500000000004,52.399,52.399,47.684,47.684,34.0,-19.7075,29.326666666666668,-24.726666666666667,31.725,0.0,1781.82,-1.1499999999999986,100.0,27.499,28.301000000000002,42.562,43.866,0.0,0.0,100.0,0.0,0.0,0.0,0.0,3050.142857142857,3251.1,4048.625,4185.5,305.7845,304.47025,315.06275,314.483,21.9738,20.6143,21.9575,21.473399999999998,314.999998,314.999998,324.999988,324.999988,99.56044285714286,99.50755,99.5678,99.5477,0.18274999999999997,0.061333333333333684,-0.023166666666666558,0.19866666666666677,-0.04333333333332945,-0.046666666666666856,1.5633333333333332,1.52,38.336,29.839333333333336,38.233999999999995,35.2085,56.51,35.2845,59.7805,52.6965,54.4,34.3805,58.361,51.010999999999996,53.535,33.8995,58.2745,50.41433333333333,-0.16749999999999998,0.012499999999999956,0.10670500000000001,0.103595,0.0,213.095,213.175,209.9766666666667,209.9766666666667,0.0,0.0
19,0.0,0.0,0.0,1.0,1.0,0.0,0.0,1.0,0.0,100.0,1.0,1.1856,26.0,0.0,0.0,0.0,63.999999,0.0,26.0,26.0,26.0,26.0,0.1483333333333332,0.2893000000000001,0.03106666666666667,292.007,-2.7666,-2.5276666666666667,-1.6739000000000002,-1.4034,-212.11,215.9375,190.596125,0.0,0.0,0.0,0.0,0.03856666666666667,-5.498166666666667,-5.498166666666667,-0.5523,0.8465,0.08544444444444421,0.9470000000000001,68.215,0.093,-0.21285,-1.6239999999999997,100.0,1.0,1.0,210.39666666666668,0.0,0.0,0.0,0.0,0.0,0.0,0.0,8917.9,0.0,55.0,5.0,245.54333333333335,1.0,0.0,0.0,0.0,0.0,0.0,1.0,0.0,0.9540000000000006,0.9540000000000006,0.0,0.0,1.0,55.0,616.79921,10000.0,85.000001,85.000001,85.000001,85.000001,395.0,0.0,0.0,0.0,1.0,333.33500000000004,51.666,51.666,47.653,47.653,34.0,-18.009999999999998,31.493333333333332,-24.449999999999996,35.105000000000004,0.0,1781.768,-1.5150000000000006,100.0,28.111,28.666,42.357,43.754,0.0,0.0,100.0,0.0,0.0,0.0,0.0,3045.714285714286,3410.3,4113.25,4425.2,305.516,304.034,314.9165,314.03125,21.9834,20.6202,21.9678,21.4825,314.999998,314.999998,324.999988,324.999988,99.56047142857143,99.50756666666666,99.56794285714285,99.54785714285714,0.21950000000000003,0.07600000000000007,-0.0043333333333333,0.22750000000000004,-0.021666666666668277,-0.08166666666667055,1.558,1.5035,38.396,29.876333333333335,38.299,35.266,56.501999999999995,35.3285,59.814499999999995,52.759,54.393,34.4215,58.3925,51.072,53.527,33.9385,58.303,50.474000000000004,-0.19199999999999995,0.027499999999999858,0.11212000000000001,0.10905500000000001,0.0,213.54000000000002,213.685,210.39666666666668,210.39666666666668,0.0,0.0
20,0.0,0.0,0.0,1.0,1.0,0.0,0.0,1.0,0.0,100.0,1.0,1.1856,26.0,0.0,0.0,0.0,63.999999,0.0,26.0,26.0,26.0,26.0,0.21077777777777795,0.28300000000000014,0.04626666666666667,292.313,-2.8258,-2.5807777777777776,-1.6099,-1.5154,-208.42000000000002,215.935,190.572375,0.0,0.0,0.0,0.0,0.0407,-5.498166666666667,-5.498166666666667,-0.557,-1.2685,0.09733333333333327,0.5270000000000001,68.362,0.1073,-0.22395,-1.9900000000000002,100.0,1.0,1.0,210.73333333333335,0.0,0.0,0.0,0.0,0.0,0.0,0.0,8932.3,0.0,55.0,5.0,246.07666666666665,0.0,0.0,0.0,0.0,0.0,0.0,0.0,0.0,1.0079999999999991,1.0079999999999991,0.0,0.0,0.0,55.0,616.79921,10000.0,85.000001,85.000001,85.000001,85.000001,395.0,0.0,0.0,0.0,1.0,166.665,52.719,52.719,46.997,46.997,34.0,-16.2575,31.583333333333332,-22.233333333333327,37.1075,0.0,1781.716,-1.4400000000000013,100.0,27.461,28.392,42.829,44.314,0.0,0.0,100.0,0.0,0.0,0.0,0.0,2782.142857142857,3299.3,4045.625,4338.1,306.4855,304.4235,314.912,314.01225,21.9932,20.6262,21.979,21.4925,314.999998,314.999998,324.999988,324.999988,99.5605,99.50756666666666,99.56808571428571,99.54801428571429,0.22699999999999987,0.09633333333333338,0.01766666666666672,0.24083333333333323,-0.03333333333333144,-0.07000000000000028,1.5253333333333332,1.468,38.457,29.914,38.369,35.328,56.491,35.3735,59.856,52.829,54.381,34.463499999999996,58.431,51.138999999999996,53.513999999999996,33.979,58.338,50.540333333333336,-0.19300000000000006,0.04249999999999998,0.11171,0.09924000000000001,0.0,213.94,214.10000000000002,210.73333333333335,210.73333333333335,0.0,0.0
21,0.0,0.0,0.0,1.0,1.0,0.0,0.0,1.0,0.0,100.0,1.0,1.1856,26.0,0.0,0.0,0.0,63.999999,0.0,26.0,26.0,26.0,26.0,0.1551111111111112,0.2762,-0.059866666666666665,292.603,-2.7407,-2.631666666666667,-1.67,-1.4784000000000002,-205.14,215.935,190.550625,0.0,0.0,0.0,0.0,0.0426,-5.498166666666667,-5.498166666666667,-0.5792,0.5355,0.07611111111111102,-0.03500000000000003,68.486,0.12440000000000001,-0.2255,-1.5820000000000007,100.0,1.0,1.0,211.35333333333335,0.0,0.0,0.0,0.0,0.0,0.0,0.0,8958.5,0.0,55.0,5.0,246.52333333333334,1.0,0.0,0.0,0.0,0.0,0.0,0.0,0.0,1.056000000000001,1.056000000000001,0.0,0.0,1.0,55.0,616.79921,10000.0,85.000001,85.000001,85.000001,85.000001,395.0,0.0,0.0,0.0,1.0,166.665,52.185,52.185,48.203,48.203,34.0,-19.0175,29.361666666666668,-21.47333333333333,34.0375,0.0,1781.668,-0.34499999999999886,100.0,27.787,28.614,42.156,43.891999999999996,0.0,0.0,100.0,0.0,0.0,0.0,0.0,2922.714285714286,3276.8,3936.125,4088.3,305.8835,304.4005,315.37175,314.79225,22.0021,20.6318,21.988599999999998,21.501,314.999998,314.999998,324.999988,324.999988,99.56052857142858,99.50758333333333,99.56822857142858,99.54815714285715,0.1705000000000001,0.03500000000000014,0.024666666666666837,0.25550000000000006,-0.045000000000001705,-0.06666666666666998,1.6106666666666667,1.567,38.513,29.948666666666668,38.429,35.3815,56.480999999999995,35.414500000000004,59.8855,52.8855,54.372,34.501,58.458,51.194,53.504000000000005,34.0155,58.362,50.594,-0.10850000000000004,-0.047499999999999876,0.11318,0.105355,0.0,214.365,214.505,211.35333333333335,211.35333333333335,0.0,0.0
22,0.0,0.0,0.0,1.0,1.0,0.0,0.0,1.0,0.0,100.0,1.0,1.1856,26.0,0.0,0.0,0.0,63.999999,0.0,26.0,26.0,26.0,26.0,0.1186666666666667,0.2653000000000001,0.0166,292.053,-2.7126,-2.6462222222222223,-1.6501000000000001,-1.5341,-201.85,215.94,190.52825,0.0,0.0,0.0,0.0,0.044533333333333334,-5.498166666666667,-5.498166666666667,-0.5571,0.153,0.06733333333333325,0.79,68.617,0.1125,-0.206625,-0.3360000000000003,100.0,1.0,1.0,211.54000000000002,0.0,0.0,0.0,0.0,0.0,0.0,0.0,8966.4,0.0,55.0,5.0,246.99333333333334,0.0,0.0,0.0,0.0,0.0,0.0,0.0,0.0,1.1039999999999992,1.1039999999999992,0.0,0.0,0.0,55.0,616.79921,10000.0,85.000001,85.000001,85.000001,85.000001,395.0,0.0,0.0,0.0,1.0,166.665,52.185,52.185,47.089,47.089,34.0,-20.5275,26.88,-25.006666666666668,35.879999999999995,0.0,1781.62,0.625,100.0,27.982,28.573999999999998,42.757,44.057,0.0,0.0,100.0,0.0,0.0,0.0,0.0,2871.142857142857,3236.2,4169.375,4355.3,305.982,304.486,314.71225,314.1025,22.011,20.6372,21.9985,21.5097,314.999998,314.999998,324.999988,324.999988,99.56052857142858,99.50758333333333,99.56837142857142,99.5483,0.11975000000000025,-0.018000000000000016,-0.0071666666666666545,0.21466666666666678,-0.03833333333332689,-0.05333333333332746,1.4946666666666668,1.488,38.569,29.982666666666667,38.491,35.436,56.47,35.451,59.922,52.946,54.361000000000004,34.5355,58.492,51.2525,53.492000000000004,34.048500000000004,58.393,50.65133333333333,-0.03649999999999998,-0.125,0.107105,0.09969000000000001,0.0,214.82999999999998,214.86,211.54000000000002,211.54000000000002,0.0,0.0
23,0.0,0.0,0.0,1.0,1.0,0.0,0.0,1.0,0.0,100.0,1.0,1.1856,26.0,0.0,0.0,0.0,63.999999,0.0,26.0,26.0,26.0,26.0,0.04777777777777792,0.24819999999999998,-0.03646666666666667,292.023,-2.7244,-2.6194444444444445,-1.5551,-1.5708,-198.34,215.95,190.50475,0.0,0.0,0.0,0.0,0.04656666666666667,-5.498166666666667,-5.498166666666667,-0.5753,-0.2945,0.03688888888888897,-1.258,68.751,0.0613,-0.23290000000000002,0.8179999999999996,100.0,1.0,1.0,212.04333333333335,0.0,0.0,0.0,0.0,0.0,0.0,0.0,8987.8,0.0,55.0,5.0,247.47666666666666,1.0,0.0,0.0,0.0,0.0,0.0,0.0,0.0,1.1550000000000011,1.1550000000000011,0.0,0.0,1.0,55.0,616.79921,10000.0,85.000001,85.000001,85.000001,85.000001,395.0,0.0,0.0,0.0,1.0,333.33500000000004,51.650999999999996,51.650999999999996,47.989,47.989,34.0,-26.384999999999998,23.645,-25.96,29.665,0.0,1781.568,0.8550000000000004,100.0,28.172,28.655,43.043,44.260999999999996,0.0,0.0,100.0,0.0,0.0,0.0,0.0,3329.857142857143,3112.1,3993.0,3986.7,304.933,304.78275,315.1325,314.87275,22.0205,20.643,22.0091,21.519,314.999998,314.999998,324.999988,324.999988,99.56054285714286,99.50758333333333,99.56851428571429,99.54844285714286,0.07125000000000004,-0.06333333333333324,-0.0761666666666666,0.15183333333333326,-0.04999999999999716,-0.045000000000001705,1.4973333333333332,1.543,38.628,30.018333333333334,38.557,35.494,56.455,35.491,59.9585,53.009,54.347,34.5725,58.525999999999996,51.313,53.476,34.0835,58.4235,50.71066666666667,-0.014499999999999957,-0.14300000000000024,0.103275,0.11164500000000001,0.0,215.26,215.20499999999998,212.04333333333335,212.04333333333335,0.0,0.0
24,0.0,0.0,0.0,1.0,1.0,0.0,0.0,1.0,0.0,100.0,1.0,1.1856,26.0,0.0,0.0,0.0,63.999999,0.0,26.0,26.0,26.0,26.0,-0.030555555555555558,0.2581,0.015766666666666665,292.358,-2.7171000000000003,-2.6564444444444444,-1.5749,-1.5352000000000001,-195.04,215.95749999999998,190.48225,0.0,0.0,0.0,0.0,0.04846666666666667,-5.498166666666667,-5.498166666666667,-0.5774,-0.442,0.018444444444444263,-0.5700000000000001,68.878,0.0066,-0.21525,1.1980000000000004,100.0,1.0,1.0,212.36,0.0,0.0,0.0,0.0,0.0,0.0,0.0,9001.2,0.0,55.0,5.0,247.93333333333334,0.0,0.0,0.0,0.0,0.0,0.0,0.0,0.0,1.2029999999999994,1.2029999999999994,0.0,0.0,0.0,55.0,616.79921,10000.0,85.000001,85.000001,85.000001,85.000001,395.0,0.0,0.0,0.0,1.0,333.33500000000004,52.872,52.872,47.043,47.043,34.0,-24.7675,20.47833333333333,-32.489999999999995,26.96,0.0,1781.52,0.8500000000000014,100.0,28.036,28.175,43.246,43.836,0.0,0.0,100.0,0.0,0.0,0.0,0.0,2998.0,2904.5,4378.75,4088.8,305.8585,305.5235,314.239,314.742,22.0294,20.6481,22.019,21.5276,314.999998,314.999998,324.999988,324.999988,99.56055714285715,99.5076,99.56864285714286,99.54858571428572,0.03624999999999989,-0.10299999999999998,-0.13149999999999995,0.09250000000000003,-0.05666666666667197,-0.030000000000001137,1.4703333333333335,1.5385,38.683,30.051000000000002,38.619,35.5475,56.439,35.5275,59.9935,53.065,54.332,34.6065,58.5585,51.367,53.461,34.1165,58.453,50.763333333333335,-0.010999999999999899,-0.14749999999999996,0.10394,0.11064,0.0,215.69,215.57,212.36,212.36,0.0,0.0
25,0.0,0.0,0.0,1.0,1.0,0.0,0.0,1.0,0.0,100.0,1.0,1.1856,26.0,0.0,0.0,0.0,63.999999,0.0,26.0,26.0,26.0,26.0,-0.09299999999999997,0.25350000000000006,-0.07526666666666666,292.389,-2.7516,-2.6514444444444445,-1.5664,-1.5613000000000001,-191.51999999999998,215.965,190.457,0.0,0.0,0.0,0.0,0.05053333333333333,-5.498166666666667,-5.498166666666667,-0.6123000000000001,-0.0885,-0.0032222222222220154,-0.5489999999999999,69.01,-0.0446,-0.22642500000000002,1.3840000000000003,100.0,1.0,1.0,212.92333333333335,0.0,0.0,0.0,0.0,0.0,0.0,0.0,9025.0,0.0,55.0,5.0,248.41,1.0,0.0,0.0,0.0,0.0,0.0,0.0,0.0,1.2540000000000013,1.2540000000000013,0.0,0.0,1.0,55.0,616.79921,10000.0,85.000001,85.000001,85.000001,85.000001,395.0,0.0,0.0,0.0,1.0,333.33500000000004,51.971000000000004,51.971000000000004,47.928,47.928,34.0,-28.705,22.498333333333335,-30.163333333333334,24.22,0.0,1781.468,0.7950000000000017,100.0,28.246,28.008,43.318,43.233000000000004,0.0,0.0,100.0,0.0,0.0,0.0,0.0,3238.0,3268.6,3980.5,3973.5,305.131,304.55375,315.20575,315.08275,22.0388,20.6537,22.0294,21.5366,314.999998,314.999998,324.999988,324.999988,99.56055714285715,99.50761666666666,99.56878571428571,99.54874285714286,0.00749999999999984,-0.11966666666666681,-0.16600000000000004,0.054166666666666696,-0.046666666666666856,-0.041666666666671404,1.5496666666666667,1.5955,38.742000000000004,30.08566666666667,38.684,35.604,56.42,35.5695,60.028999999999996,53.1215,54.314,34.644999999999996,58.591499999999996,51.4215,53.442,34.1535,58.483000000000004,50.817,-0.011500000000000066,-0.13900000000000023,0.10505500000000001,0.10672000000000001,0.0,216.10000000000002,215.98000000000002,212.92333333333335,212.92333333333335,0.0,0.0
26,0.0,0.0,0.0,1.0,1.0,0.0,0.0,1.0,0.0,100.0,1.0,1.1856,26.0,0.0,0.0,0.0,63.999999,0.0,26.0,26.0,26.0,26.0,-0.12366666666666659,0.27480000000000016,0.05923333333333334,291.183,-2.6654,-2.764666666666667,-1.5813000000000001,-1.5871000000000002,-188.0,215.97,190.431125,0.0,0.0,0.0,0.0,0.052566666666666664,-5.498166666666667,-5.498166666666667,-0.5705,0.79,-0.05977777777777771,-1.33,69.146,-0.0791,-0.19512500000000002,1.4740000000000002,100.0,1.0,1.0,213.08333333333331,0.0,0.0,0.0,0.0,0.0,0.0,0.0,9031.9,0.0,55.0,5.0,248.9,0.0,0.0,0.0,0.0,0.0,0.0,0.0,0.0,1.3049999999999997,1.3049999999999997,0.0,0.0,0.0,55.0,616.79921,10000.0,85.000001,85.000001,85.000001,85.000001,395.0,0.0,0.0,0.0,1.0,166.665,51.376,51.376,46.204,46.204,34.0,-29.725,19.801666666666666,-39.513333333333335,25.630000000000003,0.0,1781.419,0.615000000000002,100.0,29.218,28.58,44.051,43.382,0.0,0.0,100.0,0.0,0.0,0.0,0.0,3353.5714285714284,2954.9,4660.125,4342.0,304.7875,305.18725,313.659,314.1325,22.0486,20.6594,22.0401,21.5458,314.999998,314.999998,324.999988,324.999988,99.56055714285715,99.50763333333333,99.56894285714286,99.54888571428572,-0.00649999999999995,-0.15733333333333333,-0.20366666666666666,0.014333333333333309,-0.04999999999999716,-0.02833333333332888,1.4153333333333333,1.4795,38.804,30.121333333333332,38.751000000000005,35.661,56.407,35.6145,60.070499999999996,53.1815,54.301,34.6865,58.6305,51.479,53.428,34.193,58.5185,50.873,-0.03499999999999992,-0.13649999999999984,0.103415,0.10852500000000001,0.0,216.565,216.42000000000002,213.08333333333331,213.08333333333331,0.0,0.0
27,0.0,0.0,0.0,1.0,1.0,0.0,0.0,1.0,0.0,100.0,1.0,1.1856,26.0,0.0,0.0,0.0,63.999999,0.0,26.0,26.0,26.0,26.0,-0.1163333333333334,0.2572000000000001,-0.0027,291.55,-2.6161,-2.748,-1.5608,-1.6714,-184.68,215.9725,190.408,0.0,0.0,0.0,0.0,0.0545,-5.498166666666667,-5.498166666666667,-0.5952000000000001,-1.1025,-0.07188888888888867,-0.784,69.271,-0.0931,-0.241375,1.2699999999999996,100.0,1.0,1.0,213.54000000000002,0.0,0.0,0.0,0.0,0.0,0.0,0.0,9051.2,0.0,55.0,5.0,249.35000000000002,1.0,0.0,0.0,0.0,0.0,0.0,0.0,0.0,1.352999999999998,1.352999999999998,0.0,0.0,1.0,55.0,616.79921,10000.0,85.000001,85.000001,85.000001,85.000001,395.0,0.0,0.0,0.0,1.0,166.665,51.772999999999996,51.772999999999996,46.646,46.646,34.0,-29.240000000000002,19.6,-35.626666666666665,24.1375,0.0,1781.371,0.5100000000000016,100.0,29.012999999999998,28.195,44.926,43.787,0.0,0.0,100.0,0.0,0.0,0.0,0.0,3316.4285714285716,2970.8,4235.625,4013.8,304.889,305.27175,314.583,314.7975,22.0577,20.6645,22.0503,21.5546,314.999998,314.999998,324.999988,324.999988,99.56055714285715,99.50765,99.56908571428572,99.54901428571429,-0.01475000000000004,-0.15833333333333321,-0.21933333333333338,0.00649999999999995,-0.03499999999999659,-0.045000000000001705,1.4663333333333335,1.508,38.86,30.153333333333336,38.814,35.716,56.391,35.653999999999996,60.111,53.2385,54.286,34.723,58.6685,51.534,53.412,34.2285,58.5535,50.92633333333333,-0.04349999999999987,-0.11850000000000005,0.10093,0.11025000000000001,0.0,216.87,216.765,213.54000000000002,213.54000000000002,0.0,0.0
28,0.0,0.0,0.0,1.0,1.0,0.0,0.0,1.0,0.0,100.0,1.0,1.1856,26.0,0.0,0.0,0.0,63.999999,0.0,26.0,26.0,26.0,26.0,-0.1396666666666666,0.26180000000000003,-0.059300000000000005,291.901,-2.6374,-2.7398888888888893,-1.5076,-1.6353,-181.14,215.9725,190.38275,0.0,0.0,0.0,0.0,0.05656666666666667,-5.498166666666667,-5.498166666666667,-0.6011000000000001,0.655,-0.07611111111111146,0.756,69.4,-0.10060000000000001,-0.21677500000000002,1.1219999999999999,100.0,1.0,1.0,214.07,0.0,0.0,0.0,0.0,0.0,0.0,0.0,9073.7,0.0,55.0,5.0,249.81333333333333,0.0,0.0,0.0,0.0,0.0,0.0,0.0,0.0,1.404,1.404,0.0,0.0,0.0,55.0,616.79921,10000.0,85.000001,85.000001,85.000001,85.000001,395.0,0.0,0.0,0.0,1.0,333.33500000000004,51.804,51.804,47.531,47.531,34.0,-28.895,20.223333333333333,-33.093333333333334,23.884999999999998,0.0,1781.319,0.3049999999999997,100.0,29.285,27.958,44.339,43.082,0.0,0.0,100.0,0.0,0.0,0.0,0.0,3265.285714285714,3018.1,4104.625,4082.2,304.8945,305.29325,314.89375,314.847,22.0674,20.6701,22.0606,21.5635,314.999998,314.999998,324.999988,324.999988,99.56057142857142,99.50766666666667,99.56924285714285,99.54915714285714,-0.00924999999999998,-0.1463333333333332,-0.21399999999999997,0.01100000000000012,-0.041666666666671404,-0.051666666666669414,1.518,1.5685,38.921,30.187666666666665,38.879000000000005,35.772,56.376000000000005,35.6975,60.1465,53.294,54.272,34.763,58.701499999999996,51.587,53.397999999999996,34.2665,58.5835,50.978,-0.05400000000000005,-0.10499999999999998,0.10623500000000001,0.10598500000000001,0.0,217.32,217.22500000000002,214.07,214.07,0.0,0.0
29,0.0,0.0,0.0,1.0,1.0,0.0,0.0,1.0,0.0,100.0,1.0,1.1856,26.0,0.0,0.0,0.0,63.999999,0.0,26.0,26.0,26.0,26.0,-0.13111111111111107,0.25980000000000003,0.04566666666666667,291.458,-2.5851,-2.787111111111111,-1.5458,-1.612,-177.6,215.9675,190.35625,0.0,0.0,0.0,0.0,0.058600000000000006,-5.498166666666667,-5.498166666666667,-0.6046,-0.7345,-0.07311111111111135,-0.627,69.53399999999999,-0.09580000000000001,-0.215175,0.8780000000000001,100.0,1.0,1.0,214.29333333333335,0.0,0.0,0.0,0.0,0.0,0.0,0.0,9083.1,0.0,55.0,5.0,250.3,1.0,0.0,0.0,0.0,0.0,0.0,0.0,0.0,1.4549999999999983,1.4549999999999983,0.0,0.0,1.0,55.0,616.79921,10000.0,85.000001,85.000001,85.000001,85.000001,395.0,0.0,0.0,0.0,1.0,333.33500000000004,51.727000000000004,51.727000000000004,46.417,46.417,34.0,-29.29,20.90833333333333,-36.269999999999996,24.2875,0.0,1781.267,0.1999999999999993,100.0,28.819,27.955,44.678,43.448,0.0,0.0,100.0,0.0,0.0,0.0,0.0,3368.714285714286,3035.0,4344.375,4169.6,304.7665,304.9525,314.29475,314.492,22.076999999999998,20.6755,22.0713,21.5728,314.999998,314.999998,324.999988,324.999988,99.56057142857142,99.50768333333333,99.56938571428572,99.54931428571429,-0.011249999999999982,-0.15066666666666673,-0.21333333333333337,0.005166666666666542,-0.046666666666666856,-0.046666666666666856,1.4646666666666666,1.5,38.980999999999995,30.221666666666664,38.946,35.83,56.358000000000004,35.7385,60.188,53.354,54.254999999999995,34.8015,58.7405,51.6445,53.379999999999995,34.303,58.62,51.034333333333336,-0.06549999999999989,-0.09699999999999998,0.10307000000000001,0.10876500000000001,0.0,217.68,217.60000000000002,214.29333333333335,214.29333333333335,0.0,0.0
30,0.0,0.0,0.0,1.0,1.0,0.0,0.0,1.0,0.0,100.0,1.0,1.1856,26.0,0.0,0.0,0.0,63.999999,0.0,26.0,26.0,26.0,26.0,-0.10444444444444445,0.25540000000000007,0.06910000000000001,291.077,-2.6376,-2.6775555555555557,-1.4861,-1.6679000000000002,-174.05,215.96,190.32975,0.0,0.0,0.0,0.0,0.06066666666666667,-5.498166666666667,-5.498166666666667,-0.6018,0.78,-0.07133333333333347,0.946,69.664,-0.08320000000000001,-0.215875,0.6639999999999997,100.0,1.0,1.0,214.75333333333333,0.0,0.0,0.0,0.0,0.0,0.0,0.0,9102.6,0.0,55.0,5.0,250.76333333333332,0.0,0.0,0.0,0.0,0.0,0.0,1.0,0.0,1.5060000000000002,1.5060000000000002,0.0,0.0,0.0,55.0,616.79921,10000.0,85.000001,85.000001,85.000001,85.000001,395.0,0.0,0.0,0.0,1.0,166.665,50.858000000000004,50.858000000000004,46.89,46.89,34.0,-28.7625,21.173333333333332,-33.519999999999996,27.1025,0.0,1781.218,0.05999999999999872,100.0,29.857,28.564,44.594,43.382,0.0,0.0,100.0,0.0,0.0,0.0,0.0,3410.857142857143,3079.6,4281.625,4218.5,304.4515,305.04875,314.453,314.424,22.0869,20.6812,22.0818,21.5819,314.999998,314.999998,324.999988,324.999988,99.56057142857142,99.5077,99.56955714285715,99.54945714285714,0.026499999999999968,-0.12366666666666681,-0.1898333333333334,0.03533333333333322,-0.03833333333332689,-0.03999999999999915,1.476,1.4849999999999999,39.043,30.257333333333335,39.010999999999996,35.887,56.345,35.783,60.2255,53.412,54.242999999999995,34.8425,58.7755,51.7005,53.367000000000004,34.3425,58.6515,51.08866666666667,-0.08199999999999985,-0.08950000000000014,0.10278000000000001,0.10912000000000001,0.0,218.10500000000002,218.055,214.75333333333333,214.75333333333333,0.0,0.0
31,0.0,0.0,0.0,1.0,1.0,0.0,0.0,1.0,0.0,100.0,1.0,1.1856,26.0,0.0,0.0,0.0,63.999999,0.0,26.0,26.0,26.0,26.0,-0.09244444444444444,0.254,0.007200000000000001,291.031,-2.71,-2.7488888888888887,-1.5766,-1.6566,-170.7,215.95,190.3055,0.0,0.0,0.0,0.0,0.06263333333333335,-5.498166666666667,-5.498166666666667,-0.5901000000000001,-0.672,-0.058111111111111224,0.724,69.788,-0.0669,-0.22025,0.3160000000000007,100.0,1.0,1.0,215.03333333333333,0.0,0.0,0.0,0.0,0.0,0.0,0.0,9114.4,0.0,55.0,5.0,251.21,1.0,0.0,0.0,0.0,0.0,0.0,1.0,0.0,1.5539999999999985,1.5539999999999985,0.0,0.0,1.0,55.0,616.79921,10000.0,85.000001,85.000001,85.000001,85.000001,395.0,0.0,0.0,0.0,1.0,333.33500000000004,51.513999999999996,51.513999999999996,45.501999999999995,45.501999999999995,34.0,-26.7,22.05,-34.843333333333334,28.5875,0.0,1781.168,-0.004999999999999005,100.0,29.433,28.63,45.18,44.001000000000005,0.0,0.0,100.0,0.0,0.0,0.0,0.0,3150.0,3081.5,4410.0,4275.0,305.405,305.04175,314.1105,314.39925,22.0958,20.6865,22.0919,21.5908,314.999998,314.999998,324.999988,324.999988,99.56058571428571,99.50771666666667,99.56968571428571,99.5496,0.025250000000000217,-0.119,-0.16333333333333333,0.05833333333333335,-0.041666666666671404,-0.046666666666666856,1.4403333333333332,1.462,39.099000000000004,30.290666666666667,39.074,35.942499999999995,56.33,35.823,60.265,53.47,54.227999999999994,34.8795,58.813,51.756,53.352000000000004,34.3775,58.686,51.14266666666666,-0.08299999999999996,-0.08599999999999985,0.10018,0.11044000000000001,0.0,218.47,218.425,215.03333333333333,215.03333333333333,0.0,0.0
32,0.0,0.0,0.0,1.0,1.0,0.0,0.0,1.0,0.0,100.0,1.0,1.1856,26.0,0.0,0.0,0.0,63.999999,0.0,26.0,26.0,26.0,26.0,-0.07233333333333336,0.26439999999999997,-0.0546,291.275,-2.6523,-2.746888888888889,-1.6057000000000001,-1.5617,-167.14,215.9375,190.279875,0.0,0.0,0.0,0.0,0.06470000000000001,-5.498166666666667,-5.498166666666667,-0.6096,0.18,-0.08033333333333337,-0.971,69.914,-0.0543,-0.230225,0.39000000000000057,100.0,1.0,1.0,215.59,0.0,0.0,0.0,0.0,0.0,0.0,0.0,9138.0,0.0,55.0,5.0,251.66666666666666,0.0,0.0,0.0,0.0,0.0,0.0,1.0,0.0,1.6050000000000004,1.6050000000000004,0.0,0.0,0.0,55.0,616.79921,10000.0,85.000001,85.000001,85.000001,85.000001,395.0,0.0,0.0,0.0,1.0,333.33500000000004,51.163,51.163,46.692,46.692,34.0,-27.625,22.738333333333333,-32.78333333333333,25.8925,0.0,1781.117,-0.10500000000000043,100.0,29.287,28.84,44.634,43.903999999999996,0.0,0.0,100.0,0.0,0.0,0.0,0.0,3391.714285714286,3037.8,4244.75,4109.8,304.727,305.033,314.70875,314.81475,22.1054,20.6922,22.1023,21.6,314.999998,314.999998,324.999988,324.999988,99.56058571428571,99.50773333333333,99.56984285714286,99.54974285714286,0.04375000000000018,-0.09733333333333327,-0.16083333333333338,0.0641666666666667,-0.06666666666666998,-0.03166666666666629,1.5403333333333333,1.5495,39.159,30.326666666666668,39.14,36.0,56.315,35.8655,60.301,53.527,54.214,34.9185,58.8465,51.811,53.337,34.4155,58.716,51.196333333333335,-0.09199999999999986,-0.07250000000000023,0.10008500000000001,0.109545,0.0,218.875,218.81,215.59,215.59,0.0,0.0
33,0.0,0.0,0.0,1.0,1.0,0.0,0.0,1.0,0.0,100.0,1.0,1.1856,26.0,0.0,0.0,0.0,63.999999,0.0,26.0,26.0,26.0,26.0,-0.05255555555555558,0.25450000000000017,-0.033433333333333336,291.382,-2.6652,-2.738666666666667,-1.5703,-1.5767,-163.78,215.925,190.254875,0.0,0.0,0.0,0.0,0.06663333333333334,-5.498166666666667,-5.498166666666667,-0.6103000000000001,-0.34700000000000003,-0.07111111111111157,0.09099999999999997,70.038,-0.0409,-0.2152,0.15000000000000036,100.0,1.0,1.0,215.8466666666667,0.0,0.0,0.0,0.0,0.0,0.0,0.0,9148.9,0.0,55.0,5.0,252.11,1.0,0.0,0.0,0.0,0.0,0.0,1.0,0.0,1.6529999999999987,1.6529999999999987,0.0,0.0,1.0,55.0,616.79921,10000.0,85.000001,85.000001,85.000001,85.000001,395.0,0.0,0.0,0.0,1.0,166.665,51.894999999999996,51.894999999999996,46.371,46.371,34.0,-25.4225,22.155,-33.21333333333334,27.8825,0.0,1781.071,-0.18499999999999872,100.0,29.057,28.525,44.596000000000004,43.989000000000004,0.0,0.0,100.0,0.0,0.0,0.0,0.0,3204.285714285714,2943.0,4349.375,4248.4,305.3155,305.3625,314.3845,314.3695,22.1144,20.697400000000002,22.1122,21.6087,314.999998,314.999998,324.999988,324.999988,99.5606,99.50775,99.56998571428572,99.54988571428571,0.05525000000000002,-0.08899999999999997,-0.15249999999999997,0.06966666666666677,-0.051666666666669414,-0.046666666666666856,1.4813333333333334,1.484,39.215,30.358666666666664,39.201,36.0545,56.3,35.9015,60.3365,53.583,54.201,34.952,58.879999999999995,51.8645,53.323,34.447,58.7465,51.248333333333335,-0.10099999999999998,-0.06400000000000006,0.10405,0.10848000000000001,0.0,219.23000000000002,219.2,215.8466666666667,215.8466666666667,0.0,0.0
34,0.0,0.0,0.0,1.0,1.0,0.0,0.0,1.0,0.0,100.0,1.0,1.1856,26.0,0.0,0.0,0.0,63.999999,0.0,26.0,26.0,26.0,26.0,-0.022666666666666613,0.2590000000000001,-0.0728,291.779,-2.6871,-2.714888888888889,-1.6120999999999999,-1.5907,-159.99,215.91,190.22525,0.0,0.0,0.0,0.0,0.06883333333333334,-5.498166666666667,-5.498166666666667,-0.6455000000000001,-0.8220000000000001,-0.03211111111111098,-0.04899999999999993,70.172,-0.024300000000000002,-0.22690000000000002,0.08000000000000007,100.0,1.0,1.0,216.34333333333333,0.0,0.0,0.0,0.0,0.0,0.0,0.0,9170.0,0.0,55.0,5.0,252.59666666666666,0.0,0.0,0.0,0.0,0.0,0.0,1.0,0.0,1.7070000000000007,1.7070000000000007,0.0,0.0,0.0,55.0,616.79921,10000.0,85.000001,85.000001,85.000001,85.000001,395.0,0.0,0.0,0.0,1.0,166.665,52.094,52.094,47.318,47.318,34.0,-25.0925,22.443333333333335,-30.593333333333334,27.7025,0.0,1781.017,-0.14499999999999957,100.0,28.731,28.25,44.281,44.079,0.0,0.0,100.0,0.0,0.0,0.0,0.0,3152.285714285714,2967.2,4070.25,4121.0,305.327,305.265,315.0475,314.63625,22.124299999999998,20.7033,22.1232,21.6185,314.999998,314.999998,324.999988,324.999988,99.56061428571428,99.50775,99.57014285714286,99.55004285714286,0.06099999999999994,-0.08266666666666667,-0.1426666666666666,0.08466666666666667,-0.046666666666666856,-0.05833333333333002,1.5153333333333334,1.537,39.277,30.395333333333333,39.269999999999996,36.1155,56.284,35.942,60.373,53.6455,54.185,34.989,58.914,51.9245,53.306,34.4825,58.7775,51.307,-0.09699999999999998,-0.0674999999999999,0.10924500000000001,0.10799,0.0,219.625,219.61,216.34333333333336,216.34333333333333,0.0,0.0
35,0.0,0.0,0.0,1.0,1.0,0.0,0.0,1.0,0.0,100.0,1.0,1.1856,26.0,0.0,0.0,0.0,63.999999,0.0,26.0,26.0,26.0,26.0,-0.010000000000000009,0.24690000000000012,-0.06330000000000001,291.748,-2.7409,-2.653666666666667,-1.5775000000000001,-1.6035000000000001,-156.62,215.89499999999998,190.197,0.0,0.0,0.0,0.0,0.0708,-5.498166666666667,-5.498166666666667,-0.6844,-0.364,-0.04133333333333322,-0.994,70.292,-0.0125,-0.23025,0.03399999999999981,100.0,1.0,1.0,216.75666666666666,0.0,0.0,0.0,0.0,0.0,0.0,0.0,9187.5,0.0,55.0,5.0,253.02666666666664,1.0,0.0,0.0,0.0,0.0,0.0,1.0,0.0,1.754999999999999,1.754999999999999,0.0,0.0,1.0,55.0,616.79921,10000.0,85.000001,85.000001,85.000001,85.000001,395.0,0.0,0.0,0.0,1.0,333.33500000000004,51.575,51.575,46.906,46.906,34.0,-26.2025,25.016666666666666,-28.756666666666668,27.887500000000003,0.0,1780.967,-0.14000000000000057,100.0,28.505,28.542,43.999,43.634,0.0,0.0,100.0,0.0,0.0,0.0,0.0,3283.0,3255.3,4084.875,3952.9,305.1495,304.417,314.95175,315.0875,22.1329,20.7087,22.1329,21.6271,314.999998,314.999998,324.999988,324.999988,99.56061428571428,99.50776666666667,99.57028571428572,99.55018571428572,0.06899999999999995,-0.06766666666666676,-0.11516666666666664,0.11450000000000005,-0.054999999999999716,-0.04333333333332945,1.562,1.543,39.33,30.429000000000002,39.331,36.169,56.266999999999996,35.979,60.4055,53.6975,54.169,35.0235,58.944,51.975,53.289,34.516,58.8045,51.356,-0.09450000000000003,-0.07050000000000001,0.09986500000000001,0.11761500000000001,0.0,219.995,219.985,216.75666666666666,216.75666666666666,0.0,0.0
