,ABS Active,ABS Enabled,AID Allow Tire Blankets,AID Auto Blip,AID Auto Clutch,AID Auto Shift,AID Fuel Rate,AID Ideal Line,AID Mech Damage,AID Stability,AID Tire Wear Rate,Air Density,Air Temp,Ballast,Best Lap Delta,Best Lap Time,Brake Bias,Brake Pos,Brake Temp FL,Brake Temp FR,Brake Temp RL,Brake Temp RR,CG Accel Lateral,CG Accel Longitudinal,CG Accel Vertical,CG Height,Camber FL,Camber FR,Camber RL,Camber RR,Car Coord X,Car Coord Y,Car Coord Z,Car Damage Front,Car Damage Left,Car Damage Rear,Car Damage Right,Car Pos Norm,Caster FL,Caster FR,Chassis Pitch Angle,Chassis Pitch Rate,Chassis Roll Angle,Chassis Roll Rate,Chassis Velocity X,Chassis Velocity Y,Chassis Velocity Z,Chassis Yaw Rate,Clutch Pos,DRS Active,DRS Available,Drive Train Speed,ERS Heat Charging,ERS Is Charging,ERS Max Energy,ERS Power Level,ERS Recovery Level,Engine Brake Setting,Engine Limiter,Engine RPM,Flags,Fuel Level,Gear,Ground Speed,HR Sample Clock,In Pit,KERS Charge,KERS Deployed Energy,KERS Input,KERS Max Energy,LR Sample Clock,Lap Invalidated,Lap Time,Lap Time2,Last Lap Time,Last Sector Time,MR Sample Clock,Max Fuel,Max Power,Max RPM,Max Sus Travel FL,Max Sus Travel FR,Max Sus Travel RL,Max Sus Travel RR,Max Torque,Max Turbo Boost,Num Tires Off Track,Penalties Enabled,Position,Raw Data Sample Rate,Ride Height FL,Ride Height FR,Ride Height RL,Ride Height RR,Road Temp,Self Align Torque FL,Self Align Torque FR,Self Align Torque RL,Self Align Torque RR,Session Lap Count,Session Time Left,Steering Angle,Surface Grip,Suspension Travel FL,Suspension Travel FR,Suspension Travel RL,Suspension Travel RR,TC Active,TC Enabled,Throttle Pos,Tire Dirt Level FL,Tire Dirt Level FR,Tire Dirt Level RL,Tire Dirt Level RR,Tire Load FL,Tire Load FR,Tire Load RL,Tire Load RR,Tire Loaded Radius FL,Tire Loaded Radius FR,Tire Loaded Radius RL,Tire Loaded Radius RR,Tire Pressure FL,Tire Pressure FR,Tire Pressure RL,Tire Pressure RR,Tire Radius FL,Tire Radius FR,Tire Radius RL,Tire Radius RR,Tire Rubber Grip FL,Tire Rubber Grip FR,Tire Rubber Grip RL,Tire Rubber Grip RR,Tire Slip Angle FL,Tire Slip Angle FR,Tire Slip Angle RL,Tire Slip Angle RR,Tire Slip Ratio FL,Tire Slip Ratio FR,Tire Slip Ratio RL,Tire Slip Ratio RR,Tire Temp Core FL,Tire Temp Core FR,Tire Temp Core RL,Tire Temp Core RR,Tire Temp Inner FL,Tire Temp Inner FR,Tire Temp Inner RL,Tire Temp Inner RR,Tire Temp Middle FL,Tire Temp Middle FR,Tire Temp Middle RL,Tire Temp Middle RR,Tire Temp Outer FL,Tire Temp Outer FR,Tire Temp Outer RL,Tire Temp Outer RR,Toe In FL,Toe In FR,Toe In RL,Toe In RR,Turbo Boost,Wheel Angular Speed FL,Wheel Angular Speed FR,Wheel Angular Speed RL,Wheel Angular Speed RR,Wind Direction,Wind Speed
0,0.0,0.0,0.0,1.0,1.0,0.0,0.0,1.0,0.0,100.0,1.0,1.1856,26.0,0.0,0.0,0.0,63.99999,0.0,26.0,26.0,26.0,26.0,-0.08766666666666656,0.3043,0.0029000000000000002,294.037,-2.7128,-2.6604444444444444,-1.51055,-1.5622,-275.75,216.285,190.988,0.0,0.0,0.0,0.0,0.0015333333333333334,-5.498166666666667,-5.498166666666667,-0.5509000000000001,1.4123333333333332,-0.013777777777777889,-1.1629999999999998,65.52799999999999,-0.041600000000000005,-0.215975,1.048,100.0,1.0,1.0,202.31,0.0,0.0,0.0,0.0,0.0,0.0,0.0,8575.1,0.0,55.0,5.0,235.87,0.0,0.0,0.0,0.0,0.0,0.0,0.0,0.0,0.0030000000000001137,0.0030000000000001137,0.0,0.0,0.0,55.0,616.79921,10000.0,85.0,85.0,85.0,85.0,395.0,0.0,0.0,0.0,1.0,20.0,52.765,52.765,49.698,49.698,34.0,-26.5,22.406,-31.166666666666664,24.502499999999998,0.0,1783.022,0.7800000000000011,100.0,27.593,27.047,40.495000000000005,40.478,0.0,0.0,100.0,0.0,0.0,0.0,0.0,3017.142857142857,3292.0,4156.0,3997.1000000000004,305.693,304.27366666666666,314.787,314.8345,21.8137,20.519,21.7677,21.311,314.99999,314.99999,324.99998,324.99998,99.56095714285715,99.50738333333334,99.5651,99.54508571428572,-0.0035000000000000586,-0.13,-0.17333333333333334,0.054333333333333345,-0.07166666666666544,-0.046666666666666856,1.5535,1.5825,37.336,29.243499999999997,37.048,34.1935,57.007,34.616,59.0515,51.588,54.869,33.763,57.68,49.9465,54.01,33.3085,57.6455,49.37166666666667,-0.018000000000000016,-0.13649999999999984,0.1052,0.11302000000000001,0.0,205.365,205.275,202.31,202.31,0.0,0.0
1,0.0,0.0,0.0,1.0,1.0,0.0,0.0,1.0,0.0,100.0,1.0,1.1856,26.0,0.0,0.0,0.0,63.999999,0.0,26.0,26.0,26.0,26.0,-0.14533333333333331,0.31300000000000017,0.0468,293.06,-2.6461,-2.769333333333333,-1.5189,-1.5509,-272.41,216.2825,190.96775,0.0,0.0,0.0,0.0,0.0035,-5.498166666666667,-5.498166666666667,-0.49670000000000003,-0.41300000000000003,-0.05733333333333368,0.03500000000000014,65.684,-0.057100000000000005,-0.194775,1.4320000000000004,100.0,1.0,1.0,202.45,0.0,0.0,0.0,0.0,0.0,0.0,0.0,8581.2,0.0,55.0,5.0,236.42666666666668,1.0,0.0,0.0,0.0,0.0,0.0,0.0,0.0,0.053999999999998494,0.053999999999998494,0.0,0.0,1.0,55.0,616.79921,10000.0,85.000001,85.000001,85.000001,85.000001,395.0,0.0,0.0,0.0,1.0,333.33500000000004,53.528,53.528,48.309,48.309,34.0,-27.02,17.465999999999998,-35.97333333333333,28.9675,0.0,1782.972,0.8550000000000004,100.0,27.747,27.035,42.427,41.455,0.0,0.0,100.0,0.0,0.0,0.0,0.0,3046.0,2667.0,4448.888888888889,4721.3,305.4405,306.3573333333333,313.929,313.11825,21.8238,20.5241,21.7786,21.3201,314.999998,314.999998,324.999988,324.999988,99.56095714285715,99.5074,99.56525714285715,99.54522857142857,-0.01749999999999985,-0.15200000000000002,-0.1911666666666666,0.032666666666666844,-0.023333333333326323,-0.01833333333333087,1.399,1.4474999999999998,37.399,29.2755,37.116,34.2505,56.989000000000004,34.657,59.0975,51.6525,54.852000000000004,33.801,57.7235,50.0085,53.992999999999995,33.345,57.686,49.43233333333333,-0.006000000000000005,-0.14700000000000024,0.10602500000000001,0.11478500000000001,0.0,205.79000000000002,205.68,202.45,202.45,0.0,0.0
2,0.0,0.0,0.0,1.0,1.0,0.0,0.0,1.0,0.0,100.0,1.0,1.1856,26.0,0.0,0.0,0.0,63.999999,0.0,26.0,26.0,26.0,26.0,-0.13355555555555554,0.28459999999999996,-0.036333333333333336,293.808,-2.6018,-2.7955555555555556,-1.4864,-1.6076000000000001,-269.05,216.275,190.949125,0.0,0.0,0.0,0.0,0.005433333333333333,-5.498166666666667,-5.498166666666667,-0.5559000000000001,-0.081,-0.05022222222222217,1.4820000000000002,65.824,-0.07730000000000001,-0.26227500000000004,1.6159999999999997,100.0,1.0,1.0,203.41333333333333,0.0,0.0,0.0,0.0,0.0,0.0,0.0,8621.9,0.0,55.0,5.0,236.94,0.0,0.0,0.0,0.0,0.0,0.0,0.0,0.0,0.10500000000000043,0.10500000000000043,0.0,0.0,0.0,55.0,616.79921,10000.0,85.000001,85.000001,85.000001,85.000001,395.0,0.0,0.0,0.0,1.0,333.33500000000004,52.353,52.353,50.446,50.446,34.0,-31.015,19.778000000000002,-29.15,19.6,0.0,1782.922,0.7300000000000004,100.0,28.274,27.057,42.386,41.257,0.0,0.0,100.0,0.0,0.0,0.0,0.0,3427.4285714285716,2913.8,3731.222222222222,3610.3,304.409,305.525,315.6965,315.93975,21.8341,20.5291,21.7891,21.3288,314.999998,314.999998,324.999988,324.999988,99.56097142857143,99.50743333333334,99.5654,99.54537142857143,-0.030999999999999917,-0.14933333333333332,-0.22583333333333333,0.007000000000000117,-0.061666666666667425,-0.03999999999999915,1.6444999999999999,1.6949999999999998,37.463,29.307000000000002,37.182,34.305,56.974999999999994,34.696,59.1355,51.71,54.838,33.837,57.759,50.0635,53.977999999999994,33.3795,57.7185,49.486666666666665,-0.021499999999999853,-0.12749999999999995,0.11068000000000001,0.11163000000000001,0.0,206.26,206.11,203.41333333333333,203.41333333333333,0.0,0.0
3,0.0,0.0,0.0,1.0,1.0,0.0,0.0,1.0,0.0,100.0,1.0,1.1856,26.0,0.0,0.0,0.0,63.999999,0.0,26.0,26.0,26.0,26.0,-0.14277777777777778,0.30710000000000015,-0.04246666666666667,293.503,-2.7244,-2.6926666666666668,-1.5056,-1.5934,-265.89,216.2625,190.9305,0.0,0.0,0.0,0.0,0.0073,-5.498166666666667,-5.498166666666667,-0.5113,0.758,-0.015222222222222026,-0.8579999999999997,65.968,-0.0889,-0.20115000000000002,1.2220000000000013,100.0,1.0,1.0,203.52666666666667,0.0,0.0,0.0,0.0,0.0,0.0,0.0,8626.8,0.0,55.0,5.0,237.45333333333332,1.0,0.0,0.0,0.0,0.0,0.0,0.0,0.0,0.1529999999999987,0.1529999999999987,0.0,0.0,1.0,55.0,616.79921,10000.0,85.000001,85.000001,85.000001,85.000001,395.0,0.0,0.0,0.0,1.0,333.33500000000004,53.497,53.497,48.294,48.294,34.0,-26.622500000000002,17.555999999999997,-36.17333333333333,23.509999999999998,0.0,1782.872,0.6350000000000016,100.0,27.958,27.121,42.217,41.286,0.0,0.0,100.0,0.0,0.0,0.0,0.0,2905.285714285714,2767.8,4377.777777777777,4187.8,305.957,305.8213333333333,314.19775,314.44125,21.8436,20.534,21.7989,21.3371,314.999998,314.999998,324.999988,324.999988,99.56097142857143,99.50743333333334,99.56554285714286,99.54551428571429,-0.031749999999999945,-0.15933333333333333,-0.22250000000000003,-0.0011666666666666492,-0.011666666666670267,-0.041666666666671404,1.4905,1.5324999999999998,37.522,29.3375,37.242999999999995,34.357,56.958,34.736,59.172,51.7685,54.822,33.8735,57.793,50.1195,53.962,33.414500000000004,57.7505,49.541333333333334,-0.030000000000000027,-0.11900000000000022,0.10851000000000001,0.10523500000000001,0.0,206.69,206.595,203.52666666666667,203.52666666666667,0.0,0.0
4,0.0,0.0,0.0,1.0,1.0,0.0,0.0,1.0,0.0,100.0,1.0,1.1856,26.0,0.0,0.0,0.0,63.999999,0.0,26.0,26.0,26.0,26.0,-0.15400000000000003,0.2784,-0.019433333333333334,293.64,-2.6616,-2.7425555555555556,-1.5279500000000001,-1.5971000000000002,-262.52,216.25,190.91075,0.0,0.0,0.0,0.0,0.009233333333333333,-5.498166666666667,-5.498166666666667,-0.5435,-0.9586666666666667,-0.07500000000000018,-0.6129999999999995,66.114,-0.0867,-0.23675000000000002,1.1340000000000003,100.0,1.0,1.0,204.08666666666667,0.0,0.0,0.0,0.0,0.0,0.0,0.0,8650.4,0.0,55.0,5.0,237.98333333333335,0.0,0.0,0.0,0.0,0.0,0.0,0.0,0.0,0.20400000000000063,0.20400000000000063,0.0,0.0,0.0,55.0,616.79921,10000.0,85.000001,85.000001,85.000001,85.000001,395.0,0.0,0.0,0.0,1.0,333.33500000000004,53.116,53.116,48.706,48.706,34.0,-29.009999999999998,19.748,-32.54,21.11,0.0,1782.823,0.625,100.0,27.774,26.706,42.857,41.425,0.0,0.0,100.0,0.0,0.0,0.0,0.0,3188.857142857143,2986.3,4075.777777777778,3727.0,305.1855,305.371,314.799,315.54575,21.8534,20.5391,21.8095,21.3461,314.999998,314.999998,324.999988,324.999988,99.56097142857143,99.50745,99.56568571428572,99.54564285714285,-0.031749999999999945,-0.15100000000000002,-0.20366666666666666,0.01633333333333331,-0.05666666666667197,-0.0799999999999983,1.5390000000000001,1.6004999999999998,37.584,29.369500000000002,37.309,34.413,56.939,34.7765,59.2145,51.828,54.804,33.911500000000004,57.833,50.177,53.943,33.4505,57.7875,49.59766666666667,-0.02200000000000002,-0.12349999999999994,0.104025,0.10528000000000001,0.0,207.11,207.03,204.08666666666667,204.08666666666667,0.0,0.0
5,0.0,0.0,0.0,1.0,1.0,0.0,0.0,1.0,0.0,100.0,1.0,1.1856,26.0,0.0,0.0,0.0,63.999999,0.0,26.0,26.0,26.0,26.0,-0.12011111111111106,0.29700000000000015,-0.023333333333333334,293.686,-2.6721,-2.7656666666666667,-1.50865,-1.5861,-259.15,216.23250000000002,190.890375,0.0,0.0,0.0,0.0,0.0112,-5.498166666666667,-5.498166666666667,-0.5376000000000001,0.455,-0.08377777777777773,-0.33399999999999963,66.261,-0.0886,-0.21610000000000001,1.0860000000000003,100.0,1.0,1.0,204.5233333333333,0.0,0.0,0.0,0.0,0.0,0.0,0.0,8668.9,0.0,55.0,5.0,238.51,1.0,0.0,0.0,0.0,0.0,0.0,0.0,0.0,0.254999999999999,0.254999999999999,0.0,0.0,1.0,55.0,616.79921,10000.0,85.000001,85.000001,85.000001,85.000001,395.0,0.0,0.0,0.0,1.0,166.665,53.436,53.436,49.088,49.088,34.0,-28.2425,19.006,-33.68333333333334,22.525,0.0,1782.773,0.28999999999999915,100.0,27.82,26.789,42.502,41.163,0.0,0.0,100.0,0.0,0.0,0.0,0.0,3195.0,2749.1,4171.444444444444,4019.3,305.2375,305.97133333333335,314.74275,314.84975,21.863599999999998,20.5443,21.82,21.3548,314.999998,314.999998,324.999988,324.999988,99.56097142857143,99.50748333333334,99.56581428571428,99.54578571428571,-0.011749999999999927,-0.131,-0.21816666666666662,0.00649999999999995,-0.06666666666666998,-0.05666666666667197,1.5339999999999998,1.5789999999999997,37.647,29.402,37.375,34.467,56.923,34.817,59.2545,51.8855,54.789,33.948499999999996,57.87,50.232,53.927,33.486,57.8215,49.650999999999996,-0.050999999999999934,-0.08700000000000019,0.10519500000000001,0.11163000000000001,0.0,207.60500000000002,207.51,204.5233333333333,204.5233333333333,0.0,0.0
6,0.0,0.0,0.0,1.0,1.0,0.0,0.0,1.0,0.0,100.0,1.0,1.1856,26.0,0.0,0.0,0.0,63.999999,0.0,26.0,26.0,26.0,26.0,-0.10766666666666658,0.2948000000000002,-0.0058000000000000005,293.472,-2.641,-2.740333333333333,-1.5510000000000002,-1.6225,-255.96,216.2125,190.871125,0.0,0.0,0.0,0.0,0.013066666666666666,-5.498166666666667,-5.498166666666667,-0.5315,0.050333333333333334,-0.06522222222222229,-0.4939999999999998,66.399,-0.0845,-0.21527500000000002,0.8300000000000001,100.0,1.0,1.0,204.92000000000002,0.0,0.0,0.0,0.0,0.0,0.0,0.0,8685.9,0.0,55.0,5.0,239.00666666666666,0.0,0.0,0.0,0.0,0.0,0.0,0.0,0.0,0.3030000000000008,0.3030000000000008,0.0,0.0,0.0,55.0,616.79921,10000.0,85.000001,85.000001,85.000001,85.000001,395.0,0.0,0.0,0.0,1.0,333.33500000000004,53.101,53.101,48.798,48.798,34.0,-27.95,20.081999999999997,-33.413333333333334,22.884999999999998,0.0,1782.723,0.10500000000000043,100.0,27.699,26.865000000000002,42.633,41.546,0.0,0.0,100.0,0.0,0.0,0.0,0.0,3231.5714285714284,2893.4,4127.777777777777,3958.1000000000004,305.122,305.47433333333333,314.827,314.94975,21.873,20.5492,21.8299,21.3632,314.999998,314.999998,324.999988,324.999988,99.56098571428572,99.50748333333334,99.56595714285714,99.54591428571429,-0.0024999999999999467,-0.129,-0.20899999999999996,0.009666666666666712,-0.054999999999999716,-0.041666666666671404,1.5314999999999999,1.5625,37.706,29.432000000000002,37.437,34.519999999999996,56.907,34.8545,59.292500000000004,51.9435,54.774,33.983000000000004,57.9055,50.2875,53.911,33.519,57.8545,49.705333333333336,-0.0645,-0.08050000000000024,0.10923500000000001,0.10838,0.0,208.01999999999998,207.935,204.92000000000002,204.92000000000002,0.0,0.0
7,0.0,0.0,0.0,1.0,1.0,0.0,0.0,1.0,0.0,100.0,1.0,1.1856,26.0,0.0,0.0,0.0,63.999999,0.0,26.0,26.0,26.0,26.0,-0.09611111111111104,0.29920000000000013,0.044166666666666674,293.198,-2.6094,-2.734777777777778,-1.5106000000000002,-1.5715,-252.57,216.1875,190.850625,0.0,0.0,0.0,0.0,0.015033333333333334,-5.498166666666667,-5.498166666666667,-0.5352,-0.03966666666666666,-0.05111111111111155,1.1180000000000003,66.545,-0.0684,-0.22375,0.4039999999999999,100.0,1.0,1.0,205.32333333333332,0.0,0.0,0.0,0.0,0.0,0.0,0.0,8702.9,0.0,55.0,5.0,239.53333333333333,1.0,0.0,0.0,0.0,0.0,0.0,0.0,0.0,0.3539999999999992,0.3539999999999992,0.0,0.0,1.0,55.0,616.79921,10000.0,85.000001,85.000001,85.000001,85.000001,395.0,0.0,0.0,0.0,1.0,166.665,52.765,52.765,48.843,48.843,34.0,-26.535,22.672,-30.75,25.1325,0.0,1782.674,-0.23499999999999943,100.0,27.94,26.772,42.777,41.682,0.0,0.0,100.0,0.0,0.0,0.0,0.0,3227.0,3055.6,4055.4444444444443,4128.6,304.8855,305.16,314.88075,314.63575,21.883,20.5544,21.8404,21.3722,314.999998,314.999998,324.999988,324.999988,99.56098571428572,99.5075,99.5661,99.54605714285714,0.029749999999999943,-0.09233333333333338,-0.1748333333333334,0.04400000000000004,-0.05333333333332746,-0.05833333333333002,1.5219999999999998,1.541,37.769,29.465,37.503,34.576,56.89,34.894,59.332499999999996,52.0045,54.757999999999996,34.0195,57.943,50.346000000000004,53.894999999999996,33.554,57.888999999999996,49.76266666666667,-0.08850000000000002,-0.0535000000000001,0.10417000000000001,0.10448500000000001,0.0,208.43,208.39499999999998,205.32333333333332,205.32333333333332,0.0,0.0
8,0.0,0.0,0.0,1.0,1.0,0.0,0.0,1.0,0.0,100.0,1.0,1.1856,26.0,0.0,0.0,0.0,63.999999,0.0,26.0,26.0,26.0,26.0,-0.043777777777777804,0.3035000000000001,-0.022933333333333337,293.472,-2.6856999999999998,-2.7141111111111114,-1.4969999999999999,-1.5516,-249.18,216.1625,190.830125,0.0,0.0,0.0,0.0,0.017,-5.498166666666667,-5.498166666666667,-0.5348,-0.4056666666666667,-0.03488888888888875,-0.4530000000000003,66.691,-0.05,-0.21455000000000002,-0.002000000000000668,100.0,1.0,1.0,205.72,0.0,0.0,0.0,0.0,0.0,0.0,0.0,8719.7,0.0,55.0,5.0,240.05666666666667,0.0,0.0,0.0,0.0,0.0,0.0,0.0,0.0,0.40500000000000114,0.40500000000000114,0.0,0.0,0.0,55.0,616.79921,10000.0,85.000001,85.000001,85.000001,85.000001,395.0,0.0,0.0,0.0,1.0,333.33500000000004,53.711,53.711,48.096000000000004,48.096000000000004,34.0,-23.8775,21.836,-31.216666666666665,26.1575,0.0,1782.621,-0.370000000000001,100.0,27.388,26.898,42.656,41.896,0.0,0.0,100.0,0.0,0.0,0.0,0.0,2978.4285714285716,2891.6,4217.666666666667,4129.7,305.869,305.502,314.53725,314.52125,21.8929,20.5596,21.8509,21.3811,314.999998,314.999998,324.999988,324.999988,99.56098571428572,99.5075,99.56624285714285,99.5462,0.046499999999999986,-0.07833333333333337,-0.16016666666666657,0.0645,-0.045000000000001705,-0.026666666666670835,1.5219999999999998,1.5244999999999997,37.83,29.497500000000002,37.568,34.632,56.872,34.9315,59.3725,52.065,54.739999999999995,34.054,57.980000000000004,50.403999999999996,53.876999999999995,33.587,57.923,49.81966666666666,-0.10699999999999998,-0.040000000000000036,0.10558500000000001,0.10941500000000001,0.0,208.865,208.845,205.72,205.72,0.0,0.0
9,0.0,0.0,0.0,1.0,1.0,0.0,0.0,1.0,0.0,100.0,1.0,1.1856,26.0,0.0,0.0,0.0,63.999999,0.0,26.0,26.0,26.0,26.0,-0.01633333333333331,0.28180000000000005,-0.022266666666666667,293.198,-2.6862,-2.719555555555556,-1.55335,-1.5554999999999999,-245.97,216.1375,190.81025,0.0,0.0,0.0,0.0,0.018866666666666667,-5.498166666666667,-5.498166666666667,-0.543,0.5506666666666666,-0.035555555555555785,-0.46499999999999986,66.824,-0.029300000000000003,-0.217425,-0.12399999999999967,100.0,1.0,1.0,206.26666666666665,0.0,0.0,0.0,0.0,0.0,0.0,0.0,8742.9,0.0,55.0,5.0,240.5366666666667,1.0,0.0,0.0,0.0,0.0,0.0,0.0,0.0,0.4529999999999994,0.4529999999999994,0.0,0.0,1.0,55.0,616.79921,10000.0,85.000001,85.000001,85.000001,85.000001,395.0,0.0,0.0,0.0,1.0,333.33500000000004,52.49,52.49,49.179,49.179,34.0,-26.75,23.688,-28.556666666666665,26.405,0.0,1782.572,-0.46000000000000085,100.0,27.776,27.297,42.366,41.924,0.0,0.0,100.0,0.0,0.0,0.0,0.0,3369.714285714286,3010.5,3993.1111111111113,4019.5,304.714,305.0813333333333,315.16725,314.86175,21.9022,20.5647,21.8607,21.389499999999998,314.999998,314.999998,324.999988,324.999988,99.561,99.50751666666666,99.56638571428572,99.54632857142857,0.06400000000000006,-0.06099999999999994,-0.138,0.08933333333333326,-0.051666666666669414,-0.03999999999999915,1.5705,1.5594999999999999,37.888999999999996,29.5295,37.629000000000005,34.6845,56.858000000000004,34.9685,59.4065,52.121,54.727000000000004,34.088,58.012,50.457499999999996,53.861999999999995,33.6195,57.9525,49.872,-0.11699999999999999,-0.03949999999999987,0.10525000000000001,0.1135,0.0,209.31,209.29000000000002,206.26666666666665,206.26666666666665,0.0,0.0
10,0.0,0.0,0.0,1.0,1.0,0.0,0.0,1.0,0.0,100.0,1.0,1.1856,26.0,0.0,0.0,0.0,63.999999,0.0,26.0,26.0,26.0,26.0,0.007333333333333414,0.30090000000000017,-0.013900000000000001,292.984,-2.6626,-2.7046666666666668,-1.5365,-1.532,-242.36,216.10750000000002,190.78825,0.0,0.0,0.0,0.0,0.020966666666666668,-5.498166666666667,-5.498166666666667,-0.5189,-0.47333333333333333,0.00822222222222213,0.40200000000000014,66.98,-0.007500000000000001,-0.20797500000000002,-0.46200000000000063,100.0,1.0,1.0,206.51999999999998,0.0,0.0,0.0,0.0,0.0,0.0,0.0,8753.6,0.0,55.0,5.0,241.10000000000002,0.0,0.0,0.0,0.0,0.0,0.0,1.0,0.0,0.5069999999999979,0.5069999999999979,0.0,0.0,0.0,55.0,616.79921,10000.0,85.000001,85.000001,85.000001,85.000001,395.0,0.0,0.0,0.0,1.0,166.665,53.497,53.497,47.638,47.638,34.0,-21.335,22.924,-30.313333333333333,29.14,0.0,1782.521,-0.6050000000000004,100.0,27.694,27.344,42.784,42.733000000000004,0.0,0.0,100.0,0.0,0.0,0.0,0.0,2879.4285714285716,2872.9,4305.111111111111,4264.3,306.1265,305.54566666666665,314.3375,314.18475,21.9127,20.5703,21.8719,21.3992,314.999998,314.999998,324.999988,324.999988,99.561,99.50753333333333,99.56652857142858,99.54647142857142,0.08424999999999994,-0.044333333333333336,-0.1163333333333334,0.10250000000000004,-0.036666666666668846,-0.05333333333332746,1.5,1.4855,37.954,29.564500000000002,37.699,34.745,56.842,35.007,59.45,52.1885,54.712,34.1235,58.0525,50.5225,53.847,33.653999999999996,57.9895,49.93566666666666,-0.12149999999999994,-0.03200000000000003,0.09905000000000001,0.1057,0.0,209.745,209.76999999999998,206.51999999999998,206.51999999999998,0.0,0.0
11,0.0,0.0,0.0,1.0,1.0,0.0,0.0,1.0,0.0,100.0,1.0,1.1856,26.0,0.0,0.0,0.0,63.999999,0.0,26.0,26.0,26.0,26.0,0.0604444444444443,0.2742,-0.10300000000000001,293.503,-2.7074,-2.6815555555555557,-1.55375,-1.5232999999999999,-239.14,216.08249999999998,190.76875,0.0,0.0,0.0,0.0,0.022600000000000002,-5.498166666666667,-5.498166666666667,-0.5615,-0.31,0.031888888888888856,-0.6379999999999999,67.11,0.0103,-0.23925000000000002,-0.5739999999999998,100.0,1.0,1.0,207.23000000000002,0.0,0.0,0.0,0.0,0.0,0.0,0.0,8783.8,0.0,55.0,5.0,241.57,1.0,0.0,0.0,0.0,0.0,0.0,1.0,0.0,0.5549999999999997,0.5549999999999997,0.0,0.0,1.0,55.0,616.79921,10000.0,85.000001,85.000001,85.000001,85.000001,395.0,0.0,0.0,0.0,1.0,166.665,52.826,52.826,49.271,49.271,34.0,-22.7075,25.605999999999998,-23.436666666666667,26.385,0.0,1782.473,-0.6449999999999996,100.0,27.48,27.58,42.359,42.622,0.0,0.0,100.0,0.0,0.0,0.0,0.0,3088.0,3089.0,3680.3333333333335,3859.7,305.5695,304.851,315.89675,315.24,21.9218,20.5754,21.8816,21.4077,314.999998,314.999998,324.999988,324.999988,99.56101428571428,99.50753333333333,99.56667142857142,99.54661428571428,0.10250000000000004,-0.023666666666666614,-0.08850000000000002,0.12816666666666676,-0.06333333333333258,-0.045000000000001705,1.6469999999999998,1.6084999999999998,38.010999999999996,29.5965,37.76,34.798,56.827,35.042,59.482,52.245,54.698,34.156,58.082,50.577,53.831,33.685,58.0165,49.989,-0.125,-0.028999999999999915,0.105755,0.10788500000000001,0.0,210.14499999999998,210.17000000000002,207.23000000000002,207.23000000000002,0.0,0.0
12,0.0,0.0,0.0,1.0,1.0,0.0,0.0,1.0,0.0,100.0,1.0,1.1856,26.0,0.0,0.0,0.0,63.999999,0.0,26.0,26.0,26.0,26.0,0.05488888888888899,0.29810000000000003,0.032433333333333335,292.953,-2.7592,-2.680555555555556,-1.55115,-1.5261,-235.92000000000002,216.0575,190.748,0.0,0.0,0.0,0.0,0.025466666666666665,-5.498166666666667,-5.498166666666667,-0.5466,0.332,0.015333333333333199,-0.8819999999999997,67.24600000000001,0.0274,-0.20677500000000001,-0.6760000000000002,100.0,1.0,1.0,207.43333333333334,0.0,0.0,0.0,0.0,0.0,0.0,0.0,8792.3,0.0,55.0,5.0,242.05666666666667,0.0,0.0,0.0,0.0,0.0,0.0,1.0,0.0,0.602999999999998,0.602999999999998,0.0,0.0,0.0,55.0,616.79921,10000.0,85.000001,85.000001,85.000001,85.000001,395.0,0.0,0.0,0.0,1.0,333.33500000000004,52.826,52.826,47.943,47.943,34.0,-23.0575,26.08,-27.799999999999997,30.41,0.0,1782.424,-0.6950000000000003,100.0,27.358,27.743,42.221000000000004,42.556,0.0,0.0,100.0,0.0,0.0,0.0,0.0,3132.857142857143,3082.9,4247.666666666667,4160.9,305.4835,304.88733333333334,314.564,314.50275,21.9309,20.5806,21.8914,21.4161,314.999998,314.999998,324.999988,324.999988,99.56102857142857,99.50753333333333,99.5668,99.54674285714286,0.11324999999999985,-0.010000000000000009,-0.07983333333333331,0.14866666666666672,-0.05666666666667197,-0.046666666666666856,1.5394999999999999,1.513,38.068,29.628999999999998,37.821,34.851,56.814,35.0775,59.5175,52.302,54.685,34.189,58.115,50.6315,53.818,33.716499999999996,58.047,50.04266666666666,-0.12850000000000006,-0.022499999999999964,0.11157,0.10776500000000001,0.0,210.57999999999998,210.615,207.43333333333334,207.43333333333334,0.0,0.0
13,0.0,0.0,0.0,1.0,1.0,0.0,0.0,1.0,0.0,100.0,1.0,1.1856,26.0,0.0,0.0,0.0,63.999999,0.0,26.0,26.0,26.0,26.0,0.06577777777777793,0.28490000000000015,0.0539,292.557,-2.734,-2.676,-1.624,-1.5404,-232.48,216.0325,190.726125,0.0,0.0,0.0,0.0,0.0267,-5.498166666666667,-5.498166666666667,-0.539,-0.058,0.024222222222222145,1.069,67.389,0.0366,-0.214125,-0.8539999999999992,100.0,1.0,1.0,207.81666666666666,0.0,0.0,0.0,0.0,0.0,0.0,0.0,8808.7,0.0,55.0,5.0,242.57,1.0,0.0,0.0,0.0,0.0,0.0,1.0,0.0,0.6539999999999999,0.6539999999999999,0.0,0.0,1.0,55.0,616.79921,10000.0,85.000001,85.000001,85.000001,85.000001,395.0,0.0,0.0,0.0,1.0,333.33500000000004,52.475,52.475,47.882,47.882,34.0,-20.8425,28.195999999999998,-27.413333333333334,33.45,0.0,1782.372,-0.8649999999999984,100.0,27.802,27.778,42.561,42.957,0.0,0.0,100.0,0.0,0.0,0.0,0.0,3054.0,3186.2,4150.888888888889,4358.2,305.5055,304.7416666666667,314.70875,314.083,21.9407,20.586199999999998,21.902,21.4253,314.999998,314.999998,324.999988,324.999988,99.56104285714285,99.50753333333333,99.56694285714286,99.5469,0.14924999999999988,0.02300000000000013,-0.0635,0.1668333333333334,-0.041666666666671404,-0.06333333333333258,1.5185,1.4754999999999998,38.129000000000005,29.6635,37.887,34.908500000000004,56.801,35.1155,59.556,52.366,54.673,34.224000000000004,58.150999999999996,50.693,53.805,33.75,58.079499999999996,50.103,-0.1459999999999999,-0.0024999999999999467,0.11231000000000001,0.10825000000000001,0.0,211.0,211.07,207.81666666666666,207.81666666666666,0.0,0.0
14,0.0,0.0,0.0,1.0,1.0,0.0,0.0,1.0,0.0,100.0,1.0,1.1856,26.0,0.0,0.0,0.0,63.999999,0.0,26.0,26.0,26.0,26.0,0.0818888888888889,0.27249999999999996,-0.011166666666666668,292.801,-2.7349,-2.618444444444444,-1.5986,-1.512,-228.84,216.0075,190.703625,0.0,0.0,0.0,0.0,0.028833333333333332,-5.498166666666667,-5.498166666666667,-0.5486,-0.11033333333333332,0.05277777777777781,1.2770000000000001,67.537,0.0502,-0.22787500000000002,-1.064,100.0,1.0,1.0,208.36,0.0,0.0,0.0,0.0,0.0,0.0,0.0,8831.6,0.0,55.0,5.0,243.10333333333335,0.0,0.0,0.0,0.0,0.0,0.0,1.0,0.0,0.7079999999999984,0.7079999999999984,0.0,0.0,0.0,55.0,616.79921,10000.0,85.000001,85.000001,85.000001,85.000001,395.0,0.0,0.0,0.0,1.0,166.665,52.612,52.612,48.08,48.08,34.0,-19.585,28.53,-24.806666666666665,32.095,0.0,1782.32,-0.9649999999999999,100.0,27.73,27.882,42.528999999999996,43.193,0.0,0.0,100.0,0.0,0.0,0.0,0.0,2923.857142857143,3257.2,3952.6666666666665,4226.9,305.8785,304.534,315.17175,314.4085,21.951,20.5921,21.913,21.435,314.999998,314.999998,324.999988,324.999988,99.56107142857142,99.50755,99.5671,99.54704285714286,0.15549999999999997,0.026000000000000023,-0.05166666666666664,0.1755,-0.030000000000001137,-0.054999999999999716,1.549,1.5204999999999997,38.193,29.700499999999998,37.957,34.969,56.789,35.155,59.5945,52.4325,54.661,34.260999999999996,58.1865,50.757,53.792,33.7855,58.112,50.166,-0.15100000000000002,-0.007000000000000117,0.109475,0.10638,0.0,211.45499999999998,211.51999999999998,208.36,208.36,0.0,0.0
15,0.0,0.0,0.0,1.0,1.0,0.0,0.0,1.0,0.0,100.0,1.0,1.1856,26.0,0.0,0.0,0.0,63.999999,0.0,26.0,26.0,26.0,26.0,0.11933333333333329,0.2802,-0.039,292.816,-2.7137000000000002,-2.5713333333333335,-1.63135,-1.4526,-225.8,215.9875,190.684625,0.0,0.0,0.0,0.0,0.030600000000000002,-5.498166666666667,-5.498166666666667,-0.5402,0.28600000000000003,0.08077777777777784,-0.11299999999999955,67.661,0.06330000000000001,-0.211375,-1.1179999999999994,100.0,1.0,1.0,208.73000000000002,0.0,0.0,0.0,0.0,0.0,0.0,0.0,8847.3,0.0,55.0,5.0,243.54666666666668,1.0,0.0,0.0,0.0,0.0,0.0,1.0,0.0,0.7530000000000001,0.7530000000000001,0.0,0.0,1.0,55.0,616.79921,10000.0,85.000001,85.000001,85.000001,85.000001,395.0,0.0,0.0,0.0,1.0,333.33500000000004,52.78,52.78,48.187,48.187,34.0,-18.75,27.258,-25.333333333333336,32.769999999999996,0.0,1782.274,-1.004999999999999,100.0,27.593,28.062,42.213,43.342,0.0,0.0,100.0,0.0,0.0,0.0,0.0,2908.142857142857,3131.2,3989.0,4318.2,306.055,304.73966666666666,315.1795,314.141,21.9595,20.597,21.9222,21.4431,314.999998,314.999998,324.999988,324.999988,99.56108571428571,99.50755,99.56721428571429,99.54718571428572,0.16500000000000004,0.030333333333333323,-0.049833333333333396,0.18666666666666676,-0.04999999999999716,-0.04333333333332945,1.5469999999999997,1.5145,38.247,29.731,38.013999999999996,35.019,56.778999999999996,35.189,59.626,52.4875,54.650999999999996,34.292,58.2155,50.8105,53.781,33.816,58.138,50.218333333333334,-0.15749999999999997,0.0015000000000000568,0.10841,0.11288000000000001,0.0,211.86,211.91,208.73000000000002,208.73000000000002,0.0,0.0
16,0.0,0.0,0.0,1.0,1.0,0.0,0.0,1.0,0.0,100.0,1.0,1.1856,26.0,0.0,0.0,0.0,63.999999,0.0,26.0,26.0,26.0,26.0,0.1266666666666667,0.26439999999999997,-0.011300000000000001,292.862,-2.8066,-2.6096666666666666,-1.60175,-1.4533,-222.34,215.97,190.662625,0.0,0.0,0.0,0.0,0.032600000000000004,-5.498166666666667,-5.498166666666667,-0.5617,-0.7596666666666666,0.06866666666666665,0.15800000000000036,67.8,0.0742,-0.224425,-1.25,100.0,1.0,1.0,209.14333333333332,0.0,0.0,0.0,0.0,0.0,0.0,0.0,8864.9,0.0,55.0,5.0,244.05333333333334,0.0,0.0,0.0,0.0,0.0,0.0,1.0,0.0,0.8039999999999985,0.8039999999999985,0.0,0.0,0.0,55.0,616.79921,10000.0,85.000001,85.000001,85.000001,85.000001,395.0,0.0,0.0,0.0,1.0,333.33500000000004,52.78,52.78,47.867,47.867,34.0,-19.3775,29.496,-23.013333333333335,32.8775,0.0,1782.221,-0.9349999999999987,100.0,27.295,27.997,42.512,43.397,0.0,0.0,100.0,0.0,0.0,0.0,0.0,2916.285714285714,3280.0,3930.3333333333335,4180.4,306.061,304.4576666666667,315.24825,314.515,21.9688,20.6026,21.9327,21.4522,314.999998,314.999998,324.999988,324.999988,99.5611,99.50756666666666,99.56737142857143,99.54734285714285,0.1705000000000001,0.04499999999999993,-0.019000000000000017,0.21399999999999997,-0.041666666666671404,-0.05333333333332746,1.5585,1.5105,38.305,29.7665,38.079,35.076499999999996,56.763,35.2305,59.6655,52.554,54.635999999999996,34.331,58.2525,50.8745,53.765,33.853,58.1715,50.281333333333336,-0.14549999999999996,-0.004999999999999893,0.10809500000000001,0.11167500000000001,0.0,212.25,212.325,209.14333333333332,209.14333333333332,0.0,0.0
17,0.0,0.0,0.0,1.0,1.0,0.0,0.0,1.0,0.0,100.0,1.0,1.1856,26.0,0.0,0.0,0.0,63.999999,0.0,26.0,26.0,26.0,26.0,0.1213333333333333,0.2814000000000001,-0.0034666666666666665,292.572,-2.7678,-2.5629999999999997,-1.6394000000000002,-1.4745,-218.88,215.95499999999998,190.64,0.0,0.0,0.0,0.0,0.0346,-5.498166666666667,-5.498166666666667,-0.5509000000000001,0.537,0.046666666666666634,-0.7279999999999998,67.939,0.08030000000000001,-0.20635,-1.1339999999999995,100.0,1.0,1.0,209.56333333333333,0.0,0.0,0.0,0.0,0.0,0.0,0.0,8882.6,0.0,55.0,5.0,244.55,1.0,0.0,0.0,0.0,0.0,0.0,1.0,0.0,0.8550000000000004,0.8550000000000004,0.0,0.0,1.0,55.0,616.79921,10000.0,85.000001,85.000001,85.000001,85.000001,395.0,0.0,0.0,0.0,1.0,333.33500000000004,52.505,52.505,47.943,47.943,34.0,-20.1025,26.958,-26.066666666666663,32.695,0.0,1782.172,-0.9849999999999994,100.0,27.664,28.391,42.176,43.431,0.0,0.0,100.0,0.0,0.0,0.0,0.0,3089.0,3070.6,4225.444444444444,4235.6,305.6395,304.967,314.71925,314.399,21.9786,20.6084,21.943,21.4613,314.999998,314.999998,324.999988,324.999988,99.56112857142857,99.50756666666666,99.5675,99.54747142857143,0.17425000000000024,0.040999999999999925,-0.029166666666666563,0.19466666666666677,-0.041666666666671404,-0.061666666666667425,1.5419999999999998,1.5084999999999997,38.366,29.802500000000002,38.144,35.132999999999996,56.754000000000005,35.269,59.698499999999996,52.612,54.626999999999995,34.3665,58.283,50.9305,53.754999999999995,33.8875,58.199,50.336,-0.15649999999999986,-0.0024999999999999467,0.11038,0.09688000000000001,0.0,212.71,212.805,209.56333333333333,209.56333333333333,0.0,0.0
18,0.0,0.0,0.0,1.0,1.0,0.0,0.0,1.0,0.0,100.0,1.0,1.1856,26.0,0.0,0.0,0.0,63.999999,0.0,26.0,26.0,26.0,26.0,0.13688888888888884,0.26970000000000005,-0.05196666666666667,292.557,-2.8001,-2.5344444444444445,-1.6574,-1.4203999999999999,-215.62,215.945,190.618875,0.0,0.0,0.0,0.0,0.036500000000000005,-5.498166666666667,-5.498166666666667,-0.5581,-0.5593333333333333,0.07366666666666677,-0.01699999999999946,68.069,0.0825,-0.22045,-1.234,100.0,1.0,1.0,209.95333333333332,0.0,0.0,0.0,0.0,0.0,0.0,0.0,8899.1,0.0,55.0,5.0,245.02333333333334,0.0,0.0,0.0,0.0,0.0,0.0,1.0,0.0,0.9029999999999987,0.9029999999999987,0.0,0.0,0.0,55.0,616.79921,10000.0,85.000001,85.000001,85.000001,85.000001,395.0,0.0,0.0,0.0,1.0,333.33500000000004,52.505,52.505,47.714,47.714,34.0,-19.447499999999998,29.076,-24.306666666666665,32.065,0.0,1782.123,-1.1999999999999993,100.0,27.453,28.228,42.538,43.875,0.0,0.0,100.0,0.0,0.0,0.0,0.0,3038.142857142857,3253.6,4047.6666666666665,4179.8,305.831,304.47066666666666,315.0635,314.49925,21.9875,20.6137,21.9529,21.4701,314.999998,314.999998,324.999988,324.999988,99.56114285714285,99.50756666666666,99.56764285714286,99.54761428571429,0.1865000000000001,0.055333333333333234,-0.014666666666666606,0.20450000000000013,-0.041666666666671404,-0.036666666666668846,1.5524999999999998,1.4954999999999998,38.422,29.8355,38.206,35.188,56.742999999999995,35.3065,59.7345,52.6725,54.617000000000004,34.400999999999996,58.3165,50.989,53.742999999999995,33.920500000000004,58.2295,50.39333333333333,-0.17100000000000004,0.008999999999999897,0.10434,0.11230000000000001,0.0,213.06,213.15,209.95333333333332,209.95333333333332,0.0,0.0
19,0.0,0.0,0.0,1.0,1.0,0.0,0.0,1.0,0.0,100.0,1.0,1.1856,26.0,0.0,0.0,0.0,63.999999,0.0,26.0,26.0,26.0,26.0,0.17188888888888898,0.2855000000000001,0.046200000000000005,291.916,-2.7211,-2.5203333333333333,-1.67475,-1.3998,-211.94,215.935,190.595,0.0,0.0,0.0,0.0,0.03866666666666667,-5.498166666666667,-5.498166666666667,-0.5499,0.8063333333333333,0.08533333333333326,-0.577,68.215,0.0921,-0.211325,-1.6320000000000006,100.0,1.0,1.0,210.36666666666667,0.0,0.0,0.0,0.0,0.0,0.0,0.0,8916.7,0.0,55.0,5.0,245.54333333333335,1.0,0.0,0.0,0.0,0.0,0.0,1.0,0.0,0.9570000000000007,0.9570000000000007,0.0,0.0,1.0,55.0,616.79921,10000.0,85.000001,85.000001,85.000001,85.000001,395.0,0.0,0.0,0.0,1.0,166.665,51.666,51.666,47.455,47.455,34.0,-17.8075,30.914,-25.133333333333333,34.86,0.0,1782.071,-1.5650000000000013,100.0,27.913,28.815,42.275,43.891999999999996,0.0,0.0,100.0,0.0,0.0,0.0,0.0,3104.857142857143,3333.2,4198.444444444444,4433.9,305.4565,304.09433333333334,314.7645,313.925,21.997799999999998,20.6199,21.9639,21.4798,314.999998,314.999998,324.999988,324.999988,99.56117142857143,99.50758333333333,99.5678,99.54777142857142,0.22075000000000022,0.07733333333333325,-0.006166666666666654,0.21799999999999997,-0.03333333333333144,-0.04333333333332945,1.552,1.484,38.486000000000004,29.874499999999998,38.274,35.2485,56.735,35.353,59.771,52.7395,54.608999999999995,34.4445,58.35,51.0535,53.733999999999995,33.9625,58.26,50.45733333333334,-0.2015,0.03400000000000003,0.10442000000000001,0.10161,0.0,213.54500000000002,213.66500000000002,210.36666666666667,210.36666666666667,0.0,0.0
20,0.0,0.0,0.0,1.0,1.0,0.0,0.0,1.0,0.0,100.0,1.0,1.1856,26.0,0.0,0.0,0.0,63.999999,0.0,26.0,26.0,26.0,26.0,0.19333333333333336,0.26960000000000006,-0.049600000000000005,292.297,-2.8266999999999998,-2.577888888888889,-1.6092,-1.4022000000000001,-208.66,215.9325,190.574,0.0,0.0,0.0,0.0,0.04056666666666667,-5.498166666666667,-5.498166666666667,-0.5522,-1.0536666666666668,0.09577777777777774,-0.5220000000000002,68.346,0.1067,-0.22060000000000002,-2.0119999999999996,100.0,1.0,1.0,210.65666666666667,0.0,0.0,0.0,0.0,0.0,0.0,0.0,8929.0,0.0,55.0,5.0,246.01666666666665,0.0,0.0,0.0,0.0,0.0,0.0,0.0,0.0,1.004999999999999,1.004999999999999,0.0,0.0,0.0,55.0,616.79921,10000.0,85.000001,85.000001,85.000001,85.000001,395.0,0.0,0.0,0.0,1.0,333.33500000000004,52.872,52.872,46.829,46.829,34.0,-15.96,30.33,-22.85,36.43,0.0,1782.022,-1.7049999999999983,100.0,27.359,28.547,42.747,44.365,0.0,0.0,100.0,0.0,0.0,0.0,0.0,2793.4285714285716,3162.4,4162.666666666667,4428.6,306.532,304.6526666666667,314.69975,313.84375,22.0065,20.6253,21.9738,21.488599999999998,314.999998,314.999998,324.999988,324.999988,99.5612,99.50758333333333,99.56792857142857,99.54791428571428,0.23475000000000001,0.09600000000000009,0.019500000000000073,0.2403333333333333,-0.01666666666666572,-0.04999999999999716,1.517,1.4419999999999997,38.541,29.908,38.336,35.3035,56.724000000000004,35.393,59.808,52.8015,54.598,34.4815,58.3845,51.1135,53.722,33.998,58.2915,50.516,-0.21199999999999997,0.05400000000000005,0.10342000000000001,0.10659500000000001,0.0,213.88,214.055,210.65666666666667,210.65666666666667,0.0,0.0
21,0.0,0.0,0.0,1.0,1.0,0.0,0.0,1.0,0.0,100.0,1.0,1.1856,26.0,0.0,0.0,0.0,63.999999,0.0,26.0,26.0,26.0,26.0,0.1948888888888889,0.28510000000000013,-0.07953333333333334,292.648,-2.7517,-2.6215555555555556,-1.679,-1.4712,-205.38,215.935,190.55225,0.0,0.0,0.0,0.0,0.04246666666666667,-5.498166666666667,-5.498166666666667,-0.5801000000000001,0.4486666666666667,0.08288888888888879,-1.0869999999999997,68.469,0.1255,-0.22765000000000002,-1.8499999999999996,100.0,1.0,1.0,211.32333333333332,0.0,0.0,0.0,0.0,0.0,0.0,0.0,8957.2,0.0,55.0,5.0,246.46333333333334,1.0,0.0,0.0,0.0,0.0,0.0,0.0,0.0,1.0530000000000008,1.0530000000000008,0.0,0.0,1.0,55.0,616.79921,10000.0,85.000001,85.000001,85.000001,85.000001,395.0,0.0,0.0,0.0,1.0,333.33500000000004,52.139,52.139,48.355000000000004,48.355000000000004,34.0,-19.115,29.482,-20.79,33.74,0.0,1781.973,-0.6699999999999982,100.0,27.571,28.767,42.072,44.0,0.0,0.0,100.0,0.0,0.0,0.0,0.0,3028.285714285714,3212.8,3879.777777777778,4052.0,305.7475,304.41633333333334,315.54025,314.83875,22.0154,20.6308,21.9833,21.4971,314.999998,314.999998,324.999988,324.999988,99.56121428571429,99.5076,99.56805714285714,99.54805714285715,0.18500000000000005,0.05033333333333334,0.030333333333333323,0.25716666666666677,-0.06499999999999773,-0.05833333333333002,1.6435,1.5604999999999998,38.596000000000004,29.9425,38.396,35.357,56.715,35.435,59.8375,52.859,54.589,34.5205,58.411500000000004,51.1685,53.712,34.0355,58.3155,50.57033333333334,-0.137,-0.016999999999999904,0.10420000000000001,0.102235,0.0,214.325,214.46,211.32333333333332,211.32333333333332,0.0,0.0
22,0.0,0.0,0.0,1.0,1.0,0.0,0.0,1.0,0.0,100.0,1.0,1.1856,26.0,0.0,0.0,0.0,63.999999,0.0,26.0,26.0,26.0,26.0,0.14611111111111108,0.26150000000000007,0.022933333333333337,292.007,-2.7207,-2.6366666666666667,-1.6595,-1.5242,-201.88,215.94,190.528375,0.0,0.0,0.0,0.0,0.044500000000000005,-5.498166666666667,-5.498166666666667,-0.557,0.14766666666666667,0.0754444444444442,0.8340000000000005,68.608,0.12290000000000001,-0.20685,-0.6799999999999997,100.0,1.0,1.0,211.51333333333332,0.0,0.0,0.0,0.0,0.0,0.0,0.0,8965.3,0.0,55.0,5.0,246.96333333333334,0.0,0.0,0.0,0.0,0.0,0.0,0.0,0.0,1.1039999999999992,1.1039999999999992,0.0,0.0,0.0,55.0,616.79921,10000.0,85.000001,85.000001,85.000001,85.000001,395.0,0.0,0.0,0.0,1.0,333.33500000000004,52.155,52.155,47.073,47.073,34.0,-19.7775,27.686,-23.836666666666666,37.3425,0.0,1781.921,0.48499999999999943,100.0,27.922,28.654,42.683,44.128,0.0,0.0,100.0,0.0,0.0,0.0,0.0,2861.4285714285716,3268.5,4149.777777777777,4384.1,306.0135,304.3793333333333,314.75875,314.027,22.0248,20.6366,21.9938,21.5064,314.999998,314.999998,324.999988,324.999988,99.56124285714286,99.5076,99.56821428571429,99.54821428571428,0.1379999999999999,-0.004666666666666597,0.014333333333333309,0.2366666666666668,-0.030000000000001137,-0.060000000000002274,1.495,1.459,38.655,29.979,38.461,35.415,56.702,35.4775,59.878,52.9275,54.577,34.5595,58.4495,51.235,53.698,34.073499999999996,58.3495,50.635333333333335,-0.050000000000000044,-0.11050000000000004,0.09724000000000001,0.11057000000000002,0.0,214.76999999999998,214.85500000000002,211.51333333333332,211.51333333333332,0.0,0.0
23,0.0,0.0,0.0,1.0,1.0,0.0,0.0,1.0,0.0,100.0,1.0,1.1856,26.0,0.0,0.0,0.0,63.999999,0.0,26.0,26.0,26.0,26.0,0.06533333333333324,0.2553000000000001,-0.03676666666666667,292.023,-2.7321,-2.6074444444444445,-1.56445,-1.5615999999999999,-198.38,215.95,190.505,0.0,0.0,0.0,0.0,0.046533333333333336,-5.498166666666667,-5.498166666666667,-0.5758,-0.30233333333333334,0.04699999999999993,-1.267,68.742,0.0787,-0.2343,0.5439999999999996,100.0,1.0,1.0,212.01666666666665,0.0,0.0,0.0,0.0,0.0,0.0,0.0,8986.6,0.0,55.0,5.0,247.44666666666666,1.0,0.0,0.0,0.0,0.0,0.0,0.0,0.0,1.1550000000000011,1.1550000000000011,0.0,0.0,1.0,55.0,616.79921,10000.0,85.000001,85.000001,85.000001,85.000001,395.0,0.0,0.0,0.0,1.0,166.665,51.650999999999996,51.650999999999996,47.958,47.958,34.0,-25.645,24.546,-25.123333333333335,30.43,0.0,1781.873,0.7950000000000017,100.0,28.082,28.709,42.935,44.317,0.0,0.0,100.0,0.0,0.0,0.0,0.0,3315.5714285714284,3134.4,3984.777777777778,4014.7,304.9795,304.70666666666665,315.148,314.79675,22.0343,20.6424,22.0043,21.5157,314.999998,314.999998,324.999988,324.999988,99.56125714285714,99.50761666666666,99.56835714285714,99.54835714285714,0.08625000000000016,-0.04466666666666663,-0.058666666666666645,0.16516666666666668,-0.045000000000001705,-0.03833333333332689,1.5019999999999998,1.5455,38.715,30.015,38.527,35.4735,56.688,35.5145,59.9125,52.987,54.563,34.594,58.481,51.292500000000004,53.684,34.1065,58.3785,50.69166666666666,-0.022499999999999964,-0.1419999999999999,0.11332,0.10463000000000001,0.0,215.22500000000002,215.185,212.01666666666665,212.01666666666665,0.0,0.0
24,0.0,0.0,0.0,1.0,1.0,0.0,0.0,1.0,0.0,100.0,1.0,1.1856,26.0,0.0,0.0,0.0,63.999999,0.0,26.0,26.0,26.0,26.0,-0.01244444444444448,0.27960000000000007,-0.0012000000000000001,292.374,-2.7263,-2.6470000000000002,-1.5829,-1.5286,-195.07999999999998,215.96,190.482625,0.0,0.0,0.0,0.0,0.04846666666666667,-5.498166666666667,-5.498166666666667,-0.5776,-0.4373333333333333,0.026999999999999913,-0.5709999999999997,68.87,0.0261,-0.21585000000000001,1.0520000000000014,100.0,1.0,1.0,212.34,0.0,0.0,0.0,0.0,0.0,0.0,0.0,9000.3,0.0,55.0,5.0,247.90333333333334,0.0,0.0,0.0,0.0,0.0,0.0,0.0,0.0,1.2029999999999994,1.2029999999999994,0.0,0.0,0.0,55.0,616.79921,10000.0,85.000001,85.000001,85.000001,85.000001,395.0,0.0,0.0,0.0,1.0,333.33500000000004,52.887,52.887,47.073,47.073,34.0,-24.1275,21.158,-31.5,28.1625,0.0,1781.824,0.870000000000001,100.0,28.005,28.248,43.117000000000004,43.894,0.0,0.0,100.0,0.0,0.0,0.0,0.0,2967.714285714286,2909.2,4377.222222222223,4087.6000000000004,305.9505,305.50866666666667,314.239,314.74225,22.0433,20.6476,22.0142,21.5243,314.999998,314.999998,324.999988,324.999988,99.56125714285714,99.50761666666666,99.56848571428571,99.5485,0.047250000000000014,-0.08499999999999996,-0.11399999999999999,0.11749999999999994,-0.05333333333332746,-0.03166666666666629,1.4994999999999998,1.532,38.769999999999996,30.0475,38.589,35.527,56.672,35.551,59.9475,53.0435,54.548,34.6275,58.513999999999996,51.3465,53.668,34.138999999999996,58.408,50.745,-0.010000000000000009,-0.1459999999999999,0.10644,0.114015,0.0,215.65,215.555,212.34,212.34,0.0,0.0
25,0.0,0.0,0.0,1.0,1.0,0.0,0.0,1.0,0.0,100.0,1.0,1.1856,26.0,0.0,0.0,0.0,63.999999,0.0,26.0,26.0,26.0,26.0,-0.06566666666666665,0.26780000000000004,-0.07863333333333335,292.389,-2.7628,-2.641111111111111,-1.57155,-1.5556,-191.56,215.97,190.45725,0.0,0.0,0.0,0.0,0.0505,-5.498166666666667,-5.498166666666667,-0.6135,-0.09966666666666667,0.004555555555555646,-0.5449999999999999,69.002,-0.0275,-0.2278,1.3079999999999998,100.0,1.0,1.0,212.89666666666668,0.0,0.0,0.0,0.0,0.0,0.0,0.0,9023.8,0.0,55.0,5.0,248.38,1.0,0.0,0.0,0.0,0.0,0.0,0.0,0.0,1.2540000000000013,1.2540000000000013,0.0,0.0,1.0,55.0,616.79921,10000.0,85.000001,85.000001,85.000001,85.000001,395.0,0.0,0.0,0.0,1.0,333.33500000000004,51.987,51.987,47.974000000000004,47.974000000000004,34.0,-28.252499999999998,22.628,-29.46,25.2425,0.0,1781.772,0.8500000000000014,100.0,28.209,28.07,43.219,43.272,0.0,0.0,100.0,0.0,0.0,0.0,0.0,3214.0,3278.1,3966.777777777778,3972.5,305.208,304.524,315.237,315.0835,22.0528,20.6532,22.0245,21.5333,314.999998,314.999998,324.999988,324.999988,99.56127142857143,99.50763333333333,99.56862857142858,99.54864285714285,0.014750000000000263,-0.1163333333333334,-0.15249999999999997,0.07633333333333336,-0.041666666666671404,-0.060000000000002274,1.548,1.5915,38.83,30.0825,38.653,35.5835,56.653,35.592,59.983000000000004,53.1005,54.53,34.666,58.5465,51.4015,53.649,34.1755,58.4375,50.79866666666666,-0.008999999999999897,-0.1495000000000002,0.106925,0.11169000000000001,0.0,216.06,215.97,212.89666666666668,212.89666666666668,0.0,0.0
26,0.0,0.0,0.0,1.0,1.0,0.0,0.0,1.0,0.0,100.0,1.0,1.1856,26.0,0.0,0.0,0.0,63.999999,0.0,26.0,26.0,26.0,26.0,-0.11299999999999999,0.2662,0.0557,291.199,-2.6723,-2.7574444444444444,-1.58745,-1.5813000000000001,-188.04,215.97750000000002,190.4315,0.0,0.0,0.0,0.0,0.05253333333333334,-5.498166666666667,-5.498166666666667,-0.5716,0.8086666666666666,-0.052777777777778034,-1.3940000000000001,69.138,-0.0695,-0.1958,1.4700000000000006,100.0,1.0,1.0,213.06333333333333,0.0,0.0,0.0,0.0,0.0,0.0,0.0,9031.0,0.0,55.0,5.0,248.86666666666667,0.0,0.0,0.0,0.0,0.0,0.0,0.0,0.0,1.3049999999999997,1.3049999999999997,0.0,0.0,0.0,55.0,616.79921,10000.0,85.000001,85.000001,85.000001,85.000001,395.0,0.0,0.0,0.0,1.0,166.665,51.361,51.361,46.28,46.28,34.0,-29.28,20.381999999999998,-39.083333333333336,26.302500000000002,0.0,1781.723,0.6350000000000016,100.0,29.173000000000002,28.636,43.929,43.397999999999996,0.0,0.0,100.0,0.0,0.0,0.0,0.0,3345.857142857143,2974.3,4642.555555555556,4347.6,304.8185,305.1116666666667,313.70525,314.11775,22.0626,20.6589,22.0352,21.5425,314.999998,314.999998,324.999988,324.999988,99.56127142857143,99.50765,99.56878571428571,99.54878571428571,0.0030000000000001137,-0.1456666666666666,-0.1978333333333333,0.026999999999999913,-0.060000000000002274,-0.03833333333332689,1.4135,1.4819999999999998,38.891999999999996,30.118499999999997,38.72,35.6405,56.638,35.637,60.024,53.1605,54.516,34.707499999999996,58.585,51.4595,53.634,34.215,58.473,50.855000000000004,-0.035499999999999865,-0.133,0.103385,0.106575,0.0,216.55,216.4,213.06333333333333,213.06333333333333,0.0,0.0
27,0.0,0.0,0.0,1.0,1.0,0.0,0.0,1.0,0.0,100.0,1.0,1.1856,26.0,0.0,0.0,0.0,63.999999,0.0,26.0,26.0,26.0,26.0,-0.1123333333333334,0.2499,-0.012633333333333333,291.55,-2.6195,-2.744222222222222,-1.56215,-1.6682000000000001,-184.70999999999998,215.98250000000002,190.408375,0.0,0.0,0.0,0.0,0.05446666666666666,-5.498166666666667,-5.498166666666667,-0.5956,-1.099,-0.06899999999999995,-0.8499999999999996,69.263,-0.08660000000000001,-0.24180000000000001,1.3020000000000014,100.0,1.0,1.0,213.51,0.0,0.0,0.0,0.0,0.0,0.0,0.0,9049.9,0.0,55.0,5.0,249.32,1.0,0.0,0.0,0.0,0.0,0.0,0.0,0.0,1.352999999999998,1.352999999999998,0.0,0.0,1.0,55.0,616.79921,10000.0,85.000001,85.000001,85.000001,85.000001,395.0,0.0,0.0,0.0,1.0,333.33500000000004,51.758,51.758,46.677,46.677,34.0,-29.627499999999998,19.686,-35.519999999999996,24.052500000000002,0.0,1781.674,0.5700000000000003,100.0,28.986,28.234,44.845,43.799,0.0,0.0,100.0,0.0,0.0,0.0,0.0,3321.142857142857,2969.7,4239.0,4018.6000000000004,304.8745,305.27233333333334,314.56825,314.78275,22.0717,20.6641,22.0453,21.5513,314.999998,314.999998,324.999988,324.999988,99.56127142857143,99.50766666666667,99.56892857142857,99.54892857142858,-0.02124999999999999,-0.15533333333333332,-0.21599999999999997,0.005333333333333412,-0.03833333333332689,-0.03999999999999915,1.4655,1.5139999999999998,38.948,30.1505,38.783,35.695499999999996,56.622,35.6765,60.064499999999995,53.218,54.5,34.744,58.623,51.5145,53.617999999999995,34.25,58.507999999999996,50.90866666666666,-0.03499999999999992,-0.12199999999999989,0.10354500000000001,0.10512,0.0,216.845,216.72500000000002,213.51,213.51,0.0,0.0
28,0.0,0.0,0.0,1.0,1.0,0.0,0.0,1.0,0.0,100.0,1.0,1.1856,26.0,0.0,0.0,0.0,63.999999,0.0,26.0,26.0,26.0,26.0,-0.13222222222222213,0.2613000000000001,-0.044533333333333334,291.87,-2.6452999999999998,-2.7345555555555556,-1.50705,-1.6315,-180.97,215.985,190.3815,0.0,0.0,0.0,0.0,0.056666666666666664,-5.498166666666667,-5.498166666666667,-0.6001000000000001,0.683,-0.07600000000000007,-0.5679999999999996,69.4,-0.09670000000000001,-0.21432500000000002,1.232000000000001,100.0,1.0,1.0,214.05666666666667,0.0,0.0,0.0,0.0,0.0,0.0,0.0,9073.0,0.0,55.0,5.0,249.81333333333333,0.0,0.0,0.0,0.0,0.0,0.0,0.0,0.0,1.407,1.407,0.0,0.0,0.0,55.0,616.79921,10000.0,85.000001,85.000001,85.000001,85.000001,395.0,0.0,0.0,0.0,1.0,166.665,51.804,51.804,47.47,47.47,34.0,-30.16,18.919999999999998,-34.519999999999996,23.314999999999998,0.0,1781.621,0.39000000000000057,100.0,29.125,28.12,44.205,43.158,0.0,0.0,100.0,0.0,0.0,0.0,0.0,3336.714285714286,2918.2,4212.666666666667,4050.4,304.789,305.4153333333333,314.75525,314.8475,22.0821,20.6699,22.0562,21.5608,314.999998,314.999998,324.999988,324.999988,99.56128571428572,99.50768333333333,99.56908571428572,99.54908571428571,-0.022499999999999964,-0.16266666666666663,-0.22550000000000003,0.0024999999999999467,-0.04333333333332945,-0.04333333333332945,1.5179999999999998,1.5554999999999999,39.013,30.186999999999998,38.852000000000004,35.754999999999995,56.605000000000004,35.7225,60.1025,53.277,54.485,34.786,58.658500000000004,51.571,53.602000000000004,34.2905,58.5405,50.96333333333333,-0.04849999999999999,-0.11750000000000016,0.107825,0.107465,0.0,217.325,217.215,214.05666666666667,214.05666666666667,0.0,0.0
29,0.0,0.0,0.0,1.0,1.0,0.0,0.0,1.0,0.0,100.0,1.0,1.1856,26.0,0.0,0.0,0.0,63.999999,0.0,26.0,26.0,26.0,26.0,-0.129,0.2592000000000001,0.04246666666666667,291.458,-2.5856,-2.787888888888889,-1.5438,-1.6115,-177.64,215.985,190.356625,0.0,0.0,0.0,0.0,0.058600000000000006,-5.498166666666667,-5.498166666666667,-0.6043000000000001,-0.7293333333333334,-0.07311111111111135,-0.6129999999999995,69.526,-0.0949,-0.21507500000000002,0.9660000000000002,100.0,1.0,1.0,214.26666666666665,0.0,0.0,0.0,0.0,0.0,0.0,0.0,9082.0,0.0,55.0,5.0,250.26999999999998,1.0,0.0,0.0,0.0,0.0,0.0,0.0,0.0,1.4549999999999983,1.4549999999999983,0.0,0.0,1.0,55.0,616.79921,10000.0,85.000001,85.000001,85.000001,85.000001,395.0,0.0,0.0,0.0,1.0,333.33500000000004,51.727,51.727,46.402,46.402,34.0,-29.52,21.248,-36.47666666666666,24.4525,0.0,1781.572,0.28500000000000014,100.0,28.782,27.931,44.64,43.454,0.0,0.0,100.0,0.0,0.0,0.0,0.0,3384.5714285714284,3048.9,4361.555555555556,4156.2,304.721,304.9216666666667,314.2495,314.523,22.091,20.6751,22.0663,21.569499999999998,314.999998,314.999998,324.999988,324.999988,99.56128571428572,99.5077,99.56924285714285,99.54922857142857,-0.012499999999999956,-0.14533333333333331,-0.21299999999999997,0.010333333333333306,-0.04333333333332945,-0.041666666666671404,1.4529999999999998,1.504,39.069,30.219,38.914,35.8095,56.588,35.7615,60.1425,53.3335,54.469,34.822,58.696,51.625,53.585,34.325,58.575,51.016333333333336,-0.06099999999999994,-0.0990000000000002,0.10801500000000001,0.10817,0.0,217.67000000000002,217.595,214.26666666666665,214.26666666666665,0.0,0.0
30,0.0,0.0,0.0,1.0,1.0,0.0,0.0,1.0,0.0,100.0,1.0,1.1856,26.0,0.0,0.0,0.0,63.999999,0.0,26.0,26.0,26.0,26.0,-0.11011111111111105,0.27070000000000016,0.06566666666666666,291.10699999999997,-2.6377,-2.6785555555555556,-1.4856,-1.6674,-174.09,215.98000000000002,190.330125,0.0,0.0,0.0,0.0,0.06066666666666667,-5.498166666666667,-5.498166666666667,-0.6015,0.7886666666666666,-0.07144444444444442,0.8799999999999999,69.656,-0.08710000000000001,-0.215425,0.79,100.0,1.0,1.0,214.71666666666667,0.0,0.0,0.0,0.0,0.0,0.0,0.0,9101.1,0.0,55.0,5.0,250.73333333333335,0.0,0.0,0.0,0.0,0.0,0.0,1.0,0.0,1.5060000000000002,1.5060000000000002,0.0,0.0,0.0,55.0,616.79921,10000.0,85.000001,85.000001,85.000001,85.000001,395.0,0.0,0.0,0.0,1.0,166.665,50.934,50.934,46.906,46.906,34.0,-29.072499999999998,20.84,-33.57,26.8175,0.0,1781.522,0.120000000000001,100.0,29.785,28.496000000000002,44.555,43.345,0.0,0.0,100.0,0.0,0.0,0.0,0.0,3411.857142857143,3077.6,4292.888888888889,4234.3,304.4515,305.04966666666667,314.423,314.3785,22.1009,20.6808,22.0767,21.5787,314.999998,314.999998,324.999988,324.999988,99.56128571428572,99.50773333333333,99.56938571428572,99.54937142857143,0.020000000000000018,-0.1313333333333333,-0.1891666666666666,0.029166666666666785,-0.01666666666666572,-0.05833333333333002,1.479,1.5005000000000002,39.131,30.255,38.980000000000004,35.8665,56.575,35.806,60.1795,53.3915,54.456,34.8635,58.731,51.681,53.571,34.3645,58.607,51.071,-0.08450000000000002,-0.09250000000000025,0.09850500000000001,0.11449500000000001,0.0,218.075,218.04000000000002,214.71666666666667,214.71666666666667,0.0,0.0
31,0.0,0.0,0.0,1.0,1.0,0.0,0.0,1.0,0.0,100.0,1.0,1.1856,26.0,0.0,0.0,0.0,63.999999,0.0,26.0,26.0,26.0,26.0,-0.10255555555555551,0.25839999999999996,0.0021000000000000003,291.092,-2.7065,-2.756111111111111,-1.5734,-1.6595,-170.74,215.9725,190.305875,0.0,0.0,0.0,0.0,0.0626,-5.498166666666667,-5.498166666666667,-0.5890000000000001,-0.6463333333333334,-0.06199999999999983,0.5840000000000005,69.78,-0.0729,-0.2189,0.37600000000000033,100.0,1.0,1.0,215.00666666666666,0.0,0.0,0.0,0.0,0.0,0.0,0.0,9113.4,0.0,55.0,5.0,251.18,1.0,0.0,0.0,0.0,0.0,0.0,1.0,0.0,1.5539999999999985,1.5539999999999985,0.0,0.0,1.0,55.0,616.79921,10000.0,85.000001,85.000001,85.000001,85.000001,395.0,0.0,0.0,0.0,1.0,333.33500000000004,51.62,51.62,45.532,45.532,34.0,-26.5075,21.798,-35.53,27.955000000000002,0.0,1781.471,0.06500000000000128,100.0,29.387999999999998,28.554000000000002,45.19,43.967,0.0,0.0,100.0,0.0,0.0,0.0,0.0,3141.4285714285716,3074.8,4410.555555555556,4254.6,305.4365,305.05766666666665,314.11075,314.44525,22.11,20.6861,22.0869,21.5875,314.999998,314.999998,324.999988,324.999988,99.5613,99.50773333333333,99.56952857142858,99.54951428571428,0.027000000000000135,-0.1253333333333334,-0.17816666666666658,0.05016666666666669,-0.041666666666671404,-0.045000000000001705,1.4585,1.4765000000000001,39.187,30.288,39.043,35.922,56.558,35.8465,60.22,53.4495,54.441,34.9005,58.7685,51.7365,53.555,34.4,58.6415,51.125,-0.08349999999999991,-0.09100000000000019,0.10547000000000001,0.10794500000000001,0.0,218.435,218.39,215.00666666666666,215.00666666666666,0.0,0.0
32,0.0,0.0,0.0,1.0,1.0,0.0,0.0,1.0,0.0,100.0,1.0,1.1856,26.0,0.0,0.0,0.0,63.999999,0.0,26.0,26.0,26.0,26.0,-0.0838888888888889,0.2579,-0.055400000000000005,291.336,-2.6469,-2.6934444444444443,-1.6009,-1.5671,-167.18,215.9625,190.280125,0.0,0.0,0.0,0.0,0.06466666666666666,-5.498166666666667,-5.498166666666667,-0.6089,0.15833333333333335,-0.08611111111111125,-0.9219999999999997,69.906,-0.0574,-0.228525,0.4400000000000004,100.0,1.0,1.0,215.57333333333332,0.0,0.0,0.0,0.0,0.0,0.0,0.0,9137.3,0.0,55.0,5.0,251.63666666666666,0.0,0.0,0.0,0.0,0.0,0.0,1.0,0.0,1.6050000000000004,1.6050000000000004,0.0,0.0,0.0,55.0,616.79921,10000.0,85.000001,85.000001,85.000001,85.000001,395.0,0.0,0.0,0.0,1.0,333.33500000000004,51.224000000000004,51.224000000000004,46.738,46.738,34.0,-28.365000000000002,21.516,-33.553333333333335,25.1225,0.0,1781.421,0.015000000000000568,100.0,29.265,28.767,44.685,43.834,0.0,0.0,100.0,0.0,0.0,0.0,0.0,3402.285714285714,3020.9,4230.888888888889,4080.6000000000004,304.697,305.11,314.73975,314.8915,22.1196,20.6918,22.0973,21.5967,314.999998,314.999998,324.999988,324.999988,99.5613,99.50775,99.56968571428571,99.54965714285714,0.02925000000000022,-0.11099999999999999,-0.1795,0.05249999999999999,-0.04333333333332945,-0.061666666666667425,1.5350000000000001,1.553,39.248000000000005,30.323999999999998,39.108000000000004,35.979,56.543,35.888999999999996,60.256,53.5065,54.426,34.94,58.8025,51.791,53.54,34.438,58.672,51.178333333333335,-0.08299999999999996,-0.08050000000000024,0.11262000000000001,0.10534500000000001,0.0,218.825,218.81,215.57333333333332,215.57333333333332,0.0,0.0
33,0.0,0.0,0.0,1.0,1.0,0.0,0.0,1.0,0.0,100.0,1.0,1.1856,26.0,0.0,0.0,0.0,63.999999,0.0,26.0,26.0,26.0,26.0,-0.05888888888888888,0.2619,-0.022766666666666668,291.382,-2.6649,-2.722888888888889,-1.5685,-1.578,-163.82,215.9525,190.255125,0.0,0.0,0.0,0.0,0.06663333333333334,-5.498166666666667,-5.498166666666667,-0.6102000000000001,-0.366,-0.0733333333333337,0.1200000000000001,70.03,-0.0473,-0.214725,0.3279999999999994,100.0,1.0,1.0,215.81333333333333,0.0,0.0,0.0,0.0,0.0,0.0,0.0,9147.6,0.0,55.0,5.0,252.07999999999998,1.0,0.0,0.0,0.0,0.0,0.0,1.0,0.0,1.6529999999999987,1.6529999999999987,0.0,0.0,1.0,55.0,616.79921,10000.0,85.000001,85.000001,85.000001,85.000001,395.0,0.0,0.0,0.0,1.0,333.33500000000004,51.865,51.865,46.387,46.387,34.0,-25.9025,21.594,-33.83,27.35,0.0,1781.374,-0.09499999999999886,100.0,29.053,28.491,44.629,43.948,0.0,0.0,100.0,0.0,0.0,0.0,0.0,3226.4285714285716,2964.5,4347.222222222223,4254.2,305.27,305.33233333333334,314.385,314.35475,22.1286,20.697,22.1072,21.6054,314.999998,314.999998,324.999988,324.999988,99.5613,99.50776666666667,99.56982857142857,99.5498,0.04875000000000007,-0.10299999999999998,-0.16500000000000004,0.05899999999999994,-0.045000000000001705,-0.03499999999999659,1.4844999999999997,1.488,39.304,30.3565,39.17,36.033500000000004,56.528,35.9255,60.292500000000004,53.562,54.412,34.9735,58.8365,51.845,53.525,34.47,58.703,51.230333333333334,-0.09749999999999992,-0.06950000000000012,0.10568000000000001,0.11041000000000001,0.0,219.215,219.16,215.81333333333333,215.81333333333333,0.0,0.0
34,0.0,0.0,0.0,1.0,1.0,0.0,0.0,1.0,0.0,100.0,1.0,1.1856,26.0,0.0,0.0,0.0,63.999999,0.0,26.0,26.0,26.0,26.0,-0.041888888888888864,0.26160000000000005,-0.06513333333333333,291.824,-2.6792,-2.721222222222222,-1.60385,-1.5981,-160.03,215.94,190.225625,0.0,0.0,0.0,0.0,0.06883333333333334,-5.498166666666667,-5.498166666666667,-0.6438,-0.794,-0.039888888888889085,-0.09799999999999986,70.164,-0.0341,-0.22685000000000002,0.21799999999999997,100.0,1.0,1.0,216.32,0.0,0.0,0.0,0.0,0.0,0.0,0.0,9169.0,0.0,55.0,5.0,252.56666666666666,0.0,0.0,0.0,0.0,0.0,0.0,1.0,0.0,1.7070000000000007,1.7070000000000007,0.0,0.0,0.0,55.0,616.79921,10000.0,85.000001,85.000001,85.000001,85.000001,395.0,0.0,0.0,0.0,1.0,166.665,52.155,52.155,47.348,47.348,34.0,-25.3925,22.244,-31.169999999999998,27.3625,0.0,1781.32,-0.09499999999999886,100.0,28.722,28.193,44.312,44.024,0.0,0.0,100.0,0.0,0.0,0.0,0.0,3173.857142857143,2938.6,4087.6666666666665,4111.5,305.2515,305.357,315.00225,314.652,22.1386,20.7029,22.1182,21.6152,314.999998,314.999998,324.999988,324.999988,99.56131428571429,99.50778333333334,99.56998571428572,99.54995714285714,0.05750000000000011,-0.08266666666666656,-0.15349999999999997,0.07699999999999996,-0.045000000000001705,-0.054999999999999716,1.5150000000000001,1.5295,39.366,30.393,39.239000000000004,36.095,56.51,35.966,60.329,53.6245,54.394999999999996,35.010999999999996,58.871,51.905,53.507,34.506,58.734,51.289,-0.09349999999999992,-0.06499999999999995,0.104955,0.11103500000000001,0.0,219.595,219.57999999999998,216.32,216.32,0.0,0.0
35,0.0,0.0,0.0,1.0,1.0,0.0,0.0,1.0,0.0,100.0,1.0,1.1856,26.0,0.0,0.0,0.0,63.999999,0.0,26.0,26.0,26.0,26.0,-0.032777777777777795,0.25540000000000007,-0.06723333333333334,291.794,-2.7363,-2.658666666666667,-1.57375,-1.6058,-156.66,215.925,190.197375,0.0,0.0,0.0,0.0,0.0708,-5.498166666666667,-5.498166666666667,-0.6845,-0.454,-0.045333333333333226,-0.9479999999999995,70.28399999999999,-0.0222,-0.23025,0.09799999999999986,100.0,1.0,1.0,216.73666666666668,0.0,0.0,0.0,0.0,0.0,0.0,0.0,9186.6,0.0,55.0,5.0,252.99666666666667,1.0,0.0,0.0,0.0,0.0,0.0,1.0,0.0,1.754999999999999,1.754999999999999,0.0,0.0,1.0,55.0,616.79921,10000.0,85.000001,85.000001,85.000001,85.000001,395.0,0.0,0.0,0.0,1.0,333.33500000000004,51.666,51.666,46.951,46.951,34.0,-26.875,24.227999999999998,-29.683333333333334,26.94,0.0,1781.271,-0.07000000000000028,100.0,28.524,28.45,44.041,43.572,0.0,0.0,100.0,0.0,0.0,0.0,0.0,3263.0,3242.2,4084.222222222222,3951.1000000000004,305.211,304.46366666666665,314.95225,315.088,22.1473,20.7082,22.128,21.6237,314.999998,314.999998,324.999988,324.999988,99.56132857142858,99.50778333333334,99.57012857142857,99.5501,0.04899999999999993,-0.08366666666666656,-0.13316666666666666,0.09516666666666684,-0.04999999999999716,-0.054999999999999716,1.5455,1.5505,39.421,30.426499999999997,39.3,36.1485,56.492000000000004,36.003,60.3615,53.677,54.378,35.045500000000004,58.900999999999996,51.9555,53.489999999999995,34.539,58.7615,51.338,-0.08349999999999991,-0.07750000000000012,0.10899,0.11389500000000001,0.0,219.95499999999998,219.95,216.73666666666668,216.73666666666668,0.0,0.0
