,ABS Active,ABS Enabled,AID Allow Tire Blankets,AID Auto Blip,AID Auto Clutch,AID Auto Shift,AID Fuel Rate,AID Ideal Line,AID Mech Damage,AID Stability,AID Tire Wear Rate,Air Density,Air Temp,Ballast,Best Lap Delta,Best Lap Time,Brake Bias,Brake Pos,Brake Temp FL,Brake Temp FR,Brake Temp RL,Brake Temp RR,CG Accel Lateral,CG Accel Longitudinal,CG Accel Vertical,CG Height,Camber FL,Camber FR,Camber RL,Camber RR,Car Coord X,Car Coord Y,Car Coord Z,Car Damage Front,Car Damage Left,Car Damage Rear,Car Damage Right,Car Pos Norm,Caster FL,Caster FR,Chassis Pitch Angle,Chassis Pitch Rate,Chassis Roll Angle,Chassis Roll Rate,Chassis Velocity X,Chassis Velocity Y,Chassis Velocity Z,Chassis Yaw Rate,Clutch Pos,DRS Active,DRS Available,Drive Train Speed,ERS Heat Charging,ERS Is Charging,ERS Max Energy,ERS Power Level,ERS Recovery Level,Engine Brake Setting,Engine Limiter,Engine RPM,Flags,Fuel Level,Gear,Ground Speed,HR Sample Clock,In Pit,KERS Charge,KERS Deployed Energy,KERS Input,KERS Max Energy,LR Sample Clock,Lap Invalidated,Lap Time,Lap Time2,Last Lap Time,Last Sector Time,MR Sample Clock,Max Fuel,Max Power,Max RPM,Max Sus Travel FL,Max Sus Travel FR,Max Sus Travel RL,Max Sus Travel RR,Max Torque,Max Turbo Boost,Num Tires Off Track,Penalties Enabled,Position,Raw Data Sample Rate,Ride Height FL,Ride Height FR,Ride Height RL,Ride Height RR,Road Temp,Self Align Torque FL,Self Align Torque FR,Self Align Torque RL,Self Align Torque RR,Session Lap Count,Session Time Left,Steering Angle,Surface Grip,Suspension Travel FL,Suspension Travel FR,Suspension Travel RL,Suspension Travel RR,TC Active,TC Enabled,Throttle Pos,Tire Dirt Level FL,Tire Dirt Level FR,Tire Dirt Level RL,Tire Dirt Level RR,Tire Load FL,Tire Load FR,Tire Load RL,Tire Load RR,Tire Loaded Radius FL,Tire Loaded Radius FR,Tire Loaded Radius RL,Tire Loaded Radius RR,Tire Pressure FL,Tire Pressure FR,Tire Pressure RL,Tire Pressure RR,Tire Radius FL,Tire Radius FR,Tire Radius RL,Tire Radius RR,Tire Rubber Grip FL,Tire Rubber Grip FR,Tire Rubber Grip RL,Tire Rubber Grip RR,Tire Slip Angle FL,Tire Slip Angle FR,Tire Slip Angle RL,Tire Slip Angle RR,Tire Slip Ratio FL,Tire Slip Ratio FR,Tire Slip Ratio RL,Tire Slip Ratio RR,Tire Temp Core FL,Tire Temp Core FR,Tire Temp Core RL,Tire Temp Core RR,Tire Temp Inner FL,Tire Temp Inner FR,Tire Temp Inner RL,Tire Temp Inner RR,Tire Temp Middle FL,Tire Temp Middle FR,Tire Temp Middle RL,Tire Temp Middle RR,Tire Temp Outer FL,Tire Temp Outer FR,Tire Temp Outer RL,Tire Temp Outer RR,Toe In FL,Toe In FR,Toe In RL,Toe In RR,Turbo Boost,Wheel Angular Speed FL,Wheel Angular Speed FR,Wheel Angular Speed RL,Wheel Angular Speed RR,Wind Direction,Wind Speed
0,0.0,1.0,0.0,1.0,1.0,0.0,0.0,1.0,0.0,100.0,1.0,1.1856,26.0,0.0,0.0,0.0,59.99999,0.0,26.0,26.0,26.0,26.0,-0.07750000000000001,0.3036000000000001,0.023433333333333334,294.464,-2.7143,-2.6754,-1.5030000000000001,-1.5615,-275.49,216.285,190.986875,0.0,0.0,0.0,0.0,0.0016999999999999238,-5.498166666666667,-5.498166666666667,-0.5482,1.1516666666666668,-0.020333333333333314,-1.3239999999999998,65.574,-0.054,-0.21255000000000002,1.032,100.0,1.0,1.0,202.50333333333333,0.0,0.0,0.0,0.0,0.0,0.0,0.0,8583.4,0.0,55.0,5.0,236.0366666666667,0.0,0.0,0.0,0.0,0.0,0.0,0.0,0.0,0.006000000000000227,0.006000000000000227,0.0,0.0,0.0,55.0,616.79921,10000.0,85.0,85.0,85.0,85.0,395.0,0.0,0.0,0.0,1.0,20.0,53.101,53.101,49.973,49.973,34.0,-26.7875,22.688333333333333,-30.556666666666665,23.3975,0.0,1783.686,0.7699999999999996,100.0,27.188,26.633,40.249,40.047,0.0,1.0,100.0,0.0,0.0,0.0,0.0,3013.4285714285716,3326.5,4098.888888888889,3870.7,305.751,304.1645,314.9055,315.136,21.8216,20.507,21.7293,21.2723,314.99999,314.99999,324.99998,324.99998,99.56155714285714,99.50708333333333,99.56364285714285,99.54358571428571,-0.0129999999999999,-0.133,-0.17433333333333334,0.051666666666666666,-0.06333333333333258,-0.04999999999999716,1.5643333333333334,1.5865,37.385,29.169,36.808,33.952,57.224999999999994,34.351,58.543,51.0405,55.057,33.527,57.198,49.433,54.178,33.089,57.173,48.87233333333333,-0.02300000000000002,-0.135,0.10152000000000001,0.11129000000000001,0.0,205.515,205.39,202.50333333333333,202.50333333333333,190.01251,21.04372
1,0.0,1.0,0.0,1.0,1.0,0.0,0.0,1.0,0.0,100.0,1.0,1.1856,26.0,0.0,0.0,0.0,59.999996,0.0,26.0,26.0,26.0,26.0,-0.116375,0.30810000000000004,0.03863333333333333,293.457,-2.6264,-2.7842000000000002,-1.5095,-1.5558,-272.14,216.28,190.96675,0.0,0.0,0.0,0.0,0.003666666666666596,-5.498166666666667,-5.498166666666667,-0.5019,-0.49133333333333334,-0.06622222222222218,-0.4099999999999999,65.731,-0.06960000000000001,-0.201625,1.386000000000001,100.0,1.0,1.0,202.63,0.0,0.0,0.0,0.0,0.0,0.0,0.0,8588.8,0.0,55.0,5.0,236.60000000000002,1.0,0.0,0.0,0.0,0.0,0.0,0.0,0.0,0.05699999999999861,0.05699999999999861,0.0,0.0,1.0,55.0,616.79921,10000.0,85.000001,85.000001,85.000001,85.000001,395.0,0.0,0.0,0.0,1.0,333.33500000000004,53.879,53.879,48.828,48.828,34.0,-27.009999999999998,17.84166666666667,-34.68,28.0075,0.0,1783.635,0.8350000000000009,100.0,27.476,26.624,42.26,41.173,0.0,1.0,100.0,0.0,0.0,0.0,0.0,3047.0,2669.9,4323.111111111111,4677.8,305.4835,306.324,314.2305,313.191,21.8318,20.5121,21.74,21.2813,314.999998,314.999998,324.999988,324.999988,99.56157142857143,99.5071,99.5638,99.54372857142857,-0.022666666666666613,-0.1459999999999999,-0.19533333333333336,0.02316666666666667,-0.04999999999999716,-0.03833333333332689,1.424,1.4755000000000003,37.449,29.200499999999998,36.875,34.007999999999996,57.207,34.391999999999996,58.59,51.1065,55.04,33.565,57.242,49.4965,54.161,33.1255,57.2145,48.934666666666665,-0.006000000000000005,-0.137,0.0989,0.1067,0.0,205.96,205.82999999999998,202.63,202.63,190.012512,21.04372
2,0.0,1.0,0.0,1.0,1.0,0.0,0.0,1.0,0.0,100.0,1.0,1.1856,26.0,0.0,0.0,0.0,59.999996,0.0,26.0,26.0,26.0,26.0,-0.12324999999999997,0.28290000000000015,-0.020966666666666668,294.113,-2.6014,-2.805,-1.4787,-1.6082,-268.78,216.2725,190.947875,0.0,0.0,0.0,0.0,0.005599999999999938,-5.498166666666667,-5.498166666666667,-0.5497000000000001,0.09933333333333333,-0.05411111111111122,1.807,65.875,-0.08750000000000001,-0.25327500000000003,1.6140000000000008,100.0,1.0,1.0,203.55666666666667,0.0,0.0,0.0,0.0,0.0,0.0,0.0,8628.1,0.0,55.0,5.0,237.12,0.0,0.0,0.0,0.0,0.0,0.0,0.0,0.0,0.10800000000000054,0.10800000000000054,0.0,0.0,0.0,55.0,616.79921,10000.0,85.000001,85.000001,85.000001,85.000001,395.0,0.0,0.0,0.0,1.0,333.33500000000004,52.811,52.811,50.629,50.629,34.0,-30.64,19.17666666666667,-29.446666666666665,19.7775,0.0,1783.583,0.7199999999999989,100.0,28.06,26.697,42.214,40.884,0.0,1.0,100.0,0.0,0.0,0.0,0.0,3361.4285714285716,2880.5,3727.8888888888887,3681.0,304.6195,305.629,315.6935,315.75375,21.8421,20.5169,21.7504,21.2899,314.999998,314.999998,324.999988,324.999988,99.56157142857143,99.50713333333333,99.56392857142858,99.54385714285715,-0.03833333333333311,-0.15966666666666662,-0.23583333333333334,0.0006666666666666666,-0.04999999999999716,-0.051666666666669414,1.6443333333333334,1.6945000000000001,37.513,29.2305,36.94,34.0615,57.193,34.431,58.6295,51.164500000000004,55.027,33.601,57.278999999999996,49.552,54.146,33.16,57.249,48.989,-0.021499999999999964,-0.12850000000000006,0.10330500000000001,0.11619000000000002,0.0,206.42000000000002,206.265,203.55666666666667,203.55666666666667,190.012512,21.04372
3,0.0,1.0,0.0,1.0,1.0,0.0,0.0,1.0,0.0,100.0,1.0,1.1856,26.0,0.0,0.0,0.0,59.999996,0.0,26.0,26.0,26.0,26.0,-0.12724999999999997,0.3026,-0.02796666666666667,293.9,-2.7237,-2.7041,-1.4993,-1.5933,-265.62,216.26,190.929375,0.0,0.0,0.0,0.0,0.007433333333333292,-5.498166666666667,-5.498166666666667,-0.5114000000000001,0.4526666666666667,-0.02011111111111097,-1.029,66.02,-0.1009,-0.20372500000000002,1.234,100.0,1.0,1.0,203.7,0.0,0.0,0.0,0.0,0.0,0.0,0.0,8634.1,0.0,55.0,5.0,237.64,1.0,0.0,0.0,0.0,0.0,0.0,0.0,0.0,0.1559999999999988,0.1559999999999988,0.0,0.0,1.0,55.0,616.79921,10000.0,85.000001,85.000001,85.000001,85.000001,395.0,0.0,0.0,0.0,1.0,333.33500000000004,53.986,53.986,48.644999999999996,48.644999999999996,34.0,-26.3875,17.346666666666668,-35.303333333333335,23.9175,0.0,1783.536,0.6099999999999994,100.0,27.658,26.734,42.034,40.991,0.0,1.0,100.0,0.0,0.0,0.0,0.0,2858.4285714285716,2741.9,4316.0,4161.5,306.1375,305.90975,314.332,314.4685,21.8516,20.5217,21.7601,21.298099999999998,314.999998,314.999998,324.999988,324.999988,99.56158571428571,99.50713333333333,99.56407142857142,99.54398571428571,-0.04066666666666663,-0.16199999999999992,-0.22016666666666665,0.009166666666666667,-0.036666666666668846,-0.04999999999999716,1.4963333333333333,1.5335,37.572,29.2605,37.001000000000005,34.1135,57.175,34.471000000000004,58.6685,51.2245,55.01,33.638,57.315,49.6095,54.129000000000005,33.195499999999996,57.2825,49.04533333333333,-0.025499999999999967,-0.11650000000000005,0.101525,0.11568500000000001,0.0,206.845,206.75,203.7,203.7,190.012512,21.04372
4,0.0,1.0,0.0,1.0,1.0,0.0,0.0,1.0,0.0,100.0,1.0,1.1856,26.0,0.0,0.0,0.0,59.999996,0.0,26.0,26.0,26.0,26.0,-0.14737500000000003,0.2894000000000001,-0.033433333333333336,294.083,-2.6505,-2.7607,-1.5110000000000001,-1.6024,-262.24,216.245,190.9095,0.0,0.0,0.0,0.0,0.009399999999999964,-5.498166666666667,-5.498166666666667,-0.546,-0.7433333333333334,-0.08711111111111114,-0.514,66.168,-0.1012,-0.238925,1.097999999999999,100.0,1.0,1.0,204.3,0.0,0.0,0.0,0.0,0.0,0.0,0.0,8659.6,0.0,55.0,5.0,238.17666666666668,0.0,0.0,0.0,0.0,0.0,0.0,0.0,0.0,0.20700000000000074,0.20700000000000074,0.0,0.0,0.0,55.0,616.79921,10000.0,85.000001,85.000001,85.000001,85.000001,395.0,0.0,0.0,0.0,1.0,333.33500000000004,53.421,53.421,49.316,49.316,34.0,-29.27,19.08833333333333,-31.936666666666667,19.8975,0.0,1783.484,0.5749999999999993,100.0,27.574,26.363,42.551,40.974000000000004,0.0,1.0,100.0,0.0,0.0,0.0,0.0,3204.5714285714284,2937.5,4014.777777777778,3644.8,305.1215,305.52075,314.94725,315.755,21.8615,20.526699999999998,21.770699999999998,21.3069,314.999998,314.999998,324.999988,324.999988,99.56158571428571,99.50715,99.56421428571429,99.54412857142857,-0.035666666666666735,-0.16166666666666663,-0.212,0.004,-0.030000000000001137,-0.07333333333333059,1.5726666666666667,1.6390000000000002,37.634,29.292,37.067,34.168,57.155,34.5125,58.712,51.2845,54.991,33.676,57.356,49.667,54.11,33.232,57.320499999999996,49.10166666666667,-0.025000000000000022,-0.12050000000000005,0.104495,0.10823500000000001,0.0,207.25,207.17000000000002,204.3,204.3,190.012512,21.04372
5,0.0,1.0,0.0,1.0,1.0,0.0,0.0,1.0,0.0,100.0,1.0,1.1856,26.0,0.0,0.0,0.0,59.999996,0.0,26.0,26.0,26.0,26.0,-0.126,0.3105,-0.0106,294.067,-2.6692,-2.7785,-1.49875,-1.5871,-258.87,216.22750000000002,190.889125,0.0,0.0,0.0,0.0,0.011366666666666525,-5.498166666666667,-5.498166666666667,-0.5349,0.375,-0.08977777777777796,-0.31499999999999995,66.31700000000001,-0.1047,-0.2134,1.112,100.0,1.0,1.0,204.68666666666667,0.0,0.0,0.0,0.0,0.0,0.0,0.0,8675.9,0.0,55.0,5.0,238.71,1.0,0.0,0.0,0.0,0.0,0.0,0.0,0.0,0.2579999999999991,0.2579999999999991,0.0,0.0,1.0,55.0,616.79921,10000.0,85.000001,85.000001,85.000001,85.000001,395.0,0.0,0.0,0.0,1.0,333.33500000000004,53.894,53.894,49.362,49.362,34.0,-28.619999999999997,18.215,-34.64,21.905,0.0,1783.433,0.15500000000000114,100.0,27.478,26.362000000000002,42.242000000000004,40.763,0.0,1.0,100.0,0.0,0.0,0.0,0.0,3183.285714285714,2716.7,4187.666666666667,4017.6000000000004,305.279,306.07425,314.6785,314.83125,21.8717,20.5317,21.781,21.3155,314.999998,314.999998,324.999988,324.999988,99.56158571428571,99.50718333333333,99.56435714285715,99.54427142857143,-0.024333333333333318,-0.1476666666666666,-0.23783333333333334,-0.0055,-0.01666666666666572,-0.05333333333332746,1.544,1.584,37.698,29.323,37.131,34.222,57.138999999999996,34.553,58.7535,51.3435,54.976,33.713499999999996,57.394999999999996,49.7235,54.094,33.2675,57.3565,49.156666666666666,-0.057499999999999996,-0.08699999999999997,0.10889000000000001,0.11041000000000001,0.0,207.765,207.695,204.68666666666667,204.68666666666667,190.012512,21.04372
6,0.0,1.0,0.0,1.0,1.0,0.0,0.0,1.0,0.0,100.0,1.0,1.1856,26.0,0.0,0.0,0.0,59.999996,0.0,26.0,26.0,26.0,26.0,-0.10487499999999994,0.29269999999999996,-0.003433333333333334,293.9,-2.6363,-2.8067,-1.53955,-1.5847,-255.68,216.20749999999998,190.86975,0.0,0.0,0.0,0.0,0.01323333333333332,-5.498166666666667,-5.498166666666667,-0.5311,0.065,-0.0732222222222223,-0.504,66.457,-0.0988,-0.21552500000000002,0.7220000000000004,100.0,1.0,1.0,205.11666666666667,0.0,0.0,0.0,0.0,0.0,0.0,0.0,8694.1,0.0,55.0,5.0,239.21333333333334,0.0,0.0,0.0,0.0,0.0,0.0,0.0,0.0,0.30600000000000094,0.30600000000000094,0.0,0.0,0.0,55.0,616.79921,10000.0,85.000001,85.000001,85.000001,85.000001,395.0,0.0,0.0,0.0,1.0,166.665,53.604,53.604,49.179,49.179,34.0,-27.79,19.935000000000002,-33.22333333333333,22.0275,0.0,1783.385,0.03500000000000014,100.0,27.429,26.476,42.361000000000004,41.087,0.0,1.0,100.0,0.0,0.0,0.0,0.0,3182.4285714285716,2818.0,4115.888888888889,3957.3,305.2415,305.65475,314.8385,314.97575,21.8812,20.5365,21.7909,21.323900000000002,314.999998,314.999998,324.999988,324.999988,99.5616,99.50718333333333,99.5645,99.5444,-0.010333333333333306,-0.1326666666666667,-0.21283333333333335,0.0033333333333333335,-0.06833333333332803,-0.03999999999999915,1.5506666666666666,1.5525000000000002,37.757,29.353,37.193,34.2745,57.122,34.591,58.793,51.402,54.96,33.7485,57.432,49.7795,54.078,33.301,57.391,49.211666666666666,-0.07399999999999995,-0.07099999999999995,0.10338000000000001,0.10144500000000001,0.0,208.20499999999998,208.11,205.11666666666667,205.11666666666667,190.012512,21.04372
7,0.0,1.0,0.0,1.0,1.0,0.0,0.0,1.0,0.0,100.0,1.0,1.1856,26.0,0.0,0.0,0.0,59.999996,0.0,26.0,26.0,26.0,26.0,-0.07187500000000002,0.2945,0.0495,293.73199999999997,-2.6046,-2.7713,-1.5008,-1.6255,-252.29,216.1825,190.849375,0.0,0.0,0.0,0.0,0.015199999999999991,-5.498166666666667,-5.498166666666667,-0.5351,0.060333333333333336,-0.05799999999999983,1.154,66.604,-0.0823,-0.2247,0.3639999999999999,100.0,1.0,1.0,205.55333333333334,0.0,0.0,0.0,0.0,0.0,0.0,0.0,8712.6,0.0,55.0,5.0,239.74666666666667,1.0,0.0,0.0,0.0,0.0,0.0,0.0,0.0,0.3569999999999993,0.3569999999999993,0.0,0.0,1.0,55.0,616.79921,10000.0,85.000001,85.000001,85.000001,85.000001,395.0,0.0,0.0,0.0,1.0,333.33500000000004,53.284,53.284,49.332,49.332,34.0,-26.195,22.009999999999998,-30.79,24.66,0.0,1783.334,-0.259999999999998,100.0,27.703,26.412,42.463,41.207,0.0,1.0,100.0,0.0,0.0,0.0,0.0,3141.714285714286,2975.5,3993.222222222222,4036.2,305.126,305.32475,315.029,314.80025,21.8912,20.5416,21.8013,21.3328,314.999998,314.999998,324.999988,324.999988,99.5616,99.5072,99.56464285714286,99.54454285714286,0.01833333333333309,-0.1016666666666668,-0.1925,0.0345,-0.04333333333332945,-0.05333333333332746,1.5406666666666666,1.5630000000000002,37.82,29.384999999999998,37.257999999999996,34.33,57.105000000000004,34.6305,58.8345,51.4645,54.943,33.785,57.4705,49.8395,54.06,33.335499999999996,57.427,49.27033333333333,-0.08999999999999997,-0.05449999999999999,0.11104000000000001,0.10927500000000001,0.0,208.62,208.595,205.55333333333334,205.55333333333334,190.012512,21.04372
8,0.0,1.0,0.0,1.0,1.0,0.0,0.0,1.0,0.0,100.0,1.0,1.1856,26.0,0.0,0.0,0.0,59.999996,0.0,26.0,26.0,26.0,26.0,-0.03574999999999995,0.29520000000000013,-0.028033333333333334,293.991,-2.6919,-2.7298999999999998,-1.4827,-1.5776,-248.89,216.1575,190.82875,0.0,0.0,0.0,0.0,0.017166666666666552,-5.498166666666667,-5.498166666666667,-0.5372,-0.535,-0.044222222222222385,-0.5229999999999999,66.752,-0.06380000000000001,-0.21705000000000002,0.002000000000000668,100.0,1.0,1.0,205.93666666666667,0.0,0.0,0.0,0.0,0.0,0.0,0.0,8728.9,0.0,55.0,5.0,240.28,0.0,0.0,0.0,0.0,0.0,0.0,0.0,0.0,0.40800000000000125,0.40800000000000125,0.0,0.0,0.0,55.0,616.79921,10000.0,85.000001,85.000001,85.000001,85.000001,395.0,0.0,0.0,0.0,1.0,166.665,54.138,54.138,48.721000000000004,48.721000000000004,34.0,-24.84,21.601666666666667,-30.343333333333334,25.064999999999998,0.0,1783.283,-0.39000000000000057,100.0,27.067,26.473,42.322,41.422,0.0,1.0,100.0,0.0,0.0,0.0,0.0,2998.857142857143,2866.4,4137.777777777777,4034.7,305.8795,305.60525,314.7165,314.716,21.9011,20.5466,21.8117,21.3417,314.999998,314.999998,324.999988,324.999988,99.5616,99.50721666666666,99.56478571428572,99.54467142857143,0.026333333333333098,-0.08133333333333326,-0.16133333333333336,0.051000000000000004,-0.041666666666671404,-0.051666666666669414,1.5296666666666665,1.5335,37.882,29.4165,37.323,34.3855,57.085,34.6685,58.876,51.525999999999996,54.925,33.82,57.509,49.8985,54.041,33.369,57.4625,49.328,-0.10050000000000003,-0.03200000000000003,0.09714,0.10518500000000001,0.0,209.05,209.04500000000002,205.93666666666667,205.93666666666667,190.012512,21.04372
9,0.0,1.0,0.0,1.0,1.0,0.0,0.0,1.0,0.0,100.0,1.0,1.1856,26.0,0.0,0.0,0.0,59.999996,0.0,26.0,26.0,26.0,26.0,-0.028374999999999928,0.29390000000000005,0.044700000000000004,293.549,-2.6189,-2.7353,-1.542,-1.5632,-245.48,216.13,190.807625,0.0,0.0,0.0,0.0,0.019166666666666554,-5.498166666666667,-5.498166666666667,-0.5389,0.772,-0.039000000000000146,0.9900000000000002,66.896,-0.042300000000000004,-0.213875,-0.23599999999999977,100.0,1.0,1.0,206.49,0.0,0.0,0.0,0.0,0.0,0.0,0.0,8752.3,0.0,55.0,5.0,240.79666666666668,1.0,0.0,0.0,0.0,0.0,0.0,0.0,0.0,0.45899999999999963,0.45899999999999963,0.0,0.0,1.0,55.0,616.79921,10000.0,85.000001,85.000001,85.000001,85.000001,395.0,0.0,0.0,0.0,1.0,166.665,52.917,52.917,49.561,49.561,34.0,-24.8325,23.796666666666667,-28.92666666666667,26.8125,0.0,1783.234,-0.5249999999999986,100.0,27.776,26.816,42.065,41.378,0.0,1.0,100.0,0.0,0.0,0.0,0.0,3214.714285714286,3032.6,4009.4444444444443,4102.6,304.955,305.18375,315.10075,314.7195,21.9111,20.5519,21.822,21.3505,314.999998,314.999998,324.999988,324.999988,99.5616,99.50723333333333,99.56492857142857,99.54482857142857,0.06666666666666643,-0.06133333333333324,-0.147,0.08566666666666667,-0.03999999999999915,-0.061666666666667425,1.585,1.5710000000000002,37.945,29.4495,37.387,34.4405,57.069,34.708,58.9135,51.5865,54.909,33.856,57.5445,49.9565,54.025,33.403999999999996,57.495,49.385,-0.11649999999999994,-0.03299999999999992,0.10542000000000001,0.10612500000000001,0.0,209.505,209.535,206.49,206.49,190.012512,21.04372
10,0.0,1.0,0.0,1.0,1.0,0.0,0.0,1.0,0.0,100.0,1.0,1.1856,26.0,0.0,0.0,0.0,59.999996,0.0,26.0,26.0,26.0,26.0,0.014499999999999957,0.27470000000000017,-0.046400000000000004,293.51800000000003,-2.7007,-2.7146,-1.5269,-1.5457999999999998,-242.06,216.10250000000002,190.786875,0.0,0.0,0.0,0.0,0.021133333333333337,-5.498166666666667,-5.498166666666667,-0.5228,-0.6713333333333333,0.002666666666666595,0.30100000000000016,67.045,-0.0193,-0.21230000000000002,-0.532,100.0,1.0,1.0,206.76,0.0,0.0,0.0,0.0,0.0,0.0,0.0,8763.8,0.0,55.0,5.0,241.32999999999998,0.0,0.0,0.0,0.0,0.0,0.0,1.0,0.0,0.509999999999998,0.509999999999998,0.0,0.0,0.0,55.0,616.79921,10000.0,85.000001,85.000001,85.000001,85.000001,395.0,0.0,0.0,0.0,1.0,166.665,53.955,53.955,48.187,48.187,34.0,-21.8675,22.238333333333333,-30.16,28.6,0.0,1783.183,-0.6050000000000004,100.0,27.345,26.902,42.476,42.26,0.0,1.0,100.0,0.0,0.0,0.0,0.0,2866.0,2839.5,4231.222222222223,4188.4,306.2135,305.6635,314.516,314.34825,21.921,20.5571,21.8325,21.3596,314.999998,314.999998,324.999988,324.999988,99.56162857142857,99.50723333333333,99.56508571428571,99.54497142857143,0.07433333333333358,-0.05566666666666675,-0.12833333333333335,0.10066666666666667,-0.030000000000001137,-0.01666666666666572,1.5003333333333333,1.488,38.006,29.482,37.453,34.4975,57.052,34.744,58.9565,51.652,54.893,33.8895,57.5845,50.019,54.007999999999996,33.436,57.532,49.446,-0.12549999999999994,-0.02849999999999997,0.10417000000000001,0.10840500000000002,0.0,209.935,209.95,206.76,206.76,190.012512,21.04372
11,0.0,1.0,0.0,1.0,1.0,0.0,0.0,1.0,0.0,100.0,1.0,1.1856,26.0,0.0,0.0,0.0,59.999996,0.0,26.0,26.0,26.0,26.0,0.054624999999999924,0.27059999999999995,-0.1013,293.961,-2.707,-2.6988000000000003,-1.57765,-1.5257,-238.84,216.075,190.76725,0.0,0.0,0.0,0.0,0.022599999999999953,-5.498166666666667,-5.498166666666667,-0.5615,-0.06766666666666667,0.022333333333333316,-0.76,67.17699999999999,0.0015,-0.235625,-0.6739999999999995,100.0,1.0,1.0,207.48666666666668,0.0,0.0,0.0,0.0,0.0,0.0,0.0,8794.6,0.0,55.0,5.0,241.80666666666667,1.0,0.0,0.0,0.0,0.0,0.0,1.0,0.0,0.5579999999999998,0.5579999999999998,0.0,0.0,1.0,55.0,616.79921,10000.0,85.000001,85.000001,85.000001,85.000001,395.0,0.0,0.0,0.0,1.0,333.33500000000004,53.284,53.284,49.713,49.713,34.0,-22.9225,24.713333333333335,-24.866666666666667,26.175,0.0,1783.133,-0.6649999999999991,100.0,27.166,27.206,41.953,42.09,0.0,1.0,100.0,0.0,0.0,0.0,0.0,3076.5714285714284,3029.8,3709.4444444444443,3831.0,305.611,305.02975,315.8605,315.31125,21.9301,20.5621,21.8421,21.3679,314.999998,314.999998,324.999988,324.999988,99.56162857142857,99.50723333333333,99.56521428571429,99.5451,0.0950000000000002,-0.035666666666666735,-0.11066666666666668,0.12966666666666665,-0.06499999999999773,-0.046666666666666856,1.6463333333333334,1.6165000000000003,38.063,29.5135,37.513,34.5495,57.036,34.78,58.9895,51.7085,54.878,33.9225,57.615,50.073499999999996,53.992000000000004,33.4675,57.56,49.49966666666667,-0.123,-0.023500000000000076,0.11679500000000001,0.10735000000000001,0.0,210.35000000000002,210.38,207.48666666666668,207.48666666666668,190.012512,21.04372
12,0.0,1.0,0.0,1.0,1.0,0.0,0.0,1.0,0.0,100.0,1.0,1.1856,26.0,0.0,0.0,0.0,59.999996,0.0,26.0,26.0,26.0,26.0,0.05712500000000009,0.29180000000000006,0.03466666666666667,293.335,-2.7564,-2.6935000000000002,-1.5443,-1.5271,-235.61,216.05,190.7465,0.0,0.0,0.0,0.0,0.025466666666666526,-5.498166666666667,-5.498166666666667,-0.5456,0.27166666666666667,0.0086666666666666,-0.847,67.316,0.0188,-0.20720000000000002,-0.6699999999999999,100.0,1.0,1.0,207.66,0.0,0.0,0.0,0.0,0.0,0.0,0.0,8801.9,0.0,55.0,5.0,242.30666666666667,0.0,0.0,0.0,0.0,0.0,0.0,1.0,0.0,0.6059999999999981,0.6059999999999981,0.0,0.0,0.0,55.0,616.79921,10000.0,85.000001,85.000001,85.000001,85.000001,395.0,0.0,0.0,0.0,1.0,166.665,53.192,53.192,48.37,48.37,34.0,-23.447499999999998,25.441666666666666,-27.86,29.7875,0.0,1783.086,-0.6400000000000006,100.0,27.09,27.357,41.942,42.120000000000005,0.0,1.0,100.0,0.0,0.0,0.0,0.0,3122.714285714286,3059.2,4217.333333333333,4139.9,305.51,304.95925,314.62075,314.529,21.9393,20.5672,21.8518,21.3763,314.999998,314.999998,324.999988,324.999988,99.56164285714286,99.50723333333333,99.56534285714285,99.54522857142857,0.10166666666666657,-0.022666666666666613,-0.08683333333333333,0.1395,-0.05666666666667197,-0.03333333333333144,1.534,1.5085000000000002,38.120999999999995,29.545,37.574,34.602000000000004,57.019999999999996,34.815,59.027,51.766999999999996,54.864000000000004,33.955,57.65,50.129999999999995,53.977000000000004,33.499,57.592,49.55466666666666,-0.12249999999999994,-0.026499999999999968,0.10816,0.10762500000000001,0.0,210.8,210.825,207.66,207.66,190.012512,21.04372
13,0.0,1.0,0.0,1.0,1.0,0.0,0.0,1.0,0.0,100.0,1.0,1.1856,26.0,0.0,0.0,0.0,59.999996,0.0,26.0,26.0,26.0,26.0,0.0747500000000001,0.28659999999999997,0.05153333333333334,293.015,-2.7309,-2.6891,-1.57785,-1.5436999999999999,-232.18,216.025,190.72475,0.0,0.0,0.0,0.0,0.026899999999999924,-5.498166666666667,-5.498166666666667,-0.5395,-0.09366666666666668,0.015555555555555545,1.0819999999999999,67.46000000000001,0.0258,-0.21660000000000001,-0.8200000000000003,100.0,1.0,1.0,208.05666666666667,0.0,0.0,0.0,0.0,0.0,0.0,0.0,8818.8,0.0,55.0,5.0,242.82666666666665,1.0,0.0,0.0,0.0,0.0,0.0,1.0,0.0,0.657,0.657,0.0,0.0,1.0,55.0,616.79921,10000.0,85.000001,85.000001,85.000001,85.000001,395.0,0.0,0.0,0.0,1.0,166.665,52.933,52.933,48.385999999999996,48.385999999999996,34.0,-21.405,27.314999999999998,-26.923333333333332,32.2325,0.0,1783.035,-0.8599999999999994,100.0,27.547,27.383,42.266,42.516,0.0,1.0,100.0,0.0,0.0,0.0,0.0,3035.857142857143,3133.8,4105.555555555556,4315.4,305.562,304.90525,314.7655,314.16975,21.9491,20.5727,21.8623,21.3855,314.999998,314.999998,324.999988,324.999988,99.56165714285714,99.50723333333333,99.56548571428571,99.54538571428571,0.13200000000000012,0.01200000000000001,-0.0725,0.153,-0.01833333333333087,-0.04833333333333201,1.518,1.4995000000000003,38.182,29.579,37.638999999999996,34.659,57.007,34.853,59.067,51.832,54.849999999999994,33.99,57.687,50.192499999999995,53.963,33.5325,57.626,49.616,-0.139,-0.0030000000000001137,0.11103500000000001,0.100025,0.0,211.215,211.26999999999998,208.05666666666667,208.05666666666667,190.012512,21.04372
14,0.0,1.0,0.0,1.0,1.0,0.0,0.0,1.0,0.0,100.0,1.0,1.1856,26.0,0.0,0.0,0.0,59.999996,0.0,26.0,26.0,26.0,26.0,0.10187499999999994,0.28790000000000004,-0.008933333333333333,293.259,-2.7316,-2.6261,-1.58945,-1.5124,-228.73,216.0025,190.7035,0.0,0.0,0.0,0.0,0.028899999999999926,-5.498166666666667,-5.498166666666667,-0.5495,-0.146,0.043333333333333224,-0.139,67.601,0.0378,-0.22885,-0.9660000000000002,100.0,1.0,1.0,208.57999999999998,0.0,0.0,0.0,0.0,0.0,0.0,0.0,8841.0,0.0,55.0,5.0,243.33666666666664,0.0,0.0,0.0,0.0,0.0,0.0,1.0,0.0,0.7079999999999984,0.7079999999999984,0.0,0.0,0.0,55.0,616.79921,10000.0,85.000001,85.000001,85.000001,85.000001,395.0,0.0,0.0,0.0,1.0,166.665,53.07,53.07,48.599000000000004,48.599000000000004,34.0,-20.9925,26.82,-25.636666666666667,30.0025,0.0,1782.984,-0.9600000000000009,100.0,27.244,27.607,42.087,42.785,0.0,1.0,100.0,0.0,0.0,0.0,0.0,3014.714285714286,3126.7,3969.0,4130.3,305.799,304.75875,315.18275,314.5565,21.9588,20.5781,21.8726,21.3945,314.999998,314.999998,324.999988,324.999988,99.56167142857143,99.50725,99.56562857142858,99.54552857142858,0.1336666666666666,0.009666666666666934,-0.07050000000000001,0.152,-0.054999999999999716,-0.046666666666666856,1.5576666666666665,1.541,38.242999999999995,29.613,37.704,34.7155,56.992999999999995,34.89,59.105000000000004,51.8955,54.838,34.0245,57.7225,50.2535,53.949,33.5655,57.658,49.676,-0.14200000000000002,-0.0015000000000000568,0.10819500000000001,0.10896000000000002,0.0,211.65,211.72500000000002,208.57999999999998,208.57999999999998,190.012512,21.04372
15,0.0,1.0,0.0,1.0,1.0,0.0,0.0,1.0,0.0,100.0,1.0,1.1856,26.0,0.0,0.0,0.0,59.999996,0.0,26.0,26.0,26.0,26.0,0.11275000000000013,0.2912000000000001,0.029900000000000003,293.289,-2.7409,-2.6476,-1.6133000000000002,-1.5136,-225.28,215.98250000000002,190.68175,0.0,0.0,0.0,0.0,0.030899999999999928,-5.498166666666667,-5.498166666666667,-0.5393,0.18166666666666667,0.07433333333333314,0.504,67.744,0.049800000000000004,-0.207625,-1.1979999999999995,100.0,1.0,1.0,208.98333333333335,0.0,0.0,0.0,0.0,0.0,0.0,0.0,8858.0,0.0,55.0,5.0,243.84666666666666,1.0,0.0,0.0,0.0,0.0,0.0,1.0,0.0,0.7590000000000003,0.7590000000000003,0.0,0.0,1.0,55.0,616.79921,10000.0,85.000001,85.000001,85.000001,85.000001,395.0,0.0,0.0,0.0,1.0,166.665,53.345,53.345,48.569,48.569,34.0,-18.24,27.881666666666668,-24.316666666666666,33.825,0.0,1782.933,-1.0199999999999996,100.0,27.328,27.517,41.923,42.827,0.0,1.0,100.0,0.0,0.0,0.0,0.0,2761.5714285714284,3152.3,3971.0,4342.0,306.3855,304.766,315.26425,314.061,21.9685,20.5835,21.8829,21.4036,314.999998,314.999998,324.999988,324.999988,99.56168571428572,99.50725,99.56577142857142,99.54567142857142,0.1586666666666665,0.02733333333333343,-0.03983333333333334,0.18533333333333335,-0.03833333333332689,-0.045000000000001705,1.5636666666666668,1.5055,38.303,29.647,37.768,34.772,56.980000000000004,34.928,59.1415,51.96,54.824,34.0595,57.756,50.3155,53.935,33.5995,57.6885,49.737,-0.14949999999999997,0.0004999999999999449,0.10265500000000001,0.11110500000000001,0.0,212.09,212.175,208.98333333333335,208.98333333333335,190.012512,21.04372
16,0.0,1.0,0.0,1.0,1.0,0.0,0.0,1.0,0.0,100.0,1.0,1.1856,26.0,0.0,0.0,0.0,59.999996,0.0,26.0,26.0,26.0,26.0,0.11762500000000009,0.27970000000000006,-0.009300000000000001,293.274,-2.7949,-2.6019,-1.5853000000000002,-1.5208,-222.03,215.965,190.661,0.0,0.0,0.0,0.0,0.03279999999999994,-5.498166666666667,-5.498166666666667,-0.5622,-0.6473333333333334,0.058666666666666645,0.133,67.877,0.060200000000000004,-0.226325,-1.2320000000000002,100.0,1.0,1.0,209.41666666666669,0.0,0.0,0.0,0.0,0.0,0.0,0.0,8876.3,0.0,55.0,5.0,244.32999999999998,0.0,0.0,0.0,0.0,0.0,0.0,1.0,0.0,0.8069999999999986,0.8069999999999986,0.0,0.0,0.0,55.0,616.79921,10000.0,85.000001,85.000001,85.000001,85.000001,395.0,0.0,0.0,0.0,1.0,166.665,53.07,53.07,48.431,48.431,34.0,-20.315,29.141666666666666,-22.81,32.3525,0.0,1782.886,-0.9400000000000013,100.0,27.055,27.591,42.192,42.925,0.0,1.0,100.0,0.0,0.0,0.0,0.0,2984.5714285714284,3279.5,3890.0,4097.3,305.8885,304.513,315.3195,314.66275,21.9774,20.5887,21.8927,21.412,314.999998,314.999998,324.999988,324.999988,99.5617,99.50726666666667,99.5659,99.5458,0.15766666666666662,0.04033333333333333,-0.02733333333333333,0.20266666666666666,-0.051666666666669414,-0.051666666666669414,1.5943333333333334,1.533,38.358999999999995,29.679499999999997,37.829,34.8255,56.964,34.9645,59.1785,52.019,54.81,34.0935,57.7905,50.372,53.919,33.6315,57.7205,49.79266666666666,-0.14949999999999997,0.0044999999999999485,0.10591,0.10698500000000001,0.0,212.465,212.575,209.41666666666669,209.41666666666669,190.012512,21.04372
17,0.0,1.0,0.0,1.0,1.0,0.0,0.0,1.0,0.0,100.0,1.0,1.1856,26.0,0.0,0.0,0.0,59.999996,0.0,26.0,26.0,26.0,26.0,0.125,0.29410000000000003,0.021066666666666668,292.831,-2.763,-2.5754,-1.6295000000000002,-1.4796,-218.56,215.95,190.638375,0.0,0.0,0.0,0.0,0.03479999999999994,-5.498166666666667,-5.498166666666667,-0.5483,0.431,0.03944444444444439,-0.627,68.018,0.0673,-0.20505,-1.1600000000000001,100.0,1.0,1.0,209.77666666666667,0.0,0.0,0.0,0.0,0.0,0.0,0.0,8891.7,0.0,55.0,5.0,244.83666666666664,1.0,0.0,0.0,0.0,0.0,0.0,1.0,0.0,0.8580000000000005,0.8580000000000005,0.0,0.0,1.0,55.0,616.79921,10000.0,85.000001,85.000001,85.000001,85.000001,395.0,0.0,0.0,0.0,1.0,166.665,52.856,52.856,48.065,48.065,34.0,-20.607499999999998,26.731666666666666,-26.356666666666666,33.0525,0.0,1782.835,-0.9649999999999999,100.0,27.383,27.988,41.966,43.031,0.0,1.0,100.0,0.0,0.0,0.0,0.0,3089.142857142857,3052.5,4288.0,4272.1,305.635,305.023,314.53175,314.2725,21.987099999999998,20.5943,21.903,21.421,314.999998,314.999998,324.999988,324.999988,99.56172857142857,99.50726666666667,99.56604285714286,99.54595714285715,0.16199999999999992,0.03766666666666696,-0.029166666666666667,0.192,-0.046666666666666856,-0.04999999999999716,1.5546666666666666,1.4925000000000002,38.42,29.7145,37.894,34.8815,56.953,35.0045,59.216,52.082,54.799,34.1305,57.825,50.433,53.908,33.667500000000004,57.751999999999995,49.852333333333334,-0.14600000000000002,0.0034999999999999476,0.10035500000000001,0.10824500000000001,0.0,212.95,213.04000000000002,209.77666666666667,209.77666666666667,190.012512,21.04372
18,0.0,1.0,0.0,1.0,1.0,0.0,0.0,1.0,0.0,100.0,1.0,1.1856,26.0,0.0,0.0,0.0,59.999996,0.0,26.0,26.0,26.0,26.0,0.13149999999999995,0.2744,-0.002166666666666667,292.74,-2.793,-2.5505,-1.64545,-1.4230999999999998,-215.09,215.94,190.615875,0.0,0.0,0.0,0.0,0.036833333333333385,-5.498166666666667,-5.498166666666667,-0.5623,-0.41733333333333333,0.06733333333333325,0.9420000000000002,68.158,0.0697,-0.2268,-1.3099999999999996,100.0,1.0,1.0,210.23666666666668,0.0,0.0,0.0,0.0,0.0,0.0,0.0,8911.2,0.0,55.0,5.0,245.34,0.0,0.0,0.0,0.0,0.0,0.0,1.0,0.0,0.9089999999999989,0.9089999999999989,0.0,0.0,0.0,55.0,616.79921,10000.0,85.000001,85.000001,85.000001,85.000001,395.0,0.0,0.0,0.0,1.0,166.665,52.504999999999995,52.504999999999995,48.019,48.019,34.0,-19.607499999999998,30.345,-24.2,32.345,0.0,1782.784,-1.2249999999999996,100.0,27.347,27.848,42.339,43.32,0.0,1.0,100.0,0.0,0.0,0.0,0.0,3028.857142857143,3395.7,3996.222222222222,4228.8,305.6725,304.145,315.11875,314.417,21.9967,20.599899999999998,21.9134,21.4302,314.999998,314.999998,324.999988,324.999988,99.56174285714286,99.50726666666667,99.5662,99.5461,0.18400000000000016,0.051000000000000156,-0.0225,0.20400000000000001,-0.02499999999999858,-0.05666666666667197,1.56,1.5150000000000001,38.479,29.749499999999998,37.959,34.939,56.94,35.0445,59.2545,52.147,54.787,34.167500000000004,57.861,50.4955,53.894,33.7025,57.7845,49.914,-0.16600000000000004,0.01100000000000001,0.10708500000000001,0.10437,0.0,213.335,213.44,210.23666666666668,210.23666666666668,190.012512,21.04372
19,0.0,1.0,0.0,1.0,1.0,0.0,0.0,1.0,0.0,100.0,1.0,1.1856,26.0,0.0,0.0,0.0,59.999996,0.0,26.0,26.0,26.0,26.0,0.17512499999999998,0.3067,0.061066666666666665,292.374,-2.716,-2.6469,-1.5816,-1.4057,-211.61,215.9325,190.59325,0.0,0.0,0.0,0.0,0.038833333333333386,-5.498166666666667,-5.498166666666667,-0.546,0.754,0.07611111111111102,-0.5609999999999999,68.298,0.0795,-0.20955000000000001,-1.6839999999999993,100.0,1.0,1.0,210.60000000000002,0.0,0.0,0.0,0.0,0.0,0.0,0.0,8926.5,0.0,55.0,5.0,245.84333333333336,1.0,0.0,0.0,0.0,0.0,0.0,1.0,0.0,0.9600000000000009,0.9600000000000009,0.0,0.0,1.0,55.0,616.79921,10000.0,85.000001,85.000001,85.000001,85.000001,395.0,0.0,0.0,0.0,1.0,166.665,52.353,52.353,47.791,47.791,34.0,-17.93,29.695,-23.91,34.935,0.0,1782.733,-1.58,100.0,27.656,28.464,42.054,43.496,0.0,1.0,100.0,0.0,0.0,0.0,0.0,3018.142857142857,3141.4,4174.0,4485.0,305.7265,304.5495,314.71575,313.75275,22.0064,20.6056,21.9237,21.4393,314.999998,314.999998,324.999988,324.999988,99.56177142857143,99.50728333333333,99.56634285714286,99.54625714285714,0.20366666666666644,0.06633333333333358,-0.008333333333333335,0.20766666666666667,-0.05333333333332746,-0.04333333333332945,1.5323333333333333,1.4765000000000001,38.54,29.785,38.022999999999996,34.9955,56.931,35.0875,59.2905,52.2115,54.778,34.207,57.8945,50.558,53.884,33.741,57.815,49.97533333333333,-0.1985,0.040999999999999925,0.101485,0.10549000000000001,0.0,213.815,213.905,210.60000000000002,210.60000000000002,190.012512,21.04372
20,0.0,1.0,0.0,1.0,1.0,0.0,0.0,1.0,0.0,100.0,1.0,1.1856,26.0,0.0,0.0,0.0,59.999996,0.0,26.0,26.0,26.0,26.0,0.21150000000000002,0.27649999999999997,0.021466666666666665,292.847,-2.8185,-2.599,-1.5951,-1.5191,-208.12,215.93,190.570875,0.0,0.0,0.0,0.0,0.04086666666666661,-5.498166666666667,-5.498166666666667,-0.5619000000000001,-1.2686666666666668,0.08666666666666667,0.4870000000000001,68.437,0.0971,-0.229325,-2.112,100.0,1.0,1.0,211.0366666666667,0.0,0.0,0.0,0.0,0.0,0.0,0.0,8945.0,0.0,55.0,5.0,246.35000000000002,0.0,0.0,0.0,0.0,0.0,0.0,0.0,0.0,1.0109999999999992,1.0109999999999992,0.0,0.0,0.0,55.0,616.79921,10000.0,85.000001,85.000001,85.000001,85.000001,395.0,0.0,0.0,0.0,1.0,166.665,53.085,53.085,47.729,47.729,34.0,-16.365,31.471666666666668,-21.483333333333334,35.45,0.0,1782.682,-1.7650000000000006,100.0,27.152,27.972,42.533,43.841,0.0,1.0,100.0,0.0,0.0,0.0,0.0,2822.714285714286,3260.1,3930.8888888888887,4208.2,306.359,304.541,315.18125,314.357,22.0156,20.6112,21.9342,21.4486,314.999998,314.999998,324.999988,324.999988,99.5618,99.5073,99.56648571428572,99.5464,0.22966666666666669,0.10066666666666668,0.012333333333333335,0.23633333333333334,-0.030000000000001137,-0.05666666666667197,1.542,1.479,38.597,29.82,38.089,35.0535,56.917,35.1295,59.3305,52.2775,54.765,34.246,57.9315,50.6215,53.870000000000005,33.7785,57.849000000000004,50.03766666666667,-0.21299999999999997,0.058499999999999996,0.11078500000000001,0.10219500000000001,0.0,214.16500000000002,214.305,211.0366666666667,211.0366666666667,190.012512,21.04372
21,0.0,1.0,0.0,1.0,1.0,0.0,0.0,1.0,0.0,100.0,1.0,1.1856,26.0,0.0,0.0,0.0,59.999996,0.0,26.0,26.0,26.0,26.0,0.23462500000000008,0.28,-0.07573333333333335,293.06,-2.8014,-2.5852,-1.6692,-1.4687000000000001,-205.04,215.9325,190.5505,0.0,0.0,0.0,0.0,0.04266666666666652,-5.498166666666667,-5.498166666666667,-0.5778,0.532,0.07933333333333326,-0.738,68.556,0.11710000000000001,-0.223025,-2.2299999999999995,100.0,1.0,1.0,211.58333333333331,0.0,0.0,0.0,0.0,0.0,0.0,0.0,8968.2,0.0,55.0,5.0,246.77333333333334,1.0,0.0,0.0,0.0,0.0,0.0,0.0,0.0,1.056000000000001,1.056000000000001,0.0,0.0,1.0,55.0,616.79921,10000.0,85.000001,85.000001,85.000001,85.000001,395.0,0.0,0.0,0.0,1.0,333.33500000000004,52.719,52.719,48.629999999999995,48.629999999999995,34.0,-18.275,29.786666666666665,-20.71,34.075,0.0,1782.636,-1.1999999999999993,100.0,27.248,28.368000000000002,41.727000000000004,43.507,0.0,1.0,100.0,0.0,0.0,0.0,0.0,2999.0,3184.9,3925.4444444444443,4079.7,305.909,304.593,315.413,314.75725,22.024,20.6163,21.943,21.4565,314.999998,314.999998,324.999988,324.999988,99.56181428571429,99.5073,99.56661428571428,99.54652857142857,0.20833333333333348,0.07600000000000007,0.035166666666666666,0.2588333333333333,-0.04833333333333201,-0.051666666666669414,1.646,1.5550000000000002,38.65,29.852,38.144,35.103,56.91,35.1695,59.3595,52.332,54.757,34.283,57.9585,50.674,53.861000000000004,33.814,57.8725,50.089333333333336,-0.18599999999999994,0.023499999999999965,0.10308500000000001,0.11301000000000001,0.0,214.575,214.735,211.58333333333331,211.58333333333331,190.012512,21.04372
22,0.0,1.0,0.0,1.0,1.0,0.0,0.0,1.0,0.0,100.0,1.0,1.1856,26.0,0.0,0.0,0.0,59.999996,0.0,26.0,26.0,26.0,26.0,0.16862500000000002,0.27280000000000015,0.004333333333333334,292.572,-2.732,-2.6371,-1.6625,-1.4606,-201.54,215.9375,190.526625,0.0,0.0,0.0,0.0,0.04469999999999996,-5.498166666666667,-5.498166666666667,-0.5575,-0.005,0.08633333333333315,0.6619999999999999,68.697,0.1283,-0.20727500000000001,-1.2759999999999998,100.0,1.0,1.0,211.80333333333334,0.0,0.0,0.0,0.0,0.0,0.0,0.0,8977.6,0.0,55.0,5.0,247.28,0.0,0.0,0.0,0.0,0.0,0.0,0.0,0.0,1.1069999999999993,1.1069999999999993,0.0,0.0,0.0,55.0,616.79921,10000.0,85.000001,85.000001,85.000001,85.000001,395.0,0.0,0.0,0.0,1.0,166.665,52.887,52.887,47.531,47.531,34.0,-18.3275,27.77166666666667,-22.963333333333335,37.235,0.0,1782.585,0.2950000000000017,100.0,27.466,28.309,42.239000000000004,43.816,0.0,1.0,100.0,0.0,0.0,0.0,0.0,2742.285714285714,3201.0,4109.555555555556,4425.9,306.405,304.61775,314.84425,313.95875,22.0334,20.6221,21.9534,21.4657,314.999998,314.999998,324.999988,324.999988,99.56184285714286,99.50731666666667,99.56675714285714,99.54668571428572,0.15233333333333343,0.014000000000000234,0.024333333333333332,0.24816666666666667,-0.01666666666666572,-0.061666666666667425,1.5196666666666667,1.4835000000000003,38.709,29.887999999999998,38.209,35.1605,56.897,35.210499999999996,59.399,52.399,54.745000000000005,34.3215,57.995,50.7385,53.848,33.851,57.906,50.153,-0.07150000000000001,-0.08800000000000008,0.11480000000000001,0.10614000000000001,0.0,215.025,215.14,211.80333333333334,211.80333333333334,190.012512,21.04372
23,0.0,1.0,0.0,1.0,1.0,0.0,0.0,1.0,0.0,100.0,1.0,1.1856,26.0,0.0,0.0,0.0,59.999996,0.0,26.0,26.0,26.0,26.0,0.10912499999999992,0.2583,-0.04956666666666667,292.633,-2.7437,-2.6082,-1.68635,-1.5523,-198.03,215.95,190.503125,0.0,0.0,0.0,0.0,0.04673333333333329,-5.498166666666667,-5.498166666666667,-0.5767,-0.07633333333333334,0.05233333333333312,-1.0819999999999999,68.832,0.0956,-0.23265000000000002,0.2060000000000004,100.0,1.0,1.0,212.37,0.0,0.0,0.0,0.0,0.0,0.0,0.0,9001.6,0.0,55.0,5.0,247.76999999999998,1.0,0.0,0.0,0.0,0.0,0.0,0.0,0.0,1.1580000000000013,1.1580000000000013,0.0,0.0,1.0,55.0,616.79921,10000.0,85.000001,85.000001,85.000001,85.000001,395.0,0.0,0.0,0.0,1.0,166.665,52.155,52.155,48.66,48.66,34.0,-24.8725,24.28333333333333,-25.186666666666667,30.685,0.0,1782.534,0.8550000000000004,100.0,27.775,28.378,42.391999999999996,43.911,0.0,1.0,100.0,0.0,0.0,0.0,0.0,3201.285714285714,3112.3,3959.777777777778,3908.1000000000004,305.22,304.77725,315.352,315.07975,22.0429,20.6278,21.9638,21.474899999999998,314.999998,314.999998,324.999988,324.999988,99.56185714285715,99.50731666666667,99.5669,99.54684285714286,0.08566666666666656,-0.04600000000000004,-0.04033333333333334,0.19516666666666665,-0.04999999999999716,-0.054999999999999716,1.566,1.545,38.768,29.9235,38.274,35.218,56.881,35.25,59.4365,52.463,54.730000000000004,34.358000000000004,58.0295,50.8005,53.832,33.885999999999996,57.9375,50.21333333333333,-0.014499999999999957,-0.139,0.10615000000000001,0.10911000000000001,0.0,215.485,215.49,212.37,212.37,190.012512,21.04372
24,0.0,1.0,0.0,1.0,1.0,0.0,0.0,1.0,0.0,100.0,1.0,1.1856,26.0,0.0,0.0,0.0,59.999996,0.0,26.0,26.0,26.0,26.0,0.002874999999999961,0.27649999999999997,-0.10323333333333333,292.908,-2.742,-2.6444,-1.5847,-1.5137,-194.51999999999998,215.9625,190.479125,0.0,0.0,0.0,0.0,0.048766666666666514,-5.498166666666667,-5.498166666666667,-0.5830000000000001,-0.761,0.03866666666666663,0.31999999999999984,68.971,0.035300000000000005,-0.21935000000000002,0.9500000000000002,100.0,1.0,1.0,212.66666666666669,0.0,0.0,0.0,0.0,0.0,0.0,0.0,9014.1,0.0,55.0,5.0,248.26666666666665,0.0,0.0,0.0,0.0,0.0,0.0,0.0,0.0,1.2089999999999996,1.2089999999999996,0.0,0.0,0.0,55.0,616.79921,10000.0,85.000001,85.000001,85.000001,85.000001,395.0,0.0,0.0,0.0,1.0,166.665,53.421,53.421,47.592,47.592,34.0,-22.9525,21.46666666666667,-28.883333333333333,28.295,0.0,1782.483,1.0100000000000016,100.0,27.591,27.782,42.815,43.483000000000004,0.0,1.0,100.0,0.0,0.0,0.0,0.0,2812.714285714286,2977.6,4185.555555555556,4113.9,306.296,305.38125,314.6145,314.6905,22.0524,20.6332,21.9742,21.4839,314.999998,314.999998,324.999988,324.999988,99.56187142857142,99.50731666666667,99.56704285714285,99.54698571428571,0.046666666666666856,-0.08833333333333315,-0.094,0.121,-0.05666666666667197,-0.030000000000001137,1.5026666666666668,1.5340000000000003,38.827,29.9575,38.339,35.2745,56.861999999999995,35.2885,59.475,52.525,54.712,34.3935,58.0655,50.86,53.813,33.92,57.9705,50.272,0.0035000000000000586,-0.15799999999999992,0.10214000000000001,0.10656,0.0,215.95,215.85000000000002,212.66666666666669,212.66666666666669,190.012512,21.04372
25,0.0,1.0,0.0,1.0,1.0,0.0,0.0,1.0,0.0,100.0,1.0,1.1856,26.0,0.0,0.0,0.0,59.999996,0.0,26.0,26.0,26.0,26.0,-0.07062499999999994,0.2653000000000001,-0.0711,292.74,-2.7627,-2.651,-1.5601,-1.5548,-191.2,215.97750000000002,190.455125,0.0,0.0,0.0,0.0,0.05069999999999997,-5.498166666666667,-5.498166666666667,-0.613,0.111,-0.0013333333333331865,-0.9119999999999999,69.096,-0.0274,-0.22545,1.5020000000000007,100.0,1.0,1.0,213.21,0.0,0.0,0.0,0.0,0.0,0.0,0.0,9037.3,0.0,55.0,5.0,248.72,1.0,0.0,0.0,0.0,0.0,0.0,0.0,0.0,1.256999999999998,1.256999999999998,0.0,0.0,1.0,55.0,616.79921,10000.0,85.000001,85.000001,85.000001,85.000001,395.0,0.0,0.0,0.0,1.0,166.665,52.155,52.155,48.462,48.462,34.0,-29.455,22.53333333333333,-29.21,25.02,0.0,1782.436,1.0150000000000006,100.0,27.896,27.752,42.726,42.84,0.0,1.0,100.0,0.0,0.0,0.0,0.0,3272.285714285714,3269.6,3977.4444444444443,3925.6000000000004,305.0035,304.518,315.20025,315.154,22.0613,20.6384,21.9838,21.4923,314.999998,314.999998,324.999988,324.999988,99.56187142857142,99.50733333333334,99.56718571428571,99.54712857142857,0.002000000000000224,-0.11966666666666681,-0.14933333333333335,0.07966666666666668,-0.03333333333333144,-0.05333333333332746,1.5550000000000002,1.6,38.882999999999996,29.990000000000002,38.399,35.326499999999996,56.843,35.329,59.509,52.579499999999996,54.694,34.4305,58.097,50.9125,53.795,33.956,57.999,50.32333333333334,0.008000000000000007,-0.15900000000000003,0.10412500000000001,0.11238500000000001,0.0,216.35500000000002,216.25,213.21,213.21,190.012512,21.04372
26,0.0,1.0,0.0,1.0,1.0,0.0,0.0,1.0,0.0,100.0,1.0,1.1856,26.0,0.0,0.0,0.0,59.999996,0.0,26.0,26.0,26.0,26.0,-0.12437500000000001,0.2812000000000001,0.05163333333333334,291.626,-2.6683,-2.7702,-1.5751,-1.5853,-187.68,215.9875,190.429375,0.0,0.0,0.0,0.0,0.05276666666666652,-5.498166666666667,-5.498166666666667,-0.5687,0.5356666666666666,-0.06188888888888888,-1.327,69.235,-0.0821,-0.19685,1.6899999999999995,100.0,1.0,1.0,213.33333333333331,0.0,0.0,0.0,0.0,0.0,0.0,0.0,9042.4,0.0,55.0,5.0,249.21666666666667,0.0,0.0,0.0,0.0,0.0,0.0,0.0,0.0,1.3079999999999998,1.3079999999999998,0.0,0.0,0.0,55.0,616.79921,10000.0,85.000001,85.000001,85.000001,85.000001,395.0,0.0,0.0,0.0,1.0,166.665,52.032,52.032,46.555,46.555,34.0,-29.677500000000002,18.681666666666665,-39.983333333333334,25.3075,0.0,1782.384,0.7850000000000001,100.0,28.85,28.188,43.745000000000005,43.007,0.0,1.0,100.0,0.0,0.0,0.0,0.0,3306.4285714285716,2860.8,4682.444444444444,4388.8,304.9495,305.5025,313.5625,314.01975,22.0712,20.644,21.9944,21.5014,314.999998,314.999998,324.999988,324.999988,99.56187142857142,99.50735,99.56734285714286,99.54727142857143,-0.01633333333333331,-0.1673333333333331,-0.20983333333333334,0.004,-0.036666666666668846,-0.04333333333332945,1.4213333333333333,1.4805000000000001,38.945,30.025,38.465,35.3835,56.828,35.374,59.553,52.6415,54.679,34.4725,58.1385,50.972,53.778999999999996,33.996,58.037,50.38166666666667,-0.020499999999999963,-0.14600000000000013,0.10178500000000001,0.10117500000000001,0.0,216.82999999999998,216.69,213.33333333333331,213.33333333333331,190.012512,21.04372
27,0.0,1.0,0.0,1.0,1.0,0.0,0.0,1.0,0.0,100.0,1.0,1.1856,26.0,0.0,0.0,0.0,59.999996,0.0,26.0,26.0,26.0,26.0,-0.12837500000000002,0.2574000000000001,-0.04516666666666667,292.206,-2.6096,-2.7633,-1.5465,-1.6761,-184.35,215.9975,190.40625,0.0,0.0,0.0,0.0,0.05469999999999997,-5.498166666666667,-5.498166666666667,-0.6016,-1.0296666666666667,-0.08233333333333359,-0.883,69.36,-0.1119,-0.24600000000000002,1.5660000000000007,100.0,1.0,1.0,213.9,0.0,0.0,0.0,0.0,0.0,0.0,0.0,9066.5,0.0,55.0,5.0,249.67000000000002,1.0,0.0,0.0,0.0,0.0,0.0,0.0,0.0,1.355999999999998,1.355999999999998,0.0,0.0,1.0,55.0,616.79921,10000.0,85.000001,85.000001,85.000001,85.000001,395.0,0.0,0.0,0.0,1.0,166.665,52.277,52.277,47.394,47.394,34.0,-30.255,18.593333333333334,-35.07333333333334,21.97,0.0,1782.337,0.6950000000000003,100.0,28.66,27.771,44.49,43.213,0.0,1.0,100.0,0.0,0.0,0.0,0.0,3302.142857142857,2918.3,4102.666666666667,3862.7,304.96,305.4345,314.8215,315.202,22.0803,20.649,22.0045,21.509999999999998,314.999998,314.999998,324.999988,324.999988,99.56187142857142,99.50736666666667,99.56748571428571,99.54741428571428,-0.043333333333333224,-0.17599999999999993,-0.24066666666666667,-0.012,-0.045000000000001705,-0.04333333333332945,1.494,1.5505,39.001999999999995,30.0565,38.528,35.4375,56.811,35.414,59.594,52.699,54.664,34.5095,58.1765,51.027,53.763,34.0315,58.0725,50.435,-0.02200000000000002,-0.13250000000000006,0.100205,0.11223000000000001,0.0,217.16,217.01999999999998,213.9,213.9,190.012512,21.04372
28,0.0,1.0,0.0,1.0,1.0,0.0,0.0,1.0,0.0,100.0,1.0,1.1856,26.0,0.0,0.0,0.0,59.999996,0.0,26.0,26.0,26.0,26.0,-0.158875,0.26439999999999997,-0.046900000000000004,292.374,-2.6268,-2.7597,-1.4867,-1.6426,-180.81,216.0025,190.38075,0.0,0.0,0.0,0.0,0.0567333333333333,-5.498166666666667,-5.498166666666667,-0.5985,0.6756666666666666,-0.0903333333333336,0.7069999999999999,69.492,-0.1308,-0.21175000000000002,1.42,100.0,1.0,1.0,214.34333333333333,0.0,0.0,0.0,0.0,0.0,0.0,0.0,9085.3,0.0,55.0,5.0,250.14333333333335,0.0,0.0,0.0,0.0,0.0,0.0,0.0,0.0,1.407,1.407,0.0,0.0,0.0,55.0,616.79921,10000.0,85.000001,85.000001,85.000001,85.000001,395.0,0.0,0.0,0.0,1.0,166.665,52.368,52.368,47.852000000000004,47.852000000000004,34.0,-29.5875,18.766666666666666,-35.39,22.425,0.0,1782.285,0.46499999999999986,100.0,29.029,27.48,44.004,42.495000000000005,0.0,1.0,100.0,0.0,0.0,0.0,0.0,3193.285714285714,2932.7,4193.666666666667,4056.7,305.042,305.54775,314.71875,314.87225,22.0902,20.6544,22.0147,21.5188,314.999998,314.999998,324.999988,324.999988,99.56188571428571,99.5074,99.56762857142857,99.54755714285714,-0.04266666666666663,-0.16999999999999993,-0.25,-0.015833333333333335,-0.026666666666670835,-0.04833333333333201,1.5186666666666666,1.5700000000000003,39.063,30.09,38.592,35.4925,56.797,35.458,59.632,52.756,54.65,34.55,58.2125,51.0815,53.748000000000005,34.07,58.1055,50.488,-0.03700000000000003,-0.11499999999999999,0.10514000000000001,0.106745,0.0,217.62,217.49,214.34333333333333,214.34333333333333,190.012512,21.04372
29,0.0,1.0,0.0,1.0,1.0,0.0,0.0,1.0,0.0,100.0,1.0,1.1856,26.0,0.0,0.0,0.0,59.999996,0.0,26.0,26.0,26.0,26.0,-0.14525,0.26570000000000005,0.03746666666666667,292.084,-2.5662,-2.8183,-1.5176500000000002,-1.6231,-177.26,216.005,190.35425,0.0,0.0,0.0,0.0,0.05879999999999996,-5.498166666666667,-5.498166666666667,-0.6091,-0.6813333333333333,-0.09699999999999998,-0.754,69.627,-0.1278,-0.22125,1.1300000000000008,100.0,1.0,1.0,214.63333333333333,0.0,0.0,0.0,0.0,0.0,0.0,0.0,9097.5,0.0,55.0,5.0,250.63333333333333,1.0,0.0,0.0,0.0,0.0,0.0,0.0,0.0,1.4579999999999984,1.4579999999999984,0.0,0.0,1.0,55.0,616.79921,10000.0,85.000001,85.000001,85.000001,85.000001,395.0,0.0,0.0,0.0,1.0,166.665,52.246,52.246,47.272,47.272,34.0,-30.715,18.91166666666667,-36.24666666666667,21.997500000000002,0.0,1782.235,0.4299999999999997,100.0,28.614,27.479,44.399,42.787,0.0,1.0,100.0,0.0,0.0,0.0,0.0,3402.714285714286,2906.4,4263.888888888889,4058.5,304.669,305.38925,314.4865,314.76,22.0998,20.6597,22.0253,21.528,314.999998,314.999998,324.999988,324.999988,99.56188571428571,99.50741666666667,99.5678,99.5477,-0.03866666666666663,-0.17999999999999994,-0.23716666666666666,-0.02466666666666667,-0.051666666666669414,-0.04999999999999716,1.467,1.5175,39.123999999999995,30.122999999999998,38.658,35.5495,56.78,35.501,59.6765,52.8165,54.634,34.5895,58.254,51.1395,53.732,34.1075,58.144,50.544666666666664,-0.055499999999999994,-0.1080000000000001,0.10401,0.10416500000000001,0.0,217.98000000000002,217.89,214.63333333333333,214.63333333333333,190.012512,21.04372
30,0.0,1.0,0.0,1.0,1.0,0.0,0.0,1.0,0.0,100.0,1.0,1.1856,26.0,0.0,0.0,0.0,59.999996,0.0,26.0,26.0,26.0,26.0,-0.14024999999999999,0.26849999999999996,0.009866666666666668,291.58,-2.624,-2.8026,-1.4622,-1.68,-173.92000000000002,216.0025,190.32925,0.0,0.0,0.0,0.0,0.060766666666666524,-5.498166666666667,-5.498166666666667,-0.6001000000000001,0.8176666666666667,-0.09511111111111115,-0.41700000000000004,69.751,-0.12100000000000001,-0.214475,1.1059999999999999,100.0,1.0,1.0,215.04000000000002,0.0,0.0,0.0,0.0,0.0,0.0,0.0,9114.8,0.0,55.0,5.0,251.07999999999998,0.0,0.0,0.0,0.0,0.0,0.0,1.0,0.0,1.5060000000000002,1.5060000000000002,0.0,0.0,0.0,55.0,616.79921,10000.0,85.000001,85.000001,85.000001,85.000001,395.0,0.0,0.0,0.0,1.0,166.665,51.361000000000004,51.361000000000004,47.318,47.318,34.0,-31.785,19.799999999999997,-36.00666666666667,23.33,0.0,1782.186,0.28999999999999915,100.0,29.476,28.134,44.29,42.805,0.0,1.0,100.0,0.0,0.0,0.0,0.0,3504.4285714285716,2963.4,4338.0,4086.0,304.3385,305.377,314.371,314.647,22.1092,20.6649,22.0351,21.5365,314.999998,314.999998,324.999988,324.999988,99.5619,99.50743333333334,99.56794285714285,99.54784285714285,-0.02499999999999991,-0.16199999999999992,-0.23533333333333334,-0.018666666666666668,-0.05333333333332746,-0.045000000000001705,1.475,1.5305,39.183,30.156,38.719,35.603,56.768,35.544,59.714,52.872,54.623000000000005,34.629,58.289500000000004,51.192499999999995,53.72,34.1455,58.176,50.596333333333334,-0.0655,-0.10299999999999998,0.09816000000000001,0.11200500000000001,0.0,218.41500000000002,218.31,215.04000000000002,215.04000000000002,190.012512,21.04372
31,0.0,1.0,0.0,1.0,1.0,0.0,0.0,1.0,0.0,100.0,1.0,1.1856,26.0,0.0,0.0,0.0,59.999996,0.0,26.0,26.0,26.0,26.0,-0.124,0.2594000000000001,0.008333333333333333,291.443,-2.6853,-2.6892,-1.5096,-1.6756,-170.35,215.9975,190.3035,0.0,0.0,0.0,0.0,0.0628333333333333,-5.498166666666667,-5.498166666666667,-0.5925,-0.727,-0.08644444444444455,0.5750000000000002,69.885,-0.1052,-0.22315000000000002,0.6079999999999997,100.0,1.0,1.0,215.36333333333334,0.0,0.0,0.0,0.0,0.0,0.0,0.0,9128.5,0.0,55.0,5.0,251.55666666666667,1.0,0.0,0.0,0.0,0.0,0.0,1.0,0.0,1.5569999999999986,1.5569999999999986,0.0,0.0,1.0,55.0,616.79921,10000.0,85.000001,85.000001,85.000001,85.000001,395.0,0.0,0.0,0.0,1.0,166.665,51.865,51.865,46.126999999999995,46.126999999999995,34.0,-28.557499999999997,20.46333333333333,-34.96,26.595,0.0,1782.136,0.18499999999999872,100.0,29.182,28.023,45.081,43.346000000000004,0.0,1.0,100.0,0.0,0.0,0.0,0.0,3230.285714285714,3134.0,4300.555555555556,4254.4,305.1555,305.0945,314.30325,314.40775,22.1189,20.6705,22.0458,21.5458,314.999998,314.999998,324.999988,324.999988,99.5619,99.50745,99.56808571428571,99.548,-0.003666666666666707,-0.14700000000000002,-0.20450000000000002,0.021166666666666667,-0.05833333333333002,-0.02833333333332888,1.471,1.484,39.242999999999995,30.1905,38.786,35.661,56.75,35.588,59.7585,52.9345,54.605999999999995,34.67,58.3315,51.2525,53.702,34.1845,58.215,50.654666666666664,-0.07199999999999995,-0.09149999999999991,0.101635,0.11316500000000002,0.0,218.775,218.69,215.36333333333334,215.36333333333334,190.012512,21.04372
32,0.0,1.0,0.0,1.0,1.0,0.0,0.0,1.0,0.0,100.0,1.0,1.1856,26.0,0.0,0.0,0.0,59.999996,0.0,26.0,26.0,26.0,26.0,-0.11612500000000003,0.2784,-0.017266666666666666,291.626,-2.5932,-2.7935,-1.5043,-1.5836999999999999,-166.57999999999998,215.9875,190.276125,0.0,0.0,0.0,0.0,0.06503333333333339,-5.498166666666667,-5.498166666666667,-0.6069,0.21633333333333335,-0.10933333333333373,0.581,70.022,-0.0925,-0.2255,0.6000000000000005,100.0,1.0,1.0,215.87666666666667,0.0,0.0,0.0,0.0,0.0,0.0,0.0,9150.2,0.0,55.0,5.0,252.05333333333334,0.0,0.0,0.0,0.0,0.0,0.0,1.0,0.0,1.6110000000000007,1.6110000000000007,0.0,0.0,0.0,55.0,616.79921,10000.0,85.000001,85.000001,85.000001,85.000001,395.0,0.0,0.0,0.0,1.0,166.665,51.819,51.819,46.89,46.89,34.0,-27.3275,21.10666666666667,-33.58,25.37,0.0,1782.082,0.06500000000000128,100.0,29.275,28.057000000000002,44.624,43.144,0.0,1.0,100.0,0.0,0.0,0.0,0.0,3228.285714285714,2987.1,4247.555555555556,4241.8,304.951,305.3025,314.49175,314.47425,22.1291,20.6763,22.0567,21.5553,314.999998,314.999998,324.999988,324.999988,99.5619,99.50748333333334,99.56825714285715,99.54814285714286,0.01100000000000012,-0.133,-0.19516666666666665,0.02783333333333333,-0.046666666666666856,-0.05333333333332746,1.5176666666666665,1.5180000000000002,39.307,30.227,38.854,35.721000000000004,56.732,35.634,59.7995,52.996,54.589,34.712,58.3695,51.3115,53.685,34.225,58.25,50.71233333333333,-0.08050000000000002,-0.08299999999999996,0.10392000000000001,0.10725000000000001,0.0,219.195,219.14499999999998,215.87666666666667,215.87666666666667,190.012512,21.04372
33,0.0,1.0,0.0,1.0,1.0,0.0,0.0,1.0,0.0,100.0,1.0,1.1856,26.0,0.0,0.0,0.0,59.999996,0.0,26.0,26.0,26.0,26.0,-0.08062499999999995,0.2713000000000001,-0.019066666666666666,291.809,-2.6489,-2.7686,-1.5173,-1.6451,-163.42000000000002,215.98000000000002,190.2525,0.0,0.0,0.0,0.0,0.06686666666666652,-5.498166666666667,-5.498166666666667,-0.6122000000000001,-0.485,-0.09355555555555561,0.121,70.138,-0.0825,-0.2165,0.4400000000000004,100.0,1.0,1.0,216.17333333333335,0.0,0.0,0.0,0.0,0.0,0.0,0.0,9162.8,0.0,55.0,5.0,252.47333333333336,1.0,0.0,0.0,0.0,0.0,0.0,1.0,0.0,1.6559999999999988,1.6559999999999988,0.0,0.0,1.0,55.0,616.79921,10000.0,85.000001,85.000001,85.000001,85.000001,395.0,0.0,0.0,0.0,1.0,166.665,52.277,52.277,46.936,46.936,34.0,-27.2675,20.285,-33.32666666666667,26.16,0.0,1782.037,-0.054999999999999716,100.0,28.851,27.982,44.554,43.39,0.0,1.0,100.0,0.0,0.0,0.0,0.0,3243.285714285714,2871.6,4241.888888888889,4194.4,305.1725,305.60075,314.54775,314.41,22.1376,20.681,22.0659,21.5634,314.999998,314.999998,324.999988,324.999988,99.5619,99.50748333333334,99.56838571428571,99.54828571428571,0.01966666666666672,-0.1263333333333332,-0.18633333333333335,0.02766666666666667,-0.061666666666667425,-0.03333333333333144,1.4903333333333333,1.5030000000000001,39.36,30.2565,38.912,35.7715,56.716,35.6685,59.8345,53.049,54.574,34.744,58.4025,51.3625,53.669,34.2555,58.2805,50.76166666666667,-0.09499999999999997,-0.06750000000000012,0.10254500000000001,0.10978500000000001,0.0,219.56,219.49,216.17333333333335,216.17333333333335,190.012512,21.04372
34,0.0,1.0,0.0,1.0,1.0,0.0,0.0,1.0,0.0,100.0,1.0,1.1856,26.0,0.0,0.0,0.0,59.999996,0.0,26.0,26.0,26.0,26.0,-0.05725000000000002,0.2621,-0.10573333333333333,292.404,-2.6652,-2.7483,-1.5888,-1.6094,-159.63,215.965,190.22275,0.0,0.0,0.0,0.0,0.06906666666666661,-5.498166666666667,-5.498166666666667,-0.6482,-0.8193333333333334,-0.05911111111111156,-0.09799999999999986,70.275,-0.06570000000000001,-0.2272,0.33000000000000007,100.0,1.0,1.0,216.69,0.0,0.0,0.0,0.0,0.0,0.0,0.0,9184.7,0.0,55.0,5.0,252.96666666666667,0.0,0.0,0.0,0.0,0.0,0.0,1.0,0.0,1.7100000000000009,1.7100000000000009,0.0,0.0,0.0,55.0,616.79921,10000.0,85.000001,85.000001,85.000001,85.000001,395.0,0.0,0.0,0.0,1.0,166.665,52.841,52.841,47.684,47.684,34.0,-25.71,20.28666666666667,-31.956666666666667,25.6175,0.0,1781.982,-0.07000000000000028,100.0,28.481,27.67,44.141,43.394999999999996,0.0,1.0,100.0,0.0,0.0,0.0,0.0,3080.4285714285716,2848.0,4079.1111111111113,4034.0,305.565,305.6555,315.02525,314.843,22.1476,20.6867,22.0768,21.5731,314.999998,314.999998,324.999988,324.999988,99.56191428571428,99.5075,99.56854285714286,99.54842857142857,0.025333333333333208,-0.11766666666666681,-0.17766666666666667,0.05366666666666667,-0.04999999999999716,-0.026666666666670835,1.5356666666666667,1.5465,39.422,30.292,38.980000000000004,35.832,56.696,35.71,59.873,53.1125,54.556,34.782,58.4385,51.423500000000004,53.65,34.292,58.313,50.821,-0.08750000000000002,-0.07150000000000012,0.10758000000000001,0.11063,0.0,219.945,219.89499999999998,216.69,216.69,190.012512,21.04372
35,0.0,1.0,0.0,1.0,1.0,0.0,0.0,1.0,0.0,100.0,1.0,1.1856,26.0,0.0,0.0,0.0,59.999996,0.0,26.0,26.0,26.0,26.0,-0.04074999999999995,0.2538,-0.0613,292.206,-2.6633,-2.7042,-1.5479500000000002,-1.6214,-156.26,215.9525,190.19425,0.0,0.0,0.0,0.0,0.07103333333333339,-5.498166666666667,-5.498166666666667,-0.6855,-0.19333333333333336,-0.06933333333333369,-1.022,70.396,-0.0517,-0.22737500000000002,0.15799999999999947,100.0,1.0,1.0,217.12666666666667,0.0,0.0,0.0,0.0,0.0,0.0,0.0,9203.2,0.0,55.0,5.0,253.40333333333334,1.0,0.0,0.0,0.0,0.0,0.0,1.0,0.0,1.7579999999999991,1.7579999999999991,0.0,0.0,1.0,55.0,616.79921,10000.0,85.000001,85.000001,85.000001,85.000001,395.0,0.0,0.0,0.0,1.0,166.665,51.926,51.926,47.501,47.501,34.0,-27.115000000000002,23.453333333333333,-29.369999999999997,25.015,0.0,1781.935,-0.015000000000000568,100.0,28.358,28.069,43.839,42.95,0.0,1.0,100.0,0.0,0.0,0.0,0.0,3266.0,3226.8,3988.222222222222,3888.0,305.0985,304.51725,315.18875,315.248,22.1563,20.692,22.0865,21.5815,314.999998,314.999998,324.999988,324.999988,99.56191428571428,99.50751666666666,99.56868571428572,99.54857142857144,0.03166666666666673,-0.10699999999999998,-0.15366666666666667,0.0645,-0.046666666666666856,-0.051666666666669414,1.5656666666666665,1.573,39.477000000000004,30.325,39.04,35.8845,56.677,35.7485,59.9075,53.165,54.538,34.818,58.4705,51.474000000000004,53.631,34.326,58.342,50.87,-0.08099999999999996,-0.07800000000000007,0.102845,0.10404500000000001,0.0,220.325,220.3,217.12666666666667,217.12666666666667,190.012512,21.04372
36,0.0,1.0,0.0,1.0,1.0,0.0,0.0,1.0,0.0,100.0,1.0,1.1856,26.0,0.0,0.0,0.0,59.999996,0.0,26.0,26.0,26.0,26.0,-0.021375000000000033,0.2755000000000001,0.07403333333333334,291.367,-2.6093,-2.7824,-1.51895,-1.6146,-152.66,215.935,190.162625,0.0,0.0,0.0,0.0,0.07309999999999994,-5.498166666666667,-5.498166666666667,-0.6628000000000001,0.03866666666666666,-0.1033333333333335,0.15900000000000025,70.529,-0.0431,-0.20147500000000002,0.20200000000000085,100.0,1.0,1.0,217.25,0.0,0.0,0.0,0.0,0.0,0.0,0.0,9208.4,0.0,55.0,5.0,253.87666666666667,0.0,0.0,0.0,0.0,0.0,0.0,1.0,0.0,1.809000000000001,1.809000000000001,0.0,0.0,0.0,55.0,616.79921,10000.0,85.000001,85.000001,85.000001,85.000001,395.0,0.0,0.0,0.0,1.0,166.665,52.078,52.078,46.524,46.524,34.0,-23.675,22.626666666666665,-32.656666666666666,30.845,0.0,1781.882,-0.0799999999999983,100.0,28.999,28.219,44.195,43.465,0.0,1.0,100.0,0.0,0.0,0.0,0.0,3045.714285714286,2943.8,4407.444444444444,4476.0,305.3995,305.27775,314.117,313.76575,22.1659,20.6977,22.096899999999998,21.5908,314.999998,314.999998,324.999988,324.999988,99.56191428571428,99.50753333333333,99.56884285714285,99.54872857142857,0.062333333333333574,-0.08933333333333326,-0.13883333333333334,0.07616666666666667,-0.04999999999999716,-0.046666666666666856,1.4313333333333333,1.4495,39.537,30.360500000000002,39.105999999999995,35.942499999999995,56.661,35.79,59.947,53.2265,54.522999999999996,34.8565,58.507999999999996,51.533,53.614999999999995,34.363,58.376,50.928,-0.09099999999999997,-0.07550000000000012,0.10450500000000001,0.10584500000000001,0.0,220.76999999999998,220.73000000000002,217.25,217.25,190.012512,21.04372
