,ABS Active,ABS Enabled,AID Allow Tire Blankets,AID Auto Blip,AID Auto Clutch,AID Auto Shift,AID Fuel Rate,AID Ideal Line,AID Mech Damage,AID Stability,AID Tire Wear Rate,Air Density,Air Temp,Ballast,Best Lap Delta,Best Lap Time,Brake Bias,Brake Pos,Brake Temp FL,Brake Temp FR,Brake Temp RL,Brake Temp RR,CG Accel Lateral,CG Accel Longitudinal,CG Accel Vertical,CG Height,Camber FL,Camber FR,Camber RL,Camber RR,Car Coord X,Car Coord Y,Car Coord Z,Car Damage Front,Car Damage Left,Car Damage Rear,Car Damage Right,Car Pos Norm,Caster FL,Caster FR,Chassis Pitch Angle,Chassis Pitch Rate,Chassis Roll Angle,Chassis Roll Rate,Chassis Velocity X,Chassis Velocity Y,Chassis Velocity Z,Chassis Yaw Rate,Clutch Pos,DRS Active,DRS Available,Drive Train Speed,ERS Heat Charging,ERS Is Charging,ERS Max Energy,ERS Power Level,ERS Recovery Level,Engine Brake Setting,Engine Limiter,Engine RPM,Flags,Fuel Level,Gear,Ground Speed,HR Sample Clock,In Pit,KERS Charge,KERS Deployed Energy,KERS Input,KERS Max Energy,LR Sample Clock,Lap Invalidated,Lap Time,Lap Time2,Last Lap Time,Last Sector Time,MR Sample Clock,Max Fuel,Max Power,Max RPM,Max Sus Travel FL,Max Sus Travel FR,Max Sus Travel RL,Max Sus Travel RR,Max Torque,Max Turbo Boost,Num Tires Off Track,Penalties Enabled,Position,Raw Data Sample Rate,Ride Height FL,Ride Height FR,Ride Height RL,Ride Height RR,Road Temp,Self Align Torque FL,Self Align Torque FR,Self Align Torque RL,Self Align Torque RR,Session Lap Count,Session Time Left,Steering Angle,Surface Grip,Suspension Travel FL,Suspension Travel FR,Suspension Travel RL,Suspension Travel RR,TC Active,TC Enabled,Throttle Pos,Tire Dirt Level FL,Tire Dirt Level FR,Tire Dirt Level RL,Tire Dirt Level RR,Tire Load FL,Tire Load FR,Tire Load RL,Tire Load RR,Tire Loaded Radius FL,Tire Loaded Radius FR,Tire Loaded Radius RL,Tire Loaded Radius RR,Tire Pressure FL,Tire Pressure FR,Tire Pressure RL,Tire Pressure RR,Tire Radius FL,Tire Radius FR,Tire Radius RL,Tire Radius RR,Tire Rubber Grip FL,Tire Rubber Grip FR,Tire Rubber Grip RL,Tire Rubber Grip RR,Tire Slip Angle FL,Tire Slip Angle FR,Tire Slip Angle RL,Tire Slip Angle RR,Tire Slip Ratio FL,Tire Slip Ratio FR,Tire Slip Ratio RL,Tire Slip Ratio RR,Tire Temp Core FL,Tire Temp Core FR,Tire Temp Core RL,Tire Temp Core RR,Tire Temp Inner FL,Tire Temp Inner FR,Tire Temp Inner RL,Tire Temp Inner RR,Tire Temp Middle FL,Tire Temp Middle FR,Tire Temp Middle RL,Tire Temp Middle RR,Tire Temp Outer FL,Tire Temp Outer FR,Tire Temp Outer RL,Tire Temp Outer RR,Toe In FL,Toe In FR,Toe In RL,Toe In RR,Turbo Boost,Wheel Angular Speed FL,Wheel Angular Speed FR,Wheel Angular Speed RL,Wheel Angular Speed RR,Wind Direction,Wind Speed
0,0.0,1.0,0.0,1.0,1.0,0.0,0.0,1.0,0.0,100.0,1.0,1.1856,26.0,0.0,0.0,0.0,59.99999,0.0,26.0,26.0,26.0,26.0,-0.012666666666666604,0.28970000000000007,0.153175,293.335,-2.7848,-2.6262499999999998,-1.5491000000000001,-1.5074,-275.51,215.405,190.986875,0.0,0.0,0.0,0.0,0.0016666666666666668,-5.498166666666667,-5.498166666666667,-0.5581,2.289,-0.006444444444444475,-0.254,65.516,-0.042800000000000005,-0.22425,-0.10999999999999943,100.0,1.0,1.0,202.28333333333333,0.0,0.0,0.0,0.0,0.0,0.0,0.0,8574.0,0.0,55.0,5.0,235.82666666666665,0.0,0.0,0.0,0.0,0.0,0.0,0.0,0.0,0.006000000000000227,0.006000000000000227,0.0,0.0,0.0,55.0,616.79921,10000.0,85.0,85.0,85.0,85.0,395.0,0.0,0.0,0.0,1.0,20.0,50.812,50.812,48.798,48.798,34.0,-29.085,33.326,-29.509999999999998,25.9025,0.0,1783.36,0.22500000000000142,100.0,27.265,27.297,40.107,39.565,0.0,1.0,100.0,0.0,0.0,0.0,0.0,3286.714285714286,4364.0,4069.875,4131.0,304.7025,301.12725,314.92525,314.59075,21.7706,20.4981,21.7337,21.2639,314.99999,314.99999,324.99998,324.99998,99.55875714285715,99.50673333333333,99.56385714285715,99.54328571428572,0.021500000000000075,-0.08299999999999996,-0.14416666666666667,0.0755,-0.05833333333333002,-0.011428571428567125,1.56,1.5335,37.067,29.113333333333333,36.836,33.8995,56.230999999999995,34.1505,58.594,50.914500000000004,54.141,33.3455,57.243,49.3165,53.302,32.9165,57.214,48.76133333333333,-0.06899999999999995,-0.08650000000000002,0.10498,0.10374000000000001,0.0,205.29500000000002,205.24,202.28333333333333,202.28333333333333,190.01251,21.04372
1,0.0,1.0,0.0,1.0,1.0,0.0,0.0,1.0,0.0,100.0,1.0,1.1856,26.0,0.0,0.0,0.0,59.999996,0.0,26.0,26.0,26.0,26.0,-0.053333333333333344,0.33299999999999996,0.207625,292.648,-2.6851,-2.718375,-1.5862,-1.3882,-272.17,215.4125,190.967125,0.0,0.0,0.0,0.0,0.003633333333333334,-5.498166666666667,-5.498166666666667,-0.4781,-2.1515,-0.05877777777777782,-0.5100000000000002,65.679,-0.0357,-0.186675,0.4660000000000011,100.0,1.0,1.0,202.17000000000002,0.0,0.0,0.0,0.0,0.0,0.0,0.0,8569.2,0.0,55.0,5.0,236.41,1.0,0.0,0.0,0.0,0.0,0.0,0.0,0.0,0.05699999999999861,0.05699999999999861,0.0,0.0,1.0,55.0,616.79921,10000.0,85.000001,85.000001,85.000001,85.000001,395.0,0.0,0.0,0.0,1.0,333.33500000000004,54.718,54.718,47.684,47.684,34.0,-22.7375,16.494,-37.88333333333333,32.5625,0.0,1783.307,0.28999999999999915,100.0,27.301,26.701,42.365,43.047,0.0,1.0,100.0,0.0,0.0,0.0,0.0,2799.0,2397.0,4732.375,5261.5,306.3425,307.19825,313.11075,311.3265,21.7803,20.5029,21.7446,21.2732,314.999998,314.999998,324.999988,324.999988,99.55877142857143,99.50675,99.564,99.54344285714286,0.03200000000000003,-0.10699999999999998,-0.14666666666666667,0.05416666666666667,-0.03333333333333144,-0.008571428571428896,1.2885,1.3065,37.126999999999995,29.143,36.903999999999996,33.957499999999996,56.211,34.1885,58.6465,50.9915,54.123000000000005,33.3805,57.292,49.39,53.283,32.9505,57.2605,48.833333333333336,-0.06000000000000005,-0.09250000000000025,0.10477500000000001,0.108215,0.0,205.72,205.675,202.17000000000002,202.17000000000002,190.012512,21.04372
2,0.0,1.0,0.0,1.0,1.0,0.0,0.0,1.0,0.0,100.0,1.0,1.1856,26.0,0.0,0.0,0.0,59.999996,0.0,26.0,26.0,26.0,26.0,-0.06488888888888888,0.29590000000000005,-0.08225,294.281,-2.6643,-2.659875,-1.561,-1.5118,-268.82,215.41750000000002,190.948125,0.0,0.0,0.0,0.0,0.005566666666666667,-5.498166666666667,-5.498166666666667,-0.5814,0.978,-0.012444444444444258,1.8,65.814,-0.039900000000000005,-0.270925,0.7620000000000005,100.0,1.0,1.0,203.65333333333334,0.0,0.0,0.0,0.0,0.0,0.0,0.0,8632.1,0.0,55.0,5.0,236.9,0.0,0.0,0.0,0.0,0.0,0.0,0.0,0.0,0.10800000000000054,0.10800000000000054,0.0,0.0,0.0,55.0,616.79921,10000.0,85.000001,85.000001,85.000001,85.000001,395.0,0.0,0.0,0.0,1.0,166.665,52.2,52.2,51.193,51.193,34.0,-29.302500000000002,21.561999999999998,-25.27,18.655,0.0,1783.258,0.4250000000000007,100.0,27.905,27.249,41.396,41.141,0.0,1.0,100.0,0.0,0.0,0.0,0.0,3348.5714285714284,3118.1,3504.0,3369.3,304.6085,304.67175,316.31725,316.547,21.790399999999998,20.508,21.7547,21.281399999999998,314.999998,314.999998,324.999988,324.999988,99.55877142857143,99.50676666666666,99.56412857142857,99.54355714285714,0.0024999999999999467,-0.12149999999999994,-0.17916666666666667,0.058166666666666665,-0.05666666666667197,-0.054285714285711606,1.783,1.8115,37.19,29.174666666666667,36.967,34.0085,56.199,34.2275,58.679,51.036,54.111000000000004,33.4165,57.322,49.433,53.269999999999996,32.985,57.288,48.87533333333333,-0.04600000000000004,-0.10599999999999987,0.0994,0.11096,0.0,206.2,206.13,203.65333333333334,203.65333333333334,190.012512,21.04372
3,0.0,1.0,0.0,1.0,1.0,0.0,0.0,1.0,0.0,100.0,1.0,1.1856,26.0,0.0,0.0,0.0,59.999996,0.0,26.0,26.0,26.0,26.0,-0.06966666666666665,0.29370000000000007,-0.011925,293.365,-2.6847,-2.6892500000000004,-1.5431,-1.4835,-265.65,215.4225,190.928875,0.0,0.0,0.0,0.0,0.0074333333333333335,-5.498166666666667,-5.498166666666667,-0.49870000000000003,0.5110000000000001,0.0,-2.45,65.965,-0.051800000000000006,-0.186425,0.6560000000000006,100.0,1.0,1.0,203.39666666666668,0.0,0.0,0.0,0.0,0.0,0.0,0.0,8621.2,0.0,55.0,5.0,237.44333333333333,1.0,0.0,0.0,0.0,0.0,0.0,0.0,0.0,0.1559999999999988,0.1559999999999988,0.0,0.0,1.0,55.0,616.79921,10000.0,85.000001,85.000001,85.000001,85.000001,395.0,0.0,0.0,0.0,1.0,166.665,53.757,53.757,47.821,47.821,34.0,-23.919999999999998,19.13,-35.946666666666665,26.552500000000002,0.0,1783.21,0.5500000000000007,100.0,27.49,27.228,41.725,41.775999999999996,0.0,1.0,100.0,0.0,0.0,0.0,0.0,2834.142857142857,2813.2,4545.5,4341.8,306.307,305.6675,313.75825,313.88125,21.7994,20.5128,21.764499999999998,21.2898,314.999998,314.999998,324.999988,324.999988,99.55877142857143,99.50678333333333,99.56427142857143,99.5437,0.007000000000000117,-0.12724999999999997,-0.17133333333333334,0.055,-0.036666666666668846,-0.044285714285713595,1.4175,1.4535,37.245999999999995,29.205333333333336,37.028,34.0615,56.181,34.268,58.718,51.1015,54.094,33.4535,57.359,49.4955,53.253,33.0205,57.3215,48.937,-0.04049999999999998,-0.11299999999999999,0.11429500000000001,0.10215,0.0,206.685,206.635,203.39666666666668,203.39666666666668,190.012512,21.04372
4,0.0,1.0,0.0,1.0,1.0,0.0,0.0,1.0,0.0,100.0,1.0,1.1856,26.0,0.0,0.0,0.0,59.999996,0.0,26.0,26.0,26.0,26.0,-0.06822222222222218,0.29879999999999995,-0.0017250000000000002,293.93,-2.6695,-2.7565,-1.48,-1.5964,-262.09,215.425,190.9085,0.0,0.0,0.0,0.0,0.0095,-5.498166666666667,-5.498166666666667,-0.5371,-0.802,-0.05233333333333334,-0.5390000000000001,66.12100000000001,-0.0589,-0.241175,1.0039999999999996,100.0,1.0,1.0,204.13666666666666,0.0,0.0,0.0,0.0,0.0,0.0,0.0,8652.6,0.0,55.0,5.0,238.00666666666666,0.0,0.0,0.0,0.0,0.0,0.0,0.0,0.0,0.21000000000000085,0.21000000000000085,0.0,0.0,0.0,55.0,616.79921,10000.0,85.000001,85.000001,85.000001,85.000001,395.0,0.0,0.0,0.0,1.0,166.665,53.452,53.452,49.347,49.347,34.0,-28.35,19.407999999999998,-30.19,22.595,0.0,1783.156,0.6000000000000014,100.0,27.389,26.764,42.45,41.65,0.0,1.0,100.0,0.0,0.0,0.0,0.0,3204.5714285714284,2837.6,4000.25,3761.6,305.1855,305.69075,315.08625,315.4375,21.8098,20.5181,21.7758,21.2991,314.999998,314.999998,324.999988,324.999988,99.55878571428572,99.5068,99.56442857142856,99.54384285714286,-0.012750000000000039,-0.13674999999999993,-0.18916666666666665,0.043833333333333335,-0.041666666666671404,-0.04571428571428271,1.566,1.6055,37.311,29.238,37.099000000000004,34.119,56.164,34.31,58.7645,51.1655,54.077,33.4925,57.402,49.557,53.235,33.058,57.362,48.997,-0.026999999999999913,-0.12049999999999983,0.10646000000000001,0.11642000000000001,0.0,207.11,207.025,204.13666666666666,204.13666666666666,190.012512,21.04372
5,0.0,1.0,0.0,1.0,1.0,0.0,0.0,1.0,0.0,100.0,1.0,1.1856,26.0,0.0,0.0,0.0,59.999996,0.0,26.0,26.0,26.0,26.0,-0.07522222222222219,0.2872000000000001,-0.05575,294.235,-2.6448,-2.737125,-1.53,-1.5764,-258.91,215.425,190.889875,0.0,0.0,0.0,0.0,0.011333333333333334,-5.498166666666667,-5.498166666666667,-0.5377000000000001,0.6100000000000001,-0.03866666666666685,-0.5369999999999999,66.259,-0.0763,-0.222525,0.9620000000000015,100.0,1.0,1.0,204.63666666666666,0.0,0.0,0.0,0.0,0.0,0.0,0.0,8673.8,0.0,55.0,5.0,238.50333333333333,1.0,0.0,0.0,0.0,0.0,0.0,0.0,0.0,0.2579999999999991,0.2579999999999991,0.0,0.0,1.0,55.0,616.79921,10000.0,85.000001,85.000001,85.000001,85.000001,395.0,0.0,0.0,0.0,1.0,166.665,53.802,53.802,49.667,49.667,34.0,-26.682499999999997,19.38,-31.326666666666664,22.634999999999998,0.0,1783.108,0.35999999999999943,100.0,27.279,26.65,41.982,41.118,0.0,1.0,100.0,0.0,0.0,0.0,0.0,3063.714285714286,2816.9,3933.625,3900.2,305.558,305.666,315.2905,315.153,21.819,20.5229,21.7855,21.3071,314.999998,314.999998,324.999988,324.999988,99.55878571428572,99.5068,99.56455714285714,99.54397142857142,-0.010750000000000037,-0.13175000000000003,-0.21633333333333335,0.03166666666666667,-0.054999999999999716,-0.030000000000001137,1.5825,1.627,37.369,29.268,37.159,34.1695,56.149,34.3485,58.8005,51.221000000000004,54.063,33.528,57.4355,49.61,53.22,33.092,57.393,49.04933333333334,-0.04699999999999993,-0.09699999999999998,0.11364,0.11731000000000001,0.0,207.60000000000002,207.51,204.63666666666666,204.63666666666666,190.012512,21.04372
6,0.0,1.0,0.0,1.0,1.0,0.0,0.0,1.0,0.0,100.0,1.0,1.1856,26.0,0.0,0.0,0.0,59.999996,0.0,26.0,26.0,26.0,26.0,-0.10388888888888892,0.3065,-0.00385,294.022,-2.6715999999999998,-2.7356249999999998,-1.4736,-1.5923,-255.53,215.4225,190.869125,0.0,0.0,0.0,0.0,0.013300000000000001,-5.498166666666667,-5.498166666666667,-0.5293,-0.385,-0.05755555555555558,0.617,66.411,-0.0787,-0.206925,0.7539999999999996,100.0,1.0,1.0,204.91333333333333,0.0,0.0,0.0,0.0,0.0,0.0,0.0,8685.5,0.0,55.0,5.0,239.05,0.0,0.0,0.0,0.0,0.0,0.0,0.0,0.0,0.30900000000000105,0.30900000000000105,0.0,0.0,0.0,55.0,616.79921,10000.0,85.000001,85.000001,85.000001,85.000001,395.0,0.0,0.0,0.0,1.0,166.665,54.001,54.001,49.225,49.225,34.0,-27.755,19.344,-31.673333333333336,24.16,0.0,1783.056,0.27500000000000213,100.0,27.203,26.087,42.315,41.186,0.0,1.0,100.0,0.0,0.0,0.0,0.0,3112.0,2860.4,4125.625,4041.0,305.335,305.85525,314.69025,314.797,21.8287,20.5278,21.796,21.3159,314.999998,314.999998,324.999988,324.999988,99.55878571428572,99.50683333333333,99.5647,99.54411428571429,-0.016249999999999876,-0.13249999999999995,-0.19016666666666665,0.0335,-0.03999999999999915,-0.06285714285714761,1.519,1.565,37.43,29.298666666666666,37.224999999999994,34.2245,56.131,34.388,58.843,51.284,54.046,33.564,57.4755,49.670500000000004,53.203,33.1265,57.4295,49.108333333333334,-0.045499999999999874,-0.09750000000000014,0.10860500000000001,0.10785000000000002,0.0,208.03,207.965,204.91333333333333,204.91333333333333,190.012512,21.04372
7,0.0,1.0,0.0,1.0,1.0,0.0,0.0,1.0,0.0,100.0,1.0,1.1856,26.0,0.0,0.0,0.0,59.999996,0.0,26.0,26.0,26.0,26.0,-0.08499999999999996,0.2976000000000001,-0.017175,293.961,-2.6724,-2.7908749999999998,-1.5264,-1.611,-252.32999999999998,215.42000000000002,190.84975,0.0,0.0,0.0,0.0,0.015166666666666667,-5.498166666666667,-5.498166666666667,-0.535,0.11349999999999993,-0.047666666666666746,1.267,66.549,-0.08,-0.21677500000000002,0.5760000000000005,100.0,1.0,1.0,205.41333333333333,0.0,0.0,0.0,0.0,0.0,0.0,0.0,8706.8,0.0,55.0,5.0,239.54666666666668,1.0,0.0,0.0,0.0,0.0,0.0,0.0,0.0,0.3569999999999993,0.3569999999999993,0.0,0.0,1.0,55.0,616.79921,10000.0,85.000001,85.000001,85.000001,85.000001,395.0,0.0,0.0,0.0,1.0,166.665,53.711,53.711,49.225,49.225,34.0,-26.22,21.168,-32.14333333333333,23.447499999999998,0.0,1783.008,-0.03500000000000014,100.0,27.479,26.362000000000002,42.335,41.150999999999996,0.0,1.0,100.0,0.0,0.0,0.0,0.0,3072.4285714285716,2901.9,4080.375,3941.1000000000004,305.3875,305.6185,314.86275,315.062,21.8381,20.5326,21.805799999999998,21.3242,314.999998,314.999998,324.999988,324.999988,99.55878571428572,99.50683333333333,99.56482857142858,99.54422857142858,0.013749999999999929,-0.10924999999999996,-0.19833333333333333,0.03,-0.026666666666670835,-0.05857142857143316,1.546,1.582,37.488,29.328666666666663,37.286,34.275999999999996,56.117000000000004,34.4265,58.8815,51.341,54.033,33.6,57.5115,49.725,53.189,33.1605,57.463,49.16166666666666,-0.07850000000000001,-0.06800000000000006,0.11296500000000001,0.107075,0.0,208.46,208.41500000000002,205.41333333333333,205.41333333333333,190.012512,21.04372
8,0.0,1.0,0.0,1.0,1.0,0.0,0.0,1.0,0.0,100.0,1.0,1.1856,26.0,0.0,0.0,0.0,59.999996,0.0,26.0,26.0,26.0,26.0,-0.04755555555555557,0.2986,-0.022350000000000002,293.976,-2.6914,-2.7193750000000003,-1.5429,-1.6026,-248.94,215.41500000000002,190.829125,0.0,0.0,0.0,0.0,0.017133333333333334,-5.498166666666667,-5.498166666666667,-0.5372,-0.08199999999999996,-0.0387777777777778,-1.0730000000000004,66.696,-0.0728,-0.21960000000000002,0.33200000000000074,100.0,1.0,1.0,205.86,0.0,0.0,0.0,0.0,0.0,0.0,0.0,8725.7,0.0,55.0,5.0,240.07666666666665,0.0,0.0,0.0,0.0,0.0,0.0,0.0,0.0,0.40800000000000125,0.40800000000000125,0.0,0.0,0.0,55.0,616.79921,10000.0,85.000001,85.000001,85.000001,85.000001,395.0,0.0,0.0,0.0,1.0,333.33500000000004,53.787,53.787,48.95,48.95,34.0,-26.4125,20.922,-31.733333333333334,23.5625,0.0,1782.956,-0.16499999999999915,100.0,27.042,26.682,42.229,41.449,0.0,1.0,100.0,0.0,0.0,0.0,0.0,3099.5714285714284,2894.7,4072.875,3897.0,305.5475,305.456,314.946,315.08375,21.8478,20.5377,21.8162,21.333,314.999998,314.999998,324.999988,324.999988,99.55878571428572,99.50685,99.56498571428571,99.54438571428571,0.01200000000000001,-0.10424999999999995,-0.19033333333333335,0.03866666666666666,-0.051666666666669414,-0.03999999999999915,1.5605,1.576,37.549,29.360666666666667,37.351,34.331,56.101,34.466499999999996,58.922,51.4035,54.016999999999996,33.637,57.5495,49.785,53.173,33.196,57.498,49.220333333333336,-0.0814999999999999,-0.05900000000000016,0.10991000000000001,0.10767000000000002,0.0,208.9,208.87,205.86,205.86,190.012512,21.04372
9,0.0,1.0,0.0,1.0,1.0,0.0,0.0,1.0,0.0,100.0,1.0,1.1856,26.0,0.0,0.0,0.0,59.999996,0.0,26.0,26.0,26.0,26.0,-0.029888888888888854,0.2865,-0.006725,293.777,-2.6711,-2.732875,-1.5287000000000002,-1.5621,-245.73,215.4075,190.8095,0.0,0.0,0.0,0.0,0.019,-5.498166666666667,-5.498166666666667,-0.5343,0.17799999999999994,-0.048555555555555685,-0.73,66.834,-0.062200000000000005,-0.21315,0.1379999999999999,100.0,1.0,1.0,206.25666666666666,0.0,0.0,0.0,0.0,0.0,0.0,0.0,8742.4,0.0,55.0,5.0,240.57333333333332,1.0,0.0,0.0,0.0,0.0,0.0,0.0,0.0,0.4559999999999995,0.4559999999999995,0.0,0.0,1.0,55.0,616.79921,10000.0,85.000001,85.000001,85.000001,85.000001,395.0,0.0,0.0,0.0,1.0,166.665,53.513,53.513,49.149,49.149,34.0,-26.3925,21.706,-31.046666666666663,24.6575,0.0,1782.91,-0.36499999999999844,100.0,27.231,26.676000000000002,42.175,41.516,0.0,1.0,100.0,0.0,0.0,0.0,0.0,3192.0,2907.2,4081.25,4020.3,305.2335,305.432,314.938,314.81575,21.857,20.5425,21.826,21.3413,314.999998,314.999998,324.999988,324.999988,99.5588,99.50686666666667,99.56511428571429,99.54451428571429,0.03100000000000014,-0.08950000000000002,-0.17766666666666667,0.053,-0.05333333333332746,-0.05285714285714249,1.5485,1.567,37.605999999999995,29.390666666666668,37.413,34.382999999999996,56.086,34.5035,58.96,51.4615,54.003,33.671,57.585,49.8405,53.158,33.2285,57.531,49.27466666666667,-0.09749999999999992,-0.04400000000000004,0.11254000000000002,0.109185,0.0,209.32999999999998,209.305,206.25666666666666,206.25666666666666,190.012512,21.04372
10,0.0,1.0,0.0,1.0,1.0,0.0,0.0,1.0,0.0,100.0,1.0,1.1856,26.0,0.0,0.0,0.0,59.999996,0.0,26.0,26.0,26.0,26.0,-0.025666666666666615,0.28990000000000005,0.0119,293.716,-2.67,-2.7197500000000003,-1.5411000000000001,-1.5486,-242.32,215.4,190.78875,0.0,0.0,0.0,0.0,0.021,-5.498166666666667,-5.498166666666667,-0.5301,-0.20899999999999996,-0.023555555555555774,1.48,66.981,-0.0444,-0.21245,-0.25,100.0,1.0,1.0,206.63666666666666,0.0,0.0,0.0,0.0,0.0,0.0,0.0,8758.6,0.0,55.0,5.0,241.10333333333335,0.0,0.0,0.0,0.0,0.0,0.0,1.0,0.0,0.5069999999999979,0.5069999999999979,0.0,0.0,0.0,55.0,616.79921,10000.0,85.000001,85.000001,85.000001,85.000001,395.0,0.0,0.0,0.0,1.0,166.665,53.802,53.802,48.888999999999996,48.888999999999996,34.0,-23.634999999999998,23.078,-29.906666666666666,27.0075,0.0,1782.859,-0.3999999999999986,100.0,27.344,26.466,42.370000000000005,41.674,0.0,1.0,100.0,0.0,0.0,0.0,0.0,2967.0,2987.2,4066.875,4217.6,305.7135,305.3925,314.8695,314.4115,21.8667,20.5476,21.8365,21.3502,314.999998,314.999998,324.999988,324.999988,99.5588,99.50686666666667,99.56525714285715,99.54465714285715,0.052000000000000046,-0.06374999999999997,-0.149,0.07116666666666667,-0.036666666666668846,-0.034285714285715585,1.531,1.5175,37.667,29.422666666666665,37.477999999999994,34.4385,56.071,34.542,59.0015,51.5245,53.989000000000004,33.706,57.623,49.900999999999996,53.143,33.2625,57.5665,49.334,-0.10299999999999998,-0.0365000000000002,0.108645,0.101205,0.0,209.765,209.755,206.63666666666666,206.63666666666666,190.012512,21.04372
11,0.0,1.0,0.0,1.0,1.0,0.0,0.0,1.0,0.0,100.0,1.0,1.1856,26.0,0.0,0.0,0.0,59.999996,0.0,26.0,26.0,26.0,26.0,0.016555555555555657,0.2984,-0.04755,293.991,-2.7019,-2.70625,-1.5474999999999999,-1.5210000000000001,-238.9,215.39,190.767625,0.0,0.0,0.0,0.0,0.022600000000000002,-5.498166666666667,-5.498166666666667,-0.5511,-0.2865,0.0006666666666665932,-0.387,67.125,-0.026600000000000002,-0.2243,-0.2839999999999989,100.0,1.0,1.0,207.18666666666667,0.0,0.0,0.0,0.0,0.0,0.0,0.0,8781.9,0.0,55.0,5.0,241.62,1.0,0.0,0.0,0.0,0.0,0.0,1.0,0.0,0.5579999999999998,0.5579999999999998,0.0,0.0,1.0,55.0,616.79921,10000.0,85.000001,85.000001,85.000001,85.000001,395.0,0.0,0.0,0.0,1.0,333.33500000000004,53.757,53.757,49.393,49.393,34.0,-24.72,23.037999999999997,-27.62,25.755000000000003,0.0,1782.807,-0.3150000000000013,100.0,26.889,26.676000000000002,42.055,41.795,0.0,1.0,100.0,0.0,0.0,0.0,0.0,3088.142857142857,2984.9,3892.125,4008.9,305.568,305.216,315.37775,314.8585,21.8763,20.5528,21.8468,21.359,314.999998,314.999998,324.999988,324.999988,99.55881428571429,99.50688333333333,99.5654,99.5448,0.0535000000000001,-0.06725000000000003,-0.13983333333333334,0.08966666666666667,-0.05333333333332746,-0.048571428571428044,1.5975,1.5935,37.727000000000004,29.455,37.543,34.494,56.055,34.58,59.039500000000004,51.586,53.974000000000004,33.7415,57.658500000000004,49.96,53.126999999999995,33.296,57.599000000000004,49.391999999999996,-0.09999999999999987,-0.04150000000000009,0.11186000000000001,0.10445000000000002,0.0,210.195,210.20499999999998,207.18666666666667,207.18666666666667,190.012512,21.04372
12,0.0,1.0,0.0,1.0,1.0,0.0,0.0,1.0,0.0,100.0,1.0,1.1856,26.0,0.0,0.0,0.0,59.999996,0.0,26.0,26.0,26.0,26.0,-0.01633333333333331,0.29810000000000003,0.018575,293.549,-2.7056,-2.69,-1.5649000000000002,-1.5334,-235.47,215.3825,190.74575,0.0,0.0,0.0,0.0,0.025466666666666665,-5.498166666666667,-5.498166666666667,-0.5407000000000001,0.405,0.008999999999999897,0.5960000000000001,67.27,-0.007500000000000001,-0.20420000000000002,-0.4499999999999993,100.0,1.0,1.0,207.54000000000002,0.0,0.0,0.0,0.0,0.0,0.0,0.0,8796.8,0.0,55.0,5.0,242.14333333333335,0.0,0.0,0.0,0.0,0.0,0.0,1.0,0.0,0.6089999999999982,0.6089999999999982,0.0,0.0,0.0,55.0,616.79921,10000.0,85.000001,85.000001,85.000001,85.000001,395.0,0.0,0.0,0.0,1.0,166.665,53.436,53.436,48.66,48.66,34.0,-25.6375,22.434,-28.096666666666664,29.1875,0.0,1782.756,0.629999999999999,100.0,27.207,26.926000000000002,42.015,41.772,0.0,1.0,100.0,0.0,0.0,0.0,0.0,2959.4285714285716,3133.8,4072.625,4254.3,305.7565,304.90125,314.9125,314.3475,21.8859,20.5581,21.8571,21.3679,314.999998,314.999998,324.999988,324.999988,99.55882857142858,99.50688333333333,99.56554285714286,99.54494285714286,0.007000000000000117,-0.10475000000000001,-0.1085,0.11333333333333333,-0.01999999999999602,-0.07285714285714562,1.5494999999999999,1.547,37.787,29.488333333333333,37.607,34.549,56.041,34.619,59.0775,51.6485,53.961,33.7775,57.694,50.019999999999996,53.113,33.3305,57.6315,49.45066666666666,-0.03400000000000003,-0.10650000000000004,0.108685,0.10851500000000001,0.0,210.66500000000002,210.715,207.54000000000002,207.54000000000002,190.012512,21.04372
13,0.0,1.0,0.0,1.0,1.0,0.0,0.0,1.0,0.0,100.0,1.0,1.1856,26.0,0.0,0.0,0.0,59.999996,0.0,26.0,26.0,26.0,26.0,0.0431111111111111,0.28300000000000014,0.010475,293.365,-2.6856,-2.70925,-1.5805,-1.5465,-232.04,215.375,190.72425,0.0,0.0,0.0,0.0,0.02696666666666667,-5.498166666666667,-5.498166666666667,-0.5404,-0.3395,-0.0023333333333335204,-0.5380000000000003,67.41499999999999,-0.0074,-0.217925,-0.2699999999999996,100.0,1.0,1.0,207.94333333333333,0.0,0.0,0.0,0.0,0.0,0.0,0.0,8813.9,0.0,55.0,5.0,242.66333333333336,1.0,0.0,0.0,0.0,0.0,0.0,1.0,0.0,0.6600000000000001,0.6600000000000001,0.0,0.0,1.0,55.0,616.79921,10000.0,85.000001,85.000001,85.000001,85.000001,395.0,0.0,0.0,0.0,1.0,166.665,53.329,53.329,48.644999999999996,48.644999999999996,34.0,-23.5825,24.118,-29.216666666666665,28.7075,0.0,1782.705,-0.375,100.0,27.251,27.157,42.288,42.301,0.0,1.0,100.0,0.0,0.0,0.0,0.0,3107.4285714285716,2974.0,4118.25,4177.4,305.504,305.229,314.85875,314.416,21.8955,20.5634,21.8676,21.3769,314.999998,314.999998,324.999988,324.999988,99.55884285714286,99.50688333333333,99.56568571428572,99.54508571428572,0.08124999999999982,-0.03874999999999995,-0.11866666666666667,0.10666666666666667,-0.03333333333333144,-0.06857142857143117,1.532,1.512,37.847,29.521333333333335,37.673,34.6055,56.028,34.6575,59.1185,51.713,53.948,33.813,57.732,50.0815,53.099000000000004,33.3645,57.6665,49.51133333333333,-0.11050000000000004,-0.034499999999999975,0.10378000000000001,0.10600000000000001,0.0,211.10500000000002,211.13,207.94333333333333,207.94333333333333,190.012512,21.04372
14,0.0,1.0,0.0,1.0,1.0,0.0,0.0,1.0,0.0,100.0,1.0,1.1856,26.0,0.0,0.0,0.0,59.999996,0.0,26.0,26.0,26.0,26.0,0.049555555555555575,0.28200000000000003,-0.042325,293.61,-2.6835,-2.7196249999999997,-1.5556,-1.5401,-228.8,215.3675,190.704125,0.0,0.0,0.0,0.0,0.02886666666666667,-5.498166666666667,-5.498166666666667,-0.551,-0.012499999999999956,0.013222222222222024,-0.39300000000000024,67.548,-0.0027,-0.2248,-0.35599999999999987,100.0,1.0,1.0,208.45333333333332,0.0,0.0,0.0,0.0,0.0,0.0,0.0,8835.6,0.0,55.0,5.0,243.14333333333335,0.0,0.0,0.0,0.0,0.0,0.0,1.0,0.0,0.7079999999999984,0.7079999999999984,0.0,0.0,0.0,55.0,616.79921,10000.0,85.000001,85.000001,85.000001,85.000001,395.0,0.0,0.0,0.0,1.0,166.665,53.406,53.406,49.010999999999996,49.010999999999996,34.0,-22.9725,23.712,-27.033333333333335,27.9225,0.0,1782.658,-0.46999999999999886,100.0,27.231,27.277,42.150999999999996,42.258,0.0,1.0,100.0,0.0,0.0,0.0,0.0,3059.285714285714,2944.2,3958.875,4052.0,305.6485,305.28275,315.231,314.7575,21.9045,20.5684,21.8774,21.3852,314.999998,314.999998,324.999988,324.999988,99.55884285714286,99.5069,99.56582857142857,99.54521428571428,0.08524999999999983,-0.04574999999999996,-0.111,0.11750000000000001,-0.03333333333333144,-0.05857142857143316,1.5695,1.551,37.903,29.552666666666667,37.733999999999995,34.6575,56.015,34.6935,59.153999999999996,51.771,53.936,33.8465,57.7655,50.1375,53.086,33.3965,57.697,49.566,-0.11399999999999988,-0.03600000000000003,0.10688,0.105135,0.0,211.51,211.525,208.45333333333332,208.45333333333332,190.012512,21.04372
15,0.0,1.0,0.0,1.0,1.0,0.0,0.0,1.0,0.0,100.0,1.0,1.1856,26.0,0.0,0.0,0.0,59.999996,0.0,26.0,26.0,26.0,26.0,0.048555555555555685,0.2865,-0.025900000000000003,293.457,-2.6712,-2.6975,-1.5430000000000001,-1.5630000000000002,-225.55,215.36,190.6835,0.0,0.0,0.0,0.0,0.03073333333333333,-5.498166666666667,-5.498166666666667,-0.5438000000000001,0.1995,0.018111111111110967,-0.8140000000000001,67.68299999999999,0.0025,-0.21177500000000002,-0.3520000000000003,100.0,1.0,1.0,208.82333333333332,0.0,0.0,0.0,0.0,0.0,0.0,0.0,8851.2,0.0,55.0,5.0,243.63,1.0,0.0,0.0,0.0,0.0,0.0,1.0,0.0,0.7560000000000002,0.7560000000000002,0.0,0.0,1.0,55.0,616.79921,10000.0,85.000001,85.000001,85.000001,85.000001,395.0,0.0,0.0,0.0,1.0,333.33500000000004,53.36,53.36,48.721000000000004,48.721000000000004,34.0,-22.9075,23.118,-27.973333333333333,28.2125,0.0,1782.608,-0.3550000000000004,100.0,27.273,27.392,42.102000000000004,42.381,0.0,1.0,100.0,0.0,0.0,0.0,0.0,3046.5714285714284,2926.6,4075.0,4071.7,305.686,305.3195,314.9645,314.67475,21.9135,20.5735,21.8871,21.3937,314.999998,314.999998,324.999988,324.999988,99.55885714285715,99.5069,99.56595714285714,99.54535714285714,0.08150000000000013,-0.05249999999999999,-0.1115,0.11216666666666668,-0.04833333333333201,-0.0357142857142847,1.5365,1.5405,37.959,29.584333333333333,37.794,34.710499999999996,56.001999999999995,34.7295,59.189499999999995,51.8305,53.924,33.8795,57.7985,50.195,53.073,33.4285,57.727000000000004,49.622,-0.10299999999999998,-0.04999999999999982,0.10868000000000001,0.10615000000000001,0.0,211.95499999999998,211.95499999999998,208.82333333333332,208.82333333333332,190.012512,21.04372
16,0.0,1.0,0.0,1.0,1.0,0.0,0.0,1.0,0.0,100.0,1.0,1.1856,26.0,0.0,0.0,0.0,59.999996,0.0,26.0,26.0,26.0,26.0,0.03388888888888886,0.26370000000000005,-0.0022,293.213,-2.6978999999999997,-2.6494999999999997,-1.574,-1.5610000000000002,-222.1,215.35500000000002,190.6615,0.0,0.0,0.0,0.0,0.03276666666666667,-5.498166666666667,-5.498166666666667,-0.5546,-0.2945,0.008333333333333304,0.3999999999999999,67.825,0.008700000000000001,-0.22517500000000001,-0.32200000000000095,100.0,1.0,1.0,209.25333333333333,0.0,0.0,0.0,0.0,0.0,0.0,0.0,8869.5,0.0,55.0,5.0,244.14,0.0,0.0,0.0,0.0,0.0,0.0,1.0,0.0,0.8069999999999986,0.8069999999999986,0.0,0.0,0.0,55.0,616.79921,10000.0,85.000001,85.000001,85.000001,85.000001,395.0,0.0,0.0,0.0,1.0,333.33500000000004,52.887,52.887,48.416,48.416,34.0,-23.0925,25.532,-27.273333333333333,28.97,0.0,1782.557,-0.26500000000000057,100.0,27.404,27.371000000000002,42.461,42.479,0.0,1.0,100.0,0.0,0.0,0.0,0.0,3062.857142857143,3179.4,4032.5,4017.6000000000004,305.434,304.7615,315.0315,314.86475,21.9229,20.5789,21.8975,21.4027,314.999998,314.999998,324.999988,324.999988,99.55887142857142,99.50691666666667,99.56611428571429,99.54551428571429,0.09224999999999994,-0.03374999999999995,-0.0965,0.13766666666666666,-0.04333333333332945,-0.05857142857143316,1.5525,1.5285,38.018,29.618000000000002,37.858999999999995,34.7665,55.986999999999995,34.7705,59.2315,51.897,53.909,33.917500000000004,57.8375,50.2585,53.058,33.465,57.763,49.684666666666665,-0.09549999999999992,-0.04850000000000021,0.10817,0.11307,0.0,212.345,212.385,209.25333333333333,209.25333333333333,190.012512,21.04372
17,0.0,1.0,0.0,1.0,1.0,0.0,0.0,1.0,0.0,100.0,1.0,1.1856,26.0,0.0,0.0,0.0,59.999996,0.0,26.0,26.0,26.0,26.0,0.03955555555555579,0.29520000000000013,0.039575,292.969,-2.662,-2.72825,-1.5371000000000001,-1.5211000000000001,-218.63,215.35,190.63925,0.0,0.0,0.0,0.0,0.03476666666666667,-5.498166666666667,-5.498166666666667,-0.5511,0.16349999999999998,-0.010444444444444478,-1.1210000000000004,67.96600000000001,0.0063,-0.21855000000000002,-0.14400000000000013,100.0,1.0,1.0,209.62666666666667,0.0,0.0,0.0,0.0,0.0,0.0,0.0,8885.3,0.0,55.0,5.0,244.65,1.0,0.0,0.0,0.0,0.0,0.0,1.0,0.0,0.8580000000000005,0.8580000000000005,0.0,0.0,1.0,55.0,616.79921,10000.0,85.000001,85.000001,85.000001,85.000001,395.0,0.0,0.0,0.0,1.0,333.33500000000004,52.872,52.872,48.111000000000004,48.111000000000004,34.0,-23.47,24.044,-28.616666666666664,28.5225,0.0,1782.507,-0.18499999999999872,100.0,27.521,27.654,42.406,42.592,0.0,1.0,100.0,0.0,0.0,0.0,0.0,3097.5714285714284,2985.9,4197.5,4170.2,305.4715,305.02875,314.65875,314.48975,21.9324,20.5843,21.907899999999998,21.4116,314.999998,314.999998,324.999988,324.999988,99.55887142857142,99.50691666666667,99.56625714285714,99.54564285714285,0.07925000000000004,-0.052749999999999964,-0.10416666666666667,0.113,-0.06499999999999773,-0.048571428571428044,1.521,1.524,38.078,29.652,37.924,34.8225,55.974000000000004,34.8075,59.268,51.956,53.897,33.951499999999996,57.8715,50.315,53.045,33.4975,57.794,49.74033333333333,-0.08999999999999986,-0.06050000000000022,0.11278500000000001,0.10474000000000001,0.0,212.835,212.835,209.62666666666667,209.62666666666667,190.012512,21.04372
18,0.0,1.0,0.0,1.0,1.0,0.0,0.0,1.0,0.0,100.0,1.0,1.1856,26.0,0.0,0.0,0.0,59.999996,0.0,26.0,26.0,26.0,26.0,0.038000000000000034,0.27649999999999997,0.017675,293.106,-2.6482,-2.763125,-1.5191,-1.5925,-215.16,215.3475,190.61675,0.0,0.0,0.0,0.0,0.03676666666666667,-5.498166666666667,-5.498166666666667,-0.5623,-0.32099999999999995,-0.007888888888889056,0.8780000000000001,68.107,0.0001,-0.226775,-0.1639999999999997,100.0,1.0,1.0,210.07333333333332,0.0,0.0,0.0,0.0,0.0,0.0,0.0,8904.3,0.0,55.0,5.0,245.16,0.0,0.0,0.0,0.0,0.0,0.0,1.0,0.0,0.9089999999999989,0.9089999999999989,0.0,0.0,0.0,55.0,616.79921,10000.0,85.000001,85.000001,85.000001,85.000001,395.0,0.0,0.0,0.0,1.0,166.665,52.994,52.994,48.522999999999996,48.522999999999996,34.0,-22.91,25.073999999999998,-26.703333333333333,29.435000000000002,0.0,1782.456,-0.16999999999999815,100.0,27.647,27.381999999999998,42.643,42.604,0.0,1.0,100.0,0.0,0.0,0.0,0.0,3017.4285714285716,3070.1,3973.0,4122.4,305.5845,305.03625,315.09325,314.575,21.9419,20.5896,21.9183,21.4206,314.999998,314.999998,324.999988,324.999988,99.55888571428571,99.50691666666667,99.56638571428572,99.54578571428571,0.07650000000000023,-0.04625000000000001,-0.10616666666666667,0.11883333333333333,-0.030000000000001137,-0.047142857142851824,1.542,1.5295,38.137,29.685333333333332,37.989000000000004,34.879,55.96,34.845,59.307,52.0185,53.882999999999996,33.9865,57.9075,50.3755,53.03,33.531,57.827,49.79933333333334,-0.08499999999999996,-0.06150000000000011,0.111945,0.10666500000000001,0.0,213.23000000000002,213.245,210.07333333333332,210.07333333333332,190.012512,21.04372
19,0.0,1.0,0.0,1.0,1.0,0.0,0.0,1.0,0.0,100.0,1.0,1.1856,26.0,0.0,0.0,0.0,59.999996,0.0,26.0,26.0,26.0,26.0,0.04200000000000004,0.2732000000000001,-0.01365,292.892,-2.6339,-2.7199999999999998,-1.5223,-1.6079,-211.69,215.3425,190.594,0.0,0.0,0.0,0.0,0.0388,-5.498166666666667,-5.498166666666667,-0.5501,0.5190000000000001,-0.00011111111111095084,-0.6930000000000001,68.24600000000001,-0.0066,-0.21195,0.016000000000000014,100.0,1.0,1.0,210.5233333333333,0.0,0.0,0.0,0.0,0.0,0.0,0.0,8923.3,0.0,55.0,5.0,245.66,1.0,0.0,0.0,0.0,0.0,0.0,1.0,0.0,0.9600000000000009,0.9600000000000009,0.0,0.0,1.0,55.0,616.79921,10000.0,85.000001,85.000001,85.000001,85.000001,395.0,0.0,0.0,0.0,1.0,166.665,52.75,52.75,48.385999999999996,48.385999999999996,34.0,-23.5525,22.676,-28.723333333333333,28.814999999999998,0.0,1782.406,-0.15500000000000114,100.0,27.921,27.895,42.505,42.798,0.0,1.0,100.0,0.0,0.0,0.0,0.0,3103.857142857143,2909.7,4116.875,4080.1000000000004,305.4995,305.332,314.87075,314.62725,21.9515,20.5951,21.9286,21.4297,314.999998,314.999998,324.999988,324.999988,99.5589,99.50693333333334,99.56654285714286,99.54594285714286,0.0714999999999999,-0.06625000000000003,-0.12233333333333334,0.10733333333333334,-0.05666666666667197,-0.044285714285713595,1.5105,1.52,38.197,29.719666666666665,38.054,34.9355,55.948,34.8855,59.3445,52.0805,53.870999999999995,34.0235,57.942499999999995,50.4355,53.016999999999996,33.5665,57.859,49.858000000000004,-0.09549999999999992,-0.06349999999999989,0.102995,0.11087000000000001,0.0,213.72,213.69,210.5233333333333,210.5233333333333,190.012512,21.04372
20,0.0,1.0,0.0,1.0,1.0,0.0,0.0,1.0,0.0,100.0,1.0,1.1856,26.0,0.0,0.0,0.0,59.999996,0.0,26.0,26.0,26.0,26.0,0.011333333333333417,0.26880000000000015,-0.04075,292.892,-2.6945,-2.66725,-1.5931000000000002,-1.5447000000000002,-208.2,215.34,190.5715,0.0,0.0,0.0,0.0,0.04083333333333333,-5.498166666666667,-5.498166666666667,-0.5581,-0.6699999999999999,0.0003333333333332966,0.5640000000000001,68.386,-0.0114,-0.22705,-0.0259999999999998,100.0,1.0,1.0,210.93,0.0,0.0,0.0,0.0,0.0,0.0,0.0,8940.6,0.0,55.0,5.0,246.16333333333336,0.0,0.0,0.0,0.0,0.0,0.0,0.0,0.0,1.0109999999999992,1.0109999999999992,0.0,0.0,0.0,55.0,616.79921,10000.0,85.000001,85.000001,85.000001,85.000001,395.0,0.0,0.0,0.0,1.0,166.665,52.933,52.933,47.897,47.897,34.0,-23.185,23.994,-28.263333333333335,27.3925,0.0,1782.355,-0.21000000000000085,100.0,27.78,27.529,43.164,43.053,0.0,1.0,100.0,0.0,0.0,0.0,0.0,3006.714285714286,3108.8,4036.5,4029.9,305.659,305.01825,314.969,314.907,21.9609,20.6005,21.9391,21.4388,314.999998,314.999998,324.999988,324.999988,99.5589,99.50693333333334,99.56668571428571,99.54608571428571,0.07650000000000023,-0.05799999999999994,-0.10666666666666667,0.10983333333333332,-0.03833333333332689,-0.05142857142856627,1.53,1.536,38.256,29.753333333333334,38.119,34.9925,55.933,34.9245,59.385,52.1445,53.857,34.0595,57.9805,50.4965,53.001999999999995,33.601,57.894,49.918,-0.08999999999999986,-0.06050000000000022,0.10357000000000001,0.10550500000000002,0.0,214.095,214.085,210.93,210.93,190.012512,21.04372
21,0.0,1.0,0.0,1.0,1.0,0.0,0.0,1.0,0.0,100.0,1.0,1.1856,26.0,0.0,0.0,0.0,59.999996,0.0,26.0,26.0,26.0,26.0,0.015555555555555545,0.28,-0.038450000000000005,292.984,-2.711,-2.647875,-1.5526,-1.5383,-205.12,215.3375,190.55125,0.0,0.0,0.0,0.0,0.042633333333333336,-5.498166666666667,-5.498166666666667,-0.5736,0.044499999999999984,-0.012666666666666604,-0.6560000000000001,68.508,-0.013600000000000001,-0.225075,0.013999999999999346,100.0,1.0,1.0,211.38,0.0,0.0,0.0,0.0,0.0,0.0,0.0,8959.6,0.0,55.0,5.0,246.60000000000002,1.0,0.0,0.0,0.0,0.0,0.0,0.0,0.0,1.056000000000001,1.056000000000001,0.0,0.0,1.0,55.0,616.79921,10000.0,85.000001,85.000001,85.000001,85.000001,395.0,0.0,0.0,0.0,1.0,166.665,52.75,52.75,48.477000000000004,48.477000000000004,34.0,-25.4775,23.451999999999998,-28.513333333333335,26.5325,0.0,1782.31,-0.23499999999999943,100.0,27.67,27.556,42.785,42.772999999999996,0.0,1.0,100.0,0.0,0.0,0.0,0.0,3222.714285714286,3039.7,4029.75,3985.8,305.1935,305.07125,315.09725,314.97475,21.9693,20.6053,21.9482,21.4467,314.999998,314.999998,324.999988,324.999988,99.55891428571428,99.50695,99.56681428571429,99.54621428571429,0.0674999999999999,-0.056499999999999995,-0.1305,0.10316666666666667,-0.05666666666667197,-0.054285714285711606,1.575,1.5725,38.308,29.783,38.176,35.0415,55.92,34.9585,59.417,52.197,53.845,34.091499999999996,58.0105,50.547,52.989999999999995,33.6315,57.921,49.967666666666666,-0.09050000000000002,-0.051000000000000156,0.10601000000000001,0.11114,0.0,214.5,214.48000000000002,211.38,211.38,190.012512,21.04372
22,0.0,1.0,0.0,1.0,1.0,0.0,0.0,1.0,0.0,100.0,1.0,1.1856,26.0,0.0,0.0,0.0,59.999996,0.0,26.0,26.0,26.0,26.0,0.003555555555555534,0.28900000000000015,0.016325,292.557,-2.7517,-2.682625,-1.5601,-1.5334,-201.62,215.335,190.5275,0.0,0.0,0.0,0.0,0.04463333333333333,-5.498166666666667,-5.498166666666667,-0.5578000000000001,0.05699999999999994,-0.0003333333333332966,1.074,68.648,-0.0159,-0.20122500000000001,-0.13400000000000034,100.0,1.0,1.0,211.64666666666668,0.0,0.0,0.0,0.0,0.0,0.0,0.0,8970.9,0.0,55.0,5.0,247.10333333333335,0.0,0.0,0.0,0.0,0.0,0.0,0.0,0.0,1.1069999999999993,1.1069999999999993,0.0,0.0,0.0,55.0,616.79921,10000.0,85.000001,85.000001,85.000001,85.000001,395.0,0.0,0.0,0.0,1.0,166.665,52.826,52.826,47.638,47.638,34.0,-24.325,24.53,-29.653333333333336,30.635,0.0,1782.259,-0.3049999999999997,100.0,27.849,27.448999999999998,42.992000000000004,42.794,0.0,1.0,100.0,0.0,0.0,0.0,0.0,3080.285714285714,3134.7,4216.0,4385.0,305.504,304.97075,314.54275,314.0685,21.9788,20.6107,21.9586,21.4557,314.999998,314.999998,324.999988,324.999988,99.55892857142857,99.50695,99.56695714285715,99.54635714285715,0.07600000000000007,-0.05325000000000002,-0.111,0.11483333333333333,-0.036666666666668846,-0.04999999999999716,1.5085,1.4875,38.367000000000004,29.817,38.241,35.0985,55.907,34.998,59.4565,52.2595,53.832,34.1275,58.0475,50.607,52.976,33.6665,57.955,50.02633333333333,-0.10199999999999987,-0.05250000000000021,0.10069,0.11382500000000001,0.0,214.935,214.91500000000002,211.64666666666668,211.64666666666668,190.012512,21.04372
23,0.0,1.0,0.0,1.0,1.0,0.0,0.0,1.0,0.0,100.0,1.0,1.1856,26.0,0.0,0.0,0.0,59.999996,0.0,26.0,26.0,26.0,26.0,0.010222222222222133,0.272,0.0077,292.496,-2.6534,-2.70175,-1.6236000000000002,-1.5441,-198.12,215.33249999999998,190.503875,0.0,0.0,0.0,0.0,0.046700000000000005,-5.498166666666667,-5.498166666666667,-0.5720000000000001,-0.25649999999999995,-0.00655555555555587,-0.7450000000000001,68.785,-0.0103,-0.224825,-0.15799999999999947,100.0,1.0,1.0,212.10333333333335,0.0,0.0,0.0,0.0,0.0,0.0,0.0,8990.2,0.0,55.0,5.0,247.59666666666666,1.0,0.0,0.0,0.0,0.0,0.0,0.0,0.0,1.1580000000000013,1.1580000000000013,0.0,0.0,1.0,55.0,616.79921,10000.0,85.000001,85.000001,85.000001,85.000001,395.0,0.0,0.0,0.0,1.0,166.665,52.521,52.521,47.806,47.806,34.0,-24.915,23.088,-31.353333333333335,28.34,0.0,1782.208,-0.23000000000000043,100.0,27.923000000000002,27.778,43.073,43.117000000000004,0.0,1.0,100.0,0.0,0.0,0.0,0.0,3218.857142857143,2987.6,4269.875,4140.6,305.1175,305.14675,314.56325,314.5785,21.9883,20.6162,21.969,21.4649,314.999998,314.999998,324.999988,324.999988,99.55892857142857,99.50696666666667,99.56711428571428,99.5465,0.06950000000000012,-0.06825000000000003,-0.1225,0.10683333333333334,-0.04833333333333201,-0.044285714285713595,1.525,1.5150000000000001,38.427,29.851,38.306,35.1555,55.893,35.0375,59.496,52.3225,53.819,34.164500000000004,58.084,50.667500000000004,52.962,33.701499999999996,57.9885,50.08533333333334,-0.10199999999999987,-0.06000000000000005,0.10235000000000001,0.10549000000000001,0.0,215.325,215.345,212.10333333333335,212.10333333333335,190.012512,21.04372
24,0.0,1.0,0.0,1.0,1.0,0.0,0.0,1.0,0.0,100.0,1.0,1.1856,26.0,0.0,0.0,0.0,59.999996,0.0,26.0,26.0,26.0,26.0,0.019333333333333425,0.272,-0.0497,292.999,-2.7016,-2.704625,-1.5372,-1.5582,-194.61,215.33249999999998,190.479875,0.0,0.0,0.0,0.0,0.04873333333333334,-5.498166666666667,-5.498166666666667,-0.5875,-0.44699999999999995,0.008111111111110958,1.148,68.92099999999999,-0.0071,-0.223025,-0.2159999999999993,100.0,1.0,1.0,212.56666666666666,0.0,0.0,0.0,0.0,0.0,0.0,0.0,9009.9,0.0,55.0,5.0,248.08666666666664,0.0,0.0,0.0,0.0,0.0,0.0,0.0,0.0,1.2089999999999996,1.2089999999999996,0.0,0.0,0.0,55.0,616.79921,10000.0,85.000001,85.000001,85.000001,85.000001,395.0,0.0,0.0,0.0,1.0,166.665,53.192,53.192,48.096000000000004,48.096000000000004,34.0,-22.715,24.152,-27.593333333333334,28.17,0.0,1782.157,-0.23499999999999943,100.0,27.797,27.357,43.063,42.922,0.0,1.0,100.0,0.0,0.0,0.0,0.0,2952.0,3046.4,4018.875,4104.8,305.856,305.20025,315.01425,314.7085,21.9976,20.6215,21.9794,21.4739,314.999998,314.999998,324.999988,324.999988,99.55894285714285,99.50696666666667,99.56725714285714,99.54665714285714,0.07725000000000026,-0.04899999999999993,-0.1115,0.1075,-0.051666666666669414,-0.05142857142856627,1.54,1.528,38.485,29.884666666666668,38.370999999999995,35.212,55.878,35.0755,59.533500000000004,52.3835,53.805,34.1995,58.119,50.726,52.947,33.735,58.0205,50.14266666666666,-0.09250000000000003,-0.05449999999999999,0.10368000000000001,0.10148000000000001,0.0,215.76,215.76999999999998,212.56666666666666,212.56666666666666,190.012512,21.04372
25,0.0,1.0,0.0,1.0,1.0,0.0,0.0,1.0,0.0,100.0,1.0,1.1856,26.0,0.0,0.0,0.0,59.999996,0.0,26.0,26.0,26.0,26.0,0.034666666666666845,0.2735000000000001,-0.01345,292.633,-2.6801,-2.67725,-1.5763,-1.5566,-191.09,215.32999999999998,190.454375,0.0,0.0,0.0,0.0,0.05076666666666667,-5.498166666666667,-5.498166666666667,-0.6001000000000001,0.2470000000000001,0.009333333333333194,-0.9710000000000001,69.056,-0.0056,-0.217425,-0.15600000000000058,100.0,1.0,1.0,213.01,0.0,0.0,0.0,0.0,0.0,0.0,0.0,9028.7,0.0,55.0,5.0,248.57666666666665,1.0,0.0,0.0,0.0,0.0,0.0,0.0,0.0,1.259999999999998,1.259999999999998,0.0,0.0,1.0,55.0,616.79921,10000.0,85.000001,85.000001,85.000001,85.000001,395.0,0.0,0.0,0.0,1.0,166.665,52.292,52.292,48.111000000000004,48.111000000000004,34.0,-24.877499999999998,25.006,-28.903333333333336,27.845,0.0,1782.106,-0.2749999999999986,100.0,27.759,27.855,42.742000000000004,42.824,0.0,1.0,100.0,0.0,0.0,0.0,0.0,3250.142857142857,3180.0,4086.75,4073.7,305.1,304.5805,315.005,314.73075,22.0069,20.6271,21.9897,21.4829,314.999998,314.999998,324.999988,324.999988,99.55895714285714,99.50696666666667,99.5674,99.5468,0.0807500000000001,-0.05799999999999994,-0.12033333333333333,0.10616666666666667,-0.051666666666669414,-0.044285714285713595,1.544,1.54,38.543,29.919333333333334,38.435,35.268,55.864000000000004,35.1155,59.5695,52.444,53.792,34.2365,58.1525,50.7845,52.933,33.771,58.051,50.199666666666666,-0.10650000000000004,-0.06000000000000005,0.11255000000000001,0.105925,0.0,216.18,216.18,213.01,213.01,190.012512,21.04372
26,0.0,1.0,0.0,1.0,1.0,0.0,0.0,1.0,0.0,100.0,1.0,1.1856,26.0,0.0,0.0,0.0,59.999996,0.0,26.0,26.0,26.0,26.0,0.020777777777777784,0.2733000000000001,0.058300000000000005,291.855,-2.7006,-2.6736250000000004,-1.5403,-1.56,-187.56,215.32999999999998,190.429,0.0,0.0,0.0,0.0,0.052833333333333336,-5.498166666666667,-5.498166666666667,-0.5741,0.11749999999999994,0.0005555555555556424,1.001,69.194,-0.0059,-0.205075,-0.20800000000000018,100.0,1.0,1.0,213.23666666666668,0.0,0.0,0.0,0.0,0.0,0.0,0.0,9038.3,0.0,55.0,5.0,249.07,0.0,0.0,0.0,0.0,0.0,0.0,0.0,0.0,1.311,1.311,0.0,0.0,0.0,55.0,616.79921,10000.0,85.000001,85.000001,85.000001,85.000001,395.0,0.0,0.0,0.0,1.0,166.665,52.078,52.078,47.104,47.104,34.0,-23.5125,25.058,-30.599999999999998,31.7225,0.0,1782.054,-0.33999999999999986,100.0,28.531,28.009,43.391999999999996,43.3,0.0,1.0,100.0,0.0,0.0,0.0,0.0,3100.714285714286,3148.3,4340.5,4405.6,305.275,304.92225,314.2525,313.9475,22.0165,20.6327,22.0002,21.4921,314.999998,314.999998,324.999988,324.999988,99.55897142857143,99.50698333333334,99.56755714285714,99.54694285714285,0.09350000000000014,-0.04249999999999998,-0.11066666666666668,0.11933333333333333,-0.021666666666668277,-0.07000000000000028,1.4695,1.463,38.602999999999994,29.954,38.501000000000005,35.326,55.852999999999994,35.156,59.6105,52.507999999999996,53.781,34.274,58.1905,50.846000000000004,52.921,33.8065,58.086,50.260333333333335,-0.10650000000000004,-0.052000000000000046,0.10756,0.11510500000000001,0.0,216.615,216.65,213.23666666666668,213.23666666666668,190.012512,21.04372
27,0.0,1.0,0.0,1.0,1.0,0.0,0.0,1.0,0.0,100.0,1.0,1.1856,26.0,0.0,0.0,0.0,59.999996,0.0,26.0,26.0,26.0,26.0,0.00022222222222212373,0.26680000000000015,-0.044500000000000005,292.343,-2.7464,-2.685625,-1.6024,-1.5390000000000001,-184.24,215.32999999999998,190.40575,0.0,0.0,0.0,0.0,0.054766666666666665,-5.498166666666667,-5.498166666666667,-0.6004,-0.738,0.011111111111111072,0.823,69.319,-0.0026000000000000003,-0.24075000000000002,-0.3100000000000005,100.0,1.0,1.0,213.76666666666665,0.0,0.0,0.0,0.0,0.0,0.0,0.0,9060.8,0.0,55.0,5.0,249.52333333333334,1.0,0.0,0.0,0.0,0.0,0.0,0.0,0.0,1.3589999999999982,1.3589999999999982,0.0,0.0,1.0,55.0,616.79921,10000.0,85.000001,85.000001,85.000001,85.000001,395.0,0.0,0.0,0.0,1.0,166.665,52.399,52.399,47.516,47.516,34.0,-23.8925,25.198,-27.86,28.235,0.0,1782.007,-0.3049999999999997,100.0,28.185,28.017,43.68,43.502,0.0,1.0,100.0,0.0,0.0,0.0,0.0,3073.857142857143,3166.6,3968.625,4113.8,305.5565,304.81025,315.09825,314.71475,22.025199999999998,20.6379,22.0101,21.500799999999998,314.999998,314.999998,324.999988,324.999988,99.55897142857143,99.50698333333334,99.5677,99.54708571428571,0.08349999999999991,-0.047250000000000014,-0.106,0.11383333333333333,-0.03333333333333144,-0.05285714285714249,1.535,1.537,38.657,29.986666666666665,38.563,35.379999999999995,55.84,35.193,59.6475,52.5665,53.768,34.308,58.225,50.9025,52.908,33.8395,58.1175,50.315333333333335,-0.10399999999999987,-0.05500000000000016,0.11017,0.10026,0.0,216.97,216.98000000000002,213.76666666666665,213.76666666666665,190.012512,21.04372
28,0.0,1.0,0.0,1.0,1.0,0.0,0.0,1.0,0.0,100.0,1.0,1.1856,26.0,0.0,0.0,0.0,59.999996,0.0,26.0,26.0,26.0,26.0,0.04022222222222216,0.2821,-0.04045,292.419,-2.6791,-2.67075,-1.6104,-1.5721,-180.7,215.32999999999998,190.38025,0.0,0.0,0.0,0.0,0.0568,-5.498166666666667,-5.498166666666667,-0.5984,0.5130000000000001,-0.008444444444444255,-1.056,69.453,0.0005,-0.212075,-0.25,100.0,1.0,1.0,214.19666666666666,0.0,0.0,0.0,0.0,0.0,0.0,0.0,9079.0,0.0,55.0,5.0,250.00333333333333,0.0,0.0,0.0,0.0,0.0,0.0,0.0,0.0,1.4100000000000001,1.4100000000000001,0.0,0.0,0.0,55.0,616.79921,10000.0,85.000001,85.000001,85.000001,85.000001,395.0,0.0,0.0,0.0,1.0,166.665,52.567,52.567,47.44,47.44,34.0,-23.2475,23.772,-30.099999999999998,29.1625,0.0,1781.954,-0.33500000000000085,100.0,28.054,28.144,43.111000000000004,43.236000000000004,0.0,1.0,100.0,0.0,0.0,0.0,0.0,3088.0,3001.3,4275.625,4104.3,305.55,305.10625,314.61425,314.7065,22.0345,20.6434,22.0203,21.5098,314.999998,314.999998,324.999988,324.999988,99.55898571428571,99.507,99.56784285714286,99.54722857142858,0.08625000000000016,-0.04849999999999999,-0.1045,0.12266666666666667,-0.05666666666667197,-0.030000000000001137,1.5474999999999999,1.5245,38.716,30.02166666666667,38.626999999999995,35.436,55.827,35.233000000000004,59.6825,52.6265,53.756,34.345,58.257999999999996,50.96,52.894,33.8745,58.147,50.37133333333333,-0.10799999999999987,-0.04999999999999982,0.10598500000000001,0.10777500000000001,0.0,217.43,217.41,214.19666666666666,214.19666666666666,190.012512,21.04372
29,0.0,1.0,0.0,1.0,1.0,0.0,0.0,1.0,0.0,100.0,1.0,1.1856,26.0,0.0,0.0,0.0,59.999996,0.0,26.0,26.0,26.0,26.0,0.031444444444444386,0.26170000000000004,-0.027350000000000003,292.297,-2.749,-2.599125,-1.5897999999999999,-1.5521,-177.36,215.32999999999998,190.355375,0.0,0.0,0.0,0.0,0.05876666666666667,-5.498166666666667,-5.498166666666667,-0.6062000000000001,-0.74,-0.011666666666666714,-0.7490000000000001,69.581,0.0037,-0.21615,-0.2859999999999996,100.0,1.0,1.0,214.47333333333333,0.0,0.0,0.0,0.0,0.0,0.0,0.0,9090.8,0.0,55.0,5.0,250.46333333333334,1.0,0.0,0.0,0.0,0.0,0.0,0.0,0.0,1.4579999999999984,1.4579999999999984,0.0,0.0,1.0,55.0,616.79921,10000.0,85.000001,85.000001,85.000001,85.000001,395.0,0.0,0.0,0.0,1.0,333.33500000000004,52.658,52.658,47.424,47.424,34.0,-25.1,23.567999999999998,-29.9,29.1525,0.0,1781.907,-0.39000000000000057,100.0,27.788,27.889,43.458,43.537,0.0,1.0,100.0,0.0,0.0,0.0,0.0,3245.0,3072.6,4188.875,4197.3,305.3415,305.1585,314.7325,314.3965,22.0432,20.6486,22.0302,21.5185,314.999998,314.999998,324.999988,324.999988,99.559,99.507,99.56798571428571,99.54737142857142,0.08375000000000021,-0.04599999999999993,-0.115,0.108,-0.03166666666666629,-0.03714285714285381,1.5155,1.502,38.769999999999996,30.053666666666665,38.689,35.4905,55.814,35.2685,59.7205,52.686,53.742999999999995,34.3775,58.293,51.016999999999996,52.881,33.906,58.179,50.427,-0.10699999999999998,-0.04899999999999993,0.11271500000000001,0.09792500000000001,0.0,217.775,217.785,214.47333333333333,214.47333333333333,190.012512,21.04372
30,0.0,1.0,0.0,1.0,1.0,0.0,0.0,1.0,0.0,100.0,1.0,1.1856,26.0,0.0,0.0,0.0,59.999996,0.0,26.0,26.0,26.0,26.0,0.043888888888888866,0.2639,-0.005275,291.595,-2.7226,-2.662,-1.6278000000000001,-1.4702000000000002,-174.01999999999998,215.33249999999998,190.330375,0.0,0.0,0.0,0.0,0.060700000000000004,-5.498166666666667,-5.498166666666667,-0.6051000000000001,0.903,-0.006222222222222129,-0.2829999999999999,69.70400000000001,0.0059,-0.21645,-0.3100000000000005,100.0,1.0,1.0,214.94333333333333,0.0,0.0,0.0,0.0,0.0,0.0,0.0,9110.7,0.0,55.0,5.0,250.90666666666667,0.0,0.0,0.0,0.0,0.0,0.0,1.0,0.0,1.5060000000000002,1.5060000000000002,0.0,0.0,0.0,55.0,616.79921,10000.0,85.000001,85.000001,85.000001,85.000001,395.0,0.0,0.0,0.0,1.0,333.33500000000004,51.102000000000004,51.102000000000004,47.409,47.409,34.0,-25.845,25.764,-29.936666666666664,28.6725,0.0,1781.858,-0.4299999999999997,100.0,28.737000000000002,28.64,43.275,43.49,0.0,1.0,100.0,0.0,0.0,0.0,0.0,3365.0,3235.4,4251.375,4206.6,304.6495,304.28275,314.70525,314.59875,22.0522,20.654,22.0399,21.527,314.999998,314.999998,324.999988,324.999988,99.559,99.50701666666667,99.56812857142857,99.54751428571429,0.09450000000000003,-0.052749999999999964,-0.1005,0.12816666666666665,-0.05666666666667197,-0.054285714285711606,1.539,1.5375,38.826,30.087666666666664,38.75,35.544,55.805,35.3075,59.754,52.743,53.735,34.414,58.3245,51.072,52.870999999999995,33.941,58.208,50.481,-0.11699999999999999,-0.05549999999999988,0.10094500000000001,0.11134000000000001,0.0,218.2,218.215,214.94333333333333,214.94333333333333,190.012512,21.04372
31,0.0,1.0,0.0,1.0,1.0,0.0,0.0,1.0,0.0,100.0,1.0,1.1856,26.0,0.0,0.0,0.0,59.999996,0.0,26.0,26.0,26.0,26.0,0.045666666666666744,0.2541,0.05765,291.306,-2.7029,-2.7047499999999998,-1.6376,-1.5430000000000001,-170.25,215.335,190.303125,0.0,0.0,0.0,0.0,0.0629,-5.498166666666667,-5.498166666666667,-0.5870000000000001,-0.42200000000000004,0.008333333333333304,-0.839,69.846,0.0045000000000000005,-0.22155,-0.35799999999999876,100.0,1.0,1.0,215.2266666666667,0.0,0.0,0.0,0.0,0.0,0.0,0.0,9122.7,0.0,55.0,5.0,251.42000000000002,1.0,0.0,0.0,0.0,0.0,0.0,1.0,0.0,1.5599999999999987,1.5599999999999987,0.0,0.0,1.0,55.0,616.79921,10000.0,85.000001,85.000001,85.000001,85.000001,395.0,0.0,0.0,0.0,1.0,166.665,51.605000000000004,51.605000000000004,46.143,46.143,34.0,-23.2,26.137999999999998,-30.726666666666663,30.2175,0.0,1781.806,-0.5,100.0,28.527,28.876,44.063,44.339,0.0,1.0,100.0,0.0,0.0,0.0,0.0,3130.285714285714,3181.4,4265.75,4263.5,305.435,304.503,314.48975,314.1695,22.062,20.66,22.0512,21.537,314.999998,314.999998,324.999988,324.999988,99.55902857142857,99.50701666666667,99.56828571428571,99.54767142857143,0.10075000000000012,-0.04049999999999998,-0.09833333333333333,0.113,-0.054999999999999716,-0.05285714285714249,1.4525,1.44,38.888,30.125333333333334,38.82,35.606,55.792,35.3505,59.7975,52.8125,53.723,34.4535,58.365,51.1385,52.858000000000004,33.979,58.245,50.546,-0.119,-0.04150000000000009,0.10749500000000001,0.09648000000000001,0.0,218.62,218.63,215.2266666666667,215.2266666666667,190.012512,21.04372
32,0.0,1.0,0.0,1.0,1.0,0.0,0.0,1.0,0.0,100.0,1.0,1.1856,26.0,0.0,0.0,0.0,59.999996,0.0,26.0,26.0,26.0,26.0,0.06533333333333324,0.25980000000000003,-0.031625,291.885,-2.6946,-2.6956249999999997,-1.5744,-1.6233000000000002,-166.89999999999998,215.34,190.279125,0.0,0.0,0.0,0.0,0.06483333333333334,-5.498166666666667,-5.498166666666667,-0.6073000000000001,-0.35250000000000004,-0.015111111111111075,-1.069,69.968,0.01,-0.23340000000000002,-0.41799999999999926,100.0,1.0,1.0,215.73666666666668,0.0,0.0,0.0,0.0,0.0,0.0,0.0,9144.2,0.0,55.0,5.0,251.86,0.0,0.0,0.0,0.0,0.0,0.0,1.0,0.0,1.6080000000000005,1.6080000000000005,0.0,0.0,0.0,55.0,616.79921,10000.0,85.000001,85.000001,85.000001,85.000001,395.0,0.0,0.0,0.0,1.0,166.665,52.078,52.078,47.195,47.195,34.0,-23.3375,24.387999999999998,-27.873333333333335,30.545,0.0,1781.757,-0.41499999999999915,100.0,28.394,28.627,43.858000000000004,44.165,0.0,1.0,100.0,0.0,0.0,0.0,0.0,3145.5714285714284,3030.4,4057.5,4127.5,305.443,305.06025,315.01375,314.5705,22.0707,20.665399999999998,22.0609,21.5456,314.999998,314.999998,324.999988,324.999988,99.55904285714286,99.50701666666667,99.56841428571428,99.54781428571428,0.09775,-0.04399999999999993,-0.10200000000000001,0.128,-0.046666666666666856,-0.044285714285713595,1.539,1.5125,38.942,30.15833333333333,38.881,35.66,55.781,35.3875,59.832,52.87,53.712,34.488,58.397,51.194,52.846000000000004,34.0115,58.2735,50.6,-0.11199999999999988,-0.052000000000000046,0.10877,0.10629500000000001,0.0,218.97500000000002,218.995,215.73666666666668,215.73666666666668,190.012512,21.04372
33,0.0,1.0,0.0,1.0,1.0,0.0,0.0,1.0,0.0,100.0,1.0,1.1856,26.0,0.0,0.0,0.0,59.999996,0.0,26.0,26.0,26.0,26.0,0.04755555555555557,0.25980000000000003,-0.060225,292.114,-2.7079,-2.6626250000000002,-1.5822,-1.5871000000000002,-163.54,215.3425,190.253875,0.0,0.0,0.0,0.0,0.0668,-5.498166666666667,-5.498166666666667,-0.6158,-0.22250000000000003,-0.014555555555555877,-0.08199999999999985,70.09100000000001,0.0129,-0.21530000000000002,-0.379999999999999,100.0,1.0,1.0,216.12333333333333,0.0,0.0,0.0,0.0,0.0,0.0,0.0,9160.7,0.0,55.0,5.0,252.3,1.0,0.0,0.0,0.0,0.0,0.0,1.0,0.0,1.6559999999999988,1.6559999999999988,0.0,0.0,1.0,55.0,616.79921,10000.0,85.000001,85.000001,85.000001,85.000001,395.0,0.0,0.0,0.0,1.0,333.33500000000004,52.338,52.338,47.485,47.485,34.0,-23.13,23.978,-28.383333333333333,29.64,0.0,1781.709,-0.41000000000000014,100.0,28.296,28.358,43.644999999999996,43.875,0.0,1.0,100.0,0.0,0.0,0.0,0.0,3131.4285714285716,2997.1,4071.125,4140.7,305.4805,305.28125,314.99125,314.62375,22.0794,20.6705,22.0707,21.5542,314.999998,314.999998,324.999988,324.999988,99.55905714285714,99.50703333333334,99.56857142857143,99.54795714285714,0.1027499999999999,-0.036250000000000004,-0.10716666666666667,0.12133333333333333,-0.05333333333332746,-0.03999999999999915,1.531,1.528,38.995999999999995,30.191,38.942,35.713499999999996,55.769,35.423,59.866,52.926,53.7,34.5205,58.429,51.248,52.834,34.043,58.3025,50.65266666666667,-0.11599999999999988,-0.03949999999999987,0.11574000000000001,0.10722500000000001,0.0,219.385,219.385,216.12333333333333,216.12333333333333,190.012512,21.04372
34,0.0,1.0,0.0,1.0,1.0,0.0,0.0,1.0,0.0,100.0,1.0,1.1856,26.0,0.0,0.0,0.0,59.999996,0.0,26.0,26.0,26.0,26.0,0.057666666666666755,0.26990000000000003,-0.06975,292.236,-2.6634,-2.692875,-1.6142,-1.5261,-159.75,215.35,190.224,0.0,0.0,0.0,0.0,0.069,-5.498166666666667,-5.498166666666667,-0.6478,-0.9925,0.005444444444444363,-0.266,70.231,0.016900000000000002,-0.2235,-0.36799999999999855,100.0,1.0,1.0,216.49,0.0,0.0,0.0,0.0,0.0,0.0,0.0,9176.2,0.0,55.0,5.0,252.80333333333334,0.0,0.0,0.0,0.0,0.0,0.0,1.0,0.0,1.7100000000000009,1.7100000000000009,0.0,0.0,0.0,55.0,616.79921,10000.0,85.000001,85.000001,85.000001,85.000001,395.0,0.0,0.0,0.0,1.0,166.665,52.719,52.719,47.485,47.485,34.0,-22.2925,24.284,-28.526666666666664,29.5375,0.0,1781.657,-0.39000000000000057,100.0,27.991,28.094,43.535,43.968,0.0,1.0,100.0,0.0,0.0,0.0,0.0,3072.5714285714284,3016.1,4125.25,4181.5,305.7035,305.244,314.907,314.51025,22.0891,20.6763,22.0816,21.5639,314.999998,314.999998,324.999988,324.999988,99.55905714285714,99.50703333333334,99.56871428571428,99.54811428571429,0.09975000000000023,-0.039000000000000035,-0.09333333333333332,0.128,-0.054999999999999716,-0.05285714285714249,1.5275,1.5215,39.057,30.227,39.01,35.7745,55.754000000000005,35.4615,59.9045,52.9915,53.686,34.5565,58.4645,51.311,52.818,34.0775,58.3345,50.714333333333336,-0.11099999999999999,-0.04700000000000015,0.10719500000000001,0.10343000000000001,0.0,219.78,219.8,216.49,216.49,190.012512,21.04372
35,0.0,1.0,0.0,1.0,1.0,0.0,0.0,1.0,0.0,100.0,1.0,1.1856,26.0,0.0,0.0,0.0,59.999996,0.0,26.0,26.0,26.0,26.0,0.05188888888888887,0.2652000000000001,-0.066275,292.068,-2.7908,-2.670375,-1.6093000000000002,-1.5191000000000001,-156.16,215.35750000000002,190.193875,0.0,0.0,0.0,0.0,0.07106666666666667,-5.498166666666667,-5.498166666666667,-0.6786,0.09200000000000008,-0.012444444444444258,-0.10999999999999988,70.35900000000001,0.0164,-0.22642500000000002,-0.3739999999999988,100.0,1.0,1.0,216.98000000000002,0.0,0.0,0.0,0.0,0.0,0.0,0.0,9196.9,0.0,55.0,5.0,253.26666666666665,1.0,0.0,0.0,0.0,0.0,0.0,1.0,0.0,1.7609999999999992,1.7609999999999992,0.0,0.0,1.0,55.0,616.79921,10000.0,85.000001,85.000001,85.000001,85.000001,395.0,0.0,0.0,0.0,1.0,166.665,51.971000000000004,51.971000000000004,47.226,47.226,34.0,-23.5,27.432000000000002,-27.31,29.012500000000003,0.0,1781.605,-0.23999999999999844,100.0,28.115000000000002,28.451,43.352000000000004,43.456,0.0,1.0,100.0,0.0,0.0,0.0,0.0,3068.142857142857,3342.5,4027.875,4081.7,305.5135,304.26025,315.03875,314.793,22.0981,20.6821,22.0918,21.5729,314.999998,314.999998,324.999988,324.999988,99.55907142857143,99.50705,99.56887142857143,99.54825714285714,0.10349999999999993,-0.031749999999999945,-0.08583333333333333,0.13916666666666666,-0.04833333333333201,-0.06428571428571672,1.553,1.5445,39.113,30.262999999999998,39.074,35.831,55.739999999999995,35.5025,59.939499999999995,53.049,53.673,34.594,58.497,51.3665,52.804,34.114,58.364,50.76833333333333,-0.10149999999999992,-0.05900000000000016,0.107645,0.10336000000000001,0.0,220.2,220.22,216.98000000000002,216.98000000000002,190.012512,21.04372
36,0.0,1.0,0.0,1.0,1.0,0.0,0.0,1.0,0.0,100.0,1.0,1.1856,26.0,0.0,0.0,0.0,59.999996,0.0,26.0,26.0,26.0,26.0,0.052444444444444294,0.2563,-0.010275000000000001,291.687,-2.6494999999999997,-2.7275,-1.6359,-1.5954000000000002,-152.99,215.365,190.166375,0.0,0.0,0.0,0.0,0.07293333333333334,-5.498166666666667,-5.498166666666667,-0.6621,-0.05349999999999999,-0.052777777777778034,-1.3340000000000005,70.476,0.011000000000000001,-0.20535,-0.15000000000000036,100.0,1.0,1.0,217.13,0.0,0.0,0.0,0.0,0.0,0.0,0.0,9203.3,0.0,55.0,5.0,253.68666666666667,0.0,0.0,0.0,0.0,0.0,0.0,1.0,0.0,1.806000000000001,1.806000000000001,0.0,0.0,0.0,55.0,616.79921,10000.0,85.000001,85.000001,85.000001,85.000001,395.0,0.0,0.0,0.0,1.0,333.33500000000004,52.368,52.368,46.753,46.753,34.0,-21.9,23.439999999999998,-31.846666666666664,32.285,0.0,1781.559,-0.16999999999999815,100.0,28.458,28.523,43.535,43.897,0.0,1.0,100.0,0.0,0.0,0.0,0.0,2997.142857142857,2923.7,4417.0,4371.2,305.693,305.3235,314.21075,314.02575,22.1063,20.6871,22.1011,21.5812,314.999998,314.999998,324.999988,324.999988,99.55908571428571,99.50705,99.56901428571429,99.5484,0.09750000000000014,-0.05249999999999999,-0.096,0.1235,-0.051666666666669414,-0.03999999999999915,1.4465,1.459,39.164,30.294333333333334,39.132,35.882,55.729,35.537,59.973,53.105000000000004,53.663,34.6265,58.5285,51.42,52.793,34.1445,58.3925,50.821,-0.09699999999999998,-0.06400000000000006,0.09907,0.106005,0.0,220.59,220.565,217.13,217.13,190.012512,21.04372
