,ABS Active,ABS Enabled,AID Allow Tire Blankets,AID Auto Blip,AID Auto Clutch,AID Auto Shift,AID Fuel Rate,AID Ideal Line,AID Mech Damage,AID Stability,AID Tire Wear Rate,Air Density,Air Temp,Ballast,Best Lap Delta,Best Lap Time,Brake Bias,Brake Pos,Brake Temp FL,Brake Temp FR,Brake Temp RL,Brake Temp RR,CG Accel Lateral,CG Accel Longitudinal,CG Accel Vertical,CG Height,Camber FL,Camber FR,Camber RL,Camber RR,Car Coord X,Car Coord Y,Car Coord Z,Car Damage Front,Car Damage Left,Car Damage Rear,Car Damage Right,Car Pos Norm,Caster FL,Caster FR,Chassis Pitch Angle,Chassis Pitch Rate,Chassis Roll Angle,Chassis Roll Rate,Chassis Velocity X,Chassis Velocity Y,Chassis Velocity Z,Chassis Yaw Rate,Clutch Pos,DRS Active,DRS Available,Drive Train Speed,ERS Heat Charging,ERS Is Charging,ERS Max Energy,ERS Power Level,ERS Recovery Level,Engine Brake Setting,Engine Limiter,Engine RPM,Flags,Fuel Level,Gear,Ground Speed,HR Sample Clock,In Pit,KERS Charge,KERS Deployed Energy,KERS Input,KERS Max Energy,LR Sample Clock,Lap Invalidated,Lap Time,Lap Time2,Last Lap Time,Last Sector Time,MR Sample Clock,Max Fuel,Max Power,Max RPM,Max Sus Travel FL,Max Sus Travel FR,Max Sus Travel RL,Max Sus Travel RR,Max Torque,Max Turbo Boost,Num Tires Off Track,Penalties Enabled,Position,Raw Data Sample Rate,Ride Height FL,Ride Height FR,Ride Height RL,Ride Height RR,Road Temp,Self Align Torque FL,Self Align Torque FR,Self Align Torque RL,Self Align Torque RR,Session Lap Count,Session Time Left,Steering Angle,Surface Grip,Suspension Travel FL,Suspension Travel FR,Suspension Travel RL,Suspension Travel RR,TC Active,TC Enabled,Throttle Pos,Tire Dirt Level FL,Tire Dirt Level FR,Tire Dirt Level RL,Tire Dirt Level RR,Tire Load FL,Tire Load FR,Tire Load RL,Tire Load RR,Tire Loaded Radius FL,Tire Loaded Radius FR,Tire Loaded Radius RL,Tire Loaded Radius RR,Tire Pressure FL,Tire Pressure FR,Tire Pressure RL,Tire Pressure RR,Tire Radius FL,Tire Radius FR,Tire Radius RL,Tire Radius RR,Tire Rubber Grip FL,Tire Rubber Grip FR,Tire Rubber Grip RL,Tire Rubber Grip RR,Tire Slip Angle FL,Tire Slip Angle FR,Tire Slip Angle RL,Tire Slip Angle RR,Tire Slip Ratio FL,Tire Slip Ratio FR,Tire Slip Ratio RL,Tire Slip Ratio RR,Tire Temp Core FL,Tire Temp Core FR,Tire Temp Core RL,Tire Temp Core RR,Tire Temp Inner FL,Tire Temp Inner FR,Tire Temp Inner RL,Tire Temp Inner RR,Tire Temp Middle FL,Tire Temp Middle FR,Tire Temp Middle RL,Tire Temp Middle RR,Tire Temp Outer FL,Tire Temp Outer FR,Tire Temp Outer RL,Tire Temp Outer RR,Toe In FL,Toe In FR,Toe In RL,Toe In RR,Turbo Boost,Wheel Angular Speed FL,Wheel Angular Speed FR,Wheel Angular Speed RL,Wheel Angular Speed RR,Wind Direction,Wind Speed
0,0.0,1.0,0.0,1.0,1.0,0.0,0.0,1.0,0.0,100.0,1.0,1.1856,26.0,0.0,0.0,0.0,59.99999,0.0,26.0,26.0,26.0,26.0,-0.09677777777777785,0.31310000000000016,0.0629,294.495,-2.6996,-2.692375,-1.491,-1.574,-275.53,216.29250000000002,190.98725,0.0,0.0,0.0,0.0,0.0016666666666665941,-5.498166666666667,-5.498166666666667,-0.5522,1.012,-0.03275000000000006,-0.6219999999999999,65.575,-0.06669999999999998,-0.21702500000000002,1.1260000000000012,100.0,1.0,1.0,202.51999999999998,0.0,0.0,0.0,0.0,0.0,0.0,0.0,8584.1,0.0,55.0,5.0,236.04000000000002,0.0,0.0,0.0,0.0,0.0,0.0,0.0,0.0,0.006000000000000227,0.006000000000000227,0.0,0.0,0.0,55.0,616.79921,10000.0,85.0,85.0,85.0,85.0,395.0,0.0,0.0,0.0,1.0,20.0,53.04,53.04,50.125,50.125,34.0,-28.0125,22.556666666666665,-30.576666666666668,22.7925,0.0,1783.68,0.8599999999999994,100.0,27.245,26.366,40.448,39.861000000000004,0.0,1.0,100.0,0.0,0.0,0.0,0.0,3068.857142857143,3392.1,4036.0,3858.4,305.5225,304.0575,315.012,315.19675,21.7808,20.504,21.747700000000002,21.2679,314.99999,314.99999,324.99998,324.99998,99.55932857142857,99.50696666666667,99.56478571428572,99.54358571428571,-0.030999999999999917,-0.1479999999999999,-0.18866666666666665,0.03950000000000009,-0.051666666666669414,-0.05833333333333002,1.569,1.6085,37.129999999999995,29.14966666666667,36.923,33.9245,56.448,34.298,58.94,51.0495,54.346000000000004,33.4775,57.58,49.439,53.504000000000005,33.039,57.5555,48.8775,-0.007000000000000006,-0.14300000000000002,0.10690000000000001,0.10769000000000001,0.0,205.485,205.42000000000002,202.51999999999998,202.51999999999998,190.01251,21.04372
1,0.0,1.0,0.0,1.0,1.0,0.0,0.0,1.0,0.0,100.0,1.0,1.1856,26.0,0.0,0.0,0.0,59.999996,0.0,26.0,26.0,26.0,26.0,-0.12822222222222213,0.3124,0.2277,293.472,-2.6167,-2.794125,-1.4998,-1.5642,-272.19,216.29000000000002,190.967,0.0,0.0,0.0,0.0,0.0036333333333333773,-5.498166666666667,-5.498166666666667,-0.49870000000000003,-0.45466666666666666,-0.07887500000000003,-0.948,65.732,-0.0797,-0.19475,1.5199999999999996,100.0,1.0,1.0,202.63333333333333,0.0,0.0,0.0,0.0,0.0,0.0,0.0,8588.8,0.0,55.0,5.0,236.60333333333335,1.0,0.0,0.0,0.0,0.0,0.0,0.0,0.0,0.05699999999999861,0.05699999999999861,0.0,0.0,1.0,55.0,616.79921,10000.0,85.000001,85.000001,85.000001,85.000001,395.0,0.0,0.0,0.0,1.0,166.665,53.955,53.955,48.751999999999995,48.751999999999995,34.0,-28.585,16.923333333333332,-35.58,27.235,0.0,1783.628,0.9450000000000003,100.0,27.392,26.491,42.374,41.019999999999996,0.0,1.0,100.0,0.0,0.0,0.0,0.0,3147.857142857143,2626.7,4378.888888888889,4686.0,305.3305,306.44625,314.139,313.1605,21.7909,20.509,21.758499999999998,21.2769,314.999998,314.999998,324.999988,324.999988,99.55934285714285,99.50698333333334,99.56494285714285,99.54374285714286,-0.04366666666666674,-0.16500000000000004,-0.2041666666666666,0.006166666666666654,-0.041666666666671404,-0.051666666666669414,1.4085,1.454,37.193,29.180999999999997,36.989999999999995,33.9805,56.433,34.34,58.986,51.1155,54.332,33.516,57.6235,49.501999999999995,53.489000000000004,33.076499999999996,57.596000000000004,48.9395,0.0035000000000000586,-0.14400000000000013,0.09926000000000001,0.110405,0.0,205.96,205.835,202.63333333333333,202.63333333333333,190.012512,21.04372
2,0.0,1.0,0.0,1.0,1.0,0.0,0.0,1.0,0.0,100.0,1.0,1.1856,26.0,0.0,0.0,0.0,59.999996,0.0,26.0,26.0,26.0,26.0,-0.1657777777777778,0.29300000000000015,-0.085175,294.189,-2.5874,-2.822,-1.469,-1.6193,-268.83,216.285,190.948125,0.0,0.0,0.0,0.0,0.005566666666666609,-5.498166666666667,-5.498166666666667,-0.5482,0.02200000000000002,-0.06424999999999992,2.7039999999999997,65.876,-0.09919999999999995,-0.2536,1.7200000000000006,100.0,1.0,1.0,203.55666666666667,0.0,0.0,0.0,0.0,0.0,0.0,0.0,8628.1,0.0,55.0,5.0,237.12333333333333,0.0,0.0,0.0,0.0,0.0,0.0,0.0,0.0,0.10800000000000054,0.10800000000000054,0.0,0.0,0.0,55.0,616.79921,10000.0,85.000001,85.000001,85.000001,85.000001,395.0,0.0,0.0,0.0,1.0,333.33500000000004,52.948,52.948,50.659,50.659,34.0,-30.47,19.225,-29.796666666666667,18.9125,0.0,1783.575,0.7750000000000021,100.0,28.178,26.386,42.373000000000005,40.719,0.0,1.0,100.0,0.0,0.0,0.0,0.0,3276.0,2918.6,3714.5555555555557,3674.9,304.6955,305.629,315.7085,315.78425,21.8012,20.5138,21.7689,21.2855,314.999998,314.999998,324.999988,324.999988,99.55934285714285,99.50701666666667,99.56508571428571,99.54387142857144,-0.05333333333333323,-0.16633333333333322,-0.24749999999999994,-0.018333333333333313,-0.04333333333332945,-0.036666666666668846,1.6320000000000001,1.7245,37.257,29.211,37.056,34.0345,56.421,34.3795,59.025,51.173500000000004,54.321,33.5525,57.66,49.558,53.477999999999994,33.111,57.629999999999995,48.994,-0.007000000000000006,-0.133,0.10704500000000002,0.11172000000000001,0.0,206.425,206.255,203.55666666666667,203.55666666666667,190.012512,21.04372
3,0.0,1.0,0.0,1.0,1.0,0.0,0.0,1.0,0.0,100.0,1.0,1.1856,26.0,0.0,0.0,0.0,59.999996,0.0,26.0,26.0,26.0,26.0,-0.1497777777777778,0.31930000000000014,0.08257500000000001,293.976,-2.7113,-2.7196249999999997,-1.4922,-1.6019999999999999,-265.66,216.275,190.929625,0.0,0.0,0.0,0.0,0.007433333333333292,-5.498166666666667,-5.498166666666667,-0.5116,0.30899999999999994,-0.026874999999999982,0.2120000000000002,66.021,-0.11169999999999991,-0.20092500000000002,1.25,100.0,1.0,1.0,203.72,0.0,0.0,0.0,0.0,0.0,0.0,0.0,8634.9,0.0,55.0,5.0,237.64333333333332,1.0,0.0,0.0,0.0,0.0,0.0,0.0,0.0,0.1559999999999988,0.1559999999999988,0.0,0.0,1.0,55.0,616.79921,10000.0,85.000001,85.000001,85.000001,85.000001,395.0,0.0,0.0,0.0,1.0,333.33500000000004,54.031,54.031,48.706,48.706,34.0,-26.2475,17.866666666666667,-35.39,23.75,0.0,1783.528,0.6050000000000004,100.0,27.681,26.434,42.205,40.774,0.0,1.0,100.0,0.0,0.0,0.0,0.0,2851.142857142857,2832.1,4247.555555555556,4195.7,306.0915,305.834,314.423,314.453,21.8104,20.5185,21.7787,21.2937,314.999998,314.999998,324.999988,324.999988,99.55935714285714,99.50703333333334,99.56521428571429,99.544,-0.03966666666666674,-0.16399999999999992,-0.23516666666666663,0.0018333333333333535,-0.04999999999999716,-0.054999999999999716,1.5044999999999997,1.5415,37.315,29.241,37.117000000000004,34.086,56.406,34.42,59.0625,51.2335,54.307,33.5895,57.695,49.615,53.463,33.1465,57.6625,49.05,-0.026000000000000023,-0.119,0.10748,0.115805,0.0,206.875,206.74,203.72,203.72,190.012512,21.04372
4,0.0,1.0,0.0,1.0,1.0,0.0,0.0,1.0,0.0,100.0,1.0,1.1856,26.0,0.0,0.0,0.0,59.999996,0.0,26.0,26.0,26.0,26.0,-0.1727777777777778,0.2762,-0.04535,294.128,-2.643,-2.770125,-1.505,-1.6082,-262.09,216.26,190.90875,0.0,0.0,0.0,0.0,0.009499999999999953,-5.498166666666667,-5.498166666666667,-0.5472,-0.6803333333333332,-0.09425000000000017,-0.351,66.17699999999999,-0.10909999999999997,-0.2391,1.1560000000000006,100.0,1.0,1.0,204.34,0.0,0.0,0.0,0.0,0.0,0.0,0.0,8661.3,0.0,55.0,5.0,238.21,0.0,0.0,0.0,0.0,0.0,0.0,0.0,0.0,0.21000000000000085,0.21000000000000085,0.0,0.0,0.0,55.0,616.79921,10000.0,85.000001,85.000001,85.000001,85.000001,395.0,0.0,0.0,0.0,1.0,166.665,53.421,53.421,49.454,49.454,34.0,-29.5475,18.876666666666665,-32.56333333333333,19.6625,0.0,1783.475,0.6000000000000014,100.0,27.551,26.274,42.567,40.808,0.0,1.0,100.0,0.0,0.0,0.0,0.0,3232.5714285714284,2933.5,3995.777777777778,3641.4,304.9985,305.53525,315.0075,315.7695,21.8208,20.5238,21.7899,21.303,314.999998,314.999998,324.999988,324.999988,99.55935714285714,99.50705,99.56537142857142,99.54415714285715,-0.03633333333333311,-0.16799999999999993,-0.2323333333333334,-0.0033333333333332993,-0.051666666666669414,-0.07333333333333059,1.5859999999999999,1.62,37.379999999999995,29.274,37.187,34.1435,56.388,34.4645,59.108000000000004,51.2965,54.29,33.6305,57.7375,49.6755,53.445,33.1855,57.702,49.109,-0.02849999999999997,-0.123,0.11002,0.10725000000000001,0.0,207.315,207.20499999999998,204.34,204.34,190.012512,21.04372
5,0.0,1.0,0.0,1.0,1.0,0.0,0.0,1.0,0.0,100.0,1.0,1.1856,26.0,0.0,0.0,0.0,59.999996,0.0,26.0,26.0,26.0,26.0,-0.13811111111111107,0.3069000000000002,-0.01195,294.083,-2.6573,-2.7893749999999997,-1.4918,-1.5935000000000001,-258.91,216.2425,190.889375,0.0,0.0,0.0,0.0,0.011333333333333306,-5.498166666666667,-5.498166666666667,-0.537,0.395,-0.09474999999999989,1.1670000000000003,66.318,-0.10959999999999992,-0.21580000000000002,1.048,100.0,1.0,1.0,204.69,0.0,0.0,0.0,0.0,0.0,0.0,0.0,8676.0,0.0,55.0,5.0,238.71666666666667,1.0,0.0,0.0,0.0,0.0,0.0,0.0,0.0,0.2579999999999991,0.2579999999999991,0.0,0.0,1.0,55.0,616.79921,10000.0,85.000001,85.000001,85.000001,85.000001,395.0,0.0,0.0,0.0,1.0,166.665,53.864,53.864,49.454,49.454,34.0,-27.855,19.063333333333333,-33.57333333333333,22.0225,0.0,1783.427,0.254999999999999,100.0,27.697,26.179,42.354,40.543,0.0,1.0,100.0,0.0,0.0,0.0,0.0,3096.0,2801.0,4131.888888888889,4050.2,305.34,305.983,314.75475,314.83125,21.8302,20.5285,21.7998,21.3111,314.999998,314.999998,324.999988,324.999988,99.55935714285714,99.50706666666666,99.5655,99.54428571428572,-0.024333333333333318,-0.14066666666666672,-0.22550000000000003,-0.006333333333333302,-0.03833333333332689,-0.061666666666667425,1.528,1.5979999999999999,37.439,29.303333333333335,37.248999999999995,34.1945,56.375,34.503,59.146,51.352000000000004,54.278,33.666,57.772999999999996,49.729,53.432,33.2195,57.735,49.161,-0.04999999999999993,-0.08750000000000013,0.10967,0.10626500000000001,0.0,207.78,207.7,204.69,204.69,190.012512,21.04372
6,0.0,1.0,0.0,1.0,1.0,0.0,0.0,1.0,0.0,100.0,1.0,1.1856,26.0,0.0,0.0,0.0,59.999996,0.0,26.0,26.0,26.0,26.0,-0.1163333333333334,0.2942,0.0039000000000000003,293.93,-2.6287,-2.818125,-1.5349,-1.5877,-255.73,216.225,190.870125,0.0,0.0,0.0,0.0,0.01319999999999999,-5.498166666666667,-5.498166666666667,-0.5323,0.1280000000000001,-0.074125,1.0590000000000002,66.458,-0.10189999999999999,-0.216125,0.7320000000000011,100.0,1.0,1.0,205.12,0.0,0.0,0.0,0.0,0.0,0.0,0.0,8694.2,0.0,55.0,5.0,239.21666666666667,0.0,0.0,0.0,0.0,0.0,0.0,0.0,0.0,0.30600000000000094,0.30600000000000094,0.0,0.0,0.0,55.0,616.79921,10000.0,85.000001,85.000001,85.000001,85.000001,395.0,0.0,0.0,0.0,1.0,333.33500000000004,53.589,53.589,49.254999999999995,49.254999999999995,34.0,-27.095,20.736666666666665,-32.50666666666667,22.5375,0.0,1783.378,0.09499999999999886,100.0,27.606,26.306,42.426,40.889,0.0,1.0,100.0,0.0,0.0,0.0,0.0,3086.4285714285716,2921.4,4060.8888888888887,4016.2,305.3175,305.5175,314.91475,314.91425,21.8395,20.5333,21.8097,21.3194,314.999998,314.999998,324.999988,324.999988,99.55937142857142,99.50708333333333,99.56564285714286,99.54441428571428,-0.012666666666666604,-0.1313333333333333,-0.20699999999999996,0.008166666666666655,-0.05333333333332746,-0.04999999999999716,1.541,1.5765,37.497,29.333,37.31,34.2465,56.361000000000004,34.541,59.185,51.411,54.263999999999996,33.701,57.8095,49.785,53.417,33.253,57.7685,49.216,-0.0615,-0.08200000000000007,0.09671500000000001,0.10501,0.0,208.19,208.10500000000002,205.12,205.12,190.012512,21.04372
7,0.0,1.0,0.0,1.0,1.0,0.0,0.0,1.0,0.0,100.0,1.0,1.1856,26.0,0.0,0.0,0.0,59.999996,0.0,26.0,26.0,26.0,26.0,-0.07177777777777783,0.29510000000000014,0.0207,293.716,-2.6084,-2.745,-1.5002,-1.625,-252.32999999999998,216.2,190.849625,0.0,0.0,0.0,0.0,0.01516666666666655,-5.498166666666667,-5.498166666666667,-0.5358,-0.02300000000000002,-0.06174999999999997,-0.272,66.605,-0.0847,-0.22575,0.4220000000000006,100.0,1.0,1.0,205.54000000000002,0.0,0.0,0.0,0.0,0.0,0.0,0.0,8712.1,0.0,55.0,5.0,239.75,1.0,0.0,0.0,0.0,0.0,0.0,0.0,0.0,0.3569999999999993,0.3569999999999993,0.0,0.0,1.0,55.0,616.79921,10000.0,85.000001,85.000001,85.000001,85.000001,395.0,0.0,0.0,0.0,1.0,333.33500000000004,53.268,53.268,49.376999999999995,49.376999999999995,34.0,-27.4225,20.97,-31.546666666666667,23.655,0.0,1783.327,-0.22500000000000142,100.0,27.541,26.522,42.355000000000004,41.248000000000005,0.0,1.0,100.0,0.0,0.0,0.0,0.0,3255.4285714285716,2899.6,4060.1111111111113,3985.9,304.9275,305.416,314.9375,314.831,21.8494,20.5384,21.8202,21.3283,314.999998,314.999998,324.999988,324.999988,99.55937142857142,99.5071,99.56578571428571,99.54455714285714,0.011666666666666714,-0.10999999999999988,-0.1965,0.019500000000000073,-0.04833333333333201,-0.04833333333333201,1.5339999999999998,1.5565,37.559,29.364666666666665,37.376000000000005,34.3015,56.345,34.5805,59.225,51.4735,54.248999999999995,33.7375,57.847,49.845,53.402,33.288,57.8035,49.2745,-0.09399999999999997,-0.0495000000000001,0.10258500000000001,0.10509500000000001,0.0,208.635,208.585,205.54000000000002,205.54000000000002,190.012512,21.04372
8,0.0,1.0,0.0,1.0,1.0,0.0,0.0,1.0,0.0,100.0,1.0,1.1856,26.0,0.0,0.0,0.0,59.999996,0.0,26.0,26.0,26.0,26.0,-0.03655555555555556,0.29259999999999997,-0.027950000000000003,294.022,-2.6929,-2.73825,-1.4815,-1.5783,-248.73,216.1725,190.827875,0.0,0.0,0.0,0.0,0.01726666666666654,-5.498166666666667,-5.498166666666667,-0.5395,-0.558,-0.04587500000000011,-0.5449999999999999,66.761,-0.060799999999999965,-0.21975,-0.03000000000000025,100.0,1.0,1.0,205.98666666666668,0.0,0.0,0.0,0.0,0.0,0.0,0.0,8731.0,0.0,55.0,5.0,240.31333333333333,0.0,0.0,0.0,0.0,0.0,0.0,0.0,0.0,0.41100000000000136,0.41100000000000136,0.0,0.0,0.0,55.0,616.79921,10000.0,85.000001,85.000001,85.000001,85.000001,395.0,0.0,0.0,0.0,1.0,166.665,54.047,54.047,48.843,48.843,34.0,-25.3125,21.291666666666664,-30.116666666666667,25.0125,0.0,1783.275,-0.3200000000000003,100.0,27.003,26.471,42.332,41.375,0.0,1.0,100.0,0.0,0.0,0.0,0.0,3048.714285714286,2873.1,4092.5555555555557,4004.2,305.7265,305.574,314.83775,314.7915,21.8597,20.5437,21.8313,21.3376,314.999998,314.999998,324.999988,324.999988,99.55938571428571,99.5071,99.56594285714286,99.5447,0.026333333333333098,-0.09266666666666667,-0.16516666666666657,0.05383333333333318,-0.054999999999999716,-0.045000000000001705,1.5259999999999998,1.5274999999999999,37.623000000000005,29.398333333333333,37.445,34.36,56.326,34.621,59.2675,51.5385,54.230999999999995,33.775,57.8865,49.907,53.382999999999996,33.323499999999996,57.84,49.335499999999996,-0.10150000000000003,-0.04499999999999993,0.10361500000000001,0.10349000000000001,0.0,209.07999999999998,209.07999999999998,205.98666666666668,205.98666666666668,190.012512,21.04372
9,0.0,1.0,0.0,1.0,1.0,0.0,0.0,1.0,0.0,100.0,1.0,1.1856,26.0,0.0,0.0,0.0,59.999996,0.0,26.0,26.0,26.0,26.0,-0.03322222222222215,0.2902,0.034800000000000005,293.655,-2.6787,-2.7375,-1.5423,-1.5567,-245.73,216.15,190.809125,0.0,0.0,0.0,0.0,0.018999999999999906,-5.498166666666667,-5.498166666666667,-0.541,0.6993333333333334,-0.0405000000000002,0.8980000000000001,66.888,-0.04269999999999996,-0.21477500000000002,-0.12600000000000033,100.0,1.0,1.0,206.4766666666667,0.0,0.0,0.0,0.0,0.0,0.0,0.0,8751.9,0.0,55.0,5.0,240.76999999999998,1.0,0.0,0.0,0.0,0.0,0.0,0.0,0.0,0.4559999999999995,0.4559999999999995,0.0,0.0,1.0,55.0,616.79921,10000.0,85.000001,85.000001,85.000001,85.000001,395.0,0.0,0.0,0.0,1.0,333.33500000000004,52.933,52.933,49.698,49.698,34.0,-26.34,23.961666666666666,-27.98,26.0625,0.0,1783.229,-0.4549999999999983,100.0,27.666,26.735,42.062,41.33,0.0,1.0,100.0,0.0,0.0,0.0,0.0,3261.285714285714,3047.1,3943.222222222222,4055.6000000000004,304.863,305.13875,315.23925,314.82675,21.8684,20.5484,21.8404,21.345399999999998,314.999998,314.999998,324.999988,324.999988,99.55938571428571,99.50711666666666,99.56605714285715,99.54482857142857,0.05366666666666653,-0.06099999999999994,-0.1386666666666666,0.08066666666666666,-0.05833333333333002,-0.05833333333333002,1.5899999999999999,1.582,37.678,29.427666666666667,37.501999999999995,34.408500000000004,56.314,34.656,59.2995,51.591499999999996,54.219,33.807,57.9165,49.958,53.370000000000005,33.3545,57.867,49.3855,-0.10499999999999998,-0.034499999999999975,0.10079,0.10949,0.0,209.51,209.495,206.4766666666667,206.4766666666667,190.012512,21.04372
10,0.0,1.0,0.0,1.0,1.0,0.0,0.0,1.0,0.0,100.0,1.0,1.1856,26.0,0.0,0.0,0.0,59.999996,0.0,26.0,26.0,26.0,26.0,0.016555555555555657,0.2974000000000001,-0.009000000000000001,293.503,-2.6612999999999998,-2.714,-1.5229,-1.5362,-242.31,216.1225,190.788375,0.0,0.0,0.0,0.0,0.020999999999999908,-5.498166666666667,-5.498166666666667,-0.5194,-0.5193333333333333,-0.0024999999999999467,0.26000000000000023,67.037,-0.02169999999999994,-0.20855,-0.4679999999999991,100.0,1.0,1.0,206.72,0.0,0.0,0.0,0.0,0.0,0.0,0.0,8762.1,0.0,55.0,5.0,241.30666666666667,0.0,0.0,0.0,0.0,0.0,0.0,1.0,0.0,0.5069999999999979,0.5069999999999979,0.0,0.0,0.0,55.0,616.79921,10000.0,85.000001,85.000001,85.000001,85.000001,395.0,0.0,0.0,0.0,1.0,333.33500000000004,54.001,54.001,48.141,48.141,34.0,-21.5625,21.835,-30.766666666666666,28.17,0.0,1783.177,-0.620000000000001,100.0,27.324,26.885,42.462,42.194,0.0,1.0,100.0,0.0,0.0,0.0,0.0,2875.142857142857,2816.1,4278.111111111111,4213.8,306.138,305.72525,314.3945,314.28775,21.8782,20.5536,21.851,21.3545,314.999998,314.999998,324.999988,324.999988,99.55938571428571,99.50713333333333,99.56621428571428,99.54497142857143,0.07666666666666666,-0.06099999999999994,-0.13283333333333336,0.09166666666666679,-0.054999999999999716,-0.05333333333332746,1.501,1.4929999999999999,37.738,29.46,37.569,34.4655,56.299,34.693,59.341,51.657,54.205,33.841,57.955,50.021,53.355999999999995,33.387,57.903,49.447,-0.12549999999999994,-0.02499999999999991,0.110335,0.10484500000000001,0.0,209.935,209.95,206.72,206.72,190.012512,21.04372
11,0.0,1.0,0.0,1.0,1.0,0.0,0.0,1.0,0.0,100.0,1.0,1.1856,26.0,0.0,0.0,0.0,59.999996,0.0,26.0,26.0,26.0,26.0,0.024666666666666837,0.27700000000000014,-0.07335,294.037,-2.7004,-2.701625,-1.5756999999999999,-1.5243,-238.89,216.095,190.767625,0.0,0.0,0.0,0.0,0.022599999999999953,-5.498166666666667,-5.498166666666667,-0.5621,-0.1343333333333333,0.02487499999999998,0.3959999999999999,67.178,-0.0004999999999999449,-0.2373,-0.6959999999999997,100.0,1.0,1.0,207.4766666666667,0.0,0.0,0.0,0.0,0.0,0.0,0.0,8794.1,0.0,55.0,5.0,241.81,1.0,0.0,0.0,0.0,0.0,0.0,1.0,0.0,0.5579999999999998,0.5579999999999998,0.0,0.0,1.0,55.0,616.79921,10000.0,85.000001,85.000001,85.000001,85.000001,395.0,0.0,0.0,0.0,1.0,333.33500000000004,53.314,53.314,49.805,49.805,34.0,-22.287499999999998,26.073333333333334,-24.243333333333336,26.1475,0.0,1783.126,-0.620000000000001,100.0,27.25,26.991,41.971000000000004,41.977000000000004,0.0,1.0,100.0,0.0,0.0,0.0,0.0,2982.0,3133.9,3661.3333333333335,3850.0,305.7175,304.87725,315.952,315.296,21.8877,20.5589,21.8613,21.3633,314.999998,314.999998,324.999988,324.999988,99.5594,99.50713333333333,99.56635714285714,99.54511428571429,0.09366666666666656,-0.021666666666666723,-0.10549999999999993,0.1283333333333332,-0.054999999999999716,-0.05833333333333002,1.653,1.637,37.798,29.493333333333332,37.632999999999996,34.5205,56.283,34.7305,59.3755,51.7175,54.19,33.876,57.987,50.079,53.34,33.420500000000004,57.932,49.504,-0.118,-0.019500000000000073,0.10746000000000001,0.10315,0.0,210.35500000000002,210.39499999999998,207.4766666666667,207.4766666666667,190.012512,21.04372
12,0.0,1.0,0.0,1.0,1.0,0.0,0.0,1.0,0.0,100.0,1.0,1.1856,26.0,0.0,0.0,0.0,59.999996,0.0,26.0,26.0,26.0,26.0,0.04588888888888887,0.28790000000000004,0.02045,293.411,-2.7558,-2.69875,-1.5426,-1.5271,-235.66,216.07,190.746875,0.0,0.0,0.0,0.0,0.025466666666666526,-5.498166666666667,-5.498166666666667,-0.5463,0.2813333333333332,0.010874999999999968,0.6280000000000001,67.316,0.015800000000000036,-0.207325,-0.7060000000000004,100.0,1.0,1.0,207.66,0.0,0.0,0.0,0.0,0.0,0.0,0.0,8801.9,0.0,55.0,5.0,242.31,0.0,0.0,0.0,0.0,0.0,0.0,1.0,0.0,0.6059999999999981,0.6059999999999981,0.0,0.0,0.0,55.0,616.79921,10000.0,85.000001,85.000001,85.000001,85.000001,395.0,0.0,0.0,0.0,1.0,333.33500000000004,53.268,53.268,48.447,48.447,34.0,-22.425,26.485,-27.236666666666668,30.6575,0.0,1783.078,-0.6449999999999996,100.0,27.175,27.154,41.964,41.934,0.0,1.0,100.0,0.0,0.0,0.0,0.0,3016.285714285714,3151.2,4153.666666666667,4198.7,305.632,304.8525,314.697,314.468,21.8967,20.564,21.8711,21.3716,314.999998,314.999998,324.999988,324.999988,99.55941428571428,99.50713333333333,99.56648571428572,99.54524285714285,0.10866666666666669,-0.014333333333333309,-0.08350000000000002,0.14900000000000002,-0.05666666666667197,-0.046666666666666856,1.5404999999999998,1.5150000000000001,37.855000000000004,29.525,37.694,34.573,56.269999999999996,34.766,59.412,51.775999999999996,54.177,33.908500000000004,58.021,50.135,53.326,33.452,57.963,49.5595,-0.12149999999999994,-0.02400000000000002,0.10709500000000001,0.11081500000000001,0.0,210.8,210.84,207.66,207.66,190.012512,21.04372
13,0.0,1.0,0.0,1.0,1.0,0.0,0.0,1.0,0.0,100.0,1.0,1.1856,26.0,0.0,0.0,0.0,59.999996,0.0,26.0,26.0,26.0,26.0,0.07066666666666666,0.27580000000000005,0.05315,293.045,-2.6996,-2.69025,-1.5777,-1.5112,-232.01999999999998,216.04250000000002,190.723875,0.0,0.0,0.0,0.0,0.026966666666666583,-5.498166666666667,-5.498166666666667,-0.5406000000000001,-0.11366666666666658,0.01662499999999989,1.049,67.469,0.023700000000000054,-0.21795,-0.8460000000000001,100.0,1.0,1.0,208.07999999999998,0.0,0.0,0.0,0.0,0.0,0.0,0.0,8819.8,0.0,55.0,5.0,242.86,1.0,0.0,0.0,0.0,0.0,0.0,1.0,0.0,0.6600000000000001,0.6600000000000001,0.0,0.0,1.0,55.0,616.79921,10000.0,85.000001,85.000001,85.000001,85.000001,395.0,0.0,0.0,0.0,1.0,166.665,52.948,52.948,48.477000000000004,48.477000000000004,34.0,-20.8175,27.34,-27.09,32.057500000000005,0.0,1783.026,-0.875,100.0,27.517,27.368,42.21,42.474000000000004,0.0,1.0,100.0,0.0,0.0,0.0,0.0,3018.285714285714,3147.9,4092.222222222222,4319.9,305.562,304.859,314.811,314.15425,21.907,20.5698,21.8822,21.3813,314.999998,314.999998,324.999988,324.999988,99.55942857142857,99.50713333333333,99.56662857142857,99.5454,0.13666666666666671,0.0086666666666666,-0.07783333333333331,0.15716666666666668,-0.021666666666668277,-0.05666666666667197,1.5164999999999997,1.492,37.919,29.561,37.763999999999996,34.632999999999996,56.257,34.806,59.4525,51.8445,54.165,33.945499999999996,58.059,50.201499999999996,53.313,33.4875,57.9975,49.6245,-0.14900000000000002,-0.0050000000000001155,0.11186000000000001,0.109185,0.0,211.245,211.3,208.07999999999998,208.07999999999998,190.012512,21.04372
14,0.0,1.0,0.0,1.0,1.0,0.0,0.0,1.0,0.0,100.0,1.0,1.1856,26.0,0.0,0.0,0.0,59.999996,0.0,26.0,26.0,26.0,26.0,0.0858888888888889,0.2795000000000001,-0.01135,293.289,-2.7285,-2.631125,-1.5870000000000002,-1.5128,-228.78,216.0225,190.70375,0.0,0.0,0.0,0.0,0.028866666666666596,-5.498166666666667,-5.498166666666667,-0.5503,-0.1173333333333334,0.045499999999999874,1.303,67.602,0.03620000000000001,-0.22935,-1.072,100.0,1.0,1.0,208.58333333333331,0.0,0.0,0.0,0.0,0.0,0.0,0.0,8841.1,0.0,55.0,5.0,243.34,0.0,0.0,0.0,0.0,0.0,0.0,1.0,0.0,0.7079999999999984,0.7079999999999984,0.0,0.0,0.0,55.0,616.79921,10000.0,85.000001,85.000001,85.000001,85.000001,395.0,0.0,0.0,0.0,1.0,166.665,53.055,53.055,48.629999999999995,48.629999999999995,34.0,-20.025,27.715,-25.03,31.66,0.0,1782.977,-0.884999999999998,100.0,27.406,27.454,42.137,42.644,0.0,1.0,100.0,0.0,0.0,0.0,0.0,2904.4285714285716,3219.1,3920.222222222222,4179.3,305.9205,304.652,315.24375,314.51075,21.916,20.5749,21.892,21.3897,314.999998,314.999998,324.999988,324.999988,99.55944285714286,99.50713333333333,99.56677142857143,99.54554285714286,0.14000000000000012,0.013666666666666938,-0.0655,0.1761666666666668,-0.041666666666671404,-0.04999999999999716,1.565,1.525,37.974999999999994,29.593,37.825,34.686,56.247,34.841499999999996,59.4875,51.9045,54.155,33.978,58.091,50.2585,53.302,33.5185,58.027,49.6805,-0.14249999999999996,0.0,0.11427000000000001,0.11246,0.0,211.65,211.72,208.58333333333331,208.58333333333331,190.012512,21.04372
15,0.0,1.0,0.0,1.0,1.0,0.0,0.0,1.0,0.0,100.0,1.0,1.1856,26.0,0.0,0.0,0.0,59.999996,0.0,26.0,26.0,26.0,26.0,0.08566666666666678,0.29490000000000016,0.011175000000000001,293.304,-2.7388,-2.589875,-1.6113,-1.4578,-225.53,216.0025,190.683375,0.0,0.0,0.0,0.0,0.03073333333333339,-5.498166666666667,-5.498166666666667,-0.5404,0.2663333333333333,0.07112499999999988,0.7229999999999999,67.736,0.05230000000000001,-0.2096,-0.9820000000000002,100.0,1.0,1.0,208.96666666666667,0.0,0.0,0.0,0.0,0.0,0.0,0.0,8857.3,0.0,55.0,5.0,243.82,1.0,0.0,0.0,0.0,0.0,0.0,1.0,0.0,0.7560000000000002,0.7560000000000002,0.0,0.0,1.0,55.0,616.79921,10000.0,85.000001,85.000001,85.000001,85.000001,395.0,0.0,0.0,0.0,1.0,166.665,53.284,53.284,48.629999999999995,48.629999999999995,34.0,-19.73,26.436666666666667,-24.18,32.68,0.0,1782.93,-0.4499999999999993,100.0,27.406,27.507,41.937,42.758,0.0,1.0,100.0,0.0,0.0,0.0,0.0,2789.5714285714284,3179.5,3927.1111111111113,4355.1,306.294,304.7655,315.2665,314.10575,21.925,20.58,21.9018,21.3982,314.999998,314.999998,324.999988,324.999988,99.55945714285714,99.50715,99.56691428571429,99.54567142857142,0.12533333333333374,0.0009999999999998899,-0.04049999999999998,0.1805000000000001,-0.045000000000001705,-0.054999999999999716,1.5505,1.5265,38.031,29.625333333333334,37.885999999999996,34.739,56.235,34.876999999999995,59.5205,51.9645,54.143,34.010999999999996,58.122,50.3165,53.289,33.5505,58.0545,49.7375,-0.11449999999999994,-0.033500000000000085,0.10579000000000001,0.102885,0.0,212.07999999999998,212.16,208.96666666666667,208.96666666666667,190.012512,21.04372
16,0.0,1.0,0.0,1.0,1.0,0.0,0.0,1.0,0.0,100.0,1.0,1.1856,26.0,0.0,0.0,0.0,59.999996,0.0,26.0,26.0,26.0,26.0,0.0835555555555556,0.276,-0.04575,293.304,-2.7936,-2.60375,-1.5748,-1.5284,-222.07,215.98250000000002,190.66125,0.0,0.0,0.0,0.0,0.03276666666666661,-5.498166666666667,-5.498166666666667,-0.5621,-0.6626666666666667,0.04400000000000004,-1.358,67.878,0.05289999999999995,-0.22665000000000002,-0.4320000000000004,100.0,1.0,1.0,209.42000000000002,0.0,0.0,0.0,0.0,0.0,0.0,0.0,8876.6,0.0,55.0,5.0,244.32999999999998,0.0,0.0,0.0,0.0,0.0,0.0,1.0,0.0,0.8069999999999986,0.8069999999999986,0.0,0.0,0.0,55.0,616.79921,10000.0,85.000001,85.000001,85.000001,85.000001,395.0,0.0,0.0,0.0,1.0,333.33500000000004,53.131,53.131,48.431,48.431,34.0,-23.474999999999998,25.27166666666667,-24.509999999999998,30.47,0.0,1782.877,0.02499999999999858,100.0,26.973,27.65,42.219,42.89,0.0,1.0,100.0,0.0,0.0,0.0,0.0,3079.5714285714284,3144.3,3959.3333333333335,4024.5,305.735,304.7575,315.21275,314.77,21.9343,20.5855,21.9123,21.4072,314.999998,314.999998,324.999988,324.999988,99.55947142857143,99.50715,99.56705714285714,99.54582857142857,0.09733333333333372,-0.025333333333333208,-0.0528333333333334,0.17466666666666675,-0.04833333333333201,-0.03999999999999915,1.5575,1.5434999999999999,38.089,29.659666666666666,37.952,34.795,56.218,34.915,59.559,52.027,54.128,34.046,58.1575,50.3765,53.272999999999996,33.584,58.0875,49.7965,-0.07650000000000001,-0.07550000000000012,0.10648,0.10848500000000001,0.0,212.495,212.54500000000002,209.42000000000002,209.42000000000002,190.012512,21.04372
17,0.0,1.0,0.0,1.0,1.0,0.0,0.0,1.0,0.0,100.0,1.0,1.1856,26.0,0.0,0.0,0.0,59.999996,0.0,26.0,26.0,26.0,26.0,0.02444444444444427,0.29059999999999997,-0.02205,292.892,-2.7311,-2.60825,-1.601,-1.5058,-218.61,215.965,190.638625,0.0,0.0,0.0,0.0,0.03476666666666661,-5.498166666666667,-5.498166666666667,-0.5476,0.4586666666666668,0.006750000000000034,0.4910000000000001,68.019,0.032200000000000006,-0.205425,0.02999999999999936,100.0,1.0,1.0,209.79000000000002,0.0,0.0,0.0,0.0,0.0,0.0,0.0,8892.3,0.0,55.0,5.0,244.83666666666664,1.0,0.0,0.0,0.0,0.0,0.0,1.0,0.0,0.8580000000000005,0.8580000000000005,0.0,0.0,1.0,55.0,616.79921,10000.0,85.000001,85.000001,85.000001,85.000001,395.0,0.0,0.0,0.0,1.0,333.33500000000004,52.887,52.887,48.157,48.157,34.0,-22.919999999999998,24.093333333333334,-28.94333333333333,30.805,0.0,1782.825,0.05000000000000071,100.0,27.736,27.645,42.265,42.683,0.0,1.0,100.0,0.0,0.0,0.0,0.0,3043.285714285714,3066.2,4279.666666666667,4246.9,305.573,305.14625,314.48575,314.40975,21.9439,20.5911,21.9227,21.4162,314.999998,314.999998,324.999988,324.999988,99.55948571428571,99.50715,99.5672,99.54598571428572,0.09733333333333372,-0.033333333333333215,-0.08083333333333331,0.15000000000000013,-0.04999999999999716,-0.054999999999999716,1.5179999999999998,1.5135,38.15,29.694333333333333,38.016999999999996,34.8515,56.205,34.956,59.598,52.0925,54.114999999999995,34.0845,58.194,50.44,53.259,33.621,58.1205,49.8585,-0.07550000000000001,-0.07800000000000007,0.10950000000000001,0.11002500000000001,0.0,213.015,212.985,209.79000000000002,209.79000000000002,190.012512,21.04372
18,0.0,1.0,0.0,1.0,1.0,0.0,0.0,1.0,0.0,100.0,1.0,1.1856,26.0,0.0,0.0,0.0,59.999996,0.0,26.0,26.0,26.0,26.0,-0.0032222222222221264,0.2816000000000001,-0.017575,292.831,-2.7485,-2.5947500000000003,-1.604,-1.4664000000000001,-215.34,215.95,190.6175,0.0,0.0,0.0,0.0,0.036666666666666514,-5.498166666666667,-5.498166666666667,-0.5604,-0.4836666666666666,0.017749999999999932,0.8050000000000002,68.151,0.010399999999999965,-0.2235,0.18399999999999928,100.0,1.0,1.0,210.21666666666667,0.0,0.0,0.0,0.0,0.0,0.0,0.0,8910.4,0.0,55.0,5.0,245.31666666666666,0.0,0.0,0.0,0.0,0.0,0.0,1.0,0.0,0.9059999999999988,0.9059999999999988,0.0,0.0,0.0,55.0,616.79921,10000.0,85.000001,85.000001,85.000001,85.000001,395.0,0.0,0.0,0.0,1.0,333.33500000000004,52.689,52.689,48.065,48.065,34.0,-24.25,24.785,-28.3,28.005,0.0,1782.777,0.045000000000001705,100.0,27.613,27.484,42.788,42.933,0.0,1.0,100.0,0.0,0.0,0.0,0.0,3101.5714285714284,3255.8,4060.8888888888887,4130.8,305.443,304.6345,314.9665,314.6615,21.9529,20.5962,21.9326,21.4248,314.999998,314.999998,324.999988,324.999988,99.5595,99.50715,99.56734285714286,99.5461,0.08099999999999996,-0.05233333333333312,-0.10266666666666657,0.12766666666666682,-0.03166666666666629,-0.04833333333333201,1.536,1.55,38.205,29.726,38.079,34.905,56.192,34.9895,59.632,52.1485,54.102000000000004,34.1155,58.2255,50.4935,53.245999999999995,33.6505,58.1495,49.911,-0.07350000000000001,-0.08450000000000002,0.10830500000000001,0.111725,0.0,213.37,213.37,210.21666666666667,210.21666666666667,190.012512,21.04372
19,0.0,1.0,0.0,1.0,1.0,0.0,0.0,1.0,0.0,100.0,1.0,1.1856,26.0,0.0,0.0,0.0,59.999996,0.0,26.0,26.0,26.0,26.0,-0.01244444444444448,0.30380000000000007,0.053375000000000006,292.343,-2.653,-2.7112499999999997,-1.5231,-1.4653,-211.64999999999998,215.935,190.593625,0.0,0.0,0.0,0.0,0.038799999999999946,-5.498166666666667,-5.498166666666667,-0.5462,0.7613333333333332,0.009874999999999856,0.48099999999999987,68.299,-0.006899999999999906,-0.2099,0.24799999999999933,100.0,1.0,1.0,210.60333333333335,0.0,0.0,0.0,0.0,0.0,0.0,0.0,8926.7,0.0,55.0,5.0,245.84666666666666,1.0,0.0,0.0,0.0,0.0,0.0,1.0,0.0,0.9600000000000009,0.9600000000000009,0.0,0.0,1.0,55.0,616.79921,10000.0,85.000001,85.000001,85.000001,85.000001,395.0,0.0,0.0,0.0,1.0,166.665,52.292,52.292,47.745,47.745,34.0,-23.665,24.098333333333333,-29.293333333333333,29.505,0.0,1782.725,0.05000000000000071,100.0,28.274,27.886,42.749,42.824,0.0,1.0,100.0,0.0,0.0,0.0,0.0,3064.285714285714,3109.2,4226.888888888889,4428.4,305.404,304.82525,314.51725,313.9815,21.9631,20.6021,21.9436,21.4344,314.999998,314.999998,324.999988,324.999988,99.5595,99.50716666666666,99.56748571428571,99.54625714285714,0.07066666666666643,-0.07033333333333314,-0.1113333333333334,0.10933333333333328,-0.03499999999999659,-0.045000000000001705,1.492,1.517,38.269,29.762999999999998,38.147999999999996,34.965,56.178,35.033,59.671,52.2145,54.089,34.156,58.2615,50.557,53.230999999999995,33.689499999999995,58.182,49.9735,-0.07150000000000001,-0.08850000000000002,0.10600000000000001,0.10723500000000001,0.0,213.89,213.85000000000002,210.60333333333335,210.60333333333335,190.012512,21.04372
20,0.0,1.0,0.0,1.0,1.0,0.0,0.0,1.0,0.0,100.0,1.0,1.1856,26.0,0.0,0.0,0.0,59.999996,0.0,26.0,26.0,26.0,26.0,-0.0012222222222221246,0.26780000000000004,0.015075,292.801,-2.7348,-2.6808750000000003,-1.5189,-1.5967,-208.37,215.92000000000002,190.5725,0.0,0.0,0.0,0.0,0.0407333333333334,-5.498166666666667,-5.498166666666667,-0.5568000000000001,-1.2023333333333333,-0.004125000000000156,0.2909999999999999,68.431,-0.018199999999999994,-0.22465000000000002,0.22799999999999976,100.0,1.0,1.0,210.98000000000002,0.0,0.0,0.0,0.0,0.0,0.0,0.0,8942.7,0.0,55.0,5.0,246.32333333333332,0.0,0.0,0.0,0.0,0.0,0.0,0.0,0.0,1.0079999999999991,1.0079999999999991,0.0,0.0,0.0,55.0,616.79921,10000.0,85.000001,85.000001,85.000001,85.000001,395.0,0.0,0.0,0.0,1.0,166.665,53.192,53.192,47.47,47.47,34.0,-23.7175,22.89,-29.22,28.71,0.0,1782.677,0.09499999999999886,100.0,27.707,27.393,43.377,43.038,0.0,1.0,100.0,0.0,0.0,0.0,0.0,2969.142857142857,3053.6,4126.666666666667,4158.2,305.885,305.214,314.694,314.48,21.971899999999998,20.6071,21.9537,21.443,314.999998,314.999998,324.999988,324.999988,99.55951428571429,99.50718333333333,99.56762857142857,99.5464,0.06033333333333335,-0.07533333333333325,-0.125,0.09549999999999992,-0.03333333333333144,-0.04333333333332945,1.4885000000000002,1.509,38.324,29.794333333333334,38.211,35.019,56.161,35.0695,59.7095,52.2735,54.073,34.189499999999995,58.2975,50.614,53.215,33.7215,58.2155,50.0295,-0.07199999999999995,-0.08250000000000002,0.109795,0.10659,0.0,214.215,214.215,210.98000000000002,210.98000000000002,190.012512,21.04372
21,0.0,1.0,0.0,1.0,1.0,0.0,0.0,1.0,0.0,100.0,1.0,1.1856,26.0,0.0,0.0,0.0,59.999996,0.0,26.0,26.0,26.0,26.0,-0.04133333333333333,0.28600000000000003,-0.06947500000000001,293.06,-2.6925,-2.694125,-1.577,-1.5593,-205.09,215.905,190.55075,0.0,0.0,0.0,0.0,0.0426333333333333,-5.498166666666667,-5.498166666666667,-0.5766,0.4970000000000001,-0.02562500000000023,0.2120000000000002,68.55799999999999,-0.027599999999999958,-0.222,0.31200000000000117,100.0,1.0,1.0,211.58333333333331,0.0,0.0,0.0,0.0,0.0,0.0,0.0,8968.2,0.0,55.0,5.0,246.78,1.0,0.0,0.0,0.0,0.0,0.0,0.0,0.0,1.056000000000001,1.056000000000001,0.0,0.0,1.0,55.0,616.79921,10000.0,85.000001,85.000001,85.000001,85.000001,395.0,0.0,0.0,0.0,1.0,166.665,52.734,52.734,48.615,48.615,34.0,-25.3525,22.85,-28.933333333333334,25.0275,0.0,1782.63,0.019999999999999574,100.0,28.086,27.511,42.81,42.522,0.0,1.0,100.0,0.0,0.0,0.0,0.0,3105.4285714285716,3064.6,4023.6666666666665,3968.3,305.388,305.17475,315.13825,315.07775,21.9809,20.6123,21.9633,21.4514,314.999998,314.999998,324.999988,324.999988,99.55952857142857,99.50718333333333,99.56775714285715,99.54652857142857,0.045666666666666966,-0.08133333333333326,-0.136,0.0728333333333333,-0.046666666666666856,-0.060000000000002274,1.5955,1.5965,38.381,29.826666666666668,38.271,35.071,56.147999999999996,35.1075,59.7415,52.328,54.06,34.2245,58.3275,50.6665,53.201,33.754999999999995,58.2425,50.0805,-0.07299999999999995,-0.08000000000000007,0.10455,0.09968,0.0,214.68,214.65,211.58333333333331,211.58333333333331,190.012512,21.04372
22,0.0,1.0,0.0,1.0,1.0,0.0,0.0,1.0,0.0,100.0,1.0,1.1856,26.0,0.0,0.0,0.0,59.999996,0.0,26.0,26.0,26.0,26.0,-0.02777777777777779,0.2774000000000001,0.0019,292.648,-2.6238,-2.74975,-1.5742,-1.5487000000000002,-201.38,215.8875,190.5255,0.0,0.0,0.0,0.0,0.04479999999999995,-5.498166666666667,-5.498166666666667,-0.5573,-0.1403333333333333,-0.017625000000000224,1.017,68.707,-0.03389999999999993,-0.20550000000000002,0.19599999999999973,100.0,1.0,1.0,211.82666666666665,0.0,0.0,0.0,0.0,0.0,0.0,0.0,8978.6,0.0,55.0,5.0,247.31666666666666,0.0,0.0,0.0,0.0,0.0,0.0,0.0,0.0,1.1099999999999994,1.1099999999999994,0.0,0.0,0.0,55.0,616.79921,10000.0,85.000001,85.000001,85.000001,85.000001,395.0,0.0,0.0,0.0,1.0,166.665,53.04,53.04,47.485,47.485,34.0,-22.5625,22.84,-31.15,28.7975,0.0,1782.576,-0.11499999999999844,100.0,28.118,27.54,43.329,42.805,0.0,1.0,100.0,0.0,0.0,0.0,0.0,2899.142857142857,2982.7,4215.0,4308.1,305.915,305.35075,314.5845,314.2035,21.991,20.618,21.9746,21.461,314.999998,314.999998,324.999988,324.999988,99.55952857142857,99.5072,99.56791428571428,99.54668571428572,0.055333333333333456,-0.07800000000000007,-0.13516666666666666,0.08816666666666673,-0.04333333333332945,-0.05333333333332746,1.4914999999999998,1.4975,38.444,29.862333333333332,38.341,35.1315,56.131,35.1495,59.7845,52.3945,54.045,34.2635,58.3675,50.730000000000004,53.185,33.792500000000004,58.2795,50.143,-0.08299999999999996,-0.0685,0.10146000000000001,0.117845,0.0,215.125,215.11,211.82666666666665,211.82666666666665,190.012512,21.04372
23,0.0,1.0,0.0,1.0,1.0,0.0,0.0,1.0,0.0,100.0,1.0,1.1856,26.0,0.0,0.0,0.0,59.999996,0.0,26.0,26.0,26.0,26.0,-0.01966666666666661,0.2621,-0.082525,292.603,-2.6588,-2.6925,-1.6275,-1.5227,-197.87,215.8675,190.502125,0.0,0.0,0.0,0.0,0.04683333333333339,-5.498166666666667,-5.498166666666667,-0.5763,-0.015000000000000013,-0.02024999999999988,-0.42900000000000005,68.842,-0.03249999999999997,-0.2306,0.1899999999999995,100.0,1.0,1.0,212.39,0.0,0.0,0.0,0.0,0.0,0.0,0.0,9002.5,0.0,55.0,5.0,247.80333333333334,1.0,0.0,0.0,0.0,0.0,0.0,0.0,0.0,1.1610000000000014,1.1610000000000014,0.0,0.0,1.0,55.0,616.79921,10000.0,85.000001,85.000001,85.000001,85.000001,395.0,0.0,0.0,0.0,1.0,166.665,52.185,52.185,48.416,48.416,34.0,-26.46,22.541666666666664,-30.796666666666667,25.07,0.0,1782.524,-0.10500000000000043,100.0,28.316,27.829,43.251,42.998000000000005,0.0,1.0,100.0,0.0,0.0,0.0,0.0,3303.4285714285716,2997.7,4032.777777777778,3979.3,304.8985,305.1585,315.153,315.031,22.0007,20.6235,21.985,21.4702,314.999998,314.999998,324.999988,324.999988,99.55952857142857,99.50721666666666,99.56807142857143,99.54682857142858,0.052999999999999936,-0.08066666666666666,-0.15649999999999997,0.07883333333333331,-0.060000000000002274,-0.036666666666668846,1.5564999999999998,1.5665,38.504000000000005,29.897,38.406,35.1885,56.117999999999995,35.19,59.822,52.456,54.032,34.3005,58.4025,50.789,53.171,33.828,58.311,50.2005,-0.08899999999999997,-0.0645,0.11325500000000001,0.10539000000000001,0.0,215.55,215.485,212.39,212.39,190.012512,21.04372
24,0.0,1.0,0.0,1.0,1.0,0.0,0.0,1.0,0.0,100.0,1.0,1.1856,26.0,0.0,0.0,0.0,59.999996,0.0,26.0,26.0,26.0,26.0,-0.02588888888888885,0.27849999999999997,-0.034,292.862,-2.684,-2.7025,-1.5506,-1.5493000000000001,-194.76999999999998,215.85250000000002,190.480875,0.0,0.0,0.0,0.0,0.048633333333333306,-5.498166666666667,-5.498166666666667,-0.5816,-0.64,-0.00550000000000006,1.0979999999999999,68.964,-0.027200000000000002,-0.218,0.009999999999999787,100.0,1.0,1.0,212.64,0.0,0.0,0.0,0.0,0.0,0.0,0.0,9013.0,0.0,55.0,5.0,248.24333333333334,0.0,0.0,0.0,0.0,0.0,0.0,0.0,0.0,1.2059999999999995,1.2059999999999995,0.0,0.0,0.0,55.0,616.79921,10000.0,85.000001,85.000001,85.000001,85.000001,395.0,0.0,0.0,0.0,1.0,166.665,53.314,53.314,47.592,47.592,34.0,-22.7575,22.52,-30.556666666666665,27.635,0.0,1782.48,-0.14999999999999858,100.0,28.025,27.348,43.356,42.902,0.0,1.0,100.0,0.0,0.0,0.0,0.0,2890.857142857143,2978.4,4196.0,4137.3,306.037,305.457,314.5995,314.645,22.0089,20.6282,21.9943,21.4782,314.999998,314.999998,324.999988,324.999988,99.55954285714286,99.50721666666666,99.5682,99.54697142857142,0.05866666666666642,-0.07266666666666666,-0.135,0.09416666666666673,-0.041666666666671404,-0.060000000000002274,1.5234999999999999,1.52,38.556,29.926333333333332,38.464,35.2385,56.102999999999994,35.223,59.856,52.5095,54.018,34.3315,58.434,50.841,53.156,33.8575,58.34,50.2515,-0.08650000000000002,-0.0645,0.111045,0.11310500000000001,0.0,215.9,215.88,212.64,212.64,190.012512,21.04372
25,0.0,1.0,0.0,1.0,1.0,0.0,0.0,1.0,0.0,100.0,1.0,1.1856,26.0,0.0,0.0,0.0,59.999996,0.0,26.0,26.0,26.0,26.0,-0.029000000000000026,0.2631000000000001,-0.021400000000000002,292.542,-2.7444,-2.666125,-1.5594000000000001,-1.5582,-191.04,215.83249999999998,190.453875,0.0,0.0,0.0,0.0,0.050799999999999956,-5.498166666666667,-5.498166666666667,-0.6106,0.266,-0.00812500000000016,-0.08499999999999996,69.106,-0.02299999999999991,-0.222425,-0.002000000000000668,100.0,1.0,1.0,213.2266666666667,0.0,0.0,0.0,0.0,0.0,0.0,0.0,9037.9,0.0,55.0,5.0,248.75333333333333,1.0,0.0,0.0,0.0,0.0,0.0,0.0,0.0,1.259999999999998,1.259999999999998,0.0,0.0,1.0,55.0,616.79921,10000.0,85.000001,85.000001,85.000001,85.000001,395.0,0.0,0.0,0.0,1.0,166.665,51.894999999999996,51.894999999999996,48.400999999999996,48.400999999999996,34.0,-26.7225,25.9,-27.94,27.01,0.0,1782.425,-0.23000000000000043,100.0,28.145,27.783,42.988,42.679,0.0,1.0,100.0,0.0,0.0,0.0,0.0,3313.714285714286,3316.9,3940.0,4023.8,304.8515,304.40875,315.30675,314.925,22.0189,20.6341,22.0052,21.4877,314.999998,314.999998,324.999988,324.999988,99.55955714285714,99.50723333333333,99.56835714285714,99.54711428571429,0.06866666666666665,-0.05666666666666664,-0.13149999999999995,0.10133333333333328,-0.041666666666671404,-0.051666666666669414,1.5699999999999998,1.5685,38.617999999999995,29.963,38.532,35.298,56.086,35.266,59.8925,52.572,54.001999999999995,34.371,58.468,50.900999999999996,53.138999999999996,33.8955,58.371,50.31,-0.09850000000000003,-0.05800000000000005,0.1106,0.106965,0.0,216.325,216.34,213.2266666666667,213.2266666666667,190.012512,21.04372
26,0.0,1.0,0.0,1.0,1.0,0.0,0.0,1.0,0.0,100.0,1.0,1.1856,26.0,0.0,0.0,0.0,59.999996,0.0,26.0,26.0,26.0,26.0,-0.002555555555555533,0.2825,0.07602500000000001,291.504,-2.7091,-2.73075,-1.5625,-1.5464,-187.51,215.8125,190.42825,0.0,0.0,0.0,0.0,0.0528333333333334,-5.498166666666667,-5.498166666666667,-0.5701,0.3536666666666668,-0.018625000000000114,-0.42300000000000004,69.245,-0.013999999999999901,-0.201575,-0.15200000000000014,100.0,1.0,1.0,213.32333333333332,0.0,0.0,0.0,0.0,0.0,0.0,0.0,9042.0,0.0,55.0,5.0,249.25333333333333,0.0,0.0,0.0,0.0,0.0,0.0,0.0,0.0,1.311,1.311,0.0,0.0,0.0,55.0,616.79921,10000.0,85.000001,85.000001,85.000001,85.000001,395.0,0.0,0.0,0.0,1.0,166.665,52.002,52.002,46.417,46.417,34.0,-24.6775,22.938333333333333,-33.626666666666665,31.0375,0.0,1782.375,-0.3000000000000007,100.0,28.704,28.443,43.622,43.41,0.0,1.0,100.0,0.0,0.0,0.0,0.0,3165.5714285714284,2947.7,4583.111111111111,4526.3,305.2725,305.27125,313.7315,313.65375,22.0285,20.6397,22.0158,21.4969,314.999998,314.999998,324.999988,324.999988,99.55955714285714,99.50723333333333,99.5685,99.54725714285715,0.07666666666666666,-0.06966666666666677,-0.11949999999999994,0.09066666666666667,-0.03999999999999915,-0.030000000000001137,1.4354999999999998,1.4289999999999998,38.678,29.998333333333335,38.599000000000004,35.356,56.075,35.307,59.934,52.635999999999996,53.991,34.409,58.507,50.9625,53.126999999999995,33.9315,58.4065,50.37,-0.11149999999999993,-0.0535000000000001,0.10561500000000001,0.10405500000000001,0.0,216.785,216.785,213.32333333333332,213.32333333333332,190.012512,21.04372
27,0.0,1.0,0.0,1.0,1.0,0.0,0.0,1.0,0.0,100.0,1.0,1.1856,26.0,0.0,0.0,0.0,59.999996,0.0,26.0,26.0,26.0,26.0,0.027888888888888852,0.25890000000000013,-0.070175,292.252,-2.7085,-2.69075,-1.615,-1.6113,-184.19,215.79500000000002,190.405125,0.0,0.0,0.0,0.0,0.05476666666666652,-5.498166666666667,-5.498166666666667,-0.6034,-0.9486666666666667,-0.013125000000000053,-0.6839999999999999,69.368,-0.006099999999999994,-0.247175,-0.18799999999999972,100.0,1.0,1.0,213.94666666666666,0.0,0.0,0.0,0.0,0.0,0.0,0.0,9068.4,0.0,55.0,5.0,249.7,1.0,0.0,0.0,0.0,0.0,0.0,0.0,0.0,1.3589999999999982,1.3589999999999982,0.0,0.0,1.0,55.0,616.79921,10000.0,85.000001,85.000001,85.000001,85.000001,395.0,0.0,0.0,0.0,1.0,166.665,52.216,52.216,47.394,47.394,34.0,-24.6225,23.91,-28.07,27.625,0.0,1782.326,-0.3150000000000013,100.0,28.287,28.3,43.96,43.742000000000004,0.0,1.0,100.0,0.0,0.0,0.0,0.0,3173.714285714286,3049.3,3958.3333333333335,3931.2,305.4775,304.9755,315.20175,315.03325,22.0373,20.645,22.0258,21.5056,314.999998,314.999998,324.999988,324.999988,99.55957142857143,99.50725,99.56864285714286,99.5474,0.07299999999999995,-0.05933333333333324,-0.11283333333333334,0.10933333333333328,-0.03166666666666629,-0.05833333333333002,1.5590000000000002,1.537,38.733000000000004,30.031,38.661,35.4105,56.06,35.344,59.97,52.694,53.977000000000004,34.443,58.5405,51.0185,53.113,33.9645,58.437,50.4245,-0.10050000000000003,-0.052999999999999936,0.103965,0.10228000000000001,0.0,217.115,217.13,213.94666666666666,213.94666666666666,190.012512,21.04372
28,0.0,1.0,0.0,1.0,1.0,0.0,0.0,1.0,0.0,100.0,1.0,1.1856,26.0,0.0,0.0,0.0,59.999996,0.0,26.0,26.0,26.0,26.0,0.004444444444444473,0.27960000000000007,-0.030125000000000002,292.297,-2.662,-2.683125,-1.6037,-1.5519,-180.64999999999998,215.7775,190.3795,0.0,0.0,0.0,0.0,0.0568333333333334,-5.498166666666667,-5.498166666666667,-0.5986,0.6833333333333333,-0.015124999999999833,0.8650000000000002,69.502,0.0,-0.21125000000000002,-0.29799999999999915,100.0,1.0,1.0,214.35666666666668,0.0,0.0,0.0,0.0,0.0,0.0,0.0,9085.7,0.0,55.0,5.0,250.17666666666668,0.0,0.0,0.0,0.0,0.0,0.0,0.0,0.0,1.4100000000000001,1.4100000000000001,0.0,0.0,0.0,55.0,616.79921,10000.0,85.000001,85.000001,85.000001,85.000001,395.0,0.0,0.0,0.0,1.0,166.665,52.383,52.383,47.638,47.638,34.0,-22.4725,24.703333333333333,-29.509999999999998,29.075,0.0,1782.275,-0.3949999999999996,100.0,28.5,28.046,43.343,43.228,0.0,1.0,100.0,0.0,0.0,0.0,0.0,3009.5714285714284,3093.4,4159.444444444444,4190.6,305.5775,305.027,314.855,314.58125,22.0468,20.6506,22.0361,21.5146,314.999998,314.999998,324.999988,324.999988,99.55957142857143,99.50725,99.56878571428571,99.54755714285714,0.09066666666666645,-0.04299999999999993,-0.11299999999999999,0.11583333333333323,-0.04833333333333201,-0.05333333333332746,1.5499999999999998,1.5465,38.793,30.066,38.725,35.466499999999996,56.048,35.382999999999996,60.004,52.7535,53.965,34.479,58.572,51.0755,53.1,33.999,58.465,50.4805,-0.10350000000000004,-0.050000000000000044,0.11646500000000001,0.10065500000000001,0.0,217.59,217.59,214.35666666666668,214.35666666666668,190.012512,21.04372
29,0.0,1.0,0.0,1.0,1.0,0.0,0.0,1.0,0.0,100.0,1.0,1.1856,26.0,0.0,0.0,0.0,59.999996,0.0,26.0,26.0,26.0,26.0,0.03633333333333333,0.25480000000000014,-0.025675,292.191,-2.6603,-2.722375,-1.5645,-1.549,-177.1,215.76,190.353125,0.0,0.0,0.0,0.0,0.05889999999999995,-5.498166666666667,-5.498166666666667,-0.6099,-0.7543333333333333,-0.007000000000000117,-0.683,69.637,0.006399999999999961,-0.22082500000000002,-0.3360000000000003,100.0,1.0,1.0,214.67333333333335,0.0,0.0,0.0,0.0,0.0,0.0,0.0,9099.2,0.0,55.0,5.0,250.66666666666666,1.0,0.0,0.0,0.0,0.0,0.0,0.0,0.0,1.4609999999999985,1.4609999999999985,0.0,0.0,1.0,55.0,616.79921,10000.0,85.000001,85.000001,85.000001,85.000001,395.0,0.0,0.0,0.0,1.0,166.665,52.444,52.444,47.424,47.424,34.0,-23.4425,24.403333333333332,-28.60333333333333,29.7775,0.0,1782.224,-0.4299999999999997,100.0,27.979,28.106,43.595,43.682,0.0,1.0,100.0,0.0,0.0,0.0,0.0,3166.0,3005.7,4087.4444444444443,4188.9,305.402,305.08275,314.9285,314.42375,22.0561,20.6561,22.046599999999998,21.5239,314.999998,314.999998,324.999988,324.999988,99.5596,99.50726666666667,99.56894285714286,99.5477,0.09133333333333349,-0.04499999999999993,-0.1113333333333334,0.1206666666666667,-0.041666666666671404,-0.051666666666669414,1.5070000000000001,1.4809999999999999,38.849999999999994,30.10033333333333,38.791,35.5245,56.033,35.421,60.042500000000004,52.8165,53.951,34.513999999999996,58.608000000000004,51.135999999999996,53.085,34.0325,58.498,50.539500000000004,-0.11249999999999993,-0.04150000000000009,0.11390000000000002,0.10383,0.0,217.96,217.96,214.67333333333335,214.67333333333335,190.012512,21.04372
30,0.0,1.0,0.0,1.0,1.0,0.0,0.0,1.0,0.0,100.0,1.0,1.1856,26.0,0.0,0.0,0.0,59.999996,0.0,26.0,26.0,26.0,26.0,0.033333333333333215,0.2582,0.049225000000000005,291.565,-2.6725,-2.613375,-1.5368,-1.6048,-173.95999999999998,215.7425,190.329625,0.0,0.0,0.0,0.0,0.060733333333333306,-5.498166666666667,-5.498166666666667,-0.6023000000000001,0.8896666666666668,-0.00649999999999995,0.7749999999999999,69.752,0.01100000000000012,-0.21635000000000001,-0.3620000000000001,100.0,1.0,1.0,215.0966666666667,0.0,0.0,0.0,0.0,0.0,0.0,0.0,9117.1,0.0,55.0,5.0,251.08333333333334,0.0,0.0,0.0,0.0,0.0,0.0,1.0,0.0,1.5060000000000002,1.5060000000000002,0.0,0.0,0.0,55.0,616.79921,10000.0,85.000001,85.000001,85.000001,85.000001,395.0,0.0,0.0,0.0,1.0,333.33500000000004,51.132,51.132,47.455,47.455,34.0,-23.665,25.606666666666666,-27.30333333333333,30.9075,0.0,1782.178,-0.4349999999999987,100.0,29.076,28.751,43.515,43.658,0.0,1.0,100.0,0.0,0.0,0.0,0.0,3240.4285714285716,3213.6,4119.555555555556,4145.4,304.875,304.58475,314.8585,314.58525,22.0646,20.6613,22.0558,21.532,314.999998,314.999998,324.999988,324.999988,99.55961428571429,99.50726666666667,99.56907142857143,99.54784285714285,0.11100000000000021,-0.03499999999999992,-0.08816666666666662,0.13800000000000012,-0.03833333333332689,-0.041666666666671404,1.505,1.499,38.903999999999996,30.133,38.849000000000004,35.575,56.025,35.457499999999996,60.073,52.87,53.943,34.5485,58.6365,51.1875,53.076,34.0655,58.524,50.59,-0.11449999999999994,-0.052999999999999936,0.108755,0.10888500000000001,0.0,218.345,218.37,215.0966666666667,215.0966666666667,190.012512,21.04372
31,0.0,1.0,0.0,1.0,1.0,0.0,0.0,1.0,0.0,100.0,1.0,1.1856,26.0,0.0,0.0,0.0,59.999996,0.0,26.0,26.0,26.0,26.0,0.037555555555555786,0.25,0.012775,291.275,-2.7662,-2.590375,-1.5888,-1.6002,-170.39999999999998,215.72750000000002,190.303875,0.0,0.0,0.0,0.0,0.06279999999999997,-5.498166666666667,-5.498166666666667,-0.5908,-0.5116666666666667,-0.0006249999999998757,-0.756,69.886,0.01859999999999995,-0.22345,-0.4579999999999993,100.0,1.0,1.0,215.36666666666667,0.0,0.0,0.0,0.0,0.0,0.0,0.0,9128.6,0.0,55.0,5.0,251.56666666666666,1.0,0.0,0.0,0.0,0.0,0.0,1.0,0.0,1.5569999999999986,1.5569999999999986,0.0,0.0,1.0,55.0,616.79921,10000.0,85.000001,85.000001,85.000001,85.000001,395.0,0.0,0.0,0.0,1.0,333.33500000000004,51.453,51.453,46.036,46.036,34.0,-24.232499999999998,25.881666666666668,-29.706666666666667,31.475,0.0,1782.127,-0.46000000000000085,100.0,28.572,28.905,44.167,44.437,0.0,1.0,100.0,0.0,0.0,0.0,0.0,3217.285714285714,3260.2,4279.111111111111,4208.4,305.3235,304.43775,314.456,314.469,22.073900000000002,20.667,22.0665,21.5414,314.999998,314.999998,324.999988,324.999988,99.55962857142858,99.50726666666667,99.56922857142857,99.54798571428572,0.10466666666666669,-0.03400000000000003,-0.09333333333333338,0.1373333333333333,-0.036666666666668846,-0.03999999999999915,1.491,1.4665,38.962,30.168666666666667,38.916,35.634,56.012,35.4975,60.114,52.935,53.931,34.585,58.6745,51.25,53.063,34.1005,58.5585,50.650999999999996,-0.118,-0.046499999999999986,0.10991500000000001,0.11424000000000001,0.0,218.735,218.74,215.36666666666667,215.36666666666667,190.012512,21.04372
32,0.0,1.0,0.0,1.0,1.0,0.0,0.0,1.0,0.0,100.0,1.0,1.1856,26.0,0.0,0.0,0.0,59.999996,0.0,26.0,26.0,26.0,26.0,0.0451111111111111,0.2793000000000001,-0.0337,291.611,-2.6827,-2.704625,-1.5651000000000002,-1.5117,-166.82999999999998,215.7125,190.27825,0.0,0.0,0.0,0.0,0.06486666666666652,-5.498166666666667,-5.498166666666667,-0.6059,-0.07299999999999995,-0.026124999999999954,0.31700000000000017,70.016,0.022299999999999986,-0.22817500000000002,-0.5259999999999998,100.0,1.0,1.0,215.84,0.0,0.0,0.0,0.0,0.0,0.0,0.0,9148.7,0.0,55.0,5.0,252.03,0.0,0.0,0.0,0.0,0.0,0.0,1.0,0.0,1.6080000000000005,1.6080000000000005,0.0,0.0,0.0,55.0,616.79921,10000.0,85.000001,85.000001,85.000001,85.000001,395.0,0.0,0.0,0.0,1.0,333.33500000000004,51.879999999999995,51.879999999999995,46.844,46.844,34.0,-22.03,25.985,-27.41333333333333,31.6925,0.0,1782.075,-0.4400000000000013,100.0,28.643,28.633,43.946,44.146,0.0,1.0,100.0,0.0,0.0,0.0,0.0,3079.142857142857,3133.2,4136.888888888889,4338.6,305.4395,304.88925,314.752,314.2455,22.0831,20.6727,22.0769,21.5507,314.999998,314.999998,324.999988,324.999988,99.55962857142858,99.50728333333333,99.56938571428572,99.54814285714286,0.11733333333333373,-0.02633333333333332,-0.07983333333333331,0.14916666666666667,-0.021666666666668277,-0.07000000000000028,1.5259999999999998,1.51,39.019999999999996,30.204666666666668,38.980999999999995,35.6915,55.998999999999995,35.539,60.150999999999996,52.9995,53.919,34.6235,58.709,51.312,53.05,34.1375,58.5895,50.7115,-0.11849999999999994,-0.04849999999999999,0.11024500000000001,0.1073,0.0,219.12,219.175,215.84,215.84,190.012512,21.04372
33,0.0,1.0,0.0,1.0,1.0,0.0,0.0,1.0,0.0,100.0,1.0,1.1856,26.0,0.0,0.0,0.0,59.999996,0.0,26.0,26.0,26.0,26.0,0.04499999999999993,0.25239999999999996,-0.047150000000000004,291.916,-2.7255,-2.69375,-1.5817,-1.5915,-163.47,215.6975,190.253125,0.0,0.0,0.0,0.0,0.0668333333333333,-5.498166666666667,-5.498166666666667,-0.6151,-0.3433333333333334,-0.016000000000000014,1.2320000000000002,70.139,0.0242,-0.21782500000000002,-0.45199999999999996,100.0,1.0,1.0,216.22333333333333,0.0,0.0,0.0,0.0,0.0,0.0,0.0,9164.9,0.0,55.0,5.0,252.47666666666666,1.0,0.0,0.0,0.0,0.0,0.0,1.0,0.0,1.6559999999999988,1.6559999999999988,0.0,0.0,1.0,55.0,616.79921,10000.0,85.000001,85.000001,85.000001,85.000001,395.0,0.0,0.0,0.0,1.0,166.665,52.231,52.231,47.211,47.211,34.0,-22.0475,25.435,-27.28,31.415,0.0,1782.03,-0.4450000000000003,100.0,28.474,28.333,43.801,44.032,0.0,1.0,100.0,0.0,0.0,0.0,0.0,3035.0,3097.8,4075.8888888888887,4239.6,305.6155,305.03575,314.913,314.4235,22.0918,20.678,22.0867,21.5593,314.999998,314.999998,324.999988,324.999988,99.55965714285715,99.50728333333333,99.56951428571429,99.54828571428571,0.1166666666666667,-0.02833333333333332,-0.08133333333333337,0.13549999999999995,-0.036666666666668846,-0.06499999999999773,1.5099999999999998,1.4929999999999999,39.074,30.237333333333332,39.042,35.746,55.988,35.5715,60.1825,53.053,53.908,34.6535,58.738,51.3635,53.038,34.1665,58.616,50.762,-0.11499999999999999,-0.0475000000000001,0.10645,0.10536500000000001,0.0,219.515,219.54000000000002,216.22333333333336,216.22333333333333,190.012512,21.04372
34,0.0,1.0,0.0,1.0,1.0,0.0,0.0,1.0,0.0,100.0,1.0,1.1856,26.0,0.0,0.0,0.0,59.999996,0.0,26.0,26.0,26.0,26.0,0.056111111111111,0.26290000000000013,-0.07385,292.221,-2.7543,-2.6168750000000003,-1.6495000000000002,-1.5213,-159.89,215.685,190.225,0.0,0.0,0.0,0.0,0.06889999999999996,-5.498166666666667,-5.498166666666667,-0.6439,-0.8123333333333334,0.010375000000000023,-0.20300000000000007,70.269,0.025100000000000122,-0.22485000000000002,-0.3620000000000001,100.0,1.0,1.0,216.63333333333333,0.0,0.0,0.0,0.0,0.0,0.0,0.0,9182.3,0.0,55.0,5.0,252.94333333333333,0.0,0.0,0.0,0.0,0.0,0.0,1.0,0.0,1.7070000000000007,1.7070000000000007,0.0,0.0,0.0,55.0,616.79921,10000.0,85.000001,85.000001,85.000001,85.000001,395.0,0.0,0.0,0.0,1.0,166.665,52.628,52.628,47.531,47.531,34.0,-22.195,24.373333333333335,-28.653333333333332,29.5925,0.0,1781.979,-0.4750000000000014,100.0,28.023,28.16,43.471000000000004,44.116,0.0,1.0,100.0,0.0,0.0,0.0,0.0,3023.857142857143,3013.2,4090.5555555555557,4148.0,305.7185,305.12125,314.99575,314.599,22.101,20.6835,22.0971,21.5686,314.999998,314.999998,324.999988,324.999988,99.55965714285715,99.50728333333333,99.56965714285714,99.54842857142857,0.11566666666666636,-0.023666666666666725,-0.09199999999999997,0.13600000000000012,-0.05833333333333002,-0.04833333333333201,1.5255,1.5234999999999999,39.131,30.27166666666667,39.107,35.8035,55.974000000000004,35.6075,60.216499999999996,53.1145,53.894999999999996,34.687,58.769999999999996,51.423,53.024,34.198499999999996,58.6445,50.82,-0.11949999999999994,-0.038000000000000034,0.10919500000000001,0.10700000000000001,0.0,219.91500000000002,219.925,216.63333333333333,216.63333333333333,190.012512,21.04372
35,0.0,1.0,0.0,1.0,1.0,0.0,0.0,1.0,0.0,100.0,1.0,1.1856,26.0,0.0,0.0,0.0,59.999996,0.0,26.0,26.0,26.0,26.0,0.03933333333333322,0.2614000000000001,-0.09675,292.221,-2.7236,-2.628125,-1.6157,-1.5114,-156.3,215.6725,190.194875,0.0,0.0,0.0,0.0,0.07099999999999995,-5.498166666666667,-5.498166666666667,-0.6828000000000001,-0.19433333333333336,-0.012125000000000163,-0.20100000000000007,70.398,0.027700000000000058,-0.22917500000000002,-0.5439999999999996,100.0,1.0,1.0,217.12,0.0,0.0,0.0,0.0,0.0,0.0,0.0,9203.0,0.0,55.0,5.0,253.40666666666667,1.0,0.0,0.0,0.0,0.0,0.0,1.0,0.0,1.7579999999999991,1.7579999999999991,0.0,0.0,1.0,55.0,616.79921,10000.0,85.000001,85.000001,85.000001,85.000001,395.0,0.0,0.0,0.0,1.0,333.33500000000004,52.032,52.032,47.363,47.363,34.0,-22.197499999999998,27.803333333333335,-25.953333333333333,28.335,0.0,1781.925,-0.3299999999999983,100.0,28.04,28.398,43.345,43.558,0.0,1.0,100.0,0.0,0.0,0.0,0.0,3036.5714285714284,3378.4,3939.0,3972.1000000000004,305.6335,304.166,315.26525,315.065,22.11,20.6893,22.1074,21.5777,314.999998,314.999998,324.999988,324.999988,99.55968571428572,99.5073,99.56981428571429,99.54858571428572,0.11299999999999999,-0.021666666666666723,-0.07350000000000001,0.14700000000000002,-0.05833333333333002,-0.04999999999999716,1.576,1.55,39.187,30.308,39.171,35.8605,55.958,35.649,60.2525,53.175,53.879999999999995,34.7255,58.803,51.4815,53.007999999999996,34.2355,58.674,50.877,-0.10599999999999998,-0.05400000000000005,0.10762000000000001,0.1057,0.0,220.31,220.32999999999998,217.12,217.12,190.012512,21.04372
