,ABS Active,ABS Enabled,AID Allow Tire Blankets,AID Auto Blip,AID Auto Clutch,AID Auto Shift,AID Fuel Rate,AID Ideal Line,AID Mech Damage,AID Stability,AID Tire Wear Rate,Air Density,Air Temp,Ballast,Best Lap Delta,Best Lap Time,Brake Bias,Brake Pos,Brake Temp FL,Brake Temp FR,Brake Temp RL,Brake Temp RR,CG Accel Lateral,CG Accel Longitudinal,CG Accel Vertical,CG Height,Camber FL,Camber FR,Camber RL,Camber RR,Car Coord X,Car Coord Y,Car Coord Z,Car Damage Front,Car Damage Left,Car Damage Rear,Car Damage Right,Car Pos Norm,Caster FL,Caster FR,Chassis Pitch Angle,Chassis Pitch Rate,Chassis Roll Angle,Chassis Roll Rate,Chassis Velocity X,Chassis Velocity Y,Chassis Velocity Z,Chassis Yaw Rate,Clutch Pos,DRS Active,DRS Available,Drive Train Speed,ERS Heat Charging,ERS Is Charging,ERS Max Energy,ERS Power Level,ERS Recovery Level,Engine Brake Setting,Engine Limiter,Engine RPM,Flags,Fuel Level,Gear,Ground Speed,HR Sample Clock,In Pit,KERS Charge,KERS Deployed Energy,KERS Input,KERS Max Energy,LR Sample Clock,Lap Invalidated,Lap Time,Lap Time2,Last Lap Time,Last Sector Time,MR Sample Clock,Max Fuel,Max Power,Max RPM,Max Sus Travel FL,Max Sus Travel FR,Max Sus Travel RL,Max Sus Travel RR,Max Torque,Max Turbo Boost,Num Tires Off Track,Penalties Enabled,Position,Raw Data Sample Rate,Ride Height FL,Ride Height FR,Ride Height RL,Ride Height RR,Road Temp,Self Align Torque FL,Self Align Torque FR,Self Align Torque RL,Self Align Torque RR,Session Lap Count,Session Time Left,Steering Angle,Surface Grip,Suspension Travel FL,Suspension Travel FR,Suspension Travel RL,Suspension Travel RR,TC Active,TC Enabled,Throttle Pos,Tire Dirt Level FL,Tire Dirt Level FR,Tire Dirt Level RL,Tire Dirt Level RR,Tire Load FL,Tire Load FR,Tire Load RL,Tire Load RR,Tire Loaded Radius FL,Tire Loaded Radius FR,Tire Loaded Radius RL,Tire Loaded Radius RR,Tire Pressure FL,Tire Pressure FR,Tire Pressure RL,Tire Pressure RR,Tire Radius FL,Tire Radius FR,Tire Radius RL,Tire Radius RR,Tire Rubber Grip FL,Tire Rubber Grip FR,Tire Rubber Grip RL,Tire Rubber Grip RR,Tire Slip Angle FL,Tire Slip Angle FR,Tire Slip Angle RL,Tire Slip Angle RR,Tire Slip Ratio FL,Tire Slip Ratio FR,Tire Slip Ratio RL,Tire Slip Ratio RR,Tire Temp Core FL,Tire Temp Core FR,Tire Temp Core RL,Tire Temp Core RR,Tire Temp Inner FL,Tire Temp Inner FR,Tire Temp Inner RL,Tire Temp Inner RR,Tire Temp Middle FL,Tire Temp Middle FR,Tire Temp Middle RL,Tire Temp Middle RR,Tire Temp Outer FL,Tire Temp Outer FR,Tire Temp Outer RL,Tire Temp Outer RR,Toe In FL,Toe In FR,Toe In RL,Toe In RR,Turbo Boost,Wheel Angular Speed FL,Wheel Angular Speed FR,Wheel Angular Speed RL,Wheel Angular Speed RR,Wind Direction,Wind Speed
0,0.0,0.0,0.0,1.0,1.0,0.0,0.0,1.0,0.0,100.0,1.0,1.1856,26.0,0.0,0.0,0.0,59.99999,0.0,26.0,26.0,26.0,26.0,-0.022444444444444444,0.33699999999999997,0.18630000000000002,298.172,-2.9041,-2.72925,-1.5458500000000002,-1.496375,-275.53,215.3725,190.991875,0.0,0.0,0.0,0.0,0.0016666666666666668,-5.498166666666667,-5.498166666666667,-0.41800000000000004,1.8546666666666667,-0.0018888888888888289,-0.2400000000000002,65.679,-0.031,-0.054860000000000006,-0.137999999999999,100.0,1.0,1.0,202.89333333333332,0.0,0.0,0.0,0.0,0.0,0.0,0.0,8599.9,0.0,55.0,5.0,236.40666666666667,0.0,0.0,0.0,0.0,0.0,0.0,0.0,0.0,0.006000000000000227,0.006000000000000227,0.0,0.0,0.0,55.0,616.79921,10000.0,85.0,85.0,85.0,85.0,395.0,0.0,0.0,0.0,1.0,20.0,59.845,59.845,50.049,50.049,34.0,-26.048,30.964,-26.81,23.87,0.0,1781.641,0.09499999999999886,100.0,19.615000000000002,20.07,39.38,39.043,0.0,0.0,100.0,0.0,0.0,0.0,0.0,2819.25,3781.1000000000004,3857.6666666666665,3878.7,306.20433333333335,303.01075,315.47775,315.2195,21.658666666666665,20.4266,21.7195,21.2969,314.99999,314.99999,324.99998,324.99998,99.55592857142857,99.50616666666667,99.56291428571429,99.54472857142858,-0.006249999999999978,-0.0495,-0.13483333333333333,0.082,-0.060000000000002274,-0.060000000000002274,1.6313333333333333,1.6150000000000002,36.367000000000004,28.666333333333334,36.747,34.1055,54.83,33.0505,58.143,51.28366666666666,52.747,32.338,56.7885,49.68566666666666,51.87,31.96,56.7415,49.14566666666666,-0.028000000000000025,-0.046499999999999986,0.10811000000000001,0.10273,0.0,205.735,205.73000000000002,202.89333333333332,202.89333333333332,0.0,0.0
1,0.0,0.0,0.0,1.0,1.0,0.0,0.0,1.0,0.0,100.0,1.0,1.1856,26.0,0.0,0.0,0.0,59.999996,0.0,26.0,26.0,26.0,26.0,-0.04077777777777778,0.36830000000000007,0.22354000000000002,297.226,-2.80755,-2.803125,-1.5962,-1.366625,-272.17,215.3775,190.97175,0.0,0.0,0.0,0.0,0.003633333333333334,-5.498166666666667,-5.498166666666667,-0.3128,-1.631,-0.040999999999999925,-0.484,65.858,-0.0217,0.0022800000000000003,0.4720000000000013,100.0,1.0,1.0,202.70333333333332,0.0,0.0,0.0,0.0,0.0,0.0,0.0,8591.8,0.0,55.0,5.0,237.05,1.0,0.0,0.0,0.0,0.0,0.0,0.0,0.0,0.05699999999999861,0.05699999999999861,0.0,0.0,1.0,55.0,616.79921,10000.0,85.000001,85.000001,85.000001,85.000001,395.0,0.0,0.0,0.0,1.0,166.665,64.316,64.316,48.019,48.019,34.0,-16.695999999999998,11.956,-36.42,33.5475,0.0,1781.59,0.38500000000000156,100.0,19.942999999999998,19.707,41.739000000000004,42.734,0.0,0.0,100.0,0.0,0.0,0.0,0.0,1996.375,1678.6999999999998,4736.666666666667,5360.1,308.773,309.5065,313.08475,311.08675,21.66722222222222,20.4303,21.7302,21.3062,314.999998,314.999998,324.999988,324.999988,99.55592857142857,99.50616666666667,99.56307142857143,99.54488571428571,-0.0030000000000000027,-0.06675,-0.11900000000000001,0.06366666666666666,-0.054999999999999716,-0.015000000000000568,1.2796666666666665,1.3135,36.42,28.689333333333334,36.814,34.1635,54.803,33.076,58.193,51.355000000000004,52.722,32.3615,56.835499999999996,49.754,51.8455,31.983,56.7855,49.212666666666664,0.0013333333333331865,-0.058499999999999996,0.10070000000000001,0.10655,0.0,206.3,206.25,202.70333333333332,202.70333333333332,0.0,0.0
2,0.0,0.0,0.0,1.0,1.0,0.0,0.0,1.0,0.0,100.0,1.0,1.1856,26.0,0.0,0.0,0.0,59.999996,0.0,26.0,26.0,26.0,26.0,-0.06944444444444445,0.3417000000000001,0.04816,299.026,-2.78185,-2.765,-1.56025,-1.5053750000000001,-268.81,215.3825,190.952875,0.0,0.0,0.0,0.0,0.0056,-5.498166666666667,-5.498166666666667,-0.4171,0.582,-0.008000000000000007,2.0,66.011,-0.02665,-0.08332,0.7200000000000006,100.0,1.0,1.0,204.2733333333333,0.0,0.0,0.0,0.0,0.0,0.0,0.0,8658.5,0.0,55.0,5.0,237.60333333333335,0.0,0.0,0.0,0.0,0.0,0.0,0.0,0.0,0.10800000000000054,0.10800000000000054,0.0,0.0,0.0,55.0,616.79921,10000.0,85.000001,85.000001,85.000001,85.000001,395.0,0.0,0.0,0.0,1.0,166.665,61.905,61.905,51.697,51.697,34.0,-23.308,18.278,-23.873333333333335,18.605,0.0,1781.539,0.4750000000000014,100.0,20.374,19.805,40.975,40.894,0.0,0.0,100.0,0.0,0.0,0.0,0.0,2607.375,2483.5,3446.1111111111113,3298.4,306.8863333333333,306.888,316.42725,316.73325,21.676000000000002,20.43415,21.7402,21.3144,314.999998,314.999998,324.999988,324.999988,99.55594285714285,99.50616666666667,99.5632,99.545,-0.019499999999999962,-0.0835,-0.15816666666666665,0.07233333333333333,-0.0833333333333286,-0.0799999999999983,1.8073333333333332,1.827,36.474999999999994,28.71333333333333,36.876000000000005,34.215,54.78,33.1035,58.229,51.402,52.7,32.387,56.8685,49.79933333333334,51.823,32.007,56.816,49.257,0.0006666666666665932,-0.07299999999999995,0.10469500000000001,0.10905000000000001,0.0,206.76999999999998,206.735,204.2733333333333,204.2733333333333,0.0,0.0
3,0.0,0.0,0.0,1.0,1.0,0.0,0.0,1.0,0.0,100.0,1.0,1.1856,26.0,0.0,0.0,0.0,59.999996,0.0,26.0,26.0,26.0,26.0,-0.06944444444444445,0.3379000000000001,0.13374000000000003,298.279,-2.8002,-2.794875,-1.54145,-1.4701250000000001,-265.64,215.385,190.933625,0.0,0.0,0.0,0.0,0.0074333333333333335,-5.498166666666667,-5.498166666666667,-0.33790000000000003,0.4076666666666667,0.008333333333333304,-1.508,66.179,-0.0381,-0.00198,0.5220000000000002,100.0,1.0,1.0,204.07666666666665,0.0,0.0,0.0,0.0,0.0,0.0,0.0,8650.1,0.0,55.0,5.0,238.20666666666668,1.0,0.0,0.0,0.0,0.0,0.0,0.0,0.0,0.1559999999999988,0.1559999999999988,0.0,0.0,1.0,55.0,616.79921,10000.0,85.000001,85.000001,85.000001,85.000001,395.0,0.0,0.0,0.0,1.0,166.665,63.538,63.538,48.629999999999995,48.629999999999995,34.0,-17.811999999999998,15.768,-32.906666666666666,26.93,0.0,1781.492,0.5749999999999993,100.0,19.996,19.71,41.171,41.222,0.0,0.0,100.0,0.0,0.0,0.0,0.0,2060.5,2195.4,4407.0,4321.5,308.65933333333334,307.837,314.04975,313.99,21.683888888888887,20.4379,21.7499,21.3228,314.999998,314.999998,324.999988,324.999988,99.55594285714285,99.50618333333334,99.56332857142857,99.54514285714286,-0.02849999999999997,-0.09025,-0.14200000000000002,0.06966666666666667,-0.04833333333333201,-0.06333333333333258,1.4426666666666668,1.4689999999999999,36.524,28.737000000000002,36.937,34.2675,54.754000000000005,33.132,58.268,51.464666666666666,52.676,32.413,56.905,49.85966666666667,51.799,32.032,56.8495,49.31633333333333,0.01200000000000001,-0.07850000000000001,0.10178000000000001,0.11327500000000001,0.0,207.335,207.29000000000002,204.07666666666665,204.07666666666665,0.0,0.0
4,0.0,0.0,0.0,1.0,1.0,0.0,0.0,1.0,0.0,100.0,1.0,1.1856,26.0,0.0,0.0,0.0,59.999996,0.0,26.0,26.0,26.0,26.0,-0.06733333333333333,0.31689999999999996,0.0026600000000000005,298.798,-2.7896,-2.857625,-1.4787,-1.58275,-262.26,215.385,190.914375,0.0,0.0,0.0,0.0,0.0094,-5.498166666666667,-5.498166666666667,-0.37320000000000003,-0.9466666666666667,-0.04444444444444429,-0.43900000000000006,66.344,-0.0444,-0.051300000000000005,0.968,100.0,1.0,1.0,204.84,0.0,0.0,0.0,0.0,0.0,0.0,0.0,8682.4,0.0,55.0,5.0,238.80333333333334,0.0,0.0,0.0,0.0,0.0,0.0,0.0,0.0,0.20700000000000074,0.20700000000000074,0.0,0.0,0.0,55.0,616.79921,10000.0,85.000001,85.000001,85.000001,85.000001,395.0,0.0,0.0,0.0,1.0,166.665,63.232,63.232,50.095,50.095,34.0,-21.939999999999998,14.982,-28.313333333333333,23.0375,0.0,1781.44,0.7199999999999989,100.0,19.892,19.469,41.781,41.205,0.0,0.0,100.0,0.0,0.0,0.0,0.0,2423.25,2099.4,3930.1111111111113,3719.4,307.5683333333333,308.119,315.24025,315.561,21.692444444444444,20.44165,21.7603,21.3316,314.999998,314.999998,324.999988,324.999988,99.55594285714285,99.5062,99.56347142857143,99.54528571428571,-0.042749999999999955,-0.10375000000000001,-0.16416666666666666,0.0645,-0.06666666666666998,-0.06333333333333258,1.5773333333333333,1.6125000000000003,36.578,28.759999999999998,37.001999999999995,34.3225,54.729,33.159,58.3115,51.522999999999996,52.653,32.438,56.946,49.91566666666667,51.7755,32.0555,56.8875,49.371,0.026333333333333098,-0.08850000000000025,0.10016000000000001,0.12124000000000001,0.0,207.79000000000002,207.7,204.84,204.84,0.0,0.0
5,0.0,0.0,0.0,1.0,1.0,0.0,0.0,1.0,0.0,100.0,1.0,1.1856,26.0,0.0,0.0,0.0,59.999996,0.0,26.0,26.0,26.0,26.0,-0.09011111111111111,0.3486,-0.0574,299.072,-2.76325,-2.839,-1.52945,-1.56075,-258.87,215.385,190.8945,0.0,0.0,0.0,0.0,0.011366666666666667,-5.498166666666667,-5.498166666666667,-0.378,0.6186666666666666,-0.026333333333333098,0.565,66.51,-0.0651,-0.037180000000000005,0.9459999999999997,100.0,1.0,1.0,205.40666666666667,0.0,0.0,0.0,0.0,0.0,0.0,0.0,8706.4,0.0,55.0,5.0,239.4,1.0,0.0,0.0,0.0,0.0,0.0,0.0,0.0,0.2579999999999991,0.2579999999999991,0.0,0.0,1.0,55.0,616.79921,10000.0,85.000001,85.000001,85.000001,85.000001,395.0,0.0,0.0,0.0,1.0,166.665,63.461,63.461,50.354,50.354,34.0,-19.458,16.055999999999997,-28.633333333333333,22.5175,0.0,1781.389,0.3249999999999993,100.0,19.918,19.358,41.363,40.558,0.0,0.0,100.0,0.0,0.0,0.0,0.0,2216.75,2180.2,3843.0,3913.5,307.9696666666667,307.8795,315.4735,315.18325,21.701,20.4455,21.7704,21.3402,314.999998,314.999998,324.999988,324.999988,99.55595714285714,99.5062,99.56361428571428,99.54541428571429,-0.026000000000000023,-0.08475,-0.17733333333333334,0.034833333333333334,-0.041666666666671404,-0.07333333333333059,1.6043333333333334,1.6555,36.632,28.784333333333336,37.065,34.3765,54.705,33.1875,58.35,51.580333333333336,52.629999999999995,32.464,56.9815,49.970666666666666,51.753,32.0805,56.920500000000004,49.425,-0.0029999999999998916,-0.06150000000000011,0.09874000000000001,0.10569500000000001,0.0,208.32999999999998,208.26,205.40666666666667,205.40666666666667,0.0,0.0
6,0.0,0.0,0.0,1.0,1.0,0.0,0.0,1.0,0.0,100.0,1.0,1.1856,26.0,0.0,0.0,0.0,59.999996,0.0,26.0,26.0,26.0,26.0,-0.0898888888888889,0.3284,0.056060000000000006,298.843,-2.79525,-2.824,-1.476,-1.575375,-255.48,215.3825,190.873625,0.0,0.0,0.0,0.0,0.013333333333333334,-5.498166666666667,-5.498166666666667,-0.3725,-0.4693333333333333,-0.04922222222222228,-0.6259999999999999,66.679,-0.06905,-0.023960000000000002,0.847999999999999,100.0,1.0,1.0,205.78,0.0,0.0,0.0,0.0,0.0,0.0,0.0,8722.2,0.0,55.0,5.0,240.01,0.0,0.0,0.0,0.0,0.0,0.0,0.0,0.0,0.30900000000000105,0.30900000000000105,0.0,0.0,0.0,55.0,616.79921,10000.0,85.000001,85.000001,85.000001,85.000001,395.0,0.0,0.0,0.0,1.0,166.665,63.538,63.538,50.064,50.064,34.0,-22.768,14.535999999999998,-30.84,22.9575,0.0,1781.338,0.23000000000000043,100.0,19.602,19.159,41.543,40.798,0.0,0.0,100.0,0.0,0.0,0.0,0.0,2485.375,2063.2,4068.3333333333335,3915.4,307.42466666666667,308.29575,314.9025,315.05475,21.709555555555557,20.44915,21.7807,21.349,314.999998,314.999998,324.999988,324.999988,99.55595714285714,99.5062,99.56375714285714,99.54555714285715,-0.04874999999999996,-0.0995,-0.18733333333333335,0.029666666666666668,-0.06666666666666998,-0.051666666666669414,1.5343333333333333,1.5550000000000002,36.685,28.807333333333332,37.129000000000005,34.4315,54.68,33.213499999999996,58.3915,51.641666666666666,52.607,32.488,57.0205,50.028999999999996,51.7295,32.1035,56.957,49.48233333333333,0.0016666666666669272,-0.06099999999999994,0.10633000000000001,0.10838,0.0,208.85500000000002,208.76999999999998,205.78,205.78,0.0,0.0
7,0.0,0.0,0.0,1.0,1.0,0.0,0.0,1.0,0.0,100.0,1.0,1.1856,26.0,0.0,0.0,0.0,59.999996,0.0,26.0,26.0,26.0,26.0,-0.09777777777777777,0.33330000000000015,-0.00292,298.721,-2.7926,-2.84775,-1.52905,-1.53175,-252.07,215.3775,190.852875,0.0,0.0,0.0,0.0,0.015333333333333334,-5.498166666666667,-5.498166666666667,-0.373,0.209,-0.03744444444444417,1.2369999999999999,66.844,-0.0733,-0.030520000000000002,0.5540000000000003,100.0,1.0,1.0,206.31,0.0,0.0,0.0,0.0,0.0,0.0,0.0,8744.8,0.0,55.0,5.0,240.60333333333335,1.0,0.0,0.0,0.0,0.0,0.0,0.0,0.0,0.35999999999999943,0.35999999999999943,0.0,0.0,1.0,55.0,616.79921,10000.0,85.000001,85.000001,85.000001,85.000001,395.0,0.0,0.0,0.0,1.0,166.665,63.4,63.4,49.789,49.789,34.0,-20.345999999999997,16.812,-30.89,22.96,0.0,1781.288,-0.04499999999999815,100.0,19.995,19.073999999999998,41.719,40.704,0.0,0.0,100.0,0.0,0.0,0.0,0.0,2320.25,2220.4,4060.222222222222,3989.5,307.6743333333333,307.87375,314.906,315.01275,21.718222222222224,20.45305,21.7909,21.3578,314.999998,314.999998,324.999988,324.999988,99.55595714285714,99.50621666666666,99.5639,99.5457,-0.013749999999999929,-0.067,-0.17816666666666667,0.035166666666666666,-0.041666666666671404,-0.061666666666667425,1.5696666666666665,1.5750000000000002,36.739000000000004,28.831666666666663,37.193,34.4865,54.657,33.2415,58.433,51.70066666666666,52.585,32.513999999999996,57.059,50.08566666666667,51.707499999999996,32.128,56.9925,49.53766666666667,-0.030000000000000027,-0.026000000000000245,0.10563000000000002,0.10834,0.0,209.36,209.3,206.31,206.31,0.0,0.0
8,0.0,0.0,0.0,1.0,1.0,0.0,0.0,1.0,0.0,100.0,1.0,1.1856,26.0,0.0,0.0,0.0,59.999996,0.0,26.0,26.0,26.0,26.0,-0.06811111111111112,0.3157000000000001,-0.018740000000000003,298.95,-2.8007,-2.832375,-1.5352999999999999,-1.5538750000000001,-248.86,215.37,190.833625,0.0,0.0,0.0,0.0,0.0172,-5.498166666666667,-5.498166666666667,-0.3718,-0.018333333333333333,-0.035222222222222044,0.32499999999999973,67.0,-0.06565,-0.03144,0.20800000000000018,100.0,1.0,1.0,206.81666666666666,0.0,0.0,0.0,0.0,0.0,0.0,0.0,8766.1,0.0,55.0,5.0,241.16333333333333,0.0,0.0,0.0,0.0,0.0,0.0,0.0,0.0,0.40800000000000125,0.40800000000000125,0.0,0.0,0.0,55.0,616.79921,10000.0,85.000001,85.000001,85.000001,85.000001,395.0,0.0,0.0,0.0,1.0,333.33500000000004,63.736,63.736,49.652,49.652,34.0,-19.18,17.32,-29.21,23.415,0.0,1781.238,-0.14000000000000057,100.0,19.612000000000002,19.037,41.734,40.861000000000004,0.0,0.0,100.0,0.0,0.0,0.0,0.0,2234.0,2256.1,3968.8888888888887,3889.2,308.0006666666667,307.71175,315.12575,315.23225,21.726111111111113,20.45675,21.8005,21.3662,314.999998,314.999998,324.999988,324.999988,99.55595714285714,99.50623333333333,99.56402857142857,99.54582857142857,-0.0050000000000000044,-0.059250000000000004,-0.15866666666666665,0.052000000000000005,-0.04833333333333201,-0.061666666666667425,1.5673333333333332,1.5725000000000002,36.788,28.854666666666667,37.253,34.5385,54.632999999999996,33.268,58.471000000000004,51.757666666666665,52.563,32.538,57.095,50.14033333333333,51.685,32.150999999999996,57.025999999999996,49.591,-0.03733333333333322,-0.01750000000000007,0.10344,0.10450000000000001,0.0,209.825,209.79000000000002,206.81666666666666,206.81666666666666,0.0,0.0
9,0.0,0.0,0.0,1.0,1.0,0.0,0.0,1.0,0.0,100.0,1.0,1.1856,26.0,0.0,0.0,0.0,59.999996,0.0,26.0,26.0,26.0,26.0,-0.05522222222222222,0.33030000000000004,0.006900000000000001,298.889,-2.7823,-2.8497500000000002,-1.5202499999999999,-1.554,-245.64,215.3625,190.814125,0.0,0.0,0.0,0.0,0.019066666666666666,-5.498166666666667,-5.498166666666667,-0.3673,0.22133333333333335,-0.04444444444444429,0.601,67.155,-0.0504,-0.020560000000000002,0.03200000000000003,100.0,1.0,1.0,207.2733333333333,0.0,0.0,0.0,0.0,0.0,0.0,0.0,8785.6,0.0,55.0,5.0,241.72333333333333,1.0,0.0,0.0,0.0,0.0,0.0,0.0,0.0,0.4559999999999995,0.4559999999999995,0.0,0.0,1.0,55.0,616.79921,10000.0,85.000001,85.000001,85.000001,85.000001,395.0,0.0,0.0,0.0,1.0,333.33500000000004,63.675,63.675,49.988,49.988,34.0,-19.578,17.898,-28.723333333333333,24.990000000000002,0.0,1781.189,-0.28000000000000114,100.0,19.585,18.835,41.579,40.831,0.0,0.0,100.0,0.0,0.0,0.0,0.0,2310.75,2259.7,3973.6666666666665,4009.4,307.732,307.717,315.1465,314.933,21.734111111111112,20.4604,21.810200000000002,21.3745,314.999998,314.999998,324.999988,324.999988,99.55597142857143,99.50623333333333,99.56417142857143,99.54595714285715,0.00649999999999995,-0.04275,-0.153,0.06566666666666668,-0.05666666666667197,-0.07166666666666544,1.5723333333333334,1.5705,36.838,28.877333333333333,37.313,34.5905,54.608999999999995,33.293,58.5085,51.81333333333333,52.54,32.561,57.129999999999995,50.194,51.6625,32.173,57.0585,49.64333333333333,-0.05033333333333312,-0.008999999999999897,0.11225500000000001,0.10255,0.0,210.305,210.285,207.2733333333333,207.2733333333333,0.0,0.0
10,0.0,0.0,0.0,1.0,1.0,0.0,0.0,1.0,0.0,100.0,1.0,1.1856,26.0,0.0,0.0,0.0,59.999996,0.0,26.0,26.0,26.0,26.0,-0.006222222222222223,0.3175000000000001,-0.0039000000000000003,298.965,-2.79645,-2.824375,-1.5382500000000001,-1.535625,-242.21,215.35250000000002,190.79325,0.0,0.0,0.0,0.0,0.021066666666666668,-5.498166666666667,-5.498166666666667,-0.36360000000000003,-0.2833333333333333,-0.021222222222222253,-0.04800000000000004,67.32,-0.03425,-0.01814,-0.09999999999999964,100.0,1.0,1.0,207.71,0.0,0.0,0.0,0.0,0.0,0.0,0.0,8804.1,0.0,55.0,5.0,242.31666666666666,0.0,0.0,0.0,0.0,0.0,0.0,1.0,0.0,0.5069999999999979,0.5069999999999979,0.0,0.0,0.0,55.0,616.79921,10000.0,85.000001,85.000001,85.000001,85.000001,395.0,0.0,0.0,0.0,1.0,166.665,64.087,64.087,49.835,49.835,34.0,-18.866,17.2,-29.513333333333332,26.0775,0.0,1781.141,-0.4450000000000003,100.0,19.203,18.813,41.484,41.085,0.0,0.0,100.0,0.0,0.0,0.0,0.0,2299.125,2147.5,4047.8888888888887,4082.0,307.95166666666665,307.90525,315.0005,314.64975,21.742555555555555,20.46425,21.8204,21.3834,314.999998,314.999998,324.999988,324.999988,99.55597142857143,99.50623333333333,99.56431428571429,99.5461,0.021749999999999936,-0.03175,-0.14866666666666667,0.07716666666666668,-0.05666666666667197,-0.054999999999999716,1.539,1.5545,36.891,28.901333333333334,37.378,34.646,54.584,33.318,58.55,51.874,52.516999999999996,32.584,57.1685,50.252,51.6385,32.195499999999996,57.094,49.70033333333333,-0.06333333333333324,0.010000000000000009,0.11015000000000001,0.109215,0.0,210.8,210.79000000000002,207.71,207.71,0.0,0.0
11,0.0,0.0,0.0,1.0,1.0,0.0,0.0,1.0,0.0,100.0,1.0,1.1856,26.0,0.0,0.0,0.0,59.999996,0.0,26.0,26.0,26.0,26.0,0.0035555555555555553,0.3326,-0.02156,299.21,-2.8192,-2.823375,-1.5397500000000002,-1.507875,-238.76999999999998,215.3425,190.772125,0.0,0.0,0.0,0.0,0.022600000000000002,-5.498166666666667,-5.498166666666667,-0.3841,-0.20233333333333334,0.006111111111110956,0.7989999999999999,67.483,-0.015950000000000002,-0.02804,-0.37399999999999967,100.0,1.0,1.0,208.29666666666668,0.0,0.0,0.0,0.0,0.0,0.0,0.0,8829.0,0.0,55.0,5.0,242.90333333333334,1.0,0.0,0.0,0.0,0.0,0.0,1.0,0.0,0.5579999999999998,0.5579999999999998,0.0,0.0,1.0,55.0,616.79921,10000.0,85.000001,85.000001,85.000001,85.000001,395.0,0.0,0.0,0.0,1.0,333.33500000000004,64.026,64.026,50.323,50.323,34.0,-17.524,19.634,-25.169999999999998,26.177500000000002,0.0,1781.089,-0.5649999999999977,100.0,19.102,18.712,41.278,40.991,0.0,0.0,100.0,0.0,0.0,0.0,0.0,2205.625,2346.1,3805.1111111111113,4013.4,308.064,307.45275,315.554,314.913,21.750888888888888,20.46815,21.8306,21.3922,314.999998,314.999998,324.999988,324.999988,99.55597142857143,99.50623333333333,99.56445714285714,99.54624285714286,0.05049999999999999,-0.00475,-0.106,0.10266666666666667,-0.05666666666667197,-0.05666666666667197,1.616,1.5945,36.943,28.926000000000002,37.441,34.701499999999996,54.558,33.344,58.5875,51.934,52.492000000000004,32.608000000000004,57.204,50.309666666666665,51.614,32.218,57.1265,49.757,-0.06800000000000006,0.009500000000000064,0.10497000000000001,0.10032,0.0,211.28,211.305,208.29666666666668,208.29666666666668,0.0,0.0
12,0.0,0.0,0.0,1.0,1.0,0.0,0.0,1.0,0.0,100.0,1.0,1.1856,26.0,0.0,0.0,0.0,59.999996,0.0,26.0,26.0,26.0,26.0,0.008777777777777778,0.33830000000000005,0.01314,298.859,-2.81815,-2.8120000000000003,-1.5546,-1.523875,-235.53,215.335,190.7515,0.0,0.0,0.0,0.0,0.025466666666666665,-5.498166666666667,-5.498166666666667,-0.3734,0.41433333333333333,0.00955555555555554,0.7149999999999999,67.637,0.0027500000000000003,-0.00866,-0.47999999999999954,100.0,1.0,1.0,208.69,0.0,0.0,0.0,0.0,0.0,0.0,0.0,8845.6,0.0,55.0,5.0,243.45666666666665,0.0,0.0,0.0,0.0,0.0,0.0,1.0,0.0,0.6059999999999981,0.6059999999999981,0.0,0.0,0.0,55.0,616.79921,10000.0,85.000001,85.000001,85.000001,85.000001,395.0,0.0,0.0,0.0,1.0,333.33500000000004,63.782,63.782,49.698,49.698,34.0,-17.508,19.922,-26.563333333333336,28.445,0.0,1781.04,-0.4549999999999983,100.0,19.216,19.029,41.168,41.004,0.0,0.0,100.0,0.0,0.0,0.0,0.0,2192.75,2377.1,4010.222222222222,4172.3,308.0846666666667,307.33575,315.058,314.56925,21.758777777777777,20.472,21.8401,21.4006,314.999998,314.999998,324.999988,324.999988,99.55598571428571,99.50623333333333,99.56458571428571,99.54638571428572,0.0475000000000001,-0.00375,-0.09183333333333334,0.11466666666666668,-0.03833333333332689,-0.05333333333332746,1.558,1.5420000000000003,36.992000000000004,28.95,37.501000000000005,34.7535,54.535,33.37,58.624,51.99066666666667,52.47,32.6315,57.238,50.364,51.591499999999996,32.241,57.158,49.81,-0.06266666666666665,0.0020000000000000018,0.11206500000000001,0.09623000000000001,0.0,211.76,211.8,208.69,208.69,0.0,0.0
13,0.0,0.0,0.0,1.0,1.0,0.0,0.0,1.0,0.0,100.0,1.0,1.1856,26.0,0.0,0.0,0.0,59.999996,0.0,26.0,26.0,26.0,26.0,0.04933333333333334,0.32540000000000013,0.00212,298.645,-2.8152,-2.815125,-1.5796000000000001,-1.5295,-232.07,215.325,190.72975,0.0,0.0,0.0,0.0,0.026933333333333333,-5.498166666666667,-5.498166666666667,-0.37160000000000004,-0.306,0.006888888888888944,-0.544,67.8,0.010750000000000001,-0.01956,-0.3439999999999994,100.0,1.0,1.0,209.13666666666666,0.0,0.0,0.0,0.0,0.0,0.0,0.0,8864.5,0.0,55.0,5.0,244.04666666666668,1.0,0.0,0.0,0.0,0.0,0.0,1.0,0.0,0.657,0.657,0.0,0.0,1.0,55.0,616.79921,10000.0,85.000001,85.000001,85.000001,85.000001,395.0,0.0,0.0,0.0,1.0,166.665,63.736,63.736,49.591,49.591,34.0,-17.804000000000002,19.302,-27.656666666666666,29.095,0.0,1780.991,-0.41000000000000014,100.0,19.188,19.277,41.407,41.563,0.0,0.0,100.0,0.0,0.0,0.0,0.0,2301.5,2232.9,4045.1111111111113,4137.8,307.9533333333333,307.61675,315.0335,314.52975,21.767111111111113,20.476,21.8504,21.4096,314.999998,314.999998,324.999988,324.999988,99.55598571428571,99.50623333333333,99.56472857142857,99.54652857142857,0.06350000000000011,0.017,-0.10216666666666667,0.12666666666666668,-0.07166666666666544,-0.061666666666667425,1.5523333333333333,1.5285000000000002,37.045,28.975,37.565,34.81,54.51,33.397,58.664500000000004,52.053,52.447,32.6565,57.275999999999996,50.424,51.5685,32.2645,57.193,49.86866666666667,-0.07466666666666666,0.01649999999999996,0.10689000000000001,0.10712,0.0,212.275,212.29000000000002,209.13666666666666,209.13666666666666,0.0,0.0
14,0.0,0.0,0.0,1.0,1.0,0.0,0.0,1.0,0.0,100.0,1.0,1.1856,26.0,0.0,0.0,0.0,59.999996,0.0,26.0,26.0,26.0,26.0,0.03588888888888889,0.33210000000000006,-0.02522,298.889,-2.8563,-2.8348750000000003,-1.57755,-1.52675,-228.61,215.3175,190.70825,0.0,0.0,0.0,0.0,0.02896666666666667,-5.498166666666667,-5.498166666666667,-0.38130000000000003,0.03933333333333334,0.02111111111111108,0.9089999999999998,67.96000000000001,0.0151,-0.024,-0.4339999999999993,100.0,1.0,1.0,209.7266666666667,0.0,0.0,0.0,0.0,0.0,0.0,0.0,8889.6,0.0,55.0,5.0,244.62333333333333,0.0,0.0,0.0,0.0,0.0,0.0,1.0,0.0,0.7079999999999984,0.7079999999999984,0.0,0.0,0.0,55.0,616.79921,10000.0,85.000001,85.000001,85.000001,85.000001,395.0,0.0,0.0,0.0,1.0,333.33500000000004,63.858,63.858,49.911,49.911,34.0,-16.805999999999997,19.817999999999998,-25.186666666666664,28.765,0.0,1780.938,-0.5300000000000011,100.0,19.349,19.225,41.403999999999996,41.521,0.0,0.0,100.0,0.0,0.0,0.0,0.0,2176.875,2291.6,3882.777777777778,4055.4,308.202,307.59225,315.38825,314.839,21.775444444444446,20.48005,21.860599999999998,21.4186,314.999998,314.999998,324.999988,324.999988,99.55598571428571,99.50625,99.56488571428571,99.54667142857143,0.07325000000000004,0.0175,-0.08266666666666668,0.14133333333333334,-0.04333333333332945,-0.06499999999999773,1.6086666666666667,1.572,37.096000000000004,29.000333333333334,37.629000000000005,34.866,54.485,33.424,58.7025,52.11333333333333,52.424,32.6815,57.311,50.482,51.545,32.2885,57.225,49.925333333333334,-0.06933333333333325,0.0129999999999999,0.10749,0.108395,0.0,212.76,212.79000000000002,209.7266666666667,209.7266666666667,0.0,0.0
15,0.0,0.0,0.0,1.0,1.0,0.0,0.0,1.0,0.0,100.0,1.0,1.1856,26.0,0.0,0.0,0.0,59.999996,0.0,26.0,26.0,26.0,26.0,0.04388888888888889,0.3239000000000001,-0.046560000000000004,298.782,-2.85365,-2.81,-1.58995,-1.548125,-225.14,215.31,190.68625,0.0,0.0,0.0,0.0,0.03096666666666667,-5.498166666666667,-5.498166666666667,-0.3723,0.16333333333333336,0.02488888888888896,-0.6930000000000001,68.12100000000001,0.01685,-0.00886,-0.33999999999999986,100.0,1.0,1.0,210.19,0.0,0.0,0.0,0.0,0.0,0.0,0.0,8909.2,0.0,55.0,5.0,245.20333333333335,1.0,0.0,0.0,0.0,0.0,0.0,1.0,0.0,0.7590000000000003,0.7590000000000003,0.0,0.0,1.0,55.0,616.79921,10000.0,85.000001,85.000001,85.000001,85.000001,395.0,0.0,0.0,0.0,1.0,166.665,63.919,63.919,49.545,49.545,34.0,-17.25,18.436,-27.32,27.872500000000002,0.0,1780.888,-0.48999999999999844,100.0,19.161,19.431,41.317,41.727000000000004,0.0,0.0,100.0,0.0,0.0,0.0,0.0,2228.125,2163.9,4072.3333333333335,3984.8,308.16266666666667,307.81075,315.0125,314.907,21.783666666666665,20.48415,21.8707,21.4275,314.999998,314.999998,324.999988,324.999988,99.556,99.50625,99.56502857142857,99.54681428571429,0.06824999999999992,0.01025,-0.09066666666666667,0.12483333333333334,-0.05666666666667197,-0.04999999999999716,1.5676666666666668,1.552,37.147999999999996,29.026,37.692,34.922,54.461,33.451,58.7405,52.17433333333334,52.400999999999996,32.7065,57.3465,50.54066666666667,51.522,32.3125,57.257999999999996,49.983000000000004,-0.06833333333333313,0.006999999999999895,0.10597500000000001,0.11150000000000002,0.0,213.265,213.29500000000002,210.19,210.19,0.0,0.0
16,0.0,0.0,0.0,1.0,1.0,0.0,0.0,1.0,0.0,100.0,1.0,1.1856,26.0,0.0,0.0,0.0,59.999996,0.0,26.0,26.0,26.0,26.0,0.052111111111111115,0.3157000000000001,-0.014180000000000002,298.599,-2.82935,-2.8129999999999997,-1.57115,-1.545625,-221.87,215.305,190.665375,0.0,0.0,0.0,0.0,0.03286666666666667,-5.498166666666667,-5.498166666666667,-0.3826,-0.12733333333333333,0.016999999999999904,-0.9260000000000002,68.272,0.018500000000000003,-0.021980000000000003,-0.30600000000000005,100.0,1.0,1.0,210.66,0.0,0.0,0.0,0.0,0.0,0.0,0.0,8929.2,0.0,55.0,5.0,245.74666666666667,0.0,0.0,0.0,0.0,0.0,0.0,1.0,0.0,0.8069999999999986,0.8069999999999986,0.0,0.0,0.0,55.0,616.79921,10000.0,85.000001,85.000001,85.000001,85.000001,395.0,0.0,0.0,0.0,1.0,333.33500000000004,63.446,63.446,49.376999999999995,49.376999999999995,34.0,-17.896,20.036,-26.316666666666666,27.240000000000002,0.0,1780.839,-0.4250000000000007,100.0,19.127,19.589,41.472,41.852000000000004,0.0,0.0,100.0,0.0,0.0,0.0,0.0,2316.875,2320.0,3984.222222222222,3910.3,307.8793333333333,307.268,315.157,315.11125,21.791333333333334,20.48805,21.8804,21.436,314.999998,314.999998,324.999988,324.999988,99.556,99.50625,99.56515714285715,99.54695714285714,0.06974999999999998,0.0085,-0.08783333333333333,0.12833333333333335,-0.06499999999999773,-0.06499999999999773,1.5703333333333334,1.58,37.196,29.050333333333334,37.751999999999995,34.975,54.437,33.4775,58.7775,52.232,52.378,32.7305,57.3815,50.596000000000004,51.499,32.335499999999996,57.29,50.037333333333336,-0.06366666666666676,0.0,0.1078,0.106355,0.0,213.72500000000002,213.75,210.66,210.66,0.0,0.0
17,0.0,0.0,0.0,1.0,1.0,0.0,0.0,1.0,0.0,100.0,1.0,1.1856,26.0,0.0,0.0,0.0,59.999996,0.0,26.0,26.0,26.0,26.0,0.04377777777777778,0.32430000000000003,0.008,298.492,-2.78465,-2.846125,-1.53185,-1.567,-218.38,215.3,190.643,0.0,0.0,0.0,0.0,0.0349,-5.498166666666667,-5.498166666666667,-0.3779,0.097,-0.002777777777777768,0.41000000000000014,68.432,0.018850000000000002,-0.01372,-0.29799999999999915,100.0,1.0,1.0,211.08333333333331,0.0,0.0,0.0,0.0,0.0,0.0,0.0,8947.0,0.0,55.0,5.0,246.32333333333332,1.0,0.0,0.0,0.0,0.0,0.0,1.0,0.0,0.8580000000000005,0.8580000000000005,0.0,0.0,1.0,55.0,616.79921,10000.0,85.000001,85.000001,85.000001,85.000001,395.0,0.0,0.0,0.0,1.0,333.33500000000004,63.705,63.705,49.179,49.179,34.0,-16.488,19.58,-25.703333333333333,29.747500000000002,0.0,1780.789,-0.28000000000000114,100.0,19.442999999999998,19.428,41.664,41.821,0.0,0.0,100.0,0.0,0.0,0.0,0.0,2141.375,2271.3,4041.0,4126.7,308.205,307.5645,314.9505,314.63,21.799555555555557,20.4922,21.8906,21.445,314.999998,314.999998,324.999988,324.999988,99.556,99.50625,99.5653,99.5471,0.0625,0.00925,-0.07316666666666667,0.13216666666666665,-0.041666666666671404,-0.0799999999999983,1.5413333333333332,1.521,37.247,29.076333333333334,37.816,35.0315,54.412,33.504999999999995,58.8165,52.29266666666666,52.355000000000004,32.756,57.417500000000004,50.654666666666664,51.4755,32.36,57.323,50.09466666666667,-0.045666666666666744,-0.010000000000000231,0.10623500000000001,0.106755,0.0,214.235,214.265,211.08333333333331,211.08333333333331,0.0,0.0
18,0.0,0.0,0.0,1.0,1.0,0.0,0.0,1.0,0.0,100.0,1.0,1.1856,26.0,0.0,0.0,0.0,59.999996,0.0,26.0,26.0,26.0,26.0,0.035222222222222224,0.30790000000000006,-0.01864,298.599,-2.77425,-2.8765,-1.5154,-1.5775000000000001,-215.09,215.29500000000002,190.62175,0.0,0.0,0.0,0.0,0.036833333333333336,-5.498166666666667,-5.498166666666667,-0.38980000000000004,-0.31,-0.0021111111111111747,0.8719999999999999,68.582,0.014650000000000002,-0.021400000000000002,-0.17600000000000016,100.0,1.0,1.0,211.57333333333332,0.0,0.0,0.0,0.0,0.0,0.0,0.0,8967.8,0.0,55.0,5.0,246.86333333333334,0.0,0.0,0.0,0.0,0.0,0.0,1.0,0.0,0.9059999999999988,0.9059999999999988,0.0,0.0,0.0,55.0,616.79921,10000.0,85.000001,85.000001,85.000001,85.000001,395.0,0.0,0.0,0.0,1.0,333.33500000000004,63.705,63.705,49.591,49.591,34.0,-16.939999999999998,19.622,-24.97,28.64,0.0,1780.739,-0.29499999999999815,100.0,19.409,19.299,41.749,41.934,0.0,0.0,100.0,0.0,0.0,0.0,0.0,2198.125,2280.7,3884.222222222222,4005.4,308.074,307.5865,315.308,314.88125,21.807222222222222,20.49595,21.900199999999998,21.4535,314.999998,314.999998,324.999988,324.999988,99.55601428571428,99.50625,99.56544285714286,99.54722857142858,0.06075000000000008,0.003,-0.088,0.12933333333333336,-0.04333333333332945,-0.060000000000002274,1.559,1.5495,37.295,29.099666666666664,37.876999999999995,35.0845,54.388,33.528999999999996,58.853,52.349666666666664,52.332,32.7785,57.451499999999996,50.70933333333333,51.453,32.381,57.3545,50.14833333333333,-0.050000000000000044,-0.008000000000000007,0.10705,0.114085,0.0,214.68,214.68,211.57333333333332,211.57333333333332,0.0,0.0
19,0.0,0.0,0.0,1.0,1.0,0.0,0.0,1.0,0.0,100.0,1.0,1.1856,26.0,0.0,0.0,0.0,59.999996,0.0,26.0,26.0,26.0,26.0,0.043444444444444445,0.3005,-0.030460000000000004,298.34,-2.8514,-2.834,-1.5182,-1.591625,-211.59,215.29250000000002,190.59875,0.0,0.0,0.0,0.0,0.03886666666666667,-5.498166666666667,-5.498166666666667,-0.37520000000000003,0.4996666666666667,0.007444444444444365,-0.714,68.74000000000001,0.009850000000000001,-0.0027800000000000004,-0.06399999999999917,100.0,1.0,1.0,212.05333333333334,0.0,0.0,0.0,0.0,0.0,0.0,0.0,8988.2,0.0,55.0,5.0,247.43,1.0,0.0,0.0,0.0,0.0,0.0,1.0,0.0,0.9570000000000007,0.9570000000000007,0.0,0.0,1.0,55.0,616.79921,10000.0,85.000001,85.000001,85.000001,85.000001,395.0,0.0,0.0,0.0,1.0,333.33500000000004,63.431,63.431,49.438,49.438,34.0,-18.622,17.75,-26.586666666666666,28.2425,0.0,1780.69,-0.21499999999999986,100.0,19.631,19.808,41.65,42.092,0.0,0.0,100.0,0.0,0.0,0.0,0.0,2322.0,2120.1,4034.3333333333335,4007.7,307.8953333333333,307.88075,315.06925,314.826,21.815444444444445,20.50015,21.9104,21.4625,314.999998,314.999998,324.999988,324.999988,99.55602857142857,99.50626666666666,99.56558571428572,99.54738571428571,0.05049999999999999,-0.0085,-0.09783333333333333,0.11416666666666668,-0.06833333333332803,-0.04999999999999716,1.5433333333333332,1.536,37.347,29.125999999999998,37.94,35.1405,54.364000000000004,33.557,58.8905,52.410333333333334,52.31,32.804,57.4865,50.76733333333333,51.4305,32.4055,57.3865,50.205333333333336,-0.04833333333333312,-0.01200000000000001,0.10634500000000001,0.10748500000000001,0.0,215.22500000000002,215.215,212.05333333333334,212.05333333333334,0.0,0.0
20,0.0,0.0,0.0,1.0,1.0,0.0,0.0,1.0,0.0,100.0,1.0,1.1856,26.0,0.0,0.0,0.0,59.999996,0.0,26.0,26.0,26.0,26.0,0.021,0.3067,-0.029500000000000002,298.386,-2.83225,-2.786625,-1.5907499999999999,-1.5245,-207.87,215.2875,190.574875,0.0,0.0,0.0,0.0,0.041,-5.498166666666667,-5.498166666666667,-0.387,-0.5856666666666667,0.006333333333333302,-0.843,68.907,0.0068000000000000005,-0.021480000000000003,-0.08799999999999919,100.0,1.0,1.0,212.56333333333333,0.0,0.0,0.0,0.0,0.0,0.0,0.0,9009.8,0.0,55.0,5.0,248.03333333333336,0.0,0.0,0.0,0.0,0.0,0.0,0.0,0.0,1.0109999999999992,1.0109999999999992,0.0,0.0,0.0,55.0,616.79921,10000.0,85.000001,85.000001,85.000001,85.000001,395.0,0.0,0.0,0.0,1.0,166.665,63.629,63.629,48.981,48.981,34.0,-18.372,18.512,-27.74,26.2075,0.0,1780.637,-0.22499999999999787,100.0,19.256999999999998,19.567,42.113,42.352000000000004,0.0,0.0,100.0,0.0,0.0,0.0,0.0,2299.75,2251.1,3998.3333333333335,3949.3,307.993,307.56525,315.13475,315.05775,21.823999999999998,20.50445,21.9214,21.4721,314.999998,314.999998,324.999988,324.999988,99.55602857142857,99.50626666666666,99.56572857142856,99.54754285714286,0.046499999999999986,-0.013000000000000001,-0.1085,0.1055,-0.06333333333333258,-0.06333333333333258,1.5623333333333334,1.569,37.4,29.153,38.009,35.201,54.336,33.585,58.9335,52.47533333333333,52.284,32.829499999999996,57.5265,50.830333333333336,51.403999999999996,32.4305,57.4235,50.266666666666666,-0.04800000000000004,-0.008500000000000174,0.109325,0.09986500000000001,0.0,215.69,215.69,212.56333333333333,212.56333333333333,0.0,0.0
21,0.0,0.0,0.0,1.0,1.0,0.0,0.0,1.0,0.0,100.0,1.0,1.1856,26.0,0.0,0.0,0.0,59.999996,0.0,26.0,26.0,26.0,26.0,0.0033333333333333335,0.31790000000000007,-0.0335,298.431,-2.81405,-2.8525,-1.54965,-1.531625,-204.76999999999998,215.285,190.554375,0.0,0.0,0.0,0.0,0.042833333333333334,-5.498166666666667,-5.498166666666667,-0.3976,0.20633333333333334,-0.0009999999999998899,0.5329999999999999,69.044,0.006,-0.01336,-0.10200000000000031,100.0,1.0,1.0,213.04000000000002,0.0,0.0,0.0,0.0,0.0,0.0,0.0,9030.0,0.0,55.0,5.0,248.52666666666664,1.0,0.0,0.0,0.0,0.0,0.0,0.0,0.0,1.056000000000001,1.056000000000001,0.0,0.0,1.0,55.0,616.79921,10000.0,85.000001,85.000001,85.000001,85.000001,395.0,0.0,0.0,0.0,1.0,166.665,63.477,63.477,49.393,49.393,34.0,-18.018,20.032,-25.976666666666663,27.2225,0.0,1780.592,-0.19500000000000028,100.0,19.494,19.288,41.894,41.981,0.0,0.0,100.0,0.0,0.0,0.0,0.0,2262.375,2347.4,3929.6666666666665,4014.9,307.87766666666664,307.31425,315.29325,314.9725,21.831111111111113,20.5081,21.9303,21.48,314.999998,314.999998,324.999988,324.999988,99.55604285714286,99.50626666666666,99.56587142857143,99.54767142857143,0.052750000000000075,-0.0045000000000000005,-0.0965,0.1165,-0.05666666666667197,-0.08166666666667055,1.5859999999999999,1.5855000000000001,37.445,29.175333333333334,38.064,35.25,54.314,33.6085,58.9655,52.527,52.263,32.8515,57.5565,50.879666666666665,51.382999999999996,32.451,57.4505,50.315,-0.044333333333333114,-0.016000000000000014,0.10970500000000001,0.10040500000000001,0.0,216.135,216.14,213.04000000000002,213.04000000000002,0.0,0.0
22,0.0,0.0,0.0,1.0,1.0,0.0,0.0,1.0,0.0,100.0,1.0,1.1856,26.0,0.0,0.0,0.0,59.999996,0.0,26.0,26.0,26.0,26.0,0.017444444444444443,0.30930000000000013,0.05376,297.867,-2.77755,-2.7925,-1.55765,-1.577625,-201.04,215.2825,190.529,0.0,0.0,0.0,0.0,0.045000000000000005,-5.498166666666667,-5.498166666666667,-0.38270000000000004,-0.06466666666666668,0.007444444444444365,0.956,69.212,0.0043,0.00398,-0.1559999999999997,100.0,1.0,1.0,213.37333333333333,0.0,0.0,0.0,0.0,0.0,0.0,0.0,9044.1,0.0,55.0,5.0,249.13,0.0,0.0,0.0,0.0,0.0,0.0,0.0,0.0,1.1099999999999994,1.1099999999999994,0.0,0.0,0.0,55.0,616.79921,10000.0,85.000001,85.000001,85.000001,85.000001,395.0,0.0,0.0,0.0,1.0,166.665,63.324,63.324,48.538,48.538,34.0,-17.834000000000003,20.284,-28.46333333333333,30.97,0.0,1780.538,-0.26500000000000057,100.0,19.567999999999998,19.352,42.191,42.2,0.0,0.0,100.0,0.0,0.0,0.0,0.0,2269.0,2410.5,4180.222222222223,4281.3,307.77666666666664,307.27125,314.66075,314.27975,21.839777777777776,20.51245,21.9412,21.4897,314.999998,314.999998,324.999988,324.999988,99.55604285714286,99.50626666666666,99.56602857142857,99.54781428571428,0.05699999999999994,0.0022500000000000003,-0.09483333333333333,0.12366666666666667,-0.04333333333332945,-0.07166666666666544,1.4929999999999999,1.484,37.498000000000005,29.202666666666666,38.132999999999996,35.3105,54.288,33.637,59.007999999999996,52.59166666666667,52.238,32.8775,57.5965,50.942,51.3575,32.476,57.487,50.376,-0.050000000000000044,-0.002000000000000224,0.10412500000000001,0.110725,0.0,216.64499999999998,216.66,213.37333333333333,213.37333333333333,0.0,0.0
23,0.0,0.0,0.0,1.0,1.0,0.0,0.0,1.0,0.0,100.0,1.0,1.1856,26.0,0.0,0.0,0.0,59.999996,0.0,26.0,26.0,26.0,26.0,0.015333333333333334,0.32030000000000003,0.0045000000000000005,298.05,-2.7824,-2.8200000000000003,-1.51735,-1.557,-197.70999999999998,215.2825,190.506625,0.0,0.0,0.0,0.0,0.046933333333333334,-5.498166666666667,-5.498166666666667,-0.3971,-0.312,0.005444444444444363,0.8569999999999998,69.358,0.00335,-0.01514,-0.17799999999999905,100.0,1.0,1.0,213.87,0.0,0.0,0.0,0.0,0.0,0.0,0.0,9065.1,0.0,55.0,5.0,249.65666666666667,1.0,0.0,0.0,0.0,0.0,0.0,0.0,0.0,1.1580000000000013,1.1580000000000013,0.0,0.0,1.0,55.0,616.79921,10000.0,85.000001,85.000001,85.000001,85.000001,395.0,0.0,0.0,0.0,1.0,333.33500000000004,63.538,63.538,48.813,48.813,34.0,-17.299999999999997,19.204,-26.71,29.285,0.0,1780.488,-0.3000000000000007,100.0,19.681,19.375,42.335,42.347,0.0,0.0,100.0,0.0,0.0,0.0,0.0,2221.25,2303.3,4038.6666666666665,4173.3,307.98133333333334,307.554,314.91225,314.5445,21.84733333333333,20.5163,21.9509,21.4982,314.999998,314.999998,324.999988,324.999988,99.55604285714286,99.50628333333333,99.56615714285714,99.54795714285714,0.05899999999999994,-0.007,-0.0945,0.11800000000000001,-0.04999999999999716,-0.07000000000000028,1.5313333333333334,1.5230000000000001,37.546,29.227,38.193,35.364,54.263999999999996,33.662,59.0445,52.649,52.215,32.9005,57.6305,50.997,51.335,32.4985,57.5185,50.43,-0.05699999999999994,-0.00749999999999984,0.10427000000000002,0.105785,0.0,217.095,217.095,213.87,213.87,0.0,0.0
24,0.0,0.0,0.0,1.0,1.0,0.0,0.0,1.0,0.0,100.0,1.0,1.1856,26.0,0.0,0.0,0.0,59.999996,0.0,26.0,26.0,26.0,26.0,0.03088888888888889,0.3017000000000001,-0.07916000000000001,298.538,-2.83655,-2.8185000000000002,-1.5761,-1.541875,-194.17000000000002,215.28,190.48225,0.0,0.0,0.0,0.0,0.04896666666666667,-5.498166666666667,-5.498166666666667,-0.4133,-0.41400000000000003,0.01200000000000001,-0.3160000000000003,69.512,0.00355,-0.00996,-0.09799999999999898,100.0,1.0,1.0,214.41666666666669,0.0,0.0,0.0,0.0,0.0,0.0,0.0,9088.3,0.0,55.0,5.0,250.21333333333334,0.0,0.0,0.0,0.0,0.0,0.0,0.0,0.0,1.2089999999999996,1.2089999999999996,0.0,0.0,0.0,55.0,616.79921,10000.0,85.000001,85.000001,85.000001,85.000001,395.0,0.0,0.0,0.0,1.0,166.665,64.056,64.056,49.254999999999995,49.254999999999995,34.0,-17.838,17.887999999999998,-27.266666666666666,26.9625,0.0,1780.438,-0.3200000000000003,100.0,19.246,19.284,42.105000000000004,42.266999999999996,0.0,0.0,100.0,0.0,0.0,0.0,0.0,2236.875,2152.6,3984.3333333333335,3985.5,308.1856666666667,307.8805,315.23575,314.96175,21.855333333333334,20.5203,21.961100000000002,21.5073,314.999998,314.999998,324.999988,324.999988,99.55605714285714,99.50628333333333,99.5663,99.54811428571429,0.045500000000000096,-0.00825,-0.108,0.108,-0.054999999999999716,-0.04833333333333201,1.58,1.5540000000000003,37.596000000000004,29.252000000000002,38.257,35.420500000000004,54.236999999999995,33.687,59.0815,52.70766666666667,52.191,32.923500000000004,57.665,51.053666666666665,51.3105,32.5205,57.55,50.485,-0.05266666666666664,-0.004999999999999893,0.10604500000000001,0.108825,0.0,217.555,217.565,214.41666666666669,214.41666666666669,0.0,0.0
25,0.0,0.0,0.0,1.0,1.0,0.0,0.0,1.0,0.0,100.0,1.0,1.1856,26.0,0.0,0.0,0.0,59.999996,0.0,26.0,26.0,26.0,26.0,0.018222222222222223,0.3074000000000001,-0.0035600000000000002,298.08,-2.7996,-2.800375,-1.5476,-1.546375,-190.62,215.28,190.4565,0.0,0.0,0.0,0.0,0.05103333333333333,-5.498166666666667,-5.498166666666667,-0.41960000000000003,0.467,0.01288888888888895,0.359,69.666,0.0059,0.0005,-0.25399999999999956,100.0,1.0,1.0,214.89666666666668,0.0,0.0,0.0,0.0,0.0,0.0,0.0,9108.7,0.0,55.0,5.0,250.76666666666665,1.0,0.0,0.0,0.0,0.0,0.0,0.0,0.0,1.259999999999998,1.259999999999998,0.0,0.0,1.0,55.0,616.79921,10000.0,85.000001,85.000001,85.000001,85.000001,395.0,0.0,0.0,0.0,1.0,166.665,63.171,63.171,48.935,48.935,34.0,-18.366,20.682000000000002,-26.736666666666665,28.52,0.0,1780.388,-0.34499999999999886,100.0,19.563,19.525,41.995000000000005,42.052,0.0,0.0,100.0,0.0,0.0,0.0,0.0,2327.625,2437.9,4035.0,4070.3,307.7176666666667,307.0925,315.0445,314.8305,21.863444444444443,20.52455,21.9712,21.5163,314.999998,314.999998,324.999988,324.999988,99.55605714285714,99.50628333333333,99.56645714285715,99.54824285714285,0.05750000000000011,0.0005,-0.09266666666666667,0.126,-0.045000000000001705,-0.054999999999999716,1.5573333333333332,1.552,37.646,29.278333333333336,38.32,35.4765,54.212,33.715,59.1185,52.766,52.167,32.9495,57.6995,51.11,51.286500000000004,32.545,57.5815,50.54,-0.052000000000000046,-0.00550000000000006,0.106755,0.10765500000000001,0.0,218.055,218.06,214.89666666666668,214.89666666666668,0.0,0.0
26,0.0,0.0,0.0,1.0,1.0,0.0,0.0,1.0,0.0,100.0,1.0,1.1856,26.0,0.0,0.0,0.0,59.999996,0.0,26.0,26.0,26.0,26.0,0.01955555555555556,0.3035000000000001,0.06004,297.44,-2.83025,-2.78925,-1.53625,-1.546,-187.26999999999998,215.28,190.4325,0.0,0.0,0.0,0.0,0.053000000000000005,-5.498166666666667,-5.498166666666667,-0.3941,0.019,0.007888888888888834,1.006,69.813,0.008,0.00944,-0.24600000000000044,100.0,1.0,1.0,215.15333333333334,0.0,0.0,0.0,0.0,0.0,0.0,0.0,9119.5,0.0,55.0,5.0,251.29666666666668,0.0,0.0,0.0,0.0,0.0,0.0,0.0,0.0,1.3079999999999998,1.3079999999999998,0.0,0.0,0.0,55.0,616.79921,10000.0,85.000001,85.000001,85.000001,85.000001,395.0,0.0,0.0,0.0,1.0,333.33500000000004,63.11,63.11,47.958,47.958,34.0,-17.266,19.902,-28.78333333333333,31.145,0.0,1780.338,-0.34999999999999787,100.0,20.052,19.706,42.606,42.683,0.0,0.0,100.0,0.0,0.0,0.0,0.0,2207.75,2385.4,4250.888888888889,4330.5,307.99966666666666,307.35725,314.459,314.154,21.871111111111112,20.5285,21.981,21.525,314.999998,314.999998,324.999988,324.999988,99.55605714285714,99.50628333333333,99.5666,99.5484,0.06725000000000003,-0.00175,-0.09333333333333332,0.124,-0.04333333333332945,-0.05833333333333002,1.4816666666666665,1.4529999999999998,37.694,29.303333333333335,38.382,35.531,54.19,33.741,59.1575,52.82566666666666,52.146,32.9735,57.7355,51.167,51.2655,32.568,57.615,50.596000000000004,-0.06099999999999994,-0.00550000000000006,0.10705500000000001,0.11368500000000001,0.0,218.51999999999998,218.515,215.15333333333334,215.15333333333334,0.0,0.0
27,0.0,0.0,0.0,1.0,1.0,0.0,0.0,1.0,0.0,100.0,1.0,1.1856,26.0,0.0,0.0,0.0,59.999996,0.0,26.0,26.0,26.0,26.0,0.01688888888888889,0.2932000000000001,-0.052320000000000005,297.913,-2.87835,-2.801,-1.6268,-1.524,-183.92000000000002,215.28,190.409125,0.0,0.0,0.0,0.0,0.05493333333333334,-5.498166666666667,-5.498166666666667,-0.4229,-0.621,0.017222222222222028,0.661,69.955,0.009600000000000001,-0.02392,-0.2779999999999996,100.0,1.0,1.0,215.75,0.0,0.0,0.0,0.0,0.0,0.0,0.0,9144.9,0.0,55.0,5.0,251.80666666666667,1.0,0.0,0.0,0.0,0.0,0.0,0.0,0.0,1.355999999999998,1.355999999999998,0.0,0.0,1.0,55.0,616.79921,10000.0,85.000001,85.000001,85.000001,85.000001,395.0,0.0,0.0,0.0,1.0,166.665,63.263,63.263,48.737,48.737,34.0,-18.252000000000002,20.177999999999997,-26.713333333333335,28.5,0.0,1780.292,-0.39000000000000057,100.0,19.687,19.647,42.76,42.781,0.0,0.0,100.0,0.0,0.0,0.0,0.0,2283.875,2393.3,3856.4444444444443,4085.7,307.929,307.3195,315.43975,314.7975,21.878666666666668,20.53245,21.9908,21.5337,314.999998,314.999998,324.999988,324.999988,99.55607142857143,99.50628333333333,99.56672857142857,99.54854285714286,0.06125000000000003,0.002,-0.09966666666666667,0.129,-0.036666666666668846,-0.07166666666666544,1.5553333333333332,1.5585,37.741,29.327666666666666,38.442,35.585499999999996,54.166,33.7665,59.1935,52.882,52.123000000000005,32.9965,57.7695,51.221666666666664,51.2425,32.59,57.646,50.64933333333333,-0.05899999999999994,-0.006000000000000227,0.11149,0.108465,0.0,218.905,218.935,215.75,215.75,0.0,0.0
28,0.0,0.0,0.0,1.0,1.0,0.0,0.0,1.0,0.0,100.0,1.0,1.1856,26.0,0.0,0.0,0.0,59.999996,0.0,26.0,26.0,26.0,26.0,0.04811111111111112,0.3083,-0.021880000000000004,297.989,-2.845,-2.809125,-1.5503,-1.5375,-180.35,215.28,190.38325,0.0,0.0,0.0,0.0,0.05703333333333334,-5.498166666666667,-5.498166666666667,-0.4161,0.436,-0.001777777777777878,-1.048,70.107,0.010400000000000001,0.00926,-0.23399999999999999,100.0,1.0,1.0,216.18666666666667,0.0,0.0,0.0,0.0,0.0,0.0,0.0,9163.3,0.0,55.0,5.0,252.35333333333335,0.0,0.0,0.0,0.0,0.0,0.0,0.0,0.0,1.407,1.407,0.0,0.0,0.0,55.0,616.79921,10000.0,85.000001,85.000001,85.000001,85.000001,395.0,0.0,0.0,0.0,1.0,166.665,63.705,63.705,48.416,48.416,34.0,-17.708,18.488,-27.633333333333333,29.1725,0.0,1780.241,-0.4250000000000007,100.0,19.472,19.736,42.297,42.545,0.0,0.0,100.0,0.0,0.0,0.0,0.0,2255.5,2172.9,4176.888888888889,4129.0,308.119,307.73775,314.77475,314.682,21.886555555555557,20.53665,22.0009,21.5427,314.999998,314.999998,324.999988,324.999988,99.55607142857143,99.50628333333333,99.56688571428572,99.54868571428571,0.059250000000000025,0.0055,-0.08750000000000001,0.12866666666666665,-0.060000000000002274,-0.06333333333333258,1.543,1.5274999999999999,37.791,29.354,38.506,35.6415,54.141,33.7935,59.230000000000004,52.940333333333335,52.1,33.022,57.8035,51.27766666666667,51.2185,32.6145,57.6765,50.704,-0.06466666666666665,0.010999999999999899,0.09809000000000001,0.11146,0.0,219.425,219.435,216.18666666666667,216.18666666666667,0.0,0.0
29,0.0,0.0,0.0,1.0,1.0,0.0,0.0,1.0,0.0,100.0,1.0,1.1856,26.0,0.0,0.0,0.0,59.999996,0.0,26.0,26.0,26.0,26.0,0.015111111111111112,0.30100000000000016,0.01006,297.607,-2.88135,-2.8805,-1.5831,-1.560375,-176.76999999999998,215.2825,190.356625,0.0,0.0,0.0,0.0,0.0591,-5.498166666666667,-5.498166666666667,-0.4303,-0.52,-0.004666666666666597,0.677,70.26,0.010450000000000001,-0.0030800000000000003,-0.29799999999999915,100.0,1.0,1.0,216.61,0.0,0.0,0.0,0.0,0.0,0.0,0.0,9181.4,0.0,55.0,5.0,252.90333333333334,1.0,0.0,0.0,0.0,0.0,0.0,0.0,0.0,1.4579999999999984,1.4579999999999984,0.0,0.0,1.0,55.0,616.79921,10000.0,85.000001,85.000001,85.000001,85.000001,395.0,0.0,0.0,0.0,1.0,166.665,62.912,62.912,48.462,48.462,34.0,-19.892,22.85,-27.363333333333333,29.1025,0.0,1780.19,-0.5249999999999986,100.0,19.555,19.468,42.688,42.731,0.0,0.0,100.0,0.0,0.0,0.0,0.0,2488.875,2562.8,4021.5555555555557,4088.0,307.376,306.872,315.0565,314.752,21.894444444444446,20.54075,22.0112,21.5519,314.999998,314.999998,324.999988,324.999988,99.55608571428571,99.5063,99.56702857142857,99.54884285714286,0.06925000000000003,0.01975,-0.09483333333333333,0.12683333333333333,-0.03333333333333144,-0.04833333333333201,1.5363333333333333,1.5265,37.841,29.379666666666665,38.57,35.6995,54.114999999999995,33.82,59.269,53.001333333333335,52.076,33.046,57.84,51.336,51.1945,32.6375,57.710499999999996,50.760999999999996,-0.06866666666666665,0.008499999999999952,0.11145500000000001,0.109325,0.0,219.84,219.865,216.61,216.61,0.0,0.0
30,0.0,0.0,0.0,1.0,1.0,0.0,0.0,1.0,0.0,100.0,1.0,1.1856,26.0,0.0,0.0,0.0,59.999996,0.0,26.0,26.0,26.0,26.0,0.04066666666666666,0.32499999999999996,0.07702,297.043,-2.85695,-2.7835,-1.50935,-1.615875,-173.18,215.285,190.329875,0.0,0.0,0.0,0.0,0.06116666666666667,-5.498166666666667,-5.498166666666667,-0.4121,0.7596666666666666,0.0018888888888888289,-0.484,70.411,0.0146,0.01036,-0.3420000000000005,100.0,1.0,1.0,216.98333333333335,0.0,0.0,0.0,0.0,0.0,0.0,0.0,9197.1,0.0,55.0,5.0,253.45,0.0,0.0,0.0,0.0,0.0,0.0,1.0,0.0,1.5090000000000003,1.5090000000000003,0.0,0.0,0.0,55.0,616.79921,10000.0,85.000001,85.000001,85.000001,85.000001,395.0,0.0,0.0,0.0,1.0,166.665,62.775,62.775,47.806,47.806,34.0,-18.509999999999998,19.836,-28.55333333333333,32.16,0.0,1780.138,-0.5549999999999997,100.0,20.131,20.251,42.609,43.015,0.0,0.0,100.0,0.0,0.0,0.0,0.0,2371.5,2310.5,4302.555555555556,4365.3,307.70366666666666,307.41175,314.4095,313.90675,21.902666666666665,20.54515,22.0215,21.5611,314.999998,314.999998,324.999988,324.999988,99.55608571428571,99.5063,99.56718571428571,99.54898571428572,0.07424999999999993,0.014750000000000001,-0.0895,0.11383333333333333,-0.051666666666669414,-0.054999999999999716,1.4729999999999999,1.4620000000000002,37.891999999999996,29.407,38.634,35.757,54.093,33.8495,59.307,53.062,52.055,33.073,57.8755,51.394333333333336,51.1735,32.6635,57.7425,50.818333333333335,-0.07966666666666677,0.01200000000000001,0.10645,0.10409,0.0,220.37,220.38,216.98333333333335,216.98333333333335,0.0,0.0
31,0.0,0.0,0.0,1.0,1.0,0.0,0.0,1.0,0.0,100.0,1.0,1.1856,26.0,0.0,0.0,0.0,59.999996,0.0,26.0,26.0,26.0,26.0,0.049,0.27580000000000005,-0.003,297.211,-2.83525,-2.827,-1.62955,-1.531875,-169.8,215.2875,190.3055,0.0,0.0,0.0,0.0,0.06316666666666666,-5.498166666666667,-5.498166666666667,-0.4061,-0.462,0.011666666666666714,-0.8860000000000001,70.55199999999999,0.02,-0.0012000000000000001,-0.47999999999999954,100.0,1.0,1.0,217.44,0.0,0.0,0.0,0.0,0.0,0.0,0.0,9216.5,0.0,55.0,5.0,253.95666666666665,1.0,0.0,0.0,0.0,0.0,0.0,1.0,0.0,1.5569999999999986,1.5569999999999986,0.0,0.0,1.0,55.0,616.79921,10000.0,85.000001,85.000001,85.000001,85.000001,395.0,0.0,0.0,0.0,1.0,166.665,63.065,63.065,47.333,47.333,34.0,-16.63,19.962,-28.516666666666666,29.9625,0.0,1780.091,-0.5399999999999991,100.0,19.848,20.349,43.236000000000004,43.585,0.0,0.0,100.0,0.0,0.0,0.0,0.0,2195.0,2296.7,4109.555555555556,4212.2,308.261,307.31475,314.873,314.4285,21.91011111111111,20.5492,22.0313,21.57,314.999998,314.999998,324.999988,324.999988,99.55608571428571,99.5063,99.56732857142858,99.54912857142857,0.07800000000000007,0.0085,-0.088,0.1255,-0.041666666666671404,-0.04333333333332945,1.4943333333333333,1.4755000000000003,37.938,29.432333333333332,38.696,35.812,54.07,33.876,59.345,53.120666666666665,52.033,33.0975,57.911,51.451,51.1515,32.6865,57.775,50.873666666666665,-0.07666666666666666,0.006000000000000005,0.10899,0.10286500000000001,0.0,220.76999999999998,220.775,217.44,217.44,0.0,0.0
32,0.0,0.0,0.0,1.0,1.0,0.0,0.0,1.0,0.0,100.0,1.0,1.1856,26.0,0.0,0.0,0.0,59.999996,0.0,26.0,26.0,26.0,26.0,0.04,0.2957000000000001,-0.10288,297.714,-2.88425,-2.7855,-1.64775,-1.54475,-166.2,215.29250000000002,190.279625,0.0,0.0,0.0,0.0,0.06523333333333334,-5.498166666666667,-5.498166666666667,-0.4254,-0.14066666666666666,-0.009777777777777885,0.08999999999999986,70.7,0.0262,-0.00402,-0.4399999999999995,100.0,1.0,1.0,218.03333333333336,0.0,0.0,0.0,0.0,0.0,0.0,0.0,9241.6,0.0,55.0,5.0,254.49,0.0,0.0,0.0,0.0,0.0,0.0,1.0,0.0,1.6080000000000005,1.6080000000000005,0.0,0.0,0.0,55.0,616.79921,10000.0,85.000001,85.000001,85.000001,85.000001,395.0,0.0,0.0,0.0,1.0,333.33500000000004,63.339,63.339,48.416,48.416,34.0,-17.454,19.787999999999997,-26.33,28.9125,0.0,1780.038,-0.47499999999999787,100.0,19.806,19.905,42.965,43.288,0.0,0.0,100.0,0.0,0.0,0.0,0.0,2263.625,2293.3,3990.8888888888887,4027.1000000000004,308.0063333333333,307.59425,315.27125,314.9965,21.91788888888889,20.5534,22.0415,21.5791,314.999998,314.999998,324.999988,324.999988,99.5561,99.50631666666666,99.56747142857142,99.54927142857143,0.08350000000000013,0.02475,-0.06833333333333333,0.14383333333333334,-0.04333333333332945,-0.05833333333333002,1.5726666666666667,1.568,37.986999999999995,29.458666666666666,38.759,35.8695,54.045,33.903,59.381,53.17966666666667,52.01,33.123,57.944,51.507666666666665,51.128,32.711,57.805,50.928666666666665,-0.07166666666666677,0.011500000000000066,0.10688,0.10449000000000001,0.0,221.22,221.255,218.03333333333336,218.03333333333333,0.0,0.0
33,0.0,0.0,0.0,1.0,1.0,0.0,0.0,1.0,0.0,100.0,1.0,1.1856,26.0,0.0,0.0,0.0,59.999996,0.0,26.0,26.0,26.0,26.0,0.02811111111111111,0.2994000000000001,-0.076,297.653,-2.84605,-2.780875,-1.6192000000000002,-1.530375,-162.8,215.2975,190.254,0.0,0.0,0.0,0.0,0.06723333333333334,-5.498166666666667,-5.498166666666667,-0.433,-0.194,-0.002000000000000224,1.053,70.84100000000001,0.0274,0.01218,-0.39399999999999924,100.0,1.0,1.0,218.39333333333335,0.0,0.0,0.0,0.0,0.0,0.0,0.0,9256.9,0.0,55.0,5.0,254.99666666666667,1.0,0.0,0.0,0.0,0.0,0.0,1.0,0.0,1.6559999999999988,1.6559999999999988,0.0,0.0,1.0,55.0,616.79921,10000.0,85.000001,85.000001,85.000001,85.000001,395.0,0.0,0.0,0.0,1.0,333.33500000000004,63.583,63.583,48.05,48.05,34.0,-16.728,19.66,-27.616666666666667,30.125,0.0,1779.991,-0.5350000000000001,100.0,19.628999999999998,19.69,42.864000000000004,43.099000000000004,0.0,0.0,100.0,0.0,0.0,0.0,0.0,2193.875,2287.1,4138.111111111111,4187.4,308.15133333333335,307.63225,314.86775,314.5935,21.92522222222222,20.55725,22.051099999999998,21.587699999999998,314.999998,314.999998,324.999988,324.999988,99.55611428571429,99.50631666666666,99.56761428571428,99.54941428571429,0.08150000000000013,0.02425,-0.07383333333333333,0.1395,-0.04333333333332945,-0.05333333333332746,1.5433333333333332,1.5225,38.033,29.483,38.819,35.9235,54.021,33.9275,59.416,53.23466666666667,51.988,33.144999999999996,57.977000000000004,51.561,51.1055,32.732,57.8345,50.980666666666664,-0.07266666666666666,0.008499999999999952,0.105465,0.10670500000000001,0.0,221.66500000000002,221.68,218.39333333333335,218.39333333333332,0.0,0.0
34,0.0,0.0,0.0,1.0,1.0,0.0,0.0,1.0,0.0,100.0,1.0,1.1856,26.0,0.0,0.0,0.0,59.999996,0.0,26.0,26.0,26.0,26.0,0.07366666666666667,0.3005,-0.05688,298.019,-2.8873,-2.739375,-1.5911,-1.56125,-159.18,215.305,190.225125,0.0,0.0,0.0,0.0,0.06933333333333334,-5.498166666666667,-5.498166666666667,-0.47100000000000003,-1.0683333333333334,0.016666666666666607,-0.472,70.99000000000001,0.024050000000000002,-0.0013800000000000002,-0.36599999999999966,100.0,1.0,1.0,218.86,0.0,0.0,0.0,0.0,0.0,0.0,0.0,9276.6,0.0,55.0,5.0,255.53333333333336,0.0,0.0,0.0,0.0,0.0,0.0,1.0,0.0,1.7070000000000007,1.7070000000000007,0.0,0.0,0.0,55.0,616.79921,10000.0,85.000001,85.000001,85.000001,85.000001,395.0,0.0,0.0,0.0,1.0,333.33500000000004,64.011,64.011,48.477000000000004,48.477000000000004,34.0,-16.406,19.174,-26.16,29.225,0.0,1779.94,-0.5549999999999997,100.0,19.137999999999998,19.585,42.637,43.278999999999996,0.0,0.0,100.0,0.0,0.0,0.0,0.0,2150.75,2249.7,3950.222222222222,4046.1000000000004,308.436,307.596,315.25875,314.77075,21.93288888888889,20.5613,22.0613,21.597,314.999998,314.999998,324.999988,324.999988,99.55612857142857,99.50631666666666,99.56775714285715,99.54957142857143,0.08125000000000004,0.021750000000000002,-0.0815,0.13416666666666666,-0.06333333333333258,-0.054999999999999716,1.55,1.537,38.08,29.508,38.882999999999996,35.981,53.995000000000005,33.952,59.451,53.29533333333333,51.963,33.168,58.0095,51.619,51.0805,32.754,57.8645,51.037333333333336,-0.07233333333333314,0.014000000000000012,0.10386000000000001,0.111365,0.0,222.11,222.10500000000002,218.86,218.86,0.0,0.0
35,0.0,0.0,0.0,1.0,1.0,0.0,0.0,1.0,0.0,100.0,1.0,1.1856,26.0,0.0,0.0,0.0,59.999996,0.0,26.0,26.0,26.0,26.0,0.024,0.2942,-0.03706,297.607,-2.908,-2.7963750000000003,-1.5928499999999999,-1.51425,-155.56,215.3125,190.194375,0.0,0.0,0.0,0.0,0.07143333333333333,-5.498166666666667,-5.498166666666667,-0.4892,0.41233333333333333,-0.014777777777777779,-0.3410000000000002,71.136,0.02725,0.009340000000000001,-0.3979999999999997,100.0,1.0,1.0,219.34666666666666,0.0,0.0,0.0,0.0,0.0,0.0,0.0,9297.3,0.0,55.0,5.0,256.06,1.0,0.0,0.0,0.0,0.0,0.0,1.0,0.0,1.7579999999999991,1.7579999999999991,0.0,0.0,1.0,55.0,616.79921,10000.0,85.000001,85.000001,85.000001,85.000001,395.0,0.0,0.0,0.0,1.0,333.33500000000004,63.004,63.004,48.477000000000004,48.477000000000004,34.0,-19.216,21.323999999999998,-25.806666666666665,30.012500000000003,0.0,1779.889,-0.375,100.0,19.493000000000002,19.875,42.446,42.72,0.0,0.0,100.0,0.0,0.0,0.0,0.0,2418.75,2471.3,4009.4444444444443,4148.1,307.59933333333333,306.9905,315.14325,314.729,21.940555555555555,20.56575,22.0714,21.606,314.999998,314.999998,324.999988,324.999988,99.55612857142857,99.50631666666666,99.56791428571428,99.54971428571429,0.07550000000000012,0.0105,-0.06616666666666668,0.14916666666666667,-0.045000000000001705,-0.06833333333332803,1.565,1.5245000000000002,38.128,29.535666666666664,38.946,36.0375,53.969,33.982,59.486,53.351,51.939,33.195499999999996,58.042500000000004,51.673,51.056,32.7805,57.894,51.09,-0.06333333333333324,-0.00550000000000006,0.10881,0.10788500000000001,0.0,222.57999999999998,222.62,219.34666666666666,219.3466666666667,0.0,0.0
