,ABS Active,ABS Enabled,AID Allow Tire Blankets,AID Auto Blip,AID Auto Clutch,AID Auto Shift,AID Fuel Rate,AID Ideal Line,AID Mech Damage,AID Stability,AID Tire Wear Rate,Air Density,Air Temp,Ballast,Best Lap Delta,Best Lap Time,Brake Bias,Brake Pos,Brake Temp FL,Brake Temp FR,Brake Temp RL,Brake Temp RR,CG Accel Lateral,CG Accel Longitudinal,CG Accel Vertical,CG Height,Camber FL,Camber FR,Camber RL,Camber RR,Car Coord X,Car Coord Y,Car Coord Z,Car Damage Front,Car Damage Left,Car Damage Rear,Car Damage Right,Car Pos Norm,Caster FL,Caster FR,Chassis Pitch Angle,Chassis Pitch Rate,Chassis Roll Angle,Chassis Roll Rate,Chassis Velocity X,Chassis Velocity Y,Chassis Velocity Z,Chassis Yaw Rate,Clutch Pos,DRS Active,DRS Available,Drive Train Speed,ERS Heat Charging,ERS Is Charging,ERS Max Energy,ERS Power Level,ERS Recovery Level,Engine Brake Setting,Engine Limiter,Engine RPM,Flags,Fuel Level,Gear,Ground Speed,HR Sample Clock,In Pit,KERS Charge,KERS Deployed Energy,KERS Input,KERS Max Energy,LR Sample Clock,Lap Invalidated,Lap Time,Lap Time2,Last Lap Time,Last Sector Time,MR Sample Clock,Max Fuel,Max Power,Max RPM,Max Sus Travel FL,Max Sus Travel FR,Max Sus Travel RL,Max Sus Travel RR,Max Torque,Max Turbo Boost,Num Tires Off Track,Penalties Enabled,Position,Raw Data Sample Rate,Ride Height FL,Ride Height FR,Ride Height RL,Ride Height RR,Road Temp,Self Align Torque FL,Self Align Torque FR,Self Align Torque RL,Self Align Torque RR,Session Lap Count,Session Time Left,Steering Angle,Surface Grip,Suspension Travel FL,Suspension Travel FR,Suspension Travel RL,Suspension Travel RR,TC Active,TC Enabled,Throttle Pos,Tire Dirt Level FL,Tire Dirt Level FR,Tire Dirt Level RL,Tire Dirt Level RR,Tire Load FL,Tire Load FR,Tire Load RL,Tire Load RR,Tire Loaded Radius FL,Tire Loaded Radius FR,Tire Loaded Radius RL,Tire Loaded Radius RR,Tire Pressure FL,Tire Pressure FR,Tire Pressure RL,Tire Pressure RR,Tire Radius FL,Tire Radius FR,Tire Radius RL,Tire Radius RR,Tire Rubber Grip FL,Tire Rubber Grip FR,Tire Rubber Grip RL,Tire Rubber Grip RR,Tire Slip Angle FL,Tire Slip Angle FR,Tire Slip Angle RL,Tire Slip Angle RR,Tire Slip Ratio FL,Tire Slip Ratio FR,Tire Slip Ratio RL,Tire Slip Ratio RR,Tire Temp Core FL,Tire Temp Core FR,Tire Temp Core RL,Tire Temp Core RR,Tire Temp Inner FL,Tire Temp Inner FR,Tire Temp Inner RL,Tire Temp Inner RR,Tire Temp Middle FL,Tire Temp Middle FR,Tire Temp Middle RL,Tire Temp Middle RR,Tire Temp Outer FL,Tire Temp Outer FR,Tire Temp Outer RL,Tire Temp Outer RR,Toe In FL,Toe In FR,Toe In RL,Toe In RR,Turbo Boost,Wheel Angular Speed FL,Wheel Angular Speed FR,Wheel Angular Speed RL,Wheel Angular Speed RR,Wind Direction,Wind Speed
0,0.0,0.0,0.0,1.0,1.0,0.0,0.0,1.0,0.0,100.0,1.0,1.1856,26.0,0.0,0.0,0.0,59.99999,0.0,26.0,26.0,26.0,26.0,-0.036222222222222156,0.33410000000000006,0.17830000000000001,297.287,-2.8771,-2.70125,-1.5424,-1.49025,-275.62,215.41750000000002,190.991375,0.0,0.0,0.0,0.0,0.0016333333333333755,-5.498166666666667,-5.498166666666667,-0.46880000000000005,2.366,0.0005555555555556424,0.16100000000000003,65.761,-0.0329,-0.10895,0.05799999999999983,100.0,1.0,1.0,203.18666666666667,0.0,0.0,0.0,0.0,0.0,0.0,0.0,8612.4,0.0,55.0,5.0,236.70333333333332,0.0,0.0,0.0,0.0,0.0,0.0,0.0,0.0,0.0030000000000001137,0.0030000000000001137,0.0,0.0,0.0,55.0,616.79921,10000.0,85.0,85.0,85.0,85.0,395.0,0.0,0.0,0.0,1.0,20.0,57.647999999999996,57.647999999999996,50.568,50.568,34.0,-27.514,31.186666666666667,-26.553333333333335,24.475,0.0,1783.119,0.14000000000000057,100.0,21.573999999999998,21.85,39.117000000000004,38.691,0.0,0.0,100.0,0.0,0.0,0.0,0.0,2954.375,3882.5,3835.4,3935.0,305.695,302.7153333333333,315.54325,315.111,21.638222222222222,20.4458,21.692888888888888,21.2661,314.99999,314.99999,324.99998,324.99998,99.55407142857143,99.50641666666667,99.56127142857143,99.54328571428572,-0.008499999999999952,-0.05775,-0.14683333333333337,0.08233333333333337,-0.06833333333332803,-0.054999999999999716,1.7646666666666666,1.5350000000000001,36.239000000000004,28.786,36.581,33.9135,54.236999999999995,33.357,57.5435,50.6715,52.233000000000004,32.641,56.216499999999996,49.11333333333333,51.409,32.272,56.175,48.59,-0.030000000000000027,-0.058499999999999996,0.10634,0.10884,0.0,206.035,205.995,203.01666666666665,203.36,0.0,0.0
1,0.0,0.0,0.0,1.0,1.0,0.0,0.0,1.0,0.0,100.0,1.0,1.1856,26.0,0.0,0.0,0.0,59.999996,0.0,26.0,26.0,26.0,26.0,-0.048222222222222166,0.3587,0.2101,296.31,-2.7813,-2.7811250000000003,-1.5912000000000002,-1.364625,-272.26,215.4225,190.97125,0.0,0.0,0.0,0.0,0.003566666666666607,-5.498166666666667,-5.498166666666667,-0.3507,-1.4815,-0.04499999999999993,-0.5529999999999999,65.937,-0.0228,-0.039875,0.44200000000000017,100.0,1.0,1.0,202.96,0.0,0.0,0.0,0.0,0.0,0.0,0.0,8602.7,0.0,55.0,5.0,237.33666666666667,1.0,0.0,0.0,0.0,0.0,0.0,0.0,0.0,0.053999999999998494,0.053999999999998494,0.0,0.0,1.0,55.0,616.79921,10000.0,85.000001,85.000001,85.000001,85.000001,395.0,0.0,0.0,0.0,1.0,166.665,62.134,62.134,48.065,48.065,34.0,-17.666,12.719999999999999,-37.056666666666665,33.6875,0.0,1783.067,0.40500000000000114,100.0,21.73,21.468,41.641999999999996,42.296,0.0,0.0,100.0,0.0,0.0,0.0,0.0,2140.625,1802.0,4763.8,5420.6,308.32533333333333,309.1053333333333,313.00325,310.94425,21.64677777777778,20.4498,21.703555555555557,21.2753,314.999998,314.999998,324.999988,324.999988,99.55408571428572,99.50641666666667,99.56142857142858,99.54344285714286,0.009500000000000064,-0.0765,-0.1263333333333334,0.06099999999999994,-0.04833333333333201,-0.051666666666669414,1.278,1.32,36.293,28.811,36.647,33.9705,54.214,33.385,57.5955,50.7455,52.211,32.667,56.265,49.184,51.387,32.297,56.2205,48.659333333333336,-0.015666666666666718,-0.06800000000000006,0.10456000000000001,0.11180500000000002,0.0,206.54000000000002,206.5,202.96,202.96,0.0,0.0
2,0.0,0.0,0.0,1.0,1.0,0.0,0.0,1.0,0.0,100.0,1.0,1.1856,26.0,0.0,0.0,0.0,59.999996,0.0,26.0,26.0,26.0,26.0,-0.07433333333333336,0.349,0.0395,298.111,-2.7473,-2.748,-1.552,-1.506875,-268.89,215.4225,190.952375,0.0,0.0,0.0,0.0,0.00553333333333339,-5.498166666666667,-5.498166666666667,-0.45930000000000004,0.4295,-0.007777777777777661,2.109,66.086,-0.0261,-0.137825,0.7640000000000002,100.0,1.0,1.0,204.55,0.0,0.0,0.0,0.0,0.0,0.0,0.0,8670.1,0.0,55.0,5.0,237.87666666666667,0.0,0.0,0.0,0.0,0.0,0.0,0.0,0.0,0.10500000000000043,0.10500000000000043,0.0,0.0,0.0,55.0,616.79921,10000.0,85.000001,85.000001,85.000001,85.000001,395.0,0.0,0.0,0.0,1.0,333.33500000000004,59.631,59.631,51.956,51.956,34.0,-24.89,19.391666666666666,-23.656666666666666,17.955,0.0,1783.015,0.490000000000002,100.0,22.116,21.465,40.919,40.716,0.0,0.0,100.0,0.0,0.0,0.0,0.0,2806.125,2647.2,3399.1,3245.7,306.2556666666667,306.365,316.52875,316.85,21.655666666666665,20.4539,21.713444444444445,21.2834,314.999998,314.999998,324.999988,324.999988,99.55408571428572,99.50641666666667,99.56157142857143,99.54358571428571,-0.01200000000000001,-0.08925,-0.16649999999999998,0.06550000000000011,-0.0799999999999983,-0.08166666666667055,1.822,1.84,36.348,28.8365,36.709,34.0215,54.194,33.417,57.635,50.798,52.192,32.6965,56.302,49.23466666666667,51.367000000000004,32.325,56.254999999999995,48.709,-0.010000000000000009,-0.08300000000000018,0.11232,0.10881500000000001,0.0,207.03,206.96,204.55,204.55,0.0,0.0
3,0.0,0.0,0.0,1.0,1.0,0.0,0.0,1.0,0.0,100.0,1.0,1.1856,26.0,0.0,0.0,0.0,59.999996,0.0,26.0,26.0,26.0,26.0,-0.06855555555555548,0.33430000000000004,0.12136666666666668,297.333,-2.7794,-2.7666250000000003,-1.54195,-1.4645000000000001,-265.72,215.425,190.933125,0.0,0.0,0.0,0.0,0.007399999999999962,-5.498166666666667,-5.498166666666667,-0.38130000000000003,0.5235,0.011666666666666714,-1.411,66.25,-0.0414,-0.051775,0.6239999999999997,100.0,1.0,1.0,204.32333333333332,0.0,0.0,0.0,0.0,0.0,0.0,0.0,8660.5,0.0,55.0,5.0,238.46666666666667,1.0,0.0,0.0,0.0,0.0,0.0,0.0,0.0,0.1529999999999987,0.1529999999999987,0.0,0.0,1.0,55.0,616.79921,10000.0,85.000001,85.000001,85.000001,85.000001,395.0,0.0,0.0,0.0,1.0,166.665,61.325,61.325,48.813,48.813,34.0,-18.785999999999998,16.901666666666667,-32.766666666666666,27.1425,0.0,1782.968,0.5300000000000011,100.0,21.717,21.437,40.983000000000004,41.022999999999996,0.0,0.0,100.0,0.0,0.0,0.0,0.0,2209.375,2365.3,4386.6,4335.9,308.182,307.28333333333336,314.09075,313.93925,21.663777777777778,20.458,21.723,21.2917,314.999998,314.999998,324.999988,324.999988,99.55408571428572,99.50643333333333,99.5617,99.54371428571429,-0.010499999999999954,-0.0955,-0.14383333333333337,0.07233333333333336,-0.04999999999999716,-0.054999999999999716,1.456,1.46,36.397999999999996,28.862000000000002,36.768,34.073,54.173,33.446,57.6735,50.8595,52.172,32.723,56.3375,49.29333333333334,51.348,32.3505,56.288,48.766666666666666,0.0,-0.08599999999999985,0.10799500000000001,0.11797500000000001,0.0,207.56,207.505,204.32333333333332,204.32333333333332,0.0,0.0
4,0.0,0.0,0.0,1.0,1.0,0.0,0.0,1.0,0.0,100.0,1.0,1.1856,26.0,0.0,0.0,0.0,59.999996,0.0,26.0,26.0,26.0,26.0,-0.07566666666666666,0.3066,-0.0004666666666666667,297.852,-2.765,-2.831625,-1.47735,-1.581,-262.33,215.425,190.913875,0.0,0.0,0.0,0.0,0.009366666666666523,-5.498166666666667,-5.498166666666667,-0.41450000000000004,-0.9775,-0.045666666666666966,-0.624,66.412,-0.0497,-0.099175,0.9860000000000007,100.0,1.0,1.0,205.05333333333334,0.0,0.0,0.0,0.0,0.0,0.0,0.0,8691.5,0.0,55.0,5.0,239.04666666666668,0.0,0.0,0.0,0.0,0.0,0.0,0.0,0.0,0.20400000000000063,0.20400000000000063,0.0,0.0,0.0,55.0,616.79921,10000.0,85.000001,85.000001,85.000001,85.000001,395.0,0.0,0.0,0.0,1.0,333.33500000000004,61.035,61.035,50.201,50.201,34.0,-23.061999999999998,16.078333333333333,-29.093333333333334,22.5625,0.0,1782.916,0.625,100.0,21.602,21.159,41.664,41.084,0.0,0.0,100.0,0.0,0.0,0.0,0.0,2580.375,2256.0,3934.4,3707.7,307.0756666666667,307.61066666666665,315.22075,315.572,21.672444444444444,20.462,21.73322222222222,21.3004,314.999998,314.999998,324.999988,324.999988,99.5541,99.50645,99.56184285714286,99.54384285714286,-0.02949999999999997,-0.10725,-0.1815,0.05750000000000011,-0.05333333333332746,-0.05333333333332746,1.5873333333333333,1.625,36.452,28.8875,36.833,34.126999999999995,54.150999999999996,33.4755,57.719,50.920500000000004,52.152,32.75,56.3805,49.35166666666667,51.327,32.376,56.3275,48.82366666666667,0.005666666666666931,-0.08850000000000025,0.10365500000000001,0.11176000000000001,0.0,208.005,207.925,205.05333333333334,205.05333333333334,0.0,0.0
5,0.0,0.0,0.0,1.0,1.0,0.0,0.0,1.0,0.0,100.0,1.0,1.1856,26.0,0.0,0.0,0.0,59.999996,0.0,26.0,26.0,26.0,26.0,-0.07388888888888889,0.33540000000000014,-0.026533333333333332,298.111,-2.7393,-2.8137499999999998,-1.528,-1.5618750000000001,-258.74,215.42000000000002,190.89275,0.0,0.0,0.0,0.0,0.011433333333333295,-5.498166666666667,-5.498166666666667,-0.41910000000000003,0.5695,-0.03022222222222215,-0.365,66.583,-0.069,-0.08375,0.9539999999999997,100.0,1.0,1.0,205.63333333333333,0.0,0.0,0.0,0.0,0.0,0.0,0.0,8716.0,0.0,55.0,5.0,239.66333333333333,1.0,0.0,0.0,0.0,0.0,0.0,0.0,0.0,0.2579999999999991,0.2579999999999991,0.0,0.0,1.0,55.0,616.79921,10000.0,85.000001,85.000001,85.000001,85.000001,395.0,0.0,0.0,0.0,1.0,166.665,61.279,61.279,50.491,50.491,34.0,-21.918,16.47833333333333,-29.29,22.215,0.0,1782.865,0.3049999999999997,100.0,21.473,21.129,41.224000000000004,40.468,0.0,0.0,100.0,0.0,0.0,0.0,0.0,2478.125,2268.3,3864.6,3897.2,307.324,307.478,315.4385,315.1635,21.681666666666665,20.4664,21.74377777777778,21.3093,314.999998,314.999998,324.999988,324.999988,99.5541,99.50645,99.56198571428571,99.54398571428571,-0.02949999999999997,-0.0965,-0.18866666666666665,0.029166666666666785,-0.05833333333333002,-0.054999999999999716,1.6043333333333334,1.647,36.51,28.915,36.899,34.183,54.129999999999995,33.507999999999996,57.7615,50.983000000000004,52.132,32.78,56.42,49.41133333333333,51.306,32.4045,56.3645,48.882333333333335,-0.012333333333333307,-0.06450000000000022,0.10558500000000001,0.108615,0.0,208.585,208.485,205.63333333333333,205.63333333333333,0.0,0.0
6,0.0,0.0,0.0,1.0,1.0,0.0,0.0,1.0,0.0,100.0,1.0,1.1856,26.0,0.0,0.0,0.0,59.999996,0.0,26.0,26.0,26.0,26.0,-0.10088888888888892,0.3305,-0.04786666666666667,297.943,-2.7656,-2.865,-1.47445,-1.573125,-255.74,215.41750000000002,190.874375,0.0,0.0,0.0,0.0,0.01319999999999999,-5.498166666666667,-5.498166666666667,-0.41150000000000003,-0.2925,-0.04788888888888909,0.33899999999999997,66.729,-0.0692,-0.0716,0.7560000000000002,100.0,1.0,1.0,205.92000000000002,0.0,0.0,0.0,0.0,0.0,0.0,0.0,8728.2,0.0,55.0,5.0,240.19,0.0,0.0,0.0,0.0,0.0,0.0,0.0,0.0,0.3030000000000008,0.3030000000000008,0.0,0.0,0.0,55.0,616.79921,10000.0,85.000001,85.000001,85.000001,85.000001,395.0,0.0,0.0,0.0,1.0,166.665,61.539,61.539,50.11,50.11,34.0,-22.764000000000003,15.924999999999999,-30.16,23.5325,0.0,1782.818,0.46499999999999986,100.0,21.381,20.697,41.462,40.555,0.0,0.0,100.0,0.0,0.0,0.0,0.0,2508.375,2221.6,4058.0,3985.0,307.162,307.7746666666667,314.8535,314.9295,21.68922222222222,20.4699,21.752777777777776,21.317,314.999998,314.999998,324.999988,324.999988,99.5541,99.50646666666667,99.56211428571429,99.54411428571429,-0.03774999999999995,-0.10725,-0.17416666666666658,0.03600000000000003,-0.054999999999999716,-0.05666666666667197,1.5336666666666667,1.593,36.558,28.936999999999998,36.955,34.2315,54.111000000000004,33.533500000000004,57.8,51.0385,52.114000000000004,32.803,56.4565,49.465,51.288,32.427,56.3985,48.934666666666665,0.0013333333333331865,-0.07450000000000001,0.10687500000000001,0.11023000000000001,0.0,209.01,208.94,205.92000000000002,205.92000000000002,0.0,0.0
7,0.0,0.0,0.0,1.0,1.0,0.0,0.0,1.0,0.0,100.0,1.0,1.1856,26.0,0.0,0.0,0.0,59.999996,0.0,26.0,26.0,26.0,26.0,-0.06911111111111101,0.31720000000000015,0.002,297.928,-2.7704,-2.862375,-1.5265,-1.593625,-252.32999999999998,215.41,190.85375,0.0,0.0,0.0,0.0,0.01516666666666655,-5.498166666666667,-5.498166666666667,-0.41490000000000005,0.22050000000000003,-0.0425555555555559,-0.32199999999999995,66.889,-0.0731,-0.0795,0.6579999999999995,100.0,1.0,1.0,206.48000000000002,0.0,0.0,0.0,0.0,0.0,0.0,0.0,8752.0,0.0,55.0,5.0,240.76666666666665,1.0,0.0,0.0,0.0,0.0,0.0,0.0,0.0,0.3539999999999992,0.3539999999999992,0.0,0.0,1.0,55.0,616.79921,10000.0,85.000001,85.000001,85.000001,85.000001,395.0,0.0,0.0,0.0,1.0,166.665,61.295,61.295,50.095,50.095,34.0,-22.415999999999997,17.063333333333333,-31.863333333333333,22.4325,0.0,1782.767,-0.10999999999999943,100.0,21.434,20.853,41.41,40.597,0.0,0.0,100.0,0.0,0.0,0.0,0.0,2590.75,2242.2,4083.0,3836.4,307.03066666666666,307.53566666666666,314.918,315.2545,21.698,20.4741,21.762888888888888,21.3256,314.999998,314.999998,324.999988,324.999988,99.55411428571429,99.50646666666667,99.56225714285715,99.54425714285715,-0.003750000000000031,-0.08025,-0.1978333333333333,0.02833333333333332,-0.054999999999999716,-0.051666666666669414,1.5776666666666666,1.588,36.611999999999995,28.963,37.018,34.285,54.092,33.564,57.843,51.0995,52.096000000000004,32.8315,56.4965,49.522999999999996,51.269999999999996,32.4535,56.436,48.99166666666667,-0.05366666666666675,-0.03100000000000014,0.10859500000000001,0.107825,0.0,209.51,209.435,206.48000000000002,206.48000000000002,0.0,0.0
8,0.0,0.0,0.0,1.0,1.0,0.0,0.0,1.0,0.0,100.0,1.0,1.1856,26.0,0.0,0.0,0.0,59.999996,0.0,26.0,26.0,26.0,26.0,-0.06344444444444441,0.31420000000000003,-0.017833333333333336,298.08,-2.7788,-2.8051250000000003,-1.53695,-1.5911250000000001,-248.92000000000002,215.4,190.833125,0.0,0.0,0.0,0.0,0.017166666666666552,-5.498166666666667,-5.498166666666667,-0.4141,-0.05449999999999999,-0.032222222222222374,0.3340000000000001,67.05,-0.0625,-0.07942500000000001,0.15399999999999991,100.0,1.0,1.0,206.98000000000002,0.0,0.0,0.0,0.0,0.0,0.0,0.0,8773.2,0.0,55.0,5.0,241.3466666666667,0.0,0.0,0.0,0.0,0.0,0.0,0.0,0.0,0.40500000000000114,0.40500000000000114,0.0,0.0,0.0,55.0,616.79921,10000.0,85.000001,85.000001,85.000001,85.000001,395.0,0.0,0.0,0.0,1.0,166.665,61.584,61.584,49.896,49.896,34.0,-20.348,18.528333333333332,-29.273333333333333,24.0875,0.0,1782.717,-0.16999999999999815,100.0,21.211,20.669,41.514,40.686,0.0,0.0,100.0,0.0,0.0,0.0,0.0,2380.75,2420.0,3942.1,3874.0,307.5246666666667,307.18966666666665,315.18325,315.21425,21.706555555555557,20.4783,21.773,21.3344,314.999998,314.999998,324.999988,324.999988,99.55411428571429,99.50648333333334,99.56241428571428,99.5444,0.0024999999999999467,-0.0635,-0.16649999999999998,0.0601666666666667,-0.046666666666666856,-0.07666666666666799,1.587,1.604,36.666,28.988999999999997,37.082,34.34,54.07,33.594,57.8855,51.162,52.075,32.859,56.536,49.583,51.248999999999995,32.480000000000004,56.4725,49.05,-0.05166666666666675,-0.02400000000000002,0.11125000000000002,0.112615,0.0,209.98000000000002,209.97,206.98000000000002,206.98000000000002,0.0,0.0
9,0.0,0.0,0.0,1.0,1.0,0.0,0.0,1.0,0.0,100.0,1.0,1.1856,26.0,0.0,0.0,0.0,59.999996,0.0,26.0,26.0,26.0,26.0,-0.04022222222222216,0.33520000000000016,0.008866666666666667,297.928,-2.7626,-2.819125,-1.5227,-1.547625,-245.7,215.39,190.8135,0.0,0.0,0.0,0.0,0.019033333333333347,-5.498166666666667,-5.498166666666667,-0.41050000000000003,0.20850000000000002,-0.040777777777778024,0.655,67.202,-0.048100000000000004,-0.06995,0.02600000000000069,100.0,1.0,1.0,207.41666666666669,0.0,0.0,0.0,0.0,0.0,0.0,0.0,8791.6,0.0,55.0,5.0,241.89333333333332,1.0,0.0,0.0,0.0,0.0,0.0,0.0,0.0,0.4529999999999994,0.4529999999999994,0.0,0.0,1.0,55.0,616.79921,10000.0,85.000001,85.000001,85.000001,85.000001,395.0,0.0,0.0,0.0,1.0,333.33500000000004,61.386,61.386,50.14,50.14,34.0,-20.560000000000002,19.58833333333333,-28.39666666666667,25.095,0.0,1782.668,-0.3149999999999977,100.0,21.283,20.564,41.418,40.698,0.0,0.0,100.0,0.0,0.0,0.0,0.0,2477.5,2440.7,3952.0,4017.8,307.2103333333333,307.134,315.1895,314.8995,21.714555555555556,20.4822,21.782555555555554,21.3425,314.999998,314.999998,324.999988,324.999988,99.55411428571429,99.50648333333334,99.56254285714286,99.54452857142857,0.024499999999999966,-0.03775,-0.15066666666666662,0.06983333333333319,-0.06499999999999773,-0.06499999999999773,1.584,1.591,36.716,29.014,37.141,34.391,54.051,33.6215,57.9245,51.2195,52.056,32.884,56.573,49.638333333333335,51.230000000000004,32.504,56.507,49.10433333333333,-0.06433333333333313,-0.008999999999999897,0.1034,0.109655,0.0,210.45499999999998,210.44,207.41666666666669,207.41666666666669,0.0,0.0
10,0.0,0.0,0.0,1.0,1.0,0.0,0.0,1.0,0.0,100.0,1.0,1.1856,26.0,0.0,0.0,0.0,59.999996,0.0,26.0,26.0,26.0,26.0,-0.015111111111111075,0.31689999999999996,0.0082,297.928,-2.7659000000000002,-2.79925,-1.5382,-1.53025,-242.06,215.3775,190.791375,0.0,0.0,0.0,0.0,0.021133333333333337,-5.498166666666667,-5.498166666666667,-0.40700000000000003,-0.2470000000000001,-0.014222222222222136,1.4090000000000003,67.372,-0.0317,-0.06955,-0.22200000000000042,100.0,1.0,1.0,207.87333333333333,0.0,0.0,0.0,0.0,0.0,0.0,0.0,8811.0,0.0,55.0,5.0,242.50333333333333,0.0,0.0,0.0,0.0,0.0,0.0,1.0,0.0,0.5069999999999979,0.5069999999999979,0.0,0.0,0.0,55.0,616.79921,10000.0,85.000001,85.000001,85.000001,85.000001,395.0,0.0,0.0,0.0,1.0,166.665,61.752,61.752,49.881,49.881,34.0,-18.584,19.631666666666668,-28.03,26.927500000000002,0.0,1782.614,-0.47499999999999787,100.0,21.136,20.481,41.477000000000004,40.963,0.0,0.0,100.0,0.0,0.0,0.0,0.0,2342.75,2430.6,3976.7,4146.8,307.5973333333333,307.185,315.08875,314.57025,21.723555555555556,20.4867,21.793333333333333,21.3519,314.999998,314.999998,324.999988,324.999988,99.55411428571429,99.5065,99.56268571428572,99.54467142857143,0.04849999999999999,-0.02825,-0.1306666666666666,0.08699999999999997,-0.045000000000001705,-0.06833333333332803,1.5566666666666666,1.544,36.772999999999996,29.0415,37.208,34.449,54.028999999999996,33.6515,57.97,51.286,52.036,32.911500000000004,56.615,49.702,51.208,32.53,56.546,49.166666666666664,-0.07666666666666666,-0.0009999999999998899,0.10646000000000001,0.10696000000000001,0.0,210.95499999999998,210.97500000000002,207.87333333333333,207.87333333333333,0.0,0.0
11,0.0,0.0,0.0,1.0,1.0,0.0,0.0,1.0,0.0,100.0,1.0,1.1856,26.0,0.0,0.0,0.0,59.999996,0.0,26.0,26.0,26.0,26.0,0.021777777777777896,0.3143,-0.0424,298.203,-2.8115,-2.7897499999999997,-1.54365,-1.5045,-238.62,215.3675,190.770125,0.0,0.0,0.0,0.0,0.022599999999999953,-5.498166666666667,-5.498166666666667,-0.4267,-0.21199999999999997,0.006888888888888944,-0.62,67.529,-0.0128,-0.078625,-0.3200000000000003,100.0,1.0,1.0,208.46333333333334,0.0,0.0,0.0,0.0,0.0,0.0,0.0,8836.0,0.0,55.0,5.0,243.07333333333332,1.0,0.0,0.0,0.0,0.0,0.0,1.0,0.0,0.5579999999999998,0.5579999999999998,0.0,0.0,1.0,55.0,616.79921,10000.0,85.000001,85.000001,85.000001,85.000001,395.0,0.0,0.0,0.0,1.0,166.665,61.737,61.737,50.415,50.415,34.0,-20.1,20.09,-25.813333333333336,25.759999999999998,0.0,1782.564,-0.5399999999999991,100.0,20.656,20.643,41.096000000000004,41.045,0.0,0.0,100.0,0.0,0.0,0.0,0.0,2483.75,2430.1,3829.1,3942.8,307.4046666666667,306.9923333333333,315.53575,315.0015,21.732,20.4909,21.803333333333335,21.360599999999998,314.999998,314.999998,324.999988,324.999988,99.55412857142858,99.5065,99.56284285714285,99.54482857142857,0.042750000000000066,-0.019,-0.11583333333333334,0.10400000000000009,-0.05666666666667197,-0.04833333333333201,1.6136666666666666,1.586,36.825,29.067999999999998,37.271,34.5035,54.007,33.6795,58.009,51.348,52.015,32.937,56.652,49.76133333333333,51.187,32.5545,56.58,49.224666666666664,-0.07366666666666677,0.0040000000000000036,0.101915,0.11808,0.0,211.435,211.43,208.46333333333334,208.46333333333334,0.0,0.0
12,0.0,0.0,0.0,1.0,1.0,0.0,0.0,1.0,0.0,100.0,1.0,1.1856,26.0,0.0,0.0,0.0,59.999996,0.0,26.0,26.0,26.0,26.0,0.021333333333333426,0.3297000000000001,0.011366666666666667,297.897,-2.7943,-2.783875,-1.5443,-1.5206250000000001,-235.57999999999998,215.35750000000002,190.75075,0.0,0.0,0.0,0.0,0.025466666666666526,-5.498166666666667,-5.498166666666667,-0.4163,0.40249999999999997,0.012444444444444258,0.7690000000000001,67.67,0.0002,-0.059075,-0.4579999999999993,100.0,1.0,1.0,208.81666666666666,0.0,0.0,0.0,0.0,0.0,0.0,0.0,8851.0,0.0,55.0,5.0,243.57999999999998,0.0,0.0,0.0,0.0,0.0,0.0,1.0,0.0,0.602999999999998,0.602999999999998,0.0,0.0,0.0,55.0,616.79921,10000.0,85.000001,85.000001,85.000001,85.000001,395.0,0.0,0.0,0.0,1.0,333.33500000000004,61.539,61.539,49.82,49.82,34.0,-18.438,21.501666666666665,-26.306666666666665,28.5825,0.0,1782.518,-0.5249999999999986,100.0,20.942999999999998,20.785,41.054,40.947,0.0,0.0,100.0,0.0,0.0,0.0,0.0,2354.25,2544.8,3984.2,4150.0,307.57933333333335,306.7993333333333,315.10125,314.6125,21.739444444444445,20.4948,21.81211111111111,21.3683,314.999998,314.999998,324.999988,324.999988,99.55412857142858,99.5065,99.56295714285714,99.54494285714286,0.0625,-0.0015,-0.09433333333333338,0.123,-0.03999999999999915,-0.05666666666667197,1.5683333333333334,1.554,36.870999999999995,29.0925,37.326,34.552,53.989000000000004,33.7055,58.045,51.4025,51.998000000000005,32.9615,56.685,49.81366666666666,51.17,32.5775,56.611,49.275999999999996,-0.07499999999999996,0.0004999999999999449,0.10484,0.109615,0.0,211.87,211.92000000000002,208.81666666666666,208.81666666666666,0.0,0.0
13,0.0,0.0,0.0,1.0,1.0,0.0,0.0,1.0,0.0,100.0,1.0,1.1856,26.0,0.0,0.0,0.0,59.999996,0.0,26.0,26.0,26.0,26.0,0.04922222222222228,0.3069000000000002,0.0064333333333333334,297.668,-2.7917,-2.78675,-1.5434999999999999,-1.5245,-232.13,215.345,190.729125,0.0,0.0,0.0,0.0,0.026933333333333365,-5.498166666666667,-5.498166666666667,-0.41440000000000005,-0.3015000000000001,0.009777777777777885,-0.585,67.82900000000001,0.0076,-0.06960000000000001,-0.3979999999999997,100.0,1.0,1.0,209.24333333333334,0.0,0.0,0.0,0.0,0.0,0.0,0.0,8869.1,0.0,55.0,5.0,244.15,1.0,0.0,0.0,0.0,0.0,0.0,1.0,0.0,0.6539999999999999,0.6539999999999999,0.0,0.0,1.0,55.0,616.79921,10000.0,85.000001,85.000001,85.000001,85.000001,395.0,0.0,0.0,0.0,1.0,333.33500000000004,61.432,61.432,49.713,49.713,34.0,-18.914,20.58833333333333,-27.04,28.1575,0.0,1782.466,-0.48999999999999844,100.0,20.914,21.049,41.261,41.492000000000004,0.0,0.0,100.0,0.0,0.0,0.0,0.0,2472.125,2403.8,4021.3,4127.8,307.417,307.06533333333334,315.0475,314.543,21.747777777777777,20.4991,21.822333333333333,21.3772,314.999998,314.999998,324.999988,324.999988,99.55412857142858,99.5065,99.56311428571429,99.54508571428572,0.07350000000000012,0.00575,-0.10233333333333339,0.11250000000000004,-0.046666666666666856,-0.04999999999999716,1.5463333333333333,1.538,36.924,29.119500000000002,37.388999999999996,34.6075,53.969,33.735,58.087,51.467,51.979,32.988,56.7245,49.87533333333333,51.150999999999996,32.6035,56.6475,49.336666666666666,-0.08933333333333326,0.008000000000000007,0.10661500000000002,0.10542000000000001,0.0,212.36,212.38,209.24333333333334,209.24333333333334,0.0,0.0
14,0.0,0.0,0.0,1.0,1.0,0.0,0.0,1.0,0.0,100.0,1.0,1.1856,26.0,0.0,0.0,0.0,59.999996,0.0,26.0,26.0,26.0,26.0,0.05088888888888898,0.3190000000000002,-0.050633333333333336,297.897,-2.8364000000000003,-2.801625,-1.5779,-1.5226250000000001,-228.46,215.335,190.70625,0.0,0.0,0.0,0.0,0.029066666666666574,-5.498166666666667,-5.498166666666667,-0.4248,0.0044999999999999485,0.02022222222222214,-0.46799999999999997,67.994,0.0188,-0.0756,-0.46200000000000063,100.0,1.0,1.0,209.85333333333335,0.0,0.0,0.0,0.0,0.0,0.0,0.0,8894.9,0.0,55.0,5.0,244.74333333333334,0.0,0.0,0.0,0.0,0.0,0.0,1.0,0.0,0.7079999999999984,0.7079999999999984,0.0,0.0,0.0,55.0,616.79921,10000.0,85.000001,85.000001,85.000001,85.000001,395.0,0.0,0.0,0.0,1.0,166.665,61.539,61.539,50.064,50.064,34.0,-19.262,20.263333333333332,-25.516666666666666,27.5275,0.0,1782.414,-0.5399999999999991,100.0,20.907,21.128,41.177,41.528999999999996,0.0,0.0,100.0,0.0,0.0,0.0,0.0,2478.5,2348.6,3925.9,3955.1000000000004,307.4676666666667,307.193,315.325,314.9595,21.756666666666668,20.5037,21.83288888888889,21.386499999999998,314.999998,314.999998,324.999988,324.999988,99.55414285714286,99.5065,99.56325714285714,99.54524285714285,0.07174999999999998,0.009000000000000001,-0.08216666666666661,0.1313333333333333,-0.07000000000000028,-0.061666666666667425,1.588,1.568,36.979,29.1485,37.456,34.666,53.948,33.766,58.129,51.5325,51.959,33.0165,56.763999999999996,49.93833333333333,51.129999999999995,32.6305,56.6835,49.39833333333333,-0.08299999999999996,0.00649999999999995,0.105215,0.10683500000000001,0.0,212.875,212.91500000000002,209.85333333333335,209.85333333333335,0.0,0.0
15,0.0,0.0,0.0,1.0,1.0,0.0,0.0,1.0,0.0,100.0,1.0,1.1856,26.0,0.0,0.0,0.0,59.999996,0.0,26.0,26.0,26.0,26.0,0.04033333333333333,0.3165,-0.019133333333333336,297.76,-2.7727,-2.781625,-1.59375,-1.543125,-225.4,215.3275,190.68675,0.0,0.0,0.0,0.0,0.03083333333333338,-5.498166666666667,-5.498166666666667,-0.4163,0.21799999999999997,0.03222222222222215,0.7510000000000001,68.132,0.0238,-0.06165,-0.5120000000000005,100.0,1.0,1.0,210.24,0.0,0.0,0.0,0.0,0.0,0.0,0.0,8911.2,0.0,55.0,5.0,245.24333333333334,1.0,0.0,0.0,0.0,0.0,0.0,1.0,0.0,0.7530000000000001,0.7530000000000001,0.0,0.0,1.0,55.0,616.79921,10000.0,85.000001,85.000001,85.000001,85.000001,395.0,0.0,0.0,0.0,1.0,333.33500000000004,61.523,61.523,49.713,49.713,34.0,-17.15,21.04,-25.763333333333335,28.9075,0.0,1782.367,-0.46999999999999886,100.0,21.123,21.122,41.275,41.594,0.0,0.0,100.0,0.0,0.0,0.0,0.0,2282.75,2450.5,3955.7,4063.8,307.79533333333336,307.063,315.22525,314.784,21.764,20.5076,21.84177777777778,21.3943,314.999998,314.999998,324.999988,324.999988,99.55415714285714,99.5065,99.5634,99.54538571428571,0.07950000000000013,0.013000000000000001,-0.07583333333333331,0.1373333333333333,-0.026666666666670835,-0.07333333333333059,1.5703333333333334,1.565,37.025,29.173000000000002,37.510999999999996,34.7145,53.929,33.7935,58.1665,51.592,51.942,33.042,56.7985,49.995666666666665,51.111999999999995,32.655,56.716,49.45433333333334,-0.07133333333333325,0.0,0.107465,0.10862500000000001,0.0,213.305,213.335,210.24,210.24,0.0,0.0
16,0.0,0.0,0.0,1.0,1.0,0.0,0.0,1.0,0.0,100.0,1.0,1.1856,26.0,0.0,0.0,0.0,59.999996,0.0,26.0,26.0,26.0,26.0,0.055777777777777926,0.30520000000000014,-0.010066666666666668,297.562,-2.8032,-2.7275,-1.57225,-1.541625,-221.92000000000002,215.32,190.664625,0.0,0.0,0.0,0.0,0.0328666666666666,-5.498166666666667,-5.498166666666667,-0.4262,-0.16749999999999998,0.018888888888888955,-0.931,68.288,0.027200000000000002,-0.074625,-0.3179999999999996,100.0,1.0,1.0,210.71333333333334,0.0,0.0,0.0,0.0,0.0,0.0,0.0,8931.4,0.0,55.0,5.0,245.80666666666667,0.0,0.0,0.0,0.0,0.0,0.0,1.0,0.0,0.8039999999999985,0.8039999999999985,0.0,0.0,0.0,55.0,616.79921,10000.0,85.000001,85.000001,85.000001,85.000001,395.0,0.0,0.0,0.0,1.0,333.33500000000004,61.096,61.096,49.454,49.454,34.0,-19.299999999999997,21.461666666666666,-25.543333333333333,27.6175,0.0,1782.317,-0.370000000000001,100.0,20.886,21.383,41.384,41.797,0.0,0.0,100.0,0.0,0.0,0.0,0.0,2500.375,2528.8,3972.6,3903.2,307.298,306.6863333333333,315.1715,315.11025,21.772333333333332,20.5121,21.851888888888887,21.4032,314.999998,314.999998,324.999988,324.999988,99.55415714285714,99.5065,99.56352857142858,99.54551428571429,0.07374999999999998,0.00725,-0.07466666666666666,0.13783333333333325,-0.045000000000001705,-0.06833333333332803,1.5783333333333334,1.568,37.077,29.200499999999998,37.574,34.769999999999996,53.91,33.822,58.2055,51.6515,51.923,33.0685,56.835,50.05266666666667,51.093,32.68,56.7495,49.510333333333335,-0.06466666666666665,-0.010499999999999954,0.10390500000000001,0.10866500000000001,0.0,213.775,213.805,210.71333333333334,210.71333333333334,0.0,0.0
17,0.0,0.0,0.0,1.0,1.0,0.0,0.0,1.0,0.0,100.0,1.0,1.1856,26.0,0.0,0.0,0.0,59.999996,0.0,26.0,26.0,26.0,26.0,0.05122222222222228,0.3044,0.004166666666666667,297.455,-2.7618,-2.8145,-1.5346000000000002,-1.5622500000000001,-218.43,215.3125,190.642375,0.0,0.0,0.0,0.0,0.0348666666666666,-5.498166666666667,-5.498166666666667,-0.42200000000000004,0.09450000000000003,0.001777777777777878,0.4830000000000001,68.444,0.0247,-0.06705,-0.3099999999999996,100.0,1.0,1.0,211.13333333333333,0.0,0.0,0.0,0.0,0.0,0.0,0.0,8949.2,0.0,55.0,5.0,246.36666666666667,1.0,0.0,0.0,0.0,0.0,0.0,1.0,0.0,0.8550000000000004,0.8550000000000004,0.0,0.0,1.0,55.0,616.79921,10000.0,85.000001,85.000001,85.000001,85.000001,395.0,0.0,0.0,0.0,1.0,166.665,61.356,61.356,49.301,49.301,34.0,-17.477999999999998,21.310000000000002,-25.61,30.0075,0.0,1782.266,-0.28000000000000114,100.0,21.188,21.243,41.498000000000005,41.751,0.0,0.0,100.0,0.0,0.0,0.0,0.0,2315.625,2459.0,4028.4,4120.9,307.655,306.9533333333333,314.96475,314.629,21.780666666666665,20.5166,21.862000000000002,21.4121,314.999998,314.999998,324.999988,324.999988,99.55417142857142,99.50651666666667,99.56367142857142,99.54565714285714,0.07824999999999993,0.00825,-0.07233333333333336,0.14000000000000012,-0.036666666666668846,-0.060000000000002274,1.5386666666666666,1.524,37.129000000000005,29.2285,37.637,34.8255,53.89,33.8515,58.246,51.714,51.903999999999996,33.0955,56.873,50.113,51.074,32.706,56.784,49.56966666666666,-0.05966666666666676,-0.011499999999999844,0.11006,0.10391500000000001,0.0,214.275,214.29000000000002,211.13333333333333,211.13333333333333,0.0,0.0
18,0.0,0.0,0.0,1.0,1.0,0.0,0.0,1.0,0.0,100.0,1.0,1.1856,26.0,0.0,0.0,0.0,59.999996,0.0,26.0,26.0,26.0,26.0,0.053777777777777924,0.30210000000000004,-0.04186666666666667,297.684,-2.7592,-2.838875,-1.52005,-1.569,-214.93,215.3075,190.61975,0.0,0.0,0.0,0.0,0.03689999999999993,-5.498166666666667,-5.498166666666667,-0.4349,-0.2975000000000001,0.0016666666666667052,-0.601,68.598,0.0188,-0.07445,-0.1039999999999992,100.0,1.0,1.0,211.65666666666667,0.0,0.0,0.0,0.0,0.0,0.0,0.0,8971.4,0.0,55.0,5.0,246.92333333333335,0.0,0.0,0.0,0.0,0.0,0.0,1.0,0.0,0.9059999999999988,0.9059999999999988,0.0,0.0,0.0,55.0,616.79921,10000.0,85.000001,85.000001,85.000001,85.000001,395.0,0.0,0.0,0.0,1.0,166.665,61.432,61.432,49.85,49.85,34.0,-18.792,19.883333333333333,-25.12,27.2975,0.0,1782.216,-0.22499999999999787,100.0,20.982,21.256,41.462,41.917,0.0,0.0,100.0,0.0,0.0,0.0,0.0,2458.625,2345.7,3893.2,3916.1000000000004,307.46233333333333,307.173,315.352,315.01675,21.788888888888888,20.5209,21.87211111111111,21.421,314.999998,314.999998,324.999988,324.999988,99.55417142857142,99.50651666666667,99.56381428571429,99.54581428571429,0.06725000000000003,-0.013000000000000001,-0.09133333333333338,0.11966666666666681,-0.05333333333332746,-0.03999999999999915,1.5703333333333334,1.573,37.181,29.255499999999998,37.7,34.8815,53.869,33.879999999999995,58.286500000000004,51.7765,51.884,33.1215,56.9105,50.172666666666665,51.054,32.731,56.819,49.628,-0.06099999999999994,-0.02200000000000024,0.09999000000000001,0.10813,0.0,214.745,214.74,211.65666666666667,211.65666666666667,0.0,0.0
19,0.0,0.0,0.0,1.0,1.0,0.0,0.0,1.0,0.0,100.0,1.0,1.1856,26.0,0.0,0.0,0.0,59.999996,0.0,26.0,26.0,26.0,26.0,0.015333333333333421,0.3034000000000001,-0.0273,297.363,-2.8233,-2.76025,-1.61805,-1.5905,-211.43,215.3025,190.59675,0.0,0.0,0.0,0.0,0.038933333333333375,-5.498166666666667,-5.498166666666667,-0.4187,0.5229999999999999,0.010888888888888948,0.7410000000000001,68.752,0.012100000000000001,-0.054025000000000004,-0.11399999999999988,100.0,1.0,1.0,212.10666666666668,0.0,0.0,0.0,0.0,0.0,0.0,0.0,8990.4,0.0,55.0,5.0,247.47333333333336,1.0,0.0,0.0,0.0,0.0,0.0,1.0,0.0,0.9570000000000007,0.9570000000000007,0.0,0.0,1.0,55.0,616.79921,10000.0,85.000001,85.000001,85.000001,85.000001,395.0,0.0,0.0,0.0,1.0,166.665,61.111,61.111,49.515,49.515,34.0,-18.598,20.266666666666666,-27.583333333333332,28.825,0.0,1782.166,-0.23499999999999943,100.0,21.565,21.398,41.567,41.879,0.0,0.0,100.0,0.0,0.0,0.0,0.0,2367.375,2456.4,4042.0,4038.6000000000004,307.5283333333333,307.1306666666667,315.0815,314.82475,21.797333333333334,20.5254,21.88211111111111,21.4299,314.999998,314.999998,324.999988,324.999988,99.55418571428571,99.50651666666667,99.56397142857143,99.54595714285715,0.06875000000000009,-0.00675,-0.09199999999999997,0.1246666666666667,-0.045000000000001705,-0.051666666666669414,1.556,1.548,37.233000000000004,29.284,37.763,34.937,53.849999999999994,33.91,58.3255,51.839,51.866,33.1495,56.947,50.233000000000004,51.035,32.7575,56.8525,49.687,-0.058666666666666645,-0.027000000000000135,0.10627500000000001,0.10352000000000001,0.0,215.24,215.25,212.10666666666668,212.10666666666668,0.0,0.0
20,0.0,0.0,0.0,1.0,1.0,0.0,0.0,1.0,0.0,100.0,1.0,1.1856,26.0,0.0,0.0,0.0,59.999996,0.0,26.0,26.0,26.0,26.0,0.0022222222222221255,0.3002,-0.046,297.379,-2.8013,-2.761625,-1.58905,-1.524,-208.13,215.2975,190.5755,0.0,0.0,0.0,0.0,0.04086666666666661,-5.498166666666667,-5.498166666666667,-0.4292,-0.633,0.009777777777777885,0.6460000000000001,68.897,0.0103,-0.07377500000000001,-0.1459999999999999,100.0,1.0,1.0,212.5366666666667,0.0,0.0,0.0,0.0,0.0,0.0,0.0,9008.6,0.0,55.0,5.0,247.99666666666667,0.0,0.0,0.0,0.0,0.0,0.0,0.0,0.0,1.004999999999999,1.004999999999999,0.0,0.0,0.0,55.0,616.79921,10000.0,85.000001,85.000001,85.000001,85.000001,395.0,0.0,0.0,0.0,1.0,333.33500000000004,61.295,61.295,49.057,49.057,34.0,-18.509999999999998,20.935000000000002,-27.11,27.105,0.0,1782.116,-0.23000000000000043,100.0,21.224,21.187,42.053,42.191,0.0,0.0,100.0,0.0,0.0,0.0,0.0,2356.5,2518.6,3960.6,3969.8,307.6123333333333,306.90933333333334,315.1355,315.05825,21.805,20.5296,21.891777777777776,21.4384,314.999998,314.999998,324.999988,324.999988,99.55418571428571,99.50651666666667,99.5641,99.5461,0.06174999999999997,-0.00675,-0.09999999999999998,0.12200000000000011,-0.061666666666667425,-0.04833333333333201,1.558,1.56,37.281,29.3095,37.823,34.99,53.829,33.9375,58.366,51.899,51.847,33.1745,56.985,50.290333333333336,51.016,32.7815,56.8875,49.74333333333333,-0.05166666666666675,-0.01750000000000007,0.10924,0.10549000000000001,0.0,215.66,215.66500000000002,212.5366666666667,212.5366666666667,0.0,0.0
21,0.0,0.0,0.0,1.0,1.0,0.0,0.0,1.0,0.0,100.0,1.0,1.1856,26.0,0.0,0.0,0.0,59.999996,0.0,26.0,26.0,26.0,26.0,0.032666666666666844,0.29890000000000017,-0.02266666666666667,297.409,-2.7912,-2.819,-1.5519,-1.514125,-204.61,215.29250000000002,190.55225,0.0,0.0,0.0,0.0,0.04289999999999994,-5.498166666666667,-5.498166666666667,-0.4418,0.22599999999999998,-0.0003333333333332966,-0.754,69.048,0.0091,-0.06582500000000001,-0.06200000000000028,100.0,1.0,1.0,213.06333333333333,0.0,0.0,0.0,0.0,0.0,0.0,0.0,9031.0,0.0,55.0,5.0,248.54000000000002,1.0,0.0,0.0,0.0,0.0,0.0,0.0,0.0,1.056000000000001,1.056000000000001,0.0,0.0,1.0,55.0,616.79921,10000.0,85.000001,85.000001,85.000001,85.000001,395.0,0.0,0.0,0.0,1.0,166.665,61.142,61.142,49.561,49.561,34.0,-20.434,20.653333333333332,-26.83,26.9175,0.0,1782.066,-0.2699999999999996,100.0,21.119,21.291,41.633,41.97,0.0,0.0,100.0,0.0,0.0,0.0,0.0,2563.125,2429.7,3979.1,3976.5,307.18966666666665,306.946,315.2165,315.0025,21.813333333333333,20.534,21.901666666666667,21.4472,314.999998,314.999998,324.999988,324.999988,99.55418571428571,99.50653333333334,99.56424285714286,99.54624285714286,0.052000000000000046,-0.00925,-0.10599999999999998,0.11916666666666687,-0.061666666666667425,-0.06666666666666998,1.5796666666666668,1.574,37.333,29.3375,37.885999999999996,35.045,53.809,33.966499999999996,58.4045,51.959,51.827,33.201499999999996,57.0205,50.348333333333336,50.995999999999995,32.807,56.92,49.8,-0.05566666666666675,-0.012500000000000178,0.11067500000000001,0.11423000000000001,0.0,216.155,216.16,213.06333333333333,213.06333333333333,0.0,0.0
22,0.0,0.0,0.0,1.0,1.0,0.0,0.0,1.0,0.0,100.0,1.0,1.1856,26.0,0.0,0.0,0.0,59.999996,0.0,26.0,26.0,26.0,26.0,0.015555555555555545,0.30279999999999996,0.04476666666666667,296.844,-2.7527,-2.7605,-1.55945,-1.572125,-201.09,215.29000000000002,190.52825,0.0,0.0,0.0,0.0,0.0449666666666666,-5.498166666666667,-5.498166666666667,-0.42850000000000005,-0.07400000000000007,0.011333333333333195,1.0,69.203,0.0079,-0.05075,-0.16600000000000037,100.0,1.0,1.0,213.35666666666668,0.0,0.0,0.0,0.0,0.0,0.0,0.0,9043.4,0.0,55.0,5.0,249.09666666666666,0.0,0.0,0.0,0.0,0.0,0.0,0.0,0.0,1.1069999999999993,1.1069999999999993,0.0,0.0,0.0,55.0,616.79921,10000.0,85.000001,85.000001,85.000001,85.000001,395.0,0.0,0.0,0.0,1.0,166.665,60.913,60.913,48.721000000000004,48.721000000000004,34.0,-19.008,21.78333333333333,-28.419999999999998,30.6075,0.0,1782.016,-0.3000000000000007,100.0,21.371,21.193,41.991,42.094,0.0,0.0,100.0,0.0,0.0,0.0,0.0,2455.625,2596.2,4167.9,4282.2,307.19733333333335,306.6766666666667,314.676,314.26475,21.821555555555555,20.5384,21.91188888888889,21.4562,314.999998,314.999998,324.999988,324.999988,99.5542,99.50653333333334,99.5644,99.5464,0.06899999999999995,-0.0032500000000000003,-0.09699999999999998,0.1200000000000001,-0.041666666666671404,-0.04833333333333201,1.5110000000000001,1.5010000000000001,37.385,29.365000000000002,37.949,35.1015,53.788,33.9955,58.446,52.022,51.808,33.228,57.06,50.409,50.976,32.832499999999996,56.9565,49.85933333333333,-0.06699999999999995,-0.014499999999999957,0.10025,0.10907000000000001,0.0,216.625,216.62,213.35666666666668,213.35666666666668,0.0,0.0
23,0.0,0.0,0.0,1.0,1.0,0.0,0.0,1.0,0.0,100.0,1.0,1.1856,26.0,0.0,0.0,0.0,59.999996,0.0,26.0,26.0,26.0,26.0,0.00811111111111118,0.31089999999999995,0.0056,296.982,-2.7579000000000002,-2.78525,-1.51675,-1.522875,-197.76,215.2875,190.505875,0.0,0.0,0.0,0.0,0.04689999999999994,-5.498166666666667,-5.498166666666667,-0.443,-0.3185,0.008999999999999897,0.855,69.344,0.007200000000000001,-0.07072500000000001,-0.21999999999999975,100.0,1.0,1.0,213.84,0.0,0.0,0.0,0.0,0.0,0.0,0.0,9063.8,0.0,55.0,5.0,249.60666666666668,1.0,0.0,0.0,0.0,0.0,0.0,0.0,0.0,1.1550000000000011,1.1550000000000011,0.0,0.0,1.0,55.0,616.79921,10000.0,85.000001,85.000001,85.000001,85.000001,395.0,0.0,0.0,0.0,1.0,333.33500000000004,61.081,61.081,48.888999999999996,48.888999999999996,34.0,-18.412,20.756666666666668,-26.403333333333336,29.2275,0.0,1781.965,-0.3299999999999983,100.0,21.535,21.292,42.211,42.268,0.0,0.0,100.0,0.0,0.0,0.0,0.0,2396.75,2489.0,4023.1,4177.1,307.43266666666665,306.95933333333335,314.928,314.55975,21.82922222222222,20.5426,21.921444444444443,21.4647,314.999998,314.999998,324.999988,324.999988,99.55421428571428,99.50653333333334,99.56454285714285,99.54652857142857,0.07024999999999992,-0.00975,-0.09150000000000003,0.12683333333333335,-0.03999999999999915,-0.05833333333333002,1.538,1.5270000000000001,37.433,29.3915,38.009,35.1545,53.769,34.022999999999996,58.4845,52.081,51.79,33.2535,57.0955,50.465666666666664,50.957,32.857,56.989,49.91466666666666,-0.06633333333333313,-0.014000000000000234,0.10773,0.102915,0.0,217.05,217.055,213.84,213.84,0.0,0.0
24,0.0,0.0,0.0,1.0,1.0,0.0,0.0,1.0,0.0,100.0,1.0,1.1856,26.0,0.0,0.0,0.0,59.999996,0.0,26.0,26.0,26.0,26.0,0.016111111111111187,0.2974000000000001,-0.06003333333333334,297.47,-2.8032,-2.793875,-1.53075,-1.54325,-194.43,215.285,190.483,0.0,0.0,0.0,0.0,0.048833333333333395,-5.498166666666667,-5.498166666666667,-0.4572,-0.4590000000000001,0.014555555555555655,1.012,69.486,0.007500000000000001,-0.065275,-0.2160000000000002,100.0,1.0,1.0,214.33666666666667,0.0,0.0,0.0,0.0,0.0,0.0,0.0,9084.9,0.0,55.0,5.0,250.11666666666667,0.0,0.0,0.0,0.0,0.0,0.0,0.0,0.0,1.2029999999999994,1.2029999999999994,0.0,0.0,0.0,55.0,616.79921,10000.0,85.000001,85.000001,85.000001,85.000001,395.0,0.0,0.0,0.0,1.0,166.665,61.63,61.63,49.286,49.286,34.0,-17.932,20.485,-25.856666666666666,27.9675,0.0,1781.92,-0.33500000000000085,100.0,21.259,21.014,42.082,42.13,0.0,0.0,100.0,0.0,0.0,0.0,0.0,2315.25,2436.2,3923.2,4026.1000000000004,307.775,307.165,315.2385,314.90225,21.83688888888889,20.5467,21.930888888888887,21.4731,314.999998,314.999998,324.999988,324.999988,99.55421428571428,99.50653333333334,99.56467142857143,99.54667142857143,0.06800000000000006,-0.00175,-0.09650000000000003,0.12450000000000006,-0.04833333333333201,-0.05333333333332746,1.567,1.573,37.480999999999995,29.417,38.068,35.207,53.748999999999995,34.049,58.521,52.1385,51.771,33.2775,57.1295,50.52066666666666,50.938,32.8795,57.0205,49.968333333333334,-0.06833333333333313,-0.011499999999999844,0.10049000000000001,0.11258000000000001,0.0,217.485,217.495,214.33666666666667,214.33666666666667,0.0,0.0
25,0.0,0.0,0.0,1.0,1.0,0.0,0.0,1.0,0.0,100.0,1.0,1.1856,26.0,0.0,0.0,0.0,59.999996,0.0,26.0,26.0,26.0,26.0,0.03433333333333333,0.2962,-0.005433333333333333,297.058,-2.7808,-2.76275,-1.5703,-1.539375,-190.88,215.2825,190.457375,0.0,0.0,0.0,0.0,0.050899999999999945,-5.498166666666667,-5.498166666666667,-0.4672,0.363,0.015222222222222026,-0.983,69.635,0.0106,-0.057300000000000004,-0.23599999999999977,100.0,1.0,1.0,214.80333333333334,0.0,0.0,0.0,0.0,0.0,0.0,0.0,9104.7,0.0,55.0,5.0,250.65333333333334,1.0,0.0,0.0,0.0,0.0,0.0,0.0,0.0,1.2540000000000013,1.2540000000000013,0.0,0.0,1.0,55.0,616.79921,10000.0,85.000001,85.000001,85.000001,85.000001,395.0,0.0,0.0,0.0,1.0,166.665,60.73,60.73,49.132999999999996,49.132999999999996,34.0,-20.605999999999998,21.451666666666668,-27.023333333333333,27.29,0.0,1781.868,-0.34999999999999787,100.0,21.225,21.522,41.785,42.032,0.0,0.0,100.0,0.0,0.0,0.0,0.0,2606.375,2548.2,4039.9,4012.9,307.03333333333336,306.56,315.10675,314.8935,21.845,20.5513,21.94088888888889,21.482,314.999998,314.999998,324.999988,324.999988,99.55422857142857,99.50653333333334,99.56481428571429,99.54681428571429,0.05824999999999991,-0.01025,-0.09499999999999997,0.11250000000000004,-0.060000000000002274,-0.04999999999999716,1.5713333333333332,1.565,37.532,29.4455,38.131,35.2625,53.727999999999994,34.079,58.5595,52.198499999999996,51.751000000000005,33.305,57.1655,50.57866666666666,50.917,32.906,57.0535,50.025333333333336,-0.06733333333333325,-0.014499999999999957,0.09954500000000001,0.10465500000000001,0.0,217.965,217.97,214.80333333333334,214.80333333333334,0.0,0.0
26,0.0,0.0,0.0,1.0,1.0,0.0,0.0,1.0,0.0,100.0,1.0,1.1856,26.0,0.0,0.0,0.0,59.999996,0.0,26.0,26.0,26.0,26.0,0.02822222222222215,0.3033000000000001,0.0574,296.387,-2.8062,-2.760375,-1.5364499999999999,-1.54325,-187.32,215.28,190.43175,0.0,0.0,0.0,0.0,0.052966666666666606,-5.498166666666667,-5.498166666666667,-0.4408,0.051999999999999935,0.009888888888888836,1.1099999999999999,69.787,0.012100000000000001,-0.04725,-0.2599999999999998,100.0,1.0,1.0,215.09333333333333,0.0,0.0,0.0,0.0,0.0,0.0,0.0,9117.0,0.0,55.0,5.0,251.20333333333335,0.0,0.0,0.0,0.0,0.0,0.0,0.0,0.0,1.3049999999999997,1.3049999999999997,0.0,0.0,0.0,55.0,616.79921,10000.0,85.000001,85.000001,85.000001,85.000001,395.0,0.0,0.0,0.0,1.0,166.665,60.653999999999996,60.653999999999996,48.141,48.141,34.0,-18.564,21.5,-28.28,31.490000000000002,0.0,1781.817,-0.34499999999999886,100.0,21.929,21.6,42.465,42.57,0.0,0.0,100.0,0.0,0.0,0.0,0.0,2395.75,2561.7,4233.2,4318.4,307.40633333333335,306.794,314.49075,314.1705,21.85333333333333,20.5559,21.95122222222222,21.4912,314.999998,314.999998,324.999988,324.999988,99.55422857142857,99.50655,99.56497142857143,99.54697142857142,0.0767500000000001,-0.0015,-0.08683333333333332,0.13450000000000006,-0.03833333333332689,-0.05333333333332746,1.4796666666666667,1.467,37.583,29.474,38.195,35.32,53.71,34.109,58.602000000000004,52.263,51.733999999999995,33.333,57.205,50.64066666666667,50.9,32.933,57.09,50.086,-0.07233333333333314,-0.016999999999999904,0.10617000000000001,0.11182,0.0,218.425,218.44,215.09333333333333,215.09333333333333,0.0,0.0
27,0.0,0.0,0.0,1.0,1.0,0.0,0.0,1.0,0.0,100.0,1.0,1.1856,26.0,0.0,0.0,0.0,59.999996,0.0,26.0,26.0,26.0,26.0,0.03788888888888886,0.28780000000000006,-0.053500000000000006,296.844,-2.7994,-2.746875,-1.6286,-1.586,-183.76,215.28,190.406875,0.0,0.0,0.0,0.0,0.05503333333333338,-5.498166666666667,-5.498166666666667,-0.4698,-0.563,0.018333333333333313,-0.768,69.934,0.0146,-0.08065,-0.2699999999999996,100.0,1.0,1.0,215.70666666666668,0.0,0.0,0.0,0.0,0.0,0.0,0.0,9143.1,0.0,55.0,5.0,251.73000000000002,1.0,0.0,0.0,0.0,0.0,0.0,0.0,0.0,1.355999999999998,1.355999999999998,0.0,0.0,1.0,55.0,616.79921,10000.0,85.000001,85.000001,85.000001,85.000001,395.0,0.0,0.0,0.0,1.0,166.665,60.822,60.822,48.935,48.935,34.0,-19.561999999999998,20.818333333333335,-26.509999999999998,28.125,0.0,1781.766,-0.39000000000000057,100.0,21.417,21.705,42.503,42.784,0.0,0.0,100.0,0.0,0.0,0.0,0.0,2518.875,2492.9,3884.9,4001.6000000000004,307.27566666666667,306.83166666666665,315.4255,314.83075,21.861333333333334,20.5604,21.961333333333332,21.5003,314.999998,314.999998,324.999988,324.999988,99.55424285714285,99.50655,99.56511428571429,99.54711428571429,0.07024999999999992,-0.006,-0.09283333333333332,0.11549999999999994,-0.05833333333333002,-0.045000000000001705,1.5683333333333334,1.559,37.634,29.502499999999998,38.257999999999996,35.3765,53.689,34.1385,58.641999999999996,52.3255,51.714,33.36,57.2425,50.70033333333333,50.879000000000005,32.9585,57.1245,50.144333333333336,-0.07033333333333314,-0.010000000000000231,0.11052500000000001,0.0995,0.0,218.86,218.86,215.70666666666668,215.70666666666668,0.0,0.0
28,0.0,0.0,0.0,1.0,1.0,0.0,0.0,1.0,0.0,100.0,1.0,1.1856,26.0,0.0,0.0,0.0,59.999996,0.0,26.0,26.0,26.0,26.0,0.02722222222222226,0.3006,-0.031933333333333334,296.936,-2.8153,-2.7855,-1.54895,-1.534875,-180.19,215.28,190.381,0.0,0.0,0.0,0.0,0.05709999999999993,-5.498166666666667,-5.498166666666667,-0.4616,0.3265,0.0023333333333332984,0.4730000000000001,70.082,0.015700000000000002,-0.045625,-0.3379999999999992,100.0,1.0,1.0,216.11,0.0,0.0,0.0,0.0,0.0,0.0,0.0,9160.2,0.0,55.0,5.0,252.26333333333332,0.0,0.0,0.0,0.0,0.0,0.0,0.0,0.0,1.407,1.407,0.0,0.0,0.0,55.0,616.79921,10000.0,85.000001,85.000001,85.000001,85.000001,395.0,0.0,0.0,0.0,1.0,166.665,61.279,61.279,48.553,48.553,34.0,-17.752,20.935000000000002,-26.89,29.605,0.0,1781.714,-0.41499999999999915,100.0,21.48,21.443,42.272,42.402,0.0,0.0,100.0,0.0,0.0,0.0,0.0,2330.375,2450.3,4098.3,4184.5,307.7083333333333,307.06733333333335,314.86775,314.59175,21.869444444444444,20.5649,21.971333333333334,21.5092,314.999998,314.999998,324.999988,324.999988,99.55424285714285,99.50655,99.56525714285715,99.54725714285715,0.08224999999999993,0.0075,-0.08316666666666661,0.1313333333333333,-0.05666666666667197,-0.054999999999999716,1.5396666666666667,1.54,37.684,29.531,38.321,35.4325,53.668,34.168,58.68,52.3855,51.695,33.387,57.278,50.757999999999996,50.86,32.9845,57.157,50.20066666666666,-0.07200000000000006,-0.0045000000000001705,0.11088500000000001,0.10419500000000001,0.0,219.35500000000002,219.37,216.11,216.11,0.0,0.0
29,0.0,0.0,0.0,1.0,1.0,0.0,0.0,1.0,0.0,100.0,1.0,1.1856,26.0,0.0,0.0,0.0,59.999996,0.0,26.0,26.0,26.0,26.0,0.025111111111111084,0.2855000000000001,0.010133333333333333,296.585,-2.8567,-2.8485,-1.58495,-1.5565,-176.82,215.2825,190.355875,0.0,0.0,0.0,0.0,0.0590666666666666,-5.498166666666667,-5.498166666666667,-0.47690000000000005,-0.5569999999999999,-0.0013333333333331865,0.641,70.22200000000001,0.0166,-0.05985,-0.33999999999999986,100.0,1.0,1.0,216.51333333333332,0.0,0.0,0.0,0.0,0.0,0.0,0.0,9177.1,0.0,55.0,5.0,252.76666666666665,1.0,0.0,0.0,0.0,0.0,0.0,0.0,0.0,1.4549999999999983,1.4549999999999983,0.0,0.0,1.0,55.0,616.79921,10000.0,85.000001,85.000001,85.000001,85.000001,395.0,0.0,0.0,0.0,1.0,166.665,60.501,60.501,48.629999999999995,48.629999999999995,34.0,-20.805999999999997,24.298333333333332,-27.06,29.2925,0.0,1781.667,-0.504999999999999,100.0,21.399,21.343,42.504,42.634,0.0,0.0,100.0,0.0,0.0,0.0,0.0,2651.5,2739.8,4015.0,4087.1000000000004,306.8743333333333,306.30966666666666,315.0585,314.73875,21.877,20.5692,21.981,21.5178,314.999998,314.999998,324.999988,324.999988,99.55425714285714,99.50655,99.5654,99.5474,0.08224999999999993,0.0125,-0.08933333333333338,0.1326666666666667,-0.03499999999999659,-0.05833333333333002,1.5343333333333333,1.532,37.730999999999995,29.557000000000002,38.381,35.486,53.649,34.195499999999996,58.719,52.4445,51.676,33.412,57.314499999999995,50.81466666666667,50.841,33.0085,57.1905,50.256,-0.08166666666666678,-0.0040000000000000036,0.11169000000000001,0.10058500000000001,0.0,219.74,219.76,216.51333333333332,216.51333333333332,0.0,0.0
30,0.0,0.0,0.0,1.0,1.0,0.0,0.0,1.0,0.0,100.0,1.0,1.1856,26.0,0.0,0.0,0.0,59.999996,0.0,26.0,26.0,26.0,26.0,0.024555555555555664,0.32289999999999996,0.06793333333333335,295.959,-2.824,-2.753,-1.5086,-1.453125,-173.45,215.2825,190.33075,0.0,0.0,0.0,0.0,0.061033333333333384,-5.498166666666667,-5.498166666666667,-0.46240000000000003,0.855,0.00533333333333319,1.108,70.36,0.023100000000000002,-0.0497,-0.5099999999999998,100.0,1.0,1.0,216.86,0.0,0.0,0.0,0.0,0.0,0.0,0.0,9191.9,0.0,55.0,5.0,253.26333333333332,0.0,0.0,0.0,0.0,0.0,0.0,1.0,0.0,1.5030000000000001,1.5030000000000001,0.0,0.0,0.0,55.0,616.79921,10000.0,85.000001,85.000001,85.000001,85.000001,395.0,0.0,0.0,0.0,1.0,166.665,60.165,60.165,47.897,47.897,34.0,-19.052,22.235,-27.75,31.355,0.0,1781.62,-0.5199999999999996,100.0,22.195,21.988,42.471000000000004,42.704,0.0,0.0,100.0,0.0,0.0,0.0,0.0,2484.375,2591.3,4269.2,4470.4,307.14233333333334,306.5466666666667,314.35075,313.9655,21.884777777777778,20.5736,21.990555555555556,21.5263,314.999998,314.999998,324.999988,324.999988,99.55427142857143,99.50655,99.56554285714286,99.54754285714286,0.09075000000000011,0.00725,-0.07983333333333331,0.13850000000000007,-0.041666666666671404,-0.054999999999999716,1.5116666666666667,1.499,37.78,29.585,38.441,35.539500000000004,53.632999999999996,34.2255,58.756,52.5025,51.662,33.439499999999995,57.349000000000004,50.870666666666665,50.826,33.035,57.222,50.311,-0.08233333333333315,-0.00550000000000006,0.11114500000000001,0.10061500000000001,0.0,220.21,220.24,216.86,216.86,0.0,0.0
31,0.0,0.0,0.0,1.0,1.0,0.0,0.0,1.0,0.0,100.0,1.0,1.1856,26.0,0.0,0.0,0.0,59.999996,0.0,26.0,26.0,26.0,26.0,0.059111111111111114,0.27880000000000016,0.006166666666666667,296.143,-2.8131,-2.79175,-1.63345,-1.525625,-169.86,215.285,190.304875,0.0,0.0,0.0,0.0,0.06309999999999993,-5.498166666666667,-5.498166666666667,-0.4536,-0.42300000000000004,0.016555555555555657,-0.829,70.507,0.029900000000000003,-0.0594,-0.48599999999999977,100.0,1.0,1.0,217.31333333333333,0.0,0.0,0.0,0.0,0.0,0.0,0.0,9211.2,0.0,55.0,5.0,253.79333333333335,1.0,0.0,0.0,0.0,0.0,0.0,1.0,0.0,1.5539999999999985,1.5539999999999985,0.0,0.0,1.0,55.0,616.79921,10000.0,85.000001,85.000001,85.000001,85.000001,395.0,0.0,0.0,0.0,1.0,333.33500000000004,60.562,60.562,47.501,47.501,34.0,-18.23,21.46,-28.036666666666665,30.3325,0.0,1781.567,-0.4450000000000003,100.0,21.708,22.289,43.038,43.461,0.0,0.0,100.0,0.0,0.0,0.0,0.0,2384.25,2496.9,4097.3,4201.8,307.6686666666667,306.67633333333333,314.8905,314.44625,21.89288888888889,20.5783,22.000888888888888,21.5356,314.999998,314.999998,324.999988,324.999988,99.55427142857143,99.50655,99.5657,99.5477,0.07750000000000012,-0.0025,-0.07966666666666666,0.13800000000000012,-0.045000000000001705,-0.04999999999999716,1.4956666666666667,1.498,37.83,29.613999999999997,38.504999999999995,35.5975,53.614000000000004,34.2555,58.798,52.567,51.643,33.468,57.3885,50.93266666666666,50.806,33.0615,57.257999999999996,50.37166666666667,-0.07200000000000006,-0.014000000000000234,0.10798,0.10523,0.0,220.64,220.65,217.31333333333333,217.31333333333333,0.0,0.0
32,0.0,0.0,0.0,1.0,1.0,0.0,0.0,1.0,0.0,100.0,1.0,1.1856,26.0,0.0,0.0,0.0,59.999996,0.0,26.0,26.0,26.0,26.0,0.04555555555555557,0.2933000000000001,-0.07673333333333333,296.57,-2.8623000000000003,-2.752375,-1.6487500000000002,-1.53975,-166.05,215.29000000000002,190.2775,0.0,0.0,0.0,0.0,0.06533333333333335,-5.498166666666667,-5.498166666666667,-0.4732,-0.20900000000000007,-0.00855555555555565,-0.958,70.65899999999999,0.0302,-0.061200000000000004,-0.3179999999999996,100.0,1.0,1.0,217.91,0.0,0.0,0.0,0.0,0.0,0.0,0.0,9236.4,0.0,55.0,5.0,254.34,0.0,0.0,0.0,0.0,0.0,0.0,1.0,0.0,1.6080000000000005,1.6080000000000005,0.0,0.0,0.0,55.0,616.79921,10000.0,85.000001,85.000001,85.000001,85.000001,395.0,0.0,0.0,0.0,1.0,166.665,60.776,60.776,48.477000000000004,48.477000000000004,34.0,-19.775999999999996,20.851666666666667,-27.3,28.775,0.0,1781.514,-0.4800000000000004,100.0,21.519,21.932,42.694,43.205,0.0,0.0,100.0,0.0,0.0,0.0,0.0,2572.0,2417.4,4056.2,4018.0,307.23066666666665,307.06266666666664,315.121,314.953,21.901333333333334,20.5831,22.011555555555557,21.545099999999998,314.999998,314.999998,324.999988,324.999988,99.55428571428571,99.50656666666667,99.56584285714285,99.54785714285714,0.08824999999999994,0.017750000000000002,-0.07833333333333337,0.1423333333333332,-0.061666666666667425,-0.04833333333333201,1.582,1.564,37.882999999999996,29.6445,38.572,35.657,53.593,34.287,58.8375,52.6315,51.623000000000005,33.4965,57.4255,50.99466666666667,50.786,33.0895,57.2915,50.432,-0.08066666666666666,-0.0015000000000000568,0.11058000000000001,0.10561500000000001,0.0,221.10000000000002,221.13,217.91,217.91,0.0,0.0
33,0.0,0.0,0.0,1.0,1.0,0.0,0.0,1.0,0.0,100.0,1.0,1.1856,26.0,0.0,0.0,0.0,59.999996,0.0,26.0,26.0,26.0,26.0,0.05177777777777792,0.29900000000000015,-0.014566666666666667,296.57,-2.7972,-2.79725,-1.6223,-1.526,-162.64999999999998,215.29500000000002,190.25175,0.0,0.0,0.0,0.0,0.06729999999999992,-5.498166666666667,-5.498166666666667,-0.4824,-0.31099999999999994,0.00022222222222212373,-0.05999999999999994,70.79599999999999,0.0287,-0.047850000000000004,-0.347999999999999,100.0,1.0,1.0,218.26,0.0,0.0,0.0,0.0,0.0,0.0,0.0,9251.2,0.0,55.0,5.0,254.83333333333334,1.0,0.0,0.0,0.0,0.0,0.0,1.0,0.0,1.6559999999999988,1.6559999999999988,0.0,0.0,1.0,55.0,616.79921,10000.0,85.000001,85.000001,85.000001,85.000001,395.0,0.0,0.0,0.0,1.0,166.665,61.081,61.081,48.157,48.157,34.0,-18.04,20.62166666666667,-28.256666666666668,29.84,0.0,1781.466,-0.5549999999999997,100.0,21.402,21.747,42.632,43.068,0.0,0.0,100.0,0.0,0.0,0.0,0.0,2446.375,2381.2,4173.9,4144.6,307.4993333333333,307.08733333333333,314.80925,314.62675,21.90877777777778,20.5873,22.02111111111111,21.5536,314.999998,314.999998,324.999988,324.999988,99.55428571428571,99.50656666666667,99.566,99.548,0.09725000000000006,0.00875,-0.08116666666666661,0.14183333333333326,-0.07333333333333059,-0.04833333333333201,1.5466666666666666,1.5310000000000001,37.93,29.6705,38.632,35.710499999999996,53.574,34.3135,58.8745,52.6885,51.605000000000004,33.521,57.4595,51.04966666666667,50.768,33.1125,57.323,50.48566666666667,-0.09233333333333316,-0.000500000000000167,0.10212500000000001,0.11280000000000001,0.0,221.53,221.55,218.26,218.26,0.0,0.0
34,0.0,0.0,0.0,1.0,1.0,0.0,0.0,1.0,0.0,100.0,1.0,1.1856,26.0,0.0,0.0,0.0,59.999996,0.0,26.0,26.0,26.0,26.0,0.05600000000000005,0.2764,-0.06330000000000001,296.982,-2.8552,-2.717,-1.5891000000000002,-1.555375,-159.04,215.3025,190.222875,0.0,0.0,0.0,0.0,0.0693999999999999,-5.498166666666667,-5.498166666666667,-0.5208,-1.025,0.01911111111111108,0.40600000000000014,70.941,0.0263,-0.061275,-0.49799999999999933,100.0,1.0,1.0,218.73333333333335,0.0,0.0,0.0,0.0,0.0,0.0,0.0,9271.3,0.0,55.0,5.0,255.35666666666668,0.0,0.0,0.0,0.0,0.0,0.0,1.0,0.0,1.7070000000000007,1.7070000000000007,0.0,0.0,0.0,55.0,616.79921,10000.0,85.000001,85.000001,85.000001,85.000001,395.0,0.0,0.0,0.0,1.0,166.665,61.478,61.478,48.615,48.615,34.0,-16.802,21.825,-25.033333333333335,29.335,0.0,1781.414,-0.5500000000000007,100.0,21.164,21.377,42.516999999999996,43.048,0.0,0.0,100.0,0.0,0.0,0.0,0.0,2240.25,2555.0,3888.0,4032.5,307.9963333333333,306.8643333333333,315.36825,314.82,21.916555555555554,20.5917,22.031111111111112,21.5628,314.999998,314.999998,324.999988,324.999988,99.5543,99.50656666666667,99.56614285714285,99.54815714285715,0.09624999999999995,0.021750000000000002,-0.06899999999999995,0.14149999999999996,-0.045000000000001705,-0.05333333333332746,1.555,1.5350000000000001,37.977999999999994,29.698,38.695,35.766999999999996,53.552,34.341,58.911,52.751,51.585,33.546,57.4935,51.10933333333333,50.745999999999995,33.1365,57.354,50.544,-0.08433333333333315,0.0035000000000000586,0.10387500000000001,0.10196000000000001,0.0,221.94,221.98000000000002,218.73333333333335,218.73333333333335,0.0,0.0
35,0.0,0.0,0.0,1.0,1.0,0.0,0.0,1.0,0.0,100.0,1.0,1.1856,26.0,0.0,0.0,0.0,59.999996,0.0,26.0,26.0,26.0,26.0,0.03733333333333322,0.28690000000000015,-0.04996666666666667,296.57,-2.8810000000000002,-2.767875,-1.59185,-1.514125,-155.63,215.31,190.194,0.0,0.0,0.0,0.0,0.07139999999999991,-5.498166666666667,-5.498166666666667,-0.5371,0.38549999999999995,-0.014111111111111185,-0.20899999999999996,71.075,0.0318,-0.050375,-0.3979999999999997,100.0,1.0,1.0,219.18,0.0,0.0,0.0,0.0,0.0,0.0,0.0,9290.2,0.0,55.0,5.0,255.83666666666664,1.0,0.0,0.0,0.0,0.0,0.0,1.0,0.0,1.754999999999999,1.754999999999999,0.0,0.0,1.0,55.0,616.79921,10000.0,85.000001,85.000001,85.000001,85.000001,395.0,0.0,0.0,0.0,1.0,166.665,60.547,60.547,48.629999999999995,48.629999999999995,34.0,-20.564,22.921666666666667,-25.349999999999998,29.7875,0.0,1781.368,-0.3249999999999993,100.0,21.374,21.796,42.327,42.579,0.0,0.0,100.0,0.0,0.0,0.0,0.0,2588.5,2653.7,3982.8,4111.8,307.0683333333333,306.41433333333333,315.19225,314.8085,21.924,20.5962,22.040555555555557,21.5711,314.999998,314.999998,324.999988,324.999988,99.55431428571428,99.50658333333334,99.56628571428571,99.5483,0.07800000000000007,0.00775,-0.06166666666666665,0.15450000000000008,-0.03499999999999659,-0.05666666666667197,1.569,1.56,38.025,29.726,38.753,35.8195,53.532,34.371,58.946,52.8045,51.566,33.574,57.525999999999996,51.16133333333333,50.727999999999994,33.163,57.3835,50.59466666666667,-0.06766666666666676,-0.016999999999999904,0.10563000000000002,0.10832000000000001,0.0,222.4,222.425,219.18,219.18,0.0,0.0
