,ABS Active,ABS Enabled,AID Allow Tire Blankets,AID Auto Blip,AID Auto Clutch,AID Auto Shift,AID Fuel Rate,AID Ideal Line,AID Mech Damage,AID Stability,AID Tire Wear Rate,Air Density,Air Temp,Ballast,Best Lap Delta,Best Lap Time,Brake Bias,Brake Pos,Brake Temp FL,Brake Temp FR,Brake Temp RL,Brake Temp RR,CG Accel Lateral,CG Accel Longitudinal,CG Accel Vertical,CG Height,Camber FL,Camber FR,Camber RL,Camber RR,Car Coord X,Car Coord Y,Car Coord Z,Car Damage Front,Car Damage Left,Car Damage Rear,Car Damage Right,Car Pos Norm,Caster FL,Caster FR,Chassis Pitch Angle,Chassis Pitch Rate,Chassis Roll Angle,Chassis Roll Rate,Chassis Velocity X,Chassis Velocity Y,Chassis Velocity Z,Chassis Yaw Rate,Clutch Pos,DRS Active,DRS Available,Drive Train Speed,ERS Heat Charging,ERS Is Charging,ERS Max Energy,ERS Power Level,ERS Recovery Level,Engine Brake Setting,Engine Limiter,Engine RPM,Flags,Fuel Level,Gear,Ground Speed,HR Sample Clock,In Pit,KERS Charge,KERS Deployed Energy,KERS Input,KERS Max Energy,LR Sample Clock,Lap Invalidated,Lap Time,Lap Time2,Last Lap Time,Last Sector Time,MR Sample Clock,Max Fuel,Max Power,Max RPM,Max Sus Travel FL,Max Sus Travel FR,Max Sus Travel RL,Max Sus Travel RR,Max Torque,Max Turbo Boost,Num Tires Off Track,Penalties Enabled,Position,Raw Data Sample Rate,Ride Height FL,Ride Height FR,Ride Height RL,Ride Height RR,Road Temp,Self Align Torque FL,Self Align Torque FR,Self Align Torque RL,Self Align Torque RR,Session Lap Count,Session Time Left,Steering Angle,Surface Grip,Suspension Travel FL,Suspension Travel FR,Suspension Travel RL,Suspension Travel RR,TC Active,TC Enabled,Throttle Pos,Tire Dirt Level FL,Tire Dirt Level FR,Tire Dirt Level RL,Tire Dirt Level RR,Tire Load FL,Tire Load FR,Tire Load RL,Tire Load RR,Tire Loaded Radius FL,Tire Loaded Radius FR,Tire Loaded Radius RL,Tire Loaded Radius RR,Tire Pressure FL,Tire Pressure FR,Tire Pressure RL,Tire Pressure RR,Tire Radius FL,Tire Radius FR,Tire Radius RL,Tire Radius RR,Tire Rubber Grip FL,Tire Rubber Grip FR,Tire Rubber Grip RL,Tire Rubber Grip RR,Tire Slip Angle FL,Tire Slip Angle FR,Tire Slip Angle RL,Tire Slip Angle RR,Tire Slip Ratio FL,Tire Slip Ratio FR,Tire Slip Ratio RL,Tire Slip Ratio RR,Tire Temp Core FL,Tire Temp Core FR,Tire Temp Core RL,Tire Temp Core RR,Tire Temp Inner FL,Tire Temp Inner FR,Tire Temp Inner RL,Tire Temp Inner RR,Tire Temp Middle FL,Tire Temp Middle FR,Tire Temp Middle RL,Tire Temp Middle RR,Tire Temp Outer FL,Tire Temp Outer FR,Tire Temp Outer RL,Tire Temp Outer RR,Toe In FL,Toe In FR,Toe In RL,Toe In RR,Turbo Boost,Wheel Angular Speed FL,Wheel Angular Speed FR,Wheel Angular Speed RL,Wheel Angular Speed RR,Wind Direction,Wind Speed
0,0.0,0.0,0.0,1.0,1.0,0.0,0.0,1.0,0.0,100.0,1.0,1.1856,26.0,0.0,0.0,0.0,59.99999,0.0,26.0,26.0,26.0,26.0,-0.06977777777777777,0.3500000000000001,0.0855,298.08,-2.7963,-2.738375,-1.4961,-1.539,-275.74,216.28750000000002,190.992,0.0,0.0,0.0,0.0,0.0015666666666666051,-5.498166666666667,-5.498166666666667,-0.47390000000000004,1.5223333333333333,-0.008999999999999897,-0.7629999999999999,65.78999999999999,-0.0408,-0.119525,0.9920000000000009,100.0,1.0,1.0,203.31,0.0,0.0,0.0,0.0,0.0,0.0,0.0,8617.5,0.0,55.0,5.0,236.81,0.0,0.0,0.0,0.0,0.0,0.0,0.0,0.0,0.0030000000000001137,0.0030000000000001137,0.0,0.0,0.0,55.0,616.79921,10000.0,85.0,85.0,85.0,85.0,395.0,0.0,0.0,0.0,1.0,20.0,59.158,59.158,51.804,51.804,34.0,-25.004,22.534,-27.52,22.255,0.0,1783.221,0.8599999999999994,100.0,22.106,21.533,39.06,39.059,0.0,0.0,100.0,0.0,0.0,0.0,0.0,2701.625,3062.7,3855.75,3752.7,306.639,305.0825,315.4993333333333,315.486,21.65088888888889,20.4448,21.70288888888889,21.2661,314.99999,314.99999,324.99998,324.99998,99.55451428571429,99.50633333333333,99.56208571428571,99.54338571428572,-0.03949999999999998,-0.09775,-0.16616666666666657,0.06099999999999994,-0.08500000000000085,-0.0799999999999983,1.6493333333333333,1.6905000000000001,36.318,28.779666666666664,36.643,33.913,54.442,33.348,57.828,50.733000000000004,52.432,32.6385,56.4995,49.16566666666667,51.6115,32.2755,56.4675,48.635666666666665,0.02499999999999991,-0.10850000000000026,0.10393000000000001,0.10877,0.0,206.155,206.065,203.31,203.31,0.0,0.0
1,0.0,0.0,0.0,1.0,1.0,0.0,0.0,1.0,0.0,100.0,1.0,1.1856,26.0,0.0,0.0,0.0,59.999996,0.0,26.0,26.0,26.0,26.0,-0.132,0.34950000000000014,0.06155,297.195,-2.7281,-2.847375,-1.5065,-1.5350000000000001,-272.38,216.2825,190.97175,0.0,0.0,0.0,0.0,0.0034999999999999476,-5.498166666666667,-5.498166666666667,-0.38430000000000003,-0.093,-0.05812499999999998,-0.516,65.961,-0.052700000000000004,-0.07055,1.290000000000001,100.0,1.0,1.0,203.32,0.0,0.0,0.0,0.0,0.0,0.0,0.0,8618.0,0.0,55.0,5.0,237.42666666666668,1.0,0.0,0.0,0.0,0.0,0.0,0.0,0.0,0.053999999999998494,0.053999999999998494,0.0,0.0,1.0,55.0,616.79921,10000.0,85.000001,85.000001,85.000001,85.000001,395.0,0.0,0.0,0.0,1.0,166.665,61.066,61.066,49.545,49.545,34.0,-21.692,13.824000000000002,-34.70333333333333,28.997500000000002,0.0,1783.17,1.004999999999999,100.0,22.223,21.595,41.327,40.254,0.0,0.0,100.0,0.0,0.0,0.0,0.0,2396.0,2039.1,4389.625,4706.9,307.4073333333333,308.35475,314.07933333333335,313.11625,21.659777777777776,20.448999999999998,21.713444444444445,21.275,314.999998,314.999998,324.999988,324.999988,99.55451428571429,99.50635,99.56222857142858,99.54352857142857,-0.04599999999999993,-0.12525,-0.18499999999999994,0.040166666666666684,-0.03999999999999915,-0.06333333333333258,1.4183333333333334,1.4595,36.373999999999995,28.806333333333335,36.709,33.9685,54.423,33.382,57.8775,50.8,52.414,32.6695,56.546,49.230000000000004,51.5925,32.305,56.510999999999996,48.69866666666667,0.035499999999999865,-0.12449999999999983,0.11345000000000001,0.11089500000000001,0.0,206.66500000000002,206.565,203.32,203.32,0.0,0.0
2,0.0,0.0,0.0,1.0,1.0,0.0,0.0,1.0,0.0,100.0,1.0,1.1856,26.0,0.0,0.0,0.0,59.999996,0.0,26.0,26.0,26.0,26.0,-0.1308888888888889,0.3066,-0.0145,297.974,-2.678,-2.8855,-1.4622,-1.60125,-269.01,216.275,190.953,0.0,0.0,0.0,0.0,0.005466666666666509,-5.498166666666667,-5.498166666666667,-0.45070000000000005,-0.36633333333333334,-0.05062500000000014,1.8630000000000004,66.117,-0.0714,-0.140375,1.6739999999999995,100.0,1.0,1.0,204.39666666666668,0.0,0.0,0.0,0.0,0.0,0.0,0.0,8663.6,0.0,55.0,5.0,237.98666666666668,0.0,0.0,0.0,0.0,0.0,0.0,0.0,0.0,0.10500000000000043,0.10500000000000043,0.0,0.0,0.0,55.0,616.79921,10000.0,85.000001,85.000001,85.000001,85.000001,395.0,0.0,0.0,0.0,1.0,333.33500000000004,59.708,59.708,51.91,51.91,34.0,-27.316000000000003,16.418,-27.1,18.485,0.0,1783.117,0.9499999999999993,100.0,22.621,21.396,41.341,40.062,0.0,0.0,100.0,0.0,0.0,0.0,0.0,2898.0,2366.8,3607.75,3468.3,305.9936666666667,307.339,315.967,316.28675,21.668888888888887,20.4529,21.723666666666666,21.2835,314.999998,314.999998,324.999988,324.999988,99.55452857142858,99.50636666666666,99.56237142857142,99.54367142857143,-0.06699999999999995,-0.135,-0.21550000000000002,0.007333333333333414,-0.04833333333333201,-0.07333333333333059,1.6876666666666666,1.7255,36.43,28.830666666666666,36.772999999999996,34.022,54.406,33.413,57.92,50.8615,52.397999999999996,32.698,56.585499999999996,49.288666666666664,51.576,32.332499999999996,56.548,48.75633333333333,0.027499999999999858,-0.11549999999999994,0.10493000000000001,0.11102500000000001,0.0,207.13,206.995,204.39666666666668,204.39666666666668,0.0,0.0
3,0.0,0.0,0.0,1.0,1.0,0.0,0.0,1.0,0.0,100.0,1.0,1.1856,26.0,0.0,0.0,0.0,59.999996,0.0,26.0,26.0,26.0,26.0,-0.13977777777777778,0.33430000000000004,0.09405000000000001,297.638,-2.8088,-2.776625,-1.4925000000000002,-1.574875,-265.63,216.265,190.933125,0.0,0.0,0.0,0.0,0.007433333333333292,-5.498166666666667,-5.498166666666667,-0.4078,0.427,-0.01100000000000012,0.129,66.28399999999999,-0.0907,-0.08157500000000001,1.1940000000000008,100.0,1.0,1.0,204.54333333333335,0.0,0.0,0.0,0.0,0.0,0.0,0.0,8669.9,0.0,55.0,5.0,238.58666666666667,1.0,0.0,0.0,0.0,0.0,0.0,0.0,0.0,0.1559999999999988,0.1559999999999988,0.0,0.0,1.0,55.0,616.79921,10000.0,85.000001,85.000001,85.000001,85.000001,395.0,0.0,0.0,0.0,1.0,166.665,60.837,60.837,49.713,49.713,34.0,-21.266,15.698,-33.54333333333334,23.9425,0.0,1783.068,0.7300000000000004,100.0,22.378,21.389,41.133,40.004,0.0,0.0,100.0,0.0,0.0,0.0,0.0,2292.0,2356.6,4185.75,4184.6,307.78433333333334,307.358,314.5593333333333,314.4825,21.677666666666667,20.4571,21.733777777777778,21.2921,314.999998,314.999998,324.999988,324.999988,99.55452857142858,99.50638333333333,99.56251428571429,99.54381428571429,-0.055749999999999966,-0.133,-0.21133333333333337,0.014499999999999957,-0.05666666666667197,-0.05666666666667197,1.5070000000000001,1.5474999999999999,36.485,28.857,36.836,34.0755,54.388,33.445499999999996,57.9585,50.922,52.381,32.728,56.622,49.346333333333334,51.5585,32.3605,56.582,48.812666666666665,0.01200000000000001,-0.09799999999999986,0.10319500000000001,0.11459500000000002,0.0,207.685,207.60000000000002,204.54333333333335,204.54333333333335,0.0,0.0
4,0.0,0.0,0.0,1.0,1.0,0.0,0.0,1.0,0.0,100.0,1.0,1.1856,26.0,0.0,0.0,0.0,59.999996,0.0,26.0,26.0,26.0,26.0,-0.15922222222222224,0.3356000000000001,-0.010925,297.836,-2.7402,-2.83025,-1.5081,-1.5855000000000001,-262.45,216.2525,190.9145,0.0,0.0,0.0,0.0,0.009299999999999975,-5.498166666666667,-5.498166666666667,-0.4388,-0.9470000000000001,-0.07912499999999989,-0.8130000000000002,66.437,-0.0912,-0.11715,1.112,100.0,1.0,1.0,205.13333333333333,0.0,0.0,0.0,0.0,0.0,0.0,0.0,8694.8,0.0,55.0,5.0,239.14,0.0,0.0,0.0,0.0,0.0,0.0,0.0,0.0,0.20400000000000063,0.20400000000000063,0.0,0.0,0.0,55.0,616.79921,10000.0,85.000001,85.000001,85.000001,85.000001,395.0,0.0,0.0,0.0,1.0,166.665,60.486,60.486,50.278,50.278,34.0,-24.604,16.41,-31.126666666666665,19.9,0.0,1783.02,0.7600000000000016,100.0,22.161,21.11,41.592,40.193,0.0,0.0,100.0,0.0,0.0,0.0,0.0,2628.875,2427.7,3975.75,3595.3,306.87533333333334,307.16725,315.02233333333334,315.86075,21.685777777777776,20.461,21.743555555555556,21.3002,314.999998,314.999998,324.999988,324.999988,99.55454285714286,99.5064,99.56264285714286,99.54394285714285,-0.06374999999999997,-0.1385,-0.20550000000000002,0.01633333333333331,-0.08166666666667055,-0.05666666666667197,1.5923333333333334,1.646,36.536,28.881333333333334,36.897,34.1265,54.367999999999995,33.4765,58.0005,50.9785,52.361999999999995,32.756,56.661,49.400999999999996,51.539500000000004,32.3875,56.6185,48.866,0.016999999999999904,-0.10050000000000026,0.10778000000000001,0.11012000000000001,0.0,208.10500000000002,207.99,205.13333333333333,205.13333333333333,0.0,0.0
5,0.0,0.0,0.0,1.0,1.0,0.0,0.0,1.0,0.0,100.0,1.0,1.1856,26.0,0.0,0.0,0.0,59.999996,0.0,26.0,26.0,26.0,26.0,-0.14244444444444446,0.3238000000000001,-0.014675,297.897,-2.749,-2.85625,-1.4861,-1.57625,-258.85,216.23250000000002,190.892875,0.0,0.0,0.0,0.0,0.011366666666666525,-5.498166666666667,-5.498166666666667,-0.43110000000000004,0.4236666666666667,-0.08550000000000013,1.173,66.607,-0.094,-0.0942,1.0760000000000005,100.0,1.0,1.0,205.62666666666667,0.0,0.0,0.0,0.0,0.0,0.0,0.0,8715.8,0.0,55.0,5.0,239.75,1.0,0.0,0.0,0.0,0.0,0.0,0.0,0.0,0.2579999999999991,0.2579999999999991,0.0,0.0,1.0,55.0,616.79921,10000.0,85.000001,85.000001,85.000001,85.000001,395.0,0.0,0.0,0.0,1.0,166.665,60.867,60.867,50.537,50.537,34.0,-23.607999999999997,15.995999999999999,-31.49666666666667,22.0875,0.0,1782.966,0.3049999999999997,100.0,22.276,20.928,41.353,39.792,0.0,0.0,100.0,0.0,0.0,0.0,0.0,2540.75,2301.2,4051.75,3978.6000000000004,307.0163333333333,307.58275,314.93466666666666,315.011,21.69522222222222,20.4654,21.754333333333335,21.3092,314.999998,314.999998,324.999988,324.999988,99.55455714285715,99.5064,99.5628,99.54408571428571,-0.05499999999999994,-0.12375,-0.20533333333333337,0.009000000000000119,-0.06833333333332803,-0.061666666666667425,1.5736666666666665,1.5945,36.595,28.908666666666665,36.965,34.1825,54.35,33.5105,58.045500000000004,51.0405,52.345,32.7875,56.7035,49.459666666666664,51.522,32.417500000000004,56.658,48.92366666666666,-0.00550000000000006,-0.0714999999999999,0.10138000000000001,0.10602,0.0,208.685,208.575,205.62666666666667,205.62666666666667,0.0,0.0
6,0.0,0.0,0.0,1.0,1.0,0.0,0.0,1.0,0.0,100.0,1.0,1.1856,26.0,0.0,0.0,0.0,59.999996,0.0,26.0,26.0,26.0,26.0,-0.12777777777777777,0.3138000000000001,0.0055000000000000005,297.806,-2.7177,-2.887,-1.5316,-1.568125,-255.65,216.2125,190.8735,0.0,0.0,0.0,0.0,0.01323333333333332,-5.498166666666667,-5.498166666666667,-0.4249,0.13966666666666666,-0.0665,0.859,66.759,-0.0907,-0.09292500000000001,0.766,100.0,1.0,1.0,206.08666666666667,0.0,0.0,0.0,0.0,0.0,0.0,0.0,8735.2,0.0,55.0,5.0,240.3,0.0,0.0,0.0,0.0,0.0,0.0,0.0,0.0,0.30600000000000094,0.30600000000000094,0.0,0.0,0.0,55.0,616.79921,10000.0,85.000001,85.000001,85.000001,85.000001,395.0,0.0,0.0,0.0,1.0,166.665,60.715,60.715,50.323,50.323,34.0,-22.528,17.836,-31.696666666666665,22.305,0.0,1782.918,0.054999999999999716,100.0,22.076,20.967,41.446,40.058,0.0,0.0,100.0,0.0,0.0,0.0,0.0,2532.5,2403.2,3982.0,3953.3,306.993,307.17775,315.094,315.06325,21.703555555555557,20.4693,21.764,21.3174,314.999998,314.999998,324.999988,324.999988,99.55455714285715,99.50641666666667,99.56292857142857,99.54421428571429,-0.02774999999999994,-0.101,-0.20866666666666667,0.019333333333333425,-0.060000000000002274,-0.07666666666666799,1.5546666666666666,1.6065,36.647,28.933333333333334,37.025,34.234,54.332,33.541,58.085499999999996,51.099000000000004,52.328,32.815,56.741,49.516,51.504999999999995,32.444,56.693,48.97866666666667,-0.03299999999999992,-0.05049999999999999,0.12016500000000001,0.10898000000000001,0.0,209.11,209.05,206.08666666666667,206.08666666666667,0.0,0.0
7,0.0,0.0,0.0,1.0,1.0,0.0,0.0,1.0,0.0,100.0,1.0,1.1856,26.0,0.0,0.0,0.0,59.999996,0.0,26.0,26.0,26.0,26.0,-0.1,0.32320000000000015,0.042575,297.592,-2.6878,-2.8272500000000003,-1.4901,-1.613875,-252.44,216.19,190.85425,0.0,0.0,0.0,0.0,0.015100000000000002,-5.498166666666667,-5.498166666666667,-0.42860000000000004,-0.005,-0.05799999999999983,1.181,66.911,-0.0755,-0.1005,0.39000000000000057,100.0,1.0,1.0,206.51999999999998,0.0,0.0,0.0,0.0,0.0,0.0,0.0,8753.7,0.0,55.0,5.0,240.8466666666667,1.0,0.0,0.0,0.0,0.0,0.0,0.0,0.0,0.3539999999999992,0.3539999999999992,0.0,0.0,1.0,55.0,616.79921,10000.0,85.000001,85.000001,85.000001,85.000001,395.0,0.0,0.0,0.0,1.0,166.665,60.41,60.41,50.537,50.537,34.0,-22.676,19.037999999999997,-29.663333333333334,24.205,0.0,1782.871,-0.14999999999999858,100.0,22.135,20.933,41.437,40.254,0.0,0.0,100.0,0.0,0.0,0.0,0.0,2645.75,2488.1,3944.125,3969.2,306.61766666666665,306.984,315.13166666666666,314.964,21.71188888888889,20.4732,21.773666666666667,21.3256,314.999998,314.999998,324.999988,324.999988,99.55455714285715,99.50641666666667,99.56307142857143,99.54434285714285,-0.0022499999999999742,-0.07125000000000001,-0.18433333333333335,0.04066666666666685,-0.02499999999999858,-0.04833333333333201,1.5743333333333334,1.593,36.699,28.957666666666668,37.086,34.2855,54.314,33.5695,58.1255,51.1575,52.311,32.841499999999996,56.778,49.572,51.487,32.469,56.7275,49.03333333333333,-0.05499999999999994,-0.026499999999999968,0.10662,0.10913,0.0,209.54000000000002,209.515,206.51999999999998,206.51999999999998,0.0,0.0
8,0.0,0.0,0.0,1.0,1.0,0.0,0.0,1.0,0.0,100.0,1.0,1.1856,26.0,0.0,0.0,0.0,59.999996,0.0,26.0,26.0,26.0,26.0,-0.042222222222222223,0.3284,0.038450000000000005,297.806,-2.7781000000000002,-2.815875,-1.4772,-1.5635000000000001,-248.82999999999998,216.1625,190.83225,0.0,0.0,0.0,0.0,0.017199999999999993,-5.498166666666667,-5.498166666666667,-0.4307,-0.5993333333333334,-0.03662499999999991,0.722,67.081,-0.0538,-0.0925,-0.06200000000000028,100.0,1.0,1.0,206.99333333333334,0.0,0.0,0.0,0.0,0.0,0.0,0.0,8773.8,0.0,55.0,5.0,241.46,0.0,0.0,0.0,0.0,0.0,0.0,0.0,0.0,0.40800000000000125,0.40800000000000125,0.0,0.0,0.0,55.0,616.79921,10000.0,85.000001,85.000001,85.000001,85.000001,395.0,0.0,0.0,0.0,1.0,166.665,61.157,61.157,49.85,49.85,34.0,-19.898,19.357999999999997,-28.28,25.7125,0.0,1782.815,-0.3099999999999987,100.0,21.693,20.955,41.521,40.503,0.0,0.0,100.0,0.0,0.0,0.0,0.0,2397.625,2469.4,3968.125,4024.8,307.569,307.0655,315.0466666666667,314.81725,21.72088888888889,20.4777,21.784555555555556,21.3349,314.999998,314.999998,324.999988,324.999988,99.55457142857144,99.50641666666667,99.56322857142857,99.5445,0.019000000000000128,-0.0525,-0.15183333333333338,0.0728333333333333,-0.054999999999999716,-0.051666666666669414,1.5543333333333333,1.5550000000000002,36.756,28.985666666666667,37.153,34.343,54.29,33.601,58.17,51.223,52.289,32.8705,56.8195,49.63433333333333,51.464,32.4965,56.766,49.09433333333333,-0.06699999999999995,-0.015000000000000124,0.10498,0.11343500000000001,0.0,210.055,210.04500000000002,206.99333333333334,206.99333333333334,0.0,0.0
9,0.0,0.0,0.0,1.0,1.0,0.0,0.0,1.0,0.0,100.0,1.0,1.1856,26.0,0.0,0.0,0.0,59.999996,0.0,26.0,26.0,26.0,26.0,-0.023,0.3178000000000001,-0.018600000000000002,297.516,-2.7637,-2.811375,-1.5333999999999999,-1.543625,-245.8,216.1375,190.8135,0.0,0.0,0.0,0.0,0.018966666666666576,-5.498166666666667,-5.498166666666667,-0.4338,0.6596666666666666,-0.04225000000000012,-0.48099999999999987,67.219,-0.0346,-0.091925,-0.03399999999999981,100.0,1.0,1.0,207.54666666666668,0.0,0.0,0.0,0.0,0.0,0.0,0.0,8797.1,0.0,55.0,5.0,241.95666666666665,1.0,0.0,0.0,0.0,0.0,0.0,0.0,0.0,0.4529999999999994,0.4529999999999994,0.0,0.0,1.0,55.0,616.79921,10000.0,85.000001,85.000001,85.000001,85.000001,395.0,0.0,0.0,0.0,1.0,333.33500000000004,60.043,60.043,50.781,50.781,34.0,-23.59,19.704,-27.553333333333335,25.177500000000002,0.0,1782.77,-0.509999999999998,100.0,21.987000000000002,21.485,41.097,40.546,0.0,0.0,100.0,0.0,0.0,0.0,0.0,2820.25,2425.9,3901.25,3919.0,306.3383333333333,306.95,315.3706666666667,315.09575,21.728666666666665,20.4816,21.793333333333333,21.3425,314.999998,314.999998,324.999988,324.999988,99.55457142857144,99.50643333333333,99.56334285714286,99.54462857142858,0.028000000000000025,-0.0375,-0.14349999999999996,0.08683333333333332,-0.05666666666667197,-0.06499999999999773,1.6146666666666667,1.589,36.804,29.009666666666668,37.209,34.391,54.274,33.6285,58.204,51.275999999999996,52.272999999999996,32.8955,56.851,49.68533333333333,51.448,32.5205,56.795500000000004,49.144333333333336,-0.0774999999999999,-0.004999999999999893,0.10022500000000001,0.11434500000000002,0.0,210.515,210.5,207.54666666666668,207.54666666666668,0.0,0.0
10,0.0,0.0,0.0,1.0,1.0,0.0,0.0,1.0,0.0,100.0,1.0,1.1856,26.0,0.0,0.0,0.0,59.999996,0.0,26.0,26.0,26.0,26.0,-0.009555555555555555,0.3237000000000001,0.050300000000000004,297.409,-2.7376,-2.804125,-1.5110000000000001,-1.524,-242.37,216.11,190.79275,0.0,0.0,0.0,0.0,0.020966666666666578,-5.498166666666667,-5.498166666666667,-0.4106,-0.5606666666666666,0.001874999999999849,1.8580000000000005,67.382,-0.0158,-0.08155,-0.48599999999999977,100.0,1.0,1.0,207.81333333333333,0.0,0.0,0.0,0.0,0.0,0.0,0.0,8808.5,0.0,55.0,5.0,242.54000000000002,0.0,0.0,0.0,0.0,0.0,0.0,1.0,0.0,0.5040000000000013,0.5040000000000013,0.0,0.0,0.0,55.0,616.79921,10000.0,85.000001,85.000001,85.000001,85.000001,395.0,0.0,0.0,0.0,1.0,166.665,61.188,61.188,49.286,49.286,34.0,-16.93,20.004,-28.49666666666667,28.655,0.0,1782.72,-0.6999999999999993,100.0,21.921,21.229,41.603,41.19,0.0,0.0,100.0,0.0,0.0,0.0,0.0,2244.125,2403.7,4127.125,4207.3,307.9026666666667,307.26075,314.6476666666667,314.40375,21.737333333333332,20.4858,21.803666666666665,21.3515,314.999998,314.999998,324.999988,324.999988,99.55457142857144,99.50643333333333,99.56348571428572,99.54477142857142,0.06800000000000006,-0.0085,-0.11666666666666659,0.10783333333333323,-0.04999999999999716,-0.054999999999999716,1.5190000000000001,1.4929999999999999,36.858000000000004,29.03633333333333,37.272999999999996,34.4465,54.254000000000005,33.657,58.2475,51.341,52.254000000000005,32.922,56.891999999999996,49.74766666666667,51.429,32.545500000000004,56.833,49.205666666666666,-0.09499999999999997,0.010999999999999899,0.11001500000000002,0.11260500000000001,0.0,210.985,211.01,207.81333333333333,207.81333333333333,0.0,0.0
11,0.0,0.0,0.0,1.0,1.0,0.0,0.0,1.0,0.0,100.0,1.0,1.1856,26.0,0.0,0.0,0.0,59.999996,0.0,26.0,26.0,26.0,26.0,0.04844444444444444,0.2915000000000001,-0.11027500000000001,297.974,-2.7901,-2.774375,-1.5697999999999999,-1.50875,-238.93,216.08249999999998,190.771875,0.0,0.0,0.0,0.0,0.022599999999999953,-5.498166666666667,-5.498166666666667,-0.45220000000000005,-0.11766666666666667,0.026999999999999913,-0.6890000000000001,67.535,0.0082,-0.108475,-0.6520000000000001,100.0,1.0,1.0,208.62,0.0,0.0,0.0,0.0,0.0,0.0,0.0,8842.7,0.0,55.0,5.0,243.09333333333336,1.0,0.0,0.0,0.0,0.0,0.0,1.0,0.0,0.5549999999999997,0.5549999999999997,0.0,0.0,1.0,55.0,616.79921,10000.0,85.000001,85.000001,85.000001,85.000001,395.0,0.0,0.0,0.0,1.0,166.665,60.577,60.577,50.903,50.903,34.0,-19.066,21.323999999999998,-23.23333333333333,25.23,0.0,1782.668,-0.6499999999999986,100.0,21.561,21.643,40.97,41.175,0.0,0.0,100.0,0.0,0.0,0.0,0.0,2495.25,2514.9,3609.375,3753.7,307.32866666666666,306.68675,316.0973333333333,315.5025,21.74577777777778,20.4903,21.813666666666666,21.3602,314.999998,314.999998,324.999988,324.999988,99.55458571428571,99.50643333333333,99.56362857142857,99.54491428571428,0.07574999999999998,-0.00425,-0.09633333333333338,0.1306666666666667,-0.06333333333333258,-0.04833333333333201,1.6736666666666666,1.653,36.911,29.064,37.336,34.501,54.233000000000004,33.687,58.283500000000004,51.4015,52.233999999999995,32.949,56.9255,49.806,51.408500000000004,32.5715,56.864,49.26266666666667,-0.09499999999999997,0.006000000000000005,0.105315,0.11245000000000001,0.0,211.445,211.47500000000002,208.62,208.62,0.0,0.0
12,0.0,0.0,0.0,1.0,1.0,0.0,0.0,1.0,0.0,100.0,1.0,1.1856,26.0,0.0,0.0,0.0,59.999996,0.0,26.0,26.0,26.0,26.0,0.043333333333333335,0.3224,0.024475,297.287,-2.8386,-2.7741249999999997,-1.5337,-1.5133750000000001,-235.48,216.055,190.749625,0.0,0.0,0.0,0.0,0.025466666666666526,-5.498166666666667,-5.498166666666667,-0.43670000000000003,0.23500000000000001,0.013500000000000068,0.7330000000000001,67.695,0.0275,-0.07982500000000001,-0.71,100.0,1.0,1.0,208.85000000000002,0.0,0.0,0.0,0.0,0.0,0.0,0.0,8852.4,0.0,55.0,5.0,243.67000000000002,0.0,0.0,0.0,0.0,0.0,0.0,1.0,0.0,0.6059999999999981,0.6059999999999981,0.0,0.0,0.0,55.0,616.79921,10000.0,85.000001,85.000001,85.000001,85.000001,395.0,0.0,0.0,0.0,1.0,166.665,60.41,60.41,49.515,49.515,34.0,-19.042,22.82,-25.346666666666668,30.025,0.0,1782.618,-0.509999999999998,100.0,21.591,21.676,41.032,41.075,0.0,0.0,100.0,0.0,0.0,0.0,0.0,2479.375,2642.0,4073.25,4128.0,307.24133333333333,306.49275,314.87166666666667,314.64275,21.754333333333335,20.4947,21.823777777777778,21.369,314.999998,314.999998,324.999988,324.999988,99.55458571428571,99.50645,99.56377142857143,99.54505714285715,0.08750000000000013,0.011,-0.06333333333333335,0.15483333333333338,-0.04333333333332945,-0.05333333333332746,1.5603333333333333,1.5385,36.964,29.092333333333336,37.399,34.556,54.213,33.718,58.324,51.463499999999996,52.215,32.978,56.963499999999996,49.86566666666667,51.388999999999996,32.599000000000004,56.899,49.321,-0.08250000000000002,-0.004999999999999893,0.10010000000000001,0.10376500000000001,0.0,211.95,212.005,208.85000000000002,208.85000000000002,0.0,0.0
13,0.0,0.0,0.0,1.0,1.0,0.0,0.0,1.0,0.0,100.0,1.0,1.1856,26.0,0.0,0.0,0.0,59.999996,0.0,26.0,26.0,26.0,26.0,0.08177777777777777,0.3104,0.03935,296.98199999999997,-2.7905,-2.76075,-1.5729000000000002,-1.52575,-232.03,216.03,190.72775,0.0,0.0,0.0,0.0,0.026966666666666583,-5.498166666666667,-5.498166666666667,-0.4302,-0.08,0.01949999999999985,-0.43900000000000006,67.85300000000001,0.0339,-0.08962500000000001,-0.7299999999999995,100.0,1.0,1.0,209.30333333333334,0.0,0.0,0.0,0.0,0.0,0.0,0.0,8871.5,0.0,55.0,5.0,244.23666666666668,1.0,0.0,0.0,0.0,0.0,0.0,1.0,0.0,0.657,0.657,0.0,0.0,1.0,55.0,616.79921,10000.0,85.000001,85.000001,85.000001,85.000001,395.0,0.0,0.0,0.0,1.0,166.665,60.196,60.196,49.561,49.561,34.0,-18.098,22.817999999999998,-26.39666666666667,31.085,0.0,1782.567,-0.9749999999999979,100.0,21.743,22.035,41.163,41.754,0.0,0.0,100.0,0.0,0.0,0.0,0.0,2557.375,2522.4,4067.625,4175.2,307.126,306.66675,314.93966666666665,314.42,21.762888888888888,20.499299999999998,21.834,21.3779,314.999998,314.999998,324.999988,324.999988,99.5546,99.50645,99.56391428571429,99.5452,0.12175000000000002,0.0445,-0.0738333333333333,0.15783333333333327,-0.04999999999999716,-0.05833333333333002,1.541,1.5025,37.018,29.120333333333335,37.462,34.612,54.196,33.75,58.3645,51.528999999999996,52.199,33.0075,57.0015,49.928,51.3725,32.626999999999995,56.9335,49.382666666666665,-0.123,0.03699999999999992,0.107575,0.11019500000000002,0.0,212.425,212.47500000000002,209.30333333333334,209.30333333333334,0.0,0.0
14,0.0,0.0,0.0,1.0,1.0,0.0,0.0,1.0,0.0,100.0,1.0,1.1856,26.0,0.0,0.0,0.0,59.999996,0.0,26.0,26.0,26.0,26.0,0.08533333333333333,0.3095000000000001,-0.008025000000000001,297.287,-2.8134,-2.76975,-1.5772,-1.5,-228.56,216.0075,190.706375,0.0,0.0,0.0,0.0,0.028999999999999915,-5.498166666666667,-5.498166666666667,-0.4388,-0.08833333333333333,0.04912499999999986,1.0680000000000005,68.007,0.047900000000000005,-0.098625,-1.096,100.0,1.0,1.0,209.85666666666668,0.0,0.0,0.0,0.0,0.0,0.0,0.0,8895.1,0.0,55.0,5.0,244.79333333333335,0.0,0.0,0.0,0.0,0.0,0.0,1.0,0.0,0.7079999999999984,0.7079999999999984,0.0,0.0,0.0,55.0,616.79921,10000.0,85.000001,85.000001,85.000001,85.000001,395.0,0.0,0.0,0.0,1.0,166.665,60.425,60.425,49.728,49.728,34.0,-15.822,24.875999999999998,-23.11,29.884999999999998,0.0,1782.516,-1.129999999999999,100.0,21.701,21.924,41.173,41.775,0.0,0.0,100.0,0.0,0.0,0.0,0.0,2331.0,2660.4,3839.0,4088.8,307.65066666666667,306.353,315.462,314.68475,21.771333333333335,20.5038,21.84411111111111,21.3868,314.999998,314.999998,324.999988,324.999988,99.55461428571428,99.50645,99.56405714285714,99.54534285714286,0.1452500000000001,0.066,-0.04499999999999993,0.1625000000000001,-0.045000000000001705,-0.05333333333332746,1.6,1.5594999999999999,37.071,29.148666666666664,37.525999999999996,34.668,54.179,33.783,58.403,51.5925,52.183,33.0375,57.037,49.989333333333335,51.355000000000004,32.656,56.966499999999996,49.44266666666667,-0.133,0.04499999999999993,0.10312,0.10360000000000001,0.0,212.89499999999998,212.945,209.85666666666668,209.85666666666668,0.0,0.0
15,0.0,0.0,0.0,1.0,1.0,0.0,0.0,1.0,0.0,100.0,1.0,1.1856,26.0,0.0,0.0,0.0,59.999996,0.0,26.0,26.0,26.0,26.0,0.124,0.31390000000000007,-0.06105,297.302,-2.8313,-2.6633750000000003,-1.6053000000000002,-1.4372500000000001,-225.5,215.9875,190.68725,0.0,0.0,0.0,0.0,0.03076666666666661,-5.498166666666667,-5.498166666666667,-0.42900000000000005,0.243,0.07725000000000004,-0.3500000000000001,68.144,0.06520000000000001,-0.08045000000000001,-1.2400000000000002,100.0,1.0,1.0,210.26333333333332,0.0,0.0,0.0,0.0,0.0,0.0,0.0,8912.3,0.0,55.0,5.0,245.28666666666666,1.0,0.0,0.0,0.0,0.0,0.0,1.0,0.0,0.7530000000000001,0.7530000000000001,0.0,0.0,1.0,55.0,616.79921,10000.0,85.000001,85.000001,85.000001,85.000001,395.0,0.0,0.0,0.0,1.0,333.33500000000004,60.654,60.654,49.789,49.789,34.0,-15.39,23.436,-23.47,30.995,0.0,1782.469,-1.1050000000000004,100.0,21.557,22.072,40.865,41.97,0.0,0.0,100.0,0.0,0.0,0.0,0.0,2286.125,2566.9,3865.375,4232.9,307.9476666666667,306.5415,315.45466666666664,314.3245,21.778777777777776,20.5078,21.853,21.3947,314.999998,314.999998,324.999988,324.999988,99.55461428571428,99.50646666666667,99.56418571428571,99.54548571428572,0.14575000000000005,0.07050000000000001,-0.04049999999999998,0.17383333333333328,-0.03999999999999915,-0.07666666666666799,1.5786666666666667,1.5354999999999999,37.117000000000004,29.173666666666666,37.581,34.717,54.164,33.8125,58.436,51.649,52.169,33.064499999999995,57.067499999999995,50.04366666666667,51.3405,32.682,56.9945,49.496,-0.1359999999999999,0.052000000000000046,0.10830000000000001,0.10097,0.0,213.325,213.41500000000002,210.26333333333332,210.26333333333332,0.0,0.0
16,0.0,0.0,0.0,1.0,1.0,0.0,0.0,1.0,0.0,100.0,1.0,1.1856,26.0,0.0,0.0,0.0,59.999996,0.0,26.0,26.0,26.0,26.0,0.14533333333333334,0.29469999999999996,-0.045125000000000005,297.241,-2.8884,-2.6710000000000003,-1.5799,-1.4995,-221.81,215.9675,190.663625,0.0,0.0,0.0,0.0,0.03289999999999993,-5.498166666666667,-5.498166666666667,-0.45380000000000004,-0.5593333333333333,0.06412499999999999,-1.132,68.30799999999999,0.084,-0.09745000000000001,-1.29,100.0,1.0,1.0,210.8,0.0,0.0,0.0,0.0,0.0,0.0,0.0,8935.1,0.0,55.0,5.0,245.87666666666667,0.0,0.0,0.0,0.0,0.0,0.0,1.0,0.0,0.8069999999999986,0.8069999999999986,0.0,0.0,0.0,55.0,616.79921,10000.0,85.000001,85.000001,85.000001,85.000001,395.0,0.0,0.0,0.0,1.0,166.665,60.226,60.226,49.728,49.728,34.0,-17.77,25.058,-21.15,31.2575,0.0,1782.418,-0.9149999999999991,100.0,21.258,22.207,41.054,42.099000000000004,0.0,0.0,100.0,0.0,0.0,0.0,0.0,2534.125,2700.2,3804.25,3968.0,307.35766666666666,306.1655,315.58233333333334,314.94075,21.787444444444443,20.5127,21.863666666666667,21.4041,314.999998,314.999998,324.999988,324.999988,99.55464285714285,99.50646666666667,99.56434285714286,99.54562857142857,0.1412500000000001,0.076,-0.009499999999999953,0.21250000000000013,-0.07000000000000028,-0.04333333333332945,1.6073333333333333,1.5575,37.171,29.204333333333334,37.647999999999996,34.775999999999996,54.143,33.8495,58.478,51.716,52.147999999999996,33.0985,57.1065,50.108000000000004,51.32,32.7145,57.03,49.559333333333335,-0.11599999999999988,0.034499999999999975,0.10344,0.10341,0.0,213.805,213.875,210.8,210.8,0.0,0.0
17,0.0,0.0,0.0,1.0,1.0,0.0,0.0,1.0,0.0,100.0,1.0,1.1856,26.0,0.0,0.0,0.0,59.999996,0.0,26.0,26.0,26.0,26.0,0.10122222222222223,0.3359000000000001,0.024325000000000003,296.76800000000003,-2.8498,-2.6576250000000003,-1.6181,-1.464875,-218.32999999999998,215.9525,190.640875,0.0,0.0,0.0,0.0,0.03493333333333337,-5.498166666666667,-5.498166666666667,-0.4354,0.3836666666666667,0.043749999999999956,0.7909999999999999,68.463,0.0901,-0.07395,-0.8820000000000006,100.0,1.0,1.0,211.13333333333333,0.0,0.0,0.0,0.0,0.0,0.0,0.0,8949.2,0.0,55.0,5.0,246.43333333333334,1.0,0.0,0.0,0.0,0.0,0.0,1.0,0.0,0.8580000000000005,0.8580000000000005,0.0,0.0,1.0,55.0,616.79921,10000.0,85.000001,85.000001,85.000001,85.000001,395.0,0.0,0.0,0.0,1.0,166.665,60.257,60.257,49.103,49.103,34.0,-17.444,23.092,-24.786666666666665,33.9075,0.0,1782.367,-0.259999999999998,100.0,21.793,22.186,41.068,42.013,0.0,0.0,100.0,0.0,0.0,0.0,0.0,2438.125,2623.3,4219.0,4310.4,307.378,306.56825,314.59633333333335,314.2455,21.79577777777778,20.5174,21.87377777777778,21.413,314.999998,314.999998,324.999988,324.999988,99.55464285714285,99.50648333333334,99.56448571428571,99.54578571428571,0.12824999999999998,0.05075,-0.010166666666666657,0.21066666666666678,-0.05333333333332746,-0.04999999999999716,1.544,1.5230000000000001,37.224000000000004,29.233666666666664,37.711,34.8315,54.126999999999995,33.884,58.5165,51.78,52.132999999999996,33.1305,57.1425,50.169666666666664,51.304,32.7455,57.063,49.61966666666667,-0.0714999999999999,-0.01849999999999996,0.10729000000000001,0.11364500000000001,0.0,214.325,214.38,211.13333333333333,211.13333333333333,0.0,0.0
18,0.0,0.0,0.0,1.0,1.0,0.0,0.0,1.0,0.0,100.0,1.0,1.1856,26.0,0.0,0.0,0.0,59.999996,0.0,26.0,26.0,26.0,26.0,0.07977777777777777,0.30820000000000003,-0.0045000000000000005,296.921,-2.88,-2.633375,-1.624,-1.417,-215.24,215.9425,190.621,0.0,0.0,0.0,0.0,0.036733333333333396,-5.498166666666667,-5.498166666666667,-0.4489,-0.4786666666666667,0.053749999999999964,-0.6280000000000001,68.59700000000001,0.0762,-0.09225,-0.2920000000000007,100.0,1.0,1.0,211.62666666666667,0.0,0.0,0.0,0.0,0.0,0.0,0.0,8970.1,0.0,55.0,5.0,246.92000000000002,0.0,0.0,0.0,0.0,0.0,0.0,1.0,0.0,0.9029999999999987,0.9029999999999987,0.0,0.0,0.0,55.0,616.79921,10000.0,85.000001,85.000001,85.000001,85.000001,395.0,0.0,0.0,0.0,1.0,166.665,60.104,60.104,49.271,49.271,34.0,-19.622,22.722,-24.72,29.1825,0.0,1782.321,0.0,100.0,21.429,22.182,41.295,42.341,0.0,0.0,100.0,0.0,0.0,0.0,0.0,2572.5,2699.9,3991.125,4059.8,307.217,306.2095,315.183,314.771,21.80311111111111,20.5214,21.88277777777778,21.421,314.999998,314.999998,324.999988,324.999988,99.55467142857142,99.50648333333334,99.56461428571428,99.54591428571429,0.09549999999999992,0.0165,-0.040999999999999925,0.17533333333333334,-0.045000000000001705,-0.054999999999999716,1.5593333333333332,1.556,37.269,29.259,37.766999999999996,34.881,54.108999999999995,33.912,58.551,51.837,52.117000000000004,33.1565,57.175,50.224666666666664,51.287,32.769999999999996,57.0925,49.67366666666666,-0.04849999999999999,-0.04400000000000004,0.10406000000000001,0.100385,0.0,214.72500000000002,214.745,211.62666666666667,211.62666666666667,0.0,0.0
19,0.0,0.0,0.0,1.0,1.0,0.0,0.0,1.0,0.0,100.0,1.0,1.1856,26.0,0.0,0.0,0.0,59.999996,0.0,26.0,26.0,26.0,26.0,0.032888888888888884,0.31520000000000015,0.045825000000000005,296.494,-2.7717,-2.761875,-1.538,-1.423125,-211.74,215.93,190.59825,0.0,0.0,0.0,0.0,0.038766666666666505,-5.498166666666667,-5.498166666666667,-0.43410000000000004,0.8310000000000001,0.04212499999999997,0.3719999999999999,68.75,0.0529,-0.076,0.04800000000000004,100.0,1.0,1.0,212.04000000000002,0.0,0.0,0.0,0.0,0.0,0.0,0.0,8987.5,0.0,55.0,5.0,247.46666666666667,1.0,0.0,0.0,0.0,0.0,0.0,1.0,0.0,0.9540000000000006,0.9540000000000006,0.0,0.0,1.0,55.0,616.79921,10000.0,85.000001,85.000001,85.000001,85.000001,395.0,0.0,0.0,0.0,1.0,166.665,59.799,59.799,48.996,48.996,34.0,-18.932,22.386,-25.923333333333332,30.8575,0.0,1782.27,0.21499999999999986,100.0,22.196,22.337,41.329,42.144,0.0,0.0,100.0,0.0,0.0,0.0,0.0,2455.25,2638.1,4132.375,4344.1,307.22333333333336,306.30825,314.733,314.19725,21.811555555555557,20.5262,21.89288888888889,21.4299,314.999998,314.999998,324.999988,324.999988,99.55467142857142,99.50648333333334,99.56475714285715,99.54607142857142,0.07424999999999993,-0.00725,-0.06166666666666665,0.15883333333333338,-0.04999999999999716,-0.05833333333333002,1.532,1.5255,37.323,29.288333333333334,37.83,34.937,54.091,33.945,58.589,51.9,52.099000000000004,33.1865,57.21,50.285333333333334,51.269,32.799,57.1245,49.733333333333334,-0.030000000000000027,-0.06499999999999995,0.109005,0.10460000000000001,0.0,215.255,215.255,212.04000000000002,212.04000000000002,0.0,0.0
20,0.0,0.0,0.0,1.0,1.0,0.0,0.0,1.0,0.0,100.0,1.0,1.1856,26.0,0.0,0.0,0.0,59.999996,0.0,26.0,26.0,26.0,26.0,0.019,0.28080000000000016,-0.024725,296.921,-2.855,-2.730875,-1.5283,-1.562625,-208.23000000000002,215.92000000000002,190.57575,0.0,0.0,0.0,0.0,0.04079999999999995,-5.498166666666667,-5.498166666666667,-0.4491,-1.17,0.020000000000000018,-1.202,68.904,0.023700000000000002,-0.09135,0.4480000000000004,100.0,1.0,1.0,212.48000000000002,0.0,0.0,0.0,0.0,0.0,0.0,0.0,9006.2,0.0,55.0,5.0,248.02333333333334,0.0,0.0,0.0,0.0,0.0,0.0,0.0,0.0,1.004999999999999,1.004999999999999,0.0,0.0,0.0,55.0,616.79921,10000.0,85.000001,85.000001,85.000001,85.000001,395.0,0.0,0.0,0.0,1.0,333.33500000000004,60.669,60.669,48.782,48.782,34.0,-20.292,19.238,-27.049999999999997,28.2375,0.0,1782.217,0.370000000000001,100.0,21.583,22.02,42.027,42.455,0.0,0.0,100.0,0.0,0.0,0.0,0.0,2459.25,2456.9,4048.625,4008.9,307.55,306.925,314.95433333333335,314.78625,21.819777777777777,20.5306,21.903222222222222,21.4389,314.999998,314.999998,324.999988,324.999988,99.55467142857142,99.5065,99.56491428571428,99.54621428571429,0.03699999999999992,-0.04225,-0.09766666666666657,0.11983333333333324,-0.05333333333332746,-0.03999999999999915,1.5143333333333333,1.522,37.373999999999995,29.316333333333333,37.894999999999996,34.993,54.067,33.976,58.6335,51.967,52.076,33.2155,57.2515,50.349666666666664,51.2455,32.826499999999996,57.163,49.79633333333334,-0.009500000000000064,-0.07500000000000018,0.10424000000000001,0.10948000000000001,0.0,215.695,215.65,212.48000000000002,212.48000000000002,0.0,0.0
21,0.0,0.0,0.0,1.0,1.0,0.0,0.0,1.0,0.0,100.0,1.0,1.1856,26.0,0.0,0.0,0.0,59.999996,0.0,26.0,26.0,26.0,26.0,-0.015666666666666666,0.3077000000000001,-0.037825000000000004,297.104,-2.7986,-2.7581249999999997,-1.5773000000000001,-1.5386250000000001,-204.92000000000002,215.9125,190.55375,0.0,0.0,0.0,0.0,0.0427333333333334,-5.498166666666667,-5.498166666666667,-0.46040000000000003,0.5630000000000001,-0.015625,-1.226,69.043,-0.007200000000000001,-0.08235,0.677999999999999,100.0,1.0,1.0,213.09333333333333,0.0,0.0,0.0,0.0,0.0,0.0,0.0,9032.3,0.0,55.0,5.0,248.51999999999998,1.0,0.0,0.0,0.0,0.0,0.0,0.0,0.0,1.0530000000000008,1.0530000000000008,0.0,0.0,1.0,55.0,616.79921,10000.0,85.000001,85.000001,85.000001,85.000001,395.0,0.0,0.0,0.0,1.0,333.33500000000004,60.303,60.303,49.667,49.667,34.0,-22.105999999999998,19.092,-28.92666666666667,25.1175,0.0,1782.17,0.3000000000000007,100.0,21.971,21.992,41.562,41.809,0.0,0.0,100.0,0.0,0.0,0.0,0.0,2627.125,2447.9,4047.625,3879.1000000000004,306.99133333333333,306.961,315.10833333333335,315.26125,21.82777777777778,20.5349,21.912555555555556,21.4471,314.999998,314.999998,324.999988,324.999988,99.55468571428571,99.5065,99.56502857142857,99.54634285714286,0.022499999999999964,-0.05025,-0.134,0.09616666666666673,-0.07333333333333059,-0.03333333333333144,1.6036666666666668,1.625,37.423,29.343,37.954,35.0445,54.049,34.004,58.665,52.018,52.06,33.2415,57.281,50.399,51.2285,32.851,57.19,49.84466666666667,-0.01550000000000007,-0.07100000000000017,0.10838500000000001,0.10928,0.0,216.185,216.10500000000002,213.09333333333333,213.09333333333333,0.0,0.0
22,0.0,0.0,0.0,1.0,1.0,0.0,0.0,1.0,0.0,100.0,1.0,1.1856,26.0,0.0,0.0,0.0,59.999996,0.0,26.0,26.0,26.0,26.0,-0.035222222222222224,0.3042,-0.018850000000000002,296.783,-2.846,-2.7350000000000003,-1.5651000000000002,-1.534,-201.19,215.9,190.528375,0.0,0.0,0.0,0.0,0.04489999999999994,-5.498166666666667,-5.498166666666667,-0.4435,-0.22766666666666666,-0.017625000000000224,-0.7389999999999999,69.206,-0.028200000000000003,-0.07010000000000001,0.5860000000000003,100.0,1.0,1.0,213.39666666666668,0.0,0.0,0.0,0.0,0.0,0.0,0.0,9045.1,0.0,55.0,5.0,249.10666666666668,0.0,0.0,0.0,0.0,0.0,0.0,0.0,0.0,1.1069999999999993,1.1069999999999993,0.0,0.0,0.0,55.0,616.79921,10000.0,85.000001,85.000001,85.000001,85.000001,395.0,0.0,0.0,0.0,1.0,166.665,60.638,60.638,48.721000000000004,48.721000000000004,34.0,-21.682000000000002,17.738,-31.666666666666668,25.83,0.0,1782.117,0.21999999999999886,100.0,21.999,21.881,42.149,42.016,0.0,0.0,100.0,0.0,0.0,0.0,0.0,2528.5,2375.0,4216.5,4118.3,307.3926666666667,307.2415,314.645,314.5845,21.836666666666666,20.5396,21.923555555555556,21.4566,314.999998,314.999998,324.999988,324.999988,99.55468571428571,99.5065,99.5652,99.5465,0.010499999999999954,-0.066,-0.15149999999999997,0.06433333333333335,-0.04833333333333201,-0.04333333333332945,1.509,1.52,37.479,29.372666666666667,38.022,35.1035,54.027,34.037,58.710499999999996,52.0845,52.038,33.2715,57.323499999999996,50.46233333333333,51.207,32.879999999999995,57.2295,49.906666666666666,-0.026999999999999913,-0.05650000000000022,0.108545,0.098595,0.0,216.66500000000002,216.61,213.39666666666668,213.39666666666668,0.0,0.0
23,0.0,0.0,0.0,1.0,1.0,0.0,0.0,1.0,0.0,100.0,1.0,1.1856,26.0,0.0,0.0,0.0,59.999996,0.0,26.0,26.0,26.0,26.0,-0.03933333333333334,0.28680000000000017,-0.07490000000000001,296.814,-2.7424,-2.7805,-1.6117,-1.513625,-197.86,215.89,190.50625,0.0,0.0,0.0,0.0,0.04683333333333339,-5.498166666666667,-5.498166666666667,-0.4607,0.021666666666666667,-0.023499999999999854,-0.4939999999999998,69.345,-0.0359,-0.091825,0.6460000000000008,100.0,1.0,1.0,213.9766666666667,0.0,0.0,0.0,0.0,0.0,0.0,0.0,9069.6,0.0,55.0,5.0,249.61,1.0,0.0,0.0,0.0,0.0,0.0,0.0,0.0,1.1550000000000011,1.1550000000000011,0.0,0.0,1.0,55.0,616.79921,10000.0,85.000001,85.000001,85.000001,85.000001,395.0,0.0,0.0,0.0,1.0,166.665,59.891,59.891,49.713,49.713,34.0,-23.524,18.434,-29.813333333333333,24.0425,0.0,1782.07,0.27500000000000213,100.0,22.369,21.925,42.182,41.959,0.0,0.0,100.0,0.0,0.0,0.0,0.0,2738.75,2425.4,3971.0,3883.1000000000004,306.57733333333334,306.98975,315.28933333333333,315.27425,21.844666666666665,20.5439,21.93311111111111,21.465,314.999998,314.999998,324.999988,324.999988,99.55468571428571,99.5065,99.56532857142857,99.54664285714286,0.0050000000000001155,-0.07125000000000001,-0.15433333333333332,0.07816666666666672,-0.07333333333333059,-0.04999999999999716,1.575,1.6,37.528999999999996,29.399,38.082,35.1565,54.007999999999996,34.067,58.7475,52.1415,52.019999999999996,33.299,57.3585,50.51733333333333,51.1885,32.906,57.2615,49.96033333333334,-0.026499999999999968,-0.06000000000000005,0.09696500000000001,0.117455,0.0,217.10000000000002,217.025,213.9766666666667,213.9766666666667,0.0,0.0
24,0.0,0.0,0.0,1.0,1.0,0.0,0.0,1.0,0.0,100.0,1.0,1.1856,26.0,0.0,0.0,0.0,59.999996,0.0,26.0,26.0,26.0,26.0,-0.06144444444444445,0.29469999999999996,-0.038650000000000004,297.15,-2.7692,-2.79325,-1.4991,-1.5655000000000001,-194.32,215.8775,190.482,0.0,0.0,0.0,0.0,0.048899999999999944,-5.498166666666667,-5.498166666666667,-0.4707,-0.9043333333333334,-0.010874999999999968,0.8570000000000002,69.49600000000001,-0.0432,-0.0818,0.4640000000000004,100.0,1.0,1.0,214.31666666666666,0.0,0.0,0.0,0.0,0.0,0.0,0.0,9084.1,0.0,55.0,5.0,250.15333333333334,0.0,0.0,0.0,0.0,0.0,0.0,0.0,0.0,1.2059999999999995,1.2059999999999995,0.0,0.0,0.0,55.0,616.79921,10000.0,85.000001,85.000001,85.000001,85.000001,395.0,0.0,0.0,0.0,1.0,166.665,61.096,61.096,48.965,48.965,34.0,-19.372,18.234,-29.35,25.252499999999998,0.0,1782.017,0.08500000000000085,100.0,22.047,21.401,42.377,41.836,0.0,0.0,100.0,0.0,0.0,0.0,0.0,2313.375,2409.4,4046.625,4026.7,307.79,307.25675,314.9033333333333,314.87225,21.852888888888888,20.5482,21.943333333333335,21.4739,314.999998,314.999998,324.999988,324.999988,99.5547,99.50651666666667,99.56548571428571,99.54678571428572,0.01100000000000012,-0.06775,-0.14983333333333337,0.0621666666666667,-0.04999999999999716,-0.05833333333333002,1.5213333333333332,1.5565,37.581,29.426000000000002,38.146,35.212,53.983999999999995,34.0965,58.7885,52.202,51.998999999999995,33.326,57.3965,50.57566666666666,51.1665,32.932,57.2965,50.01733333333333,-0.03949999999999987,-0.051000000000000156,0.10483500000000001,0.10509500000000001,0.0,217.55,217.495,214.31666666666666,214.31666666666666,0.0,0.0
25,0.0,0.0,0.0,1.0,1.0,0.0,0.0,1.0,0.0,100.0,1.0,1.1856,26.0,0.0,0.0,0.0,59.999996,0.0,26.0,26.0,26.0,26.0,-0.06633333333333333,0.29100000000000015,-0.022325,296.76800000000003,-2.8169,-2.765375,-1.5332,-1.55525,-190.98000000000002,215.8625,190.457625,0.0,0.0,0.0,0.0,0.0508333333333334,-5.498166666666667,-5.498166666666667,-0.4954,0.34800000000000003,-0.021250000000000213,-0.1419999999999999,69.634,-0.0431,-0.08357500000000001,0.33200000000000074,100.0,1.0,1.0,214.89,0.0,0.0,0.0,0.0,0.0,0.0,0.0,9108.3,0.0,55.0,5.0,250.65,1.0,0.0,0.0,0.0,0.0,0.0,0.0,0.0,1.2540000000000013,1.2540000000000013,0.0,0.0,1.0,55.0,616.79921,10000.0,85.000001,85.000001,85.000001,85.000001,395.0,0.0,0.0,0.0,1.0,166.665,59.57,59.57,49.667,49.667,34.0,-24.061999999999998,21.506,-28.006666666666668,24.33,0.0,1781.971,0.015000000000000568,100.0,22.285,21.809,42.016,41.515,0.0,0.0,100.0,0.0,0.0,0.0,0.0,2769.5,2743.2,3884.125,3915.4,306.46666666666664,306.239,315.42633333333333,315.197,21.860777777777777,20.5525,21.95277777777778,21.4822,314.999998,314.999998,324.999988,324.999988,99.5547,99.50653333333334,99.56561428571429,99.54691428571428,0.01574999999999993,-0.0535,-0.15349999999999997,0.06916666666666682,-0.036666666666668846,-0.06499999999999773,1.603,1.6179999999999999,37.629999999999995,29.453,38.205,35.2635,53.964,34.1275,58.823,52.2565,51.979,33.3545,57.429,50.628,51.1465,32.959,57.326499999999996,50.068666666666665,-0.044499999999999984,-0.04200000000000026,0.110335,0.102235,0.0,217.97500000000002,217.935,214.89,214.89,0.0,0.0
26,0.0,0.0,0.0,1.0,1.0,0.0,0.0,1.0,0.0,100.0,1.0,1.1856,26.0,0.0,0.0,0.0,59.999996,0.0,26.0,26.0,26.0,26.0,-0.050555555555555555,0.3026,0.0795,295.746,-2.7789,-2.8348750000000003,-1.5365,-1.549375,-187.43,215.8475,190.43175,0.0,0.0,0.0,0.0,0.05289999999999995,-5.498166666666667,-5.498166666666667,-0.4526,0.27566666666666667,-0.034499999999999975,-0.43199999999999994,69.787,-0.0352,-0.061000000000000006,0.2579999999999991,100.0,1.0,1.0,215.01666666666665,0.0,0.0,0.0,0.0,0.0,0.0,0.0,9113.8,0.0,55.0,5.0,251.2,0.0,0.0,0.0,0.0,0.0,0.0,0.0,0.0,1.3049999999999997,1.3049999999999997,0.0,0.0,0.0,55.0,616.79921,10000.0,85.000001,85.000001,85.000001,85.000001,395.0,0.0,0.0,0.0,1.0,166.665,59.845,59.845,47.623,47.623,34.0,-21.586,18.278,-33.986666666666665,29.302500000000002,0.0,1781.92,-0.09999999999999787,100.0,22.786,22.409,42.758,42.278999999999996,0.0,0.0,100.0,0.0,0.0,0.0,0.0,2595.625,2345.0,4521.75,4446.0,306.97866666666664,307.2075,313.85066666666665,313.84925,21.869333333333334,20.5571,21.96311111111111,21.4913,314.999998,314.999998,324.999988,324.999988,99.5547,99.50653333333334,99.56577142857142,99.54707142857143,0.02950000000000008,-0.066,-0.1426666666666666,0.07233333333333336,-0.051666666666669414,-0.07000000000000028,1.4403333333333332,1.442,37.683,29.482,38.269999999999996,35.320499999999996,53.946,34.16,58.8675,52.32,51.962,33.3845,57.4705,50.689,51.1285,32.9875,57.365,50.12833333333333,-0.05449999999999999,-0.03949999999999987,0.106065,0.10966500000000001,0.0,218.48000000000002,218.44,215.01666666666665,215.01666666666665,0.0,0.0
27,0.0,0.0,0.0,1.0,1.0,0.0,0.0,1.0,0.0,100.0,1.0,1.1856,26.0,0.0,0.0,0.0,59.999996,0.0,26.0,26.0,26.0,26.0,-0.04744444444444444,0.27370000000000005,-0.0767,296.539,-2.7751,-2.7752499999999998,-1.5853000000000002,-1.567375,-183.86,215.82999999999998,190.407125,0.0,0.0,0.0,0.0,0.05496666666666661,-5.498166666666667,-5.498166666666667,-0.48950000000000005,-0.7446666666666667,-0.02737500000000015,0.601,69.931,-0.026500000000000003,-0.106075,0.016000000000000014,100.0,1.0,1.0,215.74666666666667,0.0,0.0,0.0,0.0,0.0,0.0,0.0,9144.7,0.0,55.0,5.0,251.72,1.0,0.0,0.0,0.0,0.0,0.0,0.0,0.0,1.355999999999998,1.355999999999998,0.0,0.0,1.0,55.0,616.79921,10000.0,85.000001,85.000001,85.000001,85.000001,395.0,0.0,0.0,0.0,1.0,166.665,59.891,59.891,48.996,48.996,34.0,-20.878,20.677999999999997,-27.133333333333333,25.2975,0.0,1781.868,-0.21999999999999886,100.0,22.532,22.064,43.042,42.453,0.0,0.0,100.0,0.0,0.0,0.0,0.0,2567.5,2585.2,3770.75,3904.5,307.07533333333333,306.711,315.6086666666667,315.24025,21.877666666666666,20.5616,21.973444444444443,21.5003,314.999998,314.999998,324.999988,324.999988,99.5547,99.50653333333334,99.56592857142857,99.54721428571429,0.04150000000000009,-0.03775,-0.13716666666666666,0.08550000000000013,-0.03999999999999915,-0.07000000000000028,1.5833333333333333,1.5899999999999999,37.735,29.510333333333335,38.334,35.376999999999995,53.924,34.191,58.908,52.381,51.941,33.413,57.507999999999996,50.74733333333333,51.1075,33.015,57.3995,50.185,-0.06400000000000006,-0.02450000000000019,0.11185500000000001,0.09913500000000001,0.0,218.865,218.84,215.74666666666667,215.74666666666667,0.0,0.0
28,0.0,0.0,0.0,1.0,1.0,0.0,0.0,1.0,0.0,100.0,1.0,1.1856,26.0,0.0,0.0,0.0,59.999996,0.0,26.0,26.0,26.0,26.0,-0.030444444444444444,0.31000000000000005,-0.025075,296.524,-2.7367,-2.783875,-1.5617,-1.54875,-180.5,215.815,190.38275,0.0,0.0,0.0,0.0,0.05693333333333339,-5.498166666666667,-5.498166666666667,-0.47840000000000005,0.6416666666666666,-0.027124999999999844,0.879,70.069,-0.015600000000000001,-0.065175,-0.09799999999999898,100.0,1.0,1.0,216.11333333333334,0.0,0.0,0.0,0.0,0.0,0.0,0.0,9160.2,0.0,55.0,5.0,252.21666666666667,0.0,0.0,0.0,0.0,0.0,0.0,0.0,0.0,1.404,1.404,0.0,0.0,0.0,55.0,616.79921,10000.0,85.000001,85.000001,85.000001,85.000001,395.0,0.0,0.0,0.0,1.0,166.665,60.257,60.257,48.691,48.691,34.0,-19.018,20.189999999999998,-28.85,27.5475,0.0,1781.821,-0.2749999999999986,100.0,22.529,21.969,42.481,42.105000000000004,0.0,0.0,100.0,0.0,0.0,0.0,0.0,2419.625,2489.4,4131.875,4135.7,307.34366666666665,306.9615,314.89633333333336,314.714,21.885555555555555,20.5659,21.982888888888887,21.5086,314.999998,314.999998,324.999988,324.999988,99.55471428571428,99.50655,99.56605714285715,99.54735714285714,0.054750000000000076,-0.0285,-0.11816666666666664,0.09866666666666668,-0.05333333333332746,-0.07333333333333059,1.5726666666666667,1.5750000000000002,37.785,29.537,38.393,35.429,53.905,34.2195,58.942499999999995,52.4365,51.924,33.439499999999995,57.5405,50.800666666666665,51.09,33.04,57.429,50.23733333333333,-0.07050000000000001,-0.019000000000000128,0.108005,0.10625000000000001,0.0,219.32999999999998,219.32,216.11333333333334,216.11333333333334,0.0,0.0
29,0.0,0.0,0.0,1.0,1.0,0.0,0.0,1.0,0.0,100.0,1.0,1.1856,26.0,0.0,0.0,0.0,59.999996,0.0,26.0,26.0,26.0,26.0,0.013222222222222222,0.2902,-0.039325,296.448,-2.8275,-2.8221249999999998,-1.5422,-1.54575,-176.93,215.79500000000002,190.356,0.0,0.0,0.0,0.0,0.05899999999999994,-5.498166666666667,-5.498166666666667,-0.49410000000000004,-0.7353333333333334,-0.018000000000000238,-0.601,70.218,-0.0048000000000000004,-0.080225,-0.11599999999999966,100.0,1.0,1.0,216.49,0.0,0.0,0.0,0.0,0.0,0.0,0.0,9176.2,0.0,55.0,5.0,252.75333333333333,1.0,0.0,0.0,0.0,0.0,0.0,0.0,0.0,1.4549999999999983,1.4549999999999983,0.0,0.0,1.0,55.0,616.79921,10000.0,85.000001,85.000001,85.000001,85.000001,395.0,0.0,0.0,0.0,1.0,166.665,60.211,60.211,48.874,48.874,34.0,-21.91,20.07,-27.653333333333332,27.5475,0.0,1781.768,-0.3299999999999983,100.0,22.042,22.055,42.667,42.576,0.0,0.0,100.0,0.0,0.0,0.0,0.0,2709.375,2411.3,3981.0,4082.7,306.9356666666667,306.9855,315.167,314.69275,21.893666666666668,20.5704,21.993222222222222,21.5178,314.999998,314.999998,324.999988,324.999988,99.55471428571428,99.50655,99.56621428571428,99.54751428571429,0.0515000000000001,-0.02525,-0.119,0.10050000000000003,-0.04333333333332945,-0.05333333333332746,1.5336666666666667,1.5365,37.835,29.564999999999998,38.457,35.486,53.884,34.249,58.9835,52.499,51.903999999999996,33.466,57.5785,50.861000000000004,51.069,33.0655,57.464,50.296,-0.07200000000000006,-0.019000000000000128,0.100305,0.10764000000000001,0.0,219.735,219.73000000000002,216.49,216.49,0.0,0.0
30,0.0,0.0,0.0,1.0,1.0,0.0,0.0,1.0,0.0,100.0,1.0,1.1856,26.0,0.0,0.0,0.0,59.999996,0.0,26.0,26.0,26.0,26.0,0.009000000000000001,0.2854000000000001,-0.02045,295.898,-2.7554,-2.8058750000000003,-1.6104,-1.46625,-173.55,215.78,190.330875,0.0,0.0,0.0,0.0,0.060966666666666613,-5.498166666666667,-5.498166666666667,-0.4781,0.965,-0.016750000000000043,-0.34299999999999997,70.35300000000001,0.005,-0.066275,-0.20000000000000018,100.0,1.0,1.0,216.93,0.0,0.0,0.0,0.0,0.0,0.0,0.0,9194.8,0.0,55.0,5.0,253.24,0.0,0.0,0.0,0.0,0.0,0.0,1.0,0.0,1.5030000000000001,1.5030000000000001,0.0,0.0,0.0,55.0,616.79921,10000.0,85.000001,85.000001,85.000001,85.000001,395.0,0.0,0.0,0.0,1.0,166.665,59.311,59.311,48.355000000000004,48.355000000000004,34.0,-20.796,21.258,-30.58,27.62,0.0,1781.721,-0.4250000000000007,100.0,22.865,22.738,42.485,42.527,0.0,0.0,100.0,0.0,0.0,0.0,0.0,2683.75,2539.9,4292.625,4135.1,306.7153333333333,306.71275,314.6053333333333,314.77325,21.901666666666667,20.575,22.002777777777776,21.5262,314.999998,314.999998,324.999988,324.999988,99.55472857142857,99.50655,99.56635714285714,99.54764285714286,0.07200000000000006,-0.019,-0.11049999999999993,0.11916666666666687,-0.04333333333332945,-0.04999999999999716,1.5296666666666667,1.5245,37.885,29.593666666666664,38.516999999999996,35.539,53.869,34.2805,59.019,52.5565,51.888999999999996,33.495,57.612,50.916,51.054,33.0935,57.4945,50.349666666666664,-0.08549999999999991,-0.016000000000000014,0.11075000000000002,0.11542500000000001,0.0,220.195,220.20499999999998,216.93,216.93,0.0,0.0
31,0.0,0.0,0.0,1.0,1.0,0.0,0.0,1.0,0.0,100.0,1.0,1.1856,26.0,0.0,0.0,0.0,59.999996,0.0,26.0,26.0,26.0,26.0,0.04566666666666667,0.2781,0.030000000000000002,295.593,-2.7771,-2.757,-1.5608,-1.594875,-169.75,215.76,190.303625,0.0,0.0,0.0,0.0,0.0631666666666666,-5.498166666666667,-5.498166666666667,-0.4766,-0.47000000000000003,-0.01112499999999983,-0.9239999999999999,70.508,0.0145,-0.0859,-0.3020000000000005,100.0,1.0,1.0,217.34,0.0,0.0,0.0,0.0,0.0,0.0,0.0,9212.2,0.0,55.0,5.0,253.79666666666668,1.0,0.0,0.0,0.0,0.0,0.0,1.0,0.0,1.5569999999999986,1.5569999999999986,0.0,0.0,1.0,55.0,616.79921,10000.0,85.000001,85.000001,85.000001,85.000001,395.0,0.0,0.0,0.0,1.0,166.665,59.296,59.296,47.455,47.455,34.0,-19.546,22.418,-28.173333333333332,30.39,0.0,1781.667,-0.46000000000000085,100.0,22.532,22.937,43.149,43.272999999999996,0.0,0.0,100.0,0.0,0.0,0.0,0.0,2562.25,2636.5,4131.0,4167.2,307.1193333333333,306.203,314.85833333333335,314.52175,21.910222222222224,20.58,22.01377777777778,21.536,314.999998,314.999998,324.999988,324.999988,99.55472857142857,99.50655,99.56651428571429,99.5478,0.07950000000000013,-0.00975,-0.09916666666666663,0.12749999999999995,-0.03999999999999915,-0.060000000000002274,1.5166666666666666,1.5110000000000001,37.939,29.625,38.586,35.6,53.848,34.3135,59.063,52.6245,51.869,33.525999999999996,57.6535,50.98133333333333,51.033500000000004,33.1225,57.5325,50.413666666666664,-0.08549999999999991,-0.01200000000000001,0.10887000000000001,0.11362000000000001,0.0,220.63,220.66,217.34,217.34,0.0,0.0
32,0.0,0.0,0.0,1.0,1.0,0.0,0.0,1.0,0.0,100.0,1.0,1.1856,26.0,0.0,0.0,0.0,59.999996,0.0,26.0,26.0,26.0,26.0,0.033,0.28669999999999995,-0.062450000000000006,296.188,-2.8248,-2.801,-1.5463,-1.575375,-166.14999999999998,215.7425,190.2775,0.0,0.0,0.0,0.0,0.06526666666666658,-5.498166666666667,-5.498166666666667,-0.48810000000000003,-0.09733333333333333,-0.030749999999999833,0.3500000000000001,70.651,0.0222,-0.07967500000000001,-0.3959999999999999,100.0,1.0,1.0,217.8466666666667,0.0,0.0,0.0,0.0,0.0,0.0,0.0,9233.7,0.0,55.0,5.0,254.31333333333333,0.0,0.0,0.0,0.0,0.0,0.0,1.0,0.0,1.6080000000000005,1.6080000000000005,0.0,0.0,0.0,55.0,616.79921,10000.0,85.000001,85.000001,85.000001,85.000001,395.0,0.0,0.0,0.0,1.0,166.665,60.074,60.074,48.477000000000004,48.477000000000004,34.0,-18.424,21.177999999999997,-25.736666666666668,29.92,0.0,1781.615,-0.47499999999999787,100.0,22.521,22.533,42.849000000000004,43.048,0.0,0.0,100.0,0.0,0.0,0.0,0.0,2447.5,2457.8,3948.5,4120.4,307.44433333333336,307.003,315.21666666666664,314.6515,21.918333333333333,20.584600000000002,22.023888888888887,21.545,314.999998,314.999998,324.999988,324.999988,99.55474285714286,99.50655,99.56667142857142,99.54795714285714,0.09375,0.0075,-0.08366666666666656,0.13316666666666666,-0.03833333333332689,-0.06333333333333258,1.5413333333333332,1.53,37.989999999999995,29.654,38.649,35.6565,53.829,34.344,59.1,52.685,51.851,33.5535,57.6875,51.03966666666666,51.015,33.149,57.5635,50.470666666666666,-0.08349999999999991,-0.008999999999999897,0.11306000000000001,0.09883,0.0,221.07999999999998,221.115,217.84666666666666,217.8466666666667,0.0,0.0
33,0.0,0.0,0.0,1.0,1.0,0.0,0.0,1.0,0.0,100.0,1.0,1.1856,26.0,0.0,0.0,0.0,59.999996,0.0,26.0,26.0,26.0,26.0,0.021111111111111112,0.28300000000000014,-0.07842500000000001,296.249,-2.8235,-2.747625,-1.6328,-1.535625,-162.75,215.72750000000002,190.251875,0.0,0.0,0.0,0.0,0.06723333333333337,-5.498166666666667,-5.498166666666667,-0.5,-0.3706666666666667,-0.01112499999999983,1.218,70.787,0.029300000000000003,-0.071475,-0.3860000000000001,100.0,1.0,1.0,218.25333333333333,0.0,0.0,0.0,0.0,0.0,0.0,0.0,9250.9,0.0,55.0,5.0,254.8,1.0,0.0,0.0,0.0,0.0,0.0,1.0,0.0,1.6559999999999988,1.6559999999999988,0.0,0.0,1.0,55.0,616.79921,10000.0,85.000001,85.000001,85.000001,85.000001,395.0,0.0,0.0,0.0,1.0,166.665,60.089,60.089,48.569,48.569,34.0,-18.656,21.631999999999998,-26.906666666666666,29.317500000000003,0.0,1781.568,-0.509999999999998,100.0,22.37,22.359,42.746,42.964,0.0,0.0,100.0,0.0,0.0,0.0,0.0,2460.125,2530.4,4006.5,4138.0,307.34633333333335,306.8725,315.1913333333333,314.7035,21.926000000000002,20.5889,22.033444444444445,21.5536,314.999998,314.999998,324.999988,324.999988,99.55475714285714,99.50656666666667,99.5668,99.5481,0.09200000000000008,0.01375,-0.07883333333333331,0.13200000000000012,-0.04833333333333201,-0.05666666666667197,1.5543333333333333,1.534,38.037,29.680666666666667,38.709,35.71,53.811,34.3705,59.1355,52.7425,51.834,33.5785,57.7205,51.09466666666667,50.9975,33.1725,57.5935,50.52433333333333,-0.08299999999999996,-0.00649999999999995,0.1043,0.10191000000000001,0.0,221.49,221.525,218.25333333333333,218.25333333333333,0.0,0.0
34,0.0,0.0,0.0,1.0,1.0,0.0,0.0,1.0,0.0,100.0,1.0,1.1856,26.0,0.0,0.0,0.0,59.999996,0.0,26.0,26.0,26.0,26.0,0.05555555555555556,0.29790000000000005,-0.094,296.585,-2.8477,-2.698375,-1.5973000000000002,-1.503125,-159.14,215.7125,190.223125,0.0,0.0,0.0,0.0,0.06933333333333336,-5.498166666666667,-5.498166666666667,-0.5358,-0.97,0.014624999999999888,-0.34099999999999975,70.93,0.034,-0.08265,-0.4119999999999999,100.0,1.0,1.0,218.69,0.0,0.0,0.0,0.0,0.0,0.0,0.0,9269.4,0.0,55.0,5.0,255.31666666666666,0.0,0.0,0.0,0.0,0.0,0.0,1.0,0.0,1.7070000000000007,1.7070000000000007,0.0,0.0,0.0,55.0,616.79921,10000.0,85.000001,85.000001,85.000001,85.000001,395.0,0.0,0.0,0.0,1.0,166.665,60.822,60.822,48.599000000000004,48.599000000000004,34.0,-17.15,20.742,-26.28666666666667,29.4825,0.0,1781.516,-0.5350000000000001,100.0,21.881,22.248,42.461,43.102000000000004,0.0,0.0,100.0,0.0,0.0,0.0,0.0,2306.125,2428.5,3970.5,4122.9,307.9356666666667,307.03425,315.2006666666667,314.665,21.934,20.5934,22.043444444444443,21.5627,314.999998,314.999998,324.999988,324.999988,99.55475714285714,99.50656666666667,99.56694285714286,99.54825714285714,0.09699999999999998,0.022,-0.07983333333333331,0.14583333333333326,-0.051666666666669414,-0.03333333333333144,1.5583333333333333,1.5514999999999999,38.087,29.709,38.772,35.766999999999996,53.79,34.399,59.171,52.8045,51.815,33.6045,57.7535,51.154333333333334,50.9775,33.1975,57.6235,50.58266666666667,-0.08650000000000002,0.0044999999999999485,0.11303500000000001,0.11205500000000002,0.0,221.935,221.935,218.69,218.69,0.0,0.0
35,0.0,0.0,0.0,1.0,1.0,0.0,0.0,1.0,0.0,100.0,1.0,1.1856,26.0,0.0,0.0,0.0,59.999996,0.0,26.0,26.0,26.0,26.0,0.03066666666666667,0.28100000000000014,-0.0789,296.219,-2.8984,-2.7035,-1.5773000000000001,-1.49025,-155.51999999999998,215.7,190.19225,0.0,0.0,0.0,0.0,0.07143333333333335,-5.498166666666667,-5.498166666666667,-0.561,0.3373333333333333,-0.014499999999999957,-0.5920000000000001,71.071,0.038700000000000005,-0.073425,-0.5079999999999991,100.0,1.0,1.0,219.21666666666667,0.0,0.0,0.0,0.0,0.0,0.0,0.0,9291.8,0.0,55.0,5.0,255.82333333333332,1.0,0.0,0.0,0.0,0.0,0.0,1.0,0.0,1.7579999999999991,1.7579999999999991,0.0,0.0,1.0,55.0,616.79921,10000.0,85.000001,85.000001,85.000001,85.000001,395.0,0.0,0.0,0.0,1.0,166.665,59.54,59.54,48.676,48.676,34.0,-20.416,24.072000000000003,-24.756666666666668,29.37,0.0,1781.465,-0.35999999999999943,100.0,22.05,22.596,42.259,42.544,0.0,0.0,100.0,0.0,0.0,0.0,0.0,2626.625,2789.6,3920.5,4054.5,306.993,305.9875,315.4046666666667,314.9305,21.94188888888889,20.5983,22.053444444444445,21.5716,314.999998,314.999998,324.999988,324.999988,99.55477142857143,99.50656666666667,99.5671,99.54841428571429,0.09525000000000006,0.0145,-0.0658333333333333,0.1645000000000001,-0.046666666666666856,-0.06666666666666998,1.582,1.584,38.137,29.739333333333335,38.834,35.8225,53.769,34.432,59.2065,52.8615,51.795,33.635,57.786500000000004,51.209666666666664,50.957499999999996,33.2265,57.6535,50.63666666666667,-0.07800000000000007,-0.016000000000000014,0.11021,0.10752,0.0,222.385,222.42000000000002,219.21666666666667,219.21666666666667,0.0,0.0
