,ABS Active,ABS Enabled,AID Allow Tire Blankets,AID Auto Blip,AID Auto Clutch,AID Auto Shift,AID Fuel Rate,AID Ideal Line,AID Mech Damage,AID Stability,AID Tire Wear Rate,Air Density,Air Temp,Ballast,Best Lap Delta,Best Lap Time,Brake Bias,Brake Pos,Brake Temp FL,Brake Temp FR,Brake Temp RL,Brake Temp RR,CG Accel Lateral,CG Accel Longitudinal,CG Accel Vertical,CG Height,Camber FL,Camber FR,Camber RL,Camber RR,Car Coord X,Car Coord Y,Car Coord Z,Car Damage Front,Car Damage Left,Car Damage Rear,Car Damage Right,Car Pos Norm,Caster FL,Caster FR,Chassis Pitch Angle,Chassis Pitch Rate,Chassis Roll Angle,Chassis Roll Rate,Chassis Velocity X,Chassis Velocity Y,Chassis Velocity Z,Chassis Yaw Rate,Clutch Pos,DRS Active,DRS Available,Drive Train Speed,ERS Heat Charging,ERS Is Charging,ERS Max Energy,ERS Power Level,ERS Recovery Level,Engine Brake Setting,Engine Limiter,Engine RPM,Flags,Fuel Level,Gear,Ground Speed,HR Sample Clock,In Pit,KERS Charge,KERS Deployed Energy,KERS Input,KERS Max Energy,LR Sample Clock,Lap Invalidated,Lap Time,Lap Time2,Last Lap Time,Last Sector Time,MR Sample Clock,Max Fuel,Max Power,Max RPM,Max Sus Travel FL,Max Sus Travel FR,Max Sus Travel RL,Max Sus Travel RR,Max Torque,Max Turbo Boost,Num Tires Off Track,Penalties Enabled,Position,Raw Data Sample Rate,Ride Height FL,Ride Height FR,Ride Height RL,Ride Height RR,Road Temp,Self Align Torque FL,Self Align Torque FR,Self Align Torque RL,Self Align Torque RR,Session Lap Count,Session Time Left,Steering Angle,Surface Grip,Suspension Travel FL,Suspension Travel FR,Suspension Travel RL,Suspension Travel RR,TC Active,TC Enabled,Throttle Pos,Tire Dirt Level FL,Tire Dirt Level FR,Tire Dirt Level RL,Tire Dirt Level RR,Tire Load FL,Tire Load FR,Tire Load RL,Tire Load RR,Tire Loaded Radius FL,Tire Loaded Radius FR,Tire Loaded Radius RL,Tire Loaded Radius RR,Tire Pressure FL,Tire Pressure FR,Tire Pressure RL,Tire Pressure RR,Tire Radius FL,Tire Radius FR,Tire Radius RL,Tire Radius RR,Tire Rubber Grip FL,Tire Rubber Grip FR,Tire Rubber Grip RL,Tire Rubber Grip RR,Tire Slip Angle FL,Tire Slip Angle FR,Tire Slip Angle RL,Tire Slip Angle RR,Tire Slip Ratio FL,Tire Slip Ratio FR,Tire Slip Ratio RL,Tire Slip Ratio RR,Tire Temp Core FL,Tire Temp Core FR,Tire Temp Core RL,Tire Temp Core RR,Tire Temp Inner FL,Tire Temp Inner FR,Tire Temp Inner RL,Tire Temp Inner RR,Tire Temp Middle FL,Tire Temp Middle FR,Tire Temp Middle RL,Tire Temp Middle RR,Tire Temp Outer FL,Tire Temp Outer FR,Tire Temp Outer RL,Tire Temp Outer RR,Toe In FL,Toe In FR,Toe In RL,Toe In RR,Turbo Boost,Wheel Angular Speed FL,Wheel Angular Speed FR,Wheel Angular Speed RL,Wheel Angular Speed RR,Wind Direction,Wind Speed
0,0.0,0.0,0.0,1.0,1.0,0.0,0.0,1.0,0.0,100.0,1.0,1.1856,26.0,0.0,0.0,0.0,59.99999,0.0,26.0,26.0,26.0,26.0,-0.07137500000000001,0.32810000000000006,0.04238,296.967,-2.7749,-2.706125,-1.5011,-1.535125,-275.58,216.29250000000002,190.99,0.0,0.0,0.0,0.0,0.0016333333333333755,-5.498166666666667,-5.498166666666667,-0.5084000000000001,1.8696666666666668,-0.0040000000000000036,-0.5295000000000001,65.867,-0.035,-0.164575,0.8520000000000003,100.0,1.0,1.0,203.5,0.0,0.0,0.0,0.0,0.0,0.0,0.0,8625.6,0.0,55.0,5.0,237.09,0.0,0.0,0.0,0.0,0.0,0.0,0.0,0.0,0.006000000000000227,0.006000000000000227,0.0,0.0,0.0,55.0,616.79921,10000.0,85.0,85.0,85.0,85.0,395.0,0.0,0.0,0.0,1.0,20.0,56.87,56.87,51.453,51.453,34.0,-25.184,24.078333333333333,-27.83,22.7375,0.0,1780.564,0.8300000000000018,100.0,23.897,23.454,39.009,39.072,0.0,0.0,100.0,0.0,0.0,0.0,0.0,2790.125,3225.2,3930.0,3802.9,306.2676666666667,304.528,315.3125,315.3905,21.694111111111113,20.4694,21.7415,21.292,314.99999,314.99999,324.99998,324.99998,99.55584285714286,99.50651666666667,99.56451428571428,99.54465714285715,-0.01649999999999996,-0.089,-0.1555,0.0625,-0.07666666666666799,-0.07166666666666544,1.6336666666666666,1.6600000000000001,36.588,28.933999999999997,36.885,34.075,55.044,33.667,58.707499999999996,51.27766666666666,53.004999999999995,32.924,57.35,49.67066666666666,52.1775,32.542500000000004,57.323,49.123,0.00533333333333319,-0.1070000000000002,0.11054000000000001,0.10129,0.0,206.41,206.325,203.5,203.5,0.0,0.0
1,0.0,0.0,0.0,1.0,1.0,0.0,0.0,1.0,0.0,100.0,1.0,1.1856,26.0,0.0,0.0,0.0,59.999996,0.0,26.0,26.0,26.0,26.0,-0.10200000000000001,0.33440000000000003,0.2323,296.143,-2.694,-2.817375,-1.5105,-1.5330000000000001,-272.22,216.28750000000002,190.969875,0.0,0.0,0.0,0.0,0.0035999999999999366,-5.498166666666667,-5.498166666666667,-0.4297,-0.6726666666666667,-0.053777777777777924,-0.786,66.035,-0.050800000000000005,-0.12525,1.3680000000000003,100.0,1.0,1.0,203.55,0.0,0.0,0.0,0.0,0.0,0.0,0.0,8627.7,0.0,55.0,5.0,237.69333333333333,1.0,0.0,0.0,0.0,0.0,0.0,0.0,0.0,0.05699999999999861,0.05699999999999861,0.0,0.0,1.0,55.0,616.79921,10000.0,85.000001,85.000001,85.000001,85.000001,395.0,0.0,0.0,0.0,1.0,333.33500000000004,58.716,58.716,49.667,49.667,34.0,-23.792,15.294999999999998,-34.4625,28.9,0.0,1780.511,0.9200000000000017,100.0,23.791,23.329,41.147,40.42,0.0,0.0,100.0,0.0,0.0,0.0,0.0,2662.25,2249.3,4385.625,4692.6,306.792,307.69375,314.07525,313.1425,21.703333333333333,20.4739,21.752299999999998,21.301,314.999998,314.999998,324.999988,324.999988,99.55584285714286,99.50653333333334,99.56467142857143,99.5448,-0.038250000000000006,-0.127,-0.17733333333333334,0.03916666666666666,-0.054999999999999716,-0.07166666666666544,1.3980000000000001,1.4435,36.646,28.962,36.952,34.1315,55.025,33.702,58.7545,51.343666666666664,52.986999999999995,32.9565,57.394,49.733666666666664,52.159,32.573499999999996,57.364,49.185,0.020333333333333314,-0.12700000000000022,0.104995,0.10981500000000001,0.0,206.92000000000002,206.805,203.55,203.55,0.0,0.0
2,0.0,0.0,0.0,1.0,1.0,0.0,0.0,1.0,0.0,100.0,1.0,1.1856,26.0,0.0,0.0,0.0,59.999996,0.0,26.0,26.0,26.0,26.0,-0.1295,0.31320000000000014,-0.044680000000000004,297.043,-2.6734,-2.8345000000000002,-1.4802,-1.576375,-268.65,216.28,190.95,0.0,0.0,0.0,0.0,0.005699999999999927,-5.498166666666667,-5.498166666666667,-0.49560000000000004,0.18233333333333335,-0.03633333333333333,1.5885,66.197,-0.0727,-0.1904,1.6180000000000003,100.0,1.0,1.0,204.67666666666668,0.0,0.0,0.0,0.0,0.0,0.0,0.0,8675.4,0.0,55.0,5.0,238.27666666666667,0.0,0.0,0.0,0.0,0.0,0.0,0.0,0.0,0.11100000000000065,0.11100000000000065,0.0,0.0,0.0,55.0,616.79921,10000.0,85.000001,85.000001,85.000001,85.000001,395.0,0.0,0.0,0.0,1.0,166.665,57.388,57.388,52.185,52.185,34.0,-27.625999999999998,17.898333333333333,-26.5375,18.795,0.0,1780.459,0.7149999999999999,100.0,24.377,23.319,40.905,39.891,0.0,0.0,100.0,0.0,0.0,0.0,0.0,2981.875,2599.2,3531.375,3569.0,305.7443333333333,306.525,316.2055,316.052,21.713333333333335,20.4784,21.7632,21.3101,314.999998,314.999998,324.999988,324.999988,99.55584285714286,99.50655,99.56481428571429,99.54494285714286,-0.05074999999999996,-0.1395,-0.217,0.0071666666666666675,-0.061666666666667425,-0.054999999999999716,1.704,1.7445,36.708,28.990000000000002,37.019999999999996,34.188,55.009,33.7375,58.793,51.40233333333333,52.972,32.9885,57.43,49.79,52.143,32.6045,57.397,49.24,0.002666666666666817,-0.11399999999999988,0.10424000000000001,0.10534500000000001,0.0,207.405,207.255,204.67666666666668,204.67666666666668,0.0,0.0
3,0.0,0.0,0.0,1.0,1.0,0.0,0.0,1.0,0.0,100.0,1.0,1.1856,26.0,0.0,0.0,0.0,59.999996,0.0,26.0,26.0,26.0,26.0,-0.131875,0.3296000000000001,-0.04488,296.753,-2.7853,-2.74625,-1.4918,-1.57375,-265.46,216.26749999999998,190.93125,0.0,0.0,0.0,0.0,0.007533333333333392,-5.498166666666667,-5.498166666666667,-0.45030000000000003,0.45833333333333337,-0.012666666666666604,-1.205,66.352,-0.0883,-0.13245,1.202,100.0,1.0,1.0,204.73666666666668,0.0,0.0,0.0,0.0,0.0,0.0,0.0,8678.1,0.0,55.0,5.0,238.83333333333331,1.0,0.0,0.0,0.0,0.0,0.0,0.0,0.0,0.15899999999999892,0.15899999999999892,0.0,0.0,1.0,55.0,616.79921,10000.0,85.000001,85.000001,85.000001,85.000001,395.0,0.0,0.0,0.0,1.0,166.665,58.716,58.716,49.896,49.896,34.0,-22.732,15.864999999999998,-34.5575,23.197499999999998,0.0,1780.41,0.6900000000000013,100.0,23.969,23.256,40.832,39.991,0.0,0.0,100.0,0.0,0.0,0.0,0.0,2469.75,2399.1,4258.125,4122.0,307.292,307.01825,314.479,314.57,21.721888888888888,20.4827,21.7729,21.3184,314.999998,314.999998,324.999988,324.999988,99.55585714285715,99.50655,99.56494285714285,99.54508571428572,-0.04574999999999996,-0.1385,-0.22083333333333335,0.0085,-0.060000000000002274,-0.04999999999999716,1.517,1.5685,36.762,29.017,37.08,34.24,54.991,33.772,58.83,51.461,52.955,33.0205,57.4645,49.846666666666664,52.1255,32.6345,57.429,49.29533333333333,-0.0023333333333332984,-0.10099999999999998,0.11601000000000002,0.11059500000000001,0.0,207.89,207.8,204.73666666666668,204.73666666666668,0.0,0.0
4,0.0,0.0,0.0,1.0,1.0,0.0,0.0,1.0,0.0,100.0,1.0,1.1856,26.0,0.0,0.0,0.0,59.999996,0.0,26.0,26.0,26.0,26.0,-0.135,0.3158000000000001,-0.012520000000000002,296.921,-2.7163,-2.799,-1.5059,-1.5831250000000001,-262.28,216.255,190.912625,0.0,0.0,0.0,0.0,0.009399999999999964,-5.498166666666667,-5.498166666666667,-0.4852,-0.7446666666666668,-0.08099999999999996,-1.7170000000000005,66.5,-0.08710000000000001,-0.16955,1.138,100.0,1.0,1.0,205.35333333333335,0.0,0.0,0.0,0.0,0.0,0.0,0.0,8704.2,0.0,55.0,5.0,239.37,0.0,0.0,0.0,0.0,0.0,0.0,0.0,0.0,0.20700000000000074,0.20700000000000074,0.0,0.0,0.0,55.0,616.79921,10000.0,85.000001,85.000001,85.000001,85.000001,395.0,0.0,0.0,0.0,1.0,166.665,58.121,58.121,50.583,50.583,34.0,-27.232,17.03666666666667,-31.3325,19.825,0.0,1780.362,0.7349999999999994,100.0,23.768,23.012,41.334,40.047,0.0,0.0,100.0,0.0,0.0,0.0,0.0,2916.375,2514.5,3984.625,3553.1,306.10833333333335,306.68975,315.09425,315.963,21.730333333333334,20.4869,21.7827,21.3266,314.999998,314.999998,324.999988,324.999988,99.55585714285715,99.50658333333334,99.56508571428571,99.5452,-0.056499999999999995,-0.1405,-0.21316666666666667,0.0205,-0.07666666666666799,-0.03833333333332689,1.6156666666666668,1.638,36.815,29.043,37.141999999999996,34.291,54.972,33.805,58.869,51.51566666666667,52.937,33.051,57.5015,49.898666666666664,52.107,32.664,57.463,49.346666666666664,0.004999999999999893,-0.10250000000000004,0.10929000000000001,0.11452000000000001,0.0,208.305,208.20499999999998,205.35333333333335,205.35333333333332,0.0,0.0
5,0.0,0.0,0.0,1.0,1.0,0.0,0.0,1.0,0.0,100.0,1.0,1.1856,26.0,0.0,0.0,0.0,59.999996,0.0,26.0,26.0,26.0,26.0,-0.132375,0.32910000000000017,-0.0123,296.906,-2.7261,-2.826,-1.489,-1.571,-258.88,216.2375,190.892125,0.0,0.0,0.0,0.0,0.011366666666666525,-5.498166666666667,-5.498166666666667,-0.4757,0.42000000000000004,-0.0812222222222223,1.188,66.65899999999999,-0.09230000000000001,-0.146125,1.1219999999999999,100.0,1.0,1.0,205.7866666666667,0.0,0.0,0.0,0.0,0.0,0.0,0.0,8722.6,0.0,55.0,5.0,239.94,1.0,0.0,0.0,0.0,0.0,0.0,0.0,0.0,0.2579999999999991,0.2579999999999991,0.0,0.0,1.0,55.0,616.79921,10000.0,85.000001,85.000001,85.000001,85.000001,395.0,0.0,0.0,0.0,1.0,333.33500000000004,58.517,58.517,50.705,50.705,34.0,-24.875999999999998,17.538333333333334,-31.377499999999998,22.46,0.0,1780.31,0.39000000000000057,100.0,24.025,22.728,41.174,39.676,0.0,0.0,100.0,0.0,0.0,0.0,0.0,2712.875,2483.8,4040.75,3978.1000000000004,306.4943333333333,307.0,314.977,315.023,21.739666666666665,20.4913,21.793,21.3352,314.999998,314.999998,324.999988,324.999988,99.55587142857142,99.50658333333334,99.56522857142858,99.54534285714286,-0.04049999999999998,-0.117,-0.20416666666666666,0.01966666666666667,-0.041666666666671404,-0.06833333333332803,1.577,1.6219999999999999,36.873000000000005,29.0705,37.206,34.345,54.956,33.8405,58.908500000000004,51.57233333333333,52.922,33.083,57.538,49.95333333333333,52.091499999999996,32.6945,57.4975,49.39966666666667,-0.018999999999999906,-0.08250000000000002,0.10673500000000001,0.11771500000000001,0.0,208.82999999999998,208.74,205.7866666666667,205.7866666666667,0.0,0.0
6,0.0,0.0,0.0,1.0,1.0,0.0,0.0,1.0,0.0,100.0,1.0,1.1856,26.0,0.0,0.0,0.0,59.999996,0.0,26.0,26.0,26.0,26.0,-0.1255,0.30930000000000013,0.005260000000000001,296.844,-2.6933,-2.8585000000000003,-1.5310000000000001,-1.566875,-255.68,216.2175,190.87275,0.0,0.0,0.0,0.0,0.01323333333333332,-5.498166666666667,-5.498166666666667,-0.47040000000000004,0.1293333333333333,-0.0645555555555557,0.8780000000000001,66.80799999999999,-0.0917,-0.14527500000000002,0.798,100.0,1.0,1.0,206.24333333333334,0.0,0.0,0.0,0.0,0.0,0.0,0.0,8741.9,0.0,55.0,5.0,240.4766666666667,0.0,0.0,0.0,0.0,0.0,0.0,0.0,0.0,0.30600000000000094,0.30600000000000094,0.0,0.0,0.0,55.0,616.79921,10000.0,85.000001,85.000001,85.000001,85.000001,395.0,0.0,0.0,0.0,1.0,333.33500000000004,58.365,58.365,50.568,50.568,34.0,-23.927999999999997,19.205,-31.0125,22.4075,0.0,1780.262,-0.03500000000000014,100.0,23.851,22.744,41.262,39.936,0.0,0.0,100.0,0.0,0.0,0.0,0.0,2709.625,2590.3,3965.25,3935.5,306.4556666666667,306.5795,315.15175,315.121,21.748333333333335,20.4955,21.8028,21.3435,314.999998,314.999998,324.999988,324.999988,99.55587142857142,99.5066,99.56535714285714,99.54548571428572,-0.019000000000000017,-0.10425,-0.20033333333333334,0.02466666666666667,-0.03333333333333144,-0.05833333333333002,1.582,1.6115,36.927,29.097,37.266999999999996,34.397,54.939,33.873,58.946,51.629666666666665,52.906,33.113,57.573,50.007999999999996,52.075,32.723,57.5295,49.45333333333333,-0.04400000000000004,-0.05449999999999999,0.10228000000000001,0.11717000000000001,0.0,209.255,209.195,206.24333333333334,206.24333333333334,0.0,0.0
7,0.0,0.0,0.0,1.0,1.0,0.0,0.0,1.0,0.0,100.0,1.0,1.1856,26.0,0.0,0.0,0.0,59.999996,0.0,26.0,26.0,26.0,26.0,-0.080125,0.30410000000000004,0.03292,296.707,-2.6628,-2.8196250000000003,-1.4892,-1.60925,-252.06,216.19,190.851,0.0,0.0,0.0,0.0,0.01533333333333331,-5.498166666666667,-5.498166666666667,-0.4736,0.09199999999999997,-0.05433333333333357,1.149,66.974,-0.0765,-0.153525,0.39000000000000057,100.0,1.0,1.0,206.74333333333334,0.0,0.0,0.0,0.0,0.0,0.0,0.0,8763.1,0.0,55.0,5.0,241.07333333333332,1.0,0.0,0.0,0.0,0.0,0.0,0.0,0.0,0.35999999999999943,0.35999999999999943,0.0,0.0,1.0,55.0,616.79921,10000.0,85.000001,85.000001,85.000001,85.000001,395.0,0.0,0.0,0.0,1.0,166.665,58.136,58.136,50.72,50.72,34.0,-23.214,20.060000000000002,-29.1425,23.5575,0.0,1780.21,-0.23999999999999844,100.0,23.971,22.825,41.277,40.16,0.0,0.0,100.0,0.0,0.0,0.0,0.0,2749.25,2610.8,3894.375,3924.2,306.2936666666667,306.508,315.28,315.097,21.758,20.5003,21.8138,21.352899999999998,314.999998,314.999998,324.999988,324.999988,99.55587142857142,99.5066,99.56551428571429,99.54562857142857,0.007749999999999924,-0.076,-0.184,0.034833333333333334,-0.04833333333333201,-0.06333333333333258,1.5826666666666667,1.5845,36.986999999999995,29.127000000000002,37.336,34.4555,54.92,33.908500000000004,58.9875,51.693333333333335,52.888,33.146,57.612,50.06933333333333,52.056,32.7545,57.5655,49.513333333333335,-0.06833333333333313,-0.03299999999999992,0.10408,0.10647000000000001,0.0,209.765,209.72500000000002,206.74333333333334,206.74333333333334,0.0,0.0
8,0.0,0.0,0.0,1.0,1.0,0.0,0.0,1.0,0.0,100.0,1.0,1.1856,26.0,0.0,0.0,0.0,59.999996,0.0,26.0,26.0,26.0,26.0,-0.037875,0.30490000000000017,-0.043960000000000006,296.814,-2.7539,-2.78425,-1.4748,-1.561375,-248.64,216.16500000000002,190.830125,0.0,0.0,0.0,0.0,0.017299999999999982,-5.498166666666667,-5.498166666666667,-0.4786,-0.579,-0.039000000000000146,-0.4744999999999999,67.132,-0.0543,-0.1491,-0.03799999999999937,100.0,1.0,1.0,207.16333333333333,0.0,0.0,0.0,0.0,0.0,0.0,0.0,8781.0,0.0,55.0,5.0,241.64333333333332,0.0,0.0,0.0,0.0,0.0,0.0,0.0,0.0,0.4109999999999978,0.4109999999999978,0.0,0.0,0.0,55.0,616.79921,10000.0,85.000001,85.000001,85.000001,85.000001,395.0,0.0,0.0,0.0,1.0,166.665,58.67,58.67,50.125,50.125,34.0,-21.97,19.616666666666667,-28.75,24.575,0.0,1780.159,-0.3949999999999996,100.0,23.441,22.966,41.266,40.464,0.0,0.0,100.0,0.0,0.0,0.0,0.0,2665.75,2558.7,3982.0,3922.3,306.8636666666667,306.5895,315.10425,315.01225,21.76688888888889,20.5048,21.8241,21.3617,314.999998,314.999998,324.999988,324.999988,99.55587142857142,99.50661666666667,99.56565714285715,99.54575714285714,0.02750000000000008,-0.07050000000000001,-0.163,0.06516666666666668,-0.05333333333332746,-0.04333333333332945,1.57,1.5655000000000001,37.043,29.155,37.400999999999996,34.510999999999996,54.899,33.941,59.027,51.753,52.867999999999995,33.1755,57.649,50.126333333333335,52.036,32.7825,57.5995,49.56933333333333,-0.09033333333333315,-0.02450000000000019,0.11006,0.10827,0.0,210.22500000000002,210.195,207.16333333333333,207.16333333333333,0.0,0.0
9,0.0,0.0,0.0,1.0,1.0,0.0,0.0,1.0,0.0,100.0,1.0,1.1856,26.0,0.0,0.0,0.0,59.999996,0.0,26.0,26.0,26.0,26.0,-0.035625000000000004,0.31020000000000003,0.04148,296.478,-2.6747,-2.783875,-1.5319,-1.539875,-245.62,216.14,190.811375,0.0,0.0,0.0,0.0,0.019066666666666565,-5.498166666666667,-5.498166666666667,-0.4793,0.7293333333333334,-0.03622222222222238,0.8765000000000001,67.267,-0.0316,-0.144925,-0.20000000000000018,100.0,1.0,1.0,207.68333333333334,0.0,0.0,0.0,0.0,0.0,0.0,0.0,8802.9,0.0,55.0,5.0,242.12666666666667,1.0,0.0,0.0,0.0,0.0,0.0,0.0,0.0,0.4559999999999995,0.4559999999999995,0.0,0.0,1.0,55.0,616.79921,10000.0,85.000001,85.000001,85.000001,85.000001,395.0,0.0,0.0,0.0,1.0,333.33500000000004,57.617,57.617,50.964,50.964,34.0,-23.072000000000003,22.031666666666666,-27.22,25.585,0.0,1780.112,-0.5500000000000007,100.0,24.043,23.211,40.949,40.326,0.0,0.0,100.0,0.0,0.0,0.0,0.0,2872.5,2707.8,3893.25,3995.2,305.95466666666664,306.2295,315.39775,315.001,21.775,20.509,21.8331,21.3695,314.999998,314.999998,324.999988,324.999988,99.55587142857142,99.50661666666667,99.56578571428571,99.54588571428572,0.04475000000000007,-0.03675,-0.13716666666666666,0.08750000000000001,-0.03499999999999659,-0.061666666666667425,1.6066666666666667,1.6075,37.094,29.180999999999997,37.457,34.559,54.884,33.971000000000004,59.0585,51.805,52.852999999999994,33.203,57.678,50.17633333333333,52.021,32.809,57.6265,49.618,-0.08866666666666667,-0.01100000000000012,0.10655500000000001,0.10620500000000001,0.0,210.655,210.66500000000002,207.68333333333334,207.68333333333334,0.0,0.0
10,0.0,0.0,0.0,1.0,1.0,0.0,0.0,1.0,0.0,100.0,1.0,1.1856,26.0,0.0,0.0,0.0,59.999996,0.0,26.0,26.0,26.0,26.0,0.008625,0.3163,-0.025900000000000003,296.448,-2.7591,-2.7666250000000003,-1.5151,-1.5153750000000001,-242.19,216.1125,190.790625,0.0,0.0,0.0,0.0,0.021066666666666567,-5.498166666666667,-5.498166666666667,-0.4596,-0.577,0.005222222222222239,0.36549999999999994,67.426,-0.008700000000000001,-0.1398,-0.45999999999999996,100.0,1.0,1.0,207.95333333333332,0.0,0.0,0.0,0.0,0.0,0.0,0.0,8814.4,0.0,55.0,5.0,242.7,0.0,0.0,0.0,0.0,0.0,0.0,1.0,0.0,0.5069999999999979,0.5069999999999979,0.0,0.0,0.0,55.0,616.79921,10000.0,85.000001,85.000001,85.000001,85.000001,395.0,0.0,0.0,0.0,1.0,333.33500000000004,58.777,58.777,49.515,49.515,34.0,-19.182,20.243333333333332,-28.54,27.1475,0.0,1780.061,-0.6499999999999986,100.0,23.63,23.28,41.315,41.175,0.0,0.0,100.0,0.0,0.0,0.0,0.0,2495.0,2487.8,4157.375,4123.2,307.31933333333336,306.785,314.70575,314.538,21.78388888888889,20.5135,21.8436,21.3785,314.999998,314.999998,324.999988,324.999988,99.55588571428571,99.50661666666667,99.56592857142857,99.54604285714285,0.0665,-0.0285,-0.11483333333333333,0.09383333333333332,-0.045000000000001705,-0.04999999999999716,1.5233333333333334,1.516,37.15,29.2095,37.522999999999996,34.616,54.866,34.001999999999995,59.099000000000004,51.86833333333333,52.836,33.2315,57.716,50.237,52.0035,32.836,57.661500000000004,49.67766666666667,-0.10433333333333317,-0.0024999999999999467,0.10443000000000001,0.10079500000000001,0.0,211.115,211.14,207.95333333333332,207.95333333333332,0.0,0.0
11,0.0,0.0,0.0,1.0,1.0,0.0,0.0,1.0,0.0,100.0,1.0,1.1856,26.0,0.0,0.0,0.0,59.999996,0.0,26.0,26.0,26.0,26.0,0.030125,0.29600000000000004,-0.06986,296.936,-2.7677,-2.7475,-1.5670000000000002,-1.504375,-238.74,216.085,190.769625,0.0,0.0,0.0,0.0,0.022599999999999953,-5.498166666666667,-5.498166666666667,-0.49920000000000003,-0.028999999999999915,0.030888888888888966,0.258,67.575,0.013900000000000001,-0.16137500000000002,-0.7279999999999998,100.0,1.0,1.0,208.74,0.0,0.0,0.0,0.0,0.0,0.0,0.0,8847.7,0.0,55.0,5.0,243.23666666666668,1.0,0.0,0.0,0.0,0.0,0.0,1.0,0.0,0.5579999999999998,0.5579999999999998,0.0,0.0,1.0,55.0,616.79921,10000.0,85.000001,85.000001,85.000001,85.000001,395.0,0.0,0.0,0.0,1.0,333.33500000000004,58.121,58.121,51.071,51.071,34.0,-19.344,23.996666666666666,-22.795,25.7275,0.0,1780.01,-0.6600000000000001,100.0,23.523,23.403,40.765,40.965,0.0,0.0,100.0,0.0,0.0,0.0,0.0,2603.75,2790.0,3617.625,3784.9,306.868,305.98225,316.09425,315.48425,21.792666666666666,20.5183,21.8538,21.3874,314.999998,314.999998,324.999988,324.999988,99.5559,99.50663333333333,99.56605714285715,99.54617142857143,0.09675000000000011,0.005,-0.08750000000000001,0.13916666666666666,-0.02499999999999858,-0.041666666666671404,1.6993333333333334,1.663,37.204,29.2395,37.586,34.671,54.847,34.0345,59.132,51.927,52.818,33.2615,57.7465,50.29333333333334,51.985,32.865,57.689499999999995,49.733000000000004,-0.10799999999999987,0.0,0.11150000000000002,0.10956,0.0,211.555,211.60000000000002,208.74,208.74,0.0,0.0
12,0.0,0.0,0.0,1.0,1.0,0.0,0.0,1.0,0.0,100.0,1.0,1.1856,26.0,0.0,0.0,0.0,59.999996,0.0,26.0,26.0,26.0,26.0,0.055375,0.3026,0.0224,296.295,-2.8144,-2.744375,-1.5349,-1.507625,-235.5,216.06,190.74875,0.0,0.0,0.0,0.0,0.025466666666666526,-5.498166666666667,-5.498166666666667,-0.4839,0.2556666666666666,0.01677777777777778,0.649,67.723,0.031100000000000003,-0.13540000000000002,-0.7379999999999995,100.0,1.0,1.0,208.94333333333333,0.0,0.0,0.0,0.0,0.0,0.0,0.0,8856.3,0.0,55.0,5.0,243.76999999999998,0.0,0.0,0.0,0.0,0.0,0.0,1.0,0.0,0.6059999999999981,0.6059999999999981,0.0,0.0,0.0,55.0,616.79921,10000.0,85.000001,85.000001,85.000001,85.000001,395.0,0.0,0.0,0.0,1.0,333.33500000000004,57.983,57.983,49.713,49.713,34.0,-19.762,24.901666666666667,-25.564999999999998,29.7875,0.0,1779.963,-0.5799999999999983,100.0,23.442,23.545,40.841,40.959,0.0,0.0,100.0,0.0,0.0,0.0,0.0,2657.5,2830.5,4063.25,4114.8,306.7056666666667,305.88075,314.916,314.68675,21.801,20.5228,21.8635,21.395699999999998,314.999998,314.999998,324.999988,324.999988,99.55591428571428,99.50663333333333,99.5662,99.54631428571429,0.10824999999999996,0.01975,-0.06783333333333333,0.1535,-0.04333333333332945,-0.06333333333333258,1.5493333333333332,1.532,37.256,29.2675,37.647,34.7235,54.831,34.066,59.168,51.984,52.803,33.2905,57.78,50.348333333333336,51.9685,32.8925,57.72,49.78666666666666,-0.10133333333333328,-0.0030000000000001137,0.108795,0.10200000000000001,0.0,212.04500000000002,212.09,208.94333333333333,208.94333333333333,0.0,0.0
13,0.0,0.0,0.0,1.0,1.0,0.0,0.0,1.0,0.0,100.0,1.0,1.1856,26.0,0.0,0.0,0.0,59.999996,0.0,26.0,26.0,26.0,26.0,0.080875,0.30600000000000005,0.04072,295.944,-2.7661,-2.73225,-1.5705,-1.4893750000000001,-232.04,216.035,190.726875,0.0,0.0,0.0,0.0,0.026966666666666583,-5.498166666666667,-5.498166666666667,-0.4771,-0.09600000000000009,0.02055555555555566,-0.43000000000000016,67.877,0.0414,-0.14502500000000002,-0.8239999999999998,100.0,1.0,1.0,209.37333333333333,0.0,0.0,0.0,0.0,0.0,0.0,0.0,8874.5,0.0,55.0,5.0,244.32666666666665,1.0,0.0,0.0,0.0,0.0,0.0,1.0,0.0,0.657,0.657,0.0,0.0,1.0,55.0,616.79921,10000.0,85.000001,85.000001,85.000001,85.000001,395.0,0.0,0.0,0.0,1.0,333.33500000000004,57.755,57.755,49.728,49.728,34.0,-19.09,24.328333333333333,-25.9025,30.2825,0.0,1779.911,-0.875,100.0,23.63,23.919,41.0,41.617000000000004,0.0,0.0,100.0,0.0,0.0,0.0,0.0,2740.25,2699.3,4068.75,4174.0,306.57533333333333,306.10025,314.95325,314.43375,21.80988888888889,20.5277,21.8739,21.4048,314.999998,314.999998,324.999988,324.999988,99.55592857142857,99.50663333333333,99.56634285714286,99.54645714285714,0.13149999999999995,0.0385,-0.06416666666666668,0.15383333333333335,-0.05666666666667197,-0.046666666666666856,1.5346666666666666,1.5230000000000001,37.312,29.298000000000002,37.712,34.78,54.816,34.1005,59.2055,52.047333333333334,52.789,33.322,57.815,50.409333333333336,51.9535,32.923,57.751999999999995,49.846666666666664,-0.1299999999999999,0.020000000000000018,0.10805000000000001,0.10404500000000001,0.0,212.5,212.565,209.37333333333333,209.37333333333333,0.0,0.0
14,0.0,0.0,0.0,1.0,1.0,0.0,0.0,1.0,0.0,100.0,1.0,1.1856,26.0,0.0,0.0,0.0,59.999996,0.0,26.0,26.0,26.0,26.0,0.11887500000000001,0.29290000000000016,-0.024880000000000003,296.265,-2.7974,-2.73025,-1.5828,-1.493625,-228.37,216.01,190.704125,0.0,0.0,0.0,0.0,0.029099999999999904,-5.498166666666667,-5.498166666666667,-0.4874,-0.11833333333333318,0.05277777777777781,-0.34299999999999997,68.037,0.0541,-0.15585000000000002,-0.9739999999999993,100.0,1.0,1.0,209.97,0.0,0.0,0.0,0.0,0.0,0.0,0.0,8899.9,0.0,55.0,5.0,244.9,0.0,0.0,0.0,0.0,0.0,0.0,1.0,0.0,0.7109999999999985,0.7109999999999985,0.0,0.0,0.0,55.0,616.79921,10000.0,85.000001,85.000001,85.000001,85.000001,395.0,0.0,0.0,0.0,1.0,166.665,57.892,57.892,50.018,50.018,34.0,-18.587999999999997,24.938333333333333,-23.2125,30.1175,0.0,1779.859,-1.0249999999999986,100.0,23.409,24.009,40.896,41.76,0.0,0.0,100.0,0.0,0.0,0.0,0.0,2701.375,2741.2,3864.625,4002.9,306.854,305.90825,315.47525,314.835,21.819111111111113,20.5328,21.8848,21.4144,314.999998,314.999998,324.999988,324.999988,99.55592857142857,99.50663333333333,99.5665,99.54661428571428,0.13850000000000007,0.0415,-0.043500000000000004,0.18266666666666667,-0.07333333333333059,-0.04833333333333201,1.6056666666666666,1.5594999999999999,37.370000000000005,29.33,37.78,34.84,54.8,34.137,59.2435,52.11266666666667,52.772999999999996,33.356,57.85,50.47233333333333,51.9375,32.955,57.783500000000004,49.90833333333333,-0.1319999999999999,0.020000000000000018,0.10069,0.11558000000000002,0.0,213.005,213.06,209.97,209.97,0.0,0.0
15,0.0,0.0,0.0,1.0,1.0,0.0,0.0,1.0,0.0,100.0,1.0,1.1856,26.0,0.0,0.0,0.0,59.999996,0.0,26.0,26.0,26.0,26.0,0.13725,0.30279999999999996,-0.06828,296.28,-2.8059000000000003,-2.692125,-1.6066,-1.4945,-225.1,215.99,190.683625,0.0,0.0,0.0,0.0,0.030999999999999917,-5.498166666666667,-5.498166666666667,-0.47600000000000003,0.1466666666666666,0.07877777777777784,-0.8525,68.18,0.0664,-0.1351,-1.177999999999999,100.0,1.0,1.0,210.35666666666668,0.0,0.0,0.0,0.0,0.0,0.0,0.0,8916.3,0.0,55.0,5.0,245.41666666666666,1.0,0.0,0.0,0.0,0.0,0.0,1.0,0.0,0.7590000000000003,0.7590000000000003,0.0,0.0,1.0,55.0,616.79921,10000.0,85.000001,85.000001,85.000001,85.000001,395.0,0.0,0.0,0.0,1.0,166.665,58.289,58.289,49.759,49.759,34.0,-16.016,24.781666666666666,-23.9625,32.0875,0.0,1779.811,-1.0700000000000003,100.0,23.413,24.026,40.679,41.923,0.0,0.0,100.0,0.0,0.0,0.0,0.0,2424.125,2708.0,3978.5,4167.7,307.51866666666666,306.0365,315.29825,314.41525,21.827444444444446,20.537399999999998,21.8944,21.4229,314.999998,314.999998,324.999988,324.999988,99.55595714285714,99.50665,99.56662857142857,99.54675714285715,0.15599999999999992,0.05625,-0.036000000000000004,0.18783333333333335,-0.03999999999999915,-0.051666666666669414,1.5826666666666667,1.5225,37.421,29.3585,37.84,34.893,54.786,34.170500000000004,59.2755,52.172,52.759,33.387,57.879999999999995,50.529333333333334,51.923,32.985,57.8105,49.964666666666666,-0.14066666666666672,0.027499999999999858,0.10632000000000001,0.11225500000000001,0.0,213.43,213.51,210.35666666666668,210.35666666666668,0.0,0.0
16,0.0,0.0,0.0,1.0,1.0,0.0,0.0,1.0,0.0,100.0,1.0,1.1856,26.0,0.0,0.0,0.0,59.999996,0.0,26.0,26.0,26.0,26.0,0.136125,0.28770000000000007,-0.041080000000000005,296.173,-2.8602,-2.644875,-1.5769000000000002,-1.4985,-221.82,215.9725,190.662625,0.0,0.0,0.0,0.0,0.03289999999999993,-5.498166666666667,-5.498166666666667,-0.5016,-0.5726666666666669,0.06288888888888877,-1.13,68.321,0.0809,-0.15425,-1.2520000000000007,100.0,1.0,1.0,210.84,0.0,0.0,0.0,0.0,0.0,0.0,0.0,8936.7,0.0,55.0,5.0,245.92666666666668,0.0,0.0,0.0,0.0,0.0,0.0,1.0,0.0,0.8069999999999986,0.8069999999999986,0.0,0.0,0.0,55.0,616.79921,10000.0,85.000001,85.000001,85.000001,85.000001,395.0,0.0,0.0,0.0,1.0,166.665,57.709,57.709,49.881,49.881,34.0,-18.727999999999998,26.455,-21.3425,30.2975,0.0,1779.763,-0.9600000000000009,100.0,23.189,24.134,40.927,41.97,0.0,0.0,100.0,0.0,0.0,0.0,0.0,2733.25,2872.5,3804.375,3954.8,306.7613333333333,305.6155,315.5965,314.9855,21.835444444444445,20.542,21.9041,21.4314,314.999998,314.999998,324.999988,324.999988,99.55595714285714,99.50666666666666,99.56677142857143,99.54688571428571,0.1552500000000001,0.0675,-0.014833333333333334,0.19616666666666666,-0.054999999999999716,-0.04833333333333201,1.6166666666666667,1.5725,37.471000000000004,29.387999999999998,37.900999999999996,34.946,54.769,34.205,59.3105,52.22933333333333,52.744,33.4185,57.9125,50.584666666666664,51.9065,33.0155,57.8405,50.019,-0.1303333333333332,0.022499999999999964,0.10697500000000001,0.103775,0.0,213.84,213.92000000000002,210.84,210.84,0.0,0.0
17,0.0,0.0,0.0,1.0,1.0,0.0,0.0,1.0,0.0,100.0,1.0,1.1856,26.0,0.0,0.0,0.0,59.999996,0.0,26.0,26.0,26.0,26.0,0.11975000000000001,0.31800000000000006,0.02372,295.7,-2.8208,-2.62725,-1.6219000000000001,-1.458625,-218.32999999999998,215.95749999999998,190.639875,0.0,0.0,0.0,0.0,0.03493333333333337,-5.498166666666667,-5.498166666666667,-0.48410000000000003,0.3723333333333334,0.05022222222222217,1.0745,68.474,0.0891,-0.13175,-1.226,100.0,1.0,1.0,211.17666666666668,0.0,0.0,0.0,0.0,0.0,0.0,0.0,8951.0,0.0,55.0,5.0,246.47,1.0,0.0,0.0,0.0,0.0,0.0,1.0,0.0,0.8580000000000005,0.8580000000000005,0.0,0.0,1.0,55.0,616.79921,10000.0,85.000001,85.000001,85.000001,85.000001,395.0,0.0,0.0,0.0,1.0,333.33500000000004,57.724,57.724,49.286,49.286,34.0,-17.026,25.916666666666664,-24.060000000000002,34.307500000000005,0.0,1779.711,-1.0,100.0,23.735,24.169,40.922,41.918,0.0,0.0,100.0,0.0,0.0,0.0,0.0,2609.875,2820.8,4182.75,4311.4,306.85833333333335,305.9415,314.70225,314.26,21.844333333333335,20.547,21.9143,21.4404,314.999998,314.999998,324.999988,324.999988,99.55598571428571,99.50666666666666,99.56691428571429,99.54704285714286,0.17474999999999996,0.0785,-0.0016666666666666668,0.21883333333333335,-0.04833333333333201,-0.05833333333333002,1.561,1.513,37.527,29.419,37.965,35.0025,54.756,34.2425,59.3465,52.291333333333334,52.730999999999995,33.4535,57.945499999999996,50.644666666666666,51.8935,33.049,57.8705,50.077666666666666,-0.1346666666666667,0.022499999999999964,0.10557000000000001,0.10663,0.0,214.35000000000002,214.435,211.17666666666668,211.17666666666668,0.0,0.0
18,0.0,0.0,0.0,1.0,1.0,0.0,0.0,1.0,0.0,100.0,1.0,1.1856,26.0,0.0,0.0,0.0,59.999996,0.0,26.0,26.0,26.0,26.0,0.13,0.29310000000000014,0.0043,295.715,-2.859,-2.596,-1.6411,-1.399,-215.04,215.9475,190.618625,0.0,0.0,0.0,0.0,0.036833333333333385,-5.498166666666667,-5.498166666666667,-0.4989,-0.3966666666666667,0.07722222222222208,0.9634999999999998,68.614,0.0913,-0.152475,-1.3399999999999999,100.0,1.0,1.0,211.68,0.0,0.0,0.0,0.0,0.0,0.0,0.0,8972.4,0.0,55.0,5.0,246.97666666666666,0.0,0.0,0.0,0.0,0.0,0.0,1.0,0.0,0.9059999999999988,0.9059999999999988,0.0,0.0,0.0,55.0,616.79921,10000.0,85.000001,85.000001,85.000001,85.000001,395.0,0.0,0.0,0.0,1.0,333.33500000000004,57.419,57.419,49.376999999999995,49.376999999999995,34.0,-16.938,28.92,-22.5175,31.905,0.0,1779.663,-1.3499999999999979,100.0,23.521,24.177,41.123,42.311,0.0,0.0,100.0,0.0,0.0,0.0,0.0,2632.25,3059.9,3898.375,4151.8,306.8503333333333,305.21575,315.36475,314.61725,21.852444444444444,20.5517,21.9241,21.448999999999998,314.999998,314.999998,324.999988,324.999988,99.556,99.50668333333333,99.56704285714285,99.54718571428572,0.18825000000000003,0.09675,-0.0071666666666666675,0.21933333333333335,-0.01833333333333087,-0.06833333333332803,1.601,1.5495,37.578,29.4485,38.025999999999996,35.0565,54.742000000000004,34.278,59.3805,52.351,52.718,33.4865,57.977000000000004,50.702,51.8795,33.0805,57.899,50.13433333333333,-0.15399999999999991,0.04400000000000004,0.10694000000000001,0.10527500000000001,0.0,214.72500000000002,214.85000000000002,211.68,211.68,0.0,0.0
19,0.0,0.0,0.0,1.0,1.0,0.0,0.0,1.0,0.0,100.0,1.0,1.1856,26.0,0.0,0.0,0.0,59.999996,0.0,26.0,26.0,26.0,26.0,0.176125,0.3204,0.07150000000000001,295.364,-2.7828,-2.69275,-1.577,-1.38225,-211.54,215.94,190.595875,0.0,0.0,0.0,0.0,0.038866666666666605,-5.498166666666667,-5.498166666666667,-0.48050000000000004,0.7546666666666666,0.0862222222222222,-0.645,68.763,0.09920000000000001,-0.133275,-1.6499999999999995,100.0,1.0,1.0,212.06,0.0,0.0,0.0,0.0,0.0,0.0,0.0,8988.5,0.0,55.0,5.0,247.51666666666665,1.0,0.0,0.0,0.0,0.0,0.0,1.0,0.0,0.9570000000000007,0.9570000000000007,0.0,0.0,1.0,55.0,616.79921,10000.0,85.000001,85.000001,85.000001,85.000001,395.0,0.0,0.0,0.0,1.0,333.33500000000004,57.343,57.343,49.132999999999996,49.132999999999996,34.0,-15.399999999999999,27.73,-22.655,34.457499999999996,0.0,1779.611,-1.6550000000000011,100.0,23.757,24.763,40.858000000000004,42.55,0.0,0.0,100.0,0.0,0.0,0.0,0.0,2616.625,2807.3,4081.75,4414.7,306.9186666666667,305.66475,314.94625,313.9375,21.86122222222222,20.5569,21.9343,21.4581,314.999998,314.999998,324.999988,324.999988,99.55602857142857,99.50668333333333,99.56718571428571,99.54732857142857,0.21025000000000005,0.10725,0.0006666666666666666,0.21866666666666665,-0.030000000000001137,-0.06499999999999773,1.555,1.486,37.632,29.4805,38.089,35.113,54.730999999999995,34.3195,59.414500000000004,52.41433333333333,52.707,33.5245,58.0085,50.763333333333335,51.8675,33.117,57.9275,50.19466666666666,-0.18633333333333324,0.0714999999999999,0.10653000000000001,0.10587500000000001,0.0,215.22,215.365,212.06,212.06,0.0,0.0
20,0.0,0.0,0.0,1.0,1.0,0.0,0.0,1.0,0.0,100.0,1.0,1.1856,26.0,0.0,0.0,0.0,59.999996,0.0,26.0,26.0,26.0,26.0,0.21962500000000001,0.27180000000000004,-0.07702,295.853,-2.8871,-2.6411249999999997,-1.5893000000000002,-1.497125,-207.82,215.935,190.572,0.0,0.0,0.0,0.0,0.041033333333333366,-5.498166666666667,-5.498166666666667,-0.5019,-1.1680000000000001,0.09388888888888891,-0.6890000000000001,68.92,0.1164,-0.15815,-2.042,100.0,1.0,1.0,212.60666666666668,0.0,0.0,0.0,0.0,0.0,0.0,0.0,9011.6,0.0,55.0,5.0,248.08333333333334,0.0,0.0,0.0,0.0,0.0,0.0,0.0,0.0,1.0109999999999992,1.0109999999999992,0.0,0.0,0.0,55.0,616.79921,10000.0,85.000001,85.000001,85.000001,85.000001,395.0,0.0,0.0,0.0,1.0,166.665,57.877,57.877,49.254999999999995,49.254999999999995,34.0,-14.759999999999998,28.566666666666666,-20.1525,33.6075,0.0,1779.559,-1.8999999999999986,100.0,23.212,24.468,41.289,42.993,0.0,0.0,100.0,0.0,0.0,0.0,0.0,2539.375,2839.2,3807.625,4003.2,307.29133333333334,305.68625,315.56225,314.8295,21.87,20.5622,21.9453,21.4679,314.999998,314.999998,324.999988,324.999988,99.55604285714286,99.5067,99.56734285714286,99.54748571428571,0.23199999999999998,0.13825,0.016833333333333332,0.24933333333333335,-0.030000000000001137,-0.030000000000001137,1.585,1.5125,37.688,29.5135,38.158,35.174,54.715,34.362,59.454,52.482,52.692,33.564,58.045500000000004,50.82866666666666,51.851,33.1545,57.961,50.25866666666667,-0.19799999999999995,0.09299999999999997,0.11386,0.10866500000000001,0.0,215.63,215.785,212.60666666666668,212.60666666666668,0.0,0.0
21,0.0,0.0,0.0,1.0,1.0,0.0,0.0,1.0,0.0,100.0,1.0,1.1856,26.0,0.0,0.0,0.0,59.999996,0.0,26.0,26.0,26.0,26.0,0.207375,0.30010000000000003,-0.03982,295.898,-2.8582,-2.639875,-1.6619000000000002,-1.449,-204.72,215.9375,190.55125,0.0,0.0,0.0,0.0,0.04283333333333339,-5.498166666666667,-5.498166666666667,-0.5088,0.6406666666666667,0.08955555555555561,0.6160000000000001,69.048,0.1394,-0.14072500000000002,-2.3579999999999997,100.0,1.0,1.0,213.11,0.0,0.0,0.0,0.0,0.0,0.0,0.0,9033.0,0.0,55.0,5.0,248.54000000000002,1.0,0.0,0.0,0.0,0.0,0.0,0.0,0.0,1.056000000000001,1.056000000000001,0.0,0.0,1.0,55.0,616.79921,10000.0,85.000001,85.000001,85.000001,85.000001,395.0,0.0,0.0,0.0,1.0,333.33500000000004,57.617,57.617,49.667,49.667,34.0,-14.765999999999998,29.613333333333333,-19.419999999999998,34.4975,0.0,1779.511,-1.0249999999999986,100.0,23.525,24.503,40.679,42.525999999999996,0.0,0.0,100.0,0.0,0.0,0.0,0.0,2509.75,2969.0,3877.375,4081.8,307.176,305.4635,315.4895,314.8185,21.877555555555556,20.5667,21.9541,21.4757,314.999998,314.999998,324.999988,324.999988,99.55607142857143,99.50671666666666,99.56747142857142,99.54762857142858,0.22524999999999995,0.13275,0.05383333333333334,0.27666666666666667,-0.05833333333333002,-0.054999999999999716,1.65,1.572,37.735,29.542,38.213,35.2235,54.706,34.400999999999996,59.484,52.535333333333334,52.683,33.6,58.071,50.879999999999995,51.841,33.191,57.9835,50.312666666666665,-0.16100000000000003,0.05449999999999999,0.11219000000000001,0.10149000000000001,0.0,216.09,216.235,213.11,213.11,0.0,0.0
22,0.0,0.0,0.0,1.0,1.0,0.0,0.0,1.0,0.0,100.0,1.0,1.1856,26.0,0.0,0.0,0.0,59.999996,0.0,26.0,26.0,26.0,26.0,0.151125,0.2965,-0.01024,295.654,-2.9337,-2.589,-1.6598000000000002,-1.4368750000000001,-200.99,215.945,190.526,0.0,0.0,0.0,0.0,0.04503333333333337,-5.498166666666667,-5.498166666666667,-0.4928,-0.30133333333333323,0.09822222222222221,0.45699999999999985,69.206,0.1501,-0.13105,-1.217999999999999,100.0,1.0,1.0,213.40333333333334,0.0,0.0,0.0,0.0,0.0,0.0,0.0,9045.3,0.0,55.0,5.0,249.11333333333334,0.0,0.0,0.0,0.0,0.0,0.0,0.0,0.0,1.1099999999999994,1.1099999999999994,0.0,0.0,0.0,55.0,616.79921,10000.0,85.000001,85.000001,85.000001,85.000001,395.0,0.0,0.0,0.0,1.0,166.665,58.014,58.014,48.843,48.843,34.0,-17.206,25.148333333333333,-21.247500000000002,36.355000000000004,0.0,1779.459,0.10500000000000043,100.0,23.385,24.499,41.092,42.927,0.0,0.0,100.0,0.0,0.0,0.0,0.0,2412.75,2888.1,4014.125,4288.4,307.57733333333334,305.775,315.07225,314.24875,21.886555555555557,20.5722,21.9651,21.485500000000002,314.999998,314.999998,324.999988,324.999988,99.55608571428571,99.50673333333333,99.56762857142857,99.54778571428571,0.14400000000000013,0.046,0.042833333333333334,0.2641666666666667,-0.030000000000001137,-0.05666666666667197,1.5416666666666667,1.4955,37.791,29.576,38.282,35.2845,54.689,34.442,59.5215,52.605333333333334,52.667,33.638,58.1075,50.94766666666666,51.824,33.2255,58.016999999999996,50.37566666666667,-0.05166666666666675,-0.059499999999999886,0.11091500000000001,0.10415,0.0,216.57999999999998,216.695,213.40333333333334,213.40333333333334,0.0,0.0
23,0.0,0.0,0.0,1.0,1.0,0.0,0.0,1.0,0.0,100.0,1.0,1.1856,26.0,0.0,0.0,0.0,59.999996,0.0,26.0,26.0,26.0,26.0,0.074,0.29290000000000016,-0.05134,295.685,-2.8098,-2.6546250000000002,-1.6824,-1.437375,-197.66,215.95749999999998,190.50375,0.0,0.0,0.0,0.0,0.0469666666666666,-5.498166666666667,-5.498166666666667,-0.5101,0.05699999999999994,0.06699999999999995,0.05449999999999999,69.342,0.11800000000000001,-0.151175,0.040000000000000036,100.0,1.0,1.0,213.98333333333335,0.0,0.0,0.0,0.0,0.0,0.0,0.0,9069.9,0.0,55.0,5.0,249.60000000000002,1.0,0.0,0.0,0.0,0.0,0.0,0.0,0.0,1.1580000000000013,1.1580000000000013,0.0,0.0,1.0,55.0,616.79921,10000.0,85.000001,85.000001,85.000001,85.000001,395.0,0.0,0.0,0.0,1.0,166.665,57.297,57.297,49.85,49.85,34.0,-20.374000000000002,23.983333333333334,-22.955,29.9875,0.0,1779.411,0.7850000000000001,100.0,23.891,24.395,41.17,42.778,0.0,0.0,100.0,0.0,0.0,0.0,0.0,2673.25,2866.2,3883.625,3955.0,306.63866666666667,305.75325,315.4875,315.13675,21.894666666666666,20.576999999999998,21.9748,21.4941,314.999998,314.999998,324.999988,324.999988,99.5561,99.50673333333333,99.56775714285715,99.54792857142857,0.09624999999999995,0.0025,-0.007833333333333333,0.21233333333333335,-0.03833333333332689,-0.06333333333333258,1.5883333333333334,1.6015000000000001,37.842,29.606,38.342,35.338499999999996,54.674,34.476,59.554,52.663666666666664,52.652,33.669,58.1375,51.004,51.8085,33.2555,58.044,50.431,0.004666666666666597,-0.11500000000000021,0.10496000000000001,0.10708000000000001,0.0,217.05,217.07,213.98333333333335,213.98333333333335,0.0,0.0
24,0.0,0.0,0.0,1.0,1.0,0.0,0.0,1.0,0.0,100.0,1.0,1.1856,26.0,0.0,0.0,0.0,59.999996,0.0,26.0,26.0,26.0,26.0,0.02375,0.28970000000000007,-0.09858,295.99,-2.8149,-2.6873750000000003,-1.5493999999999999,-1.4885,-194.32999999999998,215.97,190.480875,0.0,0.0,0.0,0.0,0.048899999999999944,-5.498166666666667,-5.498166666666667,-0.5184,-0.8600000000000001,0.05288888888888876,0.44099999999999984,69.482,0.0575,-0.140775,0.9560000000000004,100.0,1.0,1.0,214.26999999999998,0.0,0.0,0.0,0.0,0.0,0.0,0.0,9082.2,0.0,55.0,5.0,250.10333333333335,0.0,0.0,0.0,0.0,0.0,0.0,0.0,0.0,1.2059999999999995,1.2059999999999995,0.0,0.0,0.0,55.0,616.79921,10000.0,85.000001,85.000001,85.000001,85.000001,395.0,0.0,0.0,0.0,1.0,333.33500000000004,58.517,58.517,48.996,48.996,34.0,-19.642,20.255,-25.965,28.6,0.0,1779.363,1.0549999999999997,100.0,23.543,23.979,41.588,42.503,0.0,0.0,100.0,0.0,0.0,0.0,0.0,2402.375,2647.7,4045.5,4050.5,307.516,306.449,314.9195,314.85725,21.902666666666665,20.5815,21.9845,21.5026,314.999998,314.999998,324.999988,324.999988,99.5561,99.50675,99.5679,99.54807142857143,0.04200000000000004,-0.051250000000000004,-0.06783333333333333,0.14616666666666667,-0.045000000000001705,-0.04833333333333201,1.4966666666666666,1.5554999999999999,37.891999999999996,29.6345,38.403,35.3915,54.653,34.506,59.589,52.720666666666666,52.632999999999996,33.697,58.17,51.059,51.789,33.282,58.073499999999996,50.485,0.032333333333333325,-0.13549999999999995,0.10498,0.10672000000000001,0.0,217.505,217.435,214.26999999999998,214.26999999999998,0.0,0.0
25,0.0,0.0,0.0,1.0,1.0,0.0,0.0,1.0,0.0,100.0,1.0,1.1856,26.0,0.0,0.0,0.0,59.999996,0.0,26.0,26.0,26.0,26.0,-0.03725,0.29090000000000016,-0.0088,295.578,-2.8309,-2.692,-1.5528,-1.533375,-190.78,215.985,190.455,0.0,0.0,0.0,0.0,0.050933333333333386,-5.498166666666667,-5.498166666666667,-0.5417000000000001,0.5296666666666667,0.000888888888888939,-2.1580000000000004,69.624,-0.012700000000000001,-0.1418,1.5280000000000005,100.0,1.0,1.0,214.86666666666667,0.0,0.0,0.0,0.0,0.0,0.0,0.0,9107.4,0.0,55.0,5.0,250.61666666666667,1.0,0.0,0.0,0.0,0.0,0.0,0.0,0.0,1.256999999999998,1.256999999999998,0.0,0.0,1.0,55.0,616.79921,10000.0,85.000001,85.000001,85.000001,85.000001,395.0,0.0,0.0,0.0,1.0,333.33500000000004,56.87,56.87,49.744,49.744,34.0,-27.406,20.673333333333332,-28.34,24.009999999999998,0.0,1779.31,1.115000000000002,100.0,23.945,24.267,41.41,41.919,0.0,0.0,100.0,0.0,0.0,0.0,0.0,3021.875,2890.2,3961.125,3842.4,305.85633333333334,305.5685,315.32,315.35025,21.91133333333333,20.5865,21.9947,21.511499999999998,314.999998,314.999998,324.999988,324.999988,99.55611428571429,99.50675,99.56805714285714,99.54822857142857,-0.004750000000000032,-0.10175000000000001,-0.1405,0.08016666666666668,-0.05666666666667197,-0.04999999999999716,1.579,1.6355,37.946,29.666,38.467,35.447,54.632,34.545500000000004,59.624,52.78066666666666,52.613,33.733000000000004,58.203,51.11666666666667,51.768,33.317,58.103,50.541666666666664,0.025333333333333208,-0.14449999999999985,0.103275,0.10719500000000001,0.0,218.0,217.87,214.86666666666667,214.86666666666667,0.0,0.0
26,0.0,0.0,0.0,1.0,1.0,0.0,0.0,1.0,0.0,100.0,1.0,1.1856,26.0,0.0,0.0,0.0,59.999996,0.0,26.0,26.0,26.0,26.0,-0.134,0.30079999999999996,0.09094000000000001,294.632,-2.7311,-2.824125,-1.5133,-1.571,-187.23000000000002,215.9975,190.42925,0.0,0.0,0.0,0.0,0.052999999999999936,-5.498166666666667,-5.498166666666667,-0.4998,0.18699999999999994,-0.05455555555555591,0.019000000000000128,69.774,-0.0654,-0.11900000000000001,1.5739999999999998,100.0,1.0,1.0,214.97,0.0,0.0,0.0,0.0,0.0,0.0,0.0,9111.7,0.0,55.0,5.0,251.15333333333334,0.0,0.0,0.0,0.0,0.0,0.0,0.0,0.0,1.3079999999999998,1.3079999999999998,0.0,0.0,0.0,55.0,616.79921,10000.0,85.000001,85.000001,85.000001,85.000001,395.0,0.0,0.0,0.0,1.0,166.665,57.373,57.373,47.577,47.577,34.0,-24.34,17.67,-36.5625,26.535,0.0,1779.262,0.9699999999999989,100.0,24.973,24.214,42.876,42.129,0.0,0.0,100.0,0.0,0.0,0.0,0.0,2698.625,2550.7,4555.0,4420.9,306.50533333333334,306.72075,313.7295,314.00275,21.920222222222222,20.5914,22.0054,21.520699999999998,314.999998,314.999998,324.999988,324.999988,99.55611428571429,99.50676666666666,99.5682,99.54837142857143,-0.023249999999999993,-0.13325,-0.18433333333333335,0.0265,-0.04333333333332945,-0.026666666666670835,1.4146666666666667,1.4845,38.001000000000005,29.6965,38.534,35.504,54.616,34.581,59.665,52.83833333333333,52.597,33.766,58.2415,51.172333333333334,51.751999999999995,33.3485,58.1385,50.596000000000004,0.015333333333333421,-0.13450000000000006,0.10767000000000002,0.10233,0.0,218.47500000000002,218.325,214.97,214.97,0.0,0.0
27,0.0,0.0,0.0,1.0,1.0,0.0,0.0,1.0,0.0,100.0,1.0,1.1856,26.0,0.0,0.0,0.0,59.999996,0.0,26.0,26.0,26.0,26.0,-0.149,0.26170000000000004,-0.09688,295.395,-2.7039,-2.81075,-1.5429,-1.652375,-183.87,216.0075,190.406,0.0,0.0,0.0,0.0,0.05496666666666661,-5.498166666666667,-5.498166666666667,-0.5405,-0.8126666666666669,-0.07033333333333358,0.43299999999999983,69.905,-0.0971,-0.16765000000000002,1.5899999999999999,100.0,1.0,1.0,215.69666666666666,0.0,0.0,0.0,0.0,0.0,0.0,0.0,9142.6,0.0,55.0,5.0,251.63,1.0,0.0,0.0,0.0,0.0,0.0,0.0,0.0,1.355999999999998,1.355999999999998,0.0,0.0,1.0,55.0,616.79921,10000.0,85.000001,85.000001,85.000001,85.000001,395.0,0.0,0.0,0.0,1.0,166.665,57.22,57.22,49.194,49.194,34.0,-26.588,17.545,-31.055,21.81,0.0,1779.213,0.8449999999999989,100.0,24.853,23.874,43.299,42.091,0.0,0.0,100.0,0.0,0.0,0.0,0.0,2874.25,2653.6,3817.75,3751.3,306.145,306.45475,315.50325,315.5635,21.928444444444445,20.5959,22.0153,21.5292,314.999998,314.999998,324.999988,324.999988,99.55612857142857,99.50678333333333,99.56834285714285,99.5485,-0.04625000000000001,-0.15575,-0.22316666666666665,0.012333333333333335,-0.04333333333332945,-0.046666666666666856,1.558,1.599,38.053,29.724,38.596000000000004,35.5575,54.599000000000004,34.6155,59.702,52.89233333333333,52.582,33.7975,58.275999999999996,51.22366666666667,51.736,33.3785,58.170500000000004,50.646,0.00533333333333319,-0.12449999999999983,0.103385,0.11950000000000001,0.0,218.85000000000002,218.69,215.69666666666666,215.69666666666666,0.0,0.0
28,0.0,0.0,0.0,1.0,1.0,0.0,0.0,1.0,0.0,100.0,1.0,1.1856,26.0,0.0,0.0,0.0,59.999996,0.0,26.0,26.0,26.0,26.0,-0.1685,0.30069999999999997,-0.036520000000000004,295.288,-2.6882,-2.80275,-1.5110000000000001,-1.597,-180.1,216.015,190.378375,0.0,0.0,0.0,0.0,0.05716666666666659,-5.498166666666667,-5.498166666666667,-0.5259,0.43099999999999994,-0.08277777777777784,0.5095000000000001,70.059,-0.12100000000000001,-0.122675,1.4700000000000006,100.0,1.0,1.0,216.03,0.0,0.0,0.0,0.0,0.0,0.0,0.0,9156.7,0.0,55.0,5.0,252.18,0.0,0.0,0.0,0.0,0.0,0.0,0.0,0.0,1.4100000000000001,1.4100000000000001,0.0,0.0,0.0,55.0,616.79921,10000.0,85.000001,85.000001,85.000001,85.000001,395.0,0.0,0.0,0.0,1.0,166.665,57.739,57.739,48.447,48.447,34.0,-25.189999999999998,16.64,-36.34,22.38,0.0,1779.16,0.629999999999999,100.0,24.937,23.666,42.963,41.568,0.0,0.0,100.0,0.0,0.0,0.0,0.0,2694.125,2542.9,4313.75,4092.7,306.54966666666667,306.795,314.44025,314.82275,21.93788888888889,20.6009,22.0262,21.5386,314.999998,314.999998,324.999988,324.999988,99.55612857142857,99.5068,99.5685,99.54865714285714,-0.05999999999999994,-0.15575,-0.23750000000000002,-0.008333333333333335,-0.036666666666668846,-0.04999999999999716,1.5096666666666667,1.5750000000000002,38.111999999999995,29.755499999999998,38.664,35.6165,54.583,34.655,59.742,52.952,52.566,33.834,58.3135,51.281,51.72,33.413,58.204499999999996,50.70166666666667,-0.0020000000000000018,-0.10250000000000004,0.10714000000000001,0.110115,0.0,219.335,219.22500000000002,216.03,216.03,0.0,0.0
29,0.0,0.0,0.0,1.0,1.0,0.0,0.0,1.0,0.0,100.0,1.0,1.1856,26.0,0.0,0.0,0.0,59.999996,0.0,26.0,26.0,26.0,26.0,-0.164375,0.27780000000000005,-0.028980000000000002,295.258,-2.6242,-2.8715,-1.5057,-1.60625,-176.73000000000002,216.01749999999998,190.353375,0.0,0.0,0.0,0.0,0.05913333333333337,-5.498166666666667,-5.498166666666667,-0.5474,-0.5940000000000001,-0.08999999999999986,0.6429999999999998,70.193,-0.12290000000000001,-0.14552500000000002,1.1760000000000002,100.0,1.0,1.0,216.45666666666668,0.0,0.0,0.0,0.0,0.0,0.0,0.0,9174.8,0.0,55.0,5.0,252.66666666666666,1.0,0.0,0.0,0.0,0.0,0.0,0.0,0.0,1.4579999999999984,1.4579999999999984,0.0,0.0,1.0,55.0,616.79921,10000.0,85.000001,85.000001,85.000001,85.000001,395.0,0.0,0.0,0.0,1.0,333.33500000000004,57.373,57.373,49.042,49.042,34.0,-26.802,17.44833333333333,-32.6325,21.675,0.0,1779.11,0.5500000000000007,100.0,24.937,23.542,43.364000000000004,41.746,0.0,0.0,100.0,0.0,0.0,0.0,0.0,2893.875,2582.4,3996.0,3980.6000000000004,305.99266666666665,306.63675,315.09125,315.0445,21.94611111111111,20.6053,22.0361,21.5472,314.999998,314.999998,324.999988,324.999988,99.55614285714286,99.50681666666667,99.56864285714286,99.5488,-0.0595,-0.157,-0.22566666666666665,-0.011833333333333335,-0.036666666666668846,-0.06666666666666998,1.5213333333333332,1.5675,38.163,29.783,38.726,35.67,54.567,34.689499999999995,59.7805,53.00666666666667,52.551,33.8655,58.3495,51.333666666666666,51.704499999999996,33.4435,58.238,50.753,-0.018333333333333313,-0.09750000000000014,0.10857000000000001,0.10616500000000001,0.0,219.71,219.63,216.45666666666668,216.45666666666668,0.0,0.0
30,0.0,0.0,0.0,1.0,1.0,0.0,0.0,1.0,0.0,100.0,1.0,1.1856,26.0,0.0,0.0,0.0,59.999996,0.0,26.0,26.0,26.0,26.0,-0.15737500000000001,0.28580000000000005,0.02034,294.403,-2.6464,-2.8501250000000002,-1.5457,-1.533125,-173.14999999999998,216.015,190.326625,0.0,0.0,0.0,0.0,0.06119999999999992,-5.498166666666667,-5.498166666666667,-0.5218,0.906,-0.08955555555555561,-0.22599999999999998,70.33500000000001,-0.117,-0.1228,1.1039999999999992,100.0,1.0,1.0,216.82666666666665,0.0,0.0,0.0,0.0,0.0,0.0,0.0,9190.5,0.0,55.0,5.0,253.17333333333335,0.0,0.0,0.0,0.0,0.0,0.0,1.0,0.0,1.5090000000000003,1.5090000000000003,0.0,0.0,0.0,55.0,616.79921,10000.0,85.000001,85.000001,85.000001,85.000001,395.0,0.0,0.0,0.0,1.0,166.665,56.442,56.442,47.806,47.806,34.0,-27.753999999999998,18.11333333333333,-38.07,22.0375,0.0,1779.06,0.2699999999999996,100.0,25.514,24.367,43.3,41.837,0.0,0.0,100.0,0.0,0.0,0.0,0.0,3033.5,2658.1,4488.375,4159.4,305.75266666666664,306.27275,314.13375,314.759,21.955222222222222,20.6102,22.0465,21.5562,314.999998,314.999998,324.999988,324.999988,99.55614285714286,99.50683333333333,99.5688,99.54895714285715,-0.04674999999999996,-0.15425,-0.2275,-0.006500000000000001,-0.03833333333332689,-0.036666666666668846,1.4833333333333334,1.538,38.22,29.814,38.791,35.726,54.555,34.7295,59.82,53.06366666666666,52.54,33.9025,58.3865,51.388666666666666,51.6915,33.4785,58.272,50.806333333333335,-0.03833333333333311,-0.08150000000000013,0.10478000000000001,0.10943000000000001,0.0,220.2,220.10000000000002,216.82666666666665,216.82666666666665,0.0,0.0
31,0.0,0.0,0.0,1.0,1.0,0.0,0.0,1.0,0.0,100.0,1.0,1.1856,26.0,0.0,0.0,0.0,59.999996,0.0,26.0,26.0,26.0,26.0,-0.113125,0.27590000000000003,0.020380000000000002,294.327,-2.7503,-2.7350000000000003,-1.4951,-1.6612500000000001,-169.76999999999998,216.01,190.302375,0.0,0.0,0.0,0.0,0.0631666666666666,-5.498166666666667,-5.498166666666667,-0.5303,-0.7563333333333333,-0.08744444444444444,-1.0155000000000003,70.469,-0.1014,-0.15157500000000002,0.7820000000000009,100.0,1.0,1.0,217.19666666666666,0.0,0.0,0.0,0.0,0.0,0.0,0.0,9206.2,0.0,55.0,5.0,253.66,1.0,0.0,0.0,0.0,0.0,0.0,1.0,0.0,1.5569999999999986,1.5569999999999986,0.0,0.0,1.0,55.0,616.79921,10000.0,85.000001,85.000001,85.000001,85.000001,395.0,0.0,0.0,0.0,1.0,333.33500000000004,56.534,56.534,47.577,47.577,34.0,-27.786,18.53666666666667,-33.9225,24.997500000000002,0.0,1779.011,0.28000000000000114,100.0,25.146,24.439,43.918,42.507,0.0,0.0,100.0,0.0,0.0,0.0,0.0,3010.625,2754.0,4209.25,4114.8,305.91366666666664,306.021,314.678,314.64675,21.963444444444445,20.6148,22.0566,21.5649,314.999998,314.999998,324.999988,324.999988,99.55614285714286,99.50685,99.56895714285714,99.54908571428571,-0.03500000000000003,-0.1375,-0.21233333333333335,0.015333333333333334,-0.04999999999999716,-0.03833333333332689,1.4923333333333333,1.5270000000000001,38.272,29.8425,38.854,35.781,54.537,34.765,59.8595,53.121,52.522999999999996,33.935,58.424,51.443666666666665,51.675,33.5095,58.3065,50.85966666666667,-0.04600000000000004,-0.07399999999999984,0.10447500000000001,0.10913,0.0,220.56,220.49,217.19666666666666,217.19666666666666,0.0,0.0
32,0.0,0.0,0.0,1.0,1.0,0.0,0.0,1.0,0.0,100.0,1.0,1.1856,26.0,0.0,0.0,0.0,59.999996,0.0,26.0,26.0,26.0,26.0,-0.111875,0.27970000000000006,-0.019540000000000002,294.861,-2.6501,-2.8533749999999998,-1.4879,-1.64475,-166.17000000000002,216.0025,190.27625,0.0,0.0,0.0,0.0,0.06526666666666658,-5.498166666666667,-5.498166666666667,-0.5375,0.17733333333333334,-0.11122222222222211,0.5110000000000001,70.608,-0.0882,-0.14065,0.6280000000000001,100.0,1.0,1.0,217.70333333333332,0.0,0.0,0.0,0.0,0.0,0.0,0.0,9227.6,0.0,55.0,5.0,254.16,0.0,0.0,0.0,0.0,0.0,0.0,1.0,0.0,1.6080000000000005,1.6080000000000005,0.0,0.0,0.0,55.0,616.79921,10000.0,85.000001,85.000001,85.000001,85.000001,395.0,0.0,0.0,0.0,1.0,166.665,57.22,57.22,48.385999999999996,48.385999999999996,34.0,-23.97,18.423333333333332,-31.5225,25.4775,0.0,1778.961,0.15000000000000213,100.0,25.231,24.093,43.516,42.131,0.0,0.0,100.0,0.0,0.0,0.0,0.0,2775.875,2543.5,4105.875,4099.9,306.28833333333336,306.73175,314.85275,314.71525,21.97222222222222,20.6197,22.0669,21.573900000000002,314.999998,314.999998,324.999988,324.999988,99.55615714285715,99.50685,99.5691,99.54922857142857,-0.007249999999999979,-0.11625,-0.18533333333333335,0.03283333333333334,-0.07000000000000028,-0.041666666666671404,1.5093333333333332,1.546,38.327,29.872999999999998,38.918,35.837,54.519999999999996,34.8015,59.8955,53.177,52.507,33.9685,58.458,51.49733333333333,51.6575,33.5415,58.337,50.912,-0.048666666666666636,-0.07250000000000023,0.106005,0.10660000000000001,0.0,221.01999999999998,220.94,217.70333333333335,217.70333333333332,0.0,0.0
33,0.0,0.0,0.0,1.0,1.0,0.0,0.0,1.0,0.0,100.0,1.0,1.1856,26.0,0.0,0.0,0.0,59.999996,0.0,26.0,26.0,26.0,26.0,-0.092125,0.2630000000000001,-0.04064,295.105,-2.7183,-2.79325,-1.5108000000000001,-1.6335,-162.78,215.99,190.250625,0.0,0.0,0.0,0.0,0.06723333333333337,-5.498166666666667,-5.498166666666667,-0.548,-0.6133333333333333,-0.08333333333333348,1.3535,70.741,-0.0775,-0.133125,0.4740000000000002,100.0,1.0,1.0,218.11,0.0,0.0,0.0,0.0,0.0,0.0,0.0,9244.9,0.0,55.0,5.0,254.64,1.0,0.0,0.0,0.0,0.0,0.0,1.0,0.0,1.6559999999999988,1.6559999999999988,0.0,0.0,1.0,55.0,616.79921,10000.0,85.000001,85.000001,85.000001,85.000001,395.0,0.0,0.0,0.0,1.0,333.33500000000004,57.541,57.541,48.706,48.706,34.0,-23.578,18.968333333333334,-30.165,25.48,0.0,1778.912,-0.02499999999999858,100.0,24.942,23.85,43.443,42.26,0.0,0.0,100.0,0.0,0.0,0.0,0.0,2747.125,2586.4,3968.25,4067.7,306.50866666666667,306.739,315.18125,314.81475,21.980333333333334,20.624,22.0767,21.5825,314.999998,314.999998,324.999988,324.999988,99.55615714285715,99.50686666666667,99.56924285714285,99.54937142857143,0.0050000000000001155,-0.0935,-0.17883333333333334,0.03933333333333334,-0.045000000000001705,-0.05666666666667197,1.5253333333333332,1.525,38.376999999999995,29.9,38.979,35.891,54.501000000000005,34.832,59.931,53.23166666666667,52.489000000000004,33.997,58.491,51.54966666666667,51.64,33.5685,58.367,50.963,-0.06866666666666665,-0.04700000000000015,0.09765000000000001,0.10705500000000001,0.0,221.405,221.335,218.11,218.11,0.0,0.0
34,0.0,0.0,0.0,1.0,1.0,0.0,0.0,1.0,0.0,100.0,1.0,1.1856,26.0,0.0,0.0,0.0,59.999996,0.0,26.0,26.0,26.0,26.0,-0.082375,0.29180000000000006,-0.06627999999999999,295.471,-2.7218999999999998,-2.80675,-1.5763,-1.565,-158.95,215.97750000000002,190.22025,0.0,0.0,0.0,0.0,0.06946666666666657,-5.498166666666667,-5.498166666666667,-0.5902000000000001,-1.0163333333333333,-0.055111111111111555,0.40149999999999997,70.888,-0.060000000000000005,-0.1437,0.21999999999999975,100.0,1.0,1.0,218.5966666666667,0.0,0.0,0.0,0.0,0.0,0.0,0.0,9265.5,0.0,55.0,5.0,255.17000000000002,0.0,0.0,0.0,0.0,0.0,0.0,1.0,0.0,1.7100000000000009,1.7100000000000009,0.0,0.0,0.0,55.0,616.79921,10000.0,85.000001,85.000001,85.000001,85.000001,395.0,0.0,0.0,0.0,1.0,166.665,58.105,58.105,48.874,48.874,34.0,-21.434,19.476666666666667,-30.395,25.265,0.0,1778.859,-0.054999999999999716,100.0,24.591,23.679,43.05,42.29,0.0,0.0,100.0,0.0,0.0,0.0,0.0,2582.5,2584.8,4015.5,4037.9,307.037,306.73125,315.1705,314.9415,21.989333333333335,20.629,22.0875,21.5922,314.999998,314.999998,324.999988,324.999988,99.55615714285715,99.50688333333333,99.5694,99.54952857142857,0.019500000000000073,-0.0815,-0.163,0.06233333333333334,-0.036666666666668846,-0.06666666666666998,1.558,1.5685,38.433,29.9315,39.047,35.951,54.479,34.8665,59.967,53.29266666666666,52.468,34.0285,58.5245,51.608333333333334,51.618,33.5985,58.397999999999996,51.019999999999996,-0.06466666666666665,-0.04999999999999982,0.106605,0.10872000000000001,0.0,221.81,221.805,218.59666666666666,218.5966666666667,0.0,0.0
35,0.0,0.0,0.0,1.0,1.0,0.0,0.0,1.0,0.0,100.0,1.0,1.1856,26.0,0.0,0.0,0.0,59.999996,0.0,26.0,26.0,26.0,26.0,-0.05475,0.27670000000000017,-0.0685,295.105,-2.8044000000000002,-2.759875,-1.524,-1.6163750000000001,-155.55,215.9625,190.191,0.0,0.0,0.0,0.0,0.07143333333333335,-5.498166666666667,-5.498166666666667,-0.6171,0.2836666666666666,-0.0735555555555556,-0.14650000000000007,71.018,-0.0443,-0.139325,0.16000000000000014,100.0,1.0,1.0,219.07666666666665,0.0,0.0,0.0,0.0,0.0,0.0,0.0,9285.9,0.0,55.0,5.0,255.63333333333333,1.0,0.0,0.0,0.0,0.0,0.0,1.0,0.0,1.7579999999999991,1.7579999999999991,0.0,0.0,1.0,55.0,616.79921,10000.0,85.000001,85.000001,85.000001,85.000001,395.0,0.0,0.0,0.0,1.0,166.665,56.9,56.9,48.691,48.691,34.0,-24.558,21.990000000000002,-28.095,25.935000000000002,0.0,1778.811,0.010000000000001563,100.0,24.673000000000002,24.325,42.777,41.835,0.0,0.0,100.0,0.0,0.0,0.0,0.0,2866.5,2869.5,3968.125,3920.9,306.32466666666664,305.687,315.30075,315.26925,21.997333333333334,20.6338,22.0972,21.6006,314.999998,314.999998,324.999988,324.999988,99.55615714285715,99.50688333333333,99.56955714285715,99.54967142857143,0.023500000000000076,-0.077,-0.14100000000000001,0.08366666666666667,-0.06333333333333258,-0.060000000000002274,1.5866666666666667,1.5945,38.483000000000004,29.9615,39.107,36.0035,54.459,34.900999999999996,59.9995,53.342666666666666,52.449,34.06,58.555,51.656333333333336,51.599000000000004,33.6285,58.4255,51.06666666666666,-0.05933333333333324,-0.05549999999999988,0.10552,0.10710000000000001,0.0,222.255,222.22,219.07666666666665,219.07666666666665,0.0,0.0
36,0.0,0.0,0.0,1.0,1.0,0.0,0.0,1.0,0.0,100.0,1.0,1.1856,26.0,0.0,0.0,0.0,59.999996,0.0,26.0,26.0,26.0,26.0,-0.05,0.28659999999999997,-0.02508,294.739,-2.6522,-2.831875,-1.5996000000000001,-1.57775,-152.13,215.9475,190.161,0.0,0.0,0.0,0.0,0.07339999999999991,-5.498166666666667,-5.498166666666667,-0.5973,-0.5066666666666668,-0.10344444444444445,0.1280000000000001,71.153,-0.034300000000000004,-0.12100000000000001,0.16799999999999926,100.0,1.0,1.0,219.17333333333335,0.0,0.0,0.0,0.0,0.0,0.0,0.0,9290.0,0.0,55.0,5.0,256.12,0.0,0.0,0.0,0.0,0.0,0.0,1.0,0.0,1.806000000000001,1.806000000000001,0.0,0.0,0.0,55.0,616.79921,10000.0,85.000001,85.000001,85.000001,85.000001,395.0,0.0,0.0,0.0,1.0,166.665,57.999,57.999,47.562,47.562,34.0,-19.278,18.490000000000002,-34.1225,29.0275,0.0,1778.764,-0.08500000000000085,100.0,24.93,24.242,43.234,42.579,0.0,0.0,100.0,0.0,0.0,0.0,0.0,2451.25,2388.7,4481.125,4327.4,307.22333333333336,307.13175,314.09075,314.21475,22.005444444444443,20.6385,22.1071,21.6093,314.999998,314.999998,324.999988,324.999988,99.55617142857143,99.5069,99.5697,99.54981428571429,0.040750000000000064,-0.07050000000000001,-0.13783333333333334,0.07833333333333332,-0.03499999999999659,-0.04333333333332945,1.4593333333333334,1.4655,38.534,29.990499999999997,39.169,36.0585,54.442,34.933,60.036500000000004,53.400333333333336,52.433,34.09,58.5895,51.712,51.582,33.657,58.457,51.121,-0.06166666666666676,-0.05449999999999999,0.10851000000000001,0.10169,0.0,222.67000000000002,222.64,219.17333333333335,219.17333333333335,0.0,0.0
