,ABS Active,ABS Enabled,AID Allow Tire Blankets,AID Auto Blip,AID Auto Clutch,AID Auto Shift,AID Fuel Rate,AID Ideal Line,AID Mech Damage,AID Stability,AID Tire Wear Rate,Air Density,Air Temp,Ballast,Best Lap Delta,Best Lap Time,Brake Bias,Brake Pos,Brake Temp FL,Brake Temp FR,Brake Temp RL,Brake Temp RR,CG Accel Lateral,CG Accel Longitudinal,CG Accel Vertical,CG Height,Camber FL,Camber FR,Camber RL,Camber RR,Car Coord X,Car Coord Y,Car Coord Z,Car Damage Front,Car Damage Left,Car Damage Rear,Car Damage Right,Car Pos Norm,Caster FL,Caster FR,Chassis Pitch Angle,Chassis Pitch Rate,Chassis Roll Angle,Chassis Roll Rate,Chassis Velocity X,Chassis Velocity Y,Chassis Velocity Z,Chassis Yaw Rate,Clutch Pos,DRS Active,DRS Available,Drive Train Speed,ERS Heat Charging,ERS Is Charging,ERS Max Energy,ERS Power Level,ERS Recovery Level,Engine Brake Setting,Engine Limiter,Engine RPM,Flags,Fuel Level,Gear,Ground Speed,HR Sample Clock,In Pit,KERS Charge,KERS Deployed Energy,KERS Input,KERS Max Energy,LR Sample Clock,Lap Invalidated,Lap Time,Lap Time2,Last Lap Time,Last Sector Time,MR Sample Clock,Max Fuel,Max Power,Max RPM,Max Sus Travel FL,Max Sus Travel FR,Max Sus Travel RL,Max Sus Travel RR,Max Torque,Max Turbo Boost,Num Tires Off Track,Penalties Enabled,Position,Raw Data Sample Rate,Ride Height FL,Ride Height FR,Ride Height RL,Ride Height RR,Road Temp,Self Align Torque FL,Self Align Torque FR,Self Align Torque RL,Self Align Torque RR,Session Lap Count,Session Time Left,Steering Angle,Surface Grip,Suspension Travel FL,Suspension Travel FR,Suspension Travel RL,Suspension Travel RR,TC Active,TC Enabled,Throttle Pos,Tire Dirt Level FL,Tire Dirt Level FR,Tire Dirt Level RL,Tire Dirt Level RR,Tire Load FL,Tire Load FR,Tire Load RL,Tire Load RR,Tire Loaded Radius FL,Tire Loaded Radius FR,Tire Loaded Radius RL,Tire Loaded Radius RR,Tire Pressure FL,Tire Pressure FR,Tire Pressure RL,Tire Pressure RR,Tire Radius FL,Tire Radius FR,Tire Radius RL,Tire Radius RR,Tire Rubber Grip FL,Tire Rubber Grip FR,Tire Rubber Grip RL,Tire Rubber Grip RR,Tire Slip Angle FL,Tire Slip Angle FR,Tire Slip Angle RL,Tire Slip Angle RR,Tire Slip Ratio FL,Tire Slip Ratio FR,Tire Slip Ratio RL,Tire Slip Ratio RR,Tire Temp Core FL,Tire Temp Core FR,Tire Temp Core RL,Tire Temp Core RR,Tire Temp Inner FL,Tire Temp Inner FR,Tire Temp Inner RL,Tire Temp Inner RR,Tire Temp Middle FL,Tire Temp Middle FR,Tire Temp Middle RL,Tire Temp Middle RR,Tire Temp Outer FL,Tire Temp Outer FR,Tire Temp Outer RL,Tire Temp Outer RR,Toe In FL,Toe In FR,Toe In RL,Toe In RR,Turbo Boost,Wheel Angular Speed FL,Wheel Angular Speed FR,Wheel Angular Speed RL,Wheel Angular Speed RR,Wind Direction,Wind Speed
0,0.0,0.0,0.0,1.0,1.0,0.0,0.0,1.0,0.0,100.0,1.0,1.1856,26.0,0.0,0.0,0.0,59.99999,0.0,26.0,26.0,26.0,26.0,-0.033333333333333326,0.31889999999999996,0.1288,294.174,-2.7429,-2.6206666666666667,-1.5154,-1.4906000000000001,-275.72,215.64249999999998,190.9885,0.0,0.0,0.0,0.0,0.0015666666666666667,-5.498166666666667,-5.498166666666667,-0.61,1.859,-0.0014444444444445814,0.09800000000000009,65.838,-0.028666666666666618,-0.2747333333333334,0.17799999999999994,100.0,1.0,1.0,203.40333333333334,0.0,0.0,0.0,0.0,0.0,0.0,0.0,8621.5,0.0,55.0,5.0,236.98666666666668,0.0,0.0,0.0,0.0,0.0,0.0,0.0,0.0,0.0030000000000001137,0.0030000000000001137,0.0,0.0,0.0,55.0,616.79921,10000.0,85.0,85.0,85.0,85.0,395.0,0.0,0.0,0.0,1.0,20.0,50.568,50.568,51.102000000000004,51.102000000000004,34.0,-30.165,32.812,-26.237499999999997,24.042,0.0,1783.557,0.3949999999999996,100.0,27.489,27.335,38.941,38.637,0.0,0.0,100.0,0.0,0.0,0.0,0.0,3433.777777777778,4325.0,3826.0,3889.3,304.301,301.429,315.5895,315.22425,21.7388,20.521,21.8273,21.3151,314.99999,314.99999,324.99998,324.99998,99.55697142857143,99.50746666666667,99.57121428571429,99.54685714285715,0.02024999999999988,-0.08199999999999985,-0.13675000000000015,0.08899999999999997,-0.04333333333332945,-0.086666666666666,1.645,1.6560000000000001,36.867000000000004,29.2565,37.421,34.2195,55.611000000000004,34.548,60.984,52.247,53.61,33.748,59.585499999999996,50.5605,52.836,33.3435,59.6,49.9685,-0.056499999999999995,-0.10400000000000009,0.10718000000000001,0.11162000000000001,0.0,206.265,206.275,203.40333333333334,203.40333333333334,0.0,0.0
1,0.0,0.0,0.0,1.0,1.0,0.0,0.0,1.0,0.0,100.0,1.0,1.1856,26.0,0.0,0.0,0.0,59.999996,0.0,26.0,26.0,26.0,26.0,-0.07055555555555548,0.34430000000000005,0.195225,293.335,-2.6504,-2.6943333333333332,-1.5357,-1.3521,-272.35,215.64499999999998,190.9685,0.0,0.0,0.0,0.0,0.0035333333333333336,-5.498166666666667,-5.498166666666667,-0.5101,-1.0846666666666667,-0.04455555555555568,-0.254,66.003,-0.03111111111111109,-0.22296666666666667,0.79,100.0,1.0,1.0,203.24333333333334,0.0,0.0,0.0,0.0,0.0,0.0,0.0,8614.8,0.0,55.0,5.0,237.57666666666665,1.0,0.0,0.0,0.0,0.0,0.0,0.0,0.0,0.053999999999998494,0.053999999999998494,0.0,0.0,1.0,55.0,616.79921,10000.0,85.000001,85.000001,85.000001,85.000001,395.0,0.0,0.0,0.0,1.0,333.33500000000004,54.047,54.047,49.179,49.179,34.0,-22.43,16.727999999999998,-36.65,31.53,0.0,1783.504,0.39000000000000057,100.0,27.846,27.481,40.88,41.233000000000004,0.0,0.0,100.0,0.0,0.0,0.0,0.0,2791.0,2431.8,4656.125,5178.6,306.3066666666667,307.041,313.39375,311.70125,21.7485,20.5262,21.8386,21.3246,314.999998,314.999998,324.999988,324.999988,99.55697142857143,99.50748333333334,99.57135714285714,99.54701428571428,0.03224999999999989,-0.10533333333333328,-0.15674999999999972,0.06325000000000003,-0.051666666666669414,-0.041666666666671404,1.3345,1.354,36.928,29.2885,37.491,34.2785,55.596000000000004,34.587,61.024,52.313,53.596000000000004,33.784,59.623,50.624,52.821,33.3785,59.6345,50.031,-0.04249999999999998,-0.10299999999999998,0.10675000000000001,0.11122000000000001,0.0,206.76999999999998,206.71,203.24333333333334,203.24333333333334,0.0,0.0
2,0.0,0.0,0.0,1.0,1.0,0.0,0.0,1.0,0.0,100.0,1.0,1.1856,26.0,0.0,0.0,0.0,59.999996,0.0,26.0,26.0,26.0,26.0,-0.09033333333333338,0.29679999999999995,-0.266225,295.029,-2.6328,-2.656,-1.5093,-1.4962,-268.79,215.64499999999998,190.948625,0.0,0.0,0.0,0.0,0.0056,-5.498166666666667,-5.498166666666667,-0.6086,0.8676666666666668,-0.012777777777777999,2.0460000000000003,66.151,-0.036555555555555674,-0.31220000000000003,0.9660000000000002,100.0,1.0,1.0,204.73666666666668,0.0,0.0,0.0,0.0,0.0,0.0,0.0,8678.1,0.0,55.0,5.0,238.11333333333334,0.0,0.0,0.0,0.0,0.0,0.0,0.0,0.0,0.10800000000000054,0.10800000000000054,0.0,0.0,0.0,55.0,616.79921,10000.0,85.000001,85.000001,85.000001,85.000001,395.0,0.0,0.0,0.0,1.0,166.665,52.063,52.063,52.765,52.765,34.0,-28.0425,20.548000000000002,-23.322499999999998,17.684,0.0,1783.451,0.5299999999999994,100.0,28.376,27.542,40.338,39.981,0.0,0.0,100.0,0.0,0.0,0.0,0.0,3250.777777777778,3033.6,3376.625,3247.4,304.7563333333333,304.972,316.647,316.8615,21.759,20.5316,21.85,21.3336,314.999998,314.999998,324.999988,324.999988,99.55698571428572,99.5075,99.5715,99.54714285714286,0.005749999999999922,-0.1279999999999999,-0.1742499999999998,0.06125000000000025,-0.09499999999999886,-0.05833333333333002,1.824,1.851,36.994,29.322499999999998,37.562,34.335499999999996,55.582,34.6285,61.0535,52.3625,53.582,33.822,59.6495,50.6715,52.807,33.414500000000004,59.658500000000004,50.078,-0.038000000000000034,-0.12400000000000011,0.10204500000000001,0.10720500000000001,0.0,207.255,207.14499999999998,204.73666666666668,204.73666666666668,0.0,0.0
3,0.0,0.0,0.0,1.0,1.0,0.0,0.0,1.0,0.0,100.0,1.0,1.1856,26.0,0.0,0.0,0.0,59.999996,0.0,26.0,26.0,26.0,26.0,-0.08644444444444443,0.31510000000000016,0.09480000000000001,294.22,-2.6565000000000003,-2.687555555555556,-1.4991,-1.4629,-265.81,215.64249999999998,190.930625,0.0,0.0,0.0,0.0,0.007333333333333333,-5.498166666666667,-5.498166666666667,-0.5407000000000001,0.5756666666666668,0.0033333333333331883,-1.161,66.29599999999999,-0.0494444444444444,-0.23353333333333337,0.8020000000000005,100.0,1.0,1.0,204.5233333333333,0.0,0.0,0.0,0.0,0.0,0.0,0.0,8669.0,0.0,55.0,5.0,238.63333333333333,1.0,0.0,0.0,0.0,0.0,0.0,0.0,0.0,0.1529999999999987,0.1529999999999987,0.0,0.0,1.0,55.0,616.79921,10000.0,85.000001,85.000001,85.000001,85.000001,395.0,0.0,0.0,0.0,1.0,166.665,53.314,53.314,49.759,49.759,34.0,-23.9425,20.474,-31.9825,24.684,0.0,1783.406,0.6500000000000004,100.0,27.854,27.396,40.480000000000004,40.289,0.0,0.0,100.0,0.0,0.0,0.0,0.0,2865.8888888888887,2945.2,4289.125,4142.1,306.165,305.434,314.392,314.46925,21.7675,20.5364,21.8596,21.3417,314.999998,314.999998,324.999988,324.999988,99.55698571428572,99.5075,99.57162857142858,99.54727142857143,0.010000000000000231,-0.1156666666666668,-0.15799999999999992,0.058250000000000135,-0.04333333333332945,-0.02833333333332888,1.4685000000000001,1.516,37.047,29.352,37.622,34.3855,55.568,34.666,61.0815,52.417500000000004,53.568,33.857,59.676,50.725,52.792,33.448,59.682,50.129999999999995,-0.03249999999999997,-0.11949999999999994,0.10314500000000001,0.10648,0.0,207.71,207.62,204.5233333333333,204.5233333333333,0.0,0.0
4,0.0,0.0,0.0,1.0,1.0,0.0,0.0,1.0,0.0,100.0,1.0,1.1856,26.0,0.0,0.0,0.0,59.999996,0.0,26.0,26.0,26.0,26.0,-0.10188888888888892,0.30079999999999996,-0.0492,294.495,-2.649,-2.760222222222222,-1.4403000000000001,-1.5812000000000002,-262.22,215.6375,190.909875,0.0,0.0,0.0,0.0,0.009433333333333334,-5.498166666666667,-5.498166666666667,-0.5697,-0.8853333333333333,-0.052444444444444294,0.119,66.455,-0.0584444444444443,-0.27676666666666666,1.1260000000000003,100.0,1.0,1.0,205.19666666666666,0.0,0.0,0.0,0.0,0.0,0.0,0.0,8697.5,0.0,55.0,5.0,239.21,0.0,0.0,0.0,0.0,0.0,0.0,0.0,0.0,0.20700000000000074,0.20700000000000074,0.0,0.0,0.0,55.0,616.79921,10000.0,85.000001,85.000001,85.000001,85.000001,395.0,0.0,0.0,0.0,1.0,166.665,53.055,53.055,50.674,50.674,34.0,-27.1075,20.48,-29.03,21.818,0.0,1783.353,0.6799999999999997,100.0,27.888,27.041,41.263,40.442,0.0,0.0,100.0,0.0,0.0,0.0,0.0,3121.777777777778,2923.8,3942.625,3685.7,305.287,305.563,315.21775,315.67575,21.7777,20.5418,21.871299999999998,21.3512,314.999998,314.999998,324.999988,324.999988,99.55698571428572,99.50751666666666,99.57178571428571,99.54741428571428,-0.003249999999999975,-0.1246666666666667,-0.18725000000000014,0.04574999999999996,-0.046666666666666856,-0.06333333333333258,1.592,1.6349999999999998,37.111000000000004,29.386,37.696,34.445,55.551,34.708,61.1185,52.4765,53.552,33.8955,59.71,50.7815,52.775,33.4845,59.713,50.186,-0.024499999999999966,-0.12400000000000011,0.10560000000000001,0.106755,0.0,208.155,208.09,205.19666666666666,205.19666666666666,0.0,0.0
5,0.0,0.0,0.0,1.0,1.0,0.0,0.0,1.0,0.0,100.0,1.0,1.1856,26.0,0.0,0.0,0.0,59.999996,0.0,26.0,26.0,26.0,26.0,-0.11711111111111105,0.29890000000000017,-0.018875,294.708,-2.6654999999999998,-2.715777777777778,-1.4953,-1.5745,-259.03,215.6325,190.891,0.0,0.0,0.0,0.0,0.011266666666666668,-5.498166666666667,-5.498166666666667,-0.5760000000000001,0.5680000000000001,-0.04122222222222227,0.9259999999999999,66.596,-0.07455555555555571,-0.2679,1.1420000000000003,100.0,1.0,1.0,205.71,0.0,0.0,0.0,0.0,0.0,0.0,0.0,8719.3,0.0,55.0,5.0,239.71666666666667,1.0,0.0,0.0,0.0,0.0,0.0,0.0,0.0,0.254999999999999,0.254999999999999,0.0,0.0,1.0,55.0,616.79921,10000.0,85.000001,85.000001,85.000001,85.000001,395.0,0.0,0.0,0.0,1.0,166.665,53.131,53.131,51.208,51.208,34.0,-26.8425,20.84,-28.5625,22.358,0.0,1783.305,0.4399999999999995,100.0,27.851,26.871,40.891,39.896,0.0,0.0,100.0,0.0,0.0,0.0,0.0,3080.6666666666665,2993.6,3813.875,3827.8,305.293,305.34066666666666,315.574,315.406,21.787,20.5467,21.8815,21.3595,314.999998,314.999998,324.999988,324.999988,99.55698571428572,99.50753333333333,99.57191428571429,99.54754285714286,0.0007500000000000284,-0.1206666666666667,-0.19324999999999992,0.04125000000000023,-0.04999999999999716,-0.03499999999999659,1.6415,1.662,37.168,29.4165,37.759,34.497,55.538,34.7465,61.147,52.5265,53.54,33.9305,59.7365,50.829499999999996,52.762,33.5185,59.737,50.233000000000004,-0.045499999999999985,-0.1060000000000001,0.10299000000000001,0.11805000000000002,0.0,208.64499999999998,208.515,205.71,205.71,0.0,0.0
6,0.0,0.0,0.0,1.0,1.0,0.0,0.0,1.0,0.0,100.0,1.0,1.1856,26.0,0.0,0.0,0.0,59.999996,0.0,26.0,26.0,26.0,26.0,-0.12011111111111106,0.3125,0.002575,294.586,-2.648,-2.787,-1.4943,-1.5502,-255.82999999999998,215.6225,190.8715,0.0,0.0,0.0,0.0,0.013133333333333335,-5.498166666666667,-5.498166666666667,-0.5595,-0.15200000000000002,-0.0555555555555558,0.573,66.742,-0.07922222222222208,-0.2474,0.8020000000000005,100.0,1.0,1.0,205.98333333333335,0.0,0.0,0.0,0.0,0.0,0.0,0.0,8730.9,0.0,55.0,5.0,240.24,0.0,0.0,0.0,0.0,0.0,0.0,0.0,0.0,0.3030000000000008,0.3030000000000008,0.0,0.0,0.0,55.0,616.79921,10000.0,85.000001,85.000001,85.000001,85.000001,395.0,0.0,0.0,0.0,1.0,166.665,53.696,53.696,50.415,50.415,34.0,-26.4575,20.224,-31.2225,23.152,0.0,1783.256,0.245000000000001,100.0,27.555,26.527,41.144999999999996,40.04,0.0,0.0,100.0,0.0,0.0,0.0,0.0,3045.4444444444443,2865.8,4080.125,3954.2,305.468,305.744,314.837,315.06525,21.796,20.5515,21.8918,21.368,314.999998,314.999998,324.999988,324.999988,99.55698571428572,99.50755,99.57205714285715,99.54767142857143,-0.0044999999999999485,-0.125,-0.18599999999999994,0.03825000000000012,-0.04333333333332945,-0.05333333333332746,1.543,1.576,37.224999999999994,29.447,37.824,34.55,55.522999999999996,34.783500000000004,61.1785,52.581,53.525,33.965,59.7655,50.882,52.747,33.551,59.763,50.284,-0.05149999999999999,-0.09499999999999997,0.10843000000000001,0.10875000000000001,0.0,209.055,208.995,205.98333333333335,205.98333333333335,0.0,0.0
7,0.0,0.0,0.0,1.0,1.0,0.0,0.0,1.0,0.0,100.0,1.0,1.1856,26.0,0.0,0.0,0.0,59.999996,0.0,26.0,26.0,26.0,26.0,-0.07222222222222219,0.2954000000000001,-0.0095,294.724,-2.6201,-2.781111111111111,-1.5453000000000001,-1.5926,-252.42,215.61,190.851,0.0,0.0,0.0,0.0,0.015133333333333335,-5.498166666666667,-5.498166666666667,-0.5681,0.08866666666666667,-0.04899999999999993,-0.246,66.891,-0.07877777777777784,-0.2592,0.7479999999999993,100.0,1.0,1.0,206.53333333333333,0.0,0.0,0.0,0.0,0.0,0.0,0.0,8754.2,0.0,55.0,5.0,240.77666666666667,1.0,0.0,0.0,0.0,0.0,0.0,0.0,0.0,0.3539999999999992,0.3539999999999992,0.0,0.0,1.0,55.0,616.79921,10000.0,85.000001,85.000001,85.000001,85.000001,395.0,0.0,0.0,0.0,1.0,333.33500000000004,53.406,53.406,50.934,50.934,34.0,-26.7575,20.914,-31.0225,21.86,0.0,1783.204,-0.09999999999999964,100.0,27.533,26.79,40.973,40.053,0.0,0.0,100.0,0.0,0.0,0.0,0.0,3183.0,2833.0,3956.875,3787.6000000000004,305.2146666666667,305.62833333333333,315.2835,315.391,21.805799999999998,20.5567,21.9027,21.377,314.999998,314.999998,324.999988,324.999988,99.557,99.50756666666666,99.5722,99.54781428571428,0.010000000000000231,-0.10499999999999998,-0.2004999999999999,0.026250000000000107,-0.05666666666667197,-0.05333333333332746,1.5815000000000001,1.6280000000000001,37.286,29.4795,37.891999999999996,34.606,55.51,34.823499999999996,61.210499999999996,52.6365,53.513,34.0015,59.795,50.9355,52.733000000000004,33.586,59.789500000000004,50.3365,-0.07750000000000001,-0.06600000000000006,0.10541500000000001,0.10905500000000001,0.0,209.54000000000002,209.45,206.53333333333333,206.53333333333333,0.0,0.0
8,0.0,0.0,0.0,1.0,1.0,0.0,0.0,1.0,0.0,100.0,1.0,1.1856,26.0,0.0,0.0,0.0,59.999996,0.0,26.0,26.0,26.0,26.0,-0.056222222222222173,0.2955000000000001,-0.0287,294.754,-2.7007,-2.714,-1.5241,-1.5826,-248.8,215.595,190.829,0.0,0.0,0.0,0.0,0.017233333333333337,-5.498166666666667,-5.498166666666667,-0.5720000000000001,-0.20733333333333337,-0.036666666666666625,-1.085,67.05,-0.06288888888888877,-0.26066666666666666,0.29800000000000004,100.0,1.0,1.0,207.01,0.0,0.0,0.0,0.0,0.0,0.0,0.0,8774.3,0.0,55.0,5.0,241.35000000000002,0.0,0.0,0.0,0.0,0.0,0.0,0.0,0.0,0.40800000000000125,0.40800000000000125,0.0,0.0,0.0,55.0,616.79921,10000.0,85.000001,85.000001,85.000001,85.000001,395.0,0.0,0.0,0.0,1.0,166.665,53.543,53.543,50.674,50.674,34.0,-26.2625,21.394,-29.310000000000002,22.828,0.0,1783.152,-0.20500000000000007,100.0,27.183,26.879,40.967,40.209,0.0,0.0,100.0,0.0,0.0,0.0,0.0,3133.4444444444443,2929.1,3908.75,3801.7,305.4646666666667,305.358,315.39625,315.33575,21.816,20.5623,21.9143,21.3866,314.999998,314.999998,324.999988,324.999988,99.557,99.50758333333333,99.57235714285714,99.54797142857143,0.02450000000000019,-0.09866666666666668,-0.18025000000000002,0.046250000000000124,-0.060000000000002274,-0.045000000000001705,1.6005,1.617,37.349999999999994,29.514,37.964,34.666,55.494,34.865,61.2435,52.6965,53.497,34.039500000000004,59.826,50.993,52.717,33.6225,59.817499999999995,50.393,-0.08799999999999997,-0.05950000000000011,0.11072000000000001,0.10509,0.0,210.0,209.965,207.01,207.01,0.0,0.0
9,0.0,0.0,0.0,1.0,1.0,0.0,0.0,1.0,0.0,100.0,1.0,1.1856,26.0,0.0,0.0,0.0,59.999996,0.0,26.0,26.0,26.0,26.0,-0.04155555555555557,0.29810000000000003,0.0142,294.525,-2.6174,-2.7314444444444446,-1.5227,-1.5421,-245.78,215.57999999999998,190.8105,0.0,0.0,0.0,0.0,0.018966666666666666,-5.498166666666667,-5.498166666666667,-0.5680000000000001,0.28766666666666674,-0.04477777777777803,0.851,67.182,-0.047666666666666746,-0.25356666666666666,0.043999999999999595,100.0,1.0,1.0,207.4,0.0,0.0,0.0,0.0,0.0,0.0,0.0,8790.9,0.0,55.0,5.0,241.82666666666665,1.0,0.0,0.0,0.0,0.0,0.0,0.0,0.0,0.4529999999999994,0.4529999999999994,0.0,0.0,1.0,55.0,616.79921,10000.0,85.000001,85.000001,85.000001,85.000001,395.0,0.0,0.0,0.0,1.0,333.33500000000004,53.192,53.192,50.903,50.903,34.0,-24.669999999999998,23.454,-28.22,24.838,0.0,1783.104,-0.39000000000000057,100.0,27.617,26.773,40.922,40.111000000000004,0.0,0.0,100.0,0.0,0.0,0.0,0.0,3125.8888888888887,3038.4,3892.75,3969.9,305.2273333333333,305.21233333333333,315.35825,315.0525,21.8245,20.5669,21.9238,21.3945,314.999998,314.999998,324.999988,324.999988,99.55701428571429,99.50758333333333,99.57248571428572,99.5481,0.05049999999999999,-0.06933333333333325,-0.15700000000000003,0.07425000000000015,-0.04333333333332945,-0.054999999999999716,1.589,1.6,37.403,29.5435,38.024,34.716,55.482,34.9015,61.272999999999996,52.7495,53.485,34.073,59.853,51.044,52.704,33.6545,59.841499999999996,50.443,-0.10549999999999993,-0.044499999999999984,0.111155,0.10894500000000001,0.0,210.405,210.385,207.4,207.4,0.0,0.0
10,0.0,0.0,0.0,1.0,1.0,0.0,0.0,1.0,0.0,100.0,1.0,1.1856,26.0,0.0,0.0,0.0,59.999996,0.0,26.0,26.0,26.0,26.0,-0.01966666666666661,0.29510000000000014,0.016825,294.449,-2.686,-2.6983333333333333,-1.4935,-1.5181,-242.15,215.5625,190.788375,0.0,0.0,0.0,0.0,0.0211,-5.498166666666667,-5.498166666666667,-0.5649000000000001,-0.387,-0.008111111111110958,1.564,67.34100000000001,-0.028666666666666618,-0.25543333333333335,-0.2060000000000004,100.0,1.0,1.0,207.79000000000002,0.0,0.0,0.0,0.0,0.0,0.0,0.0,8807.4,0.0,55.0,5.0,242.4,0.0,0.0,0.0,0.0,0.0,0.0,1.0,0.0,0.5069999999999979,0.5069999999999979,0.0,0.0,0.0,55.0,616.79921,10000.0,85.000001,85.000001,85.000001,85.000001,395.0,0.0,0.0,0.0,1.0,166.665,53.528,53.528,50.476,50.476,34.0,-23.07,23.692,-27.310000000000002,26.908,0.0,1783.053,-0.41999999999999993,100.0,27.491,26.8,41.022999999999996,40.498000000000005,0.0,0.0,100.0,0.0,0.0,0.0,0.0,2944.777777777778,3037.8,3928.375,4116.9,305.783,305.2486666666667,315.25825,314.6635,21.834699999999998,20.5725,21.935299999999998,21.4042,314.999998,314.999998,324.999988,324.999988,99.55702857142857,99.50758333333333,99.57262857142857,99.54824285714285,0.0637500000000002,-0.05566666666666675,-0.13600000000000012,0.0950000000000002,-0.04999999999999716,-0.054999999999999716,1.5605,1.5554999999999999,37.467,29.5785,38.096000000000004,34.7765,55.469,34.9385,61.3045,52.808,53.473,34.1075,59.8825,51.1,52.691,33.687,59.868,50.498,-0.10749999999999993,-0.04150000000000009,0.10498,0.10471000000000001,0.0,210.885,210.88,207.79000000000002,207.79000000000002,0.0,0.0
11,0.0,0.0,0.0,1.0,1.0,0.0,0.0,1.0,0.0,100.0,1.0,1.1856,26.0,0.0,0.0,0.0,59.999996,0.0,26.0,26.0,26.0,26.0,0.015666666666666718,0.30180000000000007,-0.052700000000000004,294.754,-2.697,-2.688888888888889,-1.5469,-1.4909000000000001,-238.71,215.54500000000002,190.76725,0.0,0.0,0.0,0.0,0.022600000000000002,-5.498166666666667,-5.498166666666667,-0.5871000000000001,-0.13,0.010999999999999899,-0.594,67.487,-0.012111111111110962,-0.26633333333333337,-0.30600000000000005,100.0,1.0,1.0,208.38333333333333,0.0,0.0,0.0,0.0,0.0,0.0,0.0,8832.5,0.0,55.0,5.0,242.92666666666668,1.0,0.0,0.0,0.0,0.0,0.0,1.0,0.0,0.5579999999999998,0.5579999999999998,0.0,0.0,1.0,55.0,616.79921,10000.0,85.000001,85.000001,85.000001,85.000001,395.0,0.0,0.0,0.0,1.0,166.665,53.391,53.391,51.041,51.041,34.0,-24.0425,24.375999999999998,-25.557499999999997,24.832,0.0,1783.002,-0.7050000000000001,100.0,27.082,27.053,40.596000000000004,40.584,0.0,0.0,100.0,0.0,0.0,0.0,0.0,3090.777777777778,3033.3,3781.0,3870.4,305.546,305.056,315.735,315.21675,21.8442,20.5779,21.945999999999998,21.4133,314.999998,314.999998,324.999988,324.999988,99.55702857142857,99.5076,99.57277142857143,99.54838571428571,0.06875000000000009,-0.04166666666666674,-0.12075000000000014,0.1030000000000002,-0.05833333333333002,-0.04833333333333201,1.641,1.6225,37.525999999999996,29.612000000000002,38.163,34.833,55.455,34.976,61.332499999999996,52.864,53.46,34.141999999999996,59.908,51.1545,52.677,33.72,59.8905,50.5515,-0.11449999999999994,-0.031500000000000083,0.10185000000000001,0.110825,0.0,211.315,211.345,208.38333333333333,208.38333333333333,0.0,0.0
12,0.0,0.0,0.0,1.0,1.0,0.0,0.0,1.0,0.0,100.0,1.0,1.1856,26.0,0.0,0.0,0.0,59.999996,0.0,26.0,26.0,26.0,26.0,0.014444444444444482,0.30810000000000004,0.016875,294.342,-2.726,-2.6821111111111113,-1.5267,-1.512,-235.47,215.5275,190.746625,0.0,0.0,0.0,0.0,0.025466666666666665,-5.498166666666667,-5.498166666666667,-0.5765,0.31800000000000006,0.010999999999999899,-0.736,67.628,0.003555555555555756,-0.24753333333333336,-0.3700000000000001,100.0,1.0,1.0,208.69666666666666,0.0,0.0,0.0,0.0,0.0,0.0,0.0,8845.8,0.0,55.0,5.0,243.43,0.0,0.0,0.0,0.0,0.0,0.0,1.0,0.0,0.6059999999999981,0.6059999999999981,0.0,0.0,0.0,55.0,616.79921,10000.0,85.000001,85.000001,85.000001,85.000001,395.0,0.0,0.0,0.0,1.0,166.665,53.146,53.146,50.339,50.339,34.0,-24.395,24.006,-26.695,27.352,0.0,1782.954,-0.17999999999999972,100.0,27.177,27.326999999999998,40.525,40.616,0.0,0.0,100.0,0.0,0.0,0.0,0.0,3088.6666666666665,3076.8,4011.375,4055.6000000000004,305.537,304.91,315.16475,314.7825,21.8532,20.583,21.9562,21.4218,314.999998,314.999998,324.999988,324.999988,99.55704285714286,99.5076,99.5729,99.54851428571429,0.06700000000000017,-0.05933333333333324,-0.10550000000000015,0.11549999999999994,-0.05333333333332746,-0.03833333333332689,1.587,1.5739999999999998,37.582,29.644,38.226,34.8865,55.444,35.0115,61.3605,52.918,53.449,34.175,59.934,51.206,52.665,33.7515,59.9135,50.6025,-0.09350000000000003,-0.05950000000000011,0.10057,0.10922000000000001,0.0,211.76999999999998,211.775,208.69666666666666,208.69666666666666,0.0,0.0
13,0.0,0.0,0.0,1.0,1.0,0.0,0.0,1.0,0.0,100.0,1.0,1.1856,26.0,0.0,0.0,0.0,59.999996,0.0,26.0,26.0,26.0,26.0,0.03955555555555579,0.2921,0.029400000000000003,294.083,-2.6963,-2.6934444444444443,-1.558,-1.5176,-232.01999999999998,215.51,190.724875,0.0,0.0,0.0,0.0,0.02696666666666667,-5.498166666666667,-5.498166666666667,-0.5757,-0.2703333333333333,0.014222222222222136,1.0460000000000003,67.775,0.013777777777777889,-0.26026666666666665,-0.5,100.0,1.0,1.0,209.10333333333335,0.0,0.0,0.0,0.0,0.0,0.0,0.0,8863.1,0.0,55.0,5.0,243.96,1.0,0.0,0.0,0.0,0.0,0.0,1.0,0.0,0.657,0.657,0.0,0.0,1.0,55.0,616.79921,10000.0,85.000001,85.000001,85.000001,85.000001,395.0,0.0,0.0,0.0,1.0,166.665,52.979,52.979,50.293,50.293,34.0,-21.9075,25.98,-25.71,29.596,0.0,1782.902,-0.5,100.0,27.585,27.361,40.921,40.975,0.0,0.0,100.0,0.0,0.0,0.0,0.0,2995.222222222222,3139.3,3910.25,4169.7,305.63466666666665,304.90133333333335,315.29425,314.561,21.8627,20.5885,21.967,21.4311,314.999998,314.999998,324.999988,324.999988,99.55704285714286,99.50761666666666,99.57304285714285,99.54867142857142,0.10524999999999984,-0.02299999999999991,-0.08800000000000008,0.1382500000000002,-0.03166666666666629,-0.04833333333333201,1.56,1.5455,37.641999999999996,29.6785,38.294,34.9445,55.433,35.0495,61.3915,52.977000000000004,53.438,34.2095,59.963,51.2635,52.653,33.7845,59.939499999999995,50.658500000000004,-0.11599999999999999,-0.03499999999999992,0.10358500000000001,0.11037000000000001,0.0,212.20499999999998,212.235,209.10333333333335,209.10333333333335,0.0,0.0
14,0.0,0.0,0.0,1.0,1.0,0.0,0.0,1.0,0.0,100.0,1.0,1.1856,26.0,0.0,0.0,0.0,59.999996,0.0,26.0,26.0,26.0,26.0,0.03844444444444428,0.28700000000000014,-0.025625000000000002,294.235,-2.7138,-2.7006666666666668,-1.5547,-1.5109000000000001,-228.76,215.495,190.7045,0.0,0.0,0.0,0.0,0.02886666666666667,-5.498166666666667,-5.498166666666667,-0.5861000000000001,0.01200000000000001,0.03055555555555567,1.013,67.911,0.022333333333333094,-0.2685666666666667,-0.5599999999999996,100.0,1.0,1.0,209.62333333333333,0.0,0.0,0.0,0.0,0.0,0.0,0.0,8885.2,0.0,55.0,5.0,244.45,0.0,0.0,0.0,0.0,0.0,0.0,1.0,0.0,0.7049999999999983,0.7049999999999983,0.0,0.0,0.0,55.0,616.79921,10000.0,85.000001,85.000001,85.000001,85.000001,395.0,0.0,0.0,0.0,1.0,333.33500000000004,52.963,52.963,50.552,50.552,34.0,-21.275,26.508,-24.09,28.476,0.0,1782.854,-0.5449999999999999,100.0,27.616,27.551000000000002,40.835,41.093,0.0,0.0,100.0,0.0,0.0,0.0,0.0,2946.6666666666665,3127.6,3792.625,4014.6000000000004,305.779,304.89366666666666,315.61975,314.948,21.8716,20.5937,21.9771,21.4397,314.999998,314.999998,324.999988,324.999988,99.55705714285715,99.50761666666666,99.57317142857143,99.5488,0.11450000000000005,-0.010666666666666602,-0.08024999999999993,0.14800000000000013,-0.03999999999999915,-0.05833333333333002,1.621,1.5844999999999998,37.698,29.711,38.357,34.998,55.423,35.0845,61.4185,53.031,53.429,34.242,59.9875,51.315,52.641999999999996,33.816,59.961,50.7095,-0.11949999999999994,-0.030000000000000027,0.11001500000000002,0.10799,0.0,212.63,212.675,209.62333333333333,209.62333333333333,0.0,0.0
15,0.0,0.0,0.0,1.0,1.0,0.0,0.0,1.0,0.0,100.0,1.0,1.1856,26.0,0.0,0.0,0.0,59.999996,0.0,26.0,26.0,26.0,26.0,0.045333333333333226,0.29259999999999997,-0.000475,294.083,-2.7052,-2.675888888888889,-1.5658,-1.5297,-225.5,215.48000000000002,190.683875,0.0,0.0,0.0,0.0,0.03076666666666667,-5.498166666666667,-5.498166666666667,-0.5779000000000001,0.20433333333333326,0.04066666666666663,0.6400000000000001,68.049,0.0301111111111112,-0.2549666666666667,-0.5479999999999992,100.0,1.0,1.0,210.0,0.0,0.0,0.0,0.0,0.0,0.0,0.0,8901.1,0.0,55.0,5.0,244.94666666666666,1.0,0.0,0.0,0.0,0.0,0.0,1.0,0.0,0.7530000000000001,0.7530000000000001,0.0,0.0,1.0,55.0,616.79921,10000.0,85.000001,85.000001,85.000001,85.000001,395.0,0.0,0.0,0.0,1.0,166.665,52.979,52.979,50.278,50.278,34.0,-21.0,25.874,-24.58,29.838,0.0,1782.806,-0.40000000000000036,100.0,27.651,27.685,40.826,41.247,0.0,0.0,100.0,0.0,0.0,0.0,0.0,2909.8888888888887,3103.1,3867.75,4074.4,305.893,304.96166666666664,315.4445,314.77325,21.8805,20.5989,21.9872,21.4483,314.999998,314.999998,324.999988,324.999988,99.55707142857143,99.50761666666666,99.57331428571429,99.54892857142858,0.11175000000000024,-0.014999999999999902,-0.07275000000000009,0.15775000000000006,-0.03999999999999915,-0.051666666666669414,1.588,1.5709999999999997,37.753,29.743499999999997,38.42,35.052,55.413,35.12,61.445,53.086,53.419,34.2745,60.012,51.3685,52.631,33.847,59.9825,50.7615,-0.10899999999999999,-0.04049999999999998,0.104355,0.11683,0.0,213.06,213.09,210.0,210.0,0.0,0.0
16,0.0,0.0,0.0,1.0,1.0,0.0,0.0,1.0,0.0,100.0,1.0,1.1856,26.0,0.0,0.0,0.0,59.999996,0.0,26.0,26.0,26.0,26.0,0.0494444444444444,0.2824,-0.012075,294.006,-2.7692,-2.6207777777777777,-1.54,-1.5266000000000002,-222.01999999999998,215.4675,190.66175,0.0,0.0,0.0,0.0,0.0328,-5.498166666666667,-5.498166666666667,-0.5908,-0.31899999999999995,0.027666666666666728,-1.042,68.194,0.03266666666666662,-0.26940000000000003,-0.3099999999999996,100.0,1.0,1.0,210.45,0.0,0.0,0.0,0.0,0.0,0.0,0.0,8920.2,0.0,55.0,5.0,245.47,0.0,0.0,0.0,0.0,0.0,0.0,1.0,0.0,0.8039999999999985,0.8039999999999985,0.0,0.0,0.0,55.0,616.79921,10000.0,85.000001,85.000001,85.000001,85.000001,395.0,0.0,0.0,0.0,1.0,333.33500000000004,52.643,52.643,50.201,50.201,34.0,-23.8275,25.857999999999997,-24.6,27.415999999999997,0.0,1782.754,-0.3650000000000002,100.0,27.32,27.86,40.866,41.403999999999996,0.0,0.0,100.0,0.0,0.0,0.0,0.0,3189.8888888888887,3158.9,3887.75,3869.2,305.334,304.6773333333333,315.42125,315.207,21.8899,20.6045,21.9981,21.4576,314.999998,314.999998,324.999988,324.999988,99.55708571428572,99.50761666666666,99.57345714285714,99.54908571428571,0.1080000000000001,-0.020000000000000018,-0.0767500000000001,0.14349999999999996,-0.060000000000002274,-0.04999999999999716,1.582,1.5739999999999998,37.812,29.778,38.488,35.1095,55.400999999999996,35.158,61.4755,53.1435,53.407,34.3095,60.04,51.424,52.617999999999995,33.8805,60.0075,50.8165,-0.10849999999999993,-0.0495000000000001,0.10074500000000002,0.10691500000000001,0.0,213.495,213.515,210.45,210.45,0.0,0.0
17,0.0,0.0,0.0,1.0,1.0,0.0,0.0,1.0,0.0,100.0,1.0,1.1856,26.0,0.0,0.0,0.0,59.999996,0.0,26.0,26.0,26.0,26.0,0.042888888888888976,0.2934000000000001,0.0322,293.686,-2.6385,-2.7106666666666666,-1.4909,-1.4893,-218.54,215.45499999999998,190.639375,0.0,0.0,0.0,0.0,0.034800000000000005,-5.498166666666667,-5.498166666666667,-0.5851000000000001,0.16266666666666674,0.009444444444444366,0.5210000000000001,68.339,0.03266666666666662,-0.2588666666666667,-0.3979999999999997,100.0,1.0,1.0,210.81666666666666,0.0,0.0,0.0,0.0,0.0,0.0,0.0,8935.8,0.0,55.0,5.0,245.99,1.0,0.0,0.0,0.0,0.0,0.0,1.0,0.0,0.8550000000000004,0.8550000000000004,0.0,0.0,1.0,55.0,616.79921,10000.0,85.000001,85.000001,85.000001,85.000001,395.0,0.0,0.0,0.0,1.0,333.33500000000004,52.582,52.582,49.728,49.728,34.0,-21.355,26.468,-25.17,29.516,0.0,1782.702,-0.27500000000000036,100.0,27.784,27.81,40.992000000000004,41.33,0.0,0.0,100.0,0.0,0.0,0.0,0.0,3002.222222222222,3161.7,4042.25,4149.9,305.571,304.67033333333336,314.98625,314.64925,21.8994,20.6101,22.0088,21.4667,314.999998,314.999998,324.999988,324.999988,99.5571,99.50763333333333,99.57361428571429,99.54924285714286,0.10899999999999999,-0.025666666666666726,-0.07374999999999998,0.1472500000000001,-0.03499999999999659,-0.05666666666667197,1.5525,1.5324999999999998,37.870999999999995,29.813499999999998,38.555,35.167,55.388999999999996,35.198499999999996,61.5065,53.204499999999996,53.396,34.347,60.0685,51.4825,52.605999999999995,33.9165,60.033,50.874,-0.09950000000000003,-0.058499999999999996,0.10984500000000001,0.09903500000000001,0.0,213.95499999999998,213.995,210.81666666666666,210.81666666666666,0.0,0.0
18,0.0,0.0,0.0,1.0,1.0,0.0,0.0,1.0,0.0,100.0,1.0,1.1856,26.0,0.0,0.0,0.0,59.999996,0.0,26.0,26.0,26.0,26.0,0.049555555555555575,0.28880000000000017,0.020050000000000002,293.73199999999997,-2.6568,-2.7365555555555554,-1.4846,-1.5552000000000001,-215.26,215.4425,190.618125,0.0,0.0,0.0,0.0,0.03673333333333333,-5.498166666666667,-5.498166666666667,-0.597,-0.31933333333333336,0.011555555555555541,0.772,68.474,0.031333333333333435,-0.2702333333333334,-0.26200000000000045,100.0,1.0,1.0,211.23666666666668,0.0,0.0,0.0,0.0,0.0,0.0,0.0,8953.5,0.0,55.0,5.0,246.48000000000002,0.0,0.0,0.0,0.0,0.0,0.0,1.0,0.0,0.9029999999999987,0.9029999999999987,0.0,0.0,0.0,55.0,616.79921,10000.0,85.000001,85.000001,85.000001,85.000001,395.0,0.0,0.0,0.0,1.0,333.33500000000004,52.567,52.567,49.988,49.988,34.0,-22.1225,26.686,-24.182499999999997,29.974000000000004,0.0,1782.655,-0.21499999999999986,100.0,27.759,27.774,41.120000000000005,41.476,0.0,0.0,100.0,0.0,0.0,0.0,0.0,3030.6666666666665,3169.9,3901.0,4078.5,305.5323333333333,304.67833333333334,315.2995,314.68925,21.9082,20.6153,22.019,21.4754,314.999998,314.999998,324.999988,324.999988,99.55711428571429,99.50763333333333,99.57374285714286,99.54935714285715,0.09949999999999992,-0.026999999999999913,-0.0767500000000001,0.14825,-0.051666666666669414,-0.054999999999999716,1.5585,1.5459999999999998,37.926,29.846,38.619,35.221000000000004,55.379000000000005,35.2315,61.5325,53.254999999999995,53.385999999999996,34.3775,60.093,51.5315,52.595,33.945499999999996,60.0545,50.922,-0.08850000000000002,-0.0645,0.10585000000000001,0.11017500000000001,0.0,214.365,214.375,211.23666666666668,211.23666666666668,0.0,0.0
19,0.0,0.0,0.0,1.0,1.0,0.0,0.0,1.0,0.0,100.0,1.0,1.1856,26.0,0.0,0.0,0.0,59.999996,0.0,26.0,26.0,26.0,26.0,0.045222222222222275,0.2853000000000001,0.010875000000000001,293.686,-2.6586,-2.7026666666666666,-1.5106000000000002,-1.5733000000000001,-211.55,215.43,190.593875,0.0,0.0,0.0,0.0,0.03886666666666667,-5.498166666666667,-5.498166666666667,-0.5846,0.4903333333333333,0.020999999999999908,0.847,68.625,0.02244444444444449,-0.2553,-0.15200000000000014,100.0,1.0,1.0,211.72,0.0,0.0,0.0,0.0,0.0,0.0,0.0,8974.1,0.0,55.0,5.0,247.01999999999998,1.0,0.0,0.0,0.0,0.0,0.0,1.0,0.0,0.9570000000000007,0.9570000000000007,0.0,0.0,1.0,55.0,616.79921,10000.0,85.000001,85.000001,85.000001,85.000001,395.0,0.0,0.0,0.0,1.0,166.665,52.49,52.49,50.079,50.079,34.0,-21.56,25.482,-24.78,29.698,0.0,1782.603,-0.21499999999999986,100.0,28.194,28.070999999999998,41.074,41.511,0.0,0.0,100.0,0.0,0.0,0.0,0.0,2965.777777777778,3090.2,3930.0,4066.5,305.69033333333334,305.0183333333333,315.28925,314.77125,21.9182,20.6213,22.0304,21.4851,314.999998,314.999998,324.999988,324.999988,99.55712857142858,99.50765,99.57388571428571,99.54952857142857,0.10124999999999984,-0.028000000000000025,-0.07874999999999988,0.14175000000000004,-0.04833333333333201,-0.06666666666666998,1.5594999999999999,1.552,37.989000000000004,29.883499999999998,38.69,35.2815,55.367999999999995,35.272999999999996,61.562,53.316,53.375,34.4155,60.12,51.5905,52.583,33.982,60.0785,50.9795,-0.08950000000000002,-0.0605,0.10020000000000001,0.104315,0.0,214.865,214.885,211.72,211.72,0.0,0.0
20,0.0,0.0,0.0,1.0,1.0,0.0,0.0,1.0,0.0,100.0,1.0,1.1856,26.0,0.0,0.0,0.0,59.999996,0.0,26.0,26.0,26.0,26.0,0.039111111111111097,0.27190000000000003,-0.041825,293.777,-2.7308,-2.639333333333333,-1.5448,-1.5078,-208.05,215.42000000000002,190.571375,0.0,0.0,0.0,0.0,0.0409,-5.498166666666667,-5.498166666666667,-0.5965,-0.6719999999999999,0.01644444444444426,-0.837,68.767,0.01633333333333331,-0.2733333333333334,-0.06599999999999984,100.0,1.0,1.0,212.18333333333334,0.0,0.0,0.0,0.0,0.0,0.0,0.0,8993.6,0.0,55.0,5.0,247.53333333333336,0.0,0.0,0.0,0.0,0.0,0.0,0.0,0.0,1.0079999999999991,1.0079999999999991,0.0,0.0,0.0,55.0,616.79921,10000.0,85.000001,85.000001,85.000001,85.000001,395.0,0.0,0.0,0.0,1.0,166.665,52.658,52.658,49.774,49.774,34.0,-23.28,24.816,-26.0075,26.762,0.0,1782.551,-0.27500000000000036,100.0,27.661,28.011,41.447,41.899,0.0,0.0,100.0,0.0,0.0,0.0,0.0,3105.5555555555557,3068.2,3920.75,3863.0,305.5443333333333,304.94866666666667,315.3715,315.279,21.9275,20.6269,22.0413,21.4944,314.999998,314.999998,324.999988,324.999988,99.55714285714286,99.50765,99.57404285714286,99.54967142857143,0.09724999999999984,-0.02933333333333321,-0.09949999999999992,0.13649999999999984,-0.03833333333332689,-0.03833333333332689,1.582,1.5675,38.047,29.918,38.757999999999996,35.34,55.355999999999995,35.3105,61.593,53.374,53.363,34.4505,60.1485,51.6465,52.57,34.0155,60.1035,51.0345,-0.09799999999999998,-0.0515000000000001,0.10961000000000001,0.115695,0.0,215.265,215.265,212.18333333333334,212.18333333333334,0.0,0.0
21,0.0,0.0,0.0,1.0,1.0,0.0,0.0,1.0,0.0,100.0,1.0,1.1856,26.0,0.0,0.0,0.0,59.999996,0.0,26.0,26.0,26.0,26.0,0.01766666666666672,0.27849999999999997,-0.026250000000000002,293.747,-2.7053000000000003,-2.654777777777778,-1.5538,-1.5004000000000002,-204.75,215.4125,190.5495,0.0,0.0,0.0,0.0,0.042833333333333334,-5.498166666666667,-5.498166666666667,-0.608,0.19533333333333336,0.00822222222222213,-0.6719999999999999,68.9,0.010222222222222133,-0.26493333333333335,-0.08999999999999986,100.0,1.0,1.0,212.63333333333333,0.0,0.0,0.0,0.0,0.0,0.0,0.0,9012.7,0.0,55.0,5.0,248.01,1.0,0.0,0.0,0.0,0.0,0.0,0.0,0.0,1.056000000000001,1.056000000000001,0.0,0.0,1.0,55.0,616.79921,10000.0,85.000001,85.000001,85.000001,85.000001,395.0,0.0,0.0,0.0,1.0,166.665,52.444,52.444,50.125,50.125,34.0,-24.0925,25.246,-26.427500000000002,26.416,0.0,1782.504,-0.34500000000000064,100.0,27.73,27.908,41.135,41.547,0.0,0.0,100.0,0.0,0.0,0.0,0.0,3181.4444444444443,3135.8,3918.375,3928.5,305.2613333333333,304.75666666666666,315.42325,315.14825,21.9363,20.6322,22.0513,21.5029,314.999998,314.999998,324.999988,324.999988,99.55715714285714,99.50765,99.57417142857143,99.5498,0.09025000000000016,-0.03699999999999992,-0.11024999999999974,0.12375000000000025,-0.04999999999999716,-0.04333333333332945,1.615,1.609,38.102000000000004,29.951,38.821,35.3935,55.345,35.3465,61.6185,53.4255,53.352999999999994,34.4835,60.172,51.6965,52.559,34.047,60.124,51.0835,-0.10150000000000003,-0.04899999999999993,0.11061000000000001,0.10563000000000002,0.0,215.71,215.7,212.63333333333333,212.63333333333333,0.0,0.0
22,0.0,0.0,0.0,1.0,1.0,0.0,0.0,1.0,0.0,100.0,1.0,1.1856,26.0,0.0,0.0,0.0,59.999996,0.0,26.0,26.0,26.0,26.0,0.024777777777777787,0.29110000000000014,0.03425,293.243,-2.7644,-2.626888888888889,-1.5562,-1.5012,-201.23000000000002,215.4025,190.525625,0.0,0.0,0.0,0.0,0.04486666666666667,-5.498166666666667,-5.498166666666667,-0.5949,-0.1133333333333334,0.014222222222222136,0.913,69.043,0.011555555555555763,-0.2494,-0.274,100.0,1.0,1.0,212.89666666666668,0.0,0.0,0.0,0.0,0.0,0.0,0.0,9023.9,0.0,55.0,5.0,248.52666666666664,0.0,0.0,0.0,0.0,0.0,0.0,0.0,0.0,1.1069999999999993,1.1069999999999993,0.0,0.0,0.0,55.0,616.79921,10000.0,85.000001,85.000001,85.000001,85.000001,395.0,0.0,0.0,0.0,1.0,166.665,52.368,52.368,49.316,49.316,34.0,-23.57,26.122,-27.605,30.326,0.0,1782.452,-0.3550000000000004,100.0,27.974,27.821,41.480000000000004,41.635,0.0,0.0,100.0,0.0,0.0,0.0,0.0,3123.1111111111113,3230.4,4121.625,4246.1,305.3586666666667,304.65666666666664,314.853,314.3805,21.9456,20.6378,22.0621,21.5122,314.999998,314.999998,324.999988,324.999988,99.55717142857142,99.50765,99.57431428571428,99.54995714285714,0.10524999999999984,-0.026000000000000023,-0.08975,0.13949999999999996,-0.04999999999999716,-0.05833333333333002,1.52,1.5055,38.16,29.986,38.888,35.451,55.334,35.3845,61.649,53.4835,53.342,34.519,60.2005,51.7525,52.547,34.081,60.149,51.1385,-0.10549999999999993,-0.0475000000000001,0.103565,0.108575,0.0,216.14,216.155,212.89666666666668,212.89666666666668,0.0,0.0
23,0.0,0.0,0.0,1.0,1.0,0.0,0.0,1.0,0.0,100.0,1.0,1.1856,26.0,0.0,0.0,0.0,59.999996,0.0,26.0,26.0,26.0,26.0,0.012111111111111184,0.28090000000000015,0.01745,293.274,-2.6664,-2.6822222222222223,-1.6223,-1.4769,-197.91,215.39499999999998,190.50325,0.0,0.0,0.0,0.0,0.0468,-5.498166666666667,-5.498166666666667,-0.6103000000000001,-0.2446666666666666,0.015222222222222026,0.8420000000000001,69.174,0.013222222222222246,-0.2714666666666667,-0.2920000000000007,100.0,1.0,1.0,213.36,0.0,0.0,0.0,0.0,0.0,0.0,0.0,9043.5,0.0,55.0,5.0,248.99666666666667,1.0,0.0,0.0,0.0,0.0,0.0,0.0,0.0,1.1550000000000011,1.1550000000000011,0.0,0.0,1.0,55.0,616.79921,10000.0,85.000001,85.000001,85.000001,85.000001,395.0,0.0,0.0,0.0,1.0,166.665,52.246,52.246,49.53,49.53,34.0,-22.575,25.886,-27.73,28.15,0.0,1782.404,-0.3550000000000004,100.0,28.259,28.03,41.629,41.829,0.0,0.0,100.0,0.0,0.0,0.0,0.0,3078.8888888888887,3156.6,4062.375,4106.3,305.36766666666665,304.818,315.04175,314.76725,21.9544,20.6431,22.0723,21.5209,314.999998,314.999998,324.999988,324.999988,99.55718571428571,99.50766666666667,99.57445714285714,99.5501,0.10175000000000001,-0.028999999999999915,-0.0884999999999998,0.13250000000000028,-0.04999999999999716,-0.051666666666669414,1.5625,1.5590000000000002,38.215,30.0195,38.952,35.506,55.324,35.421,61.6765,53.5375,53.332,34.5525,60.226,51.8045,52.536,34.113,60.1715,51.1895,-0.10549999999999993,-0.05049999999999999,0.10104,0.10358500000000001,0.0,216.54500000000002,216.54000000000002,213.36,213.36,0.0,0.0
24,0.0,0.0,0.0,1.0,1.0,0.0,0.0,1.0,0.0,100.0,1.0,1.1856,26.0,0.0,0.0,0.0,59.999996,0.0,26.0,26.0,26.0,26.0,0.023111111111111082,0.29170000000000007,-0.047425,293.73199999999997,-2.7143,-2.6854444444444443,-1.53,-1.5285,-194.59,215.3875,190.4805,0.0,0.0,0.0,0.0,0.04873333333333334,-5.498166666666667,-5.498166666666667,-0.6238,-0.45533333333333337,0.022777777777777786,1.017,69.305,0.015333333333333421,-0.26830000000000004,-0.28200000000000003,100.0,1.0,1.0,213.8,0.0,0.0,0.0,0.0,0.0,0.0,0.0,9062.2,0.0,55.0,5.0,249.47333333333336,0.0,0.0,0.0,0.0,0.0,0.0,0.0,0.0,1.2029999999999994,1.2029999999999994,0.0,0.0,0.0,55.0,616.79921,10000.0,85.000001,85.000001,85.000001,85.000001,395.0,0.0,0.0,0.0,1.0,166.665,52.887,52.887,49.774,49.774,34.0,-21.7425,25.216,-25.5075,28.226,0.0,1782.356,-0.3699999999999992,100.0,27.96,27.766,41.543,41.739000000000004,0.0,0.0,100.0,0.0,0.0,0.0,0.0,2942.5555555555557,3098.1,3908.0,4001.0,305.878,305.0396666666667,315.32525,314.989,21.9631,20.6483,22.0824,21.5296,314.999998,314.999998,324.999988,324.999988,99.55718571428571,99.50766666666667,99.5746,99.55022857142858,0.10124999999999984,-0.03133333333333321,-0.09324999999999983,0.13850000000000007,-0.03166666666666629,-0.07000000000000028,1.5875,1.5764999999999998,38.269999999999996,30.052,39.015,35.56,55.313,35.456,61.703,53.5905,53.321,34.5845,60.25,51.8555,52.524,34.144,60.193,51.2395,-0.10299999999999998,-0.05499999999999994,0.10773500000000001,0.111935,0.0,216.945,216.96,213.8,213.8,0.0,0.0
25,0.0,0.0,0.0,1.0,1.0,0.0,0.0,1.0,0.0,100.0,1.0,1.1856,26.0,0.0,0.0,0.0,59.999996,0.0,26.0,26.0,26.0,26.0,0.0431111111111111,0.27580000000000005,-0.014275000000000001,293.365,-2.69,-2.654777777777778,-1.5710000000000002,-1.5241,-191.05,215.3825,190.454875,0.0,0.0,0.0,0.0,0.050800000000000005,-5.498166666666667,-5.498166666666667,-0.637,0.2543333333333333,0.024555555555555664,-0.877,69.444,0.02066666666666661,-0.2629666666666667,-0.3200000000000003,100.0,1.0,1.0,214.26333333333332,0.0,0.0,0.0,0.0,0.0,0.0,0.0,9081.9,0.0,55.0,5.0,249.97,1.0,0.0,0.0,0.0,0.0,0.0,0.0,0.0,1.2540000000000013,1.2540000000000013,0.0,0.0,1.0,55.0,616.79921,10000.0,85.000001,85.000001,85.000001,85.000001,395.0,0.0,0.0,0.0,1.0,333.33500000000004,51.926,51.926,49.85,49.85,34.0,-24.2375,26.622,-26.03,27.718,0.0,1782.304,-0.3650000000000002,100.0,27.928,28.25,41.237,41.638,0.0,0.0,100.0,0.0,0.0,0.0,0.0,3258.3333333333335,3229.5,3951.625,3967.4,305.061,304.38966666666664,315.37675,315.026,21.9724,20.654,22.093,21.5388,314.999998,314.999998,324.999988,324.999988,99.5572,99.50768333333333,99.57472857142857,99.55037142857142,0.09825000000000017,-0.02833333333333332,-0.09050000000000002,0.13450000000000006,-0.04333333333332945,-0.06333333333333258,1.596,1.5895000000000001,38.328,30.0875,39.081,35.617,55.301,35.4945,61.730000000000004,53.644999999999996,53.31,34.6205,60.275,51.908500000000004,52.512,34.178,60.2145,51.2915,-0.11049999999999993,-0.04899999999999993,0.10444500000000001,0.11089,0.0,217.375,217.39499999999998,214.26333333333332,214.26333333333332,0.0,0.0
26,0.0,0.0,0.0,1.0,1.0,0.0,0.0,1.0,0.0,100.0,1.0,1.1856,26.0,0.0,0.0,0.0,59.999996,0.0,26.0,26.0,26.0,26.0,0.043333333333333224,0.2755000000000001,0.06085,292.664,-2.7231,-2.6455555555555557,-1.5413000000000001,-1.5242,-187.3,215.375,190.427875,0.0,0.0,0.0,0.0,0.05296666666666667,-5.498166666666667,-5.498166666666667,-0.6107,0.010000000000000009,0.017888888888888843,-0.607,69.593,0.024333333333333318,-0.2525333333333334,-0.28000000000000025,100.0,1.0,1.0,214.51,0.0,0.0,0.0,0.0,0.0,0.0,0.0,9092.3,0.0,55.0,5.0,250.51,0.0,0.0,0.0,0.0,0.0,0.0,0.0,0.0,1.3079999999999998,1.3079999999999998,0.0,0.0,0.0,55.0,616.79921,10000.0,85.000001,85.000001,85.000001,85.000001,395.0,0.0,0.0,0.0,1.0,166.665,51.834,51.834,48.706,48.706,34.0,-23.2775,25.054000000000002,-28.67,30.006,0.0,1782.251,-0.3699999999999992,100.0,28.492,28.616,41.785,42.269,0.0,0.0,100.0,0.0,0.0,0.0,0.0,3133.4444444444443,3122.5,4262.25,4218.5,305.3736666666667,304.8063333333333,314.5785,314.34975,21.9824,20.6601,22.1045,21.5487,314.999998,314.999998,324.999988,324.999988,99.55721428571428,99.50768333333333,99.57488571428571,99.55054285714286,0.10450000000000026,-0.03699999999999992,-0.09099999999999975,0.12650000000000006,-0.04333333333332945,-0.046666666666666856,1.4914999999999998,1.4819999999999998,38.39,30.125500000000002,39.153,35.6795,55.292,35.536500000000004,61.763,53.708,53.301,34.659,60.3055,51.969,52.501000000000005,34.215,60.2415,51.351,-0.10899999999999999,-0.056499999999999995,0.108295,0.10119,0.0,217.835,217.86,214.51,214.51,0.0,0.0
27,0.0,0.0,0.0,1.0,1.0,0.0,0.0,1.0,0.0,100.0,1.0,1.1856,26.0,0.0,0.0,0.0,59.999996,0.0,26.0,26.0,26.0,26.0,0.030999999999999917,0.2612000000000001,-0.047275000000000005,293.106,-2.7588,-2.6644444444444444,-1.5974,-1.5091,-184.16,215.37,190.406,0.0,0.0,0.0,0.0,0.0548,-5.498166666666667,-5.498166666666667,-0.6385000000000001,-0.7273333333333334,0.025666666666666726,0.7490000000000001,69.713,0.027000000000000135,-0.28726666666666667,-0.3600000000000003,100.0,1.0,1.0,215.05,0.0,0.0,0.0,0.0,0.0,0.0,0.0,9115.1,0.0,55.0,5.0,250.94,1.0,0.0,0.0,0.0,0.0,0.0,0.0,0.0,1.352999999999998,1.352999999999998,0.0,0.0,1.0,55.0,616.79921,10000.0,85.000001,85.000001,85.000001,85.000001,395.0,0.0,0.0,0.0,1.0,166.665,51.987,51.987,49.286,49.286,34.0,-22.83,26.496000000000002,-25.2425,28.598,0.0,1782.206,-0.375,100.0,28.361,28.445999999999998,42.132,42.314,0.0,0.0,100.0,0.0,0.0,0.0,0.0,3079.1111111111113,3236.3,3820.75,3999.5,305.5323333333333,304.6333333333333,315.5155,315.025,21.9905,20.6651,22.1141,21.557,314.999998,314.999998,324.999988,324.999988,99.55722857142857,99.50768333333333,99.57502857142858,99.55067142857143,0.11149999999999993,-0.02733333333333321,-0.08150000000000013,0.15100000000000025,-0.008333333333325754,-0.06499999999999773,1.5685,1.5684999999999998,38.441,30.157,39.213,35.731,55.282,35.570499999999996,61.789,53.757999999999996,53.291,34.6905,60.329499999999996,52.0175,52.491,34.245,60.2625,51.397999999999996,-0.10799999999999998,-0.05600000000000005,0.09935500000000001,0.10988,0.0,218.16,218.2,215.05,215.05,0.0,0.0
28,0.0,0.0,0.0,1.0,1.0,0.0,0.0,1.0,0.0,100.0,1.0,1.1856,26.0,0.0,0.0,0.0,59.999996,0.0,26.0,26.0,26.0,26.0,0.03311111111111109,0.28690000000000015,-0.030925,293.152,-2.7261,-2.672111111111111,-1.5503,-1.5192,-180.39,215.365,190.37875,0.0,0.0,0.0,0.0,0.057,-5.498166666666667,-5.498166666666667,-0.6344000000000001,0.4053333333333333,0.01200000000000001,0.563,69.857,0.027888888888889074,-0.2569666666666667,-0.4399999999999995,100.0,1.0,1.0,215.47,0.0,0.0,0.0,0.0,0.0,0.0,0.0,9133.0,0.0,55.0,5.0,251.46,0.0,0.0,0.0,0.0,0.0,0.0,0.0,0.0,1.407,1.407,0.0,0.0,0.0,55.0,616.79921,10000.0,85.000001,85.000001,85.000001,85.000001,395.0,0.0,0.0,0.0,1.0,166.665,52.246,52.246,49.088,49.088,34.0,-21.4725,26.374,-25.822499999999998,29.406,0.0,1782.152,-0.41499999999999915,100.0,28.344,28.372,41.692,41.968,0.0,0.0,100.0,0.0,0.0,0.0,0.0,2980.8888888888887,3152.3,4053.375,4120.8,305.738,304.80766666666665,315.033,314.7875,22.0004,20.6712,22.1254,21.5667,314.999998,314.999998,324.999988,324.999988,99.55724285714285,99.50768333333333,99.57518571428571,99.55082857142857,0.11975000000000025,-0.015333333333333199,-0.07050000000000001,0.14375000000000027,-0.04333333333332945,-0.05666666666667197,1.568,1.5499999999999998,38.501999999999995,30.1955,39.284,35.792,55.271,35.6115,61.817,53.8165,53.281,34.7285,60.355000000000004,52.074,52.479,34.2815,60.285,51.4535,-0.11499999999999999,-0.04299999999999993,0.10389000000000001,0.101525,0.0,218.675,218.69,215.47,215.47,0.0,0.0
29,0.0,0.0,0.0,1.0,1.0,0.0,0.0,1.0,0.0,100.0,1.0,1.1856,26.0,0.0,0.0,0.0,59.999996,0.0,26.0,26.0,26.0,26.0,0.04055555555555568,0.26780000000000004,-0.017825,292.984,-2.7607,-2.578444444444444,-1.5865,-1.5396,-177.04,215.3625,190.35375,0.0,0.0,0.0,0.0,0.05893333333333334,-5.498166666666667,-5.498166666666667,-0.6469,-0.6719999999999999,0.009444444444444366,0.692,69.987,0.029444444444444606,-0.2669,-0.42600000000000016,100.0,1.0,1.0,215.81666666666666,0.0,0.0,0.0,0.0,0.0,0.0,0.0,9147.7,0.0,55.0,5.0,251.92666666666668,1.0,0.0,0.0,0.0,0.0,0.0,0.0,0.0,1.4549999999999983,1.4549999999999983,0.0,0.0,1.0,55.0,616.79921,10000.0,85.000001,85.000001,85.000001,85.000001,395.0,0.0,0.0,0.0,1.0,333.33500000000004,51.956,51.956,49.301,49.301,34.0,-23.8025,27.484,-26.0075,29.724000000000004,0.0,1782.103,-0.45500000000000007,100.0,28.128,28.124,41.934,42.212,0.0,0.0,100.0,0.0,0.0,0.0,0.0,3214.5555555555557,3350.3,3946.5,4091.0,305.195,304.4316666666667,315.286,314.7525,22.009,20.6766,22.1356,21.5756,314.999998,314.999998,324.999988,324.999988,99.55725714285714,99.50768333333333,99.57531428571428,99.55095714285714,0.11525000000000007,-0.006999999999999895,-0.07899999999999974,0.14500000000000002,-0.04333333333332945,-0.05666666666667197,1.5415,1.5364999999999998,38.556,30.2285,39.347,35.847,55.260999999999996,35.6465,61.845,53.8705,53.271,34.760999999999996,60.381,52.126,52.468,34.3125,60.3075,51.504999999999995,-0.11149999999999993,-0.038999999999999924,0.10558000000000001,0.10250500000000001,0.0,219.025,219.06,215.81666666666666,215.81666666666666,0.0,0.0
30,0.0,0.0,0.0,1.0,1.0,0.0,0.0,1.0,0.0,100.0,1.0,1.1856,26.0,0.0,0.0,0.0,59.999996,0.0,26.0,26.0,26.0,26.0,0.03722222222222227,0.28300000000000014,0.065875,292.191,-2.7375,-2.635888888888889,-1.6261999999999999,-1.4365,-173.45999999999998,215.36,190.327,0.0,0.0,0.0,0.0,0.06103333333333334,-5.498166666666667,-5.498166666666667,-0.6351,0.8223333333333334,0.011777777777777887,-0.544,70.123,0.034333333333333105,-0.2593666666666667,-0.46999999999999975,100.0,1.0,1.0,216.17000000000002,0.0,0.0,0.0,0.0,0.0,0.0,0.0,9162.7,0.0,55.0,5.0,252.41333333333336,0.0,0.0,0.0,0.0,0.0,0.0,1.0,0.0,1.5060000000000002,1.5060000000000002,0.0,0.0,0.0,55.0,616.79921,10000.0,85.000001,85.000001,85.000001,85.000001,395.0,0.0,0.0,0.0,1.0,166.665,51.147,51.147,48.507999999999996,48.507999999999996,34.0,-23.822499999999998,25.768,-29.7725,30.39,0.0,1782.053,-0.4450000000000003,100.0,28.926000000000002,29.145,41.784,42.370000000000005,0.0,0.0,100.0,0.0,0.0,0.0,0.0,3242.5555555555557,3162.2,4369.25,4348.8,305.05066666666664,304.5466666666667,314.467,314.223,22.0185,20.6825,22.1463,21.5849,314.999998,314.999998,324.999988,324.999988,99.55727142857143,99.5077,99.57545714285715,99.55111428571429,0.11675000000000013,-0.03166666666666673,-0.07825000000000015,0.14300000000000024,-0.051666666666669414,-0.04333333333332945,1.526,1.5059999999999998,38.614999999999995,30.266,39.415,35.9055,55.254000000000005,35.6875,61.873,53.927,53.263999999999996,34.798500000000004,60.4065,52.181,52.459,34.3485,60.33,51.5585,-0.11449999999999994,-0.052000000000000046,0.10698500000000001,0.10745500000000001,0.0,219.51,219.515,216.17000000000002,216.17000000000002,0.0,0.0
31,0.0,0.0,0.0,1.0,1.0,0.0,0.0,1.0,0.0,100.0,1.0,1.1856,26.0,0.0,0.0,0.0,59.999996,0.0,26.0,26.0,26.0,26.0,0.05222222222222217,0.2553000000000001,-0.007050000000000001,292.252,-2.7096999999999998,-2.688888888888889,-1.629,-1.5144,-169.88,215.36,190.30125,0.0,0.0,0.0,0.0,0.0631,-5.498166666666667,-5.498166666666667,-0.6291,-0.4013333333333333,0.023222222222222033,0.603,70.258,0.034333333333333105,-0.27403333333333335,-0.5420000000000007,100.0,1.0,1.0,216.60000000000002,0.0,0.0,0.0,0.0,0.0,0.0,0.0,9180.9,0.0,55.0,5.0,252.90333333333334,1.0,0.0,0.0,0.0,0.0,0.0,1.0,0.0,1.5569999999999986,1.5569999999999986,0.0,0.0,1.0,55.0,616.79921,10000.0,85.000001,85.000001,85.000001,85.000001,395.0,0.0,0.0,0.0,1.0,166.665,51.346000000000004,51.346000000000004,48.141,48.141,34.0,-20.82,28.13,-26.785,30.504,0.0,1782.003,-0.48499999999999943,100.0,28.864,29.156,42.558,42.979,0.0,0.0,100.0,0.0,0.0,0.0,0.0,2977.6666666666665,3305.1,3984.625,4180.8,305.6843333333333,304.2803333333333,315.149,314.613,22.0277,20.6884,22.1573,21.5944,314.999998,314.999998,324.999988,324.999988,99.55728571428571,99.5077,99.57561428571428,99.55127142857143,0.133,-0.014999999999999902,-0.07350000000000012,0.14975000000000005,-0.03333333333333144,-0.06333333333333258,1.5150000000000001,1.4935,38.673,30.302500000000002,39.483000000000004,35.965,55.244,35.7275,61.9035,53.9865,53.254000000000005,34.835499999999996,60.435,52.238,52.449,34.384,60.355000000000004,51.6145,-0.122,-0.04600000000000004,0.10908000000000001,0.09989,0.0,219.885,219.91500000000002,216.60000000000002,216.60000000000002,0.0,0.0
32,0.0,0.0,0.0,1.0,1.0,0.0,0.0,1.0,0.0,100.0,1.0,1.1856,26.0,0.0,0.0,0.0,59.999996,0.0,26.0,26.0,26.0,26.0,0.0664444444444443,0.2599,-0.06825,292.831,-2.7668,-2.674444444444444,-1.5701,-1.5874000000000001,-166.51,215.36,190.277,0.0,0.0,0.0,0.0,0.06506666666666666,-5.498166666666667,-5.498166666666667,-0.646,-0.23066666666666658,0.0040000000000000036,0.1060000000000001,70.383,0.03388888888888886,-0.27813333333333334,-0.44399999999999995,100.0,1.0,1.0,217.10333333333335,0.0,0.0,0.0,0.0,0.0,0.0,0.0,9202.2,0.0,55.0,5.0,253.35666666666668,0.0,0.0,0.0,0.0,0.0,0.0,1.0,0.0,1.6050000000000004,1.6050000000000004,0.0,0.0,0.0,55.0,616.79921,10000.0,85.000001,85.000001,85.000001,85.000001,395.0,0.0,0.0,0.0,1.0,333.33500000000004,51.849000000000004,51.849000000000004,49.225,49.225,34.0,-21.965,26.334,-23.845,30.152,0.0,1781.953,-0.4949999999999992,100.0,28.663,28.897,42.244,42.778999999999996,0.0,0.0,100.0,0.0,0.0,0.0,0.0,3036.1111111111113,3133.7,3802.125,4018.1000000000004,305.67533333333336,304.85266666666666,315.628,314.91075,22.0363,20.6939,22.1673,21.6032,314.999998,314.999998,324.999988,324.999988,99.5573,99.5077,99.57575714285714,99.5514,0.12524999999999986,-0.013333333333333197,-0.06449999999999978,0.15425000000000022,-0.03166666666666629,-0.054999999999999716,1.5805,1.549,38.727000000000004,30.3365,39.546,36.019999999999996,55.233999999999995,35.7635,61.9285,54.039500000000004,53.245000000000005,34.8685,60.458,52.289,52.438,34.416,60.3745,51.664,-0.11499999999999999,-0.0475000000000001,0.10311000000000001,0.106935,0.0,220.26,220.29000000000002,217.10333333333335,217.10333333333335,0.0,0.0
33,0.0,0.0,0.0,1.0,1.0,0.0,0.0,1.0,0.0,100.0,1.0,1.1856,26.0,0.0,0.0,0.0,59.999996,0.0,26.0,26.0,26.0,26.0,0.049111111111111105,0.27870000000000017,-0.026875,292.801,-2.7254,-2.637,-1.6404,-1.5155,-162.92000000000002,215.3625,190.249875,0.0,0.0,0.0,0.0,0.06716666666666667,-5.498166666666667,-5.498166666666667,-0.6563,-0.28966666666666663,0.0031111111111110645,-0.20299999999999996,70.518,0.03644444444444428,-0.2622,-0.45199999999999996,100.0,1.0,1.0,217.46666666666667,0.0,0.0,0.0,0.0,0.0,0.0,0.0,9217.6,0.0,55.0,5.0,253.83666666666664,1.0,0.0,0.0,0.0,0.0,0.0,1.0,0.0,1.6559999999999988,1.6559999999999988,0.0,0.0,1.0,55.0,616.79921,10000.0,85.000001,85.000001,85.000001,85.000001,395.0,0.0,0.0,0.0,1.0,166.665,51.956,51.956,49.025999999999996,49.025999999999996,34.0,-22.7725,25.234,-27.572499999999998,29.284,0.0,1781.904,-0.5199999999999996,100.0,28.372,28.761,42.044,42.628,0.0,0.0,100.0,0.0,0.0,0.0,0.0,3167.6666666666665,3084.7,4074.125,4056.6000000000004,305.39366666666666,304.966,315.13025,314.87125,22.0454,20.6995,22.178,21.6124,314.999998,314.999998,324.999988,324.999988,99.55731428571428,99.5077,99.5759,99.55155714285715,0.12049999999999983,-0.02200000000000002,-0.08099999999999996,0.15100000000000025,-0.04833333333333201,-0.041666666666671404,1.5705,1.5579999999999998,38.784,30.372,39.613,36.0775,55.224999999999994,35.8,61.956,54.0945,53.235,34.9025,60.4835,52.342,52.427,34.448,60.3965,51.716,-0.12349999999999994,-0.04400000000000004,0.107185,0.11275,0.0,220.685,220.7,217.46666666666667,217.46666666666667,0.0,0.0
34,0.0,0.0,0.0,1.0,1.0,0.0,0.0,1.0,0.0,100.0,1.0,1.1856,26.0,0.0,0.0,0.0,59.999996,0.0,26.0,26.0,26.0,26.0,0.064888888888889,0.2741,-0.0522,293.06,-2.7647,-2.668222222222222,-1.5868,-1.4921,-159.53,215.365,190.223125,0.0,0.0,0.0,0.0,0.06913333333333334,-5.498166666666667,-5.498166666666667,-0.6881,-1.0066666666666666,0.023777777777777898,-0.20999999999999996,70.644,0.040777777777778024,-0.2735666666666667,-0.5139999999999993,100.0,1.0,1.0,217.82999999999998,0.0,0.0,0.0,0.0,0.0,0.0,0.0,9233.0,0.0,55.0,5.0,254.29333333333335,0.0,0.0,0.0,0.0,0.0,0.0,1.0,0.0,1.7040000000000006,1.7040000000000006,0.0,0.0,0.0,55.0,616.79921,10000.0,85.000001,85.000001,85.000001,85.000001,395.0,0.0,0.0,0.0,1.0,166.665,52.383,52.383,49.286,49.286,34.0,-21.849999999999998,25.962,-25.67,29.450000000000003,0.0,1781.855,-0.47000000000000064,100.0,28.093,28.479,41.921,42.693,0.0,0.0,100.0,0.0,0.0,0.0,0.0,3019.5555555555557,3111.0,3951.5,4079.6000000000004,305.72633333333334,304.959,315.32375,314.789,22.0539,20.7048,22.1881,21.6212,314.999998,314.999998,324.999988,324.999988,99.55734285714286,99.50771666666667,99.57602857142857,99.5517,0.12449999999999983,-0.014666666666666606,-0.07374999999999998,0.15474999999999994,-0.05833333333333002,-0.03333333333333144,1.5625,1.5459999999999998,38.837,30.405,39.675,36.1325,55.214,35.8335,61.981,54.147999999999996,53.224999999999994,34.9335,60.506,52.394,52.416,34.478,60.416,51.766999999999996,-0.11199999999999999,-0.04400000000000004,0.102095,0.10729500000000002,0.0,221.055,221.065,217.82999999999998,217.82999999999998,0.0,0.0
35,0.0,0.0,0.0,1.0,1.0,0.0,0.0,1.0,0.0,100.0,1.0,1.1856,26.0,0.0,0.0,0.0,59.999996,0.0,26.0,26.0,26.0,26.0,0.04133333333333322,0.252,-0.050325,292.877,-2.794,-2.650555555555556,-1.5973000000000002,-1.4882,-155.92000000000002,215.37,190.192625,0.0,0.0,0.0,0.0,0.0712,-5.498166666666667,-5.498166666666667,-0.7160000000000001,0.16266666666666674,-0.0007777777777779882,-0.40700000000000003,70.775,0.04455555555555568,-0.27043333333333336,-0.4900000000000002,100.0,1.0,1.0,218.32999999999998,0.0,0.0,0.0,0.0,0.0,0.0,0.0,9254.2,0.0,55.0,5.0,254.76333333333332,1.0,0.0,0.0,0.0,0.0,0.0,1.0,0.0,1.754999999999999,1.754999999999999,0.0,0.0,1.0,55.0,616.79921,10000.0,85.000001,85.000001,85.000001,85.000001,395.0,0.0,0.0,0.0,1.0,333.33500000000004,51.559,51.559,49.179,49.179,34.0,-23.72,28.398,-24.5825,28.71,0.0,1781.803,-0.29499999999999993,100.0,28.23,28.82,41.739000000000004,42.115,0.0,0.0,100.0,0.0,0.0,0.0,0.0,3185.1111111111113,3385.8,3883.0,3972.7,305.33233333333334,304.08233333333334,315.4995,315.102,22.0629,20.7108,22.1986,21.6304,314.999998,314.999998,324.999988,324.999988,99.55734285714286,99.50771666666667,99.57618571428571,99.55184285714286,0.11799999999999988,-0.0173333333333332,-0.06274999999999986,0.16349999999999998,-0.04999999999999716,-0.054999999999999716,1.6015,1.572,38.893,30.4425,39.741,36.19,55.202,35.874,62.006,54.2,53.214,34.971000000000004,60.5295,52.4445,52.403,34.5135,60.436,51.8165,-0.09850000000000003,-0.0625,0.10939000000000002,0.10125500000000001,0.0,221.48000000000002,221.51999999999998,218.32999999999998,218.32999999999998,0.0,0.0
36,0.0,0.0,0.0,1.0,1.0,0.0,0.0,1.0,0.0,100.0,1.0,1.1856,26.0,0.0,0.0,0.0,59.999996,0.0,26.0,26.0,26.0,26.0,0.05511111111111111,0.2602,-0.015600000000000001,292.557,-2.7747,-2.6077777777777778,-1.6175000000000002,-1.5709000000000002,-152.52,215.375,190.163125,0.0,0.0,0.0,0.0,0.0732,-5.498166666666667,-5.498166666666667,-0.7034,-0.5569999999999999,-0.04266666666666685,0.13400000000000012,70.904,0.040111111111110986,-0.2543,-0.3120000000000003,100.0,1.0,1.0,218.47,0.0,0.0,0.0,0.0,0.0,0.0,0.0,9260.1,0.0,55.0,5.0,255.22333333333336,0.0,0.0,0.0,0.0,0.0,0.0,1.0,0.0,1.8030000000000008,1.8030000000000008,0.0,0.0,0.0,55.0,616.79921,10000.0,85.000001,85.000001,85.000001,85.000001,395.0,0.0,0.0,0.0,1.0,333.33500000000004,52.46,52.46,48.325,48.325,34.0,-21.7375,24.259999999999998,-29.4925,33.414,0.0,1781.755,-0.22000000000000064,100.0,28.65,28.593,42.227000000000004,42.567,0.0,0.0,100.0,0.0,0.0,0.0,0.0,2973.222222222222,3025.0,4374.125,4301.2,305.952,305.4026666666667,314.37925,314.2745,22.0715,20.7162,22.2088,21.6393,314.999998,314.999998,324.999988,324.999988,99.55737142857143,99.50771666666667,99.57632857142858,99.552,0.11775000000000002,-0.018333333333333313,-0.06950000000000012,0.1652499999999999,-0.041666666666671404,-0.041666666666671404,1.4925,1.4695,38.947,30.4765,39.805,36.2455,55.193,35.9095,62.0345,54.2555,53.205,35.0035,60.5555,52.498,52.393,34.545,60.459,51.8685,-0.10099999999999998,-0.06350000000000011,0.11109000000000001,0.11230500000000002,0.0,221.89,221.89,218.47,218.47,0.0,0.0
