,ABS Active,ABS Enabled,AID Allow Tire Blankets,AID Auto Blip,AID Auto Clutch,AID Auto Shift,AID Fuel Rate,AID Ideal Line,AID Mech Damage,AID Stability,AID Tire Wear Rate,Air Density,Air Temp,Ballast,Best Lap Delta,Best Lap Time,Brake Bias,Brake Pos,Brake Temp FL,Brake Temp FR,Brake Temp RL,Brake Temp RR,CG Accel Lateral,CG Accel Longitudinal,CG Accel Vertical,CG Height,Camber FL,Camber FR,Camber RL,Camber RR,Car Coord X,Car Coord Y,Car Coord Z,Car Damage Front,Car Damage Left,Car Damage Rear,Car Damage Right,Car Pos Norm,Caster FL,Caster FR,Chassis Pitch Angle,Chassis Pitch Rate,Chassis Roll Angle,Chassis Roll Rate,Chassis Velocity X,Chassis Velocity Y,Chassis Velocity Z,Chassis Yaw Rate,Clutch Pos,DRS Active,DRS Available,Drive Train Speed,ERS Heat Charging,ERS Is Charging,ERS Max Energy,ERS Power Level,ERS Recovery Level,Engine Brake Setting,Engine Limiter,Engine RPM,Flags,Fuel Level,Gear,Ground Speed,HR Sample Clock,In Pit,KERS Charge,KERS Deployed Energy,KERS Input,KERS Max Energy,LR Sample Clock,Lap Invalidated,Lap Time,Lap Time2,Last Lap Time,Last Sector Time,MR Sample Clock,Max Fuel,Max Power,Max RPM,Max Sus Travel FL,Max Sus Travel FR,Max Sus Travel RL,Max Sus Travel RR,Max Torque,Max Turbo Boost,Num Tires Off Track,Penalties Enabled,Position,Raw Data Sample Rate,Ride Height FL,Ride Height FR,Ride Height RL,Ride Height RR,Road Temp,Self Align Torque FL,Self Align Torque FR,Self Align Torque RL,Self Align Torque RR,Session Lap Count,Session Time Left,Steering Angle,Surface Grip,Suspension Travel FL,Suspension Travel FR,Suspension Travel RL,Suspension Travel RR,TC Active,TC Enabled,Throttle Pos,Tire Dirt Level FL,Tire Dirt Level FR,Tire Dirt Level RL,Tire Dirt Level RR,Tire Load FL,Tire Load FR,Tire Load RL,Tire Load RR,Tire Loaded Radius FL,Tire Loaded Radius FR,Tire Loaded Radius RL,Tire Loaded Radius RR,Tire Pressure FL,Tire Pressure FR,Tire Pressure RL,Tire Pressure RR,Tire Radius FL,Tire Radius FR,Tire Radius RL,Tire Radius RR,Tire Rubber Grip FL,Tire Rubber Grip FR,Tire Rubber Grip RL,Tire Rubber Grip RR,Tire Slip Angle FL,Tire Slip Angle FR,Tire Slip Angle RL,Tire Slip Angle RR,Tire Slip Ratio FL,Tire Slip Ratio FR,Tire Slip Ratio RL,Tire Slip Ratio RR,Tire Temp Core FL,Tire Temp Core FR,Tire Temp Core RL,Tire Temp Core RR,Tire Temp Inner FL,Tire Temp Inner FR,Tire Temp Inner RL,Tire Temp Inner RR,Tire Temp Middle FL,Tire Temp Middle FR,Tire Temp Middle RL,Tire Temp Middle RR,Tire Temp Outer FL,Tire Temp Outer FR,Tire Temp Outer RL,Tire Temp Outer RR,Toe In FL,Toe In FR,Toe In RL,Toe In RR,Turbo Boost,Wheel Angular Speed FL,Wheel Angular Speed FR,Wheel Angular Speed RL,Wheel Angular Speed RR,Wind Direction,Wind Speed
0,0.0,0.0,0.0,1.0,1.0,0.0,0.0,1.0,0.0,100.0,1.0,1.1856,26.0,0.0,0.0,0.0,59.99999,0.0,26.0,26.0,26.0,26.0,-0.067375,0.32030000000000003,0.08080000000000001,293.579,-2.6807,-2.608777777777778,-1.4936,-1.526,-275.5,216.345,190.986,0.0,0.0,0.0,0.0,0.0017000000000000001,-5.498166666666667,-5.498166666666667,-0.6615,1.2096666666666667,-0.003666666666666707,-0.7629999999999999,65.521,-0.02814285714285747,-0.3453,1.0260000000000007,100.0,1.0,1.0,202.39666666666668,0.0,0.0,0.0,0.0,0.0,0.0,0.0,8578.8,0.0,55.0,5.0,235.8466666666667,0.0,0.0,0.0,0.0,0.0,0.0,0.0,0.0,0.006000000000000227,0.006000000000000227,0.0,0.0,0.0,55.0,616.79921,10000.0,85.0,85.0,85.0,85.0,395.0,0.0,0.0,0.0,1.0,20.0,48.828,48.828,51.987,51.987,34.0,-27.384999999999998,25.59,-27.5925,23.366,0.0,1783.297,0.8200000000000003,100.0,30.58,30.103,38.486000000000004,38.513,0.0,0.0,100.0,0.0,0.0,0.0,0.0,3239.0,3678.6,3945.125,3798.6000000000004,305.0063333333333,303.1453333333333,315.304,315.382,21.8049,20.5838,21.932,21.3491,314.99999,314.99999,324.99998,324.99998,99.55872857142857,99.50868333333334,99.5782,99.54887142857143,0.022666666666666835,-0.1166666666666667,-0.1463333333333332,0.07666666666666622,-0.03333333333333144,-0.051666666666669414,1.617,1.6464999999999996,37.28,29.649,38.075,34.432,56.352000000000004,35.5575,63.363,53.0775,54.363,34.6815,61.913,51.357,53.629999999999995,34.244,61.967,50.7635,-0.029500000000000002,-0.151,0.09272000000000001,0.11209000000000001,0.0,205.32999999999998,205.24,202.39666666666668,202.39666666666668,0.0,0.0
1,0.0,0.0,0.0,1.0,1.0,0.0,0.0,1.0,0.0,100.0,1.0,1.1856,26.0,0.0,0.0,0.0,59.999996,0.0,26.0,26.0,26.0,26.0,-0.1075,0.30180000000000007,0.20065000000000002,292.648,-2.5944000000000003,-2.719666666666667,-1.5004,-1.5221111111111112,-272.15,216.34,190.965875,0.0,0.0,0.0,0.0,0.003633333333333334,-5.498166666666667,-5.498166666666667,-0.6203000000000001,-0.6686666666666667,-0.05466666666666642,-1.1149999999999998,65.674,-0.04828571428571404,-0.33313333333333334,1.4400000000000004,100.0,1.0,1.0,202.56,0.0,0.0,0.0,0.0,0.0,0.0,0.0,8585.8,0.0,55.0,5.0,236.39666666666668,1.0,0.0,0.0,0.0,0.0,0.0,0.0,0.0,0.05699999999999861,0.05699999999999861,0.0,0.0,1.0,55.0,616.79921,10000.0,85.000001,85.000001,85.000001,85.000001,395.0,0.0,0.0,0.0,1.0,333.33500000000004,49.454,49.454,51.056,51.056,34.0,-29.54,20.222,-32.0325,27.584,0.0,1783.245,0.835,100.0,30.59,30.039,40.495000000000005,39.601,0.0,0.0,100.0,0.0,0.0,0.0,0.0,3462.75,3030.4,4121.0,4484.9,304.37333333333333,305.168,314.8575,313.696,21.8151,20.5895,21.9437,21.3584,314.999998,314.999998,324.999988,324.999988,99.55872857142857,99.5087,99.57835714285714,99.54901428571429,0.004666666666666597,-0.14533333333333331,-0.18866666666666632,0.050666666666666416,-0.07499999999999574,-0.060000000000002274,1.4655,1.5170000000000003,37.345,29.6845,38.147999999999996,34.49,56.34,35.6015,63.391999999999996,53.135,54.352000000000004,34.7215,61.94,51.4125,53.617000000000004,34.2825,61.991,50.818,-0.0275,-0.158,0.10966000000000001,0.11228500000000001,0.0,205.8,205.675,202.56,202.56,0.0,0.0
2,0.0,0.0,0.0,1.0,1.0,0.0,0.0,1.0,0.0,100.0,1.0,1.1856,26.0,0.0,0.0,0.0,59.999996,0.0,26.0,26.0,26.0,26.0,-0.11925000000000001,0.28480000000000016,-0.0261,293.198,-2.5731,-2.7373333333333334,-1.4739,-1.5693333333333332,-268.6,216.32999999999998,190.945875,0.0,0.0,0.0,0.0,0.0057,-5.498166666666667,-5.498166666666667,-0.6615,0.3540000000000001,-0.03622222222222238,1.6000000000000005,65.82300000000001,-0.07242857142857151,-0.3811,1.654,100.0,1.0,1.0,203.47333333333333,0.0,0.0,0.0,0.0,0.0,0.0,0.0,8624.5,0.0,55.0,5.0,236.93666666666667,0.0,0.0,0.0,0.0,0.0,0.0,0.0,0.0,0.11100000000000065,0.11100000000000065,0.0,0.0,0.0,55.0,616.79921,10000.0,85.000001,85.000001,85.000001,85.000001,395.0,0.0,0.0,0.0,1.0,166.665,48.508,48.508,52.628,52.628,34.0,-31.91,21.099999999999998,-27.4825,19.102,0.0,1783.192,0.5800000000000001,100.0,31.303,30.094,40.369,39.28,0.0,0.0,100.0,0.0,0.0,0.0,0.0,3619.75,3246.8,3585.375,3637.0,303.8143333333333,304.426,316.13725,315.8925,21.8263,20.5955,21.9557,21.3679,314.999998,314.999998,324.999988,324.999988,99.55872857142857,99.50873333333334,99.5785,99.54915714285714,-0.013666666666666716,-0.16833333333333322,-0.22633333333333328,0.006333333333333968,-0.07333333333333059,-0.05333333333332746,1.6804999999999999,1.7560000000000002,37.414,29.7215,38.223,34.5495,56.331,35.6465,63.416,53.188,54.343,34.7635,61.962,51.463499999999996,53.607,34.3225,62.01,50.868,-0.0415,-0.151,0.104205,0.10678000000000001,0.0,206.26999999999998,206.13,203.47333333333333,203.47333333333333,0.0,0.0
3,0.0,0.0,0.0,1.0,1.0,0.0,0.0,1.0,0.0,100.0,1.0,1.1856,26.0,0.0,0.0,0.0,59.999996,0.0,26.0,26.0,26.0,26.0,-0.1465,0.2963,-0.055275000000000005,293.076,-2.6869,-2.647777777777778,-1.4881,-1.561777777777778,-265.44,216.32,190.9275,0.0,0.0,0.0,0.0,0.007566666666666668,-5.498166666666667,-5.498166666666667,-0.6267,0.18633333333333324,-0.009444444444444589,-1.178,65.965,-0.08699999999999974,-0.33836666666666665,1.314,100.0,1.0,1.0,203.60333333333332,0.0,0.0,0.0,0.0,0.0,0.0,0.0,8629.9,0.0,55.0,5.0,237.44666666666666,1.0,0.0,0.0,0.0,0.0,0.0,0.0,0.0,0.15899999999999892,0.15899999999999892,0.0,0.0,1.0,55.0,616.79921,10000.0,85.000001,85.000001,85.000001,85.000001,395.0,0.0,0.0,0.0,1.0,166.665,49.744,49.744,50.705,50.705,34.0,-27.77,19.442,-32.925,22.198,0.0,1783.143,0.5250000000000004,100.0,30.872,30.09,40.371,39.534,0.0,0.0,100.0,0.0,0.0,0.0,0.0,3123.375,3076.5,4131.125,4010.6000000000004,305.31666666666666,304.85966666666667,314.868,314.86725,21.8358,20.6009,21.9664,21.3765,314.999998,314.999998,324.999988,324.999988,99.55874285714286,99.50875,99.57862857142857,99.5493,-0.010666666666666602,-0.15999999999999992,-0.21499999999999986,0.008000000000000007,-0.045000000000001705,-0.03499999999999659,1.5310000000000001,1.5895000000000001,37.474000000000004,29.755499999999998,38.29,34.603,56.318,35.689499999999995,63.439,53.2405,54.331,34.803,61.983000000000004,51.513999999999996,53.594,34.36,62.0285,50.918,-0.0495,-0.1305,0.10213000000000001,0.11145000000000001,0.0,206.69,206.595,203.60333333333335,203.60333333333332,0.0,0.0
4,0.0,0.0,0.0,1.0,1.0,0.0,0.0,1.0,0.0,100.0,1.0,1.1856,26.0,0.0,0.0,0.0,59.999996,0.0,26.0,26.0,26.0,26.0,-0.137125,0.28390000000000004,-0.029575,293.289,-2.6192,-2.699777777777778,-1.4996,-1.5706666666666669,-262.27,216.305,190.908875,0.0,0.0,0.0,0.0,0.0094,-5.498166666666667,-5.498166666666667,-0.6627000000000001,-0.607,-0.07833333333333359,-1.645,66.101,-0.08757142857142819,-0.37106666666666666,1.1760000000000002,100.0,1.0,1.0,204.21,0.0,0.0,0.0,0.0,0.0,0.0,0.0,8655.7,0.0,55.0,5.0,237.93666666666667,0.0,0.0,0.0,0.0,0.0,0.0,0.0,0.0,0.20700000000000074,0.20700000000000074,0.0,0.0,0.0,55.0,616.79921,10000.0,85.000001,85.000001,85.000001,85.000001,395.0,0.0,0.0,0.0,1.0,333.33500000000004,49.133,49.133,51.528999999999996,51.528999999999996,34.0,-31.435000000000002,20.71,-30.3875,19.164,0.0,1783.095,0.46999999999999975,100.0,30.688,29.92,40.656,39.355000000000004,0.0,0.0,100.0,0.0,0.0,0.0,0.0,3587.125,3171.9,3886.125,3479.8,304.07166666666666,304.5933333333333,315.42175,316.184,21.8453,20.6063,21.9772,21.384999999999998,314.999998,314.999998,324.999988,324.999988,99.55874285714286,99.50876666666667,99.57877142857143,99.54941428571429,-0.004999999999999893,-0.15799999999999992,-0.21700000000000008,0.02366666666666628,-0.03999999999999915,-0.03999999999999915,1.6389999999999998,1.686,37.533,29.7895,38.358000000000004,34.656,56.305,35.7315,63.464,53.288,54.318,34.841499999999996,62.006,51.5595,53.58,34.397,62.0485,50.9625,-0.0535,-0.129,0.107685,0.10580500000000001,0.0,207.09,206.965,204.21,204.21,0.0,0.0
5,0.0,0.0,0.0,1.0,1.0,0.0,0.0,1.0,0.0,100.0,1.0,1.1856,26.0,0.0,0.0,0.0,59.999996,0.0,26.0,26.0,26.0,26.0,-0.127,0.30100000000000016,0.001075,293.152,-2.6321,-2.719333333333333,-1.4864,-1.5564444444444443,-258.69,216.285,190.887125,0.0,0.0,0.0,0.0,0.011466666666666668,-5.498166666666667,-5.498166666666667,-0.6509,0.2570000000000001,-0.07955555555555582,-0.2759999999999998,66.256,-0.08999999999999986,-0.34790000000000004,1.0660000000000007,100.0,1.0,1.0,204.57,0.0,0.0,0.0,0.0,0.0,0.0,0.0,8671.0,0.0,55.0,5.0,238.49,1.0,0.0,0.0,0.0,0.0,0.0,0.0,0.0,0.26099999999999923,0.26099999999999923,0.0,0.0,1.0,55.0,616.79921,10000.0,85.000001,85.000001,85.000001,85.000001,395.0,0.0,0.0,0.0,1.0,166.665,49.484,49.484,51.407,51.407,34.0,-30.5975,20.86,-32.4,21.451999999999998,0.0,1783.042,0.08999999999999986,100.0,30.755,29.784,40.488,39.173,0.0,0.0,100.0,0.0,0.0,0.0,0.0,3498.875,3073.7,4051.625,3887.4,304.306,304.94866666666667,315.09275,315.1845,21.8563,20.6124,21.9892,21.3945,314.999998,314.999998,324.999988,324.999988,99.55874285714286,99.50878333333333,99.57891428571429,99.54957142857143,-0.0023333333333332984,-0.14066666666666672,-0.22633333333333328,0.013666666666666494,-0.041666666666671404,-0.030000000000001137,1.5835,1.6289999999999996,37.602000000000004,29.826999999999998,38.433,34.7155,56.295,35.778,63.49,53.3425,54.308,34.884,62.03,51.612,53.569,34.4375,62.0695,51.0135,-0.0785,-0.10200000000000001,0.10663500000000001,0.11198000000000001,0.0,207.595,207.5,204.57,204.57,0.0,0.0
6,0.0,0.0,0.0,1.0,1.0,0.0,0.0,1.0,0.0,100.0,1.0,1.1856,26.0,0.0,0.0,0.0,59.999996,0.0,26.0,26.0,26.0,26.0,-0.10250000000000001,0.2922,-0.013550000000000001,293.06,-2.6,-2.7443333333333335,-1.5295,-1.550888888888889,-255.51,216.265,190.867875,0.0,0.0,0.0,0.0,0.013333333333333334,-5.498166666666667,-5.498166666666667,-0.6501,0.09166666666666679,-0.05888888888888877,-0.44700000000000006,66.391,-0.08428571428571408,-0.3533333333333334,0.7000000000000002,100.0,1.0,1.0,205.01999999999998,0.0,0.0,0.0,0.0,0.0,0.0,0.0,8690.1,0.0,55.0,5.0,238.98333333333335,0.0,0.0,0.0,0.0,0.0,0.0,0.0,0.0,0.30900000000000105,0.30900000000000105,0.0,0.0,0.0,55.0,616.79921,10000.0,85.000001,85.000001,85.000001,85.000001,395.0,0.0,0.0,0.0,1.0,166.665,49.179,49.179,51.376,51.376,34.0,-28.75,22.456,-30.685000000000002,21.05,0.0,1782.994,-0.13999999999999968,100.0,30.709,29.979,40.527,39.477000000000004,0.0,0.0,100.0,0.0,0.0,0.0,0.0,3484.875,3168.0,3920.0,3813.5,304.2993333333333,304.54466666666667,315.405,315.3745,21.866,20.6178,22.0,21.4031,314.999998,314.999998,324.999988,324.999988,99.55875714285715,99.5088,99.57904285714285,99.5497,0.028000000000000025,-0.1296666666666666,-0.20399999999999974,0.016666666666666607,-0.04999999999999716,-0.05333333333332746,1.5749999999999997,1.6174999999999997,37.663,29.8615,38.5,34.7695,56.285,35.819,63.513,53.3935,54.298,34.922,62.051,51.661,53.558,34.4735,62.0875,51.0615,-0.1065,-0.079,0.101845,0.10473500000000001,0.0,207.985,207.925,205.01999999999998,205.01999999999998,0.0,0.0
7,0.0,0.0,0.0,1.0,1.0,0.0,0.0,1.0,0.0,100.0,1.0,1.1856,26.0,0.0,0.0,0.0,59.999996,0.0,26.0,26.0,26.0,26.0,-0.066625,0.28770000000000007,0.04725,292.877,-2.5705,-2.7061111111111114,-1.4902,-1.5906666666666667,-252.12,216.2425,190.8475,0.0,0.0,0.0,0.0,0.015300000000000001,-5.498166666666667,-5.498166666666667,-0.6529,0.06000000000000005,-0.044222222222222385,1.149,66.536,-0.0645714285714285,-0.36150000000000004,0.2679999999999998,100.0,1.0,1.0,205.44,0.0,0.0,0.0,0.0,0.0,0.0,0.0,8707.8,0.0,55.0,5.0,239.5,1.0,0.0,0.0,0.0,0.0,0.0,0.0,0.0,0.35999999999999943,0.35999999999999943,0.0,0.0,1.0,55.0,616.79921,10000.0,85.000001,85.000001,85.000001,85.000001,395.0,0.0,0.0,0.0,1.0,166.665,48.903999999999996,48.903999999999996,51.513999999999996,51.513999999999996,34.0,-27.1875,24.604,-28.3825,23.924,0.0,1782.943,-0.2450000000000001,100.0,31.027,29.918,40.591,39.623000000000005,0.0,0.0,100.0,0.0,0.0,0.0,0.0,3426.75,3314.6,3827.25,3891.7,304.24533333333335,304.261,315.51925,315.199,21.8763,20.6236,22.011400000000002,21.4123,314.999998,314.999998,324.999988,324.999988,99.55875714285715,99.50881666666666,99.5792,99.54982857142858,0.048666666666666636,-0.09699999999999998,-0.18100000000000005,0.05400000000000027,-0.026666666666670835,-0.04333333333332945,1.5949999999999998,1.609,37.727000000000004,29.8975,38.571,34.827,56.275,35.8615,63.537,53.4475,54.288,34.961,62.073,51.713,53.547,34.510999999999996,62.1065,51.1125,-0.107,-0.07150000000000001,0.10815500000000002,0.10525500000000002,0.0,208.39,208.365,205.44,205.44,0.0,0.0
8,0.0,0.0,0.0,1.0,1.0,0.0,0.0,1.0,0.0,100.0,1.0,1.1856,26.0,0.0,0.0,0.0,59.999996,0.0,26.0,26.0,26.0,26.0,-0.0325,0.2821,-0.0358,293.121,-2.6581,-2.671666666666667,-1.4746000000000001,-1.5443333333333333,-248.72,216.215,190.826875,0.0,0.0,0.0,0.0,0.017266666666666666,-5.498166666666667,-5.498166666666667,-0.6577000000000001,-0.5706666666666667,-0.03022222222222215,-0.4889999999999999,66.68,-0.043571428571428594,-0.3567666666666667,-0.009999999999999787,100.0,1.0,1.0,205.82666666666665,0.0,0.0,0.0,0.0,0.0,0.0,0.0,8724.3,0.0,55.0,5.0,240.01999999999998,0.0,0.0,0.0,0.0,0.0,0.0,0.0,0.0,0.41100000000000136,0.41100000000000136,0.0,0.0,0.0,55.0,616.79921,10000.0,85.000001,85.000001,85.000001,85.000001,395.0,0.0,0.0,0.0,1.0,166.665,49.591,49.591,50.949,50.949,34.0,-26.4725,24.426,-28.1525,24.712,0.0,1782.892,-0.41500000000000004,100.0,30.378,29.982,40.504,39.818,0.0,0.0,100.0,0.0,0.0,0.0,0.0,3327.5,3239.6,3936.25,3872.6000000000004,304.86133333333333,304.4193333333333,315.2985,315.16075,21.8863,20.6295,22.0227,21.4214,314.999998,314.999998,324.999988,324.999988,99.55875714285715,99.50881666666666,99.57932857142858,99.54998571428571,0.05500000000000016,-0.08133333333333326,-0.1589999999999998,0.08133333333333326,-0.045000000000001705,-0.046666666666666856,1.5745,1.5789999999999997,37.79,29.933999999999997,38.641999999999996,34.884,56.263999999999996,35.903,63.561,53.5005,54.277,34.999,62.095,51.763999999999996,53.535,34.5475,62.1255,51.1625,-0.11750000000000001,-0.052000000000000005,0.10751000000000001,0.11226000000000001,0.0,208.84,208.82,205.82666666666665,205.82666666666665,0.0,0.0
9,0.0,0.0,0.0,1.0,1.0,0.0,0.0,1.0,0.0,100.0,1.0,1.1856,26.0,0.0,0.0,0.0,59.999996,0.0,26.0,26.0,26.0,26.0,-0.024,0.29390000000000005,0.0385,292.74,-2.6418,-2.6753333333333336,-1.5287000000000002,-1.5233333333333332,-245.72,216.1925,190.80825,0.0,0.0,0.0,0.0,0.019,-5.498166666666667,-5.498166666666667,-0.6607000000000001,0.6843333333333332,-0.029555555555555557,0.7480000000000002,66.803,-0.023285714285714132,-0.35386666666666666,-0.242,100.0,1.0,1.0,206.32999999999998,0.0,0.0,0.0,0.0,0.0,0.0,0.0,8745.5,0.0,55.0,5.0,240.46666666666667,1.0,0.0,0.0,0.0,0.0,0.0,0.0,0.0,0.4559999999999995,0.4559999999999995,0.0,0.0,1.0,55.0,616.79921,10000.0,85.000001,85.000001,85.000001,85.000001,395.0,0.0,0.0,0.0,1.0,333.33500000000004,48.416,48.416,51.879999999999995,51.879999999999995,34.0,-27.03,26.817999999999998,-26.049999999999997,25.11,0.0,1782.846,-0.54,100.0,31.032,30.282,40.232,39.714,0.0,0.0,100.0,0.0,0.0,0.0,0.0,3585.625,3400.0,3793.0,3903.4,303.8763333333333,304.0296666666667,315.7295,315.24175,21.8954,20.6348,22.0326,21.4295,314.999998,314.999998,324.999988,324.999988,99.55877142857143,99.50883333333333,99.57945714285714,99.5501,0.09333333333333371,-0.058333333333333126,-0.1339999999999999,0.09766666666666701,-0.03499999999999659,-0.03999999999999915,1.6425,1.6274999999999995,37.846000000000004,29.9675,38.704,34.934,56.257,35.9405,63.579,53.5465,54.271,35.034,62.112,51.8085,53.527,34.5805,62.138999999999996,51.206,-0.137,-0.0555,0.10924500000000001,0.10028500000000001,0.0,209.22500000000002,209.235,206.32999999999998,206.32999999999998,0.0,0.0
10,0.0,0.0,0.0,1.0,1.0,0.0,0.0,1.0,0.0,100.0,1.0,1.1856,26.0,0.0,0.0,0.0,59.999996,0.0,26.0,26.0,26.0,26.0,0.007625,0.28780000000000006,-0.0154,292.587,-2.6255,-2.649222222222222,-1.5121,-1.5014444444444444,-242.31,216.16500000000002,190.7875,0.0,0.0,0.0,0.0,0.021,-5.498166666666667,-5.498166666666667,-0.6394000000000001,-0.5343333333333333,0.012222222222222134,0.41600000000000037,66.949,-0.0008571428571424455,-0.3491,-0.5099999999999998,100.0,1.0,1.0,206.53333333333333,0.0,0.0,0.0,0.0,0.0,0.0,0.0,8754.2,0.0,55.0,5.0,240.99,0.0,0.0,0.0,0.0,0.0,0.0,1.0,0.0,0.5069999999999979,0.5069999999999979,0.0,0.0,0.0,55.0,616.79921,10000.0,85.000001,85.000001,85.000001,85.000001,395.0,0.0,0.0,0.0,1.0,333.33500000000004,49.454,49.454,50.308,50.308,34.0,-22.8925,24.908,-27.9,27.496000000000002,0.0,1782.795,-0.5750000000000002,100.0,30.781,30.447,40.619,40.578,0.0,0.0,100.0,0.0,0.0,0.0,0.0,3166.375,3177.7,4109.0,4069.7,305.243,304.586,314.88675,314.68825,21.9055,20.6407,22.044,21.4388,314.999998,314.999998,324.999988,324.999988,99.55878571428572,99.50885,99.5796,99.55024285714286,0.0983333333333336,-0.05400000000000005,-0.11099999999999977,0.11399999999999988,-0.03499999999999659,-0.046666666666666856,1.5345,1.5365000000000002,37.909,30.0045,38.775,34.993,56.25,35.9805,63.605000000000004,53.6035,54.263999999999996,35.070499999999996,62.135,51.8635,53.519,34.6155,62.159,51.26,-0.1405,-0.0455,0.10381000000000001,0.11036000000000001,0.0,209.66,209.685,206.53333333333333,206.53333333333333,0.0,0.0
11,0.0,0.0,0.0,1.0,1.0,0.0,0.0,1.0,0.0,100.0,1.0,1.1856,26.0,0.0,0.0,0.0,59.999996,0.0,26.0,26.0,26.0,26.0,0.036000000000000004,0.2742,-0.071325,293.106,-2.6671,-2.607,-1.5655999999999999,-1.491111111111111,-238.89,216.1375,190.76675,0.0,0.0,0.0,0.0,0.022600000000000002,-5.498166666666667,-5.498166666666667,-0.6826,-0.12066666666666659,0.038000000000000034,0.30900000000000016,67.08500000000001,0.019714285714286017,-0.37723333333333336,-0.6980000000000004,100.0,1.0,1.0,207.31,0.0,0.0,0.0,0.0,0.0,0.0,0.0,8787.1,0.0,55.0,5.0,241.48333333333335,1.0,0.0,0.0,0.0,0.0,0.0,1.0,0.0,0.5579999999999998,0.5579999999999998,0.0,0.0,1.0,55.0,616.79921,10000.0,85.000001,85.000001,85.000001,85.000001,395.0,0.0,0.0,0.0,1.0,333.33500000000004,48.752,48.752,51.987,51.987,34.0,-23.2675,28.83,-21.4875,25.304000000000002,0.0,1782.744,-0.5949999999999998,100.0,30.662,30.576999999999998,40.092,40.394,0.0,0.0,100.0,0.0,0.0,0.0,0.0,3302.25,3496.9,3498.75,3691.2,304.7463333333333,303.73833333333334,316.4285,315.7265,21.915399999999998,20.6468,22.0551,21.448,314.999998,314.999998,324.999988,324.999988,99.5588,99.50885,99.57974285714286,99.55038571428571,0.1259999999999999,-0.02066666666666661,-0.07866666666666644,0.15200000000000014,-0.04333333333332945,-0.03833333333332689,1.7189999999999999,1.686,37.971000000000004,30.0425,38.845,35.05,56.241,36.021,63.623,53.656,54.254999999999995,35.1085,62.150999999999996,51.914,53.509,34.652,62.1725,51.31,-0.14250000000000002,-0.043000000000000003,0.10136500000000001,0.10665000000000001,0.0,210.065,210.09,207.31,207.31,0.0,0.0
12,0.0,0.0,0.0,1.0,1.0,0.0,0.0,1.0,0.0,100.0,1.0,1.1856,26.0,0.0,0.0,0.0,59.999996,0.0,26.0,26.0,26.0,26.0,0.06125,0.28800000000000003,0.047125,292.435,-2.7190000000000003,-2.6,-1.5325,-1.495888888888889,-235.47,216.11,190.744625,0.0,0.0,0.0,0.0,0.025466666666666665,-5.498166666666667,-5.498166666666667,-0.6663,0.21999999999999997,0.01911111111111108,-0.8049999999999997,67.23,0.03557142857142859,-0.3490666666666667,-0.6040000000000001,100.0,1.0,1.0,207.48000000000002,0.0,0.0,0.0,0.0,0.0,0.0,0.0,8794.4,0.0,55.0,5.0,242.0,0.0,0.0,0.0,0.0,0.0,0.0,1.0,0.0,0.6089999999999982,0.6089999999999982,0.0,0.0,0.0,55.0,616.79921,10000.0,85.000001,85.000001,85.000001,85.000001,395.0,0.0,0.0,0.0,1.0,166.665,48.66,48.66,50.537,50.537,34.0,-23.9625,28.992,-25.9375,28.880000000000003,0.0,1782.694,-0.8549999999999995,100.0,30.47,30.916,40.088,40.45,0.0,0.0,100.0,0.0,0.0,0.0,0.0,3445.875,3417.8,4065.0,3993.8,304.508,303.8353333333333,315.082,314.92925,21.9253,20.6529,22.0664,21.4572,314.999998,314.999998,324.999988,324.999988,99.55881428571429,99.50885,99.57988571428571,99.55052857142857,0.14233333333333364,-0.0029999999999998916,-0.07866666666666644,0.15866666666666696,-0.051666666666669414,-0.030000000000001137,1.5715,1.5540000000000003,38.033,30.0805,38.915,35.1075,56.233999999999995,36.062,63.646,53.71,54.248000000000005,35.146,62.172,51.966,53.5,34.688,62.19,51.361000000000004,-0.155,-0.028,0.105965,0.11277500000000001,0.0,210.525,210.565,207.48000000000002,207.48000000000002,0.0,0.0
13,0.0,0.0,0.0,1.0,1.0,0.0,0.0,1.0,0.0,100.0,1.0,1.1856,26.0,0.0,0.0,0.0,59.999996,0.0,26.0,26.0,26.0,26.0,0.0745,0.28370000000000006,0.034050000000000004,292.13,-2.7022,-2.6,-1.6012,-1.475111111111111,-232.24,216.0875,190.72425,0.0,0.0,0.0,0.0,0.02686666666666667,-5.498166666666667,-5.498166666666667,-0.6616000000000001,-0.07266666666666666,0.026999999999999913,-0.581,67.362,0.044428571428571484,-0.35936666666666667,-0.806,100.0,1.0,1.0,207.84333333333333,0.0,0.0,0.0,0.0,0.0,0.0,0.0,8809.8,0.0,55.0,5.0,242.47666666666666,1.0,0.0,0.0,0.0,0.0,0.0,1.0,0.0,0.657,0.657,0.0,0.0,1.0,55.0,616.79921,10000.0,85.000001,85.000001,85.000001,85.000001,395.0,0.0,0.0,0.0,1.0,166.665,48.355,48.355,50.613,50.613,34.0,-23.33,28.772,-25.825,29.874000000000002,0.0,1782.646,-0.8099999999999996,100.0,30.785,31.134,40.245000000000005,40.93,0.0,0.0,100.0,0.0,0.0,0.0,0.0,3456.0,3409.8,4016.875,4100.6,304.45433333333335,303.8426666666667,315.19625,314.647,21.9347,20.6587,22.076999999999998,21.466,314.999998,314.999998,324.999988,324.999988,99.55884285714286,99.50885,99.58001428571428,99.55067142857143,0.15366666666666662,-0.006666666666666599,-0.06599999999999984,0.1639999999999997,-0.045000000000001705,-0.046666666666666856,1.5785,1.545,38.092,30.116999999999997,38.980999999999995,35.1625,56.230000000000004,36.1005,63.667,53.7635,54.242999999999995,35.1815,62.192,52.018,53.494,34.722,62.2065,51.412,-0.1605,-0.0315,0.10459500000000001,0.10604500000000001,0.0,210.93,210.985,207.84333333333333,207.84333333333333,0.0,0.0
14,0.0,0.0,0.0,1.0,1.0,0.0,0.0,1.0,0.0,100.0,1.0,1.1856,26.0,0.0,0.0,0.0,59.999996,0.0,26.0,26.0,26.0,26.0,0.08975,0.27360000000000007,-0.014750000000000001,292.404,-2.6966,-2.5651111111111113,-1.5747,-1.4616666666666667,-228.8,216.065,190.703,0.0,0.0,0.0,0.0,0.02886666666666667,-5.498166666666667,-5.498166666666667,-0.6712,-0.131,0.05755555555555558,1.343,67.5,0.058000000000000274,-0.3719333333333334,-1.0779999999999998,100.0,1.0,1.0,208.36666666666667,0.0,0.0,0.0,0.0,0.0,0.0,0.0,8831.9,0.0,55.0,5.0,242.97333333333336,0.0,0.0,0.0,0.0,0.0,0.0,1.0,0.0,0.7079999999999984,0.7079999999999984,0.0,0.0,0.0,55.0,616.79921,10000.0,85.000001,85.000001,85.000001,85.000001,395.0,0.0,0.0,0.0,1.0,166.665,48.538,48.538,50.858000000000004,50.858000000000004,34.0,-20.947499999999998,30.59,-22.41,30.238,0.0,1782.595,-0.8499999999999996,100.0,30.846,31.029,40.269,41.005,0.0,0.0,100.0,0.0,0.0,0.0,0.0,3220.0,3573.0,3756.25,4028.2,304.9653333333333,303.5443333333333,315.721,314.927,21.9447,20.6649,22.0882,21.4753,314.999998,314.999998,324.999988,324.999988,99.55885714285715,99.50885,99.58015714285715,99.5508,0.16866666666666674,0.010666666666666824,-0.042999999999999705,0.19466666666666743,-0.04999999999999716,-0.06499999999999773,1.613,1.5839999999999996,38.153999999999996,30.1555,39.051,35.221000000000004,56.226,36.1405,63.688,53.819,54.239000000000004,35.219,62.21,52.0715,53.488,34.757999999999996,62.222,51.4645,-0.1665,-0.029,0.10359000000000002,0.11130000000000001,0.0,211.35000000000002,211.42000000000002,208.36666666666667,208.36666666666667,0.0,0.0
15,0.0,0.0,0.0,1.0,1.0,0.0,0.0,1.0,0.0,100.0,1.0,1.1856,26.0,0.0,0.0,0.0,59.999996,0.0,26.0,26.0,26.0,26.0,0.1205,0.2841,-0.058525,292.419,-2.7111,-2.5155555555555558,-1.6059,-1.4213333333333333,-225.35,216.04500000000002,190.681375,0.0,0.0,0.0,0.0,0.03086666666666667,-5.498166666666667,-5.498166666666667,-0.6621,0.17599999999999993,0.08877777777777784,-0.6309999999999998,67.639,0.07042857142857173,-0.35386666666666666,-1.1280000000000001,100.0,1.0,1.0,208.76666666666665,0.0,0.0,0.0,0.0,0.0,0.0,0.0,8848.9,0.0,55.0,5.0,243.47333333333336,1.0,0.0,0.0,0.0,0.0,0.0,1.0,0.0,0.7590000000000003,0.7590000000000003,0.0,0.0,1.0,55.0,616.79921,10000.0,85.000001,85.000001,85.000001,85.000001,395.0,0.0,0.0,0.0,1.0,166.665,48.752,48.752,50.919,50.919,34.0,-20.48,29.488,-22.5425,31.396,0.0,1782.543,-0.8799999999999999,100.0,30.645,31.276,39.914,41.226,0.0,0.0,100.0,0.0,0.0,0.0,0.0,3161.75,3459.4,3769.625,4166.6,305.3233333333333,303.7033333333333,315.78925,314.52175,21.9546,20.6711,22.0992,21.4847,314.999998,314.999998,324.999988,324.999988,99.55888571428571,99.50886666666666,99.58028571428571,99.55095714285714,0.16800000000000015,0.016666666666666607,-0.03799999999999981,0.1993333333333327,-0.04999999999999716,-0.045000000000001705,1.6149999999999998,1.5670000000000002,38.216,30.194499999999998,39.120000000000005,35.278999999999996,56.222,36.1815,63.707,53.8755,54.233999999999995,35.257,62.228,52.126,53.482,34.794,62.2355,51.518,-0.159,-0.026000000000000002,0.103355,0.115125,0.0,211.79000000000002,211.85500000000002,208.76666666666665,208.76666666666665,0.0,0.0
16,0.0,0.0,0.0,1.0,1.0,0.0,0.0,1.0,0.0,100.0,1.0,1.1856,26.0,0.0,0.0,0.0,59.999996,0.0,26.0,26.0,26.0,26.0,0.12575,0.26880000000000015,-0.0478,292.435,-2.7662,-2.531,-1.5744,-1.452,-222.1,216.0275,190.660625,0.0,0.0,0.0,0.0,0.03273333333333333,-5.498166666666667,-5.498166666666667,-0.6859000000000001,-0.7030000000000001,0.07166666666666677,-1.116,67.769,0.08028571428571407,-0.3728,-1.15,100.0,1.0,1.0,209.18333333333334,0.0,0.0,0.0,0.0,0.0,0.0,0.0,8866.5,0.0,55.0,5.0,243.94333333333333,0.0,0.0,0.0,0.0,0.0,0.0,1.0,0.0,0.8069999999999986,0.8069999999999986,0.0,0.0,0.0,55.0,616.79921,10000.0,85.000001,85.000001,85.000001,85.000001,395.0,0.0,0.0,0.0,1.0,166.665,48.553,48.553,50.705,50.705,34.0,-22.1475,30.488,-21.205,29.802,0.0,1782.496,-0.8099999999999996,100.0,30.329,31.354,40.196,41.248000000000005,0.0,0.0,100.0,0.0,0.0,0.0,0.0,3360.0,3522.8,3753.75,3935.9,304.8876666666667,303.54366666666664,315.812,315.094,21.9637,20.677,22.1098,21.4935,314.999998,314.999998,324.999988,324.999988,99.5589,99.50886666666666,99.58042857142857,99.55108571428572,0.17333333333333334,0.02200000000000024,-0.020333333333333314,0.20366666666666688,-0.04833333333333201,-0.04999999999999716,1.6244999999999998,1.5835,38.272999999999996,30.2315,39.186,35.334,56.215,36.221000000000004,63.729,53.9265,54.227000000000004,35.293,62.247,52.176,53.473,34.829,62.2515,51.567,-0.157,-0.029500000000000002,0.10151500000000001,0.10890000000000001,0.0,212.14,212.235,209.18333333333334,209.18333333333334,0.0,0.0
17,0.0,0.0,0.0,1.0,1.0,0.0,0.0,1.0,0.0,100.0,1.0,1.1856,26.0,0.0,0.0,0.0,59.999996,0.0,26.0,26.0,26.0,26.0,0.111125,0.28290000000000015,-0.0154,292.053,-2.7198,-2.5166666666666666,-1.6118999999999999,-1.4455555555555557,-218.64,216.0125,190.638,0.0,0.0,0.0,0.0,0.03476666666666667,-5.498166666666667,-5.498166666666667,-0.6734,0.5016666666666667,0.05166666666666675,0.8070000000000004,67.906,0.08514285714285741,-0.35173333333333334,-1.1919999999999997,100.0,1.0,1.0,209.55,0.0,0.0,0.0,0.0,0.0,0.0,0.0,8882.0,0.0,55.0,5.0,244.43666666666667,1.0,0.0,0.0,0.0,0.0,0.0,1.0,0.0,0.8580000000000005,0.8580000000000005,0.0,0.0,1.0,55.0,616.79921,10000.0,85.000001,85.000001,85.000001,85.000001,395.0,0.0,0.0,0.0,1.0,166.665,48.309,48.309,50.537,50.537,34.0,-20.5975,30.152,-23.384999999999998,31.990000000000002,0.0,1782.445,-0.8600000000000003,100.0,31.028,31.463,40.08,41.147999999999996,0.0,0.0,100.0,0.0,0.0,0.0,0.0,3296.5,3475.0,4028.125,4142.2,304.8023333333333,303.86966666666666,315.19225,314.7195,21.9736,20.6834,22.1209,21.5027,314.999998,314.999998,324.999988,324.999988,99.55892857142857,99.50886666666666,99.58057142857143,99.55124285714285,0.19133333333333358,0.03299999999999992,-0.014666666666666384,0.2140000000000004,-0.046666666666666856,-0.03166666666666629,1.5955,1.569,38.335,30.271,39.256,35.391999999999996,56.213,36.263999999999996,63.748,53.9815,54.224999999999994,35.333,62.263999999999996,52.229,53.469,34.8675,62.266,51.6195,-0.1635,-0.0305,0.11159500000000001,0.10069,0.0,212.615,212.69,209.55,209.55,0.0,0.0
18,0.0,0.0,0.0,1.0,1.0,0.0,0.0,1.0,0.0,100.0,1.0,1.1856,26.0,0.0,0.0,0.0,59.999996,0.0,26.0,26.0,26.0,26.0,0.12375,0.27290000000000014,-0.01975,292.053,-2.7547,-2.4896666666666665,-1.6314000000000002,-1.3892222222222221,-215.38,216.0025,190.616875,0.0,0.0,0.0,0.0,0.03666666666666667,-5.498166666666667,-5.498166666666667,-0.6848000000000001,-0.5066666666666666,0.07844444444444432,1.1850000000000005,68.035,0.08999999999999986,-0.37083333333333335,-1.29,100.0,1.0,1.0,209.98000000000002,0.0,0.0,0.0,0.0,0.0,0.0,0.0,8900.3,0.0,55.0,5.0,244.9,0.0,0.0,0.0,0.0,0.0,0.0,1.0,0.0,0.9059999999999988,0.9059999999999988,0.0,0.0,0.0,55.0,616.79921,10000.0,85.000001,85.000001,85.000001,85.000001,395.0,0.0,0.0,0.0,1.0,166.665,48.157,48.157,50.476,50.476,34.0,-20.575,32.742,-21.6275,30.625999999999998,0.0,1782.397,-1.0149999999999997,100.0,30.803,31.352,40.394,41.55,0.0,0.0,100.0,0.0,0.0,0.0,0.0,3294.375,3699.8,3791.5,4029.4,304.87166666666667,303.237,315.70375,314.95625,21.9828,20.6893,22.1315,21.5116,314.999998,314.999998,324.999988,324.999988,99.55895714285714,99.50888333333333,99.5807,99.55137142857143,0.19766666666666666,0.046666666666666856,-0.008000000000000007,0.22100000000000009,-0.045000000000001705,-0.061666666666667425,1.6244999999999998,1.5705,38.393,30.308,39.322,35.4475,56.21,36.3035,63.769,54.035,54.221000000000004,35.3695,62.283,52.281,53.464,34.9025,62.2815,51.670500000000004,-0.17300000000000001,-0.0185,0.10294500000000001,0.106505,0.0,212.97,213.065,209.98000000000002,209.98000000000002,0.0,0.0
19,0.0,0.0,0.0,1.0,1.0,0.0,0.0,1.0,0.0,100.0,1.0,1.1856,26.0,0.0,0.0,0.0,59.999996,0.0,26.0,26.0,26.0,26.0,0.1275,0.2977000000000001,0.043325,291.504,-2.7324,-2.4704444444444444,-1.6444,-1.3733333333333333,-211.89999999999998,215.995,190.594375,0.0,0.0,0.0,0.0,0.03866666666666667,-5.498166666666667,-5.498166666666667,-0.6739,0.804,0.08255555555555572,-0.8479999999999999,68.17099999999999,0.0992857142857142,-0.35813333333333336,-1.1319999999999997,100.0,1.0,1.0,210.35333333333335,0.0,0.0,0.0,0.0,0.0,0.0,0.0,8916.1,0.0,55.0,5.0,245.38666666666666,1.0,0.0,0.0,0.0,0.0,0.0,1.0,0.0,0.9570000000000007,0.9570000000000007,0.0,0.0,1.0,55.0,616.79921,10000.0,85.000001,85.000001,85.000001,85.000001,395.0,0.0,0.0,0.0,1.0,166.665,47.47,47.47,50.232,50.232,34.0,-23.405,29.916,-23.4225,31.886,0.0,1782.346,-0.2549999999999999,100.0,31.193,32.027,40.06,41.643,0.0,0.0,100.0,0.0,0.0,0.0,0.0,3442.0,3615.0,4024.25,4210.7,304.4963333333333,303.2126666666667,315.268,314.50475,21.9927,20.6958,22.1425,21.5209,314.999998,314.999998,324.999988,324.999988,99.55898571428571,99.50888333333333,99.58084285714285,99.55151428571429,0.15733333333333333,0.0030000000000001137,-0.008999999999999897,0.21666666666666679,-0.05333333333332746,-0.061666666666667425,1.6004999999999998,1.5700000000000003,38.455,30.3485,39.391,35.506,56.208,36.348,63.788,54.091,54.219,35.411,62.3,52.335499999999996,53.46,34.942,62.295,51.724000000000004,-0.1235,-0.0725,0.10116000000000001,0.107825,0.0,213.45499999999998,213.525,210.35333333333335,210.35333333333335,0.0,0.0
20,0.0,0.0,0.0,1.0,1.0,0.0,0.0,1.0,0.0,100.0,1.0,1.1856,26.0,0.0,0.0,0.0,59.999996,0.0,26.0,26.0,26.0,26.0,0.08687500000000001,0.27070000000000016,0.01035,291.885,-2.7597,-2.554333333333333,-1.5523,-1.5132222222222222,-208.42000000000002,215.99,190.572,0.0,0.0,0.0,0.0,0.0407,-5.498166666666667,-5.498166666666667,-0.6821,-1.2196666666666667,0.0644444444444443,-0.0349999999999997,68.30799999999999,0.09242857142857153,-0.3734,-0.3700000000000001,100.0,1.0,1.0,210.69333333333333,0.0,0.0,0.0,0.0,0.0,0.0,0.0,8930.5,0.0,55.0,5.0,245.88333333333333,0.0,0.0,0.0,0.0,0.0,0.0,0.0,0.0,1.0079999999999991,1.0079999999999991,0.0,0.0,0.0,55.0,616.79921,10000.0,85.000001,85.000001,85.000001,85.000001,395.0,0.0,0.0,0.0,1.0,166.665,48.569,48.569,49.728,49.728,34.0,-23.09,28.004,-22.255,32.676,0.0,1782.295,0.3600000000000003,100.0,30.809,31.465,40.864000000000004,41.879,0.0,0.0,100.0,0.0,0.0,0.0,0.0,3181.75,3527.4,3927.125,4059.0,305.252,303.71066666666667,315.27925,314.71525,22.002299999999998,20.701999999999998,22.1539,21.5304,314.999998,314.999998,324.999988,324.999988,99.559,99.5089,99.581,99.55167142857142,0.12533333333333374,-0.03133333333333321,-0.014666666666666384,0.2153333333333327,-0.03999999999999915,-0.054999999999999716,1.5455,1.5339999999999998,38.513999999999996,30.3875,39.462,35.565,56.199,36.388999999999996,63.812,54.1485,54.21,35.448499999999996,62.322,52.3905,53.449,34.9785,62.3135,51.7785,-0.0665,-0.129,0.101095,0.11049,0.0,213.84,213.87,210.69333333333333,210.69333333333333,0.0,0.0
21,0.0,0.0,0.0,1.0,1.0,0.0,0.0,1.0,0.0,100.0,1.0,1.1856,26.0,0.0,0.0,0.0,59.999996,0.0,26.0,26.0,26.0,26.0,0.02475,0.2722,-0.07595,292.191,-2.6483,-2.6337777777777776,-1.5952000000000002,-1.4933333333333332,-205.14,215.9875,190.55025,0.0,0.0,0.0,0.0,0.0426,-5.498166666666667,-5.498166666666667,-0.7020000000000001,0.5683333333333334,0.024333333333333318,-0.18299999999999983,68.431,0.05685714285714294,-0.37196666666666667,0.39400000000000013,100.0,1.0,1.0,211.32333333333332,0.0,0.0,0.0,0.0,0.0,0.0,0.0,8957.3,0.0,55.0,5.0,246.32333333333332,1.0,0.0,0.0,0.0,0.0,0.0,0.0,0.0,1.056000000000001,1.056000000000001,0.0,0.0,1.0,55.0,616.79921,10000.0,85.000001,85.000001,85.000001,85.000001,395.0,0.0,0.0,0.0,1.0,166.665,48.065,48.065,50.995,50.995,34.0,-24.3925,27.146,-24.2325,26.738,0.0,1782.247,0.5600000000000005,100.0,31.32,31.46,40.336,41.212,0.0,0.0,100.0,0.0,0.0,0.0,0.0,3340.625,3477.0,3830.875,3807.7,304.60333333333335,303.77933333333334,315.69275,315.51,22.0116,20.708,22.1642,21.539,314.999998,314.999998,324.999988,324.999988,99.559,99.5089,99.58112857142856,99.55181428571429,0.1070000000000002,-0.05933333333333324,-0.07066666666666643,0.1596666666666673,-0.061666666666667425,-0.041666666666671404,1.6515,1.6585,38.573,30.424999999999997,39.525999999999996,35.619,56.193,36.43,63.828,54.196,54.204,35.4865,62.336,52.437,53.442,35.015,62.3245,51.823499999999996,-0.059000000000000004,-0.148,0.109225,0.109465,0.0,214.305,214.255,211.32333333333332,211.32333333333332,0.0,0.0
22,0.0,0.0,0.0,1.0,1.0,0.0,0.0,1.0,0.0,100.0,1.0,1.1856,26.0,0.0,0.0,0.0,59.999996,0.0,26.0,26.0,26.0,26.0,-0.0075,0.26370000000000005,0.008275000000000001,291.702,-2.6137,-2.6535555555555557,-1.5744,-1.4986666666666668,-201.64999999999998,215.985,190.5265,0.0,0.0,0.0,0.0,0.04463333333333333,-5.498166666666667,-5.498166666666667,-0.6831,0.0043333333333333,0.010000000000000009,-0.7949999999999999,68.569,0.014000000000000234,-0.35746666666666665,0.9000000000000004,100.0,1.0,1.0,211.51333333333332,0.0,0.0,0.0,0.0,0.0,0.0,0.0,8965.3,0.0,55.0,5.0,246.82333333333332,0.0,0.0,0.0,0.0,0.0,0.0,0.0,0.0,1.1069999999999993,1.1069999999999993,0.0,0.0,0.0,55.0,616.79921,10000.0,85.000001,85.000001,85.000001,85.000001,395.0,0.0,0.0,0.0,1.0,166.665,48.157,48.157,49.957,49.957,34.0,-26.107499999999998,24.442,-28.8525,26.752000000000002,0.0,1782.196,0.5499999999999998,100.0,31.367,31.543,40.962,41.370000000000005,0.0,0.0,100.0,0.0,0.0,0.0,0.0,3377.75,3322.7,4074.875,4053.8,304.6413333333333,304.0473333333333,315.0945,314.84975,22.0216,20.7143,22.1755,21.5484,314.999998,314.999998,324.999988,324.999988,99.55901428571428,99.50891666666666,99.58127142857143,99.55195714285715,0.06700000000000017,-0.09699999999999998,-0.11933333333333351,0.10566666666666702,-0.05333333333332746,-0.036666666666668846,1.5225,1.5584999999999996,38.635,30.464,39.597,35.6775,56.185,36.4735,63.852000000000004,54.2505,54.196,35.527,62.358000000000004,52.4895,53.432,35.0535,62.3435,51.8755,-0.0555,-0.14,0.09918500000000001,0.10790500000000001,0.0,214.73000000000002,214.635,211.51333333333332,211.51333333333332,0.0,0.0
23,0.0,0.0,0.0,1.0,1.0,0.0,0.0,1.0,0.0,100.0,1.0,1.1856,26.0,0.0,0.0,0.0,59.999996,0.0,26.0,26.0,26.0,26.0,-0.05775,0.24819999999999998,-0.015325,291.702,-2.6146000000000003,-2.6325555555555558,-1.4825,-1.5826666666666667,-198.14999999999998,215.98250000000002,190.503,0.0,0.0,0.0,0.0,0.04666666666666667,-5.498166666666667,-5.498166666666667,-0.7028,-0.22866666666666657,-0.011222222222222022,0.32899999999999974,68.7,-0.023285714285714132,-0.3836,1.056,100.0,1.0,1.0,212.05,0.0,0.0,0.0,0.0,0.0,0.0,0.0,8988.0,0.0,55.0,5.0,247.3,1.0,0.0,0.0,0.0,0.0,0.0,0.0,0.0,1.1580000000000013,1.1580000000000013,0.0,0.0,1.0,55.0,616.79921,10000.0,85.000001,85.000001,85.000001,85.000001,395.0,0.0,0.0,0.0,1.0,333.33500000000004,47.44,47.44,50.980000000000004,50.980000000000004,34.0,-28.8325,24.58,-26.2225,24.323999999999998,0.0,1782.144,0.4800000000000004,100.0,31.976,31.349,41.305,41.302,0.0,0.0,100.0,0.0,0.0,0.0,0.0,3595.25,3452.9,3745.875,3754.3,303.8383333333333,303.932,315.7425,315.544,22.0316,20.7205,22.186799999999998,21.5577,314.999998,314.999998,324.999988,324.999988,99.55904285714286,99.50893333333333,99.5814,99.5521,0.056333333333333346,-0.1056666666666668,-0.14933333333333332,0.0853333333333337,-0.03499999999999659,-0.06666666666666998,1.592,1.6129999999999995,38.697,30.503,39.667,35.7355,56.176,36.5185,63.874,54.3035,54.187,35.5685,62.378,52.541,53.422,35.0935,62.36,51.9255,-0.0585,-0.14100000000000001,0.10174000000000001,0.11410500000000001,0.0,215.135,215.04000000000002,212.05,212.05,0.0,0.0
24,0.0,0.0,0.0,1.0,1.0,0.0,0.0,1.0,0.0,100.0,1.0,1.1856,26.0,0.0,0.0,0.0,59.999996,0.0,26.0,26.0,26.0,26.0,-0.093875,0.262,-0.073075,291.946,-2.6299,-2.653777777777778,-1.5206,-1.5301111111111112,-194.85,215.97750000000002,190.4805,0.0,0.0,0.0,0.0,0.048600000000000004,-5.498166666666667,-5.498166666666667,-0.7064,-0.6539999999999999,-0.010222222222222133,0.9740000000000002,68.827,-0.046571428571428264,-0.37006666666666665,0.9260000000000002,100.0,1.0,1.0,212.31666666666666,0.0,0.0,0.0,0.0,0.0,0.0,0.0,8999.4,0.0,55.0,5.0,247.75333333333333,0.0,0.0,0.0,0.0,0.0,0.0,0.0,0.0,1.2059999999999995,1.2059999999999995,0.0,0.0,0.0,55.0,616.79921,10000.0,85.000001,85.000001,85.000001,85.000001,395.0,0.0,0.0,0.0,1.0,333.33500000000004,48.644999999999996,48.644999999999996,49.911,49.911,34.0,-26.4325,22.552,-31.0875,23.692,0.0,1782.096,0.3250000000000002,100.0,31.708,30.994,41.472,41.062,0.0,0.0,100.0,0.0,0.0,0.0,0.0,3252.375,3281.9,4095.625,3924.5,304.93033333333335,304.5043333333333,314.91125,315.21625,22.0409,20.7262,22.197400000000002,21.5664,314.999998,314.999998,324.999988,324.999988,99.55904285714286,99.50895,99.58155714285714,99.55224285714286,0.040999999999999925,-0.1233333333333333,-0.17099999999999982,0.05766666666666698,-0.030000000000001137,-0.06333333333333258,1.5345,1.5750000000000002,38.756,30.5385,39.733000000000004,35.79,56.166,36.5595,63.896,54.352000000000004,54.177,35.6065,62.399,52.5875,53.412,35.1295,62.3775,51.9715,-0.07100000000000001,-0.1295,0.10089000000000001,0.10759,0.0,215.51999999999998,215.445,212.31666666666666,212.31666666666666,0.0,0.0
25,0.0,0.0,0.0,1.0,1.0,0.0,0.0,1.0,0.0,100.0,1.0,1.1856,26.0,0.0,0.0,0.0,59.999996,0.0,26.0,26.0,26.0,26.0,-0.091375,0.2694000000000001,-0.053375000000000006,291.885,-2.6863,-2.6228888888888893,-1.5232999999999999,-1.5442222222222222,-191.32999999999998,215.9725,190.45525,0.0,0.0,0.0,0.0,0.050633333333333336,-5.498166666666667,-5.498166666666667,-0.7404000000000001,0.07033333333333336,-0.022555555555555884,-1.3809999999999998,68.957,-0.06000000000000005,-0.379,0.9220000000000006,100.0,1.0,1.0,212.90666666666667,0.0,0.0,0.0,0.0,0.0,0.0,0.0,9024.3,0.0,55.0,5.0,248.22,1.0,0.0,0.0,0.0,0.0,0.0,0.0,0.0,1.256999999999998,1.256999999999998,0.0,0.0,1.0,55.0,616.79921,10000.0,85.000001,85.000001,85.000001,85.000001,395.0,0.0,0.0,0.0,1.0,333.33500000000004,47.516,47.516,50.842,50.842,34.0,-31.9625,23.588,-28.799999999999997,21.754,0.0,1782.044,0.2549999999999999,100.0,31.585,31.358,41.144999999999996,40.708,0.0,0.0,100.0,0.0,0.0,0.0,0.0,3715.625,3481.5,3795.75,3741.2,303.82233333333335,303.70166666666665,315.77075,315.618,22.0508,20.7324,22.2084,21.575499999999998,314.999998,314.999998,324.999988,324.999988,99.55904285714286,99.50895,99.5817,99.55238571428572,0.02499999999999991,-0.1316666666666666,-0.19333333333333336,0.04699999999999971,-0.04999999999999716,-0.030000000000001137,1.624,1.6710000000000003,38.817,30.5775,39.803,35.847,56.155,36.6055,63.916,54.400999999999996,54.166,35.649,62.417,52.635,53.399,35.17,62.3925,52.0175,-0.0765,-0.1165,0.10897000000000001,0.109075,0.0,215.92000000000002,215.835,212.90666666666667,212.90666666666667,0.0,0.0
26,0.0,0.0,0.0,1.0,1.0,0.0,0.0,1.0,0.0,100.0,1.0,1.1856,26.0,0.0,0.0,0.0,59.999996,0.0,26.0,26.0,26.0,26.0,-0.10200000000000001,0.2864,0.06747500000000001,290.649,-2.6231,-2.711777777777778,-1.5624,-1.5498888888888889,-187.61,215.9625,190.427875,0.0,0.0,0.0,0.0,0.0528,-5.498166666666667,-5.498166666666667,-0.6970000000000001,0.43066666666666675,-0.050666666666666416,-0.7210000000000001,69.101,-0.06242857142857128,-0.35150000000000003,0.7060000000000004,100.0,1.0,1.0,212.99666666666667,0.0,0.0,0.0,0.0,0.0,0.0,0.0,9028.1,0.0,55.0,5.0,248.73666666666668,0.0,0.0,0.0,0.0,0.0,0.0,0.0,0.0,1.311,1.311,0.0,0.0,0.0,55.0,616.79921,10000.0,85.000001,85.000001,85.000001,85.000001,395.0,0.0,0.0,0.0,1.0,166.665,47.226,47.226,48.828,48.828,34.0,-29.38,22.72,-36.3525,26.134,0.0,1781.992,0.04999999999999982,100.0,32.523,31.926000000000002,41.943,41.184,0.0,0.0,100.0,0.0,0.0,0.0,0.0,3590.75,3252.5,4477.5,4281.8,303.9836666666667,304.31933333333336,314.16425,314.3165,22.0615,20.7391,22.2205,21.5854,314.999998,314.999998,324.999988,324.999988,99.55905714285714,99.50898333333333,99.58185714285715,99.55254285714285,0.04400000000000004,-0.133,-0.18966666666666665,0.042333333333333556,-0.05833333333333002,-0.026666666666670835,1.4685000000000001,1.4909999999999997,38.885,30.619500000000002,39.878,35.909,56.147999999999996,36.6555,63.944,54.458,54.159,35.695499999999996,62.443,52.69,53.391,35.2145,62.414500000000004,52.071,-0.0995,-0.11,0.107535,0.11121,0.0,216.39,216.305,212.99666666666667,212.99666666666667,0.0,0.0
27,0.0,0.0,0.0,1.0,1.0,0.0,0.0,1.0,0.0,100.0,1.0,1.1856,26.0,0.0,0.0,0.0,59.999996,0.0,26.0,26.0,26.0,26.0,-0.07225,0.2398,-0.050100000000000006,291.275,-2.5936,-2.6743333333333332,-1.5563,-1.6155555555555556,-184.29,215.9525,190.404875,0.0,0.0,0.0,0.0,0.05473333333333334,-5.498166666666667,-5.498166666666667,-0.7314,-0.964,-0.04488888888888898,-0.4979999999999998,69.221,-0.05628571428571405,-0.4019666666666667,0.49799999999999933,100.0,1.0,1.0,213.58666666666667,0.0,0.0,0.0,0.0,0.0,0.0,0.0,9053.2,0.0,55.0,5.0,249.17666666666668,1.0,0.0,0.0,0.0,0.0,0.0,0.0,0.0,1.3589999999999982,1.3589999999999982,0.0,0.0,1.0,55.0,616.79921,10000.0,85.000001,85.000001,85.000001,85.000001,395.0,0.0,0.0,0.0,1.0,166.665,47.394,47.394,49.759,49.759,34.0,-28.7825,23.852,-29.41,23.532,0.0,1781.943,-0.009999999999999787,100.0,32.209,31.732,42.367000000000004,41.585,0.0,0.0,100.0,0.0,0.0,0.0,0.0,3589.25,3376.8,3830.0,3760.4,304.159,303.992,315.5755,315.49825,22.0709,20.7449,22.2312,21.5943,314.999998,314.999998,324.999988,324.999988,99.55905714285714,99.509,99.582,99.55267142857143,0.04499999999999993,-0.1213333333333333,-0.18166666666666664,0.055333333333333456,-0.04999999999999716,-0.04999999999999716,1.5705,1.5874999999999995,38.943,30.656,39.945,35.9645,56.138999999999996,36.698,63.967,54.5075,54.15,35.7345,62.464,52.7375,53.381,35.252,62.4325,52.1175,-0.10200000000000001,-0.10200000000000001,0.10487,0.10762500000000001,0.0,216.7,216.66500000000002,213.58666666666667,213.58666666666667,0.0,0.0
28,0.0,0.0,0.0,1.0,1.0,0.0,0.0,1.0,0.0,100.0,1.0,1.1856,26.0,0.0,0.0,0.0,59.999996,0.0,26.0,26.0,26.0,26.0,-0.053375,0.26280000000000014,-0.047150000000000004,291.351,-2.628,-2.6531111111111114,-1.5065,-1.573,-180.95999999999998,215.9425,190.380875,0.0,0.0,0.0,0.0,0.056666666666666664,-5.498166666666667,-5.498166666666667,-0.7285,0.6360000000000001,-0.04377777777777769,-0.44499999999999984,69.343,-0.04942857142857138,-0.37006666666666665,0.44200000000000017,100.0,1.0,1.0,214.00333333333333,0.0,0.0,0.0,0.0,0.0,0.0,0.0,9070.8,0.0,55.0,5.0,249.61,0.0,0.0,0.0,0.0,0.0,0.0,0.0,0.0,1.407,1.407,0.0,0.0,0.0,55.0,616.79921,10000.0,85.000001,85.000001,85.000001,85.000001,395.0,0.0,0.0,0.0,1.0,333.33500000000004,47.394,47.394,50.278,50.278,34.0,-29.064999999999998,23.71,-28.93,24.247999999999998,0.0,1781.894,-0.11000000000000032,100.0,32.267,31.723,41.652,41.153,0.0,0.0,100.0,0.0,0.0,0.0,0.0,3604.0,3306.8,3965.75,3908.0,303.969,304.1976666666667,315.4275,315.21475,22.0803,20.750799999999998,22.2415,21.602899999999998,314.999998,314.999998,324.999988,324.999988,99.55907142857143,99.50901666666667,99.58214285714286,99.5528,0.05333333333333368,-0.10799999999999987,-0.16533333333333333,0.061333333333333684,-0.041666666666671404,-0.03999999999999915,1.588,1.6064999999999996,39.001999999999995,30.6925,40.01,36.0185,56.132,36.7405,63.985,54.554,54.143,35.7735,62.480000000000004,52.7825,53.372,35.289500000000004,62.445499999999996,52.161500000000004,-0.112,-0.0915,0.10154500000000001,0.10525000000000001,0.0,217.12,217.07,214.00333333333333,214.00333333333333,0.0,0.0
29,0.0,0.0,0.0,1.0,1.0,0.0,0.0,1.0,0.0,100.0,1.0,1.1856,26.0,0.0,0.0,0.0,59.999996,0.0,26.0,26.0,26.0,26.0,-0.043625000000000004,0.2542,0.012325000000000001,291.077,-2.575,-2.700555555555556,-1.5489000000000002,-1.5436666666666667,-177.42000000000002,215.9275,190.3545,0.0,0.0,0.0,0.0,0.05873333333333334,-5.498166666666667,-5.498166666666667,-0.7381000000000001,-0.7173333333333334,-0.030777777777777793,0.8319999999999999,69.476,-0.038285714285714256,-0.3781333333333334,0.12200000000000077,100.0,1.0,1.0,214.26,0.0,0.0,0.0,0.0,0.0,0.0,0.0,9081.7,0.0,55.0,5.0,250.09,1.0,0.0,0.0,0.0,0.0,0.0,0.0,0.0,1.4579999999999984,1.4579999999999984,0.0,0.0,1.0,55.0,616.79921,10000.0,85.000001,85.000001,85.000001,85.000001,395.0,0.0,0.0,0.0,1.0,166.665,47.363,47.363,49.5,49.5,34.0,-26.47,26.284,-29.122500000000002,26.714,0.0,1781.845,-0.21999999999999975,100.0,32.101,31.539,42.079,41.400999999999996,0.0,0.0,100.0,0.0,0.0,0.0,0.0,3514.625,3491.2,3963.125,4039.5,304.14433333333335,303.70433333333335,315.2265,314.92025,22.0901,20.757,22.2529,21.6124,314.999998,314.999998,324.999988,324.999988,99.55908571428571,99.50901666666667,99.58228571428572,99.55295714285714,0.07933333333333348,-0.09533333333333327,-0.14733333333333354,0.09299999999999997,-0.013333333333328312,-0.051666666666669414,1.5364999999999998,1.5315000000000003,39.063,30.7315,40.08,36.0775,56.122,36.7845,64.01,54.6075,54.134,35.814,62.501999999999995,52.834,53.361999999999995,35.328,62.465,52.2115,-0.1235,-0.0805,0.1097,0.11045500000000001,0.0,217.465,217.45,214.26,214.26,0.0,0.0
30,0.0,0.0,0.0,1.0,1.0,0.0,0.0,1.0,0.0,100.0,1.0,1.1856,26.0,0.0,0.0,0.0,59.999996,0.0,26.0,26.0,26.0,26.0,-0.029625000000000002,0.25280000000000014,0.059025,290.604,-2.6329000000000002,-2.5869999999999997,-1.4927000000000001,-1.600888888888889,-174.07999999999998,215.9125,190.3295,0.0,0.0,0.0,0.0,0.06066666666666667,-5.498166666666667,-5.498166666666667,-0.7329,0.798,-0.031333333333333435,0.7999999999999998,69.596,-0.024571428571428466,-0.3743666666666667,-0.006000000000000227,100.0,1.0,1.0,214.67666666666668,0.0,0.0,0.0,0.0,0.0,0.0,0.0,9099.4,0.0,55.0,5.0,250.51999999999998,0.0,0.0,0.0,0.0,0.0,0.0,1.0,0.0,1.5060000000000002,1.5060000000000002,0.0,0.0,0.0,55.0,616.79921,10000.0,85.000001,85.000001,85.000001,85.000001,395.0,0.0,0.0,0.0,1.0,166.665,46.402,46.402,49.789,49.789,34.0,-27.725,25.962,-28.34,27.806,0.0,1781.796,-0.2599999999999998,100.0,32.957,32.262,41.857,41.427,0.0,0.0,100.0,0.0,0.0,0.0,0.0,3675.125,3497.7,4026.375,4044.4,303.647,303.7246666666667,315.1565,314.86775,22.0996,20.7632,22.2633,21.6211,314.999998,314.999998,324.999988,324.999988,99.55908571428571,99.50903333333333,99.58241428571428,99.5531,0.0950000000000002,-0.07766666666666677,-0.1386666666666665,0.09833333333333272,-0.02499999999999858,-0.06333333333333258,1.5495,1.5419999999999998,39.122,30.7695,40.144999999999996,36.132,56.117999999999995,36.8285,64.028,54.656,54.129999999999995,35.855000000000004,62.519999999999996,52.881,53.355999999999995,35.367,62.479,52.2575,-0.1285,-0.083,0.11160500000000001,0.10783000000000001,0.0,217.865,217.9,214.67666666666668,214.67666666666668,0.0,0.0
31,0.0,0.0,0.0,1.0,1.0,0.0,0.0,1.0,0.0,100.0,1.0,1.1856,26.0,0.0,0.0,0.0,59.999996,0.0,26.0,26.0,26.0,26.0,-0.016875,0.25140000000000007,-0.000125,290.405,-2.7037,-2.562666666666667,-1.5424,-1.5925555555555557,-170.32,215.89499999999998,190.30225,0.0,0.0,0.0,0.0,0.06283333333333334,-5.498166666666667,-5.498166666666667,-0.7259,-0.6846666666666668,-0.01822222222222214,0.7279999999999998,69.73400000000001,-0.006142857142857228,-0.3859,-0.13600000000000012,100.0,1.0,1.0,215.01666666666665,0.0,0.0,0.0,0.0,0.0,0.0,0.0,9113.7,0.0,55.0,5.0,251.01666666666665,1.0,0.0,0.0,0.0,0.0,0.0,1.0,0.0,1.5599999999999987,1.5599999999999987,0.0,0.0,1.0,55.0,616.79921,10000.0,85.000001,85.000001,85.000001,85.000001,395.0,0.0,0.0,0.0,1.0,166.665,46.677,46.677,48.615,48.615,34.0,-26.805,27.27,-28.0475,29.497999999999998,0.0,1781.742,-0.2649999999999997,100.0,32.572,32.337,42.485,42.120000000000005,0.0,0.0,100.0,0.0,0.0,0.0,0.0,3511.375,3682.0,4025.875,4108.0,304.28,303.34833333333336,315.0735,314.81175,22.11,20.77,22.2753,21.6313,314.999998,314.999998,324.999988,324.999988,99.5591,99.50905,99.58258571428571,99.55324285714286,0.09699999999999998,-0.07400000000000007,-0.11399999999999988,0.12366666666666681,-0.03999999999999915,-0.03999999999999915,1.5145,1.5155000000000003,39.187,30.811999999999998,40.221000000000004,36.195499999999996,56.111000000000004,36.876,64.055,54.714,54.123000000000005,35.8985,62.544,52.937,53.348,35.409,62.4995,52.3125,-0.1205,-0.09,0.103285,0.11654500000000001,0.0,218.28,218.26,215.01666666666665,215.01666666666665,0.0,0.0
32,0.0,0.0,0.0,1.0,1.0,0.0,0.0,1.0,0.0,100.0,1.0,1.1856,26.0,0.0,0.0,0.0,59.999996,0.0,26.0,26.0,26.0,26.0,-0.0105,0.27160000000000006,-0.037475,290.665,-2.6413,-2.659888888888889,-1.6088,-1.4993333333333332,-166.97,215.88,190.278125,0.0,0.0,0.0,0.0,0.0648,-5.498166666666667,-5.498166666666667,-0.7384000000000001,0.18633333333333324,-0.04033333333333333,0.27000000000000046,69.852,0.00028571428571444457,-0.3862333333333334,-0.19399999999999995,100.0,1.0,1.0,215.4766666666667,0.0,0.0,0.0,0.0,0.0,0.0,0.0,9133.2,0.0,55.0,5.0,251.44333333333333,0.0,0.0,0.0,0.0,0.0,0.0,1.0,0.0,1.6080000000000005,1.6080000000000005,0.0,0.0,0.0,55.0,616.79921,10000.0,85.000001,85.000001,85.000001,85.000001,395.0,0.0,0.0,0.0,1.0,333.33500000000004,46.768,46.768,49.393,49.393,34.0,-25.6325,27.82,-28.195,27.492,0.0,1781.693,-0.35499999999999954,100.0,32.615,32.38,42.056,41.911,0.0,0.0,100.0,0.0,0.0,0.0,0.0,3541.875,3511.5,4040.125,4084.3,304.09,303.724,315.22975,314.939,22.1192,20.7761,22.2857,21.64,314.999998,314.999998,324.999988,324.999988,99.55911428571429,99.50905,99.58271428571429,99.55338571428571,0.11433333333333362,-0.057333333333333236,-0.10899999999999999,0.12166666666666703,-0.03999999999999915,-0.04833333333333201,1.5955,1.5995,39.245000000000005,30.8505,40.285,36.2505,56.105999999999995,36.917500000000004,64.07300000000001,54.762,54.117999999999995,35.9375,62.56,52.984,53.341,35.446,62.5125,52.358000000000004,-0.133,-0.076,0.10877,0.10966500000000001,0.0,218.66,218.66,215.4766666666667,215.4766666666667,0.0,0.0
33,0.0,0.0,0.0,1.0,1.0,0.0,0.0,1.0,0.0,100.0,1.0,1.1856,26.0,0.0,0.0,0.0,59.999996,0.0,26.0,26.0,26.0,26.0,0.012750000000000001,0.25839999999999996,-0.026750000000000003,290.939,-2.6614,-2.648,-1.5461,-1.5753333333333333,-163.39999999999998,215.865,190.2515,0.0,0.0,0.0,0.0,0.06686666666666667,-5.498166666666667,-5.498166666666667,-0.7462000000000001,-0.501,-0.031333333333333435,0.0810000000000004,69.981,0.0127142857142859,-0.37993333333333335,-0.2239999999999993,100.0,1.0,1.0,215.81333333333333,0.0,0.0,0.0,0.0,0.0,0.0,0.0,9147.6,0.0,55.0,5.0,251.90666666666667,1.0,0.0,0.0,0.0,0.0,0.0,1.0,0.0,1.658999999999999,1.658999999999999,0.0,0.0,1.0,55.0,616.79921,10000.0,85.000001,85.000001,85.000001,85.000001,395.0,0.0,0.0,0.0,1.0,166.665,47.333,47.333,49.545,49.545,34.0,-25.88,25.997999999999998,-27.4125,28.222,0.0,1781.644,-0.3149999999999995,100.0,32.206,32.192,41.924,42.082,0.0,0.0,100.0,0.0,0.0,0.0,0.0,3507.625,3341.8,3990.75,4006.2,304.35833333333335,304.0996666666667,315.25675,314.92075,22.129,20.7823,22.2968,21.6495,314.999998,314.999998,324.999988,324.999988,99.55912857142857,99.50906666666667,99.58287142857142,99.55352857142857,0.10433333333333339,-0.06466666666666665,-0.1113333333333335,0.11933333333333351,-0.04999999999999716,-0.045000000000001705,1.5514999999999999,1.5504999999999995,39.306,30.889499999999998,40.355000000000004,36.309,56.099999999999994,36.9585,64.094,54.815,54.111999999999995,35.9755,62.579,53.0345,53.334,35.482,62.528,52.4075,-0.127,-0.0815,0.10731,0.103635,0.0,219.05,219.04000000000002,215.81333333333333,215.81333333333333,0.0,0.0
34,0.0,0.0,0.0,1.0,1.0,0.0,0.0,1.0,0.0,100.0,1.0,1.1856,26.0,0.0,0.0,0.0,59.999996,0.0,26.0,26.0,26.0,26.0,0.024875,0.2513000000000001,-0.059525,291.321,-2.6764,-2.6294444444444443,-1.6109,-1.528,-160.04,215.8475,190.22525,0.0,0.0,0.0,0.0,0.06883333333333334,-5.498166666666667,-5.498166666666667,-0.776,-0.766,0.002888888888888941,-0.07699999999999996,70.099,0.022857142857142687,-0.38716666666666666,-0.2599999999999998,100.0,1.0,1.0,216.24666666666667,0.0,0.0,0.0,0.0,0.0,0.0,0.0,9166.0,0.0,55.0,5.0,252.33333333333334,0.0,0.0,0.0,0.0,0.0,0.0,1.0,0.0,1.7070000000000007,1.7070000000000007,0.0,0.0,0.0,55.0,616.79921,10000.0,85.000001,85.000001,85.000001,85.000001,395.0,0.0,0.0,0.0,1.0,166.665,47.684,47.684,50.232,50.232,34.0,-24.815,26.484,-26.112499999999997,27.628,0.0,1781.596,-0.29499999999999993,100.0,31.889,31.893,41.563,42.068,0.0,0.0,100.0,0.0,0.0,0.0,0.0,3424.875,3349.6,3848.25,3943.3,304.49266666666665,304.06333333333333,315.66,315.09575,22.137999999999998,20.7882,22.3071,21.6583,314.999998,314.999998,324.999988,324.999988,99.55915714285715,99.50906666666667,99.583,99.55367142857143,0.11766666666666659,-0.052000000000000046,-0.09699999999999998,0.1343333333333332,-0.045000000000001705,-0.036666666666668846,1.5909999999999997,1.5884999999999998,39.363,30.926499999999997,40.419,36.3645,56.094,36.997,64.11,54.864,54.105000000000004,36.010999999999996,62.594,53.082499999999996,53.326,35.516,62.54,52.454,-0.1235,-0.077,0.10808000000000001,0.10821000000000001,0.0,219.385,219.405,216.24666666666667,216.24666666666667,0.0,0.0
35,0.0,0.0,0.0,1.0,1.0,0.0,0.0,1.0,0.0,100.0,1.0,1.1856,26.0,0.0,0.0,0.0,59.999996,0.0,26.0,26.0,26.0,26.0,0.0165,0.25029999999999997,-0.075575,291.275,-2.6689,-2.5918888888888887,-1.59,-1.4877777777777779,-156.45999999999998,215.83249999999998,190.195125,0.0,0.0,0.0,0.0,0.0709,-5.498166666666667,-5.498166666666667,-0.8155,-0.31933333333333336,-0.008999999999999897,-0.021999999999999797,70.224,0.030571428571428694,-0.3905,-0.34999999999999964,100.0,1.0,1.0,216.69666666666666,0.0,0.0,0.0,0.0,0.0,0.0,0.0,9185.0,0.0,55.0,5.0,252.78666666666666,1.0,0.0,0.0,0.0,0.0,0.0,1.0,0.0,1.7579999999999991,1.7579999999999991,0.0,0.0,1.0,55.0,616.79921,10000.0,85.000001,85.000001,85.000001,85.000001,395.0,0.0,0.0,0.0,1.0,333.33500000000004,47.104,47.104,49.835,49.835,34.0,-24.4425,30.084,-24.2425,26.676000000000002,0.0,1781.543,-0.2649999999999997,100.0,31.844,32.094,41.4,41.539,0.0,0.0,100.0,0.0,0.0,0.0,0.0,3432.375,3750.7,3789.875,3785.1000000000004,304.438,303.047,315.70075,315.56175,22.1475,20.7947,22.318,21.6675,314.999998,314.999998,324.999988,324.999988,99.55917142857143,99.50908333333334,99.58314285714286,99.55382857142857,0.1256666666666666,-0.04066666666666663,-0.07200000000000006,0.15700000000000003,-0.051666666666669414,-0.04999999999999716,1.6195,1.601,39.422,30.967,40.488,36.422,56.085,37.039500000000004,64.129,54.913,54.097,36.05,62.611,53.129999999999995,53.316,35.554,62.553,52.5005,-0.121,-0.081,0.10161,0.11028500000000001,0.0,219.785,219.79500000000002,216.69666666666666,216.69666666666666,0.0,0.0
36,0.0,0.0,0.0,1.0,1.0,0.0,0.0,1.0,0.0,100.0,1.0,1.1856,26.0,0.0,0.0,0.0,59.999996,0.0,26.0,26.0,26.0,26.0,0.031,0.25360000000000005,0.069575,290.314,-2.5933,-2.6132222222222223,-1.5403,-1.5445555555555557,-153.09,215.8175,190.165625,0.0,0.0,0.0,0.0,0.07286666666666666,-5.498166666666667,-5.498166666666667,-0.7978000000000001,0.19266666666666676,-0.04733333333333345,0.1639999999999997,70.346,0.03228571428571447,-0.36610000000000004,-0.21199999999999974,100.0,1.0,1.0,216.81,0.0,0.0,0.0,0.0,0.0,0.0,0.0,9189.8,0.0,55.0,5.0,253.22,0.0,0.0,0.0,0.0,0.0,0.0,1.0,0.0,1.806000000000001,1.806000000000001,0.0,0.0,0.0,55.0,616.79921,10000.0,85.000001,85.000001,85.000001,85.000001,395.0,0.0,0.0,0.0,1.0,333.33500000000004,46.646,46.646,49.164,49.164,34.0,-23.8,28.862000000000002,-27.585,32.864000000000004,0.0,1781.496,-0.19500000000000028,100.0,32.469,32.391,41.591,41.793,0.0,0.0,100.0,0.0,0.0,0.0,0.0,3503.875,3599.1,4197.25,4359.9,304.00533333333334,303.5126666666667,314.75075,314.2145,22.1567,20.8009,22.3284,21.6764,314.999998,314.999998,324.999988,324.999988,99.55918571428572,99.50908333333334,99.58328571428571,99.55397142857143,0.1379999999999999,-0.04166666666666674,-0.07933333333333348,0.15500000000000025,-0.021666666666668277,-0.046666666666666856,1.5005000000000002,1.4844999999999997,39.480000000000004,31.005499999999998,40.553,36.4775,56.082,37.081,64.148,54.963499999999996,54.093,36.089,62.629,53.179,53.31,35.5905,62.568,52.548500000000004,-0.1215,-0.0895,0.10702,0.11104000000000001,0.0,220.17000000000002,220.20499999999998,216.81,216.81,0.0,0.0
