,ABS Active,ABS Enabled,AID Allow Tire Blankets,AID Auto Blip,AID Auto Clutch,AID Auto Shift,AID Fuel Rate,AID Ideal Line,AID Mech Damage,AID Stability,AID Tire Wear Rate,Air Density,Air Temp,Ballast,Best Lap Delta,Best Lap Time,Brake Bias,Brake Pos,Brake Temp FL,Brake Temp FR,Brake Temp RL,Brake Temp RR,CG Accel Lateral,CG Accel Longitudinal,CG Accel Vertical,CG Height,Camber FL,Camber FR,Camber RL,Camber RR,Car Coord X,Car Coord Y,Car Coord Z,Car Damage Front,Car Damage Left,Car Damage Rear,Car Damage Right,Car Pos Norm,Caster FL,Caster FR,Chassis Pitch Angle,Chassis Pitch Rate,Chassis Roll Angle,Chassis Roll Rate,Chassis Velocity X,Chassis Velocity Y,Chassis Velocity Z,Chassis Yaw Rate,Clutch Pos,DRS Active,DRS Available,Drive Train Speed,ERS Heat Charging,ERS Is Charging,ERS Max Energy,ERS Power Level,ERS Recovery Level,Engine Brake Setting,Engine Limiter,Engine RPM,Flags,Fuel Level,Gear,Ground Speed,HR Sample Clock,In Pit,KERS Charge,KERS Deployed Energy,KERS Input,KERS Max Energy,LR Sample Clock,Lap Invalidated,Lap Time,Lap Time2,Last Lap Time,Last Sector Time,MR Sample Clock,Max Fuel,Max Power,Max RPM,Max Sus Travel FL,Max Sus Travel FR,Max Sus Travel RL,Max Sus Travel RR,Max Torque,Max Turbo Boost,Num Tires Off Track,Penalties Enabled,Position,Raw Data Sample Rate,Ride Height FL,Ride Height FR,Ride Height RL,Ride Height RR,Road Temp,Self Align Torque FL,Self Align Torque FR,Self Align Torque RL,Self Align Torque RR,Session Lap Count,Session Time Left,Steering Angle,Surface Grip,Suspension Travel FL,Suspension Travel FR,Suspension Travel RL,Suspension Travel RR,TC Active,TC Enabled,Throttle Pos,Tire Dirt Level FL,Tire Dirt Level FR,Tire Dirt Level RL,Tire Dirt Level RR,Tire Load FL,Tire Load FR,Tire Load RL,Tire Load RR,Tire Loaded Radius FL,Tire Loaded Radius FR,Tire Loaded Radius RL,Tire Loaded Radius RR,Tire Pressure FL,Tire Pressure FR,Tire Pressure RL,Tire Pressure RR,Tire Radius FL,Tire Radius FR,Tire Radius RL,Tire Radius RR,Tire Rubber Grip FL,Tire Rubber Grip FR,Tire Rubber Grip RL,Tire Rubber Grip RR,Tire Slip Angle FL,Tire Slip Angle FR,Tire Slip Angle RL,Tire Slip Angle RR,Tire Slip Ratio FL,Tire Slip Ratio FR,Tire Slip Ratio RL,Tire Slip Ratio RR,Tire Temp Core FL,Tire Temp Core FR,Tire Temp Core RL,Tire Temp Core RR,Tire Temp Inner FL,Tire Temp Inner FR,Tire Temp Inner RL,Tire Temp Inner RR,Tire Temp Middle FL,Tire Temp Middle FR,Tire Temp Middle RL,Tire Temp Middle RR,Tire Temp Outer FL,Tire Temp Outer FR,Tire Temp Outer RL,Tire Temp Outer RR,Toe In FL,Toe In FR,Toe In RL,Toe In RR,Turbo Boost,Wheel Angular Speed FL,Wheel Angular Speed FR,Wheel Angular Speed RL,Wheel Angular Speed RR,Wind Direction,Wind Speed
0,0.0,0.0,0.0,1.0,1.0,0.0,0.0,1.0,0.0,100.0,1.0,1.1856,26.0,0.0,0.0,0.0,59.99999,0.0,26.0,26.0,26.0,26.0,-0.0615,0.2792000000000001,0.0115,292.892,-2.6612999999999998,-2.4173333333333336,-1.4905,-1.5012,-275.7,216.0525,190.98675,0.0,0.0,0.0,0.0,0.0015666666666666667,-5.498166666666667,-5.498166666666667,-0.7090000000000001,1.7393333333333334,-0.004111111111110954,-0.21099999999999985,65.66,-0.03642857142857148,-0.38766666666666666,0.7149999999999999,100.0,1.0,1.0,202.96666666666667,0.0,0.0,0.0,0.0,0.0,0.0,0.0,8603.0,0.0,55.0,5.0,236.3466666666667,0.0,0.0,0.0,0.0,0.0,0.0,0.0,0.0,0.0030000000000001137,0.0030000000000001137,0.0,0.0,0.0,55.0,616.79921,10000.0,85.0,85.0,85.0,85.0,395.0,0.0,0.0,0.0,1.0,20.0,46.646,46.646,52.521,52.521,34.0,-30.677500000000002,26.342,-26.146,21.644,0.0,1783.153,0.6100000000000003,100.0,31.492,30.896,38.368,38.203,0.0,0.0,100.0,0.0,0.0,0.0,0.0,3581.0,4122.8,3732.1111111111113,3692.2,303.854,301.582,315.918,315.7215,21.788899999999998,20.5904,22.01222222222222,21.3902,314.99999,314.99999,324.99998,324.99998,99.55724285714285,99.50873333333334,99.58425714285714,99.55148571428572,0.02400000000000002,-0.12524999999999986,-0.16333333333333355,0.06933333333333369,-0.03833333333332689,-0.03857142857143003,1.6835,1.718,37.18,29.689999999999998,38.576,34.689,55.849000000000004,35.641,65.4565,54.2665,53.923,34.7715,63.964,52.46,53.233000000000004,34.3455,64.051,51.826,-0.06,-0.14100000000000001,0.10878000000000002,0.10563000000000002,0.0,205.74,205.685,202.96666666666667,202.96666666666667,0.0,0.0
1,0.0,0.0,0.0,1.0,1.0,0.0,0.0,1.0,0.0,100.0,1.0,1.1856,26.0,0.0,0.0,0.0,59.999996,0.0,26.0,26.0,26.0,26.0,-0.124125,0.30090000000000017,0.218275,291.946,-2.5924,-2.7392222222222222,-1.4985,-1.343,-272.34,216.055,190.966375,0.0,0.0,0.0,0.0,0.0035333333333333336,-5.498166666666667,-5.498166666666667,-0.621,-0.498,-0.055777777777777704,-0.964,65.813,-0.043571428571428594,-0.3421,1.1925,100.0,1.0,1.0,202.85333333333332,0.0,0.0,0.0,0.0,0.0,0.0,0.0,8598.3,0.0,55.0,5.0,236.9,1.0,0.0,0.0,0.0,0.0,0.0,0.0,0.0,0.053999999999998494,0.053999999999998494,0.0,0.0,1.0,55.0,616.79921,10000.0,85.000001,85.000001,85.000001,85.000001,395.0,0.0,0.0,0.0,1.0,333.33500000000004,48.903999999999996,48.903999999999996,50.491,50.491,34.0,-28.1175,19.424,-33.604,26.71,0.0,1783.101,0.7400000000000002,100.0,31.548000000000002,31.002,40.649,39.886,0.0,0.0,100.0,0.0,0.0,0.0,0.0,3365.625,2889.9,4347.888888888889,4706.5,304.5933333333333,305.6623333333333,314.3025,313.0825,21.7991,20.5963,22.024444444444445,21.3999,314.999998,314.999998,324.999988,324.999988,99.55725714285714,99.50876666666667,99.58441428571429,99.55161428571428,0.015750000000000153,-0.14100000000000001,-0.17099999999999982,0.05200000000000049,-0.026666666666670835,-0.048571428571428044,1.4,1.443,37.245000000000005,29.727,38.653,34.7495,55.84,35.6875,65.482,54.323499999999996,53.915,34.814499999999995,63.986999999999995,52.515,53.223,34.3865,64.071,51.879999999999995,-0.0425,-0.15250000000000008,0.10712,0.10961000000000001,0.0,206.20499999999998,206.135,202.85333333333335,202.85333333333332,0.0,0.0
2,0.0,0.0,0.0,1.0,1.0,0.0,0.0,1.0,0.0,100.0,1.0,1.1856,26.0,0.0,0.0,0.0,59.999996,0.0,26.0,26.0,26.0,26.0,-0.116375,0.2812000000000001,-0.057225000000000005,292.923,-2.5556,-2.717111111111111,-1.4832,-1.6036000000000001,-268.78,216.055,190.9465,0.0,0.0,0.0,0.0,0.0056,-5.498166666666667,-5.498166666666667,-0.6912,0.15966666666666665,-0.03955555555555579,2.117,65.956,-0.06199999999999983,-0.4107,1.5775000000000006,100.0,1.0,1.0,204.0233333333333,0.0,0.0,0.0,0.0,0.0,0.0,0.0,8647.8,0.0,55.0,5.0,237.41666666666669,0.0,0.0,0.0,0.0,0.0,0.0,0.0,0.0,0.10800000000000054,0.10800000000000054,0.0,0.0,0.0,55.0,616.79921,10000.0,85.000001,85.000001,85.000001,85.000001,395.0,0.0,0.0,0.0,1.0,166.665,47.394,47.394,52.994,52.994,34.0,-32.6,21.7,-25.61,18.45,0.0,1783.048,0.7149999999999999,100.0,32.106,30.936,40.432,39.357,0.0,0.0,100.0,0.0,0.0,0.0,0.0,3743.5,3311.1,3453.1111111111113,3403.3,303.4243333333333,304.281,316.478,316.538,21.810200000000002,20.6023,22.037,21.4096,314.999998,314.999998,324.999988,324.999988,99.55725714285714,99.50876666666667,99.58455714285714,99.55175714285714,-0.005749999999999922,-0.16049999999999986,-0.21300000000000008,0.02366666666666628,-0.07833333333332604,-0.05571428571428072,1.7405,1.813,37.314,29.764499999999998,38.730999999999995,34.8105,55.833,35.7335,65.4985,54.37,53.907,34.857,64.002,52.56,53.214,34.427,64.0825,51.9245,-0.041,-0.15799999999999992,0.09692,0.11367500000000001,0.0,206.7,206.525,204.0233333333333,204.0233333333333,0.0,0.0
3,0.0,0.0,0.0,1.0,1.0,0.0,0.0,1.0,0.0,100.0,1.0,1.1856,26.0,0.0,0.0,0.0,59.999996,0.0,26.0,26.0,26.0,26.0,-0.139875,0.30390000000000006,-0.0046500000000000005,292.374,-2.5911,-2.6254444444444447,-1.4855,-1.5485,-265.62,216.0525,190.92775,0.0,0.0,0.0,0.0,0.0074333333333333335,-5.498166666666667,-5.498166666666667,-0.6444000000000001,0.5660000000000001,-0.009777777777777885,-1.459,66.098,-0.08000000000000007,-0.35586666666666666,1.3650000000000002,100.0,1.0,1.0,203.99333333333334,0.0,0.0,0.0,0.0,0.0,0.0,0.0,8646.5,0.0,55.0,5.0,237.92666666666668,1.0,0.0,0.0,0.0,0.0,0.0,0.0,0.0,0.1559999999999988,0.1559999999999988,0.0,0.0,1.0,55.0,616.79921,10000.0,85.000001,85.000001,85.000001,85.000001,395.0,0.0,0.0,0.0,1.0,166.665,48.325,48.325,50.659,50.659,34.0,-29.6175,19.866,-33.316,22.826,0.0,1783.0,0.7350000000000003,100.0,31.721,31.09,40.278999999999996,39.516999999999996,0.0,0.0,100.0,0.0,0.0,0.0,0.0,3364.5,3185.5,4214.555555555556,4026.7,304.666,304.48533333333336,314.7075,314.85925,21.8198,20.608,22.048111111111112,21.4185,314.999998,314.999998,324.999988,324.999988,99.55725714285714,99.50878333333333,99.5847,99.5519,-0.018999999999999906,-0.16399999999999992,-0.20633333333333326,0.020999999999999908,-0.07000000000000028,-0.02285714285714846,1.5225,1.579,37.373999999999995,29.799999999999997,38.801,34.866,55.823,35.778999999999996,65.515,54.420500000000004,53.897999999999996,34.899,64.017,52.609,53.203,34.467,64.0945,51.9725,-0.0375,-0.14650000000000007,0.10433,0.10954000000000001,0.0,207.155,207.005,203.99333333333334,203.99333333333334,0.0,0.0
4,0.0,0.0,0.0,1.0,1.0,0.0,0.0,1.0,0.0,100.0,1.0,1.1856,26.0,0.0,0.0,0.0,59.999996,0.0,26.0,26.0,26.0,26.0,-0.147125,0.27880000000000016,0.0074,292.679,-2.6106,-2.727222222222222,-1.4152,-1.5666,-262.44,216.04500000000002,190.909375,0.0,0.0,0.0,0.0,0.009300000000000001,-5.498166666666667,-5.498166666666667,-0.6722,-0.8153333333333334,-0.07644444444444431,-1.771,66.231,-0.08985714285714241,-0.3914666666666667,1.5425000000000004,100.0,1.0,1.0,204.53,0.0,0.0,0.0,0.0,0.0,0.0,0.0,8669.3,0.0,55.0,5.0,238.41,0.0,0.0,0.0,0.0,0.0,0.0,0.0,0.0,0.20400000000000063,0.20400000000000063,0.0,0.0,0.0,55.0,616.79921,10000.0,85.000001,85.000001,85.000001,85.000001,395.0,0.0,0.0,0.0,1.0,166.665,48.248,48.248,51.178,51.178,34.0,-32.832499999999996,20.316000000000003,-31.13,19.096,0.0,1782.952,0.7400000000000002,100.0,31.416,30.676000000000002,40.78,39.566,0.0,0.0,100.0,0.0,0.0,0.0,0.0,3647.125,3201.6,4044.777777777778,3546.8,303.89666666666665,304.494,315.12425,315.9945,21.8293,20.6135,22.059444444444445,21.4274,314.999998,314.999998,324.999988,324.999988,99.55725714285714,99.50881666666666,99.58482857142857,99.55202857142856,-0.02299999999999991,-0.17774999999999985,-0.21899999999999986,0.008333333333333748,-0.0799999999999983,-0.04571428571428271,1.5785,1.639,37.433,29.834,38.872,34.921,55.813,35.822,65.535,54.467,53.888,34.939,64.035,52.6535,53.192,34.5055,64.1095,52.016,-0.0325,-0.15799999999999992,0.10338000000000001,0.10867,0.0,207.505,207.36,204.53,204.53,0.0,0.0
5,0.0,0.0,0.0,1.0,1.0,0.0,0.0,1.0,0.0,100.0,1.0,1.1856,26.0,0.0,0.0,0.0,59.999996,0.0,26.0,26.0,26.0,26.0,-0.161375,0.28570000000000007,-0.029975,292.892,-2.6197,-2.701111111111111,-1.4857,-1.5976000000000001,-259.06,216.035,190.88925,0.0,0.0,0.0,0.0,0.011266666666666668,-5.498166666666667,-5.498166666666667,-0.6734,0.4176666666666667,-0.0773333333333337,0.96,66.373,-0.10157142857142842,-0.37470000000000003,1.4050000000000002,100.0,1.0,1.0,205.00666666666666,0.0,0.0,0.0,0.0,0.0,0.0,0.0,8689.5,0.0,55.0,5.0,238.91666666666669,1.0,0.0,0.0,0.0,0.0,0.0,0.0,0.0,0.254999999999999,0.254999999999999,0.0,0.0,1.0,55.0,616.79921,10000.0,85.000001,85.000001,85.000001,85.000001,395.0,0.0,0.0,0.0,1.0,166.665,48.507999999999996,48.507999999999996,51.804,51.804,34.0,-30.697499999999998,20.916,-31.372,20.926000000000002,0.0,1782.9,0.375,100.0,31.681,30.35,40.558,39.007,0.0,0.0,100.0,0.0,0.0,0.0,0.0,3481.625,3226.8,3893.8888888888887,3829.6000000000004,304.14633333333336,304.622,315.4655,315.43525,21.8397,20.6193,22.071333333333335,21.4366,314.999998,314.999998,324.999988,324.999988,99.55727142857143,99.50883333333333,99.58497142857144,99.55215714285714,-0.004750000000000032,-0.15874999999999995,-0.23899999999999988,0.0043333333333333,-0.05333333333332746,-0.04999999999999716,1.6139999999999999,1.665,37.498000000000005,29.8705,38.945,34.9785,55.806,35.8685,65.553,54.513,53.879999999999995,34.981,64.051,52.698,53.183,34.546,64.1225,52.0595,-0.0645,-0.1280000000000001,0.10733500000000001,0.11126000000000001,0.0,207.965,207.84,205.00666666666666,205.00666666666666,0.0,0.0
6,0.0,0.0,0.0,1.0,1.0,0.0,0.0,1.0,0.0,100.0,1.0,1.1856,26.0,0.0,0.0,0.0,59.999996,0.0,26.0,26.0,26.0,26.0,-0.1495,0.2924,0.00775,292.587,-2.5732,-2.7496666666666667,-1.5158,-1.5551000000000001,-255.87,216.01999999999998,190.869625,0.0,0.0,0.0,0.0,0.0131,-5.498166666666667,-5.498166666666667,-0.6641,0.08666666666666667,-0.0725555555555557,0.7549999999999999,66.508,-0.10371428571428565,-0.36696666666666666,1.0925000000000002,100.0,1.0,1.0,205.33666666666667,0.0,0.0,0.0,0.0,0.0,0.0,0.0,8703.5,0.0,55.0,5.0,239.40333333333334,0.0,0.0,0.0,0.0,0.0,0.0,0.0,0.0,0.3030000000000008,0.3030000000000008,0.0,0.0,0.0,55.0,616.79921,10000.0,85.000001,85.000001,85.000001,85.000001,395.0,0.0,0.0,0.0,1.0,166.665,48.325,48.325,51.208,51.208,34.0,-30.119999999999997,22.272,-31.824,21.152,0.0,1782.853,0.2400000000000002,100.0,31.652,30.403,40.766999999999996,39.277,0.0,0.0,100.0,0.0,0.0,0.0,0.0,3505.75,3288.5,3994.6666666666665,3872.0,304.07733333333334,304.38533333333334,315.18475,315.32175,21.8493,20.6248,22.082444444444445,21.4454,314.999998,314.999998,324.999988,324.999988,99.55727142857143,99.50885,99.5851,99.55228571428572,0.0022500000000000853,-0.15149999999999997,-0.21499999999999986,0.011666666666666714,-0.041666666666671404,-0.07000000000000028,1.5895000000000001,1.633,37.558,29.905,39.016,35.034,55.798,35.911500000000004,65.571,54.5605,53.872,35.021,64.0675,52.7435,53.174,34.5835,64.136,52.104,-0.0755,-0.1180000000000001,0.09805000000000001,0.11178500000000001,0.0,208.37,208.275,205.33666666666667,205.33666666666667,0.0,0.0
7,0.0,0.0,0.0,1.0,1.0,0.0,0.0,1.0,0.0,100.0,1.0,1.1856,26.0,0.0,0.0,0.0,59.999996,0.0,26.0,26.0,26.0,26.0,-0.116625,0.2751000000000001,0.011975000000000001,292.465,-2.5475,-2.7392222222222222,-1.4768,-1.6003,-252.47,216.0025,190.84925,0.0,0.0,0.0,0.0,0.0151,-5.498166666666667,-5.498166666666667,-0.672,-0.022,-0.06300000000000017,-0.29800000000000004,66.649,-0.09571428571428564,-0.3835333333333334,0.9474999999999998,100.0,1.0,1.0,205.7866666666667,0.0,0.0,0.0,0.0,0.0,0.0,0.0,8722.6,0.0,55.0,5.0,239.91333333333333,1.0,0.0,0.0,0.0,0.0,0.0,0.0,0.0,0.3539999999999992,0.3539999999999992,0.0,0.0,1.0,55.0,616.79921,10000.0,85.000001,85.000001,85.000001,85.000001,395.0,0.0,0.0,0.0,1.0,333.33500000000004,47.928,47.928,51.528999999999996,51.528999999999996,34.0,-30.564999999999998,22.46,-30.823999999999998,21.016,0.0,1782.801,-0.009999999999999787,100.0,31.666,30.647,40.686,39.535,0.0,0.0,100.0,0.0,0.0,0.0,0.0,3666.0,3272.5,3904.6666666666665,3778.0,303.71866666666665,304.20866666666666,315.421,315.42125,21.8597,20.6307,22.094444444444445,21.4549,314.999998,314.999998,324.999988,324.999988,99.55727142857143,99.50886666666666,99.58525714285715,99.55244285714285,0.01650000000000018,-0.14724999999999988,-0.22133333333333338,0.005666666666666487,-0.05833333333333002,-0.03285714285714647,1.569,1.614,37.623000000000005,29.942,39.09,35.093,55.79,35.957499999999996,65.59,54.61,53.864000000000004,35.063,64.0845,52.792,53.165,34.624,64.15,52.150999999999996,-0.0965,-0.09899999999999998,0.10543000000000001,0.10848000000000001,0.0,208.79500000000002,208.69,205.7866666666667,205.7866666666667,0.0,0.0
8,0.0,0.0,0.0,1.0,1.0,0.0,0.0,1.0,0.0,100.0,1.0,1.1856,26.0,0.0,0.0,0.0,59.999996,0.0,26.0,26.0,26.0,26.0,-0.08687500000000001,0.2816000000000001,0.01815,292.664,-2.6262,-2.679666666666667,-1.4544000000000001,-1.5896000000000001,-249.07,215.98250000000002,190.828625,0.0,0.0,0.0,0.0,0.017066666666666667,-5.498166666666667,-5.498166666666667,-0.6743,-0.486,-0.04800000000000004,0.774,66.791,-0.07942857142857163,-0.37823333333333337,0.3700000000000001,100.0,1.0,1.0,206.15333333333334,0.0,0.0,0.0,0.0,0.0,0.0,0.0,8738.1,0.0,55.0,5.0,240.42333333333335,0.0,0.0,0.0,0.0,0.0,0.0,0.0,0.0,0.40500000000000114,0.40500000000000114,0.0,0.0,0.0,55.0,616.79921,10000.0,85.000001,85.000001,85.000001,85.000001,395.0,0.0,0.0,0.0,1.0,333.33500000000004,48.584,48.584,50.995,50.995,34.0,-27.52,23.752000000000002,-28.933999999999997,23.46,0.0,1782.75,-0.17499999999999982,100.0,31.398,30.478,40.788,39.51,0.0,0.0,100.0,0.0,0.0,0.0,0.0,3362.375,3359.6,3900.8888888888887,3915.5,304.54966666666667,304.2296666666667,315.33775,315.15425,21.869799999999998,20.6366,22.106333333333332,21.4643,314.999998,314.999998,324.999988,324.999988,99.55727142857143,99.50888333333333,99.58538571428572,99.55257142857143,0.03825000000000012,-0.11549999999999994,-0.18399999999999972,0.0389999999999997,-0.03166666666666629,-0.057142857142849834,1.5675,1.585,37.686,29.979,39.164,35.152,55.78,36.0015,65.609,54.66,53.855000000000004,35.104,64.1015,52.8395,53.153999999999996,34.6625,64.1635,52.198,-0.1115,-0.08099999999999996,0.10074000000000001,0.10825000000000001,0.0,209.195,209.17000000000002,206.15333333333334,206.15333333333334,0.0,0.0
9,0.0,0.0,0.0,1.0,1.0,0.0,0.0,1.0,0.0,100.0,1.0,1.1856,26.0,0.0,0.0,0.0,59.999996,0.0,26.0,26.0,26.0,26.0,-0.074625,0.2791000000000001,0.03135,292.358,-2.5521000000000003,-2.695444444444444,-1.5098,-1.54,-245.86,215.96,190.80875,0.0,0.0,0.0,0.0,0.018933333333333337,-5.498166666666667,-5.498166666666667,-0.677,0.5536666666666666,-0.05011111111111122,0.8820000000000001,66.92099999999999,-0.059571428571428164,-0.37520000000000003,0.17250000000000032,100.0,1.0,1.0,206.66666666666669,0.0,0.0,0.0,0.0,0.0,0.0,0.0,8759.8,0.0,55.0,5.0,240.89,1.0,0.0,0.0,0.0,0.0,0.0,0.0,0.0,0.4529999999999994,0.4529999999999994,0.0,0.0,1.0,55.0,616.79921,10000.0,85.000001,85.000001,85.000001,85.000001,395.0,0.0,0.0,0.0,1.0,166.665,47.638,47.638,51.788,51.788,34.0,-28.14,25.32,-27.86,23.422,0.0,1782.704,-0.33499999999999996,100.0,31.867,30.819,40.488,39.511,0.0,0.0,100.0,0.0,0.0,0.0,0.0,3626.125,3409.7,3822.1111111111113,3891.0,303.68666666666667,304.0076666666667,315.63225,315.296,21.8794,20.6423,22.117333333333335,21.4731,314.999998,314.999998,324.999988,324.999988,99.55728571428571,99.5089,99.58551428571428,99.5527,0.06099999999999994,-0.09674999999999989,-0.16900000000000004,0.05900000000000016,-0.03999999999999915,-0.057142857142849834,1.619,1.616,37.745999999999995,30.014499999999998,39.233999999999995,35.207,55.775,36.044,65.6235,54.705,53.849000000000004,35.143,64.11449999999999,52.8835,53.147,34.7,64.1735,52.241,-0.1265,-0.07299999999999995,0.102385,0.10277000000000001,0.0,209.60000000000002,209.59,206.66666666666669,206.66666666666669,0.0,0.0
10,0.0,0.0,0.0,1.0,1.0,0.0,0.0,1.0,0.0,100.0,1.0,1.1856,26.0,0.0,0.0,0.0,59.999996,0.0,26.0,26.0,26.0,26.0,-0.041125,0.28869999999999996,0.027725,292.282,-2.6257,-2.6404444444444444,-1.49,-1.5145000000000002,-242.24,215.9325,190.78675,0.0,0.0,0.0,0.0,0.021033333333333334,-5.498166666666667,-5.498166666666667,-0.6633,-0.6393333333333334,-0.009222222222222243,1.7560000000000002,67.071,-0.03200000000000003,-0.3739,-0.20749999999999957,100.0,1.0,1.0,206.94,0.0,0.0,0.0,0.0,0.0,0.0,0.0,8771.5,0.0,55.0,5.0,241.43,0.0,0.0,0.0,0.0,0.0,0.0,1.0,0.0,0.5069999999999979,0.5069999999999979,0.0,0.0,0.0,55.0,616.79921,10000.0,85.000001,85.000001,85.000001,85.000001,395.0,0.0,0.0,0.0,1.0,166.665,48.431,48.431,50.69,50.69,34.0,-25.09,24.948,-28.253999999999998,26.305999999999997,0.0,1782.649,-0.35499999999999954,100.0,31.662,30.805,40.857,40.153,0.0,0.0,100.0,0.0,0.0,0.0,0.0,3285.625,3362.2,3976.0,4089.3,304.777,304.258,315.1835,314.7715,21.8901,20.648699999999998,22.13,21.4833,314.999998,314.999998,324.999988,324.999988,99.55728571428571,99.50891666666666,99.58567142857143,99.55284285714286,0.07525000000000004,-0.0814999999999999,-0.1456666666666666,0.08733333333333348,-0.01999999999999602,-0.047142857142851824,1.554,1.546,37.813,30.054499999999997,39.313,35.2705,55.768,36.0895,65.644,54.7605,53.842,35.1845,64.133,52.937,53.138999999999996,34.7395,64.1885,52.2935,-0.1225,-0.0645,0.11157500000000001,0.105815,0.0,210.03,210.04500000000002,206.94,206.94,0.0,0.0
11,0.0,0.0,0.0,1.0,1.0,0.0,0.0,1.0,0.0,100.0,1.0,1.1856,26.0,0.0,0.0,0.0,59.999996,0.0,26.0,26.0,26.0,26.0,0.0125,0.26970000000000005,-0.08725000000000001,292.709,-2.6404,-2.6284444444444444,-1.5445,-1.484,-238.82,215.9075,190.765875,0.0,0.0,0.0,0.0,0.022600000000000002,-5.498166666666667,-5.498166666666667,-0.6960000000000001,-0.018333333333333333,0.011555555555555541,-0.6479999999999999,67.206,-0.008142857142857451,-0.39303333333333335,-0.33000000000000007,100.0,1.0,1.0,207.63,0.0,0.0,0.0,0.0,0.0,0.0,0.0,8800.7,0.0,55.0,5.0,241.91666666666666,1.0,0.0,0.0,0.0,0.0,0.0,1.0,0.0,0.5579999999999998,0.5579999999999998,0.0,0.0,1.0,55.0,616.79921,10000.0,85.000001,85.000001,85.000001,85.000001,395.0,0.0,0.0,0.0,1.0,166.665,48.004,48.004,51.894999999999996,51.894999999999996,34.0,-26.565,26.32,-24.164,23.536,0.0,1782.598,-0.20000000000000018,100.0,31.265,31.195,40.24,40.124,0.0,0.0,100.0,0.0,0.0,0.0,0.0,3507.5,3409.3,3615.6666666666665,3729.6000000000004,304.281,303.86766666666665,316.193,315.64325,21.9001,20.6548,22.141666666666666,21.4927,314.999998,314.999998,324.999988,324.999988,99.5573,99.50893333333333,99.58581428571429,99.55298571428571,0.0847500000000001,-0.0645,-0.12366666666666637,0.10533333333333328,-0.05666666666667197,-0.028571428571432023,1.685,1.67,37.876000000000005,30.0925,39.385,35.329,55.760999999999996,36.1325,65.6565,54.809,53.835,35.2245,64.144,52.984,53.131,34.7775,64.1965,52.3395,-0.1205,-0.06750000000000012,0.10873500000000001,0.10166000000000001,0.0,210.465,210.46,207.63,207.63,0.0,0.0
12,0.0,0.0,0.0,1.0,1.0,0.0,0.0,1.0,0.0,100.0,1.0,1.1856,26.0,0.0,0.0,0.0,59.999996,0.0,26.0,26.0,26.0,26.0,0.01525,0.2845,0.011575,292.206,-2.6498,-2.649222222222222,-1.5119,-1.5399,-235.79,215.8825,190.746375,0.0,0.0,0.0,0.0,0.025466666666666665,-5.498166666666667,-5.498166666666667,-0.6832,0.27266666666666667,0.0024444444444442492,0.8239999999999998,67.331,0.006857142857142673,-0.36910000000000004,-0.29249999999999954,100.0,1.0,1.0,207.80666666666667,0.0,0.0,0.0,0.0,0.0,0.0,0.0,8808.1,0.0,55.0,5.0,242.36666666666667,0.0,0.0,0.0,0.0,0.0,0.0,1.0,0.0,0.602999999999998,0.602999999999998,0.0,0.0,0.0,55.0,616.79921,10000.0,85.000001,85.000001,85.000001,85.000001,395.0,0.0,0.0,0.0,1.0,333.33500000000004,47.882,47.882,50.842,50.842,34.0,-23.8025,29.172,-25.662,28.072000000000003,0.0,1782.551,-0.9000000000000004,100.0,31.389,31.176000000000002,40.29,40.061,0.0,0.0,100.0,0.0,0.0,0.0,0.0,3443.875,3526.9,3977.8888888888887,3991.3,304.2726666666667,303.677,315.24325,315.04475,21.9089,20.6603,22.152,21.501,314.999998,314.999998,324.999988,324.999988,99.55731428571428,99.50893333333333,99.58594285714285,99.55311428571429,0.13575000000000026,-0.028249999999999886,-0.09200000000000008,0.1349999999999998,-0.03499999999999659,-0.04571428571428271,1.5979999999999999,1.572,37.93,30.1265,39.45,35.381,55.756,36.170500000000004,65.6715,54.853,53.83,35.2595,64.1575,53.0265,53.123999999999995,34.8115,64.2065,52.3815,-0.1515,-0.044499999999999984,0.10193500000000001,0.10409,0.0,210.85500000000002,210.865,207.80666666666667,207.80666666666667,0.0,0.0
13,0.0,0.0,0.0,1.0,1.0,0.0,0.0,1.0,0.0,100.0,1.0,1.1856,26.0,0.0,0.0,0.0,59.999996,0.0,26.0,26.0,26.0,26.0,0.030625,0.27680000000000016,0.046575000000000005,291.824,-2.6391999999999998,-2.6322222222222225,-1.5523,-1.5129000000000001,-232.15,215.85500000000002,190.723375,0.0,0.0,0.0,0.0,0.0269,-5.498166666666667,-5.498166666666667,-0.6797000000000001,-0.18166666666666667,0.013555555555555543,0.9630000000000001,67.477,0.019857142857142573,-0.38120000000000004,-0.4450000000000003,100.0,1.0,1.0,208.19333333333333,0.0,0.0,0.0,0.0,0.0,0.0,0.0,8824.6,0.0,55.0,5.0,242.89333333333335,1.0,0.0,0.0,0.0,0.0,0.0,1.0,0.0,0.657,0.657,0.0,0.0,1.0,55.0,616.79921,10000.0,85.000001,85.000001,85.000001,85.000001,395.0,0.0,0.0,0.0,1.0,166.665,47.546,47.546,50.797,50.797,34.0,-24.395,28.65,-25.344,29.64,0.0,1782.499,-0.41999999999999993,100.0,31.744,31.506,40.492000000000004,40.579,0.0,0.0,100.0,0.0,0.0,0.0,0.0,3420.625,3535.1,3915.8888888888887,4145.5,304.34066666666666,303.638,315.358,314.65525,21.9195,20.6669,22.164444444444445,21.5112,314.999998,314.999998,324.999988,324.999988,99.55732857142857,99.50895,99.58608571428572,99.55327142857143,0.11799999999999988,-0.03699999999999992,-0.08033333333333337,0.14366666666666728,-0.051666666666669414,-0.057142857142849834,1.557,1.537,37.997,30.168,39.528,35.445,55.753,36.2155,65.6895,54.909,53.826,35.301,64.173,53.0805,53.117999999999995,34.851,64.219,52.4345,-0.1275,-0.06699999999999995,0.100205,0.10091000000000001,0.0,211.3,211.325,208.19333333333333,208.19333333333333,0.0,0.0
14,0.0,0.0,0.0,1.0,1.0,0.0,0.0,1.0,0.0,100.0,1.0,1.1856,26.0,0.0,0.0,0.0,59.999996,0.0,26.0,26.0,26.0,26.0,0.047,0.26560000000000006,-0.0075250000000000004,292.023,-2.6609,-2.6365555555555558,-1.5506,-1.504,-228.71,215.82999999999998,190.702,0.0,0.0,0.0,0.0,0.028900000000000002,-5.498166666666667,-5.498166666666667,-0.6917,-0.10200000000000001,0.028000000000000025,-0.32800000000000007,67.612,0.03171428571428603,-0.39433333333333337,-0.45500000000000007,100.0,1.0,1.0,208.72,0.0,0.0,0.0,0.0,0.0,0.0,0.0,8846.8,0.0,55.0,5.0,243.38,0.0,0.0,0.0,0.0,0.0,0.0,1.0,0.0,0.7079999999999984,0.7079999999999984,0.0,0.0,0.0,55.0,616.79921,10000.0,85.000001,85.000001,85.000001,85.000001,395.0,0.0,0.0,0.0,1.0,166.665,47.531,47.531,51.01,51.01,34.0,-24.75,28.154,-24.492,27.810000000000002,0.0,1782.448,-0.39999999999999947,100.0,31.566,31.799,40.341,40.772,0.0,0.0,100.0,0.0,0.0,0.0,0.0,3464.5,3462.9,3816.8888888888887,3921.3,304.409,303.63,315.6835,315.13375,21.9294,20.6731,22.176222222222222,21.520699999999998,314.999998,314.999998,324.999988,324.999988,99.55734285714286,99.50895,99.58622857142858,99.55341428571428,0.11850000000000005,-0.0402499999999999,-0.08566666666666656,0.1503333333333332,-0.045000000000001705,-0.03857142857143003,1.6105,1.589,38.059,30.207,39.601,35.5045,55.748999999999995,36.2575,65.704,54.9595,53.822,35.34,64.1865,53.1295,53.113,34.8885,64.2285,52.4825,-0.1305,-0.06750000000000012,0.104995,0.11510000000000001,0.0,211.70499999999998,211.735,208.72,208.72,0.0,0.0
15,0.0,0.0,0.0,1.0,1.0,0.0,0.0,1.0,0.0,100.0,1.0,1.1856,26.0,0.0,0.0,0.0,59.999996,0.0,26.0,26.0,26.0,26.0,0.063625,0.27070000000000016,-0.027975,291.992,-2.6678,-2.596888888888889,-1.5749,-1.5058,-225.46,215.8075,190.681625,0.0,0.0,0.0,0.0,0.0308,-5.498166666666667,-5.498166666666667,-0.6828000000000001,0.16466666666666666,0.05333333333333323,-0.8140000000000001,67.741,0.038285714285714256,-0.37873333333333337,-0.46249999999999947,100.0,1.0,1.0,209.07333333333332,0.0,0.0,0.0,0.0,0.0,0.0,0.0,8861.9,0.0,55.0,5.0,243.84,1.0,0.0,0.0,0.0,0.0,0.0,1.0,0.0,0.7560000000000002,0.7560000000000002,0.0,0.0,1.0,55.0,616.79921,10000.0,85.000001,85.000001,85.000001,85.000001,395.0,0.0,0.0,0.0,1.0,166.665,47.699,47.699,50.934,50.934,34.0,-23.4725,27.746,-24.772,29.482,0.0,1782.4,-0.3600000000000003,100.0,31.560000000000002,31.909,40.179,40.91,0.0,0.0,100.0,0.0,0.0,0.0,0.0,3349.5,3436.9,3830.222222222222,4063.8,304.752,303.69866666666667,315.67675,314.73075,21.9388,20.6791,22.18711111111111,21.5297,314.999998,314.999998,324.999988,324.999988,99.55737142857143,99.50895,99.58637142857143,99.55355714285714,0.12674999999999992,-0.03574999999999995,-0.08133333333333326,0.15433333333333277,-0.046666666666666856,-0.03999999999999915,1.585,1.558,38.117999999999995,30.244,39.67,35.5605,55.745999999999995,36.2975,65.717,55.007999999999996,53.818,35.3765,64.1975,53.177,53.107,34.923500000000004,64.2365,52.528999999999996,-0.128,-0.0685,0.109755,0.11002,0.0,212.125,212.135,209.07333333333332,209.07333333333332,0.0,0.0
16,0.0,0.0,0.0,1.0,1.0,0.0,0.0,1.0,0.0,100.0,1.0,1.1856,26.0,0.0,0.0,0.0,59.999996,0.0,26.0,26.0,26.0,26.0,0.0475,0.25890000000000013,-0.006475000000000001,291.916,-2.7164,-2.5573333333333332,-1.5417,-1.5124,-222.0,215.7825,190.6595,0.0,0.0,0.0,0.0,0.0328,-5.498166666666667,-5.498166666666667,-0.7025,-0.5153333333333334,0.03733333333333322,0.09600000000000009,67.876,0.041857142857142815,-0.39580000000000004,-0.3825000000000003,100.0,1.0,1.0,209.51333333333332,0.0,0.0,0.0,0.0,0.0,0.0,0.0,8880.5,0.0,55.0,5.0,244.32999999999998,0.0,0.0,0.0,0.0,0.0,0.0,1.0,0.0,0.8069999999999986,0.8069999999999986,0.0,0.0,0.0,55.0,616.79921,10000.0,85.000001,85.000001,85.000001,85.000001,395.0,0.0,0.0,0.0,1.0,166.665,47.348,47.348,50.812,50.812,34.0,-25.0675,29.57,-22.854,28.4,0.0,1782.348,-0.28000000000000025,100.0,31.443,31.782,40.496,40.872,0.0,0.0,100.0,0.0,0.0,0.0,0.0,3483.0,3668.0,3755.222222222222,3901.1000000000004,304.30033333333336,303.2776666666667,315.76025,315.2255,21.9486,20.6854,22.198888888888888,21.5392,314.999998,314.999998,324.999988,324.999988,99.55738571428572,99.50895,99.5865,99.5537,0.12875000000000014,-0.02675000000000005,-0.05933333333333346,0.16633333333333322,-0.04333333333332945,-0.054285714285711606,1.591,1.597,38.179,30.2835,39.742999999999995,35.62,55.739999999999995,36.3395,65.73349999999999,55.0585,53.812,35.416,64.212,53.226,53.1,34.961,64.2475,52.577,-0.116,-0.08099999999999996,0.10265500000000001,0.110405,0.0,212.5,212.54500000000002,209.51333333333332,209.51333333333332,0.0,0.0
17,0.0,0.0,0.0,1.0,1.0,0.0,0.0,1.0,0.0,100.0,1.0,1.1856,26.0,0.0,0.0,0.0,59.999996,0.0,26.0,26.0,26.0,26.0,0.033625,0.27580000000000005,-0.0014,291.611,-2.6753,-2.543111111111111,-1.5828,-1.4753,-218.74,215.7625,190.638375,0.0,0.0,0.0,0.0,0.0347,-5.498166666666667,-5.498166666666667,-0.6920000000000001,0.321,0.015444444444444372,0.6030000000000002,68.004,0.0387142857142857,-0.37716666666666665,-0.3650000000000002,100.0,1.0,1.0,209.82666666666665,0.0,0.0,0.0,0.0,0.0,0.0,0.0,8893.8,0.0,55.0,5.0,244.78666666666666,1.0,0.0,0.0,0.0,0.0,0.0,1.0,0.0,0.8550000000000004,0.8550000000000004,0.0,0.0,1.0,55.0,616.79921,10000.0,85.000001,85.000001,85.000001,85.000001,395.0,0.0,0.0,0.0,1.0,166.665,47.272,47.272,50.522,50.522,34.0,-24.05,28.32,-26.22,29.238,0.0,1782.301,-0.2649999999999997,100.0,31.892,31.918,40.403999999999996,40.812,0.0,0.0,100.0,0.0,0.0,0.0,0.0,3469.375,3552.7,4065.3333333333335,4091.7,304.262,303.62033333333335,315.12575,314.8515,21.958,20.6914,22.209777777777777,21.548099999999998,314.999998,314.999998,324.999988,324.999988,99.5574,99.50896666666667,99.58664285714286,99.55382857142857,0.13975000000000026,-0.027499999999999858,-0.07099999999999973,0.1589999999999998,-0.03999999999999915,-0.04571428571428271,1.5805,1.574,38.238,30.320999999999998,39.811,35.676,55.738,36.379999999999995,65.747,55.106,53.81,35.453,64.224,53.272,53.096000000000004,34.997,64.2565,52.622,-0.124,-0.07899999999999996,0.10832000000000001,0.10530500000000001,0.0,212.93,212.97,209.82666666666665,209.82666666666665,0.0,0.0
18,0.0,0.0,0.0,1.0,1.0,0.0,0.0,1.0,0.0,100.0,1.0,1.1856,26.0,0.0,0.0,0.0,59.999996,0.0,26.0,26.0,26.0,26.0,0.01525,0.25360000000000005,0.00042500000000000003,291.519,-2.697,-2.5245555555555557,-1.5855000000000001,-1.4295,-215.47,215.7425,190.61725,0.0,0.0,0.0,0.0,0.0366,-5.498166666666667,-5.498166666666667,-0.7036,-0.4336666666666667,0.02777777777777768,0.891,68.13,0.03642857142857148,-0.39330000000000004,-0.27249999999999996,100.0,1.0,1.0,210.22,0.0,0.0,0.0,0.0,0.0,0.0,0.0,8910.5,0.0,55.0,5.0,245.24333333333334,0.0,0.0,0.0,0.0,0.0,0.0,1.0,0.0,0.9029999999999987,0.9029999999999987,0.0,0.0,0.0,55.0,616.79921,10000.0,85.000001,85.000001,85.000001,85.000001,395.0,0.0,0.0,0.0,1.0,166.665,47.043,47.043,50.476,50.476,34.0,-25.0525,29.08,-25.396,27.96,0.0,1782.253,-0.27499999999999947,100.0,31.793,31.832,40.674,41.053,0.0,0.0,100.0,0.0,0.0,0.0,0.0,3511.375,3722.1,3910.8888888888887,4044.4,304.17766666666665,303.14,315.4395,314.936,21.9674,20.6973,22.22088888888889,21.5572,314.999998,314.999998,324.999988,324.999988,99.55741428571429,99.50896666666667,99.58677142857142,99.55397142857143,0.13050000000000006,-0.03849999999999998,-0.07699999999999996,0.15266666666666673,-0.02499999999999858,-0.06571428571428584,1.5885,1.57,38.296,30.358,39.879999999999995,35.7325,55.733999999999995,36.42,65.7625,55.153999999999996,53.806,35.49,64.2375,53.319,53.09,35.032,64.2665,52.668,-0.1255,-0.08450000000000002,0.10583500000000001,0.10505,0.0,213.31,213.335,210.22,210.22,0.0,0.0
19,0.0,0.0,0.0,1.0,1.0,0.0,0.0,1.0,0.0,100.0,1.0,1.1856,26.0,0.0,0.0,0.0,59.999996,0.0,26.0,26.0,26.0,26.0,0.03975,0.27170000000000005,0.076175,291.092,-2.6172,-2.625,-1.518,-1.4182000000000001,-211.99,215.7225,190.5945,0.0,0.0,0.0,0.0,0.03863333333333333,-5.498166666666667,-5.498166666666667,-0.6944,0.6876666666666666,0.03022222222222215,-0.7369999999999999,68.264,0.03314285714285736,-0.38480000000000003,-0.2400000000000002,100.0,1.0,1.0,210.59333333333333,0.0,0.0,0.0,0.0,0.0,0.0,0.0,8926.3,0.0,55.0,5.0,245.72333333333336,1.0,0.0,0.0,0.0,0.0,0.0,1.0,0.0,0.9540000000000006,0.9540000000000006,0.0,0.0,1.0,55.0,616.79921,10000.0,85.000001,85.000001,85.000001,85.000001,395.0,0.0,0.0,0.0,1.0,333.33500000000004,46.6,46.6,50.293,50.293,34.0,-25.33,28.137999999999998,-25.7,29.732,0.0,1782.201,-0.23500000000000032,100.0,32.236,32.501,40.472,41.16,0.0,0.0,100.0,0.0,0.0,0.0,0.0,3563.75,3525.2,4050.6666666666665,4225.4,304.0486666666667,303.347,315.143,314.47,21.9774,20.7038,22.232444444444443,21.5667,314.999998,314.999998,324.999988,324.999988,99.55742857142857,99.50898333333333,99.58691428571429,99.55411428571429,0.1160000000000001,-0.05274999999999985,-0.07799999999999985,0.15700000000000003,-0.05333333333332746,-0.047142857142851824,1.565,1.541,38.358999999999995,30.3985,39.953,35.792,55.732,36.4645,65.776,55.205,53.804,35.531,64.2495,53.368,53.086,35.0715,64.2755,52.716499999999996,-0.1215,-0.08650000000000002,0.102915,0.11183000000000001,0.0,213.76999999999998,213.765,210.59333333333333,210.59333333333333,0.0,0.0
20,0.0,0.0,0.0,1.0,1.0,0.0,0.0,1.0,0.0,100.0,1.0,1.1856,26.0,0.0,0.0,0.0,59.999996,0.0,26.0,26.0,26.0,26.0,0.0385,0.2459,0.00725,291.412,-2.7051,-2.5856666666666666,-1.5219,-1.5442,-208.51,215.7025,190.572125,0.0,0.0,0.0,0.0,0.040633333333333334,-5.498166666666667,-5.498166666666667,-0.7014,-1.01,0.028999999999999915,0.4849999999999999,68.397,0.02914285714285736,-0.3998333333333334,-0.21750000000000025,100.0,1.0,1.0,210.9766666666667,0.0,0.0,0.0,0.0,0.0,0.0,0.0,8942.6,0.0,55.0,5.0,246.20666666666665,0.0,0.0,0.0,0.0,0.0,0.0,0.0,0.0,1.004999999999999,1.004999999999999,0.0,0.0,0.0,55.0,616.79921,10000.0,85.000001,85.000001,85.000001,85.000001,395.0,0.0,0.0,0.0,1.0,333.33500000000004,47.318,47.318,49.973,49.973,34.0,-24.085,28.048,-24.788,29.674,0.0,1782.149,-0.23500000000000032,100.0,31.93,32.065,41.173,41.477000000000004,0.0,0.0,100.0,0.0,0.0,0.0,0.0,3368.5,3561.2,3893.6666666666665,4002.3,304.62033333333335,303.598,315.396,314.90825,21.9872,20.7101,22.244222222222223,21.5764,314.999998,314.999998,324.999988,324.999988,99.55745714285715,99.50898333333333,99.58705714285715,99.55425714285714,0.12775000000000025,-0.0442499999999999,-0.07733333333333325,0.15666666666666718,-0.03499999999999659,-0.05857142857143316,1.5305,1.5290000000000001,38.42,30.438000000000002,40.027,35.8525,55.727000000000004,36.507,65.7935,55.2575,53.798,35.570499999999996,64.2655,53.419,53.079,35.109,64.2875,52.7665,-0.115,-0.08899999999999997,0.105745,0.11354000000000002,0.0,214.12,214.16500000000002,210.9766666666667,210.9766666666667,0.0,0.0
21,0.0,0.0,0.0,1.0,1.0,0.0,0.0,1.0,0.0,100.0,1.0,1.1856,26.0,0.0,0.0,0.0,59.999996,0.0,26.0,26.0,26.0,26.0,0.00675,0.2632000000000001,-0.07655,291.702,-2.6695,-2.5924444444444443,-1.5873,-1.5035,-205.22,215.685,190.550375,0.0,0.0,0.0,0.0,0.04256666666666667,-5.498166666666667,-5.498166666666667,-0.7191000000000001,0.29633333333333334,0.012111111111110962,0.3780000000000001,68.519,0.023428571428571576,-0.39476666666666665,-0.25,100.0,1.0,1.0,211.53333333333333,0.0,0.0,0.0,0.0,0.0,0.0,0.0,8966.1,0.0,55.0,5.0,246.64333333333335,1.0,0.0,0.0,0.0,0.0,0.0,0.0,0.0,1.0530000000000008,1.0530000000000008,0.0,0.0,1.0,55.0,616.79921,10000.0,85.000001,85.000001,85.000001,85.000001,395.0,0.0,0.0,0.0,1.0,166.665,47.119,47.119,50.903,50.903,34.0,-24.65,28.524,-24.91,26.784,0.0,1782.102,-0.3200000000000003,100.0,32.131,32.071,40.66,41.031,0.0,0.0,100.0,0.0,0.0,0.0,0.0,3466.375,3556.7,3836.6666666666665,3852.1000000000004,304.27666666666664,303.62033333333335,315.6885,315.41425,21.9966,20.7161,22.255,21.5853,314.999998,314.999998,324.999988,324.999988,99.55747142857143,99.509,99.5872,99.5544,0.12650000000000006,-0.03499999999999992,-0.08499999999999996,0.14766666666666683,-0.045000000000001705,-0.05285714285714249,1.6465,1.6360000000000001,38.479,30.476,40.094,35.908,55.724000000000004,36.5475,65.8045,55.302,53.795,35.608000000000004,64.2745,53.462,53.074,35.144999999999996,64.2935,52.809,-0.125,-0.07850000000000001,0.11052000000000001,0.10250500000000001,0.0,214.54500000000002,214.54000000000002,211.53333333333333,211.53333333333333,0.0,0.0
22,0.0,0.0,0.0,1.0,1.0,0.0,0.0,1.0,0.0,100.0,1.0,1.1856,26.0,0.0,0.0,0.0,59.999996,0.0,26.0,26.0,26.0,26.0,0.03775,0.26990000000000003,0.012725,291.367,-2.7332,-2.641222222222222,-1.5833,-1.4876,-201.72,215.66750000000002,190.526625,0.0,0.0,0.0,0.0,0.0446,-5.498166666666667,-5.498166666666667,-0.7042,-0.031,0.01966666666666672,-0.47,68.653,0.0254285714285718,-0.3793,-0.2999999999999998,100.0,1.0,1.0,211.75666666666666,0.0,0.0,0.0,0.0,0.0,0.0,0.0,8975.7,0.0,55.0,5.0,247.12666666666667,0.0,0.0,0.0,0.0,0.0,0.0,0.0,0.0,1.1039999999999992,1.1039999999999992,0.0,0.0,0.0,55.0,616.79921,10000.0,85.000001,85.000001,85.000001,85.000001,395.0,0.0,0.0,0.0,1.0,333.33500000000004,47.318,47.318,50.018,50.018,34.0,-25.64,27.018,-27.506,28.79,0.0,1782.05,-0.35499999999999954,100.0,31.992,32.32,40.803,41.277,0.0,0.0,100.0,0.0,0.0,0.0,0.0,3457.375,3394.2,4080.1111111111113,4118.3,304.58866666666665,303.8426666666667,315.11975,314.70725,22.0065,20.7225,22.266777777777776,21.5949,314.999998,314.999998,324.999988,324.999988,99.55748571428572,99.509,99.58734285714286,99.55452857142858,0.1120000000000001,-0.05325000000000002,-0.09066666666666645,0.13700000000000045,-0.05333333333332746,-0.03857142857143003,1.545,1.542,38.541,30.5155,40.167,35.968,55.721000000000004,36.5905,65.821,55.3525,53.791,35.6475,64.2895,53.5115,53.069,35.183,64.3055,52.8575,-0.131,-0.07250000000000001,0.10402000000000002,0.10694500000000001,0.0,214.96,214.95499999999998,211.75666666666666,211.75666666666666,0.0,0.0
23,0.0,0.0,0.0,1.0,1.0,0.0,0.0,1.0,0.0,100.0,1.0,1.1856,26.0,0.0,0.0,0.0,59.999996,0.0,26.0,26.0,26.0,26.0,0.02925,0.26839999999999997,-0.0442,291.214,-2.6105,-2.5837777777777777,-1.6378,-1.4603000000000002,-198.01,215.6475,190.50175,0.0,0.0,0.0,0.0,0.046733333333333335,-5.498166666666667,-5.498166666666667,-0.7219,-0.057,0.02288888888888896,-0.625,68.78999999999999,0.027714285714286024,-0.4027333333333334,-0.23749999999999982,100.0,1.0,1.0,212.29333333333335,0.0,0.0,0.0,0.0,0.0,0.0,0.0,8998.3,0.0,55.0,5.0,247.62,1.0,0.0,0.0,0.0,0.0,0.0,0.0,0.0,1.1580000000000013,1.1580000000000013,0.0,0.0,1.0,55.0,616.79921,10000.0,85.000001,85.000001,85.000001,85.000001,395.0,0.0,0.0,0.0,1.0,166.665,46.539,46.539,50.674,50.674,34.0,-25.6425,27.72,-26.352,26.438000000000002,0.0,1781.998,-0.33499999999999996,100.0,32.306,32.474000000000004,40.836,41.436,0.0,0.0,100.0,0.0,0.0,0.0,0.0,3628.375,3514.4,3928.1111111111113,3913.4,303.8496666666667,303.528,315.536,315.23075,22.017,20.7294,22.27911111111111,21.6051,314.999998,314.999998,324.999988,324.999988,99.55751428571429,99.50901666666667,99.5875,99.5547,0.11925000000000008,-0.047250000000000014,-0.08499999999999996,0.13666666666666671,-0.04333333333332945,-0.044285714285713595,1.6115,1.604,38.605999999999995,30.558500000000002,40.244,36.032,55.718,36.6365,65.8365,55.4065,53.788,35.6905,64.303,53.5635,53.064,35.224000000000004,64.315,52.908500000000004,-0.1265,-0.07899999999999996,0.10043,0.1048,0.0,215.38,215.37,212.29333333333335,212.29333333333335,0.0,0.0
24,0.0,0.0,0.0,1.0,1.0,0.0,0.0,1.0,0.0,100.0,1.0,1.1856,26.0,0.0,0.0,0.0,59.999996,0.0,26.0,26.0,26.0,26.0,0.041875,0.2741,-0.031625,291.504,-2.6692,-2.5949999999999998,-1.5252,-1.5145000000000002,-194.70999999999998,215.6325,190.479125,0.0,0.0,0.0,0.0,0.04866666666666667,-5.498166666666667,-5.498166666666667,-0.7305,-0.4916666666666667,0.03111111111111109,-0.27,68.91499999999999,0.02928571428571436,-0.39686666666666665,-0.28500000000000014,100.0,1.0,1.0,212.5966666666667,0.0,0.0,0.0,0.0,0.0,0.0,0.0,9011.2,0.0,55.0,5.0,248.06666666666666,0.0,0.0,0.0,0.0,0.0,0.0,0.0,0.0,1.2059999999999995,1.2059999999999995,0.0,0.0,0.0,55.0,616.79921,10000.0,85.000001,85.000001,85.000001,85.000001,395.0,0.0,0.0,0.0,1.0,166.665,47.47,47.47,50.14,50.14,34.0,-23.9375,26.9,-26.018,28.324,0.0,1781.95,-0.3149999999999995,100.0,31.973,32.195,40.909,41.416,0.0,0.0,100.0,0.0,0.0,0.0,0.0,3381.0,3411.0,4000.3333333333335,3962.2,304.68233333333336,303.9026666666667,315.24225,315.0435,22.0262,20.7353,22.29,21.6141,314.999998,314.999998,324.999988,324.999988,99.55752857142858,99.50901666666667,99.58762857142857,99.55482857142857,0.12349999999999994,-0.04600000000000004,-0.08899999999999997,0.14766666666666683,-0.03999999999999915,-0.04285714285714448,1.5655000000000001,1.566,38.664,30.5955,40.312,36.088,55.714,36.676,65.85,55.4535,53.783,35.7265,64.315,53.6095,53.058,35.259,64.324,52.953,-0.13,-0.07450000000000001,0.10858000000000001,0.10662500000000001,0.0,215.73000000000002,215.755,212.5966666666667,212.5966666666667,0.0,0.0
25,0.0,0.0,0.0,1.0,1.0,0.0,0.0,1.0,0.0,100.0,1.0,1.1856,26.0,0.0,0.0,0.0,59.999996,0.0,26.0,26.0,26.0,26.0,0.03825,0.256,-0.0346,291.306,-2.7322,-2.5548888888888888,-1.5716,-1.4954,-191.39999999999998,215.6175,190.45525,0.0,0.0,0.0,0.0,0.0506,-5.498166666666667,-5.498166666666667,-0.7524000000000001,0.038,0.033666666666666734,-0.933,69.035,0.030714285714285694,-0.3983333333333334,-0.28749999999999964,100.0,1.0,1.0,213.07999999999998,0.0,0.0,0.0,0.0,0.0,0.0,0.0,9031.7,0.0,55.0,5.0,248.50333333333333,1.0,0.0,0.0,0.0,0.0,0.0,0.0,0.0,1.2540000000000013,1.2540000000000013,0.0,0.0,1.0,55.0,616.79921,10000.0,85.000001,85.000001,85.000001,85.000001,395.0,0.0,0.0,0.0,1.0,166.665,46.448,46.448,50.72,50.72,34.0,-27.037499999999998,29.17,-24.512,27.562,0.0,1781.901,-0.3650000000000002,100.0,31.951999999999998,32.429,40.675,41.189,0.0,0.0,100.0,0.0,0.0,0.0,0.0,3709.0,3681.8,3780.0,3894.0,303.788,303.05533333333335,315.8285,315.233,22.0353,20.7414,22.30077777777778,21.623,314.999998,314.999998,324.999988,324.999988,99.55754285714286,99.50903333333333,99.58775714285714,99.55497142857143,0.12849999999999984,-0.041749999999999954,-0.08766666666666634,0.15333333333333332,-0.046666666666666856,-0.054285714285711606,1.62,1.605,38.721000000000004,30.633499999999998,40.379999999999995,36.144,55.71,36.717,65.8615,55.499,53.778999999999996,35.7645,64.325,53.6535,53.052,35.295,64.3305,52.9965,-0.1355,-0.07000000000000006,0.10285000000000001,0.11269000000000001,0.0,216.11,216.14,213.07999999999998,213.07999999999998,0.0,0.0
26,0.0,0.0,0.0,1.0,1.0,0.0,0.0,1.0,0.0,100.0,1.0,1.1856,26.0,0.0,0.0,0.0,59.999996,0.0,26.0,26.0,26.0,26.0,0.047,0.27280000000000015,0.07062500000000001,290.329,-2.6673999999999998,-2.649888888888889,-1.5392000000000001,-1.5536,-187.66,215.60250000000002,190.428125,0.0,0.0,0.0,0.0,0.05276666666666666,-5.498166666666667,-5.498166666666667,-0.7200000000000001,0.279,0.02299999999999991,-0.5549999999999999,69.175,0.030857142857142694,-0.3808666666666667,-0.3324999999999996,100.0,1.0,1.0,213.23333333333335,0.0,0.0,0.0,0.0,0.0,0.0,0.0,9038.2,0.0,55.0,5.0,249.00666666666666,0.0,0.0,0.0,0.0,0.0,0.0,0.0,0.0,1.3079999999999998,1.3079999999999998,0.0,0.0,0.0,55.0,616.79921,10000.0,85.000001,85.000001,85.000001,85.000001,395.0,0.0,0.0,0.0,1.0,166.665,46.265,46.265,49.24,49.24,34.0,-25.575,27.904,-28.61,32.366,0.0,1781.848,-0.3949999999999996,100.0,32.752,32.995,41.212,41.749,0.0,0.0,100.0,0.0,0.0,0.0,0.0,3630.0,3438.7,4313.333333333333,4290.4,303.99266666666665,303.704,314.527,314.207,22.0459,20.7484,22.313111111111112,21.6333,314.999998,314.999998,324.999988,324.999988,99.55755714285715,99.50903333333333,99.58791428571429,99.55512857142857,0.1302500000000002,-0.045499999999999874,-0.08199999999999985,0.1503333333333332,-0.03999999999999915,-0.04999999999999716,1.49,1.475,38.787,30.677500000000002,40.457,36.208,55.71,36.763999999999996,65.87950000000001,55.5545,53.778999999999996,35.8085,64.341,53.707499999999996,53.049,35.337,64.3425,53.049,-0.14100000000000001,-0.07200000000000006,0.10262500000000001,0.11129000000000001,0.0,216.575,216.595,213.23333333333335,213.23333333333335,0.0,0.0
27,0.0,0.0,0.0,1.0,1.0,0.0,0.0,1.0,0.0,100.0,1.0,1.1856,26.0,0.0,0.0,0.0,59.999996,0.0,26.0,26.0,26.0,26.0,0.05075,0.24250000000000016,-0.051425000000000005,290.924,-2.708,-2.5940000000000003,-1.5937000000000001,-1.4992,-184.34,215.59,190.405,0.0,0.0,0.0,0.0,0.054700000000000006,-5.498166666666667,-5.498166666666667,-0.7488,-0.9123333333333334,0.025111111111111084,-0.8029999999999999,69.294,0.03314285714285736,-0.42123333333333335,-0.39749999999999996,100.0,1.0,1.0,213.78333333333333,0.0,0.0,0.0,0.0,0.0,0.0,0.0,9061.5,0.0,55.0,5.0,249.43666666666667,1.0,0.0,0.0,0.0,0.0,0.0,0.0,0.0,1.355999999999998,1.355999999999998,0.0,0.0,1.0,55.0,616.79921,10000.0,85.000001,85.000001,85.000001,85.000001,395.0,0.0,0.0,0.0,1.0,166.665,46.509,46.509,49.728,49.728,34.0,-25.125,27.932,-25.548,27.05,0.0,1781.8,-0.3700000000000001,100.0,32.41,32.939,41.566,42.036,0.0,0.0,100.0,0.0,0.0,0.0,0.0,3535.375,3539.3,3850.4444444444443,3836.1000000000004,304.3383333333333,303.4533333333333,315.57125,315.40125,22.055,20.7545,22.32422222222222,21.6424,314.999998,314.999998,324.999988,324.999988,99.55758571428571,99.50903333333333,99.58805714285714,99.55527142857143,0.1312500000000001,-0.050249999999999906,-0.08533333333333326,0.14933333333333287,-0.01833333333333087,-0.05857142857143316,1.5779999999999998,1.571,38.844,30.7155,40.525999999999996,36.265,55.707,36.805,65.894,55.602000000000004,53.775,35.8465,64.354,53.7535,53.044,35.3735,64.35249999999999,53.0945,-0.1385,-0.07750000000000012,0.11005000000000001,0.10640000000000001,0.0,216.86,216.925,213.78333333333333,213.78333333333333,0.0,0.0
28,0.0,0.0,0.0,1.0,1.0,0.0,0.0,1.0,0.0,100.0,1.0,1.1856,26.0,0.0,0.0,0.0,59.999996,0.0,26.0,26.0,26.0,26.0,0.054625,0.26550000000000007,-0.0621,290.97,-2.6347,-2.5815555555555556,-1.6071,-1.5284,-181.01,215.5775,190.381,0.0,0.0,0.0,0.0,0.05663333333333334,-5.498166666666667,-5.498166666666667,-0.7514000000000001,0.5926666666666667,0.014000000000000012,-0.7170000000000001,69.413,0.037285714285714366,-0.3975,-0.46249999999999947,100.0,1.0,1.0,214.23000000000002,0.0,0.0,0.0,0.0,0.0,0.0,0.0,9080.4,0.0,55.0,5.0,249.86,0.0,0.0,0.0,0.0,0.0,0.0,0.0,0.0,1.404,1.404,0.0,0.0,0.0,55.0,616.79921,10000.0,85.000001,85.000001,85.000001,85.000001,395.0,0.0,0.0,0.0,1.0,333.33500000000004,46.341,46.341,50.323,50.323,34.0,-24.724999999999998,28.564,-26.022,27.982,0.0,1781.75,-0.3799999999999999,100.0,32.637,32.895,40.995000000000005,41.632,0.0,0.0,100.0,0.0,0.0,0.0,0.0,3569.875,3528.1,3933.777777777778,3926.6000000000004,304.1023333333333,303.49033333333335,315.57475,315.22475,22.0642,20.7607,22.334888888888887,21.6513,314.999998,314.999998,324.999988,324.999988,99.5576,99.50903333333333,99.58818571428571,99.5554,0.13175000000000026,-0.03275000000000006,-0.0863333333333336,0.14966666666666661,-0.045000000000001705,-0.057142857142849834,1.6165,1.612,38.902,30.753999999999998,40.593,36.320499999999996,55.705,36.8465,65.9045,55.6465,53.772999999999996,35.8845,64.363,53.797,53.041,35.4095,64.358,53.137,-0.1315,-0.06550000000000011,0.11415000000000002,0.10161,0.0,217.3,217.34,214.23000000000002,214.23000000000002,0.0,0.0
29,0.0,0.0,0.0,1.0,1.0,0.0,0.0,1.0,0.0,100.0,1.0,1.1856,26.0,0.0,0.0,0.0,59.999996,0.0,26.0,26.0,26.0,26.0,0.05625,0.2471000000000001,-0.0071,290.787,-2.6191,-2.637666666666667,-1.5556,-1.5037,-177.47,215.5675,190.354625,0.0,0.0,0.0,0.0,0.0587,-5.498166666666667,-5.498166666666667,-0.7556,-0.6930000000000001,0.018777777777777782,0.8359999999999999,69.543,0.043428571428571594,-0.3992333333333334,-0.5199999999999996,100.0,1.0,1.0,214.44666666666666,0.0,0.0,0.0,0.0,0.0,0.0,0.0,9089.7,0.0,55.0,5.0,250.32999999999998,1.0,0.0,0.0,0.0,0.0,0.0,0.0,0.0,1.4549999999999983,1.4549999999999983,0.0,0.0,1.0,55.0,616.79921,10000.0,85.000001,85.000001,85.000001,85.000001,395.0,0.0,0.0,0.0,1.0,166.665,46.692,46.692,49.683,49.683,34.0,-23.037499999999998,29.446,-24.628,30.938000000000002,0.0,1781.701,-0.3799999999999999,100.0,32.465,32.619,41.47,41.821,0.0,0.0,100.0,0.0,0.0,0.0,0.0,3415.0,3584.9,3922.6666666666665,4135.2,304.446,303.455,315.36,314.70275,22.073900000000002,20.7671,22.346555555555554,21.661,314.999998,314.999998,324.999988,324.999988,99.55761428571428,99.50905,99.58832857142858,99.55554285714285,0.14000000000000012,-0.03424999999999989,-0.06066666666666665,0.16966666666666708,-0.036666666666668846,-0.04142857142856826,1.5394999999999999,1.514,38.962,30.7945,40.666,36.3815,55.701,36.8885,65.9215,55.698,53.768,35.923500000000004,64.378,53.847,53.034,35.447,64.3695,53.1855,-0.1295,-0.07350000000000012,0.10175500000000001,0.10925000000000001,0.0,217.675,217.69,214.44666666666666,214.44666666666666,0.0,0.0
30,0.0,0.0,0.0,1.0,1.0,0.0,0.0,1.0,0.0,100.0,1.0,1.1856,26.0,0.0,0.0,0.0,59.999996,0.0,26.0,26.0,26.0,26.0,0.060375,0.2399,0.04685,290.268,-2.6324,-2.524222222222222,-1.6211,-1.5592000000000001,-174.13,215.5575,190.329625,0.0,0.0,0.0,0.0,0.06063333333333334,-5.498166666666667,-5.498166666666667,-0.7564000000000001,0.803,0.016111111111110965,0.544,69.65899999999999,0.04514285714285737,-0.40203333333333335,-0.5499999999999998,100.0,1.0,1.0,214.92333333333335,0.0,0.0,0.0,0.0,0.0,0.0,0.0,9109.9,0.0,55.0,5.0,250.75333333333333,0.0,0.0,0.0,0.0,0.0,0.0,1.0,0.0,1.5030000000000001,1.5030000000000001,0.0,0.0,0.0,55.0,616.79921,10000.0,85.000001,85.000001,85.000001,85.000001,395.0,0.0,0.0,0.0,1.0,333.33500000000004,45.105000000000004,45.105000000000004,50.125,50.125,34.0,-24.655,30.102,-25.386,29.387999999999998,0.0,1781.651,-0.35499999999999954,100.0,33.364,33.425,41.206,41.771,0.0,0.0,100.0,0.0,0.0,0.0,0.0,3669.875,3750.0,3930.222222222222,3945.8,303.569,302.86566666666664,315.5915,315.1375,22.0833,20.7735,22.357333333333333,21.67,314.999998,314.999998,324.999988,324.999988,99.55764285714285,99.50905,99.58847142857142,99.5557,0.15249999999999986,-0.02949999999999986,-0.06733333333333347,0.16233333333333277,-0.041666666666671404,-0.05857142857143316,1.5819999999999999,1.57,39.021,30.8345,40.733999999999995,36.4375,55.702,36.932,65.9325,55.7445,53.769,35.963499999999996,64.388,53.891999999999996,53.033,35.4855,64.3755,53.2295,-0.1405,-0.07450000000000001,0.10944500000000001,0.10734,0.0,218.04000000000002,218.125,214.92333333333335,214.92333333333335,0.0,0.0
31,0.0,0.0,0.0,1.0,1.0,0.0,0.0,1.0,0.0,100.0,1.0,1.1856,26.0,0.0,0.0,0.0,59.999996,0.0,26.0,26.0,26.0,26.0,0.05025,0.23819999999999997,0.0441,289.841,-2.7252,-2.547888888888889,-1.5804,-1.4533,-170.57,215.5475,190.30375,0.0,0.0,0.0,0.0,0.0627,-5.498166666666667,-5.498166666666667,-0.7419,-0.46366666666666667,0.023111111111111082,-0.812,69.788,0.04871428571428593,-0.4073333333333334,-0.4325000000000001,100.0,1.0,1.0,215.13666666666666,0.0,0.0,0.0,0.0,0.0,0.0,0.0,9118.8,0.0,55.0,5.0,251.21666666666667,1.0,0.0,0.0,0.0,0.0,0.0,1.0,0.0,1.5539999999999985,1.5539999999999985,0.0,0.0,1.0,55.0,616.79921,10000.0,85.000001,85.000001,85.000001,85.000001,395.0,0.0,0.0,0.0,1.0,166.665,45.501999999999995,45.501999999999995,48.644999999999996,48.644999999999996,34.0,-25.6775,29.494,-27.204,29.584000000000003,0.0,1781.601,-0.3899999999999997,100.0,33.016,33.602000000000004,41.854,42.595,0.0,0.0,100.0,0.0,0.0,0.0,0.0,3642.25,3728.4,4128.0,4085.5,304.0323333333333,302.9626666666667,314.94925,314.69,22.0931,20.7802,22.36911111111111,21.6799,314.999998,314.999998,324.999988,324.999988,99.55765714285714,99.50906666666667,99.58862857142857,99.55584285714286,0.14175000000000004,-0.041749999999999954,-0.07233333333333336,0.15833333333333321,-0.03999999999999915,-0.03999999999999915,1.504,1.483,39.082,30.875999999999998,40.807,36.499,55.701,36.9765,65.9505,55.7975,53.766999999999996,36.004999999999995,64.4035,53.9435,53.03,35.525,64.388,53.28,-0.136,-0.08250000000000002,0.104455,0.10336000000000001,0.0,218.44,218.465,215.13666666666666,215.13666666666666,0.0,0.0
32,0.0,0.0,0.0,1.0,1.0,0.0,0.0,1.0,0.0,100.0,1.0,1.1856,26.0,0.0,0.0,0.0,59.999996,0.0,26.0,26.0,26.0,26.0,0.06025,0.26670000000000016,-0.02895,290.268,-2.6444,-2.613,-1.5622,-1.5126000000000002,-167.01,215.54000000000002,190.27825,0.0,0.0,0.0,0.0,0.06476666666666667,-5.498166666666667,-5.498166666666667,-0.7579,-0.18433333333333335,0.0031111111111110645,0.31099999999999994,69.912,0.04928571428571438,-0.41673333333333334,-0.5424999999999995,100.0,1.0,1.0,215.63,0.0,0.0,0.0,0.0,0.0,0.0,0.0,9139.7,0.0,55.0,5.0,251.66,0.0,0.0,0.0,0.0,0.0,0.0,1.0,0.0,1.6050000000000004,1.6050000000000004,0.0,0.0,0.0,55.0,616.79921,10000.0,85.000001,85.000001,85.000001,85.000001,395.0,0.0,0.0,0.0,1.0,166.665,45.929,45.929,49.423,49.423,34.0,-23.0525,29.97,-24.404,31.104000000000003,0.0,1781.551,-0.41500000000000004,100.0,33.114,33.325,41.765,42.325,0.0,0.0,100.0,0.0,0.0,0.0,0.0,3475.0,3623.5,3922.1111111111113,4159.9,304.24033333333335,303.36966666666666,315.397,314.73775,22.102899999999998,20.7869,22.380555555555556,21.6895,314.999998,314.999998,324.999988,324.999988,99.55768571428571,99.50906666666667,99.58875714285715,99.55598571428571,0.1552500000000001,-0.025499999999999856,-0.05766666666666653,0.1726666666666672,-0.015000000000000568,-0.057142857142849834,1.573,1.559,39.143,30.918,40.879000000000005,36.559,55.699,37.0205,65.9635,55.847,53.765,36.046,64.41499999999999,53.9915,53.025999999999996,35.564,64.3955,53.327,-0.1405,-0.08200000000000007,0.10498,0.10940000000000001,0.0,218.79000000000002,218.85000000000002,215.63,215.63,0.0,0.0
33,0.0,0.0,0.0,1.0,1.0,0.0,0.0,1.0,0.0,100.0,1.0,1.1856,26.0,0.0,0.0,0.0,59.999996,0.0,26.0,26.0,26.0,26.0,0.0535,0.24530000000000007,-0.058300000000000005,290.604,-2.6776,-2.6066666666666665,-1.5712000000000002,-1.5468000000000002,-163.64999999999998,215.535,190.25325,0.0,0.0,0.0,0.0,0.06673333333333334,-5.498166666666667,-5.498166666666667,-0.7676000000000001,-0.2603333333333333,0.003666666666666707,1.1550000000000002,70.029,0.04899999999999993,-0.40443333333333337,-0.5225,100.0,1.0,1.0,216.01,0.0,0.0,0.0,0.0,0.0,0.0,0.0,9155.8,0.0,55.0,5.0,252.08333333333334,1.0,0.0,0.0,0.0,0.0,0.0,1.0,0.0,1.6529999999999987,1.6529999999999987,0.0,0.0,1.0,55.0,616.79921,10000.0,85.000001,85.000001,85.000001,85.000001,395.0,0.0,0.0,0.0,1.0,166.665,46.265,46.265,49.789,49.789,34.0,-23.325,29.22,-24.874,30.332,0.0,1781.502,-0.41999999999999993,100.0,32.925,33.005,41.578,42.101,0.0,0.0,100.0,0.0,0.0,0.0,0.0,3471.875,3579.0,3898.6666666666665,4042.8,304.32466666666664,303.53133333333335,315.49625,314.977,22.112,20.793,22.391333333333332,21.6985,314.999998,314.999998,324.999988,324.999988,99.5577,99.50908333333334,99.5889,99.55612857142857,0.15500000000000025,-0.03049999999999997,-0.06833333333333336,0.168333333333333,-0.05666666666667197,-0.03714285714285381,1.561,1.565,39.2,30.956,40.946,36.6155,55.697,37.06,65.976,55.891999999999996,53.763,36.082499999999996,64.426,54.0355,53.022,35.599000000000004,64.403,53.37,-0.146,-0.08099999999999996,0.10859,0.1087,0.0,219.185,219.2,216.01,216.01,0.0,0.0
34,0.0,0.0,0.0,1.0,1.0,0.0,0.0,1.0,0.0,100.0,1.0,1.1856,26.0,0.0,0.0,0.0,59.999996,0.0,26.0,26.0,26.0,26.0,0.06225,0.24880000000000013,-0.07730000000000001,290.863,-2.6209,-2.603666666666667,-1.6085,-1.4804000000000002,-159.87,215.5325,190.2235,0.0,0.0,0.0,0.0,0.06893333333333335,-5.498166666666667,-5.498166666666667,-0.7963,-0.8250000000000001,0.03055555555555567,0.9750000000000001,70.161,0.05028571428571427,-0.40973333333333334,-0.5449999999999999,100.0,1.0,1.0,216.39666666666668,0.0,0.0,0.0,0.0,0.0,0.0,0.0,9172.3,0.0,55.0,5.0,252.55666666666667,0.0,0.0,0.0,0.0,0.0,0.0,1.0,0.0,1.7070000000000007,1.7070000000000007,0.0,0.0,0.0,55.0,616.79921,10000.0,85.000001,85.000001,85.000001,85.000001,395.0,0.0,0.0,0.0,1.0,166.665,46.707,46.707,50.079,50.079,34.0,-22.4425,29.57,-24.683999999999997,29.934,0.0,1781.449,-0.41000000000000014,100.0,32.596000000000004,32.672,41.375,42.138,0.0,0.0,100.0,0.0,0.0,0.0,0.0,3396.875,3589.2,3877.6666666666665,4059.9,304.5323333333333,303.5846666666667,315.58025,314.93925,22.1222,20.7998,22.403444444444446,21.7087,314.999998,314.999998,324.999988,324.999988,99.55772857142857,99.50908333333334,99.58905714285714,99.55628571428572,0.14924999999999988,-0.02224999999999988,-0.06000000000000005,0.17400000000000038,-0.030000000000001137,-0.048571428571428044,1.58,1.557,39.263999999999996,30.999000000000002,41.021,36.6795,55.694,37.1035,65.989,55.945,53.759,36.1225,64.437,54.087,53.016,35.6375,64.4105,53.420500000000004,-0.1335,-0.07550000000000012,0.10496000000000001,0.10998000000000001,0.0,219.565,219.60000000000002,216.39666666666665,216.39666666666668,0.0,0.0
35,0.0,0.0,0.0,1.0,1.0,0.0,0.0,1.0,0.0,100.0,1.0,1.1856,26.0,0.0,0.0,0.0,59.999996,0.0,26.0,26.0,26.0,26.0,0.060125,0.23950000000000005,-0.0984,290.833,-2.6752000000000002,-2.546444444444444,-1.6024,-1.4711,-156.49,215.53,190.195375,0.0,0.0,0.0,0.0,0.0709,-5.498166666666667,-5.498166666666667,-0.8319000000000001,-0.23700000000000002,0.009333333333333194,-0.127,70.276,0.05314285714285738,-0.41416666666666674,-0.5300000000000002,100.0,1.0,1.0,216.84,0.0,0.0,0.0,0.0,0.0,0.0,0.0,9191.0,0.0,55.0,5.0,252.97,1.0,0.0,0.0,0.0,0.0,0.0,1.0,0.0,1.754999999999999,1.754999999999999,0.0,0.0,1.0,55.0,616.79921,10000.0,85.000001,85.000001,85.000001,85.000001,395.0,0.0,0.0,0.0,1.0,333.33500000000004,46.188,46.188,49.744,49.744,34.0,-23.6225,31.096,-23.543999999999997,28.094,0.0,1781.4,-0.2649999999999997,100.0,32.435,33.012,41.177,41.684,0.0,0.0,100.0,0.0,0.0,0.0,0.0,3451.625,3828.3,3827.1111111111113,3843.5,304.3586666666667,302.76933333333335,315.63675,315.43675,22.1312,20.8061,22.414,21.7176,314.999998,314.999998,324.999988,324.999988,99.55774285714286,99.50908333333334,99.5892,99.55642857142857,0.14650000000000007,-0.026499999999999968,-0.0476666666666663,0.1806666666666672,-0.03999999999999915,-0.030000000000001137,1.6219999999999999,1.592,39.32,31.0385,41.088,36.735,55.69,37.144999999999996,66.0,55.988,53.754000000000005,36.161,64.4465,54.1285,53.01,35.6745,64.4165,53.461,-0.128,-0.08200000000000007,0.10305,0.10746000000000001,0.0,219.93,219.95,216.84,216.84,0.0,0.0
36,0.0,0.0,0.0,1.0,1.0,0.0,0.0,1.0,0.0,100.0,1.0,1.1856,26.0,0.0,0.0,0.0,59.999996,0.0,26.0,26.0,26.0,26.0,0.07,0.24460000000000015,0.0551,290.115,-2.6008,-2.641,-1.5524,-1.5122,-153.12,215.5275,190.165875,0.0,0.0,0.0,0.0,0.07283333333333335,-5.498166666666667,-5.498166666666667,-0.8169000000000001,0.11233333333333333,-0.02911111111111131,0.32299999999999995,70.395,0.04885714285714293,-0.3911333333333334,-0.3724999999999996,100.0,1.0,1.0,216.98333333333335,0.0,0.0,0.0,0.0,0.0,0.0,0.0,9197.1,0.0,55.0,5.0,253.39666666666665,0.0,0.0,0.0,0.0,0.0,0.0,1.0,0.0,1.8030000000000008,1.8030000000000008,0.0,0.0,0.0,55.0,616.79921,10000.0,85.000001,85.000001,85.000001,85.000001,395.0,0.0,0.0,0.0,1.0,166.665,45.944,45.944,49.423,49.423,34.0,-22.669999999999998,29.502,-26.142,32.864000000000004,0.0,1781.352,-0.17999999999999972,100.0,33.136,33.194,41.400999999999996,41.934,0.0,0.0,100.0,0.0,0.0,0.0,0.0,3458.875,3610.0,4111.555555555556,4321.7,304.17033333333336,303.34433333333334,314.9915,314.31875,22.1404,20.8125,22.424777777777777,21.7267,314.999998,314.999998,324.999988,324.999988,99.55775714285714,99.5091,99.58932857142857,99.55658571428572,0.15375000000000005,-0.04049999999999998,-0.06099999999999994,0.17033333333333278,-0.046666666666666856,-0.03999999999999915,1.4985,1.491,39.378,31.078,41.155,36.7915,55.689,37.1865,66.013,56.035,53.753,36.1995,64.4585,54.175,53.007,35.7115,64.425,53.5065,-0.1275,-0.09400000000000008,0.10973500000000001,0.10536500000000001,0.0,220.35000000000002,220.34,216.98333333333335,216.98333333333335,0.0,0.0
