,ABS Active,ABS Enabled,AID Allow Tire Blankets,AID Auto Blip,AID Auto Clutch,AID Auto Shift,AID Fuel Rate,AID Ideal Line,AID Mech Damage,AID Stability,AID Tire Wear Rate,Air Density,Air Temp,Ballast,Best Lap Delta,Best Lap Time,Brake Bias,Brake Pos,Brake Temp FL,Brake Temp FR,Brake Temp RL,Brake Temp RR,CG Accel Lateral,CG Accel Longitudinal,CG Accel Vertical,CG Height,Camber FL,Camber FR,Camber RL,Camber RR,Car Coord X,Car Coord Y,Car Coord Z,Car Damage Front,Car Damage Left,Car Damage Rear,Car Damage Right,Car Pos Norm,Caster FL,Caster FR,Chassis Pitch Angle,Chassis Pitch Rate,Chassis Roll Angle,Chassis Roll Rate,Chassis Velocity X,Chassis Velocity Y,Chassis Velocity Z,Chassis Yaw Rate,Clutch Pos,DRS Active,DRS Available,Drive Train Speed,ERS Heat Charging,ERS Is Charging,ERS Max Energy,ERS Power Level,ERS Recovery Level,Engine Brake Setting,Engine Limiter,Engine RPM,Flags,Fuel Level,Gear,Ground Speed,HR Sample Clock,In Pit,KERS Charge,KERS Deployed Energy,KERS Input,KERS Max Energy,LR Sample Clock,Lap Invalidated,Lap Time,Lap Time2,Last Lap Time,Last Sector Time,MR Sample Clock,Max Fuel,Max Power,Max RPM,Max Sus Travel FL,Max Sus Travel FR,Max Sus Travel RL,Max Sus Travel RR,Max Torque,Max Turbo Boost,Num Tires Off Track,Penalties Enabled,Position,Raw Data Sample Rate,Ride Height FL,Ride Height FR,Ride Height RL,Ride Height RR,Road Temp,Self Align Torque FL,Self Align Torque FR,Self Align Torque RL,Self Align Torque RR,Session Lap Count,Session Time Left,Steering Angle,Surface Grip,Suspension Travel FL,Suspension Travel FR,Suspension Travel RL,Suspension Travel RR,TC Active,TC Enabled,Throttle Pos,Tire Dirt Level FL,Tire Dirt Level FR,Tire Dirt Level RL,Tire Dirt Level RR,Tire Load FL,Tire Load FR,Tire Load RL,Tire Load RR,Tire Loaded Radius FL,Tire Loaded Radius FR,Tire Loaded Radius RL,Tire Loaded Radius RR,Tire Pressure FL,Tire Pressure FR,Tire Pressure RL,Tire Pressure RR,Tire Radius FL,Tire Radius FR,Tire Radius RL,Tire Radius RR,Tire Rubber Grip FL,Tire Rubber Grip FR,Tire Rubber Grip RL,Tire Rubber Grip RR,Tire Slip Angle FL,Tire Slip Angle FR,Tire Slip Angle RL,Tire Slip Angle RR,Tire Slip Ratio FL,Tire Slip Ratio FR,Tire Slip Ratio RL,Tire Slip Ratio RR,Tire Temp Core FL,Tire Temp Core FR,Tire Temp Core RL,Tire Temp Core RR,Tire Temp Inner FL,Tire Temp Inner FR,Tire Temp Inner RL,Tire Temp Inner RR,Tire Temp Middle FL,Tire Temp Middle FR,Tire Temp Middle RL,Tire Temp Middle RR,Tire Temp Outer FL,Tire Temp Outer FR,Tire Temp Outer RL,Tire Temp Outer RR,Toe In FL,Toe In FR,Toe In RL,Toe In RR,Turbo Boost,Wheel Angular Speed FL,Wheel Angular Speed FR,Wheel Angular Speed RL,Wheel Angular Speed RR,Wind Direction,Wind Speed
0,0.0,0.0,0.0,1.0,1.0,0.0,0.0,1.0,0.0,100.0,1.0,1.1856,26.0,0.0,0.0,0.0,59.99999,0.0,26.0,26.0,26.0,26.0,-0.036666666666666625,0.3033000000000001,0.15653333333333333,291.611,-2.6713,-2.5454444444444446,-1.5072,-1.483111111111111,-275.69,215.73000000000002,190.98575,0.0,0.0,0.0,0.0,0.0015999999999999348,-5.498166666666667,-5.498166666666667,-0.7507,1.6156666666666668,-0.001777777777777878,-0.565,65.60300000000001,-0.029666666666666508,-0.4290666666666667,0.3450000000000002,100.0,1.0,1.0,202.79333333333335,0.0,0.0,0.0,0.0,0.0,0.0,0.0,8595.6,0.0,55.0,5.0,236.14666666666668,0.0,0.0,0.0,0.0,0.0,0.0,0.0,0.0,0.0030000000000001137,0.0030000000000001137,0.0,0.0,0.0,55.0,616.79921,10000.0,85.0,85.0,85.0,85.0,395.0,0.0,0.0,0.0,1.0,20.0,43.762,43.762,52.093,52.093,34.0,-34.1325,34.492,-25.23,21.8075,0.0,1781.9766666666667,0.3700000000000001,100.0,32.618,32.524,38.285,38.085,0.0,0.0,100.0,0.0,0.0,0.0,0.0,3994.75,4853.7,3713.375,3684.7,302.713,299.78,315.983,315.73975,21.823625,20.6257,22.05525,21.408444444444445,314.99999,314.99999,324.99998,324.99998,99.55862857142857,99.50945,99.58707142857143,99.55257142857143,0.03633333333333333,-0.10933333333333328,-0.14333333333333353,0.07766666666666655,-0.05666666666667197,-0.046666666666666856,1.705,1.7035,37.397999999999996,29.911,38.845,34.803,56.403999999999996,36.166,66.422,54.7465,54.446,35.2535,64.906,52.912,53.742000000000004,34.8065,65.0025,52.2685,-0.0825,-0.1335,0.09730000000000001,0.10403000000000001,0.0,205.56,205.505,202.79333333333335,202.79333333333335,0.0,0.0
1,0.0,0.0,0.0,1.0,1.0,0.0,0.0,1.0,0.0,100.0,1.0,1.1856,26.0,0.0,0.0,0.0,59.999996,0.0,26.0,26.0,26.0,26.0,-0.09999999999999998,0.32140000000000013,0.1452,290.619,-2.5783,-2.616111111111111,-1.5293,-1.3416666666666668,-272.34,215.745,190.9655,0.0,0.0,0.0,0.0,0.0035333333333333883,-5.498166666666667,-5.498166666666667,-0.6458,-0.772,-0.04211111111111121,-0.21099999999999985,65.757,-0.03516666666666657,-0.3751333333333334,0.8875000000000002,100.0,1.0,1.0,202.53,0.0,0.0,0.0,0.0,0.0,0.0,0.0,8584.5,0.0,55.0,5.0,236.69666666666666,1.0,0.0,0.0,0.0,0.0,0.0,0.0,0.0,0.053999999999998494,0.053999999999998494,0.0,0.0,1.0,55.0,616.79921,10000.0,85.000001,85.000001,85.000001,85.000001,395.0,0.0,0.0,0.0,1.0,333.33500000000004,47.15,47.15,49.927,49.927,34.0,-26.2825,18.996,-36.768,28.87,0.0,1781.9244444444444,0.4400000000000004,100.0,33.069,32.702,40.391,40.649,0.0,0.0,100.0,0.0,0.0,0.0,0.0,3335.375,2950.8,4598.375,5028.700000000001,304.5966666666667,305.37733333333335,313.6675,312.1275,21.834125,20.6319,22.06775,21.418444444444443,314.999998,314.999998,324.999988,324.999988,99.55864285714286,99.50946666666667,99.58721428571428,99.55271428571429,0.04933333333333367,-0.1396666666666666,-0.16999999999999993,0.044333333333333336,-0.021666666666668277,-0.03999999999999915,1.3395000000000001,1.3735,37.463,29.9495,38.924,34.864999999999995,56.397999999999996,36.212,66.4455,54.804,54.439,35.2965,64.92699999999999,52.968,53.733999999999995,34.8475,65.0205,52.323,-0.0745,-0.14400000000000002,0.115415,0.09756500000000001,0.0,206.025,205.97500000000002,202.53,202.53,0.0,0.0
2,0.0,0.0,0.0,1.0,1.0,0.0,0.0,1.0,0.0,100.0,1.0,1.1856,26.0,0.0,0.0,0.0,59.999996,0.0,26.0,26.0,26.0,26.0,-0.09366666666666656,0.2670000000000001,-0.11023333333333334,292.175,-2.5569,-2.586888888888889,-1.5009000000000001,-1.495888888888889,-268.98,215.7575,190.946875,0.0,0.0,0.0,0.0,0.005499999999999949,-5.498166666666667,-5.498166666666667,-0.737,0.201,-0.0171111111111113,1.539,65.884,-0.040999999999999925,-0.4629333333333333,1.0975000000000001,100.0,1.0,1.0,203.92000000000002,0.0,0.0,0.0,0.0,0.0,0.0,0.0,8643.4,0.0,55.0,5.0,237.16,0.0,0.0,0.0,0.0,0.0,0.0,0.0,0.0,0.10500000000000043,0.10500000000000043,0.0,0.0,0.0,55.0,616.79921,10000.0,85.000001,85.000001,85.000001,85.000001,395.0,0.0,0.0,0.0,1.0,166.665,45.379999999999995,45.379999999999995,53.268,53.268,34.0,-32.445,22.466,-23.747999999999998,16.6775,0.0,1781.8755555555556,0.6399999999999997,100.0,33.387,32.613,40.104,39.719,0.0,0.0,100.0,0.0,0.0,0.0,0.0,3877.75,3499.7,3354.75,3168.1,303.0323333333333,303.5233333333333,316.755,317.04575,21.84475,20.637999999999998,22.07975,21.427555555555557,314.999998,314.999998,324.999988,324.999988,99.55864285714286,99.50948333333334,99.58735714285714,99.55284285714286,0.022666666666666835,-0.14966666666666661,-0.19099999999999984,0.046666666666666856,-0.07166666666666544,-0.05666666666667197,1.8185,1.8555000000000001,37.53,29.987499999999997,38.998999999999995,34.922,56.391999999999996,36.257999999999996,66.4575,54.843,54.433,35.338499999999996,64.937,53.0055,53.727000000000004,34.8875,65.0275,52.3605,-0.0615,-0.149,0.10948500000000001,0.10829000000000001,0.0,206.45,206.32999999999998,203.92000000000002,203.92000000000002,0.0,0.0
3,0.0,0.0,0.0,1.0,1.0,0.0,0.0,1.0,0.0,100.0,1.0,1.1856,26.0,0.0,0.0,0.0,59.999996,0.0,26.0,26.0,26.0,26.0,-0.10877777777777786,0.28049999999999997,-0.03146666666666667,291.534,-2.5829,-2.612222222222222,-1.4906000000000001,-1.4574444444444443,-265.81,215.76749999999998,190.928,0.0,0.0,0.0,0.0,0.007333333333333303,-5.498166666666667,-5.498166666666667,-0.6756,0.7106666666666667,0.0009999999999998899,-1.9900000000000002,66.026,-0.05766666666666653,-0.3907333333333334,1.0475000000000003,100.0,1.0,1.0,203.76,0.0,0.0,0.0,0.0,0.0,0.0,0.0,8636.6,0.0,55.0,5.0,237.66666666666669,1.0,0.0,0.0,0.0,0.0,0.0,0.0,0.0,0.1529999999999987,0.1529999999999987,0.0,0.0,1.0,55.0,616.79921,10000.0,85.000001,85.000001,85.000001,85.000001,395.0,0.0,0.0,0.0,1.0,166.665,46.539,46.539,50.537,50.537,34.0,-28.52,21.136,-33.162,22.775,0.0,1781.8277777777778,0.6500000000000004,100.0,33.046,32.698,39.964,39.775999999999996,0.0,0.0,100.0,0.0,0.0,0.0,0.0,3427.875,3344.9,4277.25,3983.5,304.487,303.98566666666665,314.57475,314.881,21.854625,20.6439,22.091124999999998,21.436555555555557,314.999998,314.999998,324.999988,324.999988,99.55865714285714,99.5095,99.58748571428572,99.55298571428571,0.016999999999999904,-0.15933333333333333,-0.18766666666666643,0.046666666666666856,-0.045000000000001705,-0.02499999999999858,1.4935,1.556,37.591,30.0245,39.069,34.979,56.382999999999996,36.305,66.471,54.8925,54.424,35.382,64.9495,53.0535,53.717,34.929,65.0365,52.4075,-0.057,-0.1585,0.10423,0.112225,0.0,206.91500000000002,206.79500000000002,203.76,203.76,0.0,0.0
4,0.0,0.0,0.0,1.0,1.0,0.0,0.0,1.0,0.0,100.0,1.0,1.1856,26.0,0.0,0.0,0.0,59.999996,0.0,26.0,26.0,26.0,26.0,-0.12744444444444447,0.26639999999999997,-0.05443333333333334,291.87,-2.6018,-2.693888888888889,-1.4296,-1.573888888888889,-262.44,215.775,190.908625,0.0,0.0,0.0,0.0,0.009299999999999975,-5.498166666666667,-5.498166666666667,-0.7015,-0.8776666666666666,-0.0555555555555558,-0.03500000000000014,66.16499999999999,-0.07416666666666627,-0.42986666666666673,1.3925,100.0,1.0,1.0,204.33333333333331,0.0,0.0,0.0,0.0,0.0,0.0,0.0,8660.9,0.0,55.0,5.0,238.16666666666669,0.0,0.0,0.0,0.0,0.0,0.0,0.0,0.0,0.20400000000000063,0.20400000000000063,0.0,0.0,0.0,55.0,616.79921,10000.0,85.000001,85.000001,85.000001,85.000001,395.0,0.0,0.0,0.0,1.0,333.33500000000004,46.478,46.478,51.407,51.407,34.0,-31.049999999999997,22.43,-29.55,20.9375,0.0,1781.7755555555555,0.6000000000000005,100.0,32.907,32.034,40.735,39.723,0.0,0.0,100.0,0.0,0.0,0.0,0.0,3642.625,3418.5,3902.25,3640.8,303.71666666666664,304.00933333333336,315.40275,315.83025,21.865,20.65,22.103375,21.44611111111111,314.999998,314.999998,324.999988,324.999988,99.55865714285714,99.50951666666667,99.58762857142857,99.55312857142857,0.016000000000000014,-0.15666666666666673,-0.2073333333333336,0.03633333333333333,-0.03499999999999659,-0.04333333333332945,1.5855000000000001,1.6540000000000001,37.657,30.0625,39.146,35.038,56.373000000000005,36.3515,66.489,54.9405,54.414,35.425,64.96549999999999,53.0995,53.706,34.9705,65.0495,52.4525,-0.051500000000000004,-0.1595,0.10834,0.10862500000000001,0.0,207.3,207.18,204.33333333333331,204.33333333333331,0.0,0.0
5,0.0,0.0,0.0,1.0,1.0,0.0,0.0,1.0,0.0,100.0,1.0,1.1856,26.0,0.0,0.0,0.0,59.999996,0.0,26.0,26.0,26.0,26.0,-0.1306666666666666,0.2966,-0.0275,292.145,-2.6257,-2.656,-1.476,-1.576,-258.87,215.78,190.887375,0.0,0.0,0.0,0.0,0.011366666666666525,-5.498166666666667,-5.498166666666667,-0.7079000000000001,0.4663333333333333,-0.05255555555555569,0.782,66.312,-0.09333333333333327,-0.41573333333333334,1.245,100.0,1.0,1.0,204.85666666666668,0.0,0.0,0.0,0.0,0.0,0.0,0.0,8683.1,0.0,55.0,5.0,238.69666666666666,1.0,0.0,0.0,0.0,0.0,0.0,0.0,0.0,0.2579999999999991,0.2579999999999991,0.0,0.0,1.0,55.0,616.79921,10000.0,85.000001,85.000001,85.000001,85.000001,395.0,0.0,0.0,0.0,1.0,166.665,46.631,46.631,51.987,51.987,34.0,-31.055,22.566,-29.318,21.2,0.0,1781.7233333333334,0.375,100.0,32.924,31.822,40.322,39.111000000000004,0.0,0.0,100.0,0.0,0.0,0.0,0.0,3612.5,3435.5,3810.875,3792.8,303.75333333333333,303.9533333333333,315.66725,315.52975,21.87625,20.6565,22.116,21.45588888888889,314.999998,314.999998,324.999988,324.999988,99.55865714285714,99.50955,99.58778571428572,99.55325714285715,0.016666666666666607,-0.14866666666666672,-0.21566666666666645,0.02133333333333365,-0.03333333333333144,-0.036666666666668846,1.645,1.6705,37.727000000000004,30.1035,39.224999999999994,35.099999999999994,56.366,36.4015,66.504,54.9875,54.406,35.471000000000004,64.9785,53.1455,53.697,35.013999999999996,65.059,52.4975,-0.079,-0.1265,0.10327000000000001,0.11315000000000001,0.0,207.76,207.67000000000002,204.85666666666668,204.85666666666668,0.0,0.0
6,0.0,0.0,0.0,1.0,1.0,0.0,0.0,1.0,0.0,100.0,1.0,1.1856,26.0,0.0,0.0,0.0,59.999996,0.0,26.0,26.0,26.0,26.0,-0.14377777777777778,0.2916000000000001,0.0076,291.901,-2.5638,-2.7254444444444443,-1.521,-1.5478888888888889,-255.68,215.7825,190.867875,0.0,0.0,0.0,0.0,0.01323333333333332,-5.498166666666667,-5.498166666666667,-0.6967,-0.13266666666666665,-0.0644444444444443,0.641,66.445,-0.09399999999999986,-0.4039666666666667,0.9700000000000002,100.0,1.0,1.0,205.11,0.0,0.0,0.0,0.0,0.0,0.0,0.0,8693.9,0.0,55.0,5.0,239.17666666666668,0.0,0.0,0.0,0.0,0.0,0.0,0.0,0.0,0.30600000000000094,0.30600000000000094,0.0,0.0,0.0,55.0,616.79921,10000.0,85.000001,85.000001,85.000001,85.000001,395.0,0.0,0.0,0.0,1.0,166.665,46.844,46.844,51.254,51.254,34.0,-30.695,22.154,-32.454,21.8175,0.0,1781.6744444444444,0.20999999999999996,100.0,32.837,31.659,40.604,39.253,0.0,0.0,100.0,0.0,0.0,0.0,0.0,3590.75,3374.2,4047.875,3892.9,303.8066666666667,304.12966666666665,315.052,315.2655,21.886125,20.6623,22.127375,21.46488888888889,314.999998,314.999998,324.999988,324.999988,99.55865714285714,99.50956666666667,99.58791428571429,99.55338571428571,0.006666666666666821,-0.16300000000000003,-0.21333333333333337,0.022666666666666835,-0.02833333333332888,-0.054999999999999716,1.5675,1.61,37.788,30.139499999999998,39.296,35.156,56.357,36.445499999999996,66.5195,55.033500000000004,54.397999999999996,35.5115,64.9925,53.19,53.687,35.053,65.07,52.541,-0.08,-0.1285,0.107575,0.107965,0.0,208.16500000000002,208.07999999999998,205.11,205.11,0.0,0.0
7,0.0,0.0,0.0,1.0,1.0,0.0,0.0,1.0,0.0,100.0,1.0,1.1856,26.0,0.0,0.0,0.0,59.999996,0.0,26.0,26.0,26.0,26.0,-0.10433333333333339,0.2731000000000001,0.0009333333333333334,291.87,-2.5313,-2.7186666666666666,-1.4781,-1.594,-252.49,215.78,190.848625,0.0,0.0,0.0,0.0,0.015066666666666562,-5.498166666666667,-5.498166666666667,-0.7064,0.060333333333333336,-0.05444444444444452,1.166,66.574,-0.09066666666666645,-0.4200333333333333,0.8399999999999999,100.0,1.0,1.0,205.59333333333333,0.0,0.0,0.0,0.0,0.0,0.0,0.0,8714.3,0.0,55.0,5.0,239.64333333333332,1.0,0.0,0.0,0.0,0.0,0.0,0.0,0.0,0.3539999999999992,0.3539999999999992,0.0,0.0,1.0,55.0,616.79921,10000.0,85.000001,85.000001,85.000001,85.000001,395.0,0.0,0.0,0.0,1.0,166.665,46.341,46.341,51.743,51.743,34.0,-29.61,23.939999999999998,-29.58,21.53,0.0,1781.6266666666666,-0.03000000000000025,100.0,33.112,31.883,40.583,39.324,0.0,0.0,100.0,0.0,0.0,0.0,0.0,3651.125,3462.9,3831.125,3784.3,303.601,303.817,315.56225,315.50125,21.896125,20.6681,22.13875,21.47388888888889,314.999998,314.999998,324.999988,324.999988,99.55867142857143,99.50958333333334,99.58805714285714,99.55352857142857,0.03299999999999992,-0.1399999999999999,-0.20933333333333337,0.020333333333333314,-0.03499999999999659,-0.07166666666666544,1.5955,1.6255,37.849999999999994,30.176000000000002,39.367000000000004,35.211,56.351,36.49,66.53399999999999,55.078,54.391999999999996,35.5525,65.0055,53.233000000000004,53.68,35.092,65.08,52.583,-0.109,-0.10200000000000001,0.10300000000000001,0.10517000000000001,0.0,208.54500000000002,208.485,205.59333333333333,205.59333333333333,0.0,0.0
8,0.0,0.0,0.0,1.0,1.0,0.0,0.0,1.0,0.0,100.0,1.0,1.1856,26.0,0.0,0.0,0.0,59.999996,0.0,26.0,26.0,26.0,26.0,-0.07222222222222219,0.26900000000000013,-0.007966666666666667,291.885,-2.6189999999999998,-2.644,-1.4607,-1.583,-249.09,215.775,190.827875,0.0,0.0,0.0,0.0,0.017066666666666563,-5.498166666666667,-5.498166666666667,-0.7094,-0.3866666666666667,-0.04155555555555557,-0.9199999999999999,66.713,-0.07733333333333325,-0.4193666666666667,0.4575,100.0,1.0,1.0,205.95333333333332,0.0,0.0,0.0,0.0,0.0,0.0,0.0,8729.6,0.0,55.0,5.0,240.14333333333332,0.0,0.0,0.0,0.0,0.0,0.0,0.0,0.0,0.40500000000000114,0.40500000000000114,0.0,0.0,0.0,55.0,616.79921,10000.0,85.000001,85.000001,85.000001,85.000001,395.0,0.0,0.0,0.0,1.0,166.665,46.646,46.646,51.224000000000004,51.224000000000004,34.0,-30.11,23.394,-29.048000000000002,22.5,0.0,1781.5755555555556,-0.09499999999999975,100.0,32.604,32.126,40.557,39.601,0.0,0.0,100.0,0.0,0.0,0.0,0.0,3629.875,3422.7,3893.875,3803.8,303.929,303.822,315.464,315.35675,21.9065,20.6744,22.150875,21.483333333333334,314.999998,314.999998,324.999988,324.999988,99.55867142857143,99.5096,99.58818571428571,99.55367142857143,0.03200000000000003,-0.131,-0.19033333333333324,0.03633333333333333,-0.05666666666667197,-0.021666666666668277,1.584,1.595,37.915,30.2145,39.443,35.271,56.343,36.536,66.5495,55.1265,54.384,35.595,65.0195,53.2795,53.67,35.1325,65.0905,52.6285,-0.113,-0.097,0.09997,0.10539000000000001,0.0,208.97,208.91,205.95333333333332,205.95333333333332,0.0,0.0
9,0.0,0.0,0.0,1.0,1.0,0.0,0.0,1.0,0.0,100.0,1.0,1.1856,26.0,0.0,0.0,0.0,59.999996,0.0,26.0,26.0,26.0,26.0,-0.07522222222222219,0.2772000000000001,0.0224,291.626,-2.5334,-2.6607777777777777,-1.5097,-1.5407777777777778,-245.68,215.76999999999998,190.807,0.0,0.0,0.0,0.0,0.019033333333333347,-5.498166666666667,-5.498166666666667,-0.7080000000000001,0.4463333333333333,-0.04911111111111133,0.8439999999999999,66.85,-0.0625,-0.41366666666666674,0.2400000000000002,100.0,1.0,1.0,206.41666666666669,0.0,0.0,0.0,0.0,0.0,0.0,0.0,8749.3,0.0,55.0,5.0,240.63333333333333,1.0,0.0,0.0,0.0,0.0,0.0,0.0,0.0,0.4559999999999995,0.4559999999999995,0.0,0.0,1.0,55.0,616.79921,10000.0,85.000001,85.000001,85.000001,85.000001,395.0,0.0,0.0,0.0,1.0,166.665,46.021,46.021,51.712,51.712,34.0,-28.8175,25.368,-28.884,23.7175,0.0,1781.5255555555555,-0.28500000000000014,100.0,33.22,32.157,40.417,39.47,0.0,0.0,100.0,0.0,0.0,0.0,0.0,3697.875,3537.6,3873.5,3913.3,303.4923333333333,303.63033333333334,315.54475,315.23975,21.917,20.6807,22.16275,21.49288888888889,314.999998,314.999998,324.999988,324.999988,99.55867142857143,99.50963333333333,99.58832857142858,99.5538,0.056333333333333346,-0.11033333333333317,-0.18100000000000005,0.061333333333333684,-0.02499999999999858,-0.04999999999999716,1.6095000000000002,1.6165,37.980999999999995,30.253999999999998,39.516999999999996,35.33,56.338,36.583,66.563,55.1735,54.378,35.638,65.031,53.325,53.663,35.1735,65.099,52.673,-0.1245,-0.0845,0.10841500000000001,0.10797000000000001,0.0,209.385,209.37,206.41666666666669,206.41666666666669,0.0,0.0
10,0.0,0.0,0.0,1.0,1.0,0.0,0.0,1.0,0.0,100.0,1.0,1.1856,26.0,0.0,0.0,0.0,59.999996,0.0,26.0,26.0,26.0,26.0,-0.04799999999999993,0.2713000000000001,0.011033333333333334,291.595,-2.5947,-2.632,-1.4774,-1.5215555555555558,-242.47,215.7625,190.7875,0.0,0.0,0.0,0.0,0.02089999999999992,-5.498166666666667,-5.498166666666667,-0.7015,-0.434,-0.018000000000000238,1.782,66.981,-0.04266666666666641,-0.41440000000000005,-0.05750000000000011,100.0,1.0,1.0,206.69666666666666,0.0,0.0,0.0,0.0,0.0,0.0,0.0,8761.1,0.0,55.0,5.0,241.10666666666668,0.0,0.0,0.0,0.0,0.0,0.0,1.0,0.0,0.5040000000000013,0.5040000000000013,0.0,0.0,0.0,55.0,616.79921,10000.0,85.000001,85.000001,85.000001,85.000001,395.0,0.0,0.0,0.0,1.0,333.33500000000004,46.585,46.585,51.056,51.056,34.0,-26.6575,25.164,-28.228,25.73,0.0,1781.4744444444445,-0.2649999999999997,100.0,33.079,32.128,40.703,39.869,0.0,0.0,100.0,0.0,0.0,0.0,0.0,3469.25,3485.3,3938.125,4052.8,304.2026666666667,303.8666666666667,315.2955,314.88325,21.92675,20.6865,22.174125,21.50188888888889,314.999998,314.999998,324.999988,324.999988,99.5587,99.50963333333333,99.58847142857142,99.55394285714286,0.07133333333333347,-0.09799999999999986,-0.15533333333333355,0.0810000000000004,-0.04333333333332945,-0.05833333333333002,1.5565,1.5595,38.042,30.291,39.588,35.387,56.332,36.6275,66.5795,55.223,54.373000000000005,35.679,65.0455,53.3735,53.656,35.213,65.11,52.7205,-0.1275,-0.083,0.105825,0.103355,0.0,209.76999999999998,209.775,206.69666666666666,206.69666666666666,0.0,0.0
11,0.0,0.0,0.0,1.0,1.0,0.0,0.0,1.0,0.0,100.0,1.0,1.1856,26.0,0.0,0.0,0.0,59.999996,0.0,26.0,26.0,26.0,26.0,-0.008777777777777773,0.2679,-0.07776666666666666,291.962,-2.6127000000000002,-2.6175555555555556,-1.5345,-1.4905555555555556,-239.05,215.7525,190.7665,0.0,0.0,0.0,0.0,0.022599999999999953,-5.498166666666667,-5.498166666666667,-0.728,-0.155,0.004444444444444251,-0.5209999999999999,67.114,-0.02366666666666628,-0.4318,-0.12250000000000005,100.0,1.0,1.0,207.31666666666666,0.0,0.0,0.0,0.0,0.0,0.0,0.0,8787.4,0.0,55.0,5.0,241.58666666666667,1.0,0.0,0.0,0.0,0.0,0.0,1.0,0.0,0.5549999999999997,0.5549999999999997,0.0,0.0,1.0,55.0,616.79921,10000.0,85.000001,85.000001,85.000001,85.000001,395.0,0.0,0.0,0.0,1.0,333.33500000000004,46.31,46.31,51.956,51.956,34.0,-27.765,25.842,-25.37,23.1025,0.0,1781.4244444444444,-0.27499999999999947,100.0,32.639,32.432,40.208,39.935,0.0,0.0,100.0,0.0,0.0,0.0,0.0,3649.75,3514.0,3657.375,3743.2,303.8593333333333,303.55333333333334,316.0925,315.60375,21.937,20.6929,22.186,21.511444444444443,314.999998,314.999998,324.999988,324.999988,99.5587,99.50965,99.58861428571429,99.55407142857143,0.08033333333333337,-0.09133333333333327,-0.1436666666666664,0.0903333333333336,-0.04999999999999716,-0.05333333333332746,1.661,1.6595,38.105999999999995,30.3305,39.663,35.447,56.327,36.6695,66.589,55.2675,54.367000000000004,35.718,65.054,53.4165,53.649,35.2505,65.1155,52.7625,-0.1355,-0.0845,0.10816,0.10254500000000001,0.0,210.175,210.18,207.31666666666666,207.31666666666666,0.0,0.0
12,0.0,0.0,0.0,1.0,1.0,0.0,0.0,1.0,0.0,100.0,1.0,1.1856,26.0,0.0,0.0,0.0,59.999996,0.0,26.0,26.0,26.0,26.0,0.0004444444444444695,0.2763,0.014700000000000001,291.504,-2.6341,-2.618888888888889,-1.5070000000000001,-1.5167777777777778,-235.82,215.745,190.745875,0.0,0.0,0.0,0.0,0.025466666666666526,-5.498166666666667,-5.498166666666667,-0.7191000000000001,0.2616666666666667,-0.0016666666666669272,-0.6390000000000002,67.243,-0.009333333333333638,-0.4121,-0.0924999999999998,100.0,1.0,1.0,207.57,0.0,0.0,0.0,0.0,0.0,0.0,0.0,8798.1,0.0,55.0,5.0,242.05,0.0,0.0,0.0,0.0,0.0,0.0,1.0,0.0,0.602999999999998,0.602999999999998,0.0,0.0,0.0,55.0,616.79921,10000.0,85.000001,85.000001,85.000001,85.000001,395.0,0.0,0.0,0.0,1.0,333.33500000000004,46.051,46.051,51.102000000000004,51.102000000000004,34.0,-27.6375,26.792,-27.58,26.387500000000003,0.0,1781.3766666666666,-0.27499999999999947,100.0,32.712,32.673,40.113,39.921,0.0,0.0,100.0,0.0,0.0,0.0,0.0,3676.375,3554.3,3997.0,3926.7,303.75933333333336,303.42266666666666,315.29375,315.156,21.94675,20.698900000000002,22.19725,21.520444444444443,314.999998,314.999998,324.999988,324.999988,99.55871428571429,99.50966666666666,99.58874285714286,99.55421428571428,0.09233333333333338,-0.08000000000000007,-0.13099999999999978,0.1163333333333334,-0.03833333333332689,-0.05333333333332746,1.5939999999999999,1.581,38.167,30.368499999999997,39.733000000000004,35.503,56.322,36.712,66.6015,55.3125,54.363,35.7575,65.065,53.46,53.643,35.2875,65.1235,52.8055,-0.1245,-0.0825,0.10844500000000001,0.11485500000000001,0.0,210.595,210.615,207.57,207.57,0.0,0.0
13,0.0,0.0,0.0,1.0,1.0,0.0,0.0,1.0,0.0,100.0,1.0,1.1856,26.0,0.0,0.0,0.0,59.999996,0.0,26.0,26.0,26.0,26.0,0.014555555555555655,0.2674000000000001,0.03783333333333333,291.138,-2.6051,-2.6294444444444443,-1.5393,-1.5215555555555558,-232.39,215.735,190.72425,0.0,0.0,0.0,0.0,0.026766666666666605,-5.498166666666667,-5.498166666666667,-0.7155,-0.16633333333333333,0.0021111111111109526,1.1019999999999999,67.378,-0.0023333333333335204,-0.4215666666666667,-0.31000000000000005,100.0,1.0,1.0,207.92000000000002,0.0,0.0,0.0,0.0,0.0,0.0,0.0,8813.0,0.0,55.0,5.0,242.54000000000002,1.0,0.0,0.0,0.0,0.0,0.0,1.0,0.0,0.6539999999999999,0.6539999999999999,0.0,0.0,1.0,55.0,616.79921,10000.0,85.000001,85.000001,85.000001,85.000001,395.0,0.0,0.0,0.0,1.0,333.33500000000004,45.760999999999996,45.760999999999996,50.980000000000004,50.980000000000004,34.0,-25.357499999999998,28.494,-26.926000000000002,28.3075,0.0,1781.3255555555556,-0.3099999999999996,100.0,33.226,32.782,40.485,40.271,0.0,0.0,100.0,0.0,0.0,0.0,0.0,3581.875,3635.9,3919.875,4088.5,303.858,303.339,315.3635,314.8135,21.957,20.7054,22.20925,21.53011111111111,314.999998,314.999998,324.999988,324.999988,99.55872857142857,99.50966666666666,99.58888571428571,99.55435714285714,0.11833333333333362,-0.058666666666666645,-0.11566666666666636,0.12566666666666748,-0.04333333333332945,-0.045000000000001705,1.5605,1.5465,38.230999999999995,30.409,39.808,35.563,56.319,36.7565,66.616,55.363,54.358999999999995,35.7985,65.0775,53.509,53.638,35.327,65.1325,52.8535,-0.139,-0.0785,0.10912000000000001,0.115945,0.0,211.015,210.99,207.92000000000002,207.92000000000002,0.0,0.0
14,0.0,0.0,0.0,1.0,1.0,0.0,0.0,1.0,0.0,100.0,1.0,1.1856,26.0,0.0,0.0,0.0,59.999996,0.0,26.0,26.0,26.0,26.0,0.015000000000000124,0.2621,-0.015566666666666666,291.306,-2.6244,-2.6334444444444447,-1.536,-1.5132222222222222,-228.75,215.725,190.7015,0.0,0.0,0.0,0.0,0.028866666666666596,-5.498166666666667,-5.498166666666667,-0.7281000000000001,-0.05733333333333334,0.019888888888888845,0.9899999999999998,67.519,0.009500000000000064,-0.43553333333333333,-0.33999999999999986,100.0,1.0,1.0,208.43666666666667,0.0,0.0,0.0,0.0,0.0,0.0,0.0,8834.8,0.0,55.0,5.0,243.04666666666668,0.0,0.0,0.0,0.0,0.0,0.0,1.0,0.0,0.7079999999999984,0.7079999999999984,0.0,0.0,0.0,55.0,616.79921,10000.0,85.000001,85.000001,85.000001,85.000001,395.0,0.0,0.0,0.0,1.0,166.665,45.685,45.685,51.208,51.208,34.0,-25.099999999999998,28.79,-24.506,27.0425,0.0,1781.2733333333333,-0.29000000000000004,100.0,33.253,32.999,40.412,40.399,0.0,0.0,100.0,0.0,0.0,0.0,0.0,3516.5,3664.4,3760.75,3952.6000000000004,304.0636666666667,303.1933333333333,315.7805,315.13925,21.967875,20.7123,22.221875,21.540222222222223,314.999998,314.999998,324.999988,324.999988,99.55874285714286,99.50968333333333,99.58902857142857,99.5545,0.11699999999999999,-0.06033333333333313,-0.09866666666666646,0.1299999999999999,-0.045000000000001705,-0.04833333333333201,1.62,1.6075,38.3,30.451999999999998,39.887,35.626999999999995,56.316,36.804,66.6285,55.415,54.355000000000004,35.842,65.0885,53.559,53.632999999999996,35.369,65.1395,52.9025,-0.1315,-0.082,0.09993,0.10953,0.0,211.43,211.45,208.43666666666667,208.43666666666667,0.0,0.0
15,0.0,0.0,0.0,1.0,1.0,0.0,0.0,1.0,0.0,100.0,1.0,1.1856,26.0,0.0,0.0,0.0,59.999996,0.0,26.0,26.0,26.0,26.0,0.03499999999999992,0.2612000000000001,-0.010666666666666668,291.153,-2.6292,-2.5954444444444444,-1.5559,-1.5203333333333333,-225.71,215.7175,190.682375,0.0,0.0,0.0,0.0,0.0306333333333334,-5.498166666666667,-5.498166666666667,-0.7204,0.18566666666666667,0.03888888888888897,-0.6800000000000002,67.637,0.016666666666666607,-0.4238666666666667,-0.2875000000000001,100.0,1.0,1.0,208.76333333333332,0.0,0.0,0.0,0.0,0.0,0.0,0.0,8848.7,0.0,55.0,5.0,243.47,1.0,0.0,0.0,0.0,0.0,0.0,1.0,0.0,0.7530000000000001,0.7530000000000001,0.0,0.0,1.0,55.0,616.79921,10000.0,85.000001,85.000001,85.000001,85.000001,395.0,0.0,0.0,0.0,1.0,333.33500000000004,45.685,45.685,51.071,51.071,34.0,-25.4425,27.512,-25.712,28.137500000000003,0.0,1781.2255555555555,-0.22999999999999954,100.0,33.167,33.268,40.218,40.643,0.0,0.0,100.0,0.0,0.0,0.0,0.0,3556.625,3567.2,3852.5,4011.0,304.13233333333335,303.29266666666666,315.637,314.87425,21.977,20.7181,22.232375,21.54877777777778,314.999998,314.999998,324.999988,324.999988,99.55875714285715,99.50968333333333,99.58917142857143,99.55464285714285,0.11399999999999988,-0.06499999999999995,-0.10199999999999987,0.13333333333333286,-0.04833333333333201,-0.03166666666666629,1.5815000000000001,1.5665,38.357,30.488,39.952,35.68,56.313,36.8455,66.6395,55.4615,54.352000000000004,35.881,65.0975,53.6045,53.628,35.406,65.1455,52.947,-0.134,-0.08750000000000001,0.11029000000000001,0.10846000000000001,0.0,211.81,211.82,208.76333333333332,208.76333333333332,0.0,0.0
16,0.0,0.0,0.0,1.0,1.0,0.0,0.0,1.0,0.0,100.0,1.0,1.1856,26.0,0.0,0.0,0.0,59.999996,0.0,26.0,26.0,26.0,26.0,0.024555555555555664,0.2490000000000001,-0.02776666666666667,291.138,-2.6848,-2.5484444444444443,-1.5291000000000001,-1.523111111111111,-222.05,215.71,190.659,0.0,0.0,0.0,0.0,0.03276666666666661,-5.498166666666667,-5.498166666666667,-0.7369,-0.4613333333333333,0.022222222222222143,-1.2510000000000003,67.778,0.0216666666666665,-0.4370666666666667,-0.1349999999999998,100.0,1.0,1.0,209.21333333333334,0.0,0.0,0.0,0.0,0.0,0.0,0.0,8867.8,0.0,55.0,5.0,243.97666666666666,0.0,0.0,0.0,0.0,0.0,0.0,1.0,0.0,0.8069999999999986,0.8069999999999986,0.0,0.0,0.0,55.0,616.79921,10000.0,85.000001,85.000001,85.000001,85.000001,395.0,0.0,0.0,0.0,1.0,166.665,45.486000000000004,45.486000000000004,50.903,50.903,34.0,-27.6275,27.852,-24.796,26.5275,0.0,1781.1744444444444,-0.10499999999999954,100.0,32.89,33.288,40.451,40.730000000000004,0.0,0.0,100.0,0.0,0.0,0.0,0.0,3733.375,3675.0,3830.375,3817.5,303.726,303.07033333333334,315.6595,315.369,21.98775,20.725,22.245,21.559,314.999998,314.999998,324.999988,324.999988,99.55877142857143,99.5097,99.58931428571428,99.55478571428571,0.11033333333333362,-0.06433333333333313,-0.09299999999999997,0.13533333333333353,-0.054999999999999716,-0.04999999999999716,1.5885,1.586,38.424,30.531,40.031,35.742999999999995,56.308,36.8905,66.653,55.5095,54.347,35.9225,65.1095,53.6515,53.620999999999995,35.445499999999996,65.154,52.993,-0.123,-0.0975,0.10938,0.10614000000000001,0.0,212.245,212.23000000000002,209.21333333333334,209.21333333333334,0.0,0.0
17,0.0,0.0,0.0,1.0,1.0,0.0,0.0,1.0,0.0,100.0,1.0,1.1856,26.0,0.0,0.0,0.0,59.999996,0.0,26.0,26.0,26.0,26.0,0.007777777777777883,0.27100000000000013,0.022133333333333335,290.817,-2.6434,-2.535333333333333,-1.568,-1.4875555555555557,-218.8,215.7025,190.638,0.0,0.0,0.0,0.0,0.03466666666666651,-5.498166666666667,-5.498166666666667,-0.728,0.271,-0.002000000000000224,-0.911,67.903,0.019000000000000128,-0.42060000000000003,-0.0625,100.0,1.0,1.0,209.5366666666667,0.0,0.0,0.0,0.0,0.0,0.0,0.0,8881.5,0.0,55.0,5.0,244.42666666666668,1.0,0.0,0.0,0.0,0.0,0.0,1.0,0.0,0.8550000000000004,0.8550000000000004,0.0,0.0,1.0,55.0,616.79921,10000.0,85.000001,85.000001,85.000001,85.000001,395.0,0.0,0.0,0.0,1.0,166.665,45.379999999999995,45.379999999999995,50.659,50.659,34.0,-27.0225,26.268,-28.458,27.0625,0.0,1781.1255555555556,-0.10499999999999954,100.0,33.298,33.408,40.379,40.657,0.0,0.0,100.0,0.0,0.0,0.0,0.0,3743.125,3564.0,4125.625,3993.2,303.627,303.41333333333336,315.07075,315.025,21.9975,20.7312,22.256125,21.567888888888888,314.999998,314.999998,324.999988,324.999988,99.55878571428572,99.50971666666666,99.58944285714286,99.55491428571429,0.11566666666666636,-0.07400000000000007,-0.11099999999999977,0.1263333333333332,-0.05333333333332746,-0.03499999999999659,1.58,1.5725,38.483999999999995,30.57,40.101,35.8,56.307,36.933,66.664,55.555,54.345,35.9615,65.1195,53.695499999999996,53.617000000000004,35.483000000000004,65.1605,53.036,-0.122,-0.1005,0.112045,0.10411000000000001,0.0,212.655,212.63,209.5366666666667,209.5366666666667,0.0,0.0
18,0.0,0.0,0.0,1.0,1.0,0.0,0.0,1.0,0.0,100.0,1.0,1.1856,26.0,0.0,0.0,0.0,59.999996,0.0,26.0,26.0,26.0,26.0,0.007111111111111068,0.2633000000000001,0.0125,290.726,-2.6618,-2.520888888888889,-1.5694,-1.4457777777777778,-215.53,215.695,190.616875,0.0,0.0,0.0,0.0,0.036566666666666525,-5.498166666666667,-5.498166666666667,-0.7409,-0.427,0.008777777777777773,-0.3759999999999999,68.027,0.016833333333333478,-0.43633333333333335,0.007500000000000284,100.0,1.0,1.0,209.92333333333335,0.0,0.0,0.0,0.0,0.0,0.0,0.0,8897.8,0.0,55.0,5.0,244.87333333333333,0.0,0.0,0.0,0.0,0.0,0.0,1.0,0.0,0.9029999999999987,0.9029999999999987,0.0,0.0,0.0,55.0,616.79921,10000.0,85.000001,85.000001,85.000001,85.000001,395.0,0.0,0.0,0.0,1.0,166.665,45.150999999999996,45.150999999999996,50.644,50.644,34.0,-28.0175,27.875999999999998,-27.064,26.252499999999998,0.0,1781.0777777777778,-0.11000000000000032,100.0,33.241,33.335,40.628,40.864000000000004,0.0,0.0,100.0,0.0,0.0,0.0,0.0,3787.25,3732.3,3977.5,3956.7,303.528,302.94866666666667,315.36875,315.0945,22.007125,20.7373,22.267375,21.576999999999998,314.999998,314.999998,324.999988,324.999988,99.55881428571429,99.50971666666666,99.58957142857143,99.55505714285714,0.10766666666666636,-0.06666666666666665,-0.10633333333333361,0.12699999999999978,-0.04333333333332945,-0.05333333333332746,1.5885,1.582,38.544,30.608,40.171,35.857,56.303,36.975,66.67699999999999,55.601,54.341,36.0005,65.1305,53.74,53.611999999999995,35.5205,65.1685,53.08,-0.12,-0.1015,0.10598500000000001,0.10819500000000001,0.0,213.0,212.985,209.92333333333335,209.92333333333335,0.0,0.0
19,0.0,0.0,0.0,1.0,1.0,0.0,0.0,1.0,0.0,100.0,1.0,1.1856,26.0,0.0,0.0,0.0,59.999996,0.0,26.0,26.0,26.0,26.0,0.005555555555555536,0.274,0.07296666666666667,290.283,-2.5778,-2.623333333333333,-1.5015,-1.4304444444444444,-212.06,215.6875,190.594125,0.0,0.0,0.0,0.0,0.03856666666666653,-5.498166666666667,-5.498166666666667,-0.7313000000000001,0.724,0.01922222222222203,0.8130000000000002,68.158,0.01200000000000001,-0.4281666666666667,-0.04499999999999993,100.0,1.0,1.0,210.28,0.0,0.0,0.0,0.0,0.0,0.0,0.0,8912.9,0.0,55.0,5.0,245.34333333333336,1.0,0.0,0.0,0.0,0.0,0.0,1.0,0.0,0.9540000000000006,0.9540000000000006,0.0,0.0,1.0,55.0,616.79921,10000.0,85.000001,85.000001,85.000001,85.000001,395.0,0.0,0.0,0.0,1.0,333.33500000000004,44.678,44.678,50.461,50.461,34.0,-25.7125,28.898,-26.194,28.817500000000003,0.0,1781.0255555555555,-0.1200000000000001,100.0,33.987,33.730000000000004,40.59,40.789,0.0,0.0,100.0,0.0,0.0,0.0,0.0,3632.875,3732.4,3992.25,4266.5,303.67333333333335,302.86533333333335,315.2255,314.461,22.0175,20.744,22.279125,21.586666666666666,314.999998,314.999998,324.999988,324.999988,99.55882857142858,99.50973333333333,99.58972857142857,99.55518571428571,0.11533333333333351,-0.07133333333333325,-0.09799999999999986,0.13333333333333286,-0.046666666666666856,-0.04999999999999716,1.5495,1.557,38.608999999999995,30.65,40.244,35.917,56.302,37.022,66.688,55.6495,54.34,36.044,65.14,53.7875,53.608999999999995,35.562,65.1745,53.1265,-0.125,-0.105,0.10200000000000001,0.110615,0.0,213.44,213.435,210.28,210.28,0.0,0.0
20,0.0,0.0,0.0,1.0,1.0,0.0,0.0,1.0,0.0,100.0,1.0,1.1856,26.0,0.0,0.0,0.0,59.999996,0.0,26.0,26.0,26.0,26.0,0.007888888888888834,0.25140000000000007,-0.0098,290.634,-2.6759,-2.573777777777778,-1.5089000000000001,-1.5526666666666669,-208.57999999999998,215.68,190.57175,0.0,0.0,0.0,0.0,0.04059999999999997,-5.498166666666667,-5.498166666666667,-0.7376,-1.0096666666666667,0.013555555555555543,-1.1219999999999999,68.289,0.009333333333333638,-0.4430666666666667,0.007500000000000284,100.0,1.0,1.0,210.65333333333334,0.0,0.0,0.0,0.0,0.0,0.0,0.0,8928.8,0.0,55.0,5.0,245.82,0.0,0.0,0.0,0.0,0.0,0.0,0.0,0.0,1.004999999999999,1.004999999999999,0.0,0.0,0.0,55.0,616.79921,10000.0,85.000001,85.000001,85.000001,85.000001,395.0,0.0,0.0,0.0,1.0,333.33500000000004,45.425,45.425,50.14,50.14,34.0,-27.155,26.282,-26.954,27.427500000000002,0.0,1780.9744444444445,-0.08999999999999986,100.0,33.332,33.596000000000004,41.081,41.311,0.0,0.0,100.0,0.0,0.0,0.0,0.0,3648.125,3563.2,3971.75,3916.1000000000004,303.971,303.3913333333333,315.31075,315.0365,22.027625,20.7506,22.291125,21.596444444444444,314.999998,314.999998,324.999988,324.999988,99.55884285714286,99.50975,99.58987142857143,99.55534285714286,0.10400000000000009,-0.08266666666666667,-0.11433333333333362,0.1213333333333333,-0.03999999999999915,-0.04999999999999716,1.5354999999999999,1.5335,38.672,30.691,40.319,35.977999999999994,56.297,37.067,66.7025,55.7,54.334,36.085499999999996,65.153,53.836,53.602000000000004,35.602000000000004,65.1845,53.1745,-0.1245,-0.106,0.11048500000000001,0.10094500000000001,0.0,213.79000000000002,213.8,210.65333333333334,210.65333333333334,0.0,0.0
21,0.0,0.0,0.0,1.0,1.0,0.0,0.0,1.0,0.0,100.0,1.0,1.1856,26.0,0.0,0.0,0.0,59.999996,0.0,26.0,26.0,26.0,26.0,0.010666666666666602,0.26460000000000017,-0.06266666666666666,290.955,-2.6355,-2.584888888888889,-1.5725,-1.5137777777777779,-205.3,215.675,190.550125,0.0,0.0,0.0,0.0,0.04249999999999998,-5.498166666666667,-5.498166666666667,-0.7567,0.25033333333333335,-0.0043333333333333,-0.7680000000000002,68.408,0.004999999999999893,-0.4398,0.04249999999999998,100.0,1.0,1.0,211.21666666666667,0.0,0.0,0.0,0.0,0.0,0.0,0.0,8952.8,0.0,55.0,5.0,246.24666666666667,1.0,0.0,0.0,0.0,0.0,0.0,0.0,0.0,1.0530000000000008,1.0530000000000008,0.0,0.0,1.0,55.0,616.79921,10000.0,85.000001,85.000001,85.000001,85.000001,395.0,0.0,0.0,0.0,1.0,333.33500000000004,45.242,45.242,51.102000000000004,51.102000000000004,34.0,-27.675,26.932000000000002,-26.508,25.122500000000002,0.0,1780.9266666666667,-0.13999999999999968,100.0,33.556,33.534,40.61,40.803,0.0,0.0,100.0,0.0,0.0,0.0,0.0,3740.875,3574.3,3870.75,3778.4,303.64233333333334,303.41333333333336,315.6645,315.558,22.03725,20.7568,22.302,21.605333333333334,314.999998,314.999998,324.999988,324.999988,99.55885714285715,99.50975,99.59,99.55547142857142,0.10199999999999987,-0.07299999999999995,-0.11766666666666659,0.1213333333333333,-0.026666666666670835,-0.046666666666666856,1.6365,1.6465,38.733000000000004,30.73,40.388,36.033,56.295,37.11,66.711,55.742,54.332,36.125,65.16,53.876999999999995,53.598,35.64,65.188,53.2145,-0.11750000000000001,-0.0985,0.108355,0.10876000000000001,0.0,214.195,214.185,211.21666666666667,211.21666666666667,0.0,0.0
22,0.0,0.0,0.0,1.0,1.0,0.0,0.0,1.0,0.0,100.0,1.0,1.1856,26.0,0.0,0.0,0.0,59.999996,0.0,26.0,26.0,26.0,26.0,0.0067777777777777715,0.25350000000000006,-0.006,290.573,-2.567,-2.637888888888889,-1.5683,-1.497888888888889,-201.81,215.66750000000002,190.526375,0.0,0.0,0.0,0.0,0.044533333333333314,-5.498166666666667,-5.498166666666667,-0.7413000000000001,0.005666666666666667,0.009444444444444366,1.214,68.53999999999999,0.003666666666666707,-0.4228,-0.1299999999999999,100.0,1.0,1.0,211.43,0.0,0.0,0.0,0.0,0.0,0.0,0.0,8961.8,0.0,55.0,5.0,246.72,0.0,0.0,0.0,0.0,0.0,0.0,0.0,0.0,1.1039999999999992,1.1039999999999992,0.0,0.0,0.0,55.0,616.79921,10000.0,85.000001,85.000001,85.000001,85.000001,395.0,0.0,0.0,0.0,1.0,333.33500000000004,45.364,45.364,50.156,50.156,34.0,-23.91,28.192,-27.518,28.4575,0.0,1780.8755555555556,-0.21999999999999975,100.0,33.774,33.532,40.94,40.89,0.0,0.0,100.0,0.0,0.0,0.0,0.0,3455.5,3625.9,4004.5,4150.7,304.216,303.3156666666667,315.23325,314.729,22.047375,20.7634,22.313875,21.615,314.999998,314.999998,324.999988,324.999988,99.55887142857142,99.50976666666666,99.59014285714285,99.55561428571428,0.1200000000000001,-0.06766666666666676,-0.10566666666666658,0.1243333333333334,-0.03166666666666629,-0.03166666666666629,1.554,1.5375,38.796,30.771,40.462,36.093,56.292,37.1555,66.725,55.791,54.329,36.167500000000004,65.1725,53.9245,53.593,35.68,65.197,53.260999999999996,-0.1285,-0.092,0.10397,0.11041500000000001,0.0,214.60500000000002,214.595,211.43,211.43,0.0,0.0
23,0.0,0.0,0.0,1.0,1.0,0.0,0.0,1.0,0.0,100.0,1.0,1.1856,26.0,0.0,0.0,0.0,59.999996,0.0,26.0,26.0,26.0,26.0,-0.017555555555555546,0.24750000000000005,-0.002,290.421,-2.6012,-2.5834444444444444,-1.6215000000000002,-1.473111111111111,-198.1,215.66,190.501625,0.0,0.0,0.0,0.0,0.046699999999999964,-5.498166666666667,-5.498166666666667,-0.7589,-0.11666666666666667,0.0086666666666666,0.5449999999999999,68.674,0.006333333333333524,-0.4471666666666667,-0.11249999999999982,100.0,1.0,1.0,211.95333333333332,0.0,0.0,0.0,0.0,0.0,0.0,0.0,8983.9,0.0,55.0,5.0,247.20333333333335,1.0,0.0,0.0,0.0,0.0,0.0,0.0,0.0,1.1580000000000013,1.1580000000000013,0.0,0.0,1.0,55.0,616.79921,10000.0,85.000001,85.000001,85.000001,85.000001,395.0,0.0,0.0,0.0,1.0,166.665,44.571,44.571,50.873,50.873,34.0,-26.8775,28.176000000000002,-26.67,26.060000000000002,0.0,1780.8233333333333,-0.17499999999999982,100.0,34.035,33.702,40.985,41.087,0.0,0.0,100.0,0.0,0.0,0.0,0.0,3755.625,3723.3,3866.75,3911.9,303.36766666666665,303.0776666666667,315.64975,315.299,22.05825,20.7705,22.326375,21.62522222222222,314.999998,314.999998,324.999988,324.999988,99.55888571428571,99.50978333333333,99.5903,99.55577142857143,0.1166666666666667,-0.07133333333333325,-0.10433333333333339,0.12666666666666693,-0.03166666666666629,-0.045000000000001705,1.5995,1.5965,38.864000000000004,30.8155,40.54,36.158,56.29,37.204,66.7375,55.8425,54.326,36.2125,65.18299999999999,53.975,53.588,35.7235,65.204,53.31,-0.1295,-0.097,0.09851000000000001,0.10726000000000001,0.0,215.01,215.005,211.95333333333332,211.95333333333332,0.0,0.0
24,0.0,0.0,0.0,1.0,1.0,0.0,0.0,1.0,0.0,100.0,1.0,1.1856,26.0,0.0,0.0,0.0,59.999996,0.0,26.0,26.0,26.0,26.0,-0.0003333333333332966,0.26880000000000015,-0.0431,290.71,-2.6275,-2.593222222222222,-1.5085000000000002,-1.5025555555555556,-194.8,215.655,190.479,0.0,0.0,0.0,0.0,0.04859999999999998,-5.498166666666667,-5.498166666666667,-0.7677,-0.548,0.019444444444444375,1.2369999999999999,68.795,0.008333333333333748,-0.44143333333333334,-0.12250000000000005,100.0,1.0,1.0,212.24,0.0,0.0,0.0,0.0,0.0,0.0,0.0,8996.1,0.0,55.0,5.0,247.64,0.0,0.0,0.0,0.0,0.0,0.0,0.0,0.0,1.2059999999999995,1.2059999999999995,0.0,0.0,0.0,55.0,616.79921,10000.0,85.000001,85.000001,85.000001,85.000001,395.0,0.0,0.0,0.0,1.0,166.665,45.547,45.547,50.293,50.293,34.0,-25.085,27.486,-26.678,27.48,0.0,1780.7755555555555,-0.20500000000000007,100.0,33.733000000000004,33.416,41.004,41.037,0.0,0.0,100.0,0.0,0.0,0.0,0.0,3466.375,3618.1,3968.625,3993.4,304.26166666666666,303.45233333333334,315.2495,315.08025,22.06775,20.7766,22.3375,21.63422222222222,314.999998,314.999998,324.999988,324.999988,99.5589,99.5098,99.59042857142857,99.55591428571428,0.11033333333333362,-0.06800000000000006,-0.10933333333333328,0.13066666666666737,-0.041666666666671404,-0.046666666666666856,1.5625,1.56,38.923,30.854,40.61,36.214,56.286,37.2455,66.749,55.8875,54.322,36.251,65.1935,54.0185,53.583,35.76,65.211,53.3525,-0.1225,-0.0925,0.10797000000000001,0.1102,0.0,215.39499999999998,215.385,212.24,212.24,0.0,0.0
25,0.0,0.0,0.0,1.0,1.0,0.0,0.0,1.0,0.0,100.0,1.0,1.1856,26.0,0.0,0.0,0.0,59.999996,0.0,26.0,26.0,26.0,26.0,0.0004444444444444695,0.2499,-0.03123333333333333,290.588,-2.697,-2.551,-1.5594000000000001,-1.503111111111111,-191.5,215.6475,190.45525,0.0,0.0,0.0,0.0,0.05053333333333332,-5.498166666666667,-5.498166666666667,-0.7911,-0.007,0.02444444444444427,0.1509999999999998,68.914,0.0076666666666667105,-0.444,-0.10000000000000009,100.0,1.0,1.0,212.72,0.0,0.0,0.0,0.0,0.0,0.0,0.0,9016.5,0.0,55.0,5.0,248.06666666666666,1.0,0.0,0.0,0.0,0.0,0.0,0.0,0.0,1.2540000000000013,1.2540000000000013,0.0,0.0,1.0,55.0,616.79921,10000.0,85.000001,85.000001,85.000001,85.000001,395.0,0.0,0.0,0.0,1.0,166.665,44.632,44.632,50.964,50.964,34.0,-27.96,29.614,-25.067999999999998,26.634999999999998,0.0,1780.7266666666667,-0.2699999999999996,100.0,33.646,33.658,40.712,40.819,0.0,0.0,100.0,0.0,0.0,0.0,0.0,3763.0,3878.6000000000004,3736.125,3913.8,303.49,302.621,315.9115,315.285,22.077125,20.782899999999998,22.3485,21.64322222222222,314.999998,314.999998,324.999988,324.999988,99.55892857142857,99.5098,99.59057142857142,99.55604285714286,0.1160000000000001,-0.06266666666666665,-0.10899999999999999,0.13266666666666715,-0.03333333333333144,-0.05666666666667197,1.6179999999999999,1.6315,38.982,30.8935,40.678,36.269999999999996,56.282,37.2885,66.758,55.9305,54.318,36.2905,65.201,54.0605,53.577,35.7985,65.215,53.394,-0.1355,-0.094,0.10948500000000001,0.10493500000000001,0.0,215.74,215.745,212.72,212.72,0.0,0.0
26,0.0,0.0,0.0,1.0,1.0,0.0,0.0,1.0,0.0,100.0,1.0,1.1856,26.0,0.0,0.0,0.0,59.999996,0.0,26.0,26.0,26.0,26.0,0.011111111111111072,0.2642,0.0656,289.536,-2.5979,-2.621888888888889,-1.6064,-1.495888888888889,-187.98000000000002,215.64249999999998,190.4295,0.0,0.0,0.0,0.0,0.05256666666666654,-5.498166666666667,-5.498166666666667,-0.7599,0.5136666666666666,0.005555555555555536,-0.8170000000000002,69.043,0.00983333333333336,-0.4247333333333333,-0.16749999999999998,100.0,1.0,1.0,212.86333333333334,0.0,0.0,0.0,0.0,0.0,0.0,0.0,9022.6,0.0,55.0,5.0,248.53,0.0,0.0,0.0,0.0,0.0,0.0,0.0,0.0,1.3049999999999997,1.3049999999999997,0.0,0.0,0.0,55.0,616.79921,10000.0,85.000001,85.000001,85.000001,85.000001,395.0,0.0,0.0,0.0,1.0,333.33500000000004,44.189,44.189,49.469,49.469,34.0,-26.995,27.8,-31.332,29.9125,0.0,1780.6744444444444,-0.2999999999999998,100.0,34.397,34.44,41.068,41.317,0.0,0.0,100.0,0.0,0.0,0.0,0.0,3806.625,3588.5,4365.0,4239.6,303.40633333333335,303.22366666666665,314.50275,314.4115,22.0875,20.7898,22.360375,21.653,314.999998,314.999998,324.999988,324.999988,99.55894285714285,99.50981666666667,99.59071428571428,99.5562,0.11799999999999988,-0.07000000000000006,-0.1080000000000001,0.13033333333333275,-0.060000000000002274,-0.02499999999999858,1.498,1.476,39.047,30.936,40.751999999999995,36.331,56.283,37.336,66.772,55.9805,54.318,36.3345,65.213,54.109,53.575,35.84,65.2235,53.4415,-0.135,-0.088,0.110975,0.10744500000000001,0.0,216.185,216.17000000000002,212.86333333333334,212.86333333333334,0.0,0.0
27,0.0,0.0,0.0,1.0,1.0,0.0,0.0,1.0,0.0,100.0,1.0,1.1856,26.0,0.0,0.0,0.0,59.999996,0.0,26.0,26.0,26.0,26.0,0.015444444444444372,0.24730000000000008,-0.0519,290.131,-2.6672000000000002,-2.583666666666667,-1.578,-1.5626666666666669,-184.45,215.6375,190.405,0.0,0.0,0.0,0.0,0.05463333333333331,-5.498166666666667,-5.498166666666667,-0.7863,-0.9413333333333334,0.01344444444444437,0.714,69.167,0.012666666666666604,-0.4672666666666667,-0.23999999999999977,100.0,1.0,1.0,213.4,0.0,0.0,0.0,0.0,0.0,0.0,0.0,9045.2,0.0,55.0,5.0,248.98333333333335,1.0,0.0,0.0,0.0,0.0,0.0,0.0,0.0,1.355999999999998,1.355999999999998,0.0,0.0,1.0,55.0,616.79921,10000.0,85.000001,85.000001,85.000001,85.000001,395.0,0.0,0.0,0.0,1.0,166.665,44.617,44.617,49.805,49.805,34.0,-25.84,28.854,-25.512,27.3275,0.0,1780.6255555555556,-0.27499999999999947,100.0,34.211,34.158,41.665,41.662,0.0,0.0,100.0,0.0,0.0,0.0,0.0,3570.375,3769.3,3825.75,3831.1000000000004,304.04066666666665,302.95733333333334,315.57875,315.3955,22.0975,20.7965,22.37225,21.662777777777777,314.999998,314.999998,324.999988,324.999988,99.55895714285714,99.50983333333333,99.59085714285715,99.55632857142857,0.11933333333333351,-0.06633333333333313,-0.09166666666666634,0.13766666666666705,-0.045000000000001705,-0.04999999999999716,1.5865,1.561,39.11,30.978,40.827,36.391999999999996,56.28,37.3815,66.7855,56.0295,54.315,36.3765,65.225,54.1565,53.571,35.8805,65.232,53.488,-0.1335,-0.093,0.09903,0.10890000000000001,0.0,216.515,216.525,213.4,213.4,0.0,0.0
28,0.0,0.0,0.0,1.0,1.0,0.0,0.0,1.0,0.0,100.0,1.0,1.1856,26.0,0.0,0.0,0.0,59.999996,0.0,26.0,26.0,26.0,26.0,0.011333333333333417,0.24320000000000008,-0.0507,290.222,-2.5941,-2.578777777777778,-1.5918999999999999,-1.5290000000000001,-181.13,215.6325,190.381125,0.0,0.0,0.0,0.0,0.05656666666666654,-5.498166666666667,-5.498166666666667,-0.7904,0.6033333333333334,0.002888888888888941,0.48999999999999977,69.283,0.013833333333333364,-0.44380000000000003,-0.21999999999999975,100.0,1.0,1.0,213.86,0.0,0.0,0.0,0.0,0.0,0.0,0.0,9064.8,0.0,55.0,5.0,249.39666666666665,0.0,0.0,0.0,0.0,0.0,0.0,0.0,0.0,1.404,1.404,0.0,0.0,0.0,55.0,616.79921,10000.0,85.000001,85.000001,85.000001,85.000001,395.0,0.0,0.0,0.0,1.0,333.33500000000004,44.388,44.388,50.674,50.674,34.0,-25.259999999999998,29.259999999999998,-25.782,27.192500000000003,0.0,1780.5755555555556,-0.33000000000000007,100.0,34.374,34.138999999999996,41.032,41.266999999999996,0.0,0.0,100.0,0.0,0.0,0.0,0.0,3653.5,3737.9,3833.5,3918.9,303.667,303.04066666666665,315.766,315.29325,22.107125,20.8029,22.383125,21.671666666666667,314.999998,314.999998,324.999988,324.999988,99.55898571428571,99.50983333333333,99.591,99.55647142857143,0.1299999999999999,-0.05266666666666664,-0.10099999999999998,0.13566666666666727,-0.026666666666670835,-0.04833333333333201,1.6185,1.6145,39.17,31.018,40.894,36.448,56.278999999999996,37.425,66.7925,56.072,54.313,36.417,65.231,54.198,53.567,35.919,65.2345,53.5285,-0.139,-0.088,0.10691,0.11001000000000001,0.0,216.905,216.92000000000002,213.86,213.86,0.0,0.0
29,0.0,0.0,0.0,1.0,1.0,0.0,0.0,1.0,0.0,100.0,1.0,1.1856,26.0,0.0,0.0,0.0,59.999996,0.0,26.0,26.0,26.0,26.0,0.032666666666666844,0.23819999999999997,0.024566666666666667,289.932,-2.5874,-2.6261111111111113,-1.544,-1.5125555555555557,-177.59,215.6275,190.35475,0.0,0.0,0.0,0.0,0.058599999999999985,-5.498166666666667,-5.498166666666667,-0.7933,-0.6883333333333334,0.004555555555555646,-0.637,69.411,0.016999999999999904,-0.4437666666666667,-0.2749999999999999,100.0,1.0,1.0,214.05333333333334,0.0,0.0,0.0,0.0,0.0,0.0,0.0,9072.9,0.0,55.0,5.0,249.86,1.0,0.0,0.0,0.0,0.0,0.0,0.0,0.0,1.4549999999999983,1.4549999999999983,0.0,0.0,1.0,55.0,616.79921,10000.0,85.000001,85.000001,85.000001,85.000001,395.0,0.0,0.0,0.0,1.0,166.665,44.632,44.632,49.728,49.728,34.0,-25.787499999999998,28.368,-27.136,28.3575,0.0,1780.5255555555555,-0.34499999999999975,100.0,33.915,34.222,41.375,41.644,0.0,0.0,100.0,0.0,0.0,0.0,0.0,3712.125,3633.1,4010.625,4045.5,303.752,303.1123333333333,315.24575,314.84775,22.117125,20.8096,22.394875,21.681444444444445,314.999998,314.999998,324.999988,324.999988,99.559,99.50985,99.59114285714286,99.55662857142858,0.12266666666666648,-0.06766666666666676,-0.10166666666666657,0.1299999999999999,-0.045000000000001705,-0.05833333333333002,1.5350000000000001,1.5230000000000001,39.232,31.060000000000002,40.968,36.509,56.275999999999996,37.4695,66.807,56.1215,54.31,36.458,65.2435,54.2455,53.562,35.9585,65.2435,53.575,-0.1385,-0.0835,0.10626500000000001,0.10056000000000001,0.0,217.28,217.29500000000002,214.05333333333334,214.05333333333334,0.0,0.0
30,0.0,0.0,0.0,1.0,1.0,0.0,0.0,1.0,0.0,100.0,1.0,1.1856,26.0,0.0,0.0,0.0,59.999996,0.0,26.0,26.0,26.0,26.0,0.028888888888888964,0.24160000000000004,0.024866666666666665,289.413,-2.6426,-2.514666666666667,-1.5171999999999999,-1.568888888888889,-174.26,215.625,190.32975,0.0,0.0,0.0,0.0,0.060566666666666547,-5.498166666666667,-5.498166666666667,-0.796,0.7313333333333334,0.0009999999999998899,-0.7949999999999999,69.525,0.023166666666666558,-0.4502666666666667,-0.3075000000000001,100.0,1.0,1.0,214.50666666666666,0.0,0.0,0.0,0.0,0.0,0.0,0.0,9092.2,0.0,55.0,5.0,250.26999999999998,0.0,0.0,0.0,0.0,0.0,0.0,1.0,0.0,1.5030000000000001,1.5030000000000001,0.0,0.0,0.0,55.0,616.79921,10000.0,85.000001,85.000001,85.000001,85.000001,395.0,0.0,0.0,0.0,1.0,333.33500000000004,43.121,43.121,50.278,50.278,34.0,-28.2525,28.398,-25.604,28.175,0.0,1780.4766666666667,-0.29499999999999993,100.0,34.804,34.954,41.16,41.596000000000004,0.0,0.0,100.0,0.0,0.0,0.0,0.0,3987.25,3795.3,3926.625,3910.2,302.843,302.584,315.52625,315.146,22.126875,20.8162,22.40575,21.690555555555555,314.999998,314.999998,324.999988,324.999988,99.55901428571428,99.50985,99.59127142857143,99.55675714285714,0.1326666666666667,-0.07033333333333314,-0.09633333333333338,0.1373333333333333,-0.03833333333332689,-0.030000000000001137,1.57,1.559,39.293,31.101,41.036,36.566,56.277,37.515,66.8155,56.1655,54.311,36.5,65.251,54.289,53.561,35.9985,65.248,53.6175,-0.14300000000000002,-0.0975,0.107895,0.10788500000000001,0.0,217.64499999999998,217.67000000000002,214.50666666666666,214.50666666666666,0.0,0.0
31,0.0,0.0,0.0,1.0,1.0,0.0,0.0,1.0,0.0,100.0,1.0,1.1856,26.0,0.0,0.0,0.0,59.999996,0.0,26.0,26.0,26.0,26.0,0.019777777777777894,0.2378,0.03916666666666667,289.108,-2.6842,-2.5484444444444443,-1.5623,-1.4653333333333334,-170.70999999999998,215.62,190.304,0.0,0.0,0.0,0.0,0.06263333333333332,-5.498166666666667,-5.498166666666667,-0.7803,-0.489,0.010444444444444256,0.7709999999999999,69.651,0.02983333333333338,-0.4532666666666667,-0.34750000000000014,100.0,1.0,1.0,214.72333333333333,0.0,0.0,0.0,0.0,0.0,0.0,0.0,9101.3,0.0,55.0,5.0,250.72666666666666,1.0,0.0,0.0,0.0,0.0,0.0,1.0,0.0,1.5539999999999985,1.5539999999999985,0.0,0.0,1.0,55.0,616.79921,10000.0,85.000001,85.000001,85.000001,85.000001,395.0,0.0,0.0,0.0,1.0,166.665,43.716,43.716,48.766999999999996,48.766999999999996,34.0,-25.8175,30.328,-27.41,29.450000000000003,0.0,1780.4266666666667,-0.2699999999999996,100.0,34.769,34.832,41.961,42.183,0.0,0.0,100.0,0.0,0.0,0.0,0.0,3677.25,3911.0,4094.25,4109.6,303.751,302.6206666666667,314.95725,314.7285,22.137,20.8231,22.417625,21.700333333333333,314.999998,314.999998,324.999988,324.999988,99.55904285714286,99.50986666666667,99.59142857142857,99.55691428571429,0.14000000000000012,-0.052999999999999936,-0.08400000000000007,0.15133333333333354,-0.03499999999999659,-0.06666666666666998,1.5085000000000002,1.4925,39.355999999999995,31.144,41.111000000000004,36.626999999999995,56.277,37.562,66.831,56.216499999999996,54.31,36.5435,65.2645,54.338499999999996,53.558,36.04,65.2575,53.6655,-0.139,-0.093,0.112125,0.10759,0.0,218.01,218.05,214.72333333333333,214.72333333333333,0.0,0.0
32,0.0,0.0,0.0,1.0,1.0,0.0,0.0,1.0,0.0,100.0,1.0,1.1856,26.0,0.0,0.0,0.0,59.999996,0.0,26.0,26.0,26.0,26.0,0.02866666666666684,0.2579,-0.0245,289.49,-2.6066000000000003,-2.609222222222222,-1.5473,-1.5241111111111112,-166.95,215.6175,190.277,0.0,0.0,0.0,0.0,0.06479999999999997,-5.498166666666667,-5.498166666666667,-0.7959,-0.114,-0.012333333333333307,0.21599999999999975,69.779,0.03299999999999992,-0.45996666666666675,-0.37250000000000005,100.0,1.0,1.0,215.23333333333335,0.0,0.0,0.0,0.0,0.0,0.0,0.0,9123.0,0.0,55.0,5.0,251.18333333333334,0.0,0.0,0.0,0.0,0.0,0.0,1.0,0.0,1.6080000000000005,1.6080000000000005,0.0,0.0,0.0,55.0,616.79921,10000.0,85.000001,85.000001,85.000001,85.000001,395.0,0.0,0.0,0.0,1.0,166.665,44.022,44.022,49.622,49.622,34.0,-25.085,29.404,-25.506,30.3975,0.0,1780.3733333333334,-0.23500000000000032,100.0,34.666,34.703,41.711,42.006,0.0,0.0,100.0,0.0,0.0,0.0,0.0,3658.25,3733.6,3943.25,4137.2,303.69866666666667,303.027,315.37425,314.8065,22.147625,20.8304,22.43,21.71066666666667,314.999998,314.999998,324.999988,324.999988,99.55905714285714,99.50986666666667,99.59158571428571,99.55707142857143,0.13633333333333342,-0.05666666666666664,-0.08099999999999996,0.15933333333333355,-0.030000000000001137,-0.06833333333332803,1.576,1.5565,39.423,31.189999999999998,41.188,36.691,56.275999999999996,37.611,66.8415,56.2665,54.308,36.589,65.2735,54.387,53.555,36.084,65.2625,53.713,-0.1335,-0.101,0.11327500000000001,0.10484,0.0,218.41500000000002,218.44,215.23333333333335,215.23333333333335,0.0,0.0
33,0.0,0.0,0.0,1.0,1.0,0.0,0.0,1.0,0.0,100.0,1.0,1.1856,26.0,0.0,0.0,0.0,59.999996,0.0,26.0,26.0,26.0,26.0,0.03788888888888886,0.25540000000000007,-0.028033333333333334,289.749,-2.6465,-2.5975555555555556,-1.5559,-1.5586666666666669,-163.8,215.6175,190.2535,0.0,0.0,0.0,0.0,0.06663333333333332,-5.498166666666667,-5.498166666666667,-0.8045,-0.297,-0.013444444444444592,-0.15399999999999991,69.887,0.030666666666666398,-0.44930000000000003,-0.1924999999999999,100.0,1.0,1.0,215.57333333333332,0.0,0.0,0.0,0.0,0.0,0.0,0.0,9137.3,0.0,55.0,5.0,251.57333333333332,1.0,0.0,0.0,0.0,0.0,0.0,1.0,0.0,1.6529999999999987,1.6529999999999987,0.0,0.0,1.0,55.0,616.79921,10000.0,85.000001,85.000001,85.000001,85.000001,395.0,0.0,0.0,0.0,1.0,166.665,44.327,44.327,49.82,49.82,34.0,-26.3875,27.966,-26.698,28.7725,0.0,1780.3277777777778,-0.2699999999999996,100.0,34.362,34.582,41.516999999999996,41.919,0.0,0.0,100.0,0.0,0.0,0.0,0.0,3737.25,3603.6,3985.25,3979.5,303.72266666666667,303.28066666666666,315.3675,315.077,22.1565,20.8363,22.44025,21.71911111111111,314.999998,314.999998,324.999988,324.999988,99.55907142857143,99.50988333333333,99.5917,99.5572,0.12766666666666637,-0.06266666666666665,-0.09733333333333327,0.14200000000000035,-0.054999999999999716,-0.036666666666668846,1.5655000000000001,1.556,39.477999999999994,31.227,41.251999999999995,36.745000000000005,56.275,37.6495,66.851,56.307,54.307,36.625,65.2815,54.4265,53.552,36.118,65.2675,53.7515,-0.134,-0.095,0.10784,0.10799500000000001,0.0,218.75,218.755,215.57333333333332,215.57333333333332,0.0,0.0
34,0.0,0.0,0.0,1.0,1.0,0.0,0.0,1.0,0.0,100.0,1.0,1.1856,26.0,0.0,0.0,0.0,59.999996,0.0,26.0,26.0,26.0,26.0,0.02544444444444438,0.24040000000000017,-0.05273333333333334,289.993,-2.5831,-2.5926666666666667,-1.6149,-1.5203333333333333,-160.24,215.6175,190.225625,0.0,0.0,0.0,0.0,0.06869999999999998,-5.498166666666667,-5.498166666666667,-0.8309000000000001,-0.7523333333333334,0.015111111111111075,0.8849999999999998,70.009,0.028999999999999915,-0.45553333333333335,-0.29000000000000004,100.0,1.0,1.0,215.94666666666666,0.0,0.0,0.0,0.0,0.0,0.0,0.0,9153.2,0.0,55.0,5.0,252.01333333333332,0.0,0.0,0.0,0.0,0.0,0.0,1.0,0.0,1.7040000000000006,1.7040000000000006,0.0,0.0,0.0,55.0,616.79921,10000.0,85.000001,85.000001,85.000001,85.000001,395.0,0.0,0.0,0.0,1.0,333.33500000000004,44.662,44.662,50.339,50.339,34.0,-24.41,28.451999999999998,-25.982,28.877499999999998,0.0,1780.2755555555555,-0.28000000000000025,100.0,34.292,34.163,41.39,41.889,0.0,0.0,100.0,0.0,0.0,0.0,0.0,3595.5,3631.7,3866.875,4019.5,303.93066666666664,303.27633333333335,315.62,315.01,22.1665,20.843,22.451875,21.72877777777778,314.999998,314.999998,324.999988,324.999988,99.5591,99.50988333333333,99.59185714285714,99.55734285714286,0.1339999999999999,-0.05566666666666675,-0.08733333333333348,0.14866666666666717,-0.02499999999999858,-0.04333333333332945,1.58,1.5645,39.541,31.2685,41.324,36.805,56.272999999999996,37.693,66.86,56.3555,54.304,36.665,65.289,54.4735,53.548,36.1565,65.2715,53.7975,-0.1385,-0.091,0.10853000000000002,0.10477500000000001,0.0,219.10500000000002,219.125,215.94666666666666,215.94666666666666,0.0,0.0
35,0.0,0.0,0.0,1.0,1.0,0.0,0.0,1.0,0.0,100.0,1.0,1.1856,26.0,0.0,0.0,0.0,59.999996,0.0,26.0,26.0,26.0,26.0,0.02544444444444438,0.24439999999999995,-0.08653333333333334,290.039,-2.6431,-2.537888888888889,-1.5905,-1.4795555555555557,-156.45,215.6175,190.194,0.0,0.0,0.0,0.0,0.07089999999999996,-5.498166666666667,-5.498166666666667,-0.8722000000000001,-0.254,-0.002666666666666817,-0.06099999999999994,70.136,0.03100000000000014,-0.4614333333333333,-0.3075000000000001,100.0,1.0,1.0,216.42333333333335,0.0,0.0,0.0,0.0,0.0,0.0,0.0,9173.3,0.0,55.0,5.0,252.47,1.0,0.0,0.0,0.0,0.0,0.0,1.0,0.0,1.7579999999999991,1.7579999999999991,0.0,0.0,1.0,55.0,616.79921,10000.0,85.000001,85.000001,85.000001,85.000001,395.0,0.0,0.0,0.0,1.0,166.665,44.174,44.174,50.003,50.003,34.0,-25.58,30.786,-24.548,26.4125,0.0,1780.2233333333334,-0.17999999999999972,100.0,34.054,34.446,41.184,41.35,0.0,0.0,100.0,0.0,0.0,0.0,0.0,3639.0,3961.6000000000004,3789.0,3821.5,303.802,302.366,315.75175,315.506,22.176875,20.8503,22.464125,21.738888888888887,314.999998,314.999998,324.999988,324.999988,99.55911428571429,99.5099,99.59201428571428,99.55751428571429,0.13166666666666638,-0.05333333333333323,-0.07699999999999996,0.14833333333333343,-0.03499999999999659,-0.04999999999999716,1.6095000000000002,1.619,39.605999999999995,31.3145,41.4,36.867999999999995,56.269,37.7415,66.8695,56.4015,54.3,36.71,65.297,54.5185,53.541,36.1995,65.276,53.841499999999996,-0.1285,-0.1,0.108535,0.10690000000000001,0.0,219.515,219.535,216.42333333333335,216.42333333333335,0.0,0.0
