,ABS Active,ABS Enabled,AID Allow Tire Blankets,AID Auto Blip,AID Auto Clutch,AID Auto Shift,AID Fuel Rate,AID Ideal Line,AID Mech Damage,AID Stability,AID Tire Wear Rate,Air Density,Air Temp,Ballast,Best Lap Delta,Best Lap Time,Brake Bias,Brake Pos,Brake Temp FL,Brake Temp FR,Brake Temp RL,Brake Temp RR,CG Accel Lateral,CG Accel Longitudinal,CG Accel Vertical,CG Height,Camber FL,Camber FR,Camber RL,Camber RR,Car Coord X,Car Coord Y,Car Coord Z,Car Damage Front,Car Damage Left,Car Damage Rear,Car Damage Right,Car Pos Norm,Caster FL,Caster FR,Chassis Pitch Angle,Chassis Pitch Rate,Chassis Roll Angle,Chassis Roll Rate,Chassis Velocity X,Chassis Velocity Y,Chassis Velocity Z,Chassis Yaw Rate,Clutch Pos,DRS Active,DRS Available,Drive Train Speed,ERS Heat Charging,ERS Is Charging,ERS Max Energy,ERS Power Level,ERS Recovery Level,Engine Brake Setting,Engine Limiter,Engine RPM,Flags,Fuel Level,Gear,Ground Speed,HR Sample Clock,In Pit,KERS Charge,KERS Deployed Energy,KERS Input,KERS Max Energy,LR Sample Clock,Lap Invalidated,Lap Time,Lap Time2,Last Lap Time,Last Sector Time,MR Sample Clock,Max Fuel,Max Power,Max RPM,Max Sus Travel FL,Max Sus Travel FR,Max Sus Travel RL,Max Sus Travel RR,Max Torque,Max Turbo Boost,Num Tires Off Track,Penalties Enabled,Position,Raw Data Sample Rate,Ride Height FL,Ride Height FR,Ride Height RL,Ride Height RR,Road Temp,Self Align Torque FL,Self Align Torque FR,Self Align Torque RL,Self Align Torque RR,Session Lap Count,Session Time Left,Steering Angle,Surface Grip,Suspension Travel FL,Suspension Travel FR,Suspension Travel RL,Suspension Travel RR,TC Active,TC Enabled,Throttle Pos,Tire Dirt Level FL,Tire Dirt Level FR,Tire Dirt Level RL,Tire Dirt Level RR,Tire Load FL,Tire Load FR,Tire Load RL,Tire Load RR,Tire Loaded Radius FL,Tire Loaded Radius FR,Tire Loaded Radius RL,Tire Loaded Radius RR,Tire Pressure FL,Tire Pressure FR,Tire Pressure RL,Tire Pressure RR,Tire Radius FL,Tire Radius FR,Tire Radius RL,Tire Radius RR,Tire Rubber Grip FL,Tire Rubber Grip FR,Tire Rubber Grip RL,Tire Rubber Grip RR,Tire Slip Angle FL,Tire Slip Angle FR,Tire Slip Angle RL,Tire Slip Angle RR,Tire Slip Ratio FL,Tire Slip Ratio FR,Tire Slip Ratio RL,Tire Slip Ratio RR,Tire Temp Core FL,Tire Temp Core FR,Tire Temp Core RL,Tire Temp Core RR,Tire Temp Inner FL,Tire Temp Inner FR,Tire Temp Inner RL,Tire Temp Inner RR,Tire Temp Middle FL,Tire Temp Middle FR,Tire Temp Middle RL,Tire Temp Middle RR,Tire Temp Outer FL,Tire Temp Outer FR,Tire Temp Outer RL,Tire Temp Outer RR,Toe In FL,Toe In FR,Toe In RL,Toe In RR,Turbo Boost,Wheel Angular Speed FL,Wheel Angular Speed FR,Wheel Angular Speed RL,Wheel Angular Speed RR,Wind Direction,Wind Speed
0,0.0,0.0,0.0,1.0,1.0,0.0,0.0,1.0,0.0,100.0,1.0,1.1856,26.0,0.0,0.0,0.0,59.99999,0.0,26.0,26.0,26.0,26.0,-0.10387499999999994,0.26290000000000013,0.09582500000000001,291.824,-2.6242,-2.5812222222222223,-1.4814,-1.5378,-275.43,216.36,190.98385714285715,0.0,0.0,0.0,0.0,0.0017333333333333645,-5.498166666666667,-5.498166666666667,-0.7491,1.0985,-0.01966666666666672,-1.44,65.59700000000001,-0.04559999999999986,-0.4409,1.2575000000000003,100.0,1.0,1.0,202.71666666666667,0.0,0.0,0.0,0.0,0.0,0.0,0.0,8592.4,0.0,55.0,5.0,236.12333333333333,0.0,0.0,0.0,0.0,0.0,0.0,0.0,0.0,0.006000000000000227,0.006000000000000227,0.0,0.0,0.0,55.0,616.79921,10000.0,85.0,85.0,85.0,85.0,395.0,0.0,0.0,0.0,1.0,20.0,44.373,44.373,52.46,52.46,34.0,-32.16,26.706,-27.926000000000002,21.274,0.0,1783.58,0.8049999999999997,100.0,33.608000000000004,33.02,38.484,38.262,0.0,0.0,100.0,0.0,0.0,0.0,0.0,3762.625,4091.8,3859.5,3609.8,303.476,301.7823333333333,315.6335,315.86425,21.83988888888889,20.629,22.083625,21.4191,314.99999,314.99999,324.99998,324.99998,99.55917142857143,99.50955,99.58918571428572,99.55338571428571,0.018749999999999822,-0.14966666666666661,-0.176333333333333,0.059333333333333016,-0.045000000000001705,-0.02833333333332888,1.6425,1.678,37.498999999999995,29.9315,39.022,34.869,56.604,36.2655,67.152,55.101,54.653,35.3495,65.6225,53.237,53.964,34.9,65.731,52.575,-0.049,-0.1695,0.10434,0.11043000000000001,0.0,205.565,205.45499999999998,202.71666666666667,202.71666666666667,0.0,0.0
1,0.0,0.0,0.0,1.0,1.0,0.0,0.0,1.0,0.0,100.0,1.0,1.1856,26.0,0.0,0.0,0.0,59.999996,0.0,26.0,26.0,26.0,26.0,-0.125,0.2943,-0.00825,290.894,-2.5421,-2.6823333333333332,-1.4952,-1.4793,-272.08,216.35750000000002,190.96371428571427,0.0,0.0,0.0,0.0,0.0036999999999999256,-5.498166666666667,-5.498166666666667,-0.6882,-0.3015000000000001,-0.05877777777777782,-0.33699999999999997,65.744,-0.060799999999999965,-0.42110000000000003,1.4450000000000003,100.0,1.0,1.0,202.76333333333332,0.0,0.0,0.0,0.0,0.0,0.0,0.0,8594.4,0.0,55.0,5.0,236.65333333333334,1.0,0.0,0.0,0.0,0.0,0.0,0.0,0.0,0.05699999999999861,0.05699999999999861,0.0,0.0,1.0,55.0,616.79921,10000.0,85.000001,85.000001,85.000001,85.000001,395.0,0.0,0.0,0.0,1.0,333.33500000000004,45.685,45.685,51.071,51.071,34.0,-30.1275,21.142,-32.496,26.198,0.0,1783.528,0.8250000000000002,100.0,33.889,33.06,40.572,39.408,0.0,0.0,100.0,0.0,0.0,0.0,0.0,3601.5,3266.6,4117.375,4530.4,303.757,304.41566666666665,314.869,313.52575,21.850666666666665,20.6353,22.096125,21.4289,314.999998,314.999998,324.999988,324.999988,99.55917142857143,99.50958333333334,99.58932857142857,99.55352857142857,0.015499999999999847,-0.15833333333333321,-0.19599999999999973,0.0303333333333331,-0.01999999999999602,-0.021666666666668277,1.4475,1.5,37.566,29.9705,39.101,34.931,56.598,36.315,67.1705,55.1535,54.646,35.394999999999996,65.639,53.288,53.956,34.9435,65.744,52.625,-0.043000000000000003,-0.1715,0.10679500000000001,0.10529500000000001,0.0,206.03,205.875,202.76333333333332,202.76333333333332,0.0,0.0
2,0.0,0.0,0.0,1.0,1.0,0.0,0.0,1.0,0.0,100.0,1.0,1.1856,26.0,0.0,0.0,0.0,59.999996,0.0,26.0,26.0,26.0,26.0,-0.14912499999999995,0.27849999999999997,-0.091975,291.672,-2.5301,-2.6973333333333334,-1.4717,-1.568,-268.52,216.35000000000002,190.94385714285715,0.0,0.0,0.0,0.0,0.005766666666666587,-5.498166666666667,-5.498166666666667,-0.7326,0.24949999999999994,-0.034333333333333105,2.551,65.886,-0.08119999999999994,-0.46390000000000003,1.63,100.0,1.0,1.0,203.69666666666666,0.0,0.0,0.0,0.0,0.0,0.0,0.0,8633.9,0.0,55.0,5.0,237.16666666666669,0.0,0.0,0.0,0.0,0.0,0.0,0.0,0.0,0.11100000000000065,0.11100000000000065,0.0,0.0,0.0,55.0,616.79921,10000.0,85.000001,85.000001,85.000001,85.000001,395.0,0.0,0.0,0.0,1.0,166.665,44.8,44.8,52.917,52.917,34.0,-32.495000000000005,22.794,-26.662,19.276,0.0,1783.475,0.6749999999999998,100.0,34.319,32.918,40.349000000000004,39.084,0.0,0.0,100.0,0.0,0.0,0.0,0.0,3787.5,3566.0,3489.5,3625.8,303.138,303.553,316.40775,315.9645,21.862222222222222,20.6417,22.109125,21.4389,314.999998,314.999998,324.999988,324.999988,99.55918571428572,99.5096,99.58948571428571,99.55367142857143,0.0040000000000000036,-0.17199999999999993,-0.2290000000000001,0.012666666666667048,-0.01999999999999602,-0.046666666666666856,1.692,1.7610000000000001,37.638999999999996,30.0105,39.182,34.992999999999995,56.593,36.3645,67.182,55.2,54.641,35.4405,65.649,53.333,53.949,34.987,65.751,52.669,-0.0545,-0.162,0.10375500000000001,0.11094500000000002,0.0,206.45,206.29500000000002,203.69666666666666,203.69666666666666,0.0,0.0
3,0.0,0.0,0.0,1.0,1.0,0.0,0.0,1.0,0.0,100.0,1.0,1.1856,26.0,0.0,0.0,0.0,59.999996,0.0,26.0,26.0,26.0,26.0,-0.14037500000000003,0.28090000000000015,0.08082500000000001,291.504,-2.6425,-2.611666666666667,-1.4832,-1.564,-265.36,216.3375,190.92542857142857,0.0,0.0,0.0,0.0,0.00759999999999994,-5.498166666666667,-5.498166666666667,-0.7001000000000001,-0.03950000000000009,-0.01088888888888917,-0.14600000000000002,66.022,-0.09200000000000008,-0.4193,1.2850000000000001,100.0,1.0,1.0,203.78333333333333,0.0,0.0,0.0,0.0,0.0,0.0,0.0,8637.7,0.0,55.0,5.0,237.65,1.0,0.0,0.0,0.0,0.0,0.0,0.0,0.0,0.15899999999999892,0.15899999999999892,0.0,0.0,1.0,55.0,616.79921,10000.0,85.000001,85.000001,85.000001,85.000001,395.0,0.0,0.0,0.0,1.0,166.665,46.021,46.021,50.995,50.995,34.0,-28.9,21.384,-32.444,23.152,0.0,1783.427,0.5,100.0,33.778,32.756,40.301,39.183,0.0,0.0,100.0,0.0,0.0,0.0,0.0,3393.375,3463.6,4053.5,4062.0,304.47333333333336,303.84933333333333,315.032,314.833,21.87211111111111,20.6476,22.120625,21.4479,314.999998,314.999998,324.999988,324.999988,99.55918571428572,99.50961666666667,99.58961428571429,99.5538,0.0182500000000001,-0.1673333333333331,-0.21933333333333316,0.01966666666666672,-0.04999999999999716,-0.04833333333333201,1.542,1.5819999999999999,37.7,30.0475,39.254,35.049,56.584,36.411500000000004,67.1945,55.2465,54.632,35.484,65.66,53.378,53.939,35.0285,65.759,52.713499999999996,-0.0735,-0.147,0.10736000000000001,0.10745500000000001,0.0,206.905,206.78,203.78333333333333,203.78333333333333,0.0,0.0
4,0.0,0.0,0.0,1.0,1.0,0.0,0.0,1.0,0.0,100.0,1.0,1.1856,26.0,0.0,0.0,0.0,59.999996,0.0,26.0,26.0,26.0,26.0,-0.16137499999999994,0.28370000000000006,-0.039325,291.702,-2.5693,-2.6686666666666667,-1.491,-1.5723,-262.18,216.325,190.9067142857143,0.0,0.0,0.0,0.0,0.009433333333333294,-5.498166666666667,-5.498166666666667,-0.7348,-0.6325000000000001,-0.08199999999999985,-0.45899999999999996,66.15,-0.09119999999999973,-0.4555,1.1775000000000002,100.0,1.0,1.0,204.37666666666667,0.0,0.0,0.0,0.0,0.0,0.0,0.0,8662.8,0.0,55.0,5.0,238.12,0.0,0.0,0.0,0.0,0.0,0.0,0.0,0.0,0.20700000000000074,0.20700000000000074,0.0,0.0,0.0,55.0,616.79921,10000.0,85.000001,85.000001,85.000001,85.000001,395.0,0.0,0.0,0.0,1.0,166.665,45.364,45.364,51.819,51.819,34.0,-32.2575,23.0,-29.662,18.88,0.0,1783.379,0.40000000000000036,100.0,33.749,32.621,40.607,39.092,0.0,0.0,100.0,0.0,0.0,0.0,0.0,3797.375,3533.3,3817.625,3464.8,303.291,303.644,315.5865,316.2725,21.881888888888888,20.6535,22.13225,21.4568,314.999998,314.999998,324.999988,324.999988,99.55918571428572,99.50965,99.58975714285714,99.55392857142857,0.014499999999999957,-0.15799999999999992,-0.21433333333333326,0.019000000000000128,-0.04999999999999716,-0.03499999999999659,1.637,1.678,37.762,30.0845,39.326,35.105000000000004,56.575,36.457499999999996,67.209,55.288,54.623000000000005,35.5265,65.6725,53.418,53.929,35.069,65.768,52.753,-0.0795,-0.1405,0.10724500000000001,0.10531000000000001,0.0,207.245,207.13,204.37666666666667,204.37666666666667,0.0,0.0
5,0.0,0.0,0.0,1.0,1.0,0.0,0.0,1.0,0.0,100.0,1.0,1.1856,26.0,0.0,0.0,0.0,59.999996,0.0,26.0,26.0,26.0,26.0,-0.13324999999999998,0.2752000000000001,-0.005975,291.626,-2.5907999999999998,-2.679222222222222,-1.4821,-1.5541,-258.81,216.305,190.88628571428572,0.0,0.0,0.0,0.0,0.011399999999999966,-5.498166666666667,-5.498166666666667,-0.7228,0.29799999999999993,-0.08011111111111147,-0.20099999999999996,66.28999999999999,-0.0918000000000001,-0.4307,1.0650000000000004,100.0,1.0,1.0,204.69,0.0,0.0,0.0,0.0,0.0,0.0,0.0,8676.1,0.0,55.0,5.0,238.62,1.0,0.0,0.0,0.0,0.0,0.0,0.0,0.0,0.2579999999999991,0.2579999999999991,0.0,0.0,1.0,55.0,616.79921,10000.0,85.000001,85.000001,85.000001,85.000001,395.0,0.0,0.0,0.0,1.0,333.33500000000004,45.807,45.807,51.727000000000004,51.727000000000004,34.0,-31.6725,22.076,-32.12,20.86,0.0,1783.326,0.07500000000000018,100.0,33.639,32.649,40.295,38.962,0.0,0.0,100.0,0.0,0.0,0.0,0.0,3766.375,3335.4,4022.625,3853.5,303.49533333333335,304.12233333333336,315.22775,315.30425,21.892666666666667,20.6597,22.144375,21.4662,314.999998,314.999998,324.999988,324.999988,99.5592,99.50966666666666,99.5899,99.55405714285715,0.021749999999999936,-0.15133333333333332,-0.22733333333333317,0.00633333333333308,-0.045000000000001705,-0.041666666666671404,1.5885,1.623,37.829,30.1235,39.403,35.164,56.569,36.5055,67.2225,55.333,54.617000000000004,35.570499999999996,65.6845,53.4615,53.921,35.111000000000004,65.777,52.795,-0.1,-0.1125,0.10288000000000001,0.10298500000000001,0.0,207.71,207.625,204.69,204.69,0.0,0.0
6,0.0,0.0,0.0,1.0,1.0,0.0,0.0,1.0,0.0,100.0,1.0,1.1856,26.0,0.0,0.0,0.0,59.999996,0.0,26.0,26.0,26.0,26.0,-0.10412500000000002,0.2679,-0.0146,291.473,-2.5611,-2.7055555555555557,-1.5279,-1.5475,-255.62,216.285,190.867,0.0,0.0,0.0,0.0,0.013266666666666538,-5.498166666666667,-5.498166666666667,-0.7215,0.09250000000000003,-0.05944444444444441,-0.44699999999999995,66.419,-0.08340000000000014,-0.4361333333333333,0.6625000000000001,100.0,1.0,1.0,205.13666666666666,0.0,0.0,0.0,0.0,0.0,0.0,0.0,8695.0,0.0,55.0,5.0,239.08666666666667,0.0,0.0,0.0,0.0,0.0,0.0,0.0,0.0,0.30600000000000094,0.30600000000000094,0.0,0.0,0.0,55.0,616.79921,10000.0,85.000001,85.000001,85.000001,85.000001,395.0,0.0,0.0,0.0,1.0,333.33500000000004,45.394999999999996,45.394999999999996,51.650999999999996,51.650999999999996,34.0,-30.345,24.22,-30.54,21.066,0.0,1783.279,-0.1299999999999999,100.0,33.604,32.844,40.391999999999996,39.328,0.0,0.0,100.0,0.0,0.0,0.0,0.0,3776.625,3462.5,3890.125,3778.3,303.412,303.6116666666667,315.54,315.494,21.90277777777778,20.6657,22.156,21.4753,314.999998,314.999998,324.999988,324.999988,99.5592,99.50968333333333,99.59002857142858,99.55418571428571,0.04349999999999987,-0.1356666666666666,-0.20899999999999963,0.023333333333333428,-0.045000000000001705,-0.030000000000001137,1.597,1.629,37.891999999999996,30.1605,39.474999999999994,35.22,56.563,36.5505,67.2345,55.378,54.611000000000004,35.612,65.695,53.504999999999995,53.914,35.1505,65.7845,52.838,-0.1215,-0.092,0.11231000000000001,0.11055000000000001,0.0,208.09,208.01,205.13666666666666,205.13666666666666,0.0,0.0
7,0.0,0.0,0.0,1.0,1.0,0.0,0.0,1.0,0.0,100.0,1.0,1.1856,26.0,0.0,0.0,0.0,59.999996,0.0,26.0,26.0,26.0,26.0,-0.08037499999999997,0.27890000000000015,0.045175,291.229,-2.5312,-2.642333333333333,-1.4895,-1.5893000000000002,-252.23,216.2625,190.84657142857142,0.0,0.0,0.0,0.0,0.015233333333333321,-5.498166666666667,-5.498166666666667,-0.7233,0.03200000000000003,-0.042888888888888754,1.1670000000000003,66.557,-0.06259999999999977,-0.44296666666666673,0.26750000000000007,100.0,1.0,1.0,205.5,0.0,0.0,0.0,0.0,0.0,0.0,0.0,8710.3,0.0,55.0,5.0,239.58333333333331,1.0,0.0,0.0,0.0,0.0,0.0,0.0,0.0,0.3569999999999993,0.3569999999999993,0.0,0.0,1.0,55.0,616.79921,10000.0,85.000001,85.000001,85.000001,85.000001,395.0,0.0,0.0,0.0,1.0,333.33500000000004,45.135,45.135,51.712,51.712,34.0,-28.48,25.732,-28.247999999999998,24.232,0.0,1783.227,-0.29499999999999993,100.0,33.879,32.773,40.477000000000004,39.481,0.0,0.0,100.0,0.0,0.0,0.0,0.0,3725.75,3613.6,3820.25,3901.5,303.3283333333333,303.344,315.5945,315.198,21.913333333333334,20.6721,22.16825,21.4849,314.999998,314.999998,324.999988,324.999988,99.5592,99.5097,99.59017142857142,99.55434285714286,0.06850000000000023,-0.11266666666666669,-0.1783333333333328,0.05799999999999983,-0.041666666666671404,-0.05833333333333002,1.5865,1.597,37.959,30.200499999999998,39.551,35.28,56.558,36.5975,67.2475,55.426,54.605999999999995,35.655,65.706,53.5515,53.907,35.1915,65.792,52.8835,-0.132,-0.08750000000000001,0.11005000000000001,0.11153500000000001,0.0,208.485,208.45,205.5,205.5,0.0,0.0
8,0.0,0.0,0.0,1.0,1.0,0.0,0.0,1.0,0.0,100.0,1.0,1.1856,26.0,0.0,0.0,0.0,59.999996,0.0,26.0,26.0,26.0,26.0,-0.03862500000000002,0.2774000000000001,-0.0246,291.519,-2.6199,-2.6255555555555556,-1.4715,-1.5414,-248.82999999999998,216.235,190.826,0.0,0.0,0.0,0.0,0.017199999999999993,-5.498166666666667,-5.498166666666667,-0.7286,-0.5900000000000001,-0.02933333333333321,-0.503,66.695,-0.03919999999999968,-0.43996666666666673,-0.0924999999999998,100.0,1.0,1.0,205.86666666666667,0.0,0.0,0.0,0.0,0.0,0.0,0.0,8725.9,0.0,55.0,5.0,240.07999999999998,0.0,0.0,0.0,0.0,0.0,0.0,0.0,0.0,0.40800000000000125,0.40800000000000125,0.0,0.0,0.0,55.0,616.79921,10000.0,85.000001,85.000001,85.000001,85.000001,395.0,0.0,0.0,0.0,1.0,333.33500000000004,45.882999999999996,45.882999999999996,51.147,51.147,34.0,-27.384999999999998,25.5,-27.718,24.526,0.0,1783.176,-0.3900000000000001,100.0,33.263,32.876,40.338,39.66,0.0,0.0,100.0,0.0,0.0,0.0,0.0,3596.25,3503.2,3948.5,3871.9,304.052,303.594,315.32825,315.1905,21.92377777777778,20.6784,22.180374999999998,21.4945,314.999998,314.999998,324.999988,324.999988,99.55921428571429,99.50971666666666,99.59031428571429,99.55447142857143,0.07900000000000018,-0.09766666666666679,-0.14833333333333254,0.07733333333333281,-0.051666666666669414,-0.03999999999999915,1.5805,1.574,38.024,30.240000000000002,39.628,35.34,56.552,36.6425,67.26,55.473,54.599000000000004,35.697,65.717,53.597,53.899,35.2315,65.7995,52.928,-0.145,-0.0765,0.097475,0.10364000000000001,0.0,208.88,208.885,205.86666666666667,205.86666666666667,0.0,0.0
9,0.0,0.0,0.0,1.0,1.0,0.0,0.0,1.0,0.0,100.0,1.0,1.1856,26.0,0.0,0.0,0.0,59.999996,0.0,26.0,26.0,26.0,26.0,-0.007750000000000035,0.2755000000000001,-0.02155,291.153,-2.6116,-2.6254444444444447,-1.5325,-1.5172,-245.63,216.21,190.80614285714285,0.0,0.0,0.0,0.0,0.019066666666666565,-5.498166666666667,-5.498166666666667,-0.7323000000000001,0.7224999999999999,-0.0257777777777779,-0.31099999999999994,66.821,-0.01880000000000015,-0.4385,-0.15749999999999975,100.0,1.0,1.0,206.38333333333333,0.0,0.0,0.0,0.0,0.0,0.0,0.0,8747.8,0.0,55.0,5.0,240.53,1.0,0.0,0.0,0.0,0.0,0.0,0.0,0.0,0.4559999999999995,0.4559999999999995,0.0,0.0,1.0,55.0,616.79921,10000.0,85.000001,85.000001,85.000001,85.000001,395.0,0.0,0.0,0.0,1.0,333.33500000000004,44.647,44.647,52.155,52.155,34.0,-29.2225,27.28,-26.222,25.134,0.0,1783.129,-0.46999999999999975,100.0,33.807,33.347,39.933,39.622,0.0,0.0,100.0,0.0,0.0,0.0,0.0,3938.625,3588.3,3808.5,3865.4,302.9596666666667,303.25033333333334,315.7895,315.3165,21.933777777777777,20.6846,22.19175,21.5034,314.999998,314.999998,324.999988,324.999988,99.55922857142858,99.50973333333333,99.59044285714286,99.5546,0.10024999999999995,-0.07866666666666666,-0.13566666666666727,0.10500000000000043,-0.03833333333332689,-0.045000000000001705,1.653,1.633,38.086,30.2785,39.699,35.396,56.55,36.6865,67.268,55.516,54.597,35.7375,65.7235,53.638999999999996,53.894999999999996,35.2705,65.8035,52.969,-0.1505,-0.07050000000000001,0.10321500000000002,0.11696000000000001,0.0,209.285,209.29000000000002,206.38333333333333,206.38333333333333,0.0,0.0
10,0.0,0.0,0.0,1.0,1.0,0.0,0.0,1.0,0.0,100.0,1.0,1.1856,26.0,0.0,0.0,0.0,59.999996,0.0,26.0,26.0,26.0,26.0,0.012499999999999956,0.27780000000000005,0.0543,291.031,-2.5864000000000003,-2.6045555555555557,-1.5146000000000002,-1.4947000000000001,-242.22,216.1825,190.78528571428572,0.0,0.0,0.0,0.0,0.021066666666666567,-5.498166666666667,-5.498166666666667,-0.7131000000000001,-0.728,0.019888888888888845,1.6800000000000002,66.96000000000001,0.0026000000000001577,-0.43383333333333335,-0.5749999999999997,100.0,1.0,1.0,206.58333333333331,0.0,0.0,0.0,0.0,0.0,0.0,0.0,8756.3,0.0,55.0,5.0,241.03333333333336,0.0,0.0,0.0,0.0,0.0,0.0,1.0,0.0,0.5069999999999979,0.5069999999999979,0.0,0.0,0.0,55.0,616.79921,10000.0,85.000001,85.000001,85.000001,85.000001,395.0,0.0,0.0,0.0,1.0,333.33500000000004,45.715,45.715,50.598,50.598,34.0,-23.165,27.555999999999997,-26.978,29.052,0.0,1783.078,-0.5549999999999997,100.0,33.728,33.176,40.508,40.322,0.0,0.0,100.0,0.0,0.0,0.0,0.0,3372.625,3576.4,4008.25,4116.6,304.51033333333334,303.53266666666667,315.1145,314.7025,21.944222222222223,20.6911,22.204,21.5132,314.999998,314.999998,324.999988,324.999988,99.55925714285715,99.50973333333333,99.59058571428571,99.55474285714286,0.12325000000000008,-0.06099999999999994,-0.10599999999999987,0.13866666666666738,-0.03999999999999915,-0.04999999999999716,1.5385,1.5110000000000001,38.150999999999996,30.319,39.775,35.458,56.547,36.7305,67.282,55.567,54.594,35.778,65.736,53.6885,53.89,35.309,65.812,53.018,-0.154,-0.066,0.107115,0.11504,0.0,209.685,209.72,206.58333333333331,206.58333333333331,0.0,0.0
11,0.0,0.0,0.0,1.0,1.0,0.0,0.0,1.0,0.0,100.0,1.0,1.1856,26.0,0.0,0.0,0.0,59.999996,0.0,26.0,26.0,26.0,26.0,0.059374999999999956,0.2601,-0.08912500000000001,291.534,-2.6313,-2.5628888888888888,-1.5647,-1.4846000000000001,-238.8,216.155,190.76457142857143,0.0,0.0,0.0,0.0,0.022599999999999953,-5.498166666666667,-5.498166666666667,-0.7552,-0.02950000000000008,0.038111111111110985,-0.7929999999999999,67.089,0.02320000000000011,-0.4614666666666667,-0.6600000000000001,100.0,1.0,1.0,207.34,0.0,0.0,0.0,0.0,0.0,0.0,0.0,8788.4,0.0,55.0,5.0,241.5,1.0,0.0,0.0,0.0,0.0,0.0,1.0,0.0,0.5579999999999998,0.5579999999999998,0.0,0.0,1.0,55.0,616.79921,10000.0,85.000001,85.000001,85.000001,85.000001,395.0,0.0,0.0,0.0,1.0,166.665,45.028999999999996,45.028999999999996,52.292,52.292,34.0,-25.57,29.002000000000002,-22.09,24.948,0.0,1783.027,-0.5449999999999999,100.0,33.394,33.642,39.842,40.230000000000004,0.0,0.0,100.0,0.0,0.0,0.0,0.0,3685.625,3675.6,3516.75,3660.5,303.7543333333333,302.99033333333335,316.5035,315.80225,21.954444444444444,20.6977,22.216,21.5228,314.999998,314.999998,324.999988,324.999988,99.55927142857144,99.50975,99.59071428571428,99.55488571428572,0.13149999999999995,-0.04699999999999993,-0.09133333333333304,0.15066666666666695,-0.060000000000002274,-0.060000000000002274,1.7155,1.6880000000000002,38.216,30.360500000000002,39.849999999999994,35.516999999999996,56.544,36.7755,67.2885,55.613,54.59,35.8195,65.741,53.733000000000004,53.885,35.349000000000004,65.8135,53.0615,-0.1535,-0.0665,0.110935,0.10883000000000001,0.0,210.11,210.135,207.34,207.34,0.0,0.0
12,0.0,0.0,0.0,1.0,1.0,0.0,0.0,1.0,0.0,100.0,1.0,1.1856,26.0,0.0,0.0,0.0,59.999996,0.0,26.0,26.0,26.0,26.0,0.056499999999999995,0.2814000000000001,0.029625000000000002,290.878,-2.6767000000000003,-2.559222222222222,-1.5301,-1.4883000000000002,-235.37,216.1275,190.74242857142858,0.0,0.0,0.0,0.0,0.025466666666666526,-5.498166666666667,-5.498166666666667,-0.7383000000000001,0.16849999999999998,0.025111111111111084,0.7890000000000001,67.227,0.0398000000000005,-0.4344,-0.7324999999999999,100.0,1.0,1.0,207.47,0.0,0.0,0.0,0.0,0.0,0.0,0.0,8793.9,0.0,55.0,5.0,241.99666666666667,0.0,0.0,0.0,0.0,0.0,0.0,1.0,0.0,0.6089999999999982,0.6089999999999982,0.0,0.0,0.0,55.0,616.79921,10000.0,85.000001,85.000001,85.000001,85.000001,395.0,0.0,0.0,0.0,1.0,166.665,44.922,44.922,50.812,50.812,34.0,-24.745,31.242,-24.287999999999997,29.866,0.0,1782.977,-0.895,100.0,33.472,33.633,39.982,40.149,0.0,0.0,100.0,0.0,0.0,0.0,0.0,3617.625,3805.9,3955.75,4046.4,303.80566666666664,302.798,315.281,314.914,21.964777777777776,20.7043,22.228,21.5324,314.999998,314.999998,324.999988,324.999988,99.55928571428572,99.50975,99.59087142857143,99.55502857142856,0.1495000000000002,-0.021666666666666723,-0.06099999999999994,0.17433333333333323,-0.02833333333332888,-0.05333333333332746,1.5885,1.5590000000000002,38.28,30.402,39.925,35.577,56.542,36.82,67.3005,55.661,54.588,35.8605,65.751,53.78,53.881,35.3885,65.8205,53.1075,-0.163,-0.0585,0.10838,0.10788,0.0,210.53,210.57,207.47,207.47,0.0,0.0
13,0.0,0.0,0.0,1.0,1.0,0.0,0.0,1.0,0.0,100.0,1.0,1.1856,26.0,0.0,0.0,0.0,59.999996,0.0,26.0,26.0,26.0,26.0,0.07075000000000009,0.2722,0.0546,290.588,-2.6595,-2.561777777777778,-1.5649000000000002,-1.4705000000000001,-232.14,216.10500000000002,190.72214285714287,0.0,0.0,0.0,0.0,0.026899999999999924,-5.498166666666667,-5.498166666666667,-0.735,-0.07350000000000012,0.03122222222222204,0.903,67.35300000000001,0.05200000000000049,-0.4446,-0.9449999999999998,100.0,1.0,1.0,207.83333333333331,0.0,0.0,0.0,0.0,0.0,0.0,0.0,8809.3,0.0,55.0,5.0,242.45,1.0,0.0,0.0,0.0,0.0,0.0,1.0,0.0,0.657,0.657,0.0,0.0,1.0,55.0,616.79921,10000.0,85.000001,85.000001,85.000001,85.000001,395.0,0.0,0.0,0.0,1.0,166.665,44.601,44.601,50.964,50.964,34.0,-23.544999999999998,31.682000000000002,-24.052,30.674,0.0,1782.929,-0.71,100.0,33.825,33.862,40.120000000000005,40.614000000000004,0.0,0.0,100.0,0.0,0.0,0.0,0.0,3634.25,3793.7,3902.125,4146.9,303.73766666666666,302.8213333333333,315.426,314.6625,21.974666666666668,20.7107,22.2395,21.5416,314.999998,314.999998,324.999988,324.999988,99.55931428571428,99.50975,99.591,99.55517142857143,0.17074999999999996,-0.012333333333333307,-0.05366666666666653,0.1756666666666673,-0.04333333333332945,-0.06666666666666998,1.568,1.545,38.342,30.441499999999998,39.997,35.635,56.543,36.8615,67.31,55.709,54.588,35.899,65.759,53.826,53.879000000000005,35.425,65.825,53.153,-0.1645,-0.059500000000000004,0.112225,0.10246000000000001,0.0,210.905,210.96,207.83333333333331,207.83333333333331,0.0,0.0
14,0.0,0.0,0.0,1.0,1.0,0.0,0.0,1.0,0.0,100.0,1.0,1.1856,26.0,0.0,0.0,0.0,59.999996,0.0,26.0,26.0,26.0,26.0,0.10112500000000013,0.2579,-0.010275000000000001,290.802,-2.6635,-2.522444444444444,-1.5753,-1.4542000000000002,-228.7,216.08249999999998,190.70085714285713,0.0,0.0,0.0,0.0,0.028899999999999926,-5.498166666666667,-5.498166666666667,-0.7447,-0.18300000000000005,0.058666666666666645,-0.02300000000000002,67.48400000000001,0.06519999999999992,-0.45790000000000003,-0.9849999999999999,100.0,1.0,1.0,208.32999999999998,0.0,0.0,0.0,0.0,0.0,0.0,0.0,8830.4,0.0,55.0,5.0,242.92000000000002,0.0,0.0,0.0,0.0,0.0,0.0,1.0,0.0,0.7079999999999984,0.7079999999999984,0.0,0.0,0.0,55.0,616.79921,10000.0,85.000001,85.000001,85.000001,85.000001,395.0,0.0,0.0,0.0,1.0,333.33500000000004,44.693,44.693,51.102000000000004,51.102000000000004,34.0,-23.29,31.374,-22.708,29.47,0.0,1782.877,-0.7450000000000001,100.0,33.572,34.104,39.982,40.908,0.0,0.0,100.0,0.0,0.0,0.0,0.0,3619.25,3775.7,3781.5,3966.0,303.95933333333335,302.721,315.78275,315.03475,21.985,20.7174,22.2515,21.5513,314.999998,314.999998,324.999988,324.999988,99.55932857142857,99.50976666666666,99.59112857142857,99.5553,0.17125000000000012,-0.010333333333333306,-0.04566666666666652,0.1893333333333329,-0.04999999999999716,-0.05333333333332746,1.6015,1.579,38.406,30.4835,40.072,35.696,56.544,36.905,67.3195,55.7575,54.588,35.939499999999995,65.767,53.874,53.876999999999995,35.463499999999996,65.8295,53.2,-0.17400000000000002,-0.0545,0.10293500000000001,0.1078,0.0,211.3,211.38,208.32999999999998,208.32999999999998,0.0,0.0
15,0.0,0.0,0.0,1.0,1.0,0.0,0.0,1.0,0.0,100.0,1.0,1.1856,26.0,0.0,0.0,0.0,59.999996,0.0,26.0,26.0,26.0,26.0,0.11824999999999997,0.26760000000000006,-0.059925000000000006,290.833,-2.642,-2.470777777777778,-1.6047,-1.4159000000000002,-225.46,216.0625,190.68042857142856,0.0,0.0,0.0,0.0,0.03079999999999994,-5.498166666666667,-5.498166666666667,-0.7363000000000001,0.19199999999999995,0.09244444444444433,-0.489,67.60900000000001,0.07640000000000047,-0.4423,-1.1524999999999999,100.0,1.0,1.0,208.69333333333333,0.0,0.0,0.0,0.0,0.0,0.0,0.0,8845.7,0.0,55.0,5.0,243.36666666666667,1.0,0.0,0.0,0.0,0.0,0.0,1.0,0.0,0.7560000000000002,0.7560000000000002,0.0,0.0,1.0,55.0,616.79921,10000.0,85.000001,85.000001,85.000001,85.000001,395.0,0.0,0.0,0.0,1.0,166.665,44.907,44.907,51.239,51.239,34.0,-21.0975,30.742,-22.04,31.092,0.0,1782.83,-0.7799999999999998,100.0,33.633,34.227000000000004,39.722,41.009,0.0,0.0,100.0,0.0,0.0,0.0,0.0,3430.375,3745.4,3734.625,4143.3,304.47066666666666,302.8043333333333,315.928,314.61475,21.994777777777777,20.7238,22.262625,21.5605,314.999998,314.999998,324.999988,324.999988,99.55935714285714,99.50976666666666,99.59127142857143,99.55544285714285,0.18299999999999983,-0.005666666666666709,-0.03233333333333288,0.19966666666666733,-0.021666666666668277,-0.045000000000001705,1.6139999999999999,1.572,38.467,30.5235,40.141999999999996,35.753,56.545,36.9465,67.3265,55.805,54.588,35.9775,65.77250000000001,53.92,53.876000000000005,35.5005,65.8315,53.2455,-0.17400000000000002,-0.0525,0.10460000000000001,0.10308,0.0,211.685,211.78,208.69333333333333,208.69333333333333,0.0,0.0
16,0.0,0.0,0.0,1.0,1.0,0.0,0.0,1.0,0.0,100.0,1.0,1.1856,26.0,0.0,0.0,0.0,59.999996,0.0,26.0,26.0,26.0,26.0,0.11462499999999998,0.2582,-0.02185,290.833,-2.7213000000000003,-2.492111111111111,-1.5715,-1.4386,-222.01,216.04500000000002,190.65842857142857,0.0,0.0,0.0,0.0,0.03279999999999994,-5.498166666666667,-5.498166666666667,-0.7616,-0.6739999999999999,0.07322222222222208,0.06800000000000006,67.74000000000001,0.08640000000000025,-0.4605,-1.165,100.0,1.0,1.0,209.13333333333333,0.0,0.0,0.0,0.0,0.0,0.0,0.0,8864.3,0.0,55.0,5.0,243.84333333333336,0.0,0.0,0.0,0.0,0.0,0.0,1.0,0.0,0.8069999999999986,0.8069999999999986,0.0,0.0,0.0,55.0,616.79921,10000.0,85.000001,85.000001,85.000001,85.000001,395.0,0.0,0.0,0.0,1.0,333.33500000000004,44.647,44.647,51.071,51.071,34.0,-22.4375,33.66,-20.256,30.478,0.0,1782.778,-0.7050000000000001,100.0,33.452,34.149,40.044,40.984,0.0,0.0,100.0,0.0,0.0,0.0,0.0,3579.125,3930.4,3667.375,3902.4,304.0806666666667,302.4766666666667,316.012,315.218,22.00477777777778,20.7306,22.27475,21.5702,314.999998,314.999998,324.999988,324.999988,99.55938571428571,99.50976666666666,99.59141428571428,99.5556,0.19399999999999995,0.016000000000000014,-0.012333333333333307,0.22866666666666724,-0.04833333333333201,-0.03499999999999659,1.6405,1.579,38.53,30.566,40.217,35.814,56.542,36.9905,67.337,55.8535,54.585,36.0185,65.781,53.967,53.870999999999995,35.539500000000004,65.8365,53.2915,-0.1635,-0.06,0.106075,0.112555,0.0,212.06,212.14,209.13333333333333,209.13333333333333,0.0,0.0
17,0.0,0.0,0.0,1.0,1.0,0.0,0.0,1.0,0.0,100.0,1.0,1.1856,26.0,0.0,0.0,0.0,59.999996,0.0,26.0,26.0,26.0,26.0,0.107375,0.28370000000000006,0.022350000000000002,290.39,-2.6844,-2.470777777777778,-1.6123,-1.4187,-218.55,216.0325,190.63571428571427,0.0,0.0,0.0,0.0,0.03479999999999994,-5.498166666666667,-5.498166666666667,-0.7461,0.43999999999999995,0.05233333333333312,-0.579,67.87100000000001,0.08740000000000059,-0.43753333333333333,-1.0525,100.0,1.0,1.0,209.43333333333334,0.0,0.0,0.0,0.0,0.0,0.0,0.0,8877.1,0.0,55.0,5.0,244.31333333333333,1.0,0.0,0.0,0.0,0.0,0.0,1.0,0.0,0.8580000000000005,0.8580000000000005,0.0,0.0,1.0,55.0,616.79921,10000.0,85.000001,85.000001,85.000001,85.000001,395.0,0.0,0.0,0.0,1.0,333.33500000000004,44.479,44.479,50.751,50.751,34.0,-22.8475,30.542,-24.122,31.29,0.0,1782.726,-0.8199999999999998,100.0,33.823,34.553,39.774,41.071,0.0,0.0,100.0,0.0,0.0,0.0,0.0,3688.625,3674.2,4106.5,4098.2,303.81266666666664,303.07866666666666,315.1335,314.783,22.01522222222222,20.7375,22.286625,21.5799,314.999998,314.999998,324.999988,324.999988,99.55941428571428,99.50976666666666,99.59155714285714,99.55574285714286,0.19225000000000003,0.0043333333333333,-0.019999999999999574,0.20900000000000052,-0.045000000000001705,-0.05333333333332746,1.6085,1.5310000000000001,38.595,30.6095,40.291,35.874,56.546,37.036,67.3455,55.902,54.588,36.0605,65.788,54.0145,53.870999999999995,35.58,65.84,53.338499999999996,-0.178,-0.0585,0.10815500000000002,0.10334000000000002,0.0,212.515,212.595,209.43333333333334,209.43333333333334,0.0,0.0
18,0.0,0.0,0.0,1.0,1.0,0.0,0.0,1.0,0.0,100.0,1.0,1.1856,26.0,0.0,0.0,0.0,59.999996,0.0,26.0,26.0,26.0,26.0,0.1312500000000001,0.26670000000000016,-0.01905,290.421,-2.7231,-2.439,-1.6346,-1.3788,-215.29,216.0225,190.61471428571429,0.0,0.0,0.0,0.0,0.036699999999999955,-5.498166666666667,-5.498166666666667,-0.7607,-0.5435000000000001,0.0815555555555556,-0.21199999999999997,67.993,0.0895999999999999,-0.4602,-1.2625,100.0,1.0,1.0,209.86666666666667,0.0,0.0,0.0,0.0,0.0,0.0,0.0,8895.5,0.0,55.0,5.0,244.75333333333333,0.0,0.0,0.0,0.0,0.0,0.0,1.0,0.0,0.9059999999999988,0.9059999999999988,0.0,0.0,0.0,55.0,616.79921,10000.0,85.000001,85.000001,85.000001,85.000001,395.0,0.0,0.0,0.0,1.0,333.33500000000004,44.22,44.22,50.781,50.781,34.0,-22.9,33.71,-22.522,29.372,0.0,1782.679,-1.045,100.0,33.603,34.512,40.096000000000004,41.45,0.0,0.0,100.0,0.0,0.0,0.0,0.0,3698.25,3916.5,3802.75,3961.6000000000004,303.83633333333336,302.36966666666666,315.79725,315.0955,22.02477777777778,20.7439,22.298000000000002,21.5891,314.999998,314.999998,324.999988,324.999988,99.55944285714286,99.50976666666666,99.59168571428572,99.55587142857142,0.20000000000000018,0.027666666666666728,-0.026666666666667282,0.21033333333333282,-0.03833333333332689,-0.046666666666666856,1.6385,1.5899999999999999,38.655,30.6495,40.361999999999995,35.932,56.547,37.0775,67.355,55.9495,54.588,36.0995,65.79599999999999,54.061,53.870000000000005,35.6175,65.8445,53.384,-0.191,-0.036000000000000004,0.11067,0.10744000000000001,0.0,212.845,212.925,209.86666666666667,209.86666666666667,0.0,0.0
19,0.0,0.0,0.0,1.0,1.0,0.0,0.0,1.0,0.0,100.0,1.0,1.1856,26.0,0.0,0.0,0.0,59.999996,0.0,26.0,26.0,26.0,26.0,0.15850000000000009,0.28100000000000014,0.0514,289.825,-2.6372,-2.430111111111111,-1.6480000000000001,-1.365,-211.82,216.015,190.59214285714285,0.0,0.0,0.0,0.0,0.0387333333333334,-5.498166666666667,-5.498166666666667,-0.7481,0.8295,0.09299999999999997,0.9259999999999999,68.123,0.10320000000000018,-0.44596666666666673,-1.7725,100.0,1.0,1.0,210.21,0.0,0.0,0.0,0.0,0.0,0.0,0.0,8910.1,0.0,55.0,5.0,245.21666666666667,1.0,0.0,0.0,0.0,0.0,0.0,1.0,0.0,0.9570000000000007,0.9570000000000007,0.0,0.0,1.0,55.0,616.79921,10000.0,85.000001,85.000001,85.000001,85.000001,395.0,0.0,0.0,0.0,1.0,333.33500000000004,43.579,43.579,50.461,50.461,34.0,-19.4075,35.766,-22.278,33.88,0.0,1782.627,-1.3050000000000002,100.0,34.323,34.944,39.951,41.389,0.0,0.0,100.0,0.0,0.0,0.0,0.0,3595.5,4017.0,3945.25,4297.7,303.78333333333336,302.13166666666666,315.454,314.401,22.035222222222224,20.751,22.30975,21.5989,314.999998,314.999998,324.999988,324.999988,99.55947142857143,99.50978333333333,99.59181428571429,99.55602857142857,0.23775000000000013,0.04999999999999982,0.005333333333332746,0.24166666666666714,-0.03166666666666629,-0.04999999999999716,1.6065,1.544,38.72,30.6935,40.436,35.993,56.552,37.126,67.362,55.9995,54.593,36.144,65.8015,54.1095,53.872,35.6605,65.84649999999999,53.432,-0.218,-0.021500000000000002,0.11249,0.102845,0.0,213.275,213.39,210.21,210.21,0.0,0.0
20,0.0,0.0,0.0,1.0,1.0,0.0,0.0,1.0,0.0,100.0,1.0,1.1856,26.0,0.0,0.0,0.0,59.999996,0.0,26.0,26.0,26.0,26.0,0.19274999999999998,0.25960000000000005,-0.053500000000000006,290.237,-2.7491,-2.4783333333333335,-1.5857999999999999,-1.474,-208.34,216.01,190.5697142857143,0.0,0.0,0.0,0.0,0.0407333333333334,-5.498166666666667,-5.498166666666667,-0.7593000000000001,-1.202,0.10288888888888881,-0.673,68.253,0.12119999999999997,-0.4663333333333333,-1.9949999999999999,100.0,1.0,1.0,210.53,0.0,0.0,0.0,0.0,0.0,0.0,0.0,8923.6,0.0,55.0,5.0,245.69333333333333,0.0,0.0,0.0,0.0,0.0,0.0,0.0,0.0,1.0079999999999991,1.0079999999999991,0.0,0.0,0.0,55.0,616.79921,10000.0,85.000001,85.000001,85.000001,85.000001,395.0,0.0,0.0,0.0,1.0,333.33500000000004,44.601,44.601,50.064,50.064,34.0,-19.7325,34.62,-20.148,34.120000000000005,0.0,1782.576,-1.3050000000000002,100.0,33.582,34.882,40.334,42.022999999999996,0.0,0.0,100.0,0.0,0.0,0.0,0.0,3435.5,3808.2,3847.0,4070.7,304.585,302.62966666666665,315.603,314.68725,22.04511111111111,20.7579,22.321875,21.6088,314.999998,314.999998,324.999988,324.999988,99.5595,99.5098,99.59197142857143,99.55617142857143,0.23125000000000018,0.05500000000000016,0.02200000000000024,0.2506666666666675,-0.04833333333333201,-0.04999999999999716,1.5835,1.52,38.782,30.7365,40.512,36.055,56.554,37.1725,67.374,56.0515,54.593,36.1875,65.8115,54.1605,53.870000000000005,35.702,65.853,53.4825,-0.2115,-0.01,0.106065,0.10311000000000001,0.0,213.615,213.745,210.53,210.53,0.0,0.0
21,0.0,0.0,0.0,1.0,1.0,0.0,0.0,1.0,0.0,100.0,1.0,1.1856,26.0,0.0,0.0,0.0,59.999996,0.0,26.0,26.0,26.0,26.0,0.18162499999999993,0.2582,-0.0649,290.48199999999997,-2.6643,-2.5275555555555558,-1.645,-1.4381000000000002,-205.06,216.0125,190.548,0.0,0.0,0.0,0.0,0.0426333333333333,-5.498166666666667,-5.498166666666667,-0.779,0.614,0.08211111111111102,-1.26,68.369,0.1393999999999993,-0.4622,-1.6375,100.0,1.0,1.0,211.14333333333332,0.0,0.0,0.0,0.0,0.0,0.0,0.0,8949.6,0.0,55.0,5.0,246.10666666666668,1.0,0.0,0.0,0.0,0.0,0.0,0.0,0.0,1.056000000000001,1.056000000000001,0.0,0.0,1.0,55.0,616.79921,10000.0,85.000001,85.000001,85.000001,85.000001,395.0,0.0,0.0,0.0,1.0,333.33500000000004,44.052,44.052,51.285,51.285,34.0,-22.3375,32.47,-18.936,31.848,0.0,1782.528,-0.2549999999999999,100.0,33.891,35.099000000000004,39.608000000000004,41.548,0.0,0.0,100.0,0.0,0.0,0.0,0.0,3620.75,3793.2,3749.125,3865.5,303.9526666666667,302.591,316.00125,315.36075,22.054666666666666,20.764499999999998,22.332875,21.6178,314.999998,314.999998,324.999988,324.999988,99.55952857142857,99.5098,99.5921,99.55631428571428,0.18999999999999995,0.003666666666666707,0.0389999999999997,0.2729999999999997,-0.045000000000001705,-0.054999999999999716,1.701,1.625,38.842,30.7785,40.58,36.112,56.557,37.218,67.3775,56.096000000000004,54.595,36.230000000000004,65.814,54.204,53.870999999999995,35.7425,65.852,53.525,-0.1405,-0.09,0.10021500000000001,0.107395,0.0,214.01999999999998,214.17000000000002,211.14333333333332,211.14333333333332,0.0,0.0
22,0.0,0.0,0.0,1.0,1.0,0.0,0.0,1.0,0.0,100.0,1.0,1.1856,26.0,0.0,0.0,0.0,59.999996,0.0,26.0,26.0,26.0,26.0,0.12912499999999993,0.25439999999999996,0.0006500000000000001,289.963,-2.6307,-2.547555555555556,-1.6268,-1.4444000000000001,-201.57,216.01999999999998,190.52428571428572,0.0,0.0,0.0,0.0,0.04466666666666652,-5.498166666666667,-5.498166666666667,-0.7598,-0.03600000000000003,0.07722222222222208,0.776,68.5,0.12600000000000033,-0.4501,-0.36750000000000016,100.0,1.0,1.0,211.31,0.0,0.0,0.0,0.0,0.0,0.0,0.0,8956.6,0.0,55.0,5.0,246.57999999999998,0.0,0.0,0.0,0.0,0.0,0.0,0.0,0.0,1.1069999999999993,1.1069999999999993,0.0,0.0,0.0,55.0,616.79921,10000.0,85.000001,85.000001,85.000001,85.000001,395.0,0.0,0.0,0.0,1.0,333.33500000000004,44.113,44.113,50.201,50.201,34.0,-22.7275,30.72,-22.082,34.182,0.0,1782.477,0.6550000000000002,100.0,34.237,34.94,40.308,41.724000000000004,0.0,0.0,100.0,0.0,0.0,0.0,0.0,3436.5,3841.2,3926.25,4182.9,304.28,302.616,315.434,314.64,22.064888888888888,20.7715,22.344875000000002,21.6277,314.999998,314.999998,324.999988,324.999988,99.55955714285714,99.5098,99.59224285714286,99.55647142857143,0.15399999999999991,-0.038000000000000034,0.006000000000000227,0.24533333333333296,-0.04333333333332945,-0.05333333333332746,1.5594999999999999,1.5310000000000001,38.906,30.822,40.656,36.173,56.557,37.263999999999996,67.3895,56.1475,54.594,36.2725,65.824,54.254,53.867999999999995,35.783500000000004,65.858,53.5745,-0.0645,-0.1675,0.10532000000000001,0.10755,0.0,214.47,214.5,211.31,211.31,0.0,0.0
23,0.0,0.0,0.0,1.0,1.0,0.0,0.0,1.0,0.0,100.0,1.0,1.1856,26.0,0.0,0.0,0.0,59.999996,0.0,26.0,26.0,26.0,26.0,0.038000000000000034,0.23280000000000012,-0.04005,290.161,-2.633,-2.529,-1.6503,-1.5324,-197.87,216.0275,190.49957142857141,0.0,0.0,0.0,0.0,0.04683333333333339,-5.498166666666667,-5.498166666666667,-0.7803,-0.04049999999999998,0.04377777777777769,0.06800000000000006,68.632,0.07160000000000011,-0.4747666666666667,0.7250000000000001,100.0,1.0,1.0,211.89,0.0,0.0,0.0,0.0,0.0,0.0,0.0,8981.3,0.0,55.0,5.0,247.05666666666667,1.0,0.0,0.0,0.0,0.0,0.0,0.0,0.0,1.1610000000000014,1.1610000000000014,0.0,0.0,1.0,55.0,616.79921,10000.0,85.000001,85.000001,85.000001,85.000001,395.0,0.0,0.0,0.0,1.0,166.665,43.503,43.503,51.376,51.376,34.0,-27.2175,28.387999999999998,-24.287999999999997,27.158,0.0,1782.425,0.8300000000000001,100.0,34.703,34.775999999999996,40.439,41.58,0.0,0.0,100.0,0.0,0.0,0.0,0.0,3765.375,3839.0,3732.375,3719.2,303.354,302.69966666666664,316.0025,315.669,22.075777777777777,20.7789,22.3575,21.637999999999998,314.999998,314.999998,324.999988,324.999988,99.55957142857143,99.50981666666667,99.59238571428571,99.55661428571429,0.11874999999999991,-0.07466666666666666,-0.06899999999999995,0.16999999999999993,-0.03333333333333144,-0.04833333333333201,1.6,1.625,38.974000000000004,30.868000000000002,40.735,36.238,56.555,37.314499999999995,67.3985,56.198499999999996,54.592,36.3195,65.831,54.304,53.863,35.8285,65.8615,53.623,-0.0525,-0.182,0.11158000000000001,0.11017500000000001,0.0,214.92000000000002,214.84,211.89,211.89,0.0,0.0
24,0.0,0.0,0.0,1.0,1.0,0.0,0.0,1.0,0.0,100.0,1.0,1.1856,26.0,0.0,0.0,0.0,59.999996,0.0,26.0,26.0,26.0,26.0,-0.02474999999999994,0.25880000000000014,-0.095375,290.359,-2.6351,-2.562222222222222,-1.5504,-1.4933,-194.57,216.0375,190.477,0.0,0.0,0.0,0.0,0.048733333333333295,-5.498166666666667,-5.498166666666667,-0.7851,-0.7770000000000001,0.029888888888888854,0.587,68.754,0.018600000000000172,-0.4616666666666667,1.1124999999999998,100.0,1.0,1.0,212.10333333333335,0.0,0.0,0.0,0.0,0.0,0.0,0.0,8990.3,0.0,55.0,5.0,247.49333333333334,0.0,0.0,0.0,0.0,0.0,0.0,0.0,0.0,1.2089999999999996,1.2089999999999996,0.0,0.0,0.0,55.0,616.79921,10000.0,85.000001,85.000001,85.000001,85.000001,395.0,0.0,0.0,0.0,1.0,166.665,44.754,44.754,50.232,50.232,34.0,-26.7425,24.926,-27.972,26.538,0.0,1782.377,0.8150000000000004,100.0,34.36,34.36,40.859,41.256,0.0,0.0,100.0,0.0,0.0,0.0,0.0,3473.75,3610.4,4018.5,3918.3,304.27866666666665,303.41066666666666,315.175,315.251,22.085333333333335,20.7851,22.36875,21.647100000000002,314.999998,314.999998,324.999988,324.999988,99.5596,99.50983333333333,99.59252857142857,99.55675714285714,0.07925000000000004,-0.11133333333333328,-0.1156666666666668,0.12766666666666726,-0.036666666666668846,-0.03333333333333144,1.5525,1.579,39.033,30.907,40.805,36.294,56.55,37.3585,67.40899999999999,56.242,54.587,36.36,65.84049999999999,54.3465,53.857,35.867,65.867,53.665,-0.048,-0.181,0.108685,0.11357500000000001,0.0,215.305,215.19,212.10333333333335,212.10333333333335,0.0,0.0
25,0.0,0.0,0.0,1.0,1.0,0.0,0.0,1.0,0.0,100.0,1.0,1.1856,26.0,0.0,0.0,0.0,59.999996,0.0,26.0,26.0,26.0,26.0,-0.08912500000000001,0.25890000000000013,-0.068925,290.237,-2.6692,-2.554666666666667,-1.5363,-1.5224,-191.26999999999998,216.0475,190.453,0.0,0.0,0.0,0.0,0.05066666666666653,-5.498166666666667,-5.498166666666667,-0.8181,0.07399999999999995,0.0021111111111109526,-0.704,68.869,-0.03159999999999963,-0.47123333333333334,1.42,100.0,1.0,1.0,212.64333333333332,0.0,0.0,0.0,0.0,0.0,0.0,0.0,9013.1,0.0,55.0,5.0,247.91,1.0,0.0,0.0,0.0,0.0,0.0,0.0,0.0,1.256999999999998,1.256999999999998,0.0,0.0,1.0,55.0,616.79921,10000.0,85.000001,85.000001,85.000001,85.000001,395.0,0.0,0.0,0.0,1.0,166.665,43.533,43.533,51.163,51.163,34.0,-32.2775,25.768,-27.02,22.38,0.0,1782.329,0.71,100.0,34.622,34.447,40.675,40.709,0.0,0.0,100.0,0.0,0.0,0.0,0.0,3879.375,3912.8,3747.125,3733.6,303.17066666666665,302.5176666666667,315.91325,315.69925,22.09488888888889,20.7916,22.379875,21.6561,314.999998,314.999998,324.999988,324.999988,99.55961428571429,99.50985,99.59265714285715,99.55688571428571,0.05074999999999985,-0.1363333333333332,-0.15833333333333321,0.06966666666666743,-0.03166666666666629,-0.07333333333333059,1.63,1.687,39.093,30.947499999999998,40.873999999999995,36.35,56.544,37.406,67.416,56.2825,54.581,36.403999999999996,65.846,54.385999999999996,53.849000000000004,35.9095,65.8695,53.7035,-0.057,-0.1775,0.10639000000000001,0.10701000000000001,0.0,215.66500000000002,215.57999999999998,212.64333333333332,212.64333333333332,0.0,0.0
26,0.0,0.0,0.0,1.0,1.0,0.0,0.0,1.0,0.0,100.0,1.0,1.1856,26.0,0.0,0.0,0.0,59.999996,0.0,26.0,26.0,26.0,26.0,-0.12112499999999993,0.27070000000000016,0.0608,289.047,-2.5786,-2.6691111111111114,-1.5541,-1.5501,-187.75,216.0525,190.42728571428572,0.0,0.0,0.0,0.0,0.05269999999999997,-5.498166666666667,-5.498166666666667,-0.7759,0.5465,-0.05355555555555558,-1.223,68.998,-0.07159999999999966,-0.4442333333333333,1.455,100.0,1.0,1.0,212.72333333333333,0.0,0.0,0.0,0.0,0.0,0.0,0.0,9016.5,0.0,55.0,5.0,248.37,0.0,0.0,0.0,0.0,0.0,0.0,0.0,0.0,1.3079999999999998,1.3079999999999998,0.0,0.0,0.0,55.0,616.79921,10000.0,85.000001,85.000001,85.000001,85.000001,395.0,0.0,0.0,0.0,1.0,333.33500000000004,43.152,43.152,49.316,49.316,34.0,-32.7175,23.286,-36.502,24.88,0.0,1782.276,0.45500000000000007,100.0,35.574,35.001,41.556,40.900999999999996,0.0,0.0,100.0,0.0,0.0,0.0,0.0,3955.625,3566.2,4453.125,4182.9,302.98,303.28866666666664,314.307,314.61175,22.105555555555554,20.7985,22.392,21.6658,314.999998,314.999998,324.999988,324.999988,99.55961428571429,99.50986666666667,99.59281428571428,99.55704285714286,0.03600000000000003,-0.16399999999999992,-0.19899999999999984,0.03433333333333355,-0.03166666666666629,-0.04333333333332945,1.474,1.512,39.16,30.990499999999997,40.95,36.411,56.542,37.459,67.431,56.329499999999996,54.578,36.453,65.859,54.431,53.845,35.956,65.879,53.748,-0.0835,-0.159,0.1014,0.11518500000000001,0.0,216.10500000000002,215.985,212.72333333333333,212.72333333333333,0.0,0.0
27,0.0,0.0,0.0,1.0,1.0,0.0,0.0,1.0,0.0,100.0,1.0,1.1856,26.0,0.0,0.0,0.0,59.999996,0.0,26.0,26.0,26.0,26.0,-0.11299999999999999,0.22950000000000004,-0.0315,289.536,-2.5291,-2.652333333333333,-1.5328,-1.6334000000000002,-184.44,216.0575,190.40428571428572,0.0,0.0,0.0,0.0,0.05463333333333331,-5.498166666666667,-5.498166666666667,-0.8099000000000001,-0.9895,-0.06411111111111145,-0.7030000000000001,69.114,-0.08740000000000014,-0.4941666666666667,1.25,100.0,1.0,1.0,213.24333333333334,0.0,0.0,0.0,0.0,0.0,0.0,0.0,9038.6,0.0,55.0,5.0,248.79000000000002,1.0,0.0,0.0,0.0,0.0,0.0,0.0,0.0,1.355999999999998,1.355999999999998,0.0,0.0,1.0,55.0,616.79921,10000.0,85.000001,85.000001,85.000001,85.000001,395.0,0.0,0.0,0.0,1.0,333.33500000000004,43.381,43.381,50.018,50.018,34.0,-32.4025,23.022,-31.526,21.804,0.0,1782.228,0.34499999999999975,100.0,35.403,34.69,42.269,41.244,0.0,0.0,100.0,0.0,0.0,0.0,0.0,3935.875,3614.2,3911.25,3715.2,303.02166666666665,303.25166666666667,315.44475,315.61225,22.115333333333332,20.8048,22.4035,21.675,314.999998,314.999998,324.999988,324.999988,99.55961428571429,99.5099,99.59295714285714,99.55718571428571,0.028000000000000025,-0.16999999999999993,-0.21499999999999986,0.020000000000000462,-0.03833333333332689,-0.05333333333332746,1.555,1.5939999999999999,39.221000000000004,31.03,41.022,36.469,56.536,37.51,67.445,56.375,54.572,36.5,65.872,54.4755,53.837,36.001,65.888,53.791,-0.0935,-0.1445,0.10528000000000001,0.11067,0.0,216.39,216.3,213.24333333333334,213.24333333333334,0.0,0.0
28,0.0,0.0,0.0,1.0,1.0,0.0,0.0,1.0,0.0,100.0,1.0,1.1856,26.0,0.0,0.0,0.0,59.999996,0.0,26.0,26.0,26.0,26.0,-0.13587499999999997,0.26049999999999995,-0.046025,289.719,-2.5575,-2.641,-1.4833,-1.5914000000000001,-180.91,216.0575,190.37885714285713,0.0,0.0,0.0,0.0,0.05669999999999997,-5.498166666666667,-5.498166666666667,-0.8051,0.623,-0.0644444444444443,0.829,69.236,-0.09540000000000015,-0.4613333333333333,1.0350000000000001,100.0,1.0,1.0,213.68,0.0,0.0,0.0,0.0,0.0,0.0,0.0,9057.1,0.0,55.0,5.0,249.23000000000002,0.0,0.0,0.0,0.0,0.0,0.0,0.0,0.0,1.407,1.407,0.0,0.0,0.0,55.0,616.79921,10000.0,85.000001,85.000001,85.000001,85.000001,395.0,0.0,0.0,0.0,1.0,166.665,43.472,43.472,50.537,50.537,34.0,-31.4275,23.764000000000003,-31.14,22.35,0.0,1782.179,0.17499999999999982,100.0,35.68,34.442,41.705,40.599000000000004,0.0,0.0,100.0,0.0,0.0,0.0,0.0,3812.0,3643.3,3960.25,3911.6000000000004,303.166,303.32,315.449,315.29725,22.125888888888888,20.8115,22.41525,21.6845,314.999998,314.999998,324.999988,324.999988,99.55962857142858,99.50991666666667,99.5931,99.55731428571428,0.03600000000000003,-0.15500000000000003,-0.21699999999999964,0.020333333333333314,-0.041666666666671404,-0.04999999999999716,1.5855,1.635,39.287,31.072,41.095,36.528,56.532,37.5585,67.453,56.415,54.568,36.5445,65.879,54.5145,53.832,36.0435,65.892,53.829,-0.107,-0.1305,0.11076000000000001,0.11366000000000001,0.0,216.82,216.72,213.68,213.68,0.0,0.0
29,0.0,0.0,0.0,1.0,1.0,0.0,0.0,1.0,0.0,100.0,1.0,1.1856,26.0,0.0,0.0,0.0,59.999996,0.0,26.0,26.0,26.0,26.0,-0.11987499999999995,0.23160000000000003,0.0023250000000000002,289.429,-2.4965,-2.712111111111111,-1.5163,-1.5703,-177.17000000000002,216.055,190.35085714285714,0.0,0.0,0.0,0.0,0.05886666666666651,-5.498166666666667,-5.498166666666667,-0.8195,-0.653,-0.06522222222222229,0.657,69.368,-0.08619999999999983,-0.4755333333333333,0.7475,100.0,1.0,1.0,213.9766666666667,0.0,0.0,0.0,0.0,0.0,0.0,0.0,9069.6,0.0,55.0,5.0,249.70666666666665,1.0,0.0,0.0,0.0,0.0,0.0,0.0,0.0,1.4609999999999985,1.4609999999999985,0.0,0.0,1.0,55.0,616.79921,10000.0,85.000001,85.000001,85.000001,85.000001,395.0,0.0,0.0,0.0,1.0,166.665,43.228,43.228,50.079,50.079,34.0,-31.565,25.415999999999997,-30.796,23.036,0.0,1782.125,0.11500000000000021,100.0,35.486000000000004,34.452,42.153,40.857,0.0,0.0,100.0,0.0,0.0,0.0,0.0,3927.5,3709.9,3924.125,3927.1000000000004,302.8996666666667,303.02433333333335,315.4,315.231,22.136777777777777,20.8186,22.428,21.6948,314.999998,314.999998,324.999988,324.999988,99.55962857142858,99.50993333333334,99.59325714285714,99.55747142857143,0.03825000000000012,-0.15100000000000002,-0.198666666666667,0.031666666666667176,-0.051666666666669414,-0.041666666666671404,1.5394999999999999,1.564,39.355000000000004,31.116,41.175,36.593,56.525,37.6115,67.468,56.463499999999996,54.561,36.5935,65.892,54.5615,53.823,36.0905,65.9015,53.8745,-0.109,-0.1265,0.101985,0.10881,0.0,217.19,217.10500000000002,213.9766666666667,213.9766666666667,0.0,0.0
30,0.0,0.0,0.0,1.0,1.0,0.0,0.0,1.0,0.0,100.0,1.0,1.1856,26.0,0.0,0.0,0.0,59.999996,0.0,26.0,26.0,26.0,26.0,-0.09624999999999995,0.24639999999999995,0.03715,288.895,-2.5595,-2.674555555555556,-1.4624000000000001,-1.6446,-174.04,216.0525,190.32757142857142,0.0,0.0,0.0,0.0,0.060666666666666536,-5.498166666666667,-5.498166666666667,-0.8097000000000001,0.7605,-0.06366666666666676,-0.385,69.476,-0.0798000000000001,-0.4675,0.79,100.0,1.0,1.0,214.3,0.0,0.0,0.0,0.0,0.0,0.0,0.0,9083.4,0.0,55.0,5.0,250.09333333333336,0.0,0.0,0.0,0.0,0.0,0.0,1.0,0.0,1.5060000000000002,1.5060000000000002,0.0,0.0,0.0,55.0,616.79921,10000.0,85.000001,85.000001,85.000001,85.000001,395.0,0.0,0.0,0.0,1.0,166.665,42.45,42.45,49.988,49.988,34.0,-32.989999999999995,24.93,-32.096000000000004,24.692,0.0,1782.08,-0.029999999999999805,100.0,36.186,35.217,41.899,40.953,0.0,0.0,100.0,0.0,0.0,0.0,0.0,4098.0,3680.6,4141.625,3987.1000000000004,302.5396666666667,303.13466666666665,315.0115,314.95175,22.14622222222222,20.8247,22.438375,21.7033,314.999998,314.999998,324.999988,324.999988,99.55964285714286,99.50996666666667,99.59338571428572,99.5576,0.05125000000000002,-0.14733333333333332,-0.19966666666666644,0.031666666666667176,-0.051666666666669414,-0.03499999999999659,1.5190000000000001,1.542,39.414,31.1545,41.239999999999995,36.646,56.524,37.658500000000004,67.477,56.503,54.56,36.637,65.9,54.5995,53.821,36.132,65.906,53.912,-0.1235,-0.1155,0.10262,0.10751500000000001,0.0,217.565,217.48000000000002,214.3,214.3,0.0,0.0
31,0.0,0.0,0.0,1.0,1.0,0.0,0.0,1.0,0.0,100.0,1.0,1.1856,26.0,0.0,0.0,0.0,59.999996,0.0,26.0,26.0,26.0,26.0,-0.08499999999999996,0.24160000000000004,-0.027975,288.757,-2.6279,-2.55,-1.5103,-1.617,-170.29,216.04250000000002,190.3002857142857,0.0,0.0,0.0,0.0,0.06286666666666652,-5.498166666666667,-5.498166666666667,-0.805,-0.7245000000000001,-0.05544444444444441,-0.916,69.607,-0.06059999999999999,-0.48133333333333334,0.3250000000000002,100.0,1.0,1.0,214.62666666666667,0.0,0.0,0.0,0.0,0.0,0.0,0.0,9097.3,0.0,55.0,5.0,250.56666666666666,1.0,0.0,0.0,0.0,0.0,0.0,1.0,0.0,1.5599999999999987,1.5599999999999987,0.0,0.0,1.0,55.0,616.79921,10000.0,85.000001,85.000001,85.000001,85.000001,395.0,0.0,0.0,0.0,1.0,166.665,42.769999999999996,42.769999999999996,48.92,48.92,34.0,-31.315,24.892,-31.394,25.624,0.0,1782.026,-0.029999999999999805,100.0,35.794,35.358000000000004,42.547,41.603,0.0,0.0,100.0,0.0,0.0,0.0,0.0,3925.25,3772.5,4106.125,4043.8,303.1886666666667,302.88366666666667,315.03525,314.926,22.157222222222224,20.832,22.451125,21.7138,314.999998,314.999998,324.999988,324.999988,99.55965714285715,99.50998333333334,99.59355714285714,99.55775714285714,0.06424999999999992,-0.1339999999999999,-0.176333333333333,0.04999999999999982,-0.03833333333332689,-0.04833333333333201,1.5070000000000001,1.524,39.482,31.2,41.32,36.711,56.519999999999996,37.713,67.492,56.553,54.555,36.6875,65.9135,54.6485,53.814,36.18,65.9155,53.9595,-0.1325,-0.112,0.10553000000000001,0.09869000000000001,0.0,217.905,217.865,214.62666666666667,214.62666666666667,0.0,0.0
32,0.0,0.0,0.0,1.0,1.0,0.0,0.0,1.0,0.0,100.0,1.0,1.1856,26.0,0.0,0.0,0.0,59.999996,0.0,26.0,26.0,26.0,26.0,-0.08324999999999994,0.2518,-0.04445,289.047,-2.5724,-2.5963333333333334,-1.5688,-1.5307000000000002,-166.94,216.035,190.27614285714284,0.0,0.0,0.0,0.0,0.06479999999999997,-5.498166666666667,-5.498166666666667,-0.8188000000000001,0.23299999999999998,-0.08333333333333348,-0.8089999999999999,69.718,-0.04499999999999993,-0.4811333333333333,0.375,100.0,1.0,1.0,215.12,0.0,0.0,0.0,0.0,0.0,0.0,0.0,9118.1,0.0,55.0,5.0,250.96666666666667,0.0,0.0,0.0,0.0,0.0,0.0,1.0,0.0,1.6080000000000005,1.6080000000000005,0.0,0.0,0.0,55.0,616.79921,10000.0,85.000001,85.000001,85.000001,85.000001,395.0,0.0,0.0,0.0,1.0,333.33500000000004,42.679,42.679,49.866,49.866,34.0,-31.415,25.18,-30.92,24.228,0.0,1781.976,-0.040000000000000036,100.0,35.847,35.366,42.079,41.274,0.0,0.0,100.0,0.0,0.0,0.0,0.0,4044.5,3649.9,4067.375,3931.1000000000004,302.75466666666665,303.1526666666667,315.28275,315.31225,22.167,20.8385,22.46225,21.7228,314.999998,314.999998,324.999988,324.999988,99.55965714285715,99.51001666666667,99.5937,99.55788571428572,0.0714999999999999,-0.1233333333333333,-0.17033333333333278,0.07066666666666688,-0.04833333333333201,-0.05333333333332746,1.5895,1.603,39.544,31.240499999999997,41.388999999999996,36.768,56.518,37.760999999999996,67.5,56.5935,54.553,36.732,65.92,54.6875,53.81,36.2225,65.919,53.9975,-0.1275,-0.113,0.104535,0.10576500000000001,0.0,218.285,218.235,215.12,215.12,0.0,0.0
33,0.0,0.0,0.0,1.0,1.0,0.0,0.0,1.0,0.0,100.0,1.0,1.1856,26.0,0.0,0.0,0.0,59.999996,0.0,26.0,26.0,26.0,26.0,-0.05712499999999998,0.24350000000000005,0.0029000000000000002,289.185,-2.5827,-2.6402222222222225,-1.5152999999999999,-1.5366,-163.39,216.0225,190.24957142857141,0.0,0.0,0.0,0.0,0.06686666666666652,-5.498166666666667,-5.498166666666667,-0.8235,-0.502,-0.059555555555555806,1.491,69.84100000000001,-0.0354000000000001,-0.4736,0.20250000000000012,100.0,1.0,1.0,215.37666666666667,0.0,0.0,0.0,0.0,0.0,0.0,0.0,9129.0,0.0,55.0,5.0,251.40666666666667,1.0,0.0,0.0,0.0,0.0,0.0,1.0,0.0,1.658999999999999,1.658999999999999,0.0,0.0,1.0,55.0,616.79921,10000.0,85.000001,85.000001,85.000001,85.000001,395.0,0.0,0.0,0.0,1.0,166.665,43.32,43.32,49.744,49.744,34.0,-28.08,26.506,-29.134,26.468,0.0,1781.927,-0.14500000000000002,100.0,35.729,34.886,42.138,41.379,0.0,0.0,100.0,0.0,0.0,0.0,0.0,3746.625,3712.3,3966.25,4127.7,303.48066666666665,303.132,315.311,314.82075,22.177222222222223,20.8453,22.474125,21.732599999999998,314.999998,314.999998,324.999988,324.999988,99.55967142857143,99.51001666666667,99.59384285714286,99.55804285714285,0.08950000000000014,-0.11399999999999988,-0.1559999999999997,0.07899999999999974,-0.015000000000000568,-0.05333333333332746,1.5445,1.546,39.608000000000004,31.283,41.463,36.829,56.515,37.809,67.51050000000001,56.6395,54.55,36.775999999999996,65.9295,54.7325,53.805,36.2645,65.925,54.041,-0.1315,-0.111,0.107605,0.10468000000000001,0.0,218.625,218.595,215.37666666666667,215.37666666666667,0.0,0.0
34,0.0,0.0,0.0,1.0,1.0,0.0,0.0,1.0,0.0,100.0,1.0,1.1856,26.0,0.0,0.0,0.0,59.999996,0.0,26.0,26.0,26.0,26.0,-0.04962500000000003,0.24180000000000001,-0.062125,289.658,-2.5895,-2.597777777777778,-1.5727,-1.5606,-160.03,216.01,190.22342857142857,0.0,0.0,0.0,0.0,0.0688333333333333,-5.498166666666667,-5.498166666666667,-0.8550000000000001,-0.7095,-0.033222222222222264,1.0470000000000002,69.953,-0.024399999999999977,-0.4839333333333333,0.1299999999999999,100.0,1.0,1.0,215.82333333333332,0.0,0.0,0.0,0.0,0.0,0.0,0.0,9147.9,0.0,55.0,5.0,251.81333333333333,0.0,0.0,0.0,0.0,0.0,0.0,1.0,0.0,1.7070000000000007,1.7070000000000007,0.0,0.0,0.0,55.0,616.79921,10000.0,85.000001,85.000001,85.000001,85.000001,395.0,0.0,0.0,0.0,1.0,166.665,43.625,43.625,50.644,50.644,34.0,-27.5475,26.512,-27.192,25.952,0.0,1781.878,-0.10499999999999998,100.0,35.411,34.644999999999996,41.739000000000004,41.394,0.0,0.0,100.0,0.0,0.0,0.0,0.0,3705.75,3682.4,3808.125,3922.6000000000004,303.4633333333333,303.24766666666665,315.79025,315.2415,22.186777777777777,20.8516,22.485,21.7417,314.999998,314.999998,324.999988,324.999988,99.55968571428572,99.51003333333334,99.59398571428571,99.55817142857143,0.09724999999999984,-0.09966666666666679,-0.13699999999999957,0.09666666666666668,-0.036666666666668846,-0.05833333333333002,1.5979999999999999,1.597,39.668,31.322499999999998,41.532,36.885999999999996,56.512,37.853,67.5175,56.682,54.547,36.817,65.935,54.7735,53.8,36.3035,65.92699999999999,54.0815,-0.135,-0.10350000000000001,0.09727000000000001,0.10834500000000001,0.0,218.95499999999998,218.945,215.82333333333332,215.82333333333332,0.0,0.0
35,0.0,0.0,0.0,1.0,1.0,0.0,0.0,1.0,0.0,100.0,1.0,1.1856,26.0,0.0,0.0,0.0,59.999996,0.0,26.0,26.0,26.0,26.0,-0.021749999999999936,0.23460000000000014,-0.069575,289.597,-2.5961,-2.578333333333333,-1.5431,-1.5675000000000001,-156.45999999999998,215.995,190.19342857142857,0.0,0.0,0.0,0.0,0.07089999999999996,-5.498166666666667,-5.498166666666667,-0.8961,-0.3560000000000001,-0.04111111111111132,-0.975,70.072,-0.012399999999999967,-0.4846333333333333,0.0674999999999999,100.0,1.0,1.0,216.25333333333333,0.0,0.0,0.0,0.0,0.0,0.0,0.0,9166.2,0.0,55.0,5.0,252.24,1.0,0.0,0.0,0.0,0.0,0.0,1.0,0.0,1.7579999999999991,1.7579999999999991,0.0,0.0,1.0,55.0,616.79921,10000.0,85.000001,85.000001,85.000001,85.000001,395.0,0.0,0.0,0.0,1.0,333.33500000000004,43.03,43.03,50.278,50.278,34.0,-28.995,28.402,-26.664,24.716,0.0,1781.826,-0.07499999999999973,100.0,35.055,35.051,41.368,40.993,0.0,0.0,100.0,0.0,0.0,0.0,0.0,3885.0,3925.0,3821.0,3726.6,303.211,302.35433333333333,315.74,315.70775,22.19677777777778,20.8586,22.496625,21.7512,314.999998,314.999998,324.999988,324.999988,99.55971428571429,99.51005,99.59412857142857,99.55832857142858,0.09474999999999989,-0.10099999999999998,-0.13233333333333253,0.10433333333333294,-0.045000000000001705,-0.036666666666668846,1.621,1.625,39.730000000000004,31.366,41.604,36.945,56.507,37.900999999999996,67.5245,56.7235,54.541,36.8615,65.9405,54.814,53.794,36.346000000000004,65.929,54.121,-0.121,-0.113,0.11107000000000002,0.10905500000000001,0.0,219.32,219.315,216.25333333333333,216.25333333333333,0.0,0.0
36,0.0,0.0,0.0,1.0,1.0,0.0,0.0,1.0,0.0,100.0,1.0,1.1856,26.0,0.0,0.0,0.0,59.999996,0.0,26.0,26.0,26.0,26.0,-0.029749999999999943,0.2591000000000001,0.062275000000000004,288.605,-2.6537,-2.5394444444444444,-1.5121,-1.5614000000000001,-153.09,215.98250000000002,190.1637142857143,0.0,0.0,0.0,0.0,0.07286666666666652,-5.498166666666667,-5.498166666666667,-0.8783000000000001,0.24749999999999994,-0.07855555555555549,-1.331,70.188,-0.005599999999999827,-0.46,0.17249999999999988,100.0,1.0,1.0,216.32999999999998,0.0,0.0,0.0,0.0,0.0,0.0,0.0,9169.4,0.0,55.0,5.0,252.65666666666667,0.0,0.0,0.0,0.0,0.0,0.0,1.0,0.0,1.806000000000001,1.806000000000001,0.0,0.0,0.0,55.0,616.79921,10000.0,85.000001,85.000001,85.000001,85.000001,395.0,0.0,0.0,0.0,1.0,333.33500000000004,42.603,42.603,49.438,49.438,34.0,-30.2225,26.872,-30.602,29.67,0.0,1781.779,-0.06999999999999984,100.0,35.650999999999996,35.521,41.522999999999996,41.337,0.0,0.0,100.0,0.0,0.0,0.0,0.0,4036.125,3739.9,4314.125,4276.6,302.8066666666667,302.92766666666665,314.62275,314.3765,22.206555555555557,20.8652,22.50775,21.7604,314.999998,314.999998,324.999988,324.999988,99.55971428571429,99.51006666666666,99.59427142857143,99.55845714285714,0.10775000000000023,-0.09266666666666667,-0.12466666666666715,0.10433333333333294,-0.041666666666671404,-0.04333333333332945,1.4865,1.502,39.791,31.408,41.674,37.001999999999995,56.506,37.948,67.53399999999999,56.766999999999996,54.541,36.905,65.949,54.8565,53.791,36.388,65.934,54.1625,-0.1305,-0.1145,0.10704000000000001,0.10852,0.0,219.70499999999998,219.70499999999998,216.32999999999998,216.32999999999998,0.0,0.0
