,ABS Active,ABS Enabled,AID Allow Tire Blankets,AID Auto Blip,AID Auto Clutch,AID Auto Shift,AID Fuel Rate,AID Ideal Line,AID Mech Damage,AID Stability,AID Tire Wear Rate,Air Density,Air Temp,Ballast,Best Lap Delta,Best Lap Time,Brake Bias,Brake Pos,Brake Temp FL,Brake Temp FR,Brake Temp RL,Brake Temp RR,CG Accel Lateral,CG Accel Longitudinal,CG Accel Vertical,CG Height,Camber FL,Camber FR,Camber RL,Camber RR,Car Coord X,Car Coord Y,Car Coord Z,Car Damage Front,Car Damage Left,Car Damage Rear,Car Damage Right,Car Pos Norm,Caster FL,Caster FR,Chassis Pitch Angle,Chassis Pitch Rate,Chassis Roll Angle,Chassis Roll Rate,Chassis Velocity X,Chassis Velocity Y,Chassis Velocity Z,Chassis Yaw Rate,Clutch Pos,DRS Active,DRS Available,Drive Train Speed,ERS Heat Charging,ERS Is Charging,ERS Max Energy,ERS Power Level,ERS Recovery Level,Engine Brake Setting,Engine Limiter,Engine RPM,Flags,Fuel Level,Gear,Ground Speed,HR Sample Clock,In Pit,KERS Charge,KERS Deployed Energy,KERS Input,KERS Max Energy,LR Sample Clock,Lap Invalidated,Lap Time,Lap Time2,Last Lap Time,Last Sector Time,MR Sample Clock,Max Fuel,Max Power,Max RPM,Max Sus Travel FL,Max Sus Travel FR,Max Sus Travel RL,Max Sus Travel RR,Max Torque,Max Turbo Boost,Num Tires Off Track,Penalties Enabled,Position,Raw Data Sample Rate,Ride Height FL,Ride Height FR,Ride Height RL,Ride Height RR,Road Temp,Self Align Torque FL,Self Align Torque FR,Self Align Torque RL,Self Align Torque RR,Session Lap Count,Session Time Left,Steering Angle,Surface Grip,Suspension Travel FL,Suspension Travel FR,Suspension Travel RL,Suspension Travel RR,TC Active,TC Enabled,Throttle Pos,Tire Dirt Level FL,Tire Dirt Level FR,Tire Dirt Level RL,Tire Dirt Level RR,Tire Load FL,Tire Load FR,Tire Load RL,Tire Load RR,Tire Loaded Radius FL,Tire Loaded Radius FR,Tire Loaded Radius RL,Tire Loaded Radius RR,Tire Pressure FL,Tire Pressure FR,Tire Pressure RL,Tire Pressure RR,Tire Radius FL,Tire Radius FR,Tire Radius RL,Tire Radius RR,Tire Rubber Grip FL,Tire Rubber Grip FR,Tire Rubber Grip RL,Tire Rubber Grip RR,Tire Slip Angle FL,Tire Slip Angle FR,Tire Slip Angle RL,Tire Slip Angle RR,Tire Slip Ratio FL,Tire Slip Ratio FR,Tire Slip Ratio RL,Tire Slip Ratio RR,Tire Temp Core FL,Tire Temp Core FR,Tire Temp Core RL,Tire Temp Core RR,Tire Temp Inner FL,Tire Temp Inner FR,Tire Temp Inner RL,Tire Temp Inner RR,Tire Temp Middle FL,Tire Temp Middle FR,Tire Temp Middle RL,Tire Temp Middle RR,Tire Temp Outer FL,Tire Temp Outer FR,Tire Temp Outer RL,Tire Temp Outer RR,Toe In FL,Toe In FR,Toe In RL,Toe In RR,Turbo Boost,Wheel Angular Speed FL,Wheel Angular Speed FR,Wheel Angular Speed RL,Wheel Angular Speed RR,Wind Direction,Wind Speed
0,0.0,0.0,0.0,1.0,1.0,0.0,0.0,1.0,0.0,100.0,1.0,1.1856,26.0,0.0,0.0,0.0,59.99999,0.0,26.0,26.0,26.0,26.0,-0.09433333333333338,0.28880000000000017,0.1811,291.199,-2.6195,-2.373666666666667,-1.4832,-1.4988000000000001,-275.49,216.01999999999998,190.98385714285715,0.0,0.0,0.0,0.0,0.0016999999999999238,-5.498166666666667,-5.498166666666667,-0.7696,1.7183333333333333,-0.010000000000000231,-1.6185,65.368,-0.033199999999999896,-0.4669,0.7250000000000001,100.0,1.0,1.0,201.97,0.0,0.0,0.0,0.0,0.0,0.0,0.0,8560.7,0.0,55.0,5.0,235.3,0.0,0.0,0.0,0.0,0.0,0.0,0.0,0.0,0.006000000000000227,0.006000000000000227,0.0,0.0,0.0,55.0,616.79921,10000.0,85.0,85.0,85.0,85.0,395.0,0.0,0.0,0.0,1.0,20.0,42.923,42.923,52.292,52.292,34.0,-32.2625,26.116,-28.182000000000002,22.876,0.0,1782.99,0.6950000000000003,100.0,34.332,34.211,37.994,37.863,0.0,0.0,100.0,0.0,0.0,0.0,0.0,3869.625,4309.9,3946.1111111111113,3756.3,303.10833333333335,301.0196666666667,315.45,315.4975,21.8748,20.6618,22.114875,21.4313,314.99999,314.99999,324.99998,324.99998,99.56011428571429,99.51003333333334,99.5907875,99.55377142857142,0.03733333333333322,-0.14066666666666672,-0.16133333333333333,0.07833333333333314,-0.04142857142856826,-0.036666666666668846,1.5975000000000001,1.6315,37.718,30.136499999999998,39.218,34.945499999999996,57.013999999999996,36.72,67.664,55.2845,55.054,35.7685,66.123,53.4035,54.370999999999995,35.3045,66.24,52.733000000000004,-0.068,-0.1605,0.11093000000000001,0.11439,0.0,204.88,204.815,201.97,201.97,0.0,0.0
1,0.0,0.0,0.0,1.0,1.0,0.0,0.0,1.0,0.0,100.0,1.0,1.1856,26.0,0.0,0.0,0.0,59.999996,0.0,26.0,26.0,26.0,26.0,-0.11644444444444446,0.28310000000000013,0.01115,290.634,-2.5509,-2.7006666666666668,-1.513,-1.3369,-272.15,216.0225,190.96414285714286,0.0,0.0,0.0,0.0,0.0036333333333333773,-5.498166666666667,-5.498166666666667,-0.7179,-1.1476666666666668,-0.05466666666666642,-0.44399999999999995,65.514,-0.04259999999999975,-0.4545,1.1875,100.0,1.0,1.0,202.00666666666666,0.0,0.0,0.0,0.0,0.0,0.0,0.0,8562.3,0.0,55.0,5.0,235.82333333333332,1.0,0.0,0.0,0.0,0.0,0.0,0.0,0.0,0.05699999999999861,0.05699999999999861,0.0,0.0,1.0,55.0,616.79921,10000.0,85.000001,85.000001,85.000001,85.000001,395.0,0.0,0.0,0.0,1.0,166.665,44.815,44.815,51.666,51.666,34.0,-29.572499999999998,21.784,-31.642,25.774,0.0,1782.938,0.665,100.0,34.57,33.875,40.063,39.41,0.0,0.0,100.0,0.0,0.0,0.0,0.0,3663.875,3280.8,4137.111111111111,4571.5,303.6046666666667,304.4603333333333,314.85275,313.45025,21.8857,20.6682,22.1275,21.4412,314.999998,314.999998,324.999988,324.999988,99.56012857142858,99.51005,99.5909375,99.55391428571428,0.03933333333333344,-0.14933333333333332,-0.17033333333333278,0.057000000000000384,-0.027142857142855803,-0.05666666666667197,1.4354999999999998,1.5025,37.785,30.176499999999997,39.297,35.0075,57.007999999999996,36.768,67.681,55.337,55.048,35.8125,66.139,53.454499999999996,54.363,35.347,66.252,52.783,-0.059500000000000004,-0.1645,0.10368000000000001,0.10758000000000001,0.0,205.27333333333334,205.195,202.00666666666666,202.0075,0.0,0.0
2,0.0,0.0,0.0,1.0,1.0,0.0,0.0,1.0,0.0,100.0,1.0,1.1856,26.0,0.0,0.0,0.0,59.999996,0.0,26.0,26.0,26.0,26.0,-0.11755555555555552,0.2782,-0.09267500000000001,291.397,-2.5165,-2.667888888888889,-1.4762,-1.592,-268.81,216.0225,190.94514285714286,0.0,0.0,0.0,0.0,0.005599999999999938,-5.498166666666667,-5.498166666666667,-0.7817,0.394,-0.036666666666666625,1.858,65.643,-0.05940000000000012,-0.5075,1.52,100.0,1.0,1.0,203.09333333333333,0.0,0.0,0.0,0.0,0.0,0.0,0.0,8608.3,0.0,55.0,5.0,236.29000000000002,0.0,0.0,0.0,0.0,0.0,0.0,0.0,0.0,0.10800000000000054,0.10800000000000054,0.0,0.0,0.0,55.0,616.79921,10000.0,85.000001,85.000001,85.000001,85.000001,395.0,0.0,0.0,0.0,1.0,333.33500000000004,43.152,43.152,53.802,53.802,34.0,-34.287499999999994,23.657999999999998,-25.47,18.332,0.0,1782.886,0.7149999999999999,100.0,35.283,34.089,39.628,38.601,0.0,0.0,100.0,0.0,0.0,0.0,0.0,4083.875,3659.0,3448.3333333333335,3384.5,302.40566666666666,303.13966666666664,316.542,316.602,21.8968,20.674599999999998,22.13975,21.4504,314.999998,314.999998,324.999988,324.999988,99.56012857142858,99.51006666666666,99.591075,99.55404285714286,0.018000000000000238,-0.1653333333333331,-0.21566666666666645,0.02800000000000047,-0.05142857142856627,-0.02499999999999858,1.7715,1.831,37.855000000000004,30.2165,39.373999999999995,35.065,57.004999999999995,36.817,67.688,55.376,55.045,35.8575,66.145,53.4925,54.358999999999995,35.39,66.255,52.821,-0.0635,-0.165,0.10208500000000001,0.11243000000000002,0.0,205.71333333333334,205.565,203.09333333333333,203.0925,0.0,0.0
3,0.0,0.0,0.0,1.0,1.0,0.0,0.0,1.0,0.0,100.0,1.0,1.1856,26.0,0.0,0.0,0.0,59.999996,0.0,26.0,26.0,26.0,26.0,-0.13855555555555554,0.27849999999999997,0.0112,290.726,-2.5444,-2.580111111111111,-1.476,-1.5417,-265.65,216.01999999999998,190.9262857142857,0.0,0.0,0.0,0.0,0.007433333333333292,-5.498166666666667,-5.498166666666667,-0.7348,0.4063333333333333,-0.010222222222222133,-1.527,65.779,-0.07780000000000031,-0.45719999999999994,1.3925,100.0,1.0,1.0,203.03333333333333,0.0,0.0,0.0,0.0,0.0,0.0,0.0,8605.8,0.0,55.0,5.0,236.78,1.0,0.0,0.0,0.0,0.0,0.0,0.0,0.0,0.1559999999999988,0.1559999999999988,0.0,0.0,1.0,55.0,616.79921,10000.0,85.000001,85.000001,85.000001,85.000001,395.0,0.0,0.0,0.0,1.0,333.33500000000004,43.961,43.961,51.315,51.315,34.0,-31.7925,21.16,-33.35,22.778,0.0,1782.839,0.665,100.0,34.894,34.396,39.725,38.943,0.0,0.0,100.0,0.0,0.0,0.0,0.0,3765.25,3525.4,4178.0,3977.8,303.5106666666667,303.42133333333334,314.83325,314.98525,21.9069,20.6809,22.151375,21.4595,314.999998,314.999998,324.999988,324.999988,99.56014285714286,99.5101,99.5912125,99.55418571428571,0.009333333333333194,-0.17799999999999994,-0.21666666666666679,0.02833333333333332,-0.02571428571428669,-0.03833333333332689,1.5310000000000001,1.5785,37.918,30.255499999999998,39.446,35.122,56.998000000000005,36.866,67.699,55.4235,55.038,35.903,66.154,53.5385,54.35,35.4335,66.261,52.866,-0.066,-0.163,0.10477500000000001,0.11893500000000001,0.0,206.11333333333334,206.05,203.03333333333333,203.0325,0.0,0.0
4,0.0,0.0,0.0,1.0,1.0,0.0,0.0,1.0,0.0,100.0,1.0,1.1856,26.0,0.0,0.0,0.0,59.999996,0.0,26.0,26.0,26.0,26.0,-0.15500000000000003,0.27990000000000004,-0.036925,291.0,-2.5625999999999998,-2.679333333333333,-1.4133,-1.556,-262.29,216.0125,190.90685714285715,0.0,0.0,0.0,0.0,0.009366666666666523,-5.498166666666667,-5.498166666666667,-0.765,-0.787,-0.06844444444444431,-0.16500000000000004,65.91499999999999,-0.09240000000000004,-0.49716666666666665,1.54,100.0,1.0,1.0,203.5966666666667,0.0,0.0,0.0,0.0,0.0,0.0,0.0,8629.7,0.0,55.0,5.0,237.2733333333333,0.0,0.0,0.0,0.0,0.0,0.0,0.0,0.0,0.20700000000000074,0.20700000000000074,0.0,0.0,0.0,55.0,616.79921,10000.0,85.000001,85.000001,85.000001,85.000001,395.0,0.0,0.0,0.0,1.0,333.33500000000004,43.777,43.777,51.879999999999995,51.879999999999995,34.0,-32.9625,23.292,-29.772,19.246,0.0,1782.787,0.5300000000000002,100.0,34.906,33.916,40.307,38.993,0.0,0.0,100.0,0.0,0.0,0.0,0.0,3903.125,3660.3,3913.8888888888887,3530.3,302.9386666666667,303.24666666666667,315.402,316.1045,21.9177,20.6874,22.16375,21.4691,314.999998,314.999998,324.999988,324.999988,99.56014285714286,99.51011666666666,99.59135,99.55431428571428,0.02066666666666661,-0.17300000000000004,-0.21766666666666712,0.020666666666667055,-0.02285714285714846,-0.04999999999999716,1.6179999999999999,1.6719999999999997,37.986000000000004,30.296,39.524,35.182,56.991,36.917,67.712,55.469,55.031,35.95,66.16499999999999,53.582499999999996,54.342,35.478,66.269,52.909,-0.0755,-0.159,0.10075500000000001,0.11196,0.0,206.49333333333334,206.4,203.5966666666667,203.595,0.0,0.0
5,0.0,0.0,0.0,1.0,1.0,0.0,0.0,1.0,0.0,100.0,1.0,1.1856,26.0,0.0,0.0,0.0,59.999996,0.0,26.0,26.0,26.0,26.0,-0.1557777777777778,0.29510000000000014,-0.009325,291.061,-2.5764,-2.647333333333333,-1.4843,-1.5852000000000002,-258.73,216.0,190.88542857142858,0.0,0.0,0.0,0.0,0.011433333333333295,-5.498166666666667,-5.498166666666667,-0.7643,0.3,-0.07144444444444442,0.8085,66.06,-0.10340000000000016,-0.4757,1.33,100.0,1.0,1.0,204.06,0.0,0.0,0.0,0.0,0.0,0.0,0.0,8649.3,0.0,55.0,5.0,237.79000000000002,1.0,0.0,0.0,0.0,0.0,0.0,0.0,0.0,0.26099999999999923,0.26099999999999923,0.0,0.0,1.0,55.0,616.79921,10000.0,85.000001,85.000001,85.000001,85.000001,395.0,0.0,0.0,0.0,1.0,166.665,43.93,43.93,52.277,52.277,34.0,-32.870000000000005,23.2,-31.060000000000002,20.918,0.0,1782.735,0.21499999999999986,100.0,35.076,33.775999999999996,40.028999999999996,38.578,0.0,0.0,100.0,0.0,0.0,0.0,0.0,3847.5,3610.8,3887.4444444444443,3814.1000000000004,303.0663333333333,303.42,315.51475,315.48425,21.9293,20.6943,22.17675,21.479,314.999998,314.999998,324.999988,324.999988,99.56014285714286,99.51015,99.5915,99.55445714285715,0.016666666666666607,-0.16100000000000003,-0.23366666666666713,0.009000000000000341,-0.04142857142856826,-0.046666666666666856,1.6225,1.661,38.058,30.3395,39.605000000000004,35.244,56.985,36.97,67.723,55.5145,55.025,35.9985,66.175,53.6265,54.334,35.525,66.275,52.9525,-0.095,-0.1355,0.103095,0.11219000000000001,0.0,207.01666666666665,206.89,204.06,204.06,0.0,0.0
6,0.0,0.0,0.0,1.0,1.0,0.0,0.0,1.0,0.0,100.0,1.0,1.1856,26.0,0.0,0.0,0.0,59.999996,0.0,26.0,26.0,26.0,26.0,-0.14611111111111108,0.27670000000000017,0.016875,290.756,-2.5284,-2.692222222222222,-1.5137,-1.5455,-255.76,215.9875,190.86714285714285,0.0,0.0,0.0,0.0,0.013166666666666549,-5.498166666666667,-5.498166666666667,-0.7584,0.04,-0.07177777777777772,-0.6305000000000001,66.181,-0.10199999999999987,-0.4721333333333333,1.0300000000000002,100.0,1.0,1.0,204.35333333333335,0.0,0.0,0.0,0.0,0.0,0.0,0.0,8661.7,0.0,55.0,5.0,238.2266666666667,0.0,0.0,0.0,0.0,0.0,0.0,0.0,0.0,0.30600000000000094,0.30600000000000094,0.0,0.0,0.0,55.0,616.79921,10000.0,85.000001,85.000001,85.000001,85.000001,395.0,0.0,0.0,0.0,1.0,333.33500000000004,43.701,43.701,51.788,51.788,34.0,-32.9875,22.864,-32.766,19.802,0.0,1782.688,0.11500000000000021,100.0,35.037,34.102000000000004,40.193,38.921,0.0,0.0,100.0,0.0,0.0,0.0,0.0,3948.875,3529.2,4016.777777777778,3785.4,302.9073333333333,303.4286666666667,315.25,315.47875,21.9389,20.7001,22.187625,21.4874,314.999998,314.999998,324.999988,324.999988,99.56014285714286,99.51016666666666,99.591625,99.55458571428571,0.01866666666666683,-0.16966666666666663,-0.23399999999999999,-0.002666666666667261,-0.03142857142857025,-0.04833333333333201,1.5945,1.646,38.117999999999995,30.375500000000002,39.673,35.2965,56.980999999999995,37.013999999999996,67.734,55.5555,55.019999999999996,36.039500000000004,66.184,53.666,54.328,35.564,66.282,52.991,-0.1115,-0.1225,0.10706,0.10579000000000001,0.0,207.36,207.265,204.35333333333335,204.35250000000002,0.0,0.0
7,0.0,0.0,0.0,1.0,1.0,0.0,0.0,1.0,0.0,100.0,1.0,1.1856,26.0,0.0,0.0,0.0,59.999996,0.0,26.0,26.0,26.0,26.0,-0.10977777777777786,0.2583,0.023775,290.619,-2.4988,-2.684555555555556,-1.4744000000000002,-1.5906,-252.38,215.97,190.84671428571428,0.0,0.0,0.0,0.0,0.015133333333333332,-5.498166666666667,-5.498166666666667,-0.7674,0.012,-0.05566666666666675,1.0590000000000002,66.315,-0.08840000000000003,-0.4908666666666667,0.7350000000000001,100.0,1.0,1.0,204.80666666666667,0.0,0.0,0.0,0.0,0.0,0.0,0.0,8681.0,0.0,55.0,5.0,238.71333333333334,1.0,0.0,0.0,0.0,0.0,0.0,0.0,0.0,0.3569999999999993,0.3569999999999993,0.0,0.0,1.0,55.0,616.79921,10000.0,85.000001,85.000001,85.000001,85.000001,395.0,0.0,0.0,0.0,1.0,333.33500000000004,43.228,43.228,52.138999999999996,52.138999999999996,34.0,-30.7225,25.16,-29.438,22.246000000000002,0.0,1782.637,-0.06499999999999995,100.0,35.496,34.211,40.282,39.03,0.0,0.0,100.0,0.0,0.0,0.0,0.0,3884.625,3709.4,3802.222222222222,3790.9,302.86966666666666,303.023,315.654,315.48625,21.9499,20.7067,22.2,21.497,314.999998,314.999998,324.999988,324.999988,99.56015714285714,99.51018333333333,99.5917625,99.55471428571428,0.04700000000000015,-0.1479999999999999,-0.21399999999999952,0.03500000000000014,-0.0357142857142847,-0.023333333333326323,1.6019999999999999,1.6235,38.187,30.4165,39.75,35.3565,56.977000000000004,37.064499999999995,67.746,55.6015,55.016,36.086,66.194,53.711,54.322,35.608000000000004,66.2885,53.035,-0.1245,-0.11750000000000001,0.111975,0.11434000000000001,0.0,207.75333333333333,207.67000000000002,204.80666666666667,204.8075,0.0,0.0
8,0.0,0.0,0.0,1.0,1.0,0.0,0.0,1.0,0.0,100.0,1.0,1.1856,26.0,0.0,0.0,0.0,59.999996,0.0,26.0,26.0,26.0,26.0,-0.07199999999999995,0.264,-0.011675000000000001,290.695,-2.5852,-2.6127777777777776,-1.4581,-1.5789,-248.99,215.9475,190.82614285714286,0.0,0.0,0.0,0.0,0.017100000000000004,-5.498166666666667,-5.498166666666667,-0.7715,-0.47800000000000004,-0.0431111111111111,-0.6784999999999999,66.451,-0.0708000000000002,-0.4894333333333333,0.4175,100.0,1.0,1.0,205.16666666666669,0.0,0.0,0.0,0.0,0.0,0.0,0.0,8696.3,0.0,55.0,5.0,239.20333333333332,0.0,0.0,0.0,0.0,0.0,0.0,0.0,0.0,0.40800000000000125,0.40800000000000125,0.0,0.0,0.0,55.0,616.79921,10000.0,85.000001,85.000001,85.000001,85.000001,395.0,0.0,0.0,0.0,1.0,333.33500000000004,43.686,43.686,51.544,51.544,34.0,-30.57,24.672,-28.95,22.768,0.0,1782.586,-0.16000000000000014,100.0,34.958,34.42,40.262,39.296,0.0,0.0,100.0,0.0,0.0,0.0,0.0,3828.5,3643.6,3882.1111111111113,3794.8,303.335,303.136,315.51,315.3875,21.9606,20.7133,22.21225,21.5066,314.999998,314.999998,324.999988,324.999988,99.56017142857142,99.5102,99.5919125,99.55485714285714,0.05266666666666664,-0.1339999999999999,-0.1913333333333327,0.044333333333333336,-0.054285714285711606,-0.041666666666671404,1.5859999999999999,1.596,38.254000000000005,30.458,39.826,35.4165,56.971000000000004,37.1135,67.757,55.647,55.01,36.131,66.20400000000001,53.754999999999995,54.315,35.6515,66.295,53.0785,-0.132,-0.101,0.10345000000000001,0.10837500000000001,0.0,208.15,208.12,205.16666666666669,205.16750000000002,0.0,0.0
9,0.0,0.0,0.0,1.0,1.0,0.0,0.0,1.0,0.0,100.0,1.0,1.1856,26.0,0.0,0.0,0.0,59.999996,0.0,26.0,26.0,26.0,26.0,-0.05522222222222217,0.2654000000000001,-0.010400000000000001,290.405,-2.5102,-2.615555555555556,-1.5131999999999999,-1.5276,-245.8,215.9275,190.80642857142857,0.0,0.0,0.0,0.0,0.018966666666666576,-5.498166666666667,-5.498166666666667,-0.7726,0.5153333333333334,-0.045444444444444176,-0.42300000000000004,66.576,-0.054400000000000226,-0.4861,0.24249999999999994,100.0,1.0,1.0,205.62333333333333,0.0,0.0,0.0,0.0,0.0,0.0,0.0,8715.6,0.0,55.0,5.0,239.65,1.0,0.0,0.0,0.0,0.0,0.0,0.0,0.0,0.4559999999999995,0.4559999999999995,0.0,0.0,1.0,55.0,616.79921,10000.0,85.000001,85.000001,85.000001,85.000001,395.0,0.0,0.0,0.0,1.0,166.665,42.786,42.786,52.260999999999996,52.260999999999996,34.0,-30.57,25.607999999999997,-28.102,22.9,0.0,1782.54,-0.3700000000000001,100.0,35.456,34.758,39.94,39.26,0.0,0.0,100.0,0.0,0.0,0.0,0.0,4054.625,3682.2,3831.1111111111113,3817.3,302.578,302.99066666666664,315.6985,315.42325,21.9709,20.7197,22.223625,21.5156,314.999998,314.999998,324.999988,324.999988,99.56018571428571,99.51023333333333,99.5920375,99.55498571428572,0.07399999999999984,-0.1233333333333333,-0.17366666666666664,0.06200000000000028,-0.027142857142855803,-0.03833333333332689,1.6284999999999998,1.6309999999999998,38.318,30.497999999999998,39.897999999999996,35.472,56.97,37.1605,67.765,55.689499999999995,55.007999999999996,36.174,66.211,53.796,54.311,35.692499999999995,66.2985,53.1185,-0.1485,-0.098,0.10942,0.11277500000000001,0.0,208.55333333333334,208.525,205.62333333333333,205.625,0.0,0.0
10,0.0,0.0,0.0,1.0,1.0,0.0,0.0,1.0,0.0,100.0,1.0,1.1856,26.0,0.0,0.0,0.0,59.999996,0.0,26.0,26.0,26.0,26.0,-0.037111111111111095,0.26870000000000016,-0.016300000000000002,290.329,-2.5825,-2.577111111111111,-1.4894,-1.5037,-242.2,215.9,190.78457142857144,0.0,0.0,0.0,0.0,0.021066666666666567,-5.498166666666667,-5.498166666666667,-0.7621,-0.62,-0.006666666666666821,0.17249999999999988,66.72,-0.03180000000000005,-0.4876666666666667,-0.14500000000000002,100.0,1.0,1.0,205.90333333333334,0.0,0.0,0.0,0.0,0.0,0.0,0.0,8727.5,0.0,55.0,5.0,240.17333333333335,0.0,0.0,0.0,0.0,0.0,0.0,1.0,0.0,0.509999999999998,0.509999999999998,0.0,0.0,0.0,55.0,616.79921,10000.0,85.000001,85.000001,85.000001,85.000001,395.0,0.0,0.0,0.0,1.0,166.665,43.503,43.503,51.269999999999996,51.269999999999996,34.0,-27.655,25.674,-28.614,24.662,0.0,1782.485,-0.41500000000000004,100.0,35.25,34.783,40.269999999999996,39.887,0.0,0.0,100.0,0.0,0.0,0.0,0.0,3742.5,3624.3,3980.5555555555557,3950.6000000000004,303.5776666666667,303.22633333333334,315.311,315.02125,21.9823,20.7267,22.236625,21.5259,314.999998,314.999998,324.999988,324.999988,99.5602,99.51023333333333,99.5922,99.55514285714285,0.09200000000000008,-0.10399999999999987,-0.15633333333333255,0.07733333333333281,-0.04571428571428271,-0.051666666666669414,1.568,1.565,38.388999999999996,30.542,39.979,35.536500000000004,56.968,37.210499999999996,67.77799999999999,55.7405,55.006,36.2205,66.22200000000001,53.846000000000004,54.307,35.737,66.306,53.167,-0.158,-0.085,0.108215,0.10500500000000001,0.0,208.97333333333336,208.97500000000002,205.90333333333334,205.9025,0.0,0.0
11,0.0,0.0,0.0,1.0,1.0,0.0,0.0,1.0,0.0,100.0,1.0,1.1856,26.0,0.0,0.0,0.0,59.999996,0.0,26.0,26.0,26.0,26.0,-0.015555555555555545,0.26449999999999996,-0.061475,290.726,-2.5863,-2.5757777777777777,-1.5398,-1.4781,-238.79,215.875,190.7637142857143,0.0,0.0,0.0,0.0,0.022599999999999953,-5.498166666666667,-5.498166666666667,-0.7932,0.03833333333333334,0.016666666666666607,0.5434999999999999,66.849,-0.008599999999999941,-0.5034666666666667,-0.375,100.0,1.0,1.0,206.56333333333333,0.0,0.0,0.0,0.0,0.0,0.0,0.0,8755.5,0.0,55.0,5.0,240.63666666666666,1.0,0.0,0.0,0.0,0.0,0.0,1.0,0.0,0.5609999999999999,0.5609999999999999,0.0,0.0,1.0,55.0,616.79921,10000.0,85.000001,85.000001,85.000001,85.000001,395.0,0.0,0.0,0.0,1.0,166.665,43.137,43.137,52.414,52.414,34.0,-26.7225,29.282,-23.732,24.102,0.0,1782.435,-0.21999999999999975,100.0,35.19,34.824,39.809,39.656,0.0,0.0,100.0,0.0,0.0,0.0,0.0,3757.875,3873.9,3577.4444444444443,3742.8,303.3566666666667,302.593,316.32025,315.6795,21.993,20.7336,22.24875,21.5354,314.999998,314.999998,324.999988,324.999988,99.5602,99.51026666666667,99.592325,99.55527142857143,0.11566666666666636,-0.07333333333333325,-0.12300000000000022,0.11966666666666725,-0.05285714285714249,-0.03999999999999915,1.7029999999999998,1.6844999999999999,38.456,30.585,40.054,35.596000000000004,56.966,37.2585,67.78399999999999,55.7855,55.003,36.265,66.226,53.8895,54.303,35.7795,66.307,53.21,-0.1505,-0.0905,0.11201000000000001,0.10862000000000001,0.0,209.37333333333333,209.36,206.56333333333333,206.565,0.0,0.0
12,0.0,0.0,0.0,1.0,1.0,0.0,0.0,1.0,0.0,100.0,1.0,1.1856,26.0,0.0,0.0,0.0,59.999996,0.0,26.0,26.0,26.0,26.0,0.02444444444444427,0.2672000000000001,0.02355,290.222,-2.6041,-2.587888888888889,-1.5086,-1.5307000000000002,-235.78,215.85250000000002,190.74442857142859,0.0,0.0,0.0,0.0,0.025466666666666526,-5.498166666666667,-5.498166666666667,-0.781,0.272,0.002777777777777768,-0.6259999999999999,66.968,0.004999999999999893,-0.4816666666666667,-0.21750000000000003,100.0,1.0,1.0,206.74333333333334,0.0,0.0,0.0,0.0,0.0,0.0,0.0,8763.1,0.0,55.0,5.0,241.06333333333333,0.0,0.0,0.0,0.0,0.0,0.0,1.0,0.0,0.6059999999999981,0.6059999999999981,0.0,0.0,0.0,55.0,616.79921,10000.0,85.000001,85.000001,85.000001,85.000001,395.0,0.0,0.0,0.0,1.0,166.665,42.938,42.938,51.376,51.376,34.0,-26.7425,30.247999999999998,-26.555999999999997,26.936,0.0,1782.39,-0.8799999999999999,100.0,35.056,35.147999999999996,39.763,39.76,0.0,0.0,100.0,0.0,0.0,0.0,0.0,3906.75,3787.8,3995.5555555555557,3890.5,303.07433333333336,302.6766666666667,315.3255,315.23375,22.0024,20.7396,22.2595,21.5438,314.999998,314.999998,324.999988,324.999988,99.56022857142857,99.51026666666667,99.59245,99.5554,0.13733333333333375,-0.04800000000000004,-0.11000000000000032,0.1299999999999999,-0.048571428571428044,-0.046666666666666856,1.593,1.5819999999999999,38.515,30.622999999999998,40.122,35.649,56.965,37.3005,67.792,55.826,55.001000000000005,36.304,66.233,53.929,54.3,35.8165,66.311,53.249,-0.1695,-0.0575,0.10723,0.11094000000000001,0.0,209.75,209.75,206.74333333333334,206.745,0.0,0.0
13,0.0,0.0,0.0,1.0,1.0,0.0,0.0,1.0,0.0,100.0,1.0,1.1856,26.0,0.0,0.0,0.0,59.999996,0.0,26.0,26.0,26.0,26.0,0.026222222222222147,0.2772000000000001,0.047400000000000005,289.825,-2.5883000000000003,-2.5735555555555556,-1.5486,-1.5043,-232.36,215.8275,190.7227142857143,0.0,0.0,0.0,0.0,0.026766666666666605,-5.498166666666667,-5.498166666666667,-0.7782,-0.17,0.01577777777777789,1.021,67.101,0.02120000000000033,-0.4935999999999999,-0.5349999999999999,100.0,1.0,1.0,207.08666666666667,0.0,0.0,0.0,0.0,0.0,0.0,0.0,8777.7,0.0,55.0,5.0,241.54333333333335,1.0,0.0,0.0,0.0,0.0,0.0,1.0,0.0,0.657,0.657,0.0,0.0,1.0,55.0,616.79921,10000.0,85.000001,85.000001,85.000001,85.000001,395.0,0.0,0.0,0.0,1.0,166.665,42.525999999999996,42.525999999999996,51.285,51.285,34.0,-25.745,30.266,-25.131999999999998,29.464,0.0,1782.339,-0.3999999999999999,100.0,35.559,35.315,40.087,40.149,0.0,0.0,100.0,0.0,0.0,0.0,0.0,3800.625,3910.9,3873.8888888888887,4097.2,303.204,302.4703333333333,315.502,314.79925,22.0131,20.7466,22.271625,21.5536,314.999998,314.999998,324.999988,324.999988,99.56024285714285,99.51028333333333,99.5926,99.55554285714285,0.14033333333333342,-0.06133333333333324,-0.08466666666666711,0.152333333333333,-0.04571428571428271,-0.04833333333333201,1.572,1.5554999999999999,38.582,30.666,40.198,35.71,56.966,37.3475,67.80199999999999,55.875,55.001999999999995,36.3475,66.241,53.9765,54.298,35.8585,66.3155,53.295500000000004,-0.158,-0.091,0.10816,0.10778000000000001,0.0,210.13666666666666,210.16500000000002,207.08666666666667,207.0875,0.0,0.0
14,0.0,0.0,0.0,1.0,1.0,0.0,0.0,1.0,0.0,100.0,1.0,1.1856,26.0,0.0,0.0,0.0,59.999996,0.0,26.0,26.0,26.0,26.0,0.04255555555555568,0.25080000000000013,-0.001,289.963,-2.6081,-2.5805555555555557,-1.5487000000000002,-1.4975,-228.94,215.8025,190.70142857142858,0.0,0.0,0.0,0.0,0.028766666666666607,-5.498166666666667,-5.498166666666667,-0.7903,-0.13,0.030777777777777793,-0.2569999999999999,67.231,0.03359999999999985,-0.5087666666666667,-0.47,100.0,1.0,1.0,207.57999999999998,0.0,0.0,0.0,0.0,0.0,0.0,0.0,8798.5,0.0,55.0,5.0,242.01,0.0,0.0,0.0,0.0,0.0,0.0,1.0,0.0,0.7079999999999984,0.7079999999999984,0.0,0.0,0.0,55.0,616.79921,10000.0,85.000001,85.000001,85.000001,85.000001,395.0,0.0,0.0,0.0,1.0,166.665,42.465,42.465,51.483000000000004,51.483000000000004,34.0,-26.2975,30.086,-24.468,27.53,0.0,1782.287,-0.34499999999999975,100.0,35.449,35.658,39.946,40.411,0.0,0.0,100.0,0.0,0.0,0.0,0.0,3841.875,3852.5,3784.5555555555557,3876.5,303.28766666666667,302.402,315.7975,315.263,22.0238,20.7535,22.28375,21.5632,314.999998,314.999998,324.999988,324.999988,99.56027142857143,99.51028333333333,99.5927375,99.55568571428572,0.13666666666666671,-0.062000000000000055,-0.09199999999999964,0.1559999999999997,-0.044285714285713595,-0.04333333333332945,1.6275,1.6044999999999998,38.649,30.7095,40.272999999999996,35.769999999999996,56.967,37.3945,67.81,55.922,55.001999999999995,36.391,66.248,54.0225,54.297,35.9,66.3185,53.3405,-0.1495,-0.095,0.11234000000000001,0.10626500000000001,0.0,210.54333333333335,210.57,207.57999999999998,207.5775,0.0,0.0
15,0.0,0.0,0.0,1.0,1.0,0.0,0.0,1.0,0.0,100.0,1.0,1.1856,26.0,0.0,0.0,0.0,59.999996,0.0,26.0,26.0,26.0,26.0,0.05077777777777781,0.2663,0.023675,289.963,-2.6134,-2.5452222222222223,-1.5694,-1.5,-225.51,215.78,190.67985714285714,0.0,0.0,0.0,0.0,0.03076666666666661,-5.498166666666667,-5.498166666666667,-0.7823,0.18433333333333335,0.057666666666666755,0.6345000000000001,67.361,0.04039999999999999,-0.4931,-0.52,100.0,1.0,1.0,207.94,0.0,0.0,0.0,0.0,0.0,0.0,0.0,8813.9,0.0,55.0,5.0,242.48000000000002,1.0,0.0,0.0,0.0,0.0,0.0,1.0,0.0,0.7590000000000003,0.7590000000000003,0.0,0.0,1.0,55.0,616.79921,10000.0,85.000001,85.000001,85.000001,85.000001,395.0,0.0,0.0,0.0,1.0,166.665,42.664,42.664,51.468,51.468,34.0,-24.0925,30.826,-23.758,29.939999999999998,0.0,1782.236,-0.28500000000000014,100.0,35.586,35.612,39.821,40.413,0.0,0.0,100.0,0.0,0.0,0.0,0.0,3620.5,3912.8,3742.5555555555557,4083.0,303.78266666666667,302.394,315.86675,314.79875,22.0345,20.7605,22.295749999999998,21.5729,314.999998,314.999998,324.999988,324.999988,99.56028571428571,99.5103,99.592875,99.55582857142858,0.14966666666666661,-0.04733333333333323,-0.07533333333333303,0.16699999999999982,-0.02285714285714846,-0.054999999999999716,1.6029999999999998,1.5859999999999999,38.715,30.753,40.348,35.8305,56.968,37.4415,67.81700000000001,55.97,55.003,36.4345,66.253,54.069,54.295,35.942,66.32,53.3865,-0.149,-0.097,0.109465,0.10959500000000001,0.0,210.94666666666666,211.0,207.94,207.9425,0.0,0.0
16,0.0,0.0,0.0,1.0,1.0,0.0,0.0,1.0,0.0,100.0,1.0,1.1856,26.0,0.0,0.0,0.0,59.999996,0.0,26.0,26.0,26.0,26.0,0.04888888888888898,0.25170000000000003,-0.024525,289.886,-2.6684,-2.498111111111111,-1.5387,-1.5056,-222.07,215.7575,190.65785714285715,0.0,0.0,0.0,0.0,0.03276666666666661,-5.498166666666667,-5.498166666666667,-0.8025,-0.5373333333333333,0.03611111111111098,-1.3065,67.49000000000001,0.04440000000000044,-0.5113666666666667,-0.3175,100.0,1.0,1.0,208.36666666666667,0.0,0.0,0.0,0.0,0.0,0.0,0.0,8831.9,0.0,55.0,5.0,242.94666666666666,0.0,0.0,0.0,0.0,0.0,0.0,1.0,0.0,0.8099999999999987,0.8099999999999987,0.0,0.0,0.0,55.0,616.79921,10000.0,85.000001,85.000001,85.000001,85.000001,395.0,0.0,0.0,0.0,1.0,166.665,42.313,42.313,51.331,51.331,34.0,-27.939999999999998,29.915999999999997,-23.846,27.266,0.0,1782.185,-0.2250000000000001,100.0,35.194,35.827,39.967,40.558,0.0,0.0,100.0,0.0,0.0,0.0,0.0,3950.875,3933.6000000000004,3783.3333333333335,3787.9,303.0876666666667,302.2633333333333,315.79825,315.43175,22.0449,20.7675,22.307875,21.5826,314.999998,314.999998,324.999988,324.999988,99.56031428571428,99.5103,99.5930125,99.55597142857143,0.13433333333333364,-0.05800000000000005,-0.08000000000000007,0.16233333333333277,-0.048571428571428044,-0.041666666666671404,1.6124999999999998,1.6019999999999999,38.781,30.797,40.424,35.891,56.967,37.489,67.826,56.0165,55.001000000000005,36.478,66.261,54.1145,54.291,35.984,66.3245,53.431,-0.138,-0.106,0.10401,0.10729500000000002,0.0,211.35000000000002,211.35500000000002,208.36666666666667,208.3675,0.0,0.0
17,0.0,0.0,0.0,1.0,1.0,0.0,0.0,1.0,0.0,100.0,1.0,1.1856,26.0,0.0,0.0,0.0,59.999996,0.0,26.0,26.0,26.0,26.0,0.03866666666666685,0.26900000000000013,0.01835,289.581,-2.6285,-2.481222222222222,-1.5779,-1.4677,-218.82,215.7375,190.63685714285714,0.0,0.0,0.0,0.0,0.03466666666666651,-5.498166666666667,-5.498166666666667,-0.7927,0.3443333333333333,0.014777777777777779,-0.8300000000000001,67.613,0.041400000000000325,-0.4944666666666667,-0.27,100.0,1.0,1.0,208.67333333333335,0.0,0.0,0.0,0.0,0.0,0.0,0.0,8844.9,0.0,55.0,5.0,243.38333333333333,1.0,0.0,0.0,0.0,0.0,0.0,1.0,0.0,0.8580000000000005,0.8580000000000005,0.0,0.0,1.0,55.0,616.79921,10000.0,85.000001,85.000001,85.000001,85.000001,395.0,0.0,0.0,0.0,1.0,166.665,42.191,42.191,51.086,51.086,34.0,-27.1675,28.752000000000002,-26.57,28.247999999999998,0.0,1782.138,-0.20500000000000007,100.0,35.662,35.968,39.86,40.482,0.0,0.0,100.0,0.0,0.0,0.0,0.0,3948.5,3836.4,4074.777777777778,3986.0,303.01933333333335,302.546,315.225,315.0575,22.0549,20.7742,22.319125,21.5916,314.999998,314.999998,324.999988,324.999988,99.56032857142857,99.51031666666667,99.59315,99.5561,0.14033333333333342,-0.06066666666666665,-0.08000000000000007,0.1589999999999998,-0.03999999999999915,-0.03999999999999915,1.5899999999999999,1.5859999999999999,38.843,30.8385,40.495000000000005,35.9475,56.969,37.533500000000004,67.833,56.06,55.003,36.519999999999996,66.26599999999999,54.1565,54.291,36.024,66.3265,53.4725,-0.1395,-0.111,0.10799500000000001,0.108045,0.0,211.73000000000002,211.75,208.67333333333335,208.6725,0.0,0.0
18,0.0,0.0,0.0,1.0,1.0,0.0,0.0,1.0,0.0,100.0,1.0,1.1856,26.0,0.0,0.0,0.0,59.999996,0.0,26.0,26.0,26.0,26.0,0.019000000000000128,0.2619,0.015625,289.429,-2.6451000000000002,-2.4672222222222224,-1.582,-1.4223000000000001,-215.37,215.7175,190.61457142857142,0.0,0.0,0.0,0.0,0.036666666666666514,-5.498166666666667,-5.498166666666667,-0.8062,-0.4103333333333333,0.029444444444444384,0.7375000000000003,67.741,0.03480000000000061,-0.5137,-0.1975,100.0,1.0,1.0,209.06666666666666,0.0,0.0,0.0,0.0,0.0,0.0,0.0,8861.5,0.0,55.0,5.0,243.84666666666666,0.0,0.0,0.0,0.0,0.0,0.0,1.0,0.0,0.9089999999999989,0.9089999999999989,0.0,0.0,0.0,55.0,616.79921,10000.0,85.000001,85.000001,85.000001,85.000001,395.0,0.0,0.0,0.0,1.0,166.665,41.855000000000004,41.855000000000004,50.995,50.995,34.0,-26.935,31.276,-24.927999999999997,27.758,0.0,1782.087,-0.27,100.0,35.747,35.797,40.238,40.61,0.0,0.0,100.0,0.0,0.0,0.0,0.0,3905.25,4124.7,3857.4444444444443,4010.3,303.0113333333333,301.8666666666667,315.61475,315.035,22.0655,20.7812,22.33125,21.6013,314.999998,314.999998,324.999988,324.999988,99.56034285714286,99.51031666666667,99.5932875,99.55625714285715,0.14466666666666672,-0.05333333333333323,-0.07800000000000029,0.15733333333333288,-0.018571428571426907,-0.051666666666669414,1.6029999999999998,1.585,38.909,30.8825,40.57,36.0085,56.97,37.581,67.842,56.108000000000004,55.001999999999995,36.564,66.274,54.2035,54.289,36.066,66.3305,53.5185,-0.14150000000000001,-0.1045,0.10396000000000001,0.10737000000000001,0.0,212.09666666666666,212.13,209.06666666666666,209.065,0.0,0.0
19,0.0,0.0,0.0,1.0,1.0,0.0,0.0,1.0,0.0,100.0,1.0,1.1856,26.0,0.0,0.0,0.0,59.999996,0.0,26.0,26.0,26.0,26.0,0.04044444444444428,0.27360000000000007,0.083125,289.093,-2.5599,-2.572,-1.5094,-1.4138000000000002,-211.91,215.6975,190.592,0.0,0.0,0.0,0.0,0.038666666666666516,-5.498166666666667,-5.498166666666667,-0.7951,0.6793333333333333,0.027666666666666728,-0.8105,67.869,0.03080000000000016,-0.5026666666666666,-0.27249999999999996,100.0,1.0,1.0,209.40666666666667,0.0,0.0,0.0,0.0,0.0,0.0,0.0,8876.0,0.0,55.0,5.0,244.30666666666667,1.0,0.0,0.0,0.0,0.0,0.0,1.0,0.0,0.9600000000000009,0.9600000000000009,0.0,0.0,1.0,55.0,616.79921,10000.0,85.000001,85.000001,85.000001,85.000001,395.0,0.0,0.0,0.0,1.0,166.665,41.595,41.595,50.919,50.919,34.0,-26.345,30.102,-26.09,28.852,0.0,1782.036,-0.23999999999999977,100.0,36.175,36.422,40.007,40.71,0.0,0.0,100.0,0.0,0.0,0.0,0.0,3931.375,3860.1,4012.3333333333335,4196.8,302.974,302.318,315.28875,314.5545,22.0761,20.7884,22.34325,21.611,314.999998,314.999998,324.999988,324.999988,99.56037142857143,99.51033333333334,99.593425,99.55638571428571,0.13933333333333353,-0.06299999999999994,-0.09366666666666656,0.1459999999999999,-0.044285714285713595,-0.03833333333332689,1.5604999999999998,1.5459999999999998,38.976,30.927500000000002,40.644999999999996,36.069,56.973,37.629999999999995,67.849,56.155,55.004999999999995,36.609,66.279,54.249,54.289,36.1095,66.3325,53.5635,-0.1475,-0.1015,0.10790500000000001,0.10801000000000001,0.0,212.55,212.55,209.40666666666667,209.4075,0.0,0.0
20,0.0,0.0,0.0,1.0,1.0,0.0,0.0,1.0,0.0,100.0,1.0,1.1856,26.0,0.0,0.0,0.0,59.999996,0.0,26.0,26.0,26.0,26.0,0.038555555555555676,0.24060000000000015,-0.00615,289.459,-2.6515,-2.5308888888888887,-1.5149,-1.5342,-208.45,215.68,190.5697142857143,0.0,0.0,0.0,0.0,0.04066666666666652,-5.498166666666667,-5.498166666666667,-0.8045,-1.032,0.030444444444444274,0.4500000000000002,67.997,0.03059999999999974,-0.5188999999999999,-0.255,100.0,1.0,1.0,209.79333333333335,0.0,0.0,0.0,0.0,0.0,0.0,0.0,8892.4,0.0,55.0,5.0,244.76999999999998,0.0,0.0,0.0,0.0,0.0,0.0,0.0,0.0,1.0109999999999992,1.0109999999999992,0.0,0.0,0.0,55.0,616.79921,10000.0,85.000001,85.000001,85.000001,85.000001,395.0,0.0,0.0,0.0,1.0,166.665,42.221000000000004,42.221000000000004,50.72,50.72,34.0,-26.2925,29.992,-24.232,28.814,0.0,1781.985,-0.17499999999999982,100.0,35.844,35.928,40.657,40.955,0.0,0.0,100.0,0.0,0.0,0.0,0.0,3758.75,3948.9,3815.1111111111113,3926.1000000000004,303.47,302.387,315.633,315.11475,22.0865,20.7954,22.355375,21.6208,314.999998,314.999998,324.999988,324.999988,99.5604,99.51035,99.593575,99.55652857142857,0.13633333333333342,-0.06366666666666676,-0.08199999999999985,0.1576666666666675,-0.0357142857142847,-0.060000000000002274,1.5545,1.5484999999999998,39.041,30.9715,40.721000000000004,36.129999999999995,56.972,37.677,67.859,56.203,55.003,36.653,66.288,54.296,54.286,36.1515,66.3375,53.6095,-0.1365,-0.111,0.10704000000000001,0.10542000000000001,0.0,212.89333333333335,212.91,209.79333333333335,209.79500000000002,0.0,0.0
21,0.0,0.0,0.0,1.0,1.0,0.0,0.0,1.0,0.0,100.0,1.0,1.1856,26.0,0.0,0.0,0.0,59.999996,0.0,26.0,26.0,26.0,26.0,0.0367777777777778,0.2542,-0.06632500000000001,289.719,-2.6208,-2.5326666666666666,-1.5815000000000001,-1.4957,-205.39,215.6625,190.54942857142856,0.0,0.0,0.0,0.0,0.04246666666666654,-5.498166666666667,-5.498166666666667,-0.823,0.23333333333333334,0.010444444444444256,-0.855,68.105,0.024799999999999933,-0.5166333333333333,-0.14500000000000002,100.0,1.0,1.0,210.32333333333332,0.0,0.0,0.0,0.0,0.0,0.0,0.0,8914.9,0.0,55.0,5.0,245.16,1.0,0.0,0.0,0.0,0.0,0.0,0.0,0.0,1.056000000000001,1.056000000000001,0.0,0.0,1.0,55.0,616.79921,10000.0,85.000001,85.000001,85.000001,85.000001,395.0,0.0,0.0,0.0,1.0,333.33500000000004,42.007,42.007,51.59,51.59,34.0,-27.7725,28.96,-24.988,25.954,0.0,1781.939,-0.2650000000000001,100.0,35.919,36.112,40.107,40.606,0.0,0.0,100.0,0.0,0.0,0.0,0.0,3964.875,3838.8,3804.6666666666665,3756.2,302.99,302.577,315.85,315.6215,22.0959,20.8017,22.365875,21.6292,314.999998,314.999998,324.999988,324.999988,99.56041428571429,99.51035,99.5937,99.55665714285715,0.13100000000000023,-0.06800000000000006,-0.09499999999999975,0.14900000000000002,-0.04142857142856826,-0.036666666666668846,1.6475,1.649,39.099000000000004,31.0105,40.786,36.1825,56.973,37.72,67.863,56.2415,55.004000000000005,36.692499999999995,66.291,54.3335,54.285,36.1895,66.3375,53.6465,-0.14200000000000002,-0.107,0.10705500000000001,0.10741500000000001,0.0,213.25666666666666,213.265,210.32333333333332,210.325,0.0,0.0
22,0.0,0.0,0.0,1.0,1.0,0.0,0.0,1.0,0.0,100.0,1.0,1.1856,26.0,0.0,0.0,0.0,59.999996,0.0,26.0,26.0,26.0,26.0,0.026000000000000023,0.26039999999999996,-0.005475,289.261,-2.5496,-2.586666666666667,-1.5791,-1.4797,-201.91,215.6475,190.52585714285715,0.0,0.0,0.0,0.0,0.04446666666666654,-5.498166666666667,-5.498166666666667,-0.806,0.06566666666666668,0.024666666666666615,1.2029999999999998,68.23400000000001,0.021399999999999864,-0.49770000000000003,-0.3075,100.0,1.0,1.0,210.5233333333333,0.0,0.0,0.0,0.0,0.0,0.0,0.0,8923.3,0.0,55.0,5.0,245.62333333333333,0.0,0.0,0.0,0.0,0.0,0.0,0.0,0.0,1.1069999999999993,1.1069999999999993,0.0,0.0,0.0,55.0,616.79921,10000.0,85.000001,85.000001,85.000001,85.000001,395.0,0.0,0.0,0.0,1.0,333.33500000000004,42.068,42.068,50.537,50.537,34.0,-24.1775,30.357999999999997,-26.534,29.002000000000002,0.0,1781.888,-0.3500000000000001,100.0,36.185,36.147,40.47,40.699,0.0,0.0,100.0,0.0,0.0,0.0,0.0,3675.375,3898.3,3958.5555555555557,4135.8,303.564,302.44933333333336,315.37325,314.7775,22.1064,20.8088,22.377875,21.6389,314.999998,314.999998,324.999988,324.999988,99.56044285714286,99.51036666666667,99.5938375,99.55681428571428,0.14433333333333342,-0.06266666666666665,-0.09066666666666645,0.14333333333333353,-0.05142857142856627,-0.04333333333332945,1.5554999999999999,1.549,39.165,31.055,40.861999999999995,36.2435,56.974999999999994,37.768,67.872,56.2885,55.004999999999995,36.737,66.298,54.3795,54.284,36.232,66.3415,53.6915,-0.155,-0.1,0.10583500000000001,0.10347500000000001,0.0,213.66,213.66500000000002,210.5233333333333,210.525,0.0,0.0
23,0.0,0.0,0.0,1.0,1.0,0.0,0.0,1.0,0.0,100.0,1.0,1.1856,26.0,0.0,0.0,0.0,59.999996,0.0,26.0,26.0,26.0,26.0,0.02588888888888885,0.22460000000000013,-0.062575,289.169,-2.5859,-2.5278888888888886,-1.6324,-1.4551,-198.43,215.63,190.50242857142857,0.0,0.0,0.0,0.0,0.046499999999999986,-5.498166666666667,-5.498166666666667,-0.8247,-0.25066666666666665,0.020999999999999908,-0.7894999999999999,68.358,0.024799999999999933,-0.5246666666666666,-0.26,100.0,1.0,1.0,211.01333333333332,0.0,0.0,0.0,0.0,0.0,0.0,0.0,8944.1,0.0,55.0,5.0,246.06666666666666,1.0,0.0,0.0,0.0,0.0,0.0,0.0,0.0,1.1580000000000013,1.1580000000000013,0.0,0.0,1.0,55.0,616.79921,10000.0,85.000001,85.000001,85.000001,85.000001,395.0,0.0,0.0,0.0,1.0,333.33500000000004,41.275,41.275,51.346000000000004,51.346000000000004,34.0,-28.2925,29.528,-25.898,25.47,0.0,1781.836,-0.27,100.0,36.263999999999996,36.501,40.502,41.066,0.0,0.0,100.0,0.0,0.0,0.0,0.0,4114.125,3895.0,3794.5555555555557,3796.3,302.57733333333334,302.349,315.89725,315.53125,22.117,20.816,22.389875,21.648699999999998,314.999998,314.999998,324.999988,324.999988,99.56045714285715,99.51038333333334,99.593975,99.55695714285714,0.13433333333333364,-0.06733333333333325,-0.10066666666666713,0.13866666666666738,-0.044285714285713595,-0.03333333333333144,1.6179999999999999,1.6105,39.230999999999995,31.1,40.937,36.3045,56.977000000000004,37.8165,67.88,56.335499999999996,55.006,36.782,66.304,54.4255,54.283,36.275,66.344,53.7365,-0.151,-0.107,0.10945500000000001,0.100665,0.0,214.02666666666664,214.035,211.01333333333332,211.015,0.0,0.0
24,0.0,0.0,0.0,1.0,1.0,0.0,0.0,1.0,0.0,100.0,1.0,1.1856,26.0,0.0,0.0,0.0,59.999996,0.0,26.0,26.0,26.0,26.0,0.036555555555555674,0.26,-0.0193,289.337,-2.6089,-2.5396666666666667,-1.5478,-1.4873,-195.14,215.615,190.48,0.0,0.0,0.0,0.0,0.04843333333333333,-5.498166666666667,-5.498166666666667,-0.8311999999999999,-0.3293333333333333,0.028999999999999915,-0.15799999999999992,68.476,0.03140000000000054,-0.5166333333333333,-0.2875,100.0,1.0,1.0,211.29000000000002,0.0,0.0,0.0,0.0,0.0,0.0,0.0,8955.8,0.0,55.0,5.0,246.49333333333334,0.0,0.0,0.0,0.0,0.0,0.0,0.0,0.0,1.2059999999999995,1.2059999999999995,0.0,0.0,0.0,55.0,616.79921,10000.0,85.000001,85.000001,85.000001,85.000001,395.0,0.0,0.0,0.0,1.0,166.665,42.16,42.16,50.644,50.644,34.0,-26.599999999999998,28.044,-26.490000000000002,27.55,0.0,1781.789,-0.23499999999999988,100.0,36.096000000000004,36.252,40.478,41.014,0.0,0.0,100.0,0.0,0.0,0.0,0.0,3817.625,3774.7,4070.777777777778,3908.8,303.3813333333333,302.76933333333335,315.23475,315.236,22.1269,20.8226,22.401125,21.6578,314.999998,314.999998,324.999988,324.999988,99.56047142857143,99.51038333333334,99.5941125,99.55708571428572,0.12933333333333374,-0.07666666666666666,-0.08766666666666723,0.15133333333333354,-0.04999999999999716,-0.04333333333332945,1.605,1.585,39.293,31.1415,41.007,36.3615,56.977999999999994,37.8605,67.887,56.3785,55.006,36.823,66.31,54.4675,54.282,36.3145,66.34649999999999,53.778,-0.138,-0.109,0.10094,0.11299500000000001,0.0,214.4,214.41500000000002,211.29000000000002,211.29000000000002,0.0,0.0
25,0.0,0.0,0.0,1.0,1.0,0.0,0.0,1.0,0.0,100.0,1.0,1.1856,26.0,0.0,0.0,0.0,59.999996,0.0,26.0,26.0,26.0,26.0,0.022666666666666613,0.25140000000000007,-0.045525,289.291,-2.6758,-2.501555555555556,-1.5681,-1.4872,-191.64999999999998,215.6,190.455,0.0,0.0,0.0,0.0,0.05043333333333333,-5.498166666666667,-5.498166666666667,-0.8562,-0.133,0.038999999999999924,0.21899999999999986,68.598,0.032600000000000406,-0.5216,-0.31999999999999995,100.0,1.0,1.0,211.77666666666667,0.0,0.0,0.0,0.0,0.0,0.0,0.0,8976.4,0.0,55.0,5.0,246.93666666666667,1.0,0.0,0.0,0.0,0.0,0.0,0.0,0.0,1.256999999999998,1.256999999999998,0.0,0.0,1.0,55.0,616.79921,10000.0,85.000001,85.000001,85.000001,85.000001,395.0,0.0,0.0,0.0,1.0,333.33500000000004,41.397,41.397,51.239,51.239,34.0,-27.735,31.75,-23.727999999999998,27.458,0.0,1781.737,-0.31499999999999995,100.0,36.062,36.271,40.319,40.714,0.0,0.0,100.0,0.0,0.0,0.0,0.0,3965.0,4139.8,3695.4444444444443,3889.0,302.899,301.8156666666667,316.022,315.34975,22.1374,20.8298,22.412875,21.6675,314.999998,314.999998,324.999988,324.999988,99.5605,99.5104,99.5942625,99.55724285714285,0.1456666666666666,-0.05600000000000005,-0.08433333333333337,0.1576666666666675,-0.04142857142856826,-0.05833333333333002,1.6229999999999998,1.6189999999999998,39.358999999999995,31.186500000000002,41.081,36.4215,56.977999999999994,37.909,67.892,56.4235,55.006,36.868,66.315,54.510999999999996,54.278999999999996,36.3575,66.347,53.821,-0.151,-0.107,0.108975,0.10907000000000001,0.0,214.77666666666664,214.79000000000002,211.77666666666667,211.775,0.0,0.0
26,0.0,0.0,0.0,1.0,1.0,0.0,0.0,1.0,0.0,100.0,1.0,1.1856,26.0,0.0,0.0,0.0,59.999996,0.0,26.0,26.0,26.0,26.0,0.03633333333333333,0.26090000000000013,0.08370000000000001,288.269,-2.5788,-2.596,-1.532,-1.475,-187.94,215.585,190.428,0.0,0.0,0.0,0.0,0.05259999999999998,-5.498166666666667,-5.498166666666667,-0.8255,0.454,0.02644444444444427,0.8385000000000002,68.733,0.03140000000000054,-0.5020333333333333,-0.405,100.0,1.0,1.0,211.93,0.0,0.0,0.0,0.0,0.0,0.0,0.0,8983.0,0.0,55.0,5.0,247.41666666666666,0.0,0.0,0.0,0.0,0.0,0.0,0.0,0.0,1.311,1.311,0.0,0.0,0.0,55.0,616.79921,10000.0,85.000001,85.000001,85.000001,85.000001,395.0,0.0,0.0,0.0,1.0,166.665,40.985,40.985,49.85,49.85,34.0,-25.287499999999998,31.14,-27.504,31.978,0.0,1781.685,-0.3599999999999999,100.0,36.954,36.870000000000005,40.726,41.09,0.0,0.0,100.0,0.0,0.0,0.0,0.0,3898.5,3958.9,4215.888888888889,4306.9,302.96733333333333,302.2663333333333,314.72125,314.3385,22.1488,20.8376,22.425625,21.6778,314.999998,314.999998,324.999988,324.999988,99.56052857142858,99.51041666666667,99.5944,99.5574,0.1596666666666664,-0.06099999999999994,-0.07633333333333336,0.16666666666666696,-0.03714285714285381,-0.05666666666667197,1.501,1.4874999999999998,39.43,31.235,41.16,36.4865,56.983000000000004,37.962,67.902,56.474000000000004,55.01,36.917,66.32300000000001,54.5605,54.281,36.4045,66.3515,53.869,-0.1585,-0.105,0.10114000000000001,0.11515500000000001,0.0,215.21333333333334,215.245,211.93,211.93,0.0,0.0
27,0.0,0.0,0.0,1.0,1.0,0.0,0.0,1.0,0.0,100.0,1.0,1.1856,26.0,0.0,0.0,0.0,59.999996,0.0,26.0,26.0,26.0,26.0,0.04033333333333333,0.2248000000000001,-0.038400000000000004,288.773,-2.5982000000000003,-2.5323333333333333,-1.56,-1.5669000000000002,-184.64,215.5725,190.405,0.0,0.0,0.0,0.0,0.05453333333333332,-5.498166666666667,-5.498166666666667,-0.8501,-0.9436666666666667,0.02966666666666673,0.5905,68.846,0.03279999999999994,-0.5428333333333333,-0.4475,100.0,1.0,1.0,212.42333333333335,0.0,0.0,0.0,0.0,0.0,0.0,0.0,9003.8,0.0,55.0,5.0,247.82999999999998,1.0,0.0,0.0,0.0,0.0,0.0,0.0,0.0,1.3589999999999982,1.3589999999999982,0.0,0.0,1.0,55.0,616.79921,10000.0,85.000001,85.000001,85.000001,85.000001,395.0,0.0,0.0,0.0,1.0,166.665,41.29,41.29,50.201,50.201,34.0,-24.6525,31.1,-24.695999999999998,28.416,0.0,1781.637,-0.33000000000000007,100.0,36.661,36.806,41.19,41.533,0.0,0.0,100.0,0.0,0.0,0.0,0.0,3766.375,4038.6000000000004,3815.777777777778,3849.9,303.375,302.107,315.68825,315.35375,22.1586,20.8444,22.437,21.6871,314.999998,314.999998,324.999988,324.999988,99.56055714285715,99.51041666666667,99.5945375,99.55752857142858,0.15733333333333333,-0.05899999999999994,-0.08199999999999985,0.15733333333333288,-0.048571428571428044,-0.04833333333333201,1.5785,1.572,39.492000000000004,31.2775,41.230999999999995,36.5445,56.983999999999995,38.007999999999996,67.911,56.519,55.010999999999996,36.9595,66.33,54.604,54.28,36.445,66.355,53.912,-0.155,-0.10200000000000001,0.11238000000000001,0.102925,0.0,215.52333333333334,215.54500000000002,212.42333333333335,212.4225,0.0,0.0
28,0.0,0.0,0.0,1.0,1.0,0.0,0.0,1.0,0.0,100.0,1.0,1.1856,26.0,0.0,0.0,0.0,59.999996,0.0,26.0,26.0,26.0,26.0,0.04499999999999993,0.24750000000000005,-0.044000000000000004,288.925,-2.5765000000000002,-2.5358888888888886,-1.6001,-1.5133,-181.32999999999998,215.5625,190.38128571428572,0.0,0.0,0.0,0.0,0.056433333333333335,-5.498166666666667,-5.498166666666667,-0.8584,0.523,0.016111111111110965,0.5585,68.959,0.03559999999999963,-0.5253333333333332,-0.41500000000000004,100.0,1.0,1.0,212.88666666666666,0.0,0.0,0.0,0.0,0.0,0.0,0.0,9023.5,0.0,55.0,5.0,248.23333333333335,0.0,0.0,0.0,0.0,0.0,0.0,0.0,0.0,1.407,1.407,0.0,0.0,0.0,55.0,616.79921,10000.0,85.000001,85.000001,85.000001,85.000001,395.0,0.0,0.0,0.0,1.0,166.665,41.016,41.016,51.147,51.147,34.0,-25.04,31.368,-23.918,28.026,0.0,1781.589,-0.36499999999999977,100.0,36.841,36.797,40.607,41.066,0.0,0.0,100.0,0.0,0.0,0.0,0.0,3901.375,4005.9,3762.4444444444443,3889.2,302.93966666666665,302.191,315.95325,315.37375,22.1686,20.8513,22.448,21.6961,314.999998,314.999998,324.999988,324.999988,99.56057142857142,99.51043333333334,99.594675,99.55765714285714,0.16400000000000015,-0.05033333333333312,-0.07166666666666721,0.16566666666666752,-0.024285714285717575,-0.05833333333333002,1.634,1.6400000000000001,39.554,31.3205,41.3,36.6005,56.986999999999995,38.0535,67.914,56.56,55.013,37.002,66.332,54.644,54.28,36.486000000000004,66.3545,53.951,-0.16,-0.0985,0.10003500000000001,0.11247000000000001,0.0,215.88666666666666,215.935,212.88666666666666,212.8875,0.0,0.0
29,0.0,0.0,0.0,1.0,1.0,0.0,0.0,1.0,0.0,100.0,1.0,1.1856,26.0,0.0,0.0,0.0,59.999996,0.0,26.0,26.0,26.0,26.0,0.052888888888888985,0.24350000000000005,-0.004975,288.712,-2.5628,-2.5806666666666667,-1.5518,-1.4946000000000002,-177.6,215.55,190.35357142857143,0.0,0.0,0.0,0.0,0.058599999999999985,-5.498166666666667,-5.498166666666667,-0.8603,-0.675,0.020999999999999908,0.778,69.09100000000001,0.03880000000000017,-0.5234333333333333,-0.5549999999999999,100.0,1.0,1.0,213.10333333333335,0.0,0.0,0.0,0.0,0.0,0.0,0.0,9032.6,0.0,55.0,5.0,248.71,1.0,0.0,0.0,0.0,0.0,0.0,0.0,0.0,1.4609999999999985,1.4609999999999985,0.0,0.0,1.0,55.0,616.79921,10000.0,85.000001,85.000001,85.000001,85.000001,395.0,0.0,0.0,0.0,1.0,166.665,41.428,41.428,50.217,50.217,34.0,-24.3425,32.168,-24.72,30.125999999999998,0.0,1781.535,-0.395,100.0,36.49,36.663,40.964,41.3,0.0,0.0,100.0,0.0,0.0,0.0,0.0,3805.875,3991.9,3884.222222222222,4094.2,303.29833333333335,302.1856666666667,315.4935,314.82075,22.1796,20.8589,22.460625,21.7065,314.999998,314.999998,324.999988,324.999988,99.5606,99.51045,99.5948375,99.55782857142857,0.1596666666666664,-0.04499999999999993,-0.07066666666666688,0.1639999999999997,-0.012857142857143344,-0.06499999999999773,1.5579999999999998,1.524,39.623000000000005,31.368000000000002,41.379000000000005,36.6655,56.989000000000004,38.1035,67.924,56.61,55.013999999999996,37.048500000000004,66.34,54.693,54.278,36.5305,66.35849999999999,53.999,-0.155,-0.0915,0.10959,0.10461000000000001,0.0,216.26,216.315,213.10333333333335,213.10250000000002,0.0,0.0
30,0.0,0.0,0.0,1.0,1.0,0.0,0.0,1.0,0.0,100.0,1.0,1.1856,26.0,0.0,0.0,0.0,59.999996,0.0,26.0,26.0,26.0,26.0,0.050999999999999934,0.22640000000000016,0.04565,288.071,-2.5776,-2.4685555555555556,-1.5248,-1.5533000000000001,-174.28,215.54250000000002,190.32871428571428,0.0,0.0,0.0,0.0,0.06053333333333333,-5.498166666666667,-5.498166666666667,-0.8633,0.7316666666666667,0.016111111111110965,0.5615000000000001,69.202,0.04380000000000006,-0.5275,-0.5525,100.0,1.0,1.0,213.57,0.0,0.0,0.0,0.0,0.0,0.0,0.0,9052.5,0.0,55.0,5.0,249.11,0.0,0.0,0.0,0.0,0.0,0.0,1.0,0.0,1.5090000000000003,1.5090000000000003,0.0,0.0,0.0,55.0,616.79921,10000.0,85.000001,85.000001,85.000001,85.000001,395.0,0.0,0.0,0.0,1.0,166.665,39.703,39.703,50.69,50.69,34.0,-26.43,32.1,-23.676,29.206000000000003,0.0,1781.486,-0.33000000000000007,100.0,37.422,37.454,40.769,41.365,0.0,0.0,100.0,0.0,0.0,0.0,0.0,4115.25,4185.5,3817.4444444444443,3910.8,302.2536666666667,301.50533333333334,315.7585,315.24075,22.1897,20.8659,22.47175,21.7156,314.999998,314.999998,324.999988,324.999988,99.56062857142857,99.51045,99.594975,99.55795714285715,0.16866666666666674,-0.05366666666666675,-0.07233333333333292,0.16666666666666696,-0.03999999999999915,-0.051666666666669414,1.593,1.5699999999999998,39.686,31.412,41.449,36.7225,56.994,38.1515,67.929,56.6525,55.018,37.0925,66.344,54.7345,54.281,36.573,66.35849999999999,54.039500000000004,-0.1615,-0.10250000000000001,0.1135,0.10614000000000001,0.0,216.65,216.695,213.57,213.5725,0.0,0.0
31,0.0,0.0,0.0,1.0,1.0,0.0,0.0,1.0,0.0,100.0,1.0,1.1856,26.0,0.0,0.0,0.0,59.999996,0.0,26.0,26.0,26.0,26.0,0.04266666666666685,0.23160000000000003,0.066025,287.704,-2.6685,-2.4956666666666667,-1.5742,-1.4456,-170.95999999999998,215.535,190.30442857142856,0.0,0.0,0.0,0.0,0.06246666666666656,-5.498166666666667,-5.498166666666667,-0.8464,-0.41333333333333333,0.02633333333333332,0.8005,69.319,0.045399999999999885,-0.5285,-0.43999999999999995,100.0,1.0,1.0,213.69333333333333,0.0,0.0,0.0,0.0,0.0,0.0,0.0,9057.7,0.0,55.0,5.0,249.53,1.0,0.0,0.0,0.0,0.0,0.0,1.0,0.0,1.5569999999999986,1.5569999999999986,0.0,0.0,1.0,55.0,616.79921,10000.0,85.000001,85.000001,85.000001,85.000001,395.0,0.0,0.0,0.0,1.0,333.33500000000004,40.466,40.466,49.042,49.042,34.0,-25.8,31.768,-26.78,31.16,0.0,1781.437,-0.3799999999999999,100.0,37.277,37.518,41.452,42.031,0.0,0.0,100.0,0.0,0.0,0.0,0.0,3871.375,4148.0,4116.666666666667,4212.6,303.191,301.893,314.9165,314.47425,22.1996,20.8729,22.483125,21.725,314.999998,314.999998,324.999988,324.999988,99.56064285714285,99.51046666666667,99.5951125,99.5581,0.16466666666666674,-0.05400000000000005,-0.0636666666666672,0.1706666666666674,-0.00999999999999801,-0.04833333333333201,1.4929999999999999,1.4765000000000001,39.747,31.4555,41.519,36.781,56.998000000000005,38.201499999999996,67.939,56.702,55.021,37.138999999999996,66.353,54.783,54.281,36.617,66.364,54.087,-0.158,-0.111,0.108645,0.108355,0.0,216.98000000000002,217.03,213.69333333333333,213.6925,0.0,0.0
32,0.0,0.0,0.0,1.0,1.0,0.0,0.0,1.0,0.0,100.0,1.0,1.1856,26.0,0.0,0.0,0.0,59.999996,0.0,26.0,26.0,26.0,26.0,0.05222222222222217,0.24009999999999998,-0.031675,288.162,-2.6250999999999998,-2.5442222222222224,-1.6291,-1.5008000000000001,-167.42000000000002,215.5275,190.27914285714286,0.0,0.0,0.0,0.0,0.06453333333333333,-5.498166666666667,-5.498166666666667,-0.8634,-0.13833333333333334,0.004999999999999893,-1.104,69.436,0.04720000000000013,-0.542,-0.51,100.0,1.0,1.0,214.24333333333334,0.0,0.0,0.0,0.0,0.0,0.0,0.0,9081.0,0.0,55.0,5.0,249.95,0.0,0.0,0.0,0.0,0.0,0.0,1.0,0.0,1.6080000000000005,1.6080000000000005,0.0,0.0,0.0,55.0,616.79921,10000.0,85.000001,85.000001,85.000001,85.000001,395.0,0.0,0.0,0.0,1.0,166.665,40.512,40.512,50.095,50.095,34.0,-26.6925,30.838,-26.032,28.922,0.0,1781.388,-0.3999999999999999,100.0,37.091,37.63,41.203,41.947,0.0,0.0,100.0,0.0,0.0,0.0,0.0,4028.5,3938.7,3955.5555555555557,3965.4,302.84933333333333,302.22333333333336,315.54425,315.19225,22.21,20.8803,22.494875,21.7347,314.999998,314.999998,324.999988,324.999988,99.56067142857142,99.51046666666667,99.59525,99.55824285714286,0.1586666666666665,-0.055333333333333234,-0.07500000000000018,0.1676666666666673,-0.03999999999999915,-0.045000000000001705,1.6099999999999999,1.5825,39.812,31.502000000000002,41.593,36.842,57.001000000000005,38.2475,67.945,56.7445,55.024,37.182,66.357,54.824,54.282,36.658500000000004,66.36449999999999,54.127,-0.1635,-0.10300000000000001,0.10525000000000001,0.10772000000000001,0.0,217.34333333333336,217.385,214.24333333333334,214.245,0.0,0.0
33,0.0,0.0,0.0,1.0,1.0,0.0,0.0,1.0,0.0,100.0,1.0,1.1856,26.0,0.0,0.0,0.0,59.999996,0.0,26.0,26.0,26.0,26.0,0.06422222222222218,0.22710000000000008,-0.044775,288.406,-2.6276,-2.542111111111111,-1.5674000000000001,-1.536,-164.07999999999998,215.5225,190.25428571428571,0.0,0.0,0.0,0.0,0.06646666666666656,-5.498166666666667,-5.498166666666667,-0.8722,-0.23700000000000002,0.002888888888888941,-0.1904999999999999,69.548,0.048799999999999955,-0.5307999999999999,-0.5225,100.0,1.0,1.0,214.57666666666665,0.0,0.0,0.0,0.0,0.0,0.0,0.0,9095.1,0.0,55.0,5.0,250.35333333333335,1.0,0.0,0.0,0.0,0.0,0.0,1.0,0.0,1.6559999999999988,1.6559999999999988,0.0,0.0,1.0,55.0,616.79921,10000.0,85.000001,85.000001,85.000001,85.000001,395.0,0.0,0.0,0.0,1.0,166.665,40.924,40.924,50.186,50.186,34.0,-26.02,30.618,-25.044,29.616,0.0,1781.339,-0.3700000000000001,100.0,36.937,37.365,41.061,41.761,0.0,0.0,100.0,0.0,0.0,0.0,0.0,3934.125,3887.6000000000004,3928.5555555555557,3944.4,303.133,302.3856666666667,315.5245,315.18825,22.2197,20.8871,22.506,21.7438,314.999998,314.999998,324.999988,324.999988,99.5607,99.51048333333334,99.5953875,99.55838571428572,0.15833333333333366,-0.05033333333333312,-0.07233333333333292,0.17366666666666664,-0.03285714285714647,-0.041666666666671404,1.5979999999999999,1.565,39.873000000000005,31.5445,41.662,36.8985,57.004000000000005,38.292,67.951,56.786500000000004,55.025999999999996,37.223,66.362,54.865,54.282,36.6975,66.3655,54.167500000000004,-0.162,-0.096,0.107965,0.10959,0.0,217.69333333333333,217.73000000000002,214.57666666666665,214.5775,0.0,0.0
34,0.0,0.0,0.0,1.0,1.0,0.0,0.0,1.0,0.0,100.0,1.0,1.1856,26.0,0.0,0.0,0.0,59.999996,0.0,26.0,26.0,26.0,26.0,0.04655555555555568,0.24360000000000004,-0.0505,288.589,-2.5647,-2.474555555555556,-1.621,-1.5038,-160.53,215.51999999999998,190.22671428571428,0.0,0.0,0.0,0.0,0.06853333333333333,-5.498166666666667,-5.498166666666667,-0.8963,-0.7373333333333334,0.02933333333333321,0.9649999999999999,69.667,0.052200000000000024,-0.5348666666666666,-0.55,100.0,1.0,1.0,214.92000000000002,0.0,0.0,0.0,0.0,0.0,0.0,0.0,9109.6,0.0,55.0,5.0,250.78333333333336,0.0,0.0,0.0,0.0,0.0,0.0,1.0,0.0,1.7070000000000007,1.7070000000000007,0.0,0.0,0.0,55.0,616.79921,10000.0,85.000001,85.000001,85.000001,85.000001,395.0,0.0,0.0,0.0,1.0,333.33500000000004,41.122,41.122,50.69,50.69,34.0,-24.0625,31.046,-24.63,30.32,0.0,1781.287,-0.33499999999999996,100.0,36.828,36.873000000000005,40.903999999999996,41.714,0.0,0.0,100.0,0.0,0.0,0.0,0.0,3811.75,4008.4,3838.0,4014.8,303.17566666666664,302.25733333333335,315.74625,315.03025,22.23,20.8944,22.51775,21.7536,314.999998,314.999998,324.999988,324.999988,99.56072857142857,99.51048333333334,99.5955375,99.55854285714285,0.16833333333333345,-0.04266666666666663,-0.06433333333333291,0.18433333333333302,-0.03999999999999915,-0.045000000000001705,1.6,1.5699999999999998,39.938,31.5895,41.736000000000004,36.9595,57.006,38.338,67.956,56.833,55.027,37.266,66.366,54.9105,54.282,36.739,66.366,54.2115,-0.156,-0.10350000000000001,0.10792500000000001,0.11070500000000001,0.0,218.05,218.065,214.92000000000002,214.92000000000002,0.0,0.0
35,0.0,0.0,0.0,1.0,1.0,0.0,0.0,1.0,0.0,100.0,1.0,1.1856,26.0,0.0,0.0,0.0,59.999996,0.0,26.0,26.0,26.0,26.0,0.061555555555555586,0.2189000000000001,-0.110125,288.742,-2.6237,-2.484,-1.5152999999999999,-1.5299,-156.76999999999998,215.51749999999998,190.19557142857144,0.0,0.0,0.0,0.0,0.07073333333333331,-5.498166666666667,-5.498166666666667,-0.9376,-0.316,0.014000000000000012,0.01949999999999985,69.78999999999999,0.05520000000000014,-0.5427333333333333,-0.495,100.0,1.0,1.0,215.39666666666668,0.0,0.0,0.0,0.0,0.0,0.0,0.0,9129.8,0.0,55.0,5.0,251.22666666666666,1.0,0.0,0.0,0.0,0.0,0.0,1.0,0.0,1.7609999999999992,1.7609999999999992,0.0,0.0,1.0,55.0,616.79921,10000.0,85.000001,85.000001,85.000001,85.000001,395.0,0.0,0.0,0.0,1.0,166.665,40.878,40.878,50.385,50.385,34.0,-25.2725,32.96,-22.612,28.259999999999998,0.0,1781.235,-0.19499999999999984,100.0,36.539,37.09,40.703,41.224000000000004,0.0,0.0,100.0,0.0,0.0,0.0,0.0,3865.75,4216.7,3821.4444444444443,3788.4,303.137,301.578,315.78475,315.67675,22.2408,20.9022,22.530124999999998,21.7637,314.999998,314.999998,324.999988,324.999988,99.56075714285714,99.5105,99.595675,99.5587,0.16533333333333333,-0.04466666666666663,-0.054999999999999716,0.18466666666666676,-0.03142857142857025,-0.04833333333333201,1.6320000000000001,1.6124999999999998,40.004999999999995,31.6385,41.813,37.022999999999996,57.007,38.3895,67.961,56.8775,55.027,37.3135,66.369,54.954,54.278999999999996,36.7845,66.3655,54.2545,-0.148,-0.111,0.10010000000000001,0.11210500000000001,0.0,218.42333333333335,218.48000000000002,215.39666666666668,215.39499999999998,0.0,0.0
36,0.0,0.0,0.0,1.0,1.0,0.0,0.0,1.0,0.0,100.0,1.0,1.1856,26.0,0.0,0.0,0.0,59.999996,0.0,26.0,26.0,26.0,26.0,0.050000000000000044,0.25,0.0061,287.994,-2.6763,-2.5170000000000003,-1.5528,-1.4966000000000002,-153.62,215.51749999999998,190.16814285714287,0.0,0.0,0.0,0.0,0.07256666666666656,-5.498166666666667,-5.498166666666667,-0.925,0.24733333333333335,-0.02566666666666695,-1.565,69.897,0.05140000000000011,-0.5191666666666667,-0.265,100.0,1.0,1.0,215.51,0.0,0.0,0.0,0.0,0.0,0.0,0.0,9134.7,0.0,55.0,5.0,251.61,0.0,0.0,0.0,0.0,0.0,0.0,1.0,0.0,1.806000000000001,1.806000000000001,0.0,0.0,0.0,55.0,616.79921,10000.0,85.000001,85.000001,85.000001,85.000001,395.0,0.0,0.0,0.0,1.0,333.33500000000004,40.466,40.466,50.156,50.156,34.0,-28.495,30.259999999999998,-26.782,30.927999999999997,0.0,1781.188,-0.14000000000000012,100.0,37.022,37.488,40.68,41.413,0.0,0.0,100.0,0.0,0.0,0.0,0.0,4134.125,3951.2,4159.555555555556,4166.6,302.6093333333333,302.22766666666666,315.0205,314.63725,22.25,20.9088,22.540375,21.7723,314.999998,314.999998,324.999988,324.999988,99.56077142857143,99.5105,99.5958125,99.55882857142858,0.15333333333333332,-0.06099999999999994,-0.07133333333333258,0.1653333333333329,-0.04571428571428271,-0.030000000000001137,1.5430000000000001,1.5215,40.063,31.68,41.878,37.076499999999996,57.010999999999996,38.4335,67.967,56.9185,55.03,37.3545,66.374,54.994,54.28,36.824,66.367,54.2935,-0.1495,-0.11750000000000001,0.10836000000000001,0.10581000000000002,0.0,218.80333333333334,218.805,215.51,215.51,0.0,0.0
