,ABS Active,ABS Enabled,AID Allow Tire Blankets,AID Auto Blip,AID Auto Clutch,AID Auto Shift,AID Fuel Rate,AID Ideal Line,AID Mech Damage,AID Stability,AID Tire Wear Rate,Air Density,Air Temp,Ballast,Best Lap Delta,Best Lap Time,Brake Bias,Brake Pos,Brake Temp FL,Brake Temp FR,Brake Temp RL,Brake Temp RR,CG Accel Lateral,CG Accel Longitudinal,CG Accel Vertical,CG Height,Camber FL,Camber FR,Camber RL,Camber RR,Car Coord X,Car Coord Y,Car Coord Z,Car Damage Front,Car Damage Left,Car Damage Rear,Car Damage Right,Car Pos Norm,Caster FL,Caster FR,Chassis Pitch Angle,Chassis Pitch Rate,Chassis Roll Angle,Chassis Roll Rate,Chassis Velocity X,Chassis Velocity Y,Chassis Velocity Z,Chassis Yaw Rate,Clutch Pos,DRS Active,DRS Available,Drive Train Speed,ERS Heat Charging,ERS Is Charging,ERS Max Energy,ERS Power Level,ERS Recovery Level,Engine Brake Setting,Engine Limiter,Engine RPM,Flags,Fuel Level,Gear,Ground Speed,HR Sample Clock,In Pit,KERS Charge,KERS Deployed Energy,KERS Input,KERS Max Energy,LR Sample Clock,Lap Invalidated,Lap Time,Lap Time2,Last Lap Time,Last Sector Time,MR Sample Clock,Max Fuel,Max Power,Max RPM,Max Sus Travel FL,Max Sus Travel FR,Max Sus Travel RL,Max Sus Travel RR,Max Torque,Max Turbo Boost,Num Tires Off Track,Penalties Enabled,Position,Raw Data Sample Rate,Ride Height FL,Ride Height FR,Ride Height RL,Ride Height RR,Road Temp,Self Align Torque FL,Self Align Torque FR,Self Align Torque RL,Self Align Torque RR,Session Lap Count,Session Time Left,Steering Angle,Surface Grip,Suspension Travel FL,Suspension Travel FR,Suspension Travel RL,Suspension Travel RR,TC Active,TC Enabled,Throttle Pos,Tire Dirt Level FL,Tire Dirt Level FR,Tire Dirt Level RL,Tire Dirt Level RR,Tire Load FL,Tire Load FR,Tire Load RL,Tire Load RR,Tire Loaded Radius FL,Tire Loaded Radius FR,Tire Loaded Radius RL,Tire Loaded Radius RR,Tire Pressure FL,Tire Pressure FR,Tire Pressure RL,Tire Pressure RR,Tire Radius FL,Tire Radius FR,Tire Radius RL,Tire Radius RR,Tire Rubber Grip FL,Tire Rubber Grip FR,Tire Rubber Grip RL,Tire Rubber Grip RR,Tire Slip Angle FL,Tire Slip Angle FR,Tire Slip Angle RL,Tire Slip Angle RR,Tire Slip Ratio FL,Tire Slip Ratio FR,Tire Slip Ratio RL,Tire Slip Ratio RR,Tire Temp Core FL,Tire Temp Core FR,Tire Temp Core RL,Tire Temp Core RR,Tire Temp Inner FL,Tire Temp Inner FR,Tire Temp Inner RL,Tire Temp Inner RR,Tire Temp Middle FL,Tire Temp Middle FR,Tire Temp Middle RL,Tire Temp Middle RR,Tire Temp Outer FL,Tire Temp Outer FR,Tire Temp Outer RL,Tire Temp Outer RR,Toe In FL,Toe In FR,Toe In RL,Toe In RR,Turbo Boost,Wheel Angular Speed FL,Wheel Angular Speed FR,Wheel Angular Speed RL,Wheel Angular Speed RR,Wind Direction,Wind Speed
0,0.0,0.0,0.0,1.0,1.0,0.0,0.0,1.0,0.0,100.0,1.0,1.1856,26.0,0.0,0.0,0.0,59.99999,0.0,26.0,26.0,26.0,26.0,-0.03500000000000003,0.2824,0.19010000000000002,290.634,-2.6977777777777776,-2.5086250000000003,-1.5349,-1.4668,-275.74,215.505,190.98514285714285,0.0,0.0,0.0,0.0,0.0015666666666666667,-5.498166666666667,-5.498166666666667,-0.7903,1.853,0.00855555555555565,-0.627,65.36,-0.016000000000000014,-0.48206666666666664,-0.010000000000000009,100.0,1.0,1.0,201.94,0.0,0.0,0.0,0.0,0.0,0.0,0.0,8559.5,0.0,55.0,5.0,235.2733333333333,0.0,0.0,0.0,0.0,0.0,0.0,0.0,0.0,0.0030000000000001137,0.0030000000000001137,0.0,0.0,0.0,55.0,616.79921,10000.0,85.0,85.0,85.0,85.0,395.0,0.0,0.0,0.0,1.0,20.0,41.565,41.565,52.231,52.231,34.0,-33.76,35.352,-27.13,24.39,0.0,1782.827,0.1349999999999998,100.0,34.566,34.492000000000004,37.74,37.653999999999996,0.0,0.0,100.0,0.0,0.0,0.0,0.0,4060.75,4957.3,3858.625,3888.1000000000004,302.49966666666666,299.4433333333333,315.649,315.19225,21.8622,20.6604,22.12025,21.433,314.99999,314.99999,324.99998,324.99998,99.55951428571429,99.51001666666667,99.5911625,99.5539,0.06099999999999994,-0.10233333333333317,-0.14266666666666694,0.09799999999999986,-0.07666666666666799,-0.060000000000002274,1.619,1.626,37.638999999999996,30.128,39.251999999999995,34.956,56.814,36.7125,67.788,55.34,54.867999999999995,35.7575,66.242,53.4585,54.19,35.28933333333333,66.359,52.7885,-0.1105,-0.1285,0.10813,0.10532000000000001,0.0,204.82999999999998,204.81,201.94,201.94,0.0,0.0
1,0.0,0.0,0.0,1.0,1.0,0.0,0.0,1.0,0.0,100.0,1.0,1.1856,26.0,0.0,0.0,0.0,59.999996,0.0,26.0,26.0,26.0,26.0,-0.057499999999999996,0.32320000000000015,0.14485,289.764,-2.5927777777777776,-2.59025,-1.5702,-1.4842,-272.4,215.51,190.96528571428573,0.0,0.0,0.0,0.0,0.0035,-5.498166666666667,-5.498166666666667,-0.7018,-1.404,-0.04044444444444428,0.06800000000000006,65.511,-0.011499999999999844,-0.4358666666666666,0.5525,100.0,1.0,1.0,201.74333333333334,0.0,0.0,0.0,0.0,0.0,0.0,0.0,8551.1,0.0,55.0,5.0,235.81333333333333,1.0,0.0,0.0,0.0,0.0,0.0,0.0,0.0,0.053999999999998494,0.053999999999998494,0.0,0.0,1.0,55.0,616.79921,10000.0,85.000001,85.000001,85.000001,85.000001,395.0,0.0,0.0,0.0,1.0,333.33500000000004,44.739,44.739,50.476,50.476,34.0,-26.5975,21.262,-34.676,36.928,0.0,1782.776,0.2649999999999997,100.0,34.827,34.527,39.816,40.14,0.0,0.0,100.0,0.0,0.0,0.0,0.0,3505.75,3156.7,4576.375,5357.1,304.14,304.76733333333334,313.71325,311.786,21.8729,20.6669,22.133125,21.443,314.999998,314.999998,324.999988,324.999988,99.55954285714286,99.51001666666667,99.5913125,99.55404285714286,0.07666666666666666,-0.11766666666666681,-0.12766666666666726,0.09166666666666679,-0.026666666666670835,-0.02833333333332888,1.3595,1.361,37.706,30.168,39.332,35.019,56.81,36.759,67.807,55.394999999999996,54.863,35.801,66.259,53.512,54.183,35.331,66.372,52.841,-0.096,-0.14150000000000001,0.09687000000000001,0.11268,0.0,205.21,205.16500000000002,201.74333333333334,201.74333333333334,0.0,0.0
2,0.0,0.0,0.0,1.0,1.0,0.0,0.0,1.0,0.0,100.0,1.0,1.1856,26.0,0.0,0.0,0.0,59.999996,0.0,26.0,26.0,26.0,26.0,-0.07787500000000003,0.2651000000000001,-0.22182500000000002,291.214,-2.5765555555555557,-2.533875,-1.5495999999999999,-1.4652,-268.86,215.5125,190.94528571428572,0.0,0.0,0.0,0.0,0.005566666666666667,-5.498166666666667,-5.498166666666667,-0.806,1.0955,0.006999999999999895,2.101,65.641,-0.016750000000000043,-0.5298666666666667,0.7225000000000001,100.0,1.0,1.0,203.26333333333332,0.0,0.0,0.0,0.0,0.0,0.0,0.0,8615.5,0.0,55.0,5.0,236.2866666666667,0.0,0.0,0.0,0.0,0.0,0.0,0.0,0.0,0.10800000000000054,0.10800000000000054,0.0,0.0,0.0,55.0,616.79921,10000.0,85.000001,85.000001,85.000001,85.000001,395.0,0.0,0.0,0.0,1.0,166.665,42.358000000000004,42.358000000000004,53.94,53.94,34.0,-31.3825,25.796,-22.006,18.298000000000002,0.0,1782.723,0.3849999999999998,100.0,35.571,34.963,39.124,39.08,0.0,0.0,100.0,0.0,0.0,0.0,0.0,3957.375,3867.0,3279.875,3234.0,302.6193333333333,302.317,316.99625,316.95125,21.8845,20.6739,22.146,21.4527,314.999998,314.999998,324.999988,324.999988,99.55955714285714,99.51003333333334,99.59145,99.55418571428571,0.06333333333333346,-0.1296666666666666,-0.1559999999999997,0.0903333333333336,-0.01666666666666572,-0.04333333333332945,1.889,1.874,37.778,30.2115,39.412,35.08,56.808,36.8105,67.812,55.433,54.861000000000004,35.8485,66.263,53.549,54.179,35.376333333333335,66.372,52.8775,-0.0895,-0.148,0.10522500000000001,0.11165000000000001,0.0,205.65,205.595,203.26333333333332,203.26333333333332,0.0,0.0
3,0.0,0.0,0.0,1.0,1.0,0.0,0.0,1.0,0.0,100.0,1.0,1.1856,26.0,0.0,0.0,0.0,59.999996,0.0,26.0,26.0,26.0,26.0,-0.05337499999999995,0.26580000000000004,0.0438,290.283,-2.5884444444444443,-2.570125,-1.5229,-1.4442000000000002,-265.7,215.5125,190.926,0.0,0.0,0.0,0.0,0.0074,-5.498166666666667,-5.498166666666667,-0.7304999999999999,0.5045,0.012777777777777777,-2.114,65.782,-0.03025000000000011,-0.45143333333333324,0.7050000000000001,100.0,1.0,1.0,202.94333333333333,0.0,0.0,0.0,0.0,0.0,0.0,0.0,8602.0,0.0,55.0,5.0,236.79000000000002,1.0,0.0,0.0,0.0,0.0,0.0,0.0,0.0,0.1559999999999988,0.1559999999999988,0.0,0.0,1.0,55.0,616.79921,10000.0,85.000001,85.000001,85.000001,85.000001,395.0,0.0,0.0,0.0,1.0,166.665,43.671,43.671,50.705,50.705,34.0,-27.6775,23.898,-31.808,26.144,0.0,1782.676,0.4400000000000004,100.0,35.133,35.0,39.453,39.65,0.0,0.0,100.0,0.0,0.0,0.0,0.0,3583.25,3590.4,4315.0,4132.1,304.014,303.222,314.49925,314.53075,21.8945,20.6802,22.157625,21.4619,314.999998,314.999998,324.999988,324.999988,99.55955714285714,99.51005,99.5915875,99.55431428571428,0.06566666666666654,-0.1326666666666667,-0.14633333333333276,0.09166666666666679,-0.02499999999999858,-0.030000000000001137,1.4935,1.514,37.841,30.250999999999998,39.485,35.137,56.803,36.8585,67.82300000000001,55.4835,54.855000000000004,35.8925,66.27199999999999,53.598,54.172,35.419,66.378,52.9255,-0.085,-0.1505,0.098485,0.11398000000000001,0.0,206.12,206.055,202.94333333333333,202.94333333333333,0.0,0.0
4,0.0,0.0,0.0,1.0,1.0,0.0,0.0,1.0,0.0,100.0,1.0,1.1856,26.0,0.0,0.0,0.0,59.999996,0.0,26.0,26.0,26.0,26.0,-0.08450000000000002,0.2723,-0.050475,290.649,-2.5724444444444443,-2.6325000000000003,-1.4665,-1.5537,-262.34,215.51,190.9067142857143,0.0,0.0,0.0,0.0,0.009333333333333334,-5.498166666666667,-5.498166666666667,-0.7652,-0.8340000000000001,-0.034666666666666845,0.43500000000000005,65.916,-0.04225000000000012,-0.5010666666666667,0.99,100.0,1.0,1.0,203.62333333333333,0.0,0.0,0.0,0.0,0.0,0.0,0.0,8630.8,0.0,55.0,5.0,237.27666666666667,0.0,0.0,0.0,0.0,0.0,0.0,0.0,0.0,0.20700000000000074,0.20700000000000074,0.0,0.0,0.0,55.0,616.79921,10000.0,85.000001,85.000001,85.000001,85.000001,395.0,0.0,0.0,0.0,1.0,166.665,43.259,43.259,51.971000000000004,51.971000000000004,34.0,-30.4425,24.854,-27.11,22.39,0.0,1782.624,0.4249999999999998,100.0,35.338,34.539,40.235,39.673,0.0,0.0,100.0,0.0,0.0,0.0,0.0,3813.375,3703.8,3788.625,3617.3,303.184,303.12333333333333,315.70675,315.90525,21.9052,20.686700000000002,22.170125,21.4715,314.999998,314.999998,324.999988,324.999988,99.55957142857143,99.51008333333333,99.591725,99.55445714285715,0.05333333333333368,-0.1396666666666666,-0.16999999999999993,0.07899999999999974,-0.04999999999999716,-0.03999999999999915,1.625,1.659,37.908,30.292,39.563,35.197,56.798,36.9075,67.83500000000001,55.5275,54.849999999999994,35.9375,66.283,53.641,54.166,35.462,66.38499999999999,52.968,-0.0815,-0.154,0.10282500000000001,0.11493500000000001,0.0,206.5,206.435,203.62333333333333,203.62333333333333,0.0,0.0
5,0.0,0.0,0.0,1.0,1.0,0.0,0.0,1.0,0.0,100.0,1.0,1.1856,26.0,0.0,0.0,0.0,59.999996,0.0,26.0,26.0,26.0,26.0,-0.09912500000000002,0.2673000000000001,-0.034050000000000004,290.863,-2.5414444444444446,-2.59525,-1.5124,-1.5459,-259.18,215.5075,190.88814285714287,0.0,0.0,0.0,0.0,0.0112,-5.498166666666667,-5.498166666666667,-0.7715,0.49249999999999994,-0.023666666666666725,0.8500000000000001,66.043,-0.05799999999999983,-0.49249999999999994,0.96,100.0,1.0,1.0,204.08333333333331,0.0,0.0,0.0,0.0,0.0,0.0,0.0,8650.4,0.0,55.0,5.0,237.73333333333335,1.0,0.0,0.0,0.0,0.0,0.0,0.0,0.0,0.254999999999999,0.254999999999999,0.0,0.0,1.0,55.0,616.79921,10000.0,85.000001,85.000001,85.000001,85.000001,395.0,0.0,0.0,0.0,1.0,166.665,43.381,43.381,52.368,52.368,34.0,-29.585,25.201999999999998,-27.188,21.522,0.0,1782.576,0.08499999999999996,100.0,35.32,34.473,39.878,39.152,0.0,0.0,100.0,0.0,0.0,0.0,0.0,3760.75,3743.0,3700.625,3728.2,303.25166666666667,302.978,315.9575,315.69775,21.915399999999998,20.693,22.181625,21.4803,314.999998,314.999998,324.999988,324.999988,99.55957142857143,99.5101,99.5918625,99.55458571428571,0.05566666666666675,-0.1316666666666666,-0.1806666666666672,0.04800000000000004,-0.03833333333332689,-0.04333333333332945,1.651,1.699,37.971000000000004,30.331,39.635,35.251999999999995,56.795,36.954499999999996,67.844,55.568,54.847,35.9815,66.289,53.68,54.161,35.50366666666667,66.389,53.006,-0.10250000000000001,-0.13,0.09918,0.10305500000000001,0.0,206.94,206.85000000000002,204.08333333333331,204.08333333333331,0.0,0.0
6,0.0,0.0,0.0,1.0,1.0,0.0,0.0,1.0,0.0,100.0,1.0,1.1856,26.0,0.0,0.0,0.0,59.999996,0.0,26.0,26.0,26.0,26.0,-0.09450000000000003,0.2732000000000001,-0.00655,290.802,-2.5722222222222224,-2.666875,-1.4622,-1.5223,-256.0,215.5025,190.86885714285714,0.0,0.0,0.0,0.0,0.013033333333333334,-5.498166666666667,-5.498166666666667,-0.7594,-0.25150000000000006,-0.03966666666666674,0.6320000000000001,66.175,-0.061249999999999805,-0.4738,0.645,100.0,1.0,1.0,204.31,0.0,0.0,0.0,0.0,0.0,0.0,0.0,8660.0,0.0,55.0,5.0,238.20666666666668,0.0,0.0,0.0,0.0,0.0,0.0,0.0,0.0,0.3030000000000008,0.3030000000000008,0.0,0.0,0.0,55.0,616.79921,10000.0,85.000001,85.000001,85.000001,85.000001,395.0,0.0,0.0,0.0,1.0,166.665,43.869,43.869,51.727000000000004,51.727000000000004,34.0,-30.1125,24.994,-29.512,23.112000000000002,0.0,1782.529,0.19500000000000028,100.0,34.94,34.097,40.03,39.187,0.0,0.0,100.0,0.0,0.0,0.0,0.0,3789.625,3630.8,3966.5,3864.9,303.259,303.3523333333333,315.23625,315.3425,21.9255,20.6991,22.19325,21.4894,314.999998,314.999998,324.999988,324.999988,99.55958571428572,99.51011666666666,99.5919875,99.55471428571428,0.05566666666666675,-0.1339999999999999,-0.1819999999999995,0.05966666666666676,-0.05333333333332746,-0.041666666666671404,1.566,1.6,38.034,30.369500000000002,39.708,35.309,56.791,37.0,67.854,55.612,54.842,36.0235,66.299,53.7225,54.153999999999996,35.544,66.395,53.048,-0.10250000000000001,-0.129,0.103285,0.11289500000000001,0.0,207.34,207.24,204.31,204.31,0.0,0.0
7,0.0,0.0,0.0,1.0,1.0,0.0,0.0,1.0,0.0,100.0,1.0,1.1856,26.0,0.0,0.0,0.0,59.999996,0.0,26.0,26.0,26.0,26.0,-0.06987500000000002,0.25970000000000004,-0.00835,290.771,-2.53,-2.653625,-1.5167000000000002,-1.5629000000000002,-252.62,215.495,190.8482857142857,0.0,0.0,0.0,0.0,0.015000000000000001,-5.498166666666667,-5.498166666666667,-0.7677,0.09350000000000003,-0.03100000000000014,-0.41500000000000004,66.309,-0.06000000000000005,-0.4853666666666667,0.5975000000000001,100.0,1.0,1.0,204.8,0.0,0.0,0.0,0.0,0.0,0.0,0.0,8680.7,0.0,55.0,5.0,238.69,1.0,0.0,0.0,0.0,0.0,0.0,0.0,0.0,0.3539999999999992,0.3539999999999992,0.0,0.0,1.0,55.0,616.79921,10000.0,85.000001,85.000001,85.000001,85.000001,395.0,0.0,0.0,0.0,1.0,166.665,43.472,43.472,52.094,52.094,34.0,-29.9875,24.842,-29.032,22.13,0.0,1782.478,-0.15500000000000025,100.0,35.063,34.505,39.869,39.235,0.0,0.0,100.0,0.0,0.0,0.0,0.0,3895.0,3603.5,3885.75,3732.3,303.083,303.1913333333333,315.577,315.57775,21.9364,20.7057,22.2055,21.4989,314.999998,314.999998,324.999988,324.999988,99.5596,99.51013333333333,99.5921375,99.55484285714286,0.06300000000000017,-0.135,-0.1819999999999995,0.04800000000000004,-0.04333333333332945,-0.036666666666668846,1.6179999999999999,1.627,38.102000000000004,30.411,39.784,35.368,56.788,37.05,67.864,55.657,54.839,36.0695,66.307,53.7665,54.15,35.587666666666664,66.4,53.091,-0.1285,-0.111,0.101245,0.11378500000000001,0.0,207.745,207.66500000000002,204.8,204.8,0.0,0.0
8,0.0,0.0,0.0,1.0,1.0,0.0,0.0,1.0,0.0,100.0,1.0,1.1856,26.0,0.0,0.0,0.0,59.999996,0.0,26.0,26.0,26.0,26.0,-0.04774999999999996,0.25649999999999995,-0.027,290.771,-2.6043333333333334,-2.591,-1.5293999999999999,-1.56,-249.04,215.485,190.82657142857144,0.0,0.0,0.0,0.0,0.0171,-5.498166666666667,-5.498166666666667,-0.7724,-0.19599999999999995,-0.02388888888888907,-1.095,66.452,-0.04974999999999996,-0.49106666666666665,0.27249999999999996,100.0,1.0,1.0,205.23000000000002,0.0,0.0,0.0,0.0,0.0,0.0,0.0,8699.0,0.0,55.0,5.0,239.20333333333332,0.0,0.0,0.0,0.0,0.0,0.0,0.0,0.0,0.40800000000000125,0.40800000000000125,0.0,0.0,0.0,55.0,616.79921,10000.0,85.000001,85.000001,85.000001,85.000001,395.0,0.0,0.0,0.0,1.0,166.665,43.503,43.503,51.849000000000004,51.849000000000004,34.0,-29.56,26.024,-28.488,23.146,0.0,1782.423,-0.29000000000000004,100.0,34.86,34.636,39.897,39.36,0.0,0.0,100.0,0.0,0.0,0.0,0.0,3843.875,3691.0,3837.375,3722.0,303.2733333333333,302.953,315.67575,315.58475,21.9477,20.7128,22.2185,21.5091,314.999998,314.999998,324.999988,324.999988,99.55961428571429,99.51015,99.592275,99.555,0.07766666666666655,-0.1116666666666668,-0.17433333333333323,0.07166666666666721,-0.03999999999999915,-0.046666666666666856,1.6065,1.624,38.173,30.455,39.866,35.432,56.785,37.1015,67.875,55.706,54.835,36.117,66.316,53.814,54.144,35.63366666666667,66.406,53.1375,-0.1365,-0.096,0.10470000000000002,0.11079000000000001,0.0,208.16500000000002,208.125,205.23000000000002,205.23000000000002,0.0,0.0
9,0.0,0.0,0.0,1.0,1.0,0.0,0.0,1.0,0.0,100.0,1.0,1.1856,26.0,0.0,0.0,0.0,59.999996,0.0,26.0,26.0,26.0,26.0,-0.04025000000000001,0.27390000000000003,0.00895,290.558,-2.5243333333333333,-2.607125,-1.4937,-1.5170000000000001,-246.05,215.47750000000002,190.80814285714285,0.0,0.0,0.0,0.0,0.018833333333333334,-5.498166666666667,-5.498166666666667,-0.7722,0.16249999999999998,-0.02933333333333321,0.8170000000000002,66.57,-0.03675000000000006,-0.48716666666666664,-0.06999999999999995,100.0,1.0,1.0,205.57666666666665,0.0,0.0,0.0,0.0,0.0,0.0,0.0,8713.6,0.0,55.0,5.0,239.63,1.0,0.0,0.0,0.0,0.0,0.0,0.0,0.0,0.4529999999999994,0.4529999999999994,0.0,0.0,1.0,55.0,616.79921,10000.0,85.000001,85.000001,85.000001,85.000001,395.0,0.0,0.0,0.0,1.0,333.33500000000004,43.121,43.121,52.016999999999996,52.016999999999996,34.0,-28.0625,27.956,-26.466,24.278,0.0,1782.377,-0.3899999999999997,100.0,35.263999999999996,34.574,39.926,39.286,0.0,0.0,100.0,0.0,0.0,0.0,0.0,3848.625,3802.6,3792.25,3882.8,303.067,302.808,315.71475,315.3175,21.9572,20.7187,22.22925,21.5176,314.999998,314.999998,324.999988,324.999988,99.55961428571429,99.51016666666666,99.5924125,99.55511428571428,0.09200000000000008,-0.09266666666666667,-0.1479999999999997,0.08433333333333337,-0.02833333333332888,-0.05666666666667197,1.63,1.625,38.233000000000004,30.491999999999997,39.933,35.485,56.784,37.144,67.883,55.746,54.833,36.1565,66.32300000000001,53.8525,54.141,35.671,66.41,53.1755,-0.146,-0.091,0.10749,0.10306000000000001,0.0,208.51,208.51999999999998,205.57666666666665,205.57666666666665,0.0,0.0
10,0.0,0.0,0.0,1.0,1.0,0.0,0.0,1.0,0.0,100.0,1.0,1.1856,26.0,0.0,0.0,0.0,59.999996,0.0,26.0,26.0,26.0,26.0,-0.011249999999999982,0.26460000000000017,0.002625,290.405,-2.5805555555555557,-2.581,-1.5275,-1.5053,-242.65,215.465,190.7872857142857,0.0,0.0,0.0,0.0,0.020800000000000003,-5.498166666666667,-5.498166666666667,-0.7665,-0.21550000000000002,-0.009666666666666934,-0.030000000000000027,66.705,-0.01574999999999971,-0.48683333333333323,-0.23249999999999993,100.0,1.0,1.0,205.9,0.0,0.0,0.0,0.0,0.0,0.0,0.0,8727.3,0.0,55.0,5.0,240.11666666666667,0.0,0.0,0.0,0.0,0.0,0.0,1.0,0.0,0.5040000000000013,0.5040000000000013,0.0,0.0,0.0,55.0,616.79921,10000.0,85.000001,85.000001,85.000001,85.000001,395.0,0.0,0.0,0.0,1.0,333.33500000000004,43.289,43.289,51.697,51.697,34.0,-28.1325,26.468,-27.342,25.488,0.0,1782.327,-0.34499999999999975,100.0,35.16,34.801,39.926,39.714,0.0,0.0,100.0,0.0,0.0,0.0,0.0,3844.125,3664.2,3930.25,3953.7,303.2583333333333,303.074,315.4485,315.0515,21.968,20.7254,22.2415,21.5273,314.999998,314.999998,324.999988,324.999988,99.55962857142858,99.51018333333333,99.59255,99.55525714285714,0.09866666666666646,-0.09699999999999998,-0.13133333333333308,0.09533333333333349,-0.046666666666666856,-0.03833333333332689,1.593,1.58,38.3,30.534,40.01,35.545,56.783,37.1915,67.893,55.793,54.832,36.2,66.332,53.8985,54.138,35.713,66.41499999999999,53.2205,-0.1515,-0.089,0.10595500000000001,0.098735,0.0,208.935,208.945,205.9,205.9,0.0,0.0
11,0.0,0.0,0.0,1.0,1.0,0.0,0.0,1.0,0.0,100.0,1.0,1.1856,26.0,0.0,0.0,0.0,59.999996,0.0,26.0,26.0,26.0,26.0,0.007749999999999924,0.25540000000000007,-0.0374,290.649,-2.5885555555555557,-2.577,-1.5392000000000001,-1.4784000000000002,-239.24,215.4525,190.76642857142858,0.0,0.0,0.0,0.0,0.022600000000000002,-5.498166666666667,-5.498166666666667,-0.7876,-0.278,0.02066666666666661,1.1950000000000003,66.836,0.0012499999999997513,-0.5007999999999999,-0.37249999999999994,100.0,1.0,1.0,206.43666666666667,0.0,0.0,0.0,0.0,0.0,0.0,0.0,8750.1,0.0,55.0,5.0,240.59,1.0,0.0,0.0,0.0,0.0,0.0,1.0,0.0,0.5549999999999997,0.5549999999999997,0.0,0.0,1.0,55.0,616.79921,10000.0,85.000001,85.000001,85.000001,85.000001,395.0,0.0,0.0,0.0,1.0,166.665,43.259,43.259,52.124,52.124,34.0,-26.474999999999998,29.113999999999997,-24.212,26.204,0.0,1782.276,-0.39999999999999947,100.0,35.089,34.717,39.842,39.743,0.0,0.0,100.0,0.0,0.0,0.0,0.0,3729.5,3870.8,3657.5,3849.6000000000004,303.4336666666667,302.624,316.049,315.40775,21.9786,20.7322,22.25375,21.5369,314.999998,314.999998,324.999988,324.999988,99.55965714285715,99.5102,99.5926875,99.5554,0.1166666666666667,-0.07533333333333325,-0.11066666666666691,0.1429999999999998,-0.03999999999999915,-0.05666666666667197,1.6305,1.637,38.366,30.576,40.086,35.606,56.781,37.2385,67.9,55.839,54.83,36.2435,66.337,53.943,54.134,35.754666666666665,66.417,53.2645,-0.145,-0.09,0.10499000000000001,0.11488500000000001,0.0,209.315,209.34,206.43666666666667,206.43666666666667,0.0,0.0
12,0.0,0.0,0.0,1.0,1.0,0.0,0.0,1.0,0.0,100.0,1.0,1.1856,26.0,0.0,0.0,0.0,59.999996,0.0,26.0,26.0,26.0,26.0,0.02100000000000013,0.27280000000000015,-0.00135,290.375,-2.622,-2.567,-1.5226000000000002,-1.4912,-236.03,215.4425,190.746,0.0,0.0,0.0,0.0,0.025466666666666665,-5.498166666666667,-5.498166666666667,-0.7822,0.378,0.024777777777777787,0.7869999999999999,66.961,0.00975000000000037,-0.48460000000000003,-0.37,100.0,1.0,1.0,206.76,0.0,0.0,0.0,0.0,0.0,0.0,0.0,8763.8,0.0,55.0,5.0,241.04000000000002,0.0,0.0,0.0,0.0,0.0,0.0,1.0,0.0,0.602999999999998,0.602999999999998,0.0,0.0,0.0,55.0,616.79921,10000.0,85.000001,85.000001,85.000001,85.000001,395.0,0.0,0.0,0.0,1.0,333.33500000000004,42.999,42.999,51.727000000000004,51.727000000000004,34.0,-26.544999999999998,30.158,-24.688,27.294,0.0,1782.226,-0.4299999999999997,100.0,35.159,35.019,39.634,39.67,0.0,0.0,100.0,0.0,0.0,0.0,0.0,3750.125,3914.4,3828.875,3969.2,303.3643333333333,302.4633333333333,315.66075,315.1415,21.9887,20.7387,22.265125,21.546,314.999998,314.999998,324.999988,324.999988,99.55965714285715,99.5102,99.5928125,99.55552857142857,0.1256666666666666,-0.06233333333333313,-0.0946666666666669,0.14000000000000057,-0.03499999999999659,-0.054999999999999716,1.615,1.612,38.429,30.616500000000002,40.157,35.662,56.782,37.283500000000004,67.907,55.8825,54.83,36.285,66.343,53.9855,54.132,35.794333333333334,66.419,53.306,-0.15,-0.0885,0.11081,0.1057,0.0,209.72500000000002,209.745,206.76,206.76,0.0,0.0
13,0.0,0.0,0.0,1.0,1.0,0.0,0.0,1.0,0.0,100.0,1.0,1.1856,26.0,0.0,0.0,0.0,59.999996,0.0,26.0,26.0,26.0,26.0,0.04137499999999994,0.26570000000000005,0.024,290.039,-2.597111111111111,-2.5717499999999998,-1.5514999999999999,-1.4993,-232.61,215.4325,190.72442857142858,0.0,0.0,0.0,0.0,0.026633333333333332,-5.498166666666667,-5.498166666666667,-0.7783,-0.25,0.01855555555555566,-0.45399999999999996,67.095,0.017999999999999794,-0.4935666666666667,-0.39749999999999996,100.0,1.0,1.0,207.07333333333332,0.0,0.0,0.0,0.0,0.0,0.0,0.0,8777.1,0.0,55.0,5.0,241.51999999999998,1.0,0.0,0.0,0.0,0.0,0.0,1.0,0.0,0.6539999999999999,0.6539999999999999,0.0,0.0,1.0,55.0,616.79921,10000.0,85.000001,85.000001,85.000001,85.000001,395.0,0.0,0.0,0.0,1.0,333.33500000000004,42.769999999999996,42.769999999999996,51.422,51.422,34.0,-26.825,28.922,-25.872,28.137999999999998,0.0,1782.175,-0.45500000000000007,100.0,35.244,35.359,39.847,40.155,0.0,0.0,100.0,0.0,0.0,0.0,0.0,3871.125,3779.3,3933.875,3986.3,303.1886666666667,302.7,315.441,314.9825,21.999299999999998,20.7456,22.277375,21.5557,314.999998,314.999998,324.999988,324.999988,99.55968571428572,99.5102,99.5929625,99.55568571428572,0.12933333333333374,-0.06833333333333313,-0.09233333333333249,0.14466666666666672,-0.03999999999999915,-0.046666666666666856,1.584,1.566,38.495999999999995,30.6595,40.233000000000004,35.723,56.783,37.333,67.918,55.934,54.83,36.331,66.351,54.0355,54.129999999999995,35.83833333333333,66.424,53.355000000000004,-0.158,-0.08600000000000001,0.10054500000000001,0.11119000000000001,0.0,210.135,210.14,207.07333333333332,207.07333333333332,0.0,0.0
14,0.0,0.0,0.0,1.0,1.0,0.0,0.0,1.0,0.0,100.0,1.0,1.1856,26.0,0.0,0.0,0.0,59.999996,0.0,26.0,26.0,26.0,26.0,0.046624999999999917,0.2563,-0.02925,290.192,-2.6084444444444443,-2.58375,-1.5432000000000001,-1.4961,-228.99,215.4225,190.70185714285714,0.0,0.0,0.0,0.0,0.028733333333333333,-5.498166666666667,-5.498166666666667,-0.7917,-0.02950000000000008,0.030888888888888966,-0.403,67.232,0.026250000000000107,-0.5065333333333333,-0.4175,100.0,1.0,1.0,207.60000000000002,0.0,0.0,0.0,0.0,0.0,0.0,0.0,8799.4,0.0,55.0,5.0,242.01333333333332,0.0,0.0,0.0,0.0,0.0,0.0,1.0,0.0,0.7079999999999984,0.7079999999999984,0.0,0.0,0.0,55.0,616.79921,10000.0,85.000001,85.000001,85.000001,85.000001,395.0,0.0,0.0,0.0,1.0,166.665,42.709,42.709,51.788,51.788,34.0,-26.4,29.226,-24.451999999999998,26.658,0.0,1782.124,-0.40500000000000025,100.0,35.311,35.58,39.757,40.236000000000004,0.0,0.0,100.0,0.0,0.0,0.0,0.0,3839.5,3781.8,3772.625,3850.7,303.28766666666667,302.64633333333336,315.84275,315.339,22.0106,20.7529,22.290125,21.566,314.999998,314.999998,324.999988,324.999988,99.55971428571429,99.51021666666666,99.5931,99.55581428571429,0.1346666666666665,-0.06633333333333313,-0.09566666666666723,0.14333333333333353,-0.04833333333333201,-0.04333333333332945,1.6255000000000002,1.6139999999999999,38.566,30.7055,40.314,35.787,56.784,37.3805,67.925,55.980000000000004,54.831,36.375,66.357,54.0805,54.129,35.88033333333333,66.426,53.3995,-0.155,-0.089,0.10792,0.10613500000000001,0.0,210.555,210.56,207.60000000000002,207.60000000000002,0.0,0.0
15,0.0,0.0,0.0,1.0,1.0,0.0,0.0,1.0,0.0,100.0,1.0,1.1856,26.0,0.0,0.0,0.0,59.999996,0.0,26.0,26.0,26.0,26.0,0.04587500000000011,0.27370000000000005,0.008025000000000001,289.993,-2.597111111111111,-2.561125,-1.554,-1.5124,-225.96,215.41500000000002,190.6827142857143,0.0,0.0,0.0,0.0,0.030500000000000003,-5.498166666666667,-5.498166666666667,-0.7866,0.20499999999999996,0.04444444444444429,0.798,67.34700000000001,0.03174999999999972,-0.49816666666666665,-0.5275,100.0,1.0,1.0,207.90333333333334,0.0,0.0,0.0,0.0,0.0,0.0,0.0,8812.2,0.0,55.0,5.0,242.43,1.0,0.0,0.0,0.0,0.0,0.0,1.0,0.0,0.7530000000000001,0.7530000000000001,0.0,0.0,1.0,55.0,616.79921,10000.0,85.000001,85.000001,85.000001,85.000001,395.0,0.0,0.0,0.0,1.0,333.33500000000004,42.572,42.572,51.528999999999996,51.528999999999996,34.0,-24.765,30.456,-24.152,28.939999999999998,0.0,1782.077,-0.28000000000000025,100.0,35.563,35.579,39.79,40.233000000000004,0.0,0.0,100.0,0.0,0.0,0.0,0.0,3709.75,3904.8,3788.75,3992.9,303.47866666666664,302.42566666666664,315.7455,315.0285,22.02,20.7591,22.300875,21.5745,314.999998,314.999998,324.999988,324.999988,99.55972857142856,99.51023333333333,99.593225,99.55595714285714,0.14700000000000024,-0.05600000000000005,-0.08033333333333292,0.16000000000000014,-0.02499999999999858,-0.05833333333333002,1.607,1.5899999999999999,38.625,30.744,40.379999999999995,35.841,56.785,37.422,67.931,56.022,54.831,36.4135,66.362,54.121,54.128,35.91766666666666,66.428,53.439499999999995,-0.145,-0.0935,0.10808500000000001,0.112115,0.0,210.89499999999998,210.95499999999998,207.90333333333334,207.90333333333334,0.0,0.0
16,0.0,0.0,0.0,1.0,1.0,0.0,0.0,1.0,0.0,100.0,1.0,1.1856,26.0,0.0,0.0,0.0,59.999996,0.0,26.0,26.0,26.0,26.0,0.04699999999999993,0.24470000000000014,0.006175,289.871,-2.6612222222222224,-2.50375,-1.5314999999999999,-1.5105000000000002,-222.51999999999998,215.4075,190.66085714285714,0.0,0.0,0.0,0.0,0.0325,-5.498166666666667,-5.498166666666667,-0.7953,-0.43500000000000005,0.031888888888888856,-1.158,67.47800000000001,0.03500000000000014,-0.5082333333333333,-0.26749999999999996,100.0,1.0,1.0,208.2733333333333,0.0,0.0,0.0,0.0,0.0,0.0,0.0,8827.9,0.0,55.0,5.0,242.9,0.0,0.0,0.0,0.0,0.0,0.0,1.0,0.0,0.8039999999999985,0.8039999999999985,0.0,0.0,0.0,55.0,616.79921,10000.0,85.000001,85.000001,85.000001,85.000001,395.0,0.0,0.0,0.0,1.0,333.33500000000004,42.388999999999996,42.388999999999996,51.208,51.208,34.0,-27.965,29.662,-24.424,27.308,0.0,1782.026,-0.20500000000000007,100.0,35.232,35.772,39.913,40.507,0.0,0.0,100.0,0.0,0.0,0.0,0.0,3917.0,3899.8,3877.875,3832.9,303.11966666666666,302.32533333333333,315.586,315.3115,22.0305,20.7661,22.313,21.5842,314.999998,314.999998,324.999988,324.999988,99.55974285714285,99.51023333333333,99.593375,99.55608571428571,0.129,-0.05966666666666676,-0.07733333333333281,0.15166666666666728,-0.041666666666671404,-0.03166666666666629,1.5915,1.585,38.69,30.788,40.456,35.902,56.785,37.4695,67.94,56.069,54.83,36.457499999999996,66.369,54.167,54.125,35.959666666666664,66.432,53.4845,-0.1385,-0.1065,0.097905,0.104995,0.0,211.29500000000002,211.315,208.2733333333333,208.2733333333333,0.0,0.0
17,0.0,0.0,0.0,1.0,1.0,0.0,0.0,1.0,0.0,100.0,1.0,1.1856,26.0,0.0,0.0,0.0,59.999996,0.0,26.0,26.0,26.0,26.0,0.019875000000000087,0.2643,0.0184,289.627,-2.621,-2.4924999999999997,-1.5733000000000001,-1.4711,-219.07,215.4,190.6387142857143,0.0,0.0,0.0,0.0,0.0345,-5.498166666666667,-5.498166666666667,-0.7955,0.13749999999999996,0.012777777777777777,0.29800000000000004,67.606,0.03174999999999972,-0.502,-0.28,100.0,1.0,1.0,208.66,0.0,0.0,0.0,0.0,0.0,0.0,0.0,8844.3,0.0,55.0,5.0,243.36333333333334,1.0,0.0,0.0,0.0,0.0,0.0,1.0,0.0,0.8550000000000004,0.8550000000000004,0.0,0.0,1.0,55.0,616.79921,10000.0,85.000001,85.000001,85.000001,85.000001,395.0,0.0,0.0,0.0,1.0,333.33500000000004,42.099000000000004,42.099000000000004,51.102000000000004,51.102000000000004,34.0,-26.86,29.992,-25.706,27.822000000000003,0.0,1781.975,-0.1349999999999998,100.0,35.692,35.730000000000004,39.981,40.312,0.0,0.0,100.0,0.0,0.0,0.0,0.0,3883.0,3998.9,3952.25,3986.4,303.0346666666667,302.21066666666667,315.394,315.08875,22.041,20.7731,22.325,21.5939,314.999998,314.999998,324.999988,324.999988,99.55977142857142,99.51025,99.5935,99.55622857142858,0.13833333333333364,-0.06266666666666665,-0.08099999999999952,0.15000000000000036,-0.030000000000001137,-0.05333333333332746,1.599,1.588,38.756,30.832,40.532,35.962,56.787,37.518,67.947,56.115,54.831,36.5025,66.375,54.212,54.124,36.00266666666667,66.434,53.5285,-0.134,-0.1155,0.110405,0.10632000000000001,0.0,211.7,211.73000000000002,208.66,208.66,0.0,0.0
18,0.0,0.0,0.0,1.0,1.0,0.0,0.0,1.0,0.0,100.0,1.0,1.1856,26.0,0.0,0.0,0.0,59.999996,0.0,26.0,26.0,26.0,26.0,0.010750000000000037,0.2632000000000001,0.02265,289.474,-2.543888888888889,-2.49,-1.5619,-1.4414,-215.82999999999998,215.39499999999998,190.61757142857144,0.0,0.0,0.0,0.0,0.0364,-5.498166666666667,-5.498166666666667,-0.8029999999999999,-0.34650000000000003,0.010666666666666602,0.879,67.72800000000001,0.02725000000000044,-0.5090333333333332,-0.17999999999999994,100.0,1.0,1.0,208.98333333333335,0.0,0.0,0.0,0.0,0.0,0.0,0.0,8858.1,0.0,55.0,5.0,243.8,0.0,0.0,0.0,0.0,0.0,0.0,1.0,0.0,0.9029999999999987,0.9029999999999987,0.0,0.0,0.0,55.0,616.79921,10000.0,85.000001,85.000001,85.000001,85.000001,395.0,0.0,0.0,0.0,1.0,166.665,42.053,42.053,50.934,50.934,34.0,-25.825,30.259999999999998,-26.018,27.946,0.0,1781.928,-0.1200000000000001,100.0,35.741,35.634,40.195,40.445,0.0,0.0,100.0,0.0,0.0,0.0,0.0,3850.625,4065.2,3955.125,4059.0,303.0593333333333,302.0656666666667,315.372,314.92975,22.0509,20.7797,22.3365,21.603,314.999998,314.999998,324.999988,324.999988,99.55978571428571,99.51026666666667,99.5936375,99.55637142857142,0.13666666666666671,-0.06633333333333313,-0.08800000000000008,0.14700000000000024,-0.036666666666668846,-0.04999999999999716,1.581,1.5710000000000002,38.818,30.872999999999998,40.602999999999994,36.019,56.787,37.5625,67.955,56.159,54.831,36.544,66.382,54.2545,54.122,36.04233333333333,66.438,53.570499999999996,-0.135,-0.1145,0.10725000000000001,0.10500500000000001,0.0,212.075,212.095,208.98333333333335,208.98333333333335,0.0,0.0
19,0.0,0.0,0.0,1.0,1.0,0.0,0.0,1.0,0.0,100.0,1.0,1.1856,26.0,0.0,0.0,0.0,59.999996,0.0,26.0,26.0,26.0,26.0,0.028625000000000123,0.26180000000000003,0.06430000000000001,289.185,-2.549888888888889,-2.58425,-1.5075,-1.5614000000000001,-212.37,215.39,190.595,0.0,0.0,0.0,0.0,0.038400000000000004,-5.498166666666667,-5.498166666666667,-0.8003,0.5215,0.018000000000000016,-0.6910000000000001,67.855,0.019250000000000433,-0.5073666666666667,-0.057499999999999996,100.0,1.0,1.0,209.39,0.0,0.0,0.0,0.0,0.0,0.0,0.0,8875.3,0.0,55.0,5.0,244.26,1.0,0.0,0.0,0.0,0.0,0.0,1.0,0.0,0.9540000000000006,0.9540000000000006,0.0,0.0,1.0,55.0,616.79921,10000.0,85.000001,85.000001,85.000001,85.000001,395.0,0.0,0.0,0.0,1.0,166.665,41.504,41.504,51.117,51.117,34.0,-27.7175,29.344,-26.037999999999997,28.933999999999997,0.0,1781.877,-0.11000000000000032,100.0,36.143,36.31,40.028,40.585,0.0,0.0,100.0,0.0,0.0,0.0,0.0,3971.75,3894.4,3940.375,4056.8,302.8376666666667,302.21233333333333,315.45725,314.741,22.0616,20.7867,22.3485,21.6127,314.999998,314.999998,324.999988,324.999988,99.5598,99.51028333333333,99.593775,99.55651428571429,0.11966666666666637,-0.08433333333333315,-0.10433333333333294,0.12833333333333297,-0.05666666666667197,-0.03999999999999915,1.5550000000000002,1.556,38.885,30.917,40.678,36.079,56.789,37.6125,67.962,56.205,54.833,36.59,66.387,54.2995,54.122,36.086666666666666,66.44,53.6145,-0.135,-0.121,0.1058,0.10133500000000001,0.0,212.515,212.495,209.39,209.39,0.0,0.0
20,0.0,0.0,0.0,1.0,1.0,0.0,0.0,1.0,0.0,100.0,1.0,1.1856,26.0,0.0,0.0,0.0,59.999996,0.0,26.0,26.0,26.0,26.0,0.02499999999999991,0.25680000000000014,0.016325,289.307,-2.6096666666666666,-2.54375,-1.4899,-1.5503,-208.89999999999998,215.385,190.57257142857142,0.0,0.0,0.0,0.0,0.040433333333333335,-5.498166666666667,-5.498166666666667,-0.7989999999999999,-0.7290000000000001,0.01677777777777778,0.544,67.98400000000001,0.016000000000000014,-0.5149666666666667,-0.09499999999999997,100.0,1.0,1.0,209.7266666666667,0.0,0.0,0.0,0.0,0.0,0.0,0.0,8889.6,0.0,55.0,5.0,244.72333333333336,0.0,0.0,0.0,0.0,0.0,0.0,0.0,0.0,1.004999999999999,1.004999999999999,0.0,0.0,0.0,55.0,616.79921,10000.0,85.000001,85.000001,85.000001,85.000001,395.0,0.0,0.0,0.0,1.0,166.665,42.099000000000004,42.099000000000004,50.629,50.629,34.0,-26.5925,29.322000000000003,-25.444000000000003,28.387999999999998,0.0,1781.826,-0.1200000000000001,100.0,36.025999999999996,35.939,40.724000000000004,40.911,0.0,0.0,100.0,0.0,0.0,0.0,0.0,3799.5,3911.2,3897.375,3973.5,303.2873333333333,302.479,315.43575,315.009,22.072,20.7937,22.360625,21.6225,314.999998,314.999998,324.999988,324.999988,99.55982857142857,99.51028333333333,99.593925,99.55665714285715,0.129,-0.07233333333333314,-0.09933333333333305,0.13566666666666727,-0.046666666666666856,-0.045000000000001705,1.54,1.545,38.95,30.961,40.754000000000005,36.141,56.789,37.6605,67.97200000000001,56.253,54.832,36.6345,66.396,54.3465,54.119,36.129666666666665,66.444,53.6605,-0.133,-0.113,0.10432500000000001,0.10103000000000001,0.0,212.88,212.865,209.7266666666667,209.7266666666667,0.0,0.0
21,0.0,0.0,0.0,1.0,1.0,0.0,0.0,1.0,0.0,100.0,1.0,1.1856,26.0,0.0,0.0,0.0,59.999996,0.0,26.0,26.0,26.0,26.0,0.015374999999999917,0.2519,-0.0434,289.688,-2.614333333333333,-2.54475,-1.5375,-1.5038,-205.43,215.38,190.54985714285715,0.0,0.0,0.0,0.0,0.04243333333333334,-5.498166666666667,-5.498166666666667,-0.8204,-0.043500000000000094,0.00477777777777777,-0.615,68.107,0.012750000000000483,-0.5173,-0.022499999999999964,100.0,1.0,1.0,210.29333333333335,0.0,0.0,0.0,0.0,0.0,0.0,0.0,8913.5,0.0,55.0,5.0,245.16666666666666,1.0,0.0,0.0,0.0,0.0,0.0,0.0,0.0,1.056000000000001,1.056000000000001,0.0,0.0,1.0,55.0,616.79921,10000.0,85.000001,85.000001,85.000001,85.000001,395.0,0.0,0.0,0.0,1.0,166.665,42.038,42.038,51.468,51.468,34.0,-28.52,28.105999999999998,-25.298000000000002,25.3,0.0,1781.775,-0.16500000000000004,100.0,35.870000000000005,35.939,40.275,40.566,0.0,0.0,100.0,0.0,0.0,0.0,0.0,3989.125,3841.8,3816.5,3761.3,302.8983333333333,302.57733333333334,315.775,315.59175,22.0826,20.8007,22.3725,21.6321,314.999998,314.999998,324.999988,324.999988,99.55985714285714,99.5103,99.594075,99.5568,0.1203333333333334,-0.08633333333333315,-0.1083333333333325,0.1293333333333333,-0.041666666666671404,-0.051666666666669414,1.6305,1.629,39.016,31.0045,40.829,36.201,56.79,37.709,67.977,56.2965,54.832,36.6795,66.4,54.3885,54.117,36.172333333333334,66.445,53.702,-0.1365,-0.1115,0.10795,0.10326,0.0,213.245,213.275,210.29333333333335,210.29333333333335,0.0,0.0
22,0.0,0.0,0.0,1.0,1.0,0.0,0.0,1.0,0.0,100.0,1.0,1.1856,26.0,0.0,0.0,0.0,59.999996,0.0,26.0,26.0,26.0,26.0,-0.003375000000000017,0.25660000000000016,-0.007775000000000001,289.291,-2.6514444444444445,-2.5475000000000003,-1.5671,-1.4893,-201.95999999999998,215.3775,190.5262857142857,0.0,0.0,0.0,0.0,0.04446666666666667,-5.498166666666667,-5.498166666666667,-0.8072,0.07999999999999996,0.014555555555555655,1.113,68.235,0.013250000000000206,-0.4959,-0.21499999999999997,100.0,1.0,1.0,210.52666666666667,0.0,0.0,0.0,0.0,0.0,0.0,0.0,8923.5,0.0,55.0,5.0,245.62666666666667,0.0,0.0,0.0,0.0,0.0,0.0,0.0,0.0,1.1069999999999993,1.1069999999999993,0.0,0.0,0.0,55.0,616.79921,10000.0,85.000001,85.000001,85.000001,85.000001,395.0,0.0,0.0,0.0,1.0,166.665,42.099000000000004,42.099000000000004,50.674,50.674,34.0,-27.05,29.486,-27.444,28.516,0.0,1781.724,-0.2400000000000002,100.0,36.137,35.917,40.472,40.528999999999996,0.0,0.0,100.0,0.0,0.0,0.0,0.0,3813.0,3944.6000000000004,3998.375,4130.3,303.31666666666666,302.46233333333333,315.2815,314.7925,22.0931,20.8078,22.384625,21.6418,314.999998,314.999998,324.999988,324.999988,99.55987142857143,99.51031666666667,99.5942125,99.55694285714286,0.13100000000000023,-0.07400000000000007,-0.10633333333333272,0.1323333333333334,-0.03999999999999915,-0.046666666666666856,1.5605,1.55,39.082,31.0485,40.903999999999996,36.260999999999996,56.791,37.757999999999996,67.986,56.3425,54.833,36.7245,66.407,54.4335,54.116,36.215666666666664,66.449,53.746,-0.15,-0.106,0.11183000000000001,0.09910500000000001,0.0,213.66500000000002,213.67000000000002,210.52666666666667,210.52666666666667,0.0,0.0
23,0.0,0.0,0.0,1.0,1.0,0.0,0.0,1.0,0.0,100.0,1.0,1.1856,26.0,0.0,0.0,0.0,59.999996,0.0,26.0,26.0,26.0,26.0,0.010250000000000092,0.25250000000000017,-0.025825,289.062,-2.5555555555555554,-2.5469999999999997,-1.6096,-1.4641000000000002,-198.47,215.375,190.50285714285715,0.0,0.0,0.0,0.0,0.04646666666666667,-5.498166666666667,-5.498166666666667,-0.8217,-0.24449999999999994,0.012444444444444258,-0.716,68.36,0.01625000000000032,-0.5194333333333333,-0.10499999999999998,100.0,1.0,1.0,210.96666666666667,0.0,0.0,0.0,0.0,0.0,0.0,0.0,8942.1,0.0,55.0,5.0,246.07666666666665,1.0,0.0,0.0,0.0,0.0,0.0,0.0,0.0,1.1580000000000013,1.1580000000000013,0.0,0.0,1.0,55.0,616.79921,10000.0,85.000001,85.000001,85.000001,85.000001,395.0,0.0,0.0,0.0,1.0,166.665,41.367,41.367,51.025,51.025,34.0,-28.2175,28.656,-27.096,26.308,0.0,1781.673,-0.1899999999999995,100.0,36.245000000000005,36.326,40.553,40.891999999999996,0.0,0.0,100.0,0.0,0.0,0.0,0.0,4079.125,3878.8,3957.75,3908.7,302.53333333333336,302.3946666666667,315.501,315.242,22.1037,20.8149,22.396625,21.6516,314.999998,314.999998,324.999988,324.999988,99.55988571428571,99.51033333333334,99.59435,99.55708571428572,0.12700000000000022,-0.08433333333333315,-0.10066666666666713,0.133,-0.02499999999999858,-0.04333333333332945,1.5939999999999999,1.5979999999999999,39.147999999999996,31.093,40.979,36.322,56.793,37.807,67.994,56.388999999999996,54.834,36.7705,66.413,54.479,54.115,36.25966666666667,66.452,53.7905,-0.1405,-0.11,0.10687500000000001,0.10346500000000002,0.0,214.005,214.04500000000002,210.96666666666667,210.96666666666667,0.0,0.0
24,0.0,0.0,0.0,1.0,1.0,0.0,0.0,1.0,0.0,100.0,1.0,1.1856,26.0,0.0,0.0,0.0,59.999996,0.0,26.0,26.0,26.0,26.0,0.017875000000000085,0.2579,-0.024125,289.352,-2.5813333333333333,-2.542625,-1.5194,-1.5003,-195.19,215.37,190.48042857142858,0.0,0.0,0.0,0.0,0.048400000000000006,-5.498166666666667,-5.498166666666667,-0.8341,-0.33099999999999996,0.020999999999999908,-0.2769999999999999,68.477,0.0182500000000001,-0.5206999999999999,-0.21250000000000002,100.0,1.0,1.0,211.31,0.0,0.0,0.0,0.0,0.0,0.0,0.0,8956.6,0.0,55.0,5.0,246.49666666666667,0.0,0.0,0.0,0.0,0.0,0.0,0.0,0.0,1.2059999999999995,1.2059999999999995,0.0,0.0,0.0,55.0,616.79921,10000.0,85.000001,85.000001,85.000001,85.000001,395.0,0.0,0.0,0.0,1.0,166.665,42.084,42.084,50.781,50.781,34.0,-26.79,28.054000000000002,-26.548000000000002,27.008,0.0,1781.626,-0.22499999999999964,100.0,36.147,36.19,40.518,40.903,0.0,0.0,100.0,0.0,0.0,0.0,0.0,3856.25,3778.9,3987.25,3889.0,303.259,302.739,315.32825,315.28175,22.113599999999998,20.8215,22.407875,21.6607,314.999998,314.999998,324.999988,324.999988,99.5599,99.51035,99.5944875,99.55722857142857,0.1256666666666666,-0.07800000000000007,-0.10666666666666647,0.14000000000000057,-0.03333333333333144,-0.03833333333332689,1.6059999999999999,1.588,39.21,31.1345,41.05,36.379,56.794,37.852000000000004,68.0,56.432,54.834,36.8115,66.419,54.521,54.114,36.299,66.45400000000001,53.8315,-0.14350000000000002,-0.106,0.11356000000000001,0.11222000000000001,0.0,214.39,214.405,211.31,211.31,0.0,0.0
25,0.0,0.0,0.0,1.0,1.0,0.0,0.0,1.0,0.0,100.0,1.0,1.1856,26.0,0.0,0.0,0.0,59.999996,0.0,26.0,26.0,26.0,26.0,0.023249999999999993,0.24480000000000013,-0.033825,289.246,-2.642,-2.522625,-1.5641,-1.488,-191.69,215.3675,190.4552857142857,0.0,0.0,0.0,0.0,0.05043333333333334,-5.498166666666667,-5.498166666666667,-0.8531,-0.0625,0.03255555555555567,0.3770000000000002,68.6,0.020500000000000185,-0.5187333333333333,-0.22250000000000003,100.0,1.0,1.0,211.76,0.0,0.0,0.0,0.0,0.0,0.0,0.0,8975.8,0.0,55.0,5.0,246.94333333333333,1.0,0.0,0.0,0.0,0.0,0.0,0.0,0.0,1.256999999999998,1.256999999999998,0.0,0.0,1.0,55.0,616.79921,10000.0,85.000001,85.000001,85.000001,85.000001,395.0,0.0,0.0,0.0,1.0,166.665,41.382,41.382,51.193,51.193,34.0,-28.232499999999998,31.172,-24.546,27.09,0.0,1781.574,-0.25,100.0,36.159,36.214,40.403999999999996,40.639,0.0,0.0,100.0,0.0,0.0,0.0,0.0,3980.25,4119.0,3737.375,3915.7,302.838,301.87666666666667,315.94525,315.28875,22.124,20.8286,22.41975,21.6703,314.999998,314.999998,324.999988,324.999988,99.55992857142857,99.51035,99.594625,99.55737142857143,0.1323333333333334,-0.06699999999999995,-0.09633333333333294,0.14566666666666706,-0.041666666666671404,-0.054999999999999716,1.616,1.627,39.275,31.179000000000002,41.123999999999995,36.439,56.794,37.9005,68.006,56.476,54.834,36.857,66.423,54.564,54.111,36.342666666666666,66.45400000000001,53.874,-0.1405,-0.109,0.10858000000000001,0.10915000000000001,0.0,214.76999999999998,214.79000000000002,211.76,211.76,0.0,0.0
26,0.0,0.0,0.0,1.0,1.0,0.0,0.0,1.0,0.0,100.0,1.0,1.1856,26.0,0.0,0.0,0.0,59.999996,0.0,26.0,26.0,26.0,26.0,0.026999999999999913,0.2602,0.06555,288.361,-2.5722222222222224,-2.605125,-1.586,-1.4953,-188.39999999999998,215.3675,190.4312857142857,0.0,0.0,0.0,0.0,0.05233333333333334,-5.498166666666667,-5.498166666666667,-0.8294,0.5435,0.01922222222222203,0.6739999999999999,68.719,0.020000000000000462,-0.503,-0.27749999999999997,100.0,1.0,1.0,211.92000000000002,0.0,0.0,0.0,0.0,0.0,0.0,0.0,8982.5,0.0,55.0,5.0,247.36666666666667,0.0,0.0,0.0,0.0,0.0,0.0,0.0,0.0,1.3049999999999997,1.3049999999999997,0.0,0.0,0.0,55.0,616.79921,10000.0,85.000001,85.000001,85.000001,85.000001,395.0,0.0,0.0,0.0,1.0,166.665,40.894,40.894,50.064,50.064,34.0,-26.6175,30.808,-28.556,30.438000000000002,0.0,1781.527,-0.27499999999999947,100.0,36.985,36.785,40.689,40.913,0.0,0.0,100.0,0.0,0.0,0.0,0.0,3941.125,3965.4,4209.0,4254.6,302.831,302.2366666666667,314.8415,314.491,22.1341,20.8355,22.431125,21.6795,314.999998,314.999998,324.999988,324.999988,99.55995714285714,99.51036666666667,99.5947625,99.55751428571429,0.1413333333333333,-0.07066666666666666,-0.0873333333333326,0.14500000000000046,-0.036666666666668846,-0.04833333333333201,1.532,1.524,39.338,31.222,41.194,36.497,56.798,37.948,68.014,56.5205,54.837,36.900999999999996,66.43,54.6075,54.113,36.38466666666667,66.458,53.9165,-0.1525,-0.1055,0.10188000000000001,0.10625000000000001,0.0,215.16,215.19,211.92000000000002,211.92000000000002,0.0,0.0
27,0.0,0.0,0.0,1.0,1.0,0.0,0.0,1.0,0.0,100.0,1.0,1.1856,26.0,0.0,0.0,0.0,59.999996,0.0,26.0,26.0,26.0,26.0,0.040124999999999966,0.24540000000000006,-0.018500000000000003,288.742,-2.5984444444444446,-2.5330000000000004,-1.5856,-1.5691000000000002,-184.89,215.365,190.4067142857143,0.0,0.0,0.0,0.0,0.05436666666666667,-5.498166666666667,-5.498166666666667,-0.8477,-0.8345,0.025111111111111084,-0.6199999999999999,68.84100000000001,0.021749999999999936,-0.5401666666666667,-0.24749999999999994,100.0,1.0,1.0,212.40333333333334,0.0,0.0,0.0,0.0,0.0,0.0,0.0,9003.0,0.0,55.0,5.0,247.81,1.0,0.0,0.0,0.0,0.0,0.0,0.0,0.0,1.355999999999998,1.355999999999998,0.0,0.0,1.0,55.0,616.79921,10000.0,85.000001,85.000001,85.000001,85.000001,395.0,0.0,0.0,0.0,1.0,166.665,41.214,41.214,50.201,50.201,34.0,-26.97,29.049999999999997,-26.654,27.182000000000002,0.0,1781.475,-0.25,100.0,36.597,36.931,41.147,41.512,0.0,0.0,100.0,0.0,0.0,0.0,0.0,3898.25,3930.4,3908.375,3797.5,303.16133333333335,302.24466666666666,315.58125,315.415,22.1446,20.8427,22.44325,21.6894,314.999998,314.999998,324.999988,324.999988,99.55997142857143,99.51038333333334,99.5949125,99.55764285714285,0.13166666666666638,-0.08199999999999985,-0.10333333333333261,0.1373333333333333,-0.030000000000001137,-0.04833333333333201,1.577,1.568,39.403999999999996,31.2665,41.269999999999996,36.559,56.8,37.997,68.024,56.568,54.838,36.9465,66.438,54.653,54.112,36.428333333333335,66.462,53.9615,-0.148,-0.111,0.108535,0.10688500000000001,0.0,215.495,215.515,212.40333333333334,212.40333333333334,0.0,0.0
28,0.0,0.0,0.0,1.0,1.0,0.0,0.0,1.0,0.0,100.0,1.0,1.1856,26.0,0.0,0.0,0.0,59.999996,0.0,26.0,26.0,26.0,26.0,0.05037500000000006,0.24380000000000002,-0.06415,288.925,-2.581444444444444,-2.5311250000000003,-1.6025,-1.5105000000000002,-181.57999999999998,215.365,190.38314285714284,0.0,0.0,0.0,0.0,0.0563,-5.498166666666667,-5.498166666666667,-0.8589,0.42499999999999993,0.015111111111111075,-0.9410000000000001,68.953,0.023249999999999993,-0.5286333333333333,-0.245,100.0,1.0,1.0,212.87333333333333,0.0,0.0,0.0,0.0,0.0,0.0,0.0,9022.9,0.0,55.0,5.0,248.21333333333334,0.0,0.0,0.0,0.0,0.0,0.0,0.0,0.0,1.404,1.404,0.0,0.0,0.0,55.0,616.79921,10000.0,85.000001,85.000001,85.000001,85.000001,395.0,0.0,0.0,0.0,1.0,333.33500000000004,41.031,41.031,51.102000000000004,51.102000000000004,34.0,-27.3175,29.619999999999997,-25.146,26.478,0.0,1781.426,-0.3049999999999997,100.0,36.696,36.942,40.632,41.119,0.0,0.0,100.0,0.0,0.0,0.0,0.0,4005.625,3906.8,3794.25,3837.9,302.803,302.29833333333335,315.923,315.435,22.1546,20.8495,22.454250000000002,21.6984,314.999998,314.999998,324.999988,324.999988,99.55998571428572,99.51038333333334,99.59505,99.55778571428571,0.13733333333333375,-0.06866666666666665,-0.09366666666666656,0.13966666666666683,-0.04833333333333201,-0.04333333333332945,1.633,1.6360000000000001,39.466,31.3095,41.339,36.615,56.803,38.0435,68.027,56.6085,54.84,36.9895,66.44,54.693,54.112,36.46966666666667,66.461,54.0005,-0.154,-0.1005,0.10072,0.10795500000000001,0.0,215.88,215.89,212.87333333333333,212.87333333333333,0.0,0.0
29,0.0,0.0,0.0,1.0,1.0,0.0,0.0,1.0,0.0,100.0,1.0,1.1856,26.0,0.0,0.0,0.0,59.999996,0.0,26.0,26.0,26.0,26.0,0.04237500000000005,0.24730000000000008,0.012875000000000001,288.727,-2.557,-2.5869999999999997,-1.5408,-1.5049000000000001,-177.85,215.365,190.35542857142858,0.0,0.0,0.0,0.0,0.05846666666666667,-5.498166666666667,-5.498166666666667,-0.8579,-0.6145,0.008333333333333304,-0.812,69.08500000000001,0.022999999999999687,-0.5209666666666667,-0.29000000000000004,100.0,1.0,1.0,213.07666666666665,0.0,0.0,0.0,0.0,0.0,0.0,0.0,9031.6,0.0,55.0,5.0,248.69,1.0,0.0,0.0,0.0,0.0,0.0,0.0,0.0,1.4579999999999984,1.4579999999999984,0.0,0.0,1.0,55.0,616.79921,10000.0,85.000001,85.000001,85.000001,85.000001,395.0,0.0,0.0,0.0,1.0,166.665,41.504,41.504,50.14,50.14,34.0,-25.715,29.468,-26.846,28.558,0.0,1781.373,-0.3899999999999997,100.0,36.362,36.783,40.922,41.331,0.0,0.0,100.0,0.0,0.0,0.0,0.0,3910.625,3836.4,4025.375,4021.4,303.147,302.491,315.27925,314.94275,22.1655,20.8571,22.467,21.7087,314.999998,314.999998,324.999988,324.999988,99.56001428571429,99.5104,99.5952,99.55794285714286,0.1456666666666666,-0.07299999999999995,-0.09666666666666668,0.14133333333333287,-0.03166666666666629,-0.04999999999999716,1.55,1.528,39.535,31.3565,41.419,36.68,56.804,38.0945,68.037,56.658,54.841,37.036500000000004,66.44800000000001,54.741,54.11,36.51466666666666,66.465,54.0475,-0.1595,-0.098,0.10712500000000001,0.10755500000000001,0.0,216.255,216.285,213.07666666666665,213.07666666666665,0.0,0.0
30,0.0,0.0,0.0,1.0,1.0,0.0,0.0,1.0,0.0,100.0,1.0,1.1856,26.0,0.0,0.0,0.0,59.999996,0.0,26.0,26.0,26.0,26.0,0.0495000000000001,0.2269000000000001,-0.008775,288.147,-2.654,-2.5949999999999998,-1.5203,-1.5557,-174.54,215.3675,190.33057142857143,0.0,0.0,0.0,0.0,0.0604,-5.498166666666667,-5.498166666666667,-0.8678,0.511,0.011111111111111072,-0.399,69.196,0.028500000000000192,-0.5300333333333334,-0.44999999999999996,100.0,1.0,1.0,213.57,0.0,0.0,0.0,0.0,0.0,0.0,0.0,9052.4,0.0,55.0,5.0,249.09,0.0,0.0,0.0,0.0,0.0,0.0,1.0,0.0,1.5060000000000002,1.5060000000000002,0.0,0.0,0.0,55.0,616.79921,10000.0,85.000001,85.000001,85.000001,85.000001,395.0,0.0,0.0,0.0,1.0,166.665,39.703,39.703,50.949,50.949,34.0,-30.21,32.74,-24.398,27.726,0.0,1781.325,-0.33999999999999986,100.0,37.244,37.327,40.744,41.332,0.0,0.0,100.0,0.0,0.0,0.0,0.0,4323.5,4195.3,3791.625,3850.9,301.9766666666667,301.5183333333333,315.8505,315.33225,22.1756,20.864,22.478125,21.7178,314.999998,314.999998,324.999988,324.999988,99.56004285714286,99.51041666666667,99.595325,99.55808571428571,0.1456666666666666,-0.07066666666666666,-0.09433333333333316,0.14566666666666706,-0.04333333333332945,-0.05333333333332746,1.5985,1.588,39.598,31.4,41.488,36.737,56.81,38.141999999999996,68.042,56.7,54.845,37.081,66.452,54.782,54.113,36.557,66.465,54.0875,-0.164,-0.10300000000000001,0.10956500000000001,0.102425,0.0,216.64499999999998,216.66500000000002,213.57,213.57,0.0,0.0
31,0.0,0.0,0.0,1.0,1.0,0.0,0.0,1.0,0.0,100.0,1.0,1.1856,26.0,0.0,0.0,0.0,59.999996,0.0,26.0,26.0,26.0,26.0,0.042750000000000066,0.25780000000000003,0.05655,287.613,-2.6656666666666666,-2.495375,-1.5275,-1.5699,-171.20999999999998,215.37,190.3062857142857,0.0,0.0,0.0,0.0,0.06233333333333334,-5.498166666666667,-5.498166666666667,-0.8422000000000001,-0.12200000000000011,0.021888888888888847,-0.3619999999999999,69.313,0.03500000000000014,-0.5221,-0.33999999999999997,100.0,1.0,1.0,213.65333333333334,0.0,0.0,0.0,0.0,0.0,0.0,0.0,9056.0,0.0,55.0,5.0,249.51,1.0,0.0,0.0,0.0,0.0,0.0,1.0,0.0,1.5539999999999985,1.5539999999999985,0.0,0.0,1.0,55.0,616.79921,10000.0,85.000001,85.000001,85.000001,85.000001,395.0,0.0,0.0,0.0,1.0,333.33500000000004,40.451,40.451,49.025999999999996,49.025999999999996,34.0,-27.4975,29.486,-27.576,33.218,0.0,1781.276,-0.28500000000000014,100.0,37.251,37.615,41.391,41.883,0.0,0.0,100.0,0.0,0.0,0.0,0.0,3959.625,3991.6000000000004,4214.125,4352.1,302.97933333333333,302.13733333333334,314.71925,314.19675,22.1855,20.8709,22.4895,21.7272,314.999998,314.999998,324.999988,324.999988,99.56007142857143,99.51041666666667,99.595475,99.55821428571429,0.1459999999999999,-0.07433333333333314,-0.07733333333333281,0.15399999999999991,-0.03833333333332689,-0.041666666666671404,1.492,1.476,39.66,31.4435,41.559,36.795,56.814,38.19,68.05199999999999,56.746,54.848,37.125,66.46000000000001,54.827,54.114,36.599666666666664,66.47,54.1315,-0.1565,-0.1095,0.102175,0.1068,0.0,216.995,217.025,213.65333333333334,213.65333333333334,0.0,0.0
32,0.0,0.0,0.0,1.0,1.0,0.0,0.0,1.0,0.0,100.0,1.0,1.1856,26.0,0.0,0.0,0.0,59.999996,0.0,26.0,26.0,26.0,26.0,0.041749999999999954,0.24629999999999996,-0.0409,288.177,-2.5933333333333333,-2.545,-1.6304,-1.5026000000000002,-167.47,215.3725,190.27957142857142,0.0,0.0,0.0,0.0,0.0645,-5.498166666666667,-5.498166666666667,-0.8637,-0.23199999999999998,0.0043333333333333,-1.072,69.437,0.03725000000000023,-0.5444333333333333,-0.39249999999999996,100.0,1.0,1.0,214.24,0.0,0.0,0.0,0.0,0.0,0.0,0.0,9080.9,0.0,55.0,5.0,249.95666666666665,0.0,0.0,0.0,0.0,0.0,0.0,1.0,0.0,1.6080000000000005,1.6080000000000005,0.0,0.0,0.0,55.0,616.79921,10000.0,85.000001,85.000001,85.000001,85.000001,395.0,0.0,0.0,0.0,1.0,166.665,40.543,40.543,50.034,50.034,34.0,-26.45,30.298000000000002,-26.738,28.376,0.0,1781.223,-0.35499999999999954,100.0,37.116,37.558,41.305,41.846000000000004,0.0,0.0,100.0,0.0,0.0,0.0,0.0,4005.375,3924.6000000000004,3960.625,3967.6000000000004,302.85,302.269,315.529,315.17725,22.1966,20.8788,22.502,21.7375,314.999998,314.999998,324.999988,324.999988,99.56008571428572,99.51043333333334,99.595625,99.55838571428572,0.15399999999999991,-0.06266666666666665,-0.08699999999999974,0.15566666666666684,-0.04999999999999716,-0.03499999999999659,1.5955,1.589,39.729,31.491999999999997,41.638,36.86,56.817,38.243,68.05799999999999,56.794,54.851,37.1745,66.465,54.8735,54.114,36.64666666666667,66.471,54.177,-0.1615,-0.107,0.10387500000000001,0.103955,0.0,217.375,217.37,214.24,214.24,0.0,0.0
33,0.0,0.0,0.0,1.0,1.0,0.0,0.0,1.0,0.0,100.0,1.0,1.1856,26.0,0.0,0.0,0.0,59.999996,0.0,26.0,26.0,26.0,26.0,0.050999999999999934,0.2470000000000001,-0.048625,288.498,-2.622,-2.5627500000000003,-1.564,-1.5418,-164.13,215.3775,190.25485714285713,0.0,0.0,0.0,0.0,0.06643333333333334,-5.498166666666667,-5.498166666666667,-0.8723,-0.19300000000000006,0.00022222222222212373,-0.381,69.549,0.03500000000000014,-0.5321,-0.38749999999999996,100.0,1.0,1.0,214.59,0.0,0.0,0.0,0.0,0.0,0.0,0.0,9095.6,0.0,55.0,5.0,250.36,1.0,0.0,0.0,0.0,0.0,0.0,1.0,0.0,1.6559999999999988,1.6559999999999988,0.0,0.0,1.0,55.0,616.79921,10000.0,85.000001,85.000001,85.000001,85.000001,395.0,0.0,0.0,0.0,1.0,166.665,40.955,40.955,50.323,50.323,34.0,-26.7825,29.932000000000002,-25.845999999999997,28.5,0.0,1781.175,-0.3849999999999998,100.0,36.912,37.254,41.065,41.620000000000005,0.0,0.0,100.0,0.0,0.0,0.0,0.0,3961.375,3871.2,3915.0,3914.6000000000004,303.0566666666667,302.41633333333334,315.57,315.249,22.2063,20.8855,22.513125,21.7466,314.999998,314.999998,324.999988,324.999988,99.56011428571429,99.51045,99.5957625,99.55851428571428,0.1476666666666664,-0.06499999999999995,-0.09233333333333249,0.1553333333333331,-0.05833333333333002,-0.04333333333332945,1.5975000000000001,1.585,39.79,31.5345,41.707,36.916,56.821,38.2875,68.064,56.835499999999996,54.854,37.216,66.47,54.914500000000004,54.115,36.68666666666667,66.47200000000001,54.217,-0.1615,-0.1,0.11353,0.114945,0.0,217.715,217.72500000000002,214.59,214.59,0.0,0.0
34,0.0,0.0,0.0,1.0,1.0,0.0,0.0,1.0,0.0,100.0,1.0,1.1856,26.0,0.0,0.0,0.0,59.999996,0.0,26.0,26.0,26.0,26.0,0.04600000000000004,0.24540000000000006,-0.06385,288.62,-2.5607777777777776,-2.48075,-1.6122,-1.5262,-160.79,215.3825,190.22885714285715,0.0,0.0,0.0,0.0,0.0684,-5.498166666666667,-5.498166666666667,-0.8933,-0.7510000000000001,0.018888888888888955,-0.44399999999999995,69.661,0.03774999999999995,-0.534,-0.40249999999999997,100.0,1.0,1.0,214.9,0.0,0.0,0.0,0.0,0.0,0.0,0.0,9108.8,0.0,55.0,5.0,250.76333333333332,0.0,0.0,0.0,0.0,0.0,0.0,1.0,0.0,1.7040000000000006,1.7040000000000006,0.0,0.0,0.0,55.0,616.79921,10000.0,85.000001,85.000001,85.000001,85.000001,395.0,0.0,0.0,0.0,1.0,166.665,41.138,41.138,50.72,50.72,34.0,-26.009999999999998,28.927999999999997,-25.918,28.802,0.0,1781.127,-0.3250000000000002,100.0,36.649,36.894,40.896,41.669,0.0,0.0,100.0,0.0,0.0,0.0,0.0,3952.375,3888.2,3885.375,3942.9,302.932,302.45533333333333,315.6855,315.12225,22.216,20.8923,22.524124999999998,21.7558,314.999998,314.999998,324.999988,324.999988,99.56012857142858,99.51045,99.5959,99.55865714285714,0.14900000000000002,-0.06600000000000006,-0.0860000000000003,0.15866666666666696,-0.04833333333333201,-0.036666666666668846,1.585,1.5859999999999999,39.849999999999994,31.576999999999998,41.775999999999996,36.974000000000004,56.823,38.3315,68.069,56.879,54.855000000000004,37.257,66.473,54.9565,54.114,36.72566666666667,66.47200000000001,54.257999999999996,-0.1555,-0.10350000000000001,0.10873000000000001,0.10916000000000001,0.0,218.035,218.065,214.9,214.9,0.0,0.0
35,0.0,0.0,0.0,1.0,1.0,0.0,0.0,1.0,0.0,100.0,1.0,1.1856,26.0,0.0,0.0,0.0,59.999996,0.0,26.0,26.0,26.0,26.0,0.04762500000000003,0.23670000000000013,-0.0635,288.788,-2.6136666666666666,-2.4745,-1.5188000000000001,-1.5261,-157.23000000000002,215.39,190.19957142857143,0.0,0.0,0.0,0.0,0.07046666666666666,-5.498166666666667,-5.498166666666667,-0.9354,-0.5090000000000001,0.012444444444444258,-0.15999999999999992,69.778,0.04100000000000037,-0.5440666666666667,-0.4525,100.0,1.0,1.0,215.35000000000002,0.0,0.0,0.0,0.0,0.0,0.0,0.0,9127.9,0.0,55.0,5.0,251.18666666666667,1.0,0.0,0.0,0.0,0.0,0.0,1.0,0.0,1.754999999999999,1.754999999999999,0.0,0.0,1.0,55.0,616.79921,10000.0,85.000001,85.000001,85.000001,85.000001,395.0,0.0,0.0,0.0,1.0,333.33500000000004,40.909,40.909,50.537,50.537,34.0,-25.9375,31.972,-22.894,27.552,0.0,1781.075,-0.20500000000000007,100.0,36.542,36.991,40.759,41.194,0.0,0.0,100.0,0.0,0.0,0.0,0.0,3903.75,4179.9,3757.25,3729.4,303.121,301.671,315.864,315.6655,22.2262,20.8996,22.535875,21.7654,314.999998,314.999998,324.999988,324.999988,99.56015714285714,99.51046666666667,99.59605,99.5588,0.1546666666666665,-0.05400000000000005,-0.06799999999999962,0.17600000000000016,-0.030000000000001137,-0.05333333333332746,1.6345,1.612,39.914,31.622500000000002,41.849000000000004,37.034,56.823,38.379999999999995,68.07300000000001,56.921,54.855000000000004,37.302,66.476,54.998,54.112,36.769,66.47200000000001,54.298500000000004,-0.15,-0.111,0.10511500000000001,0.11735500000000001,0.0,218.385,218.44,215.35000000000002,215.35000000000002,0.0,0.0
36,0.0,0.0,0.0,1.0,1.0,0.0,0.0,1.0,0.0,100.0,1.0,1.1856,26.0,0.0,0.0,0.0,59.999996,0.0,26.0,26.0,26.0,26.0,0.03574999999999995,0.24560000000000004,0.027075000000000002,288.025,-2.6657777777777776,-2.5250000000000004,-1.6218,-1.4887000000000001,-153.88,215.4,190.17042857142857,0.0,0.0,0.0,0.0,0.0724,-5.498166666666667,-5.498166666666667,-0.9257,0.25549999999999995,-0.028111111111110976,-0.10699999999999998,69.891,0.038000000000000256,-0.5195666666666667,-0.26249999999999996,100.0,1.0,1.0,215.49666666666667,0.0,0.0,0.0,0.0,0.0,0.0,0.0,9134.1,0.0,55.0,5.0,251.59,0.0,0.0,0.0,0.0,0.0,0.0,1.0,0.0,1.8030000000000008,1.8030000000000008,0.0,0.0,0.0,55.0,616.79921,10000.0,85.000001,85.000001,85.000001,85.000001,395.0,0.0,0.0,0.0,1.0,166.665,40.466,40.466,50.11,50.11,34.0,-27.875,30.988,-27.098,31.186,0.0,1781.028,-0.16000000000000014,100.0,37.209,37.282,40.824,41.217,0.0,0.0,100.0,0.0,0.0,0.0,0.0,4042.5,4024.7,4131.125,4207.0,302.7006666666667,302.1376666666667,315.02075,314.62275,22.236,20.9066,22.546875,21.7745,314.999998,314.999998,324.999988,324.999988,99.56018571428571,99.51048333333334,99.5961875,99.55894285714285,0.15200000000000014,-0.058666666666666645,-0.061666666666666536,0.16733333333333356,-0.01999999999999602,-0.05833333333333002,1.5425,1.517,39.975,31.6665,41.918,37.091,56.827,38.4275,68.07900000000001,56.963499999999996,54.858000000000004,37.3455,66.481,55.039500000000004,54.113,36.811,66.473,54.339,-0.1445,-0.11800000000000001,0.09424500000000001,0.11153,0.0,218.78,218.82,215.49666666666667,215.49666666666667,0.0,0.0
