,ABS Active,ABS Enabled,AID Allow Tire Blankets,AID Auto Blip,AID Auto Clutch,AID Auto Shift,AID Fuel Rate,AID Ideal Line,AID Mech Damage,AID Stability,AID Tire Wear Rate,Air Density,Air Temp,Ballast,Best Lap Delta,Best Lap Time,Brake Bias,Brake Pos,Brake Temp FL,Brake Temp FR,Brake Temp RL,Brake Temp RR,CG Accel Lateral,CG Accel Longitudinal,CG Accel Vertical,CG Height,Camber FL,Camber FR,Camber RL,Camber RR,Car Coord X,Car Coord Y,Car Coord Z,Car Damage Front,Car Damage Left,Car Damage Rear,Car Damage Right,Car Pos Norm,Caster FL,Caster FR,Chassis Pitch Angle,Chassis Pitch Rate,Chassis Roll Angle,Chassis Roll Rate,Chassis Velocity X,Chassis Velocity Y,Chassis Velocity Z,Chassis Yaw Rate,Clutch Pos,DRS Active,DRS Available,Drive Train Speed,ERS Heat Charging,ERS Is Charging,ERS Max Energy,ERS Power Level,ERS Recovery Level,Engine Brake Setting,Engine Limiter,Engine RPM,Flags,Fuel Level,Gear,Ground Speed,HR Sample Clock,In Pit,KERS Charge,KERS Deployed Energy,KERS Input,KERS Max Energy,LR Sample Clock,Lap Invalidated,Lap Time,Lap Time2,Last Lap Time,Last Sector Time,MR Sample Clock,Max Fuel,Max Power,Max RPM,Max Sus Travel FL,Max Sus Travel FR,Max Sus Travel RL,Max Sus Travel RR,Max Torque,Max Turbo Boost,Num Tires Off Track,Penalties Enabled,Position,Raw Data Sample Rate,Ride Height FL,Ride Height FR,Ride Height RL,Ride Height RR,Road Temp,Self Align Torque FL,Self Align Torque FR,Self Align Torque RL,Self Align Torque RR,Session Lap Count,Session Time Left,Steering Angle,Surface Grip,Suspension Travel FL,Suspension Travel FR,Suspension Travel RL,Suspension Travel RR,TC Active,TC Enabled,Throttle Pos,Tire Dirt Level FL,Tire Dirt Level FR,Tire Dirt Level RL,Tire Dirt Level RR,Tire Load FL,Tire Load FR,Tire Load RL,Tire Load RR,Tire Loaded Radius FL,Tire Loaded Radius FR,Tire Loaded Radius RL,Tire Loaded Radius RR,Tire Pressure FL,Tire Pressure FR,Tire Pressure RL,Tire Pressure RR,Tire Radius FL,Tire Radius FR,Tire Radius RL,Tire Radius RR,Tire Rubber Grip FL,Tire Rubber Grip FR,Tire Rubber Grip RL,Tire Rubber Grip RR,Tire Slip Angle FL,Tire Slip Angle FR,Tire Slip Angle RL,Tire Slip Angle RR,Tire Slip Ratio FL,Tire Slip Ratio FR,Tire Slip Ratio RL,Tire Slip Ratio RR,Tire Temp Core FL,Tire Temp Core FR,Tire Temp Core RL,Tire Temp Core RR,Tire Temp Inner FL,Tire Temp Inner FR,Tire Temp Inner RL,Tire Temp Inner RR,Tire Temp Middle FL,Tire Temp Middle FR,Tire Temp Middle RL,Tire Temp Middle RR,Tire Temp Outer FL,Tire Temp Outer FR,Tire Temp Outer RL,Tire Temp Outer RR,Toe In FL,Toe In FR,Toe In RL,Toe In RR,Turbo Boost,Wheel Angular Speed FL,Wheel Angular Speed FR,Wheel Angular Speed RL,Wheel Angular Speed RR,Wind Direction,Wind Speed
0,0.0,0.0,0.0,1.0,1.0,0.0,0.0,1.0,0.0,100.0,1.0,1.1856,26.0,0.0,0.0,0.0,59.99999,0.0,26.0,26.0,26.0,26.0,-0.06188888888888889,0.3329,0.14405,298.401,-2.8365,-2.609,-1.5276,-1.5455,-275.69,215.93,190.992375,0.0,0.0,0.0,0.0,0.0015666666666666051,-5.498166666666667,-5.498166666666667,-0.3511,1.3393333333333333,-0.01855555555555588,-1.045,65.543,-0.0474,0.016380000000000002,0.5700000000000003,100.0,1.0,1.0,202.32666666666665,0.0,0.0,0.0,0.0,0.0,0.0,0.0,8575.8,0.0,55.0,5.0,235.92000000000002,0.0,0.0,0.0,0.0,0.0,0.0,0.0,0.0,0.0030000000000001137,0.0030000000000001137,0.0,0.0,0.0,55.0,616.79921,10000.0,85.0,85.0,85.0,85.0,395.0,0.0,0.0,0.0,1.0,20.0,62.775,62.775,48.721000000000004,48.721000000000004,34.0,-23.048000000000002,20.082,-30.21333333333333,24.3075,0.0,1783.21,0.75,100.0,18.8215,18.595,40.984,40.652,0.0,0.0,100.0,0.0,0.0,0.0,0.0,2455.8888888888887,2921.0,4128.444444444444,4029.0,307.4476666666667,305.4205,314.8025,314.743,21.675333333333334,20.4199,21.708333333333332,21.2946,314.99999,314.99999,324.99998,324.99998,99.5572,99.50611666666667,99.56132857142858,99.54398571428571,-0.057499999999999996,-0.10350000000000004,-0.15333333333333332,0.04699999999999993,-0.03166666666666629,-0.07833333333332604,1.5425,1.543,36.471000000000004,28.624333333333333,36.677,34.091499999999996,55.297,32.976,57.698,51.1,53.172,32.272999999999996,56.351,49.507333333333335,52.2695,31.9,56.291,48.962666666666664,0.027499999999999858,-0.07900000000000018,0.09945000000000001,0.10594,0.0,205.34,205.31,202.32666666666665,202.32666666666665,0.0,0.0
1,0.0,0.0,0.0,1.0,1.0,0.0,0.0,1.0,0.0,100.0,1.0,1.1856,26.0,0.0,0.0,0.0,59.999996,0.0,26.0,26.0,26.0,26.0,-0.11044444444444444,0.34030000000000005,0.2664,297.607,-2.7713,-2.929625,-1.5493000000000001,-1.3860000000000001,-272.15,215.9325,190.971125,0.0,0.0,0.0,0.0,0.0036333333333333773,-5.498166666666667,-5.498166666666667,-0.2852,-1.178,-0.06344444444444441,-1.2495,65.726,-0.04859999999999998,0.04534,1.0759999999999987,100.0,1.0,1.0,202.4766666666667,0.0,0.0,0.0,0.0,0.0,0.0,0.0,8582.2,0.0,55.0,5.0,236.57666666666665,1.0,0.0,0.0,0.0,0.0,0.0,0.0,0.0,0.05699999999999861,0.05699999999999861,0.0,0.0,1.0,55.0,616.79921,10000.0,85.000001,85.000001,85.000001,85.000001,395.0,0.0,0.0,0.0,1.0,166.665,64.972,64.972,47.562,47.562,34.0,-20.414,11.756,-36.02666666666667,28.96,0.0,1783.156,1.0150000000000006,100.0,19.0395,18.5885,43.141999999999996,42.676,0.0,0.0,100.0,0.0,0.0,0.0,0.0,2247.333333333333,1723.8,4539.777777777777,4947.5,308.109,309.4525,313.72975,312.3885,21.684555555555555,20.4238,21.719555555555555,21.3043,314.999998,314.999998,324.999988,324.999988,99.5572,99.50613333333334,99.56148571428571,99.54412857142857,-0.06074999999999997,-0.11775000000000002,-0.16549999999999998,0.04416666666666669,-0.07000000000000028,-0.045000000000001705,1.346,1.3736666666666666,36.528,28.648666666666664,36.747,34.1515,55.269999999999996,33.004999999999995,57.7505,51.17366666666666,53.147,32.3,56.4005,49.578,52.2445,31.9255,56.3375,49.032,0.04899999999999993,-0.1030000000000002,0.09957500000000001,0.10883500000000002,0.0,205.92000000000002,205.815,202.4766666666667,202.4766666666667,0.0,0.0
2,0.0,0.0,0.0,1.0,1.0,0.0,0.0,1.0,0.0,100.0,1.0,1.1856,26.0,0.0,0.0,0.0,59.999996,0.0,26.0,26.0,26.0,26.0,-0.12733333333333333,0.31089999999999995,-0.095625,298.63,-2.7197,-2.910125,-1.5015,-1.6532,-268.99,215.9325,190.953375,0.0,0.0,0.0,0.0,0.005466666666666509,-5.498166666666667,-5.498166666666667,-0.3536,0.161,-0.0564444444444443,1.6225,65.872,-0.06209999999999993,-0.02246,1.5679999999999996,100.0,1.0,1.0,203.58666666666667,0.0,0.0,0.0,0.0,0.0,0.0,0.0,8629.3,0.0,55.0,5.0,237.10333333333335,0.0,0.0,0.0,0.0,0.0,0.0,0.0,0.0,0.10500000000000043,0.10500000000000043,0.0,0.0,0.0,55.0,616.79921,10000.0,85.000001,85.000001,85.000001,85.000001,395.0,0.0,0.0,0.0,1.0,333.33500000000004,63.309,63.309,49.896,49.896,34.0,-25.022,14.602,-28.593333333333334,19.685,0.0,1783.107,0.9600000000000009,100.0,19.795,18.569,42.873000000000005,41.803,0.0,0.0,100.0,0.0,0.0,0.0,0.0,2634.1111111111113,2118.3,3763.4444444444443,3485.6,306.818,308.07075,315.602,316.30275,21.693,20.4272,21.72911111111111,21.3123,314.999998,314.999998,324.999988,324.999988,99.55721428571428,99.50615,99.56161428571428,99.54425714285715,-0.07774999999999999,-0.13424999999999998,-0.20399999999999996,0.01883333333333348,-0.060000000000002274,-0.06333333333333258,1.6575,1.702,36.581,28.67,36.807,34.202,55.25,33.0305,57.79,51.22533333333333,53.128,32.323,56.4375,49.62733333333333,52.226,31.948,56.372,49.080333333333336,0.04700000000000015,-0.10950000000000015,0.100455,0.116195,0.0,206.36,206.245,203.58666666666667,203.58666666666667,0.0,0.0
3,0.0,0.0,0.0,1.0,1.0,0.0,0.0,1.0,0.0,100.0,1.0,1.1856,26.0,0.0,0.0,0.0,59.999996,0.0,26.0,26.0,26.0,26.0,-0.12966666666666665,0.3378000000000001,0.09525,298.004,-2.7602,-2.820875,-1.5042,-1.5935,-265.63,215.93,190.933375,0.0,0.0,0.0,0.0,0.007433333333333292,-5.498166666666667,-5.498166666666667,-0.2997,0.3886666666666667,-0.01966666666666672,-0.2765,66.044,-0.08299999999999996,0.043320000000000004,1.144000000000002,100.0,1.0,1.0,203.67000000000002,0.0,0.0,0.0,0.0,0.0,0.0,0.0,8632.8,0.0,55.0,5.0,237.72333333333333,1.0,0.0,0.0,0.0,0.0,0.0,0.0,0.0,0.1559999999999988,0.1559999999999988,0.0,0.0,1.0,55.0,616.79921,10000.0,85.000001,85.000001,85.000001,85.000001,395.0,0.0,0.0,0.0,1.0,166.665,64.346,64.346,47.394,47.394,34.0,-19.945999999999998,13.783999999999999,-35.22666666666667,25.2025,0.0,1783.055,1.0250000000000021,100.0,19.475,18.610500000000002,42.937,41.878,0.0,0.0,100.0,0.0,0.0,0.0,0.0,2142.333333333333,2108.0,4415.222222222223,4306.8,308.3473333333333,308.1515,313.9965,314.17925,21.701666666666668,20.431,21.739333333333335,21.3211,314.999998,314.999998,324.999988,324.999988,99.55721428571428,99.50615,99.56175714285715,99.5444,-0.08424999999999994,-0.14074999999999993,-0.19266666666666665,0.013666666666666716,-0.045000000000001705,-0.045000000000001705,1.452,1.5056666666666667,36.635,28.694,36.870999999999995,34.257,55.225,33.061,57.8345,51.291333333333334,53.105000000000004,32.351,56.479,49.690666666666665,52.2025,31.9745,56.4105,49.14233333333333,0.04999999999999982,-0.10749999999999993,0.10845500000000001,0.10645500000000001,0.0,206.92000000000002,206.82,203.67000000000002,203.67000000000002,0.0,0.0
4,0.0,0.0,0.0,1.0,1.0,0.0,0.0,1.0,0.0,100.0,1.0,1.1856,26.0,0.0,0.0,0.0,59.999996,0.0,26.0,26.0,26.0,26.0,-0.13555555555555554,0.3288,0.00030000000000000003,298.279,-2.7835,-2.911375,-1.44205,-1.6076,-262.25,215.9225,190.913875,0.0,0.0,0.0,0.0,0.009399999999999964,-5.498166666666667,-5.498166666666667,-0.3306,-0.7843333333333334,-0.08455555555555572,-1.601,66.207,-0.0877,0.00334,1.4059999999999988,100.0,1.0,1.0,204.30666666666667,0.0,0.0,0.0,0.0,0.0,0.0,0.0,8659.8,0.0,55.0,5.0,238.31,0.0,0.0,0.0,0.0,0.0,0.0,0.0,0.0,0.20700000000000074,0.20700000000000074,0.0,0.0,0.0,55.0,616.79921,10000.0,85.000001,85.000001,85.000001,85.000001,395.0,0.0,0.0,0.0,1.0,166.665,64.133,64.133,48.096000000000004,48.096000000000004,34.0,-24.674,13.364,-33.63666666666667,21.085,0.0,1783.005,1.1900000000000013,100.0,19.1695,18.386,43.359,42.018,0.0,0.0,100.0,0.0,0.0,0.0,0.0,2511.0,2026.8,4256.333333333333,3778.4,307.362,308.2645,314.4725,315.37325,21.71022222222222,20.43465,21.749777777777776,21.33,314.999998,314.999998,324.999988,324.999988,99.55722857142857,99.50616666666667,99.5619,99.54454285714286,-0.10675000000000001,-0.15774999999999995,-0.21716666666666662,0.003666666666666707,-0.03999999999999915,-0.061666666666667425,1.5230000000000001,1.5856666666666666,36.689,28.716666666666665,36.936,34.3125,55.201,33.0895,57.8815,51.353,53.082,32.3775,56.522999999999996,49.74966666666667,52.1795,31.999499999999998,56.452,49.2,0.06150000000000011,-0.1200000000000001,0.109435,0.10867500000000001,0.0,207.365,207.285,204.30666666666667,204.30666666666667,0.0,0.0
5,0.0,0.0,0.0,1.0,1.0,0.0,0.0,1.0,0.0,100.0,1.0,1.1856,26.0,0.0,0.0,0.0,59.999996,0.0,26.0,26.0,26.0,26.0,-0.14122222222222222,0.34140000000000015,-0.0263,298.492,-2.8009,-2.879,-1.5136500000000002,-1.635,-259.07,215.9125,190.894875,0.0,0.0,0.0,0.0,0.011233333333333317,-5.498166666666667,-5.498166666666667,-0.3316,0.4383333333333333,-0.08499999999999996,-0.364,66.36,-0.09629999999999994,0.020800000000000003,1.4620000000000015,100.0,1.0,1.0,204.81666666666666,0.0,0.0,0.0,0.0,0.0,0.0,0.0,8681.4,0.0,55.0,5.0,238.86333333333334,1.0,0.0,0.0,0.0,0.0,0.0,0.0,0.0,0.254999999999999,0.254999999999999,0.0,0.0,1.0,55.0,616.79921,10000.0,85.000001,85.000001,85.000001,85.000001,395.0,0.0,0.0,0.0,1.0,333.33500000000004,64.362,64.362,48.615,48.615,34.0,-23.67,12.931999999999999,-34.129999999999995,21.785,0.0,1782.956,0.8099999999999987,100.0,19.2865,18.2425,43.064,41.573,0.0,0.0,100.0,0.0,0.0,0.0,0.0,2434.666666666667,1976.3,4166.444444444444,3986.3,307.535,308.45325,314.72175,314.9355,21.718555555555554,20.43815,21.759333333333334,21.3381,314.999998,314.999998,324.999988,324.999988,99.55724285714285,99.50616666666667,99.56202857142857,99.54467142857143,-0.09550000000000003,-0.15149999999999997,-0.22683333333333333,-0.015166666666666662,-0.041666666666671404,-0.07666666666666799,1.5310000000000001,1.5986666666666667,36.741,28.738333333333333,36.995999999999995,34.363,55.181,33.1165,57.923,51.40833333333333,53.063,32.402,56.562,49.80233333333334,52.1605,32.022999999999996,56.4885,49.251333333333335,0.04349999999999987,-0.09549999999999992,0.10485000000000001,0.106495,0.0,207.89499999999998,207.785,204.81666666666666,204.81666666666666,0.0,0.0
6,0.0,0.0,0.0,1.0,1.0,0.0,0.0,1.0,0.0,100.0,1.0,1.1856,26.0,0.0,0.0,0.0,59.999996,0.0,26.0,26.0,26.0,26.0,-0.14677777777777778,0.3296000000000001,0.018925,298.172,-2.7588,-2.929125,-1.5444,-1.5920999999999998,-255.88,215.9,190.875375,0.0,0.0,0.0,0.0,0.0131,-5.498166666666667,-5.498166666666667,-0.31870000000000004,0.05,-0.08211111111111125,-0.8745,66.514,-0.1008,0.034480000000000004,1.2520000000000007,100.0,1.0,1.0,205.19,0.0,0.0,0.0,0.0,0.0,0.0,0.0,8697.2,0.0,55.0,5.0,239.41666666666669,0.0,0.0,0.0,0.0,0.0,0.0,0.0,0.0,0.3030000000000008,0.3030000000000008,0.0,0.0,0.0,55.0,616.79921,10000.0,85.000001,85.000001,85.000001,85.000001,395.0,0.0,0.0,0.0,1.0,166.665,64.392,64.392,47.882,47.882,34.0,-23.294,13.436,-36.126666666666665,22.335,0.0,1782.91,0.7149999999999999,100.0,19.1555,18.228,43.291,41.866,0.0,0.0,100.0,0.0,0.0,0.0,0.0,2427.333333333333,1986.3,4333.555555555556,4079.4,307.57166666666666,308.3675,314.3025,314.6685,21.726666666666667,20.4416,21.769,21.3465,314.999998,314.999998,324.999988,324.999988,99.55724285714285,99.50618333333334,99.56217142857143,99.5448,-0.09475,-0.14749999999999996,-0.22183333333333333,-0.00983333333333336,-0.054999999999999716,-0.05666666666667197,1.5075,1.541,36.792,28.759999999999998,37.056,34.4155,55.16,33.143,57.966499999999996,51.468,53.043,32.4265,56.6025,49.85933333333333,52.14,32.0465,56.5265,49.307,0.03049999999999997,-0.08700000000000019,0.10545500000000001,0.10928,0.0,208.38,208.26999999999998,205.19,205.19,0.0,0.0
7,0.0,0.0,0.0,1.0,1.0,0.0,0.0,1.0,0.0,100.0,1.0,1.1856,26.0,0.0,0.0,0.0,59.999996,0.0,26.0,26.0,26.0,26.0,-0.11355555555555556,0.3317000000000001,0.0009000000000000001,298.172,-2.7193,-2.926625,-1.5018500000000001,-1.6427,-252.29,215.8825,190.85375,0.0,0.0,0.0,0.0,0.015199999999999991,-5.498166666666667,-5.498166666666667,-0.3265,0.091,-0.07366666666666655,-0.312,66.687,-0.09849999999999992,0.01952,1.017999999999999,100.0,1.0,1.0,205.76333333333332,0.0,0.0,0.0,0.0,0.0,0.0,0.0,8721.5,0.0,55.0,5.0,240.04000000000002,1.0,0.0,0.0,0.0,0.0,0.0,0.0,0.0,0.3569999999999993,0.3569999999999993,0.0,0.0,1.0,55.0,616.79921,10000.0,85.000001,85.000001,85.000001,85.000001,395.0,0.0,0.0,0.0,1.0,166.665,64.087,64.087,48.309,48.309,34.0,-22.525999999999996,14.611999999999998,-33.64333333333333,22.465,0.0,1782.855,0.3200000000000003,100.0,19.38,18.3555,43.31,42.01,0.0,0.0,100.0,0.0,0.0,0.0,0.0,2433.666666666667,2031.6,4149.888888888889,3979.5,307.456,308.20475,314.70425,314.8875,21.736,20.44555,21.779888888888888,21.3559,314.999998,314.999998,324.999988,324.999988,99.55725714285714,99.5062,99.56232857142857,99.54494285714286,-0.06899999999999995,-0.11599999999999999,-0.22066666666666657,-0.0076666666666665995,-0.06333333333333258,-0.04999999999999716,1.526,1.55,36.849999999999994,28.784666666666666,37.125,34.474000000000004,55.135999999999996,33.173,58.0145,51.534,53.021,32.4535,56.647999999999996,49.922666666666665,52.1175,32.0725,56.569,49.36866666666667,0.002000000000000224,-0.04850000000000021,0.10529000000000001,0.10218,0.0,208.885,208.78,205.76333333333332,205.76333333333332,0.0,0.0
8,0.0,0.0,0.0,1.0,1.0,0.0,0.0,1.0,0.0,100.0,1.0,1.1856,26.0,0.0,0.0,0.0,59.999996,0.0,26.0,26.0,26.0,26.0,-0.09688888888888889,0.30910000000000015,0.0011250000000000001,298.279,-2.7969,-2.86475,-1.4823,-1.633,-248.88,215.8625,190.833,0.0,0.0,0.0,0.0,0.017166666666666552,-5.498166666666667,-5.498166666666667,-0.3287,-0.3953333333333333,-0.056888888888888545,0.664,66.849,-0.08519999999999994,0.024380000000000002,0.45199999999999996,100.0,1.0,1.0,206.21,0.0,0.0,0.0,0.0,0.0,0.0,0.0,8740.4,0.0,55.0,5.0,240.62333333333333,0.0,0.0,0.0,0.0,0.0,0.0,0.0,0.0,0.40800000000000125,0.40800000000000125,0.0,0.0,0.0,55.0,616.79921,10000.0,85.000001,85.000001,85.000001,85.000001,395.0,0.0,0.0,0.0,1.0,166.665,64.545,64.545,47.821,47.821,34.0,-19.715999999999998,15.914000000000001,-31.256666666666668,25.165,0.0,1782.805,0.10000000000000142,100.0,19.1135,18.1805,43.465,42.075,0.0,0.0,100.0,0.0,0.0,0.0,0.0,2214.0,2181.9,4096.666666666667,4107.1,308.10133333333334,307.9805,314.74175,314.6345,21.744555555555557,20.44925,21.790222222222223,21.3648,314.999998,314.999998,324.999988,324.999988,99.55727142857143,99.5062,99.56247142857143,99.54508571428572,-0.03500000000000003,-0.09175,-0.1835,0.030000000000000027,-0.046666666666666856,-0.06499999999999773,1.509,1.5386666666666666,36.903,28.808,37.189,34.53,55.11,33.2,58.06,51.596333333333334,52.995999999999995,32.4785,56.6905,49.98233333333333,52.093,32.096000000000004,56.6085,49.427,-0.01849999999999996,-0.03600000000000003,0.108895,0.107185,0.0,209.365,209.32,206.21,206.21,0.0,0.0
9,0.0,0.0,0.0,1.0,1.0,0.0,0.0,1.0,0.0,100.0,1.0,1.1856,26.0,0.0,0.0,0.0,59.999996,0.0,26.0,26.0,26.0,26.0,-0.06977777777777777,0.31289999999999996,-0.016925000000000003,297.989,-2.725,-2.87,-1.53665,-1.583,-245.87,215.8425,190.8145,0.0,0.0,0.0,0.0,0.018933333333333358,-5.498166666666667,-5.498166666666667,-0.3274,0.509,-0.0645555555555557,-0.5235,66.99000000000001,-0.0685,0.031060000000000004,0.3440000000000012,100.0,1.0,1.0,206.70333333333332,0.0,0.0,0.0,0.0,0.0,0.0,0.0,8761.4,0.0,55.0,5.0,241.13,1.0,0.0,0.0,0.0,0.0,0.0,0.0,0.0,0.4529999999999994,0.4529999999999994,0.0,0.0,1.0,55.0,616.79921,10000.0,85.000001,85.000001,85.000001,85.000001,395.0,0.0,0.0,0.0,1.0,333.33500000000004,63.873,63.873,48.34,48.34,34.0,-21.688,16.095999999999997,-32.156666666666666,24.692500000000003,0.0,1782.759,-0.134999999999998,100.0,19.347,18.535,43.175,42.17,0.0,0.0,100.0,0.0,0.0,0.0,0.0,2500.777777777778,2109.2,4137.666666666667,4086.5,307.2993333333333,308.0015,314.777,314.685,21.752222222222223,20.45265,21.799222222222223,21.3726,314.999998,314.999998,324.999988,324.999988,99.55727142857143,99.50621666666666,99.5626,99.54521428571428,-0.01849999999999996,-0.07099999999999995,-0.18499999999999994,0.03733333333333322,-0.05666666666667197,-0.04999999999999716,1.5265,1.5436666666666667,36.951,28.829333333333334,37.245000000000005,34.5785,55.088,33.224000000000004,58.0975,51.650333333333336,52.976,32.5005,56.7255,50.034,52.0725,32.1175,56.6415,49.477333333333334,-0.038999999999999924,-0.015499999999999847,0.11048000000000001,0.10782000000000001,0.0,209.81,209.76999999999998,206.70333333333332,206.70333333333332,0.0,0.0
10,0.0,0.0,0.0,1.0,1.0,0.0,0.0,1.0,0.0,100.0,1.0,1.1856,26.0,0.0,0.0,0.0,59.999996,0.0,26.0,26.0,26.0,26.0,-0.044111111111111115,0.30930000000000013,0.03015,297.897,-2.7871,-2.846,-1.5039500000000001,-1.568,-242.45,215.8175,190.793625,0.0,0.0,0.0,0.0,0.02093333333333336,-5.498166666666667,-5.498166666666667,-0.3128,-0.467,-0.03022222222222215,1.8085,67.153,-0.04859999999999998,0.03814,-0.017999999999998906,100.0,1.0,1.0,207.05333333333334,0.0,0.0,0.0,0.0,0.0,0.0,0.0,8776.2,0.0,55.0,5.0,241.71666666666667,0.0,0.0,0.0,0.0,0.0,0.0,1.0,0.0,0.5040000000000013,0.5040000000000013,0.0,0.0,0.0,55.0,616.79921,10000.0,85.000001,85.000001,85.000001,85.000001,395.0,0.0,0.0,0.0,1.0,166.665,64.575,64.575,47.379,47.379,34.0,-17.546,16.634,-30.99,27.9125,0.0,1782.709,-0.29499999999999815,100.0,19.326,18.3065,43.599000000000004,42.617000000000004,0.0,0.0,100.0,0.0,0.0,0.0,0.0,2124.5555555555557,2132.2,4244.444444444444,4325.3,308.31233333333336,308.19025,314.38825,314.14375,21.76077777777778,20.4564,21.809666666666665,21.3816,314.999998,314.999998,324.999988,324.999988,99.55727142857143,99.50621666666666,99.56275714285714,99.54535714285714,0.014499999999999957,-0.04149999999999998,-0.14383333333333337,0.06400000000000006,-0.02499999999999858,-0.06666666666666998,1.4755,1.4809999999999999,37.004999999999995,28.852666666666664,37.31,34.635,55.062,33.2495,58.144,51.715,52.951,32.524,56.769,50.096000000000004,52.0475,32.1395,56.682,49.538,-0.05149999999999988,0.0009999999999998899,0.101245,0.10598,0.0,210.28,210.28,207.05333333333334,207.05333333333334,0.0,0.0
11,0.0,0.0,0.0,1.0,1.0,0.0,0.0,1.0,0.0,100.0,1.0,1.1856,26.0,0.0,0.0,0.0,59.999996,0.0,26.0,26.0,26.0,26.0,-0.004666666666666667,0.32340000000000013,-0.08435000000000001,298.294,-2.805,-2.8268750000000002,-1.5666,-1.5352,-239.01999999999998,215.79000000000002,190.77275,0.0,0.0,0.0,0.0,0.022599999999999953,-5.498166666666667,-5.498166666666667,-0.34440000000000004,-0.149,-0.003555555555555756,-0.47200000000000003,67.31,-0.026899999999999924,0.017280000000000004,-0.17999999999999972,100.0,1.0,1.0,207.74666666666667,0.0,0.0,0.0,0.0,0.0,0.0,0.0,8805.6,0.0,55.0,5.0,242.28333333333336,1.0,0.0,0.0,0.0,0.0,0.0,1.0,0.0,0.5549999999999997,0.5549999999999997,0.0,0.0,1.0,55.0,616.79921,10000.0,85.000001,85.000001,85.000001,85.000001,395.0,0.0,0.0,0.0,1.0,333.33500000000004,64.209,64.209,48.431,48.431,34.0,-19.09,17.595999999999997,-27.533333333333335,25.405,0.0,1782.656,-0.5350000000000001,100.0,18.887,18.6635,43.085,42.711,0.0,0.0,100.0,0.0,0.0,0.0,0.0,2319.666666666667,2191.5,3896.3333333333335,3983.7,307.907,307.76875,315.36675,314.9545,21.769222222222222,20.4603,21.819777777777777,21.3906,314.999998,314.999998,324.999988,324.999988,99.55727142857143,99.50621666666666,99.56288571428571,99.5455,0.022499999999999964,-0.032749999999999946,-0.13116666666666665,0.08283333333333331,-0.06833333333332803,-0.060000000000002274,1.5805,1.5886666666666667,37.057,28.877000000000002,37.373999999999995,34.691,55.034,33.275,58.184,51.777,52.925,32.5475,56.807,50.15533333333333,52.0215,32.162,56.717,49.596000000000004,-0.06149999999999989,0.0035000000000000586,0.10515500000000001,0.111685,0.0,210.76,210.76,207.74666666666667,207.74666666666667,0.0,0.0
12,0.0,0.0,0.0,1.0,1.0,0.0,0.0,1.0,0.0,100.0,1.0,1.1856,26.0,0.0,0.0,0.0,59.999996,0.0,26.0,26.0,26.0,26.0,0.015111111111111112,0.32320000000000015,0.014450000000000001,297.867,-2.8332,-2.82775,-1.5398,-1.5596,-235.79,215.765,190.752,0.0,0.0,0.0,0.0,0.025466666666666526,-5.498166666666667,-5.498166666666667,-0.331,0.3816666666666667,-0.00855555555555565,-0.612,67.462,-0.008399999999999963,0.043480000000000005,-0.2140000000000004,100.0,1.0,1.0,208.07,0.0,0.0,0.0,0.0,0.0,0.0,0.0,8819.3,0.0,55.0,5.0,242.82999999999998,0.0,0.0,0.0,0.0,0.0,0.0,1.0,0.0,0.602999999999998,0.602999999999998,0.0,0.0,0.0,55.0,616.79921,10000.0,85.000001,85.000001,85.000001,85.000001,395.0,0.0,0.0,0.0,1.0,166.665,64.148,64.148,47.516,47.516,34.0,-19.52,17.746,-29.676666666666666,28.85,0.0,1782.61,-0.05000000000000071,100.0,18.836,18.826999999999998,42.958,42.742000000000004,0.0,0.0,100.0,0.0,0.0,0.0,0.0,2319.8888888888887,2211.2,4271.444444444444,4190.8,307.88166666666666,307.698,314.47525,314.44425,21.77711111111111,20.464,21.829333333333334,21.399,314.999998,314.999998,324.999988,324.999988,99.55727142857143,99.50623333333333,99.56302857142857,99.54562857142857,0.015000000000000124,-0.03474999999999995,-0.11166666666666658,0.10433333333333339,-0.05666666666667197,-0.060000000000002274,1.5075,1.5013333333333332,37.107,28.9,37.434,34.744,55.007999999999996,33.3,58.2245,51.83566666666667,52.900999999999996,32.570499999999996,56.8445,50.211666666666666,51.9975,32.184,56.751999999999995,49.65133333333333,-0.034499999999999975,-0.01650000000000018,0.10268500000000001,0.11533500000000001,0.0,211.245,211.245,208.07,208.07,0.0,0.0
13,0.0,0.0,0.0,1.0,1.0,0.0,0.0,1.0,0.0,100.0,1.0,1.1856,26.0,0.0,0.0,0.0,59.999996,0.0,26.0,26.0,26.0,26.0,0.02811111111111111,0.3064,0.0436,297.516,-2.8057,-2.835875,-1.57345,-1.5629,-232.34,215.74,190.73025,0.0,0.0,0.0,0.0,0.026799999999999935,-5.498166666666667,-5.498166666666667,-0.3235,-0.13766666666666666,-0.0012222222222222356,1.185,67.62100000000001,-0.0013999999999999568,0.03802,-0.35599999999999987,100.0,1.0,1.0,208.48666666666668,0.0,0.0,0.0,0.0,0.0,0.0,0.0,8837.0,0.0,55.0,5.0,243.40333333333334,1.0,0.0,0.0,0.0,0.0,0.0,1.0,0.0,0.6539999999999999,0.6539999999999999,0.0,0.0,1.0,55.0,616.79921,10000.0,85.000001,85.000001,85.000001,85.000001,395.0,0.0,0.0,0.0,1.0,333.33500000000004,63.95,63.95,47.272,47.272,34.0,-16.962,19.96,-28.323333333333334,30.8975,0.0,1782.557,-0.620000000000001,100.0,19.195,18.8245,43.348,43.166,0.0,0.0,100.0,0.0,0.0,0.0,0.0,2216.0,2297.0,4197.777777777777,4381.2,308.00933333333336,307.597,314.52825,314.024,21.785555555555554,20.468,21.839666666666666,21.4082,314.999998,314.999998,324.999988,324.999988,99.55728571428571,99.50623333333333,99.56318571428571,99.54578571428571,0.07250000000000001,0.021749999999999936,-0.08333333333333337,0.11033333333333317,-0.04333333333332945,-0.05333333333332746,1.4785,1.4689999999999999,37.16,28.924999999999997,37.498000000000005,34.801,54.982,33.326499999999996,58.2685,51.90133333333333,52.876999999999995,32.595,56.8855,50.27433333333333,51.973,32.207,56.79,49.712666666666664,-0.08199999999999985,0.02499999999999991,0.09699500000000001,0.1057,0.0,211.73000000000002,211.735,208.48666666666668,208.48666666666668,0.0,0.0
14,0.0,0.0,0.0,1.0,1.0,0.0,0.0,1.0,0.0,100.0,1.0,1.1856,26.0,0.0,0.0,0.0,59.999996,0.0,26.0,26.0,26.0,26.0,0.04855555555555556,0.3177000000000001,-0.012275000000000001,297.775,-2.8334,-2.833625,-1.57855,-1.5487,-228.89,215.715,190.709,0.0,0.0,0.0,0.0,0.028799999999999937,-5.498166666666667,-5.498166666666667,-0.33490000000000003,-0.08333333333333333,0.01766666666666672,-0.331,67.778,0.009600000000000053,0.02582,-0.46199999999999974,100.0,1.0,1.0,209.06666666666666,0.0,0.0,0.0,0.0,0.0,0.0,0.0,8861.5,0.0,55.0,5.0,243.96666666666667,0.0,0.0,0.0,0.0,0.0,0.0,1.0,0.0,0.7049999999999983,0.7049999999999983,0.0,0.0,0.0,55.0,616.79921,10000.0,85.000001,85.000001,85.000001,85.000001,395.0,0.0,0.0,0.0,1.0,166.665,64.041,64.041,47.592,47.592,34.0,-17.332,19.492,-27.463333333333335,29.075000000000003,0.0,1782.507,-0.6900000000000013,100.0,18.9125,19.0995,43.167,43.396,0.0,0.0,100.0,0.0,0.0,0.0,0.0,2249.333333333333,2228.5,4066.1111111111113,4161.4,308.107,307.57275,314.94425,314.486,21.793888888888887,20.472,21.849888888888888,21.4173,314.999998,314.999998,324.999988,324.999988,99.55728571428571,99.50623333333333,99.56331428571428,99.54592857142858,0.06774999999999998,0.01924999999999999,-0.09299999999999997,0.11583333333333323,-0.06333333333333258,-0.054999999999999716,1.538,1.51,37.212,28.95,37.562,34.858000000000004,54.957,33.353,58.3105,51.965,52.852999999999994,32.619,56.9245,50.33533333333334,51.949,32.2305,56.826,49.772333333333336,-0.08099999999999996,0.030000000000000027,0.10891500000000001,0.09964500000000001,0.0,212.21,212.22500000000002,209.06666666666666,209.06666666666666,0.0,0.0
15,0.0,0.0,0.0,1.0,1.0,0.0,0.0,1.0,0.0,100.0,1.0,1.1856,26.0,0.0,0.0,0.0,59.999996,0.0,26.0,26.0,26.0,26.0,0.06888888888888889,0.3186,-0.0188,297.76,-2.8366,-2.8015,-1.5965,-1.5577999999999999,-225.63,215.69,190.6885,0.0,0.0,0.0,0.0,0.03069999999999995,-5.498166666666667,-5.498166666666667,-0.32530000000000003,0.234,0.037555555555555564,-0.674,67.926,0.022299999999999986,0.04382,-0.5579999999999998,100.0,1.0,1.0,209.4766666666667,0.0,0.0,0.0,0.0,0.0,0.0,0.0,8879.0,0.0,55.0,5.0,244.5,1.0,0.0,0.0,0.0,0.0,0.0,1.0,0.0,0.7530000000000001,0.7530000000000001,0.0,0.0,1.0,55.0,616.79921,10000.0,85.000001,85.000001,85.000001,85.000001,395.0,0.0,0.0,0.0,1.0,333.33500000000004,64.224,64.224,47.501,47.501,34.0,-16.261999999999997,19.136,-27.116666666666664,30.93,0.0,1782.459,-0.5899999999999999,100.0,18.8475,19.1175,42.984,43.503,0.0,0.0,100.0,0.0,0.0,0.0,0.0,2160.5555555555557,2202.5,4110.0,4282.3,308.373,307.6395,314.85975,314.14275,21.80177777777778,20.4758,21.859555555555556,21.4258,314.999998,314.999998,324.999988,324.999988,99.55728571428571,99.50623333333333,99.56344285714286,99.54607142857142,0.07824999999999993,0.021749999999999936,-0.0731666666666666,0.127,-0.06833333333332803,-0.051666666666669414,1.5154999999999998,1.5033333333333334,37.260999999999996,28.973666666666666,37.622,34.911500000000004,54.932,33.3785,58.349000000000004,52.025333333333336,52.83,32.6425,56.960499999999996,50.39366666666667,51.926,32.253,56.859,49.82933333333333,-0.07650000000000001,0.020499999999999963,0.10186,0.10132000000000001,0.0,212.67000000000002,212.71,209.4766666666667,209.4766666666667,0.0,0.0
16,0.0,0.0,0.0,1.0,1.0,0.0,0.0,1.0,0.0,100.0,1.0,1.1856,26.0,0.0,0.0,0.0,59.999996,0.0,26.0,26.0,26.0,26.0,0.04611111111111112,0.30920000000000014,-0.0078000000000000005,297.668,-2.8933,-2.752875,-1.57155,-1.5549,-222.16,215.66750000000002,190.666375,0.0,0.0,0.0,0.0,0.03269999999999995,-5.498166666666667,-5.498166666666667,-0.341,-0.5156666666666666,0.02977777777777768,0.14300000000000002,68.083,0.03180000000000005,0.03174,-0.5760000000000005,100.0,1.0,1.0,209.96,0.0,0.0,0.0,0.0,0.0,0.0,0.0,8899.4,0.0,55.0,5.0,245.06666666666666,0.0,0.0,0.0,0.0,0.0,0.0,1.0,0.0,0.8039999999999985,0.8039999999999985,0.0,0.0,0.0,55.0,616.79921,10000.0,85.000001,85.000001,85.000001,85.000001,395.0,0.0,0.0,0.0,1.0,166.665,64.011,64.011,47.272,47.272,34.0,-17.024,20.97,-25.823333333333334,30.9525,0.0,1782.409,-0.46999999999999886,100.0,18.7185,19.0055,43.289,43.56,0.0,0.0,100.0,0.0,0.0,0.0,0.0,2209.222222222222,2421.0,4049.5555555555557,4164.3,308.13366666666667,307.218,314.927,314.5,21.80988888888889,20.47985,21.869777777777777,21.4349,314.999998,314.999998,324.999988,324.999988,99.5573,99.50623333333333,99.5636,99.5462,0.0827500000000001,0.030750000000000055,-0.06299999999999994,0.14983333333333326,-0.03166666666666629,-0.07166666666666544,1.5295,1.5006666666666666,37.312,28.999000000000002,37.686,34.9685,54.903999999999996,33.4055,58.391999999999996,52.089333333333336,52.804,32.667500000000004,57.0005,50.455,51.8995,32.277,56.8965,49.88966666666667,-0.062000000000000055,0.0129999999999999,0.11195000000000001,0.10258500000000001,0.0,213.125,213.17000000000002,209.96,209.96,0.0,0.0
17,0.0,0.0,0.0,1.0,1.0,0.0,0.0,1.0,0.0,100.0,1.0,1.1856,26.0,0.0,0.0,0.0,59.999996,0.0,26.0,26.0,26.0,26.0,0.042,0.31920000000000015,0.020075000000000003,297.302,-2.8552,-2.736875,-1.61145,-1.5208,-218.69,215.64499999999998,190.643875,0.0,0.0,0.0,0.0,0.034733333333333394,-5.498166666666667,-5.498166666666667,-0.3301,0.34500000000000003,0.00477777777777777,-0.9,68.239,0.035600000000000076,0.04932,-0.33399999999999963,100.0,1.0,1.0,210.37666666666667,0.0,0.0,0.0,0.0,0.0,0.0,0.0,8917.1,0.0,55.0,5.0,245.62666666666667,1.0,0.0,0.0,0.0,0.0,0.0,1.0,0.0,0.8550000000000004,0.8550000000000004,0.0,0.0,1.0,55.0,616.79921,10000.0,85.000001,85.000001,85.000001,85.000001,395.0,0.0,0.0,0.0,1.0,333.33500000000004,63.828,63.828,46.875,46.875,34.0,-18.108,18.992,-29.94,31.2425,0.0,1782.356,-0.3999999999999986,100.0,18.9605,19.2715,43.16,43.617000000000004,0.0,0.0,100.0,0.0,0.0,0.0,0.0,2358.222222222222,2242.9,4424.444444444444,4311.7,307.8186666666667,307.58925,314.18425,314.16925,21.81811111111111,20.48395,21.88,21.444,314.999998,314.999998,324.999988,324.999988,99.55731428571428,99.50623333333333,99.56375714285714,99.54635714285715,0.0787500000000001,0.01849999999999996,-0.07433333333333336,0.13783333333333325,-0.045000000000001705,-0.05666666666667197,1.4925,1.4773333333333334,37.364000000000004,29.02466666666667,37.75,35.025,54.878,33.4355,58.4365,52.156333333333336,52.778999999999996,32.695,57.042,50.519333333333336,51.8745,32.303,56.9345,49.952666666666666,-0.0605,0.0009999999999998899,0.10815500000000002,0.10188000000000001,0.0,213.64,213.675,210.37666666666667,210.37666666666667,0.0,0.0
18,0.0,0.0,0.0,1.0,1.0,0.0,0.0,1.0,0.0,100.0,1.0,1.1856,26.0,0.0,0.0,0.0,59.999996,0.0,26.0,26.0,26.0,26.0,0.041666666666666664,0.30279999999999996,0.027350000000000003,297.18,-2.7962,-2.7193750000000003,-1.6149,-1.4769999999999999,-215.41,215.6225,190.622625,0.0,0.0,0.0,0.0,0.036633333333333296,-5.498166666666667,-5.498166666666667,-0.34190000000000004,-0.4083333333333333,0.016111111111110965,-0.3705,68.385,0.02970000000000006,0.0354,-0.2560000000000002,100.0,1.0,1.0,210.82333333333332,0.0,0.0,0.0,0.0,0.0,0.0,0.0,8936.0,0.0,55.0,5.0,246.15333333333334,0.0,0.0,0.0,0.0,0.0,0.0,1.0,0.0,0.9029999999999987,0.9029999999999987,0.0,0.0,0.0,55.0,616.79921,10000.0,85.000001,85.000001,85.000001,85.000001,395.0,0.0,0.0,0.0,1.0,333.33500000000004,63.644,63.644,46.783,46.783,34.0,-17.546,20.592,-29.183333333333334,29.9875,0.0,1782.308,-0.4800000000000004,100.0,18.8845,19.219,43.44,43.909,0.0,0.0,100.0,0.0,0.0,0.0,0.0,2326.1111111111113,2418.3,4263.666666666667,4285.6,307.842,307.1075,314.512,314.20725,21.82588888888889,20.48775,21.889777777777777,21.4527,314.999998,314.999998,324.999988,324.999988,99.55731428571428,99.50625,99.56388571428572,99.5465,0.07800000000000007,0.0202500000000001,-0.08133333333333337,0.12983333333333325,-0.060000000000002274,-0.060000000000002274,1.4845,1.4796666666666667,37.412,29.048333333333332,37.811,35.079,54.854,33.4585,58.474000000000004,52.213,52.757,32.716499999999996,57.0775,50.574,51.8525,32.323499999999996,56.9675,50.006,-0.06600000000000006,0.0020000000000000018,0.107355,0.10479000000000001,0.0,214.075,214.095,210.82333333333332,210.82333333333332,0.0,0.0
19,0.0,0.0,0.0,1.0,1.0,0.0,0.0,1.0,0.0,100.0,1.0,1.1856,26.0,0.0,0.0,0.0,59.999996,0.0,26.0,26.0,26.0,26.0,0.03888888888888889,0.3218000000000001,0.061700000000000005,296.967,-2.7904999999999998,-2.826,-1.5461,-1.6028,-211.92000000000002,215.60250000000002,190.599875,0.0,0.0,0.0,0.0,0.038666666666666516,-5.498166666666667,-5.498166666666667,-0.3299,0.7263333333333334,0.023666666666666725,0.651,68.539,0.023700000000000054,0.0478,-0.3119999999999994,100.0,1.0,1.0,211.28333333333333,0.0,0.0,0.0,0.0,0.0,0.0,0.0,8955.6,0.0,55.0,5.0,246.71,1.0,0.0,0.0,0.0,0.0,0.0,1.0,0.0,0.9540000000000006,0.9540000000000006,0.0,0.0,1.0,55.0,616.79921,10000.0,85.000001,85.000001,85.000001,85.000001,395.0,0.0,0.0,0.0,1.0,166.665,63.507,63.507,46.86,46.86,34.0,-16.294,20.326,-27.72,33.6775,0.0,1782.259,-0.46000000000000085,100.0,19.528,19.5085,43.436,43.912,0.0,0.0,100.0,0.0,0.0,0.0,0.0,2176.5555555555557,2327.2,4221.555555555556,4450.2,308.09066666666666,307.359,314.5195,313.77275,21.834222222222223,20.49195,21.89988888888889,21.4618,314.999998,314.999998,324.999988,324.999988,99.55731428571428,99.50625,99.56401428571428,99.54664285714286,0.0827500000000001,0.018000000000000016,-0.07599999999999996,0.13483333333333336,-0.03499999999999659,-0.07000000000000028,1.475,1.463,37.464,29.074666666666666,37.875,35.135999999999996,54.83,33.487,58.513999999999996,52.27733333333333,52.733999999999995,32.7425,57.115,50.635666666666665,51.829499999999996,32.349000000000004,57.001999999999995,50.06633333333333,-0.06349999999999989,0.00649999999999995,0.10531000000000001,0.10908000000000001,0.0,214.59,214.61,211.28333333333333,211.28333333333333,0.0,0.0
20,0.0,0.0,0.0,1.0,1.0,0.0,0.0,1.0,0.0,100.0,1.0,1.1856,26.0,0.0,0.0,0.0,59.999996,0.0,26.0,26.0,26.0,26.0,0.05288888888888889,0.29590000000000005,-0.03465,297.302,-2.8601,-2.7822500000000003,-1.55065,-1.5873,-208.42000000000002,215.58249999999998,190.577375,0.0,0.0,0.0,0.0,0.04069999999999996,-5.498166666666667,-5.498166666666667,-0.33640000000000003,-0.9536666666666667,0.018111111111110967,-0.9425,68.694,0.01980000000000004,0.03664,-0.22600000000000087,100.0,1.0,1.0,211.74333333333334,0.0,0.0,0.0,0.0,0.0,0.0,0.0,8975.0,0.0,55.0,5.0,247.26666666666665,0.0,0.0,0.0,0.0,0.0,0.0,0.0,0.0,1.004999999999999,1.004999999999999,0.0,0.0,0.0,55.0,616.79921,10000.0,85.000001,85.000001,85.000001,85.000001,395.0,0.0,0.0,0.0,1.0,333.33500000000004,64.117,64.117,46.616,46.616,34.0,-17.048,18.72,-27.746666666666666,29.9725,0.0,1782.207,-0.41000000000000014,100.0,18.8795,19.2805,43.929,44.369,0.0,0.0,100.0,0.0,0.0,0.0,0.0,2224.333333333333,2203.0,4175.333333333333,4129.8,308.235,307.71575,314.6485,314.4655,21.842222222222222,20.49595,21.910333333333334,21.4711,314.999998,314.999998,324.999988,324.999988,99.55732857142857,99.50625,99.56417142857143,99.54678571428572,0.07400000000000007,0.013249999999999984,-0.08333333333333337,0.12216666666666676,-0.05666666666667197,-0.045000000000001705,1.488,1.483,37.513999999999996,29.099666666666664,37.94,35.194,54.802,33.513,58.5585,52.342333333333336,52.707,32.7665,57.1565,50.69833333333334,51.803,32.3715,57.0405,50.12766666666667,-0.06549999999999989,0.0044999999999999485,0.10253000000000001,0.1097,0.0,215.01999999999998,215.025,211.74333333333334,211.74333333333334,0.0,0.0
21,0.0,0.0,0.0,1.0,1.0,0.0,0.0,1.0,0.0,100.0,1.0,1.1856,26.0,0.0,0.0,0.0,59.999996,0.0,26.0,26.0,26.0,26.0,0.038,0.30479999999999996,-0.034575,297.501,-2.8548999999999998,-2.7875,-1.5928499999999999,-1.5465,-205.12,215.565,190.5555,0.0,0.0,0.0,0.0,0.0426333333333333,-5.498166666666667,-5.498166666666667,-0.3527,0.265,0.002555555555555644,-0.7655000000000001,68.83500000000001,0.019600000000000062,0.04236,-0.27200000000000024,100.0,1.0,1.0,212.32,0.0,0.0,0.0,0.0,0.0,0.0,0.0,8999.5,0.0,55.0,5.0,247.77333333333334,1.0,0.0,0.0,0.0,0.0,0.0,0.0,0.0,1.0530000000000008,1.0530000000000008,0.0,0.0,1.0,55.0,616.79921,10000.0,85.000001,85.000001,85.000001,85.000001,395.0,0.0,0.0,0.0,1.0,166.665,63.919,63.919,47.256,47.256,34.0,-18.092,18.939999999999998,-27.906666666666666,28.395,0.0,1782.16,-0.4299999999999997,100.0,18.993000000000002,19.2135,43.497,43.894999999999996,0.0,0.0,100.0,0.0,0.0,0.0,0.0,2340.333333333333,2238.8,4142.444444444444,4082.7,307.875,307.64475,314.81925,314.74275,21.849888888888888,20.4998,21.919888888888888,21.4795,314.999998,314.999998,324.999988,324.999988,99.55734285714286,99.50625,99.56431428571429,99.54692857142857,0.07400000000000007,0.009000000000000119,-0.08683333333333332,0.119,-0.07833333333332604,-0.03999999999999915,1.5434999999999999,1.5376666666666667,37.562,29.123666666666665,37.998999999999995,35.247,54.777,33.5385,58.595,52.39933333333333,52.685,32.789500000000004,57.191,50.753,51.78,32.394,57.072,50.181333333333335,-0.0665,0.0035000000000000586,0.10949,0.09626000000000001,0.0,215.49,215.49,212.32,212.32,0.0,0.0
22,0.0,0.0,0.0,1.0,1.0,0.0,0.0,1.0,0.0,100.0,1.0,1.1856,26.0,0.0,0.0,0.0,59.999996,0.0,26.0,26.0,26.0,26.0,0.03311111111111111,0.31100000000000017,0.016425000000000002,297.012,-2.9182,-2.75,-1.61745,-1.5303,-201.39,215.5475,190.53025,0.0,0.0,0.0,0.0,0.04476666666666651,-5.498166666666667,-5.498166666666667,-0.33440000000000003,-0.09266666666666667,0.015222222222222026,-0.5670000000000001,69.0,0.019200000000000106,0.06436,-0.25399999999999956,100.0,1.0,1.0,212.62666666666667,0.0,0.0,0.0,0.0,0.0,0.0,0.0,9012.5,0.0,55.0,5.0,248.36666666666667,0.0,0.0,0.0,0.0,0.0,0.0,0.0,0.0,1.1069999999999993,1.1069999999999993,0.0,0.0,0.0,55.0,616.79921,10000.0,85.000001,85.000001,85.000001,85.000001,395.0,0.0,0.0,0.0,1.0,166.665,64.056,64.056,46.295,46.295,34.0,-18.035999999999998,18.836,-30.35333333333333,31.435000000000002,0.0,1782.106,-0.48999999999999844,100.0,18.9345,19.23,43.766,44.197,0.0,0.0,100.0,0.0,0.0,0.0,0.0,2287.333333333333,2239.7,4388.222222222223,4414.1,308.12333333333333,307.65,314.23275,313.85175,21.858555555555554,20.5041,21.930777777777777,21.4893,314.999998,314.999998,324.999988,324.999988,99.55734285714286,99.50625,99.56445714285714,99.54708571428571,0.06875000000000009,0.013000000000000123,-0.08199999999999996,0.11816666666666675,-0.06333333333333258,-0.03833333333332689,1.471,1.45,37.616,29.150666666666666,38.067,35.308,54.75,33.5665,58.6415,52.467666666666666,52.659,32.8155,57.234,50.818333333333335,51.754,32.4185,57.1115,50.245333333333335,-0.06800000000000006,0.010499999999999954,0.09530000000000001,0.107285,0.0,216.0,215.995,212.62666666666667,212.62666666666667,0.0,0.0
23,0.0,0.0,0.0,1.0,1.0,0.0,0.0,1.0,0.0,100.0,1.0,1.1856,26.0,0.0,0.0,0.0,59.999996,0.0,26.0,26.0,26.0,26.0,0.02811111111111111,0.29990000000000006,-0.02695,297.043,-2.7899,-2.809875,-1.66975,-1.5064,-198.07999999999998,215.5325,190.508125,0.0,0.0,0.0,0.0,0.046699999999999964,-5.498166666666667,-5.498166666666667,-0.35000000000000003,-0.12666666666666668,0.013111111111111073,-0.726,69.14,0.021300000000000097,0.042460000000000005,-0.27999999999999936,100.0,1.0,1.0,213.15666666666667,0.0,0.0,0.0,0.0,0.0,0.0,0.0,9035.0,0.0,55.0,5.0,248.87333333333333,1.0,0.0,0.0,0.0,0.0,0.0,0.0,0.0,1.1550000000000011,1.1550000000000011,0.0,0.0,1.0,55.0,616.79921,10000.0,85.000001,85.000001,85.000001,85.000001,395.0,0.0,0.0,0.0,1.0,166.665,63.644,63.644,46.829,46.829,34.0,-18.337999999999997,19.046,-29.883333333333333,29.305,0.0,1782.057,-0.46999999999999886,100.0,19.1645,19.37,43.847,44.357,0.0,0.0,100.0,0.0,0.0,0.0,0.0,2363.1111111111113,2226.6,4256.777777777777,4192.4,307.68966666666665,307.5825,314.588,314.4815,21.866222222222223,20.508,21.940444444444445,21.498,314.999998,314.999998,324.999988,324.999988,99.55734285714286,99.50625,99.5646,99.54722857142858,0.06400000000000006,0.007749999999999924,-0.08466666666666656,0.1266666666666667,-0.051666666666669414,-0.051666666666669414,1.5194999999999999,1.506,37.664,29.174999999999997,38.128,35.3625,54.724999999999994,33.592,58.6805,52.52766666666667,52.635999999999996,32.8395,57.2705,50.876333333333335,51.731,32.4415,57.1455,50.30166666666667,-0.058499999999999996,0.007500000000000062,0.10984000000000001,0.10984500000000001,0.0,216.42000000000002,216.41,213.15666666666667,213.15666666666667,0.0,0.0
24,0.0,0.0,0.0,1.0,1.0,0.0,0.0,1.0,0.0,100.0,1.0,1.1856,26.0,0.0,0.0,0.0,59.999996,0.0,26.0,26.0,26.0,26.0,0.044222222222222225,0.3057000000000001,-0.0176,297.424,-2.8313,-2.794375,-1.55435,-1.5604,-194.76,215.515,190.485375,0.0,0.0,0.0,0.0,0.048633333333333306,-5.498166666666667,-5.498166666666667,-0.35910000000000003,-0.393,0.023555555555555552,-0.1145,69.283,0.022699999999999942,0.05056000000000001,-0.29999999999999893,100.0,1.0,1.0,213.56666666666666,0.0,0.0,0.0,0.0,0.0,0.0,0.0,9052.4,0.0,55.0,5.0,249.38666666666666,0.0,0.0,0.0,0.0,0.0,0.0,0.0,0.0,1.2029999999999994,1.2029999999999994,0.0,0.0,0.0,55.0,616.79921,10000.0,85.000001,85.000001,85.000001,85.000001,395.0,0.0,0.0,0.0,1.0,333.33500000000004,64.545,64.545,46.57,46.57,34.0,-16.118000000000002,18.04,-28.63,29.8825,0.0,1782.009,-0.46999999999999886,100.0,18.8445,19.065,43.828,44.313,0.0,0.0,100.0,0.0,0.0,0.0,0.0,2121.666666666667,2144.9,4253.888888888889,4200.8,308.49033333333335,307.9395,314.49075,314.41375,21.87377777777778,20.51175,21.950111111111113,21.5066,314.999998,314.999998,324.999988,324.999988,99.55735714285714,99.50626666666666,99.56472857142857,99.54735714285714,0.07075000000000009,0.00825000000000009,-0.08750000000000002,0.11983333333333324,-0.05666666666667197,-0.03833333333332689,1.4925,1.4986666666666668,37.711,29.198333333333334,38.188,35.416,54.7,33.616,58.7195,52.586666666666666,52.611999999999995,32.861000000000004,57.307,50.933,51.707,32.462,57.179,50.357,-0.0625,0.007500000000000062,0.107365,0.10197,0.0,216.865,216.86,213.56666666666666,213.56666666666666,0.0,0.0
25,0.0,0.0,0.0,1.0,1.0,0.0,0.0,1.0,0.0,100.0,1.0,1.1856,26.0,0.0,0.0,0.0,59.999996,0.0,26.0,26.0,26.0,26.0,0.05422222222222222,0.2965,-0.007275,297.058,-2.8284,-2.782375,-1.60795,-1.5359,-191.01,215.5,190.458375,0.0,0.0,0.0,0.0,0.0508333333333334,-5.498166666666667,-5.498166666666667,-0.37670000000000003,0.2673333333333333,0.026666666666666616,-1.0285,69.441,0.024399999999999977,0.05326,-0.363999999999999,100.0,1.0,1.0,214.11,0.0,0.0,0.0,0.0,0.0,0.0,0.0,9075.4,0.0,55.0,5.0,249.95666666666665,1.0,0.0,0.0,0.0,0.0,0.0,0.0,0.0,1.256999999999998,1.256999999999998,0.0,0.0,1.0,55.0,616.79921,10000.0,85.000001,85.000001,85.000001,85.000001,395.0,0.0,0.0,0.0,1.0,166.665,63.446,63.446,46.89,46.89,34.0,-18.616,20.787999999999997,-27.876666666666665,30.15,0.0,1781.956,-0.46999999999999886,100.0,18.944499999999998,19.366,43.618,44.115,0.0,0.0,100.0,0.0,0.0,0.0,0.0,2418.5555555555557,2404.7,4160.888888888889,4187.4,307.60966666666667,307.0145,314.81525,314.4645,21.882333333333335,20.51615,21.96088888888889,21.5162,314.999998,314.999998,324.999988,324.999988,99.55737142857143,99.50626666666666,99.5649,99.54752857142857,0.07624999999999993,0.011500000000000066,-0.07850000000000001,0.13516666666666666,-0.060000000000002274,-0.04999999999999716,1.5295,1.5123333333333333,37.765,29.226,38.256,35.4765,54.671,33.644999999999996,58.7615,52.652,52.585,32.888,57.346000000000004,50.995666666666665,51.68,32.488,57.2145,50.41866666666667,-0.07050000000000001,0.006999999999999895,0.110825,0.11270000000000001,0.0,217.36,217.365,214.11,214.11,0.0,0.0
26,0.0,0.0,0.0,1.0,1.0,0.0,0.0,1.0,0.0,100.0,1.0,1.1856,26.0,0.0,0.0,0.0,59.999996,0.0,26.0,26.0,26.0,26.0,0.04811111111111112,0.30400000000000005,0.05825,296.326,-2.8502,-2.7785,-1.5699,-1.5594,-187.67000000000002,215.4875,190.434125,0.0,0.0,0.0,0.0,0.05276666666666652,-5.498166666666667,-5.498166666666667,-0.3448,0.3196666666666667,0.014111111111110963,-0.5915,69.58500000000001,0.026000000000000023,0.07236000000000001,-0.3100000000000005,100.0,1.0,1.0,214.34,0.0,0.0,0.0,0.0,0.0,0.0,0.0,9085.1,0.0,55.0,5.0,250.47333333333336,0.0,0.0,0.0,0.0,0.0,0.0,0.0,0.0,1.3049999999999997,1.3049999999999997,0.0,0.0,0.0,55.0,616.79921,10000.0,85.000001,85.000001,85.000001,85.000001,395.0,0.0,0.0,0.0,1.0,166.665,63.522,63.522,45.638999999999996,45.638999999999996,34.0,-18.028,18.804000000000002,-31.19333333333333,33.760000000000005,0.0,1781.907,-0.495000000000001,100.0,19.4975,19.689,44.183,44.647000000000006,0.0,0.0,100.0,0.0,0.0,0.0,0.0,2353.4444444444443,2201.7,4563.666666666667,4512.6,307.8593333333333,307.782,313.773,313.60525,21.89,20.52015,21.970777777777776,21.525,314.999998,314.999998,324.999988,324.999988,99.55737142857143,99.50626666666666,99.56502857142857,99.54765714285715,0.0787500000000001,0.020000000000000018,-0.07883333333333331,0.13166666666666682,-0.061666666666667425,-0.03499999999999659,1.4215,1.408,37.813,29.250999999999998,38.317,35.5315,54.649,33.672,58.8035,52.71366666666667,52.564,32.9125,57.3855,51.05533333333333,51.658500000000004,32.5115,57.251,50.47666666666667,-0.06899999999999995,0.012499999999999956,0.10761000000000001,0.11306500000000001,0.0,217.825,217.815,214.34,214.34,0.0,0.0
27,0.0,0.0,0.0,1.0,1.0,0.0,0.0,1.0,0.0,100.0,1.0,1.1856,26.0,0.0,0.0,0.0,59.999996,0.0,26.0,26.0,26.0,26.0,0.047,0.29590000000000005,-0.060825000000000004,296.829,-2.8927,-2.7978750000000003,-1.62705,-1.5441,-184.32999999999998,215.475,190.410875,0.0,0.0,0.0,0.0,0.05469999999999997,-5.498166666666667,-5.498166666666667,-0.3708,-0.8773333333333334,0.018444444444444263,-0.6805,69.723,0.026800000000000157,0.03582,-0.3699999999999992,100.0,1.0,1.0,214.91333333333333,0.0,0.0,0.0,0.0,0.0,0.0,0.0,9109.4,0.0,55.0,5.0,250.97333333333336,1.0,0.0,0.0,0.0,0.0,0.0,0.0,0.0,1.352999999999998,1.352999999999998,0.0,0.0,1.0,55.0,616.79921,10000.0,85.000001,85.000001,85.000001,85.000001,395.0,0.0,0.0,0.0,1.0,166.665,63.828,63.828,45.99,45.99,34.0,-17.174,19.384,-28.493333333333336,29.55,0.0,1781.86,-0.5249999999999986,100.0,19.136,19.6015,44.602000000000004,44.939,0.0,0.0,100.0,0.0,0.0,0.0,0.0,2250.666666666667,2247.0,4141.222222222223,4143.2,308.20366666666666,307.563,314.72475,314.58525,21.897555555555556,20.524,21.980555555555554,21.5339,314.999998,314.999998,324.999988,324.999988,99.55738571428572,99.50628333333333,99.56517142857143,99.5478,0.08350000000000013,0.016750000000000043,-0.08216666666666661,0.12683333333333335,-0.03833333333332689,-0.07000000000000028,1.5015,1.4863333333333335,37.86,29.275,38.379,35.5865,54.623000000000005,33.697,58.844,52.77433333333333,52.54,32.936,57.423,51.11333333333333,51.634,32.534,57.286,50.53333333333333,-0.0754999999999999,0.008000000000000007,0.11052500000000001,0.10709,0.0,218.185,218.22,214.91333333333333,214.91333333333333,0.0,0.0
28,0.0,0.0,0.0,1.0,1.0,0.0,0.0,1.0,0.0,100.0,1.0,1.1856,26.0,0.0,0.0,0.0,59.999996,0.0,26.0,26.0,26.0,26.0,0.036444444444444446,0.31710000000000016,-0.0455,296.936,-2.818,-2.79,-1.63765,-1.5741,-180.76999999999998,215.4625,190.38525,0.0,0.0,0.0,0.0,0.05676666666666652,-5.498166666666667,-5.498166666666667,-0.3709,0.6283333333333334,0.008444444444444255,0.5455,69.87100000000001,0.02859999999999996,0.06406,-0.4659999999999993,100.0,1.0,1.0,215.40666666666667,0.0,0.0,0.0,0.0,0.0,0.0,0.0,9130.3,0.0,55.0,5.0,251.50333333333333,0.0,0.0,0.0,0.0,0.0,0.0,0.0,0.0,1.404,1.404,0.0,0.0,0.0,55.0,616.79921,10000.0,85.000001,85.000001,85.000001,85.000001,395.0,0.0,0.0,0.0,1.0,333.33500000000004,63.889,63.889,46.265,46.265,34.0,-15.608,20.15,-28.603333333333335,31.5625,0.0,1781.807,-0.5449999999999982,100.0,19.365,19.376,44.123000000000005,44.448,0.0,0.0,100.0,0.0,0.0,0.0,0.0,2109.5555555555557,2309.4,4264.444444444444,4275.8,308.3023333333333,307.5225,314.57475,314.362,21.905555555555555,20.5282,21.990666666666666,21.543,314.999998,314.999998,324.999988,324.999988,99.55738571428572,99.50628333333333,99.56532857142857,99.54795714285714,0.09325000000000006,0.030750000000000055,-0.0678333333333333,0.13949999999999996,-0.04999999999999716,-0.054999999999999716,1.525,1.5110000000000001,37.91,29.301333333333332,38.442,35.6435,54.598,33.725,58.8825,52.83533333333333,52.516,32.9615,57.459,51.17166666666667,51.61,32.5585,57.3185,50.590333333333334,-0.0714999999999999,0.0129999999999999,0.110725,0.098345,0.0,218.695,218.71,215.40666666666667,215.40666666666667,0.0,0.0
29,0.0,0.0,0.0,1.0,1.0,0.0,0.0,1.0,0.0,100.0,1.0,1.1856,26.0,0.0,0.0,0.0,59.999996,0.0,26.0,26.0,26.0,26.0,0.05777777777777778,0.28459999999999996,-0.0361,296.799,-2.8984,-2.7105,-1.6214,-1.5534,-177.2,215.4525,190.358625,0.0,0.0,0.0,0.0,0.058833333333333404,-5.498166666666667,-5.498166666666667,-0.37720000000000004,-0.7303333333333334,0.006222222222222129,-0.76,70.02,0.030399999999999983,0.062360000000000006,-0.3960000000000008,100.0,1.0,1.0,215.75666666666666,0.0,0.0,0.0,0.0,0.0,0.0,0.0,9145.1,0.0,55.0,5.0,252.04000000000002,1.0,0.0,0.0,0.0,0.0,0.0,0.0,0.0,1.4549999999999983,1.4549999999999983,0.0,0.0,1.0,55.0,616.79921,10000.0,85.000001,85.000001,85.000001,85.000001,395.0,0.0,0.0,0.0,1.0,166.665,64.087,64.087,46.143,46.143,34.0,-18.084,19.164,-29.32,32.11,0.0,1781.758,-0.6050000000000004,100.0,18.861,19.2685,44.41,44.885000000000005,0.0,0.0,100.0,0.0,0.0,0.0,0.0,2359.777777777778,2280.9,4249.888888888889,4316.7,308.016,307.69525,314.57,314.112,21.913444444444444,20.5323,22.00111111111111,21.5523,314.999998,314.999998,324.999988,324.999988,99.5574,99.50628333333333,99.56547142857143,99.54811428571429,0.08200000000000007,0.026250000000000107,-0.08299999999999996,0.13966666666666683,-0.054999999999999716,-0.04999999999999716,1.479,1.4563333333333333,37.959,29.326666666666668,38.507,35.702,54.57,33.751,58.926,52.89966666666667,52.489999999999995,32.9855,57.4995,51.234,51.5845,32.5815,57.3555,50.650999999999996,-0.0754999999999999,0.018000000000000016,0.109005,0.11277500000000001,0.0,219.125,219.14,215.75666666666666,215.75666666666666,0.0,0.0
30,0.0,0.0,0.0,1.0,1.0,0.0,0.0,1.0,0.0,100.0,1.0,1.1856,26.0,0.0,0.0,0.0,59.999996,0.0,26.0,26.0,26.0,26.0,0.04388888888888889,0.3004,0.018025,296.14300000000003,-2.8657,-2.777625,-1.6542,-1.4725,-173.84,215.4425,190.3335,0.0,0.0,0.0,0.0,0.060799999999999965,-5.498166666666667,-5.498166666666667,-0.37020000000000003,0.991,0.006000000000000005,-0.524,70.157,0.035600000000000076,0.06682,-0.5419999999999998,100.0,1.0,1.0,216.21666666666667,0.0,0.0,0.0,0.0,0.0,0.0,0.0,9164.7,0.0,55.0,5.0,252.53333333333336,0.0,0.0,0.0,0.0,0.0,0.0,1.0,0.0,1.5030000000000001,1.5030000000000001,0.0,0.0,0.0,55.0,616.79921,10000.0,85.000001,85.000001,85.000001,85.000001,395.0,0.0,0.0,0.0,1.0,166.665,62.805,62.805,45.822,45.822,34.0,-18.34,20.67,-30.596666666666668,30.62,0.0,1781.71,-0.5999999999999979,100.0,19.7805,20.0555,44.286,44.843,0.0,0.0,100.0,0.0,0.0,0.0,0.0,2416.777777777778,2345.7,4425.333333333333,4360.1,307.53633333333335,307.1395,314.2835,314.2225,21.92111111111111,20.5364,22.010666666666665,21.561,314.999998,314.999998,324.999988,324.999988,99.5574,99.50628333333333,99.56561428571429,99.54824285714285,0.09624999999999995,0.025249999999999995,-0.07566666666666666,0.13383333333333325,-0.04333333333332945,-0.06333333333333258,1.4995,1.474,38.007,29.352666666666664,38.567,35.7565,54.549,33.78,58.963499999999996,52.95833333333333,52.471000000000004,33.012,57.5345,51.290333333333336,51.564499999999995,32.6065,57.388,50.70633333333333,-0.08000000000000007,0.01649999999999996,0.11128,0.096915,0.0,219.57999999999998,219.60000000000002,216.21666666666667,216.21666666666667,0.0,0.0
31,0.0,0.0,0.0,1.0,1.0,0.0,0.0,1.0,0.0,100.0,1.0,1.1856,26.0,0.0,0.0,0.0,59.999996,0.0,26.0,26.0,26.0,26.0,0.044444444444444446,0.28400000000000003,0.03415,295.914,-2.8399,-2.83325,-1.6571500000000001,-1.5497999999999998,-170.26,215.435,190.30775,0.0,0.0,0.0,0.0,0.06286666666666652,-5.498166666666667,-5.498166666666667,-0.3564,-0.433,0.017222222222222028,0.671,70.305,0.03710000000000013,0.05814,-0.5459999999999994,100.0,1.0,1.0,216.56,0.0,0.0,0.0,0.0,0.0,0.0,0.0,9179.2,0.0,55.0,5.0,253.06666666666666,1.0,0.0,0.0,0.0,0.0,0.0,1.0,0.0,1.5539999999999985,1.5539999999999985,0.0,0.0,1.0,55.0,616.79921,10000.0,85.000001,85.000001,85.000001,85.000001,395.0,0.0,0.0,0.0,1.0,333.33500000000004,63.126,63.126,44.846000000000004,44.846000000000004,34.0,-15.628,22.572000000000003,-29.396666666666665,34.0525,0.0,1781.657,-0.634999999999998,100.0,19.697,19.916,45.141999999999996,45.39,0.0,0.0,100.0,0.0,0.0,0.0,0.0,2140.333333333333,2484.2,4277.555555555556,4448.5,308.215,306.917,314.35625,313.8225,21.929,20.5407,22.02122222222222,21.5706,314.999998,314.999998,324.999988,324.999988,99.55741428571429,99.50628333333333,99.56577142857142,99.5484,0.10675000000000012,0.03925000000000001,-0.0638333333333333,0.1503333333333332,-0.045000000000001705,-0.05666666666667197,1.4415,1.409,38.056,29.379333333333335,38.632999999999996,35.816,54.524,33.808,59.007999999999996,53.025666666666666,52.446,33.038,57.576499999999996,51.355,51.54,32.632,57.4265,50.769333333333336,-0.08099999999999996,0.01550000000000007,0.10855000000000001,0.10913500000000001,0.0,220.01,220.03,216.56,216.56,0.0,0.0
32,0.0,0.0,0.0,1.0,1.0,0.0,0.0,1.0,0.0,100.0,1.0,1.1856,26.0,0.0,0.0,0.0,59.999996,0.0,26.0,26.0,26.0,26.0,0.08788888888888889,0.27870000000000017,-0.044950000000000004,296.646,-2.8368,-2.819875,-1.5936,-1.6289,-166.67000000000002,215.4275,190.282125,0.0,0.0,0.0,0.0,0.0649666666666665,-5.498166666666667,-5.498166666666667,-0.3775,-0.3626666666666667,-0.008777777777777995,-1.0190000000000001,70.44800000000001,0.035700000000000065,0.04854,-0.44399999999999906,100.0,1.0,1.0,217.13333333333333,0.0,0.0,0.0,0.0,0.0,0.0,0.0,9203.5,0.0,55.0,5.0,253.58333333333334,0.0,0.0,0.0,0.0,0.0,0.0,1.0,0.0,1.6050000000000004,1.6050000000000004,0.0,0.0,0.0,55.0,616.79921,10000.0,85.000001,85.000001,85.000001,85.000001,395.0,0.0,0.0,0.0,1.0,166.665,63.782,63.782,46.082,46.082,34.0,-16.408,19.439999999999998,-26.986666666666665,32.8475,0.0,1781.607,-0.6400000000000006,100.0,19.3055,19.7785,44.723,45.202,0.0,0.0,100.0,0.0,0.0,0.0,0.0,2223.333333333333,2195.2,4092.8888888888887,4231.9,308.1913333333333,307.747,314.89525,314.2845,21.936888888888888,20.54485,22.031444444444446,21.5799,314.999998,314.999998,324.999988,324.999988,99.55742857142857,99.5063,99.56591428571429,99.54855714285715,0.09475000000000011,0.03475000000000006,-0.06966666666666665,0.1483333333333332,-0.04333333333332945,-0.04333333333332945,1.4895,1.4783333333333335,38.105000000000004,29.40533333333333,38.697,35.8745,54.498000000000005,33.836,59.0475,53.08866666666667,52.422,33.0635,57.613,51.415333333333336,51.5155,32.656,57.4595,50.82833333333333,-0.07850000000000001,0.020000000000000018,0.11207,0.11059000000000001,0.0,220.45,220.47500000000002,217.13333333333333,217.13333333333333,0.0,0.0
33,0.0,0.0,0.0,1.0,1.0,0.0,0.0,1.0,0.0,100.0,1.0,1.1856,26.0,0.0,0.0,0.0,59.999996,0.0,26.0,26.0,26.0,26.0,0.06311111111111112,0.28859999999999997,-0.043000000000000003,296.814,-2.8512,-2.784,-1.6652,-1.5891,-163.28,215.4225,190.256625,0.0,0.0,0.0,0.0,0.0669333333333334,-5.498166666666667,-5.498166666666667,-0.38530000000000003,-0.2653333333333333,-0.004555555555555646,0.036000000000000004,70.58500000000001,0.03520000000000012,0.0703,-0.4039999999999999,100.0,1.0,1.0,217.54333333333335,0.0,0.0,0.0,0.0,0.0,0.0,0.0,9220.9,0.0,55.0,5.0,254.07333333333332,1.0,0.0,0.0,0.0,0.0,0.0,1.0,0.0,1.6529999999999987,1.6529999999999987,0.0,0.0,1.0,55.0,616.79921,10000.0,85.000001,85.000001,85.000001,85.000001,395.0,0.0,0.0,0.0,1.0,166.665,64.026,64.026,46.249,46.249,34.0,-16.66,18.836,-29.356666666666666,31.6725,0.0,1781.56,-0.7199999999999989,100.0,19.153,19.5335,44.501,44.993,0.0,0.0,100.0,0.0,0.0,0.0,0.0,2253.222222222222,2165.0,4210.444444444444,4235.1,308.152,307.92275,314.7475,314.35225,21.944222222222223,20.54865,22.04111111111111,21.5886,314.999998,314.999998,324.999988,324.999988,99.55742857142857,99.5063,99.56605714285715,99.5487,0.09624999999999995,0.03499999999999992,-0.08183333333333331,0.13949999999999996,-0.05833333333333002,-0.06833333333332803,1.5030000000000001,1.4969999999999999,38.152,29.429000000000002,38.757,35.9285,54.473,33.86,59.085,53.14633333333333,52.399,33.086,57.647999999999996,51.470666666666666,51.4925,32.6775,57.4915,50.882333333333335,-0.08850000000000002,0.022499999999999964,0.110615,0.11128500000000001,0.0,220.875,220.9,217.54333333333335,217.54333333333335,0.0,0.0
34,0.0,0.0,0.0,1.0,1.0,0.0,0.0,1.0,0.0,100.0,1.0,1.1856,26.0,0.0,0.0,0.0,59.999996,0.0,26.0,26.0,26.0,26.0,0.06955555555555556,0.28380000000000005,-0.05215,296.86,-2.9014,-2.80525,-1.62015,-1.5238,-159.47,215.42000000000002,190.226375,0.0,0.0,0.0,0.0,0.0691666666666666,-5.498166666666667,-5.498166666666667,-0.41900000000000004,-1.0106666666666666,0.022777777777777786,-0.421,70.738,0.037000000000000144,0.058120000000000005,-0.5220000000000002,100.0,1.0,1.0,217.96333333333334,0.0,0.0,0.0,0.0,0.0,0.0,0.0,9238.6,0.0,55.0,5.0,254.62666666666667,0.0,0.0,0.0,0.0,0.0,0.0,1.0,0.0,1.7070000000000007,1.7070000000000007,0.0,0.0,0.0,55.0,616.79921,10000.0,85.000001,85.000001,85.000001,85.000001,395.0,0.0,0.0,0.0,1.0,166.665,64.346,64.346,46.112,46.112,34.0,-15.690000000000001,19.71,-28.286666666666665,32.1325,0.0,1781.506,-0.6950000000000003,100.0,18.837,19.3055,44.412,45.144000000000005,0.0,0.0,100.0,0.0,0.0,0.0,0.0,2109.222222222222,2255.4,4181.222222222223,4335.4,308.498,307.67025,314.711,314.13025,21.952444444444446,20.5529,22.052,21.5985,314.999998,314.999998,324.999988,324.999988,99.55744285714286,99.50631666666666,99.56621428571428,99.54885714285714,0.10024999999999995,0.030000000000000027,-0.07366666666666666,0.14749999999999996,-0.046666666666666856,-0.061666666666667425,1.483,1.4783333333333335,38.203,29.455666666666666,38.825,35.9905,54.445,33.887,59.1265,53.214333333333336,52.372,33.1105,57.687,51.536,51.4655,32.701,57.527,50.946,-0.08499999999999996,0.02400000000000002,0.10363000000000001,0.11361500000000001,0.0,221.32,221.34,217.96333333333334,217.96333333333334,0.0,0.0
