,ABS Active,ABS Enabled,AID Allow Tire Blankets,AID Auto Blip,AID Auto Clutch,AID Auto Shift,AID Fuel Rate,AID Ideal Line,AID Mech Damage,AID Stability,AID Tire Wear Rate,Air Density,Air Temp,Ballast,Best Lap Delta,Best Lap Time,Brake Bias,Brake Pos,Brake Temp FL,Brake Temp FR,Brake Temp RL,Brake Temp RR,CG Accel Lateral,CG Accel Longitudinal,CG Accel Vertical,CG Height,Camber FL,Camber FR,Camber RL,Camber RR,Car Coord X,Car Coord Y,Car Coord Z,Car Damage Front,Car Damage Left,Car Damage Rear,Car Damage Right,Car Pos Norm,Caster FL,Caster FR,Chassis Pitch Angle,Chassis Pitch Rate,Chassis Roll Angle,Chassis Roll Rate,Chassis Velocity X,Chassis Velocity Y,Chassis Velocity Z,Chassis Yaw Rate,Clutch Pos,DRS Active,DRS Available,Drive Train Speed,ERS Heat Charging,ERS Is Charging,ERS Max Energy,ERS Power Level,ERS Recovery Level,Engine Brake Setting,Engine Limiter,Engine RPM,Flags,Fuel Level,Gear,Ground Speed,HR Sample Clock,In Pit,KERS Charge,KERS Deployed Energy,KERS Input,KERS Max Energy,LR Sample Clock,Lap Invalidated,Lap Time,Lap Time2,Last Lap Time,Last Sector Time,MR Sample Clock,Max Fuel,Max Power,Max RPM,Max Sus Travel FL,Max Sus Travel FR,Max Sus Travel RL,Max Sus Travel RR,Max Torque,Max Turbo Boost,Num Tires Off Track,Penalties Enabled,Position,Raw Data Sample Rate,Ride Height FL,Ride Height FR,Ride Height RL,Ride Height RR,Road Temp,Self Align Torque FL,Self Align Torque FR,Self Align Torque RL,Self Align Torque RR,Session Lap Count,Session Time Left,Steering Angle,Surface Grip,Suspension Travel FL,Suspension Travel FR,Suspension Travel RL,Suspension Travel RR,TC Active,TC Enabled,Throttle Pos,Tire Dirt Level FL,Tire Dirt Level FR,Tire Dirt Level RL,Tire Dirt Level RR,Tire Load FL,Tire Load FR,Tire Load RL,Tire Load RR,Tire Loaded Radius FL,Tire Loaded Radius FR,Tire Loaded Radius RL,Tire Loaded Radius RR,Tire Pressure FL,Tire Pressure FR,Tire Pressure RL,Tire Pressure RR,Tire Radius FL,Tire Radius FR,Tire Radius RL,Tire Radius RR,Tire Rubber Grip FL,Tire Rubber Grip FR,Tire Rubber Grip RL,Tire Rubber Grip RR,Tire Slip Angle FL,Tire Slip Angle FR,Tire Slip Angle RL,Tire Slip Angle RR,Tire Slip Ratio FL,Tire Slip Ratio FR,Tire Slip Ratio RL,Tire Slip Ratio RR,Tire Temp Core FL,Tire Temp Core FR,Tire Temp Core RL,Tire Temp Core RR,Tire Temp Inner FL,Tire Temp Inner FR,Tire Temp Inner RL,Tire Temp Inner RR,Tire Temp Middle FL,Tire Temp Middle FR,Tire Temp Middle RL,Tire Temp Middle RR,Tire Temp Outer FL,Tire Temp Outer FR,Tire Temp Outer RL,Tire Temp Outer RR,Toe In FL,Toe In FR,Toe In RL,Toe In RR,Turbo Boost,Wheel Angular Speed FL,Wheel Angular Speed FR,Wheel Angular Speed RL,Wheel Angular Speed RR,Wind Direction,Wind Speed
0,0.0,0.0,0.0,1.0,1.0,0.0,0.0,1.0,0.0,100.0,1.0,1.1856,26.0,0.0,0.0,0.0,59.99999,0.0,26.0,26.0,26.0,26.0,-0.122,0.3336000000000001,0.1345,298.203,-2.8008,-2.81225,-1.4925000000000002,-1.5982,-275.41,216.255,190.99025,0.0,0.0,0.0,0.0,0.0017666666666665831,-5.498166666666667,-5.498166666666667,-0.33940000000000003,1.659,-0.04587500000000011,-0.9359999999999999,65.489,-0.07010000000000001,0.02142,1.112,100.0,1.0,1.0,202.14,0.0,0.0,0.0,0.0,0.0,0.0,0.0,8568.0,0.0,55.0,5.0,235.7266666666667,0.0,0.0,0.0,0.0,0.0,0.0,0.0,0.0,0.006000000000000227,0.006000000000000227,0.0,0.0,0.0,55.0,616.79921,10000.0,85.0,85.0,85.0,85.0,395.0,0.0,0.0,0.0,1.0,20.0,63.08,63.08,48.309,48.309,34.0,-22.874000000000002,17.854,-33.57333333333334,23.677500000000002,0.0,1783.415,1.0800000000000018,100.0,19.488,18.913,41.579,40.866,0.0,0.0,100.0,0.0,0.0,0.0,0.0,2378.777777777778,2574.6,4319.888888888889,4021.7,307.63366666666667,306.6415,314.3025,314.7925,21.673000000000002,20.4071,21.717222222222222,21.2992,314.99999,314.99999,324.99998,324.99998,99.55737142857143,99.50576666666667,99.56145714285714,99.54401428571428,-0.08725000000000005,-0.12775000000000003,-0.188,0.021166666666666667,-0.07666666666666799,-0.05333333333332746,1.492,1.5245,36.456,28.544,36.733000000000004,34.12,55.394,32.8035,57.765,51.10933333333333,53.268,32.1185,56.417500000000004,49.51533333333333,52.37,31.755499999999998,56.3575,48.968666666666664,0.056499999999999995,-0.11100000000000021,0.10884,0.10601000000000001,0.0,205.235,205.14499999999998,202.14,202.14,0.0,0.0
1,0.0,0.0,0.0,1.0,1.0,0.0,0.0,1.0,0.0,100.0,1.0,1.1856,26.0,0.0,0.0,0.0,59.999996,0.0,26.0,26.0,26.0,26.0,-0.12977777777777777,0.3427,0.149075,297.531,-2.7345,-2.91275,-1.5407000000000002,-1.548,-271.87,216.2525,190.96925,0.0,0.0,0.0,0.0,0.0037999999999999146,-5.498166666666667,-5.498166666666667,-0.2927,-1.2556666666666667,-0.08199999999999985,-1.323,65.669,-0.07495,0.03414,1.4559999999999995,100.0,1.0,1.0,202.41333333333333,0.0,0.0,0.0,0.0,0.0,0.0,0.0,8579.5,0.0,55.0,5.0,236.37333333333333,1.0,0.0,0.0,0.0,0.0,0.0,0.0,0.0,0.05999999999999872,0.05999999999999872,0.0,0.0,1.0,55.0,616.79921,10000.0,85.000001,85.000001,85.000001,85.000001,395.0,0.0,0.0,0.0,1.0,166.665,64.362,64.362,47.455,47.455,34.0,-22.119999999999997,12.202000000000002,-35.33,26.79,0.0,1783.361,1.240000000000002,100.0,19.4225,18.563,43.891,42.442,0.0,0.0,100.0,0.0,0.0,0.0,0.0,2331.222222222222,1877.4,4301.666666666667,4619.5,307.85266666666666,308.907,314.31125,313.06225,21.682333333333332,20.4108,21.728444444444445,21.3089,314.999998,314.999998,324.999988,324.999988,99.55738571428572,99.50576666666667,99.56161428571428,99.54418571428572,-0.09775,-0.15125,-0.202,0.0041666666666666675,-0.054999999999999716,-0.061666666666667425,1.4024999999999999,1.4325,36.515,28.567333333333334,36.803,34.1805,55.369,32.832499999999996,57.817499999999995,51.18266666666666,53.245,32.1455,56.467,49.58533333333334,52.3465,31.7815,56.403999999999996,49.037,0.07450000000000001,-0.13050000000000006,0.10845500000000001,0.10123000000000001,0.0,205.74,205.635,202.41333333333333,202.41333333333333,0.0,0.0
2,0.0,0.0,0.0,1.0,1.0,0.0,0.0,1.0,0.0,100.0,1.0,1.1856,26.0,0.0,0.0,0.0,59.999996,0.0,26.0,26.0,26.0,26.0,-0.1521111111111111,0.3235000000000001,-0.009025,298.111,-2.6991,-2.940625,-1.4784000000000002,-1.6385,-268.72,216.2475,190.9515,0.0,0.0,0.0,0.0,0.005633333333333379,-5.498166666666667,-5.498166666666667,-0.33990000000000004,0.2583333333333333,-0.07299999999999995,1.9060000000000001,65.819,-0.0893,-0.007,1.8499999999999996,100.0,1.0,1.0,203.31666666666666,0.0,0.0,0.0,0.0,0.0,0.0,0.0,8617.8,0.0,55.0,5.0,236.91333333333333,0.0,0.0,0.0,0.0,0.0,0.0,0.0,0.0,0.10800000000000054,0.10800000000000054,0.0,0.0,0.0,55.0,616.79921,10000.0,85.000001,85.000001,85.000001,85.000001,395.0,0.0,0.0,0.0,1.0,333.33500000000004,63.141,63.141,49.24,49.24,34.0,-25.346,14.144,-31.293333333333333,19.885,0.0,1783.312,1.0,100.0,20.169,18.668,43.484,41.79,0.0,0.0,100.0,0.0,0.0,0.0,0.0,2630.3333333333335,2092.4,3858.3333333333335,3780.3,306.82033333333334,308.18125,315.378,315.52975,21.69088888888889,20.414,21.738,21.317,314.999998,314.999998,324.999988,324.999988,99.5574,99.50578333333333,99.56174285714286,99.5443,-0.09299999999999997,-0.14874999999999994,-0.24183333333333334,-0.021,-0.07333333333333059,-0.060000000000002274,1.5695000000000001,1.6615,36.568,28.587666666666664,36.861999999999995,34.231,55.351,32.858000000000004,57.858000000000004,51.236000000000004,53.228,32.169,56.5045,49.63666666666667,52.329499999999996,31.8035,56.439,49.08733333333333,0.050000000000000044,-0.10850000000000026,0.10426500000000001,0.10760000000000002,0.0,206.25,206.06,203.31666666666666,203.31666666666666,0.0,0.0
3,0.0,0.0,0.0,1.0,1.0,0.0,0.0,1.0,0.0,100.0,1.0,1.1856,26.0,0.0,0.0,0.0,59.999996,0.0,26.0,26.0,26.0,26.0,-0.14366666666666666,0.3427,-0.026175,297.867,-2.83785,-2.8265000000000002,-1.509,-1.6145,-265.55,216.2375,190.932875,0.0,0.0,0.0,0.0,0.0074666666666665105,-5.498166666666667,-5.498166666666667,-0.29960000000000003,0.36833333333333335,-0.025374999999999925,-0.806,65.977,-0.10325000000000001,0.037880000000000004,1.2840000000000007,100.0,1.0,1.0,203.48666666666668,0.0,0.0,0.0,0.0,0.0,0.0,0.0,8625.1,0.0,55.0,5.0,237.48333333333335,1.0,0.0,0.0,0.0,0.0,0.0,0.0,0.0,0.1559999999999988,0.1559999999999988,0.0,0.0,1.0,55.0,616.79921,10000.0,85.000001,85.000001,85.000001,85.000001,395.0,0.0,0.0,0.0,1.0,333.33500000000004,64.331,64.331,47.18,47.18,34.0,-19.908,12.754000000000001,-37.013333333333335,24.130000000000003,0.0,1783.263,0.8550000000000004,100.0,19.7215,18.7635,43.33,42.06,0.0,0.0,100.0,0.0,0.0,0.0,0.0,2086.0,1981.1999999999998,4420.0,4299.6,308.4746666666667,308.36925,314.0615,314.12175,21.69911111111111,20.4175,21.747666666666667,21.3253,314.999998,314.999998,324.999988,324.999988,99.5574,99.50578333333333,99.56188571428571,99.54444285714285,-0.08925000000000005,-0.15100000000000002,-0.22516666666666665,-0.012,-0.05333333333332746,-0.04999999999999716,1.447,1.5055,36.619,28.609666666666666,36.923,34.283500000000004,55.329,32.887,57.9,51.298,53.207,32.195,56.544,49.69566666666667,52.308,31.8285,56.4765,49.144999999999996,0.030999999999999917,-0.08899999999999997,0.10100500000000001,0.11137500000000002,0.0,206.72,206.62,203.48666666666668,203.48666666666668,0.0,0.0
4,0.0,0.0,0.0,1.0,1.0,0.0,0.0,1.0,0.0,100.0,1.0,1.1856,26.0,0.0,0.0,0.0,59.999996,0.0,26.0,26.0,26.0,26.0,-0.16366666666666665,0.3015000000000001,-0.026025,298.172,-2.76895,-2.879625,-1.52385,-1.6194000000000002,-262.18,216.2225,190.91325,0.0,0.0,0.0,0.0,0.009433333333333294,-5.498166666666667,-5.498166666666667,-0.3366,-0.7063333333333334,-0.09074999999999989,-0.7070000000000001,66.139,-0.09905,0.0026600000000000005,1.1080000000000005,100.0,1.0,1.0,204.16,0.0,0.0,0.0,0.0,0.0,0.0,0.0,8653.6,0.0,55.0,5.0,238.07,0.0,0.0,0.0,0.0,0.0,0.0,0.0,0.0,0.20700000000000074,0.20700000000000074,0.0,0.0,0.0,55.0,616.79921,10000.0,85.000001,85.000001,85.000001,85.000001,395.0,0.0,0.0,0.0,1.0,166.665,63.828,63.828,48.035,48.035,34.0,-23.352,14.51,-32.91,21.04,0.0,1783.214,0.9050000000000011,100.0,19.593,18.394,43.663,41.992000000000004,0.0,0.0,100.0,0.0,0.0,0.0,0.0,2421.666666666667,2167.6,4095.4444444444443,3736.4,307.5036666666667,307.99425,314.75175,315.52925,21.707666666666668,20.4212,21.758,21.3342,314.999998,314.999998,324.999988,324.999988,99.55741428571429,99.5058,99.56202857142857,99.54458571428572,-0.09299999999999997,-0.14274999999999993,-0.209,0.005833333333333333,-0.05833333333333002,-0.061666666666667425,1.5339999999999998,1.572,36.673,28.632666666666665,36.986999999999995,34.338499999999996,55.303,32.9165,57.9465,51.359,53.183,32.222,56.5875,49.754,52.284,31.8545,56.516999999999996,49.202,0.04200000000000004,-0.09650000000000025,0.10604500000000001,0.10639000000000001,0.0,207.175,207.075,204.16,204.16,0.0,0.0
5,0.0,0.0,0.0,1.0,1.0,0.0,0.0,1.0,0.0,100.0,1.0,1.1856,26.0,0.0,0.0,0.0,59.999996,0.0,26.0,26.0,26.0,26.0,-0.13555555555555554,0.34440000000000004,-0.004775000000000001,298.111,-2.78365,-2.904125,-1.50725,-1.6077,-258.81,216.20499999999998,190.892875,0.0,0.0,0.0,0.0,0.011399999999999966,-5.498166666666667,-5.498166666666667,-0.3239,0.3196666666666667,-0.09675000000000011,-0.1379999999999999,66.303,-0.09820000000000001,0.030780000000000002,1.2080000000000002,100.0,1.0,1.0,204.57333333333332,0.0,0.0,0.0,0.0,0.0,0.0,0.0,8671.1,0.0,55.0,5.0,238.65666666666667,1.0,0.0,0.0,0.0,0.0,0.0,0.0,0.0,0.2579999999999991,0.2579999999999991,0.0,0.0,1.0,55.0,616.79921,10000.0,85.000001,85.000001,85.000001,85.000001,395.0,0.0,0.0,0.0,1.0,333.33500000000004,64.301,64.301,48.004,48.004,34.0,-22.704,13.346,-35.61,22.805,0.0,1783.161,0.4450000000000003,100.0,19.512999999999998,18.3385,43.397,41.789,0.0,0.0,100.0,0.0,0.0,0.0,0.0,2403.5555555555557,1944.6999999999998,4310.111111111111,4112.1,307.63033333333334,308.57825,314.36025,314.6045,21.716444444444445,20.4248,21.76822222222222,21.3429,314.999998,314.999998,324.999988,324.999988,99.55741428571429,99.50581666666666,99.56217142857143,99.54471428571429,-0.07774999999999999,-0.12875000000000003,-0.22633333333333336,-0.0075,-0.04833333333333201,-0.06499999999999773,1.5030000000000001,1.559,36.727999999999994,28.655,37.051,34.393,55.281,32.9445,57.992,51.41866666666667,53.163,32.248,56.629999999999995,49.81133333333334,52.2635,31.878999999999998,56.5565,49.257666666666665,0.013000000000000123,-0.06550000000000011,0.112655,0.11332,0.0,207.71,207.625,204.57333333333332,204.57333333333332,0.0,0.0
6,0.0,0.0,0.0,1.0,1.0,0.0,0.0,1.0,0.0,100.0,1.0,1.1856,26.0,0.0,0.0,0.0,59.999996,0.0,26.0,26.0,26.0,26.0,-0.11088888888888888,0.32299999999999995,-0.003975,298.004,-2.75655,-2.92775,-1.5539,-1.6011000000000002,-255.62,216.1875,190.8735,0.0,0.0,0.0,0.0,0.013266666666666538,-5.498166666666667,-5.498166666666667,-0.3205,0.11133333333333333,-0.07187499999999991,-0.43300000000000005,66.457,-0.09205,0.02808,0.8320000000000007,100.0,1.0,1.0,205.05333333333334,0.0,0.0,0.0,0.0,0.0,0.0,0.0,8691.5,0.0,55.0,5.0,239.21,0.0,0.0,0.0,0.0,0.0,0.0,0.0,0.0,0.30600000000000094,0.30600000000000094,0.0,0.0,0.0,55.0,616.79921,10000.0,85.000001,85.000001,85.000001,85.000001,395.0,0.0,0.0,0.0,1.0,333.33500000000004,64.056,64.056,47.852000000000004,47.852000000000004,34.0,-21.892,14.854000000000001,-34.47,22.605,0.0,1783.113,0.27500000000000213,100.0,19.3615,18.484,43.492000000000004,42.141,0.0,0.0,100.0,0.0,0.0,0.0,0.0,2404.333333333333,2047.0,4205.777777777777,4059.7,307.59133333333335,308.1425,314.6105,314.7325,21.724666666666668,20.4283,21.77788888888889,21.3512,314.999998,314.999998,324.999988,324.999988,99.55742857142857,99.50583333333333,99.56231428571428,99.54485714285714,-0.05274999999999985,-0.11224999999999996,-0.21166666666666667,-0.0035,-0.05666666666667197,-0.06666666666666998,1.508,1.554,36.778999999999996,28.677,37.111999999999995,34.445499999999996,55.257,32.973,58.037,51.48233333333333,53.14,32.274,56.6725,49.872,52.2405,31.904,56.5965,49.317,-0.011499999999999955,-0.046499999999999986,0.10859,0.10815500000000002,0.0,208.17000000000002,208.095,205.05333333333334,205.05333333333334,0.0,0.0
7,0.0,0.0,0.0,1.0,1.0,0.0,0.0,1.0,0.0,100.0,1.0,1.1856,26.0,0.0,0.0,0.0,59.999996,0.0,26.0,26.0,26.0,26.0,-0.08188888888888889,0.31820000000000004,0.043425000000000005,297.836,-2.7241,-2.889625,-1.51465,-1.6431,-252.23,216.1625,190.853125,0.0,0.0,0.0,0.0,0.015233333333333321,-5.498166666666667,-5.498166666666667,-0.32220000000000004,0.10833333333333334,-0.05975000000000019,1.093,66.619,-0.07455,0.02146,0.4060000000000006,100.0,1.0,1.0,205.5233333333333,0.0,0.0,0.0,0.0,0.0,0.0,0.0,8711.4,0.0,55.0,5.0,239.79666666666668,1.0,0.0,0.0,0.0,0.0,0.0,0.0,0.0,0.3569999999999993,0.3569999999999993,0.0,0.0,1.0,55.0,616.79921,10000.0,85.000001,85.000001,85.000001,85.000001,395.0,0.0,0.0,0.0,1.0,166.665,63.828,63.828,47.958,47.958,34.0,-20.204,16.58,-31.396666666666665,25.48,0.0,1783.065,-0.07499999999999929,100.0,19.6145,18.4035,43.568,42.317,0.0,0.0,100.0,0.0,0.0,0.0,0.0,2334.4444444444443,2187.6,4101.777777777777,4126.3,307.567,307.85775,314.75475,314.587,21.733444444444444,20.432,21.788222222222224,21.3602,314.999998,314.999998,324.999988,324.999988,99.55742857142857,99.50583333333333,99.56245714285714,99.54498571428572,-0.014999999999999902,-0.07874999999999999,-0.17766666666666667,0.029166666666666667,-0.05666666666667197,-0.07666666666666799,1.5095,1.522,36.834,28.700333333333333,37.176,34.501,55.233999999999995,32.9985,58.079,51.542,53.118,32.2975,56.712,49.929,52.2185,31.926499999999997,56.632999999999996,49.37266666666667,-0.033499999999999974,-0.020999999999999908,0.10528000000000001,0.0994,0.0,208.66,208.61,205.5233333333333,205.5233333333333,0.0,0.0
8,0.0,0.0,0.0,1.0,1.0,0.0,0.0,1.0,0.0,100.0,1.0,1.1856,26.0,0.0,0.0,0.0,59.999996,0.0,26.0,26.0,26.0,26.0,-0.042888888888888886,0.3225,-0.042550000000000004,298.096,-2.81415,-2.848625,-1.4979,-1.595,-248.82999999999998,216.1375,190.8325,0.0,0.0,0.0,0.0,0.017199999999999993,-5.498166666666667,-5.498166666666667,-0.325,-0.5513333333333333,-0.04437500000000005,-0.42500000000000004,66.781,-0.05355,0.029280000000000004,0.019999999999999574,100.0,1.0,1.0,205.97333333333333,0.0,0.0,0.0,0.0,0.0,0.0,0.0,8730.5,0.0,55.0,5.0,240.38,0.0,0.0,0.0,0.0,0.0,0.0,0.0,0.0,0.40800000000000125,0.40800000000000125,0.0,0.0,0.0,55.0,616.79921,10000.0,85.000001,85.000001,85.000001,85.000001,395.0,0.0,0.0,0.0,1.0,333.33500000000004,64.621,64.621,47.409,47.409,34.0,-18.656,16.060000000000002,-31.21,26.4125,0.0,1783.013,-0.23499999999999943,100.0,19.007,18.432,43.478,42.551,0.0,0.0,100.0,0.0,0.0,0.0,0.0,2195.1111111111113,2097.0,4202.666666666667,4125.8,308.304,308.076,314.548,314.50175,21.741888888888887,20.4357,21.798444444444446,21.3691,314.999998,314.999998,324.999988,324.999988,99.55742857142857,99.50585,99.5626,99.54512857142858,-0.006000000000000005,-0.06174999999999997,-0.1605,0.05516666666666666,-0.045000000000001705,-0.036666666666668846,1.501,1.4855,36.887,28.723333333333336,37.241,34.557,55.205,33.0245,58.124,51.60433333333333,53.091,32.321,56.754,49.98866666666667,52.1915,31.948999999999998,56.672,49.431,-0.04399999999999993,-0.0034999999999998366,0.10343500000000001,0.10542000000000001,0.0,209.13,209.10000000000002,205.97333333333333,205.97333333333333,0.0,0.0
9,0.0,0.0,0.0,1.0,1.0,0.0,0.0,1.0,0.0,100.0,1.0,1.1856,26.0,0.0,0.0,0.0,59.999996,0.0,26.0,26.0,26.0,26.0,-0.02877777777777778,0.3146,-0.009575,297.714,-2.7424,-2.8596250000000003,-1.5565,-1.5762,-245.62,216.11,190.812625,0.0,0.0,0.0,0.0,0.019066666666666565,-5.498166666666667,-5.498166666666667,-0.3269,0.7636666666666666,-0.04300000000000015,-0.3639999999999999,66.931,-0.03365,0.03244,-0.0519999999999996,100.0,1.0,1.0,206.53333333333333,0.0,0.0,0.0,0.0,0.0,0.0,0.0,8754.2,0.0,55.0,5.0,240.91333333333333,1.0,0.0,0.0,0.0,0.0,0.0,0.0,0.0,0.4559999999999995,0.4559999999999995,0.0,0.0,1.0,55.0,616.79921,10000.0,85.000001,85.000001,85.000001,85.000001,395.0,0.0,0.0,0.0,1.0,166.665,63.477,63.477,48.263999999999996,48.263999999999996,34.0,-20.73,17.716,-30.526666666666664,26.512500000000003,0.0,1782.966,-0.4349999999999987,100.0,19.4585,18.8685,43.129,42.552,0.0,0.0,100.0,0.0,0.0,0.0,0.0,2521.777777777778,2168.6,4121.222222222223,4127.2,307.1963333333333,307.776,314.87125,314.5965,21.75011111111111,20.4394,21.808,21.3775,314.999998,314.999998,324.999988,324.999988,99.55742857142857,99.50585,99.56272857142856,99.54527142857143,0.02375000000000016,-0.02949999999999997,-0.1525,0.06883333333333333,-0.06333333333333258,-0.051666666666669414,1.537,1.548,36.938,28.746333333333332,37.3,34.609,55.181,33.0505,58.1625,51.662333333333336,53.069,32.345,56.79,50.044,52.169,31.9715,56.7055,49.485,-0.0615,0.006000000000000005,0.115515,0.10696000000000001,0.0,209.62,209.61,206.53333333333333,206.53333333333333,0.0,0.0
10,0.0,0.0,0.0,1.0,1.0,0.0,0.0,1.0,0.0,100.0,1.0,1.1856,26.0,0.0,0.0,0.0,59.999996,0.0,26.0,26.0,26.0,26.0,0.01,0.31500000000000017,0.052425,297.714,-2.8158,-2.8453749999999998,-1.5371000000000001,-1.5646,-242.2,216.08249999999998,190.791875,0.0,0.0,0.0,0.0,0.021066666666666567,-5.498166666666667,-5.498166666666667,-0.3058,-0.6956666666666667,0.0003750000000000142,1.6910000000000003,67.093,-0.014700000000000001,0.04236,-0.42799999999999905,100.0,1.0,1.0,206.84,0.0,0.0,0.0,0.0,0.0,0.0,0.0,8767.2,0.0,55.0,5.0,241.50333333333333,0.0,0.0,0.0,0.0,0.0,0.0,1.0,0.0,0.5069999999999979,0.5069999999999979,0.0,0.0,0.0,55.0,616.79921,10000.0,85.000001,85.000001,85.000001,85.000001,395.0,0.0,0.0,0.0,1.0,166.665,64.667,64.667,46.829,46.829,34.0,-15.398,17.775999999999996,-30.326666666666664,30.805,0.0,1782.914,-0.6849999999999987,100.0,19.2505,18.5475,43.676,43.206,0.0,0.0,100.0,0.0,0.0,0.0,0.0,1997.6666666666667,2145.4,4285.0,4370.7,308.7436666666667,308.1025,314.2855,313.996,21.758666666666667,20.4432,21.818444444444445,21.3866,314.999998,314.999998,324.999988,324.999988,99.55744285714286,99.50585,99.56287142857143,99.54541428571429,0.05575000000000019,-0.0034999999999999476,-0.11383333333333333,0.10666666666666667,-0.04999999999999716,-0.05833333333333002,1.4525000000000001,1.4475,36.992000000000004,28.77,37.364999999999995,34.6665,55.153999999999996,33.075,58.2085,51.72866666666667,53.043,32.3675,56.833,50.10766666666667,52.1435,31.993499999999997,56.7455,49.547333333333334,-0.07799999999999996,0.023499999999999854,0.10743000000000001,0.10985,0.0,210.09,210.11,206.84,206.84,0.0,0.0
11,0.0,0.0,0.0,1.0,1.0,0.0,0.0,1.0,0.0,100.0,1.0,1.1856,26.0,0.0,0.0,0.0,59.999996,0.0,26.0,26.0,26.0,26.0,0.051222222222222225,0.3198000000000001,-0.112625,298.157,-2.8277,-2.8211250000000003,-1.5906500000000001,-1.5151,-238.76999999999998,216.055,190.771,0.0,0.0,0.0,0.0,0.022599999999999953,-5.498166666666667,-5.498166666666667,-0.34540000000000004,0.017666666666666667,0.02212499999999995,-0.6890000000000001,67.249,0.00385,0.0199,-0.6159999999999997,100.0,1.0,1.0,207.59333333333333,0.0,0.0,0.0,0.0,0.0,0.0,0.0,8799.1,0.0,55.0,5.0,242.06333333333333,1.0,0.0,0.0,0.0,0.0,0.0,1.0,0.0,0.5579999999999998,0.5579999999999998,0.0,0.0,1.0,55.0,616.79921,10000.0,85.000001,85.000001,85.000001,85.000001,395.0,0.0,0.0,0.0,1.0,166.665,64.011,64.011,48.355000000000004,48.355000000000004,34.0,-17.044,19.672,-25.256666666666664,26.865000000000002,0.0,1782.863,-0.8599999999999994,100.0,18.9805,18.981,42.986000000000004,43.144999999999996,0.0,0.0,100.0,0.0,0.0,0.0,0.0,2233.8888888888887,2251.1,3850.777777777778,3953.8,308.13966666666664,307.52875,315.537,315.03375,21.767,20.4471,21.828555555555557,21.3955,314.999998,314.999998,324.999988,324.999988,99.55744285714286,99.50585,99.56301428571429,99.54554285714286,0.07200000000000006,0.021749999999999936,-0.08916666666666667,0.12366666666666667,-0.061666666666667425,-0.06666666666666998,1.6204999999999998,1.5945,37.044,28.794666666666664,37.429,34.722,55.126000000000005,33.102000000000004,58.2475,51.79,53.016999999999996,32.391999999999996,56.8695,50.166666666666664,52.1175,32.016999999999996,56.778999999999996,49.605333333333334,-0.08850000000000002,0.035499999999999865,0.10451500000000001,0.10383500000000001,0.0,210.555,210.57999999999998,207.59333333333333,207.59333333333333,0.0,0.0
12,0.0,0.0,0.0,1.0,1.0,0.0,0.0,1.0,0.0,100.0,1.0,1.1856,26.0,0.0,0.0,0.0,59.999996,0.0,26.0,26.0,26.0,26.0,0.042333333333333334,0.32400000000000007,0.031825,297.44,-2.8403,-2.819875,-1.5591,-1.5507,-235.34,216.0275,190.748875,0.0,0.0,0.0,0.0,0.025466666666666526,-5.498166666666667,-5.498166666666667,-0.3296,0.26,0.010750000000000037,0.782,67.41,0.024050000000000002,0.04514,-0.7400000000000002,100.0,1.0,1.0,207.86666666666667,0.0,0.0,0.0,0.0,0.0,0.0,0.0,8810.8,0.0,55.0,5.0,242.64333333333335,0.0,0.0,0.0,0.0,0.0,0.0,1.0,0.0,0.6089999999999982,0.6089999999999982,0.0,0.0,0.0,55.0,616.79921,10000.0,85.000001,85.000001,85.000001,85.000001,395.0,0.0,0.0,0.0,1.0,166.665,63.782,63.782,46.951,46.951,34.0,-16.714000000000002,21.334,-27.716666666666665,32.185,0.0,1782.812,-0.7899999999999991,100.0,19.072,19.0815,43.192,43.162,0.0,0.0,100.0,0.0,0.0,0.0,0.0,2206.222222222222,2396.8,4238.888888888889,4325.1,308.053,307.2735,314.43425,314.15875,21.775444444444446,20.4511,21.83877777777778,21.4045,314.999998,314.999998,324.999988,324.999988,99.55745714285715,99.50585,99.56315714285714,99.54568571428571,0.0847500000000001,0.03750000000000009,-0.07133333333333333,0.14616666666666667,-0.04999999999999716,-0.05833333333333002,1.5,1.475,37.096000000000004,28.819666666666667,37.492999999999995,34.7785,55.1,33.129999999999995,58.291,51.85333333333333,52.992000000000004,32.418,56.91,50.227666666666664,52.0925,32.0415,56.817,49.66466666666666,-0.08199999999999996,0.03200000000000003,0.10783000000000001,0.105465,0.0,211.065,211.11,207.86666666666667,207.86666666666667,0.0,0.0
13,0.0,0.0,0.0,1.0,1.0,0.0,0.0,1.0,0.0,100.0,1.0,1.1856,26.0,0.0,0.0,0.0,59.999996,0.0,26.0,26.0,26.0,26.0,0.07255555555555555,0.3146,0.053700000000000005,297.211,-2.82,-2.8108750000000002,-1.59375,-1.5559,-232.1,216.0025,190.7285,0.0,0.0,0.0,0.0,0.026933333333333365,-5.498166666666667,-5.498166666666667,-0.3225,-0.03766666666666667,0.01749999999999985,1.1680000000000001,67.559,0.0327,0.036500000000000005,-0.8060000000000009,100.0,1.0,1.0,208.28333333333333,0.0,0.0,0.0,0.0,0.0,0.0,0.0,8828.4,0.0,55.0,5.0,243.18,1.0,0.0,0.0,0.0,0.0,0.0,1.0,0.0,0.657,0.657,0.0,0.0,1.0,55.0,616.79921,10000.0,85.000001,85.000001,85.000001,85.000001,395.0,0.0,0.0,0.0,1.0,166.665,63.69,63.69,47.028,47.028,34.0,-15.605999999999998,21.628,-27.08,33.6075,0.0,1782.764,-1.0449999999999982,100.0,19.276,19.187,43.374,43.650999999999996,0.0,0.0,100.0,0.0,0.0,0.0,0.0,2199.222222222222,2354.0,4198.444444444444,4430.0,308.044,307.402,314.53225,313.89075,21.78333333333333,20.4549,21.848555555555556,21.4132,314.999998,314.999998,324.999988,324.999988,99.55745714285715,99.50586666666666,99.5633,99.54582857142857,0.11825000000000019,0.06550000000000011,-0.05533333333333334,0.1515,-0.03999999999999915,-0.07499999999999574,1.488,1.4505,37.146,28.843333333333334,37.553,34.832499999999996,55.077,33.1575,58.332,51.91566666666667,52.971000000000004,32.4435,56.948,50.287333333333336,52.071,32.066,56.852000000000004,49.723333333333336,-0.10899999999999999,0.05449999999999999,0.10419500000000001,0.10880000000000001,0.0,211.515,211.575,208.28333333333333,208.28333333333333,0.0,0.0
14,0.0,0.0,0.0,1.0,1.0,0.0,0.0,1.0,0.0,100.0,1.0,1.1856,26.0,0.0,0.0,0.0,59.999996,0.0,26.0,26.0,26.0,26.0,0.10133333333333333,0.3157000000000001,-0.020300000000000002,297.592,-2.8569,-2.807125,-1.6054,-1.5265,-228.65,215.98000000000002,190.70725,0.0,0.0,0.0,0.0,0.028933333333333366,-5.498166666666667,-5.498166666666667,-0.3301,-0.10766666666666667,0.046375000000000055,-0.20399999999999996,67.715,0.04445,0.028780000000000003,-0.984,100.0,1.0,1.0,208.85333333333335,0.0,0.0,0.0,0.0,0.0,0.0,0.0,8852.6,0.0,55.0,5.0,243.74,0.0,0.0,0.0,0.0,0.0,0.0,1.0,0.0,0.7079999999999984,0.7079999999999984,0.0,0.0,0.0,55.0,616.79921,10000.0,85.000001,85.000001,85.000001,85.000001,395.0,0.0,0.0,0.0,1.0,333.33500000000004,63.995,63.995,47.287,47.287,34.0,-14.936,21.46,-25.723333333333333,31.09,0.0,1782.712,-1.2149999999999999,100.0,18.8185,19.33,43.174,43.926,0.0,0.0,100.0,0.0,0.0,0.0,0.0,2166.777777777778,2298.0,4038.6666666666665,4225.3,308.35566666666665,307.33225,315.0095,314.3225,21.791666666666668,20.4589,21.858777777777778,21.4224,314.999998,314.999998,324.999988,324.999988,99.55747142857143,99.50586666666666,99.56344285714286,99.54597142857143,0.13224999999999998,0.07024999999999992,-0.05516666666666666,0.14833333333333334,-0.060000000000002274,-0.05333333333332746,1.5314999999999999,1.494,37.198,28.868333333333332,37.617000000000004,34.8895,55.053,33.187,58.373,51.980333333333334,52.948,32.4705,56.9865,50.349333333333334,52.0475,32.092,56.887,49.784,-0.124,0.07299999999999995,0.10669000000000001,0.10196000000000001,0.0,211.99,212.04500000000002,208.85333333333335,208.85333333333335,0.0,0.0
15,0.0,0.0,0.0,1.0,1.0,0.0,0.0,1.0,0.0,100.0,1.0,1.1856,26.0,0.0,0.0,0.0,59.999996,0.0,26.0,26.0,26.0,26.0,0.12922222222222224,0.3057000000000001,-0.059000000000000004,297.623,-2.8724,-2.7658750000000003,-1.6324,-1.5267,-225.4,215.96,190.686875,0.0,0.0,0.0,0.0,0.03083333333333338,-5.498166666666667,-5.498166666666667,-0.3189,0.22433333333333336,0.07587499999999991,-0.5469999999999999,67.862,0.059500000000000004,0.05088,-1.1820000000000004,100.0,1.0,1.0,209.28,0.0,0.0,0.0,0.0,0.0,0.0,0.0,8870.6,0.0,55.0,5.0,244.26999999999998,1.0,0.0,0.0,0.0,0.0,0.0,1.0,0.0,0.7560000000000002,0.7560000000000002,0.0,0.0,1.0,55.0,616.79921,10000.0,85.000001,85.000001,85.000001,85.000001,395.0,0.0,0.0,0.0,1.0,333.33500000000004,64.27,64.27,47.241,47.241,34.0,-13.526,21.284,-25.43,34.3625,0.0,1782.664,-1.245000000000001,100.0,18.734,19.3035,42.896,44.041,0.0,0.0,100.0,0.0,0.0,0.0,0.0,2018.4444444444443,2267.7,4059.777777777778,4396.0,308.78933333333333,307.41425,314.98575,313.85675,21.799444444444443,20.4628,21.868222222222222,21.4309,314.999998,314.999998,324.999988,324.999988,99.55748571428572,99.50588333333333,99.56357142857142,99.54611428571428,0.14400000000000013,0.08424999999999994,-0.03966666666666666,0.17666666666666667,-0.07000000000000028,-0.04833333333333201,1.5314999999999999,1.4725000000000001,37.247,28.892333333333333,37.677,34.9435,55.03,33.216,58.4105,52.041666666666664,52.926,32.497,57.021,50.40866666666666,52.025999999999996,32.117,56.919,49.842,-0.12849999999999995,0.0694999999999999,0.108285,0.109865,0.0,212.45499999999998,212.51999999999998,209.28,209.28,0.0,0.0
16,0.0,0.0,0.0,1.0,1.0,0.0,0.0,1.0,0.0,100.0,1.0,1.1856,26.0,0.0,0.0,0.0,59.999996,0.0,26.0,26.0,26.0,26.0,0.1438888888888889,0.2932000000000001,-0.032975000000000004,297.531,-2.9269,-2.7185,-1.60305,-1.5289000000000001,-221.73,215.94,190.663375,0.0,0.0,0.0,0.0,0.03296666666666659,-5.498166666666667,-5.498166666666667,-0.34450000000000003,-0.5206666666666666,0.0605,-1.189,68.026,0.07565000000000001,0.032260000000000004,-1.2400000000000002,100.0,1.0,1.0,209.82,0.0,0.0,0.0,0.0,0.0,0.0,0.0,8893.5,0.0,55.0,5.0,244.86333333333334,0.0,0.0,0.0,0.0,0.0,0.0,1.0,0.0,0.8099999999999987,0.8099999999999987,0.0,0.0,0.0,55.0,616.79921,10000.0,85.000001,85.000001,85.000001,85.000001,395.0,0.0,0.0,0.0,1.0,166.665,63.736,63.736,47.272,47.272,34.0,-16.244,22.936,-23.476666666666667,32.6475,0.0,1782.611,-1.1400000000000006,100.0,18.4405,19.419,43.077,44.11,0.0,0.0,100.0,0.0,0.0,0.0,0.0,2321.1111111111113,2439.8,3990.6666666666665,4135.8,308.03066666666666,306.9915,315.1285,314.533,21.808,20.4671,21.87911111111111,21.4406,314.999998,314.999998,324.999988,324.999988,99.5575,99.50588333333333,99.56372857142857,99.54627142857143,0.14075000000000015,0.09175,-0.02033333333333333,0.1935,-0.045000000000001705,-0.05666666666667197,1.5554999999999999,1.4969999999999999,37.3,28.919333333333334,37.745000000000005,35.0035,55.001000000000005,33.2495,58.455,52.10966666666667,52.9,32.528,57.063,50.474000000000004,51.999,32.147,56.958,49.906,-0.11199999999999999,0.0605,0.10304,0.10602500000000001,0.0,212.91500000000002,213.01999999999998,209.82,209.82,0.0,0.0
17,0.0,0.0,0.0,1.0,1.0,0.0,0.0,1.0,0.0,100.0,1.0,1.1856,26.0,0.0,0.0,0.0,59.999996,0.0,26.0,26.0,26.0,26.0,0.12655555555555556,0.3340000000000001,0.034050000000000004,297.134,-2.8902,-2.700875,-1.6471,-1.4889000000000001,-218.46,215.925,190.642,0.0,0.0,0.0,0.0,0.0348666666666666,-5.498166666666667,-5.498166666666667,-0.3261,0.4543333333333333,0.042874999999999996,-0.6019999999999999,68.174,0.08125,0.05716,-1.0999999999999996,100.0,1.0,1.0,210.15666666666667,0.0,0.0,0.0,0.0,0.0,0.0,0.0,8907.7,0.0,55.0,5.0,245.39,1.0,0.0,0.0,0.0,0.0,0.0,1.0,0.0,0.8580000000000005,0.8580000000000005,0.0,0.0,1.0,55.0,616.79921,10000.0,85.000001,85.000001,85.000001,85.000001,395.0,0.0,0.0,0.0,1.0,333.33500000000004,63.889,63.889,46.646,46.646,34.0,-15.116,21.102,-27.113333333333333,34.9775,0.0,1782.561,-1.245000000000001,100.0,18.826,19.5665,43.003,44.153999999999996,0.0,0.0,100.0,0.0,0.0,0.0,0.0,2259.1111111111113,2262.4,4424.111111111111,4411.6,308.12833333333333,307.54725,314.1885,313.9295,21.81577777777778,20.471,21.888666666666666,21.4491,314.999998,314.999998,324.999988,324.999988,99.55751428571429,99.5059,99.56385714285715,99.54641428571429,0.1572499999999999,0.09925000000000006,-0.01633333333333333,0.196,-0.06833333333332803,-0.054999999999999716,1.5074999999999998,1.4449999999999998,37.349000000000004,28.944,37.804,35.057,54.980000000000004,33.2805,58.494,52.17066666666666,52.879999999999995,32.5565,57.099000000000004,50.532666666666664,51.979,32.174,56.991,49.96366666666667,-0.12249999999999994,0.06400000000000006,0.105325,0.10976500000000002,0.0,213.425,213.485,210.15666666666667,210.15666666666667,0.0,0.0
18,0.0,0.0,0.0,1.0,1.0,0.0,0.0,1.0,0.0,100.0,1.0,1.1856,26.0,0.0,0.0,0.0,59.999996,0.0,26.0,26.0,26.0,26.0,0.13566666666666666,0.31530000000000014,0.007050000000000001,297.043,-2.9223,-2.671875,-1.6657000000000002,-1.4321000000000002,-214.98000000000002,215.9125,190.619625,0.0,0.0,0.0,0.0,0.03689999999999993,-5.498166666666667,-5.498166666666667,-0.3401,-0.36733333333333335,0.07274999999999987,0.935,68.327,0.08125,0.0371,-1.3420000000000005,100.0,1.0,1.0,210.66666666666669,0.0,0.0,0.0,0.0,0.0,0.0,0.0,8929.5,0.0,55.0,5.0,245.94666666666666,0.0,0.0,0.0,0.0,0.0,0.0,1.0,0.0,0.9089999999999989,0.9089999999999989,0.0,0.0,0.0,55.0,616.79921,10000.0,85.000001,85.000001,85.000001,85.000001,395.0,0.0,0.0,0.0,1.0,166.665,63.492,63.492,46.6,46.6,34.0,-14.274000000000001,25.496000000000002,-24.806666666666665,33.96,0.0,1782.513,-1.5799999999999983,100.0,18.78,19.439,43.363,44.467,0.0,0.0,100.0,0.0,0.0,0.0,0.0,2196.666666666667,2618.0,4109.222222222223,4363.2,308.18066666666664,306.62225,314.83525,314.088,21.823888888888888,20.4752,21.899,21.4584,314.999998,314.999998,324.999988,324.999988,99.55752857142858,99.5059,99.56401428571428,99.54655714285714,0.18100000000000005,0.13000000000000012,-0.010666666666666666,0.20516666666666666,-0.041666666666671404,-0.07000000000000028,1.5314999999999999,1.486,37.399,28.97,37.869,35.115,54.956,33.313,58.536,52.23733333333333,52.857,32.5865,57.138,50.596666666666664,51.956,32.203,57.027,50.02633333333333,-0.14400000000000002,0.09099999999999997,0.11177500000000001,0.101745,0.0,213.84,213.945,210.66666666666669,210.66666666666669,0.0,0.0
19,0.0,0.0,0.0,1.0,1.0,0.0,0.0,1.0,0.0,100.0,1.0,1.1856,26.0,0.0,0.0,0.0,59.999996,0.0,26.0,26.0,26.0,26.0,0.17033333333333334,0.3237000000000001,0.07075000000000001,296.753,-2.84125,-2.7765,-1.5992000000000002,-1.4165,-211.69,215.905,190.59825,0.0,0.0,0.0,0.0,0.038799999999999946,-5.498166666666667,-5.498166666666667,-0.32330000000000003,0.8240000000000001,0.08325000000000005,0.9929999999999999,68.47200000000001,0.09095,0.055260000000000004,-1.7320000000000002,100.0,1.0,1.0,211.05666666666667,0.0,0.0,0.0,0.0,0.0,0.0,0.0,8946.0,0.0,55.0,5.0,246.46666666666667,1.0,0.0,0.0,0.0,0.0,0.0,1.0,0.0,0.9570000000000007,0.9570000000000007,0.0,0.0,1.0,55.0,616.79921,10000.0,85.000001,85.000001,85.000001,85.000001,395.0,0.0,0.0,0.0,1.0,333.33500000000004,63.446,63.446,46.432,46.432,34.0,-12.219999999999999,24.996000000000002,-23.409999999999997,37.44,0.0,1782.463,-1.9349999999999987,100.0,19.1895,19.832,43.144999999999996,44.512,0.0,0.0,100.0,0.0,0.0,0.0,0.0,2078.4444444444443,2443.2,4230.0,4659.9,308.386,306.95025,314.493,313.42325,21.831555555555557,20.4792,21.908444444444445,21.467,314.999998,314.999998,324.999988,324.999988,99.55754285714286,99.50591666666666,99.56414285714285,99.5467,0.21024999999999983,0.14949999999999997,0.01633333333333333,0.21866666666666665,-0.04833333333333201,-0.07166666666666544,1.499,1.439,37.448,28.994999999999997,37.928,35.169,54.937,33.3475,58.573,52.29933333333334,52.839,32.618,57.1725,50.656333333333336,51.9375,32.2335,57.0585,50.08533333333333,-0.17299999999999993,0.11399999999999988,0.095795,0.10587,0.0,214.335,214.445,211.05666666666667,211.05666666666667,0.0,0.0
20,0.0,0.0,0.0,1.0,1.0,0.0,0.0,1.0,0.0,100.0,1.0,1.1856,26.0,0.0,0.0,0.0,59.999996,0.0,26.0,26.0,26.0,26.0,0.19655555555555554,0.28290000000000015,-0.0849,297.272,-2.953,-2.71675,-1.6138,-1.5305,-208.2,215.9,190.575875,0.0,0.0,0.0,0.0,0.04083333333333339,-5.498166666666667,-5.498166666666667,-0.3361,-1.1813333333333333,0.08762500000000006,-0.853,68.625,0.1067,0.038680000000000006,-1.8039999999999994,100.0,1.0,1.0,211.53333333333333,0.0,0.0,0.0,0.0,0.0,0.0,0.0,8966.1,0.0,55.0,5.0,247.01999999999998,0.0,0.0,0.0,0.0,0.0,0.0,0.0,0.0,1.0079999999999991,1.0079999999999991,0.0,0.0,0.0,55.0,616.79921,10000.0,85.000001,85.000001,85.000001,85.000001,395.0,0.0,0.0,0.0,1.0,166.665,64.301,64.301,46.341,46.341,34.0,-12.868000000000002,22.626,-22.883333333333333,36.1775,0.0,1782.413,-1.259999999999998,100.0,18.424,19.6035,43.486000000000004,45.074,0.0,0.0,100.0,0.0,0.0,0.0,0.0,2014.7777777777778,2336.2,4103.0,4267.9,308.89633333333336,307.29175,314.8205,314.14875,21.839444444444446,20.4834,21.918888888888887,21.4763,314.999998,314.999998,324.999988,324.999988,99.55755714285715,99.50593333333333,99.5643,99.54685714285715,0.18199999999999994,0.121,0.013666666666666666,0.22933333333333336,-0.04999999999999716,-0.03833333333332689,1.501,1.4405000000000001,37.495999999999995,29.021,37.992999999999995,35.227000000000004,54.911,33.3815,58.6165,52.36666666666667,52.815,32.6495,57.213499999999996,50.721333333333334,51.913,32.2635,57.096000000000004,50.149,-0.13449999999999995,0.08000000000000007,0.11039500000000001,0.10593500000000002,0.0,214.74,214.86,211.53333333333333,211.53333333333333,0.0,0.0
21,0.0,0.0,0.0,1.0,1.0,0.0,0.0,1.0,0.0,100.0,1.0,1.1856,26.0,0.0,0.0,0.0,59.999996,0.0,26.0,26.0,26.0,26.0,0.16544444444444445,0.31610000000000005,-0.053525,297.409,-2.9191,-2.721125,-1.66995,-1.4983,-204.89999999999998,215.9,190.553875,0.0,0.0,0.0,0.0,0.0427333333333334,-5.498166666666667,-5.498166666666667,-0.3501,0.616,0.06174999999999997,-1.177,68.766,0.11665,0.0507,-1.2039999999999997,100.0,1.0,1.0,212.11333333333334,0.0,0.0,0.0,0.0,0.0,0.0,0.0,8990.7,0.0,55.0,5.0,247.52333333333334,1.0,0.0,0.0,0.0,0.0,0.0,0.0,0.0,1.056000000000001,1.056000000000001,0.0,0.0,1.0,55.0,616.79921,10000.0,85.000001,85.000001,85.000001,85.000001,395.0,0.0,0.0,0.0,1.0,333.33500000000004,63.889,63.889,47.104,47.104,34.0,-15.817999999999998,21.394,-23.519999999999996,33.8625,0.0,1782.365,-0.3249999999999993,100.0,18.636499999999998,19.677,42.906,44.58,0.0,0.0,100.0,0.0,0.0,0.0,0.0,2207.5555555555557,2340.6,4141.444444444444,4155.8,308.2916666666667,307.282,314.8835,314.57875,21.84711111111111,20.4874,21.92822222222222,21.4848,314.999998,314.999998,324.999988,324.999988,99.55757142857144,99.50595,99.56442857142856,99.54698571428571,0.12475000000000014,0.07275000000000009,0.013833333333333335,0.22816666666666666,-0.05833333333333002,-0.051666666666669414,1.5699999999999998,1.534,37.544,29.046333333333333,38.052,35.28,54.888999999999996,33.4135,58.6515,52.425333333333334,52.793,32.679,57.2455,50.77766666666667,51.891,32.292,57.125,50.20433333333333,-0.05699999999999994,0.0040000000000000036,0.11079000000000001,0.10509500000000001,0.0,215.24,215.32999999999998,212.11333333333334,212.11333333333334,0.0,0.0
22,0.0,0.0,0.0,1.0,1.0,0.0,0.0,1.0,0.0,100.0,1.0,1.1856,26.0,0.0,0.0,0.0,59.999996,0.0,26.0,26.0,26.0,26.0,0.099,0.3178000000000001,-0.004525,297.043,-2.83955,-2.7885,-1.6557,-1.4968,-201.39,215.905,190.53,0.0,0.0,0.0,0.0,0.04479999999999995,-5.498166666666667,-5.498166666666667,-0.3296,-0.10466666666666667,0.061124999999999874,0.6590000000000003,68.92,0.09275,0.06612000000000001,-0.2240000000000002,100.0,1.0,1.0,212.4,0.0,0.0,0.0,0.0,0.0,0.0,0.0,9002.8,0.0,55.0,5.0,248.07999999999998,0.0,0.0,0.0,0.0,0.0,0.0,0.0,0.0,1.1069999999999993,1.1069999999999993,0.0,0.0,0.0,55.0,616.79921,10000.0,85.000001,85.000001,85.000001,85.000001,395.0,0.0,0.0,0.0,1.0,333.33500000000004,64.331,64.331,46.051,46.051,34.0,-14.298000000000002,19.88,-26.169999999999998,35.3925,0.0,1782.312,0.379999999999999,100.0,18.8555,19.475,43.613,44.796,0.0,0.0,100.0,0.0,0.0,0.0,0.0,1914.2222222222222,2298.5,4274.333333333333,4474.4,308.909,307.51975,314.4205,313.79525,21.85511111111111,20.4916,21.938666666666666,21.4941,314.999998,314.999998,324.999988,324.999988,99.55758571428571,99.50595,99.56457142857143,99.54715714285715,0.08099999999999996,0.024499999999999966,-0.011333333333333334,0.1905,-0.03999999999999915,-0.06499999999999773,1.4735,1.454,37.595,29.072333333333333,38.116,35.338499999999996,54.86,33.443,58.698,52.49633333333333,52.766999999999996,32.708,57.289,50.846000000000004,51.866,32.319,57.165,50.271,0.0015000000000000568,-0.05549999999999988,0.10612500000000001,0.10434500000000001,0.0,215.73000000000002,215.765,212.4,212.4,0.0,0.0
23,0.0,0.0,0.0,1.0,1.0,0.0,0.0,1.0,0.0,100.0,1.0,1.1856,26.0,0.0,0.0,0.0,59.999996,0.0,26.0,26.0,26.0,26.0,0.042333333333333334,0.2845,-0.07145,297.104,-2.84735,-2.760875,-1.68225,-1.4982,-197.87,215.9125,190.506625,0.0,0.0,0.0,0.0,0.04683333333333339,-5.498166666666667,-5.498166666666667,-0.34850000000000003,0.03,0.029874999999999874,-1.092,69.069,0.0468,0.04308,0.6539999999999999,100.0,1.0,1.0,213.00666666666666,0.0,0.0,0.0,0.0,0.0,0.0,0.0,9028.6,0.0,55.0,5.0,248.61666666666667,1.0,0.0,0.0,0.0,0.0,0.0,0.0,0.0,1.1580000000000013,1.1580000000000013,0.0,0.0,1.0,55.0,616.79921,10000.0,85.000001,85.000001,85.000001,85.000001,395.0,0.0,0.0,0.0,1.0,166.665,63.538,63.538,47.119,47.119,34.0,-19.672,18.016,-28.669999999999998,28.7025,0.0,1782.263,0.6350000000000016,100.0,19.141,19.5165,43.721000000000004,44.763000000000005,0.0,0.0,100.0,0.0,0.0,0.0,0.0,2381.1111111111113,2242.8,4131.222222222223,4068.7,307.69233333333335,307.556,314.91175,314.82025,21.863333333333333,20.4958,21.948888888888888,21.5033,314.999998,314.999998,324.999988,324.999988,99.55758571428571,99.50595,99.56471428571429,99.5473,0.03500000000000014,-0.02400000000000002,-0.07966666666666668,0.14233333333333334,-0.054999999999999716,-0.04999999999999716,1.5299999999999998,1.5505,37.646,29.098333333333336,38.181,35.396,54.835,33.471000000000004,58.736000000000004,52.556333333333335,52.742999999999995,32.732,57.3245,50.903999999999996,51.84,32.3425,57.1975,50.327666666666666,0.020499999999999963,-0.07799999999999985,0.10722500000000001,0.10701500000000001,0.0,216.24,216.17000000000002,213.00666666666666,213.00666666666666,0.0,0.0
24,0.0,0.0,0.0,1.0,1.0,0.0,0.0,1.0,0.0,100.0,1.0,1.1856,26.0,0.0,0.0,0.0,59.999996,0.0,26.0,26.0,26.0,26.0,-0.021111111111111112,0.30090000000000017,-0.09367500000000001,297.363,-2.84745,-2.79725,-1.54905,-1.5486,-194.34,215.92000000000002,190.482375,0.0,0.0,0.0,0.0,0.048866666666666614,-5.498166666666667,-5.498166666666667,-0.3564,-0.847,0.01749999999999985,0.4889999999999999,69.221,0.00030000000000000003,0.05634,0.8599999999999994,100.0,1.0,1.0,213.35333333333335,0.0,0.0,0.0,0.0,0.0,0.0,0.0,9043.3,0.0,55.0,5.0,249.16333333333336,0.0,0.0,0.0,0.0,0.0,0.0,0.0,0.0,1.2089999999999996,1.2089999999999996,0.0,0.0,0.0,55.0,616.79921,10000.0,85.000001,85.000001,85.000001,85.000001,395.0,0.0,0.0,0.0,1.0,166.665,64.774,64.774,46.219,46.219,34.0,-16.89,15.968,-30.599999999999998,28.262500000000003,0.0,1782.21,0.6900000000000013,100.0,18.9775,18.945,44.2,44.425,0.0,0.0,100.0,0.0,0.0,0.0,0.0,1996.3333333333333,2119.4,4271.111111111111,4214.7,308.768,308.14375,314.35775,314.448,21.871444444444442,20.4996,21.959222222222223,21.5125,314.999998,314.999998,324.999988,324.999988,99.55758571428571,99.50596666666667,99.56487142857142,99.54744285714285,0.0015000000000000568,-0.05725000000000002,-0.11766666666666667,0.09166666666666667,-0.05833333333333002,-0.05333333333332746,1.464,1.4975,37.696,29.122666666666667,38.245,35.453,54.804,33.4965,58.7795,52.61866666666667,52.714,32.7555,57.365,50.96366666666667,51.812,32.365,57.235,50.38633333333333,0.028999999999999915,-0.08050000000000024,0.109475,0.10462,0.0,216.70499999999998,216.615,213.35333333333335,213.35333333333335,0.0,0.0
25,0.0,0.0,0.0,1.0,1.0,0.0,0.0,1.0,0.0,100.0,1.0,1.1856,26.0,0.0,0.0,0.0,59.999996,0.0,26.0,26.0,26.0,26.0,-0.07611111111111112,0.2916000000000001,-0.02725,297.058,-2.8789,-2.7876250000000002,-1.57095,-1.5764,-191.01999999999998,215.925,190.45825,0.0,0.0,0.0,0.0,0.050799999999999956,-5.498166666666667,-5.498166666666667,-0.3831,0.298,-0.008750000000000036,-0.631,69.35900000000001,-0.034300000000000004,0.05184,1.017999999999999,100.0,1.0,1.0,213.91666666666669,0.0,0.0,0.0,0.0,0.0,0.0,0.0,9067.2,0.0,55.0,5.0,249.66,1.0,0.0,0.0,0.0,0.0,0.0,0.0,0.0,1.256999999999998,1.256999999999998,0.0,0.0,1.0,55.0,616.79921,10000.0,85.000001,85.000001,85.000001,85.000001,395.0,0.0,0.0,0.0,1.0,166.665,63.293,63.293,47.012,47.012,34.0,-22.881999999999998,18.104,-30.41,25.905,0.0,1782.164,0.8399999999999999,100.0,19.2905,19.1085,44.007,43.893,0.0,0.0,100.0,0.0,0.0,0.0,0.0,2477.1111111111113,2471.3,4088.5555555555557,4074.8,307.38366666666667,307.1105,314.927,314.8045,21.87911111111111,20.5035,21.968777777777778,21.5209,314.999998,314.999998,324.999988,324.999988,99.55758571428571,99.50596666666667,99.565,99.54758571428572,-0.030750000000000055,-0.08550000000000002,-0.14683333333333334,0.06566666666666668,-0.036666666666668846,-0.06833333333332803,1.513,1.561,37.744,29.14666666666667,38.305,35.506,54.778,33.524,58.8165,52.67433333333334,52.689,32.781,57.3995,51.01733333333333,51.787,32.388999999999996,57.266999999999996,50.43833333333333,0.038000000000000034,-0.09650000000000025,0.10915000000000001,0.10228500000000001,0.0,217.14,217.07,213.91666666666669,213.91666666666669,0.0,0.0
26,0.0,0.0,0.0,1.0,1.0,0.0,0.0,1.0,0.0,100.0,1.0,1.1856,26.0,0.0,0.0,0.0,59.999996,0.0,26.0,26.0,26.0,26.0,-0.10144444444444445,0.31289999999999996,0.054200000000000005,296.036,-2.8086,-2.892125,-1.6,-1.5961,-187.48000000000002,215.93,190.432375,0.0,0.0,0.0,0.0,0.052866666666666506,-5.498166666666667,-5.498166666666667,-0.33640000000000003,0.4103333333333333,-0.053999999999999826,-0.986,69.512,-0.05885,0.08138,1.1240000000000006,100.0,1.0,1.0,214.07666666666665,0.0,0.0,0.0,0.0,0.0,0.0,0.0,9074.0,0.0,55.0,5.0,250.21,0.0,0.0,0.0,0.0,0.0,0.0,0.0,0.0,1.3079999999999998,1.3079999999999998,0.0,0.0,0.0,55.0,616.79921,10000.0,85.000001,85.000001,85.000001,85.000001,395.0,0.0,0.0,0.0,1.0,333.33500000000004,63.614,63.614,44.922,44.922,34.0,-21.43,14.54,-40.25333333333333,28.59,0.0,1782.111,0.6999999999999993,100.0,19.985,19.475,45.012,44.342,0.0,0.0,100.0,0.0,0.0,0.0,0.0,2352.777777777778,2018.1999999999998,4818.888888888889,4567.9,307.7273333333333,308.247,313.212,313.5625,21.887555555555554,20.5075,21.979333333333333,21.5302,314.999998,314.999998,324.999988,324.999988,99.5576,99.50596666666667,99.56515714285715,99.54772857142858,-0.04049999999999998,-0.10849999999999993,-0.18016666666666667,0.029833333333333333,-0.060000000000002274,-0.04999999999999716,1.3820000000000001,1.421,37.797,29.172,38.371,35.564,54.754000000000005,33.5545,58.8645,52.73833333333333,52.667,32.809,57.4445,51.07866666666666,51.763999999999996,32.416,57.3085,50.498333333333335,0.021500000000000075,-0.08349999999999991,0.10927,0.10634500000000001,0.0,217.655,217.56,214.07666666666665,214.07666666666665,0.0,0.0
27,0.0,0.0,0.0,1.0,1.0,0.0,0.0,1.0,0.0,100.0,1.0,1.1856,26.0,0.0,0.0,0.0,59.999996,0.0,26.0,26.0,26.0,26.0,-0.08155555555555556,0.27500000000000013,-0.047150000000000004,296.814,-2.7679,-2.865875,-1.5811000000000002,-1.6684999999999999,-184.14,215.9325,190.409375,0.0,0.0,0.0,0.0,0.05479999999999996,-5.498166666666667,-5.498166666666667,-0.37370000000000003,-1.0053333333333334,-0.057250000000000245,-0.575,69.649,-0.07350000000000001,0.030680000000000002,1.0600000000000005,100.0,1.0,1.0,214.71,0.0,0.0,0.0,0.0,0.0,0.0,0.0,9100.8,0.0,55.0,5.0,250.70666666666665,1.0,0.0,0.0,0.0,0.0,0.0,0.0,0.0,1.355999999999998,1.355999999999998,0.0,0.0,1.0,55.0,616.79921,10000.0,85.000001,85.000001,85.000001,85.000001,395.0,0.0,0.0,0.0,1.0,166.665,63.751,63.751,46.143,46.143,34.0,-22.025999999999996,14.952,-33.60666666666667,24.925,0.0,1782.066,0.629999999999999,100.0,19.652,19.161,45.318,44.504999999999995,0.0,0.0,100.0,0.0,0.0,0.0,0.0,2412.1111111111113,2123.7,4147.888888888889,3975.7,307.719,307.95,314.71375,314.94175,21.895222222222223,20.5112,21.989333333333335,21.538899999999998,314.999998,314.999998,324.999988,324.999988,99.5576,99.50598333333333,99.5653,99.54787142857143,-0.05600000000000005,-0.119,-0.192,0.030833333333333334,-0.060000000000002274,-0.04333333333332945,1.4905,1.522,37.845,29.195,38.433,35.6185,54.727999999999994,33.581,58.908,52.79633333333334,52.643,32.833,57.4855,51.13433333333333,51.7405,32.439,57.3465,50.55233333333333,0.014499999999999957,-0.08199999999999985,0.103885,0.11292500000000001,0.0,218.015,217.925,214.71,214.71,0.0,0.0
28,0.0,0.0,0.0,1.0,1.0,0.0,0.0,1.0,0.0,100.0,1.0,1.1856,26.0,0.0,0.0,0.0,59.999996,0.0,26.0,26.0,26.0,26.0,-0.11933333333333333,0.2962,-0.054700000000000006,296.921,-2.7821,-2.85625,-1.55675,-1.6059,-180.57999999999998,215.9325,190.383625,0.0,0.0,0.0,0.0,0.05686666666666651,-5.498166666666667,-5.498166666666667,-0.3664,0.75,-0.06237499999999985,0.5750000000000002,69.79599999999999,-0.08170000000000001,0.07064,0.9139999999999997,100.0,1.0,1.0,215.18333333333334,0.0,0.0,0.0,0.0,0.0,0.0,0.0,9120.8,0.0,55.0,5.0,251.23000000000002,0.0,0.0,0.0,0.0,0.0,0.0,0.0,0.0,1.407,1.407,0.0,0.0,0.0,55.0,616.79921,10000.0,85.000001,85.000001,85.000001,85.000001,395.0,0.0,0.0,0.0,1.0,333.33500000000004,64.011,64.011,46.31,46.31,34.0,-20.357999999999997,15.097999999999999,-35.03666666666666,25.5225,0.0,1782.012,0.4400000000000013,100.0,19.8875,18.864,44.839,43.868,0.0,0.0,100.0,0.0,0.0,0.0,0.0,2228.333333333333,2121.6,4339.555555555556,4226.3,307.9393333333333,308.12325,314.39625,314.504,21.903444444444446,20.5152,21.999444444444443,21.5479,314.999998,314.999998,324.999988,324.999988,99.55761428571428,99.50598333333333,99.56545714285714,99.54801428571429,-0.04675000000000007,-0.10449999999999993,-0.19433333333333336,0.02666666666666667,-0.05333333333332746,-0.07499999999999574,1.491,1.516,37.897,29.219666666666665,38.497,35.6745,54.704,33.61,58.948499999999996,52.855000000000004,52.620000000000005,32.86,57.5235,51.190333333333335,51.717,32.4645,57.3815,50.607,0.009500000000000064,-0.06450000000000022,0.10590000000000001,0.10926000000000001,0.0,218.51999999999998,218.445,215.18333333333334,215.18333333333334,0.0,0.0
29,0.0,0.0,0.0,1.0,1.0,0.0,0.0,1.0,0.0,100.0,1.0,1.1856,26.0,0.0,0.0,0.0,59.999996,0.0,26.0,26.0,26.0,26.0,-0.09388888888888888,0.2904,0.005325,296.707,-2.7329499999999998,-2.915,-1.52535,-1.6123,-177.01999999999998,215.93,190.357,0.0,0.0,0.0,0.0,0.05896666666666661,-5.498166666666667,-5.498166666666667,-0.3789,-0.7396666666666667,-0.06625000000000014,-0.698,69.944,-0.07765,0.06006,0.734,100.0,1.0,1.0,215.52666666666667,0.0,0.0,0.0,0.0,0.0,0.0,0.0,9135.4,0.0,55.0,5.0,251.76999999999998,1.0,0.0,0.0,0.0,0.0,0.0,0.0,0.0,1.4579999999999984,1.4579999999999984,0.0,0.0,1.0,55.0,616.79921,10000.0,85.000001,85.000001,85.000001,85.000001,395.0,0.0,0.0,0.0,1.0,333.33500000000004,63.919,63.919,46.051,46.051,34.0,-22.195999999999998,14.954,-34.75333333333333,25.5875,0.0,1781.962,0.40000000000000213,100.0,19.5055,18.877,45.182,44.254999999999995,0.0,0.0,100.0,0.0,0.0,0.0,0.0,2448.5555555555557,2067.0,4320.222222222223,4204.2,307.54966666666667,308.08625,314.347,314.40675,21.911555555555555,20.519,22.009999999999998,21.5572,314.999998,314.999998,324.999988,324.999988,99.55761428571428,99.506,99.5656,99.54815714285715,-0.05274999999999985,-0.11349999999999993,-0.194,0.02266666666666667,-0.04833333333333201,-0.04999999999999716,1.4505,1.4685000000000001,37.947,29.243666666666666,38.562,35.7325,54.676,33.6375,58.995,52.91766666666667,52.595,32.885,57.567,51.25033333333333,51.6915,32.4885,57.422,50.665333333333336,0.0020000000000000018,-0.05549999999999988,0.10884500000000001,0.10304,0.0,218.91500000000002,218.845,215.52666666666667,215.52666666666667,0.0,0.0
30,0.0,0.0,0.0,1.0,1.0,0.0,0.0,1.0,0.0,100.0,1.0,1.1856,26.0,0.0,0.0,0.0,59.999996,0.0,26.0,26.0,26.0,26.0,-0.097,0.28790000000000004,0.00035,296.158,-2.74505,-2.9045,-1.59355,-1.5373999999999999,-173.45,215.925,190.330375,0.0,0.0,0.0,0.0,0.061033333333333384,-5.498166666666667,-5.498166666666667,-0.3624,0.978,-0.061875000000000124,1.193,70.089,-0.06995,0.07336000000000001,0.5920000000000005,100.0,1.0,1.0,216.00333333333333,0.0,0.0,0.0,0.0,0.0,0.0,0.0,9155.6,0.0,55.0,5.0,252.29000000000002,0.0,0.0,0.0,0.0,0.0,0.0,1.0,0.0,1.5090000000000003,1.5090000000000003,0.0,0.0,0.0,55.0,616.79921,10000.0,85.000001,85.000001,85.000001,85.000001,395.0,0.0,0.0,0.0,1.0,166.665,62.943,62.943,45.578,45.578,34.0,-20.878,17.298000000000002,-36.013333333333335,25.692500000000003,0.0,1781.912,0.26500000000000057,100.0,20.525,19.389,45.214,44.178,0.0,0.0,100.0,0.0,0.0,0.0,0.0,2368.222222222222,2309.1,4487.555555555556,4273.7,307.509,307.63,314.059,314.517,21.92,20.5232,22.020333333333333,21.5664,314.999998,314.999998,324.999988,324.999988,99.55761428571428,99.50601666666667,99.56577142857142,99.54831428571428,-0.020499999999999963,-0.08999999999999997,-0.17350000000000002,0.0425,-0.04999999999999716,-0.05666666666667197,1.463,1.491,38.0,29.27,38.626999999999995,35.79,54.653999999999996,33.6685,59.038,52.977666666666664,52.573,32.9135,57.607,51.308,51.67,32.516,57.459,50.721666666666664,-0.014000000000000012,-0.05449999999999999,0.106935,0.10934500000000001,0.0,219.42000000000002,219.35500000000002,216.00333333333333,216.00333333333333,0.0,0.0
31,0.0,0.0,0.0,1.0,1.0,0.0,0.0,1.0,0.0,100.0,1.0,1.1856,26.0,0.0,0.0,0.0,59.999996,0.0,26.0,26.0,26.0,26.0,-0.07311111111111111,0.2925,0.011600000000000001,295.975,-2.85395,-2.7796250000000002,-1.5466,-1.6625,-170.07999999999998,215.91750000000002,190.30625,0.0,0.0,0.0,0.0,0.06299999999999994,-5.498166666666667,-5.498166666666667,-0.36100000000000004,-0.7146666666666667,-0.05287500000000023,0.7520000000000002,70.22800000000001,-0.05575,0.05636000000000001,0.33000000000000007,100.0,1.0,1.0,216.32666666666665,0.0,0.0,0.0,0.0,0.0,0.0,0.0,9169.3,0.0,55.0,5.0,252.79000000000002,1.0,0.0,0.0,0.0,0.0,0.0,1.0,0.0,1.5569999999999986,1.5569999999999986,0.0,0.0,1.0,55.0,616.79921,10000.0,85.000001,85.000001,85.000001,85.000001,395.0,0.0,0.0,0.0,1.0,333.33500000000004,63.232,63.232,44.907,44.907,34.0,-20.93,17.756,-33.57,29.73,0.0,1781.863,0.19000000000000128,100.0,19.9925,19.389499999999998,45.663,44.859,0.0,0.0,100.0,0.0,0.0,0.0,0.0,2340.333333333333,2413.8,4407.444444444444,4393.2,307.80533333333335,307.3475,314.1,314.0685,21.927555555555557,20.527,22.030333333333335,21.5753,314.999998,314.999998,324.999988,324.999988,99.55761428571428,99.50601666666667,99.5659,99.54845714285715,-0.018999999999999906,-0.07724999999999993,-0.14816666666666667,0.057833333333333334,-0.036666666666668846,-0.051666666666669414,1.4289999999999998,1.446,38.047,29.293666666666667,38.69,35.8455,54.626999999999995,33.696,59.083,53.038333333333334,52.548,32.9385,57.6495,51.36633333333333,51.644999999999996,32.54,57.4985,50.778,-0.015499999999999958,-0.04400000000000004,0.10470000000000002,0.116125,0.0,219.78,219.755,216.32666666666665,216.32666666666665,0.0,0.0
32,0.0,0.0,0.0,1.0,1.0,0.0,0.0,1.0,0.0,100.0,1.0,1.1856,26.0,0.0,0.0,0.0,59.999996,0.0,26.0,26.0,26.0,26.0,-0.06477777777777777,0.3026,-0.032625,296.509,-2.76525,-2.8875,-1.5500500000000001,-1.6379000000000001,-166.28,215.905,190.27875,0.0,0.0,0.0,0.0,0.06519999999999992,-5.498166666666667,-5.498166666666667,-0.3754,0.079,-0.07325000000000026,0.2869999999999999,70.38,-0.04485,0.05682000000000001,0.2840000000000007,100.0,1.0,1.0,216.88333333333333,0.0,0.0,0.0,0.0,0.0,0.0,0.0,9192.8,0.0,55.0,5.0,253.33666666666664,0.0,0.0,0.0,0.0,0.0,0.0,1.0,0.0,1.6110000000000007,1.6110000000000007,0.0,0.0,0.0,55.0,616.79921,10000.0,85.000001,85.000001,85.000001,85.000001,395.0,0.0,0.0,0.0,1.0,166.665,63.766,63.766,45.868,45.868,34.0,-18.854,16.549999999999997,-31.366666666666664,29.3925,0.0,1781.81,0.08500000000000085,100.0,19.911,19.3235,45.199,44.614000000000004,0.0,0.0,100.0,0.0,0.0,0.0,0.0,2219.777777777778,2138.8,4253.666666666667,4303.8,307.996,308.0275,314.4725,314.1975,21.936,20.5313,22.041222222222224,21.585,314.999998,314.999998,324.999988,324.999988,99.55762857142857,99.50603333333333,99.56605714285715,99.5486,0.0007500000000000284,-0.06399999999999995,-0.13633333333333333,0.07050000000000001,-0.046666666666666856,-0.054999999999999716,1.476,1.4615,38.1,29.320666666666668,38.757999999999996,35.906,54.598,33.726,59.1265,53.10166666666667,52.521,32.966499999999996,57.6905,51.427,51.6175,32.566,57.536,50.83733333333333,-0.025000000000000022,-0.03849999999999998,0.10409,0.11490000000000002,0.0,220.29000000000002,220.24,216.88333333333333,216.88333333333333,0.0,0.0
33,0.0,0.0,0.0,1.0,1.0,0.0,0.0,1.0,0.0,100.0,1.0,1.1856,26.0,0.0,0.0,0.0,59.999996,0.0,26.0,26.0,26.0,26.0,-0.052333333333333336,0.27880000000000016,-0.08195000000000001,296.738,-2.8185,-2.842625,-1.5566499999999999,-1.6432,-162.89999999999998,215.89499999999998,190.25325,0.0,0.0,0.0,0.0,0.0671666666666666,-5.498166666666667,-5.498166666666667,-0.383,-0.4676666666666667,-0.06062499999999993,1.298,70.515,-0.03735,0.07118,0.2699999999999996,100.0,1.0,1.0,217.29666666666668,0.0,0.0,0.0,0.0,0.0,0.0,0.0,9210.4,0.0,55.0,5.0,253.82666666666665,1.0,0.0,0.0,0.0,0.0,0.0,1.0,0.0,1.658999999999999,1.658999999999999,0.0,0.0,1.0,55.0,616.79921,10000.0,85.000001,85.000001,85.000001,85.000001,395.0,0.0,0.0,0.0,1.0,166.665,64.117,64.117,46.112,46.112,34.0,-18.754,16.119999999999997,-31.536666666666665,29.067500000000003,0.0,1781.761,-0.030000000000001137,100.0,19.6455,19.0215,45.152,44.626000000000005,0.0,0.0,100.0,0.0,0.0,0.0,0.0,2226.666666666667,2112.9,4204.888888888889,4255.0,308.07933333333335,308.23275,314.58675,314.3575,21.943555555555555,20.5349,22.051000000000002,21.5937,314.999998,314.999998,324.999988,324.999988,99.55762857142857,99.50603333333333,99.56621428571428,99.54875714285714,0.013250000000000206,-0.056499999999999995,-0.14483333333333334,0.07283333333333333,-0.04333333333332945,-0.06499999999999773,1.4619999999999997,1.48,38.147,29.343333333333334,38.819,35.960499999999996,54.571,33.749,59.1665,53.159,52.495999999999995,32.9875,57.728,51.482,51.5925,32.5865,57.570499999999996,50.89066666666667,-0.03649999999999998,-0.027000000000000135,0.11052500000000001,0.11016000000000001,0.0,220.68,220.655,217.29666666666668,217.29666666666668,0.0,0.0
34,0.0,0.0,0.0,1.0,1.0,0.0,0.0,1.0,0.0,100.0,1.0,1.1856,26.0,0.0,0.0,0.0,59.999996,0.0,26.0,26.0,26.0,26.0,-0.037111111111111116,0.2892000000000001,-0.120025,297.104,-2.851,-2.7898750000000003,-1.62845,-1.5671,-159.3,215.8825,190.22475,0.0,0.0,0.0,0.0,0.06923333333333337,-5.498166666666667,-5.498166666666667,-0.4189,-0.8893333333333334,-0.02737500000000015,-0.20599999999999996,70.658,-0.027200000000000002,0.0608,0.1479999999999997,100.0,1.0,1.0,217.74666666666667,0.0,0.0,0.0,0.0,0.0,0.0,0.0,9229.4,0.0,55.0,5.0,254.34,0.0,0.0,0.0,0.0,0.0,0.0,1.0,0.0,1.7100000000000009,1.7100000000000009,0.0,0.0,0.0,55.0,616.79921,10000.0,85.000001,85.000001,85.000001,85.000001,395.0,0.0,0.0,0.0,1.0,166.665,64.743,64.743,46.265,46.265,34.0,-17.142,15.792,-31.706666666666663,27.615000000000002,0.0,1781.711,-0.134999999999998,100.0,19.152,18.8715,44.835,44.721000000000004,0.0,0.0,100.0,0.0,0.0,0.0,0.0,2078.5555555555557,2053.1,4211.444444444444,4240.4,308.57866666666666,308.2265,314.699,314.39375,21.951444444444444,20.5388,22.061333333333334,21.602899999999998,314.999998,314.999998,324.999988,324.999988,99.55762857142857,99.50603333333333,99.56635714285714,99.5489,0.023499999999999854,-0.04574999999999996,-0.13416666666666666,0.06933333333333333,-0.04333333333332945,-0.061666666666667425,1.4979999999999998,1.492,38.196,29.367666666666665,38.882999999999996,36.0185,54.541,33.7735,59.2065,53.22033333333333,52.468,33.01,57.7655,51.541,51.564499999999995,32.608000000000004,57.605000000000004,50.948,-0.041999999999999926,-0.01650000000000018,0.10722000000000001,0.10604000000000001,0.0,221.10500000000002,221.085,217.74666666666667,217.74666666666667,0.0,0.0
35,0.0,0.0,0.0,1.0,1.0,0.0,0.0,1.0,0.0,100.0,1.0,1.1856,26.0,0.0,0.0,0.0,59.999996,0.0,26.0,26.0,26.0,26.0,0.0004444444444444444,0.2761,-0.0495,296.89,-2.8197,-2.808,-1.5734,-1.5638,-155.91,215.87,190.195875,0.0,0.0,0.0,0.0,0.07123333333333337,-5.498166666666667,-5.498166666666667,-0.4486,0.16966666666666666,-0.050875000000000004,-1.3980000000000001,70.791,-0.0158,0.06572000000000001,-0.02999999999999936,100.0,1.0,1.0,218.26,0.0,0.0,0.0,0.0,0.0,0.0,0.0,9251.2,0.0,55.0,5.0,254.82,1.0,0.0,0.0,0.0,0.0,0.0,1.0,0.0,1.7579999999999991,1.7579999999999991,0.0,0.0,1.0,55.0,616.79921,10000.0,85.000001,85.000001,85.000001,85.000001,395.0,0.0,0.0,0.0,1.0,333.33500000000004,63.705,63.705,46.066,46.066,34.0,-19.33,19.034,-29.63,27.137500000000003,0.0,1781.661,0.004999999999999005,100.0,19.0805,19.34,44.626,44.233000000000004,0.0,0.0,100.0,0.0,0.0,0.0,0.0,2320.666666666667,2360.0,4139.666666666667,4059.4,307.929,307.12,314.905,314.93375,21.958777777777776,20.5428,22.070888888888888,21.6115,314.999998,314.999998,324.999988,324.999988,99.55762857142857,99.50605,99.5665,99.54902857142856,0.02024999999999988,-0.04074999999999995,-0.1245,0.094,-0.05666666666667197,-0.060000000000002274,1.5265,1.5305,38.242999999999995,29.392333333333333,38.943,36.0715,54.513,33.7995,59.2435,53.274,52.441,33.034,57.8,51.592666666666666,51.538,32.631,57.6365,50.998333333333335,-0.02749999999999997,-0.02950000000000008,0.110335,0.11165000000000001,0.0,221.51999999999998,221.515,218.26,218.26,0.0,0.0
