,ABS Active,ABS Enabled,AID Allow Tire Blankets,AID Auto Blip,AID Auto Clutch,AID Auto Shift,AID Fuel Rate,AID Ideal Line,AID Mech Damage,AID Stability,AID Tire Wear Rate,Air Density,Air Temp,Ballast,Best Lap Delta,Best Lap Time,Brake Bias,Brake Pos,Brake Temp FL,Brake Temp FR,Brake Temp RL,Brake Temp RR,CG Accel Lateral,CG Accel Longitudinal,CG Accel Vertical,CG Height,Camber FL,Camber FR,Camber RL,Camber RR,Car Coord X,Car Coord Y,Car Coord Z,Car Damage Front,Car Damage Left,Car Damage Rear,Car Damage Right,Car Pos Norm,Caster FL,Caster FR,Chassis Pitch Angle,Chassis Pitch Rate,Chassis Roll Angle,Chassis Roll Rate,Chassis Velocity X,Chassis Velocity Y,Chassis Velocity Z,Chassis Yaw Rate,Clutch Pos,DRS Active,DRS Available,Drive Train Speed,ERS Heat Charging,ERS Is Charging,ERS Max Energy,ERS Power Level,ERS Recovery Level,Engine Brake Setting,Engine Limiter,Engine RPM,Flags,Fuel Level,Gear,Ground Speed,HR Sample Clock,In Pit,KERS Charge,KERS Deployed Energy,KERS Input,KERS Max Energy,LR Sample Clock,Lap Invalidated,Lap Time,Lap Time2,Last Lap Time,Last Sector Time,MR Sample Clock,Max Fuel,Max Power,Max RPM,Max Sus Travel FL,Max Sus Travel FR,Max Sus Travel RL,Max Sus Travel RR,Max Torque,Max Turbo Boost,Num Tires Off Track,Penalties Enabled,Position,Raw Data Sample Rate,Ride Height FL,Ride Height FR,Ride Height RL,Ride Height RR,Road Temp,Self Align Torque FL,Self Align Torque FR,Self Align Torque RL,Self Align Torque RR,Session Lap Count,Session Time Left,Steering Angle,Surface Grip,Suspension Travel FL,Suspension Travel FR,Suspension Travel RL,Suspension Travel RR,TC Active,TC Enabled,Throttle Pos,Tire Dirt Level FL,Tire Dirt Level FR,Tire Dirt Level RL,Tire Dirt Level RR,Tire Load FL,Tire Load FR,Tire Load RL,Tire Load RR,Tire Loaded Radius FL,Tire Loaded Radius FR,Tire Loaded Radius RL,Tire Loaded Radius RR,Tire Pressure FL,Tire Pressure FR,Tire Pressure RL,Tire Pressure RR,Tire Radius FL,Tire Radius FR,Tire Radius RL,Tire Radius RR,Tire Rubber Grip FL,Tire Rubber Grip FR,Tire Rubber Grip RL,Tire Rubber Grip RR,Tire Slip Angle FL,Tire Slip Angle FR,Tire Slip Angle RL,Tire Slip Angle RR,Tire Slip Ratio FL,Tire Slip Ratio FR,Tire Slip Ratio RL,Tire Slip Ratio RR,Tire Temp Core FL,Tire Temp Core FR,Tire Temp Core RL,Tire Temp Core RR,Tire Temp Inner FL,Tire Temp Inner FR,Tire Temp Inner RL,Tire Temp Inner RR,Tire Temp Middle FL,Tire Temp Middle FR,Tire Temp Middle RL,Tire Temp Middle RR,Tire Temp Outer FL,Tire Temp Outer FR,Tire Temp Outer RL,Tire Temp Outer RR,Toe In FL,Toe In FR,Toe In RL,Toe In RR,Turbo Boost,Wheel Angular Speed FL,Wheel Angular Speed FR,Wheel Angular Speed RL,Wheel Angular Speed RR,Wind Direction,Wind Speed
0,0.0,0.0,0.0,1.0,1.0,0.0,0.0,1.0,0.0,100.0,1.0,1.1856,26.0,0.0,0.0,0.0,59.99999,0.0,26.0,26.0,26.0,26.0,-0.026000000000000023,0.3487,0.16995000000000002,297.043,-2.89355,-2.732375,-1.5633,-1.5171000000000001,-275.69,215.35750000000002,190.9915,0.0,0.0,0.0,0.0,0.0015666666666666667,-5.498166666666667,-5.498166666666667,-0.3765,3.3533333333333335,-0.0026250000000000995,0.31199999999999983,65.43299999999999,-0.033,-0.010933333333333333,-0.11799999999999855,100.0,1.0,1.0,202.0,0.0,0.0,0.0,0.0,0.0,0.0,0.0,8562.1,0.0,55.0,5.0,235.5233333333333,0.0,0.0,0.0,0.0,0.0,0.0,0.0,0.0,0.0030000000000001137,0.0030000000000001137,0.0,0.0,0.0,55.0,616.79921,10000.0,85.0,85.0,85.0,85.0,395.0,0.0,0.0,0.0,1.0,20.0,60.242,60.242,47.989,47.989,34.0,-24.259999999999998,29.123333333333335,-30.446666666666665,27.0275,0.0,1783.403,0.22500000000000142,100.0,20.1765,20.0375,40.97,40.499,0.0,0.0,100.0,0.0,0.0,0.0,0.0,2641.8888888888887,3577.4,4174.1,4271.1,306.59933333333333,303.681,314.717,314.306,21.694555555555556,20.4103,21.7106,21.2995,314.99999,314.99999,324.99998,324.99998,99.55854285714285,99.50585,99.56085714285715,99.54385714285715,-0.005249999999999977,-0.04699999999999993,-0.13949999999999996,0.07466666666666666,-0.05833333333333002,-0.07166666666666544,1.5273333333333334,1.53,36.591,28.564333333333334,36.691,34.1215,55.763,32.848,57.549,51.077666666666666,53.598,32.1595,56.205,49.486000000000004,52.6725,31.795,56.14,48.94,-0.02400000000000002,-0.04499999999999993,0.11030000000000001,0.10790000000000001,0.0,205.035,205.025,202.0,202.0,0.0,0.0
1,0.0,0.0,0.0,1.0,1.0,0.0,0.0,1.0,0.0,100.0,1.0,1.1856,26.0,0.0,0.0,0.0,59.999996,0.0,26.0,26.0,26.0,26.0,-0.0494444444444444,0.3446,0.182475,296.341,-2.7555,-2.81675,-1.61995,-1.5441,-272.35,215.365,190.97175,0.0,0.0,0.0,0.0,0.0035333333333333336,-5.498166666666667,-5.498166666666667,-0.25,-1.825,-0.04562500000000025,-0.278,65.60900000000001,-0.0217,0.0767,0.4140000000000015,100.0,1.0,1.0,201.86333333333334,0.0,0.0,0.0,0.0,0.0,0.0,0.0,8556.3,0.0,55.0,5.0,236.15666666666667,1.0,0.0,0.0,0.0,0.0,0.0,0.0,0.0,0.053999999999998494,0.053999999999998494,0.0,0.0,1.0,55.0,616.79921,10000.0,85.000001,85.000001,85.000001,85.000001,395.0,0.0,0.0,0.0,1.0,333.33500000000004,65.14,65.14,45.41,45.41,34.0,-15.294,10.716666666666669,-39.306666666666665,40.4675,0.0,1783.354,0.4299999999999997,100.0,19.5515,19.2815,43.815,44.248999999999995,0.0,0.0,100.0,0.0,0.0,0.0,0.0,1894.2222222222222,1558.8,4938.7,5752.200000000001,309.2296666666667,309.934,312.5515,310.62425,21.703,20.4138,21.7214,21.3089,314.999998,314.999998,324.999988,324.999988,99.55854285714285,99.50586666666666,99.561,99.544,-0.004249999999999976,-0.07950000000000002,-0.1263333333333334,0.07133333333333325,-0.02499999999999858,-0.03499999999999659,1.271,1.282,36.644,28.586333333333336,36.759,34.1805,55.730999999999995,32.8725,57.605000000000004,51.152,53.568,32.182,56.2575,49.557,52.6425,31.816499999999998,56.189499999999995,49.00933333333333,0.0,-0.06450000000000022,0.10589000000000001,0.10654500000000001,0.0,205.505,205.485,201.86333333333334,201.86333333333334,0.0,0.0
2,0.0,0.0,0.0,1.0,1.0,0.0,0.0,1.0,0.0,100.0,1.0,1.1856,26.0,0.0,0.0,0.0,59.999996,0.0,26.0,26.0,26.0,26.0,-0.07099999999999995,0.33030000000000004,-0.227575,298.035,-2.7777,-2.776125,-1.5761,-1.53,-268.8,215.3725,190.951875,0.0,0.0,0.0,0.0,0.0056,-5.498166666666667,-5.498166666666667,-0.3774,1.248,-0.014000000000000234,2.13,65.767,-0.0261,-0.03758333333333334,0.766,100.0,1.0,1.0,203.44333333333333,0.0,0.0,0.0,0.0,0.0,0.0,0.0,8623.3,0.0,55.0,5.0,236.7266666666667,0.0,0.0,0.0,0.0,0.0,0.0,0.0,0.0,0.10800000000000054,0.10800000000000054,0.0,0.0,0.0,55.0,616.79921,10000.0,85.000001,85.000001,85.000001,85.000001,395.0,0.0,0.0,0.0,1.0,166.665,62.073,62.073,49.652,49.652,34.0,-23.067999999999998,17.94833333333333,-25.5,19.2325,0.0,1783.301,0.5,100.0,20.3275,19.6215,42.696,42.454,0.0,0.0,100.0,0.0,0.0,0.0,0.0,2548.8888888888887,2407.6,3585.6,3432.1,306.901,306.949,316.10775,316.429,21.712555555555554,20.4178,21.7319,21.3177,314.999998,314.999998,324.999988,324.999988,99.55854285714285,99.50588333333333,99.56114285714285,99.54414285714286,-0.02474999999999994,-0.08150000000000002,-0.15916666666666657,0.057666666666666755,-0.060000000000002274,-0.07499999999999574,1.7426666666666666,1.8094999999999999,36.703,28.611333333333334,36.824,34.2355,55.705,32.902,57.646,51.206,53.543,32.2085,56.295500000000004,49.609,52.6175,31.8425,56.2245,49.06,0.007000000000000117,-0.07350000000000012,0.107895,0.09952000000000001,0.0,206.015,205.97,203.44333333333333,203.44333333333333,0.0,0.0
3,0.0,0.0,0.0,1.0,1.0,0.0,0.0,1.0,0.0,100.0,1.0,1.1856,26.0,0.0,0.0,0.0,59.999996,0.0,26.0,26.0,26.0,26.0,-0.06688888888888889,0.3488,0.155975,297.119,-2.80785,-2.7952500000000002,-1.5674000000000001,-1.4896,-265.84,215.3775,190.933625,0.0,0.0,0.0,0.0,0.0073,-5.498166666666667,-5.498166666666667,-0.28550000000000003,0.783,0.01200000000000001,-1.3319999999999999,65.923,-0.037700000000000004,0.06165,0.548,100.0,1.0,1.0,203.18,0.0,0.0,0.0,0.0,0.0,0.0,0.0,8612.1,0.0,55.0,5.0,237.2866666666667,1.0,0.0,0.0,0.0,0.0,0.0,0.0,0.0,0.1529999999999987,0.1529999999999987,0.0,0.0,1.0,55.0,616.79921,10000.0,85.000001,85.000001,85.000001,85.000001,395.0,0.0,0.0,0.0,1.0,166.665,64.026,64.026,46.143,46.143,34.0,-16.722,15.158333333333331,-36.21333333333333,30.2275,0.0,1783.255,0.7050000000000018,100.0,19.7795,19.47,42.983000000000004,42.962,0.0,0.0,100.0,0.0,0.0,0.0,0.0,1961.0,2136.2,4643.4,4660.6,308.965,308.00475,313.4725,313.15325,21.720222222222223,20.42125,21.7409,21.3257,314.999998,314.999998,324.999988,324.999988,99.55854285714285,99.50588333333333,99.56127142857143,99.54427142857143,-0.023249999999999993,-0.09524999999999995,-0.14833333333333332,0.07066666666666666,-0.04833333333333201,-0.04833333333333201,1.3683333333333334,1.391,36.751000000000005,28.632666666666665,36.879999999999995,34.2855,55.679,32.9285,57.6865,51.26833333333333,53.519,32.233000000000004,56.3335,49.66866666666667,52.5935,31.866,56.26,49.119,0.016999999999999904,-0.08300000000000018,0.11135,0.11168000000000002,0.0,206.54000000000002,206.51,203.18,203.18,0.0,0.0
4,0.0,0.0,0.0,1.0,1.0,0.0,0.0,1.0,0.0,100.0,1.0,1.1856,26.0,0.0,0.0,0.0,59.999996,0.0,26.0,26.0,26.0,26.0,-0.06966666666666665,0.31400000000000006,0.01365,297.684,-2.793,-2.8611250000000004,-1.504,-1.6073,-262.47,215.38,190.9145,0.0,0.0,0.0,0.0,0.009266666666666668,-5.498166666666667,-5.498166666666667,-0.3236,-1.1376666666666668,-0.045250000000000234,-0.5220000000000002,66.083,-0.0422,0.0038833333333333337,0.9559999999999995,100.0,1.0,1.0,203.93333333333334,0.0,0.0,0.0,0.0,0.0,0.0,0.0,8644.1,0.0,55.0,5.0,237.86666666666667,0.0,0.0,0.0,0.0,0.0,0.0,0.0,0.0,0.20400000000000063,0.20400000000000063,0.0,0.0,0.0,55.0,616.79921,10000.0,85.000001,85.000001,85.000001,85.000001,395.0,0.0,0.0,0.0,1.0,333.33500000000004,63.568,63.568,47.76,47.76,34.0,-22.07,14.658333333333331,-30.00333333333333,24.2425,0.0,1783.202,0.8099999999999987,100.0,19.607,19.1835,43.78,43.158,0.0,0.0,100.0,0.0,0.0,0.0,0.0,2413.666666666667,2069.2,4073.3,3875.8,307.615,308.226,314.87675,315.15175,21.72888888888889,20.42485,21.7513,21.334600000000002,314.999998,314.999998,324.999988,324.999988,99.55854285714285,99.50588333333333,99.56141428571429,99.5444,-0.05025000000000002,-0.10624999999999996,-0.16100000000000003,0.052999999999999936,-0.054999999999999716,-0.060000000000002274,1.5233333333333334,1.5505,36.806,28.65533333333333,36.946,34.341499999999996,55.650999999999996,32.955,57.735,51.330666666666666,53.492,32.2575,56.3785,49.72833333333333,52.567,31.889,56.3025,49.17733333333334,0.033500000000000085,-0.09450000000000003,0.10020000000000001,0.10328000000000001,0.0,206.97,206.91,203.93333333333334,203.93333333333334,0.0,0.0
5,0.0,0.0,0.0,1.0,1.0,0.0,0.0,1.0,0.0,100.0,1.0,1.1856,26.0,0.0,0.0,0.0,59.999996,0.0,26.0,26.0,26.0,26.0,-0.09488888888888891,0.33089999999999997,-0.07765,297.943,-2.7639,-2.8446249999999997,-1.5528,-1.5894,-259.1,215.3825,190.89475,0.0,0.0,0.0,0.0,0.011233333333333333,-5.498166666666667,-5.498166666666667,-0.3297,0.749,-0.02925000000000022,0.6709999999999998,66.245,-0.0625,0.0178,0.9620000000000015,100.0,1.0,1.0,204.50666666666666,0.0,0.0,0.0,0.0,0.0,0.0,0.0,8668.3,0.0,55.0,5.0,238.44666666666666,1.0,0.0,0.0,0.0,0.0,0.0,0.0,0.0,0.254999999999999,0.254999999999999,0.0,0.0,1.0,55.0,616.79921,10000.0,85.000001,85.000001,85.000001,85.000001,395.0,0.0,0.0,0.0,1.0,166.665,63.782,63.782,48.004,48.004,34.0,-19.768,15.303333333333333,-30.803333333333335,24.4225,0.0,1783.153,0.5899999999999999,100.0,19.6755,19.122,43.351,42.464,0.0,0.0,100.0,0.0,0.0,0.0,0.0,2213.1111111111113,2132.6,4001.5,4054.3,307.9703333333333,308.018,315.0795,314.83525,21.73777777777778,20.42865,21.761400000000002,21.3433,314.999998,314.999998,324.999988,324.999988,99.55855714285714,99.5059,99.56155714285714,99.54454285714286,-0.03749999999999998,-0.09875,-0.1798333333333334,0.03933333333333322,-0.060000000000002274,-0.07499999999999574,1.538,1.576,36.861000000000004,28.679000000000002,37.007999999999996,34.3955,55.625,32.983000000000004,57.777,51.39066666666667,53.468,32.283500000000004,56.418,49.785666666666664,52.543,31.914,56.339,49.233000000000004,0.010000000000000231,-0.07650000000000023,0.1062,0.11497500000000001,0.0,207.535,207.43,204.50666666666666,204.50666666666666,0.0,0.0
6,0.0,0.0,0.0,1.0,1.0,0.0,0.0,1.0,0.0,100.0,1.0,1.1856,26.0,0.0,0.0,0.0,59.999996,0.0,26.0,26.0,26.0,26.0,-0.10877777777777786,0.3340000000000001,-0.06407500000000001,297.729,-2.7999,-2.8907499999999997,-1.50205,-1.5737,-255.91,215.38,190.87525,0.0,0.0,0.0,0.0,0.0131,-5.498166666666667,-5.498166666666667,-0.3176,-0.30233333333333334,-0.046499999999999986,0.2450000000000001,66.401,-0.0673,0.037983333333333334,0.8100000000000005,100.0,1.0,1.0,204.79666666666668,0.0,0.0,0.0,0.0,0.0,0.0,0.0,8680.5,0.0,55.0,5.0,239.00666666666666,0.0,0.0,0.0,0.0,0.0,0.0,0.0,0.0,0.3030000000000008,0.3030000000000008,0.0,0.0,0.0,55.0,616.79921,10000.0,85.000001,85.000001,85.000001,85.000001,395.0,0.0,0.0,0.0,1.0,166.665,64.148,64.148,47.424,47.424,34.0,-21.162,14.14333333333333,-32.88333333333333,25.4125,0.0,1783.105,0.45500000000000185,100.0,19.3815,18.818,43.594,42.668,0.0,0.0,100.0,0.0,0.0,0.0,0.0,2293.4444444444443,2002.1999999999998,4255.1,4203.3,307.8383333333333,308.48125,314.37225,314.41725,21.74588888888889,20.432,21.771,21.3517,314.999998,314.999998,324.999988,324.999988,99.55855714285714,99.5059,99.56168571428572,99.54467142857143,-0.05499999999999994,-0.10924999999999996,-0.1798333333333334,0.03600000000000003,-0.03333333333333144,-0.04999999999999716,1.4856666666666665,1.514,36.912,28.7,37.069,34.448499999999996,55.599000000000004,33.0075,57.820499999999996,51.45166666666667,53.444,32.306,56.4585,49.844,52.5185,31.935000000000002,56.376999999999995,49.290333333333336,0.01750000000000007,-0.07050000000000001,0.106675,0.10725000000000001,0.0,207.985,207.91,204.79666666666668,204.79666666666668,0.0,0.0
7,0.0,0.0,0.0,1.0,1.0,0.0,0.0,1.0,0.0,100.0,1.0,1.1856,26.0,0.0,0.0,0.0,59.999996,0.0,26.0,26.0,26.0,26.0,-0.06477777777777782,0.3238000000000001,0.0021750000000000003,297.699,-2.7981,-2.8945,-1.5514999999999999,-1.6238000000000001,-252.52,215.3775,190.854625,0.0,0.0,0.0,0.0,0.015066666666666666,-5.498166666666667,-5.498166666666667,-0.3235,0.2583333333333333,-0.04487500000000022,-0.399,66.561,-0.0724,0.02721666666666667,0.6899999999999995,100.0,1.0,1.0,205.36333333333334,0.0,0.0,0.0,0.0,0.0,0.0,0.0,8704.6,0.0,55.0,5.0,239.58333333333331,1.0,0.0,0.0,0.0,0.0,0.0,0.0,0.0,0.3539999999999992,0.3539999999999992,0.0,0.0,1.0,55.0,616.79921,10000.0,85.000001,85.000001,85.000001,85.000001,395.0,0.0,0.0,0.0,1.0,333.33500000000004,63.828,63.828,47.516,47.516,34.0,-21.54,15.741666666666667,-33.6,23.997500000000002,0.0,1783.053,0.03500000000000014,100.0,19.5005,18.91,43.553,42.718,0.0,0.0,100.0,0.0,0.0,0.0,0.0,2426.0,2056.5,4263.2,4021.7,307.6143333333333,308.1205,314.48225,314.80375,21.754666666666665,20.4358,21.7812,21.360599999999998,314.999998,314.999998,324.999988,324.999988,99.55857142857143,99.5059,99.56184285714286,99.54482857142857,-0.02774999999999994,-0.07350000000000001,-0.18499999999999994,0.02100000000000013,-0.06499999999999773,-0.04833333333333201,1.51,1.536,36.967,28.723666666666666,37.132999999999996,34.5035,55.574,33.0355,57.8655,51.513666666666666,53.42,32.3315,56.501,49.903333333333336,52.495,31.9595,56.416,49.348333333333336,-0.030000000000000027,-0.020999999999999908,0.10508,0.10477500000000001,0.0,208.515,208.41500000000002,205.36333333333334,205.36333333333334,0.0,0.0
8,0.0,0.0,0.0,1.0,1.0,0.0,0.0,1.0,0.0,100.0,1.0,1.1856,26.0,0.0,0.0,0.0,59.999996,0.0,26.0,26.0,26.0,26.0,-0.06499999999999995,0.31930000000000014,-0.014325000000000001,297.897,-2.7852,-2.84025,-1.5594000000000001,-1.6211,-249.13,215.3725,190.83425,0.0,0.0,0.0,0.0,0.017033333333333334,-5.498166666666667,-5.498166666666667,-0.31880000000000003,-0.012666666666666666,-0.034499999999999975,0.36499999999999977,66.72200000000001,-0.0646,0.03015,0.25400000000000134,100.0,1.0,1.0,205.84333333333333,0.0,0.0,0.0,0.0,0.0,0.0,0.0,8725.0,0.0,55.0,5.0,240.16666666666669,0.0,0.0,0.0,0.0,0.0,0.0,0.0,0.0,0.40500000000000114,0.40500000000000114,0.0,0.0,0.0,55.0,616.79921,10000.0,85.000001,85.000001,85.000001,85.000001,395.0,0.0,0.0,0.0,1.0,333.33500000000004,64.285,64.285,47.287,47.287,34.0,-18.669999999999998,16.673333333333332,-31.473333333333333,25.642500000000002,0.0,1783.001,-0.05000000000000071,100.0,19.2115,18.5905,43.653,42.764,0.0,0.0,100.0,0.0,0.0,0.0,0.0,2161.777777777778,2213.5,4148.7,4083.2,308.1863333333333,307.85075,314.67175,314.7025,21.763333333333332,20.4396,21.7915,21.3695,314.999998,314.999998,324.999988,324.999988,99.55857142857143,99.50591666666666,99.56198571428571,99.54495714285714,-0.014249999999999985,-0.06999999999999995,-0.15949999999999998,0.04600000000000004,-0.07000000000000028,-0.061666666666667425,1.5123333333333333,1.538,37.021,28.747666666666667,37.197,34.5595,55.546,33.063,57.9105,51.577333333333335,53.394,32.3565,56.543,49.964333333333336,52.4685,31.9835,56.4555,49.408,-0.027499999999999858,-0.02499999999999991,0.10490500000000001,0.10512500000000001,0.0,208.97500000000002,208.935,205.84333333333333,205.84333333333333,0.0,0.0
9,0.0,0.0,0.0,1.0,1.0,0.0,0.0,1.0,0.0,100.0,1.0,1.1856,26.0,0.0,0.0,0.0,59.999996,0.0,26.0,26.0,26.0,26.0,-0.05355555555555558,0.31810000000000005,0.00415,297.897,-2.79185,-2.856875,-1.54705,-1.5791,-245.92000000000002,215.365,190.81475,0.0,0.0,0.0,0.0,0.0189,-5.498166666666667,-5.498166666666667,-0.3155,0.188,-0.04437500000000005,0.6509999999999998,66.873,-0.052500000000000005,0.040850000000000004,0.10200000000000031,100.0,1.0,1.0,206.3,0.0,0.0,0.0,0.0,0.0,0.0,0.0,8744.4,0.0,55.0,5.0,240.71,1.0,0.0,0.0,0.0,0.0,0.0,0.0,0.0,0.4529999999999994,0.4529999999999994,0.0,0.0,1.0,55.0,616.79921,10000.0,85.000001,85.000001,85.000001,85.000001,395.0,0.0,0.0,0.0,1.0,333.33500000000004,64.224,64.224,47.653,47.653,34.0,-19.38,17.310000000000002,-30.34,26.955000000000002,0.0,1782.955,-0.25,100.0,19.1515,18.385,43.551,42.727000000000004,0.0,0.0,100.0,0.0,0.0,0.0,0.0,2279.4444444444443,2217.3,4118.1,4184.9,307.84066666666666,307.85625,314.7695,314.4945,21.771444444444445,20.44315,21.801099999999998,21.3779,314.999998,314.999998,324.999988,324.999988,99.55857142857143,99.50591666666666,99.56211428571429,99.5451,0.0044999999999999485,-0.05074999999999996,-0.14783333333333337,0.06600000000000006,-0.04999999999999716,-0.05666666666667197,1.5276666666666667,1.5125,37.072,28.769666666666666,37.257,34.612,55.519,33.088,57.9525,51.635999999999996,53.369,32.3795,56.582499999999996,50.02033333333333,52.444,32.0055,56.492,49.462666666666664,-0.04699999999999993,-0.00649999999999995,0.10684,0.10816500000000001,0.0,209.43,209.41,206.3,206.3,0.0,0.0
10,0.0,0.0,0.0,1.0,1.0,0.0,0.0,1.0,0.0,100.0,1.0,1.1856,26.0,0.0,0.0,0.0,59.999996,0.0,26.0,26.0,26.0,26.0,-0.013333333333333308,0.3297000000000001,0.0011,297.882,-2.7963,-2.83925,-1.5586,-1.5657,-242.5,215.35750000000002,190.794,0.0,0.0,0.0,0.0,0.020900000000000002,-5.498166666666667,-5.498166666666667,-0.30920000000000003,-0.17866666666666667,-0.027249999999999996,-0.026000000000000245,67.03399999999999,-0.0363,0.046733333333333335,-0.04800000000000004,100.0,1.0,1.0,206.72333333333333,0.0,0.0,0.0,0.0,0.0,0.0,0.0,8762.2,0.0,55.0,5.0,241.28666666666666,0.0,0.0,0.0,0.0,0.0,0.0,1.0,0.0,0.5040000000000013,0.5040000000000013,0.0,0.0,0.0,55.0,616.79921,10000.0,85.000001,85.000001,85.000001,85.000001,395.0,0.0,0.0,0.0,1.0,166.665,64.59,64.59,47.409,47.409,34.0,-18.976,16.453333333333333,-31.616666666666667,27.695,0.0,1782.904,-0.33999999999999986,100.0,18.8415,18.368,43.484,42.993,0.0,0.0,100.0,0.0,0.0,0.0,0.0,2284.4444444444443,2084.3,4252.4,4253.9,307.9993333333333,308.106,314.486,314.24175,21.78011111111111,20.4469,21.8113,21.3869,314.999998,314.999998,324.999988,324.999988,99.55857142857143,99.50593333333333,99.56225714285715,99.54522857142857,0.013249999999999984,-0.04049999999999998,-0.14416666666666667,0.07050000000000001,-0.05833333333333002,-0.051666666666669414,1.4933333333333332,1.499,37.126000000000005,28.793333333333333,37.321,34.668,55.491,33.113,57.998,51.699666666666666,53.343,32.4025,56.625,50.08133333333333,52.418,32.0275,56.532,49.522333333333336,-0.05400000000000005,0.0015000000000000568,0.10883000000000001,0.11225500000000001,0.0,209.925,209.91,206.72333333333333,206.72333333333333,0.0,0.0
11,0.0,0.0,0.0,1.0,1.0,0.0,0.0,1.0,0.0,100.0,1.0,1.1856,26.0,0.0,0.0,0.0,59.999996,0.0,26.0,26.0,26.0,26.0,-0.015000000000000013,0.3177000000000001,-0.033175,298.126,-2.8237,-2.832125,-1.5685,-1.5379,-239.07999999999998,215.35,190.773,0.0,0.0,0.0,0.0,0.022600000000000002,-5.498166666666667,-5.498166666666667,-0.3295,-0.2843333333333333,0.003374999999999906,1.005,67.191,-0.020800000000000003,0.035250000000000004,-0.26399999999999935,100.0,1.0,1.0,207.29000000000002,0.0,0.0,0.0,0.0,0.0,0.0,0.0,8786.2,0.0,55.0,5.0,241.85666666666668,1.0,0.0,0.0,0.0,0.0,0.0,1.0,0.0,0.5549999999999997,0.5549999999999997,0.0,0.0,1.0,55.0,616.79921,10000.0,85.000001,85.000001,85.000001,85.000001,395.0,0.0,0.0,0.0,1.0,166.665,64.59,64.59,47.852000000000004,47.852000000000004,34.0,-17.886,18.44333333333333,-28.07,28.0,0.0,1782.853,-0.23499999999999943,100.0,18.6985,18.236,43.339,42.952,0.0,0.0,100.0,0.0,0.0,0.0,0.0,2176.666666666667,2286.1,3990.9,4189.4,308.158,307.65375,315.07075,314.4905,21.788555555555554,20.4507,21.8215,21.3959,314.999998,314.999998,324.999988,324.999988,99.55857142857143,99.50593333333333,99.56241428571428,99.54538571428571,0.02849999999999997,-0.027249999999999996,-0.11883333333333335,0.09699999999999998,-0.07166666666666544,-0.051666666666669414,1.5333333333333332,1.524,37.179,28.817,37.384,34.724000000000004,55.462,33.1385,58.0405,51.76266666666667,53.316,32.426,56.664500000000004,50.141999999999996,52.3905,32.05,56.569,49.58166666666666,-0.04849999999999999,-0.004999999999999893,0.107535,0.10622000000000001,0.0,210.4,210.39499999999998,207.29000000000002,207.29000000000002,0.0,0.0
12,0.0,0.0,0.0,1.0,1.0,0.0,0.0,1.0,0.0,100.0,1.0,1.1856,26.0,0.0,0.0,0.0,59.999996,0.0,26.0,26.0,26.0,26.0,-0.00022222222222212373,0.3187,0.007500000000000001,297.729,-2.8366,-2.8051250000000003,-1.57175,-1.5491000000000001,-235.65,215.3425,190.751125,0.0,0.0,0.0,0.0,0.025466666666666665,-5.498166666666667,-5.498166666666667,-0.32030000000000003,0.4096666666666667,0.00912500000000005,-0.7730000000000001,67.35,-0.0026000000000000003,0.05471666666666666,-0.35799999999999876,100.0,1.0,1.0,207.72,0.0,0.0,0.0,0.0,0.0,0.0,0.0,8804.5,0.0,55.0,5.0,242.42666666666668,0.0,0.0,0.0,0.0,0.0,0.0,1.0,0.0,0.6059999999999981,0.6059999999999981,0.0,0.0,0.0,55.0,616.79921,10000.0,85.000001,85.000001,85.000001,85.000001,395.0,0.0,0.0,0.0,1.0,166.665,64.301,64.301,47.226,47.226,34.0,-20.532,16.28666666666667,-29.03,29.8275,0.0,1782.802,1.0350000000000001,100.0,18.674500000000002,18.7935,43.137,43.121,0.0,0.0,100.0,0.0,0.0,0.0,0.0,2258.333333333333,2243.6,4225.2,4289.0,308.087,307.58225,314.58925,314.192,21.79711111111111,20.45465,21.8316,21.4048,314.999998,314.999998,324.999988,324.999988,99.55858571428571,99.50593333333333,99.56254285714286,99.54551428571429,-0.044749999999999956,-0.09324999999999994,-0.09750000000000003,0.10783333333333323,-0.06499999999999773,-0.04333333333332945,1.4986666666666668,1.4785,37.232,28.841666666666665,37.448,34.78,55.435,33.1665,58.083,51.826,53.291,32.451499999999996,56.704499999999996,50.202666666666666,52.3655,32.0745,56.6055,49.64066666666667,0.03299999999999992,-0.08450000000000024,0.09593,0.111335,0.0,210.905,210.905,207.72,207.72,0.0,0.0
13,0.0,0.0,0.0,1.0,1.0,0.0,0.0,1.0,0.0,100.0,1.0,1.1856,26.0,0.0,0.0,0.0,59.999996,0.0,26.0,26.0,26.0,26.0,0.03544444444444439,0.3118000000000001,0.01585,297.485,-2.8103,-2.83125,-1.5644,-1.5621,-232.41,215.335,190.73075,0.0,0.0,0.0,0.0,0.02676666666666667,-5.498166666666667,-5.498166666666667,-0.3151,-0.22766666666666666,0.00012499999999993072,-0.4530000000000003,67.499,-0.0057,0.047850000000000004,-0.18799999999999883,100.0,1.0,1.0,208.11333333333334,0.0,0.0,0.0,0.0,0.0,0.0,0.0,8821.2,0.0,55.0,5.0,242.96333333333334,1.0,0.0,0.0,0.0,0.0,0.0,1.0,0.0,0.6539999999999999,0.6539999999999999,0.0,0.0,1.0,55.0,616.79921,10000.0,85.000001,85.000001,85.000001,85.000001,395.0,0.0,0.0,0.0,1.0,166.665,64.224,64.224,46.982,46.982,34.0,-17.432,18.623333333333335,-30.406666666666666,29.9525,0.0,1782.754,-0.5150000000000006,100.0,18.867,18.875,43.552,43.589,0.0,0.0,100.0,0.0,0.0,0.0,0.0,2286.666666666667,2160.0,4262.3,4303.3,308.00166666666667,307.84875,314.45925,314.123,21.805,20.45835,21.8414,21.4134,314.999998,314.999998,324.999988,324.999988,99.5586,99.50593333333333,99.56268571428572,99.54565714285714,0.07099999999999995,0.016250000000000098,-0.11616666666666664,0.10299999999999998,-0.05333333333332746,-0.051666666666669414,1.4726666666666666,1.4729999999999999,37.282,28.864666666666665,37.509,34.834,55.41,33.192499999999995,58.126,51.88766666666667,53.266999999999996,32.4755,56.744,50.26166666666667,52.342,32.097,56.6425,49.69866666666667,-0.0814999999999999,0.028999999999999915,0.10892,0.11232,0.0,211.365,211.345,208.11333333333334,208.11333333333334,0.0,0.0
14,0.0,0.0,0.0,1.0,1.0,0.0,0.0,1.0,0.0,100.0,1.0,1.1856,26.0,0.0,0.0,0.0,59.999996,0.0,26.0,26.0,26.0,26.0,0.025666666666666726,0.31130000000000013,-0.027025,297.775,-2.80615,-2.846375,-1.5729000000000002,-1.5574,-228.97,215.3275,190.709375,0.0,0.0,0.0,0.0,0.02876666666666667,-5.498166666666667,-5.498166666666667,-0.3266,0.0023333333333333335,0.01662499999999989,1.003,67.654,0.0013000000000000002,0.03891666666666667,-0.4580000000000002,100.0,1.0,1.0,208.69,0.0,0.0,0.0,0.0,0.0,0.0,0.0,8845.6,0.0,55.0,5.0,243.52333333333334,0.0,0.0,0.0,0.0,0.0,0.0,1.0,0.0,0.7049999999999983,0.7049999999999983,0.0,0.0,0.0,55.0,616.79921,10000.0,85.000001,85.000001,85.000001,85.000001,395.0,0.0,0.0,0.0,1.0,333.33500000000004,64.331,64.331,47.409,47.409,34.0,-16.354,19.52166666666667,-27.523333333333333,30.005,0.0,1782.702,-0.5999999999999979,100.0,18.9665,18.777,43.513,43.492000000000004,0.0,0.0,100.0,0.0,0.0,0.0,0.0,2135.777777777778,2258.8,4042.7,4221.5,308.26733333333334,307.6875,314.9515,314.417,21.813444444444443,20.4623,21.8516,21.4225,314.999998,314.999998,324.999988,324.999988,99.5586,99.50595,99.56282857142857,99.5458,0.06824999999999992,0.01649999999999996,-0.09799999999999998,0.12349999999999994,-0.04833333333333201,-0.06833333333332803,1.537,1.5125,37.334,28.889333333333333,37.572,34.8905,55.382999999999996,33.219,58.168,51.951,53.242,32.4995,56.783500000000004,50.32233333333333,52.316,32.1205,56.679,49.757999999999996,-0.07400000000000007,0.018999999999999906,0.11318,0.11143000000000002,0.0,211.82,211.845,208.69,208.69,0.0,0.0
15,0.0,0.0,0.0,1.0,1.0,0.0,0.0,1.0,0.0,100.0,1.0,1.1856,26.0,0.0,0.0,0.0,59.999996,0.0,26.0,26.0,26.0,26.0,0.04155555555555557,0.3104,-0.013425000000000001,297.668,-2.79115,-2.826375,-1.55725,-1.5806,-225.72,215.3225,190.68875,0.0,0.0,0.0,0.0,0.030633333333333332,-5.498166666666667,-5.498166666666667,-0.3191,0.262,0.021499999999999853,0.754,67.80199999999999,0.011300000000000001,0.05303333333333334,-0.47199999999999953,100.0,1.0,1.0,209.10000000000002,0.0,0.0,0.0,0.0,0.0,0.0,0.0,8863.0,0.0,55.0,5.0,244.05333333333334,1.0,0.0,0.0,0.0,0.0,0.0,1.0,0.0,0.7530000000000001,0.7530000000000001,0.0,0.0,1.0,55.0,616.79921,10000.0,85.000001,85.000001,85.000001,85.000001,395.0,0.0,0.0,0.0,1.0,333.33500000000004,64.316,64.316,47.134,47.134,34.0,-16.108,19.013333333333332,-27.13,31.085,0.0,1782.655,-0.4499999999999993,100.0,18.979,18.83,43.432,43.599000000000004,0.0,0.0,100.0,0.0,0.0,0.0,0.0,2111.777777777778,2240.4,4142.3,4247.4,308.33433333333335,307.72375,314.71475,314.3335,21.821444444444445,20.46605,21.8612,21.431,314.999998,314.999998,324.999988,324.999988,99.5586,99.50595,99.56295714285714,99.54594285714286,0.0665,0.007000000000000117,-0.07683333333333331,0.13116666666666688,-0.03499999999999659,-0.0799999999999983,1.5096666666666667,1.4895,37.384,28.913,37.632,34.944,55.357,33.244,58.208,52.01133333333333,53.218,32.522999999999996,56.821,50.38033333333333,52.292,32.1425,56.713499999999996,49.81466666666667,-0.05699999999999994,0.008499999999999952,0.10276500000000001,0.104025,0.0,212.28,212.32999999999998,209.10000000000002,209.10000000000002,0.0,0.0
16,0.0,0.0,0.0,1.0,1.0,0.0,0.0,1.0,0.0,100.0,1.0,1.1856,26.0,0.0,0.0,0.0,59.999996,0.0,26.0,26.0,26.0,26.0,0.0564444444444443,0.3034000000000001,-0.004725,297.455,-2.86515,-2.7645,-1.54095,-1.5737,-222.25,215.315,190.66675,0.0,0.0,0.0,0.0,0.03266666666666667,-5.498166666666667,-5.498166666666667,-0.327,-0.2956666666666667,0.014874999999999972,-0.9809999999999999,67.957,0.0162,0.04356666666666667,-0.27999999999999936,100.0,1.0,1.0,209.56,0.0,0.0,0.0,0.0,0.0,0.0,0.0,8882.5,0.0,55.0,5.0,244.61333333333334,0.0,0.0,0.0,0.0,0.0,0.0,1.0,0.0,0.8039999999999985,0.8039999999999985,0.0,0.0,0.0,55.0,616.79921,10000.0,85.000001,85.000001,85.000001,85.000001,395.0,0.0,0.0,0.0,1.0,333.33500000000004,63.98,63.98,46.86,46.86,34.0,-18.586,19.23166666666667,-27.45,29.815,0.0,1782.603,-0.3550000000000004,100.0,18.668,19.0775,43.593,43.878,0.0,0.0,100.0,0.0,0.0,0.0,0.0,2336.666666666667,2286.7,4172.8,4121.8,307.897,307.43925,314.691,314.53825,21.829777777777778,20.47005,21.8715,21.4401,314.999998,314.999998,324.999988,324.999988,99.55861428571428,99.50595,99.56311428571429,99.54608571428571,0.05725000000000002,0.005249999999999977,-0.08299999999999996,0.1283333333333332,-0.05666666666667197,-0.05333333333332746,1.4983333333333333,1.508,37.436,28.938000000000002,37.697,35.001,55.329,33.271,58.251999999999995,52.07566666666666,53.191,32.5475,56.8625,50.442,52.265,32.166,56.751999999999995,49.87533333333333,-0.052999999999999936,0.00649999999999995,0.102065,0.10770500000000001,0.0,212.76999999999998,212.765,209.56,209.56,0.0,0.0
17,0.0,0.0,0.0,1.0,1.0,0.0,0.0,1.0,0.0,100.0,1.0,1.1856,26.0,0.0,0.0,0.0,59.999996,0.0,26.0,26.0,26.0,26.0,0.026999999999999913,0.3064,0.029325,297.211,-2.7903000000000002,-2.852875,-1.55795,-1.5342,-218.78,215.3125,190.6445,0.0,0.0,0.0,0.0,0.03466666666666667,-5.498166666666667,-5.498166666666667,-0.324,0.178,-0.0031249999999998224,0.387,68.112,0.015600000000000001,0.0505,-0.2759999999999998,100.0,1.0,1.0,209.98666666666668,0.0,0.0,0.0,0.0,0.0,0.0,0.0,8900.6,0.0,55.0,5.0,245.17000000000002,1.0,0.0,0.0,0.0,0.0,0.0,1.0,0.0,0.8550000000000004,0.8550000000000004,0.0,0.0,1.0,55.0,616.79921,10000.0,85.000001,85.000001,85.000001,85.000001,395.0,0.0,0.0,0.0,1.0,333.33500000000004,63.965,63.965,46.539,46.539,34.0,-16.944,20.009999999999998,-28.456666666666667,31.05,0.0,1782.551,-0.3049999999999997,100.0,19.033,19.025,43.688,43.806,0.0,0.0,100.0,0.0,0.0,0.0,0.0,2179.777777777778,2305.2,4262.9,4344.8,308.08733333333333,307.40075,314.39225,314.14675,21.83811111111111,20.4741,21.8817,21.4492,314.999998,314.999998,324.999988,324.999988,99.55861428571428,99.50595,99.56325714285714,99.54622857142857,0.06075000000000008,0.008499999999999952,-0.08050000000000002,0.12650000000000006,-0.03833333333332689,-0.054999999999999716,1.4846666666666666,1.474,37.488,28.96333333333333,37.760999999999996,35.0575,55.301,33.2985,58.295,52.13933333333333,53.165,32.573,56.9025,50.503,52.2395,32.1905,56.789,49.935,-0.05049999999999999,-0.0030000000000001137,0.10131000000000001,0.105885,0.0,213.245,213.265,209.98666666666668,209.98666666666668,0.0,0.0
18,0.0,0.0,0.0,1.0,1.0,0.0,0.0,1.0,0.0,100.0,1.0,1.1856,26.0,0.0,0.0,0.0,59.999996,0.0,26.0,26.0,26.0,26.0,0.05277777777777781,0.29890000000000017,0.017625000000000002,297.348,-2.78525,-2.880125,-1.5422,-1.603,-215.31,215.3075,190.622,0.0,0.0,0.0,0.0,0.0367,-5.498166666666667,-5.498166666666667,-0.3335,-0.313,-0.005625000000000213,-0.6699999999999999,68.266,0.012400000000000001,0.044700000000000004,-0.12599999999999945,100.0,1.0,1.0,210.47333333333333,0.0,0.0,0.0,0.0,0.0,0.0,0.0,8921.2,0.0,55.0,5.0,245.72666666666666,0.0,0.0,0.0,0.0,0.0,0.0,1.0,0.0,0.9059999999999988,0.9059999999999988,0.0,0.0,0.0,55.0,616.79921,10000.0,85.000001,85.000001,85.000001,85.000001,395.0,0.0,0.0,0.0,1.0,166.665,64.133,64.133,46.844,46.844,34.0,-17.738,18.541666666666668,-28.49,30.125,0.0,1782.503,-0.245000000000001,100.0,18.8545,19.0485,43.778,44.097,0.0,0.0,100.0,0.0,0.0,0.0,0.0,2276.8888888888887,2169.4,4175.6,4197.4,308.0323333333333,307.7275,314.6585,314.308,21.846444444444444,20.47805,21.892,21.4583,314.999998,314.999998,324.999988,324.999988,99.55862857142857,99.50596666666667,99.5634,99.54638571428572,0.05249999999999999,-0.006000000000000005,-0.09933333333333338,0.10933333333333328,-0.04999999999999716,-0.05333333333332746,1.4803333333333333,1.4725000000000001,37.54,28.987666666666666,37.825,35.1145,55.272999999999996,33.324,58.338499999999996,52.203,53.138,32.596000000000004,56.943,50.56433333333334,52.213,32.2125,56.826499999999996,49.99466666666667,-0.04949999999999988,-0.0030000000000001137,0.11075000000000002,0.103175,0.0,213.70499999999998,213.72500000000002,210.47333333333333,210.47333333333333,0.0,0.0
19,0.0,0.0,0.0,1.0,1.0,0.0,0.0,1.0,0.0,100.0,1.0,1.1856,26.0,0.0,0.0,0.0,59.999996,0.0,26.0,26.0,26.0,26.0,0.03666666666666685,0.31790000000000007,0.013225,297.165,-2.7592499999999998,-2.848875,-1.5411000000000001,-1.6249,-211.82,215.305,190.599125,0.0,0.0,0.0,0.0,0.038733333333333335,-5.498166666666667,-5.498166666666667,-0.32120000000000004,0.5643333333333334,0.0044999999999999485,0.7869999999999999,68.419,0.010100000000000001,0.06063333333333334,-0.15799999999999947,100.0,1.0,1.0,210.94666666666666,0.0,0.0,0.0,0.0,0.0,0.0,0.0,8941.3,0.0,55.0,5.0,246.28,1.0,0.0,0.0,0.0,0.0,0.0,1.0,0.0,0.9570000000000007,0.9570000000000007,0.0,0.0,1.0,55.0,616.79921,10000.0,85.000001,85.000001,85.000001,85.000001,395.0,0.0,0.0,0.0,1.0,166.665,63.903999999999996,63.903999999999996,46.753,46.753,34.0,-16.628,18.666666666666668,-28.03,31.98,0.0,1782.451,-0.16499999999999915,100.0,19.433,19.1855,43.845,44.037,0.0,0.0,100.0,0.0,0.0,0.0,0.0,2153.5555555555557,2220.6,4190.5,4288.8,308.18966666666665,307.748,314.60275,314.20675,21.854888888888887,20.4821,21.9022,21.4674,314.999998,314.999998,324.999988,324.999988,99.55862857142857,99.50596666666667,99.56354285714286,99.54652857142857,0.05600000000000005,-0.005249999999999977,-0.08833333333333337,0.12683333333333335,-0.051666666666669414,-0.061666666666667425,1.4846666666666666,1.4765000000000001,37.593,29.012999999999998,37.888999999999996,35.171,55.245999999999995,33.3515,58.3805,52.266333333333336,53.114,32.6215,56.9825,50.62533333333333,52.188,32.237,56.863,50.05466666666667,-0.04400000000000004,-0.010499999999999954,0.108075,0.10860500000000001,0.0,214.23000000000002,214.22,210.94666666666666,210.94666666666666,0.0,0.0
20,0.0,0.0,0.0,1.0,1.0,0.0,0.0,1.0,0.0,100.0,1.0,1.1856,26.0,0.0,0.0,0.0,59.999996,0.0,26.0,26.0,26.0,26.0,0.01866666666666661,0.29679999999999995,-0.02695,297.134,-2.82965,-2.7975000000000003,-1.61575,-1.6072000000000002,-208.53,215.3025,190.577875,0.0,0.0,0.0,0.0,0.040633333333333334,-5.498166666666667,-5.498166666666667,-0.3251,-0.6743333333333333,0.007500000000000062,0.6459999999999999,68.564,0.006900000000000001,0.04928333333333333,-0.08799999999999919,100.0,1.0,1.0,211.36333333333334,0.0,0.0,0.0,0.0,0.0,0.0,0.0,8958.9,0.0,55.0,5.0,246.79666666666668,0.0,0.0,0.0,0.0,0.0,0.0,0.0,0.0,1.004999999999999,1.004999999999999,0.0,0.0,0.0,55.0,616.79921,10000.0,85.000001,85.000001,85.000001,85.000001,395.0,0.0,0.0,0.0,1.0,166.665,64.163,64.163,46.265,46.265,34.0,-17.046,19.01833333333333,-29.32,30.35,0.0,1782.403,-0.15500000000000114,100.0,19.104,18.991,44.391999999999996,44.501999999999995,0.0,0.0,100.0,0.0,0.0,0.0,0.0,2142.0,2290.0,4209.3,4168.3,308.28833333333336,307.64725,314.60825,314.473,21.862666666666666,20.4858,21.912,21.4761,314.999998,314.999998,324.999988,324.999988,99.55862857142857,99.50596666666667,99.56368571428571,99.54665714285714,0.04899999999999993,-0.0010000000000000009,-0.09066666666666656,0.1200000000000001,-0.05333333333332746,-0.041666666666671404,1.4809999999999999,1.476,37.641,29.03633333333333,37.95,35.2255,55.219,33.3755,58.4235,52.328,53.088,32.644,57.0225,50.684333333333335,52.162,32.2585,56.9,50.112,-0.03499999999999992,-0.01100000000000012,0.10546000000000001,0.10788500000000001,0.0,214.635,214.62,211.36333333333334,211.36333333333334,0.0,0.0
21,0.0,0.0,0.0,1.0,1.0,0.0,0.0,1.0,0.0,100.0,1.0,1.1856,26.0,0.0,0.0,0.0,59.999996,0.0,26.0,26.0,26.0,26.0,-0.0033333333333332993,0.3055000000000001,-0.04655,297.302,-2.84605,-2.768875,-1.57755,-1.5463,-205.24,215.3,190.55625,0.0,0.0,0.0,0.0,0.04253333333333333,-5.498166666666667,-5.498166666666667,-0.3427,0.008,-0.0015000000000000568,0.4849999999999999,68.705,0.0037,0.050583333333333334,-0.06799999999999962,100.0,1.0,1.0,211.88,0.0,0.0,0.0,0.0,0.0,0.0,0.0,8980.8,0.0,55.0,5.0,247.30666666666667,1.0,0.0,0.0,0.0,0.0,0.0,0.0,0.0,1.0530000000000008,1.0530000000000008,0.0,0.0,1.0,55.0,616.79921,10000.0,85.000001,85.000001,85.000001,85.000001,395.0,0.0,0.0,0.0,1.0,166.665,64.026,64.026,46.86,46.86,34.0,-18.088,19.178333333333335,-28.14,28.62,0.0,1782.355,-0.2049999999999983,100.0,19.0745,18.8445,44.073,44.135999999999996,0.0,0.0,100.0,0.0,0.0,0.0,0.0,2256.333333333333,2334.2,4106.8,4153.7,307.95866666666666,307.53125,314.84325,314.614,21.870444444444445,20.48955,21.9215,21.4846,314.999998,314.999998,324.999988,324.999988,99.55862857142857,99.50596666666667,99.56381428571429,99.5468,0.052999999999999936,-0.0034999999999999476,-0.09966666666666657,0.1116666666666668,-0.04999999999999716,-0.06333333333333258,1.5473333333333332,1.5245,37.69,29.060000000000002,38.01,35.278999999999996,55.192,33.4005,58.462,52.385666666666665,53.063,32.6665,57.0585,50.74,52.137,32.28,56.933,50.166333333333334,-0.04149999999999987,-0.01100000000000012,0.10853000000000002,0.10046500000000001,0.0,215.09,215.075,211.88,211.88,0.0,0.0
22,0.0,0.0,0.0,1.0,1.0,0.0,0.0,1.0,0.0,100.0,1.0,1.1856,26.0,0.0,0.0,0.0,59.999996,0.0,26.0,26.0,26.0,26.0,0.011777777777777887,0.3095000000000001,0.021050000000000003,296.906,-2.88975,-2.799875,-1.57955,-1.5192,-201.73000000000002,215.2975,190.5325,0.0,0.0,0.0,0.0,0.0446,-5.498166666666667,-5.498166666666667,-0.326,0.11433333333333333,-0.00024999999999986144,-0.5569999999999999,68.858,-0.0017000000000000001,0.07693333333333334,-0.012000000000000455,100.0,1.0,1.0,212.19666666666666,0.0,0.0,0.0,0.0,0.0,0.0,0.0,8994.3,0.0,55.0,5.0,247.85666666666668,0.0,0.0,0.0,0.0,0.0,0.0,0.0,0.0,1.1039999999999992,1.1039999999999992,0.0,0.0,0.0,55.0,616.79921,10000.0,85.000001,85.000001,85.000001,85.000001,395.0,0.0,0.0,0.0,1.0,333.33500000000004,64.178,64.178,46.021,46.021,34.0,-19.165999999999997,18.015,-31.576666666666668,30.3725,0.0,1782.303,-0.3099999999999987,100.0,18.907,18.989,44.132,44.274,0.0,0.0,100.0,0.0,0.0,0.0,0.0,2341.222222222222,2195.0,4429.0,4434.4,307.9483333333333,307.78075,314.1045,313.8745,21.878666666666668,20.49355,21.9318,21.4938,314.999998,314.999998,324.999988,324.999988,99.55864285714286,99.50596666666667,99.56397142857143,99.54695714285714,0.04249999999999998,-0.012249999999999983,-0.10616666666666663,0.10200000000000009,-0.04833333333333201,-0.051666666666669414,1.4609999999999999,1.4625,37.742000000000004,29.084666666666664,38.074,35.336,55.164,33.4265,58.506,52.449,53.037,32.6905,57.0995,50.800666666666665,52.111,32.303,56.971000000000004,50.226,-0.052999999999999936,-0.0009999999999998899,0.10410000000000001,0.106255,0.0,215.575,215.565,212.19666666666666,212.19666666666666,0.0,0.0
23,0.0,0.0,0.0,1.0,1.0,0.0,0.0,1.0,0.0,100.0,1.0,1.1856,26.0,0.0,0.0,0.0,59.999996,0.0,26.0,26.0,26.0,26.0,0.0030000000000001137,0.2965,0.0279,296.814,-2.78615,-2.829625,-1.64615,-1.5583,-198.20999999999998,215.2975,190.508875,0.0,0.0,0.0,0.0,0.04663333333333333,-5.498166666666667,-5.498166666666667,-0.3383,-0.2713333333333333,0.001874999999999849,0.7119999999999997,69.008,-0.0029000000000000002,0.05603333333333334,-0.1460000000000008,100.0,1.0,1.0,212.70333333333332,0.0,0.0,0.0,0.0,0.0,0.0,0.0,9015.7,0.0,55.0,5.0,248.39666666666665,1.0,0.0,0.0,0.0,0.0,0.0,0.0,0.0,1.1550000000000011,1.1550000000000011,0.0,0.0,1.0,55.0,616.79921,10000.0,85.000001,85.000001,85.000001,85.000001,395.0,0.0,0.0,0.0,1.0,333.33500000000004,63.889,63.889,46.143,46.143,34.0,-17.848,19.049999999999997,-31.336666666666666,30.85,0.0,1782.251,-0.29499999999999815,100.0,19.279,18.967,44.478,44.456,0.0,0.0,100.0,0.0,0.0,0.0,0.0,2260.666666666667,2278.3,4326.7,4326.3,307.86566666666664,307.621,314.33775,314.2005,21.88688888888889,20.4976,21.9422,21.503,314.999998,314.999998,324.999988,324.999988,99.55864285714286,99.50596666666667,99.56411428571428,99.5471,0.053749999999999964,-0.005750000000000033,-0.10066666666666657,0.119,-0.04999999999999716,-0.05666666666667197,1.4746666666666666,1.475,37.793,29.11,38.138999999999996,35.394,55.135999999999996,33.453,58.5495,52.513666666666666,53.01,32.715,57.14,50.86266666666667,52.0845,32.326499999999996,57.009,50.28633333333333,-0.050000000000000044,-0.002000000000000224,0.10244500000000001,0.11159000000000001,0.0,216.01,216.005,212.70333333333332,212.70333333333332,0.0,0.0
24,0.0,0.0,0.0,1.0,1.0,0.0,0.0,1.0,0.0,100.0,1.0,1.1856,26.0,0.0,0.0,0.0,59.999996,0.0,26.0,26.0,26.0,26.0,0.0301111111111112,0.30090000000000017,-0.052175,297.318,-2.83705,-2.828875,-1.55545,-1.5758,-194.69,215.29500000000002,190.48475,0.0,0.0,0.0,0.0,0.04866666666666667,-5.498166666666667,-5.498166666666667,-0.3531,-0.3696666666666667,0.007749999999999924,-0.29200000000000026,69.158,-0.0018000000000000002,0.05845,-0.12599999999999945,100.0,1.0,1.0,213.19333333333333,0.0,0.0,0.0,0.0,0.0,0.0,0.0,9036.5,0.0,55.0,5.0,248.93666666666667,0.0,0.0,0.0,0.0,0.0,0.0,0.0,0.0,1.2059999999999995,1.2059999999999995,0.0,0.0,0.0,55.0,616.79921,10000.0,85.000001,85.000001,85.000001,85.000001,395.0,0.0,0.0,0.0,1.0,166.665,64.606,64.606,46.432,46.432,34.0,-17.294,17.325,-29.509999999999998,28.88,0.0,1782.202,-0.3249999999999993,100.0,18.881999999999998,18.8825,44.296,44.425,0.0,0.0,100.0,0.0,0.0,0.0,0.0,2177.222222222222,2097.7,4217.1,4181.0,308.36,308.03975,314.58975,314.467,21.895,20.5015,21.9524,21.5122,314.999998,314.999998,324.999988,324.999988,99.55865714285714,99.50596666666667,99.56427142857143,99.54724285714286,0.04600000000000004,-0.011249999999999982,-0.10999999999999999,0.09966666666666679,-0.051666666666669414,-0.045000000000001705,1.499,1.4954999999999998,37.844,29.134333333333334,38.202,35.451,55.107,33.478,58.592,52.576,52.983999999999995,32.738,57.1795,50.922333333333334,52.0575,32.3485,57.045500000000004,50.34466666666667,-0.05449999999999999,0.0009999999999998899,0.10852,0.10361500000000001,0.0,216.47,216.46,213.19333333333333,213.19333333333333,0.0,0.0
25,0.0,0.0,0.0,1.0,1.0,0.0,0.0,1.0,0.0,100.0,1.0,1.1856,26.0,0.0,0.0,0.0,59.999996,0.0,26.0,26.0,26.0,26.0,0.03022222222222215,0.2921,-0.016475,296.936,-2.81305,-2.803375,-1.5963500000000002,-1.5735000000000001,-191.37,215.29500000000002,190.46075,0.0,0.0,0.0,0.0,0.0506,-5.498166666666667,-5.498166666666667,-0.36610000000000004,0.16566666666666666,0.012375000000000025,-0.8340000000000001,69.297,0.001,0.06506666666666666,-0.15200000000000102,100.0,1.0,1.0,213.65666666666667,0.0,0.0,0.0,0.0,0.0,0.0,0.0,9056.1,0.0,55.0,5.0,249.44,1.0,0.0,0.0,0.0,0.0,0.0,0.0,0.0,1.2540000000000013,1.2540000000000013,0.0,0.0,1.0,55.0,616.79921,10000.0,85.000001,85.000001,85.000001,85.000001,395.0,0.0,0.0,0.0,1.0,333.33500000000004,63.705,63.705,46.478,46.478,34.0,-19.235999999999997,19.72,-29.373333333333335,29.7525,0.0,1782.153,-0.3049999999999997,100.0,18.9335,19.113,44.134,44.283,0.0,0.0,100.0,0.0,0.0,0.0,0.0,2393.666666666667,2348.9,4198.6,4206.5,307.665,307.25175,314.7175,314.4125,21.902666666666665,20.50535,21.962,21.520699999999998,314.999998,314.999998,324.999988,324.999988,99.55865714285714,99.50598333333333,99.5644,99.54738571428571,0.04675000000000007,-0.007750000000000035,-0.10199999999999998,0.11450000000000005,-0.05666666666667197,-0.054999999999999716,1.5023333333333333,1.5150000000000001,37.891,29.15833333333333,38.262,35.5045,55.08,33.5035,58.6305,52.634,52.958,32.760999999999996,57.2155,50.978,52.032,32.3705,57.0785,50.399,-0.05349999999999988,0.0,0.10497500000000001,0.114265,0.0,216.91,216.91500000000002,213.65666666666667,213.65666666666667,0.0,0.0
26,0.0,0.0,0.0,1.0,1.0,0.0,0.0,1.0,0.0,100.0,1.0,1.1856,26.0,0.0,0.0,0.0,59.999996,0.0,26.0,26.0,26.0,26.0,0.011111111111111072,0.3026,0.061700000000000005,296.173,-2.83085,-2.801125,-1.56105,-1.5777,-187.82999999999998,215.29500000000002,190.435125,0.0,0.0,0.0,0.0,0.05266666666666667,-5.498166666666667,-5.498166666666667,-0.3376,0.27166666666666667,0.0035000000000000586,0.903,69.44800000000001,0.0021000000000000003,0.08161666666666667,-0.19399999999999906,100.0,1.0,1.0,213.92666666666668,0.0,0.0,0.0,0.0,0.0,0.0,0.0,9067.6,0.0,55.0,5.0,249.98333333333335,0.0,0.0,0.0,0.0,0.0,0.0,0.0,0.0,1.3049999999999997,1.3049999999999997,0.0,0.0,0.0,55.0,616.79921,10000.0,85.000001,85.000001,85.000001,85.000001,395.0,0.0,0.0,0.0,1.0,166.665,63.599,63.599,45.41,45.41,34.0,-18.098,19.11,-31.423333333333332,33.795,0.0,1782.103,-0.375,100.0,19.7045,19.298,44.762,44.751000000000005,0.0,0.0,100.0,0.0,0.0,0.0,0.0,2279.333333333333,2292.7,4489.5,4575.7,307.898,307.684,313.888,313.53725,21.910888888888888,20.5095,21.9723,21.5301,314.999998,314.999998,324.999988,324.999988,99.55865714285714,99.50598333333333,99.56455714285714,99.54754285714286,0.05725000000000002,0.0022500000000000853,-0.09316666666666662,0.12016666666666675,-0.054999999999999716,-0.04999999999999716,1.4113333333333333,1.4100000000000001,37.943,29.184333333333335,38.327,35.563,55.054,33.531,58.675,52.699333333333335,52.934,32.786500000000004,57.2575,51.041,52.0075,32.394999999999996,57.1175,50.46066666666667,-0.05800000000000005,0.0015000000000000568,0.10653000000000001,0.10830000000000001,0.0,217.405,217.39499999999998,213.92666666666668,213.92666666666668,0.0,0.0
27,0.0,0.0,0.0,1.0,1.0,0.0,0.0,1.0,0.0,100.0,1.0,1.1856,26.0,0.0,0.0,0.0,59.999996,0.0,26.0,26.0,26.0,26.0,0.004888888888888943,0.28900000000000015,-0.056175,296.661,-2.87975,-2.813625,-1.6206,-1.557,-184.49,215.29500000000002,190.412,0.0,0.0,0.0,0.0,0.0546,-5.498166666666667,-5.498166666666667,-0.36000000000000004,-0.7923333333333333,0.012750000000000039,0.8820000000000001,69.586,0.004200000000000001,0.04788333333333333,-0.25200000000000067,100.0,1.0,1.0,214.46666666666667,0.0,0.0,0.0,0.0,0.0,0.0,0.0,9090.5,0.0,55.0,5.0,250.48000000000002,1.0,0.0,0.0,0.0,0.0,0.0,0.0,0.0,1.352999999999998,1.352999999999998,0.0,0.0,1.0,55.0,616.79921,10000.0,85.000001,85.000001,85.000001,85.000001,395.0,0.0,0.0,0.0,1.0,333.33500000000004,63.95,63.95,45.532,45.532,34.0,-17.378,19.61,-29.93,30.0275,0.0,1782.054,-0.3949999999999996,100.0,19.291,19.2215,45.066,44.956,0.0,0.0,100.0,0.0,0.0,0.0,0.0,2170.1111111111113,2323.4,4232.7,4253.8,308.2576666666667,307.51025,314.53275,314.39525,21.918555555555557,20.5133,21.9821,21.538899999999998,314.999998,314.999998,324.999988,324.999988,99.55867142857143,99.50598333333333,99.5647,99.54767142857143,0.055500000000000105,0.00275000000000003,-0.09533333333333338,0.11616666666666675,-0.04833333333333201,-0.06666666666666998,1.4786666666666666,1.4845000000000002,37.991,29.208,38.388,35.618,55.027,33.5555,58.717,52.75966666666667,52.908,32.8095,57.297,51.09866666666667,51.9825,32.4165,57.1535,50.516999999999996,-0.05249999999999999,0.0020000000000000018,0.10594500000000001,0.11038500000000001,0.0,217.775,217.79500000000002,214.46666666666667,214.46666666666667,0.0,0.0
28,0.0,0.0,0.0,1.0,1.0,0.0,0.0,1.0,0.0,100.0,1.0,1.1856,26.0,0.0,0.0,0.0,59.999996,0.0,26.0,26.0,26.0,26.0,0.04655555555555568,0.30590000000000006,-0.0557,296.814,-2.8169,-2.7960000000000003,-1.6349,-1.5842,-180.94,215.29500000000002,190.386375,0.0,0.0,0.0,0.0,0.056666666666666664,-5.498166666666667,-5.498166666666667,-0.36300000000000004,0.5453333333333333,-0.0015000000000000568,-1.021,69.732,0.0063,0.0718,-0.2400000000000002,100.0,1.0,1.0,214.97333333333333,0.0,0.0,0.0,0.0,0.0,0.0,0.0,9111.9,0.0,55.0,5.0,251.00333333333333,0.0,0.0,0.0,0.0,0.0,0.0,0.0,0.0,1.404,1.404,0.0,0.0,0.0,55.0,616.79921,10000.0,85.000001,85.000001,85.000001,85.000001,395.0,0.0,0.0,0.0,1.0,333.33500000000004,63.995,63.995,45.929,45.929,34.0,-17.264,18.555,-30.32,30.44,0.0,1782.003,-0.41999999999999815,100.0,19.1585,19.3515,44.46,44.666,0.0,0.0,100.0,0.0,0.0,0.0,0.0,2237.666666666667,2201.6,4314.9,4221.0,308.1123333333333,307.6985,314.50725,314.43175,21.926666666666666,20.5174,21.9922,21.548000000000002,314.999998,314.999998,324.999988,324.999988,99.55867142857143,99.50598333333333,99.56482857142858,99.54781428571428,0.06624999999999992,0.0030000000000001137,-0.09383333333333332,0.12233333333333318,-0.061666666666667425,-0.046666666666666856,1.5233333333333334,1.5055,38.042,29.233666666666664,38.452,35.675,55.0,33.583,58.7565,52.82066666666667,52.882999999999996,32.8345,57.334,51.157333333333334,51.9565,32.4405,57.1875,50.574333333333335,-0.06499999999999995,0.0009999999999998899,0.10511500000000001,0.10817,0.0,218.26999999999998,218.26999999999998,214.97333333333333,214.97333333333333,0.0,0.0
29,0.0,0.0,0.0,1.0,1.0,0.0,0.0,1.0,0.0,100.0,1.0,1.1856,26.0,0.0,0.0,0.0,59.999996,0.0,26.0,26.0,26.0,26.0,0.020888888888888957,0.2962,-0.035225,296.738,-2.87675,-2.7342500000000003,-1.60565,-1.5707,-177.38,215.29500000000002,190.36,0.0,0.0,0.0,0.0,0.05873333333333334,-5.498166666666667,-5.498166666666667,-0.3673,-0.7136666666666667,-0.00812500000000016,0.7829999999999999,69.881,0.010100000000000001,0.0755,-0.3179999999999996,100.0,1.0,1.0,215.29666666666668,0.0,0.0,0.0,0.0,0.0,0.0,0.0,9125.7,0.0,55.0,5.0,251.54000000000002,1.0,0.0,0.0,0.0,0.0,0.0,0.0,0.0,1.4549999999999983,1.4549999999999983,0.0,0.0,1.0,55.0,616.79921,10000.0,85.000001,85.000001,85.000001,85.000001,395.0,0.0,0.0,0.0,1.0,166.665,64.285,64.285,45.760999999999996,45.760999999999996,34.0,-17.844,19.256666666666668,-28.953333333333333,32.192499999999995,0.0,1781.953,-0.4549999999999983,100.0,18.9685,18.8435,44.872,44.82,0.0,0.0,100.0,0.0,0.0,0.0,0.0,2256.777777777778,2332.8,4267.9,4401.2,308.1313333333333,307.7345,314.4415,313.999,21.934666666666665,20.521349999999998,22.0026,21.557299999999998,314.999998,314.999998,324.999988,324.999988,99.55867142857143,99.50598333333333,99.565,99.54797142857143,0.06174999999999997,0.01550000000000007,-0.07499999999999996,0.12483333333333335,-0.05666666666667197,-0.061666666666667425,1.4706666666666666,1.454,38.092,29.258333333333333,38.516,35.733000000000004,54.97,33.608000000000004,58.8015,52.885,52.855000000000004,32.8575,57.3755,51.219,51.929,32.4625,57.226,50.63433333333333,-0.05499999999999994,0.011500000000000066,0.09778500000000001,0.110155,0.0,218.70499999999998,218.71,215.29666666666668,215.29666666666668,0.0,0.0
30,0.0,0.0,0.0,1.0,1.0,0.0,0.0,1.0,0.0,100.0,1.0,1.1856,26.0,0.0,0.0,0.0,59.999996,0.0,26.0,26.0,26.0,26.0,0.023333333333333428,0.2997000000000001,0.0555,295.868,-2.85785,-2.7887500000000003,-1.6597,-1.4844,-173.81,215.2975,190.33325,0.0,0.0,0.0,0.0,0.06083333333333334,-5.498166666666667,-5.498166666666667,-0.3629,0.9386666666666666,-0.002874999999999961,-0.3690000000000002,70.025,0.0135,0.07625,-0.3360000000000003,100.0,1.0,1.0,215.78,0.0,0.0,0.0,0.0,0.0,0.0,0.0,9146.1,0.0,55.0,5.0,252.05666666666667,0.0,0.0,0.0,0.0,0.0,0.0,1.0,0.0,1.5060000000000002,1.5060000000000002,0.0,0.0,0.0,55.0,616.79921,10000.0,85.000001,85.000001,85.000001,85.000001,395.0,0.0,0.0,0.0,1.0,166.665,62.836,62.836,45.364,45.364,34.0,-19.189999999999998,19.941666666666666,-32.65,30.5325,0.0,1781.902,-0.5350000000000001,100.0,19.846,19.8595,44.703,44.993,0.0,0.0,100.0,0.0,0.0,0.0,0.0,2436.666666666667,2339.0,4506.3,4474.3,307.468,307.163,314.0785,313.92575,21.943,20.52565,22.0128,21.5665,314.999998,314.999998,324.999988,324.999988,99.55868571428572,99.50598333333333,99.56514285714286,99.54812857142858,0.07400000000000007,0.0007500000000000284,-0.09533333333333338,0.11099999999999999,-0.04833333333333201,-0.06833333333332803,1.4706666666666666,1.4685000000000001,38.144,29.285333333333334,38.58,35.791,54.946,33.637,58.8425,52.94733333333333,52.833,32.8845,57.414,51.278999999999996,51.906,32.4885,57.260999999999996,50.693,-0.0754999999999999,0.009500000000000064,0.109005,0.09981000000000001,0.0,219.185,219.19,215.78,215.78,0.0,0.0
31,0.0,0.0,0.0,1.0,1.0,0.0,0.0,1.0,0.0,100.0,1.0,1.1856,26.0,0.0,0.0,0.0,59.999996,0.0,26.0,26.0,26.0,26.0,0.03977777777777791,0.28059999999999996,0.04565,295.807,-2.8305,-2.8405,-1.6553499999999999,-1.558,-170.24,215.3,190.3075,0.0,0.0,0.0,0.0,0.0629,-5.498166666666667,-5.498166666666667,-0.34790000000000004,-0.4276666666666667,0.011500000000000066,0.815,70.172,0.018500000000000003,0.06695000000000001,-0.45199999999999996,100.0,1.0,1.0,216.11666666666667,0.0,0.0,0.0,0.0,0.0,0.0,0.0,9160.4,0.0,55.0,5.0,252.59,1.0,0.0,0.0,0.0,0.0,0.0,1.0,0.0,1.5569999999999986,1.5569999999999986,0.0,0.0,1.0,55.0,616.79921,10000.0,85.000001,85.000001,85.000001,85.000001,395.0,0.0,0.0,0.0,1.0,166.665,63.324,63.324,44.479,44.479,34.0,-15.997999999999998,21.063333333333333,-31.153333333333332,33.3525,0.0,1781.851,-0.48999999999999844,100.0,19.708,19.779,45.451,45.498000000000005,0.0,0.0,100.0,0.0,0.0,0.0,0.0,2130.8888888888887,2417.0,4359.8,4506.5,308.2683333333333,307.1385,314.1515,313.67875,21.951,20.52985,22.0234,21.5761,314.999998,314.999998,324.999988,324.999988,99.5587,99.506,99.56528571428571,99.54827142857143,0.08800000000000008,0.01100000000000012,-0.08033333333333337,0.1263333333333332,-0.02833333333332888,-0.06499999999999773,1.4060000000000001,1.4055,38.194,29.311333333333334,38.646,35.8505,54.919,33.665,58.8885,53.01433333333333,52.807,32.91,57.457,51.343333333333334,51.881,32.513,57.301,50.75566666666667,-0.07050000000000001,0.00550000000000006,0.10636000000000001,0.10695,0.0,219.60000000000002,219.635,216.11666666666667,216.11666666666667,0.0,0.0
32,0.0,0.0,0.0,1.0,1.0,0.0,0.0,1.0,0.0,100.0,1.0,1.1856,26.0,0.0,0.0,0.0,59.999996,0.0,26.0,26.0,26.0,26.0,0.06577777777777793,0.2812000000000001,-0.068125,296.677,-2.83275,-2.82675,-1.59205,-1.6354000000000002,-166.64999999999998,215.305,190.282,0.0,0.0,0.0,0.0,0.06496666666666667,-5.498166666666667,-5.498166666666667,-0.37270000000000003,-0.3833333333333333,-0.013749999999999929,-1.1440000000000001,70.314,0.0206,0.05316666666666667,-0.3360000000000003,100.0,1.0,1.0,216.73000000000002,0.0,0.0,0.0,0.0,0.0,0.0,0.0,9186.4,0.0,55.0,5.0,253.10333333333335,0.0,0.0,0.0,0.0,0.0,0.0,1.0,0.0,1.6080000000000005,1.6080000000000005,0.0,0.0,0.0,55.0,616.79921,10000.0,85.000001,85.000001,85.000001,85.000001,395.0,0.0,0.0,0.0,1.0,166.665,63.934,63.934,45.99,45.99,34.0,-16.906,18.57,-27.669999999999998,31.095,0.0,1781.8,-0.48999999999999844,100.0,19.2785,19.632,44.952,45.269999999999996,0.0,0.0,100.0,0.0,0.0,0.0,0.0,2225.666666666667,2161.3,4088.1,4180.3,308.19933333333336,307.84725,314.9185,314.41475,21.959,20.53395,22.0336,21.5854,314.999998,314.999998,324.999988,324.999988,99.55871428571429,99.506,99.56544285714286,99.54842857142857,0.07699999999999996,0.013000000000000123,-0.08499999999999996,0.12233333333333318,-0.04833333333333201,-0.045000000000001705,1.5,1.4825,38.244,29.337,38.71,35.908500000000004,54.891,33.6915,58.929,53.077,52.781,32.9345,57.4945,51.403666666666666,51.8545,32.536500000000004,57.335499999999996,50.81433333333333,-0.06699999999999995,0.00649999999999995,0.10530500000000001,0.10504500000000001,0.0,220.035,220.04000000000002,216.73000000000002,216.73000000000002,0.0,0.0
33,0.0,0.0,0.0,1.0,1.0,0.0,0.0,1.0,0.0,100.0,1.0,1.1856,26.0,0.0,0.0,0.0,59.999996,0.0,26.0,26.0,26.0,26.0,0.035222222222222266,0.2844,-0.0944,296.783,-2.84105,-2.798,-1.5989,-1.6009,-163.49,215.31,190.25825,0.0,0.0,0.0,0.0,0.06683333333333334,-5.498166666666667,-5.498166666666667,-0.37770000000000004,-0.052333333333333336,-0.011375000000000135,1.045,70.441,0.0188,0.07816666666666666,-0.3200000000000003,100.0,1.0,1.0,217.10666666666668,0.0,0.0,0.0,0.0,0.0,0.0,0.0,9202.4,0.0,55.0,5.0,253.55666666666667,1.0,0.0,0.0,0.0,0.0,0.0,1.0,0.0,1.6529999999999987,1.6529999999999987,0.0,0.0,1.0,55.0,616.79921,10000.0,85.000001,85.000001,85.000001,85.000001,395.0,0.0,0.0,0.0,1.0,333.33500000000004,64.178,64.178,46.004999999999995,46.004999999999995,34.0,-16.232,18.75,-28.36,31.945,0.0,1781.753,-0.5650000000000013,100.0,19.286,19.2375,44.821,44.956,0.0,0.0,100.0,0.0,0.0,0.0,0.0,2147.4444444444443,2200.1,4157.2,4307.5,308.29766666666666,307.961,314.72775,314.284,21.966,20.53745,22.0426,21.5935,314.999998,314.999998,324.999988,324.999988,99.55871428571429,99.506,99.56557142857143,99.54855714285715,0.08374999999999999,0.022250000000000103,-0.08416666666666661,0.12983333333333325,-0.04999999999999716,-0.045000000000001705,1.4926666666666666,1.4689999999999999,38.287,29.359,38.766,35.9595,54.867000000000004,33.714,58.9645,53.131,52.757999999999996,32.955,57.528,51.455333333333336,51.8315,32.556,57.366,50.864666666666665,-0.06899999999999995,0.0129999999999999,0.107425,0.10553000000000001,0.0,220.445,220.445,217.10666666666668,217.10666666666668,0.0,0.0
34,0.0,0.0,0.0,1.0,1.0,0.0,0.0,1.0,0.0,100.0,1.0,1.1856,26.0,0.0,0.0,0.0,59.999996,0.0,26.0,26.0,26.0,26.0,0.05111111111111111,0.28690000000000015,-0.071925,296.86,-2.80395,-2.82425,-1.6352,-1.5388000000000002,-159.89,215.315,190.229875,0.0,0.0,0.0,0.0,0.0689,-5.498166666666667,-5.498166666666667,-0.4047,-1.027,0.009749999999999925,-0.27200000000000024,70.58500000000001,0.019200000000000002,0.07355,-0.33200000000000074,100.0,1.0,1.0,217.47,0.0,0.0,0.0,0.0,0.0,0.0,0.0,9217.7,0.0,55.0,5.0,254.07666666666665,0.0,0.0,0.0,0.0,0.0,0.0,1.0,0.0,1.7040000000000006,1.7040000000000006,0.0,0.0,0.0,55.0,616.79921,10000.0,85.000001,85.000001,85.000001,85.000001,395.0,0.0,0.0,0.0,1.0,333.33500000000004,64.667,64.667,45.897999999999996,45.897999999999996,34.0,-15.866,18.013333333333332,-29.626666666666665,31.5075,0.0,1781.703,-0.5700000000000003,100.0,18.812,19.062,44.752,45.204,0.0,0.0,100.0,0.0,0.0,0.0,0.0,2154.5555555555557,2125.9,4269.6,4361.8,308.474,308.1065,314.53675,314.0635,21.973777777777777,20.54135,22.0528,21.6028,314.999998,314.999998,324.999988,324.999988,99.55871428571429,99.506,99.56571428571428,99.54871428571428,0.08299999999999996,0.013000000000000123,-0.08150000000000002,0.12549999999999994,-0.051666666666669414,-0.04999999999999716,1.479,1.452,38.336,29.383333333333333,38.83,36.018,54.838,33.738,59.0055,53.195,52.730999999999995,32.977000000000004,57.5665,51.516999999999996,51.8045,32.577,57.400999999999996,50.925,-0.07499999999999996,0.01200000000000001,0.10223,0.10972000000000001,0.0,220.87,220.875,217.47,217.47,0.0,0.0
35,0.0,0.0,0.0,1.0,1.0,0.0,0.0,1.0,0.0,100.0,1.0,1.1856,26.0,0.0,0.0,0.0,59.999996,0.0,26.0,26.0,26.0,26.0,0.044666666666666854,0.2974000000000001,-0.072775,296.722,-2.92645,-2.80525,-1.5415,-1.6035,-156.29,215.3225,190.199625,0.0,0.0,0.0,0.0,0.07100000000000001,-5.498166666666667,-5.498166666666667,-0.4383,0.128,-0.012375000000000025,-0.11799999999999988,70.726,0.0213,0.06808333333333334,-0.41000000000000014,100.0,1.0,1.0,218.00333333333333,0.0,0.0,0.0,0.0,0.0,0.0,0.0,9240.4,0.0,55.0,5.0,254.58333333333334,1.0,0.0,0.0,0.0,0.0,0.0,1.0,0.0,1.754999999999999,1.754999999999999,0.0,0.0,1.0,55.0,616.79921,10000.0,85.000001,85.000001,85.000001,85.000001,395.0,0.0,0.0,0.0,1.0,166.665,63.843,63.843,45.67,45.67,34.0,-17.428,21.39666666666667,-27.45,31.2775,0.0,1781.654,-0.370000000000001,100.0,18.947,19.3625,44.59,44.698,0.0,0.0,100.0,0.0,0.0,0.0,0.0,2201.333333333333,2455.7,4206.7,4203.7,308.131,307.09125,314.69525,314.587,21.981666666666666,20.5456,22.0629,21.612000000000002,314.999998,314.999998,324.999988,324.999988,99.55872857142857,99.50601666666667,99.56587142857143,99.54887142857143,0.07699999999999996,0.01924999999999999,-0.08016666666666661,0.13916666666666666,-0.03499999999999659,-0.060000000000002274,1.537,1.5165,38.385,29.41,38.893,36.075,54.809,33.766,59.0445,53.254333333333335,52.704,33.003,57.603,51.574,51.777,32.602000000000004,57.4345,50.980333333333334,-0.058499999999999996,0.0035000000000000586,0.10683500000000001,0.107755,0.0,221.3,221.32999999999998,218.00333333333333,218.00333333333333,0.0,0.0
