,ABS Active,ABS Enabled,AID Allow Tire Blankets,AID Auto Blip,AID Auto Clutch,AID Auto Shift,AID Fuel Rate,AID Ideal Line,AID Mech Damage,AID Stability,AID Tire Wear Rate,Air Density,Air Temp,Ballast,Best Lap Delta,Best Lap Time,Brake Bias,Brake Pos,Brake Temp FL,Brake Temp FR,Brake Temp RL,Brake Temp RR,CG Accel Lateral,CG Accel Longitudinal,CG Accel Vertical,CG Height,Camber FL,Camber FR,Camber RL,Camber RR,Car Coord X,Car Coord Y,Car Coord Z,Car Damage Front,Car Damage Left,Car Damage Rear,Car Damage Right,Car Pos Norm,Caster FL,Caster FR,Chassis Pitch Angle,Chassis Pitch Rate,Chassis Roll Angle,Chassis Roll Rate,Chassis Velocity X,Chassis Velocity Y,Chassis Velocity Z,Chassis Yaw Rate,Clutch Pos,DRS Active,DRS Available,Drive Train Speed,ERS Heat Charging,ERS Is Charging,ERS Max Energy,ERS Power Level,ERS Recovery Level,Engine Brake Setting,Engine Limiter,Engine RPM,Flags,Fuel Level,Gear,Ground Speed,HR Sample Clock,In Pit,KERS Charge,KERS Deployed Energy,KERS Input,KERS Max Energy,LR Sample Clock,Lap Invalidated,Lap Time,Lap Time2,Last Lap Time,Last Sector Time,MR Sample Clock,Max Fuel,Max Power,Max RPM,Max Sus Travel FL,Max Sus Travel FR,Max Sus Travel RL,Max Sus Travel RR,Max Torque,Max Turbo Boost,Num Tires Off Track,Penalties Enabled,Position,Raw Data Sample Rate,Ride Height FL,Ride Height FR,Ride Height RL,Ride Height RR,Road Temp,Self Align Torque FL,Self Align Torque FR,Self Align Torque RL,Self Align Torque RR,Session Lap Count,Session Time Left,Steering Angle,Surface Grip,Suspension Travel FL,Suspension Travel FR,Suspension Travel RL,Suspension Travel RR,TC Active,TC Enabled,Throttle Pos,Tire Dirt Level FL,Tire Dirt Level FR,Tire Dirt Level RL,Tire Dirt Level RR,Tire Load FL,Tire Load FR,Tire Load RL,Tire Load RR,Tire Loaded Radius FL,Tire Loaded Radius FR,Tire Loaded Radius RL,Tire Loaded Radius RR,Tire Pressure FL,Tire Pressure FR,Tire Pressure RL,Tire Pressure RR,Tire Radius FL,Tire Radius FR,Tire Radius RL,Tire Radius RR,Tire Rubber Grip FL,Tire Rubber Grip FR,Tire Rubber Grip RL,Tire Rubber Grip RR,Tire Slip Angle FL,Tire Slip Angle FR,Tire Slip Angle RL,Tire Slip Angle RR,Tire Slip Ratio FL,Tire Slip Ratio FR,Tire Slip Ratio RL,Tire Slip Ratio RR,Tire Temp Core FL,Tire Temp Core FR,Tire Temp Core RL,Tire Temp Core RR,Tire Temp Inner FL,Tire Temp Inner FR,Tire Temp Inner RL,Tire Temp Inner RR,Tire Temp Middle FL,Tire Temp Middle FR,Tire Temp Middle RL,Tire Temp Middle RR,Tire Temp Outer FL,Tire Temp Outer FR,Tire Temp Outer RL,Tire Temp Outer RR,Toe In FL,Toe In FR,Toe In RL,Toe In RR,Turbo Boost,Wheel Angular Speed FL,Wheel Angular Speed FR,Wheel Angular Speed RL,Wheel Angular Speed RR,Wind Direction,Wind Speed
0,0.0,0.0,0.0,1.0,1.0,0.0,0.0,1.0,0.0,100.0,1.0,1.1856,26.0,0.0,0.0,0.0,59.99999,0.0,26.0,26.0,26.0,26.0,-0.0505,0.2681,0.125,298.05,-2.83195,-2.7657499999999997,-1.5230000000000001,-1.5572,-275.75,216.25,190.992,0.0,0.0,0.0,0.0,0.0015333333333333334,-5.498166666666667,-5.498166666666667,-0.40540000000000004,1.7945,-0.00533333333333319,-1.102,65.384,-0.03615,-0.03888333333333333,0.9120000000000008,100.0,1.0,1.0,201.92666666666668,0.0,0.0,0.0,0.0,0.0,0.0,0.0,8559.0,0.0,55.0,5.0,235.35000000000002,0.0,0.0,0.0,0.0,0.0,0.0,0.0,0.0,0.0030000000000001137,0.0030000000000001137,0.0,0.0,0.0,55.0,616.79921,10000.0,85.0,85.0,85.0,85.0,395.0,0.0,0.0,0.0,1.0,20.0,61.188,61.188,49.988,49.988,34.0,-24.982,23.506666666666668,-27.673333333333336,22.3475,0.0,1783.273,0.6950000000000003,100.0,20.049,19.5525,40.755,40.917,0.0,0.0,100.0,0.0,0.0,0.0,0.0,2698.75,3035.0,3858.7,3743.0,306.679,305.0615,315.5285,315.5455,21.69322222222222,20.408,21.715,21.3014,314.99999,314.99999,324.99998,324.99998,99.55821428571429,99.50573333333334,99.56068571428571,99.54377142857143,-0.03300000000000003,-0.07599999999999996,-0.152,0.04985714285714286,-0.05833333333333002,-0.07666666666666799,1.5295,1.5565,36.582,28.549999999999997,36.719,34.134,55.641999999999996,32.769,57.5015,51.031,53.486999999999995,32.086,56.158500000000004,49.44133333333333,52.5695,31.724,56.092,48.894999999999996,0.020499999999999963,-0.08650000000000002,0.10246000000000001,0.09967000000000001,0.0,204.885,204.81,201.92666666666668,201.92666666666668,0.0,0.0
1,0.0,0.0,0.0,1.0,1.0,0.0,0.0,1.0,0.0,100.0,1.0,1.1856,26.0,0.0,0.0,0.0,59.999996,0.0,26.0,26.0,26.0,26.0,-0.1189,0.3338000000000001,0.10842000000000002,297.104,-2.75905,-2.879875,-1.5297,-1.5645,-272.41,216.245,190.971875,0.0,0.0,0.0,0.0,0.0035,-5.498166666666667,-5.498166666666667,-0.26880000000000004,0.271,-0.05844444444444452,-0.33799999999999997,65.55799999999999,-0.04945,0.06155,1.1720000000000006,100.0,1.0,1.0,201.92666666666668,0.0,0.0,0.0,0.0,0.0,0.0,0.0,8558.9,0.0,55.0,5.0,235.97333333333333,1.0,0.0,0.0,0.0,0.0,0.0,0.0,0.0,0.053999999999998494,0.053999999999998494,0.0,0.0,1.0,55.0,616.79921,10000.0,85.000001,85.000001,85.000001,85.000001,395.0,0.0,0.0,0.0,1.0,333.33500000000004,64.438,64.438,46.478,46.478,34.0,-17.857999999999997,11.081666666666667,-38.68,31.725,0.0,1783.22,0.9849999999999994,100.0,20.079,19.43,43.285,42.467,0.0,0.0,100.0,0.0,0.0,0.0,0.0,2017.125,1659.5,4814.6,5010.6,308.62166666666667,309.5995,313.0085,312.33525,21.701999999999998,20.4118,21.7255,21.3105,314.999998,314.999998,324.999988,324.999988,99.55821428571429,99.50575,99.56082857142857,99.54392857142857,-0.04774999999999996,-0.11749999999999994,-0.16771428571428573,0.03214285714285715,-0.02833333333332888,-0.045000000000001705,1.327,1.3725,36.638,28.573666666666668,36.785,34.1905,55.616,32.7985,57.5545,51.1,53.463,32.1135,56.209,49.507,52.545,31.75,56.1395,48.95933333333333,0.040000000000000036,-0.10499999999999998,0.10179,0.10469,0.0,205.43,205.32999999999998,201.92666666666668,201.92666666666668,0.0,0.0
2,0.0,0.0,0.0,1.0,1.0,0.0,0.0,1.0,0.0,100.0,1.0,1.1856,26.0,0.0,0.0,0.0,59.999996,0.0,26.0,26.0,26.0,26.0,-0.1428,0.3138000000000001,-0.16022,298.019,-2.72025,-2.91275,-1.5137,-1.6255000000000002,-269.06,216.2375,190.95325,0.0,0.0,0.0,0.0,0.005433333333333333,-5.498166666666667,-5.498166666666667,-0.3531,-0.6305000000000001,-0.04977777777777792,2.289,65.714,-0.06085,-0.030533333333333332,1.436,100.0,1.0,1.0,203.04666666666668,0.0,0.0,0.0,0.0,0.0,0.0,0.0,8606.4,0.0,55.0,5.0,236.5366666666667,0.0,0.0,0.0,0.0,0.0,0.0,0.0,0.0,0.10500000000000043,0.10500000000000043,0.0,0.0,0.0,55.0,616.79921,10000.0,85.000001,85.000001,85.000001,85.000001,395.0,0.0,0.0,0.0,1.0,166.665,62.683,62.683,49.423,49.423,34.0,-24.474,15.321666666666667,-28.156666666666666,19.9375,0.0,1783.171,1.0650000000000013,100.0,20.361,19.032,43.514,42.396,0.0,0.0,100.0,0.0,0.0,0.0,0.0,2587.125,2200.6,3694.1,3569.5,306.8433333333333,307.91325,315.7195,316.054,21.71088888888889,20.4152,21.7357,21.3192,314.999998,314.999998,324.999988,324.999988,99.55821428571429,99.50576666666667,99.56097142857143,99.54405714285714,-0.07099999999999995,-0.129,-0.20214285714285715,0.01685714285714286,-0.036666666666668846,-0.06833333333332803,1.646,1.6935,36.693,28.595,36.848,34.245,55.592,32.823499999999996,57.599000000000004,51.159333333333336,53.44,32.1365,56.2505,49.564,52.522,31.772,56.1785,49.015,0.044499999999999984,-0.10899999999999999,0.10465500000000001,0.10623,0.0,205.82999999999998,205.72500000000002,203.04666666666668,203.04666666666668,0.0,0.0
3,0.0,0.0,0.0,1.0,1.0,0.0,0.0,1.0,0.0,100.0,1.0,1.1856,26.0,0.0,0.0,0.0,59.999996,0.0,26.0,26.0,26.0,26.0,-0.11750000000000001,0.33840000000000003,0.01362,297.60699999999997,-2.8494,-2.80075,-1.5204,-1.5962,-265.9,216.22750000000002,190.93475,0.0,0.0,0.0,0.0,0.007266666666666668,-5.498166666666667,-5.498166666666667,-0.30560000000000004,1.271,-0.007000000000000117,-0.538,65.872,-0.0796,0.0373,1.2520000000000007,100.0,1.0,1.0,203.18666666666667,0.0,0.0,0.0,0.0,0.0,0.0,0.0,8612.3,0.0,55.0,5.0,237.10333333333335,1.0,0.0,0.0,0.0,0.0,0.0,0.0,0.0,0.1529999999999987,0.1529999999999987,0.0,0.0,1.0,55.0,616.79921,10000.0,85.000001,85.000001,85.000001,85.000001,395.0,0.0,0.0,0.0,1.0,333.33500000000004,63.797,63.797,47.165,47.165,34.0,-19.728,13.33,-35.99666666666667,25.442500000000003,0.0,1783.122,0.865000000000002,100.0,20.041,19.365,43.021,42.198,0.0,0.0,100.0,0.0,0.0,0.0,0.0,2094.375,2020.4,4459.8,4316.6,308.3743333333333,308.2225,313.9905,314.173,21.71911111111111,20.41885,21.7451,21.3274,314.999998,314.999998,324.999988,324.999988,99.55822857142857,99.50576666666667,99.5611,99.54418571428572,-0.07050000000000001,-0.13549999999999995,-0.20014285714285715,0.01785714285714286,-0.06333333333333258,-0.03499999999999659,1.484,1.5294999999999999,36.745000000000005,28.617666666666665,36.907,34.296,55.569,32.8535,57.64,51.21933333333333,53.418,32.164,56.2885,49.62133333333333,52.5005,31.7985,56.214,49.071333333333335,0.04049999999999998,-0.10250000000000004,0.09892000000000001,0.11763000000000001,0.0,206.4,206.3,203.18666666666667,203.18666666666667,0.0,0.0
4,0.0,0.0,0.0,1.0,1.0,0.0,0.0,1.0,0.0,100.0,1.0,1.1856,26.0,0.0,0.0,0.0,59.999996,0.0,26.0,26.0,26.0,26.0,-0.1325,0.31930000000000014,-0.01406,297.76,-2.78695,-2.8512500000000003,-1.5457,-1.6084,-262.34,216.2125,190.913875,0.0,0.0,0.0,0.0,0.009366666666666667,-5.498166666666667,-5.498166666666667,-0.33290000000000003,-1.0070000000000001,-0.0732222222222223,-1.637,66.044,-0.08545,0.005833333333333334,1.1799999999999997,100.0,1.0,1.0,203.81666666666666,0.0,0.0,0.0,0.0,0.0,0.0,0.0,8639.0,0.0,55.0,5.0,237.72333333333333,0.0,0.0,0.0,0.0,0.0,0.0,0.0,0.0,0.20700000000000074,0.20700000000000074,0.0,0.0,0.0,55.0,616.79921,10000.0,85.000001,85.000001,85.000001,85.000001,395.0,0.0,0.0,0.0,1.0,166.665,63.568,63.568,47.501,47.501,34.0,-23.174,14.146666666666667,-33.86666666666667,22.0025,0.0,1783.069,0.879999999999999,100.0,19.631,19.0285,43.782,42.58,0.0,0.0,100.0,0.0,0.0,0.0,0.0,2440.0,2091.2,4179.8,3786.9,307.571,308.107,314.5755,315.36825,21.72811111111111,20.42265,21.7561,21.3368,314.999998,314.999998,324.999988,324.999988,99.55824285714286,99.50578333333333,99.56125714285714,99.54434285714285,-0.08174999999999999,-0.13275000000000003,-0.2035714285714286,0.020142857142857143,-0.05833333333333002,-0.054999999999999716,1.5,1.56,36.801,28.641333333333336,36.975,34.355000000000004,55.539,32.8835,57.6905,51.28633333333333,53.391,32.1915,56.3365,49.68533333333333,52.473,31.8245,56.259,49.134,0.038000000000000034,-0.09350000000000014,0.10453000000000001,0.10941500000000001,0.0,206.865,206.76999999999998,203.81666666666666,203.81666666666666,0.0,0.0
5,0.0,0.0,0.0,1.0,1.0,0.0,0.0,1.0,0.0,100.0,1.0,1.1856,26.0,0.0,0.0,0.0,59.999996,0.0,26.0,26.0,26.0,26.0,-0.1306,0.32820000000000005,-0.0024600000000000004,297.867,-2.7909,-2.8836250000000003,-1.5204,-1.6017000000000001,-259.17,216.1975,190.89475,0.0,0.0,0.0,0.0,0.0112,-5.498166666666667,-5.498166666666667,-0.3295,0.53,-0.0855555555555556,-0.22999999999999998,66.197,-0.0908,0.023783333333333337,1.1899999999999995,100.0,1.0,1.0,204.2733333333333,0.0,0.0,0.0,0.0,0.0,0.0,0.0,8658.5,0.0,55.0,5.0,238.27666666666667,1.0,0.0,0.0,0.0,0.0,0.0,0.0,0.0,0.254999999999999,0.254999999999999,0.0,0.0,1.0,55.0,616.79921,10000.0,85.000001,85.000001,85.000001,85.000001,395.0,0.0,0.0,0.0,1.0,166.665,63.889,63.889,47.913,47.913,34.0,-22.598,13.718333333333332,-34.64,22.9025,0.0,1783.021,0.5549999999999997,100.0,19.765,18.8475,43.487,42.155,0.0,0.0,100.0,0.0,0.0,0.0,0.0,2415.625,1967.6999999999998,4244.3,4075.2,307.59133333333335,308.50875,314.53425,314.7175,21.736555555555555,20.426099999999998,21.7656,21.3449,314.999998,314.999998,324.999988,324.999988,99.55824285714286,99.50578333333333,99.5614,99.54445714285714,-0.06725000000000003,-0.11675000000000002,-0.217,0.0002857142857142857,-0.07666666666666799,-0.07166666666666544,1.506,1.548,36.852999999999994,28.663,37.035,34.4055,55.518,32.9105,57.733000000000004,51.342333333333336,53.370999999999995,32.216,56.376,49.739,52.4525,31.848,56.296,49.186,0.014499999999999957,-0.06700000000000017,0.099455,0.10868000000000001,0.0,207.4,207.28,204.2733333333333,204.2733333333333,0.0,0.0
6,0.0,0.0,0.0,1.0,1.0,0.0,0.0,1.0,0.0,100.0,1.0,1.1856,26.0,0.0,0.0,0.0,59.999996,0.0,26.0,26.0,26.0,26.0,-0.1046,0.3256000000000001,-0.0064,297.775,-2.7577,-2.863125,-1.5625,-1.5975000000000001,-255.99,216.1775,190.8755,0.0,0.0,0.0,0.0,0.013033333333333334,-5.498166666666667,-5.498166666666667,-0.3166,0.15200000000000002,-0.06888888888888856,-0.55,66.35,-0.08785,0.03191666666666667,0.8760000000000012,100.0,1.0,1.0,204.70333333333332,0.0,0.0,0.0,0.0,0.0,0.0,0.0,8676.6,0.0,55.0,5.0,238.82666666666665,0.0,0.0,0.0,0.0,0.0,0.0,0.0,0.0,0.3030000000000008,0.3030000000000008,0.0,0.0,0.0,55.0,616.79921,10000.0,85.000001,85.000001,85.000001,85.000001,395.0,0.0,0.0,0.0,1.0,333.33500000000004,63.934,63.934,47.546,47.546,34.0,-21.997999999999998,14.581666666666667,-34.980000000000004,23.3525,0.0,1782.972,0.3500000000000014,100.0,19.443,18.6855,43.596000000000004,42.436,0.0,0.0,100.0,0.0,0.0,0.0,0.0,2412.0,2070.7,4246.8,4080.4,307.61266666666666,308.1175,314.51075,314.6785,21.744777777777777,20.4295,21.775199999999998,21.3533,314.999998,314.999998,324.999988,324.999988,99.55825714285714,99.5058,99.56152857142857,99.5446,-0.05525000000000002,-0.11449999999999994,-0.21085714285714285,0.008285714285714287,-0.06333333333333258,-0.04833333333333201,1.501,1.5405,36.905,28.684333333333335,37.095,34.458,55.494,32.9365,57.7765,51.403,53.349000000000004,32.24,56.417,49.79666666666667,52.4305,31.871000000000002,56.3345,49.242666666666665,-0.0030000000000000027,-0.052999999999999936,0.10881500000000001,0.10787000000000001,0.0,207.85500000000002,207.775,204.70333333333332,204.70333333333332,0.0,0.0
7,0.0,0.0,0.0,1.0,1.0,0.0,0.0,1.0,0.0,100.0,1.0,1.1856,26.0,0.0,0.0,0.0,59.999996,0.0,26.0,26.0,26.0,26.0,-0.09680000000000001,0.32889999999999997,0.036860000000000004,297.699,-2.72825,-2.85175,-1.5185,-1.588,-252.6,216.1525,190.85525,0.0,0.0,0.0,0.0,0.015000000000000001,-5.498166666666667,-5.498166666666667,-0.31930000000000003,-0.01750000000000007,-0.05733333333333368,1.064,66.512,-0.07345,0.025133333333333334,0.47600000000000087,100.0,1.0,1.0,205.17333333333335,0.0,0.0,0.0,0.0,0.0,0.0,0.0,8696.6,0.0,55.0,5.0,239.40666666666667,1.0,0.0,0.0,0.0,0.0,0.0,0.0,0.0,0.3539999999999992,0.3539999999999992,0.0,0.0,1.0,55.0,616.79921,10000.0,85.000001,85.000001,85.000001,85.000001,395.0,0.0,0.0,0.0,1.0,333.33500000000004,63.812,63.812,47.806,47.806,34.0,-20.823999999999998,16.891666666666666,-31.926666666666666,25.465,0.0,1782.92,-0.07499999999999929,100.0,19.495,18.3355,43.653,42.511,0.0,0.0,100.0,0.0,0.0,0.0,0.0,2397.0,2229.5,4143.0,4178.8,307.4053333333333,307.81725,314.6395,314.50125,21.753555555555558,20.4332,21.7854,21.3622,314.999998,314.999998,324.999988,324.999988,99.55825714285714,99.5058,99.56167142857143,99.54474285714285,-0.01474999999999993,-0.06874999999999998,-0.1784285714285714,0.037714285714285714,-0.054999999999999716,-0.06833333333332803,1.5025,1.5265,36.96,28.707333333333334,37.159,34.5135,55.468,32.964,57.8225,51.46633333333333,53.325,32.265,56.46,49.85766666666667,52.406,31.8945,56.3745,49.302,-0.035499999999999976,-0.02300000000000013,0.10626000000000001,0.10704500000000002,0.0,208.32,208.285,205.17333333333335,205.17333333333335,0.0,0.0
8,0.0,0.0,0.0,1.0,1.0,0.0,0.0,1.0,0.0,100.0,1.0,1.1856,26.0,0.0,0.0,0.0,59.999996,0.0,26.0,26.0,26.0,26.0,-0.046200000000000005,0.31689999999999996,0.03452,298.004,-2.8137,-2.859125,-1.5035,-1.5927,-249.0,216.1275,190.8335,0.0,0.0,0.0,0.0,0.0171,-5.498166666666667,-5.498166666666667,-0.3185,-0.5960000000000001,-0.0387777777777778,0.718,66.68299999999999,-0.056650000000000006,0.0385,-0.012000000000000455,100.0,1.0,1.0,205.64666666666668,0.0,0.0,0.0,0.0,0.0,0.0,0.0,8716.6,0.0,55.0,5.0,240.0233333333333,0.0,0.0,0.0,0.0,0.0,0.0,0.0,0.0,0.40800000000000125,0.40800000000000125,0.0,0.0,0.0,55.0,616.79921,10000.0,85.000001,85.000001,85.000001,85.000001,395.0,0.0,0.0,0.0,1.0,166.665,64.743,64.743,47.104,47.104,34.0,-17.494,16.938333333333333,-31.063333333333333,27.689999999999998,0.0,1782.868,-0.2699999999999996,100.0,19.022,18.2445,43.682,42.641999999999996,0.0,0.0,100.0,0.0,0.0,0.0,0.0,2094.25,2181.1,4190.0,4228.6,308.47866666666664,307.99075,314.4935,314.31,21.762555555555554,20.4371,21.7962,21.3716,314.999998,314.999998,324.999988,324.999988,99.55825714285714,99.50581666666666,99.56181428571429,99.54488571428571,0.006750000000000034,-0.05149999999999999,-0.15342857142857141,0.066,-0.04833333333333201,-0.07499999999999574,1.472,1.4849999999999999,37.016,28.732,37.226,34.5725,55.437,32.9915,57.8705,51.533,53.295,32.29,56.504999999999995,49.92133333333334,52.3775,31.9185,56.4165,49.364333333333335,-0.044499999999999984,-0.0024999999999999467,0.10083500000000001,0.10763,0.0,208.835,208.82,205.64666666666668,205.64666666666668,0.0,0.0
9,0.0,0.0,0.0,1.0,1.0,0.0,0.0,1.0,0.0,100.0,1.0,1.1856,26.0,0.0,0.0,0.0,59.999996,0.0,26.0,26.0,26.0,26.0,-0.0188,0.32340000000000013,-0.0162,297.684,-2.8019,-2.863375,-1.5569000000000002,-1.5750000000000002,-246.0,216.10250000000002,190.814875,0.0,0.0,0.0,0.0,0.018866666666666667,-5.498166666666667,-5.498166666666667,-0.32580000000000003,0.5625,-0.04600000000000026,-0.5229999999999999,66.821,-0.03725,0.035583333333333335,-0.03000000000000025,100.0,1.0,1.0,206.19333333333333,0.0,0.0,0.0,0.0,0.0,0.0,0.0,8739.7,0.0,55.0,5.0,240.5233333333333,1.0,0.0,0.0,0.0,0.0,0.0,0.0,0.0,0.4529999999999994,0.4529999999999994,0.0,0.0,1.0,55.0,616.79921,10000.0,85.000001,85.000001,85.000001,85.000001,395.0,0.0,0.0,0.0,1.0,333.33500000000004,63.538,63.538,48.096000000000004,48.096000000000004,34.0,-21.698,17.715,-29.656666666666666,26.2675,0.0,1782.822,-0.379999999999999,100.0,19.302,18.767,43.313,42.718,0.0,0.0,100.0,0.0,0.0,0.0,0.0,2564.75,2183.4,4094.6,4083.8,307.15633333333335,307.73725,314.894,314.69525,21.770222222222223,20.44055,21.8051,21.3794,314.999998,314.999998,324.999988,324.999988,99.55827142857143,99.50581666666666,99.56195714285714,99.54501428571429,0.016250000000000098,-0.035250000000000004,-0.1392857142857143,0.07085714285714287,-0.06833333333332803,-0.05833333333333002,1.547,1.5514999999999999,37.064,28.753333333333334,37.282,34.6215,55.414,33.0155,57.908,51.58733333333333,53.272999999999996,32.3125,56.54,49.973333333333336,52.355000000000004,31.939999999999998,56.449,49.415,-0.05699999999999994,0.0015000000000000568,0.107325,0.11135500000000001,0.0,209.29000000000002,209.255,206.19333333333333,206.19333333333333,0.0,0.0
10,0.0,0.0,0.0,1.0,1.0,0.0,0.0,1.0,0.0,100.0,1.0,1.1856,26.0,0.0,0.0,0.0,59.999996,0.0,26.0,26.0,26.0,26.0,-0.011000000000000001,0.3204,0.056220000000000006,297.501,-2.77085,-2.85175,-1.5343,-1.5582,-242.59,216.075,190.794125,0.0,0.0,0.0,0.0,0.020833333333333336,-5.498166666666667,-5.498166666666667,-0.2974,-0.34150000000000014,-0.004666666666666597,1.8410000000000002,66.983,-0.0195,0.05185,-0.3779999999999992,100.0,1.0,1.0,206.48000000000002,0.0,0.0,0.0,0.0,0.0,0.0,0.0,8751.9,0.0,55.0,5.0,241.10666666666668,0.0,0.0,0.0,0.0,0.0,0.0,1.0,0.0,0.5040000000000013,0.5040000000000013,0.0,0.0,0.0,55.0,616.79921,10000.0,85.000001,85.000001,85.000001,85.000001,395.0,0.0,0.0,0.0,1.0,333.33500000000004,64.636,64.636,46.539,46.539,34.0,-15.258,17.6,-30.94,30.1875,0.0,1782.771,-0.6950000000000003,100.0,19.314,18.5565,43.814,43.342,0.0,0.0,100.0,0.0,0.0,0.0,0.0,2004.625,2124.6,4368.9,4423.4,308.644,308.15475,314.06375,313.88075,21.77888888888889,20.4443,21.8154,21.3885,314.999998,314.999998,324.999988,324.999988,99.55827142857143,99.50581666666666,99.5621,99.54515714285715,0.05800000000000005,-0.004249999999999976,-0.11242857142857143,0.08914285714285713,-0.041666666666671404,-0.061666666666667425,1.454,1.436,37.117999999999995,28.777,37.346000000000004,34.6785,55.387,33.0405,57.955,51.653666666666666,53.248999999999995,32.335499999999996,56.584,50.037,52.33,31.962,56.49,49.477333333333334,-0.08650000000000002,0.02499999999999991,0.10589000000000001,0.10953,0.0,209.76,209.785,206.48000000000002,206.48000000000002,0.0,0.0
11,0.0,0.0,0.0,1.0,1.0,0.0,0.0,1.0,0.0,100.0,1.0,1.1856,26.0,0.0,0.0,0.0,59.999996,0.0,26.0,26.0,26.0,26.0,0.049300000000000004,0.29990000000000006,-0.11598,298.096,-2.8257,-2.8209999999999997,-1.5955,-1.5501,-239.17000000000002,216.0475,190.7735,0.0,0.0,0.0,0.0,0.022600000000000002,-5.498166666666667,-5.498166666666667,-0.3402,-0.3005,0.023222222222222033,-0.519,67.138,0.00215,0.020016666666666665,-0.6260000000000003,100.0,1.0,1.0,207.24666666666667,0.0,0.0,0.0,0.0,0.0,0.0,0.0,8784.5,0.0,55.0,5.0,241.66333333333336,1.0,0.0,0.0,0.0,0.0,0.0,1.0,0.0,0.5549999999999997,0.5549999999999997,0.0,0.0,1.0,55.0,616.79921,10000.0,85.000001,85.000001,85.000001,85.000001,395.0,0.0,0.0,0.0,1.0,333.33500000000004,64.072,64.072,48.172,48.172,34.0,-17.235999999999997,19.161666666666665,-25.58,27.247500000000002,0.0,1782.72,-0.634999999999998,100.0,18.927,18.9095,43.32,43.43,0.0,0.0,100.0,0.0,0.0,0.0,0.0,2232.625,2248.6,3790.4,3932.5,308.14666666666665,307.5505,315.63625,315.05675,21.787222222222223,20.4482,21.825499999999998,21.3975,314.999998,314.999998,324.999988,324.999988,99.55827142857143,99.50581666666666,99.56222857142858,99.5453,0.0645,0.0044999999999999485,-0.10271428571428572,0.12371428571428571,-0.04999999999999716,-0.060000000000002274,1.6035,1.581,37.17,28.801000000000002,37.409,34.734,55.358000000000004,33.067,57.9955,51.716,53.221000000000004,32.3595,56.622,50.096666666666664,52.303,31.985,56.525,49.536,-0.08299999999999996,0.026000000000000023,0.11357500000000001,0.11436,0.0,210.195,210.24,207.24666666666667,207.24666666666667,0.0,0.0
12,0.0,0.0,0.0,1.0,1.0,0.0,0.0,1.0,0.0,100.0,1.0,1.1856,26.0,0.0,0.0,0.0,59.999996,0.0,26.0,26.0,26.0,26.0,0.0516,0.32340000000000013,0.0212,297.516,-2.88265,-2.8125,-1.5575,-1.5704,-235.94,216.0225,190.752625,0.0,0.0,0.0,0.0,0.025466666666666665,-5.498166666666667,-5.498166666666667,-0.32580000000000003,0.34550000000000003,0.010000000000000009,-0.754,67.289,0.0245,0.053366666666666666,-0.7439999999999998,100.0,1.0,1.0,207.50333333333333,0.0,0.0,0.0,0.0,0.0,0.0,0.0,8795.4,0.0,55.0,5.0,242.20666666666665,0.0,0.0,0.0,0.0,0.0,0.0,1.0,0.0,0.602999999999998,0.602999999999998,0.0,0.0,0.0,55.0,616.79921,10000.0,85.000001,85.000001,85.000001,85.000001,395.0,0.0,0.0,0.0,1.0,166.665,64.011,64.011,46.829,46.829,34.0,-18.508,18.998333333333335,-28.68,31.2275,0.0,1782.673,-0.14999999999999858,100.0,18.778,19.072,43.141999999999996,43.361000000000004,0.0,0.0,100.0,0.0,0.0,0.0,0.0,2286.75,2262.4,4329.1,4246.9,308.045,307.52475,314.334,314.288,21.795,20.45195,21.835,21.4059,314.999998,314.999998,324.999988,324.999988,99.55827142857143,99.50581666666666,99.56237142857142,99.54544285714286,0.04699999999999993,-0.003750000000000031,-0.07957142857142857,0.13471428571428573,-0.051666666666669414,-0.05333333333332746,1.5045,1.4765,37.219,28.824666666666666,37.469,34.786500000000004,55.333,33.0935,58.036500000000004,51.775,53.197,32.384,56.6605,50.153333333333336,52.278999999999996,32.007999999999996,56.5605,49.59133333333333,-0.044499999999999984,-0.0030000000000001137,0.110325,0.106715,0.0,210.685,210.74,207.50333333333333,207.50333333333333,0.0,0.0
13,0.0,0.0,0.0,1.0,1.0,0.0,0.0,1.0,0.0,100.0,1.0,1.1856,26.0,0.0,0.0,0.0,59.999996,0.0,26.0,26.0,26.0,26.0,0.0695,0.31590000000000007,0.05298,297.15,-2.85155,-2.815875,-1.6259000000000001,-1.5609000000000002,-232.5,215.9975,190.730875,0.0,0.0,0.0,0.0,0.0267,-5.498166666666667,-5.498166666666667,-0.3158,-0.008499999999999952,0.014777777777777779,1.093,67.446,0.03245,0.046733333333333335,-0.7320000000000002,100.0,1.0,1.0,207.93333333333334,0.0,0.0,0.0,0.0,0.0,0.0,0.0,8813.5,0.0,55.0,5.0,242.77333333333334,1.0,0.0,0.0,0.0,0.0,0.0,1.0,0.0,0.6539999999999999,0.6539999999999999,0.0,0.0,1.0,55.0,616.79921,10000.0,85.000001,85.000001,85.000001,85.000001,395.0,0.0,0.0,0.0,1.0,333.33500000000004,63.828,63.828,46.753,46.753,34.0,-15.712,21.564999999999998,-28.493333333333336,33.575,0.0,1782.621,-0.9699999999999989,100.0,19.155,19.0625,43.513,43.759,0.0,0.0,100.0,0.0,0.0,0.0,0.0,2218.5,2334.4,4276.3,4435.6,308.035,307.47,314.37075,313.88225,21.803444444444445,20.45595,21.8453,21.415,314.999998,314.999998,324.999988,324.999988,99.55828571428572,99.50583333333333,99.56251428571429,99.54557142857144,0.12525000000000008,0.07075000000000009,-0.06157142857142857,0.14871428571428572,-0.03333333333333144,-0.07166666666666544,1.482,1.4535,37.272,28.849666666666664,37.533,34.844,55.307,33.122,58.0815,51.84166666666667,53.173,32.4105,56.702,50.217333333333336,52.254999999999995,32.033500000000004,56.5995,49.653999999999996,-0.11049999999999993,0.057499999999999885,0.10344,0.105105,0.0,211.18,211.23000000000002,207.93333333333334,207.93333333333334,0.0,0.0
14,0.0,0.0,0.0,1.0,1.0,0.0,0.0,1.0,0.0,100.0,1.0,1.1856,26.0,0.0,0.0,0.0,59.999996,0.0,26.0,26.0,26.0,26.0,0.0921,0.3095000000000001,-0.018600000000000002,297.485,-2.86,-2.7535,-1.6064,-1.5295,-229.06,215.9725,190.70975,0.0,0.0,0.0,0.0,0.0287,-5.498166666666667,-5.498166666666667,-0.3242,-0.15349999999999997,0.043888888888888866,-0.0030000000000000027,67.602,0.0408,0.03526666666666667,-0.8799999999999999,100.0,1.0,1.0,208.49333333333334,0.0,0.0,0.0,0.0,0.0,0.0,0.0,8837.3,0.0,55.0,5.0,243.33333333333334,0.0,0.0,0.0,0.0,0.0,0.0,1.0,0.0,0.7049999999999983,0.7049999999999983,0.0,0.0,0.0,55.0,616.79921,10000.0,85.000001,85.000001,85.000001,85.000001,395.0,0.0,0.0,0.0,1.0,333.33500000000004,64.072,64.072,47.043,47.043,34.0,-15.534,21.123333333333335,-26.446666666666665,31.545,0.0,1782.569,-1.2300000000000004,100.0,18.785,19.199,43.353,44.057,0.0,0.0,100.0,0.0,0.0,0.0,0.0,2187.25,2296.9,4098.3,4237.5,308.30133333333333,307.4295,314.84875,314.299,21.811888888888888,20.45995,21.8555,21.4241,314.999998,314.999998,324.999988,324.999988,99.5583,99.50583333333333,99.56265714285715,99.54572857142857,0.11749999999999994,0.07450000000000001,-0.05885714285714286,0.15328571428571428,-0.05666666666667197,-0.041666666666671404,1.52,1.4869999999999999,37.324,28.874666666666666,37.597,34.900999999999996,55.282,33.1515,58.124,51.907,53.15,32.437,56.7415,50.28,52.2315,32.059,56.635999999999996,49.715333333333334,-0.119,0.0685,0.10217000000000001,0.109615,0.0,211.64,211.695,208.49333333333334,208.49333333333334,0.0,0.0
15,0.0,0.0,0.0,1.0,1.0,0.0,0.0,1.0,0.0,100.0,1.0,1.1856,26.0,0.0,0.0,0.0,59.999996,0.0,26.0,26.0,26.0,26.0,0.1163,0.3044,-0.04092,297.516,-2.83435,-2.713875,-1.6362999999999999,-1.4726,-225.81,215.9525,190.689375,0.0,0.0,0.0,0.0,0.030600000000000002,-5.498166666666667,-5.498166666666667,-0.315,0.32399999999999995,0.0725555555555557,-0.17699999999999994,67.748,0.055650000000000005,0.05536666666666667,-1.1260000000000003,100.0,1.0,1.0,208.94333333333333,0.0,0.0,0.0,0.0,0.0,0.0,0.0,8856.4,0.0,55.0,5.0,243.86,1.0,0.0,0.0,0.0,0.0,0.0,1.0,0.0,0.7530000000000001,0.7530000000000001,0.0,0.0,1.0,55.0,616.79921,10000.0,85.000001,85.000001,85.000001,85.000001,395.0,0.0,0.0,0.0,1.0,333.33500000000004,64.255,64.255,47.089,47.089,34.0,-13.754000000000001,20.915,-26.169999999999998,33.2825,0.0,1782.521,-1.2650000000000006,100.0,18.759999999999998,19.228,43.122,44.138000000000005,0.0,0.0,100.0,0.0,0.0,0.0,0.0,2058.0,2275.3,4094.1,4397.3,308.629,307.4815,314.90075,313.93875,21.819666666666667,20.4637,21.8649,21.4327,314.999998,314.999998,324.999988,324.999988,99.55831428571429,99.50585,99.5628,99.54587142857143,0.14100000000000001,0.08299999999999996,-0.046285714285714284,0.17400000000000002,-0.05666666666667197,-0.05666666666667197,1.509,1.478,37.373000000000005,28.898333333333333,37.656,34.954499999999996,55.259,33.18,58.162,51.968,53.128,32.463499999999996,56.7775,50.33866666666667,52.2095,32.084,56.669,49.772999999999996,-0.12549999999999994,0.07450000000000001,0.10531000000000001,0.11307,0.0,212.10500000000002,212.17000000000002,208.94333333333333,208.94333333333333,0.0,0.0
16,0.0,0.0,0.0,1.0,1.0,0.0,0.0,1.0,0.0,100.0,1.0,1.1856,26.0,0.0,0.0,0.0,59.999996,0.0,26.0,26.0,26.0,26.0,0.1182,0.30920000000000014,-0.0057,297.516,-2.92855,-2.749,-1.6104,-1.471,-222.35,215.9325,190.66725,0.0,0.0,0.0,0.0,0.032600000000000004,-5.498166666666667,-5.498166666666667,-0.3347,-0.7375,0.06355555555555559,0.17500000000000004,67.903,0.07015,0.044250000000000005,-1.3499999999999996,100.0,1.0,1.0,209.39,0.0,0.0,0.0,0.0,0.0,0.0,0.0,8875.3,0.0,55.0,5.0,244.42000000000002,0.0,0.0,0.0,0.0,0.0,0.0,1.0,0.0,0.8039999999999985,0.8039999999999985,0.0,0.0,0.0,55.0,616.79921,10000.0,85.000001,85.000001,85.000001,85.000001,395.0,0.0,0.0,0.0,1.0,333.33500000000004,64.285,64.285,46.707,46.707,34.0,-14.149999999999999,22.751666666666665,-23.57,33.332499999999996,0.0,1782.47,-1.1600000000000001,100.0,18.479,19.1615,43.478,44.274,0.0,0.0,100.0,0.0,0.0,0.0,0.0,2063.375,2432.7,4028.7,4283.9,308.64933333333335,307.16775,314.984,314.2505,21.827666666666666,20.4678,21.8752,21.4418,314.999998,314.999998,324.999988,324.999988,99.55832857142858,99.50585,99.56294285714286,99.54601428571429,0.14650000000000007,0.08850000000000002,-0.012285714285714287,0.19614285714285715,-0.046666666666666856,-0.051666666666669414,1.5325,1.482,37.423,28.923666666666666,37.72,35.0115,55.229,33.213,58.2085,52.037,53.1,32.494,56.820499999999996,50.40533333333333,52.1815,32.1135,56.7085,49.838,-0.11749999999999994,0.06099999999999994,0.105745,0.09969000000000001,0.0,212.53,212.625,209.39,209.39,0.0,0.0
17,0.0,0.0,0.0,1.0,1.0,0.0,0.0,1.0,0.0,100.0,1.0,1.1856,26.0,0.0,0.0,0.0,59.999996,0.0,26.0,26.0,26.0,26.0,0.1077,0.3244,-0.0106,297.119,-2.8891,-2.7041250000000003,-1.6506,-1.4912,-218.68,215.91750000000002,190.643375,0.0,0.0,0.0,0.0,0.03473333333333333,-5.498166666666667,-5.498166666666667,-0.3215,0.509,0.04588888888888887,0.798,68.06700000000001,0.0781,0.06318333333333334,-1.186,100.0,1.0,1.0,209.85000000000002,0.0,0.0,0.0,0.0,0.0,0.0,0.0,8894.7,0.0,55.0,5.0,245.00666666666666,1.0,0.0,0.0,0.0,0.0,0.0,1.0,0.0,0.8580000000000005,0.8580000000000005,0.0,0.0,1.0,55.0,616.79921,10000.0,85.000001,85.000001,85.000001,85.000001,395.0,0.0,0.0,0.0,1.0,166.665,63.965,63.965,46.539,46.539,34.0,-14.198,21.773333333333333,-26.106666666666666,35.075,0.0,1782.418,-1.2250000000000014,100.0,18.937,19.4005,43.286,44.283,0.0,0.0,100.0,0.0,0.0,0.0,0.0,2138.625,2334.8,4324.2,4437.8,308.318,307.4925,314.3625,313.95075,21.836444444444446,20.4722,21.8858,21.4515,314.999998,314.999998,324.999988,324.999988,99.55832857142858,99.50586666666666,99.5631,99.54617142857143,0.16274999999999995,0.10325000000000006,-0.010714285714285714,0.19642857142857142,-0.041666666666671404,-0.05333333333332746,1.5285,1.4605,37.477999999999994,28.951333333333334,37.786,35.0715,55.206,33.246,58.2495,52.102000000000004,53.079,32.5245,56.859,50.467666666666666,52.1595,32.1425,56.744,49.89933333333333,-0.12,0.0605,0.10412,0.10501500000000001,0.0,213.075,213.155,209.85000000000002,209.85000000000002,0.0,0.0
18,0.0,0.0,0.0,1.0,1.0,0.0,0.0,1.0,0.0,100.0,1.0,1.1856,26.0,0.0,0.0,0.0,59.999996,0.0,26.0,26.0,26.0,26.0,0.1242,0.31479999999999997,0.008020000000000001,297.119,-2.9203,-2.67925,-1.6647,-1.438,-215.41,215.905,190.62225,0.0,0.0,0.0,0.0,0.03663333333333333,-5.498166666666667,-5.498166666666667,-0.3312,-0.486,0.06955555555555559,1.093,68.211,0.08055000000000001,0.04848333333333334,-1.3200000000000003,100.0,1.0,1.0,210.31666666666666,0.0,0.0,0.0,0.0,0.0,0.0,0.0,8914.6,0.0,55.0,5.0,245.52666666666664,0.0,0.0,0.0,0.0,0.0,0.0,1.0,0.0,0.9059999999999988,0.9059999999999988,0.0,0.0,0.0,55.0,616.79921,10000.0,85.000001,85.000001,85.000001,85.000001,395.0,0.0,0.0,0.0,1.0,166.665,63.919,63.919,46.494,46.494,34.0,-13.866,24.168333333333333,-24.71,33.6725,0.0,1782.37,-1.5700000000000003,100.0,18.7,19.2315,43.573,44.676,0.0,0.0,100.0,0.0,0.0,0.0,0.0,2131.5,2533.8,4116.3,4338.0,308.41633333333334,306.9345,314.812,314.156,21.84411111111111,20.47605,21.8955,21.4602,314.999998,314.999998,324.999988,324.999988,99.55835714285715,99.50588333333333,99.56322857142857,99.54631428571429,0.17625000000000002,0.11824999999999997,-0.008285714285714287,0.20142857142857143,-0.054999999999999716,-0.06333333333333258,1.535,1.4695,37.525999999999996,28.97533333333333,37.847,35.126,55.183,33.275999999999996,58.2905,52.16466666666666,53.057,32.552,56.897,50.528,52.137,32.169,56.7795,49.958666666666666,-0.14100000000000001,0.08549999999999991,0.10794500000000001,0.106465,0.0,213.5,213.575,210.31666666666666,210.31666666666666,0.0,0.0
19,0.0,0.0,0.0,1.0,1.0,0.0,0.0,1.0,0.0,100.0,1.0,1.1856,26.0,0.0,0.0,0.0,59.999996,0.0,26.0,26.0,26.0,26.0,0.1567,0.3107,0.0329,296.707,-2.8931,-2.6647499999999997,-1.6822,-1.4187,-212.13,215.8975,190.601,0.0,0.0,0.0,0.0,0.038533333333333336,-5.498166666666667,-5.498166666666667,-0.3221,0.887,0.08199999999999985,0.986,68.354,0.0896,0.06091666666666667,-1.6579999999999995,100.0,1.0,1.0,210.75,0.0,0.0,0.0,0.0,0.0,0.0,0.0,8933.0,0.0,55.0,5.0,246.04000000000002,1.0,0.0,0.0,0.0,0.0,0.0,1.0,0.0,0.9540000000000006,0.9540000000000006,0.0,0.0,1.0,55.0,616.79921,10000.0,85.000001,85.000001,85.000001,85.000001,395.0,0.0,0.0,0.0,1.0,166.665,63.324,63.324,46.417,46.417,34.0,-13.172,25.308333333333334,-25.113333333333333,36.47,0.0,1782.322,-1.8550000000000004,100.0,19.112000000000002,19.692,43.295,44.631,0.0,0.0,100.0,0.0,0.0,0.0,0.0,2172.125,2556.1,4221.9,4541.1,308.16333333333336,306.757,314.6195,313.73425,21.851888888888887,20.4801,21.9049,21.4688,314.999998,314.999998,324.999988,324.999988,99.55837142857143,99.50588333333333,99.56335714285714,99.54644285714286,0.20950000000000002,0.14600000000000013,0.002,0.2235714285714286,-0.03833333333332689,-0.05666666666667197,1.53,1.4615,37.574,29.000666666666667,37.906,35.18,55.163,33.31,58.3285,52.226333333333336,53.038,32.5835,56.9325,50.587666666666664,52.118,32.199,56.8115,50.016999999999996,-0.1735,0.10549999999999993,0.11062000000000001,0.10773,0.0,213.95499999999998,214.07,210.75,210.75,0.0,0.0
20,0.0,0.0,0.0,1.0,1.0,0.0,0.0,1.0,0.0,100.0,1.0,1.1856,26.0,0.0,0.0,0.0,59.999996,0.0,26.0,26.0,26.0,26.0,0.2003,0.30520000000000014,-0.055220000000000005,297.043,-2.953,-2.7185,-1.6179999999999999,-1.5303,-208.64,215.89249999999998,190.578625,0.0,0.0,0.0,0.0,0.04056666666666667,-5.498166666666667,-5.498166666666667,-0.3225,-1.0819999999999999,0.09066666666666667,-0.665,68.508,0.10075,0.05318333333333334,-1.9059999999999997,100.0,1.0,1.0,211.10333333333335,0.0,0.0,0.0,0.0,0.0,0.0,0.0,8947.9,0.0,55.0,5.0,246.59666666666666,0.0,0.0,0.0,0.0,0.0,0.0,0.0,0.0,1.004999999999999,1.004999999999999,0.0,0.0,0.0,55.0,616.79921,10000.0,85.000001,85.000001,85.000001,85.000001,395.0,0.0,0.0,0.0,1.0,333.33500000000004,64.529,64.529,45.7,45.7,34.0,-11.302,23.156666666666666,-23.646666666666665,37.865,0.0,1782.27,-2.08,100.0,18.386,19.5855,43.72,45.263999999999996,0.0,0.0,100.0,0.0,0.0,0.0,0.0,1935.625,2301.8,4245.7,4445.9,309.13166666666666,307.4055,314.4775,313.654,21.85977777777778,20.4842,21.9152,21.4782,314.999998,314.999998,324.999988,324.999988,99.55838571428572,99.5059,99.5635,99.5466,0.22100000000000009,0.15625,0.019571428571428573,0.22171428571428572,-0.03999999999999915,-0.03833333333332689,1.483,1.4095,37.623000000000005,29.026333333333334,37.97,35.2385,55.137,33.3445,58.3735,52.29533333333333,53.013999999999996,32.6155,56.9745,50.653999999999996,52.0935,32.230000000000004,56.8505,50.082,-0.19099999999999995,0.12850000000000006,0.10435000000000001,0.10244500000000001,0.0,214.39,214.51,211.10333333333335,211.10333333333335,0.0,0.0
21,0.0,0.0,0.0,1.0,1.0,0.0,0.0,1.0,0.0,100.0,1.0,1.1856,26.0,0.0,0.0,0.0,59.999996,0.0,26.0,26.0,26.0,26.0,0.1935,0.29890000000000017,-0.07386000000000001,297.394,-2.87355,-2.76525,-1.6837,-1.4901,-205.35,215.89249999999998,190.556875,0.0,0.0,0.0,0.0,0.04246666666666667,-5.498166666666667,-5.498166666666667,-0.34900000000000003,0.46299999999999997,0.07433333333333314,-1.059,68.646,0.11720000000000001,0.04746666666666667,-1.7639999999999993,100.0,1.0,1.0,211.7733333333333,0.0,0.0,0.0,0.0,0.0,0.0,0.0,8976.4,0.0,55.0,5.0,247.09333333333336,1.0,0.0,0.0,0.0,0.0,0.0,0.0,0.0,1.0530000000000008,1.0530000000000008,0.0,0.0,1.0,55.0,616.79921,10000.0,85.000001,85.000001,85.000001,85.000001,395.0,0.0,0.0,0.0,1.0,333.33500000000004,63.903999999999996,63.903999999999996,47.165,47.165,34.0,-13.796,22.56,-21.986666666666665,34.28,0.0,1782.222,-1.0249999999999986,100.0,18.564999999999998,19.7305,43.05,44.851,0.0,0.0,100.0,0.0,0.0,0.0,0.0,2163.25,2332.1,4015.9,4143.7,308.3616666666667,307.22925,315.1805,314.601,21.867333333333335,20.48825,21.924599999999998,21.4867,314.999998,314.999998,324.999988,324.999988,99.5584,99.50591666666666,99.56364285714285,99.54674285714286,0.17599999999999993,0.10549999999999993,0.029142857142857144,0.24057142857142857,-0.060000000000002274,-0.061666666666667425,1.5905,1.5294999999999999,37.671,29.051666666666666,38.028999999999996,35.292,55.116,33.379,58.409,52.355000000000004,52.992999999999995,32.647,57.007,50.711333333333336,52.073,32.26,56.879999999999995,50.138333333333335,-0.11949999999999994,0.056499999999999995,0.106245,0.104065,0.0,214.84,214.97,211.7733333333333,211.7733333333333,0.0,0.0
22,0.0,0.0,0.0,1.0,1.0,0.0,0.0,1.0,0.0,100.0,1.0,1.1856,26.0,0.0,0.0,0.0,59.999996,0.0,26.0,26.0,26.0,26.0,0.13540000000000002,0.30390000000000006,0.009840000000000002,296.89,-2.85045,-2.7775,-1.6672,-1.4912,-201.85,215.8975,190.533,0.0,0.0,0.0,0.0,0.044533333333333334,-5.498166666666667,-5.498166666666667,-0.3246,0.1725,0.07311111111111113,0.8880000000000001,68.8,0.11355000000000001,0.07175000000000001,-0.7120000000000006,100.0,1.0,1.0,212.04000000000002,0.0,0.0,0.0,0.0,0.0,0.0,0.0,8987.6,0.0,55.0,5.0,247.64666666666665,0.0,0.0,0.0,0.0,0.0,0.0,0.0,0.0,1.1039999999999992,1.1039999999999992,0.0,0.0,0.0,55.0,616.79921,10000.0,85.000001,85.000001,85.000001,85.000001,395.0,0.0,0.0,0.0,1.0,333.33500000000004,64.072,64.072,45.944,45.944,34.0,-14.288,21.016666666666666,-25.03,37.045,0.0,1782.17,0.2699999999999996,100.0,18.808,19.5445,43.623000000000005,44.986000000000004,0.0,0.0,100.0,0.0,0.0,0.0,0.0,1957.75,2376.0,4253.7,4501.0,308.7486666666667,307.23675,314.4735,313.80175,21.875444444444444,20.4925,21.9348,21.496,314.999998,314.999998,324.999988,324.999988,99.55841428571429,99.50593333333333,99.56378571428571,99.5469,0.10075000000000012,0.03699999999999992,0.009571428571428571,0.219,-0.05333333333332746,-0.04833333333333201,1.471,1.446,37.722,29.078,38.093,35.35,55.09,33.4105,58.4535,52.422666666666665,52.969,32.676,57.0485,50.77633333333333,52.048,32.2875,56.918,50.202,-0.013000000000000012,-0.0405000000000002,0.10585000000000001,0.10086500000000001,0.0,215.36,215.41,212.04000000000002,212.04000000000002,0.0,0.0
23,0.0,0.0,0.0,1.0,1.0,0.0,0.0,1.0,0.0,100.0,1.0,1.1856,26.0,0.0,0.0,0.0,59.999996,0.0,26.0,26.0,26.0,26.0,0.053000000000000005,0.28480000000000016,-0.016900000000000002,297.012,-2.85735,-2.75525,-1.6916,-1.5803,-198.13,215.9075,190.50825,0.0,0.0,0.0,0.0,0.04666666666666667,-5.498166666666667,-5.498166666666667,-0.3432,-0.1795,0.04033333333333311,-0.06899999999999995,68.957,0.07060000000000001,0.047316666666666674,0.4660000000000011,100.0,1.0,1.0,212.64666666666668,0.0,0.0,0.0,0.0,0.0,0.0,0.0,9013.4,0.0,55.0,5.0,248.21333333333334,1.0,0.0,0.0,0.0,0.0,0.0,0.0,0.0,1.1580000000000013,1.1580000000000013,0.0,0.0,1.0,55.0,616.79921,10000.0,85.000001,85.000001,85.000001,85.000001,395.0,0.0,0.0,0.0,1.0,166.665,63.553,63.553,47.028,47.028,34.0,-18.357999999999997,19.45,-26.593333333333334,31.285,0.0,1782.118,0.7850000000000001,100.0,19.141,19.358,43.902,44.977000000000004,0.0,0.0,100.0,0.0,0.0,0.0,0.0,2284.75,2363.8,4045.9,4084.4,307.82166666666666,307.37975,315.072,314.6925,21.88411111111111,20.4969,21.9457,21.5058,314.999998,314.999998,324.999988,324.999988,99.55841428571429,99.50593333333333,99.56394285714286,99.54704285714286,0.05800000000000005,-0.0044999999999999485,-0.047142857142857146,0.16428571428571428,-0.04333333333332945,-0.07666666666666799,1.506,1.522,37.775,29.105666666666664,38.16,35.411500000000004,55.06,33.4405,58.4975,52.492333333333335,52.941,32.7035,57.0895,50.843333333333334,52.019999999999996,32.314499999999995,56.956,50.26766666666667,0.02950000000000008,-0.08650000000000002,0.10845500000000001,0.103415,0.0,215.865,215.845,212.64666666666668,212.64666666666668,0.0,0.0
24,0.0,0.0,0.0,1.0,1.0,0.0,0.0,1.0,0.0,100.0,1.0,1.1856,26.0,0.0,0.0,0.0,59.999996,0.0,26.0,26.0,26.0,26.0,-0.0117,0.3003,0.0014,297.211,-2.8562,-2.7893749999999997,-1.5867,-1.5453000000000001,-195.01999999999998,215.91500000000002,190.487,0.0,0.0,0.0,0.0,0.0485,-5.498166666666667,-5.498166666666667,-0.3447,-0.4385000000000001,0.020444444444444265,-0.513,69.09,0.0217,0.06573333333333334,1.0340000000000007,100.0,1.0,1.0,212.94666666666666,0.0,0.0,0.0,0.0,0.0,0.0,0.0,9026.1,0.0,55.0,5.0,248.69333333333333,0.0,0.0,0.0,0.0,0.0,0.0,0.0,0.0,1.2029999999999994,1.2029999999999994,0.0,0.0,0.0,55.0,616.79921,10000.0,85.000001,85.000001,85.000001,85.000001,395.0,0.0,0.0,0.0,1.0,166.665,64.758,64.758,45.944,45.944,34.0,-17.862000000000002,15.126666666666667,-32.04,28.497500000000002,0.0,1782.073,0.9600000000000009,100.0,18.857,19.088,44.105000000000004,44.74,0.0,0.0,100.0,0.0,0.0,0.0,0.0,2091.25,2037.5,4464.6,4183.0,308.59233333333333,308.3035,313.9985,314.50175,21.891111111111112,20.5003,21.9547,21.5139,314.999998,314.999998,324.999988,324.999988,99.55841428571429,99.50593333333333,99.56407142857142,99.54718571428572,-0.0030000000000000027,-0.0645,-0.1057142857142857,0.10114285714285715,-0.04999999999999716,-0.06833333333332803,1.4569999999999999,1.4949999999999999,37.82,29.127000000000002,38.217,35.462,55.033,33.463,58.536,52.547666666666665,52.916,32.724000000000004,57.1255,50.89666666666667,51.995,32.334,56.9895,50.31966666666666,0.052000000000000046,-0.10000000000000009,0.09957500000000001,0.10348,0.0,216.315,216.23000000000002,212.94666666666666,212.94666666666666,0.0,0.0
25,0.0,0.0,0.0,1.0,1.0,0.0,0.0,1.0,0.0,100.0,1.0,1.1856,26.0,0.0,0.0,0.0,59.999996,0.0,26.0,26.0,26.0,26.0,-0.07980000000000001,0.28480000000000016,-0.07266,297.134,-2.89345,-2.7795,-1.5811000000000002,-1.5721,-191.49,215.925,190.461625,0.0,0.0,0.0,0.0,0.05053333333333333,-5.498166666666667,-5.498166666666667,-0.3776,-0.038000000000000034,0.0007777777777777661,-0.517,69.237,-0.0317,0.0568,1.2859999999999996,100.0,1.0,1.0,213.53,0.0,0.0,0.0,0.0,0.0,0.0,0.0,9050.7,0.0,55.0,5.0,249.22333333333336,1.0,0.0,0.0,0.0,0.0,0.0,0.0,0.0,1.2540000000000013,1.2540000000000013,0.0,0.0,1.0,55.0,616.79921,10000.0,85.000001,85.000001,85.000001,85.000001,395.0,0.0,0.0,0.0,1.0,333.33500000000004,63.766,63.766,46.692,46.692,34.0,-21.988,17.34,-30.666666666666668,25.865000000000002,0.0,1782.021,1.0700000000000003,100.0,19.047,18.958,44.225,44.21,0.0,0.0,100.0,0.0,0.0,0.0,0.0,2352.75,2413.1,4080.2,4092.6000000000004,307.788,307.287,314.9345,314.781,21.89922222222222,20.5043,21.9649,21.5229,314.999998,314.999998,324.999988,324.999988,99.55842857142858,99.50593333333333,99.56421428571429,99.54732857142857,-0.04499999999999993,-0.09224999999999994,-0.14957142857142858,0.06314285714285715,-0.04833333333333201,-0.054999999999999716,1.502,1.5545,37.870000000000005,29.152,38.281,35.518,55.003,33.4915,58.577,52.60766666666667,52.888,32.7505,57.164,50.95466666666667,51.967,32.359,57.0245,50.376333333333335,0.055500000000000105,-0.11100000000000021,0.10485000000000001,0.10637500000000001,0.0,216.775,216.66,213.53,213.53,0.0,0.0
26,0.0,0.0,0.0,1.0,1.0,0.0,0.0,1.0,0.0,100.0,1.0,1.1856,26.0,0.0,0.0,0.0,59.999996,0.0,26.0,26.0,26.0,26.0,-0.13290000000000002,0.3035000000000001,0.11345999999999999,295.99,-2.79725,-2.90525,-1.594,-1.6038999999999999,-187.75,215.9325,190.43425,0.0,0.0,0.0,0.0,0.052700000000000004,-5.498166666666667,-5.498166666666667,-0.3309,0.6905,-0.05900000000000016,0.08299999999999996,69.397,-0.07135,0.09116666666666667,1.3960000000000008,100.0,1.0,1.0,213.75,0.0,0.0,0.0,0.0,0.0,0.0,0.0,9060.0,0.0,55.0,5.0,249.79666666666668,0.0,0.0,0.0,0.0,0.0,0.0,0.0,0.0,1.3079999999999998,1.3079999999999998,0.0,0.0,0.0,55.0,616.79921,10000.0,85.000001,85.000001,85.000001,85.000001,395.0,0.0,0.0,0.0,1.0,166.665,63.538,63.538,44.83,44.83,34.0,-21.762,14.745,-39.879999999999995,28.625,0.0,1781.967,0.9600000000000009,100.0,20.092,19.211,45.19,44.295,0.0,0.0,100.0,0.0,0.0,0.0,0.0,2337.5,2118.6,4782.6,4589.5,307.67133333333334,308.07175,313.26425,313.63,21.90811111111111,20.50865,21.976,21.5327,314.999998,314.999998,324.999988,324.999988,99.55842857142858,99.50595,99.56438571428572,99.5475,-0.054749999999999965,-0.12949999999999995,-0.18085714285714286,0.028571428571428574,-0.03166666666666629,-0.06666666666666998,1.3855,1.43,37.926,29.179000000000002,38.35,35.579,54.977999999999994,33.525,58.628,52.675,52.864000000000004,32.781,57.2115,51.019,51.943,32.3885,57.069,50.439,0.04249999999999998,-0.11350000000000016,0.10662500000000001,0.10752500000000001,0.0,217.315,217.19,213.75,213.75,0.0,0.0
27,0.0,0.0,0.0,1.0,1.0,0.0,0.0,1.0,0.0,100.0,1.0,1.1856,26.0,0.0,0.0,0.0,59.999996,0.0,26.0,26.0,26.0,26.0,-0.1272,0.2784,-0.01166,296.509,-2.7580999999999998,-2.8775,-1.5728,-1.682,-184.62,215.9375,190.412625,0.0,0.0,0.0,0.0,0.054533333333333336,-5.498166666666667,-5.498166666666667,-0.3603,-1.202,-0.06911111111111135,-0.548,69.526,-0.08940000000000001,0.04071666666666667,1.3399999999999999,100.0,1.0,1.0,214.24666666666667,0.0,0.0,0.0,0.0,0.0,0.0,0.0,9081.2,0.0,55.0,5.0,250.26333333333332,1.0,0.0,0.0,0.0,0.0,0.0,0.0,0.0,1.352999999999998,1.352999999999998,0.0,0.0,1.0,55.0,616.79921,10000.0,85.000001,85.000001,85.000001,85.000001,395.0,0.0,0.0,0.0,1.0,333.33500000000004,63.828,63.828,45.516999999999996,45.516999999999996,34.0,-22.78,14.015,-37.28666666666667,24.2225,0.0,1781.921,0.8900000000000006,100.0,19.695999999999998,19.0095,45.63,44.725,0.0,0.0,100.0,0.0,0.0,0.0,0.0,2403.875,2085.6,4387.2,4068.0,307.651,308.11,314.17225,314.66125,21.915444444444443,20.51195,21.9853,21.5409,314.999998,314.999998,324.999988,324.999988,99.55842857142858,99.50596666666667,99.56452857142857,99.54761428571429,-0.08224999999999993,-0.14349999999999996,-0.2154285714285714,-0.0035714285714285718,-0.060000000000002274,-0.045000000000001705,1.4395,1.4809999999999999,37.971000000000004,29.199666666666666,38.408,35.6305,54.955,33.55,58.6715,52.730666666666664,52.843,32.804,57.2525,51.07233333333333,51.922,32.4105,57.1075,50.49066666666667,0.040999999999999925,-0.09350000000000014,0.105895,0.09931500000000001,0.0,217.655,217.53,214.24666666666667,214.24666666666667,0.0,0.0
28,0.0,0.0,0.0,1.0,1.0,0.0,0.0,1.0,0.0,100.0,1.0,1.1856,26.0,0.0,0.0,0.0,59.999996,0.0,26.0,26.0,26.0,26.0,-0.1524,0.2974000000000001,-0.07822000000000001,296.936,-2.78325,-2.867125,-1.521,-1.6394000000000002,-181.07,215.9375,190.38725,0.0,0.0,0.0,0.0,0.056600000000000004,-5.498166666666667,-5.498166666666667,-0.36710000000000004,0.753,-0.07044444444444453,0.514,69.67,-0.09955,0.0661,1.2140000000000004,100.0,1.0,1.0,214.82999999999998,0.0,0.0,0.0,0.0,0.0,0.0,0.0,9105.9,0.0,55.0,5.0,250.78333333333336,0.0,0.0,0.0,0.0,0.0,0.0,0.0,0.0,1.404,1.404,0.0,0.0,0.0,55.0,616.79921,10000.0,85.000001,85.000001,85.000001,85.000001,395.0,0.0,0.0,0.0,1.0,333.33500000000004,63.873,63.873,46.585,46.585,34.0,-22.503999999999998,14.584999999999999,-33.68,24.3375,0.0,1781.87,0.75,100.0,19.924,18.7525,45.025999999999996,43.946,0.0,0.0,100.0,0.0,0.0,0.0,0.0,2349.875,2143.4,4198.4,4152.4,307.6553333333333,308.07,314.709,314.66375,21.923666666666666,20.5159,21.9954,21.5498,314.999998,314.999998,324.999988,324.999988,99.55844285714285,99.50596666666667,99.56467142857143,99.54777142857142,-0.08024999999999993,-0.13175000000000003,-0.2062857142857143,0.007714285714285714,-0.05333333333332746,-0.05833333333333002,1.518,1.5545,38.022999999999996,29.224333333333334,38.472,35.6865,54.932,33.58,58.713,52.788666666666664,52.821,32.832,57.2915,51.12766666666667,51.8995,32.437,57.143,50.544666666666664,0.03649999999999998,-0.08550000000000013,0.09975500000000001,0.11295500000000001,0.0,218.14499999999998,218.03,214.82999999999998,214.82999999999998,0.0,0.0
29,0.0,0.0,0.0,1.0,1.0,0.0,0.0,1.0,0.0,100.0,1.0,1.1856,26.0,0.0,0.0,0.0,59.999996,0.0,26.0,26.0,26.0,26.0,-0.1267,0.2948000000000002,0.05964,296.509,-2.7196,-2.929625,-1.5474999999999999,-1.6256,-177.51999999999998,215.935,190.36075,0.0,0.0,0.0,0.0,0.058666666666666666,-5.498166666666667,-5.498166666666667,-0.3675,-0.74,-0.08022222222222242,-0.7070000000000001,69.819,-0.09755,0.07395,0.9920000000000009,100.0,1.0,1.0,215.09333333333333,0.0,0.0,0.0,0.0,0.0,0.0,0.0,9117.1,0.0,55.0,5.0,251.32,1.0,0.0,0.0,0.0,0.0,0.0,0.0,0.0,1.4549999999999983,1.4549999999999983,0.0,0.0,1.0,55.0,616.79921,10000.0,85.000001,85.000001,85.000001,85.000001,395.0,0.0,0.0,0.0,1.0,333.33500000000004,63.95,63.95,45.394999999999996,45.394999999999996,34.0,-23.25,14.551666666666668,-37.69333333333333,25.1475,0.0,1781.819,0.6400000000000006,100.0,19.453,18.638,45.409,44.263999999999996,0.0,0.0,100.0,0.0,0.0,0.0,0.0,2468.375,2095.3,4508.1,4242.5,307.496,307.972,313.88225,314.3085,21.93177777777778,20.51965,22.0059,21.5591,314.999998,314.999998,324.999988,324.999988,99.55845714285714,99.50598333333333,99.56482857142858,99.54791428571428,-0.08399999999999996,-0.14149999999999996,-0.20442857142857143,0.004857142857142857,-0.051666666666669414,-0.06666666666666998,1.4155,1.4565,38.074,29.247666666666667,38.537,35.744,54.905,33.608000000000004,58.7615,52.851,52.796,32.8575,57.3375,51.187666666666665,51.875,32.461,57.186,50.603,0.019000000000000128,-0.0794999999999999,0.101135,0.11637000000000002,0.0,218.555,218.465,215.09333333333333,215.09333333333333,0.0,0.0
30,0.0,0.0,0.0,1.0,1.0,0.0,0.0,1.0,0.0,100.0,1.0,1.1856,26.0,0.0,0.0,0.0,59.999996,0.0,26.0,26.0,26.0,26.0,-0.1177,0.2852000000000001,0.03354,296.066,-2.77815,-2.812875,-1.4946000000000002,-1.6815,-174.16,215.93,190.335625,0.0,0.0,0.0,0.0,0.0606,-5.498166666666667,-5.498166666666667,-0.3668,0.8345,-0.0772222222222223,-0.627,69.95400000000001,-0.09045,0.06825,0.9660000000000011,100.0,1.0,1.0,215.56666666666666,0.0,0.0,0.0,0.0,0.0,0.0,0.0,9137.1,0.0,55.0,5.0,251.80666666666667,0.0,0.0,0.0,0.0,0.0,0.0,1.0,0.0,1.5030000000000001,1.5030000000000001,0.0,0.0,0.0,55.0,616.79921,10000.0,85.000001,85.000001,85.000001,85.000001,395.0,0.0,0.0,0.0,1.0,333.33500000000004,62.973,62.973,45.853,45.853,34.0,-24.604,14.276666666666667,-35.586666666666666,26.0375,0.0,1781.771,0.46000000000000085,100.0,20.332,19.4065,45.269999999999996,44.302,0.0,0.0,100.0,0.0,0.0,0.0,0.0,2608.625,2104.7,4457.2,4239.8,307.01233333333334,307.94625,314.07075,314.2705,21.939777777777778,20.5235,22.0156,21.5677,314.999998,314.999998,324.999988,324.999988,99.55845714285714,99.506,99.56497142857143,99.54805714285715,-0.06099999999999994,-0.13,-0.19342857142857142,0.006285714285714286,-0.07333333333333059,-0.04333333333332945,1.4365,1.468,38.124,29.272,38.598,35.798,54.885,33.638,58.803,52.908,52.777,32.885,57.3765,51.242333333333335,51.8555,32.4875,57.222,50.656,0.00649999999999995,-0.06700000000000017,0.101135,0.10870500000000001,0.0,219.035,218.92000000000002,215.56666666666666,215.56666666666666,0.0,0.0
31,0.0,0.0,0.0,1.0,1.0,0.0,0.0,1.0,0.0,100.0,1.0,1.1856,26.0,0.0,0.0,0.0,59.999996,0.0,26.0,26.0,26.0,26.0,-0.09390000000000001,0.29080000000000017,-0.028980000000000002,296.051,-2.84565,-2.791875,-1.5413000000000001,-1.6732,-170.38,215.92000000000002,190.308375,0.0,0.0,0.0,0.0,0.06280000000000001,-5.498166666666667,-5.498166666666667,-0.3551,-0.6765000000000001,-0.06666666666666643,-0.584,70.10900000000001,-0.0758,0.06420000000000001,0.5060000000000002,100.0,1.0,1.0,215.95666666666668,0.0,0.0,0.0,0.0,0.0,0.0,0.0,9153.7,0.0,55.0,5.0,252.36333333333334,1.0,0.0,0.0,0.0,0.0,0.0,1.0,0.0,1.5569999999999986,1.5569999999999986,0.0,0.0,1.0,55.0,616.79921,10000.0,85.000001,85.000001,85.000001,85.000001,395.0,0.0,0.0,0.0,1.0,166.665,63.538,63.538,44.662,44.662,34.0,-21.625999999999998,15.465,-36.64333333333333,27.975,0.0,1781.719,0.28500000000000014,100.0,19.934,19.36,45.738,44.866,0.0,0.0,100.0,0.0,0.0,0.0,0.0,2361.875,2213.6,4545.5,4311.3,307.88866666666667,307.8125,313.78825,314.213,21.948333333333334,20.5277,22.0268,21.5777,314.999998,314.999998,324.999988,324.999988,99.55845714285714,99.50601666666667,99.56514285714286,99.54821428571428,-0.044749999999999956,-0.10624999999999996,-0.18071428571428572,0.034,-0.046666666666666856,-0.03999999999999915,1.4180000000000001,1.44,38.177,29.298333333333332,38.668,35.8605,54.855999999999995,33.669,58.8555,52.97566666666667,52.75,32.9135,57.4255,51.307,51.8285,32.5145,57.268,50.719,-0.009499999999999953,-0.0535000000000001,0.10483,0.10766500000000001,0.0,219.44,219.38,215.95666666666665,215.95666666666668,0.0,0.0
32,0.0,0.0,0.0,1.0,1.0,0.0,0.0,1.0,0.0,100.0,1.0,1.1856,26.0,0.0,0.0,0.0,59.999996,0.0,26.0,26.0,26.0,26.0,-0.07830000000000001,0.2954000000000001,-0.03152,296.356,-2.7896,-2.886375,-1.6114000000000002,-1.5739,-167.01,215.91,190.284125,0.0,0.0,0.0,0.0,0.06476666666666667,-5.498166666666667,-5.498166666666667,-0.3734,0.14,-0.0825555555555555,-0.827,70.243,-0.06265,0.05848333333333334,0.5280000000000005,100.0,1.0,1.0,216.49666666666667,0.0,0.0,0.0,0.0,0.0,0.0,0.0,9176.5,0.0,55.0,5.0,252.84333333333336,0.0,0.0,0.0,0.0,0.0,0.0,1.0,0.0,1.6050000000000004,1.6050000000000004,0.0,0.0,0.0,55.0,616.79921,10000.0,85.000001,85.000001,85.000001,85.000001,395.0,0.0,0.0,0.0,1.0,333.33500000000004,63.446,63.446,45.715,45.715,34.0,-21.916,15.861666666666666,-35.08333333333333,26.295,0.0,1781.669,0.1750000000000007,100.0,19.845,19.435,45.275,44.629999999999995,0.0,0.0,100.0,0.0,0.0,0.0,0.0,2470.125,2125.6,4399.5,4230.2,307.5,307.9585,314.29425,314.507,21.956,20.5315,22.0365,21.5863,314.999998,314.999998,324.999988,324.999988,99.55847142857142,99.50601666666667,99.56527142857144,99.54835714285714,-0.023499999999999965,-0.09024999999999994,-0.17042857142857143,0.04914285714285715,-0.06499999999999773,-0.03833333333332689,1.4914999999999998,1.5235,38.225,29.322,38.728,35.914,54.83,33.697,58.896,53.031333333333336,52.726,32.939,57.463499999999996,51.36033333333333,51.8045,32.539,57.303,50.771,-0.02100000000000002,-0.04600000000000026,0.103245,0.11375,0.0,219.85500000000002,219.8,216.49666666666667,216.49666666666667,0.0,0.0
33,0.0,0.0,0.0,1.0,1.0,0.0,0.0,1.0,0.0,100.0,1.0,1.1856,26.0,0.0,0.0,0.0,59.999996,0.0,26.0,26.0,26.0,26.0,-0.0729,0.2965,-0.02804,296.494,-2.8025,-2.879,-1.5477,-1.6502,-163.64,215.8975,190.258875,0.0,0.0,0.0,0.0,0.06673333333333334,-5.498166666666667,-5.498166666666667,-0.3745,-0.357,-0.07388888888888889,0.02300000000000013,70.379,-0.05475,0.07503333333333334,0.4079999999999995,100.0,1.0,1.0,216.82,0.0,0.0,0.0,0.0,0.0,0.0,0.0,9190.2,0.0,55.0,5.0,253.33333333333334,1.0,0.0,0.0,0.0,0.0,0.0,1.0,0.0,1.6529999999999987,1.6529999999999987,0.0,0.0,1.0,55.0,616.79921,10000.0,85.000001,85.000001,85.000001,85.000001,395.0,0.0,0.0,0.0,1.0,166.665,64.133,64.133,45.486,45.486,34.0,-19.802,15.548333333333332,-34.47666666666667,28.6175,0.0,1781.623,-0.04499999999999815,100.0,19.615,19.124,45.266999999999996,44.732,0.0,0.0,100.0,0.0,0.0,0.0,0.0,2306.125,2033.5,4450.9,4327.8,308.0106666666667,308.272,314.061,314.15175,21.963555555555555,20.53515,22.0463,21.595,314.999998,314.999998,324.999988,324.999988,99.55847142857142,99.50601666666667,99.56542857142857,99.54848571428572,-0.007249999999999979,-0.06825000000000003,-0.16,0.04985714285714286,-0.04999999999999716,-0.046666666666666856,1.447,1.4575,38.272,29.344666666666665,38.789,35.9685,54.803,33.7205,58.9375,53.089333333333336,52.701,32.961,57.5025,51.416,51.7795,32.56,57.339,50.825,-0.033499999999999974,-0.026000000000000245,0.105175,0.11345500000000001,0.0,220.28,220.23000000000002,216.82,216.82,0.0,0.0
34,0.0,0.0,0.0,1.0,1.0,0.0,0.0,1.0,0.0,100.0,1.0,1.1856,26.0,0.0,0.0,0.0,59.999996,0.0,26.0,26.0,26.0,26.0,-0.061200000000000004,0.2824,-0.06796,296.875,-2.81585,-2.8657500000000002,-1.6134,-1.6083,-160.04,215.8825,190.230875,0.0,0.0,0.0,0.0,0.06883333333333334,-5.498166666666667,-5.498166666666667,-0.4061,-0.7395,-0.038000000000000256,1.1139999999999999,70.521,-0.04175,0.0656,0.15399999999999991,100.0,1.0,1.0,217.32,0.0,0.0,0.0,0.0,0.0,0.0,0.0,9211.4,0.0,55.0,5.0,253.84333333333336,0.0,0.0,0.0,0.0,0.0,0.0,1.0,0.0,1.7040000000000006,1.7040000000000006,0.0,0.0,0.0,55.0,616.79921,10000.0,85.000001,85.000001,85.000001,85.000001,395.0,0.0,0.0,0.0,1.0,166.665,64.392,64.392,46.31,46.31,34.0,-18.235999999999997,16.75333333333333,-32.156666666666666,28.255000000000003,0.0,1781.572,-0.15500000000000114,100.0,19.415,18.657,45.078,44.730000000000004,0.0,0.0,100.0,0.0,0.0,0.0,0.0,2157.5,2127.5,4184.3,4255.7,308.129,308.0975,314.6925,314.3575,21.971555555555554,20.539,22.0565,21.6043,314.999998,314.999998,324.999988,324.999988,99.55847142857142,99.50603333333333,99.56557142857143,99.54864285714285,0.01475000000000004,-0.04674999999999996,-0.14828571428571427,0.06814285714285714,-0.046666666666666856,-0.054999999999999716,1.4815,1.498,38.322,29.368666666666666,38.853,36.0265,54.772999999999996,33.7455,58.979,53.150999999999996,52.673,32.984,57.5415,51.47533333333333,51.7515,32.5815,57.375,50.882666666666665,-0.039000000000000035,-0.013500000000000068,0.11159000000000001,0.104315,0.0,220.685,220.66,217.32,217.32,0.0,0.0
35,0.0,0.0,0.0,1.0,1.0,0.0,0.0,1.0,0.0,100.0,1.0,1.1856,26.0,0.0,0.0,0.0,59.999996,0.0,26.0,26.0,26.0,26.0,-0.031400000000000004,0.28859999999999997,-0.07024,296.86,-2.8152,-2.823,-1.5962,-1.6221999999999999,-156.23000000000002,215.865,190.19875,0.0,0.0,0.0,0.0,0.07103333333333334,-5.498166666666667,-5.498166666666667,-0.44380000000000003,-0.06750000000000012,-0.049555555555555575,-0.08299999999999996,70.67,-0.0233,0.0685,-0.11599999999999966,100.0,1.0,1.0,217.87,0.0,0.0,0.0,0.0,0.0,0.0,0.0,9234.7,0.0,55.0,5.0,254.38333333333333,1.0,0.0,0.0,0.0,0.0,0.0,1.0,0.0,1.7579999999999991,1.7579999999999991,0.0,0.0,1.0,55.0,616.79921,10000.0,85.000001,85.000001,85.000001,85.000001,395.0,0.0,0.0,0.0,1.0,166.665,63.812,63.812,45.914,45.914,34.0,-18.656,19.96333333333333,-29.28,27.8125,0.0,1781.518,-0.11499999999999844,100.0,19.192,19.0155,44.909,44.327,0.0,0.0,100.0,0.0,0.0,0.0,0.0,2240.375,2461.9,4093.3,4042.6000000000004,308.0423333333333,307.11025,314.884,314.89775,21.979777777777777,20.5433,22.0673,21.6139,314.999998,314.999998,324.999988,324.999988,99.55848571428571,99.50603333333333,99.56572857142856,99.5488,0.02124999999999999,-0.03249999999999997,-0.11542857142857144,0.092,-0.041666666666671404,-0.07666666666666799,1.5255,1.5255,38.374,29.395666666666664,38.921,36.087,54.739999999999995,33.774,59.0225,53.212,52.641999999999996,33.01,57.582,51.534,51.7205,32.6065,57.412,50.93966666666667,-0.03600000000000003,-0.016999999999999904,0.10211500000000001,0.10634500000000001,0.0,221.14499999999998,221.14499999999998,217.87,217.87,0.0,0.0
36,0.0,0.0,0.0,1.0,1.0,0.0,0.0,1.0,0.0,100.0,1.0,1.1856,26.0,0.0,0.0,0.0,59.999996,0.0,26.0,26.0,26.0,26.0,-0.019,0.29170000000000007,0.05294,295.853,-2.7548,-2.8356250000000003,-1.5542,-1.6152000000000002,-153.05,215.85,190.17075,0.0,0.0,0.0,0.0,0.0729,-5.498166666666667,-5.498166666666667,-0.4188,0.3355,-0.08511111111111136,-1.26,70.798,-0.01065,0.10065,0.06600000000000072,100.0,1.0,1.0,217.99666666666667,0.0,0.0,0.0,0.0,0.0,0.0,0.0,9240.1,0.0,55.0,5.0,254.84333333333336,0.0,0.0,0.0,0.0,0.0,0.0,1.0,0.0,1.8030000000000008,1.8030000000000008,0.0,0.0,0.0,55.0,616.79921,10000.0,85.000001,85.000001,85.000001,85.000001,395.0,0.0,0.0,0.0,1.0,333.33500000000004,63.66,63.66,44.968,44.968,34.0,-18.994,17.543333333333333,-34.18666666666667,32.965,0.0,1781.472,-0.07000000000000028,100.0,19.494,19.3255,45.117000000000004,44.866,0.0,0.0,100.0,0.0,0.0,0.0,0.0,2344.125,2180.2,4633.3,4613.0,307.59633333333335,307.80375,313.659,313.47375,21.98688888888889,20.54695,22.0765,21.6222,314.999998,314.999998,324.999988,324.999988,99.55848571428571,99.50603333333333,99.56587142857143,99.54892857142858,0.037250000000000005,-0.034499999999999975,-0.12185714285714286,0.08914285714285713,-0.060000000000002274,-0.03166666666666629,1.4095,1.405,38.418,29.418666666666667,38.978,36.1385,54.716,33.798,59.061,53.26833333333333,52.619,33.032,57.6185,51.588,51.6975,32.628,57.445499999999996,50.992333333333335,-0.03700000000000003,-0.02450000000000019,0.11517500000000001,0.10207000000000001,0.0,221.575,221.56,217.99666666666667,217.99666666666667,0.0,0.0
