,ABS Active,ABS Enabled,AID Allow Tire Blankets,AID Auto Blip,AID Auto Clutch,AID Auto Shift,AID Fuel Rate,AID Ideal Line,AID Mech Damage,AID Stability,AID Tire Wear Rate,Air Density,Air Temp,Ballast,Best Lap Delta,Best Lap Time,Brake Bias,Brake Pos,Brake Temp FL,Brake Temp FR,Brake Temp RL,Brake Temp RR,CG Accel Lateral,CG Accel Longitudinal,CG Accel Vertical,CG Height,Camber FL,Camber FR,Camber RL,Camber RR,Car Coord X,Car Coord Y,Car Coord Z,Car Damage Front,Car Damage Left,Car Damage Rear,Car Damage Right,Car Pos Norm,Caster FL,Caster FR,Chassis Pitch Angle,Chassis Pitch Rate,Chassis Roll Angle,Chassis Roll Rate,Chassis Velocity X,Chassis Velocity Y,Chassis Velocity Z,Chassis Yaw Rate,Clutch Pos,DRS Active,DRS Available,Drive Train Speed,ERS Heat Charging,ERS Is Charging,ERS Max Energy,ERS Power Level,ERS Recovery Level,Engine Brake Setting,Engine Limiter,Engine RPM,Flags,Fuel Level,Gear,Ground Speed,HR Sample Clock,In Pit,KERS Charge,KERS Deployed Energy,KERS Input,KERS Max Energy,LR Sample Clock,Lap Invalidated,Lap Time,Lap Time2,Last Lap Time,Last Sector Time,MR Sample Clock,Max Fuel,Max Power,Max RPM,Max Sus Travel FL,Max Sus Travel FR,Max Sus Travel RL,Max Sus Travel RR,Max Torque,Max Turbo Boost,Num Tires Off Track,Penalties Enabled,Position,Raw Data Sample Rate,Ride Height FL,Ride Height FR,Ride Height RL,Ride Height RR,Road Temp,Self Align Torque FL,Self Align Torque FR,Self Align Torque RL,Self Align Torque RR,Session Lap Count,Session Time Left,Steering Angle,Surface Grip,Suspension Travel FL,Suspension Travel FR,Suspension Travel RL,Suspension Travel RR,TC Active,TC Enabled,Throttle Pos,Tire Dirt Level FL,Tire Dirt Level FR,Tire Dirt Level RL,Tire Dirt Level RR,Tire Load FL,Tire Load FR,Tire Load RL,Tire Load RR,Tire Loaded Radius FL,Tire Loaded Radius FR,Tire Loaded Radius RL,Tire Loaded Radius RR,Tire Pressure FL,Tire Pressure FR,Tire Pressure RL,Tire Pressure RR,Tire Radius FL,Tire Radius FR,Tire Radius RL,Tire Radius RR,Tire Rubber Grip FL,Tire Rubber Grip FR,Tire Rubber Grip RL,Tire Rubber Grip RR,Tire Slip Angle FL,Tire Slip Angle FR,Tire Slip Angle RL,Tire Slip Angle RR,Tire Slip Ratio FL,Tire Slip Ratio FR,Tire Slip Ratio RL,Tire Slip Ratio RR,Tire Temp Core FL,Tire Temp Core FR,Tire Temp Core RL,Tire Temp Core RR,Tire Temp Inner FL,Tire Temp Inner FR,Tire Temp Inner RL,Tire Temp Inner RR,Tire Temp Middle FL,Tire Temp Middle FR,Tire Temp Middle RL,Tire Temp Middle RR,Tire Temp Outer FL,Tire Temp Outer FR,Tire Temp Outer RL,Tire Temp Outer RR,Toe In FL,Toe In FR,Toe In RL,Toe In RR,Turbo Boost,Wheel Angular Speed FL,Wheel Angular Speed FR,Wheel Angular Speed RL,Wheel Angular Speed RR,Wind Direction,Wind Speed
0,0.0,0.0,0.0,1.0,1.0,0.0,0.0,1.0,0.0,100.0,1.0,1.1856,26.0,0.0,0.0,0.0,59.99999,0.0,26.0,26.0,26.0,26.0,-0.028900000000000002,0.2934000000000001,0.19548000000000001,296.844,-2.8991,-2.71425,-1.5679500000000002,-1.5110000000000001,-275.67,215.3475,190.99125,0.0,0.0,0.0,0.0,0.0016,-5.498166666666667,-5.498166666666667,-0.41500000000000004,2.7746666666666666,0.004666666666666597,0.353,65.358,-0.032600000000000004,-0.04666666666666667,0.040000000000000924,100.0,1.0,1.0,201.86333333333334,0.0,0.0,0.0,0.0,0.0,0.0,0.0,8556.2,0.0,55.0,5.0,235.25666666666666,0.0,0.0,0.0,0.0,0.0,0.0,0.0,0.0,0.0030000000000001137,0.0030000000000001137,0.0,0.0,0.0,55.0,616.79921,10000.0,85.0,85.0,85.0,85.0,395.0,0.0,0.0,0.0,1.0,20.0,58.853,58.853,48.782,48.782,34.0,-28.948,31.15,-27.39,24.115000000000002,0.0,1783.048,0.23000000000000043,100.0,20.17,20.6775,40.88,40.559,0.0,0.0,100.0,0.0,0.0,0.0,0.0,3054.125,3828.9,3854.9,3948.6000000000004,305.41433333333333,302.8465,315.5295,315.10325,21.705,20.4138,21.718666666666667,21.3135,314.99999,314.99999,324.99998,324.99998,99.55917142857143,99.50598333333333,99.56062857142857,99.5441,-0.012249999999999983,-0.05149999999999999,-0.13583333333333336,0.06950000000000012,-0.060000000000002274,-0.04999999999999716,1.548,1.5663333333333334,36.656,28.586333333333336,36.742000000000004,34.2095,56.039,32.9365,57.4825,51.15,53.843,32.239,56.1335,49.556666666666665,52.897,31.869999999999997,56.0595,49.010666666666665,-0.02400000000000002,-0.04700000000000015,0.09904,0.10411000000000001,0.0,204.785,204.76999999999998,201.86333333333334,201.86333333333334,0.0,0.0
1,0.0,0.0,0.0,1.0,1.0,0.0,0.0,1.0,0.0,100.0,1.0,1.1856,26.0,0.0,0.0,0.0,59.999996,0.0,26.0,26.0,26.0,26.0,-0.0507,0.3507,0.2197,295.853,-2.8158,-2.7973749999999997,-1.63615,-1.3947,-272.14,215.35250000000002,190.97025,0.0,0.0,0.0,0.0,0.0036666666666666666,-5.498166666666667,-5.498166666666667,-0.2487,-1.7743333333333338,-0.03622222222222238,-1.038,65.544,-0.023100000000000002,0.07121666666666666,0.3680000000000003,100.0,1.0,1.0,201.67000000000002,0.0,0.0,0.0,0.0,0.0,0.0,0.0,8548.1,0.0,55.0,5.0,235.92333333333335,1.0,0.0,0.0,0.0,0.0,0.0,0.0,0.0,0.05699999999999861,0.05699999999999861,0.0,0.0,1.0,55.0,616.79921,10000.0,85.000001,85.000001,85.000001,85.000001,395.0,0.0,0.0,0.0,1.0,166.665,64.941,64.941,44.998,44.998,34.0,-14.725999999999999,10.506666666666664,-39.336666666666666,34.95,0.0,1782.995,0.33999999999999986,100.0,19.8675,19.709,44.229,45.463,0.0,0.0,100.0,0.0,0.0,0.0,0.0,1812.625,1520.8,4914.3,5534.6,309.402,310.044,312.61725,310.604,21.714222222222222,20.4176,21.73,21.3235,314.999998,314.999998,324.999988,324.999988,99.55917142857143,99.50598333333333,99.5608,99.54427142857143,0.0030000000000001137,-0.07025000000000003,-0.12316666666666665,0.052000000000000046,-0.01666666666666572,-0.011666666666670267,1.2315,1.2423333333333333,36.714,28.61,36.813,34.272,56.006,32.963,57.5405,51.230333333333334,53.812,32.2635,56.188,49.63333333333333,52.8665,31.8935,56.111,49.08566666666667,-0.00649999999999995,-0.05750000000000011,0.10007,0.10674000000000002,0.0,205.32,205.3,201.67000000000002,201.67000000000002,0.0,0.0
2,0.0,0.0,0.0,1.0,1.0,0.0,0.0,1.0,0.0,100.0,1.0,1.1856,26.0,0.0,0.0,0.0,59.999996,0.0,26.0,26.0,26.0,26.0,-0.0575,0.3115000000000001,-0.09494,297.699,-2.767,-2.7885,-1.51635,-1.5523,-268.99,215.35750000000002,190.952625,0.0,0.0,0.0,0.0,0.0054666666666666665,-5.498166666666667,-5.498166666666667,-0.37270000000000003,0.17233333333333334,-0.028000000000000025,1.5430000000000001,65.68299999999999,-0.0234,-0.03643333333333333,0.7040000000000006,100.0,1.0,1.0,203.15,0.0,0.0,0.0,0.0,0.0,0.0,0.0,8610.8,0.0,55.0,5.0,236.42333333333335,0.0,0.0,0.0,0.0,0.0,0.0,0.0,0.0,0.10500000000000043,0.10500000000000043,0.0,0.0,0.0,55.0,616.79921,10000.0,85.000001,85.000001,85.000001,85.000001,395.0,0.0,0.0,0.0,1.0,166.665,61.951,61.951,49.149,49.149,34.0,-24.314,17.971666666666668,-25.023333333333333,19.62,0.0,1782.947,0.5250000000000021,100.0,20.2035,19.6,43.316,43.113,0.0,0.0,100.0,0.0,0.0,0.0,0.0,2700.25,2415.9,3631.3,3336.6,306.61633333333333,306.97,316.03625,316.618,21.722666666666665,20.4211,21.739333333333335,21.3313,314.999998,314.999998,324.999988,324.999988,99.55918571428572,99.50598333333333,99.56091428571429,99.54438571428571,-0.023499999999999965,-0.08399999999999996,-0.15816666666666657,0.07350000000000012,-0.07166666666666544,-0.086666666666666,1.7725,1.7666666666666666,36.766999999999996,28.631999999999998,36.870999999999995,34.320499999999996,55.980999999999995,32.9875,57.578,51.276666666666664,53.789,32.286,56.223,49.678,52.843,31.915,56.1435,49.129333333333335,0.0030000000000001137,-0.07299999999999995,0.11225,0.115015,0.0,205.755,205.69,203.15,203.15,0.0,0.0
3,0.0,0.0,0.0,1.0,1.0,0.0,0.0,1.0,0.0,100.0,1.0,1.1856,26.0,0.0,0.0,0.0,59.999996,0.0,26.0,26.0,26.0,26.0,-0.0614,0.3508,0.17212000000000002,297.012,-2.804,-2.7956250000000002,-1.57095,-1.4957,-265.63,215.36,190.932375,0.0,0.0,0.0,0.0,0.0074333333333333335,-5.498166666666667,-5.498166666666667,-0.28450000000000003,0.6546666666666667,0.010888888888888948,-1.16,65.855,-0.036000000000000004,0.05901666666666667,0.4939999999999998,100.0,1.0,1.0,202.99666666666667,0.0,0.0,0.0,0.0,0.0,0.0,0.0,8604.3,0.0,55.0,5.0,237.04333333333335,1.0,0.0,0.0,0.0,0.0,0.0,0.0,0.0,0.1559999999999988,0.1559999999999988,0.0,0.0,1.0,55.0,616.79921,10000.0,85.000001,85.000001,85.000001,85.000001,395.0,0.0,0.0,0.0,1.0,166.665,63.873,63.873,45.975,45.975,34.0,-16.978,15.435,-34.94,29.17,0.0,1782.897,0.6550000000000011,100.0,19.8365,19.4995,43.297,43.25,0.0,0.0,100.0,0.0,0.0,0.0,0.0,1992.5,2162.4,4589.4,4582.6,308.862,307.94825,313.598,313.37025,21.731444444444445,20.4251,21.749444444444443,21.3403,314.999998,314.999998,324.999988,324.999988,99.55918571428572,99.506,99.56107142857142,99.54452857142857,-0.020499999999999963,-0.09175,-0.13616666666666666,0.0645,-0.045000000000001705,-0.05833333333333002,1.393,1.428,36.821,28.656666666666666,36.934,34.376999999999995,55.952,33.018,57.6235,51.345,53.760999999999996,32.314,56.265,49.74366666666667,52.8155,31.941499999999998,56.1825,49.193666666666665,0.01200000000000001,-0.08349999999999991,0.107685,0.10074500000000002,0.0,206.35500000000002,206.29000000000002,202.99666666666667,202.99666666666667,0.0,0.0
4,0.0,0.0,0.0,1.0,1.0,0.0,0.0,1.0,0.0,100.0,1.0,1.1856,26.0,0.0,0.0,0.0,59.999996,0.0,26.0,26.0,26.0,26.0,-0.0785,0.30469999999999997,-0.0821,297.592,-2.7936,-2.863375,-1.5070999999999999,-1.6103,-262.47,215.36,190.914375,0.0,0.0,0.0,0.0,0.009266666666666668,-5.498166666666667,-5.498166666666667,-0.3161,-1.0663333333333336,-0.04355555555555579,-0.051999999999999935,66.007,-0.0414,0.010833333333333334,0.870000000000001,100.0,1.0,1.0,203.68,0.0,0.0,0.0,0.0,0.0,0.0,0.0,8633.2,0.0,55.0,5.0,237.59,0.0,0.0,0.0,0.0,0.0,0.0,0.0,0.0,0.20400000000000063,0.20400000000000063,0.0,0.0,0.0,55.0,616.79921,10000.0,85.000001,85.000001,85.000001,85.000001,395.0,0.0,0.0,0.0,1.0,333.33500000000004,63.69,63.69,47.47,47.47,34.0,-20.672,14.648333333333333,-29.96666666666667,24.740000000000002,0.0,1782.846,0.7850000000000001,100.0,19.7345,19.1055,43.978,43.349000000000004,0.0,0.0,100.0,0.0,0.0,0.0,0.0,2284.625,2074.8,4090.9,3925.2,307.8786666666667,308.27675,314.8055,315.05,21.739666666666665,20.4285,21.75911111111111,21.3487,314.999998,314.999998,324.999988,324.999988,99.55918571428572,99.50601666666667,99.5612,99.54465714285715,-0.04299999999999993,-0.10599999999999998,-0.15433333333333332,0.05566666666666675,-0.03166666666666629,-0.07000000000000028,1.5125,1.5590000000000002,36.873000000000005,28.677999999999997,36.995000000000005,34.429,55.924,33.042500000000004,57.6685,51.403666666666666,53.735,32.3365,56.3075,49.79966666666667,52.789500000000004,31.963,56.2225,49.248333333333335,0.03600000000000003,-0.09399999999999986,0.10251,0.09900500000000001,0.0,206.72500000000002,206.67000000000002,203.68,203.68,0.0,0.0
5,0.0,0.0,0.0,1.0,1.0,0.0,0.0,1.0,0.0,100.0,1.0,1.1856,26.0,0.0,0.0,0.0,59.999996,0.0,26.0,26.0,26.0,26.0,-0.07,0.3437000000000001,-0.03146,297.867,-2.7673,-2.8435,-1.55585,-1.5897999999999999,-259.1,215.35750000000002,190.894625,0.0,0.0,0.0,0.0,0.011233333333333333,-5.498166666666667,-5.498166666666667,-0.329,0.55,-0.03055555555555589,-0.040000000000000036,66.167,-0.0613,0.0196,0.9920000000000009,100.0,1.0,1.0,204.26999999999998,0.0,0.0,0.0,0.0,0.0,0.0,0.0,8658.3,0.0,55.0,5.0,238.16666666666669,1.0,0.0,0.0,0.0,0.0,0.0,0.0,0.0,0.254999999999999,0.254999999999999,0.0,0.0,1.0,55.0,616.79921,10000.0,85.000001,85.000001,85.000001,85.000001,395.0,0.0,0.0,0.0,1.0,166.665,63.721000000000004,63.721000000000004,47.897,47.897,34.0,-20.64,15.046666666666667,-31.11333333333333,23.4025,0.0,1782.797,0.5599999999999987,100.0,19.5785,19.186,43.434,42.661,0.0,0.0,100.0,0.0,0.0,0.0,0.0,2304.125,2097.1,4013.2,4009.4,307.86833333333334,308.03775,315.0685,314.91575,21.748555555555555,20.43225,21.769111111111112,21.3573,314.999998,314.999998,324.999988,324.999988,99.5592,99.50601666666667,99.56134285714286,99.5448,-0.04249999999999998,-0.10075,-0.18533333333333335,0.027666666666666728,-0.06666666666666998,-0.05666666666667197,1.5574999999999999,1.6173333333333333,36.928,28.701666666666668,37.057,34.483000000000004,55.897,33.07,57.711,51.462666666666664,53.71,32.362,56.3475,49.85633333333333,52.765,31.987499999999997,56.2595,49.303666666666665,0.011499999999999844,-0.06950000000000012,0.100235,0.104565,0.0,207.305,207.195,204.26999999999998,204.26999999999998,0.0,0.0
6,0.0,0.0,0.0,1.0,1.0,0.0,0.0,1.0,0.0,100.0,1.0,1.1856,26.0,0.0,0.0,0.0,59.999996,0.0,26.0,26.0,26.0,26.0,-0.09390000000000001,0.3184,0.04746,297.623,-2.8035,-2.8875,-1.50555,-1.5743,-255.92,215.35500000000002,190.875125,0.0,0.0,0.0,0.0,0.0131,-5.498166666666667,-5.498166666666667,-0.3164,-0.33933333333333326,-0.04700000000000015,-0.871,66.322,-0.0653,0.040883333333333334,0.7880000000000003,100.0,1.0,1.0,204.55333333333334,0.0,0.0,0.0,0.0,0.0,0.0,0.0,8670.3,0.0,55.0,5.0,238.72333333333333,0.0,0.0,0.0,0.0,0.0,0.0,0.0,0.0,0.3030000000000008,0.3030000000000008,0.0,0.0,0.0,55.0,616.79921,10000.0,85.000001,85.000001,85.000001,85.000001,395.0,0.0,0.0,0.0,1.0,333.33500000000004,64.072,64.072,47.318,47.318,34.0,-21.752000000000002,13.878333333333334,-33.47,24.905,0.0,1782.748,0.45500000000000185,100.0,19.349,18.8935,43.621,42.906,0.0,0.0,100.0,0.0,0.0,0.0,0.0,2375.25,1982.3,4306.2,4161.3,307.767,308.471,314.316,314.46775,21.756777777777778,20.4357,21.778777777777776,21.3657,314.999998,314.999998,324.999988,324.999988,99.5592,99.50603333333333,99.56147142857142,99.54492857142857,-0.052749999999999964,-0.11575000000000002,-0.1825,0.03049999999999997,-0.05333333333332746,-0.05833333333333002,1.4809999999999999,1.5133333333333334,36.980000000000004,28.723,37.117000000000004,34.5355,55.870000000000005,33.095,57.7545,51.52333333333333,53.685,32.3845,56.388,49.91433333333333,52.7395,32.009,56.2975,49.36033333333333,0.012500000000000178,-0.06950000000000012,0.103855,0.10612,0.0,207.76,207.67000000000002,204.55333333333334,204.55333333333334,0.0,0.0
7,0.0,0.0,0.0,1.0,1.0,0.0,0.0,1.0,0.0,100.0,1.0,1.1856,26.0,0.0,0.0,0.0,59.999996,0.0,26.0,26.0,26.0,26.0,-0.0721,0.3174000000000001,-0.00716,297.592,-2.7943,-2.8973750000000003,-1.55205,-1.6285,-252.53,215.35,190.8545,0.0,0.0,0.0,0.0,0.015066666666666666,-5.498166666666667,-5.498166666666667,-0.32,0.21533333333333338,-0.04222222222222216,1.1640000000000001,66.481,-0.0699,0.03011666666666667,0.6400000000000006,100.0,1.0,1.0,205.11666666666667,0.0,0.0,0.0,0.0,0.0,0.0,0.0,8694.1,0.0,55.0,5.0,239.3,1.0,0.0,0.0,0.0,0.0,0.0,0.0,0.0,0.3539999999999992,0.3539999999999992,0.0,0.0,1.0,55.0,616.79921,10000.0,85.000001,85.000001,85.000001,85.000001,395.0,0.0,0.0,0.0,1.0,333.33500000000004,63.828,63.828,47.302,47.302,34.0,-20.162,16.40833333333333,-32.84,25.405,0.0,1782.696,0.019999999999999574,100.0,19.679,18.7595,43.808,42.799,0.0,0.0,100.0,0.0,0.0,0.0,0.0,2310.5,2154.2,4218.4,4085.1000000000004,307.772,308.01875,314.51775,314.717,21.765666666666668,20.4395,21.789,21.3745,314.999998,314.999998,324.999988,324.999988,99.5592,99.50603333333333,99.56162857142857,99.54507142857143,-0.012749999999999928,-0.07299999999999995,-0.17516666666666658,0.03933333333333322,-0.061666666666667425,-0.07833333333332604,1.501,1.5346666666666666,37.035,28.746666666666666,37.181,34.591,55.844,33.1225,57.8,51.58533333333334,53.661,32.41,56.4305,49.973333333333336,52.715,32.033500000000004,56.337,49.418,-0.02849999999999997,-0.02950000000000008,0.10271500000000001,0.11205000000000001,0.0,208.255,208.19,205.11666666666667,205.11666666666667,0.0,0.0
8,0.0,0.0,0.0,1.0,1.0,0.0,0.0,1.0,0.0,100.0,1.0,1.1856,26.0,0.0,0.0,0.0,59.999996,0.0,26.0,26.0,26.0,26.0,-0.0594,0.3205,-0.0035,297.836,-2.8079,-2.838375,-1.5641,-1.5773000000000001,-248.94,215.3425,190.833,0.0,0.0,0.0,0.0,0.017133333333333334,-5.498166666666667,-5.498166666666667,-0.3168,-0.04499999999999993,-0.033666666666666956,0.2250000000000001,66.652,-0.06330000000000001,0.0333,0.21200000000000152,100.0,1.0,1.0,205.63333333333333,0.0,0.0,0.0,0.0,0.0,0.0,0.0,8716.0,0.0,55.0,5.0,239.91333333333333,0.0,0.0,0.0,0.0,0.0,0.0,0.0,0.0,0.40800000000000125,0.40800000000000125,0.0,0.0,0.0,55.0,616.79921,10000.0,85.000001,85.000001,85.000001,85.000001,395.0,0.0,0.0,0.0,1.0,166.665,64.27,64.27,47.15,47.15,34.0,-18.48,16.64333333333333,-31.386666666666667,25.7,0.0,1782.645,-0.11499999999999844,100.0,19.239,18.635,43.768,42.91,0.0,0.0,100.0,0.0,0.0,0.0,0.0,2166.5,2211.8,4151.2,4080.6000000000004,308.22066666666666,307.855,314.67575,314.75175,21.77488888888889,20.44355,21.799777777777777,21.384,314.999998,314.999998,324.999988,324.999988,99.5592,99.50603333333333,99.56177142857143,99.54521428571428,-0.0024999999999999467,-0.06999999999999995,-0.15700000000000003,0.05950000000000011,-0.046666666666666856,-0.07333333333333059,1.52,1.5333333333333334,37.093,28.772,37.248000000000005,34.65,55.813,33.1515,57.8475,51.65233333333333,53.632,32.4365,56.4755,50.03766666666667,52.6865,32.0585,56.379,49.481,-0.040000000000000036,-0.026499999999999968,0.102455,0.11413500000000001,0.0,208.745,208.72500000000002,205.63333333333333,205.63333333333333,0.0,0.0
9,0.0,0.0,0.0,1.0,1.0,0.0,0.0,1.0,0.0,100.0,1.0,1.1856,26.0,0.0,0.0,0.0,59.999996,0.0,26.0,26.0,26.0,26.0,-0.0207,0.3124,-0.013819999999999999,297.791,-2.7944,-2.8512500000000003,-1.5495999999999999,-1.5783,-245.93,215.335,190.81475,0.0,0.0,0.0,0.0,0.0189,-5.498166666666667,-5.498166666666667,-0.3144,0.17533333333333334,-0.046222222222222165,-0.772,66.792,-0.0514,0.041833333333333333,0.136000000000001,100.0,1.0,1.0,206.05333333333334,0.0,0.0,0.0,0.0,0.0,0.0,0.0,8733.8,0.0,55.0,5.0,240.41666666666669,1.0,0.0,0.0,0.0,0.0,0.0,0.0,0.0,0.4529999999999994,0.4529999999999994,0.0,0.0,1.0,55.0,616.79921,10000.0,85.000001,85.000001,85.000001,85.000001,395.0,0.0,0.0,0.0,1.0,333.33500000000004,64.163,64.163,47.501,47.501,34.0,-20.299999999999997,16.60333333333333,-30.976666666666667,26.32,0.0,1782.598,-0.2749999999999986,100.0,19.023,18.5935,43.568,42.955,0.0,0.0,100.0,0.0,0.0,0.0,0.0,2390.0,2121.5,4181.8,4129.6,307.6933333333333,307.9675,314.68275,314.5605,21.782555555555554,20.44685,21.808666666666667,21.3918,314.999998,314.999998,324.999988,324.999988,99.5592,99.50605,99.5619,99.54534285714286,0.00275000000000003,-0.05149999999999999,-0.14966666666666661,0.06133333333333324,-0.07000000000000028,-0.03499999999999659,1.5215,1.5236666666666667,37.141,28.793,37.304,34.699,55.788,33.1745,57.887,51.707,53.608000000000004,32.457499999999996,56.5125,50.09,52.663,32.0785,56.4135,49.532,-0.04600000000000004,-0.00749999999999984,0.10663500000000001,0.10878000000000002,0.0,209.185,209.16,206.05333333333334,206.05333333333334,0.0,0.0
10,0.0,0.0,0.0,1.0,1.0,0.0,0.0,1.0,0.0,100.0,1.0,1.1856,26.0,0.0,0.0,0.0,59.999996,0.0,26.0,26.0,26.0,26.0,-0.0274,0.3216000000000001,0.0094,297.76,-2.7942,-2.83975,-1.5604,-1.5667,-242.51999999999998,215.325,190.794,0.0,0.0,0.0,0.0,0.020866666666666665,-5.498166666666667,-5.498166666666667,-0.3068,-0.1206666666666667,-0.021777777777777896,1.5739999999999998,66.952,-0.0361,0.0487,-0.1479999999999997,100.0,1.0,1.0,206.46333333333334,0.0,0.0,0.0,0.0,0.0,0.0,0.0,8751.2,0.0,55.0,5.0,240.99333333333334,0.0,0.0,0.0,0.0,0.0,0.0,1.0,0.0,0.5040000000000013,0.5040000000000013,0.0,0.0,0.0,55.0,616.79921,10000.0,85.000001,85.000001,85.000001,85.000001,395.0,0.0,0.0,0.0,1.0,333.33500000000004,64.56,64.56,47.211,47.211,34.0,-17.514000000000003,17.493333333333332,-30.75,28.765,0.0,1782.547,-0.3999999999999986,100.0,19.086,18.293,43.718,43.074,0.0,0.0,100.0,0.0,0.0,0.0,0.0,2148.375,2187.3,4193.2,4342.3,308.218,307.97375,314.55225,314.12475,21.791222222222224,20.45065,21.81888888888889,21.4008,314.999998,314.999998,324.999988,324.999988,99.55921428571429,99.50605,99.56204285714286,99.54548571428572,0.02750000000000008,-0.028749999999999942,-0.1353333333333333,0.07883333333333331,-0.036666666666668846,-0.07499999999999574,1.498,1.5003333333333333,37.195,28.816666666666666,37.367999999999995,34.754999999999995,55.76,33.1995,57.9325,51.77066666666666,53.581,32.4805,56.555,50.150999999999996,52.635999999999996,32.1005,56.453,49.59166666666667,-0.05800000000000005,0.0029999999999998916,0.09783000000000001,0.10649000000000002,0.0,209.655,209.67000000000002,206.46333333333334,206.46333333333334,0.0,0.0
11,0.0,0.0,0.0,1.0,1.0,0.0,0.0,1.0,0.0,100.0,1.0,1.1856,26.0,0.0,0.0,0.0,59.999996,0.0,26.0,26.0,26.0,26.0,0.01,0.31689999999999996,-0.044160000000000005,298.035,-2.8301,-2.8245,-1.57275,-1.5372,-239.1,215.315,190.773,0.0,0.0,0.0,0.0,0.022600000000000002,-5.498166666666667,-5.498166666666667,-0.3265,-0.32833333333333337,0.002555555555555644,-0.33299999999999996,67.10900000000001,-0.020300000000000002,0.03776666666666667,-0.24600000000000044,100.0,1.0,1.0,207.0366666666667,0.0,0.0,0.0,0.0,0.0,0.0,0.0,8775.5,0.0,55.0,5.0,241.55666666666667,1.0,0.0,0.0,0.0,0.0,0.0,1.0,0.0,0.5549999999999997,0.5549999999999997,0.0,0.0,1.0,55.0,616.79921,10000.0,85.000001,85.000001,85.000001,85.000001,395.0,0.0,0.0,0.0,1.0,333.33500000000004,64.56,64.56,47.653,47.653,34.0,-18.948,17.66166666666667,-28.65,27.427500000000002,0.0,1782.496,-0.2699999999999996,100.0,18.5475,18.4135,43.408,43.24,0.0,0.0,100.0,0.0,0.0,0.0,0.0,2275.25,2189.8,4036.0,4136.3,308.0563333333333,307.78075,315.0145,314.55625,21.799777777777777,20.45445,21.829,21.4098,314.999998,314.999998,324.999988,324.999988,99.55921428571429,99.50605,99.56218571428572,99.54562857142857,0.017249999999999988,-0.02849999999999997,-0.1243333333333334,0.09349999999999992,-0.060000000000002274,-0.051666666666669414,1.549,1.5353333333333334,37.248000000000005,28.840333333333334,37.431,34.811,55.730000000000004,33.2245,57.975,51.833333333333336,53.554,32.5035,56.595,50.211,52.6085,32.1225,56.49,49.650333333333336,-0.05049999999999999,-0.0030000000000001137,0.11053500000000001,0.10828000000000002,0.0,210.14499999999998,210.14,207.0366666666667,207.0366666666667,0.0,0.0
12,0.0,0.0,0.0,1.0,1.0,0.0,0.0,1.0,0.0,100.0,1.0,1.1856,26.0,0.0,0.0,0.0,59.999996,0.0,26.0,26.0,26.0,26.0,0.0037,0.3210000000000002,0.00524,297.714,-2.8366,-2.8064999999999998,-1.5765500000000001,-1.5485,-235.88,215.305,190.7525,0.0,0.0,0.0,0.0,0.025466666666666665,-5.498166666666667,-5.498166666666667,-0.3186,0.4136666666666666,0.012111111111110962,-0.5780000000000001,67.257,-0.0041,0.05643333333333334,-0.4800000000000004,100.0,1.0,1.0,207.44,0.0,0.0,0.0,0.0,0.0,0.0,0.0,8792.6,0.0,55.0,5.0,242.09333333333336,0.0,0.0,0.0,0.0,0.0,0.0,1.0,0.0,0.602999999999998,0.602999999999998,0.0,0.0,0.0,55.0,616.79921,10000.0,85.000001,85.000001,85.000001,85.000001,395.0,0.0,0.0,0.0,1.0,166.665,64.316,64.316,47.134,47.134,34.0,-19.918,16.73833333333333,-29.07333333333333,29.450000000000003,0.0,1782.449,0.995000000000001,100.0,18.6515,18.7725,43.227000000000004,43.257,0.0,0.0,100.0,0.0,0.0,0.0,0.0,2256.125,2239.0,4216.2,4274.5,308.0926666666667,307.60325,314.60975,314.243,21.80777777777778,20.4582,21.838555555555555,21.4182,314.999998,314.999998,324.999988,324.999988,99.55921428571429,99.50605,99.56232857142857,99.54575714285714,-0.022499999999999964,-0.07550000000000001,-0.09999999999999998,0.10466666666666669,-0.045000000000001705,-0.051666666666669414,1.517,1.495,37.299,28.863999999999997,37.491,34.8635,55.704,33.25,58.0155,51.89233333333333,53.53,32.527,56.6325,50.26766666666666,52.5845,32.144999999999996,56.525,49.705666666666666,0.012500000000000178,-0.06599999999999984,0.10194500000000001,0.10645500000000001,0.0,210.60500000000002,210.63,207.44,207.44,0.0,0.0
13,0.0,0.0,0.0,1.0,1.0,0.0,0.0,1.0,0.0,100.0,1.0,1.1856,26.0,0.0,0.0,0.0,59.999996,0.0,26.0,26.0,26.0,26.0,0.045000000000000005,0.31720000000000015,0.01482,297.455,-2.8083,-2.83475,-1.56535,-1.5636,-232.44,215.29500000000002,190.730875,0.0,0.0,0.0,0.0,0.02673333333333333,-5.498166666666667,-5.498166666666667,-0.31270000000000003,-0.2230000000000001,0.004444444444444251,1.138,67.41499999999999,0.0006000000000000001,0.05061666666666667,-0.36599999999999966,100.0,1.0,1.0,207.85000000000002,0.0,0.0,0.0,0.0,0.0,0.0,0.0,8810.0,0.0,55.0,5.0,242.66,1.0,0.0,0.0,0.0,0.0,0.0,1.0,0.0,0.6539999999999999,0.6539999999999999,0.0,0.0,1.0,55.0,616.79921,10000.0,85.000001,85.000001,85.000001,85.000001,395.0,0.0,0.0,0.0,1.0,333.33500000000004,64.27,64.27,46.89,46.89,34.0,-16.228,19.868333333333332,-28.87333333333333,31.1175,0.0,1782.397,-0.48999999999999844,100.0,18.9815,18.6735,43.712,43.57,0.0,0.0,100.0,0.0,0.0,0.0,0.0,2172.25,2269.1,4200.6,4378.1,308.15933333333334,307.70125,314.5255,314.0365,21.816222222222223,20.46215,21.848777777777777,21.4273,314.999998,314.999998,324.999988,324.999988,99.55922857142858,99.50606666666667,99.56247142857143,99.5459,0.08499999999999996,0.03049999999999997,-0.09483333333333333,0.11416666666666675,-0.051666666666669414,-0.061666666666667425,1.474,1.4696666666666667,37.352000000000004,28.888666666666666,37.555,34.920500000000004,55.676,33.2775,58.0605,51.95766666666667,53.504000000000005,32.5525,56.675,50.330333333333336,52.5585,32.1695,56.564499999999995,49.766999999999996,-0.07850000000000001,0.03200000000000003,0.10343500000000001,0.109545,0.0,211.10000000000002,211.095,207.85000000000002,207.85000000000002,0.0,0.0
14,0.0,0.0,0.0,1.0,1.0,0.0,0.0,1.0,0.0,100.0,1.0,1.1856,26.0,0.0,0.0,0.0,59.999996,0.0,26.0,26.0,26.0,26.0,0.048,0.30800000000000005,-0.047,297.745,-2.811,-2.84075,-1.57625,-1.5565,-229.0,215.2875,190.7095,0.0,0.0,0.0,0.0,0.028733333333333333,-5.498166666666667,-5.498166666666667,-0.3247,-0.02966666666666673,0.018888888888888955,-0.42899999999999994,67.569,0.0071,0.040633333333333334,-0.39000000000000057,100.0,1.0,1.0,208.42333333333335,0.0,0.0,0.0,0.0,0.0,0.0,0.0,8834.3,0.0,55.0,5.0,243.21666666666667,0.0,0.0,0.0,0.0,0.0,0.0,1.0,0.0,0.7049999999999983,0.7049999999999983,0.0,0.0,0.0,55.0,616.79921,10000.0,85.000001,85.000001,85.000001,85.000001,395.0,0.0,0.0,0.0,1.0,333.33500000000004,64.362,64.362,47.318,47.318,34.0,-17.094,18.403333333333332,-27.45,29.3275,0.0,1782.345,-0.5999999999999979,100.0,18.7635,18.9355,43.5,43.684,0.0,0.0,100.0,0.0,0.0,0.0,0.0,2230.75,2147.6,4078.6,4168.7,308.18066666666664,307.845,314.92625,314.48325,21.82477777777778,20.46615,21.859,21.4363,314.999998,314.999998,324.999988,324.999988,99.55922857142858,99.50606666666667,99.56261428571429,99.54607142857142,0.06499999999999995,0.008499999999999952,-0.09099999999999997,0.1186666666666667,-0.04999999999999716,-0.06666666666666998,1.5314999999999999,1.524,37.405,28.913333333333334,37.617999999999995,34.977000000000004,55.647,33.3055,58.1055,52.02466666666667,53.476,32.578,56.717,50.394666666666666,52.531,32.194,56.6035,49.83,-0.0714999999999999,0.02299999999999991,0.1015,0.10518500000000001,0.0,211.57,211.585,208.42333333333335,208.42333333333335,0.0,0.0
15,0.0,0.0,0.0,1.0,1.0,0.0,0.0,1.0,0.0,100.0,1.0,1.1856,26.0,0.0,0.0,0.0,59.999996,0.0,26.0,26.0,26.0,26.0,0.0379,0.31020000000000003,-0.015700000000000002,297.684,-2.7952,-2.826,-1.5608,-1.5795,-225.55,215.28,190.68775,0.0,0.0,0.0,0.0,0.03073333333333333,-5.498166666666667,-5.498166666666667,-0.3163,0.249,0.023333333333333206,0.804,67.725,0.013600000000000001,0.057716666666666666,-0.46199999999999974,100.0,1.0,1.0,208.87,0.0,0.0,0.0,0.0,0.0,0.0,0.0,8853.2,0.0,55.0,5.0,243.77666666666664,1.0,0.0,0.0,0.0,0.0,0.0,1.0,0.0,0.7560000000000002,0.7560000000000002,0.0,0.0,1.0,55.0,616.79921,10000.0,85.000001,85.000001,85.000001,85.000001,395.0,0.0,0.0,0.0,1.0,166.665,64.453,64.453,47.104,47.104,34.0,-15.850000000000001,19.134999999999998,-26.82,31.630000000000003,0.0,1782.296,-0.5,100.0,18.887,18.7985,43.467,43.662,0.0,0.0,100.0,0.0,0.0,0.0,0.0,2088.0,2225.1,4136.0,4249.8,308.4153333333333,307.7895,314.7345,314.338,21.833222222222222,20.47015,21.86911111111111,21.4454,314.999998,314.999998,324.999988,324.999988,99.55924285714286,99.50606666666667,99.56275714285714,99.5462,0.06899999999999995,0.019000000000000128,-0.07150000000000001,0.14100000000000001,-0.054999999999999716,-0.07000000000000028,1.518,1.4849999999999999,37.457,28.938333333333333,37.682,35.033500000000004,55.620000000000005,33.3305,58.1455,52.084666666666664,53.451,32.601,56.754,50.452333333333335,52.506,32.216,56.638,49.88633333333333,-0.06400000000000006,0.01649999999999996,0.09613500000000001,0.11525,0.0,212.065,212.07999999999998,208.87,208.87,0.0,0.0
16,0.0,0.0,0.0,1.0,1.0,0.0,0.0,1.0,0.0,100.0,1.0,1.1856,26.0,0.0,0.0,0.0,59.999996,0.0,26.0,26.0,26.0,26.0,0.0362,0.3096000000000001,0.00172,297.409,-2.8664,-2.766,-1.6005500000000001,-1.5697,-222.3,215.2725,190.667,0.0,0.0,0.0,0.0,0.032633333333333334,-5.498166666666667,-5.498166666666667,-0.3244,-0.29266666666666685,0.020777777777777784,0.349,67.87100000000001,0.0162,0.04631666666666667,-0.3960000000000008,100.0,1.0,1.0,209.28,0.0,0.0,0.0,0.0,0.0,0.0,0.0,8870.6,0.0,55.0,5.0,244.30333333333334,0.0,0.0,0.0,0.0,0.0,0.0,1.0,0.0,0.8039999999999985,0.8039999999999985,0.0,0.0,0.0,55.0,616.79921,10000.0,85.000001,85.000001,85.000001,85.000001,395.0,0.0,0.0,0.0,1.0,166.665,64.011,64.011,46.783,46.783,34.0,-17.396,20.47,-27.953333333333333,30.3675,0.0,1782.249,-0.4499999999999993,100.0,18.793,18.9325,43.697,43.908,0.0,0.0,100.0,0.0,0.0,0.0,0.0,2218.75,2390.9,4140.2,4190.0,308.08566666666667,307.292,314.75625,314.45225,21.84111111111111,20.47395,21.878666666666668,21.454,314.999998,314.999998,324.999988,324.999988,99.55925714285715,99.50606666666667,99.56288571428571,99.54634285714286,0.06824999999999992,0.0202500000000001,-0.08199999999999996,0.12983333333333325,-0.046666666666666856,-0.06833333333332803,1.508,1.499,37.507,28.962,37.742000000000004,35.087,55.593,33.3555,58.1875,52.14533333333333,53.426,32.624,56.793,50.510333333333335,52.4805,32.238,56.674,49.943333333333335,-0.059499999999999886,0.009500000000000064,0.10919500000000001,0.10589000000000001,0.0,212.48000000000002,212.51,209.28,209.28,0.0,0.0
17,0.0,0.0,0.0,1.0,1.0,0.0,0.0,1.0,0.0,100.0,1.0,1.1856,26.0,0.0,0.0,0.0,59.999996,0.0,26.0,26.0,26.0,26.0,0.0438,0.31020000000000003,0.0379,297.165,-2.7958,-2.84675,-1.56135,-1.5329000000000002,-218.82999999999998,215.26749999999998,190.64475,0.0,0.0,0.0,0.0,0.034633333333333335,-5.498166666666667,-5.498166666666667,-0.3211,0.20899999999999996,-0.002777777777777768,-1.182,68.025,0.017,0.052566666666666664,-0.266,100.0,1.0,1.0,209.72,0.0,0.0,0.0,0.0,0.0,0.0,0.0,8889.3,0.0,55.0,5.0,244.85666666666668,1.0,0.0,0.0,0.0,0.0,0.0,1.0,0.0,0.8550000000000004,0.8550000000000004,0.0,0.0,1.0,55.0,616.79921,10000.0,85.000001,85.000001,85.000001,85.000001,395.0,0.0,0.0,0.0,1.0,333.33500000000004,63.995,63.995,46.417,46.417,34.0,-17.412,18.92,-29.21333333333333,30.3625,0.0,1782.195,-0.3249999999999993,100.0,18.8815,19.196,43.677,44.038,0.0,0.0,100.0,0.0,0.0,0.0,0.0,2262.125,2205.8,4323.8,4283.2,308.0163333333333,307.52825,314.3365,314.2285,21.849555555555554,20.478,21.88888888888889,21.463,314.999998,314.999998,324.999988,324.999988,99.55925714285715,99.50606666666667,99.56304285714286,99.5465,0.06400000000000006,-0.0020000000000000018,-0.08599999999999997,0.12183333333333324,-0.05333333333332746,-0.05833333333333002,1.4789999999999999,1.472,37.559,28.987666666666666,37.805,35.144,55.563,33.3845,58.233000000000004,52.21233333333333,53.397999999999996,32.6505,56.836,50.575,52.4525,32.2635,56.713499999999996,50.00633333333333,-0.05449999999999999,0.0004999999999999449,0.10593000000000001,0.10416,0.0,212.985,212.995,209.72,209.72,0.0,0.0
18,0.0,0.0,0.0,1.0,1.0,0.0,0.0,1.0,0.0,100.0,1.0,1.1856,26.0,0.0,0.0,0.0,59.999996,0.0,26.0,26.0,26.0,26.0,0.0378,0.3053000000000001,0.03406000000000001,297.241,-2.7862,-2.879125,-1.5441,-1.6046,-215.56,215.2625,190.623625,0.0,0.0,0.0,0.0,0.036533333333333334,-5.498166666666667,-5.498166666666667,-0.3297,-0.359,-0.004666666666666597,-0.6539999999999999,68.169,0.013300000000000001,0.04845,-0.15399999999999991,100.0,1.0,1.0,210.15,0.0,0.0,0.0,0.0,0.0,0.0,0.0,8907.4,0.0,55.0,5.0,245.37666666666667,0.0,0.0,0.0,0.0,0.0,0.0,1.0,0.0,0.9029999999999987,0.9029999999999987,0.0,0.0,0.0,55.0,616.79921,10000.0,85.000001,85.000001,85.000001,85.000001,395.0,0.0,0.0,0.0,1.0,166.665,64.178,64.178,46.6,46.6,34.0,-17.628,18.799999999999997,-28.77,31.067500000000003,0.0,1782.149,-0.28999999999999915,100.0,18.771,19.003,43.851,44.163,0.0,0.0,100.0,0.0,0.0,0.0,0.0,2275.125,2187.4,4214.3,4265.0,308.038,307.6725,314.558,314.131,21.857333333333333,20.4817,21.898444444444443,21.4716,314.999998,314.999998,324.999988,324.999988,99.55925714285715,99.50608333333334,99.56317142857142,99.54661428571428,0.05624999999999991,-0.0024999999999999467,-0.09699999999999998,0.11433333333333318,-0.046666666666666856,-0.04833333333333201,1.4715,1.4643333333333333,37.608999999999995,29.010666666666665,37.866,35.1975,55.538,33.4065,58.272,52.26866666666667,53.373999999999995,32.671,56.872,50.629,52.429,32.283,56.747,50.059,-0.05249999999999999,-0.0024999999999999467,0.11092500000000001,0.10529000000000001,0.0,213.41,213.41,210.15,210.15,0.0,0.0
19,0.0,0.0,0.0,1.0,1.0,0.0,0.0,1.0,0.0,100.0,1.0,1.1856,26.0,0.0,0.0,0.0,59.999996,0.0,26.0,26.0,26.0,26.0,0.0523,0.3037000000000001,-0.01254,297.18,-2.7666,-2.8810000000000002,-1.5437,-1.6229,-211.88,215.26,190.5995,0.0,0.0,0.0,0.0,0.038700000000000005,-5.498166666666667,-5.498166666666667,-0.3194,0.5586666666666666,0.004111111111110954,-0.724,68.33,0.0082,0.06308333333333334,-0.08399999999999963,100.0,1.0,1.0,210.68666666666667,0.0,0.0,0.0,0.0,0.0,0.0,0.0,8930.2,0.0,55.0,5.0,245.95333333333335,1.0,0.0,0.0,0.0,0.0,0.0,1.0,0.0,0.9570000000000007,0.9570000000000007,0.0,0.0,1.0,55.0,616.79921,10000.0,85.000001,85.000001,85.000001,85.000001,395.0,0.0,0.0,0.0,1.0,166.665,64.011,64.011,46.722,46.722,34.0,-17.554000000000002,17.97833333333333,-29.196666666666665,31.0425,0.0,1782.095,-0.23000000000000043,100.0,19.169,19.321,43.778999999999996,44.214,0.0,0.0,100.0,0.0,0.0,0.0,0.0,2252.5,2107.2,4238.9,4217.9,308.08866666666665,307.906,314.56225,314.3035,21.866333333333333,20.48605,21.909222222222223,21.4813,314.999998,314.999998,324.999988,324.999988,99.55927142857144,99.50608333333334,99.56332857142857,99.54677142857143,0.048250000000000126,-0.0050000000000000044,-0.10416666666666663,0.11916666666666687,-0.07000000000000028,-0.04833333333333201,1.488,1.4776666666666667,37.665,29.037666666666667,37.933,35.257999999999996,55.509,33.435,58.316,52.33533333333334,53.347,32.6975,56.9135,50.693,52.402,32.308,56.7855,50.122,-0.04800000000000004,-0.00550000000000006,0.10852500000000001,0.11864000000000001,0.0,213.95499999999998,213.94,210.68666666666667,210.68666666666667,0.0,0.0
20,0.0,0.0,0.0,1.0,1.0,0.0,0.0,1.0,0.0,100.0,1.0,1.1856,26.0,0.0,0.0,0.0,59.999996,0.0,26.0,26.0,26.0,26.0,0.0356,0.2885,-0.02802,297.119,-2.8391,-2.79125,-1.6199,-1.6031,-208.59,215.255,190.57825,0.0,0.0,0.0,0.0,0.040600000000000004,-5.498166666666667,-5.498166666666667,-0.321,-0.6353333333333333,0.008333333333333304,-0.893,68.473,0.0043,0.05428333333333334,-0.02999999999999936,100.0,1.0,1.0,211.07999999999998,0.0,0.0,0.0,0.0,0.0,0.0,0.0,8946.9,0.0,55.0,5.0,246.47333333333336,0.0,0.0,0.0,0.0,0.0,0.0,0.0,0.0,1.004999999999999,1.004999999999999,0.0,0.0,0.0,55.0,616.79921,10000.0,85.000001,85.000001,85.000001,85.000001,395.0,0.0,0.0,0.0,1.0,333.33500000000004,64.255,64.255,46.143,46.143,34.0,-17.954,17.83833333333333,-30.546666666666667,29.82,0.0,1782.046,-0.21999999999999886,100.0,18.836,19.1105,44.319,44.689,0.0,0.0,100.0,0.0,0.0,0.0,0.0,2241.5,2178.6,4285.6,4135.5,308.187,307.78975,314.507,314.47875,21.874222222222222,20.4898,21.919,21.49,314.999998,314.999998,324.999988,324.999988,99.55927142857144,99.50608333333334,99.56345714285715,99.54691428571428,0.042750000000000066,-0.013000000000000012,-0.10250000000000004,0.1140000000000001,-0.05333333333332746,-0.046666666666666856,1.4829999999999999,1.4743333333333333,37.714,29.061,37.994,35.3125,55.480999999999995,33.459,58.359,52.397,53.321,32.7195,56.9535,50.752,52.3755,32.329499999999996,56.8225,50.17966666666666,-0.04699999999999993,-0.008500000000000174,0.10554000000000001,0.10865500000000002,0.0,214.36,214.35500000000002,211.07999999999998,211.07999999999998,0.0,0.0
21,0.0,0.0,0.0,1.0,1.0,0.0,0.0,1.0,0.0,100.0,1.0,1.1856,26.0,0.0,0.0,0.0,59.999996,0.0,26.0,26.0,26.0,26.0,0.0257,0.2993000000000001,-0.041639999999999996,297.302,-2.8542,-2.764125,-1.5816,-1.5583,-205.3,215.2525,190.55675,0.0,0.0,0.0,0.0,0.0425,-5.498166666666667,-5.498166666666667,-0.3398,-0.019333333333333425,-0.0015555555555555323,-0.7110000000000001,68.614,0.002,0.0531,-0.02200000000000024,100.0,1.0,1.0,211.61,0.0,0.0,0.0,0.0,0.0,0.0,0.0,8969.4,0.0,55.0,5.0,246.97666666666666,1.0,0.0,0.0,0.0,0.0,0.0,0.0,0.0,1.0530000000000008,1.0530000000000008,0.0,0.0,1.0,55.0,616.79921,10000.0,85.000001,85.000001,85.000001,85.000001,395.0,0.0,0.0,0.0,1.0,166.665,64.102,64.102,46.783,46.783,34.0,-19.067999999999998,18.259999999999998,-28.91,28.605,0.0,1782.0,-0.25,100.0,18.8495,18.9715,44.057,44.316,0.0,0.0,100.0,0.0,0.0,0.0,0.0,2349.375,2230.9,4143.3,4115.0,307.8573333333333,307.674,314.803,314.66525,21.882,20.49355,21.928444444444445,21.4985,314.999998,314.999998,324.999988,324.999988,99.55927142857144,99.50608333333334,99.5636,99.54704285714286,0.04400000000000004,-0.007750000000000035,-0.10716666666666663,0.11283333333333334,-0.05666666666667197,-0.03999999999999915,1.526,1.52,37.762,29.084666666666664,38.053,35.3655,55.454,33.4835,58.397999999999996,52.45433333333334,53.295,32.7415,56.99,50.80733333333333,52.35,32.3505,56.856,50.233666666666664,-0.04849999999999999,-0.007000000000000117,0.10447000000000001,0.105065,0.0,214.81,214.785,211.61,211.61,0.0,0.0
22,0.0,0.0,0.0,1.0,1.0,0.0,0.0,1.0,0.0,100.0,1.0,1.1856,26.0,0.0,0.0,0.0,59.999996,0.0,26.0,26.0,26.0,26.0,0.012400000000000001,0.31079999999999997,0.02932,296.814,-2.8923,-2.798375,-1.58475,-1.6062,-201.59,215.25,190.531625,0.0,0.0,0.0,0.0,0.044666666666666674,-5.498166666666667,-5.498166666666667,-0.3244,0.058666666666666645,0.002555555555555644,-0.671,68.775,0.0008,0.07775,-0.1039999999999992,100.0,1.0,1.0,211.94333333333333,0.0,0.0,0.0,0.0,0.0,0.0,0.0,8983.5,0.0,55.0,5.0,247.56,0.0,0.0,0.0,0.0,0.0,0.0,0.0,0.0,1.1069999999999993,1.1069999999999993,0.0,0.0,0.0,55.0,616.79921,10000.0,85.000001,85.000001,85.000001,85.000001,395.0,0.0,0.0,0.0,1.0,166.665,64.102,64.102,45.99,45.99,34.0,-19.222,18.24666666666667,-31.89333333333333,31.05,0.0,1781.945,-0.33999999999999986,100.0,18.9025,18.9915,44.2,44.406,0.0,0.0,100.0,0.0,0.0,0.0,0.0,2352.875,2216.4,4404.6,4407.4,307.908,307.70975,314.17075,313.82075,21.890777777777778,20.4978,21.939333333333334,21.5082,314.999998,314.999998,324.999988,324.999988,99.55928571428572,99.50608333333334,99.56375714285714,99.54721428571429,0.04525000000000001,-0.011499999999999955,-0.11349999999999993,0.09166666666666679,-0.046666666666666856,-0.060000000000002274,1.451,1.4616666666666667,37.817,29.111333333333334,38.121,35.426,55.424,33.510999999999996,58.4445,52.52133333333333,53.266999999999996,32.766999999999996,57.033500000000004,50.87166666666667,52.322,32.375,56.8965,50.29633333333334,-0.05899999999999994,0.0004999999999999449,0.11283000000000001,0.09850500000000001,0.0,215.31,215.305,211.94333333333333,211.94333333333333,0.0,0.0
23,0.0,0.0,0.0,1.0,1.0,0.0,0.0,1.0,0.0,100.0,1.0,1.1856,26.0,0.0,0.0,0.0,59.999996,0.0,26.0,26.0,26.0,26.0,0.0184,0.2974000000000001,0.0167,296.753,-2.7892,-2.825625,-1.64865,-1.5585,-198.29,215.2475,190.509375,0.0,0.0,0.0,0.0,0.0466,-5.498166666666667,-5.498166666666667,-0.33580000000000004,-0.2576666666666667,0.00022222222222212373,-0.6910000000000001,68.91499999999999,0.0023,0.059000000000000004,-0.14199999999999946,100.0,1.0,1.0,212.40666666666667,0.0,0.0,0.0,0.0,0.0,0.0,0.0,9003.1,0.0,55.0,5.0,248.06333333333333,1.0,0.0,0.0,0.0,0.0,0.0,0.0,0.0,1.1550000000000011,1.1550000000000011,0.0,0.0,1.0,55.0,616.79921,10000.0,85.000001,85.000001,85.000001,85.000001,395.0,0.0,0.0,0.0,1.0,166.665,63.903999999999996,63.903999999999996,46.021,46.021,34.0,-18.644,18.123333333333335,-32.343333333333334,29.8275,0.0,1781.897,-0.28500000000000014,100.0,19.127,19.11,44.417,44.626999999999995,0.0,0.0,100.0,0.0,0.0,0.0,0.0,2343.875,2180.6,4411.2,4280.6,307.78,307.74825,314.206,314.252,21.898555555555557,20.50165,21.94911111111111,21.5169,314.999998,314.999998,324.999988,324.999988,99.55928571428572,99.50608333333334,99.5639,99.54734285714285,0.04699999999999993,-0.01200000000000001,-0.10683333333333334,0.10549999999999993,-0.07666666666666799,-0.02833333333332888,1.4769999999999999,1.474,37.866,29.135333333333335,38.182,35.4805,55.397,33.536,58.486,52.58166666666666,53.242000000000004,32.79,57.0725,50.92966666666666,52.2965,32.3965,56.9325,50.352666666666664,-0.046499999999999986,-0.00749999999999984,0.10997000000000001,0.105535,0.0,215.735,215.715,212.40666666666667,212.40666666666667,0.0,0.0
24,0.0,0.0,0.0,1.0,1.0,0.0,0.0,1.0,0.0,100.0,1.0,1.1856,26.0,0.0,0.0,0.0,59.999996,0.0,26.0,26.0,26.0,26.0,0.0239,0.3022,-0.04646,297.226,-2.8374,-2.8049999999999997,-1.55795,-1.5751,-194.98000000000002,215.2475,190.48675,0.0,0.0,0.0,0.0,0.0485,-5.498166666666667,-5.498166666666667,-0.3498,-0.3383333333333334,0.00922222222222202,-0.264,69.055,0.0028,0.05996666666666667,-0.15399999999999991,100.0,1.0,1.0,212.87666666666667,0.0,0.0,0.0,0.0,0.0,0.0,0.0,9023.1,0.0,55.0,5.0,248.56666666666666,0.0,0.0,0.0,0.0,0.0,0.0,0.0,0.0,1.2029999999999994,1.2029999999999994,0.0,0.0,0.0,55.0,616.79921,10000.0,85.000001,85.000001,85.000001,85.000001,395.0,0.0,0.0,0.0,1.0,333.33500000000004,64.59,64.59,46.265,46.265,34.0,-17.092,17.358333333333334,-29.973333333333333,29.325000000000003,0.0,1781.848,-0.3249999999999993,100.0,18.874,18.865,44.361000000000004,44.525,0.0,0.0,100.0,0.0,0.0,0.0,0.0,2179.875,2124.5,4243.7,4198.2,308.351,307.9845,314.51975,314.4275,21.906222222222222,20.50535,21.958666666666666,21.5255,314.999998,314.999998,324.999988,324.999988,99.55928571428572,99.5061,99.56402857142857,99.54748571428571,0.05449999999999999,-0.013499999999999956,-0.11249999999999993,0.10466666666666669,-0.06333333333333258,-0.05666666666667197,1.488,1.4866666666666668,37.914,29.15833333333333,38.242,35.5345,55.369,33.559,58.5255,52.64,53.216,32.8115,57.1095,50.98566666666667,52.271,32.417,56.966499999999996,50.407666666666664,-0.06099999999999994,0.0,0.11314500000000001,0.10830000000000001,0.0,216.16,216.15,212.87666666666667,212.87666666666667,0.0,0.0
25,0.0,0.0,0.0,1.0,1.0,0.0,0.0,1.0,0.0,100.0,1.0,1.1856,26.0,0.0,0.0,0.0,59.999996,0.0,26.0,26.0,26.0,26.0,0.034300000000000004,0.2923,-0.00892,296.921,-2.8137,-2.8035,-1.5982,-1.5731000000000002,-191.25,215.245,190.459875,0.0,0.0,0.0,0.0,0.0507,-5.498166666666667,-5.498166666666667,-0.36250000000000004,0.22266666666666657,0.012333333333333307,-0.929,69.212,0.0057,0.06916666666666667,-0.2140000000000004,100.0,1.0,1.0,213.38666666666666,0.0,0.0,0.0,0.0,0.0,0.0,0.0,9044.7,0.0,55.0,5.0,249.13,1.0,0.0,0.0,0.0,0.0,0.0,0.0,0.0,1.256999999999998,1.256999999999998,0.0,0.0,1.0,55.0,616.79921,10000.0,85.000001,85.000001,85.000001,85.000001,395.0,0.0,0.0,0.0,1.0,166.665,63.751,63.751,46.295,46.295,34.0,-18.968,19.73,-29.549999999999997,29.7125,0.0,1781.795,-0.3249999999999993,100.0,18.9065,19.107,44.171,44.385999999999996,0.0,0.0,100.0,0.0,0.0,0.0,0.0,2371.875,2341.2,4229.5,4202.2,307.74666666666667,307.27225,314.6465,314.43325,21.91488888888889,20.50965,21.969444444444445,21.5351,314.999998,314.999998,324.999988,324.999988,99.5593,99.5061,99.56418571428571,99.54764285714286,0.048250000000000126,-0.004750000000000032,-0.09999999999999998,0.11250000000000004,-0.06333333333333258,-0.051666666666669414,1.506,1.4913333333333334,37.968,29.185333333333332,38.309,35.5945,55.338,33.587,58.5695,52.705,53.187,32.837,57.1505,51.048,52.2415,32.442,57.004,50.468666666666664,-0.052999999999999936,-0.0030000000000001137,0.10831,0.10577500000000001,0.0,216.64,216.65,213.38666666666666,213.38666666666666,0.0,0.0
26,0.0,0.0,0.0,1.0,1.0,0.0,0.0,1.0,0.0,100.0,1.0,1.1856,26.0,0.0,0.0,0.0,59.999996,0.0,26.0,26.0,26.0,26.0,0.033800000000000004,0.31120000000000014,0.05104,296.173,-2.8406,-2.793875,-1.56485,-1.5747,-187.92000000000002,215.245,190.43575,0.0,0.0,0.0,0.0,0.0526,-5.498166666666667,-5.498166666666667,-0.33590000000000003,0.29899999999999993,0.003666666666666707,-0.612,69.35300000000001,0.0064,0.08410000000000001,-0.13199999999999967,100.0,1.0,1.0,213.64,0.0,0.0,0.0,0.0,0.0,0.0,0.0,9055.5,0.0,55.0,5.0,249.64,0.0,0.0,0.0,0.0,0.0,0.0,0.0,0.0,1.3049999999999997,1.3049999999999997,0.0,0.0,0.0,55.0,616.79921,10000.0,85.000001,85.000001,85.000001,85.000001,395.0,0.0,0.0,0.0,1.0,333.33500000000004,63.644,63.644,45.364,45.364,34.0,-18.951999999999998,18.045,-32.336666666666666,32.582499999999996,0.0,1781.746,-0.375,100.0,19.4735,19.4365,44.68,44.912,0.0,0.0,100.0,0.0,0.0,0.0,0.0,2382.125,2186.2,4539.4,4531.8,307.7816666666667,307.827,313.833,313.60325,21.922666666666665,20.51355,21.97911111111111,21.5439,314.999998,314.999998,324.999988,324.999988,99.5593,99.5061,99.56432857142858,99.54778571428571,0.05499999999999994,-0.006000000000000005,-0.10216666666666663,0.10549999999999993,-0.04999999999999716,-0.04833333333333201,1.4135,1.4126666666666667,38.016999999999996,29.209666666666664,38.37,35.6495,55.313,33.613,58.612,52.766666666666666,53.164,32.8605,57.19,51.10733333333333,52.2185,32.4645,57.041,50.52633333333333,-0.05899999999999994,0.0015000000000000568,0.107715,0.10881500000000001,0.0,217.10500000000002,217.11,213.64,213.64,0.0,0.0
27,0.0,0.0,0.0,1.0,1.0,0.0,0.0,1.0,0.0,100.0,1.0,1.1856,26.0,0.0,0.0,0.0,59.999996,0.0,26.0,26.0,26.0,26.0,0.010400000000000001,0.2957000000000001,-0.04024,296.661,-2.8849,-2.809375,-1.6269,-1.5529000000000002,-184.38,215.245,190.411125,0.0,0.0,0.0,0.0,0.05466666666666667,-5.498166666666667,-5.498166666666667,-0.35900000000000004,-0.7523333333333333,0.017888888888888843,0.917,69.499,0.0063,0.049550000000000004,-0.2759999999999998,100.0,1.0,1.0,214.2,0.0,0.0,0.0,0.0,0.0,0.0,0.0,9079.2,0.0,55.0,5.0,250.16333333333336,1.0,0.0,0.0,0.0,0.0,0.0,0.0,0.0,1.355999999999998,1.355999999999998,0.0,0.0,1.0,55.0,616.79921,10000.0,85.000001,85.000001,85.000001,85.000001,395.0,0.0,0.0,0.0,1.0,166.665,63.98,63.98,45.547,45.547,34.0,-17.234,19.553333333333335,-29.33,30.5625,0.0,1781.697,-0.41499999999999915,100.0,19.228,19.2015,45.07,45.012,0.0,0.0,100.0,0.0,0.0,0.0,0.0,2168.25,2322.2,4163.2,4285.0,308.2626666666667,307.5155,314.6015,314.30925,21.930777777777777,20.51765,21.989555555555555,21.5533,314.999998,314.999998,324.999988,324.999988,99.55931428571428,99.5061,99.56448571428571,99.54792857142857,0.06150000000000011,0.0022500000000000853,-0.09083333333333332,0.12083333333333335,-0.051666666666669414,-0.061666666666667425,1.4795,1.475,38.068,29.235333333333333,38.435,35.708,55.284,33.638999999999996,58.6565,52.83033333333333,53.135999999999996,32.885,57.2315,51.16866666666667,52.191,32.4875,57.079499999999996,50.586,-0.06299999999999994,0.0009999999999998899,0.10385000000000001,0.10285000000000001,0.0,217.515,217.51999999999998,214.2,214.2,0.0,0.0
28,0.0,0.0,0.0,1.0,1.0,0.0,0.0,1.0,0.0,100.0,1.0,1.1856,26.0,0.0,0.0,0.0,59.999996,0.0,26.0,26.0,26.0,26.0,0.0137,0.2983,-0.04438,296.875,-2.8179,-2.7960000000000003,-1.6389,-1.5814,-181.04,215.245,190.387125,0.0,0.0,0.0,0.0,0.056600000000000004,-5.498166666666667,-5.498166666666667,-0.3614,0.5143333333333333,0.004222222222222127,0.17399999999999993,69.635,0.0055000000000000005,0.07266666666666667,-0.3100000000000005,100.0,1.0,1.0,214.68333333333334,0.0,0.0,0.0,0.0,0.0,0.0,0.0,9099.7,0.0,55.0,5.0,250.65333333333334,0.0,0.0,0.0,0.0,0.0,0.0,0.0,0.0,1.404,1.404,0.0,0.0,0.0,55.0,616.79921,10000.0,85.000001,85.000001,85.000001,85.000001,395.0,0.0,0.0,0.0,1.0,333.33500000000004,64.056,64.056,45.944,45.944,34.0,-16.432000000000002,19.721666666666668,-30.08,30.5375,0.0,1781.647,-0.4800000000000004,100.0,19.218,19.147,44.536,44.644000000000005,0.0,0.0,100.0,0.0,0.0,0.0,0.0,2141.25,2307.9,4248.4,4252.1,308.27,307.55175,314.61975,314.392,21.938444444444443,20.52155,21.999,21.561799999999998,314.999998,314.999998,324.999988,324.999988,99.55931428571428,99.50611666666667,99.56461428571428,99.54807142857143,0.07099999999999995,0.016000000000000014,-0.09616666666666662,0.12166666666666681,-0.046666666666666856,-0.06499999999999773,1.508,1.518,38.116,29.259666666666668,38.494,35.7615,55.257,33.664500000000004,58.6935,52.888,53.111000000000004,32.908500000000004,57.2665,51.22366666666667,52.166,32.51,57.111000000000004,50.64,-0.06149999999999989,0.012499999999999956,0.10827,0.10548500000000001,0.0,217.97,217.98000000000002,214.68333333333334,214.68333333333334,0.0,0.0
29,0.0,0.0,0.0,1.0,1.0,0.0,0.0,1.0,0.0,100.0,1.0,1.1856,26.0,0.0,0.0,0.0,59.999996,0.0,26.0,26.0,26.0,26.0,0.033,0.29410000000000003,-0.0352,296.76800000000003,-2.8917,-2.8907499999999997,-1.60845,-1.5733000000000001,-177.48000000000002,215.2475,190.36075,0.0,0.0,0.0,0.0,0.058666666666666666,-5.498166666666667,-5.498166666666667,-0.3637,-0.6993333333333334,-0.011222222222222022,-0.758,69.783,0.0082,0.07906666666666666,-0.2579999999999991,100.0,1.0,1.0,215.0,0.0,0.0,0.0,0.0,0.0,0.0,0.0,9113.0,0.0,55.0,5.0,251.19,1.0,0.0,0.0,0.0,0.0,0.0,0.0,0.0,1.4549999999999983,1.4549999999999983,0.0,0.0,1.0,55.0,616.79921,10000.0,85.000001,85.000001,85.000001,85.000001,395.0,0.0,0.0,0.0,1.0,166.665,64.484,64.484,45.685,45.685,34.0,-18.555999999999997,18.811666666666667,-31.18,31.145,0.0,1781.597,-0.509999999999998,100.0,18.7175,18.9395,44.792,44.993,0.0,0.0,100.0,0.0,0.0,0.0,0.0,2340.5,2183.8,4363.0,4332.7,308.09166666666664,307.9845,314.295,314.08125,21.946555555555555,20.5255,22.009444444444444,21.5712,314.999998,314.999998,324.999988,324.999988,99.55931428571428,99.50611666666667,99.56477142857143,99.54821428571428,0.05824999999999991,0.010250000000000092,-0.10083333333333333,0.1136666666666668,-0.051666666666669414,-0.041666666666671404,1.4565,1.4536666666666667,38.166,29.284333333333336,38.559,35.8195,55.227000000000004,33.689,58.7385,52.95166666666667,53.084,32.931,57.3085,51.284666666666666,52.1385,32.5315,57.15,50.699333333333335,-0.06600000000000006,0.012499999999999956,0.10666,0.109905,0.0,218.39,218.4,215.0,215.0,0.0,0.0
30,0.0,0.0,0.0,1.0,1.0,0.0,0.0,1.0,0.0,100.0,1.0,1.1856,26.0,0.0,0.0,0.0,59.999996,0.0,26.0,26.0,26.0,26.0,0.0388,0.30000000000000004,-0.019100000000000002,296.005,-2.7656,-2.8615,-1.66085,-1.4868000000000001,-174.13,215.2475,190.335625,0.0,0.0,0.0,0.0,0.06063333333333334,-5.498166666666667,-5.498166666666667,-0.3609,0.8496666666666667,0.0015555555555555323,-0.266,69.917,0.0105,0.07806666666666667,-0.30599999999999916,100.0,1.0,1.0,215.50333333333333,0.0,0.0,0.0,0.0,0.0,0.0,0.0,9134.4,0.0,55.0,5.0,251.67000000000002,0.0,0.0,0.0,0.0,0.0,0.0,1.0,0.0,1.5030000000000001,1.5030000000000001,0.0,0.0,0.0,55.0,616.79921,10000.0,85.000001,85.000001,85.000001,85.000001,395.0,0.0,0.0,0.0,1.0,333.33500000000004,62.759,62.759,45.624,45.624,34.0,-19.704,21.36,-31.096666666666668,30.035,0.0,1781.547,-0.6050000000000004,100.0,19.646,19.6815,44.731,45.042,0.0,0.0,100.0,0.0,0.0,0.0,0.0,2554.75,2430.9,4365.3,4347.8,307.27433333333335,306.96925,314.41975,314.26725,21.954444444444444,20.52955,22.019,21.5798,314.999998,314.999998,324.999988,324.999988,99.55932857142857,99.50611666666667,99.56491428571428,99.54837142857143,0.06600000000000006,0.006250000000000089,-0.09150000000000003,0.12200000000000011,-0.04833333333333201,-0.05666666666667197,1.4985,1.4826666666666668,38.215,29.309666666666665,38.619,35.874,55.202,33.718,58.7795,53.013666666666666,53.06,32.957499999999996,57.347,51.34466666666667,52.1145,32.557,57.1855,50.757999999999996,-0.07600000000000007,0.013500000000000068,0.09848000000000001,0.10933000000000001,0.0,218.82999999999998,218.86,215.50333333333333,215.50333333333333,0.0,0.0
31,0.0,0.0,0.0,1.0,1.0,0.0,0.0,1.0,0.0,100.0,1.0,1.1856,26.0,0.0,0.0,0.0,59.999996,0.0,26.0,26.0,26.0,26.0,0.0292,0.28280000000000016,0.07486000000000001,295.624,-2.8309,-2.7715,-1.6536,-1.5608,-170.56,215.2525,190.30975,0.0,0.0,0.0,0.0,0.0627,-5.498166666666667,-5.498166666666667,-0.343,-0.39566666666666683,0.011333333333333195,0.9590000000000001,70.065,0.0148,0.07451666666666666,-0.47600000000000087,100.0,1.0,1.0,215.74666666666667,0.0,0.0,0.0,0.0,0.0,0.0,0.0,9144.7,0.0,55.0,5.0,252.20333333333335,1.0,0.0,0.0,0.0,0.0,0.0,1.0,0.0,1.5539999999999985,1.5539999999999985,0.0,0.0,1.0,55.0,616.79921,10000.0,85.000001,85.000001,85.000001,85.000001,395.0,0.0,0.0,0.0,1.0,333.33500000000004,63.278,63.278,44.205,44.205,34.0,-16.488,21.321666666666665,-31.7,34.9125,0.0,1781.496,-0.5599999999999987,100.0,19.674500000000002,19.6695,45.508,45.54,0.0,0.0,100.0,0.0,0.0,0.0,0.0,2166.875,2477.3,4472.7,4621.2,308.1376666666667,307.1125,313.86875,313.39575,21.962555555555554,20.53375,22.029444444444444,21.5894,314.999998,314.999998,324.999988,324.999988,99.55932857142857,99.50611666666667,99.56505714285714,99.54851428571429,0.08299999999999996,0.02100000000000013,-0.0738333333333333,0.13166666666666682,-0.045000000000001705,-0.061666666666667425,1.414,1.374,38.266,29.336,38.684,35.9335,55.176,33.744,58.823,53.077,53.036,32.9815,57.388,51.40533333333333,52.0905,32.579499999999996,57.223,50.817,-0.0694999999999999,0.01849999999999996,0.10102000000000001,0.108395,0.0,219.28,219.29000000000002,215.74666666666667,215.74666666666667,0.0,0.0
32,0.0,0.0,0.0,1.0,1.0,0.0,0.0,1.0,0.0,100.0,1.0,1.1856,26.0,0.0,0.0,0.0,59.999996,0.0,26.0,26.0,26.0,26.0,0.0711,0.2901,-0.04244,296.57,-2.8343,-2.82425,-1.59555,-1.6341,-166.98000000000002,215.255,190.284375,0.0,0.0,0.0,0.0,0.0648,-5.498166666666667,-5.498166666666667,-0.3695,-0.41900000000000004,-0.010111111111111182,-1.028,70.206,0.019200000000000002,0.053316666666666665,-0.3780000000000001,100.0,1.0,1.0,216.36666666666667,0.0,0.0,0.0,0.0,0.0,0.0,0.0,9171.0,0.0,55.0,5.0,252.71,0.0,0.0,0.0,0.0,0.0,0.0,1.0,0.0,1.6050000000000004,1.6050000000000004,0.0,0.0,0.0,55.0,616.79921,10000.0,85.000001,85.000001,85.000001,85.000001,395.0,0.0,0.0,0.0,1.0,333.33500000000004,63.903999999999996,63.903999999999996,45.746,45.746,34.0,-17.112000000000002,18.68,-27.94333333333333,32.005,0.0,1781.446,-0.5449999999999982,100.0,19.2735,19.606,45.056,45.335,0.0,0.0,100.0,0.0,0.0,0.0,0.0,2247.875,2172.8,4142.0,4249.1,308.16,307.8075,314.78775,314.2835,21.970555555555556,20.5379,22.039666666666665,21.5987,314.999998,314.999998,324.999988,324.999988,99.55934285714285,99.50611666666667,99.56521428571429,99.54865714285714,0.07600000000000007,0.013249999999999984,-0.08099999999999996,0.12783333333333324,-0.05833333333333002,-0.03999999999999915,1.504,1.468,38.316,29.362000000000002,38.748,35.992,55.147999999999996,33.7705,58.864,53.13966666666667,53.009,33.006,57.426,51.465666666666664,52.0635,32.603,57.2585,50.87566666666667,-0.0685,0.011500000000000066,0.10583000000000001,0.103525,0.0,219.7,219.72500000000002,216.36666666666667,216.36666666666667,0.0,0.0
33,0.0,0.0,0.0,1.0,1.0,0.0,0.0,1.0,0.0,100.0,1.0,1.1856,26.0,0.0,0.0,0.0,59.999996,0.0,26.0,26.0,26.0,26.0,0.036000000000000004,0.29069999999999996,-0.1043,296.738,-2.8429,-2.794625,-1.6386,-1.5977999999999999,-163.39999999999998,215.2625,190.257625,0.0,0.0,0.0,0.0,0.06686666666666667,-5.498166666666667,-5.498166666666667,-0.37560000000000004,-0.025333333333333208,-0.009111111111111292,0.9040000000000001,70.348,0.0228,0.08170000000000001,-0.4139999999999997,100.0,1.0,1.0,216.80666666666667,0.0,0.0,0.0,0.0,0.0,0.0,0.0,9189.7,0.0,55.0,5.0,253.22333333333336,1.0,0.0,0.0,0.0,0.0,0.0,1.0,0.0,1.6559999999999988,1.6559999999999988,0.0,0.0,1.0,55.0,616.79921,10000.0,85.000001,85.000001,85.000001,85.000001,395.0,0.0,0.0,0.0,1.0,166.665,64.224,64.224,45.868,45.868,34.0,-16.282,18.653333333333332,-28.98,32.04,0.0,1781.396,-0.5700000000000003,100.0,19.2235,19.276,44.852000000000004,45.009,0.0,0.0,100.0,0.0,0.0,0.0,0.0,2143.25,2186.3,4239.7,4300.9,308.319,307.982,314.63975,314.26,21.978555555555555,20.5419,22.049888888888887,21.6079,314.999998,314.999998,324.999988,324.999988,99.55934285714285,99.50611666666667,99.56535714285714,99.54881428571429,0.0807500000000001,0.023500000000000076,-0.07650000000000001,0.13366666666666682,-0.03499999999999659,-0.051666666666669414,1.5085,1.4876666666666667,38.366,29.387,38.812,36.0495,55.119,33.795,58.905,53.20033333333333,52.983000000000004,33.0285,57.464,51.524,52.037,32.625,57.293,50.93266666666666,-0.0694999999999999,0.013500000000000068,0.10622000000000001,0.109545,0.0,220.14,220.17000000000002,216.80666666666667,216.80666666666667,0.0,0.0
34,0.0,0.0,0.0,1.0,1.0,0.0,0.0,1.0,0.0,100.0,1.0,1.1856,26.0,0.0,0.0,0.0,59.999996,0.0,26.0,26.0,26.0,26.0,0.046,0.2853000000000001,-0.10278,296.86,-2.803,-2.822875,-1.63795,-1.5371000000000001,-160.01999999999998,215.26749999999998,190.230875,0.0,0.0,0.0,0.0,0.06883333333333334,-5.498166666666667,-5.498166666666667,-0.4025,-0.9590000000000001,0.014555555555555655,0.8780000000000001,70.483,0.021500000000000002,0.07618333333333334,-0.41000000000000014,100.0,1.0,1.0,217.15333333333334,0.0,0.0,0.0,0.0,0.0,0.0,0.0,9204.3,0.0,55.0,5.0,253.71,0.0,0.0,0.0,0.0,0.0,0.0,1.0,0.0,1.7040000000000006,1.7040000000000006,0.0,0.0,0.0,55.0,616.79921,10000.0,85.000001,85.000001,85.000001,85.000001,395.0,0.0,0.0,0.0,1.0,333.33500000000004,64.743,64.743,45.882999999999996,45.882999999999996,34.0,-14.852,18.688333333333333,-28.78333333333333,32.3525,0.0,1781.346,-0.620000000000001,100.0,18.918,19.0045,44.847,45.165,0.0,0.0,100.0,0.0,0.0,0.0,0.0,2045.875,2160.8,4217.2,4426.3,308.6483333333333,308.128,314.61925,313.97825,21.986,20.5456,22.059444444444445,21.6167,314.999998,314.999998,324.999988,324.999988,99.55935714285714,99.50613333333334,99.5655,99.54895714285715,0.09224999999999994,0.03275000000000006,-0.0718333333333333,0.13316666666666666,-0.026666666666670835,-0.051666666666669414,1.4755,1.46,38.412,29.41,38.872,36.1045,55.092,33.817499999999995,58.943,53.260666666666665,52.957,33.049,57.5,51.582,52.010999999999996,32.6445,57.326,50.989,-0.0774999999999999,0.022499999999999964,0.10349000000000001,0.10855500000000001,0.0,220.53,220.555,217.15333333333334,217.15333333333334,0.0,0.0
35,0.0,0.0,0.0,1.0,1.0,0.0,0.0,1.0,0.0,100.0,1.0,1.1856,26.0,0.0,0.0,0.0,59.999996,0.0,26.0,26.0,26.0,26.0,0.0649,0.2875000000000001,-0.057760000000000006,296.738,-2.935,-2.797625,-1.5455,-1.5981,-156.42000000000002,215.275,190.20075,0.0,0.0,0.0,0.0,0.07093333333333333,-5.498166666666667,-5.498166666666667,-0.4358,0.20733333333333337,-0.010111111111111182,-1.388,70.623,0.023100000000000002,0.06981666666666667,-0.36799999999999855,100.0,1.0,1.0,217.69666666666666,0.0,0.0,0.0,0.0,0.0,0.0,0.0,9227.4,0.0,55.0,5.0,254.21,1.0,0.0,0.0,0.0,0.0,0.0,1.0,0.0,1.754999999999999,1.754999999999999,0.0,0.0,1.0,55.0,616.79921,10000.0,85.000001,85.000001,85.000001,85.000001,395.0,0.0,0.0,0.0,1.0,166.665,63.889,63.889,45.746,45.746,34.0,-18.408,20.328333333333333,-27.89,30.4775,0.0,1781.297,-0.41000000000000014,100.0,18.768,19.51,44.512,44.802,0.0,0.0,100.0,0.0,0.0,0.0,0.0,2298.375,2348.5,4233.9,4163.7,308.0,307.25,314.68625,314.6545,21.99377777777778,20.54985,22.069555555555556,21.6259,314.999998,314.999998,324.999988,324.999988,99.55935714285714,99.50613333333334,99.56565714285715,99.54911428571428,0.06974999999999998,0.013749999999999929,-0.08316666666666661,0.13116666666666688,-0.03833333333332689,-0.06499999999999773,1.5175,1.5183333333333335,38.461,29.436666666666667,38.935,36.162,55.062,33.846000000000004,58.982,53.32,52.929,33.0755,57.536500000000004,51.638999999999996,51.9835,32.6695,57.3595,51.044666666666664,-0.06149999999999989,0.0044999999999999485,0.10957000000000001,0.106965,0.0,220.985,221.03,217.69666666666666,217.69666666666666,0.0,0.0
