,ABS Active,ABS Enabled,AID Allow Tire Blankets,AID Auto Blip,AID Auto Clutch,AID Auto Shift,AID Fuel Rate,AID Ideal Line,AID Mech Damage,AID Stability,AID Tire Wear Rate,Air Density,Air Temp,Ballast,Best Lap Delta,Best Lap Time,Brake Bias,Brake Pos,Brake Temp FL,Brake Temp FR,Brake Temp RL,Brake Temp RR,CG Accel Lateral,CG Accel Longitudinal,CG Accel Vertical,CG Height,Camber FL,Camber FR,Camber RL,Camber RR,Car Coord X,Car Coord Y,Car Coord Z,Car Damage Front,Car Damage Left,Car Damage Rear,Car Damage Right,Car Pos Norm,Caster FL,Caster FR,Chassis Pitch Angle,Chassis Pitch Rate,Chassis Roll Angle,Chassis Roll Rate,Chassis Velocity X,Chassis Velocity Y,Chassis Velocity Z,Chassis Yaw Rate,Clutch Pos,DRS Active,DRS Available,Drive Train Speed,ERS Heat Charging,ERS Is Charging,ERS Max Energy,ERS Power Level,ERS Recovery Level,Engine Brake Setting,Engine Limiter,Engine RPM,Flags,Fuel Level,Gear,Ground Speed,HR Sample Clock,In Pit,KERS Charge,KERS Deployed Energy,KERS Input,KERS Max Energy,LR Sample Clock,Lap Invalidated,Lap Time,Lap Time2,Last Lap Time,Last Sector Time,MR Sample Clock,Max Fuel,Max Power,Max RPM,Max Sus Travel FL,Max Sus Travel FR,Max Sus Travel RL,Max Sus Travel RR,Max Torque,Max Turbo Boost,Num Tires Off Track,Penalties Enabled,Position,Raw Data Sample Rate,Ride Height FL,Ride Height FR,Ride Height RL,Ride Height RR,Road Temp,Self Align Torque FL,Self Align Torque FR,Self Align Torque RL,Self Align Torque RR,Session Lap Count,Session Time Left,Steering Angle,Surface Grip,Suspension Travel FL,Suspension Travel FR,Suspension Travel RL,Suspension Travel RR,TC Active,TC Enabled,Throttle Pos,Tire Dirt Level FL,Tire Dirt Level FR,Tire Dirt Level RL,Tire Dirt Level RR,Tire Load FL,Tire Load FR,Tire Load RL,Tire Load RR,Tire Loaded Radius FL,Tire Loaded Radius FR,Tire Loaded Radius RL,Tire Loaded Radius RR,Tire Pressure FL,Tire Pressure FR,Tire Pressure RL,Tire Pressure RR,Tire Radius FL,Tire Radius FR,Tire Radius RL,Tire Radius RR,Tire Rubber Grip FL,Tire Rubber Grip FR,Tire Rubber Grip RL,Tire Rubber Grip RR,Tire Slip Angle FL,Tire Slip Angle FR,Tire Slip Angle RL,Tire Slip Angle RR,Tire Slip Ratio FL,Tire Slip Ratio FR,Tire Slip Ratio RL,Tire Slip Ratio RR,Tire Temp Core FL,Tire Temp Core FR,Tire Temp Core RL,Tire Temp Core RR,Tire Temp Inner FL,Tire Temp Inner FR,Tire Temp Inner RL,Tire Temp Inner RR,Tire Temp Middle FL,Tire Temp Middle FR,Tire Temp Middle RL,Tire Temp Middle RR,Tire Temp Outer FL,Tire Temp Outer FR,Tire Temp Outer RL,Tire Temp Outer RR,Toe In FL,Toe In FR,Toe In RL,Toe In RR,Turbo Boost,Wheel Angular Speed FL,Wheel Angular Speed FR,Wheel Angular Speed RL,Wheel Angular Speed RR,Wind Direction,Wind Speed
0,0.0,0.0,0.0,1.0,1.0,0.0,0.0,1.0,0.0,100.0,1.0,1.1856,26.0,0.0,0.0,0.0,59.99999,0.0,26.0,26.0,26.0,26.0,-0.0517,-0.3263999999999999,0.1013,297.577,-2.8378,-2.5981,-1.5422,-1.552,-275.61,215.9075,190.991125,0.0,0.0,0.0,0.0,0.0016333333333333332,-5.498166666666667,-5.498166666666667,-0.36710000000000004,0.23666666666666658,-0.010555555555555873,-0.5329999999999999,65.313,-0.0483,0.0057714285714285714,0.6639999999999997,100.0,1.0,1.0,198.56,0.0,0.0,0.0,0.0,0.0,0.0,0.0,9598.4,0.0,55.0,0.0,235.16333333333333,0.0,0.0,0.0,0.0,0.0,0.0,0.0,0.0,0.0030000000000001137,0.0030000000000001137,0.0,0.0,0.0,55.0,616.79921,10000.0,85.0,85.0,85.0,85.0,395.0,0.0,0.0,0.0,1.0,20.0,61.400999999999996,61.400999999999996,48.294,48.294,34.0,-26.253999999999998,22.423333333333332,-32.6325,26.3275,0.0,1783.387,0.75,100.0,19.088,19.0505,41.824,41.537,0.0,0.0,0.0,0.0,0.0,0.0,0.0,2721.5555555555557,3206.6,3898.2,3839.9,306.589,304.47,315.333,315.25925,21.689,20.39855,21.71066666666667,21.3058,314.99999,314.99999,324.99998,324.99998,99.55814285714285,99.50553333333333,99.55931428571428,99.54338571428572,-0.06149999999999989,-0.10099999999999998,-0.1515,0.03983333333333334,-0.011666666666670267,0.0016666666666722563,0.008333333333333304,0.0030000000000000027,36.556,28.491,36.692,34.161500000000004,55.601,32.670500000000004,57.079499999999996,50.903,53.444,31.999499999999998,55.741,49.323,52.522999999999996,31.646,55.6605,48.779666666666664,0.031500000000000083,-0.09050000000000002,0.09103000000000001,0.09226000000000001,0.0,204.745,204.675,198.56,198.56,0.0,0.0
1,0.0,0.0,0.0,1.0,1.0,0.0,0.0,1.0,0.0,100.0,1.0,1.1856,26.0,0.0,0.0,0.0,59.999996,0.0,26.0,26.0,26.0,26.0,-0.12510000000000002,0.3488,0.23997500000000002,296.631,-2.7574,-2.8141,-1.55315,-1.3825,-272.28,215.925,190.971,0.0,0.0,0.0,0.0,0.0035666666666666668,-5.498166666666667,-5.498166666666667,-0.2937,0.136,-0.056111111111111445,-0.796,65.386,-0.05625,0.028771428571428573,1.1219999999999999,100.0,1.0,1.0,201.42666666666668,0.0,0.0,0.0,0.0,0.0,0.0,0.0,8537.7,0.0,55.0,5.0,235.35666666666668,1.0,0.0,0.0,0.0,0.0,0.0,0.0,0.0,0.053999999999998494,0.053999999999998494,0.0,0.0,1.0,55.0,616.79921,10000.0,85.000001,85.000001,85.000001,85.000001,395.0,0.0,0.0,0.0,1.0,166.665,63.644,63.644,46.844,46.844,34.0,-20.573999999999998,11.61,-38.9125,28.9975,0.0,1783.337,0.9550000000000001,100.0,20.2055,19.7445,43.188,42.829,0.0,0.0,100.0,0.0,0.0,0.0,0.0,2266.333333333333,1759.4,4730.8,5133.6,307.93033333333335,309.1085,313.232,311.93625,21.69811111111111,20.4025,21.72088888888889,21.3147,314.999998,314.999998,324.999988,324.999988,99.55815714285714,99.50555,99.55942857142857,99.5435,-0.05499999999999994,-0.1233333333333333,-0.1765,0.0245,-0.03499999999999659,-0.07000000000000028,1.2953333333333332,1.328,36.613,28.515666666666668,36.756,34.217,55.579,32.7035,57.1145,50.95366666666666,53.424,32.0295,55.7735,49.37166666666667,52.501999999999995,31.674999999999997,55.691,48.827333333333335,0.03550000000000009,-0.10050000000000003,0.103535,0.112295,0.0,204.905,204.815,201.42666666666668,201.42666666666668,0.0,0.0
2,0.0,0.0,0.0,1.0,1.0,0.0,0.0,1.0,0.0,100.0,1.0,1.1856,26.0,0.0,0.0,0.0,59.999996,0.0,26.0,26.0,26.0,26.0,-0.1306,0.31889999999999996,-0.196775,298.157,-2.7211,-2.8887,-1.51775,-1.6488,-268.75,215.945,190.9515,0.0,0.0,0.0,0.0,0.005633333333333334,-5.498166666666667,-5.498166666666667,-0.34450000000000003,0.2566666666666666,-0.04222222222222216,2.424,65.551,-0.06785000000000001,-0.013785714285714287,1.4900000000000002,100.0,1.0,1.0,202.56,0.0,0.0,0.0,0.0,0.0,0.0,0.0,8585.8,0.0,55.0,5.0,235.95,0.0,0.0,0.0,0.0,0.0,0.0,0.0,0.0,0.10800000000000054,0.10800000000000054,0.0,0.0,0.0,55.0,616.79921,10000.0,85.000001,85.000001,85.000001,85.000001,395.0,0.0,0.0,0.0,1.0,166.665,63.08,63.08,49.254999999999995,49.254999999999995,34.0,-22.868,13.548333333333336,-28.6325,20.47,0.0,1783.283,1.17,100.0,20.453,19.237,43.347,42.259,0.0,0.0,100.0,0.0,0.0,0.0,0.0,2405.777777777778,2066.2,3749.0,3651.7,307.402,308.319,315.622,315.8955,21.707555555555555,20.4061,21.731555555555556,21.3238,314.999998,314.999998,324.999988,324.999988,99.55817142857143,99.50556666666667,99.55957142857143,99.54364285714286,-0.08474999999999988,-0.1499999999999999,-0.20166666666666666,0.0115,-0.06666666666666998,-0.07000000000000028,1.6466666666666667,1.7025000000000001,36.672,28.538333333333334,36.822,34.2735,55.555,32.731,57.163,51.01433333333333,53.400999999999996,32.055,55.819,49.42966666666666,52.479,31.698999999999998,55.7335,48.88433333333333,0.058499999999999996,-0.12450000000000006,0.10161500000000001,0.10895,0.0,205.385,205.275,202.56,202.56,0.0,0.0
3,0.0,0.0,0.0,1.0,1.0,0.0,0.0,1.0,0.0,100.0,1.0,1.1856,26.0,0.0,0.0,0.0,59.999996,0.0,26.0,26.0,26.0,26.0,-0.1337,0.3360000000000001,0.00905,297.44,-2.7526,-2.8261,-1.51025,-1.5983,-265.79,215.95499999999998,190.93375,0.0,0.0,0.0,0.0,0.007333333333333333,-5.498166666666667,-5.498166666666667,-0.3043,0.4913333333333333,-0.017888888888888843,-0.505,65.7,-0.08355,0.0442,1.2220000000000013,100.0,1.0,1.0,202.63666666666666,0.0,0.0,0.0,0.0,0.0,0.0,0.0,8589.0,0.0,55.0,5.0,236.48333333333335,1.0,0.0,0.0,0.0,0.0,0.0,0.0,0.0,0.1529999999999987,0.1529999999999987,0.0,0.0,1.0,55.0,616.79921,10000.0,85.000001,85.000001,85.000001,85.000001,395.0,0.0,0.0,0.0,1.0,166.665,63.614,63.614,46.89,46.89,34.0,-20.488,13.364999999999998,-35.2575,24.495,0.0,1783.239,1.2850000000000001,100.0,20.075499999999998,19.308,43.33,42.427,0.0,0.0,100.0,0.0,0.0,0.0,0.0,2179.5555555555557,2107.2,4434.8,4242.4,308.27666666666664,308.12675,313.97125,314.337,21.715222222222224,20.4094,21.740333333333332,21.3315,314.999998,314.999998,324.999988,324.999988,99.55817142857143,99.50558333333333,99.55971428571429,99.54377142857143,-0.09375,-0.15766666666666662,-0.189,0.008166666666666666,-0.06833333333332803,-0.06833333333332803,1.4563333333333333,1.5215,36.72,28.558666666666667,36.876999999999995,34.3215,55.532,32.7585,57.2035,51.07266666666666,53.379999999999995,32.0805,55.857,49.48566666666667,52.458,31.723,55.769,48.939,0.06299999999999994,-0.12349999999999994,0.10143,0.10085000000000001,0.0,205.88,205.76,202.63666666666666,202.63666666666666,0.0,0.0
4,0.0,0.0,0.0,1.0,1.0,0.0,0.0,1.0,0.0,100.0,1.0,1.1856,26.0,0.0,0.0,0.0,59.999996,0.0,26.0,26.0,26.0,26.0,-0.1457,0.31520000000000015,0.004875,297.501,-2.77655,-2.8974,-1.4509,-1.6162,-262.44,215.9675,190.914125,0.0,0.0,0.0,0.0,0.009300000000000001,-5.498166666666667,-5.498166666666667,-0.3244,-0.6816666666666669,-0.08199999999999985,-1.634,65.861,-0.09240000000000001,0.010671428571428571,1.5820000000000007,100.0,1.0,1.0,203.18333333333334,0.0,0.0,0.0,0.0,0.0,0.0,0.0,8612.1,0.0,55.0,5.0,237.06333333333333,0.0,0.0,0.0,0.0,0.0,0.0,0.0,0.0,0.20400000000000063,0.20400000000000063,0.0,0.0,0.0,55.0,616.79921,10000.0,85.000001,85.000001,85.000001,85.000001,395.0,0.0,0.0,0.0,1.0,333.33500000000004,63.538,63.538,47.119,47.119,34.0,-24.177999999999997,12.690000000000001,-34.9225,21.585,0.0,1783.185,1.4700000000000006,100.0,19.9,19.0055,43.981,42.709,0.0,0.0,100.0,0.0,0.0,0.0,0.0,2440.4444444444443,2037.7,4363.0,3882.0,307.55066666666664,308.24025,314.20475,315.12075,21.72388888888889,20.413,21.750555555555557,21.3402,314.999998,314.999998,324.999988,324.999988,99.55818571428571,99.5056,99.55985714285714,99.54391428571428,-0.11824999999999997,-0.18266666666666675,-0.21616666666666667,-0.0038333333333333336,-0.036666666666668846,-0.036666666666668846,1.4913333333333334,1.5695000000000001,36.774,28.581333333333333,36.941,34.3765,55.507999999999996,32.789,57.254,51.135999999999996,53.357,32.1085,55.9045,49.54633333333334,52.435,31.75,55.814,48.998,0.07800000000000007,-0.14450000000000007,0.10553000000000001,0.107285,0.0,206.32,206.185,203.18333333333334,203.18333333333334,0.0,0.0
5,0.0,0.0,0.0,1.0,1.0,0.0,0.0,1.0,0.0,100.0,1.0,1.1856,26.0,0.0,0.0,0.0,59.999996,0.0,26.0,26.0,26.0,26.0,-0.17400000000000002,0.3217000000000001,-0.06415,297.882,-2.78485,-2.881,-1.5158,-1.6542,-259.08,215.9725,190.894375,0.0,0.0,0.0,0.0,0.011233333333333333,-5.498166666666667,-5.498166666666667,-0.32380000000000003,0.498,-0.09011111111111125,0.667,66.02,-0.10695,0.02532857142857143,1.6620000000000008,100.0,1.0,1.0,203.74333333333334,0.0,0.0,0.0,0.0,0.0,0.0,0.0,8635.9,0.0,55.0,5.0,237.64,1.0,0.0,0.0,0.0,0.0,0.0,0.0,0.0,0.254999999999999,0.254999999999999,0.0,0.0,1.0,55.0,616.79921,10000.0,85.000001,85.000001,85.000001,85.000001,395.0,0.0,0.0,0.0,1.0,166.665,64.011,64.011,47.775,47.775,34.0,-23.148,12.348333333333333,-34.96,22.67,0.0,1783.136,0.9800000000000004,100.0,19.8975,18.591,43.867000000000004,42.153,0.0,0.0,100.0,0.0,0.0,0.0,0.0,2330.666666666667,1983.3,4192.3,4059.4,307.67766666666665,308.55075,314.60575,314.80425,21.732777777777777,20.4166,21.760555555555555,21.3488,314.999998,314.999998,324.999988,324.999988,99.55818571428571,99.5056,99.56,99.54404285714286,-0.11375000000000002,-0.17199999999999993,-0.2335,-0.014166666666666666,-0.05666666666667197,-0.0899999999999963,1.5083333333333333,1.5630000000000002,36.83,28.603666666666665,37.004000000000005,34.43,55.486999999999995,32.819,57.3015,51.19566666666667,53.338,32.1355,55.9495,49.60333333333333,52.415,31.776,55.856,49.053666666666665,0.06099999999999994,-0.12200000000000011,0.105495,0.110475,0.0,206.865,206.72500000000002,203.74333333333334,203.74333333333334,0.0,0.0
6,0.0,0.0,0.0,1.0,1.0,0.0,0.0,1.0,0.0,100.0,1.0,1.1856,26.0,0.0,0.0,0.0,59.999996,0.0,26.0,26.0,26.0,26.0,-0.1915,0.32200000000000006,-0.0251,297.729,-2.73745,-2.9354,-1.54365,-1.6099999999999999,-255.9,215.975,190.875,0.0,0.0,0.0,0.0,0.0131,-5.498166666666667,-5.498166666666667,-0.3108,0.1426666666666666,-0.08777777777777773,0.508,66.172,-0.11745,0.043957142857142854,1.4560000000000013,100.0,1.0,1.0,204.13,0.0,0.0,0.0,0.0,0.0,0.0,0.0,8652.3,0.0,55.0,5.0,238.18666666666667,0.0,0.0,0.0,0.0,0.0,0.0,0.0,0.0,0.3030000000000008,0.3030000000000008,0.0,0.0,0.0,55.0,616.79921,10000.0,85.000001,85.000001,85.000001,85.000001,395.0,0.0,0.0,0.0,1.0,166.665,64.133,64.133,47.256,47.256,34.0,-22.814,12.895,-36.65,21.9075,0.0,1783.088,1.0150000000000006,100.0,19.6495,18.4015,44.04,42.275,0.0,0.0,100.0,0.0,0.0,0.0,0.0,2331.5555555555557,2024.2,4301.0,4142.2,307.684,308.4195,314.3085,314.59825,21.741,20.4199,21.770111111111113,21.357,314.999998,314.999998,324.999988,324.999988,99.5582,99.50561666666667,99.56012857142858,99.54418571428572,-0.11149999999999993,-0.17433333333333323,-0.23450000000000001,-0.029500000000000002,-0.041666666666671404,-0.06499999999999773,1.491,1.5285,36.882,28.624333333333333,37.063,34.4815,55.466,32.846000000000004,57.347,51.256,53.318,32.1605,55.992,49.660666666666664,52.394999999999996,31.799500000000002,55.896,49.10966666666667,0.052000000000000046,-0.11149999999999993,0.10681,0.101135,0.0,207.31,207.2,204.13,204.13,0.0,0.0
7,0.0,0.0,0.0,1.0,1.0,0.0,0.0,1.0,0.0,100.0,1.0,1.1856,26.0,0.0,0.0,0.0,59.999996,0.0,26.0,26.0,26.0,26.0,-0.1489,0.31489999999999996,0.027025,297.592,-2.6986499999999998,-2.9416,-1.49795,-1.6638000000000002,-252.32999999999998,215.975,190.853375,0.0,0.0,0.0,0.0,0.015166666666666667,-5.498166666666667,-5.498166666666667,-0.3155,0.16600000000000004,-0.08444444444444432,0.984,66.34,-0.11800000000000001,0.030171428571428575,1.216000000000001,100.0,1.0,1.0,204.67000000000002,0.0,0.0,0.0,0.0,0.0,0.0,0.0,8675.2,0.0,55.0,5.0,238.79333333333335,1.0,0.0,0.0,0.0,0.0,0.0,0.0,0.0,0.3569999999999993,0.3569999999999993,0.0,0.0,1.0,55.0,616.79921,10000.0,85.000001,85.000001,85.000001,85.000001,395.0,0.0,0.0,0.0,1.0,166.665,63.812,63.812,47.455,47.455,34.0,-22.244,14.693333333333332,-34.6875,22.7225,0.0,1783.035,0.46499999999999986,100.0,19.8445,18.2955,44.199,42.466,0.0,0.0,100.0,0.0,0.0,0.0,0.0,2381.0,2121.2,4175.0,4085.5,307.431,308.0885,314.5735,314.69575,21.750444444444444,20.42375,21.78077777777778,21.3663,314.999998,314.999998,324.999988,324.999988,99.55821428571429,99.50563333333334,99.56028571428571,99.54432857142857,-0.07424999999999993,-0.1373333333333333,-0.231,-0.022833333333333334,-0.046666666666666856,-0.046666666666666856,1.4813333333333334,1.5234999999999999,36.94,28.648333333333333,37.129999999999995,34.539500000000004,55.444,32.876999999999995,57.3985,51.32333333333334,53.297,32.189,56.0405,49.72533333333333,52.373999999999995,31.8265,55.9415,49.172666666666665,0.013000000000000123,-0.06699999999999995,0.10469500000000001,0.10587500000000001,0.0,207.815,207.72,204.67000000000002,204.67000000000002,0.0,0.0
8,0.0,0.0,0.0,1.0,1.0,0.0,0.0,1.0,0.0,100.0,1.0,1.1856,26.0,0.0,0.0,0.0,59.999996,0.0,26.0,26.0,26.0,26.0,-0.1212,0.32000000000000006,0.037175,297.836,-2.77885,-2.8825,-1.47405,-1.6575000000000002,-249.14,215.97,190.834125,0.0,0.0,0.0,0.0,0.017033333333333334,-5.498166666666667,-5.498166666666667,-0.31270000000000003,-0.4870000000000001,-0.07388888888888889,0.6100000000000001,66.49000000000001,-0.10895,0.04112857142857143,0.6880000000000006,100.0,1.0,1.0,205.05666666666667,0.0,0.0,0.0,0.0,0.0,0.0,0.0,8691.7,0.0,55.0,5.0,239.33333333333331,0.0,0.0,0.0,0.0,0.0,0.0,0.0,0.0,0.40500000000000114,0.40500000000000114,0.0,0.0,0.0,55.0,616.79921,10000.0,85.000001,85.000001,85.000001,85.000001,395.0,0.0,0.0,0.0,1.0,166.665,64.682,64.682,46.875,46.875,34.0,-20.195999999999998,14.504999999999999,-33.792500000000004,25.195,0.0,1782.987,0.3550000000000004,100.0,19.349,18.049,44.277,42.538,0.0,0.0,100.0,0.0,0.0,0.0,0.0,2174.0,2107.9,4247.5,4190.2,308.2153333333333,308.2315,314.3525,314.413,21.758444444444443,20.4271,21.790333333333333,21.3746,314.999998,314.999998,324.999988,324.999988,99.55821428571429,99.50563333333334,99.56042857142857,99.54445714285714,-0.07299999999999995,-0.12366666666666681,-0.20450000000000002,0.0085,-0.07166666666666544,-0.06833333333332803,1.484,1.4929999999999999,36.991,28.669333333333334,37.19,34.591499999999996,55.42,32.9035,57.4445,51.382999999999996,53.274,32.213,56.0835,49.782,52.351,31.8495,55.982,49.22833333333333,0.0030000000000001137,-0.0535000000000001,0.10158500000000001,0.112195,0.0,208.275,208.20499999999998,205.05666666666667,205.05666666666667,0.0,0.0
9,0.0,0.0,0.0,1.0,1.0,0.0,0.0,1.0,0.0,100.0,1.0,1.1856,26.0,0.0,0.0,0.0,59.999996,0.0,26.0,26.0,26.0,26.0,-0.1005,0.32210000000000005,-0.012825000000000001,297.623,-2.70535,-2.8869,-1.526,-1.6106,-245.74,215.96,190.81325,0.0,0.0,0.0,0.0,0.019,-5.498166666666667,-5.498166666666667,-0.314,0.6666666666666667,-0.08211111111111125,-0.43099999999999994,66.647,-0.09345,0.04662857142857143,0.6720000000000006,100.0,1.0,1.0,205.63666666666666,0.0,0.0,0.0,0.0,0.0,0.0,0.0,8716.2,0.0,55.0,5.0,239.89333333333332,1.0,0.0,0.0,0.0,0.0,0.0,0.0,0.0,0.4559999999999995,0.4559999999999995,0.0,0.0,1.0,55.0,616.79921,10000.0,85.000001,85.000001,85.000001,85.000001,395.0,0.0,0.0,0.0,1.0,166.665,63.828,63.828,47.714,47.714,34.0,-23.058,14.78833333333333,-33.625,23.535,0.0,1782.936,0.15000000000000036,100.0,19.512999999999998,18.3965,43.903,42.566,0.0,0.0,100.0,0.0,0.0,0.0,0.0,2549.0,2062.0,4199.7,4108.3,307.13666666666666,308.145,314.63025,314.645,21.767222222222223,20.4308,21.800333333333334,21.3833,314.999998,314.999998,324.999988,324.999988,99.55822857142857,99.50565,99.56057142857142,99.5446,-0.04949999999999988,-0.10899999999999999,-0.20366666666666666,0.004833333333333333,-0.04333333333332945,-0.05666666666667197,1.5106666666666666,1.5434999999999999,37.045,28.692666666666668,37.251999999999995,34.646,55.396,32.932,57.49,51.44466666666666,53.251999999999995,32.2395,56.1265,49.841,52.329,31.874499999999998,56.0225,49.285333333333334,-0.021499999999999964,-0.031500000000000083,0.10855000000000001,0.10589000000000001,0.0,208.75,208.695,205.63666666666666,205.63666666666666,0.0,0.0
10,0.0,0.0,0.0,1.0,1.0,0.0,0.0,1.0,0.0,100.0,1.0,1.1856,26.0,0.0,0.0,0.0,59.999996,0.0,26.0,26.0,26.0,26.0,-0.0781,0.3176000000000001,0.035050000000000005,297.577,-2.7723,-2.8934,-1.5013,-1.5877,-242.34,215.95,190.792625,0.0,0.0,0.0,0.0,0.020966666666666668,-5.498166666666667,-5.498166666666667,-0.2947,-0.5453333333333332,-0.04300000000000015,1.782,66.806,-0.07305,0.05628571428571429,0.20599999999999952,100.0,1.0,1.0,205.96,0.0,0.0,0.0,0.0,0.0,0.0,0.0,8729.9,0.0,55.0,5.0,240.47,0.0,0.0,0.0,0.0,0.0,0.0,1.0,0.0,0.5069999999999979,0.5069999999999979,0.0,0.0,0.0,55.0,616.79921,10000.0,85.000001,85.000001,85.000001,85.000001,395.0,0.0,0.0,0.0,1.0,166.665,64.835,64.835,46.509,46.509,34.0,-18.148,15.23,-33.1475,27.5825,0.0,1782.884,-0.07000000000000028,100.0,19.322,18.0735,44.43,43.095,0.0,0.0,100.0,0.0,0.0,0.0,0.0,2103.0,2050.1,4324.0,4364.3,308.39433333333335,308.411,314.18075,314.04325,21.77588888888889,20.43445,21.810555555555556,21.3923,314.999998,314.999998,324.999988,324.999988,99.55822857142857,99.50565,99.56072857142857,99.54474285714285,-0.020999999999999908,-0.07899999999999996,-0.17016666666666666,0.04583333333333334,-0.04999999999999716,-0.06666666666666998,1.4683333333333333,1.4635,37.099000000000004,28.715333333333334,37.316,34.702,55.370000000000005,32.9585,57.539500000000004,51.510333333333335,53.227999999999994,32.263,56.173,49.903999999999996,52.304,31.8975,56.066,49.347,-0.033499999999999974,-0.020000000000000018,0.10366500000000001,0.11893500000000001,0.0,209.235,209.185,205.96,205.96,0.0,0.0
11,0.0,0.0,0.0,1.0,1.0,0.0,0.0,1.0,0.0,100.0,1.0,1.1856,26.0,0.0,0.0,0.0,59.999996,0.0,26.0,26.0,26.0,26.0,-0.053700000000000005,0.3077000000000001,-0.064675,298.05,-2.78645,-2.8706,-1.55715,-1.5913,-239.13,215.9375,190.773125,0.0,0.0,0.0,0.0,0.022600000000000002,-5.498166666666667,-5.498166666666667,-0.3295,-0.21366666666666667,-0.01722222222222225,0.5509999999999999,66.95,-0.0546,0.0342,0.0779999999999994,100.0,1.0,1.0,206.65,0.0,0.0,0.0,0.0,0.0,0.0,0.0,8759.2,0.0,55.0,5.0,240.98666666666668,1.0,0.0,0.0,0.0,0.0,0.0,1.0,0.0,0.5549999999999997,0.5549999999999997,0.0,0.0,1.0,55.0,616.79921,10000.0,85.000001,85.000001,85.000001,85.000001,395.0,0.0,0.0,0.0,1.0,166.665,64.377,64.377,47.836,47.836,34.0,-19.206,17.161666666666665,-28.3675,25.59,0.0,1782.837,-0.22000000000000064,100.0,19.099,18.262999999999998,43.943,43.097,0.0,0.0,100.0,0.0,0.0,0.0,0.0,2225.1111111111113,2228.1,3883.9,3975.0,308.0353333333333,307.80675,315.3735,314.992,21.78377777777778,20.43795,21.81988888888889,21.4006,314.999998,314.999998,324.999988,324.999988,99.55822857142857,99.50566666666667,99.56085714285715,99.54487142857143,-0.011249999999999982,-0.06333333333333324,-0.15283333333333335,0.07266666666666667,-0.04333333333332945,-0.07166666666666544,1.579,1.58,37.149,28.737333333333332,37.375,34.754,55.343,32.984,57.58,51.568666666666665,53.202,32.286500000000004,56.211,49.959666666666664,52.278999999999996,31.92,56.1015,49.401666666666664,-0.03049999999999997,-0.015000000000000124,0.10147500000000001,0.11475500000000001,0.0,209.64499999999998,209.64499999999998,206.65,206.65,0.0,0.0
12,0.0,0.0,0.0,1.0,1.0,0.0,0.0,1.0,0.0,100.0,1.0,1.1856,26.0,0.0,0.0,0.0,59.999996,0.0,26.0,26.0,26.0,26.0,-0.0275,0.3042,0.027225000000000003,297.485,-2.81275,-2.8536,-1.5319500000000001,-1.6077,-235.71,215.9225,190.75125,0.0,0.0,0.0,0.0,0.025466666666666665,-5.498166666666667,-5.498166666666667,-0.3156,0.30833333333333335,-0.027888888888889074,-0.771,67.108,-0.0368,0.06272857142857144,0.017999999999998906,100.0,1.0,1.0,206.95,0.0,0.0,0.0,0.0,0.0,0.0,0.0,8771.8,0.0,55.0,5.0,241.55666666666667,0.0,0.0,0.0,0.0,0.0,0.0,1.0,0.0,0.6059999999999981,0.6059999999999981,0.0,0.0,0.0,55.0,616.79921,10000.0,85.000001,85.000001,85.000001,85.000001,395.0,0.0,0.0,0.0,1.0,166.665,64.209,64.209,46.631,46.631,34.0,-20.368,16.96,-32.14,28.165,0.0,1782.785,-0.16999999999999993,100.0,18.8305,18.581,43.78,43.161,0.0,0.0,100.0,0.0,0.0,0.0,0.0,2361.8888888888887,2177.0,4361.6,4220.5,307.766,307.79575,314.2535,314.345,21.79222222222222,20.4418,21.83,21.409399999999998,314.999998,314.999998,324.999988,324.999988,99.55822857142857,99.50566666666667,99.561,99.54501428571429,-0.0044999999999999485,-0.057333333333333236,-0.14200000000000002,0.07133333333333333,-0.051666666666669414,-0.054999999999999716,1.476,1.478,37.201,28.761333333333333,37.437,34.809,55.315,33.010999999999996,57.626,51.63166666666667,53.176,32.3115,56.2545,50.019999999999996,52.253,31.9435,56.141999999999996,49.46066666666667,-0.031000000000000028,-0.017000000000000126,0.10627,0.10634,0.0,210.16,210.16,206.95,206.95,0.0,0.0
13,0.0,0.0,0.0,1.0,1.0,0.0,0.0,1.0,0.0,100.0,1.0,1.1856,26.0,0.0,0.0,0.0,59.999996,0.0,26.0,26.0,26.0,26.0,-0.0151,0.31730000000000014,0.0381,297.15,-2.8153,-2.8598,-1.55955,-1.6014,-232.49,215.91,190.73075,0.0,0.0,0.0,0.0,0.0267,-5.498166666666667,-5.498166666666667,-0.3068,-0.04033333333333333,-0.031444444444444386,-0.5469999999999999,67.255,-0.02545,0.057600000000000005,-0.019999999999999574,100.0,1.0,1.0,207.32999999999998,0.0,0.0,0.0,0.0,0.0,0.0,0.0,8788.0,0.0,55.0,5.0,242.08666666666664,1.0,0.0,0.0,0.0,0.0,0.0,1.0,0.0,0.6539999999999999,0.6539999999999999,0.0,0.0,1.0,55.0,616.79921,10000.0,85.000001,85.000001,85.000001,85.000001,395.0,0.0,0.0,0.0,1.0,166.665,64.072,64.072,46.494,46.494,34.0,-19.436,17.336666666666666,-32.6325,28.82,0.0,1782.737,-0.4299999999999997,100.0,19.0905,18.7,44.042,43.622,0.0,0.0,100.0,0.0,0.0,0.0,0.0,2395.222222222222,2123.0,4399.2,4325.4,307.68,307.95525,314.12375,314.062,21.80022222222222,20.44545,21.839555555555556,21.418,314.999998,314.999998,324.999988,324.999988,99.55824285714286,99.50566666666667,99.56112857142857,99.54515714285715,0.03825000000000012,-0.026000000000000023,-0.135,0.068,-0.04333333333332945,-0.051666666666669414,1.4626666666666668,1.471,37.251999999999995,28.784,37.497,34.862,55.29,33.036,57.670500000000004,51.693666666666665,53.152,32.3345,56.296,50.07933333333334,52.229,31.9655,56.181,49.51866666666667,-0.06099999999999994,0.0004999999999999449,0.105325,0.09691000000000001,0.0,210.615,210.585,207.32999999999998,207.32999999999998,0.0,0.0
14,0.0,0.0,0.0,1.0,1.0,0.0,0.0,1.0,0.0,100.0,1.0,1.1856,26.0,0.0,0.0,0.0,59.999996,0.0,26.0,26.0,26.0,26.0,-0.011000000000000001,0.30510000000000015,-0.0134,297.44,-2.81,-2.8042,-1.566,-1.5712000000000002,-229.05,215.89499999999998,190.709625,0.0,0.0,0.0,0.0,0.0287,-5.498166666666667,-5.498166666666667,-0.31670000000000004,-0.1186666666666667,0.0007777777777777661,1.419,67.408,-0.015000000000000001,0.04491428571428572,-0.20000000000000018,100.0,1.0,1.0,207.89666666666668,0.0,0.0,0.0,0.0,0.0,0.0,0.0,8812.0,0.0,55.0,5.0,242.63666666666666,0.0,0.0,0.0,0.0,0.0,0.0,1.0,0.0,0.7049999999999983,0.7049999999999983,0.0,0.0,0.0,55.0,616.79921,10000.0,85.000001,85.000001,85.000001,85.000001,395.0,0.0,0.0,0.0,1.0,333.33500000000004,64.224,64.224,46.768,46.768,34.0,-17.132,18.785,-28.8075,29.205000000000002,0.0,1782.685,-0.375,100.0,19.1115,18.5915,44.116,43.707,0.0,0.0,100.0,0.0,0.0,0.0,0.0,2156.333333333333,2304.1,4097.7,4259.3,308.19033333333334,307.595,314.78425,314.326,21.808666666666667,20.44925,21.849555555555554,21.4269,314.999998,314.999998,324.999988,324.999988,99.55824285714286,99.50568333333334,99.56128571428572,99.5453,0.04800000000000004,-0.015333333333333199,-0.11216666666666668,0.098,-0.041666666666671404,-0.07166666666666544,1.5026666666666666,1.5055,37.304,28.808,37.56,34.9185,55.262,33.062,57.7155,51.757999999999996,53.126999999999995,32.3585,56.338,50.141,52.204,31.988500000000002,56.22,49.57866666666666,-0.05999999999999994,0.0010000000000000009,0.10455500000000001,0.108465,0.0,211.065,211.07,207.89666666666668,207.89666666666668,0.0,0.0
15,0.0,0.0,0.0,1.0,1.0,0.0,0.0,1.0,0.0,100.0,1.0,1.1856,26.0,0.0,0.0,0.0,59.999996,0.0,26.0,26.0,26.0,26.0,0.0035,0.3078000000000001,0.008975,297.424,-2.81865,-2.7646,-1.5909,-1.5154,-225.81,215.88,190.689375,0.0,0.0,0.0,0.0,0.030600000000000002,-5.498166666666667,-5.498166666666667,-0.30770000000000003,0.32333333333333336,0.026888888888888962,0.974,67.553,-0.0018000000000000002,0.06521428571428571,-0.3360000000000003,100.0,1.0,1.0,208.31666666666666,0.0,0.0,0.0,0.0,0.0,0.0,0.0,8829.8,0.0,55.0,5.0,243.15666666666667,1.0,0.0,0.0,0.0,0.0,0.0,1.0,0.0,0.7530000000000001,0.7530000000000001,0.0,0.0,1.0,55.0,616.79921,10000.0,85.000001,85.000001,85.000001,85.000001,395.0,0.0,0.0,0.0,1.0,333.33500000000004,64.407,64.407,46.753,46.753,34.0,-16.298,18.59,-28.7825,30.7025,0.0,1782.636,-0.3249999999999993,100.0,19.049500000000002,18.631,43.858000000000004,43.765,0.0,0.0,100.0,0.0,0.0,0.0,0.0,2057.5555555555557,2287.7,4123.8,4450.0,308.50166666666667,307.6315,314.7605,313.89,21.816666666666666,20.45295,21.859,21.4354,314.999998,314.999998,324.999988,324.999988,99.55825714285714,99.50568333333334,99.56141428571429,99.54542857142857,0.046250000000000124,-0.008999999999999897,-0.10166666666666667,0.11,-0.041666666666671404,-0.06666666666666998,1.4996666666666667,1.4795,37.354,28.830666666666666,37.619,34.971000000000004,55.236000000000004,33.0865,57.756,51.818666666666665,53.102999999999994,32.381,56.376,50.199333333333335,52.18,32.01,56.2555,49.635666666666665,-0.04899999999999993,-0.001000000000000112,0.10901000000000001,0.10510000000000001,0.0,211.535,211.54000000000002,208.31666666666666,208.31666666666666,0.0,0.0
16,0.0,0.0,0.0,1.0,1.0,0.0,0.0,1.0,0.0,100.0,1.0,1.1856,26.0,0.0,0.0,0.0,59.999996,0.0,26.0,26.0,26.0,26.0,0.0051,0.30110000000000015,-0.011125000000000001,297.424,-2.87785,-2.7733,-1.5653000000000001,-1.5782,-222.16,215.8625,190.666,0.0,0.0,0.0,0.0,0.0327,-5.498166666666667,-5.498166666666667,-0.3255,-0.601,0.012111111111110962,0.18199999999999994,67.715,0.00945,0.05114285714285715,-0.31599999999999984,100.0,1.0,1.0,208.80666666666667,0.0,0.0,0.0,0.0,0.0,0.0,0.0,8850.6,0.0,55.0,5.0,243.74333333333334,0.0,0.0,0.0,0.0,0.0,0.0,1.0,0.0,0.8069999999999986,0.8069999999999986,0.0,0.0,0.0,55.0,616.79921,10000.0,85.000001,85.000001,85.000001,85.000001,395.0,0.0,0.0,0.0,1.0,166.665,64.331,64.331,46.509,46.509,34.0,-17.9,19.321666666666665,-27.732499999999998,30.5125,0.0,1782.584,-0.14000000000000057,100.0,18.674500000000002,18.646,44.147999999999996,43.955,0.0,0.0,100.0,0.0,0.0,0.0,0.0,2200.333333333333,2351.2,4103.8,4206.9,308.187,307.4545,314.79725,314.38525,21.825333333333333,20.45705,21.869777777777777,21.4449,314.999998,314.999998,324.999988,324.999988,99.55825714285714,99.50568333333334,99.56157142857143,99.54557142857144,0.04400000000000004,-0.005666666666666709,-0.09133333333333334,0.12666666666666668,-0.03999999999999915,-0.0799999999999983,1.5036666666666667,1.496,37.408,28.856666666666666,37.686,35.0305,55.204,33.1145,57.805,51.88666666666667,53.073,32.4065,56.422,50.26466666666666,52.15,32.0345,56.298,49.699666666666666,-0.040999999999999925,-0.007500000000000062,0.113265,0.10938500000000001,0.0,211.985,212.03,208.80666666666667,208.80666666666667,0.0,0.0
17,0.0,0.0,0.0,1.0,1.0,0.0,0.0,1.0,0.0,100.0,1.0,1.1856,26.0,0.0,0.0,0.0,59.999996,0.0,26.0,26.0,26.0,26.0,-0.004200000000000001,0.31920000000000015,-0.02605,297.256,-2.83875,-2.7595,-1.6027,-1.5419,-218.91,215.85,190.644875,0.0,0.0,0.0,0.0,0.0346,-5.498166666666667,-5.498166666666667,-0.3143,0.489,-0.010222222222222133,0.4850000000000001,67.858,0.008150000000000001,0.0718,-0.10200000000000031,100.0,1.0,1.0,209.23000000000002,0.0,0.0,0.0,0.0,0.0,0.0,0.0,8868.5,0.0,55.0,5.0,244.25666666666666,1.0,0.0,0.0,0.0,0.0,0.0,1.0,0.0,0.8550000000000004,0.8550000000000004,0.0,0.0,1.0,55.0,616.79921,10000.0,85.000001,85.000001,85.000001,85.000001,395.0,0.0,0.0,0.0,1.0,166.665,64.27,64.27,46.494,46.494,34.0,-17.472,17.955,-30.302500000000002,30.2925,0.0,1782.535,-0.21499999999999986,100.0,19.0805,18.8175,43.944,43.877,0.0,0.0,100.0,0.0,0.0,0.0,0.0,2216.222222222222,2200.0,4347.6,4330.7,308.08566666666667,307.918,314.31375,314.1925,21.833222222222222,20.4608,21.87911111111111,21.4533,314.999998,314.999998,324.999988,324.999988,99.55825714285714,99.50568333333334,99.5617,99.54571428571428,0.05900000000000016,-0.0003333333333332966,-0.09316666666666668,0.1145,-0.054999999999999716,-0.04833333333333201,1.495,1.4945,37.458,28.88,37.745000000000005,35.0835,55.179,33.14,57.846000000000004,51.946333333333335,53.049,32.43,56.46,50.321666666666665,52.126000000000005,32.057,56.3335,49.75566666666667,-0.04299999999999993,-0.009500000000000064,0.10826000000000001,0.102705,0.0,212.49,212.47500000000002,209.23000000000002,209.23000000000002,0.0,0.0
18,0.0,0.0,0.0,1.0,1.0,0.0,0.0,1.0,0.0,100.0,1.0,1.1856,26.0,0.0,0.0,0.0,59.999996,0.0,26.0,26.0,26.0,26.0,-0.0097,0.2935000000000001,-0.020225,297.195,-2.8629,-2.7428,-1.61005,-1.4966,-215.65,215.8375,190.623875,0.0,0.0,0.0,0.0,0.036500000000000005,-5.498166666666667,-5.498166666666667,-0.3226,-0.5110000000000001,0.005111111111111066,1.0790000000000002,68.001,0.0025,0.05977142857142857,-0.0779999999999994,100.0,1.0,1.0,209.66333333333333,0.0,0.0,0.0,0.0,0.0,0.0,0.0,8886.8,0.0,55.0,5.0,244.76999999999998,0.0,0.0,0.0,0.0,0.0,0.0,1.0,0.0,0.9029999999999987,0.9029999999999987,0.0,0.0,0.0,55.0,616.79921,10000.0,85.000001,85.000001,85.000001,85.000001,395.0,0.0,0.0,0.0,1.0,333.33500000000004,64.27,64.27,46.356,46.356,34.0,-17.932,19.494999999999997,-29.5975,29.2325,0.0,1782.487,-0.3049999999999997,100.0,18.8645,18.563,44.275999999999996,44.186,0.0,0.0,100.0,0.0,0.0,0.0,0.0,2230.0,2376.1,4207.5,4283.9,308.10766666666666,307.467,314.58075,314.29125,21.841,20.46445,21.88877777777778,21.4619,314.999998,314.999998,324.999988,324.999988,99.55827142857143,99.50568333333334,99.56184285714286,99.54585714285714,0.0495000000000001,0.0023333333333335204,-0.09883333333333333,0.11266666666666668,-0.04333333333332945,-0.061666666666667425,1.5003333333333333,1.479,37.506,28.90266666666667,37.805,35.137,55.153,33.164,57.8895,52.007999999999996,53.024,32.452,56.501,50.38066666666667,52.101,32.078,56.3715,49.81333333333333,-0.04799999999999993,0.0014999999999999458,0.10466500000000001,0.10685000000000001,0.0,212.89499999999998,212.89499999999998,209.66333333333333,209.66333333333333,0.0,0.0
19,0.0,0.0,0.0,1.0,1.0,0.0,0.0,1.0,0.0,100.0,1.0,1.1856,26.0,0.0,0.0,0.0,59.999996,0.0,26.0,26.0,26.0,26.0,-0.0019,0.3205,0.058675000000000005,296.616,-2.7798,-2.8442,-1.62425,-1.4822,-211.97,215.8225,190.599875,0.0,0.0,0.0,0.0,0.03863333333333333,-5.498166666666667,-5.498166666666667,-0.31170000000000003,0.8823333333333333,0.010777777777777775,0.74,68.161,0.0047,0.0712,-0.20000000000000018,100.0,1.0,1.0,210.10666666666668,0.0,0.0,0.0,0.0,0.0,0.0,0.0,8905.7,0.0,55.0,5.0,245.34666666666666,1.0,0.0,0.0,0.0,0.0,0.0,1.0,0.0,0.9570000000000007,0.9570000000000007,0.0,0.0,1.0,55.0,616.79921,10000.0,85.000001,85.000001,85.000001,85.000001,395.0,0.0,0.0,0.0,1.0,166.665,63.599000000000004,63.599000000000004,45.944,45.944,34.0,-17.686,19.821666666666665,-31.375,31.337500000000002,0.0,1782.435,-0.2400000000000002,100.0,19.412,19.12,44.15,44.215,0.0,0.0,100.0,0.0,0.0,0.0,0.0,2236.777777777778,2327.2,4390.1,4551.1,307.9003333333333,307.30625,314.18975,313.70125,21.849888888888888,20.46875,21.899333333333335,21.4715,314.999998,314.999998,324.999988,324.999988,99.55827142857143,99.5057,99.562,99.54601428571429,0.05125000000000002,-0.004999999999999893,-0.09716666666666668,0.11533333333333333,-0.046666666666666856,-0.054999999999999716,1.466,1.47,37.562,28.929666666666666,37.870999999999995,35.197,55.125,33.1935,57.9355,52.076,52.998999999999995,32.4795,56.544,50.446,52.075,32.104,56.411500000000004,49.87733333333333,-0.044499999999999984,-0.010000000000000009,0.11202500000000001,0.10601500000000001,0.0,213.43,213.405,210.10666666666668,210.10666666666668,0.0,0.0
20,0.0,0.0,0.0,1.0,1.0,0.0,0.0,1.0,0.0,100.0,1.0,1.1856,26.0,0.0,0.0,0.0,59.999996,0.0,26.0,26.0,26.0,26.0,0.0188,0.3034000000000001,0.048375,296.98199999999997,-2.8782,-2.7996,-1.54705,-1.6059,-208.69,215.8075,190.578875,0.0,0.0,0.0,0.0,0.04053333333333333,-5.498166666666667,-5.498166666666667,-0.31420000000000003,-1.1286666666666667,0.008999999999999897,0.4750000000000001,68.304,0.00545,0.06355714285714285,-0.19200000000000017,100.0,1.0,1.0,210.46333333333334,0.0,0.0,0.0,0.0,0.0,0.0,0.0,8920.7,0.0,55.0,5.0,245.86333333333334,0.0,0.0,0.0,0.0,0.0,0.0,0.0,0.0,1.004999999999999,1.004999999999999,0.0,0.0,0.0,55.0,616.79921,10000.0,85.000001,85.000001,85.000001,85.000001,395.0,0.0,0.0,0.0,1.0,166.665,64.667,64.667,45.501999999999995,45.501999999999995,34.0,-16.41,18.259999999999998,-28.655,32.85,0.0,1782.386,-0.14000000000000057,100.0,18.8285,18.7095,44.757,44.631,0.0,0.0,100.0,0.0,0.0,0.0,0.0,2061.666666666667,2239.8,4297.1,4398.8,308.63966666666664,307.81575,314.2615,313.85,21.857444444444443,20.4724,21.909111111111113,21.4802,314.999998,314.999998,324.999988,324.999988,99.55827142857143,99.5057,99.56212857142857,99.54614285714285,0.04974999999999996,-0.010333333333333306,-0.0775,0.12216666666666667,-0.04833333333333201,-0.05833333333333002,1.4473333333333334,1.4224999999999999,37.608999999999995,28.952333333333335,37.932,35.2515,55.097,33.2175,57.9805,52.138333333333335,52.972,32.501,56.5865,50.506,52.049,32.125,56.451,49.936,-0.040999999999999925,-0.016000000000000014,0.09982500000000001,0.10895500000000001,0.0,213.82,213.84,210.46333333333334,210.46333333333334,0.0,0.0
21,0.0,0.0,0.0,1.0,1.0,0.0,0.0,1.0,0.0,100.0,1.0,1.1856,26.0,0.0,0.0,0.0,59.999996,0.0,26.0,26.0,26.0,26.0,0.0021000000000000003,0.30590000000000006,-0.066775,297.379,-2.7892,-2.8556,-1.61475,-1.5655000000000001,-205.41,215.79500000000002,190.55725,0.0,0.0,0.0,0.0,0.04243333333333334,-5.498166666666667,-5.498166666666667,-0.3391,0.391,-0.007333333333333414,0.2490000000000001,68.441,5e-05,0.05905714285714286,-0.04999999999999982,100.0,1.0,1.0,211.13333333333333,0.0,0.0,0.0,0.0,0.0,0.0,0.0,8949.1,0.0,55.0,5.0,246.35666666666668,1.0,0.0,0.0,0.0,0.0,0.0,0.0,0.0,1.0530000000000008,1.0530000000000008,0.0,0.0,1.0,55.0,616.79921,10000.0,85.000001,85.000001,85.000001,85.000001,395.0,0.0,0.0,0.0,1.0,166.665,64.224,64.224,46.829,46.829,34.0,-17.292,18.761666666666667,-28.5175,28.8675,0.0,1782.338,-0.22000000000000064,100.0,19.07,18.809,44.171,44.209,0.0,0.0,100.0,0.0,0.0,0.0,0.0,2192.666666666667,2234.1,4104.3,4112.9,308.0826666666667,307.747,314.9185,314.7205,21.865222222222222,20.47615,21.918444444444443,21.488599999999998,314.999998,314.999998,324.999988,324.999988,99.55827142857143,99.5057,99.56227142857144,99.54628571428572,0.051000000000000156,-0.006000000000000005,-0.09966666666666667,0.12016666666666667,-0.04833333333333201,-0.0799999999999983,1.55,1.5470000000000002,37.658,28.976,37.989999999999995,35.304,55.071,33.243,58.0185,52.19566666666667,52.948,32.5245,56.622,50.561,52.025,32.1475,56.484,49.989666666666665,-0.04599999999999993,-0.010499999999999954,0.10462500000000001,0.112225,0.0,214.275,214.26999999999998,211.13333333333333,211.13333333333333,0.0,0.0
22,0.0,0.0,0.0,1.0,1.0,0.0,0.0,1.0,0.0,100.0,1.0,1.1856,26.0,0.0,0.0,0.0,59.999996,0.0,26.0,26.0,26.0,26.0,0.0194,0.29810000000000003,0.007475000000000001,296.875,-2.775,-2.8595,-1.60825,-1.5542,-201.92000000000002,215.7825,190.5335,0.0,0.0,0.0,0.0,0.04446666666666667,-5.498166666666667,-5.498166666666667,-0.3163,0.16700000000000004,-0.0038888888888890527,-0.41200000000000003,68.592,-0.0015500000000000002,0.08321428571428571,0.0,100.0,1.0,1.0,211.40333333333334,0.0,0.0,0.0,0.0,0.0,0.0,0.0,8960.5,0.0,55.0,5.0,246.9,0.0,0.0,0.0,0.0,0.0,0.0,0.0,0.0,1.1039999999999992,1.1039999999999992,0.0,0.0,0.0,55.0,616.79921,10000.0,85.000001,85.000001,85.000001,85.000001,395.0,0.0,0.0,0.0,1.0,333.33500000000004,64.362,64.362,45.67,45.67,34.0,-16.972,17.56,-32.315,30.245,0.0,1782.286,-0.2599999999999998,100.0,18.9775,19.015,44.458,44.514,0.0,0.0,100.0,0.0,0.0,0.0,0.0,2174.1111111111113,2107.5,4418.1,4394.4,308.28766666666667,307.906,314.1505,313.982,21.873444444444445,20.4801,21.928666666666665,21.497799999999998,314.999998,314.999998,324.999988,324.999988,99.55828571428572,99.5057,99.56241428571428,99.54642857142858,0.04674999999999985,-0.016666666666666607,-0.11333333333333333,0.09516666666666668,-0.04999999999999716,-0.051666666666669414,1.4576666666666667,1.449,37.709,29.000666666666667,38.054,35.361,55.043,33.2695,58.0655,52.260333333333335,52.922,32.549,56.666,50.623,51.998999999999995,32.170500000000004,56.525,50.050333333333334,-0.04749999999999999,-0.0035000000000000586,0.10685000000000001,0.106145,0.0,214.75,214.74,211.40333333333334,211.40333333333334,0.0,0.0
23,0.0,0.0,0.0,1.0,1.0,0.0,0.0,1.0,0.0,100.0,1.0,1.1856,26.0,0.0,0.0,0.0,59.999996,0.0,26.0,26.0,26.0,26.0,0.012100000000000001,0.2853000000000001,-0.0033,296.906,-2.80725,-2.8089,-1.5375,-1.6173000000000002,-198.42000000000002,215.76999999999998,190.510125,0.0,0.0,0.0,0.0,0.0465,-5.498166666666667,-5.498166666666667,-0.3337,-0.2843333333333333,-0.0015555555555555323,0.5880000000000001,68.739,-5e-05,0.05934285714285715,-0.043999999999999595,100.0,1.0,1.0,211.95333333333332,0.0,0.0,0.0,0.0,0.0,0.0,0.0,8983.9,0.0,55.0,5.0,247.43333333333334,1.0,0.0,0.0,0.0,0.0,0.0,0.0,0.0,1.1550000000000011,1.1550000000000011,0.0,0.0,1.0,55.0,616.79921,10000.0,85.000001,85.000001,85.000001,85.000001,395.0,0.0,0.0,0.0,1.0,166.665,63.782,63.782,46.616,46.616,34.0,-19.084000000000003,18.81,-27.0025,30.3575,0.0,1782.237,-0.23000000000000043,100.0,19.2265,18.895,44.71,44.703,0.0,0.0,100.0,0.0,0.0,0.0,0.0,2380.5555555555557,2290.4,4010.9,4153.9,307.63533333333334,307.62175,314.99675,314.52325,21.881666666666668,20.48405,21.938777777777776,21.506999999999998,314.999998,314.999998,324.999988,324.999988,99.55828571428572,99.5057,99.56255714285714,99.54658571428571,0.04875000000000007,-0.01200000000000001,-0.09816666666666668,0.12133333333333333,-0.045000000000001705,-0.06499999999999773,1.5110000000000001,1.4965,37.76,29.025333333333336,38.117999999999995,35.4185,55.016,33.296,58.11,52.32533333333333,52.896,32.573499999999996,56.707499999999996,50.68566666666666,51.973,32.194,56.5635,50.111333333333334,-0.044499999999999984,-0.01100000000000012,0.10818000000000001,0.11534000000000001,0.0,215.185,215.175,211.95333333333332,211.95333333333332,0.0,0.0
24,0.0,0.0,0.0,1.0,1.0,0.0,0.0,1.0,0.0,100.0,1.0,1.1856,26.0,0.0,0.0,0.0,59.999996,0.0,26.0,26.0,26.0,26.0,0.0049,0.2985,-0.042275,297.15,-2.83705,-2.8142,-1.584,-1.5573000000000001,-194.91,215.7575,190.486125,0.0,0.0,0.0,0.0,0.04856666666666667,-5.498166666666667,-5.498166666666667,-0.3383,-0.43133333333333335,0.007777777777777883,-0.10499999999999998,68.888,0.0017000000000000001,0.07305714285714286,-0.06399999999999917,100.0,1.0,1.0,212.31666666666666,0.0,0.0,0.0,0.0,0.0,0.0,0.0,8999.3,0.0,55.0,5.0,247.96333333333334,0.0,0.0,0.0,0.0,0.0,0.0,0.0,0.0,1.2059999999999995,1.2059999999999995,0.0,0.0,0.0,55.0,616.79921,10000.0,85.000001,85.000001,85.000001,85.000001,395.0,0.0,0.0,0.0,1.0,166.665,64.941,64.941,45.715,45.715,34.0,-16.407999999999998,16.546666666666667,-31.9175,29.3425,0.0,1782.185,-0.3100000000000005,100.0,18.8355,18.729,44.581,44.68,0.0,0.0,100.0,0.0,0.0,0.0,0.0,2075.0,2056.1,4409.7,4259.8,308.621,308.22325,314.133,314.3005,21.889666666666667,20.4879,21.948888888888888,21.5161,314.999998,314.999998,324.999988,324.999988,99.5583,99.5057,99.56271428571428,99.54672857142857,0.04499999999999993,-0.020333333333333314,-0.11433333333333333,0.1,-0.060000000000002274,-0.03166666666666629,1.474,1.475,37.811,29.049333333333333,38.181,35.4755,54.986999999999995,33.320499999999996,58.1545,52.388999999999996,52.869,32.596000000000004,56.7495,50.74666666666667,51.946,32.2155,56.602000000000004,50.171,-0.05349999999999999,-0.0030000000000001137,0.10629500000000001,0.105315,0.0,215.66,215.63,212.31666666666666,212.31666666666666,0.0,0.0
25,0.0,0.0,0.0,1.0,1.0,0.0,0.0,1.0,0.0,100.0,1.0,1.1856,26.0,0.0,0.0,0.0,59.999996,0.0,26.0,26.0,26.0,26.0,0.021400000000000002,0.28980000000000006,-0.06280000000000001,297.089,-2.90185,-2.7777,-1.5982500000000002,-1.5602,-191.6,215.745,190.462375,0.0,0.0,0.0,0.0,0.050466666666666674,-5.498166666666667,-5.498166666666667,-0.3667,-0.09833333333333338,0.011444444444444368,-0.909,69.024,0.00385,0.06815714285714286,-0.20000000000000018,100.0,1.0,1.0,212.85333333333335,0.0,0.0,0.0,0.0,0.0,0.0,0.0,9022.1,0.0,55.0,5.0,248.45666666666665,1.0,0.0,0.0,0.0,0.0,0.0,0.0,0.0,1.2540000000000013,1.2540000000000013,0.0,0.0,1.0,55.0,616.79921,10000.0,85.000001,85.000001,85.000001,85.000001,395.0,0.0,0.0,0.0,1.0,166.665,64.011,64.011,46.417,46.417,34.0,-19.573999999999998,19.441666666666666,-28.805,28.91,0.0,1782.136,-0.27999999999999936,100.0,18.7245,18.901,44.345,44.476,0.0,0.0,100.0,0.0,0.0,0.0,0.0,2388.0,2349.3,4105.6,4157.3,307.833,307.29875,314.902,314.58075,21.897222222222222,20.49165,21.958333333333332,21.5246,314.999998,314.999998,324.999988,324.999988,99.5583,99.5057,99.56285714285714,99.54687142857144,0.045500000000000096,-0.009666666666666712,-0.10633333333333334,0.11133333333333333,-0.06333333333333258,-0.05833333333333002,1.523,1.518,37.858000000000004,29.073,38.239999999999995,35.5285,54.959,33.3455,58.194,52.447,52.843,32.619,56.786500000000004,50.80233333333334,51.92,32.2375,56.6365,50.22533333333333,-0.04949999999999999,-0.006000000000000005,0.11254000000000002,0.11058000000000001,0.0,216.065,216.065,212.85333333333335,212.85333333333335,0.0,0.0
26,0.0,0.0,0.0,1.0,1.0,0.0,0.0,1.0,0.0,100.0,1.0,1.1856,26.0,0.0,0.0,0.0,59.999996,0.0,26.0,26.0,26.0,26.0,-0.0017000000000000001,0.30590000000000006,0.0777,295.99,-2.85345,-2.8526,-1.6472,-1.5514999999999999,-188.07,215.73250000000002,190.436625,0.0,0.0,0.0,0.0,0.05253333333333334,-5.498166666666667,-5.498166666666667,-0.3264,0.8033333333333333,-0.0023333333333335204,0.724,69.174,0.0053,0.09661428571428572,-0.16600000000000037,100.0,1.0,1.0,213.07999999999998,0.0,0.0,0.0,0.0,0.0,0.0,0.0,9031.6,0.0,55.0,5.0,248.99333333333334,0.0,0.0,0.0,0.0,0.0,0.0,0.0,0.0,1.3049999999999997,1.3049999999999997,0.0,0.0,0.0,55.0,616.79921,10000.0,85.000001,85.000001,85.000001,85.000001,395.0,0.0,0.0,0.0,1.0,333.33500000000004,63.553,63.553,44.83,44.83,34.0,-17.735999999999997,19.355,-33.745,34.16,0.0,1782.084,-0.33000000000000007,100.0,19.6385,19.3605,44.816,44.785,0.0,0.0,100.0,0.0,0.0,0.0,0.0,2241.4444444444443,2276.4,4638.4,4656.2,307.9456666666667,307.55,313.598,313.41525,21.905444444444445,20.49585,21.968555555555554,21.5338,314.999998,314.999998,324.999988,324.999988,99.5583,99.5057,99.56301428571429,99.54702857142857,0.06525000000000025,-0.0023333333333332984,-0.09033333333333333,0.12316666666666667,-0.04833333333333201,-0.06333333333333258,1.4243333333333332,1.415,37.909,29.099,38.303,35.5865,54.932,33.376,58.2435,52.516666666666666,52.818,32.647,56.832499999999996,50.869,51.894999999999996,32.2645,56.6795,50.290333333333336,-0.056499999999999995,-0.0040000000000000036,0.105495,0.107675,0.0,216.565,216.565,213.07999999999998,213.07999999999998,0.0,0.0
27,0.0,0.0,0.0,1.0,1.0,0.0,0.0,1.0,0.0,100.0,1.0,1.1856,26.0,0.0,0.0,0.0,59.999996,0.0,26.0,26.0,26.0,26.0,0.0151,0.28480000000000016,-0.01785,296.494,-2.8211,-2.8172,-1.6358000000000001,-1.6239,-184.75,215.72,190.4135,0.0,0.0,0.0,0.0,0.05446666666666666,-5.498166666666667,-5.498166666666667,-0.3498,-1.13,0.00011111111111095084,0.6640000000000001,69.31,0.00555,0.053200000000000004,-0.2160000000000002,100.0,1.0,1.0,213.56333333333333,0.0,0.0,0.0,0.0,0.0,0.0,0.0,9052.1,0.0,55.0,5.0,249.48666666666668,1.0,0.0,0.0,0.0,0.0,0.0,0.0,0.0,1.352999999999998,1.352999999999998,0.0,0.0,1.0,55.0,616.79921,10000.0,85.000001,85.000001,85.000001,85.000001,395.0,0.0,0.0,0.0,1.0,333.33500000000004,64.087,64.087,45.12,45.12,34.0,-16.349999999999998,19.256666666666668,-30.225,31.345,0.0,1782.036,-0.3949999999999996,100.0,19.2345,19.093,45.352000000000004,45.289,0.0,0.0,100.0,0.0,0.0,0.0,0.0,2118.5555555555557,2295.6,4275.3,4269.7,308.33666666666664,307.619,314.36875,314.23225,21.913,20.4996,21.97833333333333,21.5427,314.999998,314.999998,324.999988,324.999988,99.55831428571429,99.50571666666667,99.56314285714285,99.54715714285715,0.06700000000000017,0.0003333333333332966,-0.08683333333333333,0.114,-0.036666666666668846,-0.07166666666666544,1.4563333333333333,1.4475,37.956,29.122333333333334,38.364000000000004,35.641999999999996,54.905,33.4005,58.2875,52.57866666666666,52.793,32.6695,56.874,50.928666666666665,51.869,32.286,56.7175,50.34833333333333,-0.061999999999999944,-0.0015000000000000568,0.09687000000000001,0.10562,0.0,216.92000000000002,216.925,213.56333333333333,213.56333333333333,0.0,0.0
28,0.0,0.0,0.0,1.0,1.0,0.0,0.0,1.0,0.0,100.0,1.0,1.1856,26.0,0.0,0.0,0.0,59.999996,0.0,26.0,26.0,26.0,26.0,0.0374,0.29310000000000014,-0.06755,296.906,-2.8063,-2.8146,-1.5806,-1.5878,-181.20999999999998,215.71,190.38825,0.0,0.0,0.0,0.0,0.0565,-5.498166666666667,-5.498166666666667,-0.3608,0.6856666666666666,-0.010555555555555873,-0.616,69.452,0.00905,0.07414285714285715,-0.18799999999999972,100.0,1.0,1.0,214.18,0.0,0.0,0.0,0.0,0.0,0.0,0.0,9078.4,0.0,55.0,5.0,249.99666666666667,0.0,0.0,0.0,0.0,0.0,0.0,0.0,0.0,1.404,1.404,0.0,0.0,0.0,55.0,616.79921,10000.0,85.000001,85.000001,85.000001,85.000001,395.0,0.0,0.0,0.0,1.0,166.665,63.995,63.995,46.417,46.417,34.0,-18.096,18.06,-28.482499999999998,29.55,0.0,1781.988,-0.3949999999999996,100.0,19.133499999999998,19.163,44.589,44.78,0.0,0.0,100.0,0.0,0.0,0.0,0.0,2320.8888888888887,2159.4,4110.2,4176.2,307.8693333333333,307.8225,314.90675,314.55475,21.92111111111111,20.50365,21.988222222222223,21.5517,314.999998,314.999998,324.999988,324.999988,99.55831428571429,99.50571666666667,99.56328571428571,99.5473,0.06125000000000025,-0.0043333333333333,-0.10416666666666667,0.11333333333333333,-0.054999999999999716,-0.04999999999999716,1.5256666666666667,1.521,38.007,29.147666666666666,38.426,35.698,54.879999999999995,33.426,58.325,52.635333333333335,52.769,32.693,56.909,50.983333333333334,51.846000000000004,32.3085,56.7495,50.401666666666664,-0.0595,0.0030000000000000027,0.11315000000000001,0.10713500000000001,0.0,217.41,217.41500000000002,214.18,214.18,0.0,0.0
29,0.0,0.0,0.0,1.0,1.0,0.0,0.0,1.0,0.0,100.0,1.0,1.1856,26.0,0.0,0.0,0.0,59.999996,0.0,26.0,26.0,26.0,26.0,0.0236,0.28490000000000015,0.008025000000000001,296.478,-2.7909,-2.8631,-1.5813000000000001,-1.5708,-177.66,215.6975,190.36175,0.0,0.0,0.0,0.0,0.05856666666666666,-5.498166666666667,-5.498166666666667,-0.3568,-0.6533333333333333,-0.0040000000000000036,0.887,69.599,0.0132,0.08724285714285715,-0.3539999999999992,100.0,1.0,1.0,214.4,0.0,0.0,0.0,0.0,0.0,0.0,0.0,9087.6,0.0,55.0,5.0,250.52666666666664,1.0,0.0,0.0,0.0,0.0,0.0,0.0,0.0,1.4549999999999983,1.4549999999999983,0.0,0.0,1.0,55.0,616.79921,10000.0,85.000001,85.000001,85.000001,85.000001,395.0,0.0,0.0,0.0,1.0,333.33500000000004,64.301,64.301,45.044,45.044,34.0,-16.406,19.636666666666667,-30.0175,32.64,0.0,1781.935,-0.41000000000000014,100.0,18.942999999999998,18.873,45.15,45.041,0.0,0.0,100.0,0.0,0.0,0.0,0.0,2143.4444444444443,2280.3,4341.4,4481.4,308.3036666666667,307.572,314.186,313.80325,21.929,20.50755,21.998555555555555,21.561,314.999998,314.999998,324.999988,324.999988,99.55832857142858,99.50571666666667,99.56344285714286,99.54745714285714,0.06499999999999995,0.005666666666666931,-0.08516666666666667,0.11816666666666667,-0.03833333333332689,-0.054999999999999716,1.4383333333333335,1.4295,38.056,29.172333333333334,38.491,35.756,54.851,33.451,58.372,52.701,52.742000000000004,32.716,56.953,51.046,51.818,32.3305,56.7905,50.463,-0.05349999999999999,0.0034999999999999476,0.10323500000000001,0.099195,0.0,217.815,217.845,214.4,214.4,0.0,0.0
30,0.0,0.0,0.0,1.0,1.0,0.0,0.0,1.0,0.0,100.0,1.0,1.1856,26.0,0.0,0.0,0.0,59.999996,0.0,26.0,26.0,26.0,26.0,0.0398,0.2862,0.009425000000000001,295.959,-2.80795,-2.7446,-1.5567,-1.6253000000000002,-174.11,215.6875,190.33525,0.0,0.0,0.0,0.0,0.06063333333333334,-5.498166666666667,-5.498166666666667,-0.3587,0.867,-0.009222222222222243,-0.726,69.741,0.01365,0.07832857142857144,-0.2160000000000002,100.0,1.0,1.0,214.94666666666666,0.0,0.0,0.0,0.0,0.0,0.0,0.0,9110.8,0.0,55.0,5.0,251.03666666666666,0.0,0.0,0.0,0.0,0.0,0.0,1.0,0.0,1.5060000000000002,1.5060000000000002,0.0,0.0,0.0,55.0,616.79921,10000.0,85.000001,85.000001,85.000001,85.000001,395.0,0.0,0.0,0.0,1.0,166.665,62.866,62.866,45.609,45.609,34.0,-19.4,18.935,-29.2475,31.485,0.0,1781.886,-0.41999999999999993,100.0,19.735500000000002,19.8545,44.944,45.208,0.0,0.0,100.0,0.0,0.0,0.0,0.0,2478.1111111111113,2276.2,4289.8,4256.4,307.31766666666664,307.3785,314.48,314.237,21.937333333333335,20.5118,22.008555555555557,21.5702,314.999998,314.999998,324.999988,324.999988,99.55832857142858,99.50571666666667,99.56358571428571,99.5476,0.06974999999999998,-0.0023333333333332984,-0.092,0.11800000000000001,-0.05666666666667197,-0.046666666666666856,1.4706666666666666,1.4635,38.108000000000004,29.198666666666668,38.554,35.814,54.826,33.4805,58.4135,52.76466666666666,52.719,32.743,56.992,51.107,51.795,32.356,56.826499999999996,50.522666666666666,-0.06399999999999995,-0.0004999999999999449,0.108645,0.104895,0.0,218.305,218.3,214.94666666666666,214.94666666666666,0.0,0.0
31,0.0,0.0,0.0,1.0,1.0,0.0,0.0,1.0,0.0,100.0,1.0,1.1856,26.0,0.0,0.0,0.0,59.999996,0.0,26.0,26.0,26.0,26.0,0.0239,0.28310000000000013,0.014275000000000001,295.807,-2.89645,-2.73,-1.5996000000000001,-1.5229,-170.76,215.6775,190.311,0.0,0.0,0.0,0.0,0.0626,-5.498166666666667,-5.498166666666667,-0.3421,-0.5386666666666668,-0.005666666666666931,-0.9,69.877,0.015300000000000001,0.07655714285714287,-0.2599999999999998,100.0,1.0,1.0,215.19666666666666,0.0,0.0,0.0,0.0,0.0,0.0,0.0,9121.4,0.0,55.0,5.0,251.53,1.0,0.0,0.0,0.0,0.0,0.0,1.0,0.0,1.5539999999999985,1.5539999999999985,0.0,0.0,1.0,55.0,616.79921,10000.0,85.000001,85.000001,85.000001,85.000001,395.0,0.0,0.0,0.0,1.0,333.33500000000004,63.675,63.675,44.144,44.144,34.0,-17.572,18.866666666666667,-32.67,32.2825,0.0,1781.836,-0.4450000000000003,100.0,19.421,19.725,45.486000000000004,45.702,0.0,0.0,100.0,0.0,0.0,0.0,0.0,2259.0,2278.2,4572.1,4423.5,308.20866666666666,307.58175,313.712,313.80375,21.944777777777777,20.51565,22.018444444444444,21.5791,314.999998,314.999998,324.999988,324.999988,99.55832857142858,99.50573333333334,99.56372857142857,99.54775714285714,0.07250000000000023,0.007000000000000117,-0.0915,0.1265,-0.05666666666667197,-0.03833333333332689,1.4063333333333334,1.3895,38.155,29.223,38.614999999999995,35.8695,54.801,33.506,58.459,52.82866666666666,52.695,32.7665,57.0345,51.16833333333334,51.771,32.379,56.866,50.58266666666667,-0.07150000000000001,0.0030000000000000027,0.10774,0.11290000000000001,0.0,218.7,218.70499999999998,215.19666666666666,215.19666666666666,0.0,0.0
32,0.0,0.0,0.0,1.0,1.0,0.0,0.0,1.0,0.0,100.0,1.0,1.1856,26.0,0.0,0.0,0.0,59.999996,0.0,26.0,26.0,26.0,26.0,0.0082,0.2948000000000002,-0.0655,296.341,-2.81215,-2.8401,-1.6475,-1.5288,-167.19,215.67000000000002,190.285625,0.0,0.0,0.0,0.0,0.06466666666666666,-5.498166666666667,-5.498166666666667,-0.36460000000000004,-0.08033333333333337,-0.026444444444444493,0.16399999999999992,70.017,0.01905,0.062328571428571435,-0.387999999999999,100.0,1.0,1.0,215.78333333333333,0.0,0.0,0.0,0.0,0.0,0.0,0.0,9146.2,0.0,55.0,5.0,252.03,0.0,0.0,0.0,0.0,0.0,0.0,1.0,0.0,1.6050000000000004,1.6050000000000004,0.0,0.0,0.0,55.0,616.79921,10000.0,85.000001,85.000001,85.000001,85.000001,395.0,0.0,0.0,0.0,1.0,166.665,63.766,63.766,45.441,45.441,34.0,-17.04,19.331666666666667,-29.875,32.010000000000005,0.0,1781.787,-0.3949999999999996,100.0,19.4515,19.4725,45.162,45.211,0.0,0.0,100.0,0.0,0.0,0.0,0.0,2216.4444444444443,2250.6,4296.3,4386.6,308.034,307.7125,314.47625,314.13975,21.95277777777778,20.51975,22.028555555555556,21.5884,314.999998,314.999998,324.999988,324.999988,99.55834285714286,99.50573333333334,99.56387142857143,99.5479,0.07299999999999995,0.012333333333333307,-0.08083333333333333,0.1395,-0.03999999999999915,-0.061666666666667425,1.5023333333333333,1.4815,38.205,29.248666666666665,38.678,35.9275,54.774,33.533500000000004,58.5015,52.891333333333336,52.669,32.792,57.074,51.22866666666667,51.745999999999995,32.403,56.9025,50.641333333333336,-0.0615,0.0024999999999999467,0.11144000000000001,0.107605,0.0,219.115,219.14,215.78333333333333,215.78333333333333,0.0,0.0
33,0.0,0.0,0.0,1.0,1.0,0.0,0.0,1.0,0.0,100.0,1.0,1.1856,26.0,0.0,0.0,0.0,59.999996,0.0,26.0,26.0,26.0,26.0,0.026600000000000002,0.2865,-0.06975,296.631,-2.8487999999999998,-2.838,-1.5866,-1.612,-163.82999999999998,215.6625,190.2605,0.0,0.0,0.0,0.0,0.06663333333333334,-5.498166666666667,-5.498166666666667,-0.37010000000000004,-0.16433333333333322,-0.026555555555555888,1.0939999999999999,70.151,0.0172,0.08267142857142858,-0.19200000000000017,100.0,1.0,1.0,216.16,0.0,0.0,0.0,0.0,0.0,0.0,0.0,9162.3,0.0,55.0,5.0,252.51333333333332,1.0,0.0,0.0,0.0,0.0,0.0,1.0,0.0,1.6529999999999987,1.6529999999999987,0.0,0.0,1.0,55.0,616.79921,10000.0,85.000001,85.000001,85.000001,85.000001,395.0,0.0,0.0,0.0,1.0,166.665,64.331,64.331,45.532,45.532,34.0,-16.226,18.294999999999998,-29.345,32.465,0.0,1781.738,-0.46499999999999986,100.0,19.2495,19.162,45.051,45.057,0.0,0.0,100.0,0.0,0.0,0.0,0.0,2137.333333333333,2154.1,4281.2,4372.9,308.376,308.01075,314.425,314.11925,21.96011111111111,20.52345,22.03811111111111,21.597,314.999998,314.999998,324.999988,324.999988,99.55835714285715,99.50573333333334,99.56401428571428,99.54804285714286,0.08000000000000007,0.010000000000000231,-0.08516666666666667,0.12466666666666668,-0.05666666666667197,-0.060000000000002274,1.4746666666666666,1.4655,38.251000000000005,29.271333333333335,38.738,35.9815,54.747,33.5565,58.5415,52.95066666666666,52.644999999999996,32.813,57.112,51.285666666666664,51.721000000000004,32.423500000000004,56.937,50.696666666666665,-0.06699999999999995,0.0,0.10228500000000001,0.10588,0.0,219.55,219.555,216.16,216.16,0.0,0.0
34,0.0,0.0,0.0,1.0,1.0,0.0,0.0,1.0,0.0,100.0,1.0,1.1856,26.0,0.0,0.0,0.0,59.999996,0.0,26.0,26.0,26.0,26.0,0.0358,0.2835000000000001,-0.049925000000000004,296.722,-2.7956,-2.8264,-1.65265,-1.5746,-160.25,215.655,190.2325,0.0,0.0,0.0,0.0,0.0687,-5.498166666666667,-5.498166666666667,-0.3947,-0.829,0.0006666666666665932,-0.32699999999999996,70.292,0.014150000000000001,0.08054285714285715,-0.18200000000000038,100.0,1.0,1.0,216.58333333333331,0.0,0.0,0.0,0.0,0.0,0.0,0.0,9180.1,0.0,55.0,5.0,253.02333333333334,0.0,0.0,0.0,0.0,0.0,0.0,1.0,0.0,1.7040000000000006,1.7040000000000006,0.0,0.0,0.0,55.0,616.79921,10000.0,85.000001,85.000001,85.000001,85.000001,395.0,0.0,0.0,0.0,1.0,333.33500000000004,64.514,64.514,45.882999999999996,45.882999999999996,34.0,-16.874,17.75166666666667,-30.572499999999998,31.03,0.0,1781.685,-0.504999999999999,100.0,18.831,18.965,44.909,45.316,0.0,0.0,100.0,0.0,0.0,0.0,0.0,2239.333333333333,2068.7,4251.2,4341.6,308.202,308.08175,314.56975,314.08175,21.96788888888889,20.5273,22.048222222222222,21.6063,314.999998,314.999998,324.999988,324.999988,99.55835714285715,99.50573333333334,99.56415714285714,99.54818571428571,0.07250000000000023,0.014666666666666828,-0.09616666666666668,0.11133333333333333,-0.054999999999999716,-0.04999999999999716,1.4656666666666665,1.4725000000000001,38.3,29.295666666666666,38.801,36.039500000000004,54.719,33.5805,58.583,53.015,52.617999999999995,32.835,57.1505,51.34766666666667,51.695,32.4445,56.973,50.757,-0.0635,0.016000000000000014,0.107965,0.10677,0.0,219.97,219.95499999999998,216.58333333333331,216.58333333333331,0.0,0.0
35,0.0,0.0,0.0,1.0,1.0,0.0,0.0,1.0,0.0,100.0,1.0,1.1856,26.0,0.0,0.0,0.0,59.999996,0.0,26.0,26.0,26.0,26.0,0.0424,0.27960000000000007,-0.012025000000000001,296.768,-2.8554,-2.7691,-1.6283500000000002,-1.538,-156.45,215.6475,190.20075,0.0,0.0,0.0,0.0,0.0709,-5.498166666666667,-5.498166666666667,-0.43370000000000003,-0.1273333333333333,-0.017444444444444596,-1.152,70.439,0.01685,0.07390000000000001,-0.31399999999999917,100.0,1.0,1.0,217.11333333333334,0.0,0.0,0.0,0.0,0.0,0.0,0.0,9202.6,0.0,55.0,5.0,253.55,1.0,0.0,0.0,0.0,0.0,0.0,1.0,0.0,1.7579999999999991,1.7579999999999991,0.0,0.0,1.0,55.0,616.79921,10000.0,85.000001,85.000001,85.000001,85.000001,395.0,0.0,0.0,0.0,1.0,166.665,64.133,64.133,45.501999999999995,45.501999999999995,34.0,-17.784,20.153333333333332,-28.8925,29.0475,0.0,1781.634,-0.3100000000000005,100.0,18.6115,19.204,44.784,44.903,0.0,0.0,100.0,0.0,0.0,0.0,0.0,2257.1111111111113,2376.3,4188.5,4122.1,308.133,307.18525,314.68525,314.66825,21.976111111111113,20.53165,22.058888888888887,21.616,314.999998,314.999998,324.999988,324.999988,99.55837142857143,99.50573333333334,99.56432857142858,99.54835714285714,0.05975000000000019,0.00533333333333319,-0.083,0.12266666666666667,-0.04999999999999716,-0.051666666666669414,1.505,1.5,38.349999999999994,29.322666666666667,38.867999999999995,36.1,54.688,33.6095,58.6275,53.07866666666666,52.589,32.862,57.192,51.409,51.665,32.47,57.010999999999996,50.817,-0.04849999999999999,-0.0004999999999999449,0.10355,0.10021000000000001,0.0,220.43,220.44,217.11333333333334,217.11333333333334,0.0,0.0
