,ABS Active,ABS Enabled,AID Allow Tire Blankets,AID Auto Blip,AID Auto Clutch,AID Auto Shift,AID Fuel Rate,AID Ideal Line,AID Mech Damage,AID Stability,AID Tire Wear Rate,Air Density,Air Temp,Ballast,Best Lap Delta,Best Lap Time,Brake Bias,Brake Pos,Brake Temp FL,Brake Temp FR,Brake Temp RL,Brake Temp RR,CG Accel Lateral,CG Accel Longitudinal,CG Accel Vertical,CG Height,Camber FL,Camber FR,Camber RL,Camber RR,Car Coord X,Car Coord Y,Car Coord Z,Car Damage Front,Car Damage Left,Car Damage Rear,Car Damage Right,Car Pos Norm,Caster FL,Caster FR,Chassis Pitch Angle,Chassis Pitch Rate,Chassis Roll Angle,Chassis Roll Rate,Chassis Velocity X,Chassis Velocity Y,Chassis Velocity Z,Chassis Yaw Rate,Clutch Pos,DRS Active,DRS Available,Drive Train Speed,ERS Heat Charging,ERS Is Charging,ERS Max Energy,ERS Power Level,ERS Recovery Level,Engine Brake Setting,Engine Limiter,Engine RPM,Flags,Fuel Level,Gear,Ground Speed,HR Sample Clock,In Pit,KERS Charge,KERS Deployed Energy,KERS Input,KERS Max Energy,LR Sample Clock,Lap Invalidated,Lap Time,Lap Time2,Last Lap Time,Last Sector Time,MR Sample Clock,Max Fuel,Max Power,Max RPM,Max Sus Travel FL,Max Sus Travel FR,Max Sus Travel RL,Max Sus Travel RR,Max Torque,Max Turbo Boost,Num Tires Off Track,Penalties Enabled,Position,Raw Data Sample Rate,Ride Height FL,Ride Height FR,Ride Height RL,Ride Height RR,Road Temp,Self Align Torque FL,Self Align Torque FR,Self Align Torque RL,Self Align Torque RR,Session Lap Count,Session Time Left,Steering Angle,Surface Grip,Suspension Travel FL,Suspension Travel FR,Suspension Travel RL,Suspension Travel RR,TC Active,TC Enabled,Throttle Pos,Tire Dirt Level FL,Tire Dirt Level FR,Tire Dirt Level RL,Tire Dirt Level RR,Tire Load FL,Tire Load FR,Tire Load RL,Tire Load RR,Tire Loaded Radius FL,Tire Loaded Radius FR,Tire Loaded Radius RL,Tire Loaded Radius RR,Tire Pressure FL,Tire Pressure FR,Tire Pressure RL,Tire Pressure RR,Tire Radius FL,Tire Radius FR,Tire Radius RL,Tire Radius RR,Tire Rubber Grip FL,Tire Rubber Grip FR,Tire Rubber Grip RL,Tire Rubber Grip RR,Tire Slip Angle FL,Tire Slip Angle FR,Tire Slip Angle RL,Tire Slip Angle RR,Tire Slip Ratio FL,Tire Slip Ratio FR,Tire Slip Ratio RL,Tire Slip Ratio RR,Tire Temp Core FL,Tire Temp Core FR,Tire Temp Core RL,Tire Temp Core RR,Tire Temp Inner FL,Tire Temp Inner FR,Tire Temp Inner RL,Tire Temp Inner RR,Tire Temp Middle FL,Tire Temp Middle FR,Tire Temp Middle RL,Tire Temp Middle RR,Tire Temp Outer FL,Tire Temp Outer FR,Tire Temp Outer RL,Tire Temp Outer RR,Toe In FL,Toe In FR,Toe In RL,Toe In RR,Turbo Boost,Wheel Angular Speed FL,Wheel Angular Speed FR,Wheel Angular Speed RL,Wheel Angular Speed RR,Wind Direction,Wind Speed
0,0.0,0.0,0.0,1.0,1.0,0.0,0.0,1.0,0.0,100.0,1.0,1.1856,26.0,0.0,0.0,0.0,59.99999,0.0,26.0,26.0,26.0,26.0,-0.056666666666666664,-0.3188,0.0609,298.035,-2.84265,-2.7811,-1.5325,-1.5729000000000002,-275.71,216.2375,190.99175,0.0,0.0,0.0,0.0,0.0015666666666666667,-5.498166666666667,-5.498166666666667,-0.3604,-0.16533333333333336,-0.007777777777777661,-0.899,65.314,-0.03045,0.013142857142857142,0.8160000000000007,100.0,1.0,1.0,198.54333333333332,0.0,0.0,0.0,0.0,0.0,0.0,0.0,9683.8,0.0,55.0,0.0,235.16333333333333,0.0,0.0,0.0,0.0,0.0,0.0,0.0,0.0,0.0030000000000001137,0.0030000000000001137,0.0,0.0,0.0,55.0,616.79921,10000.0,85.0,85.0,85.0,85.0,395.0,0.0,0.0,0.0,1.0,20.0,62.469,62.469,48.798,48.798,34.0,-23.434,22.326666666666668,-31.80666666666667,27.1875,0.0,1783.161,0.8900000000000006,100.0,19.1645,18.558,41.826,41.881,0.0,0.0,0.0,0.0,0.0,0.0,0.0,2539.1111111111113,2929.4,3917.4444444444443,3801.1,307.245,305.55175,315.30325,315.3355,21.704333333333334,20.4005,21.71066666666667,21.3068,314.99999,314.99999,324.99998,324.99998,99.55904285714286,99.5056,99.55928571428572,99.54335714285715,-0.04066666666666663,-0.08033333333333315,-0.13483333333333333,0.05633333333333334,0.011666666666670267,-0.01999999999999602,-0.019333333333333425,0.0165,36.652,28.503,36.692,34.167500000000004,55.983999999999995,32.703,57.079,50.88633333333333,53.792,32.028,55.7415,49.306333333333335,52.849000000000004,31.672,55.661,48.76266666666667,0.03699999999999992,-0.08800000000000008,0.09091,0.0951,0.0,204.735,204.65,198.56666666666666,198.52,0.0,0.0
1,0.0,0.0,0.0,1.0,1.0,0.0,0.0,1.0,0.0,100.0,1.0,1.1856,26.0,0.0,0.0,0.0,59.999996,0.0,26.0,26.0,26.0,26.0,-0.07888888888888888,0.3288,0.23472500000000002,296.844,-2.74475,-2.876,-1.5325,-1.5644,-272.18,216.23250000000002,190.970375,0.0,0.0,0.0,0.0,0.003633333333333334,-5.498166666666667,-5.498166666666667,-0.3053,0.5543333333333333,-0.05944444444444441,-1.0390000000000001,65.355,-0.04405,0.02037142857142857,1.3279999999999994,100.0,1.0,1.0,201.44666666666666,0.0,0.0,0.0,0.0,0.0,0.0,0.0,8538.5,0.0,55.0,5.0,235.24333333333334,1.0,0.0,0.0,0.0,0.0,0.0,0.0,0.0,0.05699999999999861,0.05699999999999861,0.0,0.0,1.0,55.0,616.79921,10000.0,85.000001,85.000001,85.000001,85.000001,395.0,0.0,0.0,0.0,1.0,166.665,63.217,63.217,47.15,47.15,34.0,-21.642,13.559999999999999,-36.21,30.585,0.0,1783.109,1.1050000000000004,100.0,20.274,19.6685,43.289,42.499,0.0,0.0,100.0,0.0,0.0,0.0,0.0,2385.0,1964.8,4541.444444444444,4840.3,307.612,308.4825,313.75275,312.816,21.714111111111112,20.4048,21.721444444444444,21.3161,314.999998,314.999998,324.999988,324.999988,99.55905714285714,99.50561666666667,99.55938571428571,99.54347142857142,-0.05233333333333312,-0.12199999999999989,-0.1695,0.042,-0.06833333333332803,-0.046666666666666856,1.2973333333333334,1.4665000000000001,36.713,28.53,36.759,34.2255,55.96,32.7395,57.109,50.93066666666667,53.769,32.0615,55.769,49.349000000000004,52.826,31.704,55.687,48.80433333333333,0.0515000000000001,-0.11499999999999999,0.10271500000000001,0.112085,0.0,204.825,204.71,201.78333333333333,201.11,0.0,0.0
2,0.0,0.0,0.0,1.0,1.0,0.0,0.0,1.0,0.0,100.0,1.0,1.1856,26.0,0.0,0.0,0.0,59.999996,0.0,26.0,26.0,26.0,26.0,-0.12677777777777777,0.3155000000000001,0.011225,297.974,-2.71925,-2.9155,-1.512,-1.6294,-269.04,216.225,190.953125,0.0,0.0,0.0,0.0,0.0054666666666666665,-5.498166666666667,-5.498166666666667,-0.3282,-0.332,-0.05411111111111122,1.881,65.505,-0.064,-0.006942857142857143,1.5359999999999996,100.0,1.0,1.0,202.3,0.0,0.0,0.0,0.0,0.0,0.0,0.0,8574.7,0.0,55.0,5.0,235.78333333333333,0.0,0.0,0.0,0.0,0.0,0.0,0.0,0.0,0.10500000000000043,0.10500000000000043,0.0,0.0,0.0,55.0,616.79921,10000.0,85.000001,85.000001,85.000001,85.000001,395.0,0.0,0.0,0.0,1.0,166.665,63.4,63.4,48.737,48.737,34.0,-23.29,13.458333333333332,-31.79,20.55,0.0,1783.061,0.9450000000000003,100.0,20.108,19.0465,43.665,42.514,0.0,0.0,100.0,0.0,0.0,0.0,0.0,2519.4444444444443,1973.1,3911.3333333333335,3764.8,307.2063333333333,308.62725,315.17475,315.53,21.722666666666665,20.408,21.730888888888888,21.3243,314.999998,314.999998,324.999988,324.999988,99.55907142857143,99.50563333333334,99.55952857142857,99.5436,-0.06433333333333313,-0.1296666666666666,-0.21566666666666667,0.0031666666666666666,-0.06333333333333258,-0.060000000000002274,1.426,1.7525,36.766,28.549666666666667,36.818,34.277,55.937,32.7625,57.1535,50.98833333333333,53.747,32.082499999999996,55.811,49.404333333333334,52.805,31.7245,55.726,48.858666666666664,0.040000000000000036,-0.10549999999999993,0.10930000000000001,0.105885,0.0,205.24,205.11,202.5,202.1,0.0,0.0
3,0.0,0.0,0.0,1.0,1.0,0.0,0.0,1.0,0.0,100.0,1.0,1.1856,26.0,0.0,0.0,0.0,59.999996,0.0,26.0,26.0,26.0,26.0,-0.12222222222222223,0.3405,-0.026225000000000002,297.729,-2.7705,-2.8013,-1.5278,-1.5989,-265.89,216.215,190.93475,0.0,0.0,0.0,0.0,0.0073,-5.498166666666667,-5.498166666666667,-0.3034,0.533,-0.004555555555555646,-0.45299999999999985,65.66,-0.0804,0.04271428571428572,1.17,100.0,1.0,1.0,202.57666666666665,0.0,0.0,0.0,0.0,0.0,0.0,0.0,8586.5,0.0,55.0,5.0,236.34,1.0,0.0,0.0,0.0,0.0,0.0,0.0,0.0,0.1529999999999987,0.1529999999999987,0.0,0.0,1.0,55.0,616.79921,10000.0,85.000001,85.000001,85.000001,85.000001,395.0,0.0,0.0,0.0,1.0,166.665,63.995,63.995,47.226,47.226,34.0,-19.522,13.386666666666667,-34.86,24.66,0.0,1783.013,0.870000000000001,100.0,19.758,19.1395,43.228,42.414,0.0,0.0,100.0,0.0,0.0,0.0,0.0,2132.333333333333,2033.7,4331.333333333333,4214.4,308.416,308.25075,314.2775,314.399,21.730888888888888,20.4114,21.740222222222222,21.3325,314.999998,314.999998,324.999988,324.999988,99.55907142857143,99.50563333333334,99.55965714285715,99.54372857142857,-0.07133333333333325,-0.1346666666666667,-0.20133333333333334,0.015833333333333335,-0.021666666666668277,-0.03833333333332689,1.5003333333333333,1.5405,36.818,28.571333333333335,36.876000000000005,34.328,55.911,32.79,57.196,51.04833333333333,53.724000000000004,32.108000000000004,55.8505,49.462,52.781,31.7485,55.763,48.915,0.03249999999999997,-0.09349999999999992,0.09997,0.11357,0.0,205.74,205.65,202.57666666666665,202.57666666666665,0.0,0.0
4,0.0,0.0,0.0,1.0,1.0,0.0,0.0,1.0,0.0,100.0,1.0,1.1856,26.0,0.0,0.0,0.0,59.999996,0.0,26.0,26.0,26.0,26.0,-0.13433333333333333,0.3278000000000001,0.0063,297.546,-2.79135,-2.8504,-1.5485,-1.6058,-262.54,216.2025,190.91475,0.0,0.0,0.0,0.0,0.009233333333333333,-5.498166666666667,-5.498166666666667,-0.3271,-0.7553333333333334,-0.0682222222222224,-0.855,65.822,-0.082,0.01355714285714286,1.0700000000000003,100.0,1.0,1.0,203.08333333333331,0.0,0.0,0.0,0.0,0.0,0.0,0.0,8608.0,0.0,55.0,5.0,236.92333333333335,0.0,0.0,0.0,0.0,0.0,0.0,0.0,0.0,0.20400000000000063,0.20400000000000063,0.0,0.0,0.0,55.0,616.79921,10000.0,85.000001,85.000001,85.000001,85.000001,395.0,0.0,0.0,0.0,1.0,333.33500000000004,63.553,63.553,47.058,47.058,34.0,-22.664,14.954999999999998,-33.85333333333333,23.009999999999998,0.0,1782.961,0.9150000000000009,100.0,19.701,18.848,43.894999999999996,42.684,0.0,0.0,100.0,0.0,0.0,0.0,0.0,2377.777777777778,2209.1,4262.333333333333,3894.0,307.6603333333333,307.86075,314.31525,315.123,21.739444444444445,20.415,21.750333333333334,21.3413,314.999998,314.999998,324.999988,324.999988,99.55908571428571,99.50565,99.5598,99.54385714285715,-0.08199999999999985,-0.1319999999999999,-0.18583333333333335,0.02416666666666667,-0.05666666666667197,-0.046666666666666856,1.5086666666666666,1.5310000000000001,36.872,28.594,36.94,34.382999999999996,55.882999999999996,32.8195,57.2445,51.11233333333333,53.697,32.1345,55.8965,49.522999999999996,52.754999999999995,31.774,55.8065,48.974333333333334,0.04699999999999993,-0.09450000000000003,0.106065,0.10343500000000001,0.0,206.19,206.10000000000002,203.08333333333331,203.08333333333331,0.0,0.0
5,0.0,0.0,0.0,1.0,1.0,0.0,0.0,1.0,0.0,100.0,1.0,1.1856,26.0,0.0,0.0,0.0,59.999996,0.0,26.0,26.0,26.0,26.0,-0.12366666666666667,0.32820000000000005,-0.016375,297.821,-2.7931,-2.8859,-1.5213999999999999,-1.6037,-259.18,216.185,190.89475,0.0,0.0,0.0,0.0,0.0112,-5.498166666666667,-5.498166666666667,-0.3178,0.4136666666666667,-0.08522222222222231,-0.2320000000000002,65.982,-0.0864,0.0318,1.1679999999999993,100.0,1.0,1.0,203.59,0.0,0.0,0.0,0.0,0.0,0.0,0.0,8629.4,0.0,55.0,5.0,237.50333333333333,1.0,0.0,0.0,0.0,0.0,0.0,0.0,0.0,0.254999999999999,0.254999999999999,0.0,0.0,1.0,55.0,616.79921,10000.0,85.000001,85.000001,85.000001,85.000001,395.0,0.0,0.0,0.0,1.0,333.33500000000004,64.194,64.194,47.592,47.592,34.0,-22.02,13.134999999999998,-34.983333333333334,23.05,0.0,1782.909,0.6600000000000001,100.0,19.6245,18.6695,43.734,42.424,0.0,0.0,100.0,0.0,0.0,0.0,0.0,2360.8888888888887,1923.8,4282.555555555556,4111.3,307.757,308.64375,314.426,314.60925,21.748444444444445,20.4187,21.760333333333335,21.349899999999998,314.999998,314.999998,324.999988,324.999988,99.55908571428571,99.50565,99.55994285714286,99.544,-0.06766666666666676,-0.1266666666666667,-0.21266666666666667,-0.0035,-0.07166666666666544,-0.06666666666666998,1.4746666666666668,1.536,36.928,28.616666666666667,37.001999999999995,34.4365,55.858999999999995,32.848,57.292500000000004,51.172666666666665,53.675,32.161,55.941,49.580666666666666,52.732,31.799,55.848,49.03066666666666,0.019000000000000128,-0.07899999999999996,0.11009000000000001,0.10565500000000001,0.0,206.73000000000002,206.625,203.59,203.59,0.0,0.0
6,0.0,0.0,0.0,1.0,1.0,0.0,0.0,1.0,0.0,100.0,1.0,1.1856,26.0,0.0,0.0,0.0,59.999996,0.0,26.0,26.0,26.0,26.0,-0.10755555555555556,0.3197000000000001,-0.015925,297.836,-2.76375,-2.8874,-1.5649000000000002,-1.6002,-256.01,216.16500000000002,190.87575,0.0,0.0,0.0,0.0,0.013033333333333334,-5.498166666666667,-5.498166666666667,-0.3106,0.155,-0.06788888888888867,-0.5150000000000001,66.133,-0.085,0.04031428571428572,0.8979999999999997,100.0,1.0,1.0,204.05666666666667,0.0,0.0,0.0,0.0,0.0,0.0,0.0,8649.3,0.0,55.0,5.0,238.04666666666668,0.0,0.0,0.0,0.0,0.0,0.0,0.0,0.0,0.3030000000000008,0.3030000000000008,0.0,0.0,0.0,55.0,616.79921,10000.0,85.000001,85.000001,85.000001,85.000001,395.0,0.0,0.0,0.0,1.0,333.33500000000004,64.163,64.163,47.47,47.47,34.0,-21.945999999999998,14.434999999999999,-34.36,23.012500000000003,0.0,1782.862,0.2599999999999998,100.0,19.2515,18.487,43.737,42.6,0.0,0.0,100.0,0.0,0.0,0.0,0.0,2396.0,2057.8,4222.666666666667,4055.9,307.672,308.1615,314.5695,314.75225,21.756777777777778,20.4221,21.769777777777776,21.3582,314.999998,314.999998,324.999988,324.999988,99.55908571428571,99.50566666666667,99.56007142857143,99.54412857142857,-0.058666666666666645,-0.1206666666666667,-0.20266666666666666,0.0041666666666666675,-0.086666666666666,-0.05833333333333002,1.501,1.537,36.980000000000004,28.637999999999998,37.061,34.4885,55.834,32.8735,57.337,51.233000000000004,53.652,32.1845,55.983000000000004,49.638333333333335,52.709,31.8215,55.8875,49.087,0.0024999999999999467,-0.05400000000000005,0.09942000000000001,0.10444500000000001,0.0,207.19,207.09,204.05666666666667,204.05666666666667,0.0,0.0
7,0.0,0.0,0.0,1.0,1.0,0.0,0.0,1.0,0.0,100.0,1.0,1.1856,26.0,0.0,0.0,0.0,59.999996,0.0,26.0,26.0,26.0,26.0,-0.09833333333333333,0.31489999999999996,0.0437,297.562,-2.7302,-2.8528000000000002,-1.5199,-1.5913,-252.63,216.14249999999998,190.855375,0.0,0.0,0.0,0.0,0.015000000000000001,-5.498166666666667,-5.498166666666667,-0.3106,-0.008,-0.058222222222222175,1.01,66.293,-0.07350000000000001,0.036642857142857144,0.5140000000000002,100.0,1.0,1.0,204.49,0.0,0.0,0.0,0.0,0.0,0.0,0.0,8667.5,0.0,55.0,5.0,238.62,1.0,0.0,0.0,0.0,0.0,0.0,0.0,0.0,0.3539999999999992,0.3539999999999992,0.0,0.0,1.0,55.0,616.79921,10000.0,85.000001,85.000001,85.000001,85.000001,395.0,0.0,0.0,0.0,1.0,333.33500000000004,63.903999999999996,63.903999999999996,47.409,47.409,34.0,-20.805999999999997,16.78666666666667,-32.27666666666667,25.8375,0.0,1782.811,-0.07000000000000028,100.0,19.412,18.2355,43.913,42.754,0.0,0.0,100.0,0.0,0.0,0.0,0.0,2390.5555555555557,2220.3,4187.0,4217.5,307.4336666666667,307.846,314.531,314.40825,21.765555555555554,20.4258,21.779888888888888,21.367,314.999998,314.999998,324.999988,324.999988,99.5591,99.50568333333334,99.56022857142857,99.54427142857143,-0.01633333333333331,-0.06966666666666677,-0.17583333333333334,0.036833333333333336,-0.054999999999999716,-0.054999999999999716,1.4923333333333333,1.5050000000000001,37.035,28.661,37.123999999999995,34.544,55.808,32.900999999999996,57.384,51.297666666666665,53.626999999999995,32.2095,56.0275,49.7,52.684,31.845,55.929,49.147333333333336,-0.03149999999999997,-0.023500000000000076,0.09518000000000001,0.10696000000000001,0.0,207.655,207.595,204.49,204.49,0.0,0.0
8,0.0,0.0,0.0,1.0,1.0,0.0,0.0,1.0,0.0,100.0,1.0,1.1856,26.0,0.0,0.0,0.0,59.999996,0.0,26.0,26.0,26.0,26.0,-0.04777777777777778,0.31930000000000014,-0.0269,297.821,-2.81815,-2.8591,-1.5038,-1.5741,-249.25,216.1175,190.834875,0.0,0.0,0.0,0.0,0.016966666666666668,-5.498166666666667,-5.498166666666667,-0.3099,-0.406,-0.04266666666666685,-0.3919999999999999,66.452,-0.057300000000000004,0.045142857142857144,0.0600000000000005,100.0,1.0,1.0,204.91666666666669,0.0,0.0,0.0,0.0,0.0,0.0,0.0,8685.7,0.0,55.0,5.0,239.19333333333333,0.0,0.0,0.0,0.0,0.0,0.0,0.0,0.0,0.40500000000000114,0.40500000000000114,0.0,0.0,0.0,55.0,616.79921,10000.0,85.000001,85.000001,85.000001,85.000001,395.0,0.0,0.0,0.0,1.0,333.33500000000004,64.819,64.819,46.692,46.692,34.0,-18.216,15.831666666666667,-32.24333333333333,26.445,0.0,1782.76,-0.25,100.0,18.926000000000002,18.3465,43.864000000000004,42.962,0.0,0.0,100.0,0.0,0.0,0.0,0.0,2142.8888888888887,2055.9,4334.777777777777,4241.6,308.41633333333334,308.1875,314.24775,314.27725,21.77411111111111,20.4294,21.79,21.375799999999998,314.999998,314.999998,324.999988,324.999988,99.5591,99.50568333333334,99.56037142857143,99.54441428571428,-0.005666666666666709,-0.05899999999999994,-0.15466666666666665,0.0455,-0.046666666666666856,-0.04333333333332945,1.479,1.4785,37.088,28.683999999999997,37.187,34.599000000000004,55.778,32.9265,57.4315,51.361000000000004,53.599000000000004,32.233000000000004,56.0715,49.760666666666665,52.656,31.8675,55.9705,49.20666666666666,-0.04899999999999993,-0.001000000000000112,0.09731500000000001,0.10300500000000001,0.0,208.125,208.10000000000002,204.91666666666669,204.91666666666669,0.0,0.0
9,0.0,0.0,0.0,1.0,1.0,0.0,0.0,1.0,0.0,100.0,1.0,1.1856,26.0,0.0,0.0,0.0,59.999996,0.0,26.0,26.0,26.0,26.0,-0.02366666666666667,0.3175000000000001,-0.019475,297.638,-2.80595,-2.8649,-1.5605,-1.5768,-246.05,216.0925,190.815125,0.0,0.0,0.0,0.0,0.018833333333333334,-5.498166666666667,-5.498166666666667,-0.3175,0.594,-0.04488888888888898,-0.508,66.598,-0.0369,0.04435714285714286,-0.047999999999999154,100.0,1.0,1.0,205.50666666666666,0.0,0.0,0.0,0.0,0.0,0.0,0.0,8710.6,0.0,55.0,5.0,239.72,1.0,0.0,0.0,0.0,0.0,0.0,0.0,0.0,0.4529999999999994,0.4529999999999994,0.0,0.0,1.0,55.0,616.79921,10000.0,85.000001,85.000001,85.000001,85.000001,395.0,0.0,0.0,0.0,1.0,166.665,63.751,63.751,47.791,47.791,34.0,-21.364,17.58,-29.849999999999998,26.0175,0.0,1782.713,-0.42499999999999893,100.0,19.1485,18.6435,43.538,42.941,0.0,0.0,100.0,0.0,0.0,0.0,0.0,2537.0,2159.6,4106.888888888889,4104.1,307.2463333333333,307.81175,314.86175,314.64775,21.782333333333334,20.433,21.799333333333333,21.3841,314.999998,314.999998,324.999988,324.999988,99.5591,99.50568333333334,99.5605,99.54454285714286,0.01866666666666683,-0.03200000000000003,-0.1395,0.06133333333333334,-0.06333333333333258,-0.05833333333333002,1.54,1.5365,37.14,28.706666666666663,37.245999999999995,34.6505,55.751999999999995,32.9525,57.4725,51.419333333333334,53.575,32.2565,56.11,49.81666666666666,52.632,31.89,56.006,49.26133333333333,-0.0625,0.0044999999999999485,0.10852,0.10108,0.0,208.585,208.575,205.50666666666666,205.50666666666666,0.0,0.0
10,0.0,0.0,0.0,1.0,1.0,0.0,0.0,1.0,0.0,100.0,1.0,1.1856,26.0,0.0,0.0,0.0,59.999996,0.0,26.0,26.0,26.0,26.0,-0.0067777777777777775,0.3144,0.054575000000000005,297.455,-2.77195,-2.855,-1.5337,-1.5706,-242.65,216.065,190.7945,0.0,0.0,0.0,0.0,0.020800000000000003,-5.498166666666667,-5.498166666666667,-0.28850000000000003,-0.329,-0.006444444444444475,1.815,66.759,-0.0175,0.06274285714285714,-0.3639999999999999,100.0,1.0,1.0,205.7866666666667,0.0,0.0,0.0,0.0,0.0,0.0,0.0,8722.5,0.0,55.0,5.0,240.29666666666668,0.0,0.0,0.0,0.0,0.0,0.0,1.0,0.0,0.5040000000000013,0.5040000000000013,0.0,0.0,0.0,55.0,616.79921,10000.0,85.000001,85.000001,85.000001,85.000001,395.0,0.0,0.0,0.0,1.0,166.665,64.835,64.835,46.265,46.265,34.0,-15.322,17.326666666666668,-31.31,31.16,0.0,1782.662,-0.6199999999999992,100.0,19.164,18.3905,44.032,43.545,0.0,0.0,100.0,0.0,0.0,0.0,0.0,2000.4444444444443,2106.3,4400.333333333333,4442.7,308.65766666666667,308.21475,313.98575,313.83325,21.791,20.436799999999998,21.809444444444445,21.3931,314.999998,314.999998,324.999988,324.999988,99.55911428571429,99.50568333333334,99.56064285714285,99.5447,0.05433333333333357,-0.0086666666666666,-0.11416666666666668,0.10083333333333333,-0.045000000000001705,-0.061666666666667425,1.4503333333333333,1.445,37.194,28.73,37.309,34.707,55.724000000000004,32.977000000000004,57.5205,51.486333333333334,53.549,32.2795,56.155,49.881,52.605999999999995,31.912,56.0485,49.324,-0.07650000000000001,0.022499999999999964,0.10945500000000001,0.11089500000000001,0.0,209.06,209.07,205.7866666666667,205.7866666666667,0.0,0.0
11,0.0,0.0,0.0,1.0,1.0,0.0,0.0,1.0,0.0,100.0,1.0,1.1856,26.0,0.0,0.0,0.0,59.999996,0.0,26.0,26.0,26.0,26.0,0.047,0.29590000000000005,-0.109725,298.019,-2.826,-2.8247,-1.5582,-1.5538,-239.24,216.0375,190.773875,0.0,0.0,0.0,0.0,0.022600000000000002,-5.498166666666667,-5.498166666666667,-0.3322,-0.35733333333333334,0.02122222222222203,-0.4889999999999999,66.911,0.00025,0.028642857142857147,-0.5199999999999996,100.0,1.0,1.0,206.53333333333333,0.0,0.0,0.0,0.0,0.0,0.0,0.0,8754.2,0.0,55.0,5.0,240.8466666666667,1.0,0.0,0.0,0.0,0.0,0.0,1.0,0.0,0.5549999999999997,0.5549999999999997,0.0,0.0,1.0,55.0,616.79921,10000.0,85.000001,85.000001,85.000001,85.000001,395.0,0.0,0.0,0.0,1.0,166.665,64.24,64.24,47.882,47.882,34.0,-17.445999999999998,18.99666666666667,-25.19,27.137500000000003,0.0,1782.612,-0.5800000000000001,100.0,18.7855,18.7435,43.556,43.612,0.0,0.0,100.0,0.0,0.0,0.0,0.0,2232.0,2235.4,3797.8888888888887,3955.7,308.16066666666666,307.595,315.575,314.9945,21.799444444444443,20.4406,21.819444444444443,21.402,314.999998,314.999998,324.999988,324.999988,99.55911428571429,99.5057,99.56078571428571,99.54484285714285,0.056333333333333346,0.0030000000000001137,-0.10033333333333333,0.1155,-0.05666666666667197,-0.051666666666669414,1.5859999999999999,1.5715000000000001,37.245999999999995,28.753999999999998,37.370999999999995,34.7625,55.694,33.003,57.563,51.54966666666667,53.521,32.303,56.195,49.94133333333333,52.578,31.9345,56.085499999999996,49.38333333333333,-0.07099999999999995,0.02400000000000002,0.10165500000000001,0.10128500000000001,0.0,209.505,209.53,206.53333333333333,206.53333333333333,0.0,0.0
12,0.0,0.0,0.0,1.0,1.0,0.0,0.0,1.0,0.0,100.0,1.0,1.1856,26.0,0.0,0.0,0.0,59.999996,0.0,26.0,26.0,26.0,26.0,0.04066666666666666,0.3176000000000001,0.019100000000000002,297.424,-2.8795,-2.8203,-1.5582,-1.5751,-235.82999999999998,216.01,190.751875,0.0,0.0,0.0,0.0,0.025466666666666665,-5.498166666666667,-5.498166666666667,-0.3173,0.3323333333333333,0.011444444444444368,0.7429999999999999,67.069,0.0194,0.0614,-0.6859999999999999,100.0,1.0,1.0,206.81333333333333,0.0,0.0,0.0,0.0,0.0,0.0,0.0,8766.0,0.0,55.0,5.0,241.41666666666666,0.0,0.0,0.0,0.0,0.0,0.0,1.0,0.0,0.6059999999999981,0.6059999999999981,0.0,0.0,0.0,55.0,616.79921,10000.0,85.000001,85.000001,85.000001,85.000001,395.0,0.0,0.0,0.0,1.0,166.665,64.178,64.178,46.555,46.555,34.0,-17.534,19.69833333333333,-27.793333333333333,32.43,0.0,1782.56,-0.054999999999999716,100.0,18.817999999999998,18.8025,43.493,43.468,0.0,0.0,100.0,0.0,0.0,0.0,0.0,2184.777777777778,2345.2,4287.0,4337.1,308.18033333333335,307.44675,314.3475,314.13375,21.80788888888889,20.4446,21.829444444444444,21.410899999999998,314.999998,314.999998,324.999988,324.999988,99.55911428571429,99.5057,99.56092857142858,99.54497142857143,0.05433333333333357,-0.0009999999999998899,-0.067,0.14216666666666666,-0.045000000000001705,-0.05666666666667197,1.5006666666666666,1.4725,37.299,28.778666666666666,37.434,34.818,55.666,33.031,57.608000000000004,51.61333333333333,53.494,32.329,56.237,50.00233333333333,52.551,31.959,56.1245,49.443,-0.04349999999999998,-0.00649999999999995,0.10681500000000001,0.10985,0.0,210.01,210.065,206.81333333333333,206.81333333333333,0.0,0.0
13,0.0,0.0,0.0,1.0,1.0,0.0,0.0,1.0,0.0,100.0,1.0,1.1856,26.0,0.0,0.0,0.0,59.999996,0.0,26.0,26.0,26.0,26.0,0.06266666666666666,0.3118000000000001,0.050925000000000005,297.104,-2.8518,-2.8200000000000003,-1.6289,-1.5632000000000001,-232.6,215.9875,190.7315,0.0,0.0,0.0,0.0,0.026633333333333332,-5.498166666666667,-5.498166666666667,-0.3079,0.028,0.014111111111110963,1.119,67.21600000000001,0.0258,0.05688571428571429,-0.7759999999999998,100.0,1.0,1.0,207.22,0.0,0.0,0.0,0.0,0.0,0.0,0.0,8783.3,0.0,55.0,5.0,241.94333333333333,1.0,0.0,0.0,0.0,0.0,0.0,1.0,0.0,0.6539999999999999,0.6539999999999999,0.0,0.0,1.0,55.0,616.79921,10000.0,85.000001,85.000001,85.000001,85.000001,395.0,0.0,0.0,0.0,1.0,166.665,64.026,64.026,46.509,46.509,34.0,-15.497999999999998,21.23166666666667,-28.973333333333333,33.587500000000006,0.0,1782.513,-1.0700000000000003,100.0,19.023,18.91,43.738,43.934,0.0,0.0,100.0,0.0,0.0,0.0,0.0,2200.333333333333,2316.0,4283.444444444444,4457.5,308.095,307.52975,314.35425,313.83525,21.81588888888889,20.4483,21.83888888888889,21.4194,314.999998,314.999998,324.999988,324.999988,99.55912857142857,99.5057,99.56107142857142,99.54511428571429,0.12733333333333352,0.06533333333333369,-0.06933333333333333,0.1445,-0.045000000000001705,-0.060000000000002274,1.4926666666666666,1.453,37.349000000000004,28.802,37.492999999999995,34.8715,55.641,33.058,57.650999999999996,51.67633333333333,53.471000000000004,32.3535,56.2775,50.063,52.528,31.983,56.162,49.50233333333333,-0.119,0.05999999999999994,0.10977500000000001,0.10634500000000001,0.0,210.465,210.515,207.22,207.22,0.0,0.0
14,0.0,0.0,0.0,1.0,1.0,0.0,0.0,1.0,0.0,100.0,1.0,1.1856,26.0,0.0,0.0,0.0,59.999996,0.0,26.0,26.0,26.0,26.0,0.09422222222222223,0.31130000000000013,-0.0199,297.409,-2.8604,-2.7585,-1.6387,-1.5351,-229.17000000000002,215.9625,190.710375,0.0,0.0,0.0,0.0,0.028633333333333334,-5.498166666666667,-5.498166666666667,-0.31570000000000004,-0.167,0.04055555555555568,0.0020000000000000018,67.369,0.0381,0.045385714285714286,-0.9059999999999997,100.0,1.0,1.0,207.7733333333333,0.0,0.0,0.0,0.0,0.0,0.0,0.0,8806.8,0.0,55.0,5.0,242.49666666666667,0.0,0.0,0.0,0.0,0.0,0.0,1.0,0.0,0.7049999999999983,0.7049999999999983,0.0,0.0,0.0,55.0,616.79921,10000.0,85.000001,85.000001,85.000001,85.000001,395.0,0.0,0.0,0.0,1.0,166.665,64.224,64.224,46.753,46.753,34.0,-15.469999999999999,20.556666666666665,-27.213333333333335,31.767500000000002,0.0,1782.461,-1.1899999999999995,100.0,18.6785,19.0345,43.6,44.264,0.0,0.0,100.0,0.0,0.0,0.0,0.0,2184.5555555555557,2273.7,4142.111111111111,4250.1,308.3156666666667,307.50475,314.77075,314.26725,21.824333333333335,20.4522,21.849,21.4284,314.999998,314.999998,324.999988,324.999988,99.55914285714286,99.5057,99.56121428571429,99.54525714285714,0.11900000000000022,0.06199999999999983,-0.058833333333333335,0.154,-0.06666666666666998,-0.046666666666666856,1.516,1.4885,37.402,28.826333333333334,37.556,34.928,55.614999999999995,33.0865,57.695499999999996,51.742,53.447,32.379999999999995,56.3185,50.126,52.504000000000005,32.007999999999996,56.2005,49.564,-0.119,0.06499999999999995,0.10409,0.109075,0.0,210.93,210.97500000000002,207.7733333333333,207.7733333333333,0.0,0.0
15,0.0,0.0,0.0,1.0,1.0,0.0,0.0,1.0,0.0,100.0,1.0,1.1856,26.0,0.0,0.0,0.0,59.999996,0.0,26.0,26.0,26.0,26.0,0.10733333333333334,0.31289999999999996,-0.039075,297.424,-2.8344,-2.7157999999999998,-1.6369,-1.4754,-225.94,215.9425,190.690125,0.0,0.0,0.0,0.0,0.030500000000000003,-5.498166666666667,-5.498166666666667,-0.30810000000000004,0.3276666666666667,0.07211111111111101,-0.04499999999999993,67.514,0.050300000000000004,0.06295714285714286,-1.104,100.0,1.0,1.0,208.20333333333332,0.0,0.0,0.0,0.0,0.0,0.0,0.0,8825.0,0.0,55.0,5.0,243.01666666666665,1.0,0.0,0.0,0.0,0.0,0.0,1.0,0.0,0.7530000000000001,0.7530000000000001,0.0,0.0,1.0,55.0,616.79921,10000.0,85.000001,85.000001,85.000001,85.000001,395.0,0.0,0.0,0.0,1.0,166.665,64.377,64.377,46.86,46.86,34.0,-14.004000000000001,20.82,-26.473333333333333,32.8775,0.0,1782.413,-1.295,100.0,18.653,19.0695,43.34,44.322,0.0,0.0,100.0,0.0,0.0,0.0,0.0,2063.4444444444443,2270.2,4110.111111111111,4405.9,308.61266666666666,307.4955,314.85425,313.92275,21.83211111111111,20.456,21.858333333333334,21.4369,314.999998,314.999998,324.999988,324.999988,99.55915714285715,99.50571666666667,99.56134285714286,99.5454,0.13333333333333375,0.0813333333333337,-0.050166666666666665,0.1645,-0.06833333333332803,-0.051666666666669414,1.5203333333333333,1.477,37.451,28.85,37.614000000000004,34.9805,55.591,33.115,57.7355,51.804,53.425,32.406,56.356,50.18533333333333,52.480999999999995,32.033,56.235,49.62233333333333,-0.129,0.07550000000000001,0.10512500000000001,0.10951500000000002,0.0,211.385,211.45,208.20333333333332,208.20333333333332,0.0,0.0
16,0.0,0.0,0.0,1.0,1.0,0.0,0.0,1.0,0.0,100.0,1.0,1.1856,26.0,0.0,0.0,0.0,59.999996,0.0,26.0,26.0,26.0,26.0,0.11488888888888889,0.30510000000000015,-0.008925,297.47,-2.92555,-2.7551,-1.6106,-1.4749,-222.49,215.925,190.668125,0.0,0.0,0.0,0.0,0.03253333333333333,-5.498166666666667,-5.498166666666667,-0.3235,-0.7436666666666667,0.06355555555555559,0.19199999999999995,67.667,0.06695000000000001,0.05431428571428571,-1.3479999999999999,100.0,1.0,1.0,208.65666666666667,0.0,0.0,0.0,0.0,0.0,0.0,0.0,8844.1,0.0,55.0,5.0,243.57,0.0,0.0,0.0,0.0,0.0,0.0,1.0,0.0,0.8039999999999985,0.8039999999999985,0.0,0.0,0.0,55.0,616.79921,10000.0,85.000001,85.000001,85.000001,85.000001,395.0,0.0,0.0,0.0,1.0,333.33500000000004,64.499,64.499,46.387,46.387,34.0,-14.026,22.471666666666668,-24.616666666666664,33.735,0.0,1782.362,-1.17,100.0,18.335,18.979,43.709,44.425,0.0,0.0,100.0,0.0,0.0,0.0,0.0,2039.7777777777778,2404.1,4068.5555555555557,4301.9,308.725,307.25875,314.8765,314.204,21.840222222222224,20.46,21.868333333333332,21.445999999999998,314.999998,314.999998,324.999988,324.999988,99.55917142857143,99.50571666666667,99.56148571428571,99.54554285714286,0.14333333333333353,0.08933333333333371,-0.025666666666666667,0.198,-0.045000000000001705,-0.07000000000000028,1.5213333333333334,1.468,37.501000000000005,28.875333333333334,37.677,35.0375,55.562,33.146,57.7805,51.87,53.397,32.4345,56.397999999999996,50.249,52.454,32.0605,56.274,49.684666666666665,-0.11749999999999994,0.06399999999999995,0.11407,0.10817,0.0,211.8,211.905,208.65666666666667,208.65666666666667,0.0,0.0
17,0.0,0.0,0.0,1.0,1.0,0.0,0.0,1.0,0.0,100.0,1.0,1.1856,26.0,0.0,0.0,0.0,59.999996,0.0,26.0,26.0,26.0,26.0,0.12522222222222223,0.30269999999999997,-0.020800000000000003,297.318,-2.89175,-2.7051,-1.649,-1.4961,-219.03,215.9075,190.64575,0.0,0.0,0.0,0.0,0.03453333333333333,-5.498166666666667,-5.498166666666667,-0.3156,0.5543333333333333,0.04022222222222216,-0.7640000000000002,67.818,0.0753,0.0712,-1.12,100.0,1.0,1.0,209.13666666666666,0.0,0.0,0.0,0.0,0.0,0.0,0.0,8864.5,0.0,55.0,5.0,244.11333333333334,1.0,0.0,0.0,0.0,0.0,0.0,1.0,0.0,0.8550000000000004,0.8550000000000004,0.0,0.0,1.0,55.0,616.79921,10000.0,85.000001,85.000001,85.000001,85.000001,395.0,0.0,0.0,0.0,1.0,333.33500000000004,64.316,64.316,46.616,46.616,34.0,-14.940000000000001,20.14666666666667,-26.66,33.7625,0.0,1782.309,-1.205,100.0,18.592,19.3345,43.34,44.45,0.0,0.0,100.0,0.0,0.0,0.0,0.0,2212.8888888888887,2191.1,4292.0,4310.0,308.30266666666665,307.79725,314.48425,314.17925,21.848555555555556,20.464199999999998,21.878333333333334,21.455,314.999998,314.999998,324.999988,324.999988,99.55917142857143,99.50573333333334,99.56162857142857,99.54568571428571,0.1499999999999999,0.09299999999999997,-0.025500000000000002,0.19116666666666665,-0.061666666666667425,-0.05333333333332746,1.516,1.469,37.553,28.901,37.739000000000004,35.0935,55.538,33.1785,57.823,51.935,53.373999999999995,32.4645,56.4375,50.31133333333334,52.431,32.0895,56.3105,49.745666666666665,-0.11849999999999994,0.0695,0.111005,0.10257000000000001,0.0,212.325,212.4,209.13666666666666,209.13666666666666,0.0,0.0
18,0.0,0.0,0.0,1.0,1.0,0.0,0.0,1.0,0.0,100.0,1.0,1.1856,26.0,0.0,0.0,0.0,59.999996,0.0,26.0,26.0,26.0,26.0,0.13922222222222222,0.29800000000000004,-0.057550000000000004,297.302,-2.92245,-2.6851000000000003,-1.6632,-1.443,-215.76999999999998,215.8975,190.624625,0.0,0.0,0.0,0.0,0.03643333333333333,-5.498166666666667,-5.498166666666667,-0.32030000000000003,-0.5523333333333333,0.06355555555555559,-0.02400000000000002,67.961,0.07585,0.062328571428571435,-1.1639999999999997,100.0,1.0,1.0,209.55,0.0,0.0,0.0,0.0,0.0,0.0,0.0,8882.0,0.0,55.0,5.0,244.63,0.0,0.0,0.0,0.0,0.0,0.0,1.0,0.0,0.9029999999999987,0.9029999999999987,0.0,0.0,0.0,55.0,616.79921,10000.0,85.000001,85.000001,85.000001,85.000001,395.0,0.0,0.0,0.0,1.0,333.33500000000004,64.407,64.407,46.356,46.356,34.0,-13.852,22.006666666666668,-25.59,32.697500000000005,0.0,1782.262,-1.5749999999999993,100.0,18.3535,19.12,43.709,44.897,0.0,0.0,100.0,0.0,0.0,0.0,0.0,2147.333333333333,2332.5,4156.555555555556,4273.0,308.53833333333336,307.43825,314.76625,314.26275,21.85622222222222,20.4679,21.887777777777778,21.4636,314.999998,314.999998,324.999988,324.999988,99.55918571428572,99.50573333333334,99.56175714285715,99.54582857142857,0.17533333333333356,0.11399999999999988,-0.02033333333333333,0.192,-0.06499999999999773,-0.045000000000001705,1.5266666666666666,1.475,37.601,28.924333333333333,37.799,35.1475,55.513999999999996,33.208,57.8655,51.998333333333335,53.352000000000004,32.4915,56.4775,50.37266666666667,52.408,32.115,56.3475,49.80566666666667,-0.14600000000000002,0.09299999999999997,0.10670500000000001,0.10933000000000001,0.0,212.75,212.79000000000002,209.55,209.55,0.0,0.0
19,0.0,0.0,0.0,1.0,1.0,0.0,0.0,1.0,0.0,100.0,1.0,1.1856,26.0,0.0,0.0,0.0,59.999996,0.0,26.0,26.0,26.0,26.0,0.13922222222222222,0.3143,0.023575000000000002,296.707,-2.89385,-2.6706000000000003,-1.6815,-1.4242,-212.3,215.8875,190.602,0.0,0.0,0.0,0.0,0.03843333333333333,-5.498166666666667,-5.498166666666667,-0.31620000000000004,0.8703333333333334,0.0798888888888889,0.94,68.111,0.08220000000000001,0.06987142857142857,-1.5620000000000003,100.0,1.0,1.0,210.0233333333333,0.0,0.0,0.0,0.0,0.0,0.0,0.0,8902.2,0.0,55.0,5.0,245.16666666666666,1.0,0.0,0.0,0.0,0.0,0.0,1.0,0.0,0.9540000000000006,0.9540000000000006,0.0,0.0,1.0,55.0,616.79921,10000.0,85.000001,85.000001,85.000001,85.000001,395.0,0.0,0.0,0.0,1.0,333.33500000000004,63.461,63.461,46.28,46.28,34.0,-13.735999999999997,24.806666666666665,-25.3,35.2775,0.0,1782.21,-1.6500000000000004,100.0,18.959,19.5015,43.503,44.835,0.0,0.0,100.0,0.0,0.0,0.0,0.0,2184.222222222222,2547.1,4212.0,4500.4,308.13233333333335,306.78725,314.649,313.84025,21.864555555555555,20.4722,21.897666666666666,21.4727,314.999998,314.999998,324.999988,324.999988,99.5592,99.50575,99.5619,99.54598571428572,0.19333333333333336,0.13166666666666638,-0.003,0.20916666666666667,-0.041666666666671404,-0.07333333333333059,1.5306666666666666,1.4785,37.653,28.951,37.861000000000004,35.204,55.491,33.2435,57.907,52.06466666666667,53.33,32.5245,56.516,50.43633333333334,52.387,32.1465,56.382999999999996,49.86833333333333,-0.16049999999999998,0.09550000000000003,0.112375,0.11017500000000001,0.0,213.215,213.32,210.0233333333333,210.0233333333333,0.0,0.0
20,0.0,0.0,0.0,1.0,1.0,0.0,0.0,1.0,0.0,100.0,1.0,1.1856,26.0,0.0,0.0,0.0,59.999996,0.0,26.0,26.0,26.0,26.0,0.13644444444444445,0.3147,0.045475,296.906,-2.94455,-2.7321,-1.6076000000000001,-1.5474,-208.62,215.8825,190.578375,0.0,0.0,0.0,0.0,0.04056666666666667,-5.498166666666667,-5.498166666666667,-0.3151,-1.2103333333333333,0.07633333333333314,0.10299999999999998,68.272,0.09455000000000001,0.06184285714285715,-1.3600000000000003,100.0,1.0,1.0,210.36333333333334,0.0,0.0,0.0,0.0,0.0,0.0,0.0,8916.6,0.0,55.0,5.0,245.75,0.0,0.0,0.0,0.0,0.0,0.0,0.0,0.0,1.0079999999999991,1.0079999999999991,0.0,0.0,0.0,55.0,616.79921,10000.0,85.000001,85.000001,85.000001,85.000001,395.0,0.0,0.0,0.0,1.0,166.665,64.606,64.606,45.41,45.41,34.0,-13.346,21.636666666666667,-24.169999999999998,37.64,0.0,1782.158,-0.41499999999999915,100.0,18.418,19.223,44.161,45.313,0.0,0.0,100.0,0.0,0.0,0.0,0.0,1930.2222222222222,2369.5,4235.0,4488.2,309.06966666666665,307.39,314.41575,313.623,21.873,20.4765,21.908555555555555,21.4825,314.999998,314.999998,324.999988,324.999988,99.55921428571429,99.50576666666667,99.56205714285714,99.54614285714285,0.1386666666666665,0.07833333333333359,0.008833333333333334,0.20866666666666667,-0.054999999999999716,-0.061666666666667425,1.469,1.425,37.706,28.978,37.928,35.2655,55.461,33.277,57.9565,52.138,53.302,32.5555,56.5625,50.507,52.358000000000004,32.1765,56.426,49.937666666666665,-0.07450000000000001,0.022499999999999964,0.10710000000000001,0.099585,0.0,213.685,213.765,210.36333333333334,210.36333333333334,0.0,0.0
21,0.0,0.0,0.0,1.0,1.0,0.0,0.0,1.0,0.0,100.0,1.0,1.1856,26.0,0.0,0.0,0.0,59.999996,0.0,26.0,26.0,26.0,26.0,0.11633333333333333,0.30269999999999997,-0.067625,297.379,-2.8485,-2.7957,-1.6569,-1.5218,-205.55,215.8825,190.558125,0.0,0.0,0.0,0.0,0.04236666666666667,-5.498166666666667,-5.498166666666667,-0.342,0.3936666666666667,0.040888888888888975,-1.217,68.4,0.0858,0.05355714285714286,-0.4639999999999995,100.0,1.0,1.0,211.03,0.0,0.0,0.0,0.0,0.0,0.0,0.0,8944.8,0.0,55.0,5.0,246.20666666666665,1.0,0.0,0.0,0.0,0.0,0.0,0.0,0.0,1.0530000000000008,1.0530000000000008,0.0,0.0,1.0,55.0,616.79921,10000.0,85.000001,85.000001,85.000001,85.000001,395.0,0.0,0.0,0.0,1.0,333.33500000000004,64.056,64.056,46.997,46.997,34.0,-16.714000000000002,19.773333333333333,-24.7,31.5975,0.0,1782.111,0.21000000000000085,100.0,18.63,19.3815,43.533,44.833,0.0,0.0,100.0,0.0,0.0,0.0,0.0,2231.8888888888887,2247.3,4051.222222222222,4065.7,308.14666666666665,307.5045,315.0885,314.79875,21.880222222222223,20.4802,21.91722222222222,21.4904,314.999998,314.999998,324.999988,324.999988,99.55922857142858,99.50576666666667,99.56218571428572,99.54627142857143,0.08899999999999997,0.03000000000000025,-0.0245,0.19566666666666666,-0.04999999999999716,-0.061666666666667425,1.5713333333333335,1.5605,37.751999999999995,29.000999999999998,37.982,35.315,55.437,33.304,57.9915,52.193,53.28,32.58,56.595,50.559666666666665,52.336,32.2,56.456,49.989333333333335,-0.02400000000000002,-0.03550000000000009,0.11139500000000001,0.11048000000000001,0.0,214.125,214.16,211.03,211.03,0.0,0.0
22,0.0,0.0,0.0,1.0,1.0,0.0,0.0,1.0,0.0,100.0,1.0,1.1856,26.0,0.0,0.0,0.0,59.999996,0.0,26.0,26.0,26.0,26.0,0.048888888888888885,0.28570000000000007,0.023700000000000002,296.86,-2.81985,-2.8125999999999998,-1.6367,-1.5256,-201.85,215.8825,190.533,0.0,0.0,0.0,0.0,0.044533333333333334,-5.498166666666667,-5.498166666666667,-0.3161,0.17333333333333334,0.032333333333333325,-0.75,68.561,0.049300000000000004,0.08345714285714285,0.4460000000000006,100.0,1.0,1.0,211.30333333333334,0.0,0.0,0.0,0.0,0.0,0.0,0.0,8956.4,0.0,55.0,5.0,246.78666666666666,0.0,0.0,0.0,0.0,0.0,0.0,0.0,0.0,1.1069999999999993,1.1069999999999993,0.0,0.0,0.0,55.0,616.79921,10000.0,85.000001,85.000001,85.000001,85.000001,395.0,0.0,0.0,0.0,1.0,166.665,64.301,64.301,45.67,45.67,34.0,-16.98,17.618333333333332,-30.403333333333332,32.230000000000004,0.0,1782.059,0.5449999999999999,100.0,18.722,19.286,44.053,44.947,0.0,0.0,100.0,0.0,0.0,0.0,0.0,2127.0,2177.6,4395.0,4400.3,308.442,307.6795,314.2135,313.96875,21.889,20.4844,21.928,21.5001,314.999998,314.999998,324.999988,324.999988,99.55922857142858,99.50576666666667,99.56234285714285,99.54642857142858,0.03933333333333344,-0.030333333333333323,-0.074,0.13866666666666666,-0.05833333333333002,-0.045000000000001705,1.438,1.462,37.806,29.02766666666667,38.05,35.3755,55.407,33.332499999999996,58.04,52.26266666666667,53.251000000000005,32.6065,56.6405,50.626666666666665,52.307,32.2255,56.498,50.055,0.01649999999999996,-0.07150000000000012,0.104715,0.10900000000000001,0.0,214.68,214.62,211.30333333333334,211.30333333333334,0.0,0.0
23,0.0,0.0,0.0,1.0,1.0,0.0,0.0,1.0,0.0,100.0,1.0,1.1856,26.0,0.0,0.0,0.0,59.999996,0.0,26.0,26.0,26.0,26.0,0.0041111111111111105,0.2856000000000001,-0.0178,296.768,-2.8274,-2.7903000000000002,-1.5448,-1.6132,-198.55,215.885,190.510875,0.0,0.0,0.0,0.0,0.04643333333333333,-5.498166666666667,-5.498166666666667,-0.3327,-0.366,0.004888888888888943,-1.4090000000000003,68.699,0.00675,0.05784285714285715,0.9220000000000006,100.0,1.0,1.0,211.7866666666667,0.0,0.0,0.0,0.0,0.0,0.0,0.0,8976.8,0.0,55.0,5.0,247.28666666666666,1.0,0.0,0.0,0.0,0.0,0.0,0.0,0.0,1.1550000000000011,1.1550000000000011,0.0,0.0,1.0,55.0,616.79921,10000.0,85.000001,85.000001,85.000001,85.000001,395.0,0.0,0.0,0.0,1.0,166.665,63.797,63.797,46.326,46.326,34.0,-21.235999999999997,16.71666666666667,-29.35333333333333,29.3325,0.0,1782.011,0.7000000000000011,100.0,18.978,19.1885,44.509,45.092,0.0,0.0,100.0,0.0,0.0,0.0,0.0,2469.222222222222,2175.5,4184.222222222223,4123.0,307.546,307.77725,314.63375,314.5115,21.89677777777778,20.4882,21.937555555555555,21.5087,314.999998,314.999998,324.999988,324.999988,99.55924285714286,99.50576666666667,99.56247142857143,99.54657142857143,0.0033333333333334103,-0.05433333333333312,-0.112,0.1045,-0.061666666666667425,-0.054999999999999716,1.47,1.4895,37.855000000000004,29.051333333333332,38.11,35.4295,55.378,33.3585,58.082499999999996,52.324333333333335,53.224999999999994,32.6305,56.68,50.686,52.281,32.2485,56.535,50.113,0.023500000000000076,-0.07950000000000013,0.10593000000000001,0.11320500000000001,0.0,215.085,215.025,211.7866666666667,211.7866666666667,0.0,0.0
24,0.0,0.0,0.0,1.0,1.0,0.0,0.0,1.0,0.0,100.0,1.0,1.1856,26.0,0.0,0.0,0.0,59.999996,0.0,26.0,26.0,26.0,26.0,-0.057,0.30279999999999996,-0.018850000000000002,297.104,-2.8076,-2.8427,-1.5633,-1.5755,-195.25,215.885,190.4885,0.0,0.0,0.0,0.0,0.04836666666666667,-5.498166666666667,-5.498166666666667,-0.3331,-0.28300000000000003,-0.01100000000000012,-0.44099999999999984,68.839,-0.02815,0.07707142857142857,1.0380000000000003,100.0,1.0,1.0,212.17666666666668,0.0,0.0,0.0,0.0,0.0,0.0,0.0,8993.4,0.0,55.0,5.0,247.78666666666666,0.0,0.0,0.0,0.0,0.0,0.0,0.0,0.0,1.2029999999999994,1.2029999999999994,0.0,0.0,0.0,55.0,616.79921,10000.0,85.000001,85.000001,85.000001,85.000001,395.0,0.0,0.0,0.0,1.0,166.665,64.911,64.911,45.685,45.685,34.0,-18.642,14.156666666666666,-34.79333333333334,26.3475,0.0,1781.963,0.7249999999999996,100.0,18.986,18.7155,44.67,44.731,0.0,0.0,100.0,0.0,0.0,0.0,0.0,2134.1111111111113,1951.2,4538.0,4176.1,308.425,308.53275,313.90525,314.51675,21.904555555555554,20.4918,21.947111111111113,21.5172,314.999998,314.999998,324.999988,324.999988,99.55924285714286,99.50578333333333,99.56262857142858,99.5467,-0.024666666666666615,-0.08666666666666667,-0.15066666666666667,0.05383333333333334,-0.03499999999999659,-0.03833333333332689,1.4536666666666667,1.5005,37.903,29.073666666666668,38.169,35.4825,55.349999999999994,33.3835,58.125,52.382666666666665,53.199,32.6535,56.72,50.742,52.254999999999995,32.269999999999996,56.572,50.16766666666667,0.02849999999999997,-0.08000000000000007,0.107865,0.10554500000000001,0.0,215.535,215.445,212.17666666666668,212.17666666666668,0.0,0.0
25,0.0,0.0,0.0,1.0,1.0,0.0,0.0,1.0,0.0,100.0,1.0,1.1856,26.0,0.0,0.0,0.0,59.999996,0.0,26.0,26.0,26.0,26.0,-0.09611111111111112,0.28280000000000016,-0.08232500000000001,297.18,-2.8746,-2.8475,-1.5721,-1.5894,-191.74,215.8875,190.463375,0.0,0.0,0.0,0.0,0.0504,-5.498166666666667,-5.498166666666667,-0.3673,-0.21066666666666667,-0.01622222222222236,-0.08800000000000008,68.983,-0.05655,0.06675714285714286,1.0440000000000005,100.0,1.0,1.0,212.74,0.0,0.0,0.0,0.0,0.0,0.0,0.0,9017.3,0.0,55.0,5.0,248.31,1.0,0.0,0.0,0.0,0.0,0.0,0.0,0.0,1.2540000000000013,1.2540000000000013,0.0,0.0,1.0,55.0,616.79921,10000.0,85.000001,85.000001,85.000001,85.000001,395.0,0.0,0.0,0.0,1.0,333.33500000000004,64.194,64.194,46.356,46.356,34.0,-21.524,16.666666666666668,-31.423333333333332,25.155,0.0,1781.911,0.7349999999999994,100.0,19.009,18.5715,44.736000000000004,44.269999999999996,0.0,0.0,100.0,0.0,0.0,0.0,0.0,2305.5555555555557,2313.1,4097.0,4084.8,307.956,307.53225,314.874,314.7965,21.912666666666667,20.4957,21.95711111111111,21.5262,314.999998,314.999998,324.999988,324.999988,99.55925714285715,99.50578333333333,99.56277142857142,99.54685714285715,-0.05266666666666664,-0.10333333333333328,-0.16316666666666665,0.04583333333333334,-0.03499999999999659,-0.060000000000002274,1.5,1.556,37.954,29.098,38.232,35.5385,55.32,33.411500000000004,58.169,52.443333333333335,53.17,32.679,56.7615,50.8,52.227000000000004,32.2945,56.6105,50.224000000000004,0.03699999999999992,-0.08299999999999996,0.098525,0.109405,0.0,215.97500000000002,215.89499999999998,212.74,212.74,0.0,0.0
26,0.0,0.0,0.0,1.0,1.0,0.0,0.0,1.0,0.0,100.0,1.0,1.1856,26.0,0.0,0.0,0.0,59.999996,0.0,26.0,26.0,26.0,26.0,-0.12044444444444445,0.3056000000000001,0.0806,295.914,-2.7963,-2.9075,-1.5965,-1.6037,-188.01,215.885,190.436,0.0,0.0,0.0,0.0,0.052566666666666664,-5.498166666666667,-5.498166666666667,-0.32530000000000003,0.8213333333333334,-0.05877777777777782,0.3340000000000001,69.141,-0.07425000000000001,0.1,1.0239999999999991,100.0,1.0,1.0,212.98000000000002,0.0,0.0,0.0,0.0,0.0,0.0,0.0,9027.4,0.0,55.0,5.0,248.87666666666667,0.0,0.0,0.0,0.0,0.0,0.0,0.0,0.0,1.3079999999999998,1.3079999999999998,0.0,0.0,0.0,55.0,616.79921,10000.0,85.000001,85.000001,85.000001,85.000001,395.0,0.0,0.0,0.0,1.0,166.665,63.583,63.583,44.693,44.693,34.0,-21.402,15.536666666666665,-39.52333333333333,28.48,0.0,1781.858,0.5250000000000004,100.0,20.0185,19.0775,45.361000000000004,44.406,0.0,0.0,100.0,0.0,0.0,0.0,0.0,2339.666666666667,2152.9,4744.222222222223,4570.0,307.657,307.94975,313.34075,313.64625,21.921666666666667,20.4999,21.968,21.535800000000002,314.999998,314.999998,324.999988,324.999988,99.55925714285715,99.5058,99.56292857142857,99.547,-0.04066666666666663,-0.11199999999999988,-0.1805,0.02816666666666667,-0.051666666666669414,-0.061666666666667425,1.3873333333333333,1.433,38.01,29.124666666666666,38.3,35.599000000000004,55.294,33.444,58.2205,52.510666666666665,53.146,32.709,56.8095,50.864666666666665,52.202,32.323,56.655,50.287,0.01100000000000012,-0.08099999999999996,0.10791500000000001,0.10493000000000001,0.0,216.505,216.41500000000002,212.98000000000002,212.98000000000002,0.0,0.0
27,0.0,0.0,0.0,1.0,1.0,0.0,0.0,1.0,0.0,100.0,1.0,1.1856,26.0,0.0,0.0,0.0,59.999996,0.0,26.0,26.0,26.0,26.0,-0.11788888888888889,0.27790000000000004,-0.010025000000000001,296.478,-2.7649,-2.8777,-1.5838,-1.6743000000000001,-184.69,215.88,190.413,0.0,0.0,0.0,0.0,0.0545,-5.498166666666667,-5.498166666666667,-0.35250000000000004,-1.2136666666666667,-0.056111111111111445,1.071,69.277,-0.07400000000000001,0.0487,0.7539999999999996,100.0,1.0,1.0,213.47,0.0,0.0,0.0,0.0,0.0,0.0,0.0,9048.2,0.0,55.0,5.0,249.37,1.0,0.0,0.0,0.0,0.0,0.0,0.0,0.0,1.355999999999998,1.355999999999998,0.0,0.0,1.0,55.0,616.79921,10000.0,85.000001,85.000001,85.000001,85.000001,395.0,0.0,0.0,0.0,1.0,166.665,64.011,64.011,45.272999999999996,45.272999999999996,34.0,-20.34,15.599999999999998,-35.406666666666666,26.4625,0.0,1781.81,0.4900000000000002,100.0,19.6855,18.743,45.805,44.894999999999996,0.0,0.0,100.0,0.0,0.0,0.0,0.0,2245.4444444444443,2205.3,4334.555555555556,4159.3,307.94166666666666,307.9265,314.218,314.50875,21.929444444444442,20.5035,21.977888888888888,21.5445,314.999998,314.999998,324.999988,324.999988,99.55925714285715,99.50581666666666,99.56307142857143,99.54715714285715,-0.045333333333333226,-0.11333333333333329,-0.18533333333333335,0.028833333333333332,-0.051666666666669414,-0.06333333333333258,1.4463333333333332,1.4735,38.059,29.147,38.361999999999995,35.6535,55.268,33.47,58.2685,52.571,53.120999999999995,32.733000000000004,56.855000000000004,50.922333333333334,52.177,32.346000000000004,56.6975,50.343333333333334,0.009000000000000119,-0.0665,0.10962000000000001,0.10385000000000001,0.0,216.845,216.79500000000002,213.47,213.47,0.0,0.0
28,0.0,0.0,0.0,1.0,1.0,0.0,0.0,1.0,0.0,100.0,1.0,1.1856,26.0,0.0,0.0,0.0,59.999996,0.0,26.0,26.0,26.0,26.0,-0.10266666666666667,0.2962,-0.06972500000000001,296.875,-2.7919,-2.8513,-1.5428000000000002,-1.6264,-181.36,215.8725,190.389375,0.0,0.0,0.0,0.0,0.05643333333333334,-5.498166666666667,-5.498166666666667,-0.3633,0.6616666666666666,-0.0515555555555558,0.6419999999999999,69.411,-0.07095,0.06915714285714286,0.726,100.0,1.0,1.0,214.05,0.0,0.0,0.0,0.0,0.0,0.0,0.0,9072.8,0.0,55.0,5.0,249.84666666666666,0.0,0.0,0.0,0.0,0.0,0.0,0.0,0.0,1.404,1.404,0.0,0.0,0.0,55.0,616.79921,10000.0,85.000001,85.000001,85.000001,85.000001,395.0,0.0,0.0,0.0,1.0,333.33500000000004,63.965,63.965,46.356,46.356,34.0,-20.956,15.818333333333332,-31.996666666666666,26.32,0.0,1781.761,0.3849999999999998,100.0,19.676,18.78,45.035,44.272,0.0,0.0,100.0,0.0,0.0,0.0,0.0,2306.333333333333,2183.5,4152.777777777777,4162.9,307.7936666666667,307.948,314.7415,314.6335,21.93722222222222,20.5072,21.987222222222222,21.5529,314.999998,314.999998,324.999988,324.999988,99.55925714285715,99.50581666666666,99.56321428571428,99.54728571428572,-0.040000000000000036,-0.09499999999999997,-0.17250000000000001,0.04566666666666667,-0.04333333333332945,-0.06833333333332803,1.509,1.5345,38.108000000000004,29.17,38.42,35.7055,55.242000000000004,33.498,58.308,52.626,53.098,32.7585,56.891999999999996,50.975,52.153999999999996,32.37,56.732,50.394666666666666,0.0040000000000000036,-0.056499999999999995,0.10563000000000002,0.11108000000000001,0.0,217.31,217.255,214.05,214.05,0.0,0.0
29,0.0,0.0,0.0,1.0,1.0,0.0,0.0,1.0,0.0,100.0,1.0,1.1856,26.0,0.0,0.0,0.0,59.999996,0.0,26.0,26.0,26.0,26.0,-0.08077777777777777,0.2885,0.037325000000000004,296.356,-2.7454,-2.91,-1.5364,-1.6133000000000002,-177.81,215.8625,190.362875,0.0,0.0,0.0,0.0,0.0585,-5.498166666666667,-5.498166666666667,-0.35710000000000003,-0.7013333333333334,-0.05766666666666653,-0.649,69.55799999999999,-0.0659,0.08702857142857144,0.5540000000000003,100.0,1.0,1.0,214.26666666666665,0.0,0.0,0.0,0.0,0.0,0.0,0.0,9082.0,0.0,55.0,5.0,250.38,1.0,0.0,0.0,0.0,0.0,0.0,0.0,0.0,1.4549999999999983,1.4549999999999983,0.0,0.0,1.0,55.0,616.79921,10000.0,85.000001,85.000001,85.000001,85.000001,395.0,0.0,0.0,0.0,1.0,166.665,64.117,64.117,44.937,44.937,34.0,-20.817999999999998,16.3,-36.42333333333333,27.48,0.0,1781.711,0.23000000000000043,100.0,19.152,18.6535,45.374,44.66,0.0,0.0,100.0,0.0,0.0,0.0,0.0,2389.777777777778,2150.5,4585.888888888889,4326.7,307.71066666666667,307.78875,313.71475,314.11075,21.94522222222222,20.511,21.997555555555557,21.5621,314.999998,314.999998,324.999988,324.999988,99.55927142857144,99.50583333333333,99.56337142857143,99.54742857142857,-0.02299999999999991,-0.09033333333333315,-0.17183333333333334,0.037,-0.060000000000002274,-0.03833333333332689,1.4113333333333333,1.4345,38.158,29.193666666666665,38.485,35.763,55.212,33.524,58.357,52.69,53.07,32.7825,56.938,51.03633333333333,52.126000000000005,32.393,56.775,50.454,-0.015499999999999958,-0.04299999999999993,0.10394500000000001,0.11156500000000001,0.0,217.755,217.66500000000002,214.26666666666665,214.26666666666665,0.0,0.0
30,0.0,0.0,0.0,1.0,1.0,0.0,0.0,1.0,0.0,100.0,1.0,1.1856,26.0,0.0,0.0,0.0,59.999996,0.0,26.0,26.0,26.0,26.0,-0.07811111111111112,0.2935000000000001,0.06632500000000001,295.975,-2.8076,-2.7855,-1.5208,-1.6599,-174.47,215.85250000000002,190.337875,0.0,0.0,0.0,0.0,0.06043333333333334,-5.498166666666667,-5.498166666666667,-0.36310000000000003,0.751,-0.05133333333333345,-0.7770000000000001,69.691,-0.056100000000000004,0.07400000000000001,0.4400000000000004,100.0,1.0,1.0,214.75666666666666,0.0,0.0,0.0,0.0,0.0,0.0,0.0,9102.7,0.0,55.0,5.0,250.86,0.0,0.0,0.0,0.0,0.0,0.0,1.0,0.0,1.5030000000000001,1.5030000000000001,0.0,0.0,0.0,55.0,616.79921,10000.0,85.000001,85.000001,85.000001,85.000001,395.0,0.0,0.0,0.0,1.0,333.33500000000004,63.004,63.004,45.532,45.532,34.0,-23.284,16.496666666666666,-33.629999999999995,28.447499999999998,0.0,1781.662,0.05000000000000071,100.0,19.881,19.4535,45.189,44.691,0.0,0.0,100.0,0.0,0.0,0.0,0.0,2619.6666666666665,2209.5,4419.888888888889,4336.7,307.10366666666664,307.566,314.163,314.02675,21.953222222222223,20.5149,22.00711111111111,21.5707,314.999998,314.999998,324.999988,324.999988,99.55927142857144,99.50583333333333,99.5635,99.54757142857143,-0.015666666666666718,-0.07666666666666666,-0.159,0.041166666666666664,-0.04333333333332945,-0.06833333333332803,1.4526666666666668,1.461,38.207,29.218,38.545,35.817,55.188,33.5525,58.3985,52.748,53.047,32.809,56.977000000000004,51.092,52.102999999999994,32.418,56.811,50.50833333333333,-0.03400000000000003,-0.030999999999999917,0.10228000000000001,0.10502500000000001,0.0,218.16500000000002,218.135,214.75666666666666,214.75666666666666,0.0,0.0
31,0.0,0.0,0.0,1.0,1.0,0.0,0.0,1.0,0.0,100.0,1.0,1.1856,26.0,0.0,0.0,0.0,59.999996,0.0,26.0,26.0,26.0,26.0,-0.05277777777777778,0.2832000000000001,0.0402,295.975,-2.8714,-2.8705,-1.605,-1.5550000000000002,-170.91,215.8375,190.312125,0.0,0.0,0.0,0.0,0.0625,-5.498166666666667,-5.498166666666667,-0.3423,-0.6013333333333334,-0.04033333333333333,0.563,69.836,-0.04095,0.0793857142857143,0.03399999999999981,100.0,1.0,1.0,215.08333333333331,0.0,0.0,0.0,0.0,0.0,0.0,0.0,9116.5,0.0,55.0,5.0,251.38,1.0,0.0,0.0,0.0,0.0,0.0,1.0,0.0,1.5539999999999985,1.5539999999999985,0.0,0.0,1.0,55.0,616.79921,10000.0,85.000001,85.000001,85.000001,85.000001,395.0,0.0,0.0,0.0,1.0,166.665,63.934,63.934,44.144,44.144,34.0,-18.292,17.358333333333334,-35.74,29.23,0.0,1781.612,-0.04499999999999993,100.0,19.755,19.2545,45.784,45.251999999999995,0.0,0.0,100.0,0.0,0.0,0.0,0.0,2165.4444444444443,2200.5,4616.333333333333,4380.5,308.3786666666667,307.8315,313.5755,314.00425,21.961333333333332,20.5189,22.017555555555557,21.5801,314.999998,314.999998,324.999988,324.999988,99.55927142857144,99.50585,99.56367142857142,99.54772857142858,0.013333333333333197,-0.050999999999999934,-0.134,0.07416666666666667,-0.03999999999999915,-0.05833333333333002,1.4020000000000001,1.4045,38.257999999999996,29.243000000000002,38.61,35.8755,55.158,33.5805,58.448,52.81333333333333,53.019,32.8345,57.0235,51.154666666666664,52.075,32.442499999999995,56.8545,50.56966666666666,-0.03749999999999998,-0.02400000000000002,0.102455,0.11062000000000001,0.0,218.57999999999998,218.575,215.08333333333331,215.08333333333331,0.0,0.0
32,0.0,0.0,0.0,1.0,1.0,0.0,0.0,1.0,0.0,100.0,1.0,1.1856,26.0,0.0,0.0,0.0,59.999996,0.0,26.0,26.0,26.0,26.0,-0.05477777777777778,0.2781,-0.052375000000000005,296.387,-2.81625,-2.8682,-1.6368,-1.5546,-167.14,215.8225,190.285125,0.0,0.0,0.0,0.0,0.06470000000000001,-5.498166666666667,-5.498166666666667,-0.3654,0.09366666666666668,-0.0555555555555558,0.20599999999999996,69.98400000000001,-0.02785,0.06514285714285714,0.036000000000000476,100.0,1.0,1.0,215.69666666666666,0.0,0.0,0.0,0.0,0.0,0.0,0.0,9142.6,0.0,55.0,5.0,251.91,0.0,0.0,0.0,0.0,0.0,0.0,1.0,0.0,1.6080000000000005,1.6080000000000005,0.0,0.0,0.0,55.0,616.79921,10000.0,85.000001,85.000001,85.000001,85.000001,395.0,0.0,0.0,0.0,1.0,166.665,63.69,63.69,45.501999999999995,45.501999999999995,34.0,-19.238,18.035,-32.60333333333333,28.66,0.0,1781.557,-0.15499999999999936,100.0,19.634,19.276,45.303,44.943,0.0,0.0,100.0,0.0,0.0,0.0,0.0,2302.4444444444443,2237.1,4334.444444444444,4306.3,307.83633333333336,307.76025,314.4015,314.355,21.96988888888889,20.5232,22.028333333333332,21.5898,314.999998,314.999998,324.999988,324.999988,99.55928571428572,99.50585,99.56382857142857,99.54787142857143,0.023333333333333428,-0.036666666666666625,-0.128,0.08616666666666667,-0.060000000000002274,-0.05333333333332746,1.496,1.5045,38.312,29.27,38.677,35.936,55.126999999999995,33.61,58.4945,52.878,52.989999999999995,32.8615,57.067,51.21666666666667,52.046,32.4685,56.894999999999996,50.63,-0.04049999999999998,-0.017000000000000126,0.10885500000000001,0.10615000000000001,0.0,219.05,219.03,215.69666666666666,215.69666666666666,0.0,0.0
33,0.0,0.0,0.0,1.0,1.0,0.0,0.0,1.0,0.0,100.0,1.0,1.1856,26.0,0.0,0.0,0.0,59.999996,0.0,26.0,26.0,26.0,26.0,-0.017666666666666667,0.2863,-0.030950000000000002,296.509,-2.8228,-2.8464,-1.5935000000000001,-1.6373,-163.99,215.8075,190.261625,0.0,0.0,0.0,0.0,0.06653333333333335,-5.498166666666667,-5.498166666666667,-0.3662,-0.21866666666666665,-0.05655555555555569,-0.06700000000000017,70.111,-0.0194,0.08398571428571429,0.08800000000000008,100.0,1.0,1.0,216.01333333333332,0.0,0.0,0.0,0.0,0.0,0.0,0.0,9156.0,0.0,55.0,5.0,252.36666666666667,1.0,0.0,0.0,0.0,0.0,0.0,1.0,0.0,1.6529999999999987,1.6529999999999987,0.0,0.0,1.0,55.0,616.79921,10000.0,85.000001,85.000001,85.000001,85.000001,395.0,0.0,0.0,0.0,1.0,166.665,64.316,64.316,45.257999999999996,45.257999999999996,34.0,-18.381999999999998,16.398333333333333,-33.513333333333335,30.23,0.0,1781.513,-0.27500000000000036,100.0,19.2975,19.1035,45.201,45.051,0.0,0.0,100.0,0.0,0.0,0.0,0.0,2253.4444444444443,2068.2,4465.888888888889,4319.5,308.195,308.18075,314.07625,314.18325,21.977,20.5266,22.037333333333333,21.5979,314.999998,314.999998,324.999988,324.999988,99.55928571428572,99.50585,99.56397142857143,99.548,0.028000000000000025,-0.038999999999999924,-0.12916666666666665,0.08283333333333333,-0.051666666666669414,-0.04999999999999716,1.4413333333333334,1.4505000000000001,38.355999999999995,29.291,38.733000000000004,35.9865,55.101,33.6315,58.534,52.933,52.966,32.8815,57.1045,51.269333333333336,52.022,32.4875,56.929,50.681333333333335,-0.04749999999999999,-0.013500000000000068,0.10411500000000001,0.10551500000000001,0.0,219.435,219.41500000000002,216.01333333333332,216.01333333333332,0.0,0.0
34,0.0,0.0,0.0,1.0,1.0,0.0,0.0,1.0,0.0,100.0,1.0,1.1856,26.0,0.0,0.0,0.0,59.999996,0.0,26.0,26.0,26.0,26.0,-0.02766666666666667,0.2762,-0.055600000000000004,296.753,-2.8597,-2.7859,-1.6322,-1.5937999999999999,-160.41,215.79250000000002,190.23375,0.0,0.0,0.0,0.0,0.06860000000000001,-5.498166666666667,-5.498166666666667,-0.3922,-0.7063333333333334,-0.01722222222222225,1.189,70.25,-0.01105,0.07954285714285715,-0.06599999999999984,100.0,1.0,1.0,216.46,0.0,0.0,0.0,0.0,0.0,0.0,0.0,9175.0,0.0,55.0,5.0,252.87333333333333,0.0,0.0,0.0,0.0,0.0,0.0,1.0,0.0,1.7040000000000006,1.7040000000000006,0.0,0.0,0.0,55.0,616.79921,10000.0,85.000001,85.000001,85.000001,85.000001,395.0,0.0,0.0,0.0,1.0,333.33500000000004,64.499,64.499,46.066,46.066,34.0,-17.948,17.486666666666665,-31.226666666666667,30.7175,0.0,1781.46,-0.39000000000000057,100.0,19.1235,18.6185,45.112,45.087,0.0,0.0,100.0,0.0,0.0,0.0,0.0,2227.777777777778,2162.7,4221.555555555556,4379.3,308.12666666666667,308.08175,314.63225,314.069,21.98488888888889,20.5304,22.047444444444444,21.6071,314.999998,314.999998,324.999988,324.999988,99.55928571428572,99.50586666666666,99.56411428571428,99.54815714285715,0.049666666666666526,-0.008999999999999897,-0.11916666666666667,0.09733333333333333,-0.045000000000001705,-0.04999999999999716,1.4733333333333334,1.4795,38.406,29.314999999999998,38.797,36.0445,55.071,33.655,58.577,52.99633333333333,52.937,32.903,57.1445,51.330333333333336,51.994,32.507999999999996,56.966,50.74033333333333,-0.050999999999999934,-0.0004999999999999449,0.11208000000000001,0.11236000000000002,0.0,219.835,219.835,216.46,216.46,0.0,0.0
35,0.0,0.0,0.0,1.0,1.0,0.0,0.0,1.0,0.0,100.0,1.0,1.1856,26.0,0.0,0.0,0.0,59.999996,0.0,26.0,26.0,26.0,26.0,-0.013222222222222222,0.28090000000000015,-0.061825000000000005,296.844,-2.8396,-2.7901,-1.6162,-1.5499,-156.61,215.775,190.202125,0.0,0.0,0.0,0.0,0.0708,-5.498166666666667,-5.498166666666667,-0.4344,-0.3753333333333333,-0.02922222222222226,-0.0040000000000000036,70.397,0.0008500000000000001,0.07462857142857143,-0.32399999999999984,100.0,1.0,1.0,217.0,0.0,0.0,0.0,0.0,0.0,0.0,0.0,9197.8,0.0,55.0,5.0,253.40333333333334,1.0,0.0,0.0,0.0,0.0,0.0,1.0,0.0,1.7579999999999991,1.7579999999999991,0.0,0.0,1.0,55.0,616.79921,10000.0,85.000001,85.000001,85.000001,85.000001,395.0,0.0,0.0,0.0,1.0,166.665,64.194,64.194,45.563,45.563,34.0,-17.542,20.293333333333333,-28.96333333333333,28.85,0.0,1781.408,-0.29499999999999993,100.0,18.829,18.8485,44.949,44.709,0.0,0.0,100.0,0.0,0.0,0.0,0.0,2189.0,2434.2,4156.555555555556,4094.6000000000004,308.21233333333333,307.188,314.68775,314.7625,21.993111111111112,20.5347,22.05811111111111,21.6167,314.999998,314.999998,324.999988,324.999988,99.55928571428572,99.50586666666666,99.56427142857143,99.54831428571428,0.048666666666666636,-0.005666666666666709,-0.09116666666666667,0.12016666666666667,-0.05333333333332746,-0.06666666666666998,1.509,1.4925,38.457,29.342,38.863,36.1045,55.037,33.6825,58.621,53.059666666666665,52.906,32.9285,57.186,51.391,51.962,32.5325,57.004,50.79933333333334,-0.051999999999999935,-0.0015000000000000568,0.104535,0.11299500000000001,0.0,220.285,220.315,217.0,217.0,0.0,0.0
