,ABS Active,ABS Enabled,AID Allow Tire Blankets,AID Auto Blip,AID Auto Clutch,AID Auto Shift,AID Fuel Rate,AID Ideal Line,AID Mech Damage,AID Stability,AID Tire Wear Rate,Air Density,Air Temp,Ballast,Best Lap Delta,Best Lap Time,Brake Bias,Brake Pos,Brake Temp FL,Brake Temp FR,Brake Temp RL,Brake Temp RR,CG Accel Lateral,CG Accel Longitudinal,CG Accel Vertical,CG Height,Camber FL,Camber FR,Camber RL,Camber RR,Car Coord X,Car Coord Y,Car Coord Z,Car Damage Front,Car Damage Left,Car Damage Rear,Car Damage Right,Car Pos Norm,Caster FL,Caster FR,Chassis Pitch Angle,Chassis Pitch Rate,Chassis Roll Angle,Chassis Roll Rate,Chassis Velocity X,Chassis Velocity Y,Chassis Velocity Z,Chassis Yaw Rate,Clutch Pos,DRS Active,DRS Available,Drive Train Speed,ERS Heat Charging,ERS Is Charging,ERS Max Energy,ERS Power Level,ERS Recovery Level,Engine Brake Setting,Engine Limiter,Engine RPM,Flags,Fuel Level,Gear,Ground Speed,HR Sample Clock,In Pit,KERS Charge,KERS Deployed Energy,KERS Input,KERS Max Energy,LR Sample Clock,Lap Invalidated,Lap Time,Lap Time2,Last Lap Time,Last Sector Time,MR Sample Clock,Max Fuel,Max Power,Max RPM,Max Sus Travel FL,Max Sus Travel FR,Max Sus Travel RL,Max Sus Travel RR,Max Torque,Max Turbo Boost,Num Tires Off Track,Penalties Enabled,Position,Raw Data Sample Rate,Ride Height FL,Ride Height FR,Ride Height RL,Ride Height RR,Road Temp,Self Align Torque FL,Self Align Torque FR,Self Align Torque RL,Self Align Torque RR,Session Lap Count,Session Time Left,Steering Angle,Surface Grip,Suspension Travel FL,Suspension Travel FR,Suspension Travel RL,Suspension Travel RR,TC Active,TC Enabled,Throttle Pos,Tire Dirt Level FL,Tire Dirt Level FR,Tire Dirt Level RL,Tire Dirt Level RR,Tire Load FL,Tire Load FR,Tire Load RL,Tire Load RR,Tire Loaded Radius FL,Tire Loaded Radius FR,Tire Loaded Radius RL,Tire Loaded Radius RR,Tire Pressure FL,Tire Pressure FR,Tire Pressure RL,Tire Pressure RR,Tire Radius FL,Tire Radius FR,Tire Radius RL,Tire Radius RR,Tire Rubber Grip FL,Tire Rubber Grip FR,Tire Rubber Grip RL,Tire Rubber Grip RR,Tire Slip Angle FL,Tire Slip Angle FR,Tire Slip Angle RL,Tire Slip Angle RR,Tire Slip Ratio FL,Tire Slip Ratio FR,Tire Slip Ratio RL,Tire Slip Ratio RR,Tire Temp Core FL,Tire Temp Core FR,Tire Temp Core RL,Tire Temp Core RR,Tire Temp Inner FL,Tire Temp Inner FR,Tire Temp Inner RL,Tire Temp Inner RR,Tire Temp Middle FL,Tire Temp Middle FR,Tire Temp Middle RL,Tire Temp Middle RR,Tire Temp Outer FL,Tire Temp Outer FR,Tire Temp Outer RL,Tire Temp Outer RR,Toe In FL,Toe In FR,Toe In RL,Toe In RR,Turbo Boost,Wheel Angular Speed FL,Wheel Angular Speed FR,Wheel Angular Speed RL,Wheel Angular Speed RR,Wind Direction,Wind Speed
0,0.0,0.0,0.0,1.0,1.0,0.0,0.0,1.0,0.0,100.0,1.0,1.1856,26.0,0.0,0.0,0.0,59.99999,0.0,26.0,26.0,26.0,26.0,-0.05511111111111111,-0.3256,0.13945000000000002,297.562,-2.836,-2.6064,-1.54035,-1.5563,-275.68,215.8675,190.9915,0.0,0.0,0.0,0.0,0.0016,-5.498166666666667,-5.498166666666667,-0.36210000000000003,0.2533333333333332,-0.01587499999999986,-0.3969999999999998,65.297,-0.0451,0.012114285714285715,0.532,100.0,1.0,1.0,198.5,0.0,0.0,0.0,0.0,0.0,0.0,0.0,9638.2,0.0,55.0,0.0,235.10333333333335,0.0,0.0,0.0,0.0,0.0,0.0,0.0,0.0,0.0030000000000001137,0.0030000000000001137,0.0,0.0,0.0,55.0,616.79921,10000.0,85.0,85.0,85.0,85.0,395.0,0.0,0.0,0.0,1.0,20.0,61.554,61.554,48.111000000000004,48.111000000000004,34.0,-26.34,23.218333333333334,-32.525,26.240000000000002,0.0,1782.956,0.7200000000000006,100.0,18.799,18.6865,41.965,41.623000000000005,0.0,0.0,0.0,0.0,0.0,0.0,0.0,2768.777777777778,3265.9,3913.1111111111113,3840.1,306.43733333333336,304.25775,315.30425,315.24475,21.69622222222222,20.4016,21.711333333333332,21.307299999999998,314.99999,314.99999,324.99998,324.99998,99.55871428571429,99.50568333333334,99.55921428571429,99.54335714285715,-0.04833333333333312,-0.09633333333333338,-0.14714285714285713,0.03657142857142857,0.0033333333333303017,-0.00999999999999801,-0.0016666666666669272,0.005499999999999949,36.602000000000004,28.509999999999998,36.696,34.170500000000004,55.864999999999995,32.72,57.084,50.922666666666665,53.684,32.043,55.7445,49.33833333333333,52.748000000000005,31.686500000000002,55.663,48.791333333333334,0.022499999999999964,-0.08000000000000007,0.09774000000000001,0.0932,0.0,204.68,204.62,198.5,198.5,0.0,0.0
1,0.0,0.0,0.0,1.0,1.0,0.0,0.0,1.0,0.0,100.0,1.0,1.1856,26.0,0.0,0.0,0.0,59.999996,0.0,26.0,26.0,26.0,26.0,-0.11055555555555552,0.35250000000000004,0.26545,296.646,-2.76715,-2.8109,-1.5599500000000002,-1.3841,-272.16,215.87,190.97025,0.0,0.0,0.0,0.0,0.003633333333333334,-5.498166666666667,-5.498166666666667,-0.28550000000000003,-0.18433333333333335,-0.052000000000000046,-0.8769999999999998,65.362,-0.048150000000000005,0.03597142857142857,1.0920000000000005,100.0,1.0,1.0,201.29000000000002,0.0,0.0,0.0,0.0,0.0,0.0,0.0,8531.9,0.0,55.0,5.0,235.26666666666665,1.0,0.0,0.0,0.0,0.0,0.0,0.0,0.0,0.05699999999999861,0.05699999999999861,0.0,0.0,1.0,55.0,616.79921,10000.0,85.000001,85.000001,85.000001,85.000001,395.0,0.0,0.0,0.0,1.0,166.665,64.026,64.026,46.631,46.631,34.0,-19.552,11.481666666666666,-38.44,29.77,0.0,1782.901,0.8450000000000006,100.0,19.931,19.542,43.306,43.382,0.0,0.0,100.0,0.0,0.0,0.0,0.0,2211.8888888888887,1725.5,4755.333333333333,5138.8,308.1306666666667,309.232,313.17325,311.90825,21.70588888888889,20.40575,21.72211111111111,21.3168,314.999998,314.999998,324.999988,324.999988,99.55872857142857,99.5057,99.55934285714285,99.54347142857142,-0.038000000000000034,-0.11566666666666658,-0.16342857142857142,0.035,-0.03499999999999659,-0.03999999999999915,1.3013333333333335,1.343,36.662,28.536,36.763,34.230000000000004,55.841,32.7535,57.119,50.974000000000004,53.661,32.074,55.777,49.38766666666667,52.725,31.716,55.6935,48.839666666666666,0.030000000000000027,-0.09650000000000003,0.10125500000000001,0.11024500000000001,0.0,204.805,204.715,201.29000000000002,201.29000000000002,0.0,0.0
2,0.0,0.0,0.0,1.0,1.0,0.0,0.0,1.0,0.0,100.0,1.0,1.1856,26.0,0.0,0.0,0.0,59.999996,0.0,26.0,26.0,26.0,26.0,-0.12377777777777776,0.2965,-0.03445,298.157,-2.7314,-2.8026,-1.5245000000000002,-1.5583,-269.01,215.87,190.953,0.0,0.0,0.0,0.0,0.0054666666666666665,-5.498166666666667,-5.498166666666667,-0.3402,-0.20133333333333336,-0.04062499999999991,1.6870000000000003,65.505,-0.054950000000000006,-0.011414285714285714,1.3100000000000005,100.0,1.0,1.0,202.42333333333335,0.0,0.0,0.0,0.0,0.0,0.0,0.0,8580.0,0.0,55.0,5.0,235.78333333333333,0.0,0.0,0.0,0.0,0.0,0.0,0.0,0.0,0.10500000000000043,0.10500000000000043,0.0,0.0,0.0,55.0,616.79921,10000.0,85.000001,85.000001,85.000001,85.000001,395.0,0.0,0.0,0.0,1.0,333.33500000000004,63.278,63.278,49.057,49.057,34.0,-23.654,13.111666666666666,-28.7175,19.1725,0.0,1782.852,0.9700000000000006,100.0,19.958,19.1775,43.474000000000004,42.726,0.0,0.0,100.0,0.0,0.0,0.0,0.0,2527.6666666666665,1998.7,3776.222222222222,3504.6,307.191,308.43025,315.549,316.1295,21.714333333333332,20.409,21.731555555555556,21.3248,314.999998,314.999998,324.999988,324.999988,99.55872857142857,99.5057,99.55947142857143,99.54358571428571,-0.07099999999999995,-0.1323333333333333,-0.19342857142857142,0.023,-0.07166666666666544,-0.04999999999999716,1.6233333333333333,1.67,36.715,28.556333333333335,36.822,34.28,55.817,32.7775,57.161500000000004,51.027,53.638999999999996,32.096000000000004,55.817,49.43866666666666,52.703,31.737000000000002,55.731,48.88966666666666,0.046499999999999986,-0.10749999999999993,0.11005000000000001,0.10543000000000001,0.0,205.25,205.115,202.42333333333335,202.42333333333335,0.0,0.0
3,0.0,0.0,0.0,1.0,1.0,0.0,0.0,1.0,0.0,100.0,1.0,1.1856,26.0,0.0,0.0,0.0,59.999996,0.0,26.0,26.0,26.0,26.0,-0.12522222222222212,0.33120000000000016,0.057625,297.455,-2.76575,-2.8217,-1.52005,-1.5921,-265.67,215.8675,190.933125,0.0,0.0,0.0,0.0,0.0074,-5.498166666666667,-5.498166666666667,-0.29560000000000003,0.4673333333333334,-0.010250000000000092,-0.54,65.672,-0.0702,0.05222857142857144,1.0099999999999998,100.0,1.0,1.0,202.55333333333334,0.0,0.0,0.0,0.0,0.0,0.0,0.0,8585.5,0.0,55.0,5.0,236.38333333333333,1.0,0.0,0.0,0.0,0.0,0.0,0.0,0.0,0.1559999999999988,0.1559999999999988,0.0,0.0,1.0,55.0,616.79921,10000.0,85.000001,85.000001,85.000001,85.000001,395.0,0.0,0.0,0.0,1.0,166.665,63.889,63.889,46.707,46.707,34.0,-19.878,14.116666666666667,-35.2225,26.067500000000003,0.0,1782.802,1.075000000000001,100.0,19.6945,19.101,43.349000000000004,42.673,0.0,0.0,100.0,0.0,0.0,0.0,0.0,2158.333333333333,2136.9,4442.888888888889,4285.2,308.324,308.052,313.9425,314.247,21.723111111111113,20.41275,21.741444444444443,21.3336,314.999998,314.999998,324.999988,324.999988,99.55874285714286,99.50571666666667,99.55961428571429,99.54372857142857,-0.07466666666666666,-0.137,-0.18414285714285714,0.030857142857142857,-0.06499999999999773,-0.07333333333333059,1.4569999999999999,1.4885,36.769,28.579666666666668,36.884,34.335,55.79,32.808,57.207,51.093,53.614000000000004,32.1235,55.8595,49.502,52.678,31.7635,55.7705,48.95166666666667,0.050000000000000044,-0.1100000000000001,0.107395,0.10622000000000001,0.0,205.79500000000002,205.685,202.55333333333334,202.55333333333334,0.0,0.0
4,0.0,0.0,0.0,1.0,1.0,0.0,0.0,1.0,0.0,100.0,1.0,1.1856,26.0,0.0,0.0,0.0,59.999996,0.0,26.0,26.0,26.0,26.0,-0.1313333333333333,0.30069999999999997,-0.0332,297.592,-2.79525,-2.8922,-1.463,-1.6258,-262.51,215.8625,190.91475,0.0,0.0,0.0,0.0,0.009266666666666668,-5.498166666666667,-5.498166666666667,-0.3135,-0.726,-0.06712499999999988,-0.3580000000000001,65.82300000000001,-0.0767,0.019571428571428573,1.3239999999999998,100.0,1.0,1.0,203.05666666666667,0.0,0.0,0.0,0.0,0.0,0.0,0.0,8606.8,0.0,55.0,5.0,236.93,0.0,0.0,0.0,0.0,0.0,0.0,0.0,0.0,0.20400000000000063,0.20400000000000063,0.0,0.0,0.0,55.0,616.79921,10000.0,85.000001,85.000001,85.000001,85.000001,395.0,0.0,0.0,0.0,1.0,333.33500000000004,63.903999999999996,63.903999999999996,47.058,47.058,34.0,-22.310000000000002,14.129999999999999,-32.735,24.23,0.0,1782.753,1.2100000000000009,100.0,19.5585,18.6955,44.033,42.888,0.0,0.0,100.0,0.0,0.0,0.0,0.0,2335.222222222222,2101.6,4282.222222222223,3982.0,307.7366666666667,308.1965,314.32925,314.92475,21.731333333333332,20.416150000000002,21.75111111111111,21.3419,314.999998,314.999998,324.999988,324.999988,99.55874285714286,99.50573333333334,99.55974285714285,99.54385714285715,-0.08266666666666667,-0.14,-0.18542857142857141,0.030857142857142857,-0.05833333333333002,-0.0799999999999983,1.5056666666666667,1.5270000000000001,36.821,28.600666666666665,36.944,34.387,55.766,32.835499999999996,57.254,51.153333333333336,53.591,32.149,55.903999999999996,49.559333333333335,52.655,31.7875,55.8125,49.007666666666665,0.06699999999999995,-0.11650000000000005,0.10307000000000001,0.11621000000000001,0.0,206.195,206.115,203.05666666666667,203.05666666666667,0.0,0.0
5,0.0,0.0,0.0,1.0,1.0,0.0,0.0,1.0,0.0,100.0,1.0,1.1856,26.0,0.0,0.0,0.0,59.999996,0.0,26.0,26.0,26.0,26.0,-0.1557777777777778,0.3346,-0.065475,297.958,-2.80855,-2.866,-1.53655,-1.6344,-258.95,215.85,190.89375,0.0,0.0,0.0,0.0,0.011333333333333334,-5.498166666666667,-5.498166666666667,-0.3174,0.4753333333333334,-0.06999999999999984,0.6960000000000002,65.992,-0.09195,0.033342857142857146,1.4139999999999997,100.0,1.0,1.0,203.66666666666669,0.0,0.0,0.0,0.0,0.0,0.0,0.0,8632.7,0.0,55.0,5.0,237.5366666666667,1.0,0.0,0.0,0.0,0.0,0.0,0.0,0.0,0.2579999999999991,0.2579999999999991,0.0,0.0,1.0,55.0,616.79921,10000.0,85.000001,85.000001,85.000001,85.000001,395.0,0.0,0.0,0.0,1.0,166.665,64.24,64.24,47.714,47.714,34.0,-22.034,13.455,-33.69,23.5075,0.0,1782.699,0.7349999999999994,100.0,19.5135,18.46,43.795,42.406,0.0,0.0,100.0,0.0,0.0,0.0,0.0,2299.666666666667,2031.3,4156.111111111111,4072.5,307.77166666666665,308.3995,314.69875,314.775,21.740666666666666,20.41995,21.761666666666667,21.351,314.999998,314.999998,324.999988,324.999988,99.55875714285715,99.50573333333334,99.5599,99.54401428571428,-0.08033333333333315,-0.14,-0.212,0.006571428571428571,-0.054999999999999716,-0.061666666666667425,1.5303333333333333,1.5785,36.879999999999995,28.624666666666666,37.01,34.4435,55.741,32.8655,57.303,51.217,53.567,32.1765,55.95,49.62,52.631,31.814,55.8555,49.067,0.04049999999999998,-0.09899999999999998,0.10067500000000001,0.11422500000000001,0.0,206.75,206.635,203.66666666666669,203.66666666666669,0.0,0.0
6,0.0,0.0,0.0,1.0,1.0,0.0,0.0,1.0,0.0,100.0,1.0,1.1856,26.0,0.0,0.0,0.0,59.999996,0.0,26.0,26.0,26.0,26.0,-0.14377777777777778,0.3246,0.031975,297.714,-2.763,-2.9189,-1.5622500000000001,-1.5962,-255.98,215.84,190.8755,0.0,0.0,0.0,0.0,0.013033333333333334,-5.498166666666667,-5.498166666666667,-0.3043,0.06266666666666687,-0.07437499999999986,-0.8439999999999999,66.134,-0.0984,0.053828571428571434,1.2100000000000009,100.0,1.0,1.0,203.99333333333334,0.0,0.0,0.0,0.0,0.0,0.0,0.0,8646.5,0.0,55.0,5.0,238.05,0.0,0.0,0.0,0.0,0.0,0.0,0.0,0.0,0.3030000000000008,0.3030000000000008,0.0,0.0,0.0,55.0,616.79921,10000.0,85.000001,85.000001,85.000001,85.000001,395.0,0.0,0.0,0.0,1.0,166.665,64.407,64.407,47.043,47.043,34.0,-22.817999999999998,13.205,-37.0625,22.697499999999998,0.0,1782.655,0.6750000000000007,100.0,19.137999999999998,18.413,43.900999999999996,42.656,0.0,0.0,100.0,0.0,0.0,0.0,0.0,2399.333333333333,1960.4,4385.0,4132.0,307.6716666666667,308.48275,314.17375,314.555,21.748444444444445,20.42305,21.770555555555557,21.3587,314.999998,314.999998,324.999988,324.999988,99.55875714285715,99.50575,99.56002857142857,99.54412857142857,-0.08899999999999997,-0.1446666666666666,-0.222,-0.011428571428571429,-0.046666666666666856,-0.06666666666666998,1.4806666666666666,1.5255,36.928,28.644,37.066,34.492,55.719,32.89,57.3455,51.273666666666664,53.547,32.199,55.99,49.67433333333334,52.61,31.8355,55.893,49.12,0.03249999999999997,-0.08150000000000013,0.10552,0.10305,0.0,207.17000000000002,207.085,203.99333333333334,203.99333333333334,0.0,0.0
7,0.0,0.0,0.0,1.0,1.0,0.0,0.0,1.0,0.0,100.0,1.0,1.1856,26.0,0.0,0.0,0.0,59.999996,0.0,26.0,26.0,26.0,26.0,-0.1203333333333334,0.3215000000000001,0.024300000000000002,297.577,-2.7209,-2.9259,-1.5133,-1.6494,-252.6,215.8225,190.855125,0.0,0.0,0.0,0.0,0.015000000000000001,-5.498166666666667,-5.498166666666667,-0.31010000000000004,0.1100000000000001,-0.06662500000000016,1.0250000000000004,66.292,-0.09720000000000001,0.037514285714285715,0.9600000000000009,100.0,1.0,1.0,204.50666666666666,0.0,0.0,0.0,0.0,0.0,0.0,0.0,8668.3,0.0,55.0,5.0,238.61666666666667,1.0,0.0,0.0,0.0,0.0,0.0,0.0,0.0,0.3539999999999992,0.3539999999999992,0.0,0.0,1.0,55.0,616.79921,10000.0,85.000001,85.000001,85.000001,85.000001,395.0,0.0,0.0,0.0,1.0,333.33500000000004,63.995,63.995,47.256,47.256,34.0,-21.177999999999997,15.818333333333332,-33.805,24.7575,0.0,1782.602,0.2599999999999998,100.0,19.535,18.254,44.118,42.742000000000004,0.0,0.0,100.0,0.0,0.0,0.0,0.0,2349.333333333333,2151.9,4190.555555555556,4132.5,307.571,307.98475,314.53075,314.5765,21.757333333333335,20.4267,21.780666666666665,21.3676,314.999998,314.999998,324.999988,324.999988,99.55877142857143,99.50576666666667,99.56018571428571,99.54427142857143,-0.046333333333333115,-0.10199999999999998,-0.2072857142857143,0.013428571428571429,-0.07666666666666799,-0.06499999999999773,1.4943333333333333,1.529,36.983999999999995,28.667,37.129000000000005,34.5475,55.695,32.9185,57.3935,51.337666666666664,53.524,32.225,56.035,49.73533333333333,52.588,31.86,55.935,49.17966666666666,-0.009499999999999953,-0.050000000000000044,0.10197500000000001,0.11336500000000001,0.0,207.68,207.59,204.50666666666666,204.50666666666666,0.0,0.0
8,0.0,0.0,0.0,1.0,1.0,0.0,0.0,1.0,0.0,100.0,1.0,1.1856,26.0,0.0,0.0,0.0,59.999996,0.0,26.0,26.0,26.0,26.0,-0.08988888888888891,0.3085,0.007625000000000001,297.852,-2.8011,-2.8622,-1.4947,-1.642,-249.01999999999998,215.8025,190.8335,0.0,0.0,0.0,0.0,0.0171,-5.498166666666667,-5.498166666666667,-0.31,-0.379,-0.05487500000000001,0.5300000000000002,66.46000000000001,-0.0829,0.04351428571428572,0.4139999999999997,100.0,1.0,1.0,205.0,0.0,0.0,0.0,0.0,0.0,0.0,0.0,8689.3,0.0,55.0,5.0,239.22333333333333,0.0,0.0,0.0,0.0,0.0,0.0,0.0,0.0,0.40800000000000125,0.40800000000000125,0.0,0.0,0.0,55.0,616.79921,10000.0,85.000001,85.000001,85.000001,85.000001,395.0,0.0,0.0,0.0,1.0,166.665,64.651,64.651,46.906,46.906,34.0,-19.396,15.696666666666667,-32.2725,25.802500000000002,0.0,1782.549,0.09999999999999964,100.0,19.0685,18.1235,44.172,42.859,0.0,0.0,100.0,0.0,0.0,0.0,0.0,2170.0,2163.4,4160.555555555556,4151.3,308.202,308.03475,314.5825,314.52125,21.766555555555556,20.4306,21.791333333333334,21.3769,314.999998,314.999998,324.999988,324.999988,99.55877142857143,99.50576666666667,99.56032857142857,99.54442857142857,-0.03699999999999992,-0.09299999999999997,-0.18585714285714286,0.030428571428571426,-0.05333333333332746,-0.05833333333333002,1.4833333333333334,1.5030000000000001,37.041,28.691,37.196,34.606,55.666,32.947,57.444,51.404666666666664,53.497,32.251,56.082499999999996,49.79966666666667,52.56,31.884999999999998,55.9795,49.242333333333335,-0.014000000000000012,-0.03049999999999997,0.105395,0.107715,0.0,208.16500000000002,208.10500000000002,205.0,205.0,0.0,0.0
9,0.0,0.0,0.0,1.0,1.0,0.0,0.0,1.0,0.0,100.0,1.0,1.1856,26.0,0.0,0.0,0.0,59.999996,0.0,26.0,26.0,26.0,26.0,-0.0792222222222222,0.31590000000000007,0.021125,297.623,-2.7271,-2.8718,-1.5451000000000001,-1.5941,-245.82999999999998,215.7825,190.813875,0.0,0.0,0.0,0.0,0.018966666666666666,-5.498166666666667,-5.498166666666667,-0.3075,0.526,-0.05912499999999987,0.94,66.607,-0.0675,0.053185714285714294,0.29800000000000004,100.0,1.0,1.0,205.49,0.0,0.0,0.0,0.0,0.0,0.0,0.0,8710.0,0.0,55.0,5.0,239.75,1.0,0.0,0.0,0.0,0.0,0.0,0.0,0.0,0.4559999999999995,0.4559999999999995,0.0,0.0,1.0,55.0,616.79921,10000.0,85.000001,85.000001,85.000001,85.000001,395.0,0.0,0.0,0.0,1.0,166.665,64.102,64.102,47.409,47.409,34.0,-20.066,16.60333333333333,-31.322499999999998,26.36,0.0,1782.503,-0.14499999999999957,100.0,19.315,18.2545,43.932,42.83,0.0,0.0,100.0,0.0,0.0,0.0,0.0,2360.1111111111113,2184.9,4153.111111111111,4205.7,307.56666666666666,307.94875,314.679,314.465,21.77477777777778,20.4341,21.80077777777778,21.3852,314.999998,314.999998,324.999988,324.999988,99.55878571428572,99.50576666666667,99.56045714285715,99.54455714285714,-0.0040000000000000036,-0.06933333333333336,-0.15871428571428572,0.04914285714285715,-0.04333333333332945,-0.07000000000000028,1.4976666666666667,1.5234999999999999,37.092,28.71333333333333,37.254999999999995,34.6575,55.641,32.973,57.487,51.463,53.474000000000004,32.275,56.1225,49.855333333333334,52.537,31.908,56.0175,49.297,-0.041999999999999926,-0.01649999999999996,0.101595,0.11157,0.0,208.615,208.60000000000002,205.49,205.49,0.0,0.0
10,0.0,0.0,0.0,1.0,1.0,0.0,0.0,1.0,0.0,100.0,1.0,1.1856,26.0,0.0,0.0,0.0,59.999996,0.0,26.0,26.0,26.0,26.0,-0.03866666666666663,0.3205,-0.02215,297.60699999999997,-2.79515,-2.8412,-1.5164,-1.5733000000000001,-242.42000000000002,215.7575,190.793125,0.0,0.0,0.0,0.0,0.020933333333333335,-5.498166666666667,-5.498166666666667,-0.29410000000000003,-0.41800000000000004,-0.030749999999999833,0.10999999999999988,66.766,-0.0466,0.058242857142857145,0.02800000000000047,100.0,1.0,1.0,205.84333333333333,0.0,0.0,0.0,0.0,0.0,0.0,0.0,8725.0,0.0,55.0,5.0,240.32333333333332,0.0,0.0,0.0,0.0,0.0,0.0,1.0,0.0,0.5069999999999979,0.5069999999999979,0.0,0.0,0.0,55.0,616.79921,10000.0,85.000001,85.000001,85.000001,85.000001,395.0,0.0,0.0,0.0,1.0,166.665,64.819,64.819,46.6,46.6,34.0,-18.355999999999998,15.405,-32.82,27.127499999999998,0.0,1782.451,-0.29000000000000004,100.0,18.936,18.283,44.122,43.41,0.0,0.0,100.0,0.0,0.0,0.0,0.0,2196.222222222222,2012.5,4342.444444444444,4307.0,308.26,308.3515,314.24425,314.0915,21.78333333333333,20.43775,21.81088888888889,21.394199999999998,314.999998,314.999998,324.999988,324.999988,99.55878571428572,99.50578333333333,99.56061428571428,99.5447,0.0043333333333333,-0.05566666666666664,-0.15928571428571428,0.04814285714285715,-0.06833333333332803,-0.06833333333332803,1.4613333333333334,1.477,37.146,28.736,37.318,34.714,55.611999999999995,32.998,57.5355,51.528999999999996,53.447,32.298,56.168,49.91833333333334,52.510999999999996,31.93,56.06,49.358333333333334,-0.05349999999999999,-0.0044999999999999485,0.10253500000000002,0.09931000000000001,0.0,209.095,209.075,205.84333333333333,205.84333333333333,0.0,0.0
11,0.0,0.0,0.0,1.0,1.0,0.0,0.0,1.0,0.0,100.0,1.0,1.1856,26.0,0.0,0.0,0.0,59.999996,0.0,26.0,26.0,26.0,26.0,-0.004555555555555535,0.3045,-0.09442500000000001,298.05,-2.80475,-2.8356,-1.5709,-1.5478,-239.22,215.735,190.773625,0.0,0.0,0.0,0.0,0.022600000000000002,-5.498166666666667,-5.498166666666667,-0.3231,-0.2343333333333334,-0.007000000000000117,-0.3169999999999997,66.90899999999999,-0.027600000000000003,0.041042857142857145,-0.1479999999999997,100.0,1.0,1.0,206.48666666666668,0.0,0.0,0.0,0.0,0.0,0.0,0.0,8752.2,0.0,55.0,5.0,240.84,1.0,0.0,0.0,0.0,0.0,0.0,1.0,0.0,0.5549999999999997,0.5549999999999997,0.0,0.0,1.0,55.0,616.79921,10000.0,85.000001,85.000001,85.000001,85.000001,395.0,0.0,0.0,0.0,1.0,166.665,64.59,64.59,47.607,47.607,34.0,-18.918,16.971666666666668,-28.2975,26.189999999999998,0.0,1782.403,-0.5499999999999998,100.0,18.6575,18.3445,43.794,43.35,0.0,0.0,100.0,0.0,0.0,0.0,0.0,2287.333333333333,2142.8,3963.0,4024.2,308.0076666666667,307.9305,315.1935,314.85725,21.791333333333334,20.4413,21.820333333333334,21.4026,314.999998,314.999998,324.999988,324.999988,99.55878571428572,99.50578333333333,99.56074285714286,99.54482857142857,0.01766666666666694,-0.040000000000000036,-0.132,0.08571428571428572,-0.054999999999999716,-0.061666666666667425,1.5623333333333334,1.552,37.196,28.758333333333333,37.376999999999995,34.766,55.584,33.0225,57.576,51.587666666666664,53.421,32.32,56.206,49.975,52.485,31.951,56.0955,49.413666666666664,-0.05349999999999999,0.0040000000000000036,0.10415,0.10339500000000001,0.0,209.51999999999998,209.51999999999998,206.48666666666668,206.48666666666668,0.0,0.0
12,0.0,0.0,0.0,1.0,1.0,0.0,0.0,1.0,0.0,100.0,1.0,1.1856,26.0,0.0,0.0,0.0,59.999996,0.0,26.0,26.0,26.0,26.0,-0.009444444444444478,0.32030000000000003,0.0146,297.531,-2.8306,-2.8336,-1.5493000000000001,-1.5668000000000002,-235.8,215.71,190.75175,0.0,0.0,0.0,0.0,0.025466666666666665,-5.498166666666667,-5.498166666666667,-0.3108,0.39166666666666683,-0.004375000000000018,0.8919999999999999,67.066,-0.009850000000000001,0.06722857142857144,-0.3260000000000005,100.0,1.0,1.0,206.82999999999998,0.0,0.0,0.0,0.0,0.0,0.0,0.0,8766.8,0.0,55.0,5.0,241.40333333333334,0.0,0.0,0.0,0.0,0.0,0.0,1.0,0.0,0.6059999999999981,0.6059999999999981,0.0,0.0,0.0,55.0,616.79921,10000.0,85.000001,85.000001,85.000001,85.000001,395.0,0.0,0.0,0.0,1.0,166.665,64.407,64.407,46.646,46.646,34.0,-17.84,19.046666666666667,-29.3675,30.55,0.0,1782.352,-0.47999999999999954,100.0,18.782,18.443,43.755,43.301,0.0,0.0,100.0,0.0,0.0,0.0,0.0,2190.0,2299.1,4247.888888888889,4331.7,308.10433333333333,307.59975,314.454,314.179,21.799777777777777,20.4452,21.830333333333332,21.4115,314.999998,314.999998,324.999988,324.999988,99.55878571428572,99.50578333333333,99.56088571428572,99.54497142857143,0.03733333333333322,-0.010666666666666602,-0.10385714285714287,0.11171428571428571,-0.046666666666666856,-0.05833333333333002,1.4936666666666667,1.4765000000000001,37.248999999999995,28.782666666666664,37.439,34.8215,55.556,33.049,57.6205,51.65133333333333,53.394,32.3445,56.248,50.036,52.458,31.9745,56.1345,49.473333333333336,-0.05349999999999999,0.008499999999999952,0.10562,0.10455500000000001,0.0,210.015,210.035,206.82999999999998,206.82999999999998,0.0,0.0
13,0.0,0.0,0.0,1.0,1.0,0.0,0.0,1.0,0.0,100.0,1.0,1.1856,26.0,0.0,0.0,0.0,59.999996,0.0,26.0,26.0,26.0,26.0,0.019444444444444375,0.3106,0.036975,297.226,-2.8056,-2.8395,-1.5815000000000001,-1.5743,-232.57999999999998,215.685,190.7315,0.0,0.0,0.0,0.0,0.02666666666666667,-5.498166666666667,-5.498166666666667,-0.30360000000000004,-0.126,-0.005374999999999908,1.1290000000000004,67.212,0.00205,0.061200000000000004,-0.39200000000000035,100.0,1.0,1.0,207.21333333333334,0.0,0.0,0.0,0.0,0.0,0.0,0.0,8783.0,0.0,55.0,5.0,241.93,1.0,0.0,0.0,0.0,0.0,0.0,1.0,0.0,0.6539999999999999,0.6539999999999999,0.0,0.0,1.0,55.0,616.79921,10000.0,85.000001,85.000001,85.000001,85.000001,395.0,0.0,0.0,0.0,1.0,333.33500000000004,64.24,64.24,46.448,46.448,34.0,-17.025999999999996,19.563333333333333,-29.8375,32.2525,0.0,1782.304,-0.5999999999999996,100.0,18.985,18.569,44.031,43.777,0.0,0.0,100.0,0.0,0.0,0.0,0.0,2214.222222222222,2257.4,4279.555555555556,4409.1,308.01933333333335,307.72875,314.3245,313.95775,21.80777777777778,20.44885,21.83988888888889,21.42,314.999998,314.999998,324.999988,324.999988,99.55878571428572,99.50578333333333,99.56101428571428,99.54511428571429,0.06966666666666654,0.022333333333333316,-0.095,0.12471428571428571,-0.046666666666666856,-0.04833333333333201,1.464,1.4455,37.299,28.805333333333333,37.498999999999995,34.875,55.53,33.074,57.665,51.714,53.370000000000005,32.3675,56.289500000000004,50.095666666666666,52.434,31.996000000000002,56.173,49.532,-0.07299999999999995,0.028000000000000025,0.10799500000000001,0.10338000000000001,0.0,210.45499999999998,210.47,207.21333333333334,207.21333333333334,0.0,0.0
14,0.0,0.0,0.0,1.0,1.0,0.0,0.0,1.0,0.0,100.0,1.0,1.1856,26.0,0.0,0.0,0.0,59.999996,0.0,26.0,26.0,26.0,26.0,0.046222222222222165,0.3045,-0.0115,297.424,-2.83225,-2.8401,-1.584,-1.5602,-229.15,215.66,190.71025,0.0,0.0,0.0,0.0,0.028633333333333334,-5.498166666666667,-5.498166666666667,-0.3149,-0.08533333333333337,0.016000000000000014,-0.137,67.36500000000001,0.0118,0.04812857142857143,-0.41000000000000014,100.0,1.0,1.0,207.76666666666665,0.0,0.0,0.0,0.0,0.0,0.0,0.0,8806.4,0.0,55.0,5.0,242.48000000000002,0.0,0.0,0.0,0.0,0.0,0.0,1.0,0.0,0.7049999999999983,0.7049999999999983,0.0,0.0,0.0,55.0,616.79921,10000.0,85.000001,85.000001,85.000001,85.000001,395.0,0.0,0.0,0.0,1.0,333.33500000000004,64.27,64.27,46.707,46.707,34.0,-17.098,19.116666666666667,-28.08,29.6,0.0,1782.251,-0.6449999999999996,100.0,18.767,18.8795,43.891999999999996,44.064,0.0,0.0,100.0,0.0,0.0,0.0,0.0,2232.222222222222,2207.1,4132.555555555556,4209.4,308.163,307.62875,314.77175,314.3745,21.816222222222223,20.45275,21.849888888888888,21.429,314.999998,314.999998,324.999988,324.999988,99.5588,99.50578333333333,99.56117142857143,99.54524285714285,0.07033333333333358,0.011666666666666714,-0.08942857142857143,0.11371428571428571,-0.061666666666667425,-0.06666666666666998,1.4993333333333334,1.4965,37.352000000000004,28.829666666666668,37.562,34.9315,55.501999999999995,33.1005,57.709,51.778666666666666,53.344,32.3915,56.331,50.157666666666664,52.408,32.0195,56.2115,49.592333333333336,-0.07999999999999996,0.02400000000000002,0.10679500000000001,0.10194500000000001,0.0,210.925,210.95,207.76666666666665,207.76666666666665,0.0,0.0
15,0.0,0.0,0.0,1.0,1.0,0.0,0.0,1.0,0.0,100.0,1.0,1.1856,26.0,0.0,0.0,0.0,59.999996,0.0,26.0,26.0,26.0,26.0,0.05655555555555569,0.3006,-0.014125,297.318,-2.8367,-2.805,-1.60355,-1.5685,-225.91,215.6375,190.68975,0.0,0.0,0.0,0.0,0.030533333333333332,-5.498166666666667,-5.498166666666667,-0.30560000000000004,0.27066666666666683,0.03862499999999991,-0.6200000000000001,67.509,0.0212,0.06521428571428571,-0.4900000000000002,100.0,1.0,1.0,208.17666666666668,0.0,0.0,0.0,0.0,0.0,0.0,0.0,8823.8,0.0,55.0,5.0,243.0,1.0,0.0,0.0,0.0,0.0,0.0,1.0,0.0,0.7530000000000001,0.7530000000000001,0.0,0.0,1.0,55.0,616.79921,10000.0,85.000001,85.000001,85.000001,85.000001,395.0,0.0,0.0,0.0,1.0,333.33500000000004,64.362,64.362,46.57,46.57,34.0,-16.369999999999997,18.799999999999997,-28.2425,31.9075,0.0,1782.203,-0.5949999999999998,100.0,18.7115,18.9625,43.726,44.212,0.0,0.0,100.0,0.0,0.0,0.0,0.0,2161.5555555555557,2197.8,4179.888888888889,4347.8,308.36766666666665,307.6345,314.68725,313.9855,21.82422222222222,20.45645,21.859333333333332,21.4376,314.999998,314.999998,324.999988,324.999988,99.5588,99.50578333333333,99.56131428571429,99.5454,0.07500000000000018,0.009666666666666712,-0.08,0.12971428571428573,-0.054999999999999716,-0.05666666666667197,1.4916666666666667,1.4805,37.400999999999996,28.853,37.620999999999995,34.9845,55.474999999999994,33.1275,57.7525,51.844,53.319,32.4165,56.371,50.220666666666666,52.382,32.043,56.249,49.653999999999996,-0.07150000000000001,0.011499999999999955,0.101,0.11105500000000001,0.0,211.385,211.42000000000002,208.17666666666668,208.17666666666668,0.0,0.0
16,0.0,0.0,0.0,1.0,1.0,0.0,0.0,1.0,0.0,100.0,1.0,1.1856,26.0,0.0,0.0,0.0,59.999996,0.0,26.0,26.0,26.0,26.0,0.04033333333333333,0.2975000000000001,-0.004350000000000001,297.272,-2.89545,-2.7592,-1.57965,-1.5666,-222.46,215.615,190.667875,0.0,0.0,0.0,0.0,0.03253333333333333,-5.498166666666667,-5.498166666666667,-0.3176,-0.5473333333333332,0.028750000000000053,0.27,67.662,0.02695,0.05668571428571429,-0.5420000000000007,100.0,1.0,1.0,208.62,0.0,0.0,0.0,0.0,0.0,0.0,0.0,8842.7,0.0,55.0,5.0,243.55333333333334,0.0,0.0,0.0,0.0,0.0,0.0,1.0,0.0,0.8039999999999985,0.8039999999999985,0.0,0.0,0.0,55.0,616.79921,10000.0,85.000001,85.000001,85.000001,85.000001,395.0,0.0,0.0,0.0,1.0,166.665,64.331,64.331,46.249,46.249,34.0,-16.682000000000002,20.605,-27.015,31.655,0.0,1782.154,-0.5199999999999996,100.0,18.5455,18.797,44.063,44.315,0.0,0.0,100.0,0.0,0.0,0.0,0.0,2162.1111111111113,2375.7,4150.333333333333,4270.6,308.282,307.36575,314.66375,314.2365,21.832333333333334,20.4604,21.869444444444444,21.4466,314.999998,314.999998,324.999988,324.999988,99.55881428571429,99.5058,99.56144285714285,99.54552857142858,0.08033333333333337,0.033333333333333215,-0.06471428571428571,0.13885714285714287,-0.04999999999999716,-0.054999999999999716,1.4866666666666666,1.4725000000000001,37.452,28.877666666666666,37.684,35.0415,55.447,33.153,57.795500000000004,51.90533333333333,53.293,32.44,56.411500000000004,50.279333333333334,52.355999999999995,32.0655,56.286500000000004,49.711666666666666,-0.0615,0.015000000000000013,0.10635000000000001,0.10568500000000002,0.0,211.82999999999998,211.865,208.62,208.62,0.0,0.0
17,0.0,0.0,0.0,1.0,1.0,0.0,0.0,1.0,0.0,100.0,1.0,1.1856,26.0,0.0,0.0,0.0,59.999996,0.0,26.0,26.0,26.0,26.0,0.04677777777777781,0.3104,0.015600000000000001,297.119,-2.8627,-2.7393,-1.621,-1.5283,-219.01,215.595,190.645625,0.0,0.0,0.0,0.0,0.03453333333333333,-5.498166666666667,-5.498166666666667,-0.3116,0.3360000000000001,0.003874999999999851,-1.06,67.814,0.0284,0.07052857142857144,-0.33999999999999986,100.0,1.0,1.0,209.07666666666665,0.0,0.0,0.0,0.0,0.0,0.0,0.0,8861.9,0.0,55.0,5.0,244.09666666666666,1.0,0.0,0.0,0.0,0.0,0.0,1.0,0.0,0.8550000000000004,0.8550000000000004,0.0,0.0,1.0,55.0,616.79921,10000.0,85.000001,85.000001,85.000001,85.000001,395.0,0.0,0.0,0.0,1.0,333.33500000000004,64.194,64.194,46.249,46.249,34.0,-17.810000000000002,18.731666666666666,-30.3725,31.35,0.0,1782.101,-0.45999999999999996,100.0,18.676000000000002,19.0465,43.818,44.303,0.0,0.0,100.0,0.0,0.0,0.0,0.0,2319.1111111111113,2212.4,4385.111111111111,4304.7,307.9513333333333,307.7065,314.24125,314.16525,21.840777777777777,20.46445,21.879444444444445,21.4556,314.999998,314.999998,324.999988,324.999988,99.55882857142858,99.5058,99.56158571428571,99.54568571428571,0.07766666666666655,0.02100000000000013,-0.08342857142857144,0.1382857142857143,-0.06333333333333258,-0.03999999999999915,1.483,1.4795,37.504999999999995,28.90266666666667,37.745999999999995,35.0975,55.42,33.1805,57.8395,51.969,53.268,32.4655,56.4525,50.340666666666664,52.331,32.0905,56.3245,49.77166666666667,-0.0645,0.010000000000000009,0.109865,0.102705,0.0,212.34,212.35000000000002,209.07666666666665,209.07666666666665,0.0,0.0
18,0.0,0.0,0.0,1.0,1.0,0.0,0.0,1.0,0.0,100.0,1.0,1.1856,26.0,0.0,0.0,0.0,59.999996,0.0,26.0,26.0,26.0,26.0,0.04677777777777781,0.29900000000000015,0.006325,297.043,-2.87795,-2.7307,-1.6169,-1.49,-215.75,215.575,190.624625,0.0,0.0,0.0,0.0,0.03643333333333333,-5.498166666666667,-5.498166666666667,-0.31980000000000003,-0.43033333333333335,0.010624999999999885,-0.3540000000000001,67.956,0.025400000000000002,0.06278571428571429,-0.22799999999999976,100.0,1.0,1.0,209.49333333333334,0.0,0.0,0.0,0.0,0.0,0.0,0.0,8879.6,0.0,55.0,5.0,244.61,0.0,0.0,0.0,0.0,0.0,0.0,1.0,0.0,0.9029999999999987,0.9029999999999987,0.0,0.0,0.0,55.0,616.79921,10000.0,85.000001,85.000001,85.000001,85.000001,395.0,0.0,0.0,0.0,1.0,166.665,64.163,64.163,46.143,46.143,34.0,-18.268,19.671666666666667,-29.482499999999998,30.7,0.0,1782.055,-0.4950000000000001,100.0,18.548000000000002,18.858,44.065,44.485,0.0,0.0,100.0,0.0,0.0,0.0,0.0,2340.777777777778,2320.4,4308.666666666667,4315.4,307.92766666666665,307.43875,314.401,314.14175,21.848666666666666,20.4681,21.889,21.464199999999998,314.999998,314.999998,324.999988,324.999988,99.55882857142858,99.5058,99.56172857142857,99.54582857142857,0.07066666666666643,0.021333333333333426,-0.07885714285714286,0.135,-0.046666666666666856,-0.061666666666667425,1.4776666666666665,1.479,37.554,28.925666666666665,37.806,35.150999999999996,55.394,33.205,57.8825,52.03066666666666,53.242999999999995,32.488,56.493,50.39966666666667,52.306,32.112,56.362,49.82933333333333,-0.061999999999999944,0.00649999999999995,0.09738000000000001,0.11534000000000001,0.0,212.745,212.76999999999998,209.49333333333334,209.49333333333334,0.0,0.0
19,0.0,0.0,0.0,1.0,1.0,0.0,0.0,1.0,0.0,100.0,1.0,1.1856,26.0,0.0,0.0,0.0,59.999996,0.0,26.0,26.0,26.0,26.0,0.03455555555555567,0.3143,0.06707500000000001,296.631,-2.79065,-2.8338,-1.5507,-1.476,-212.28,215.555,190.601875,0.0,0.0,0.0,0.0,0.03846666666666667,-5.498166666666667,-5.498166666666667,-0.31370000000000003,0.7496666666666667,0.020874999999999977,0.786,68.106,0.02065,0.06905714285714286,-0.3420000000000005,100.0,1.0,1.0,209.93666666666667,0.0,0.0,0.0,0.0,0.0,0.0,0.0,8898.4,0.0,55.0,5.0,245.15,1.0,0.0,0.0,0.0,0.0,0.0,1.0,0.0,0.9540000000000006,0.9540000000000006,0.0,0.0,1.0,55.0,616.79921,10000.0,85.000001,85.000001,85.000001,85.000001,395.0,0.0,0.0,0.0,1.0,333.33500000000004,63.614,63.614,46.036,46.036,34.0,-16.862000000000002,20.75,-28.169999999999998,33.167500000000004,0.0,1782.003,-0.45999999999999996,100.0,19.234,19.191,44.03,44.394999999999996,0.0,0.0,100.0,0.0,0.0,0.0,0.0,2218.333333333333,2362.5,4282.333333333333,4578.3,307.965,307.2025,314.36275,313.62875,21.857,20.4722,21.899,21.4732,314.999998,314.999998,324.999988,324.999988,99.55884285714286,99.50581666666666,99.56187142857142,99.54597142857143,0.07633333333333336,0.017333333333333423,-0.07314285714285713,0.1435714285714286,-0.03999999999999915,-0.07166666666666544,1.4693333333333334,1.461,37.607,28.951333333333334,37.869,35.207499999999996,55.367999999999995,33.234,57.9255,52.095666666666666,53.218,32.5145,56.533,50.46233333333333,52.282,32.137,56.399,49.89066666666667,-0.061999999999999944,0.006000000000000005,0.10334000000000002,0.11654500000000001,0.0,213.24,213.26,209.93666666666667,209.93666666666667,0.0,0.0
20,0.0,0.0,0.0,1.0,1.0,0.0,0.0,1.0,0.0,100.0,1.0,1.1856,26.0,0.0,0.0,0.0,59.999996,0.0,26.0,26.0,26.0,26.0,0.05266666666666686,0.3006,-0.001275,296.86,-2.89185,-2.7852,-1.55775,-1.5972,-208.8,215.5375,190.5795,0.0,0.0,0.0,0.0,0.04046666666666667,-5.498166666666667,-5.498166666666667,-0.3105,-0.838,0.017249999999999988,-0.9779999999999998,68.257,0.016,0.06495714285714285,-0.20399999999999974,100.0,1.0,1.0,210.33333333333331,0.0,0.0,0.0,0.0,0.0,0.0,0.0,8915.2,0.0,55.0,5.0,245.69666666666666,0.0,0.0,0.0,0.0,0.0,0.0,0.0,0.0,1.004999999999999,1.004999999999999,0.0,0.0,0.0,55.0,616.79921,10000.0,85.000001,85.000001,85.000001,85.000001,395.0,0.0,0.0,0.0,1.0,166.665,64.499,64.499,45.532,45.532,34.0,-17.008,18.036666666666665,-29.5875,31.6625,0.0,1781.953,-0.4349999999999996,100.0,18.64,19.0355,44.578,45.044,0.0,0.0,100.0,0.0,0.0,0.0,0.0,2182.8888888888887,2155.7,4335.777777777777,4304.3,308.3983333333333,307.84925,314.264,314.02025,21.865222222222222,20.4761,21.909222222222223,21.4825,314.999998,314.999998,324.999988,324.999988,99.55884285714286,99.50581666666666,99.56201428571428,99.54611428571428,0.06700000000000017,0.0040000000000000036,-0.0887142857142857,0.11900000000000001,-0.054999999999999716,-0.04333333333332945,1.455,1.449,37.657,28.975666666666665,37.933,35.2655,55.338,33.2595,57.9725,52.162333333333336,53.191,32.538,56.577,50.52633333333333,52.254000000000005,32.16,56.4405,49.95333333333333,-0.0645,0.008499999999999952,0.10218500000000001,0.110335,0.0,213.69,213.68,210.33333333333331,210.33333333333331,0.0,0.0
21,0.0,0.0,0.0,1.0,1.0,0.0,0.0,1.0,0.0,100.0,1.0,1.1856,26.0,0.0,0.0,0.0,59.999996,0.0,26.0,26.0,26.0,26.0,0.03299999999999992,0.2984,-0.05845,297.272,-2.8609999999999998,-2.7903000000000002,-1.6309,-1.5552000000000001,-205.51999999999998,215.51999999999998,190.558,0.0,0.0,0.0,0.0,0.0424,-5.498166666666667,-5.498166666666667,-0.3315,0.08866666666666667,0.004624999999999879,-0.81,68.394,0.01365,0.06442857142857143,-0.23799999999999955,100.0,1.0,1.0,210.94333333333333,0.0,0.0,0.0,0.0,0.0,0.0,0.0,8941.2,0.0,55.0,5.0,246.18666666666667,1.0,0.0,0.0,0.0,0.0,0.0,0.0,0.0,1.0530000000000008,1.0530000000000008,0.0,0.0,1.0,55.0,616.79921,10000.0,85.000001,85.000001,85.000001,85.000001,395.0,0.0,0.0,0.0,1.0,333.33500000000004,64.392,64.392,46.509,46.509,34.0,-18.092,18.331666666666663,-28.7625,29.200000000000003,0.0,1781.905,-0.4500000000000002,100.0,18.6605,18.9075,44.226,44.647999999999996,0.0,0.0,100.0,0.0,0.0,0.0,0.0,2301.8888888888887,2179.5,4177.444444444444,4118.0,308.00866666666667,307.84,314.7545,314.648,21.872888888888887,20.47985,21.918666666666667,21.4909,314.999998,314.999998,324.999988,324.999988,99.55884285714286,99.50581666666666,99.56214285714286,99.54624285714286,0.06266666666666643,0.008333333333333304,-0.0862857142857143,0.1252857142857143,-0.06499999999999773,-0.05666666666667197,1.523,1.526,37.706,28.999000000000002,37.991,35.318,55.312,33.285,58.0115,52.220333333333336,53.166,32.5615,56.6135,50.582,52.230000000000004,32.182,56.474000000000004,50.008,-0.0615,0.009499999999999953,0.095865,0.11434000000000001,0.0,214.125,214.12,210.94333333333333,210.94333333333333,0.0,0.0
22,0.0,0.0,0.0,1.0,1.0,0.0,0.0,1.0,0.0,100.0,1.0,1.1856,26.0,0.0,0.0,0.0,59.999996,0.0,26.0,26.0,26.0,26.0,0.031444444444444386,0.3104,-0.012775,297.012,-2.9115,-2.8518,-1.6186,-1.5434,-202.03,215.5025,190.534375,0.0,0.0,0.0,0.0,0.0444,-5.498166666666667,-5.498166666666667,-0.31370000000000003,0.14800000000000013,0.012375000000000025,1.0810000000000004,68.545,0.0125,0.09032857142857144,-0.33000000000000007,100.0,1.0,1.0,211.24666666666667,0.0,0.0,0.0,0.0,0.0,0.0,0.0,8954.0,0.0,55.0,5.0,246.73000000000002,0.0,0.0,0.0,0.0,0.0,0.0,0.0,0.0,1.1039999999999992,1.1039999999999992,0.0,0.0,0.0,55.0,616.79921,10000.0,85.000001,85.000001,85.000001,85.000001,395.0,0.0,0.0,0.0,1.0,333.33500000000004,64.682,64.682,45.563,45.563,34.0,-16.094,19.045,-30.2825,32.0325,0.0,1781.854,-0.5149999999999997,100.0,18.8015,18.7395,44.408,44.565,0.0,0.0,100.0,0.0,0.0,0.0,0.0,2063.4444444444443,2212.8,4365.111111111111,4478.6,308.624,307.787,314.199,313.863,21.88111111111111,20.48385,21.92877777777778,21.5,314.999998,314.999998,324.999988,324.999988,99.55885714285715,99.50581666666666,99.5623,99.5464,0.07033333333333358,0.01200000000000001,-0.0802857142857143,0.11971428571428572,-0.04333333333332945,-0.07333333333333059,1.4553333333333334,1.456,37.757,29.024,38.055,35.375,55.284,33.3115,58.057,52.285,53.14,32.586,56.656,50.644,52.204,32.2055,56.5135,50.068333333333335,-0.06499999999999995,0.010499999999999954,0.09832500000000001,0.10697000000000001,0.0,214.60000000000002,214.61,211.24666666666667,211.24666666666667,0.0,0.0
23,0.0,0.0,0.0,1.0,1.0,0.0,0.0,1.0,0.0,100.0,1.0,1.1856,26.0,0.0,0.0,0.0,59.999996,0.0,26.0,26.0,26.0,26.0,0.034777777777777796,0.28880000000000017,-0.052700000000000004,296.875,-2.8297499999999998,-2.794,-1.6752,-1.5156,-198.53,215.4875,190.510875,0.0,0.0,0.0,0.0,0.04643333333333333,-5.498166666666667,-5.498166666666667,-0.3281,-0.2673333333333333,0.011500000000000066,-0.7989999999999999,68.691,0.01485,0.06885714285714285,-0.24600000000000044,100.0,1.0,1.0,211.7733333333333,0.0,0.0,0.0,0.0,0.0,0.0,0.0,8976.3,0.0,55.0,5.0,247.25666666666666,1.0,0.0,0.0,0.0,0.0,0.0,0.0,0.0,1.1550000000000011,1.1550000000000011,0.0,0.0,1.0,55.0,616.79921,10000.0,85.000001,85.000001,85.000001,85.000001,395.0,0.0,0.0,0.0,1.0,166.665,64.026,64.026,46.143,46.143,34.0,-18.936,18.673333333333332,-30.0125,29.695,0.0,1781.803,-0.47999999999999954,100.0,18.753,19.015,44.483000000000004,44.929,0.0,0.0,100.0,0.0,0.0,0.0,0.0,2404.8888888888887,2213.4,4249.777777777777,4218.0,307.7456666666667,307.67,314.6005,314.41775,21.889333333333333,20.48785,21.93888888888889,21.5092,314.999998,314.999998,324.999988,324.999988,99.55887142857142,99.50581666666666,99.56244285714286,99.54654285714285,0.05833333333333357,0.004666666666666597,-0.08442857142857144,0.12485714285714286,-0.060000000000002274,-0.045000000000001705,1.4946666666666668,1.479,37.809,29.049,38.117999999999995,35.4325,55.257,33.338499999999996,58.1015,52.35066666666667,53.114000000000004,32.611,56.698,50.707,52.178,32.229,56.5525,50.13,-0.05799999999999994,0.0034999999999999476,0.10110000000000001,0.11294000000000001,0.0,215.03,215.035,211.7733333333333,211.7733333333333,0.0,0.0
24,0.0,0.0,0.0,1.0,1.0,0.0,0.0,1.0,0.0,100.0,1.0,1.1856,26.0,0.0,0.0,0.0,59.999996,0.0,26.0,26.0,26.0,26.0,0.023666666666666725,0.2944,-0.02295,297.104,-2.8305,-2.7988,-1.65875,-1.5478,-195.23000000000002,215.4725,190.488375,0.0,0.0,0.0,0.0,0.04836666666666667,-5.498166666666667,-5.498166666666667,-0.33690000000000003,-0.2663333333333333,0.018750000000000044,-0.32299999999999995,68.83,0.01535,0.07435714285714286,-0.2699999999999996,100.0,1.0,1.0,212.16333333333333,0.0,0.0,0.0,0.0,0.0,0.0,0.0,8992.8,0.0,55.0,5.0,247.75333333333333,0.0,0.0,0.0,0.0,0.0,0.0,0.0,0.0,1.2029999999999994,1.2029999999999994,0.0,0.0,0.0,55.0,616.79921,10000.0,85.000001,85.000001,85.000001,85.000001,395.0,0.0,0.0,0.0,1.0,333.33500000000004,64.835,64.835,45.807,45.807,34.0,-16.436,17.626666666666665,-31.915,30.19,0.0,1781.754,-0.54,100.0,18.652,18.776,44.413,44.897999999999996,0.0,0.0,100.0,0.0,0.0,0.0,0.0,2145.4444444444443,2095.6,4429.0,4264.0,308.42633333333333,308.07425,314.18025,314.28825,21.897,20.49155,21.948444444444444,21.5178,314.999998,314.999998,324.999988,324.999988,99.55887142857142,99.50581666666666,99.56258571428572,99.54668571428572,0.06666666666666643,0.009000000000000119,-0.095,0.11685714285714287,-0.03833333333332689,-0.060000000000002274,1.49,1.4695,37.855999999999995,29.072,38.178,35.486,55.230000000000004,33.3625,58.143,52.410666666666664,53.089,32.632999999999996,56.7365,50.76466666666666,52.153,32.25,56.588,50.18633333333333,-0.06799999999999995,0.01749999999999996,0.106315,0.10655500000000001,0.0,215.45499999999998,215.47,212.16333333333333,212.16333333333333,0.0,0.0
25,0.0,0.0,0.0,1.0,1.0,0.0,0.0,1.0,0.0,100.0,1.0,1.1856,26.0,0.0,0.0,0.0,59.999996,0.0,26.0,26.0,26.0,26.0,0.028555555555555667,0.2901,-0.043225,297.028,-2.89175,-2.7807,-1.5942,-1.55,-191.72,215.46,190.46325,0.0,0.0,0.0,0.0,0.0504,-5.498166666666667,-5.498166666666667,-0.35710000000000003,-0.08599999999999997,0.02774999999999994,0.3730000000000002,68.975,0.0194,0.07577142857142857,-0.4500000000000002,100.0,1.0,1.0,212.66,0.0,0.0,0.0,0.0,0.0,0.0,0.0,9013.9,0.0,55.0,5.0,248.28,1.0,0.0,0.0,0.0,0.0,0.0,0.0,0.0,1.2540000000000013,1.2540000000000013,0.0,0.0,1.0,55.0,616.79921,10000.0,85.000001,85.000001,85.000001,85.000001,395.0,0.0,0.0,0.0,1.0,333.33500000000004,64.178,64.178,46.219,46.219,34.0,-17.915999999999997,21.16,-27.2725,31.015,0.0,1781.704,-0.47499999999999964,100.0,18.592,18.717,44.386,44.635,0.0,0.0,100.0,0.0,0.0,0.0,0.0,2277.1111111111113,2444.3,4097.666666666667,4270.3,307.98833333333334,307.16425,314.86,314.34025,21.905,20.49555,21.958444444444446,21.5268,314.999998,314.999998,324.999988,324.999988,99.55887142857142,99.50583333333333,99.56272857142856,99.54682857142858,0.07200000000000006,0.023333333333333428,-0.07714285714285714,0.13442857142857143,-0.054999999999999716,-0.06333333333333258,1.5236666666666667,1.4955,37.906,29.097,38.239999999999995,35.542500000000004,55.201,33.388999999999996,58.1855,52.473333333333336,53.062,32.6575,56.7765,50.825,52.125,32.274,56.625,50.245,-0.06299999999999994,0.014000000000000012,0.10618000000000001,0.10777500000000001,0.0,215.89499999999998,215.93,212.66,212.66,0.0,0.0
26,0.0,0.0,0.0,1.0,1.0,0.0,0.0,1.0,0.0,100.0,1.0,1.1856,26.0,0.0,0.0,0.0,59.999996,0.0,26.0,26.0,26.0,26.0,0.045666666666666744,0.3045,0.058875000000000004,296.143,-2.8264,-2.8585,-1.6372499999999999,-1.5509,-188.19,215.445,190.437625,0.0,0.0,0.0,0.0,0.05246666666666667,-5.498166666666667,-5.498166666666667,-0.3265,0.6306666666666667,0.014124999999999943,-0.8039999999999998,69.123,0.022500000000000003,0.0988,-0.32399999999999984,100.0,1.0,1.0,212.92333333333335,0.0,0.0,0.0,0.0,0.0,0.0,0.0,9025.0,0.0,55.0,5.0,248.81,0.0,0.0,0.0,0.0,0.0,0.0,0.0,0.0,1.3049999999999997,1.3049999999999997,0.0,0.0,0.0,55.0,616.79921,10000.0,85.000001,85.000001,85.000001,85.000001,395.0,0.0,0.0,0.0,1.0,166.665,63.873,63.873,44.907,44.907,34.0,-17.602,18.703333333333333,-33.067499999999995,34.065,0.0,1781.653,-0.5,100.0,19.151,19.3735,44.604,45.069,0.0,0.0,100.0,0.0,0.0,0.0,0.0,2309.5555555555557,2152.1,4674.333333333333,4593.6,307.9343333333333,307.7665,313.586,313.4795,21.913333333333334,20.4997,21.968666666666667,21.536,314.999998,314.999998,324.999988,324.999988,99.55888571428571,99.50583333333333,99.56287142857143,99.54698571428571,0.0773333333333337,0.010333333333333306,-0.07871428571428571,0.12785714285714286,-0.06333333333333258,-0.046666666666666856,1.4263333333333335,1.4055,37.958,29.123333333333335,38.304,35.6,55.175,33.418,58.231,52.539,53.038,32.684,56.8195,50.888,52.101,32.299,56.664500000000004,50.306666666666665,-0.0675,0.00649999999999995,0.10313000000000001,0.10327000000000001,0.0,216.39,216.41500000000002,212.92333333333335,212.92333333333335,0.0,0.0
27,0.0,0.0,0.0,1.0,1.0,0.0,0.0,1.0,0.0,100.0,1.0,1.1856,26.0,0.0,0.0,0.0,59.999996,0.0,26.0,26.0,26.0,26.0,0.05922222222222229,0.26880000000000015,-0.008375,296.555,-2.843,-2.7983,-1.6003,-1.6273,-184.87,215.435,190.4145,0.0,0.0,0.0,0.0,0.054400000000000004,-5.498166666666667,-5.498166666666667,-0.3447,-0.9793333333333333,0.016124999999999945,-0.75,69.258,0.02205,0.06227142857142857,-0.3120000000000003,100.0,1.0,1.0,213.41666666666669,0.0,0.0,0.0,0.0,0.0,0.0,0.0,9046.0,0.0,55.0,5.0,249.3,1.0,0.0,0.0,0.0,0.0,0.0,0.0,0.0,1.352999999999998,1.352999999999998,0.0,0.0,1.0,55.0,616.79921,10000.0,85.000001,85.000001,85.000001,85.000001,395.0,0.0,0.0,0.0,1.0,166.665,64.224,64.224,45.09,45.09,34.0,-16.58,19.046666666666667,-29.5425,31.88,0.0,1781.604,-0.5149999999999997,100.0,18.856,19.25,45.155,45.452,0.0,0.0,100.0,0.0,0.0,0.0,0.0,2183.8888888888887,2215.2,4311.222222222223,4227.8,308.34,307.667,314.37175,314.266,21.92088888888889,20.5035,21.97833333333333,21.5449,314.999998,314.999998,324.999988,324.999988,99.55888571428571,99.50583333333333,99.56301428571429,99.54712857142857,0.07600000000000007,0.017000000000000126,-0.07971428571428571,0.1272857142857143,-0.04999999999999716,-0.04333333333332945,1.4456666666666667,1.439,38.004999999999995,29.14666666666667,38.364000000000004,35.6555,55.147999999999996,33.443,58.275,52.60166666666667,53.013,32.707,56.8605,50.94833333333334,52.076,32.321,56.7025,50.36566666666667,-0.06799999999999995,0.01100000000000001,0.10732000000000001,0.10656,0.0,216.76999999999998,216.78,213.41666666666669,213.41666666666669,0.0,0.0
28,0.0,0.0,0.0,1.0,1.0,0.0,0.0,1.0,0.0,100.0,1.0,1.1856,26.0,0.0,0.0,0.0,59.999996,0.0,26.0,26.0,26.0,26.0,0.03200000000000003,0.2816000000000001,-0.052175,296.844,-2.82285,-2.7942,-1.6452499999999999,-1.5796999999999999,-181.34,215.4225,190.38925,0.0,0.0,0.0,0.0,0.05643333333333334,-5.498166666666667,-5.498166666666667,-0.35860000000000003,0.5449999999999999,0.008124999999999938,0.40200000000000014,69.4,0.02025,0.07477142857142857,-0.3779999999999992,100.0,1.0,1.0,213.99666666666667,0.0,0.0,0.0,0.0,0.0,0.0,0.0,9070.5,0.0,55.0,5.0,249.81,0.0,0.0,0.0,0.0,0.0,0.0,0.0,0.0,1.404,1.404,0.0,0.0,0.0,55.0,616.79921,10000.0,85.000001,85.000001,85.000001,85.000001,395.0,0.0,0.0,0.0,1.0,166.665,64.087,64.087,46.143,46.143,34.0,-16.314,20.16,-27.8425,31.490000000000002,0.0,1781.554,-0.5949999999999998,100.0,19.122,19.062,44.595,44.894,0.0,0.0,100.0,0.0,0.0,0.0,0.0,2170.4444444444443,2312.6,4142.444444444444,4239.0,308.1623333333333,307.5355,314.848,314.42125,21.929,20.5076,21.988222222222223,21.5539,314.999998,314.999998,324.999988,324.999988,99.5589,99.50585,99.56315714285714,99.54727142857143,0.0863333333333336,0.030666666666666842,-0.06942857142857144,0.1415714285714286,-0.04333333333332945,-0.061666666666667425,1.5216666666666667,1.506,38.056,29.172333333333334,38.427,35.712,55.120999999999995,33.4705,58.3155,52.663333333333334,52.988,32.7325,56.897999999999996,51.007333333333335,52.051,32.3455,56.737,50.42333333333333,-0.07250000000000001,0.021499999999999964,0.10159000000000001,0.10926500000000001,0.0,217.235,217.255,213.99666666666667,213.99666666666667,0.0,0.0
29,0.0,0.0,0.0,1.0,1.0,0.0,0.0,1.0,0.0,100.0,1.0,1.1856,26.0,0.0,0.0,0.0,59.999996,0.0,26.0,26.0,26.0,26.0,0.05699999999999994,0.28800000000000003,0.00875,296.631,-2.8064999999999998,-2.8523,-1.5875,-1.5617,-177.79,215.4125,190.362875,0.0,0.0,0.0,0.0,0.0585,-5.498166666666667,-5.498166666666667,-0.3527,-0.5566666666666666,0.0008749999999999591,-0.8449999999999998,69.547,0.02155,0.09062857142857143,-0.41799999999999926,100.0,1.0,1.0,214.24333333333334,0.0,0.0,0.0,0.0,0.0,0.0,0.0,9081.0,0.0,55.0,5.0,250.34,1.0,0.0,0.0,0.0,0.0,0.0,0.0,0.0,1.4549999999999983,1.4549999999999983,0.0,0.0,1.0,55.0,616.79921,10000.0,85.000001,85.000001,85.000001,85.000001,395.0,0.0,0.0,0.0,1.0,166.665,64.651,64.651,45.059,45.059,34.0,-15.984000000000002,18.698333333333334,-30.634999999999998,32.275000000000006,0.0,1781.503,-0.665,100.0,18.573,18.997,44.907,45.236000000000004,0.0,0.0,100.0,0.0,0.0,0.0,0.0,2171.666666666667,2120.8,4426.888888888889,4433.4,308.39866666666666,307.91075,314.112,313.85175,21.936888888888888,20.51155,21.998444444444445,21.5632,314.999998,314.999998,324.999988,324.999988,99.5589,99.50585,99.56331428571428,99.54742857142857,0.08499999999999996,0.026000000000000023,-0.08442857142857144,0.11857142857142858,-0.04333333333332945,-0.04999999999999716,1.4323333333333332,1.4175,38.105999999999995,29.197,38.489999999999995,35.7695,55.092,33.4965,58.3615,52.72866666666667,52.96,32.756,56.9415,51.07,52.022999999999996,32.368,56.777,50.48466666666667,-0.07899999999999996,0.02749999999999997,0.10611000000000001,0.099735,0.0,217.67000000000002,217.675,214.24333333333334,214.24333333333334,0.0,0.0
30,0.0,0.0,0.0,1.0,1.0,0.0,0.0,1.0,0.0,100.0,1.0,1.1856,26.0,0.0,0.0,0.0,59.999996,0.0,26.0,26.0,26.0,26.0,0.06733333333333325,0.27170000000000005,-0.005275,296.082,-2.7791,-2.8634,-1.5655000000000001,-1.6164,-174.45,215.405,190.337875,0.0,0.0,0.0,0.0,0.06043333333333334,-5.498166666666667,-5.498166666666667,-0.3613,0.5496666666666667,0.0017499999999999183,-0.41400000000000015,69.679,0.0256,0.0799857142857143,-0.484,100.0,1.0,1.0,214.78,0.0,0.0,0.0,0.0,0.0,0.0,0.0,9103.7,0.0,55.0,5.0,250.81333333333333,0.0,0.0,0.0,0.0,0.0,0.0,1.0,0.0,1.5030000000000001,1.5030000000000001,0.0,0.0,0.0,55.0,616.79921,10000.0,85.000001,85.000001,85.000001,85.000001,395.0,0.0,0.0,0.0,1.0,333.33500000000004,62.851,62.851,45.853,45.853,34.0,-18.814,22.618333333333332,-27.805,32.205,0.0,1781.453,-0.6150000000000002,100.0,19.392,19.503,44.79,45.218,0.0,0.0,100.0,0.0,0.0,0.0,0.0,2502.4444444444443,2491.3,4185.333333333333,4247.9,307.2006666666667,306.87575,314.7275,314.27075,21.944666666666667,20.5155,22.00788888888889,21.5718,314.999998,314.999998,324.999988,324.999988,99.55891428571428,99.50585,99.56345714285715,99.54755714285714,0.08966666666666656,0.03133333333333321,-0.08014285714285714,0.13685714285714287,-0.04999999999999716,-0.05666666666667197,1.4893333333333332,1.472,38.153999999999996,29.222,38.55,35.824,55.069,33.5245,58.400999999999996,52.788666666666664,52.939,32.7815,56.978,51.12766666666667,52.001999999999995,32.3925,56.811,50.541,-0.07899999999999996,0.02200000000000002,0.10536500000000001,0.11279000000000002,0.0,218.09,218.125,214.78,214.78,0.0,0.0
31,0.0,0.0,0.0,1.0,1.0,0.0,0.0,1.0,0.0,100.0,1.0,1.1856,26.0,0.0,0.0,0.0,59.999996,0.0,26.0,26.0,26.0,26.0,0.05255555555555569,0.29610000000000003,0.08095000000000001,295.639,-2.9037,-2.7738,-1.65575,-1.5606,-170.89,215.3975,190.312,0.0,0.0,0.0,0.0,0.0625,-5.498166666666667,-5.498166666666667,-0.33590000000000003,-0.31499999999999995,0.011500000000000066,0.9340000000000002,69.825,0.03015,0.08461428571428571,-0.49799999999999933,100.0,1.0,1.0,214.98666666666668,0.0,0.0,0.0,0.0,0.0,0.0,0.0,9112.4,0.0,55.0,5.0,251.34,1.0,0.0,0.0,0.0,0.0,0.0,1.0,0.0,1.5539999999999985,1.5539999999999985,0.0,0.0,1.0,55.0,616.79921,10000.0,85.000001,85.000001,85.000001,85.000001,395.0,0.0,0.0,0.0,1.0,333.33500000000004,63.705,63.705,43.991,43.991,34.0,-16.174,20.691666666666666,-32.07,36.2425,0.0,1781.402,-0.6399999999999997,100.0,19.4805,19.5285,45.527,45.673,0.0,0.0,100.0,0.0,0.0,0.0,0.0,2158.8888888888887,2399.3,4556.222222222223,4706.6,308.3183333333333,307.3865,313.65475,313.16675,21.95277777777778,20.5197,22.018333333333334,21.5813,314.999998,314.999998,324.999988,324.999988,99.55892857142857,99.50585,99.5636,99.54772857142858,0.10033333333333339,0.028000000000000025,-0.06485714285714286,0.14014285714285715,-0.04333333333332945,-0.07333333333333059,1.3853333333333333,1.3679999999999999,38.205,29.247999999999998,38.614000000000004,35.882999999999996,55.043,33.5525,58.448499999999996,52.857,52.914,32.808,57.022999999999996,51.193333333333335,51.977000000000004,32.417500000000004,56.8525,50.60466666666667,-0.07750000000000001,0.015000000000000013,0.10977,0.09856500000000001,0.0,218.53,218.57,214.98666666666668,214.98666666666668,0.0,0.0
32,0.0,0.0,0.0,1.0,1.0,0.0,0.0,1.0,0.0,100.0,1.0,1.1856,26.0,0.0,0.0,0.0,59.999996,0.0,26.0,26.0,26.0,26.0,0.07000000000000006,0.2836000000000001,-0.034675000000000004,296.387,-2.84005,-2.8218,-1.6706500000000002,-1.5588000000000002,-167.32999999999998,215.39249999999998,190.286875,0.0,0.0,0.0,0.0,0.0646,-5.498166666666667,-5.498166666666667,-0.3609,-0.34166666666666656,-0.006375000000000242,-0.9470000000000001,69.964,0.03365,0.06247142857142857,-0.49600000000000044,100.0,1.0,1.0,215.60333333333335,0.0,0.0,0.0,0.0,0.0,0.0,0.0,9138.6,0.0,55.0,5.0,251.84,0.0,0.0,0.0,0.0,0.0,0.0,1.0,0.0,1.6050000000000004,1.6050000000000004,0.0,0.0,0.0,55.0,616.79921,10000.0,85.000001,85.000001,85.000001,85.000001,395.0,0.0,0.0,0.0,1.0,166.665,63.995,63.995,45.303,45.303,34.0,-16.689999999999998,19.161666666666665,-29.945,32.980000000000004,0.0,1781.353,-0.6399999999999997,100.0,19.1125,19.538,45.134,45.472,0.0,0.0,100.0,0.0,0.0,0.0,0.0,2245.666666666667,2181.9,4317.444444444444,4372.2,308.144,307.76175,314.46475,314.0975,21.96066666666667,20.5238,22.028444444444446,21.5906,314.999998,314.999998,324.999988,324.999988,99.55892857142857,99.50585,99.56375714285714,99.54787142857143,0.09200000000000008,0.028000000000000025,-0.07214285714285713,0.14814285714285713,-0.04833333333333201,-0.054999999999999716,1.483,1.466,38.254000000000005,29.274,38.678,35.941,55.015,33.5805,58.4915,52.921,52.888,32.8335,57.063,51.254666666666665,51.951,32.442,56.888999999999996,50.66466666666667,-0.08050000000000002,0.018000000000000016,0.10289500000000001,0.10935,0.0,218.945,218.97500000000002,215.60333333333335,215.60333333333335,0.0,0.0
33,0.0,0.0,0.0,1.0,1.0,0.0,0.0,1.0,0.0,100.0,1.0,1.1856,26.0,0.0,0.0,0.0,59.999996,0.0,26.0,26.0,26.0,26.0,0.05699999999999994,0.2865,-0.076075,296.738,-2.8651,-2.8397,-1.60185,-1.6004,-163.76,215.3875,190.26025,0.0,0.0,0.0,0.0,0.06666666666666667,-5.498166666666667,-5.498166666666667,-0.3679,-0.07299999999999995,-0.008875000000000188,0.8620000000000001,70.104,0.0318,0.08691428571428572,-0.4739999999999993,100.0,1.0,1.0,216.05,0.0,0.0,0.0,0.0,0.0,0.0,0.0,9157.5,0.0,55.0,5.0,252.34666666666666,1.0,0.0,0.0,0.0,0.0,0.0,1.0,0.0,1.6559999999999988,1.6559999999999988,0.0,0.0,1.0,55.0,616.79921,10000.0,85.000001,85.000001,85.000001,85.000001,395.0,0.0,0.0,0.0,1.0,166.665,64.453,64.453,45.715,45.715,34.0,-15.526,19.166666666666664,-27.7925,33.36,0.0,1781.302,-0.71,100.0,19.04,19.0875,44.929,45.141000000000005,0.0,0.0,100.0,0.0,0.0,0.0,0.0,2127.4444444444443,2161.7,4219.666666666667,4358.1,308.4096666666667,307.983,314.595,314.152,21.968555555555554,20.5278,22.038444444444444,21.5998,314.999998,314.999998,324.999988,324.999988,99.55894285714285,99.50586666666666,99.5639,99.54801428571429,0.10599999999999987,0.04066666666666685,-0.06385714285714286,0.147,-0.03833333333332689,-0.054999999999999716,1.4926666666666666,1.47,38.304,29.298666666666666,38.739999999999995,35.9985,54.988,33.6065,58.533,52.983666666666664,52.861999999999995,32.8575,57.1015,51.315,51.925,32.465,56.925,50.72333333333333,-0.08350000000000002,0.025000000000000022,0.100305,0.109465,0.0,219.38,219.41500000000002,216.05,216.05,0.0,0.0
34,0.0,0.0,0.0,1.0,1.0,0.0,0.0,1.0,0.0,100.0,1.0,1.1856,26.0,0.0,0.0,0.0,59.999996,0.0,26.0,26.0,26.0,26.0,0.053444444444444406,0.2670000000000001,-0.0582,296.829,-2.8077,-2.819,-1.6401,-1.5829,-160.39,215.385,190.23375,0.0,0.0,0.0,0.0,0.06863333333333334,-5.498166666666667,-5.498166666666667,-0.39,-0.806,0.01475000000000004,1.016,70.237,0.029,0.08597142857142857,-0.47799999999999976,100.0,1.0,1.0,216.40666666666667,0.0,0.0,0.0,0.0,0.0,0.0,0.0,9172.7,0.0,55.0,5.0,252.82333333333332,0.0,0.0,0.0,0.0,0.0,0.0,1.0,0.0,1.7040000000000006,1.7040000000000006,0.0,0.0,0.0,55.0,616.79921,10000.0,85.000001,85.000001,85.000001,85.000001,395.0,0.0,0.0,0.0,1.0,333.33500000000004,64.804,64.804,45.7,45.7,34.0,-14.382000000000001,19.005,-28.71,33.96,0.0,1781.252,-0.7450000000000001,100.0,18.772,18.8205,44.9,45.288,0.0,0.0,100.0,0.0,0.0,0.0,0.0,2019.3333333333333,2138.4,4237.555555555556,4414.7,308.604,308.0085,314.55775,313.97875,21.97588888888889,20.53145,22.048000000000002,21.6085,314.999998,314.999998,324.999988,324.999988,99.55895714285714,99.50586666666666,99.56404285714285,99.54815714285715,0.1080000000000001,0.045666666666666744,-0.06642857142857143,0.14957142857142858,-0.03333333333333144,-0.04999999999999716,1.4746666666666666,1.4405000000000001,38.349999999999994,29.321333333333335,38.8,36.0535,54.961,33.629999999999995,58.5725,53.045,52.837,32.879,57.1385,51.374,51.9,32.4855,56.959,50.781,-0.08650000000000002,0.03400000000000003,0.106355,0.11720000000000001,0.0,219.76999999999998,219.805,216.40666666666667,216.40666666666667,0.0,0.0
35,0.0,0.0,0.0,1.0,1.0,0.0,0.0,1.0,0.0,100.0,1.0,1.1856,26.0,0.0,0.0,0.0,59.999996,0.0,26.0,26.0,26.0,26.0,0.07344444444444442,0.25780000000000003,-0.062725,296.829,-2.9467,-2.7942,-1.5573000000000001,-1.5917,-156.8,215.3825,190.204,0.0,0.0,0.0,0.0,0.0707,-5.498166666666667,-5.498166666666667,-0.4294,-0.10033333333333339,-0.002000000000000224,-1.328,70.375,0.03295,0.07544285714285714,-0.5659999999999998,100.0,1.0,1.0,216.93333333333334,0.0,0.0,0.0,0.0,0.0,0.0,0.0,9195.0,0.0,55.0,5.0,253.32,1.0,0.0,0.0,0.0,0.0,0.0,1.0,0.0,1.754999999999999,1.754999999999999,0.0,0.0,1.0,55.0,616.79921,10000.0,85.000001,85.000001,85.000001,85.000001,395.0,0.0,0.0,0.0,1.0,166.665,64.209,64.209,45.547,45.547,34.0,-17.616,20.713333333333335,-27.02,30.7925,0.0,1781.203,-0.5049999999999999,100.0,18.4565,19.256,44.676,45.016000000000005,0.0,0.0,100.0,0.0,0.0,0.0,0.0,2253.333333333333,2359.0,4202.555555555556,4127.2,308.1526666666667,307.2195,314.74725,314.73075,21.983666666666664,20.5356,22.058,21.6177,314.999998,314.999998,324.999988,324.999988,99.55895714285714,99.50586666666666,99.56418571428571,99.54831428571428,0.08366666666666678,0.024666666666666837,-0.06814285714285714,0.14342857142857143,-0.05666666666667197,-0.045000000000001705,1.5193333333333334,1.5,38.397999999999996,29.347666666666665,38.861999999999995,36.1105,54.932,33.658,58.613,53.10633333333333,52.81,32.905,57.1765,51.433,51.873000000000005,32.5105,56.9935,50.83833333333333,-0.06999999999999995,0.015000000000000013,0.10433500000000001,0.10738500000000001,0.0,220.22500000000002,220.24,216.93333333333334,216.93333333333334,0.0,0.0
