,ABS Active,ABS Enabled,AID Allow Tire Blankets,AID Auto Blip,AID Auto Clutch,AID Auto Shift,AID Fuel Rate,AID Ideal Line,AID Mech Damage,AID Stability,AID Tire Wear Rate,Air Density,Air Temp,Ballast,Best Lap Delta,Best Lap Time,Brake Bias,Brake Pos,Brake Temp FL,Brake Temp FR,Brake Temp RL,Brake Temp RR,CG Accel Lateral,CG Accel Longitudinal,CG Accel Vertical,CG Height,Camber FL,Camber FR,Camber RL,Camber RR,Car Coord X,Car Coord Y,Car Coord Z,Car Damage Front,Car Damage Left,Car Damage Rear,Car Damage Right,Car Pos Norm,Caster FL,Caster FR,Chassis Pitch Angle,Chassis Pitch Rate,Chassis Roll Angle,Chassis Roll Rate,Chassis Velocity X,Chassis Velocity Y,Chassis Velocity Z,Chassis Yaw Rate,Clutch Pos,DRS Active,DRS Available,Drive Train Speed,ERS Heat Charging,ERS Is Charging,ERS Max Energy,ERS Power Level,ERS Recovery Level,Engine Brake Setting,Engine Limiter,Engine RPM,Flags,Fuel Level,Gear,Ground Speed,HR Sample Clock,In Pit,KERS Charge,KERS Deployed Energy,KERS Input,KERS Max Energy,LR Sample Clock,Lap Invalidated,Lap Time,Lap Time2,Last Lap Time,Last Sector Time,MR Sample Clock,Max Fuel,Max Power,Max RPM,Max Sus Travel FL,Max Sus Travel FR,Max Sus Travel RL,Max Sus Travel RR,Max Torque,Max Turbo Boost,Num Tires Off Track,Penalties Enabled,Position,Raw Data Sample Rate,Ride Height FL,Ride Height FR,Ride Height RL,Ride Height RR,Road Temp,Self Align Torque FL,Self Align Torque FR,Self Align Torque RL,Self Align Torque RR,Session Lap Count,Session Time Left,Steering Angle,Surface Grip,Suspension Travel FL,Suspension Travel FR,Suspension Travel RL,Suspension Travel RR,TC Active,TC Enabled,Throttle Pos,Tire Dirt Level FL,Tire Dirt Level FR,Tire Dirt Level RL,Tire Dirt Level RR,Tire Load FL,Tire Load FR,Tire Load RL,Tire Load RR,Tire Loaded Radius FL,Tire Loaded Radius FR,Tire Loaded Radius RL,Tire Loaded Radius RR,Tire Pressure FL,Tire Pressure FR,Tire Pressure RL,Tire Pressure RR,Tire Radius FL,Tire Radius FR,Tire Radius RL,Tire Radius RR,Tire Rubber Grip FL,Tire Rubber Grip FR,Tire Rubber Grip RL,Tire Rubber Grip RR,Tire Slip Angle FL,Tire Slip Angle FR,Tire Slip Angle RL,Tire Slip Angle RR,Tire Slip Ratio FL,Tire Slip Ratio FR,Tire Slip Ratio RL,Tire Slip Ratio RR,Tire Temp Core FL,Tire Temp Core FR,Tire Temp Core RL,Tire Temp Core RR,Tire Temp Inner FL,Tire Temp Inner FR,Tire Temp Inner RL,Tire Temp Inner RR,Tire Temp Middle FL,Tire Temp Middle FR,Tire Temp Middle RL,Tire Temp Middle RR,Tire Temp Outer FL,Tire Temp Outer FR,Tire Temp Outer RL,Tire Temp Outer RR,Toe In FL,Toe In FR,Toe In RL,Toe In RR,Turbo Boost,Wheel Angular Speed FL,Wheel Angular Speed FR,Wheel Angular Speed RL,Wheel Angular Speed RR,Wind Direction,Wind Speed
0,0.0,0.0,0.0,1.0,1.0,0.0,0.0,1.0,0.0,100.0,1.0,1.1856,26.0,0.0,0.0,0.0,59.99999,0.0,26.0,26.0,26.0,26.0,-0.05944444444444441,0.3329,0.0634,298.111,-2.81995,-2.7578,-1.51335,-1.5546,-275.74,216.275,190.992,0.0,0.0,0.0,0.0,0.0015666666666666667,-5.498166666666667,-5.498166666666667,-0.41950000000000004,0.966,-0.008999999999999897,-0.977,65.721,-0.0356,-0.058660000000000004,0.9039999999999999,100.0,1.0,1.0,203.03333333333333,0.0,0.0,0.0,0.0,0.0,0.0,0.0,8605.8,0.0,55.0,5.0,236.56,0.0,0.0,0.0,0.0,0.0,0.0,0.0,0.0,0.0030000000000001137,0.0030000000000001137,0.0,0.0,0.0,55.0,616.79921,10000.0,85.0,85.0,85.0,85.0,395.0,0.0,0.0,0.0,1.0,20.0,60.806,60.806,50.4,50.4,34.0,-23.7575,21.546666666666667,-28.37666666666667,22.815,0.0,1782.517,0.8500000000000014,100.0,20.818,20.3065,40.326,40.354,0.0,0.0,100.0,0.0,0.0,0.0,0.0,2578.75,2911.4,3909.8888888888887,3794.8,307.086,305.55975,315.36775,315.3695,21.68188888888889,20.4287,21.7348,21.3074,314.99999,314.99999,324.99998,324.99998,99.55698571428572,99.50603333333333,99.56337142857143,99.54495714285714,-0.0402499999999999,-0.09375,-0.16616666666666666,0.058666666666666666,-0.06833333333332803,-0.061666666666667425,1.6155,1.655,36.512,28.679000000000002,36.842,34.1715,55.266,33.08,58.3865,51.486000000000004,53.164,32.366,57.0245,49.86366666666667,52.285,31.987000000000002,56.976,49.305,0.025500000000000078,-0.10000000000000009,0.11263000000000001,0.10564000000000001,0.0,205.925,205.835,203.03333333333333,203.03333333333333,0.0,0.0
1,0.0,0.0,0.0,1.0,1.0,0.0,0.0,1.0,0.0,100.0,1.0,1.1856,26.0,0.0,0.0,0.0,59.999996,0.0,26.0,26.0,26.0,26.0,-0.09566666666666657,0.3439000000000001,0.21933333333333335,297.104,-2.7342,-2.8653,-1.5226000000000002,-1.5521,-272.18,216.26749999999998,190.970625,0.0,0.0,0.0,0.0,0.003633333333333334,-5.498166666666667,-5.498166666666667,-0.33540000000000003,-0.272,-0.05911111111111156,-0.9390000000000001,65.90299999999999,-0.0511,-0.014180000000000002,1.3320000000000007,100.0,1.0,1.0,203.09333333333333,0.0,0.0,0.0,0.0,0.0,0.0,0.0,8608.4,0.0,55.0,5.0,237.21666666666667,1.0,0.0,0.0,0.0,0.0,0.0,0.0,0.0,0.05699999999999861,0.05699999999999861,0.0,0.0,1.0,55.0,616.79921,10000.0,85.000001,85.000001,85.000001,85.000001,395.0,0.0,0.0,0.0,1.0,166.665,62.546,62.546,48.203,48.203,34.0,-21.365,13.488333333333333,-34.806666666666665,30.225,0.0,1782.463,1.0399999999999991,100.0,20.91,20.382,42.471000000000004,41.528999999999996,0.0,0.0,100.0,0.0,0.0,0.0,0.0,2378.375,1960.5,4459.333333333333,4816.4,307.655,308.60225,313.91625,312.84625,21.691333333333333,20.4329,21.746,21.317,314.999998,314.999998,324.999988,324.999988,99.55698571428572,99.50605,99.56352857142858,99.54511428571429,-0.04899999999999993,-0.11699999999999999,-0.16683333333333333,0.03883333333333334,-0.046666666666666856,-0.04999999999999716,1.38,1.4195,36.571,28.706,36.913,34.2315,55.242000000000004,33.114,58.4365,51.55533333333334,53.141999999999996,32.3975,57.0715,49.93033333333334,52.263,32.016999999999996,57.019999999999996,49.370333333333335,0.04150000000000009,-0.1120000000000001,0.102635,0.10966000000000001,0.0,206.485,206.375,203.09333333333333,203.09333333333333,0.0,0.0
2,0.0,0.0,0.0,1.0,1.0,0.0,0.0,1.0,0.0,100.0,1.0,1.1856,26.0,0.0,0.0,0.0,59.999996,0.0,26.0,26.0,26.0,26.0,-0.13244444444444448,0.32010000000000005,-0.011466666666666668,298.004,-2.6989,-2.9019,-1.47945,-1.6168,-269.01,216.26,190.953,0.0,0.0,0.0,0.0,0.0054666666666666665,-5.498166666666667,-5.498166666666667,-0.3927,-0.4436666666666667,-0.05677777777777804,1.799,66.05,-0.06955,-0.07556,1.652000000000001,100.0,1.0,1.0,204.08333333333331,0.0,0.0,0.0,0.0,0.0,0.0,0.0,8650.4,0.0,55.0,5.0,237.75,0.0,0.0,0.0,0.0,0.0,0.0,0.0,0.0,0.10500000000000043,0.10500000000000043,0.0,0.0,0.0,55.0,616.79921,10000.0,85.000001,85.000001,85.000001,85.000001,395.0,0.0,0.0,0.0,1.0,333.33500000000004,61.493,61.493,50.446,50.446,34.0,-25.8675,15.293333333333333,-28.676666666666666,19.6175,0.0,1782.413,0.8150000000000013,100.0,21.31,20.1545,42.507,41.294,0.0,0.0,100.0,0.0,0.0,0.0,0.0,2745.5,2212.2,3729.777777777778,3576.9,306.4866666666667,307.84675,315.668,316.01825,21.69988888888889,20.4364,21.7558,21.3253,314.999998,314.999998,324.999988,324.999988,99.557,99.50605,99.56365714285714,99.54524285714285,-0.07024999999999992,-0.13249999999999995,-0.21533333333333335,0.010166666666666666,-0.07499999999999574,-0.060000000000002274,1.6345,1.694,36.623999999999995,28.727333333333334,36.974000000000004,34.283,55.223,33.1395,58.4745,51.609,53.123999999999995,32.421,57.1075,49.98166666666667,52.245,32.039,57.053,49.42066666666666,0.03149999999999986,-0.10950000000000015,0.10646000000000001,0.11422000000000002,0.0,206.93,206.775,204.08333333333331,204.08333333333331,0.0,0.0
3,0.0,0.0,0.0,1.0,1.0,0.0,0.0,1.0,0.0,100.0,1.0,1.1856,26.0,0.0,0.0,0.0,59.999996,0.0,26.0,26.0,26.0,26.0,-0.13455555555555554,0.34450000000000003,-0.03553333333333333,297.729,-2.83225,-2.7899000000000003,-1.50885,-1.5849,-265.84,216.25,190.9345,0.0,0.0,0.0,0.0,0.0073,-5.498166666666667,-5.498166666666667,-0.35500000000000004,0.8093333333333333,-0.009333333333333194,-0.773,66.209,-0.0879,-0.02154,1.2100000000000009,100.0,1.0,1.0,204.25666666666666,0.0,0.0,0.0,0.0,0.0,0.0,0.0,8657.7,0.0,55.0,5.0,238.31666666666666,1.0,0.0,0.0,0.0,0.0,0.0,0.0,0.0,0.1529999999999987,0.1529999999999987,0.0,0.0,1.0,55.0,616.79921,10000.0,85.000001,85.000001,85.000001,85.000001,395.0,0.0,0.0,0.0,1.0,166.665,62.454,62.454,48.492,48.492,34.0,-20.8275,14.281666666666666,-35.22666666666667,23.27,0.0,1782.367,0.745000000000001,100.0,21.039,20.2895,42.067,41.172,0.0,0.0,100.0,0.0,0.0,0.0,0.0,2216.75,2145.8,4327.111111111111,4189.2,308.03366666666665,307.821,314.3205,314.44175,21.708222222222222,20.4401,21.7654,21.3336,314.999998,314.999998,324.999988,324.999988,99.557,99.50606666666667,99.56378571428571,99.54538571428571,-0.06574999999999998,-0.13449999999999995,-0.216,-0.0021666666666666666,-0.051666666666669414,-0.04833333333333201,1.514,1.553,36.676,28.750666666666667,37.033,34.335,55.202,33.17,58.5125,51.66733333333333,53.104,32.449,57.1425,50.03766666666667,52.224000000000004,32.066,57.086,49.47533333333333,0.018000000000000238,-0.09450000000000003,0.10867500000000001,0.11050000000000001,0.0,207.42000000000002,207.325,204.25666666666666,204.25666666666666,0.0,0.0
4,0.0,0.0,0.0,1.0,1.0,0.0,0.0,1.0,0.0,100.0,1.0,1.1856,26.0,0.0,0.0,0.0,59.999996,0.0,26.0,26.0,26.0,26.0,-0.138,0.31500000000000017,-0.017533333333333335,297.943,-2.7635,-2.8461,-1.521,-1.6006,-262.26,216.235,190.9135,0.0,0.0,0.0,0.0,0.0094,-5.498166666666667,-5.498166666666667,-0.385,-0.6963333333333334,-0.08288888888888879,-1.776,66.379,-0.08460000000000001,-0.05398,1.096,100.0,1.0,1.0,204.91333333333333,0.0,0.0,0.0,0.0,0.0,0.0,0.0,8685.5,0.0,55.0,5.0,238.93,0.0,0.0,0.0,0.0,0.0,0.0,0.0,0.0,0.20700000000000074,0.20700000000000074,0.0,0.0,0.0,55.0,616.79921,10000.0,85.000001,85.000001,85.000001,85.000001,395.0,0.0,0.0,0.0,1.0,166.665,62.18,62.18,49.042,49.042,34.0,-24.7725,14.896666666666668,-32.78666666666667,21.1475,0.0,1782.313,0.8599999999999994,100.0,20.724,19.94,42.569,41.286,0.0,0.0,100.0,0.0,0.0,0.0,0.0,2595.75,2204.4,4109.333333333333,3661.0,307.09166666666664,307.689,314.7825,315.69725,21.717333333333332,20.4443,21.7764,21.343,314.999998,314.999998,324.999988,324.999988,99.55701428571429,99.50608333333334,99.56394285714286,99.54551428571429,-0.08099999999999996,-0.139,-0.20883333333333334,0.026166666666666668,-0.036666666666668846,-0.05666666666667197,1.5590000000000002,1.605,36.733000000000004,28.776666666666664,37.102999999999994,34.3935,55.175,33.203,58.559,51.730333333333334,53.079,32.479,57.186,50.098,52.199,32.0945,57.1265,49.534666666666666,0.03400000000000025,-0.10000000000000009,0.10966000000000001,0.11671500000000001,0.0,207.91500000000002,207.845,204.91333333333333,204.91333333333333,0.0,0.0
5,0.0,0.0,0.0,1.0,1.0,0.0,0.0,1.0,0.0,100.0,1.0,1.1856,26.0,0.0,0.0,0.0,59.999996,0.0,26.0,26.0,26.0,26.0,-0.12388888888888894,0.3288,-0.02266666666666667,298.004,-2.77325,-2.8711,-1.5030999999999999,-1.5873,-259.07,216.2175,190.89425,0.0,0.0,0.0,0.0,0.011266666666666668,-5.498166666666667,-5.498166666666667,-0.3766,0.42933333333333334,-0.0868888888888888,-0.19499999999999995,66.533,-0.0878,-0.030960000000000005,1.1420000000000012,100.0,1.0,1.0,205.33333333333331,0.0,0.0,0.0,0.0,0.0,0.0,0.0,8703.3,0.0,55.0,5.0,239.48333333333335,1.0,0.0,0.0,0.0,0.0,0.0,0.0,0.0,0.254999999999999,0.254999999999999,0.0,0.0,1.0,55.0,616.79921,10000.0,85.000001,85.000001,85.000001,85.000001,395.0,0.0,0.0,0.0,1.0,333.33500000000004,62.607,62.607,49.254999999999995,49.254999999999995,34.0,-23.205,14.236666666666668,-33.3,22.21,0.0,1782.263,0.38500000000000156,100.0,20.798000000000002,19.75,42.366,40.996,0.0,0.0,100.0,0.0,0.0,0.0,0.0,2500.625,2078.4,4175.444444444444,4002.6000000000004,307.32666666666665,308.13725,314.7115,314.89475,21.725666666666665,20.4479,21.7861,21.3512,314.999998,314.999998,324.999988,324.999988,99.55702857142857,99.50608333333334,99.56408571428571,99.54565714285714,-0.059499999999999886,-0.13024999999999998,-0.2125,0.0021666666666666666,-0.06499999999999773,-0.060000000000002274,1.5465,1.5785,36.786,28.799333333333333,37.163,34.445,55.156,33.2315,58.5985,51.784333333333336,53.061,32.504999999999995,57.223,50.14966666666667,52.181,32.1195,57.161,49.585,-0.0020000000000000018,-0.07399999999999984,0.107115,0.10536500000000001,0.0,208.43,208.31,205.33333333333331,205.33333333333331,0.0,0.0
6,0.0,0.0,0.0,1.0,1.0,0.0,0.0,1.0,0.0,100.0,1.0,1.1856,26.0,0.0,0.0,0.0,59.999996,0.0,26.0,26.0,26.0,26.0,-0.123,0.33030000000000004,0.0030666666666666668,297.867,-2.7386,-2.906,-1.5478,-1.5842,-255.67,216.1975,190.87375,0.0,0.0,0.0,0.0,0.013233333333333335,-5.498166666666667,-5.498166666666667,-0.3688,0.159,-0.0654444444444442,0.9020000000000001,66.695,-0.08600000000000001,-0.027660000000000004,0.7940000000000005,100.0,1.0,1.0,205.81,0.0,0.0,0.0,0.0,0.0,0.0,0.0,8723.6,0.0,55.0,5.0,240.06666666666666,0.0,0.0,0.0,0.0,0.0,0.0,0.0,0.0,0.30600000000000094,0.30600000000000094,0.0,0.0,0.0,55.0,616.79921,10000.0,85.000001,85.000001,85.000001,85.000001,395.0,0.0,0.0,0.0,1.0,166.665,62.469,62.469,48.935,48.935,34.0,-21.4175,16.851666666666667,-31.92666666666667,23.5175,0.0,1782.214,0.18499999999999872,100.0,20.741,19.624,42.57,41.219,0.0,0.0,100.0,0.0,0.0,0.0,0.0,2390.5,2275.4,4083.5555555555557,4049.6000000000004,307.4393333333333,307.594,314.855,314.8395,21.734555555555556,20.4518,21.7965,21.3601,314.999998,314.999998,324.999988,324.999988,99.55702857142857,99.5061,99.56422857142857,99.54578571428571,-0.03574999999999995,-0.10024999999999995,-0.188,0.0225,-0.04333333333332945,-0.07166666666666544,1.5495,1.565,36.841,28.823999999999998,37.227999999999994,34.5005,55.132999999999996,33.260999999999996,58.6405,51.846000000000004,53.04,32.5325,57.2625,50.208666666666666,52.159,32.1455,57.1975,49.64233333333333,-0.01749999999999985,-0.04999999999999982,0.09768500000000001,0.10672000000000001,0.0,208.905,208.835,205.81,205.81,0.0,0.0
7,0.0,0.0,0.0,1.0,1.0,0.0,0.0,1.0,0.0,100.0,1.0,1.1856,26.0,0.0,0.0,0.0,59.999996,0.0,26.0,26.0,26.0,26.0,-0.09399999999999997,0.3154000000000001,0.044333333333333336,297.653,-2.70635,-2.8471,-1.50365,-1.6266,-252.47,216.175,190.854375,0.0,0.0,0.0,0.0,0.0151,-5.498166666666667,-5.498166666666667,-0.3719,-0.002,-0.05766666666666653,1.0539999999999998,66.846,-0.07445,-0.03462,0.4660000000000011,100.0,1.0,1.0,206.25,0.0,0.0,0.0,0.0,0.0,0.0,0.0,8742.1,0.0,55.0,5.0,240.61333333333334,1.0,0.0,0.0,0.0,0.0,0.0,0.0,0.0,0.3539999999999992,0.3539999999999992,0.0,0.0,1.0,55.0,616.79921,10000.0,85.000001,85.000001,85.000001,85.000001,395.0,0.0,0.0,0.0,1.0,333.33500000000004,62.149,62.149,49.103,49.103,34.0,-21.6475,18.1,-30.64,25.065,0.0,1782.164,-0.125,100.0,20.768,19.572,42.592,41.397999999999996,0.0,0.0,100.0,0.0,0.0,0.0,0.0,2515.625,2362.4,4046.6666666666665,4075.5,307.03366666666665,307.385,314.893,314.71,21.74288888888889,20.4555,21.8063,21.3686,314.999998,314.999998,324.999988,324.999988,99.55702857142857,99.50611666666667,99.56435714285715,99.54592857142858,-0.006999999999999895,-0.0685,-0.17666666666666667,0.035166666666666666,-0.04833333333333201,-0.06333333333333258,1.524,1.5535,36.893,28.847,37.289,34.5535,55.111999999999995,33.2885,58.68,51.903666666666666,53.019,32.5575,57.2995,50.263999999999996,52.138,32.1695,57.2315,49.696666666666665,-0.03699999999999992,-0.021500000000000075,0.101775,0.108285,0.0,209.365,209.31,206.25,206.25,0.0,0.0
8,0.0,0.0,0.0,1.0,1.0,0.0,0.0,1.0,0.0,100.0,1.0,1.1856,26.0,0.0,0.0,0.0,59.999996,0.0,26.0,26.0,26.0,26.0,-0.04688888888888887,0.31089999999999995,0.03506666666666667,297.913,-2.79345,-2.8414,-1.48735,-1.5790000000000002,-248.85,216.1475,190.8325,0.0,0.0,0.0,0.0,0.0172,-5.498166666666667,-5.498166666666667,-0.37420000000000003,-0.6146666666666667,-0.040000000000000036,0.7450000000000001,67.017,-0.056400000000000006,-0.026500000000000003,-0.023999999999999133,100.0,1.0,1.0,206.7266666666667,0.0,0.0,0.0,0.0,0.0,0.0,0.0,8762.4,0.0,55.0,5.0,241.2266666666667,0.0,0.0,0.0,0.0,0.0,0.0,0.0,0.0,0.40800000000000125,0.40800000000000125,0.0,0.0,0.0,55.0,616.79921,10000.0,85.000001,85.000001,85.000001,85.000001,395.0,0.0,0.0,0.0,1.0,166.665,62.973,62.973,48.492,48.492,34.0,-18.9325,18.16166666666667,-29.253333333333334,26.197499999999998,0.0,1782.112,-0.34999999999999787,100.0,20.323,19.5555,42.635,41.575,0.0,0.0,100.0,0.0,0.0,0.0,0.0,2266.5,2323.0,4075.3333333333335,4114.8,307.98466666666667,307.5425,314.7925,314.609,21.752,20.4597,21.8172,21.378,314.999998,314.999998,324.999988,324.999988,99.55704285714286,99.50611666666667,99.56451428571428,99.54607142857142,0.01075000000000026,-0.05125000000000002,-0.14583333333333334,0.06133333333333334,-0.05333333333332746,-0.07000000000000028,1.5110000000000001,1.5205,36.95,28.872999999999998,37.358000000000004,34.6125,55.083,33.317499999999995,58.724000000000004,51.967666666666666,52.992999999999995,32.5845,57.3405,50.32533333333333,52.112,32.195,57.2695,49.75666666666667,-0.06099999999999994,-0.008000000000000007,0.10269,0.10791500000000001,0.0,209.865,209.85500000000002,206.7266666666667,206.7266666666667,0.0,0.0
9,0.0,0.0,0.0,1.0,1.0,0.0,0.0,1.0,0.0,100.0,1.0,1.1856,26.0,0.0,0.0,0.0,59.999996,0.0,26.0,26.0,26.0,26.0,-0.0411111111111111,0.32010000000000005,0.040233333333333336,297.577,-2.721,-2.8431,-1.5455999999999999,-1.5653000000000001,-245.63,216.12,190.8125,0.0,0.0,0.0,0.0,0.019066666666666666,-5.498166666666667,-5.498166666666667,-0.37610000000000005,0.7466666666666666,-0.03933333333333344,0.885,67.16499999999999,-0.03585,-0.02412,-0.1639999999999997,100.0,1.0,1.0,207.29000000000002,0.0,0.0,0.0,0.0,0.0,0.0,0.0,8786.3,0.0,55.0,5.0,241.76,1.0,0.0,0.0,0.0,0.0,0.0,0.0,0.0,0.4559999999999995,0.4559999999999995,0.0,0.0,1.0,55.0,616.79921,10000.0,85.000001,85.000001,85.000001,85.000001,395.0,0.0,0.0,0.0,1.0,166.665,61.829,61.829,49.393,49.393,34.0,-20.63,19.78,-28.14333333333333,26.445,0.0,1782.063,-0.5150000000000006,100.0,20.819,19.968,42.249,41.579,0.0,0.0,100.0,0.0,0.0,0.0,0.0,2558.75,2391.7,4006.777777777778,4101.2,306.9223333333333,307.243,315.1155,314.73425,21.760333333333335,20.4636,21.8269,21.386400000000002,314.999998,314.999998,324.999988,324.999988,99.55704285714286,99.50611666666667,99.56465714285714,99.5462,0.03949999999999987,-0.022749999999999937,-0.12933333333333336,0.077,-0.05333333333332746,-0.054999999999999716,1.5735000000000001,1.56,37.001999999999995,28.897333333333336,37.418,34.665,55.062,33.3455,58.76,52.02333333333333,52.972,32.6095,57.374,50.379,52.091,32.2195,57.3005,49.809,-0.07850000000000001,0.00550000000000006,0.108785,0.10573,0.0,210.34,210.32999999999998,207.29000000000002,207.29000000000002,0.0,0.0
10,0.0,0.0,0.0,1.0,1.0,0.0,0.0,1.0,0.0,100.0,1.0,1.1856,26.0,0.0,0.0,0.0,59.999996,0.0,26.0,26.0,26.0,26.0,0.006111111111111178,0.32720000000000016,0.05316666666666667,297.516,-2.75735,-2.826,-1.5237500000000002,-1.5388000000000002,-242.41,216.095,190.793,0.0,0.0,0.0,0.0,0.020933333333333335,-5.498166666666667,-5.498166666666667,-0.3547,-0.5363333333333333,0.00044444444444424747,1.8519999999999999,67.319,-0.014450000000000001,-0.01566,-0.48600000000000065,100.0,1.0,1.0,207.55333333333334,0.0,0.0,0.0,0.0,0.0,0.0,0.0,8797.4,0.0,55.0,5.0,242.31333333333333,0.0,0.0,0.0,0.0,0.0,0.0,1.0,0.0,0.5040000000000013,0.5040000000000013,0.0,0.0,0.0,55.0,616.79921,10000.0,85.000001,85.000001,85.000001,85.000001,395.0,0.0,0.0,0.0,1.0,166.665,62.958,62.958,47.958,47.958,34.0,-16.099999999999998,18.91,-29.266666666666666,29.5275,0.0,1782.016,-0.6649999999999991,100.0,20.576,19.876,42.72,42.286,0.0,0.0,100.0,0.0,0.0,0.0,0.0,2117.75,2265.9,4224.0,4304.1,308.303,307.70725,314.424,314.17975,21.768555555555555,20.4673,21.8367,21.395,314.999998,314.999998,324.999988,324.999988,99.55704285714286,99.50613333333334,99.56478571428572,99.54634285714286,0.06150000000000011,-0.00275000000000003,-0.11,0.10350000000000001,-0.03499999999999659,-0.07499999999999574,1.4925,1.479,37.053,28.920666666666666,37.479,34.719,55.039,33.37,58.801,52.084,52.951,32.6325,57.412,50.437,52.07,32.241,57.336,49.86566666666667,-0.08699999999999997,0.01949999999999985,0.10559500000000001,0.10608000000000001,0.0,210.78,210.815,207.55333333333334,207.55333333333334,0.0,0.0
11,0.0,0.0,0.0,1.0,1.0,0.0,0.0,1.0,0.0,100.0,1.0,1.1856,26.0,0.0,0.0,0.0,59.999996,0.0,26.0,26.0,26.0,26.0,0.05800000000000005,0.3147,-0.11456666666666668,298.035,-2.80785,-2.7972,-1.58175,-1.5256,-238.97,216.0675,190.772125,0.0,0.0,0.0,0.0,0.022600000000000002,-5.498166666666667,-5.498166666666667,-0.396,-0.135,0.02499999999999991,-0.634,67.473,0.00885,-0.0425,-0.6400000000000006,100.0,1.0,1.0,208.34,0.0,0.0,0.0,0.0,0.0,0.0,0.0,8830.8,0.0,55.0,5.0,242.86666666666667,1.0,0.0,0.0,0.0,0.0,0.0,1.0,0.0,0.5549999999999997,0.5549999999999997,0.0,0.0,1.0,55.0,616.79921,10000.0,85.000001,85.000001,85.000001,85.000001,395.0,0.0,0.0,0.0,1.0,166.665,62.347,62.347,49.545,49.545,34.0,-18.1575,20.328333333333333,-24.02,26.2625,0.0,1781.965,-0.8299999999999983,100.0,20.231,20.2705,42.09,42.269999999999996,0.0,0.0,100.0,0.0,0.0,0.0,0.0,2363.0,2381.2,3721.6666666666665,3854.7,307.745,307.11775,315.82825,315.26375,21.777,20.4715,21.846899999999998,21.404,314.999998,314.999998,324.999988,324.999988,99.55704285714286,99.50613333333334,99.56491428571428,99.54648571428571,0.06999999999999984,0.0030000000000001137,-0.08783333333333333,0.12666666666666668,-0.05666666666667197,-0.04333333333332945,1.6400000000000001,1.6145,37.105999999999995,28.946666666666665,37.543,34.775,55.013,33.3985,58.837,52.14333333333333,52.927,32.658500000000004,57.446,50.494,52.045,32.266,57.367,49.922,-0.09149999999999991,0.016999999999999904,0.097795,0.10363000000000001,0.0,211.23000000000002,211.26999999999998,208.34,208.34,0.0,0.0
12,0.0,0.0,0.0,1.0,1.0,0.0,0.0,1.0,0.0,100.0,1.0,1.1856,26.0,0.0,0.0,0.0,59.999996,0.0,26.0,26.0,26.0,26.0,0.05022222222222217,0.31810000000000005,0.035300000000000005,297.44,-2.86785,-2.79,-1.5492,-1.5528,-235.73,216.04000000000002,190.75125,0.0,0.0,0.0,0.0,0.025466666666666665,-5.498166666666667,-5.498166666666667,-0.3814,0.27166666666666667,0.01344444444444437,-0.761,67.624,0.0257,-0.0132,-0.6379999999999999,100.0,1.0,1.0,208.57666666666665,0.0,0.0,0.0,0.0,0.0,0.0,0.0,8840.7,0.0,55.0,5.0,243.41333333333336,0.0,0.0,0.0,0.0,0.0,0.0,1.0,0.0,0.602999999999998,0.602999999999998,0.0,0.0,0.0,55.0,616.79921,10000.0,85.000001,85.000001,85.000001,85.000001,395.0,0.0,0.0,0.0,1.0,166.665,62.271,62.271,48.263999999999996,48.263999999999996,34.0,-19.125,20.461666666666666,-27.066666666666666,30.1575,0.0,1781.917,-0.34499999999999886,100.0,20.067,20.4525,41.996,42.288,0.0,0.0,100.0,0.0,0.0,0.0,0.0,2434.375,2406.1,4231.111111111111,4156.6,307.597,307.062,314.58725,314.511,21.78488888888889,20.4755,21.8566,21.412399999999998,314.999998,314.999998,324.999988,324.999988,99.55705714285715,99.50613333333334,99.56505714285714,99.54661428571428,0.06999999999999984,0.0015000000000000568,-0.068,0.137,-0.061666666666667425,-0.061666666666667425,1.5234999999999999,1.513,37.156,28.971666666666664,37.604,34.8275,54.989999999999995,33.426,58.8745,52.20066666666666,52.905,32.684,57.481,50.549,52.024,32.2905,57.3995,49.97566666666667,-0.07499999999999996,-0.0015000000000000568,0.10186500000000001,0.10123000000000001,0.0,211.74,211.775,208.57666666666665,208.57666666666665,0.0,0.0
13,0.0,0.0,0.0,1.0,1.0,0.0,0.0,1.0,0.0,100.0,1.0,1.1856,26.0,0.0,0.0,0.0,59.999996,0.0,26.0,26.0,26.0,26.0,0.06411111111111101,0.3156000000000001,0.05373333333333334,297.089,-2.83915,-2.7883,-1.5841500000000002,-1.5422,-232.26999999999998,216.015,190.729375,0.0,0.0,0.0,0.0,0.026833333333333334,-5.498166666666667,-5.498166666666667,-0.3729,-0.028,0.020888888888888957,1.1179999999999999,67.782,0.03255,-0.02042,-0.8200000000000003,100.0,1.0,1.0,209.01666666666665,0.0,0.0,0.0,0.0,0.0,0.0,0.0,8859.4,0.0,55.0,5.0,243.98000000000002,1.0,0.0,0.0,0.0,0.0,0.0,1.0,0.0,0.6539999999999999,0.6539999999999999,0.0,0.0,1.0,55.0,616.79921,10000.0,85.000001,85.000001,85.000001,85.000001,395.0,0.0,0.0,0.0,1.0,333.33500000000004,62.042,62.042,48.187,48.187,34.0,-16.63,22.79,-26.509999999999998,32.97,0.0,1781.865,-0.9899999999999984,100.0,20.492,20.4675,42.351,42.706,0.0,0.0,100.0,0.0,0.0,0.0,0.0,2342.5,2483.3,4133.555555555556,4353.8,307.64866666666666,306.99175,314.701,314.09,21.793444444444443,20.4797,21.867,21.421599999999998,314.999998,314.999998,324.999988,324.999988,99.55707142857143,99.50615,99.56521428571429,99.54677142857143,0.12674999999999992,0.06150000000000011,-0.057666666666666665,0.15733333333333335,-0.05333333333332746,-0.04999999999999716,1.5025,1.4649999999999999,37.209,28.998333333333335,37.669,34.8855,54.969,33.457,58.915,52.26466666666666,52.885,32.7125,57.5185,50.61066666666667,52.003,32.317499999999995,57.434,50.03633333333333,-0.11949999999999994,0.04600000000000004,0.101375,0.10295000000000001,0.0,212.21,212.245,209.01666666666665,209.01666666666665,0.0,0.0
14,0.0,0.0,0.0,1.0,1.0,0.0,0.0,1.0,0.0,100.0,1.0,1.1856,26.0,0.0,0.0,0.0,59.999996,0.0,26.0,26.0,26.0,26.0,0.09933333333333327,0.30679999999999996,-0.012233333333333334,297.379,-2.84025,-2.7278000000000002,-1.5933000000000002,-1.5114,-228.81,215.9925,190.708125,0.0,0.0,0.0,0.0,0.028833333333333332,-5.498166666666667,-5.498166666666667,-0.38130000000000003,-0.13633333333333333,0.04699999999999993,-0.15900000000000003,67.937,0.04585,-0.031160000000000004,-0.9779999999999998,100.0,1.0,1.0,209.57666666666665,0.0,0.0,0.0,0.0,0.0,0.0,0.0,8883.2,0.0,55.0,5.0,244.54000000000002,0.0,0.0,0.0,0.0,0.0,0.0,1.0,0.0,0.7049999999999983,0.7049999999999983,0.0,0.0,0.0,55.0,616.79921,10000.0,85.000001,85.000001,85.000001,85.000001,395.0,0.0,0.0,0.0,1.0,333.33500000000004,62.241,62.241,48.385999999999996,48.385999999999996,34.0,-16.0775,22.44833333333333,-25.383333333333333,30.6475,0.0,1781.813,-1.1600000000000001,100.0,20.141,20.633,42.222,43.0,0.0,0.0,100.0,0.0,0.0,0.0,0.0,2316.875,2457.7,3990.222222222222,4149.1,307.89933333333335,306.9055,315.1325,314.52175,21.802,20.484,21.877299999999998,21.4308,314.999998,314.999998,324.999988,324.999988,99.55707142857143,99.50615,99.56535714285714,99.5469,0.13200000000000012,0.06424999999999992,-0.060833333333333336,0.1595,-0.04999999999999716,-0.051666666666669414,1.554,1.52,37.262,29.025,37.733000000000004,34.942499999999995,54.947,33.488,58.9535,52.327333333333335,52.864000000000004,32.741,57.5545,50.671,51.982,32.345,57.466499999999996,50.095333333333336,-0.127,0.05499999999999994,0.11451000000000001,0.10934,0.0,212.68,212.72500000000002,209.57666666666665,209.57666666666665,0.0,0.0
15,0.0,0.0,0.0,1.0,1.0,0.0,0.0,1.0,0.0,100.0,1.0,1.1856,26.0,0.0,0.0,0.0,59.999996,0.0,26.0,26.0,26.0,26.0,0.11755555555555564,0.3087,-0.05953333333333334,297.44,-2.8534,-2.685,-1.62,-1.4536,-225.55,215.97,190.687625,0.0,0.0,0.0,0.0,0.03073333333333333,-5.498166666666667,-5.498166666666667,-0.3714,0.25,0.07633333333333314,-0.371,68.084,0.06275,-0.011840000000000002,-1.186,100.0,1.0,1.0,210.01333333333332,0.0,0.0,0.0,0.0,0.0,0.0,0.0,8901.7,0.0,55.0,5.0,245.06666666666666,1.0,0.0,0.0,0.0,0.0,0.0,1.0,0.0,0.7530000000000001,0.7530000000000001,0.0,0.0,1.0,55.0,616.79921,10000.0,85.000001,85.000001,85.000001,85.000001,395.0,0.0,0.0,0.0,1.0,333.33500000000004,62.515,62.515,48.416,48.416,34.0,-14.61,22.134999999999998,-24.486666666666665,32.792500000000004,0.0,1781.765,-1.1799999999999997,100.0,20.122,20.644,41.989000000000004,43.087,0.0,0.0,100.0,0.0,0.0,0.0,0.0,2156.125,2427.8,3974.0,4329.7,308.3636666666667,306.98775,315.2,314.1005,21.80988888888889,20.488,21.887,21.4394,314.999998,314.999998,324.999988,324.999988,99.55708571428572,99.50615,99.56548571428571,99.54704285714286,0.14124999999999988,0.07250000000000001,-0.039,0.183,-0.06833333333332803,-0.05666666666667197,1.5554999999999999,1.4994999999999998,37.312,29.049999999999997,37.794,34.996,54.927,33.518,58.9885,52.38666666666667,52.845,32.7685,57.5865,50.728,51.963,32.3715,57.496,50.15133333333333,-0.1319999999999999,0.06099999999999994,0.10619,0.11001000000000001,0.0,213.135,213.22,210.01333333333332,210.01333333333332,0.0,0.0
16,0.0,0.0,0.0,1.0,1.0,0.0,0.0,1.0,0.0,100.0,1.0,1.1856,26.0,0.0,0.0,0.0,59.999996,0.0,26.0,26.0,26.0,26.0,0.11588888888888893,0.3056000000000001,-0.0033333333333333335,297.409,-2.90815,-2.6989,-1.5947,-1.513,-222.07,215.9525,190.665375,0.0,0.0,0.0,0.0,0.03276666666666667,-5.498166666666667,-5.498166666666667,-0.39530000000000004,-0.661,0.0625555555555557,0.10400000000000009,68.239,0.077,-0.0268,-1.3159999999999998,100.0,1.0,1.0,210.50333333333333,0.0,0.0,0.0,0.0,0.0,0.0,0.0,8922.4,0.0,55.0,5.0,245.63,0.0,0.0,0.0,0.0,0.0,0.0,1.0,0.0,0.8039999999999985,0.8039999999999985,0.0,0.0,0.0,55.0,616.79921,10000.0,85.000001,85.000001,85.000001,85.000001,395.0,0.0,0.0,0.0,1.0,333.33500000000004,62.317,62.317,48.233000000000004,48.233000000000004,34.0,-15.575,24.411666666666665,-22.13,32.8975,0.0,1781.713,-1.0700000000000003,100.0,19.903,20.569,42.298,43.124,0.0,0.0,100.0,0.0,0.0,0.0,0.0,2259.875,2619.5,3894.1111111111113,4127.2,308.079,306.62775,315.3135,314.58075,21.818,20.4924,21.8973,21.4485,314.999998,314.999998,324.999988,324.999988,99.5571,99.50616666666667,99.56564285714286,99.54721428571429,0.14749999999999996,0.08800000000000008,-0.008166666666666666,0.20616666666666666,-0.06333333333333258,-0.04833333333333201,1.56,1.5070000000000001,37.361999999999995,29.077333333333335,37.858000000000004,35.053,54.900999999999996,33.553,59.03,52.452666666666666,52.821,32.801,57.6255,50.791666666666664,51.938,32.4025,57.5315,50.21366666666667,-0.12050000000000005,0.04800000000000004,0.09904500000000001,0.11227000000000001,0.0,213.585,213.65,210.50333333333333,210.50333333333333,0.0,0.0
17,0.0,0.0,0.0,1.0,1.0,0.0,0.0,1.0,0.0,100.0,1.0,1.1856,26.0,0.0,0.0,0.0,59.999996,0.0,26.0,26.0,26.0,26.0,0.11488888888888904,0.31720000000000015,0.024133333333333336,296.936,-2.868,-2.6832000000000003,-1.6341999999999999,-1.477,-218.38,215.935,190.641375,0.0,0.0,0.0,0.0,0.0349,-5.498166666666667,-5.498166666666667,-0.3775,0.4,0.04588888888888887,0.9530000000000001,68.404,0.08445,-0.00434,-1.2139999999999995,100.0,1.0,1.0,210.89333333333332,0.0,0.0,0.0,0.0,0.0,0.0,0.0,8939.0,0.0,55.0,5.0,246.21666666666667,1.0,0.0,0.0,0.0,0.0,0.0,1.0,0.0,0.8580000000000005,0.8580000000000005,0.0,0.0,1.0,55.0,616.79921,10000.0,85.000001,85.000001,85.000001,85.000001,395.0,0.0,0.0,0.0,1.0,166.665,62.149,62.149,47.76,47.76,34.0,-14.995000000000001,23.438333333333333,-25.603333333333335,34.865,0.0,1781.661,-1.1649999999999991,100.0,20.315,20.721,42.168,43.124,0.0,0.0,100.0,0.0,0.0,0.0,0.0,2286.625,2495.7,4297.888888888889,4403.5,307.8546666666667,306.9835,314.418,314.03675,21.826888888888888,20.497,21.9082,21.4581,314.999998,314.999998,324.999988,324.999988,99.55711428571429,99.50616666666667,99.56578571428571,99.54735714285714,0.1705000000000001,0.10275000000000012,-0.0085,0.20400000000000001,-0.036666666666668846,-0.06333333333333258,1.521,1.4825,37.418,29.106333333333332,37.926,35.1135,54.882,33.5875,59.068,52.51566666666667,52.803,32.832499999999996,57.661,50.852333333333334,51.919,32.433,57.5635,50.27333333333333,-0.12949999999999995,0.05249999999999999,0.11049,0.10530500000000001,0.0,214.12,214.22500000000002,210.89333333333332,210.89333333333332,0.0,0.0
18,0.0,0.0,0.0,1.0,1.0,0.0,0.0,1.0,0.0,100.0,1.0,1.1856,26.0,0.0,0.0,0.0,59.999996,0.0,26.0,26.0,26.0,26.0,0.12788888888888894,0.31410000000000005,0.0027333333333333333,296.951,-2.9032,-2.6509,-1.6532499999999999,-1.4193,-215.09,215.925,190.62025,0.0,0.0,0.0,0.0,0.036833333333333336,-5.498166666666667,-5.498166666666667,-0.3917,-0.4116666666666667,0.0735555555555556,1.0939999999999999,68.548,0.0855,-0.023940000000000003,-1.3320000000000007,100.0,1.0,1.0,211.39,0.0,0.0,0.0,0.0,0.0,0.0,0.0,8960.1,0.0,55.0,5.0,246.74,0.0,0.0,0.0,0.0,0.0,0.0,1.0,0.0,0.9059999999999988,0.9059999999999988,0.0,0.0,0.0,55.0,616.79921,10000.0,85.000001,85.000001,85.000001,85.000001,395.0,0.0,0.0,0.0,1.0,166.665,61.859,61.859,47.852000000000004,47.852000000000004,34.0,-15.079999999999998,26.33,-23.683333333333334,32.7375,0.0,1781.614,-1.4800000000000004,100.0,20.097,20.7195,42.389,43.503,0.0,0.0,100.0,0.0,0.0,0.0,0.0,2307.75,2730.7,4016.6666666666665,4269.2,307.84633333333335,306.273,315.06525,314.333,21.834555555555557,20.5011,21.918,21.4668,314.999998,314.999998,324.999988,324.999988,99.55714285714286,99.50618333333334,99.56591428571429,99.5475,0.17874999999999996,0.11925000000000008,-0.007333333333333333,0.20550000000000002,-0.05333333333332746,-0.07000000000000028,1.561,1.5155,37.466,29.131999999999998,37.986999999999995,35.168,54.861999999999995,33.6195,59.105000000000004,52.57566666666666,52.784,32.862,57.695,50.910333333333334,51.899,32.461,57.595,50.330333333333336,-0.14500000000000002,0.0754999999999999,0.10651000000000001,0.10278500000000002,0.0,214.54500000000002,214.63,211.39,211.39,0.0,0.0
19,0.0,0.0,0.0,1.0,1.0,0.0,0.0,1.0,0.0,100.0,1.0,1.1856,26.0,0.0,0.0,0.0,59.999996,0.0,26.0,26.0,26.0,26.0,0.1661111111111111,0.3265,0.06116666666666667,296.585,-2.82585,-2.7507,-1.6715499999999999,-1.4005,-211.8,215.91750000000002,190.59875,0.0,0.0,0.0,0.0,0.038733333333333335,-5.498166666666667,-5.498166666666667,-0.3765,0.8573333333333334,0.08599999999999985,0.8740000000000001,68.69200000000001,0.09240000000000001,-0.006220000000000001,-1.694,100.0,1.0,1.0,211.79000000000002,0.0,0.0,0.0,0.0,0.0,0.0,0.0,8977.0,0.0,55.0,5.0,247.25666666666666,1.0,0.0,0.0,0.0,0.0,0.0,1.0,0.0,0.9540000000000006,0.9540000000000006,0.0,0.0,1.0,55.0,616.79921,10000.0,85.000001,85.000001,85.000001,85.000001,395.0,0.0,0.0,0.0,1.0,166.665,61.615,61.615,47.592,47.592,34.0,-13.017499999999998,26.508333333333333,-24.433333333333334,36.2875,0.0,1781.566,-1.7899999999999991,100.0,20.496,21.174,42.119,43.549,0.0,0.0,100.0,0.0,0.0,0.0,0.0,2226.5,2605.0,4192.222222222223,4542.0,307.93,306.4175,314.6905,313.729,21.842444444444446,20.5054,21.927599999999998,21.4755,314.999998,314.999998,324.999988,324.999988,99.55715714285714,99.5062,99.56604285714286,99.54764285714286,0.21475,0.13824999999999998,0.0075,0.2245,-0.04333333333332945,-0.05666666666667197,1.5385,1.4585,37.516,29.159,38.048,35.222,54.845,33.655,59.138999999999996,52.635666666666665,52.768,32.894999999999996,57.7265,50.968333333333334,51.882999999999996,32.4925,57.6235,50.38733333333333,-0.17599999999999993,0.09850000000000003,0.11171500000000001,0.10832000000000001,0.0,215.01,215.125,211.79000000000002,211.79000000000002,0.0,0.0
20,0.0,0.0,0.0,1.0,1.0,0.0,0.0,1.0,0.0,100.0,1.0,1.1856,26.0,0.0,0.0,0.0,59.999996,0.0,26.0,26.0,26.0,26.0,0.17366666666666686,0.2954000000000001,-0.0529,296.997,-2.9347,-2.6957,-1.59815,-1.5232999999999999,-208.29,215.9125,190.57625,0.0,0.0,0.0,0.0,0.04076666666666667,-5.498166666666667,-5.498166666666667,-0.3869,-1.1443333333333332,0.08366666666666678,-1.048,68.846,0.10785,-0.0219,-1.5120000000000005,100.0,1.0,1.0,212.23000000000002,0.0,0.0,0.0,0.0,0.0,0.0,0.0,8995.7,0.0,55.0,5.0,247.81333333333333,0.0,0.0,0.0,0.0,0.0,0.0,0.0,0.0,1.004999999999999,1.004999999999999,0.0,0.0,0.0,55.0,616.79921,10000.0,85.000001,85.000001,85.000001,85.000001,395.0,0.0,0.0,0.0,1.0,166.665,62.515,62.515,47.348,47.348,34.0,-14.5975,22.931666666666665,-22.633333333333333,35.4275,0.0,1781.515,-0.5150000000000006,100.0,19.834,21.0005,42.634,44.182,0.0,0.0,100.0,0.0,0.0,0.0,0.0,2155.25,2454.4,4070.6666666666665,4207.4,308.47066666666666,306.912,314.9135,314.30275,21.850444444444445,20.5098,21.9381,21.4848,314.999998,314.999998,324.999988,324.999988,99.55717142857142,99.5062,99.5662,99.54778571428571,0.1552500000000001,0.08800000000000008,0.008666666666666666,0.2305,-0.05833333333333002,-0.04333333333332945,1.5190000000000001,1.4615,37.565,29.186333333333334,38.113,35.28,54.821,33.689,59.1795,52.701,52.745000000000005,32.9265,57.7645,51.031,51.86,32.522999999999996,57.658500000000004,50.449,-0.09549999999999992,0.02849999999999997,0.11258000000000001,0.106715,0.0,215.43,215.54500000000002,212.23000000000002,212.23000000000002,0.0,0.0
21,0.0,0.0,0.0,1.0,1.0,0.0,0.0,1.0,0.0,100.0,1.0,1.1856,26.0,0.0,0.0,0.0,59.999996,0.0,26.0,26.0,26.0,26.0,0.1253333333333333,0.3146,-0.04223333333333333,297.18,-2.88755,-2.7104,-1.64695,-1.4965,-204.99,215.9125,190.55425,0.0,0.0,0.0,0.0,0.0427,-5.498166666666667,-5.498166666666667,-0.40290000000000004,0.5636666666666666,0.05055555555555569,-1.199,68.985,0.10655,-0.01362,-0.6720000000000006,100.0,1.0,1.0,212.85333333333335,0.0,0.0,0.0,0.0,0.0,0.0,0.0,9022.0,0.0,55.0,5.0,248.31333333333333,1.0,0.0,0.0,0.0,0.0,0.0,0.0,0.0,1.0530000000000008,1.0530000000000008,0.0,0.0,1.0,55.0,616.79921,10000.0,85.000001,85.000001,85.000001,85.000001,395.0,0.0,0.0,0.0,1.0,166.665,62.119,62.119,48.278999999999996,48.278999999999996,34.0,-17.9525,20.876666666666665,-23.406666666666666,31.84,0.0,1781.467,0.26000000000000156,100.0,20.125,21.055,42.124,43.637,0.0,0.0,100.0,0.0,0.0,0.0,0.0,2363.875,2431.1,4056.777777777778,4042.9,307.82,307.00975,315.098,314.86925,21.85822222222222,20.514,21.9476,21.4933,314.999998,314.999998,324.999988,324.999988,99.55718571428571,99.50621666666666,99.56634285714286,99.54792857142857,0.09224999999999994,0.024499999999999966,-0.003,0.21316666666666667,-0.06833333333332803,-0.054999999999999716,1.5939999999999999,1.5645,37.614000000000004,29.212666666666664,38.173,35.3335,54.799,33.7205,59.2115,52.757,52.724999999999994,32.9555,57.7945,51.08533333333334,51.839,32.5505,57.685,50.50233333333333,-0.020999999999999908,-0.05049999999999999,0.10873000000000001,0.11088500000000001,0.0,215.94,215.98000000000002,212.85333333333335,212.85333333333335,0.0,0.0
22,0.0,0.0,0.0,1.0,1.0,0.0,0.0,1.0,0.0,100.0,1.0,1.1856,26.0,0.0,0.0,0.0,59.999996,0.0,26.0,26.0,26.0,26.0,0.055333333333333234,0.3075000000000001,-0.011033333333333334,296.829,-2.80505,-2.7814,-1.63015,-1.5006,-201.45999999999998,215.91500000000002,190.530375,0.0,0.0,0.0,0.0,0.04473333333333333,-5.498166666666667,-5.498166666666667,-0.3831,-0.057666666666666665,0.045333333333333226,0.601,69.139,0.07055,0.0020800000000000003,0.2679999999999989,100.0,1.0,1.0,213.12333333333333,0.0,0.0,0.0,0.0,0.0,0.0,0.0,9033.6,0.0,55.0,5.0,248.87,0.0,0.0,0.0,0.0,0.0,0.0,0.0,0.0,1.1039999999999992,1.1039999999999992,0.0,0.0,0.0,55.0,616.79921,10000.0,85.000001,85.000001,85.000001,85.000001,395.0,0.0,0.0,0.0,1.0,166.665,62.454,62.454,47.241,47.241,34.0,-16.37,19.883333333333333,-27.083333333333332,32.83,0.0,1781.415,0.6350000000000016,100.0,20.376,20.7795,42.831,43.722,0.0,0.0,100.0,0.0,0.0,0.0,0.0,2096.125,2410.8,4199.444444444444,4359.3,308.34566666666666,307.15575,314.61975,314.08625,21.866555555555557,20.5184,21.9581,21.5026,314.999998,314.999998,324.999988,324.999988,99.55718571428571,99.50621666666666,99.56647142857143,99.54808571428572,0.057250000000000245,-0.014499999999999957,-0.046,0.16666666666666666,-0.060000000000002274,-0.05666666666667197,1.4835,1.5005,37.666,29.240000000000002,38.238,35.391,54.775,33.75,59.2525,52.821,52.702,32.9825,57.832499999999996,51.147,51.816,32.577,57.72,50.562666666666665,0.014499999999999957,-0.08300000000000018,0.106785,0.10757000000000001,0.0,216.45499999999998,216.42000000000002,213.12333333333333,213.12333333333333,0.0,0.0
23,0.0,0.0,0.0,1.0,1.0,0.0,0.0,1.0,0.0,100.0,1.0,1.1856,26.0,0.0,0.0,0.0,59.999996,0.0,26.0,26.0,26.0,26.0,-0.004222222222222127,0.29090000000000016,-0.05906666666666666,296.921,-2.8076,-2.7616,-1.6534,-1.5015,-197.93,215.92000000000002,190.50675,0.0,0.0,0.0,0.0,0.0468,-5.498166666666667,-5.498166666666667,-0.40080000000000005,0.0036666666666666666,0.009666666666666712,-1.187,69.288,0.0212,-0.02024,1.0039999999999996,100.0,1.0,1.0,213.72,0.0,0.0,0.0,0.0,0.0,0.0,0.0,9058.8,0.0,55.0,5.0,249.40666666666667,1.0,0.0,0.0,0.0,0.0,0.0,0.0,0.0,1.1550000000000011,1.1550000000000011,0.0,0.0,1.0,55.0,616.79921,10000.0,85.000001,85.000001,85.000001,85.000001,395.0,0.0,0.0,0.0,1.0,333.33500000000004,61.752,61.752,48.325,48.325,34.0,-21.8075,17.9,-29.106666666666666,25.927500000000002,0.0,1781.363,0.8049999999999997,100.0,20.675,20.7645,42.955,43.641,0.0,0.0,100.0,0.0,0.0,0.0,0.0,2548.625,2329.1,4068.777777777778,3951.4,307.17566666666664,307.28325,315.08075,315.1115,21.87488888888889,20.5228,21.9686,21.5118,314.999998,314.999998,324.999988,324.999988,99.55718571428571,99.50621666666666,99.56662857142857,99.54822857142857,0.012500000000000178,-0.05625000000000002,-0.1075,0.10683333333333334,-0.06833333333332803,-0.04999999999999716,1.538,1.5745,37.718,29.267333333333333,38.303,35.449,54.748999999999995,33.78,59.291,52.882333333333335,52.678,33.01,57.868,51.205666666666666,51.792,32.603,57.753,50.620333333333335,0.027000000000000135,-0.10099999999999998,0.10497500000000001,0.10883000000000001,0.0,216.92000000000002,216.84,213.72,213.72,0.0,0.0
24,0.0,0.0,0.0,1.0,1.0,0.0,0.0,1.0,0.0,100.0,1.0,1.1856,26.0,0.0,0.0,0.0,59.999996,0.0,26.0,26.0,26.0,26.0,-0.04733333333333334,0.3063,-0.01,297.165,-2.8107,-2.7929,-1.55415,-1.5509,-194.6,215.9225,190.484,0.0,0.0,0.0,0.0,0.04873333333333334,-5.498166666666667,-5.498166666666667,-0.40690000000000004,-0.671,-0.0022222222222221255,-0.277,69.432,-0.021500000000000002,-0.0071400000000000005,1.17,100.0,1.0,1.0,214.04000000000002,0.0,0.0,0.0,0.0,0.0,0.0,0.0,9072.3,0.0,55.0,5.0,249.92333333333335,0.0,0.0,0.0,0.0,0.0,0.0,0.0,0.0,1.2029999999999994,1.2029999999999994,0.0,0.0,0.0,55.0,616.79921,10000.0,85.000001,85.000001,85.000001,85.000001,395.0,0.0,0.0,0.0,1.0,333.33500000000004,62.958,62.958,47.363,47.363,34.0,-19.6175,15.41,-32.626666666666665,25.6525,0.0,1781.315,0.7850000000000001,100.0,20.395,20.2995,43.294,43.321,0.0,0.0,100.0,0.0,0.0,0.0,0.0,2242.125,2150.1,4321.888888888889,4081.0,308.1143333333333,307.9175,314.35825,314.75475,21.882666666666665,20.5266,21.9784,21.5204,314.999998,314.999998,324.999988,324.999988,99.5572,99.50623333333333,99.56677142857143,99.54837142857143,-0.01949999999999985,-0.09299999999999997,-0.15,0.06366666666666666,-0.04833333333333201,-0.054999999999999716,1.4815,1.532,37.766999999999996,29.291,38.364999999999995,35.5025,54.724000000000004,33.806,59.329499999999996,52.938,52.653999999999996,33.034,57.903999999999996,51.25933333333333,51.768,32.626,57.786,50.672666666666665,0.03100000000000014,-0.10250000000000004,0.10545500000000001,0.10489000000000001,0.0,217.35500000000002,217.26,214.04000000000002,214.04000000000002,0.0,0.0
25,0.0,0.0,0.0,1.0,1.0,0.0,0.0,1.0,0.0,100.0,1.0,1.1856,26.0,0.0,0.0,0.0,59.999996,0.0,26.0,26.0,26.0,26.0,-0.0902222222222222,0.28859999999999997,-0.020133333333333336,296.783,-2.84525,-2.7800000000000002,-1.5848,-1.5772,-190.85,215.925,190.45675,0.0,0.0,0.0,0.0,0.0509,-5.498166666666667,-5.498166666666667,-0.4335,0.5133333333333334,-0.026000000000000245,-1.72,69.587,-0.058600000000000006,-0.00896,1.2579999999999991,100.0,1.0,1.0,214.67333333333335,0.0,0.0,0.0,0.0,0.0,0.0,0.0,9099.2,0.0,55.0,5.0,250.48333333333335,1.0,0.0,0.0,0.0,0.0,0.0,0.0,0.0,1.256999999999998,1.256999999999998,0.0,0.0,1.0,55.0,616.79921,10000.0,85.000001,85.000001,85.000001,85.000001,395.0,0.0,0.0,0.0,1.0,166.665,61.417,61.417,48.111,48.111,34.0,-25.795,17.866666666666667,-32.19,23.7825,0.0,1781.263,0.7750000000000021,100.0,20.709,20.54,43.147,42.863,0.0,0.0,100.0,0.0,0.0,0.0,0.0,2731.25,2506.7,4086.4444444444443,3965.1000000000004,306.744,306.80675,315.04825,315.04875,21.891444444444446,20.5311,21.9893,21.5299,314.999998,314.999998,324.999988,324.999988,99.5572,99.50623333333333,99.56692857142858,99.54851428571429,-0.04675000000000007,-0.10749999999999993,-0.18583333333333335,0.041166666666666664,-0.06833333333332803,-0.045000000000001705,1.544,1.5899999999999999,37.822,29.319333333333333,38.433,35.562,54.697,33.8395,59.3685,52.998333333333335,52.629000000000005,33.065,57.941,51.31733333333334,51.742000000000004,32.656,57.8195,50.72933333333333,0.03100000000000014,-0.0990000000000002,0.10859,0.10851500000000001,0.0,217.875,217.75,214.67333333333335,214.67333333333335,0.0,0.0
26,0.0,0.0,0.0,1.0,1.0,0.0,0.0,1.0,0.0,100.0,1.0,1.1856,26.0,0.0,0.0,0.0,59.999996,0.0,26.0,26.0,26.0,26.0,-0.12277777777777776,0.31489999999999996,0.0553,295.868,-2.7735,-2.886,-1.5763,-1.592,-187.51,215.925,190.4325,0.0,0.0,0.0,0.0,0.052866666666666666,-5.498166666666667,-5.498166666666667,-0.3899,0.3893333333333333,-0.06488888888888855,-0.931,69.731,-0.0776,0.01616,1.1720000000000006,100.0,1.0,1.0,214.7866666666667,0.0,0.0,0.0,0.0,0.0,0.0,0.0,9104.1,0.0,55.0,5.0,251.0,0.0,0.0,0.0,0.0,0.0,0.0,0.0,0.0,1.3049999999999997,1.3049999999999997,0.0,0.0,0.0,55.0,616.79921,10000.0,85.000001,85.000001,85.000001,85.000001,395.0,0.0,0.0,0.0,1.0,166.665,61.813,61.813,46.143,46.143,34.0,-23.2325,15.128333333333334,-39.65,26.535,0.0,1781.215,0.5700000000000003,100.0,21.438,20.757,44.161,43.286,0.0,0.0,100.0,0.0,0.0,0.0,0.0,2520.5,2135.5,4734.444444444444,4460.6,307.21,307.8675,313.42675,313.83825,21.899555555555555,20.5351,21.999299999999998,21.5387,314.999998,314.999998,324.999988,324.999988,99.5572,99.50625,99.56707142857142,99.54865714285714,-0.04675000000000007,-0.12275000000000003,-0.1925,0.012,-0.051666666666669414,-0.041666666666671404,1.404,1.4495,37.872,29.344666666666665,38.495999999999995,35.6165,54.677,33.8705,59.411500000000004,53.056333333333335,52.61,33.0935,57.981,51.373333333333335,51.723,32.683,57.857,50.78366666666666,0.008999999999999897,-0.08000000000000007,0.10479500000000001,0.10355,0.0,218.34,218.22,214.7866666666667,214.7866666666667,0.0,0.0
27,0.0,0.0,0.0,1.0,1.0,0.0,0.0,1.0,0.0,100.0,1.0,1.1856,26.0,0.0,0.0,0.0,59.999996,0.0,26.0,26.0,26.0,26.0,-0.10011111111111104,0.2815000000000001,-0.057966666666666666,296.6,-2.73455,-2.8565,-1.5634000000000001,-1.6649,-184.16,215.9225,190.40925,0.0,0.0,0.0,0.0,0.0548,-5.498166666666667,-5.498166666666667,-0.42460000000000003,-0.9076666666666666,-0.06711111111111157,-0.599,69.868,-0.08455,-0.0303,0.9820000000000011,100.0,1.0,1.0,215.44666666666666,0.0,0.0,0.0,0.0,0.0,0.0,0.0,9132.0,0.0,55.0,5.0,251.49666666666667,1.0,0.0,0.0,0.0,0.0,0.0,0.0,0.0,1.352999999999998,1.352999999999998,0.0,0.0,1.0,55.0,616.79921,10000.0,85.000001,85.000001,85.000001,85.000001,395.0,0.0,0.0,0.0,1.0,166.665,61.966,61.966,47.241,47.241,34.0,-23.28,15.774999999999999,-32.946666666666665,23.1625,0.0,1781.166,0.4750000000000014,100.0,21.097,20.4375,44.632,43.508,0.0,0.0,100.0,0.0,0.0,0.0,0.0,2554.0,2240.3,4033.222222222222,3893.4,307.278,307.57025,315.0045,315.15625,21.907333333333334,20.539,22.0093,21.5474,314.999998,314.999998,324.999988,324.999988,99.5572,99.50625,99.5672,99.5488,-0.05274999999999985,-0.12275000000000003,-0.20883333333333334,0.010833333333333334,-0.054999999999999716,-0.036666666666668846,1.5110000000000001,1.5485,37.921,29.368666666666666,38.558,35.671,54.653999999999996,33.899,59.452,53.11233333333333,52.589,33.1195,58.019,51.42666666666666,51.702,32.707499999999996,57.8915,50.83566666666667,0.002000000000000224,-0.06950000000000012,0.11009500000000001,0.100805,0.0,218.695,218.61,215.44666666666666,215.44666666666666,0.0,0.0
28,0.0,0.0,0.0,1.0,1.0,0.0,0.0,1.0,0.0,100.0,1.0,1.1856,26.0,0.0,0.0,0.0,59.999996,0.0,26.0,26.0,26.0,26.0,-0.11677777777777776,0.29400000000000004,-0.03936666666666667,296.646,-2.7534,-2.8425000000000002,-1.53875,-1.6028,-180.59,215.91500000000002,190.3835,0.0,0.0,0.0,0.0,0.05686666666666666,-5.498166666666667,-5.498166666666667,-0.41600000000000004,0.6746666666666666,-0.06877777777777805,0.77,70.015,-0.08605,0.01008,0.8420000000000005,100.0,1.0,1.0,215.89,0.0,0.0,0.0,0.0,0.0,0.0,0.0,9150.8,0.0,55.0,5.0,252.01999999999998,0.0,0.0,0.0,0.0,0.0,0.0,0.0,0.0,1.404,1.404,0.0,0.0,0.0,55.0,616.79921,10000.0,85.000001,85.000001,85.000001,85.000001,395.0,0.0,0.0,0.0,1.0,166.665,62.225,62.225,47.318,47.318,34.0,-21.4375,16.046666666666667,-33.733333333333334,25.177500000000002,0.0,1781.116,0.34499999999999886,100.0,21.304,20.171,44.131,42.981,0.0,0.0,100.0,0.0,0.0,0.0,0.0,2377.625,2254.2,4261.111111111111,4160.5,307.48333333333335,307.713,314.59575,314.673,21.915777777777777,20.5432,22.0195,21.5564,314.999998,314.999998,324.999988,324.999988,99.55721428571428,99.50626666666666,99.56735714285715,99.54895714285715,-0.034499999999999975,-0.10775000000000001,-0.1905,0.0325,-0.036666666666668846,-0.06499999999999773,1.509,1.5455,37.974000000000004,29.394666666666666,38.622,35.7275,54.632,33.9295,59.4895,53.169,52.568,33.147999999999996,58.054,51.48133333333333,51.68,32.7345,57.924,50.888666666666666,-0.014999999999999902,-0.06300000000000017,0.0984,0.11091000000000001,0.0,219.19,219.125,215.89,215.89,0.0,0.0
29,0.0,0.0,0.0,1.0,1.0,0.0,0.0,1.0,0.0,100.0,1.0,1.1856,26.0,0.0,0.0,0.0,59.999996,0.0,26.0,26.0,26.0,26.0,-0.08466666666666656,0.2875000000000001,-0.015166666666666667,296.509,-2.71115,-2.8916,-1.5155500000000002,-1.5991,-177.01,215.9075,190.35675,0.0,0.0,0.0,0.0,0.05896666666666667,-5.498166666666667,-5.498166666666667,-0.43170000000000003,-0.7273333333333334,-0.06522222222222229,-0.595,70.164,-0.07825,-0.0047,0.620000000000001,100.0,1.0,1.0,216.25333333333333,0.0,0.0,0.0,0.0,0.0,0.0,0.0,9166.3,0.0,55.0,5.0,252.56,1.0,0.0,0.0,0.0,0.0,0.0,0.0,0.0,1.4549999999999983,1.4549999999999983,0.0,0.0,1.0,55.0,616.79921,10000.0,85.000001,85.000001,85.000001,85.000001,395.0,0.0,0.0,0.0,1.0,333.33500000000004,62.119,62.119,47.211,47.211,34.0,-23.057499999999997,16.195,-32.59,24.947499999999998,0.0,1781.063,0.1999999999999993,100.0,20.876,20.2505,44.412,43.365,0.0,0.0,100.0,0.0,0.0,0.0,0.0,2580.5,2204.6,4164.666666666667,4120.7,307.13966666666664,307.64525,314.72925,314.62125,21.924,20.5473,22.0301,21.5657,314.999998,314.999998,324.999988,324.999988,99.55721428571428,99.50628333333333,99.56751428571428,99.5491,-0.03849999999999998,-0.10675000000000001,-0.1865,0.028,-0.05333333333332746,-0.06333333333333258,1.4795,1.506,38.025,29.420333333333332,38.688,35.7855,54.605999999999995,33.9585,59.5325,53.22966666666667,52.544,33.1745,58.0945,51.53933333333333,51.656,32.76,57.961,50.94533333333333,-0.014999999999999902,-0.04999999999999982,0.10548,0.11059500000000001,0.0,219.59,219.55,216.25333333333333,216.25333333333333,0.0,0.0
30,0.0,0.0,0.0,1.0,1.0,0.0,0.0,1.0,0.0,100.0,1.0,1.1856,26.0,0.0,0.0,0.0,59.999996,0.0,26.0,26.0,26.0,26.0,-0.06188888888888888,0.2841,-0.011166666666666668,295.959,-2.7287,-2.8785,-1.58495,-1.6569,-173.64,215.89499999999998,190.331625,0.0,0.0,0.0,0.0,0.0609,-5.498166666666667,-5.498166666666667,-0.4157,0.9530000000000001,-0.06388888888888866,-0.347,70.3,-0.0697,0.009640000000000001,0.5739999999999998,100.0,1.0,1.0,216.70333333333332,0.0,0.0,0.0,0.0,0.0,0.0,0.0,9185.2,0.0,55.0,5.0,253.05,0.0,0.0,0.0,0.0,0.0,0.0,1.0,0.0,1.5030000000000001,1.5030000000000001,0.0,0.0,0.0,55.0,616.79921,10000.0,85.000001,85.000001,85.000001,85.000001,395.0,0.0,0.0,0.0,1.0,166.665,61.172,61.172,46.951,46.951,34.0,-23.0125,17.506666666666668,-34.79,25.9825,0.0,1781.017,0.010000000000001563,100.0,21.745,20.9515,44.242000000000004,43.409,0.0,0.0,100.0,0.0,0.0,0.0,0.0,2644.75,2303.3,4397.333333333333,4070.2,306.84,307.46425,314.38125,314.721,21.932111111111112,20.5514,22.0399,21.5744,314.999998,314.999998,324.999988,324.999988,99.55722857142857,99.50628333333333,99.56765714285714,99.54922857142857,-0.008499999999999952,-0.08350000000000002,-0.17466666666666666,0.0385,-0.05833333333333002,-0.05333333333332746,1.4885,1.4994999999999998,38.076,29.446333333333335,38.748999999999995,35.84,54.587,33.9895,59.569,53.284666666666666,52.525,33.2025,58.1285,51.592,51.637,32.787,57.9925,50.99666666666667,-0.038000000000000034,-0.03750000000000009,0.09835,0.11669500000000001,0.0,220.075,220.015,216.70333333333332,216.70333333333332,0.0,0.0
31,0.0,0.0,0.0,1.0,1.0,0.0,0.0,1.0,0.0,100.0,1.0,1.1856,26.0,0.0,0.0,0.0,59.999996,0.0,26.0,26.0,26.0,26.0,-0.06877777777777783,0.28680000000000017,0.010833333333333334,295.639,-2.83145,-2.7624,-1.5399,-1.6508,-170.05,215.8825,190.30575,0.0,0.0,0.0,0.0,0.063,-5.498166666666667,-5.498166666666667,-0.41490000000000005,-0.6173333333333334,-0.056222222222222396,0.46799999999999997,70.44800000000001,-0.05405,-0.00686,0.1739999999999995,100.0,1.0,1.0,217.05666666666667,0.0,0.0,0.0,0.0,0.0,0.0,0.0,9200.2,0.0,55.0,5.0,253.57999999999998,1.0,0.0,0.0,0.0,0.0,0.0,1.0,0.0,1.5539999999999985,1.5539999999999985,0.0,0.0,1.0,55.0,616.79921,10000.0,85.000001,85.000001,85.000001,85.000001,395.0,0.0,0.0,0.0,1.0,333.33500000000004,61.278999999999996,61.278999999999996,45.929,45.929,34.0,-21.665,19.508333333333333,-32.196666666666665,28.53,0.0,1780.963,-0.08500000000000085,100.0,21.464,20.837,44.984,44.034,0.0,0.0,100.0,0.0,0.0,0.0,0.0,2488.0,2571.5,4259.111111111111,4308.1,307.33433333333335,306.8305,314.48225,314.28275,21.940333333333335,20.5557,22.0505,21.5838,314.999998,314.999998,324.999988,324.999988,99.55722857142857,99.5063,99.56782857142858,99.5494,0.004750000000000032,-0.06374999999999997,-0.153,0.05466666666666666,-0.03333333333333144,-0.051666666666669414,1.4615,1.4805000000000001,38.126999999999995,29.473333333333336,38.816,35.899,54.559,34.022,59.615,53.35066666666667,52.498999999999995,33.2325,58.172,51.65533333333333,51.611000000000004,32.816,58.0325,51.05833333333333,-0.04249999999999998,-0.033500000000000085,0.10513000000000002,0.10852500000000001,0.0,220.45499999999998,220.435,217.05666666666667,217.05666666666667,0.0,0.0
32,0.0,0.0,0.0,1.0,1.0,0.0,0.0,1.0,0.0,100.0,1.0,1.1856,26.0,0.0,0.0,0.0,59.999996,0.0,26.0,26.0,26.0,26.0,-0.040444444444444394,0.30190000000000006,0.019066666666666666,296.082,-2.7441,-2.8665000000000003,-1.5406,-1.6299000000000001,-166.45999999999998,215.8675,190.27975,0.0,0.0,0.0,0.0,0.0651,-5.498166666666667,-5.498166666666667,-0.4234,0.04733333333333334,-0.07699999999999996,-0.742,70.59100000000001,-0.038400000000000004,-0.00204,0.1280000000000001,100.0,1.0,1.0,217.56666666666666,0.0,0.0,0.0,0.0,0.0,0.0,0.0,9221.8,0.0,55.0,5.0,254.09666666666666,0.0,0.0,0.0,0.0,0.0,0.0,1.0,0.0,1.6050000000000004,1.6050000000000004,0.0,0.0,0.0,55.0,616.79921,10000.0,85.000001,85.000001,85.000001,85.000001,395.0,0.0,0.0,0.0,1.0,333.33500000000004,61.905,61.905,46.677,46.677,34.0,-20.6775,17.203333333333333,-31.493333333333332,28.41,0.0,1780.914,-0.15500000000000114,100.0,21.183,20.884,44.509,43.908,0.0,0.0,100.0,0.0,0.0,0.0,0.0,2487.0,2192.1,4247.555555555556,4237.0,307.35766666666666,307.694,314.55025,314.30575,21.948555555555554,20.56,22.0609,21.5931,314.999998,314.999998,324.999988,324.999988,99.55724285714285,99.5063,99.56795714285714,99.54952857142857,0.016750000000000043,-0.06125000000000003,-0.14533333333333334,0.0665,-0.046666666666666856,-0.06499999999999773,1.4929999999999999,1.504,38.179,29.500333333333334,38.879999999999995,35.9565,54.536,34.049,59.6505,53.405,52.477000000000004,33.257999999999996,58.205,51.70766666666667,51.589,32.84,58.0625,51.10933333333333,-0.04949999999999988,-0.028500000000000192,0.107355,0.110435,0.0,220.93,220.91,217.56666666666666,217.56666666666666,0.0,0.0
33,0.0,0.0,0.0,1.0,1.0,0.0,0.0,1.0,0.0,100.0,1.0,1.1856,26.0,0.0,0.0,0.0,59.999996,0.0,26.0,26.0,26.0,26.0,-0.02111111111111108,0.2795000000000001,-0.046,296.356,-2.80725,-2.8392,-1.55375,-1.6258,-163.06,215.85250000000002,190.25425,0.0,0.0,0.0,0.0,0.06706666666666666,-5.498166666666667,-5.498166666666667,-0.43360000000000004,-0.5706666666666667,-0.05544444444444441,0.268,70.727,-0.0264,0.00638,0.06799999999999962,100.0,1.0,1.0,217.99,0.0,0.0,0.0,0.0,0.0,0.0,0.0,9239.8,0.0,55.0,5.0,254.58666666666664,1.0,0.0,0.0,0.0,0.0,0.0,1.0,0.0,1.6529999999999987,1.6529999999999987,0.0,0.0,1.0,55.0,616.79921,10000.0,85.000001,85.000001,85.000001,85.000001,395.0,0.0,0.0,0.0,1.0,333.33500000000004,62.195,62.195,47.043,47.043,34.0,-20.2075,17.48833333333333,-30.156666666666666,28.2225,0.0,1780.865,-0.26500000000000057,100.0,20.945,20.6315,44.427,44.004999999999995,0.0,0.0,100.0,0.0,0.0,0.0,0.0,2449.0,2192.0,4121.555555555556,4160.8,307.56333333333333,307.778,314.84775,314.527,21.956222222222223,20.5639,22.0707,21.6018,314.999998,314.999998,324.999988,324.999988,99.55724285714285,99.50631666666666,99.56811428571429,99.54967142857143,0.02950000000000008,-0.04125000000000001,-0.13666666666666666,0.07583333333333334,-0.03999999999999915,-0.051666666666669414,1.4849999999999999,1.4935,38.227000000000004,29.52433333333333,38.942,36.0115,54.510999999999996,34.073499999999996,59.6865,53.461,52.455,33.28,58.239,51.76166666666667,51.566,32.861000000000004,58.0935,51.16166666666667,-0.06099999999999994,-0.01200000000000001,0.10754000000000001,0.10510000000000001,0.0,221.315,221.315,217.99,217.99,0.0,0.0
34,0.0,0.0,0.0,1.0,1.0,0.0,0.0,1.0,0.0,100.0,1.0,1.1856,26.0,0.0,0.0,0.0,59.999996,0.0,26.0,26.0,26.0,26.0,-0.013666666666666605,0.2932000000000001,-0.10866666666666668,296.76800000000003,-2.83335,-2.759,-1.6267,-1.5503,-159.24,215.835,190.224,0.0,0.0,0.0,0.0,0.0693,-5.498166666666667,-5.498166666666667,-0.4713,-0.93,-0.019333333333333425,-0.20999999999999996,70.88,-0.014,-0.00328,-0.08200000000000074,100.0,1.0,1.0,218.47,0.0,0.0,0.0,0.0,0.0,0.0,0.0,9260.2,0.0,55.0,5.0,255.13666666666666,0.0,0.0,0.0,0.0,0.0,0.0,1.0,0.0,1.7070000000000007,1.7070000000000007,0.0,0.0,0.0,55.0,616.79921,10000.0,85.000001,85.000001,85.000001,85.000001,395.0,0.0,0.0,0.0,1.0,166.665,62.836,62.836,47.165,47.165,34.0,-17.8175,17.535,-30.096666666666668,27.810000000000002,0.0,1780.813,-0.3249999999999993,100.0,20.56,20.4165,44.032,44.03,0.0,0.0,100.0,0.0,0.0,0.0,0.0,2216.25,2208.3,4114.333333333333,4175.1,308.213,307.73975,314.944,314.5625,21.964777777777776,20.5683,22.0815,21.6117,314.999998,314.999998,324.999988,324.999988,99.55724285714285,99.50631666666666,99.56827142857144,99.54982857142858,0.04225000000000012,-0.028000000000000025,-0.1225,0.09,-0.04333333333332945,-0.04833333333333201,1.522,1.525,38.28,29.552,39.01,36.073,54.483000000000004,34.101,59.7245,53.52466666666667,52.428,33.3055,58.2745,51.82266666666666,51.54,32.885,58.126,51.221333333333334,-0.0625,-0.00550000000000006,0.10965000000000001,0.100695,0.0,221.78,221.76999999999998,218.47,218.47,0.0,0.0
35,0.0,0.0,0.0,1.0,1.0,0.0,0.0,1.0,0.0,100.0,1.0,1.1856,26.0,0.0,0.0,0.0,59.999996,0.0,26.0,26.0,26.0,26.0,-0.0030000000000000027,0.2876000000000001,-0.08046666666666667,296.463,-2.8955,-2.7548,-1.5681,-1.528,-155.62,215.82,190.193125,0.0,0.0,0.0,0.0,0.0714,-5.498166666666667,-5.498166666666667,-0.4998,0.28833333333333333,-0.04111111111111132,-0.34199999999999997,71.021,0.0016,0.00344,-0.3119999999999994,100.0,1.0,1.0,218.99,0.0,0.0,0.0,0.0,0.0,0.0,0.0,9282.1,0.0,55.0,5.0,255.64666666666665,1.0,0.0,0.0,0.0,0.0,0.0,1.0,0.0,1.7579999999999991,1.7579999999999991,0.0,0.0,1.0,55.0,616.79921,10000.0,85.000001,85.000001,85.000001,85.000001,395.0,0.0,0.0,0.0,1.0,166.665,61.752,61.752,47.119,47.119,34.0,-20.29,21.373333333333335,-27.11,28.067500000000003,0.0,1780.761,-0.16999999999999815,100.0,20.684,20.845,43.782,43.481,0.0,0.0,100.0,0.0,0.0,0.0,0.0,2465.375,2588.6,4046.8888888888887,4087.3,307.54533333333336,306.63175,315.104,314.87375,21.972666666666665,20.5728,22.0918,21.6208,314.999998,314.999998,324.999988,324.999988,99.55724285714285,99.50631666666666,99.56841428571428,99.54998571428571,0.04974999999999996,-0.01574999999999993,-0.09316666666666668,0.11966666666666667,-0.06499999999999773,-0.07000000000000028,1.5545,1.5545,38.329,29.58,39.074,36.129999999999995,54.456,34.1305,59.7605,53.57966666666667,52.403,33.333,58.308,51.87566666666667,51.513999999999996,32.911500000000004,58.156,51.272999999999996,-0.052999999999999936,-0.02200000000000024,0.10513000000000002,0.10726000000000001,0.0,222.24,222.25,218.99,218.99,0.0,0.0
