,ABS Active,ABS Enabled,AID Allow Tire Blankets,AID Auto Blip,AID Auto Clutch,AID Auto Shift,AID Fuel Rate,AID Ideal Line,AID Mech Damage,AID Stability,AID Tire Wear Rate,Air Density,Air Temp,Ballast,Best Lap Delta,Best Lap Time,Brake Bias,Brake Pos,Brake Temp FL,Brake Temp FR,Brake Temp RL,Brake Temp RR,CG Accel Lateral,CG Accel Longitudinal,CG Accel Vertical,CG Height,Camber FL,Camber FR,Camber RL,Camber RR,Car Coord X,Car Coord Y,Car Coord Z,Car Damage Front,Car Damage Left,Car Damage Rear,Car Damage Right,Car Pos Norm,Caster FL,Caster FR,Chassis Pitch Angle,Chassis Pitch Rate,Chassis Roll Angle,Chassis Roll Rate,Chassis Velocity X,Chassis Velocity Y,Chassis Velocity Z,Chassis Yaw Rate,Clutch Pos,DRS Active,DRS Available,Drive Train Speed,ERS Heat Charging,ERS Is Charging,ERS Max Energy,ERS Power Level,ERS Recovery Level,Engine Brake Setting,Engine Limiter,Engine RPM,Flags,Fuel Level,Gear,Ground Speed,HR Sample Clock,In Pit,KERS Charge,KERS Deployed Energy,KERS Input,KERS Max Energy,LR Sample Clock,Lap Invalidated,Lap Time,Lap Time2,Last Lap Time,Last Sector Time,MR Sample Clock,Max Fuel,Max Power,Max RPM,Max Sus Travel FL,Max Sus Travel FR,Max Sus Travel RL,Max Sus Travel RR,Max Torque,Max Turbo Boost,Num Tires Off Track,Penalties Enabled,Position,Raw Data Sample Rate,Ride Height FL,Ride Height FR,Ride Height RL,Ride Height RR,Road Temp,Self Align Torque FL,Self Align Torque FR,Self Align Torque RL,Self Align Torque RR,Session Lap Count,Session Time Left,Steering Angle,Surface Grip,Suspension Travel FL,Suspension Travel FR,Suspension Travel RL,Suspension Travel RR,TC Active,TC Enabled,Throttle Pos,Tire Dirt Level FL,Tire Dirt Level FR,Tire Dirt Level RL,Tire Dirt Level RR,Tire Load FL,Tire Load FR,Tire Load RL,Tire Load RR,Tire Loaded Radius FL,Tire Loaded Radius FR,Tire Loaded Radius RL,Tire Loaded Radius RR,Tire Pressure FL,Tire Pressure FR,Tire Pressure RL,Tire Pressure RR,Tire Radius FL,Tire Radius FR,Tire Radius RL,Tire Radius RR,Tire Rubber Grip FL,Tire Rubber Grip FR,Tire Rubber Grip RL,Tire Rubber Grip RR,Tire Slip Angle FL,Tire Slip Angle FR,Tire Slip Angle RL,Tire Slip Angle RR,Tire Slip Ratio FL,Tire Slip Ratio FR,Tire Slip Ratio RL,Tire Slip Ratio RR,Tire Temp Core FL,Tire Temp Core FR,Tire Temp Core RL,Tire Temp Core RR,Tire Temp Inner FL,Tire Temp Inner FR,Tire Temp Inner RL,Tire Temp Inner RR,Tire Temp Middle FL,Tire Temp Middle FR,Tire Temp Middle RL,Tire Temp Middle RR,Tire Temp Outer FL,Tire Temp Outer FR,Tire Temp Outer RL,Tire Temp Outer RR,Toe In FL,Toe In FR,Toe In RL,Toe In RR,Turbo Boost,Wheel Angular Speed FL,Wheel Angular Speed FR,Wheel Angular Speed RL,Wheel Angular Speed RR,Wind Direction,Wind Speed
0,0.0,0.0,0.0,1.0,1.0,0.0,0.0,1.0,0.0,100.0,1.0,1.1856,26.0,0.0,0.0,0.0,59.99999,0.0,26.0,26.0,26.0,26.0,-0.081125,0.31190000000000007,0.10690000000000001,295.166,-2.7464,-2.67425,-1.5095,-1.545125,-275.8,216.3025,190.989375,0.0,0.0,0.0,0.0,0.0015333333333333334,-5.498166666666667,-5.498166666666667,-0.5519000000000001,1.512,-0.005555555555555536,-1.025,65.775,-0.027100000000000003,-0.20855,0.9539999999999997,100.0,1.0,1.0,203.20333333333332,0.0,0.0,0.0,0.0,0.0,0.0,0.0,8613.1,0.0,55.0,5.0,236.75666666666666,0.0,0.0,0.0,0.0,0.0,0.0,0.0,0.0,0.0030000000000001137,0.0030000000000001137,0.0,0.0,0.0,55.0,616.79921,10000.0,85.0,85.0,85.0,85.0,395.0,0.0,0.0,0.0,1.0,20.0,53.925,53.925,50.858000000000004,50.858000000000004,34.0,-28.932499999999997,24.522,-28.41,22.98,0.0,1783.55,0.8599999999999994,100.0,25.88,25.557,39.736000000000004,39.934,0.0,0.0,100.0,0.0,0.0,0.0,0.0,3175.714285714286,3419.1,3952.857142857143,3818.5,305.22,303.87775,315.30333333333334,315.32025,21.719666666666665,20.4964,21.7653,21.296599999999998,314.99999,314.99999,324.99998,324.99998,99.55648571428571,99.50705,99.56585714285714,99.54501428571429,-0.017249999999999988,-0.11,-0.16100000000000003,0.06033333333333335,-0.06666666666666998,-0.05666666666667197,1.6195,1.6420000000000001,36.748000000000005,29.1025,37.033,34.104,55.355000000000004,34.1295,59.2085,51.482,53.337,33.3635,57.847,49.853,52.5385,32.976,57.831,49.28766666666667,0.002666666666666817,-0.12749999999999995,0.10565000000000001,0.09926000000000001,0.0,206.13,206.015,203.20333333333332,203.20333333333332,0.0,0.0
1,0.0,0.0,0.0,1.0,1.0,0.0,0.0,1.0,0.0,100.0,1.0,1.1856,26.0,0.0,0.0,0.0,59.999996,0.0,26.0,26.0,26.0,26.0,-0.11562499999999998,0.31279999999999997,0.0051,294.296,-2.6777,-2.778125,-1.5263,-1.53675,-272.44,216.2975,190.969125,0.0,0.0,0.0,0.0,0.0034666666666666665,-5.498166666666667,-5.498166666666667,-0.46080000000000004,-0.033,-0.04811111111111144,-0.27700000000000014,65.936,-0.041600000000000005,-0.15937500000000002,1.298,100.0,1.0,1.0,203.24666666666667,0.0,0.0,0.0,0.0,0.0,0.0,0.0,8614.9,0.0,55.0,5.0,237.33666666666667,1.0,0.0,0.0,0.0,0.0,0.0,0.0,0.0,0.053999999999998494,0.053999999999998494,0.0,0.0,1.0,55.0,616.79921,10000.0,85.000001,85.000001,85.000001,85.000001,395.0,0.0,0.0,0.0,1.0,333.33500000000004,55.817,55.817,48.599000000000004,48.599000000000004,34.0,-24.44,16.374,-33.6325,30.1825,0.0,1783.498,0.995000000000001,100.0,26.195,25.646,42.261,41.076,0.0,0.0,100.0,0.0,0.0,0.0,0.0,2771.5714285714284,2437.8,4348.571428571428,4773.9,306.2485,307.07375,314.18766666666664,312.965,21.729222222222223,20.5014,21.7762,21.3057,314.999998,314.999998,324.999988,324.999988,99.55648571428571,99.50706666666666,99.56601428571429,99.54515714285715,-0.01849999999999996,-0.134,-0.16600000000000004,0.05016666666666669,-0.006666666666667709,-0.051666666666669414,1.4140000000000001,1.455,36.808,29.134,37.101,34.1605,55.339,34.1695,59.254,51.548,53.322,33.4005,57.888999999999996,49.916,52.5225,33.010999999999996,57.8705,49.349666666666664,0.010333333333333083,-0.14349999999999996,0.10895500000000001,0.106745,0.0,206.59,206.51,203.24666666666667,203.24666666666667,0.0,0.0
2,0.0,0.0,0.0,1.0,1.0,0.0,0.0,1.0,0.0,100.0,1.0,1.1856,26.0,0.0,0.0,0.0,59.999996,0.0,26.0,26.0,26.0,26.0,-0.14874999999999994,0.2976000000000001,-0.12430000000000001,295.029,-2.6217,-2.819,-1.4798,-1.605625,-268.88,216.29000000000002,190.94925,0.0,0.0,0.0,0.0,0.005566666666666667,-5.498166666666667,-5.498166666666667,-0.526,-0.126,-0.050666666666666416,2.5140000000000002,66.093,-0.0648,-0.226075,1.6479999999999997,100.0,1.0,1.0,204.26333333333332,0.0,0.0,0.0,0.0,0.0,0.0,0.0,8657.9,0.0,55.0,5.0,237.90333333333334,0.0,0.0,0.0,0.0,0.0,0.0,0.0,0.0,0.10800000000000054,0.10800000000000054,0.0,0.0,0.0,55.0,616.79921,10000.0,85.000001,85.000001,85.000001,85.000001,395.0,0.0,0.0,0.0,1.0,166.665,54.474000000000004,54.474000000000004,50.919,50.919,34.0,-28.785,19.188,-27.7025,19.795,0.0,1783.445,0.8150000000000013,100.0,26.789,25.418,42.088,40.855000000000004,0.0,0.0,100.0,0.0,0.0,0.0,0.0,3168.285714285714,2791.5,3665.0,3590.3,305.019,306.0125,315.8473333333333,316.0145,21.739555555555555,20.5063,21.7873,21.315,314.999998,314.999998,324.999988,324.999988,99.5565,99.50708333333333,99.56615714285714,99.5453,-0.034499999999999975,-0.14125000000000001,-0.21033333333333337,0.017833333333333368,-0.06666666666666998,-0.05333333333332746,1.6680000000000001,1.722,36.872,29.1645,37.171,34.219,55.325,34.207,59.292500000000004,51.609,53.308,33.435,57.9255,49.9745,52.507999999999996,33.044,57.9035,49.407,0.003666666666666707,-0.13600000000000012,0.10295000000000001,0.11450500000000001,0.0,207.07,206.93,204.26333333333332,204.26333333333332,0.0,0.0
3,0.0,0.0,0.0,1.0,1.0,0.0,0.0,1.0,0.0,100.0,1.0,1.1856,26.0,0.0,0.0,0.0,59.999996,0.0,26.0,26.0,26.0,26.0,-0.13324999999999998,0.3177000000000001,0.084,294.693,-2.7536,-2.7110000000000003,-1.5068000000000001,-1.5798750000000001,-265.7,216.2775,190.930625,0.0,0.0,0.0,0.0,0.0074,-5.498166666666667,-5.498166666666667,-0.48700000000000004,0.45,-0.004999999999999893,0.35,66.242,-0.0843,-0.17320000000000002,1.2620000000000005,100.0,1.0,1.0,204.37666666666667,0.0,0.0,0.0,0.0,0.0,0.0,0.0,8662.7,0.0,55.0,5.0,238.43666666666667,1.0,0.0,0.0,0.0,0.0,0.0,0.0,0.0,0.1559999999999988,0.1559999999999988,0.0,0.0,1.0,55.0,616.79921,10000.0,85.000001,85.000001,85.000001,85.000001,395.0,0.0,0.0,0.0,1.0,166.665,55.496,55.496,48.828,48.828,34.0,-24.34,18.36,-33.44,24.7625,0.0,1783.398,0.620000000000001,100.0,26.376,25.455,41.896,40.798,0.0,0.0,100.0,0.0,0.0,0.0,0.0,2703.0,2774.5,4225.714285714285,4258.3,306.505,306.01775,314.48633333333333,314.31775,21.748444444444445,20.511,21.7972,21.3233,314.999998,314.999998,324.999988,324.999988,99.5565,99.5071,99.56628571428571,99.54544285714286,-0.02100000000000002,-0.138,-0.1981666666666666,0.01750000000000007,-0.03166666666666629,-0.060000000000002274,1.5135,1.53,36.928,29.1935,37.232,34.271,55.31,34.2455,59.3285,51.668,53.294,33.47,57.9585,50.031,52.493,33.0775,57.934,49.46233333333333,-0.025666666666666726,-0.1120000000000001,0.10326500000000001,0.10670500000000001,0.0,207.54500000000002,207.47500000000002,204.37666666666667,204.37666666666667,0.0,0.0
4,0.0,0.0,0.0,1.0,1.0,0.0,0.0,1.0,0.0,100.0,1.0,1.1856,26.0,0.0,0.0,0.0,59.999996,0.0,26.0,26.0,26.0,26.0,-0.148625,0.28510000000000013,-0.021733333333333334,294.937,-2.6855,-2.766375,-1.5215,-1.59025,-262.52,216.265,190.912,0.0,0.0,0.0,0.0,0.009233333333333333,-5.498166666666667,-5.498166666666667,-0.5164,-0.925,-0.07500000000000018,-0.9120000000000001,66.386,-0.08710000000000001,-0.20872500000000002,1.1139999999999999,100.0,1.0,1.0,204.93666666666667,0.0,0.0,0.0,0.0,0.0,0.0,0.0,8686.4,0.0,55.0,5.0,238.96,0.0,0.0,0.0,0.0,0.0,0.0,0.0,0.0,0.20400000000000063,0.20400000000000063,0.0,0.0,0.0,55.0,616.79921,10000.0,85.000001,85.000001,85.000001,85.000001,395.0,0.0,0.0,0.0,1.0,166.665,55.252,55.252,49.347,49.347,34.0,-27.305,19.036,-31.8825,20.575000000000003,0.0,1783.349,0.6449999999999996,100.0,26.155,25.158,42.333,40.985,0.0,0.0,100.0,0.0,0.0,0.0,0.0,3016.5714285714284,2813.2,4033.714285714286,3662.6,305.6875,305.919,314.90433333333334,315.69675,21.75722222222222,20.5155,21.8072,21.331699999999998,314.999998,314.999998,324.999988,324.999988,99.5565,99.50711666666666,99.56642857142857,99.54557142857144,-0.031000000000000028,-0.13975,-0.20266666666666666,0.01766666666666672,-0.013333333333328312,-0.07499999999999574,1.5625,1.62,36.983000000000004,29.222,37.295,34.323,55.293,34.282,59.367,51.724000000000004,53.278,33.504,57.9945,50.085,52.476,33.11,57.9675,49.515,-0.015333333333333199,-0.11699999999999999,0.099515,0.10416,0.0,207.925,207.85500000000002,204.93666666666667,204.93666666666667,0.0,0.0
5,0.0,0.0,0.0,1.0,1.0,0.0,0.0,1.0,0.0,100.0,1.0,1.1856,26.0,0.0,0.0,0.0,59.999996,0.0,26.0,26.0,26.0,26.0,-0.13874999999999993,0.3117000000000001,-0.03256666666666667,295.059,-2.6915,-2.7910000000000004,-1.4998,-1.582875,-259.13,216.2475,190.891625,0.0,0.0,0.0,0.0,0.011233333333333333,-5.498166666666667,-5.498166666666667,-0.5111,0.3995,-0.0862222222222222,-0.16599999999999993,66.537,-0.0898,-0.18645,1.1400000000000006,100.0,1.0,1.0,205.39666666666668,0.0,0.0,0.0,0.0,0.0,0.0,0.0,8706.1,0.0,55.0,5.0,239.50333333333333,1.0,0.0,0.0,0.0,0.0,0.0,0.0,0.0,0.254999999999999,0.254999999999999,0.0,0.0,1.0,55.0,616.79921,10000.0,85.000001,85.000001,85.000001,85.000001,395.0,0.0,0.0,0.0,1.0,333.33500000000004,55.588,55.588,49.759,49.759,34.0,-27.4025,17.766,-33.2725,22.005000000000003,0.0,1783.297,0.20500000000000185,100.0,26.172,25.14,42.002,40.618,0.0,0.0,100.0,0.0,0.0,0.0,0.0,3027.0,2587.4,4119.571428571428,3953.0,305.7085,306.50325,314.86266666666666,315.0155,21.76688888888889,20.5204,21.8177,21.3404,314.999998,314.999998,324.999988,324.999988,99.5565,99.50713333333333,99.56657142857142,99.54571428571428,-0.031000000000000028,-0.134,-0.22466666666666657,0.0076666666666667105,-0.060000000000002274,-0.041666666666671404,1.5545,1.601,37.043,29.252499999999998,37.361000000000004,34.3775,55.278999999999996,34.320499999999996,59.406,51.7805,53.263999999999996,33.539,58.031,50.138999999999996,52.462,33.1435,58.001,49.56766666666667,-0.03866666666666663,-0.08899999999999997,0.111085,0.10985,0.0,208.46,208.365,205.39666666666668,205.39666666666668,0.0,0.0
6,0.0,0.0,0.0,1.0,1.0,0.0,0.0,1.0,0.0,100.0,1.0,1.1856,26.0,0.0,0.0,0.0,59.999996,0.0,26.0,26.0,26.0,26.0,-0.10350000000000004,0.3013000000000001,-0.011833333333333333,294.861,-2.6645,-2.7640000000000002,-1.546,-1.614875,-255.93,216.22750000000002,190.87225,0.0,0.0,0.0,0.0,0.013066666666666666,-5.498166666666667,-5.498166666666667,-0.5061,0.07,-0.0645555555555557,-0.4990000000000001,66.681,-0.0867,-0.185875,0.8160000000000007,100.0,1.0,1.0,205.81666666666666,0.0,0.0,0.0,0.0,0.0,0.0,0.0,8723.8,0.0,55.0,5.0,240.01999999999998,0.0,0.0,0.0,0.0,0.0,0.0,0.0,0.0,0.3030000000000008,0.3030000000000008,0.0,0.0,0.0,55.0,616.79921,10000.0,85.000001,85.000001,85.000001,85.000001,395.0,0.0,0.0,0.0,1.0,333.33500000000004,55.283,55.283,49.561,49.561,34.0,-26.75,19.558,-32.7875,22.62,0.0,1783.249,0.05000000000000071,100.0,25.995,25.212,42.053,40.925,0.0,0.0,100.0,0.0,0.0,0.0,0.0,3070.285714285714,2741.3,4061.4285714285716,3920.1000000000004,305.5785,305.96075,314.99266666666665,315.03875,21.775777777777776,20.525,21.8277,21.3488,314.999998,314.999998,324.999988,324.999988,99.55651428571429,99.50713333333333,99.5667,99.54584285714286,-0.008749999999999925,-0.115,-0.21199999999999997,0.014000000000000012,-0.06499999999999773,-0.041666666666671404,1.5394999999999999,1.593,37.099000000000004,29.281,37.423,34.43,55.263999999999996,34.356,59.443,51.838,53.25,33.572,58.0655,50.194,52.4475,33.1745,58.033,49.622,-0.06466666666666665,-0.0665,0.10467000000000001,0.10743000000000001,0.0,208.88,208.79500000000002,205.81666666666666,205.81666666666666,0.0,0.0
7,0.0,0.0,0.0,1.0,1.0,0.0,0.0,1.0,0.0,100.0,1.0,1.1856,26.0,0.0,0.0,0.0,59.999996,0.0,26.0,26.0,26.0,26.0,-0.09250000000000003,0.30490000000000017,0.046733333333333335,294.662,-2.6322,-2.76175,-1.5023,-1.562875,-252.52,216.2025,190.85175,0.0,0.0,0.0,0.0,0.015066666666666666,-5.498166666666667,-5.498166666666667,-0.5097,-0.0485,-0.05288888888888854,1.114,66.833,-0.06860000000000001,-0.19462500000000002,0.33999999999999986,100.0,1.0,1.0,206.23666666666668,0.0,0.0,0.0,0.0,0.0,0.0,0.0,8741.7,0.0,55.0,5.0,240.56666666666666,1.0,0.0,0.0,0.0,0.0,0.0,0.0,0.0,0.3539999999999992,0.3539999999999992,0.0,0.0,1.0,55.0,616.79921,10000.0,85.000001,85.000001,85.000001,85.000001,395.0,0.0,0.0,0.0,1.0,333.33500000000004,54.993,54.993,49.652,49.652,34.0,-25.365,21.704,-30.1375,24.5925,0.0,1783.198,-0.16999999999999815,100.0,26.218,25.049,42.127,41.002,0.0,0.0,100.0,0.0,0.0,0.0,0.0,3057.285714285714,2898.8,4000.714285714286,4073.0,305.371,305.6615,315.01533333333333,314.77025,21.785333333333334,20.5299,21.8382,21.3578,314.999998,314.999998,324.999988,324.999988,99.55651428571429,99.50715,99.56685714285715,99.54598571428572,0.023249999999999993,-0.08750000000000001,-0.1765,0.04499999999999993,-0.036666666666668846,-0.07000000000000028,1.5379999999999998,1.557,37.158,29.311999999999998,37.489000000000004,34.486,55.248000000000005,34.3935,59.4815,51.899,53.235,33.606,58.1015,50.2525,52.432,33.207,58.066,49.67933333333333,-0.08466666666666667,-0.05149999999999988,0.10801000000000001,0.10710000000000001,0.0,209.31,209.29000000000002,206.23666666666668,206.23666666666668,0.0,0.0
8,0.0,0.0,0.0,1.0,1.0,0.0,0.0,1.0,0.0,100.0,1.0,1.1856,26.0,0.0,0.0,0.0,59.999996,0.0,26.0,26.0,26.0,26.0,-0.037250000000000005,0.30469999999999997,-0.011733333333333333,294.861,-2.7241,-2.74125,-1.488,-1.54525,-249.11,216.1775,190.831,0.0,0.0,0.0,0.0,0.017033333333333334,-5.498166666666667,-5.498166666666667,-0.5104000000000001,-0.444,-0.03544444444444439,-0.403,66.985,-0.0492,-0.18675,0.03000000000000025,100.0,1.0,1.0,206.64333333333332,0.0,0.0,0.0,0.0,0.0,0.0,0.0,8758.9,0.0,55.0,5.0,241.11333333333334,0.0,0.0,0.0,0.0,0.0,0.0,0.0,0.0,0.40500000000000114,0.40500000000000114,0.0,0.0,0.0,55.0,616.79921,10000.0,85.000001,85.000001,85.000001,85.000001,395.0,0.0,0.0,0.0,1.0,333.33500000000004,55.847,55.847,48.874,48.874,34.0,-23.3275,20.817999999999998,-30.4425,25.9225,0.0,1783.146,-0.34999999999999787,100.0,25.696,25.248,42.044,41.266,0.0,0.0,100.0,0.0,0.0,0.0,0.0,2831.714285714286,2740.4,4162.428571428572,4073.3,306.3085,305.98825,314.6716666666667,314.65575,21.794666666666668,20.5348,21.8488,21.3667,314.999998,314.999998,324.999988,324.999988,99.55651428571429,99.50715,99.567,99.54611428571428,0.030750000000000055,-0.075,-0.15783333333333338,0.07133333333333325,-0.04999999999999716,-0.060000000000002274,1.5305,1.537,37.217,29.3425,37.555,34.542,55.230000000000004,34.4315,59.5225,51.963,53.218,33.641,58.1395,50.314,52.4135,33.2405,58.101,49.739,-0.09099999999999997,-0.03849999999999998,0.10405,0.11653500000000001,0.0,209.765,209.76,206.64333333333332,206.64333333333332,0.0,0.0
9,0.0,0.0,0.0,1.0,1.0,0.0,0.0,1.0,0.0,100.0,1.0,1.1856,26.0,0.0,0.0,0.0,59.999996,0.0,26.0,26.0,26.0,26.0,-0.013624999999999998,0.2973000000000001,-0.0195,294.586,-2.7110000000000003,-2.74175,-1.5482,-1.545125,-245.89,216.15,190.811125,0.0,0.0,0.0,0.0,0.0189,-5.498166666666667,-5.498166666666667,-0.5172,0.595,-0.0344444444444445,-0.4830000000000001,67.124,-0.031,-0.18875,-0.08199999999999985,100.0,1.0,1.0,207.21,0.0,0.0,0.0,0.0,0.0,0.0,0.0,8782.9,0.0,55.0,5.0,241.61333333333334,1.0,0.0,0.0,0.0,0.0,0.0,0.0,0.0,0.4529999999999994,0.4529999999999994,0.0,0.0,1.0,55.0,616.79921,10000.0,85.000001,85.000001,85.000001,85.000001,395.0,0.0,0.0,0.0,1.0,166.665,54.626,54.626,49.973,49.973,34.0,-25.595,22.658,-27.835,25.6875,0.0,1783.1,-0.48999999999999844,100.0,26.104,25.656,41.743,41.299,0.0,0.0,100.0,0.0,0.0,0.0,0.0,3208.0,2852.8,3933.285714285714,3975.6000000000004,305.1695,305.582,315.3163333333333,314.965,21.803555555555555,20.5396,21.8586,21.3751,314.999998,314.999998,324.999988,324.999988,99.55652857142857,99.50716666666666,99.56712857142857,99.54625714285714,0.06099999999999994,-0.05475,-0.1366666666666666,0.08616666666666672,-0.05333333333332746,-0.04833333333333201,1.5855000000000001,1.573,37.272,29.372500000000002,37.616,34.5945,55.218,34.464,59.5535,52.015,53.206,33.671,58.168,50.364,52.400999999999996,33.269,58.126999999999995,49.788,-0.10433333333333317,-0.027499999999999858,0.10137,0.11203,0.0,210.22,210.21,207.21,207.21,0.0,0.0
10,0.0,0.0,0.0,1.0,1.0,0.0,0.0,1.0,0.0,100.0,1.0,1.1856,26.0,0.0,0.0,0.0,59.999996,0.0,26.0,26.0,26.0,26.0,0.0008749999999999591,0.30410000000000004,0.04953333333333333,294.388,-2.6801,-2.73125,-1.5230000000000001,-1.530375,-242.47,216.1225,190.79025,0.0,0.0,0.0,0.0,0.020900000000000002,-5.498166666666667,-5.498166666666667,-0.49200000000000005,-0.45,0.006333333333333302,1.834,67.276,-0.0126,-0.175875,-0.48800000000000043,100.0,1.0,1.0,207.46333333333334,0.0,0.0,0.0,0.0,0.0,0.0,0.0,8793.6,0.0,55.0,5.0,242.16333333333336,0.0,0.0,0.0,0.0,0.0,0.0,1.0,0.0,0.5040000000000013,0.5040000000000013,0.0,0.0,0.0,55.0,616.79921,10000.0,85.000001,85.000001,85.000001,85.000001,395.0,0.0,0.0,0.0,1.0,166.665,55.679,55.679,48.385999999999996,48.385999999999996,34.0,-19.565,22.992,-28.947499999999998,29.7325,0.0,1783.049,-0.6550000000000011,100.0,26.112000000000002,25.46,42.271,41.955,0.0,0.0,100.0,0.0,0.0,0.0,0.0,2660.0,2814.0,4212.857142857143,4283.8,306.627,305.93975,314.4716666666667,314.2275,21.81288888888889,20.5446,21.8692,21.3842,314.999998,314.999998,324.999988,324.999988,99.55652857142857,99.50716666666666,99.56727142857143,99.5464,0.08800000000000008,-0.02625,-0.10633333333333339,0.1120000000000001,-0.045000000000001705,-0.054999999999999716,1.4939999999999998,1.468,37.331,29.404,37.683,34.6515,55.204,34.4985,59.593,52.079,53.193,33.703,58.205,50.4255,52.387,33.2995,58.161,49.848333333333336,-0.1166666666666667,-0.013500000000000068,0.10091000000000001,0.10837500000000001,0.0,210.66,210.68,207.46333333333334,207.46333333333334,0.0,0.0
11,0.0,0.0,0.0,1.0,1.0,0.0,0.0,1.0,0.0,100.0,1.0,1.1856,26.0,0.0,0.0,0.0,59.999996,0.0,26.0,26.0,26.0,26.0,0.04600000000000004,0.2942,-0.10416666666666669,294.922,-2.7337,-2.71225,-1.5819,-1.516875,-239.03,216.095,190.7695,0.0,0.0,0.0,0.0,0.022600000000000002,-5.498166666666667,-5.498166666666667,-0.5344,-0.223,0.030000000000000027,-0.708,67.42099999999999,0.011000000000000001,-0.20652500000000001,-0.6459999999999999,100.0,1.0,1.0,208.21666666666667,0.0,0.0,0.0,0.0,0.0,0.0,0.0,8825.5,0.0,55.0,5.0,242.68666666666667,1.0,0.0,0.0,0.0,0.0,0.0,1.0,0.0,0.5549999999999997,0.5549999999999997,0.0,0.0,1.0,55.0,616.79921,10000.0,85.000001,85.000001,85.000001,85.000001,395.0,0.0,0.0,0.0,1.0,166.665,55.054,55.054,50.018,50.018,34.0,-21.74,24.362000000000002,-24.085,25.855,0.0,1782.998,-0.6750000000000007,100.0,25.763,25.864,41.741,41.992000000000004,0.0,0.0,100.0,0.0,0.0,0.0,0.0,2920.285714285714,2926.2,3662.4285714285716,3812.7,306.054,305.366,315.98333333333335,315.35775,21.822111111111113,20.5497,21.8796,21.3932,314.999998,314.999998,324.999988,324.999988,99.55654285714286,99.50718333333333,99.56741428571429,99.54654285714285,0.09525000000000006,-0.021500000000000002,-0.10116666666666663,0.12949999999999995,-0.05333333333332746,-0.060000000000002274,1.657,1.637,37.388,29.436,37.747,34.707499999999996,55.189,34.534,59.6265,52.1385,53.178,33.7355,58.236,50.4825,52.3715,33.3305,58.189,49.904333333333334,-0.119,-0.015000000000000124,0.11259000000000001,0.104385,0.0,211.095,211.135,208.21666666666667,208.21666666666667,0.0,0.0
12,0.0,0.0,0.0,1.0,1.0,0.0,0.0,1.0,0.0,100.0,1.0,1.1856,26.0,0.0,0.0,0.0,59.999996,0.0,26.0,26.0,26.0,26.0,0.047374999999999945,0.30079999999999996,0.027033333333333333,294.296,-2.7787,-2.7116249999999997,-1.5427,-1.520375,-235.59,216.07,190.74725,0.0,0.0,0.0,0.0,0.025466666666666665,-5.498166666666667,-5.498166666666667,-0.5196000000000001,0.2485,0.016222222222222138,0.729,67.572,0.0315,-0.17755,-0.7460000000000004,100.0,1.0,1.0,208.43666666666667,0.0,0.0,0.0,0.0,0.0,0.0,0.0,8834.9,0.0,55.0,5.0,243.22666666666666,0.0,0.0,0.0,0.0,0.0,0.0,1.0,0.0,0.6059999999999981,0.6059999999999981,0.0,0.0,0.0,55.0,616.79921,10000.0,85.000001,85.000001,85.000001,85.000001,395.0,0.0,0.0,0.0,1.0,166.665,54.947,54.947,48.644999999999996,48.644999999999996,34.0,-21.2525,26.426000000000002,-26.0675,30.4575,0.0,1782.948,-0.6699999999999982,100.0,25.796,25.892,41.766,41.832,0.0,0.0,100.0,0.0,0.0,0.0,0.0,2883.714285714286,3044.2,4131.0,4191.6,306.0135,305.20325,314.758,314.49825,21.831222222222223,20.555,21.89,21.4021,314.999998,314.999998,324.999988,324.999988,99.55655714285714,99.50718333333333,99.56755714285714,99.54668571428572,0.11375000000000002,0.0085,-0.0648333333333333,0.14800000000000013,-0.03833333333332689,-0.06333333333333258,1.544,1.514,37.445,29.4685,37.813,34.7635,55.175,34.57,59.6635,52.199,53.165,33.7685,58.2705,50.541,52.3575,33.3625,58.2205,49.961666666666666,-0.1146666666666667,-0.01750000000000007,0.11300500000000001,0.10476,0.0,211.555,211.635,208.43666666666667,208.43666666666667,0.0,0.0
13,0.0,0.0,0.0,1.0,1.0,0.0,0.0,1.0,0.0,100.0,1.0,1.1856,26.0,0.0,0.0,0.0,59.999996,0.0,26.0,26.0,26.0,26.0,0.07912500000000011,0.30469999999999997,0.03916666666666667,293.976,-2.7638,-2.694875,-1.5836999999999999,-1.500375,-232.14,216.04500000000002,190.7255,0.0,0.0,0.0,0.0,0.0269,-5.498166666666667,-5.498166666666667,-0.5135000000000001,-0.094,0.021777777777777896,-0.4870000000000001,67.72,0.042,-0.186925,-0.7839999999999998,100.0,1.0,1.0,208.85333333333335,0.0,0.0,0.0,0.0,0.0,0.0,0.0,8852.6,0.0,55.0,5.0,243.76,1.0,0.0,0.0,0.0,0.0,0.0,1.0,0.0,0.657,0.657,0.0,0.0,1.0,55.0,616.79921,10000.0,85.000001,85.000001,85.000001,85.000001,395.0,0.0,0.0,0.0,1.0,166.665,54.703,54.703,48.706,48.706,34.0,-20.7025,25.63,-26.8725,31.02,0.0,1782.896,-0.870000000000001,100.0,25.963,26.257,41.847,42.468,0.0,0.0,100.0,0.0,0.0,0.0,0.0,2986.285714285714,2925.3,4136.428571428572,4238.5,305.867,305.3775,314.79566666666665,314.27625,21.840444444444444,20.560200000000002,21.9006,21.4113,314.999998,314.999998,324.999988,324.999988,99.55657142857143,99.50718333333333,99.5677,99.54682857142858,0.14074999999999993,0.016,-0.0675,0.15166666666666684,-0.05333333333332746,-0.04333333333332945,1.5164999999999997,1.494,37.503,29.5015,37.879000000000005,34.821,55.164,34.6065,59.701,52.263,53.153999999999996,33.802,58.305,50.602000000000004,52.3455,33.3945,58.251999999999995,50.02166666666667,-0.14266666666666672,-0.0034999999999998366,0.10757000000000001,0.10317000000000001,0.0,212.025,212.07,208.85333333333335,208.85333333333335,0.0,0.0
14,0.0,0.0,0.0,1.0,1.0,0.0,0.0,1.0,0.0,100.0,1.0,1.1856,26.0,0.0,0.0,0.0,59.999996,0.0,26.0,26.0,26.0,26.0,0.09487500000000004,0.29259999999999997,-0.0117,294.22,-2.765,-2.6397500000000003,-1.5897999999999999,-1.50325,-228.88,216.0225,190.705375,0.0,0.0,0.0,0.0,0.028800000000000003,-5.498166666666667,-5.498166666666667,-0.5229,-0.183,0.05022222222222217,-0.07000000000000006,67.856,0.0533,-0.198025,-0.976,100.0,1.0,1.0,209.36,0.0,0.0,0.0,0.0,0.0,0.0,0.0,8874.0,0.0,55.0,5.0,244.25333333333333,0.0,0.0,0.0,0.0,0.0,0.0,1.0,0.0,0.7049999999999983,0.7049999999999983,0.0,0.0,0.0,55.0,616.79921,10000.0,85.000001,85.000001,85.000001,85.000001,395.0,0.0,0.0,0.0,1.0,166.665,54.81,54.81,48.888999999999996,48.888999999999996,34.0,-19.6125,26.396,-24.8875,30.345,0.0,1782.849,-0.9899999999999984,100.0,25.831,26.312,41.802,42.626,0.0,0.0,100.0,0.0,0.0,0.0,0.0,2875.5714285714284,3000.5,3954.714285714286,4115.8,306.195,305.17025,315.22833333333335,314.60225,21.84911111111111,20.5651,21.9105,21.4199,314.999998,314.999998,324.999988,324.999988,99.55658571428572,99.50718333333333,99.56782857142858,99.54697142857142,0.14600000000000013,0.02875,-0.0578333333333334,0.16300000000000003,-0.061666666666667425,-0.03499999999999659,1.5635,1.5350000000000001,37.557,29.532,37.94,34.8745,55.153,34.641,59.734,52.3215,53.144,33.834,58.336,50.658500000000004,52.3345,33.425,58.2795,50.077333333333335,-0.1479999999999999,0.008000000000000007,0.10702500000000001,0.101985,0.0,212.445,212.505,209.36,209.36,0.0,0.0
15,0.0,0.0,0.0,1.0,1.0,0.0,0.0,1.0,0.0,100.0,1.0,1.1856,26.0,0.0,0.0,0.0,59.999996,0.0,26.0,26.0,26.0,26.0,0.11325000000000007,0.3016000000000001,0.02586666666666667,294.25,-2.7712,-2.59775,-1.6173000000000002,-1.4455,-225.42000000000002,216.0,190.683625,0.0,0.0,0.0,0.0,0.0308,-5.498166666666667,-5.498166666666667,-0.5135000000000001,0.2165,0.08277777777777784,0.6859999999999999,68.002,0.0703,-0.177875,-1.2560000000000002,100.0,1.0,1.0,209.7866666666667,0.0,0.0,0.0,0.0,0.0,0.0,0.0,8892.1,0.0,55.0,5.0,244.78,1.0,0.0,0.0,0.0,0.0,0.0,1.0,0.0,0.7560000000000002,0.7560000000000002,0.0,0.0,1.0,55.0,616.79921,10000.0,85.000001,85.000001,85.000001,85.000001,395.0,0.0,0.0,0.0,1.0,166.665,55.022999999999996,55.022999999999996,48.874,48.874,34.0,-17.0425,27.676000000000002,-23.23,33.7175,0.0,1782.797,-0.9899999999999984,100.0,25.946,26.236,41.628,42.671,0.0,0.0,100.0,0.0,0.0,0.0,0.0,2627.857142857143,3084.3,3888.857142857143,4366.5,306.7815,305.0695,315.372,314.0895,21.85822222222222,20.5705,21.9209,21.429,314.999998,314.999998,324.999988,324.999988,99.55661428571429,99.5072,99.56797142857143,99.54711428571429,0.1685000000000001,0.05375,-0.026833333333333376,0.20116666666666672,-0.04999999999999716,-0.04833333333333201,1.5695000000000001,1.526,37.614000000000004,29.5655,38.004999999999995,34.9315,55.141999999999996,34.6785,59.7675,52.3845,53.132999999999996,33.8685,58.367,50.7195,52.3225,33.458,58.3075,50.137,-0.1459999999999999,0.01200000000000001,0.10560000000000001,0.11516000000000001,0.0,212.9,212.98000000000002,209.7866666666667,209.7866666666667,0.0,0.0
16,0.0,0.0,0.0,1.0,1.0,0.0,0.0,1.0,0.0,100.0,1.0,1.1856,26.0,0.0,0.0,0.0,59.999996,0.0,26.0,26.0,26.0,26.0,0.12387499999999996,0.29269999999999996,-0.011266666666666668,294.25,-2.8273,-2.60825,-1.5926,-1.446125,-222.15,215.98250000000002,190.66275,0.0,0.0,0.0,0.0,0.0327,-5.498166666666667,-5.498166666666667,-0.5355,-0.718,0.07044444444444431,0.15900000000000003,68.14,0.08270000000000001,-0.1952,-1.262,100.0,1.0,1.0,210.21,0.0,0.0,0.0,0.0,0.0,0.0,0.0,8910.1,0.0,55.0,5.0,245.27333333333334,0.0,0.0,0.0,0.0,0.0,0.0,1.0,0.0,0.8039999999999985,0.8039999999999985,0.0,0.0,0.0,55.0,616.79921,10000.0,85.000001,85.000001,85.000001,85.000001,395.0,0.0,0.0,0.0,1.0,166.665,54.886,54.886,48.66,48.66,34.0,-18.509999999999998,28.218,-21.71,32.2475,0.0,1782.75,-0.8900000000000006,100.0,25.645,26.306,41.897,42.774,0.0,0.0,100.0,0.0,0.0,0.0,0.0,2767.714285714286,3153.8,3867.142857142857,4132.2,306.483,304.894,315.41,314.631,21.866555555555557,20.575499999999998,21.9308,21.4376,314.999998,314.999998,324.999988,324.999988,99.55661428571429,99.5072,99.56811428571429,99.54725714285715,0.16674999999999995,0.04825,-0.007000000000000006,0.21550000000000002,-0.03999999999999915,-0.04999999999999716,1.5989999999999998,1.536,37.666,29.5965,38.067,34.9855,55.129000000000005,34.715,59.8025,52.442499999999995,53.120000000000005,33.902,58.3995,50.7755,52.309,33.49,58.337,50.192,-0.1339999999999999,-0.006000000000000227,0.10377000000000002,0.10836000000000001,0.0,213.28,213.38,210.21,210.21,0.0,0.0
17,0.0,0.0,0.0,1.0,1.0,0.0,0.0,1.0,0.0,100.0,1.0,1.1856,26.0,0.0,0.0,0.0,59.999996,0.0,26.0,26.0,26.0,26.0,0.12674999999999992,0.3053000000000001,0.011666666666666667,293.915,-2.7918000000000003,-2.589375,-1.6323,-1.468625,-218.67000000000002,215.9675,190.640125,0.0,0.0,0.0,0.0,0.03473333333333333,-5.498166666666667,-5.498166666666667,-0.5234,0.486,0.045777777777777695,-0.738,68.285,0.0843,-0.17555,-1.06,100.0,1.0,1.0,210.61333333333334,0.0,0.0,0.0,0.0,0.0,0.0,0.0,8927.1,0.0,55.0,5.0,245.79333333333335,1.0,0.0,0.0,0.0,0.0,0.0,1.0,0.0,0.8550000000000004,0.8550000000000004,0.0,0.0,1.0,55.0,616.79921,10000.0,85.000001,85.000001,85.000001,85.000001,395.0,0.0,0.0,0.0,1.0,333.33500000000004,54.672,54.672,48.538,48.538,34.0,-18.9725,26.334,-25.419999999999998,33.095,0.0,1782.698,-1.0399999999999991,100.0,25.939,26.66,41.601,42.789,0.0,0.0,100.0,0.0,0.0,0.0,0.0,2939.0,2927.7,4230.285714285715,4236.0,306.0615,305.419,314.6983333333333,314.37825,21.875777777777778,20.5809,21.9412,21.4467,314.999998,314.999998,324.999988,324.999988,99.55664285714286,99.50721666666666,99.56825714285715,99.5474,0.17825000000000002,0.05825,-0.019000000000000017,0.20350000000000001,-0.054999999999999716,-0.03999999999999915,1.5499999999999998,1.5050000000000001,37.723,29.630499999999998,38.132,35.042,55.120000000000005,34.7545,59.8365,52.5045,53.111999999999995,33.939,58.4305,50.835499999999996,52.299,33.5255,58.3655,50.25066666666667,-0.14933333333333332,0.008000000000000007,0.10323,0.10645,0.0,213.775,213.84,210.61333333333334,210.61333333333334,0.0,0.0
18,0.0,0.0,0.0,1.0,1.0,0.0,0.0,1.0,0.0,100.0,1.0,1.1856,26.0,0.0,0.0,0.0,59.999996,0.0,26.0,26.0,26.0,26.0,0.142625,0.2905,-0.03316666666666667,293.9,-2.8264,-2.5637499999999998,-1.6503999999999999,-1.412875,-215.39,215.95749999999998,190.618875,0.0,0.0,0.0,0.0,0.03663333333333333,-5.498166666666667,-5.498166666666667,-0.5339,-0.5285,0.07299999999999995,-0.07299999999999995,68.42,0.0835,-0.192425,-1.242,100.0,1.0,1.0,211.05,0.0,0.0,0.0,0.0,0.0,0.0,0.0,8945.7,0.0,55.0,5.0,246.28333333333336,0.0,0.0,0.0,0.0,0.0,0.0,1.0,0.0,0.9029999999999987,0.9029999999999987,0.0,0.0,0.0,55.0,616.79921,10000.0,85.000001,85.000001,85.000001,85.000001,395.0,0.0,0.0,0.0,1.0,166.665,54.565,54.565,48.477000000000004,48.477000000000004,34.0,-18.607499999999998,28.894,-23.965,31.3875,0.0,1782.651,-1.3049999999999997,100.0,25.71,26.549,41.911,43.192,0.0,0.0,100.0,0.0,0.0,0.0,0.0,2920.285714285714,3135.5,3994.0,4143.3,306.16,304.831,315.194,314.584,21.88422222222222,20.5859,21.9511,21.4555,314.999998,314.999998,324.999988,324.999988,99.55665714285715,99.50721666666666,99.56838571428571,99.54754285714286,0.19025000000000003,0.075,-0.01966666666666661,0.20233333333333325,-0.051666666666669414,-0.05333333333332746,1.581,1.52,37.775999999999996,29.662,38.194,35.0965,55.11,34.7915,59.871,52.565,53.102000000000004,33.973,58.4625,50.8935,52.288,33.558,58.394,50.30766666666666,-0.1653333333333331,0.030000000000000027,0.10755,0.10812000000000001,0.0,214.16500000000002,214.24,211.05,211.05,0.0,0.0
19,0.0,0.0,0.0,1.0,1.0,0.0,0.0,1.0,0.0,100.0,1.0,1.1856,26.0,0.0,0.0,0.0,59.999996,0.0,26.0,26.0,26.0,26.0,0.12937500000000002,0.3063,0.04803333333333333,293.381,-2.7457000000000003,-2.549375,-1.6643,-1.3960000000000001,-211.89999999999998,215.95,190.59625,0.0,0.0,0.0,0.0,0.03866666666666667,-5.498166666666667,-5.498166666666667,-0.5228,0.8385,0.08455555555555572,0.6579999999999999,68.563,0.0955,-0.179675,-1.4580000000000002,100.0,1.0,1.0,211.45666666666668,0.0,0.0,0.0,0.0,0.0,0.0,0.0,8962.8,0.0,55.0,5.0,246.79666666666668,1.0,0.0,0.0,0.0,0.0,0.0,1.0,0.0,0.9540000000000006,0.9540000000000006,0.0,0.0,1.0,55.0,616.79921,10000.0,85.000001,85.000001,85.000001,85.000001,395.0,0.0,0.0,0.0,1.0,333.33500000000004,53.955,53.955,48.233000000000004,48.233000000000004,34.0,-18.2375,29.042,-23.83,35.4125,0.0,1782.599,-0.7949999999999982,100.0,26.335,26.935,41.728,43.094,0.0,0.0,100.0,0.0,0.0,0.0,0.0,2826.714285714286,3245.1,4112.857142857143,4451.3,306.091,304.54675,314.91066666666666,313.94925,21.893333333333334,20.5915,21.9614,21.4646,314.999998,314.999998,324.999988,324.999988,99.55668571428572,99.50723333333333,99.56852857142857,99.5477,0.17375000000000007,0.055,0.0043333333333333,0.23049999999999993,-0.030000000000001137,-0.06499999999999773,1.5630000000000002,1.506,37.833,29.697,38.259,35.153999999999996,55.102000000000004,34.834,59.903999999999996,52.628,53.094,34.012,58.493,50.954499999999996,52.278999999999996,33.596000000000004,58.4215,50.368,-0.131,-0.0040000000000000036,0.108215,0.10890000000000001,0.0,214.615,214.74,211.45666666666668,211.45666666666668,0.0,0.0
20,0.0,0.0,0.0,1.0,1.0,0.0,0.0,1.0,0.0,100.0,1.0,1.1856,26.0,0.0,0.0,0.0,59.999996,0.0,26.0,26.0,26.0,26.0,0.11699999999999999,0.28280000000000016,-0.03226666666666667,293.716,-2.8379000000000003,-2.61925,-1.5796000000000001,-1.5305,-208.39999999999998,215.945,190.573625,0.0,0.0,0.0,0.0,0.0407,-5.498166666666667,-5.498166666666667,-0.5303,-1.1085,0.06688888888888878,-1.2610000000000001,68.708,0.09680000000000001,-0.194225,-0.6219999999999999,100.0,1.0,1.0,211.82,0.0,0.0,0.0,0.0,0.0,0.0,0.0,8978.2,0.0,55.0,5.0,247.32,0.0,0.0,0.0,0.0,0.0,0.0,0.0,0.0,1.004999999999999,1.004999999999999,0.0,0.0,0.0,55.0,616.79921,10000.0,85.000001,85.000001,85.000001,85.000001,395.0,0.0,0.0,0.0,1.0,333.33500000000004,54.962,54.962,47.714,47.714,34.0,-20.3475,24.336,-23.6425,34.0925,0.0,1782.548,0.240000000000002,100.0,25.779,26.766,42.356,43.664,0.0,0.0,100.0,0.0,0.0,0.0,0.0,2754.142857142857,2957.3,4117.571428571428,4161.1,306.647,305.30325,314.81466666666665,314.3725,21.90211111111111,20.5969,21.9721,21.474,314.999998,314.999998,324.999988,324.999988,99.5567,99.50723333333333,99.56868571428572,99.54784285714285,0.11424999999999996,-0.00975,-0.0086666666666666,0.21183333333333332,-0.061666666666667425,-0.026666666666670835,1.5150000000000001,1.477,37.888,29.7305,38.325,35.212,55.087,34.8705,59.942499999999995,52.692499999999995,53.079,34.046,58.528999999999996,51.016999999999996,52.2635,33.628,58.454,50.429,-0.05666666666666664,-0.08300000000000018,0.103415,0.11633,0.0,215.06,215.09,211.82,211.82,0.0,0.0
21,0.0,0.0,0.0,1.0,1.0,0.0,0.0,1.0,0.0,100.0,1.0,1.1856,26.0,0.0,0.0,0.0,59.999996,0.0,26.0,26.0,26.0,26.0,0.03374999999999995,0.29700000000000015,-0.0775,293.945,-2.7746,-2.64975,-1.6215000000000002,-1.511875,-204.89,215.9425,190.550375,0.0,0.0,0.0,0.0,0.04273333333333333,-5.498166666666667,-5.498166666666667,-0.5473,0.6055,0.02833333333333332,-0.1280000000000001,68.846,0.0674,-0.18755000000000002,0.18200000000000038,100.0,1.0,1.0,212.45333333333332,0.0,0.0,0.0,0.0,0.0,0.0,0.0,9005.0,0.0,55.0,5.0,247.81666666666666,1.0,0.0,0.0,0.0,0.0,0.0,0.0,0.0,1.056000000000001,1.056000000000001,0.0,0.0,1.0,55.0,616.79921,10000.0,85.000001,85.000001,85.000001,85.000001,395.0,0.0,0.0,0.0,1.0,166.665,54.504,54.504,48.721000000000004,48.721000000000004,34.0,-22.19,24.18,-25.655,29.315,0.0,1782.497,0.5100000000000016,100.0,26.316,26.588,42.0,42.959,0.0,0.0,100.0,0.0,0.0,0.0,0.0,2872.714285714286,3034.0,4033.4285714285716,4010.1000000000004,306.0725,305.2485,315.121,314.984,21.91122222222222,20.6023,21.9823,21.4829,314.999998,314.999998,324.999988,324.999988,99.55671428571429,99.50723333333333,99.56882857142857,99.548,0.08725000000000005,-0.03325,-0.055333333333333345,0.1668333333333334,-0.03499999999999659,-0.06666666666666998,1.5819999999999999,1.598,37.945,29.764499999999998,38.39,35.2685,55.074,34.908,59.974000000000004,52.751,53.066,34.081,58.558,51.073,52.2495,33.661500000000004,58.480000000000004,50.48433333333333,-0.02933333333333321,-0.10850000000000026,0.10298,0.10526500000000001,0.0,215.54500000000002,215.55,212.45333333333332,212.45333333333332,0.0,0.0
22,0.0,0.0,0.0,1.0,1.0,0.0,0.0,1.0,0.0,100.0,1.0,1.1856,26.0,0.0,0.0,0.0,59.999996,0.0,26.0,26.0,26.0,26.0,-0.005624999999999991,0.28780000000000006,-0.016833333333333336,293.549,-2.6869,-2.72275,-1.601,-1.51825,-201.57999999999998,215.9425,190.527875,0.0,0.0,0.0,0.0,0.044666666666666674,-5.498166666666667,-5.498166666666667,-0.5291,-0.0135,0.018333333333333313,0.661,68.983,0.025900000000000003,-0.174375,0.6960000000000006,100.0,1.0,1.0,212.68333333333334,0.0,0.0,0.0,0.0,0.0,0.0,0.0,9014.9,0.0,55.0,5.0,248.30666666666667,0.0,0.0,0.0,0.0,0.0,0.0,0.0,0.0,1.1039999999999992,1.1039999999999992,0.0,0.0,0.0,55.0,616.79921,10000.0,85.000001,85.000001,85.000001,85.000001,395.0,0.0,0.0,0.0,1.0,166.665,54.687,54.687,47.806,47.806,34.0,-21.6475,22.75,-29.375,30.45,0.0,1782.45,0.6099999999999994,100.0,26.501,26.478,42.686,43.073,0.0,0.0,100.0,0.0,0.0,0.0,0.0,2744.142857142857,2940.5,4173.714285714285,4291.7,306.3555,305.45675,314.68966666666665,314.3075,21.919888888888888,20.6073,21.9923,21.4916,314.999998,314.999998,324.999988,324.999988,99.55671428571429,99.50723333333333,99.56895714285714,99.54812857142858,0.055500000000000105,-0.06575,-0.10166666666666657,0.13166666666666682,-0.03833333333332689,-0.06833333333332803,1.4994999999999998,1.5130000000000001,37.998999999999995,29.7955,38.452,35.3225,55.06,34.9435,60.0105,52.8095,53.053,34.1135,58.592,51.1295,52.2355,33.692499999999995,58.510999999999996,50.53966666666666,-0.015333333333333199,-0.11649999999999983,0.11034500000000001,0.11005500000000001,0.0,216.0,215.93,212.68333333333334,212.68333333333334,0.0,0.0
23,0.0,0.0,0.0,1.0,1.0,0.0,0.0,1.0,0.0,100.0,1.0,1.1856,26.0,0.0,0.0,0.0,59.999996,0.0,26.0,26.0,26.0,26.0,-0.02587499999999998,0.2630000000000001,-0.051300000000000005,293.655,-2.696,-2.6965000000000003,-1.6318000000000001,-1.602625,-198.06,215.9425,190.504375,0.0,0.0,0.0,0.0,0.046733333333333335,-5.498166666666667,-5.498166666666667,-0.5478000000000001,-0.0895,-0.010444444444444478,-0.937,69.122,-0.014,-0.19825,1.1020000000000003,100.0,1.0,1.0,213.25666666666666,0.0,0.0,0.0,0.0,0.0,0.0,0.0,9039.2,0.0,55.0,5.0,248.81,1.0,0.0,0.0,0.0,0.0,0.0,0.0,0.0,1.1550000000000011,1.1550000000000011,0.0,0.0,1.0,55.0,616.79921,10000.0,85.000001,85.000001,85.000001,85.000001,395.0,0.0,0.0,0.0,1.0,333.33500000000004,54.031,54.031,48.92,48.92,34.0,-26.865,20.775999999999996,-29.8775,25.6025,0.0,1782.397,0.6099999999999994,100.0,26.734,26.503,42.807,43.056,0.0,0.0,100.0,0.0,0.0,0.0,0.0,3176.857142857143,2863.3,3998.285714285714,3846.5,305.2475,305.58425,315.27366666666666,315.24525,21.929,20.6126,22.0029,21.500799999999998,314.999998,314.999998,324.999988,324.999988,99.55672857142856,99.50725,99.56911428571429,99.54828571428571,0.02400000000000002,-0.09675,-0.1433333333333333,0.08699999999999997,-0.04833333333333201,-0.04833333333333201,1.5510000000000002,1.57,38.056,29.829,38.518,35.379999999999995,55.044,34.9825,60.047,52.8695,53.038,34.149,58.626,51.187,52.22,33.727000000000004,58.5415,50.596000000000004,-0.023666666666666725,-0.12049999999999983,0.10344,0.11382,0.0,216.41,216.34,213.25666666666666,213.25666666666666,0.0,0.0
24,0.0,0.0,0.0,1.0,1.0,0.0,0.0,1.0,0.0,100.0,1.0,1.1856,26.0,0.0,0.0,0.0,59.999996,0.0,26.0,26.0,26.0,26.0,-0.079125,0.2791000000000001,-0.02266666666666667,293.854,-2.7074,-2.72175,-1.54,-1.552375,-194.74,215.94,190.48175,0.0,0.0,0.0,0.0,0.048633333333333334,-5.498166666666667,-5.498166666666667,-0.5527000000000001,-0.587,-0.0129999999999999,-0.29499999999999993,69.256,-0.0417,-0.18480000000000002,1.0279999999999996,100.0,1.0,1.0,213.53333333333333,0.0,0.0,0.0,0.0,0.0,0.0,0.0,9050.8,0.0,55.0,5.0,249.29333333333335,0.0,0.0,0.0,0.0,0.0,0.0,0.0,0.0,1.2029999999999994,1.2029999999999994,0.0,0.0,0.0,55.0,616.79921,10000.0,85.000001,85.000001,85.000001,85.000001,395.0,0.0,0.0,0.0,1.0,333.33500000000004,55.191,55.191,47.821,47.821,34.0,-24.275,18.954,-33.49,24.6325,0.0,1782.349,0.5199999999999996,100.0,26.499,26.117,43.053,42.805,0.0,0.0,100.0,0.0,0.0,0.0,0.0,2839.0,2712.7,4295.714285714285,4038.3,306.293,306.1415,314.44466666666665,314.85625,21.937555555555555,20.6174,22.0129,21.5093,314.999998,314.999998,324.999988,324.999988,99.55672857142856,99.50726666666667,99.56925714285714,99.54841428571429,0.006000000000000005,-0.115,-0.1758333333333334,0.05033333333333334,-0.04833333333333201,-0.03499999999999659,1.4925000000000002,1.543,38.11,29.8585,38.58,35.4335,55.028,35.016999999999996,60.083,52.925,53.022999999999996,34.1815,58.6595,51.2405,52.2035,33.7575,58.572,50.647999999999996,-0.02633333333333332,-0.10850000000000026,0.11051000000000001,0.10892500000000001,0.0,216.845,216.73000000000002,213.53333333333333,213.53333333333333,0.0,0.0
25,0.0,0.0,0.0,1.0,1.0,0.0,0.0,1.0,0.0,100.0,1.0,1.1856,26.0,0.0,0.0,0.0,59.999996,0.0,26.0,26.0,26.0,26.0,-0.08199999999999996,0.2721,-0.03403333333333333,293.61,-2.7493,-2.702375,-1.5377,-1.573625,-191.0,215.935,190.454625,0.0,0.0,0.0,0.0,0.050833333333333335,-5.498166666666667,-5.498166666666667,-0.5828,0.352,-0.0301111111111112,-1.411,69.401,-0.0621,-0.18985000000000002,1.0600000000000005,100.0,1.0,1.0,214.14666666666668,0.0,0.0,0.0,0.0,0.0,0.0,0.0,9076.9,0.0,55.0,5.0,249.81333333333333,1.0,0.0,0.0,0.0,0.0,0.0,0.0,0.0,1.256999999999998,1.256999999999998,0.0,0.0,1.0,55.0,616.79921,10000.0,85.000001,85.000001,85.000001,85.000001,395.0,0.0,0.0,0.0,1.0,166.665,53.818,53.818,48.706,48.706,34.0,-29.445,21.466,-30.607499999999998,23.3525,0.0,1782.296,0.39000000000000057,100.0,26.668,26.379,42.839,42.364000000000004,0.0,0.0,100.0,0.0,0.0,0.0,0.0,3292.285714285714,3041.3,3988.5714285714284,3909.5,305.046,305.12375,315.24266666666665,315.18125,21.947111111111113,20.623,22.0239,21.5188,314.999998,314.999998,324.999988,324.999988,99.55672857142856,99.50728333333333,99.56941428571429,99.54857142857144,-0.0012499999999999734,-0.11525,-0.18466666666666665,0.04283333333333328,-0.04999999999999716,-0.04833333333333201,1.564,1.607,38.17,29.8935,38.649,35.4925,55.01,35.06,60.119,52.9845,53.004999999999995,34.2205,58.693,51.2975,52.1855,33.795,58.603,50.704,-0.033333333333333215,-0.0990000000000002,0.10626000000000001,0.10818000000000001,0.0,217.305,217.215,214.14666666666668,214.14666666666668,0.0,0.0
26,0.0,0.0,0.0,1.0,1.0,0.0,0.0,1.0,0.0,100.0,1.0,1.1856,26.0,0.0,0.0,0.0,59.999996,0.0,26.0,26.0,26.0,26.0,-0.12162499999999998,0.2843,0.09603333333333335,292.587,-2.6854,-2.7969999999999997,-1.5784,-1.578625,-187.45,215.9275,190.42875,0.0,0.0,0.0,0.0,0.0529,-5.498166666666667,-5.498166666666667,-0.5405,0.3005,-0.05522222222222206,0.646,69.544,-0.0683,-0.165875,0.7300000000000004,100.0,1.0,1.0,214.24666666666667,0.0,0.0,0.0,0.0,0.0,0.0,0.0,9081.1,0.0,55.0,5.0,250.32999999999998,0.0,0.0,0.0,0.0,0.0,0.0,0.0,0.0,1.3079999999999998,1.3079999999999998,0.0,0.0,0.0,55.0,616.79921,10000.0,85.000001,85.000001,85.000001,85.000001,395.0,0.0,0.0,0.0,1.0,166.665,53.986,53.986,46.692,46.692,34.0,-25.3875,20.712,-37.245,28.240000000000002,0.0,1782.246,0.21499999999999986,100.0,27.571,26.575,43.793,42.752,0.0,0.0,100.0,0.0,0.0,0.0,0.0,2974.0,2842.4,4602.714285714285,4510.8,305.65,305.8185,313.697,313.788,21.956444444444443,20.6283,22.0346,21.5281,314.999998,314.999998,324.999988,324.999988,99.55674285714285,99.5073,99.56957142857142,99.54871428571428,0.016250000000000098,-0.11075,-0.17366666666666664,0.039166666666666794,-0.041666666666671404,-0.04833333333333201,1.4274999999999998,1.439,38.227999999999994,29.927,38.716,35.5505,54.995999999999995,35.101,60.161,53.046,52.992000000000004,34.257999999999996,58.7325,51.3565,52.1715,33.831,58.638999999999996,50.76166666666667,-0.058333333333333126,-0.08650000000000002,0.10162500000000001,0.10664000000000001,0.0,217.75,217.675,214.24666666666667,214.24666666666667,0.0,0.0
27,0.0,0.0,0.0,1.0,1.0,0.0,0.0,1.0,0.0,100.0,1.0,1.1856,26.0,0.0,0.0,0.0,59.999996,0.0,26.0,26.0,26.0,26.0,-0.07474999999999998,0.26470000000000016,-0.04373333333333333,293.228,-2.6567,-2.7575000000000003,-1.5679,-1.648375,-184.32,215.92000000000002,190.407125,0.0,0.0,0.0,0.0,0.054700000000000006,-5.498166666666667,-5.498166666666667,-0.5737,-0.971,-0.05566666666666675,-0.536,69.664,-0.0666,-0.2132,0.6720000000000006,100.0,1.0,1.0,214.82666666666665,0.0,0.0,0.0,0.0,0.0,0.0,0.0,9105.7,0.0,55.0,5.0,250.76666666666665,1.0,0.0,0.0,0.0,0.0,0.0,0.0,0.0,1.352999999999998,1.352999999999998,0.0,0.0,1.0,55.0,616.79921,10000.0,85.000001,85.000001,85.000001,85.000001,395.0,0.0,0.0,0.0,1.0,166.665,54.123,54.123,47.607,47.607,34.0,-25.9425,20.372,-31.8,24.385,0.0,1782.201,0.13500000000000156,100.0,27.121,26.543,44.096000000000004,43.134,0.0,0.0,100.0,0.0,0.0,0.0,0.0,3067.714285714286,2848.0,4028.8571428571427,3905.3,305.6285,305.6595,315.01666666666665,315.1075,21.964444444444446,20.6329,22.044,21.5363,314.999998,314.999998,324.999988,324.999988,99.55674285714285,99.5073,99.5697,99.54885714285714,0.01100000000000012,-0.1165,-0.18399999999999994,0.037833333333333385,-0.05833333333333002,-0.046666666666666856,1.512,1.547,38.278,29.9555,38.775,35.602000000000004,54.980999999999995,35.135,60.195499999999996,53.098,52.977999999999994,34.29,58.765,51.407,52.157,33.861000000000004,58.6685,50.81033333333333,-0.06299999999999994,-0.08450000000000024,0.09732,0.10713500000000001,0.0,218.075,217.995,214.82666666666665,214.82666666666665,0.0,0.0
28,0.0,0.0,0.0,1.0,1.0,0.0,0.0,1.0,0.0,100.0,1.0,1.1856,26.0,0.0,0.0,0.0,59.999996,0.0,26.0,26.0,26.0,26.0,-0.06737499999999996,0.28970000000000007,-0.05296666666666667,293.32,-2.6843,-2.7325,-1.5486,-1.576625,-180.55,215.9075,190.379875,0.0,0.0,0.0,0.0,0.056900000000000006,-5.498166666666667,-5.498166666666667,-0.5690000000000001,0.629,-0.05355555555555558,-0.486,69.809,-0.0636,-0.176125,0.5520000000000005,100.0,1.0,1.0,215.2866666666667,0.0,0.0,0.0,0.0,0.0,0.0,0.0,9125.2,0.0,55.0,5.0,251.28333333333336,0.0,0.0,0.0,0.0,0.0,0.0,0.0,0.0,1.407,1.407,0.0,0.0,0.0,55.0,616.79921,10000.0,85.000001,85.000001,85.000001,85.000001,395.0,0.0,0.0,0.0,1.0,166.665,54.291,54.291,47.882,47.882,34.0,-25.4525,20.240000000000002,-32.875,25.3075,0.0,1782.146,-0.08500000000000085,100.0,27.157,26.479,43.4,42.701,0.0,0.0,100.0,0.0,0.0,0.0,0.0,3028.5714285714284,2778.0,4245.714285714285,4102.4,305.6955,305.84775,314.69933333333336,314.746,21.974222222222224,20.6384,22.055,21.5458,314.999998,314.999998,324.999988,324.999988,99.55674285714285,99.50731666666667,99.56985714285715,99.54901428571429,0.02100000000000013,-0.10025,-0.17766666666666664,0.04849999999999999,-0.04333333333332945,-0.04999999999999716,1.5310000000000001,1.546,38.339,29.990000000000002,38.844,35.661500000000004,54.966,35.1765,60.2315,53.158500000000004,52.964,34.328,58.7985,51.4645,52.141,33.8975,58.698499999999996,50.86666666666667,-0.07800000000000007,-0.06000000000000005,0.10340500000000001,0.10995,0.0,218.55,218.51999999999998,215.2866666666667,215.2866666666667,0.0,0.0
29,0.0,0.0,0.0,1.0,1.0,0.0,0.0,1.0,0.0,100.0,1.0,1.1856,26.0,0.0,0.0,0.0,59.999996,0.0,26.0,26.0,26.0,26.0,-0.059250000000000025,0.26680000000000015,-0.015300000000000001,293.182,-2.6335,-2.7898750000000003,-1.5256,-1.576375,-176.99,215.89499999999998,190.35325,0.0,0.0,0.0,0.0,0.05896666666666667,-5.498166666666667,-5.498166666666667,-0.5847,-0.6975,-0.04400000000000004,0.8160000000000001,69.94800000000001,-0.0516,-0.19082500000000002,0.1720000000000006,100.0,1.0,1.0,215.63666666666666,0.0,0.0,0.0,0.0,0.0,0.0,0.0,9140.0,0.0,55.0,5.0,251.78666666666666,1.0,0.0,0.0,0.0,0.0,0.0,0.0,0.0,1.4579999999999984,1.4579999999999984,0.0,0.0,1.0,55.0,616.79921,10000.0,85.000001,85.000001,85.000001,85.000001,395.0,0.0,0.0,0.0,1.0,166.665,54.184,54.184,47.821,47.821,34.0,-24.255,22.378,-30.145,27.09,0.0,1782.095,-0.129999999999999,100.0,27.056,26.299,43.819,42.943,0.0,0.0,100.0,0.0,0.0,0.0,0.0,3018.0,2921.5,4038.4285714285716,4164.0,305.6265,305.5525,314.98566666666665,314.5875,21.98322222222222,20.6437,22.0656,21.5551,314.999998,314.999998,324.999988,324.999988,99.55674285714285,99.50731666666667,99.57,99.54915714285714,0.04049999999999998,-0.085,-0.15816666666666657,0.0718333333333332,-0.04999999999999716,-0.05666666666667197,1.5,1.5250000000000001,38.394999999999996,30.023,38.91,35.7195,54.948,35.214,60.2705,53.2185,52.947,34.3625,58.8345,51.5225,52.1245,33.9305,58.7315,50.92333333333333,-0.08133333333333326,-0.06400000000000006,0.109825,0.113,0.0,218.94,218.9,215.63666666666666,215.63666666666666,0.0,0.0
30,0.0,0.0,0.0,1.0,1.0,0.0,0.0,1.0,0.0,100.0,1.0,1.1856,26.0,0.0,0.0,0.0,59.999996,0.0,26.0,26.0,26.0,26.0,-0.04812499999999997,0.26900000000000013,-0.0025666666666666667,292.648,-2.6576,-2.667875,-1.5035,-1.630875,-173.84,215.8825,190.32975,0.0,0.0,0.0,0.0,0.0608,-5.498166666666667,-5.498166666666667,-0.5724,0.901,-0.04477777777777803,-0.486,70.06700000000001,-0.0376,-0.181625,0.20200000000000085,100.0,1.0,1.0,216.03,0.0,0.0,0.0,0.0,0.0,0.0,0.0,9156.7,0.0,55.0,5.0,252.21333333333334,0.0,0.0,0.0,0.0,0.0,0.0,1.0,0.0,1.5030000000000001,1.5030000000000001,0.0,0.0,0.0,55.0,616.79921,10000.0,85.000001,85.000001,85.000001,85.000001,395.0,0.0,0.0,0.0,1.0,333.33500000000004,53.177,53.177,47.775,47.775,34.0,-26.16,21.222,-31.3425,27.13,0.0,1782.049,-0.16999999999999815,100.0,27.719,27.151,43.515,43.069,0.0,0.0,100.0,0.0,0.0,0.0,0.0,3239.857142857143,2851.4,4235.142857142857,4071.5,305.0235,305.558,314.64166666666665,314.704,21.991444444444443,20.6485,22.0748,21.5632,314.999998,314.999998,324.999988,324.999988,99.55675714285714,99.50733333333334,99.57014285714286,99.54928571428572,0.04800000000000004,-0.079,-0.15666666666666662,0.06699999999999995,-0.060000000000002274,-0.03499999999999659,1.5015,1.494,38.447,30.0535,38.968,35.769999999999996,54.939,35.2505,60.3015,53.269999999999996,52.938,34.396,58.8635,51.572,52.114,33.9625,58.757999999999996,50.971666666666664,-0.08999999999999986,-0.059499999999999886,0.11106500000000001,0.11002,0.0,219.35000000000002,219.31,216.03,216.03,0.0,0.0
31,0.0,0.0,0.0,1.0,1.0,0.0,0.0,1.0,0.0,100.0,1.0,1.1856,26.0,0.0,0.0,0.0,59.999996,0.0,26.0,26.0,26.0,26.0,-0.026000000000000023,0.27570000000000006,0.0097,292.374,-2.7641,-2.6483749999999997,-1.553,-1.6265,-170.26,215.8675,190.303875,0.0,0.0,0.0,0.0,0.06286666666666667,-5.498166666666667,-5.498166666666667,-0.5668000000000001,-0.661,-0.031333333333333435,0.671,70.205,-0.0196,-0.1937,-0.06799999999999962,100.0,1.0,1.0,216.35000000000002,0.0,0.0,0.0,0.0,0.0,0.0,0.0,9170.3,0.0,55.0,5.0,252.71,1.0,0.0,0.0,0.0,0.0,0.0,1.0,0.0,1.5539999999999985,1.5539999999999985,0.0,0.0,1.0,55.0,616.79921,10000.0,85.000001,85.000001,85.000001,85.000001,395.0,0.0,0.0,0.0,1.0,333.33500000000004,53.421,53.421,46.539,46.539,34.0,-24.425,23.88,-29.8075,30.12,0.0,1781.998,-0.245000000000001,100.0,27.503,27.108,44.278,43.706,0.0,0.0,100.0,0.0,0.0,0.0,0.0,3020.285714285714,3157.9,4186.428571428572,4249.1,305.7465,304.98325,314.60433333333333,314.43425,22.000444444444444,20.654,22.0856,21.5727,314.999998,314.999998,324.999988,324.999988,99.55675714285714,99.50735,99.57028571428572,99.54944285714285,0.06099999999999994,-0.06475,-0.11649999999999994,0.10050000000000003,-0.046666666666666856,-0.03999999999999915,1.4819999999999998,1.487,38.503,30.0875,39.035,35.829,54.924,35.289,60.341499999999996,53.332,52.924,34.4315,58.900999999999996,51.632,52.099000000000004,33.9965,58.792,51.03,-0.09166666666666679,-0.06050000000000022,0.10523500000000001,0.10840000000000001,0.0,219.735,219.7,216.35000000000002,216.35000000000002,0.0,0.0
32,0.0,0.0,0.0,1.0,1.0,0.0,0.0,1.0,0.0,100.0,1.0,1.1856,26.0,0.0,0.0,0.0,59.999996,0.0,26.0,26.0,26.0,26.0,-0.009375000000000022,0.2861,0.003933333333333334,292.618,-2.6775,-2.7504999999999997,-1.5562,-1.53125,-166.68,215.85,190.278,0.0,0.0,0.0,0.0,0.06496666666666667,-5.498166666666667,-5.498166666666667,-0.5793,0.077,-0.05322222222222228,-0.821,70.338,-0.0102,-0.19395,-0.11000000000000032,100.0,1.0,1.0,216.84333333333333,0.0,0.0,0.0,0.0,0.0,0.0,0.0,9191.2,0.0,55.0,5.0,253.19,0.0,0.0,0.0,0.0,0.0,0.0,1.0,0.0,1.6050000000000004,1.6050000000000004,0.0,0.0,0.0,55.0,616.79921,10000.0,85.000001,85.000001,85.000001,85.000001,395.0,0.0,0.0,0.0,1.0,333.33500000000004,53.68,53.68,47.18,47.18,34.0,-23.5625,23.152,-30.224999999999998,29.5075,0.0,1781.947,-0.33999999999999986,100.0,27.277,27.215,43.801,43.596000000000004,0.0,0.0,100.0,0.0,0.0,0.0,0.0,3075.857142857143,2879.4,4206.285714285715,4256.8,305.5575,305.541,314.65566666666666,314.37875,22.009444444444444,20.6594,22.096,21.5819,314.999998,314.999998,324.999988,324.999988,99.55677142857142,99.50735,99.57044285714285,99.54958571428571,0.07624999999999993,-0.051250000000000004,-0.12649999999999995,0.11450000000000005,-0.05833333333333002,-0.04833333333333201,1.5265,1.5170000000000001,38.559,30.121499999999997,39.1,35.8865,54.91,35.327,60.3755,53.3905,52.911,34.467,58.9325,51.688,52.085,34.03,58.820499999999996,51.084666666666664,-0.09933333333333327,-0.04400000000000004,0.11435500000000001,0.11410500000000001,0.0,220.155,220.15,216.84333333333333,216.84333333333333,0.0,0.0
33,0.0,0.0,0.0,1.0,1.0,0.0,0.0,1.0,0.0,100.0,1.0,1.1856,26.0,0.0,0.0,0.0,59.999996,0.0,26.0,26.0,26.0,26.0,0.007249999999999979,0.2692000000000001,-0.05313333333333334,292.984,-2.7319,-2.732375,-1.5623,-1.6031250000000001,-163.09,215.83249999999998,190.251,0.0,0.0,0.0,0.0,0.06706666666666666,-5.498166666666667,-5.498166666666667,-0.5888,-0.454,-0.034222222222222154,1.428,70.473,-0.0008,-0.184675,-0.13600000000000012,100.0,1.0,1.0,217.24333333333334,0.0,0.0,0.0,0.0,0.0,0.0,0.0,9208.2,0.0,55.0,5.0,253.67666666666668,1.0,0.0,0.0,0.0,0.0,0.0,1.0,0.0,1.6559999999999988,1.6559999999999988,0.0,0.0,1.0,55.0,616.79921,10000.0,85.000001,85.000001,85.000001,85.000001,395.0,0.0,0.0,0.0,1.0,166.665,54.123,54.123,47.623,47.623,34.0,-22.2675,23.294,-27.6125,29.835,0.0,1781.898,-0.3550000000000004,100.0,27.156,26.823999999999998,43.777,43.608000000000004,0.0,0.0,100.0,0.0,0.0,0.0,0.0,2923.857142857143,2890.2,4027.1428571428573,4182.2,305.9455,305.68725,315.04533333333336,314.5415,22.018444444444444,20.6646,22.1064,21.5911,314.999998,314.999998,324.999988,324.999988,99.55678571428571,99.50736666666667,99.57058571428571,99.54974285714286,0.08850000000000002,-0.0405,-0.10166666666666657,0.11333333333333329,-0.04333333333332945,-0.045000000000001705,1.5190000000000001,1.5190000000000001,38.614999999999995,30.154,39.165,35.9445,54.896,35.362,60.4105,53.45,52.897999999999996,34.4985,58.965,51.745,52.071,34.0605,58.85,51.14033333333333,-0.09899999999999998,-0.04600000000000026,0.10425000000000001,0.10648500000000001,0.0,220.56,220.54000000000002,217.24333333333334,217.24333333333334,0.0,0.0
34,0.0,0.0,0.0,1.0,1.0,0.0,0.0,1.0,0.0,100.0,1.0,1.1856,26.0,0.0,0.0,0.0,59.999996,0.0,26.0,26.0,26.0,26.0,-0.006249999999999978,0.2673000000000001,-0.08566666666666667,293.304,-2.7586,-2.651875,-1.6338,-1.52875,-159.7,215.8175,190.224375,0.0,0.0,0.0,0.0,0.06903333333333334,-5.498166666666667,-5.498166666666667,-0.6195,-0.7605000000000001,-0.00044444444444424747,0.903,70.6,0.007200000000000001,-0.19210000000000002,-0.2519999999999998,100.0,1.0,1.0,217.65666666666667,0.0,0.0,0.0,0.0,0.0,0.0,0.0,9225.7,0.0,55.0,5.0,254.13,0.0,0.0,0.0,0.0,0.0,0.0,1.0,0.0,1.7040000000000006,1.7040000000000006,0.0,0.0,0.0,55.0,616.79921,10000.0,85.000001,85.000001,85.000001,85.000001,395.0,0.0,0.0,0.0,1.0,166.665,54.611,54.611,47.897,47.897,34.0,-20.5775,23.384,-27.974999999999998,29.225,0.0,1781.849,-0.4250000000000007,100.0,26.87,26.602,43.434,43.643,0.0,0.0,100.0,0.0,0.0,0.0,0.0,2752.857142857143,2906.2,4015.285714285714,4179.1,306.354,305.62,315.15866666666665,314.60925,22.026777777777777,20.6696,22.1162,21.599899999999998,314.999998,314.999998,324.999988,324.999988,99.5568,99.50736666666667,99.57072857142857,99.54988571428571,0.10224999999999995,-0.025750000000000002,-0.09633333333333338,0.12416666666666676,-0.02833333333332888,-0.051666666666669414,1.5459999999999998,1.5290000000000001,38.667,30.185000000000002,39.226,35.999,54.882999999999996,35.394,60.441,53.5065,52.885,34.5285,58.9935,51.7995,52.0575,34.089,58.875,51.193333333333335,-0.10866666666666669,-0.03400000000000025,0.10132000000000001,0.10287,0.0,220.91500000000002,220.935,217.65666666666667,217.65666666666667,0.0,0.0
35,0.0,0.0,0.0,1.0,1.0,0.0,0.0,1.0,0.0,100.0,1.0,1.1856,26.0,0.0,0.0,0.0,59.999996,0.0,26.0,26.0,26.0,26.0,0.016625000000000112,0.2652000000000001,-0.08826666666666667,293.182,-2.7273,-2.67125,-1.596,-1.5270000000000001,-155.89,215.8,190.192125,0.0,0.0,0.0,0.0,0.07123333333333334,-5.498166666666667,-5.498166666666667,-0.6561,0.148,-0.024666666666666615,-0.2889999999999999,70.739,0.021400000000000002,-0.192325,-0.44200000000000017,100.0,1.0,1.0,218.19,0.0,0.0,0.0,0.0,0.0,0.0,0.0,9248.2,0.0,55.0,5.0,254.63333333333333,1.0,0.0,0.0,0.0,0.0,0.0,1.0,0.0,1.7579999999999991,1.7579999999999991,0.0,0.0,1.0,55.0,616.79921,10000.0,85.000001,85.000001,85.000001,85.000001,395.0,0.0,0.0,0.0,1.0,166.665,53.726,53.726,47.684,47.684,34.0,-21.7975,26.694,-25.9725,28.1975,0.0,1781.796,-0.259999999999998,100.0,26.742,27.041,43.175,43.149,0.0,0.0,100.0,0.0,0.0,0.0,0.0,2919.4285714285716,3220.7,3933.5714285714284,3983.4,305.9325,304.54325,315.36466666666666,315.14875,22.035888888888888,20.6755,22.1271,21.6095,314.999998,314.999998,324.999988,324.999988,99.55681428571428,99.50736666666667,99.57088571428571,99.55004285714286,0.09925000000000006,-0.025,-0.08333333333333337,0.1423333333333332,-0.05333333333332746,-0.041666666666671404,1.592,1.568,38.724999999999994,30.222,39.294,36.0595,54.867000000000004,35.434,60.4755,53.565,52.869,34.565,59.0255,51.856,52.0405,34.124,58.9035,51.248666666666665,-0.09533333333333327,-0.04700000000000015,0.10896000000000002,0.10505,0.0,221.38,221.39,218.19,218.19,0.0,0.0
36,0.0,0.0,0.0,1.0,1.0,0.0,0.0,1.0,0.0,100.0,1.0,1.1856,26.0,0.0,0.0,0.0,59.999996,0.0,26.0,26.0,26.0,26.0,0.03687499999999999,0.25970000000000004,0.0027,292.679,-2.6614,-2.7498750000000003,-1.6461999999999999,-1.572625,-152.49,215.785,190.162375,0.0,0.0,0.0,0.0,0.0732,-5.498166666666667,-5.498166666666667,-0.635,-0.2,-0.059555555555555806,0.17099999999999993,70.868,0.0253,-0.16897500000000001,-0.23599999999999977,100.0,1.0,1.0,218.30333333333334,0.0,0.0,0.0,0.0,0.0,0.0,0.0,9253.1,0.0,55.0,5.0,255.09666666666666,0.0,0.0,0.0,0.0,0.0,0.0,1.0,0.0,1.806000000000001,1.806000000000001,0.0,0.0,0.0,55.0,616.79921,10000.0,85.000001,85.000001,85.000001,85.000001,395.0,0.0,0.0,0.0,1.0,166.665,54.489,54.489,46.844,46.844,34.0,-19.02,23.314,-31.185,33.465,0.0,1781.748,-0.2049999999999983,100.0,27.149,26.978,43.531,43.7,0.0,0.0,100.0,0.0,0.0,0.0,0.0,2682.4285714285716,2797.9,4430.428571428572,4443.8,306.478,305.8215,314.2606666666667,313.86675,22.044333333333334,20.6807,22.1371,21.6184,314.999998,314.999998,324.999988,324.999988,99.55682857142857,99.50736666666667,99.57102857142857,99.55018571428572,0.10975000000000001,-0.025500000000000002,-0.08166666666666655,0.13766666666666683,-0.045000000000001705,-0.04999999999999716,1.4529999999999998,1.44,38.777,30.253999999999998,39.357,36.115,54.855000000000004,35.4685,60.51,53.6235,52.858000000000004,34.597,59.0575,51.9125,52.0285,34.1545,58.933,51.303666666666665,-0.09233333333333316,-0.05600000000000005,0.110975,0.10389000000000001,0.0,221.79500000000002,221.79000000000002,218.30333333333334,218.30333333333334,0.0,0.0
