,ABS Active,ABS Enabled,AID Allow Tire Blankets,AID Auto Blip,AID Auto Clutch,AID Auto Shift,AID Fuel Rate,AID Ideal Line,AID Mech Damage,AID Stability,AID Tire Wear Rate,Air Density,Air Temp,Ballast,Best Lap Delta,Best Lap Time,Brake Bias,Brake Pos,Brake Temp FL,Brake Temp FR,Brake Temp RL,Brake Temp RR,CG Accel Lateral,CG Accel Longitudinal,CG Accel Vertical,CG Height,Camber FL,Camber FR,Camber RL,Camber RR,Car Coord X,Car Coord Y,Car Coord Z,Car Damage Front,Car Damage Left,Car Damage Rear,Car Damage Right,Car Pos Norm,Caster FL,Caster FR,Chassis Pitch Angle,Chassis Pitch Rate,Chassis Roll Angle,Chassis Roll Rate,Chassis Velocity X,Chassis Velocity Y,Chassis Velocity Z,Chassis Yaw Rate,Clutch Pos,DRS Active,DRS Available,Drive Train Speed,ERS Heat Charging,ERS Is Charging,ERS Max Energy,ERS Power Level,ERS Recovery Level,Engine Brake Setting,Engine Limiter,Engine RPM,Flags,Fuel Level,Gear,Ground Speed,HR Sample Clock,In Pit,KERS Charge,KERS Deployed Energy,KERS Input,KERS Max Energy,LR Sample Clock,Lap Invalidated,Lap Time,Lap Time2,Last Lap Time,Last Sector Time,MR Sample Clock,Max Fuel,Max Power,Max RPM,Max Sus Travel FL,Max Sus Travel FR,Max Sus Travel RL,Max Sus Travel RR,Max Torque,Max Turbo Boost,Num Tires Off Track,Penalties Enabled,Position,Raw Data Sample Rate,Ride Height FL,Ride Height FR,Ride Height RL,Ride Height RR,Road Temp,Self Align Torque FL,Self Align Torque FR,Self Align Torque RL,Self Align Torque RR,Session Lap Count,Session Time Left,Steering Angle,Surface Grip,Suspension Travel FL,Suspension Travel FR,Suspension Travel RL,Suspension Travel RR,TC Active,TC Enabled,Throttle Pos,Tire Dirt Level FL,Tire Dirt Level FR,Tire Dirt Level RL,Tire Dirt Level RR,Tire Load FL,Tire Load FR,Tire Load RL,Tire Load RR,Tire Loaded Radius FL,Tire Loaded Radius FR,Tire Loaded Radius RL,Tire Loaded Radius RR,Tire Pressure FL,Tire Pressure FR,Tire Pressure RL,Tire Pressure RR,Tire Radius FL,Tire Radius FR,Tire Radius RL,Tire Radius RR,Tire Rubber Grip FL,Tire Rubber Grip FR,Tire Rubber Grip RL,Tire Rubber Grip RR,Tire Slip Angle FL,Tire Slip Angle FR,Tire Slip Angle RL,Tire Slip Angle RR,Tire Slip Ratio FL,Tire Slip Ratio FR,Tire Slip Ratio RL,Tire Slip Ratio RR,Tire Temp Core FL,Tire Temp Core FR,Tire Temp Core RL,Tire Temp Core RR,Tire Temp Inner FL,Tire Temp Inner FR,Tire Temp Inner RL,Tire Temp Inner RR,Tire Temp Middle FL,Tire Temp Middle FR,Tire Temp Middle RL,Tire Temp Middle RR,Tire Temp Outer FL,Tire Temp Outer FR,Tire Temp Outer RL,Tire Temp Outer RR,Toe In FL,Toe In FR,Toe In RL,Toe In RR,Turbo Boost,Wheel Angular Speed FL,Wheel Angular Speed FR,Wheel Angular Speed RL,Wheel Angular Speed RR,Wind Direction,Wind Speed
0,0.0,0.0,0.0,1.0,1.0,0.0,0.0,1.0,0.0,100.0,1.0,1.1856,26.0,0.0,0.0,0.0,59.99999,0.0,26.0,26.0,26.0,26.0,-0.09614285714285709,0.29269999999999996,0.08876666666666666,293.076,-2.6751,-2.631125,-1.4989,-1.5535555555555556,-275.5,216.325,190.985625,0.0,0.0,0.0,0.0,0.0017000000000000001,-5.498166666666667,-5.498166666666667,-0.6375000000000001,0.934,-0.0171111111111113,-1.039,65.626,-0.047699999999999965,-0.3111333333333334,1.096,100.0,1.0,1.0,202.73333333333335,0.0,0.0,0.0,0.0,0.0,0.0,0.0,8593.2,0.0,55.0,5.0,236.2266666666667,0.0,0.0,0.0,0.0,0.0,0.0,0.0,0.0,0.006000000000000227,0.006000000000000227,0.0,0.0,0.0,55.0,616.79921,10000.0,85.0,85.0,85.0,85.0,395.0,0.0,0.0,0.0,1.0,20.0,49.057,49.057,50.873,50.873,34.0,-30.1175,25.706,-28.67,22.314,0.0,1783.1,0.8100000000000023,100.0,29.996,29.367,39.835,39.617000000000004,0.0,0.0,100.0,0.0,0.0,0.0,0.0,3414.285714285714,3776.9,3923.5555555555557,3739.4,304.5275,302.834,315.37375,315.513,21.784399999999998,20.562,21.8941,21.3402,314.99999,314.99999,324.99998,324.99998,99.55804285714285,99.50828333333334,99.57494285714286,99.54792857142857,-0.0017500000000000293,-0.13349999999999995,-0.17179999999999995,0.05580000000000007,-0.04999999999999716,-0.06499999999999773,1.6056666666666666,1.6484999999999999,37.153,29.5125,37.838,34.3765,56.11,35.222,62.2775,52.6755,54.119,34.3755,60.854,50.9835,53.373,33.9535,60.8915,50.402,-0.02633333333333332,-0.14800000000000013,0.10186,0.11661,0.0,205.65,205.57,202.73333333333335,202.73333333333335,0.0,0.0
1,0.0,0.0,0.0,1.0,1.0,0.0,0.0,1.0,0.0,100.0,1.0,1.1856,26.0,0.0,0.0,0.0,59.999996,0.0,26.0,26.0,26.0,26.0,-0.13514285714285712,0.3117000000000001,0.0373,292.068,-2.5892,-2.74025,-1.5072,-1.5463333333333333,-272.15,216.3225,190.965375,0.0,0.0,0.0,0.0,0.003633333333333334,-5.498166666666667,-5.498166666666667,-0.5707,-0.1335,-0.06477777777777805,-0.545,65.78,-0.06259999999999999,-0.28450000000000003,1.4699999999999998,100.0,1.0,1.0,202.79000000000002,0.0,0.0,0.0,0.0,0.0,0.0,0.0,8595.5,0.0,55.0,5.0,236.77666666666667,1.0,0.0,0.0,0.0,0.0,0.0,0.0,0.0,0.05699999999999861,0.05699999999999861,0.0,0.0,1.0,55.0,616.79921,10000.0,85.000001,85.000001,85.000001,85.000001,395.0,0.0,0.0,0.0,1.0,333.33500000000004,50.4,50.4,49.225,49.225,34.0,-28.1775,19.06,-34.6275,28.076,0.0,1783.048,0.8449999999999989,100.0,30.308,29.461,41.92,40.729,0.0,0.0,100.0,0.0,0.0,0.0,0.0,3254.714285714286,2883.5,4322.555555555556,4704.8,304.8085,305.6186666666667,314.31875,313.15725,21.7947,20.5676,21.9056,21.3495,314.999998,314.999998,324.999988,324.999988,99.55805714285714,99.5083,99.57508571428572,99.54808571428572,-0.007000000000000006,-0.15025,-0.1933999999999999,0.023800000000000043,-0.02499999999999858,-0.03499999999999659,1.4053333333333333,1.483,37.217,29.5475,37.91,34.4345,56.099000000000004,35.266999999999996,62.312,52.736000000000004,54.108000000000004,34.417,60.8865,51.042,53.361,33.9935,60.920500000000004,50.45933333333333,-0.018999999999999906,-0.15249999999999986,0.10881,0.10570500000000001,0.0,206.11,206.0,202.79000000000002,202.79000000000002,0.0,0.0
2,0.0,0.0,0.0,1.0,1.0,0.0,0.0,1.0,0.0,100.0,1.0,1.1856,26.0,0.0,0.0,0.0,59.999996,0.0,26.0,26.0,26.0,26.0,-0.15142857142857147,0.2824,-0.1771666666666667,292.877,-2.5718,-2.758,-1.4848,-1.5911111111111111,-268.6,216.315,190.9455,0.0,0.0,0.0,0.0,0.0057,-5.498166666666667,-5.498166666666667,-0.6192000000000001,0.2675,-0.04233333333333311,2.459,65.929,-0.08209999999999995,-0.33613333333333334,1.6460000000000008,100.0,1.0,1.0,203.74333333333334,0.0,0.0,0.0,0.0,0.0,0.0,0.0,8636.0,0.0,55.0,5.0,237.31666666666666,0.0,0.0,0.0,0.0,0.0,0.0,0.0,0.0,0.11100000000000065,0.11100000000000065,0.0,0.0,0.0,55.0,616.79921,10000.0,85.000001,85.000001,85.000001,85.000001,395.0,0.0,0.0,0.0,1.0,166.665,49.484,49.484,51.208,51.208,34.0,-30.31,20.688,-28.5025,19.45,0.0,1782.996,0.7199999999999989,100.0,30.775,29.383,41.785,40.462,0.0,0.0,100.0,0.0,0.0,0.0,0.0,3458.142857142857,3154.5,3622.6666666666665,3699.7,304.1285,304.77066666666667,316.01,315.74975,21.8057,20.5733,21.9174,21.359,314.999998,314.999998,324.999988,324.999988,99.55805714285714,99.50831666666667,99.57522857142857,99.54821428571428,-0.010000000000000009,-0.16474999999999995,-0.23720000000000008,-0.0017999999999999128,-0.05333333333332746,-0.02833333333332888,1.6646666666666667,1.7349999999999999,37.286,29.583,37.983999999999995,34.4935,56.089,35.311,62.341499999999996,52.792,54.099000000000004,34.457,60.914,51.0955,53.351,34.032,60.9445,50.51166666666667,-0.03933333333333322,-0.14150000000000018,0.10787500000000001,0.11148000000000001,0.0,206.565,206.42000000000002,203.74333333333334,203.74333333333334,0.0,0.0
3,0.0,0.0,0.0,1.0,1.0,0.0,0.0,1.0,0.0,100.0,1.0,1.1856,26.0,0.0,0.0,0.0,59.999996,0.0,26.0,26.0,26.0,26.0,-0.15257142857142858,0.30000000000000004,-0.03776666666666667,292.664,-2.6968,-2.6563749999999997,-1.5013,-1.58,-265.43,216.305,190.927,0.0,0.0,0.0,0.0,0.007566666666666668,-5.498166666666667,-5.498166666666667,-0.5842,0.34950000000000003,-0.011666666666666714,-1.147,66.071,-0.0905999999999999,-0.28703333333333336,1.2560000000000002,100.0,1.0,1.0,203.86333333333334,0.0,0.0,0.0,0.0,0.0,0.0,0.0,8641.0,0.0,55.0,5.0,237.82666666666665,1.0,0.0,0.0,0.0,0.0,0.0,0.0,0.0,0.15899999999999892,0.15899999999999892,0.0,0.0,1.0,55.0,616.79921,10000.0,85.000001,85.000001,85.000001,85.000001,395.0,0.0,0.0,0.0,1.0,166.665,50.629,50.629,49.21,49.21,34.0,-27.405,18.592,-34.3925,22.990000000000002,0.0,1782.948,0.620000000000001,100.0,30.245,29.402,41.602000000000004,40.691,0.0,0.0,100.0,0.0,0.0,0.0,0.0,3050.857142857143,3014.7,4241.111111111111,4134.8,305.5235,305.0523333333333,314.588,314.572,21.8151,20.5786,21.9279,21.3675,314.999998,314.999998,324.999988,324.999988,99.55807142857142,99.50835,99.57537142857143,99.54835714285714,-0.01824999999999999,-0.17074999999999996,-0.21720000000000006,0.0,-0.041666666666671404,-0.04999999999999716,1.5106666666666668,1.5514999999999999,37.344,29.616,38.05,34.547,56.076,35.354,62.369,52.847,54.087,34.497,60.939,51.1485,53.338,34.0695,60.967,50.56333333333333,-0.04366666666666674,-0.13949999999999996,0.10453000000000001,0.103925,0.0,207.035,206.9,203.86333333333334,203.86333333333334,0.0,0.0
4,0.0,0.0,0.0,1.0,1.0,0.0,0.0,1.0,0.0,100.0,1.0,1.1856,26.0,0.0,0.0,0.0,59.999996,0.0,26.0,26.0,26.0,26.0,-0.14528571428571435,0.2641,-0.024333333333333335,292.862,-2.6212,-2.7145,-1.512,-1.590888888888889,-262.25,216.29000000000002,190.908375,0.0,0.0,0.0,0.0,0.0094,-5.498166666666667,-5.498166666666667,-0.6171,-0.64,-0.08300000000000018,-1.6400000000000001,66.205,-0.08919999999999995,-0.3206,1.2320000000000002,100.0,1.0,1.0,204.44333333333333,0.0,0.0,0.0,0.0,0.0,0.0,0.0,8665.6,0.0,55.0,5.0,238.31333333333333,0.0,0.0,0.0,0.0,0.0,0.0,0.0,0.0,0.20700000000000074,0.20700000000000074,0.0,0.0,0.0,55.0,616.79921,10000.0,85.000001,85.000001,85.000001,85.000001,395.0,0.0,0.0,0.0,1.0,166.665,50.079,50.079,49.911,49.911,34.0,-31.0775,20.25,-32.165,20.02,0.0,1782.9,0.5250000000000021,100.0,30.012999999999998,29.181,41.980000000000004,40.621,0.0,0.0,100.0,0.0,0.0,0.0,0.0,3511.4285714285716,3086.2,4016.5555555555557,3587.5,304.2945,304.861,315.08175,315.905,21.8244,20.5838,21.9386,21.3761,314.999998,314.999998,324.999988,324.999988,99.55807142857142,99.50836666666666,99.57551428571429,99.54848571428572,-0.013499999999999956,-0.15649999999999997,-0.21699999999999997,0.017200000000000104,-0.03833333333332689,-0.045000000000001705,1.564,1.6305,37.403,29.649,38.116,34.6005,56.063,35.396,62.3985,52.8975,54.074,34.5355,60.966499999999996,51.1965,53.324,34.1065,60.9915,50.61066666666667,-0.045333333333333226,-0.1280000000000001,0.10638500000000001,0.10392000000000001,0.0,207.4,207.32,204.44333333333333,204.44333333333333,0.0,0.0
5,0.0,0.0,0.0,1.0,1.0,0.0,0.0,1.0,0.0,100.0,1.0,1.1856,26.0,0.0,0.0,0.0,59.999996,0.0,26.0,26.0,26.0,26.0,-0.13757142857142857,0.2842,0.0032333333333333337,292.847,-2.6354,-2.7356249999999998,-1.4996,-1.5745555555555557,-258.87,216.2725,190.888,0.0,0.0,0.0,0.0,0.011366666666666667,-5.498166666666667,-5.498166666666667,-0.6075,0.35150000000000003,-0.07977777777777773,1.186,66.35,-0.09079999999999999,-0.2982,1.0220000000000002,100.0,1.0,1.0,204.82666666666665,0.0,0.0,0.0,0.0,0.0,0.0,0.0,8681.9,0.0,55.0,5.0,238.83333333333331,1.0,0.0,0.0,0.0,0.0,0.0,0.0,0.0,0.2579999999999991,0.2579999999999991,0.0,0.0,1.0,55.0,616.79921,10000.0,85.000001,85.000001,85.000001,85.000001,395.0,0.0,0.0,0.0,1.0,333.33500000000004,50.476,50.476,50.018,50.018,34.0,-28.3625,20.868,-32.4725,23.228,0.0,1782.847,0.1999999999999993,100.0,30.217,28.866,41.82,40.283,0.0,0.0,100.0,0.0,0.0,0.0,0.0,3306.714285714286,3082.6,4065.1111111111113,4019.9,304.6975,305.0953333333333,314.98125,314.9355,21.834600000000002,20.5894,21.9497,21.384999999999998,314.999998,314.999998,324.999988,324.999988,99.55807142857142,99.50838333333333,99.57565714285714,99.54862857142857,0.010000000000000009,-0.14125,-0.2156,0.0242,-0.054999999999999716,-0.060000000000002274,1.5446666666666666,1.573,37.466,29.683500000000002,38.186,34.6565,56.053,35.439,62.428,52.9505,54.064,34.575,60.9935,51.248,53.313,34.1445,61.016,50.660666666666664,-0.07099999999999995,-0.10850000000000026,0.10797500000000002,0.11903000000000001,0.0,207.88,207.82,204.82666666666665,204.82666666666665,0.0,0.0
6,0.0,0.0,0.0,1.0,1.0,0.0,0.0,1.0,0.0,100.0,1.0,1.1856,26.0,0.0,0.0,0.0,59.999996,0.0,26.0,26.0,26.0,26.0,-0.11128571428571432,0.28669999999999995,0.003166666666666667,292.709,-2.604,-2.7647500000000003,-1.5424,-1.569777777777778,-255.69,216.2525,190.868625,0.0,0.0,0.0,0.0,0.013233333333333335,-5.498166666666667,-5.498166666666667,-0.6044,0.1165,-0.05988888888888866,0.994,66.487,-0.08529999999999993,-0.30083333333333334,0.6760000000000002,100.0,1.0,1.0,205.23666666666668,0.0,0.0,0.0,0.0,0.0,0.0,0.0,8699.2,0.0,55.0,5.0,239.32666666666665,0.0,0.0,0.0,0.0,0.0,0.0,0.0,0.0,0.30600000000000094,0.30600000000000094,0.0,0.0,0.0,55.0,616.79921,10000.0,85.000001,85.000001,85.000001,85.000001,395.0,0.0,0.0,0.0,1.0,333.33500000000004,50.171,50.171,49.896,49.896,34.0,-27.5025,23.09,-31.2975,22.866,0.0,1782.799,0.010000000000001563,100.0,30.123,29.008,41.871,40.609,0.0,0.0,100.0,0.0,0.0,0.0,0.0,3309.5714285714284,3205.3,3983.1111111111113,3961.8,304.629,304.61533333333335,315.17175,315.08,21.8442,20.5947,21.9603,21.3936,314.999998,314.999998,324.999988,324.999988,99.55808571428571,99.5084,99.57578571428571,99.54875714285714,0.024499999999999966,-0.12175000000000002,-0.1976,0.028799999999999937,-0.051666666666669414,-0.07333333333333059,1.5666666666666667,1.6044999999999998,37.525999999999996,29.7165,38.251999999999995,34.71,56.042,35.4795,62.4555,53.0045,54.053,34.6125,61.019,51.2995,53.301,34.18,61.0385,50.711,-0.08933333333333326,-0.08499999999999996,0.10668000000000001,0.11055000000000001,0.0,208.275,208.23000000000002,205.23666666666668,205.23666666666668,0.0,0.0
7,0.0,0.0,0.0,1.0,1.0,0.0,0.0,1.0,0.0,100.0,1.0,1.1856,26.0,0.0,0.0,0.0,59.999996,0.0,26.0,26.0,26.0,26.0,-0.06785714285714284,0.28600000000000003,0.03743333333333333,292.572,-2.5818,-2.716125,-1.5062,-1.6097777777777778,-252.09,216.225,190.847,0.0,0.0,0.0,0.0,0.015300000000000001,-5.498166666666667,-5.498166666666667,-0.6077,0.0635,-0.04577777777777792,1.1380000000000001,66.639,-0.06679999999999997,-0.30983333333333335,0.3460000000000001,100.0,1.0,1.0,205.69333333333333,0.0,0.0,0.0,0.0,0.0,0.0,0.0,8718.6,0.0,55.0,5.0,239.87333333333333,1.0,0.0,0.0,0.0,0.0,0.0,0.0,0.0,0.35999999999999943,0.35999999999999943,0.0,0.0,1.0,55.0,616.79921,10000.0,85.000001,85.000001,85.000001,85.000001,395.0,0.0,0.0,0.0,1.0,166.665,49.957,49.957,50.049,50.049,34.0,-26.615,23.978,-29.3875,25.006,0.0,1782.747,-0.26500000000000057,100.0,30.233,29.114,41.847,40.857,0.0,0.0,100.0,0.0,0.0,0.0,0.0,3346.4285714285716,3233.3,3917.3333333333335,3977.3,304.483,304.514,315.2855,314.9805,21.8549,20.6006,21.9721,21.4033,314.999998,314.999998,324.999988,324.999988,99.55808571428571,99.5084,99.57592857142858,99.5489,0.0475000000000001,-0.09724999999999995,-0.17779999999999996,0.05520000000000014,-0.04999999999999716,-0.05333333333332746,1.5626666666666666,1.5775000000000001,37.593,29.753999999999998,38.326,34.771,56.03,35.5245,62.486,53.064,54.042,34.6535,61.0475,51.357,53.289,34.2195,61.063,50.76733333333333,-0.1096666666666668,-0.06599999999999984,0.10276,0.10823500000000001,0.0,208.74,208.7,205.69333333333333,205.69333333333333,0.0,0.0
8,0.0,0.0,0.0,1.0,1.0,0.0,0.0,1.0,0.0,100.0,1.0,1.1856,26.0,0.0,0.0,0.0,59.999996,0.0,26.0,26.0,26.0,26.0,-0.042714285714285594,0.27900000000000014,-0.03096666666666667,292.801,-2.6704,-2.6855,-1.4875,-1.5601111111111112,-248.69,216.2,190.826375,0.0,0.0,0.0,0.0,0.0173,-5.498166666666667,-5.498166666666667,-0.6124,-0.5735,-0.032333333333333325,-0.535,66.783,-0.04359999999999997,-0.3048666666666667,-0.05799999999999983,100.0,1.0,1.0,206.07333333333332,0.0,0.0,0.0,0.0,0.0,0.0,0.0,8734.6,0.0,55.0,5.0,240.39333333333332,0.0,0.0,0.0,0.0,0.0,0.0,0.0,0.0,0.41100000000000136,0.41100000000000136,0.0,0.0,0.0,55.0,616.79921,10000.0,85.000001,85.000001,85.000001,85.000001,395.0,0.0,0.0,0.0,1.0,166.665,50.644,50.644,49.515,49.515,34.0,-26.0425,23.432000000000002,-29.2275,25.008,0.0,1782.696,-0.370000000000001,100.0,29.556,29.17,41.707,41.018,0.0,0.0,100.0,0.0,0.0,0.0,0.0,3263.857142857143,3153.0,4037.5555555555557,3964.3,305.0535,304.68733333333336,315.03425,314.927,21.8648,20.6063,21.9833,21.4125,314.999998,314.999998,324.999988,324.999988,99.55808571428571,99.50841666666666,99.57608571428571,99.54902857142856,0.0535000000000001,-0.08950000000000002,-0.15759999999999996,0.06580000000000008,-0.04999999999999716,-0.03499999999999659,1.5556666666666668,1.5459999999999998,37.655,29.7895,38.394999999999996,34.828,56.018,35.5655,62.515,53.12,54.03,34.691,61.074,51.4105,53.275999999999996,34.254999999999995,61.0865,50.82,-0.11333333333333329,-0.05549999999999988,0.10783500000000001,0.10296500000000001,0.0,209.16500000000002,209.14,206.07333333333332,206.07333333333332,0.0,0.0
9,0.0,0.0,0.0,1.0,1.0,0.0,0.0,1.0,0.0,100.0,1.0,1.1856,26.0,0.0,0.0,0.0,59.999996,0.0,26.0,26.0,26.0,26.0,-0.02571428571428569,0.28590000000000004,0.038,292.435,-2.6565000000000003,-2.686375,-1.5433,-1.5387777777777778,-245.68,216.175,190.80775,0.0,0.0,0.0,0.0,0.019033333333333336,-5.498166666666667,-5.498166666666667,-0.6151,0.6825,-0.028777777777778013,0.872,66.907,-0.024799999999999933,-0.3017666666666667,-0.19599999999999973,100.0,1.0,1.0,206.56333333333333,0.0,0.0,0.0,0.0,0.0,0.0,0.0,8755.4,0.0,55.0,5.0,240.83666666666667,1.0,0.0,0.0,0.0,0.0,0.0,0.0,0.0,0.4559999999999995,0.4559999999999995,0.0,0.0,1.0,55.0,616.79921,10000.0,85.000001,85.000001,85.000001,85.000001,395.0,0.0,0.0,0.0,1.0,333.33500000000004,49.469,49.469,50.415,50.415,34.0,-26.77,26.11,-27.005,26.488,0.0,1782.649,-0.4800000000000004,100.0,30.23,29.461,41.429,40.907,0.0,0.0,100.0,0.0,0.0,0.0,0.0,3499.5714285714284,3318.8,3898.5555555555557,4025.7,304.129,304.283,315.45025,314.94675,21.8737,20.6115,21.993,21.4205,314.999998,314.999998,324.999988,324.999988,99.5581,99.50843333333333,99.5762,99.54915714285714,0.08650000000000002,-0.05974999999999997,-0.128,0.09959999999999991,-0.036666666666668846,-0.05666666666667197,1.604,1.5945,37.711,29.8215,38.456,34.878,56.010999999999996,35.602000000000004,62.5375,53.1685,54.022999999999996,34.725,61.094,51.457499999999996,53.268,34.2875,61.104,50.86566666666667,-0.1306666666666667,-0.053999999999999826,0.10953500000000001,0.10460000000000001,0.0,209.555,209.56,206.56333333333333,206.56333333333333,0.0,0.0
10,0.0,0.0,0.0,1.0,1.0,0.0,0.0,1.0,0.0,100.0,1.0,1.1856,26.0,0.0,0.0,0.0,59.999996,0.0,26.0,26.0,26.0,26.0,0.01100000000000012,0.28980000000000006,-0.017266666666666666,292.328,-2.6358,-2.661625,-1.5268000000000002,-1.5165555555555557,-242.26,216.1475,190.787,0.0,0.0,0.0,0.0,0.021033333333333334,-5.498166666666667,-5.498166666666667,-0.595,-0.5435,0.011111111111111072,0.315,67.05199999999999,-0.0026999999999999247,-0.29746666666666666,-0.5220000000000002,100.0,1.0,1.0,206.79333333333335,0.0,0.0,0.0,0.0,0.0,0.0,0.0,8765.2,0.0,55.0,5.0,241.36,0.0,0.0,0.0,0.0,0.0,0.0,1.0,0.0,0.5069999999999979,0.5069999999999979,0.0,0.0,0.0,55.0,616.79921,10000.0,85.000001,85.000001,85.000001,85.000001,395.0,0.0,0.0,0.0,1.0,333.33500000000004,50.537,50.537,48.888999999999996,48.888999999999996,34.0,-22.259999999999998,24.656,-29.175,28.212000000000003,0.0,1782.598,-0.5999999999999979,100.0,29.94,29.629,41.817,41.769999999999996,0.0,0.0,100.0,0.0,0.0,0.0,0.0,3093.285714285714,3096.6,4200.333333333333,4160.8,305.4655,304.839,314.65275,314.4545,21.8837,20.6172,22.0042,21.4299,314.999998,314.999998,324.999988,324.999988,99.55811428571428,99.50843333333333,99.57634285714286,99.54931428571429,0.10050000000000003,-0.044749999999999956,-0.1147999999999999,0.10540000000000016,-0.02833333333332888,-0.04333333333332945,1.5123333333333333,1.4874999999999998,37.772999999999996,29.8575,38.527,34.9365,56.003,35.6415,62.567499999999995,53.2285,54.015,34.7615,61.122,51.5145,53.257999999999996,34.3225,61.129,50.92166666666667,-0.139,-0.03750000000000009,0.11206500000000001,0.09881000000000001,0.0,209.97,210.0,206.79333333333335,206.79333333333335,0.0,0.0
11,0.0,0.0,0.0,1.0,1.0,0.0,0.0,1.0,0.0,100.0,1.0,1.1856,26.0,0.0,0.0,0.0,59.999996,0.0,26.0,26.0,26.0,26.0,0.030571428571428694,0.2753000000000001,-0.0753,292.801,-2.6765,-2.62325,-1.5793,-1.508,-238.84,216.12,190.766125,0.0,0.0,0.0,0.0,0.022600000000000002,-5.498166666666667,-5.498166666666667,-0.6365000000000001,-0.0735,0.036555555555555674,0.309,67.188,0.018100000000000005,-0.3236333333333334,-0.6459999999999999,100.0,1.0,1.0,207.54333333333335,0.0,0.0,0.0,0.0,0.0,0.0,0.0,8797.1,0.0,55.0,5.0,241.85000000000002,1.0,0.0,0.0,0.0,0.0,0.0,1.0,0.0,0.5579999999999998,0.5579999999999998,0.0,0.0,1.0,55.0,616.79921,10000.0,85.000001,85.000001,85.000001,85.000001,395.0,0.0,0.0,0.0,1.0,333.33500000000004,49.85,49.85,50.507,50.507,34.0,-22.8,27.758,-22.990000000000002,26.753999999999998,0.0,1782.547,-0.5949999999999989,100.0,29.846,29.752,41.321,41.57,0.0,0.0,100.0,0.0,0.0,0.0,0.0,3216.285714285714,3409.5,3606.3333333333335,3808.1000000000004,304.999,304.00666666666666,316.149,315.432,21.8935,20.6231,22.0152,21.439,314.999998,314.999998,324.999988,324.999988,99.55812857142857,99.50845,99.57648571428571,99.54944285714285,0.12250000000000005,-0.028749999999999942,-0.08739999999999992,0.1552,-0.030000000000001137,-0.03999999999999915,1.6736666666666666,1.6560000000000001,37.834,29.8945,38.595,34.994,55.992999999999995,35.682,62.5905,53.283500000000004,54.004999999999995,34.798500000000004,61.143,51.568,53.248,34.358000000000004,61.1465,50.974000000000004,-0.1319999999999999,-0.045500000000000096,0.10794500000000001,0.11651000000000002,0.0,210.385,210.42000000000002,207.54333333333335,207.54333333333335,0.0,0.0
12,0.0,0.0,0.0,1.0,1.0,0.0,0.0,1.0,0.0,100.0,1.0,1.1856,26.0,0.0,0.0,0.0,59.999996,0.0,26.0,26.0,26.0,26.0,0.05142857142857138,0.2772000000000001,0.021533333333333335,292.175,-2.7256,-2.6186249999999998,-1.5432000000000001,-1.5121111111111112,-235.61,216.095,190.74525,0.0,0.0,0.0,0.0,0.025466666666666665,-5.498166666666667,-5.498166666666667,-0.621,0.2285,0.020000000000000018,0.636,67.324,0.03380000000000005,-0.2959,-0.7199999999999998,100.0,1.0,1.0,207.71,0.0,0.0,0.0,0.0,0.0,0.0,0.0,8804.1,0.0,55.0,5.0,242.33666666666664,0.0,0.0,0.0,0.0,0.0,0.0,1.0,0.0,0.6059999999999981,0.6059999999999981,0.0,0.0,0.0,55.0,616.79921,10000.0,85.000001,85.000001,85.000001,85.000001,395.0,0.0,0.0,0.0,1.0,333.33500000000004,49.805,49.805,49.132999999999996,49.132999999999996,34.0,-22.905,28.548000000000002,-25.825,30.939999999999998,0.0,1782.5,-0.6600000000000001,100.0,29.775,29.887,41.400999999999996,41.509,0.0,0.0,100.0,0.0,0.0,0.0,0.0,3261.0,3429.0,4086.5555555555557,4155.7,304.8835,303.9823333333333,314.925,314.60425,21.9027,20.6287,22.0256,21.4476,314.999998,314.999998,324.999988,324.999988,99.55814285714285,99.50845,99.57662857142857,99.54958571428571,0.13850000000000007,-0.013749999999999929,-0.06699999999999995,0.16579999999999995,-0.021666666666668277,-0.060000000000002274,1.5543333333333333,1.5145,37.891999999999996,29.929499999999997,38.66,35.0475,55.986000000000004,35.7195,62.6165,53.337,53.998000000000005,34.8335,61.1665,51.6195,53.239,34.3915,61.167500000000004,51.02433333333333,-0.1353333333333333,-0.044500000000000206,0.11003500000000001,0.112015,0.0,210.81,210.87,207.71,207.71,0.0,0.0
13,0.0,0.0,0.0,1.0,1.0,0.0,0.0,1.0,0.0,100.0,1.0,1.1856,26.0,0.0,0.0,0.0,59.999996,0.0,26.0,26.0,26.0,26.0,0.0774285714285714,0.2813000000000001,0.03266666666666667,291.855,-2.7087,-2.6332500000000003,-1.5814,-1.4912222222222222,-232.18,216.0725,190.7235,0.0,0.0,0.0,0.0,0.0269,-5.498166666666667,-5.498166666666667,-0.616,-0.0985,0.024555555555555664,-0.516,67.464,0.04410000000000003,-0.30663333333333337,-0.8600000000000003,100.0,1.0,1.0,208.09333333333333,0.0,0.0,0.0,0.0,0.0,0.0,0.0,8820.4,0.0,55.0,5.0,242.84333333333336,1.0,0.0,0.0,0.0,0.0,0.0,1.0,0.0,0.657,0.657,0.0,0.0,1.0,55.0,616.79921,10000.0,85.000001,85.000001,85.000001,85.000001,395.0,0.0,0.0,0.0,1.0,333.33500000000004,49.438,49.438,49.164,49.164,34.0,-22.982499999999998,28.392,-26.36,31.016,0.0,1782.448,-0.8149999999999977,100.0,29.963,30.287,41.498000000000005,42.114000000000004,0.0,0.0,100.0,0.0,0.0,0.0,0.0,3380.714285714286,3319.7,4091.0,4203.7,304.677,304.1263333333333,314.96325,314.38275,21.9126,20.6347,22.0367,21.457,314.999998,314.999998,324.999988,324.999988,99.55817142857143,99.50845,99.57677142857143,99.54972857142857,0.15000000000000013,-0.0022499999999999742,-0.06599999999999995,0.16020000000000012,-0.045000000000001705,-0.02833333333332888,1.5323333333333333,1.5005000000000002,37.954,29.967,38.730000000000004,35.1065,55.980999999999995,35.76,62.644,53.3965,53.992999999999995,34.8705,61.1915,51.677,53.232,34.427,61.189,51.080666666666666,-0.15833333333333321,-0.025500000000000078,0.10861000000000001,0.10510000000000001,0.0,211.235,211.29000000000002,208.09333333333333,208.09333333333333,0.0,0.0
14,0.0,0.0,0.0,1.0,1.0,0.0,0.0,1.0,0.0,100.0,1.0,1.1856,26.0,0.0,0.0,0.0,59.999996,0.0,26.0,26.0,26.0,26.0,0.10414285714285709,0.26980000000000004,-0.011600000000000001,292.114,-2.7088,-2.6338749999999997,-1.5913,-1.522,-228.53,216.0475,190.701,0.0,0.0,0.0,0.0,0.029,-5.498166666666667,-5.498166666666667,-0.6263000000000001,-0.146,0.055777777777777704,-0.249,67.61,0.05920000000000014,-0.3191333333333334,-1.0119999999999996,100.0,1.0,1.0,208.63,0.0,0.0,0.0,0.0,0.0,0.0,0.0,8843.1,0.0,55.0,5.0,243.37,0.0,0.0,0.0,0.0,0.0,0.0,1.0,0.0,0.7109999999999985,0.7109999999999985,0.0,0.0,0.0,55.0,616.79921,10000.0,85.000001,85.000001,85.000001,85.000001,395.0,0.0,0.0,0.0,1.0,166.665,49.561,49.561,49.362,49.362,34.0,-21.65,29.656,-23.9675,31.048000000000002,0.0,1782.396,-0.8599999999999994,100.0,29.819,30.399,41.386,42.302,0.0,0.0,100.0,0.0,0.0,0.0,0.0,3239.714285714286,3380.7,3898.222222222222,4055.7,305.096,303.874,315.456,314.72425,21.923000000000002,20.6411,22.0484,21.4669,314.999998,314.999998,324.999988,324.999988,99.55818571428571,99.50846666666666,99.57691428571428,99.54988571428571,0.15474999999999994,0.010250000000000092,-0.05059999999999998,0.18159999999999998,-0.05333333333332746,-0.03999999999999915,1.5979999999999999,1.5364999999999998,38.019,30.0065,38.803,35.168,55.974999999999994,35.802,62.670500000000004,53.458,53.986999999999995,34.9095,61.216,51.7365,53.224000000000004,34.4645,61.21,51.138999999999996,-0.15466666666666673,-0.02400000000000002,0.10465500000000001,0.11098000000000001,0.0,211.69,211.745,208.63,208.63,0.0,0.0
15,0.0,0.0,0.0,1.0,1.0,0.0,0.0,1.0,0.0,100.0,1.0,1.1856,26.0,0.0,0.0,0.0,59.999996,0.0,26.0,26.0,26.0,26.0,0.1121428571428571,0.2804,0.018266666666666667,292.13,-2.7171000000000003,-2.535625,-1.6176,-1.439111111111111,-225.48,216.03,190.681875,0.0,0.0,0.0,0.0,0.03076666666666667,-5.498166666666667,-5.498166666666667,-0.6169,0.2245,0.08911111111111114,0.907,67.732,0.07109999999999994,-0.3004333333333334,-1.1920000000000002,100.0,1.0,1.0,208.98333333333335,0.0,0.0,0.0,0.0,0.0,0.0,0.0,8858.0,0.0,55.0,5.0,243.81,1.0,0.0,0.0,0.0,0.0,0.0,1.0,0.0,0.7560000000000002,0.7560000000000002,0.0,0.0,1.0,55.0,616.79921,10000.0,85.000001,85.000001,85.000001,85.000001,395.0,0.0,0.0,0.0,1.0,333.33500000000004,49.82,49.82,49.454,49.454,34.0,-18.955,29.933999999999997,-22.89,33.228,0.0,1782.349,-0.9050000000000011,100.0,29.997,30.285,41.204,42.285,0.0,0.0,100.0,0.0,0.0,0.0,0.0,2999.142857142857,3471.0,3839.0,4327.3,305.653,303.8503333333333,315.54075,314.21225,21.9316,20.6464,22.0581,21.4751,314.999998,314.999998,324.999988,324.999988,99.5582,99.50846666666666,99.57704285714286,99.55001428571428,0.17975000000000008,0.02475000000000005,-0.026799999999999935,0.20120000000000005,-0.03333333333333144,-0.05666666666667197,1.5726666666666667,1.533,38.073,30.04,38.863,35.2195,55.971000000000004,35.838,62.692,53.51,53.982,34.943,61.2355,51.786500000000004,53.219,34.496,61.226,51.18833333333333,-0.16100000000000003,-0.019000000000000128,0.10625000000000001,0.10347500000000001,0.0,212.06,212.14499999999998,208.98333333333335,208.98333333333335,0.0,0.0
16,0.0,0.0,0.0,1.0,1.0,0.0,0.0,1.0,0.0,100.0,1.0,1.1856,26.0,0.0,0.0,0.0,59.999996,0.0,26.0,26.0,26.0,26.0,0.127,0.26570000000000005,-0.004733333333333334,292.023,-2.7706,-2.5473749999999997,-1.588,-1.5007777777777778,-221.82,216.01,190.6585,0.0,0.0,0.0,0.0,0.0329,-5.498166666666667,-5.498166666666667,-0.6429,-0.5665,0.07066666666666666,-0.003,67.878,0.08200000000000007,-0.32033333333333336,-1.202,100.0,1.0,1.0,209.47,0.0,0.0,0.0,0.0,0.0,0.0,0.0,8878.7,0.0,55.0,5.0,244.33333333333334,0.0,0.0,0.0,0.0,0.0,0.0,1.0,0.0,0.8099999999999987,0.8099999999999987,0.0,0.0,0.0,55.0,616.79921,10000.0,85.000001,85.000001,85.000001,85.000001,395.0,0.0,0.0,0.0,1.0,166.665,49.347,49.347,49.362,49.362,34.0,-21.2625,31.823999999999998,-21.307499999999997,32.312,0.0,1782.297,-0.8350000000000009,100.0,29.743,30.439,41.438,42.424,0.0,0.0,100.0,0.0,0.0,0.0,0.0,3262.285714285714,3595.8,3787.8888888888887,4026.8,305.018,303.506,315.65425,314.8755,21.9417,20.6529,22.0698,21.485,314.999998,314.999998,324.999988,324.999988,99.55822857142857,99.50846666666666,99.57718571428572,99.55017142857143,0.18025000000000002,0.03649999999999998,-0.011199999999999988,0.2230000000000001,-0.036666666666668846,-0.03999999999999915,1.6046666666666667,1.5535,38.135999999999996,30.0805,38.937,35.2815,55.962,35.882,62.72,53.571,53.973,34.9835,61.260999999999996,51.8455,53.208,34.535,61.2485,51.246,-0.15300000000000002,-0.02499999999999991,0.09726000000000001,0.11238500000000001,0.0,212.47500000000002,212.565,209.47,209.47,0.0,0.0
17,0.0,0.0,0.0,1.0,1.0,0.0,0.0,1.0,0.0,100.0,1.0,1.1856,26.0,0.0,0.0,0.0,59.999996,0.0,26.0,26.0,26.0,26.0,0.11057142857142876,0.2921,-0.0066,291.672,-2.7316000000000003,-2.529125,-1.6301,-1.4592222222222222,-218.56,215.9975,190.637125,0.0,0.0,0.0,0.0,0.034800000000000005,-5.498166666666667,-5.498166666666667,-0.6266,0.4565,0.053444444444444406,0.905,68.007,0.08240000000000003,-0.29753333333333337,-1.1260000000000003,100.0,1.0,1.0,209.76999999999998,0.0,0.0,0.0,0.0,0.0,0.0,0.0,8891.4,0.0,55.0,5.0,244.8,1.0,0.0,0.0,0.0,0.0,0.0,1.0,0.0,0.8580000000000005,0.8580000000000005,0.0,0.0,1.0,55.0,616.79921,10000.0,85.000001,85.000001,85.000001,85.000001,395.0,0.0,0.0,0.0,1.0,166.665,49.316,49.316,48.92,48.92,34.0,-20.4225,29.817999999999998,-24.985,33.518,0.0,1782.248,-0.9349999999999987,100.0,30.205,30.631999999999998,41.327,42.402,0.0,0.0,100.0,0.0,0.0,0.0,0.0,3219.4285714285716,3423.1,4156.333333333333,4281.8,305.0245,304.0323333333333,314.852,314.36425,21.9509,20.6587,22.0802,21.4937,314.999998,314.999998,324.999988,324.999988,99.55825714285714,99.50846666666666,99.57732857142857,99.55031428571428,0.18575000000000008,0.03499999999999992,-0.01979999999999993,0.2105999999999999,-0.03499999999999659,-0.06833333333332803,1.5576666666666665,1.5354999999999999,38.193,30.116999999999997,39.001000000000005,35.336,55.96,35.922,62.7435,53.6255,53.97,35.0205,61.2825,51.897999999999996,53.204,34.571,61.2665,51.298,-0.15900000000000003,-0.02499999999999991,0.1102,0.11228500000000001,0.0,212.93,213.01,209.76999999999998,209.76999999999998,0.0,0.0
18,0.0,0.0,0.0,1.0,1.0,0.0,0.0,1.0,0.0,100.0,1.0,1.1856,26.0,0.0,0.0,0.0,59.999996,0.0,26.0,26.0,26.0,26.0,0.1298571428571429,0.2812000000000001,-0.0038666666666666667,291.702,-2.7661,-2.503,-1.6471,-1.4042222222222223,-215.29,215.985,190.616125,0.0,0.0,0.0,0.0,0.0367,-5.498166666666667,-5.498166666666667,-0.6393,-0.4855,0.07777777777777772,1.041,68.135,0.08450000000000002,-0.3181333333333334,-1.3159999999999998,100.0,1.0,1.0,210.21333333333334,0.0,0.0,0.0,0.0,0.0,0.0,0.0,8910.1,0.0,55.0,5.0,245.26333333333332,0.0,0.0,0.0,0.0,0.0,0.0,1.0,0.0,0.9059999999999988,0.9059999999999988,0.0,0.0,0.0,55.0,616.79921,10000.0,85.000001,85.000001,85.000001,85.000001,395.0,0.0,0.0,0.0,1.0,166.665,49.164,49.164,48.95,48.95,34.0,-19.9075,32.62,-22.91,32.172,0.0,1782.201,-1.1600000000000001,100.0,29.97,30.559,41.61,42.744,0.0,0.0,100.0,0.0,0.0,0.0,0.0,3233.857142857143,3632.9,3906.3333333333335,4155.4,305.0485,303.4293333333333,315.40925,314.63125,21.96,20.6644,22.0906,21.5026,314.999998,314.999998,324.999988,324.999988,99.55827142857143,99.50848333333333,99.57745714285714,99.55044285714285,0.20475,0.055749999999999966,-0.01100000000000001,0.2198,-0.03999999999999915,-0.06833333333332803,1.588,1.5225,38.25,30.153,39.067,35.3915,55.955,35.9615,62.7685,53.6815,53.966,35.057,61.305,51.9525,53.198,34.606,61.286,51.351333333333336,-0.18166666666666664,-0.0024999999999999467,0.10154500000000001,0.11553000000000001,0.0,213.285,213.37,210.21333333333334,210.21333333333334,0.0,0.0
19,0.0,0.0,0.0,1.0,1.0,0.0,0.0,1.0,0.0,100.0,1.0,1.1856,26.0,0.0,0.0,0.0,59.999996,0.0,26.0,26.0,26.0,26.0,0.17314285714285704,0.2964,0.0449,291.199,-2.6899,-2.4848749999999997,-1.6643,-1.3873333333333333,-211.81,215.97750000000002,190.5935,0.0,0.0,0.0,0.0,0.038733333333333335,-5.498166666666667,-5.498166666666667,-0.6271,0.778,0.0868888888888888,-0.504,68.271,0.09519999999999995,-0.3038,-1.638,100.0,1.0,1.0,210.58333333333331,0.0,0.0,0.0,0.0,0.0,0.0,0.0,8925.8,0.0,55.0,5.0,245.74666666666667,1.0,0.0,0.0,0.0,0.0,0.0,1.0,0.0,0.9570000000000007,0.9570000000000007,0.0,0.0,1.0,55.0,616.79921,10000.0,85.000001,85.000001,85.000001,85.000001,395.0,0.0,0.0,0.0,1.0,333.33500000000004,48.629999999999995,48.629999999999995,48.706,48.706,34.0,-18.9575,32.558,-24.52,34.382000000000005,0.0,1782.148,-1.5,100.0,30.297,31.205,41.254,42.845,0.0,0.0,100.0,0.0,0.0,0.0,0.0,3311.714285714286,3549.1,4128.333333333333,4366.6,304.812,303.42,314.989,314.10375,21.9698,20.6708,22.1016,21.512,314.999998,314.999998,324.999988,324.999988,99.5583,99.5085,99.5776,99.5506,0.21924999999999994,0.06899999999999995,-0.007399999999999962,0.22720000000000007,-0.046666666666666856,-0.05666666666667197,1.562,1.5145,38.311,30.1925,39.135,35.45,55.954,36.007,62.792,53.7405,53.964,35.0995,61.326499999999996,52.0095,53.194,34.6465,61.304,51.407333333333334,-0.20700000000000007,0.01849999999999996,0.10655,0.112945,0.0,213.72500000000002,213.84,210.58333333333331,210.58333333333331,0.0,0.0
20,0.0,0.0,0.0,1.0,1.0,0.0,0.0,1.0,0.0,100.0,1.0,1.1856,26.0,0.0,0.0,0.0,59.999996,0.0,26.0,26.0,26.0,26.0,0.21999999999999997,0.2574000000000001,-0.075,291.672,-2.7984999999999998,-2.542,-1.5992000000000002,-1.4975555555555558,-208.12,215.975,190.56975,0.0,0.0,0.0,0.0,0.04086666666666667,-5.498166666666667,-5.498166666666667,-0.6415000000000001,-1.213,0.0988888888888888,-0.6940000000000001,68.41499999999999,0.11240000000000006,-0.3243666666666667,-2.06,100.0,1.0,1.0,210.99333333333334,0.0,0.0,0.0,0.0,0.0,0.0,0.0,8943.2,0.0,55.0,5.0,246.26999999999998,0.0,0.0,0.0,0.0,0.0,0.0,0.0,0.0,1.0109999999999992,1.0109999999999992,0.0,0.0,0.0,55.0,616.79921,10000.0,85.000001,85.000001,85.000001,85.000001,395.0,0.0,0.0,0.0,1.0,166.665,49.545,49.545,48.569,48.569,34.0,-18.025,32.878,-20.552500000000002,35.256,0.0,1782.096,-1.5649999999999977,100.0,29.698,30.953,41.672,43.368,0.0,0.0,100.0,0.0,0.0,0.0,0.0,3111.0,3451.1,3912.8888888888887,4126.1,305.567,303.74833333333333,315.365,314.5255,21.9797,20.6773,22.1134,21.522100000000002,314.999998,314.999998,324.999988,324.999988,99.55832857142858,99.5085,99.57775714285714,99.55075714285714,0.23075,0.08750000000000013,0.026799999999999935,0.2538,-0.054999999999999716,-0.03166666666666629,1.566,1.491,38.373000000000005,30.233,39.209,35.513,55.949,36.0545,62.821,53.805,53.959,35.1435,61.353,52.0715,53.187,34.689,61.327,51.468666666666664,-0.20833333333333326,0.03200000000000003,0.10489000000000001,0.10883500000000002,0.0,214.11,214.235,210.99333333333334,210.99333333333334,0.0,0.0
21,0.0,0.0,0.0,1.0,1.0,0.0,0.0,1.0,0.0,100.0,1.0,1.1856,26.0,0.0,0.0,0.0,59.999996,0.0,26.0,26.0,26.0,26.0,0.16742857142857126,0.2744,-0.048,291.855,-2.7655000000000003,-2.59375,-1.662,-1.4583333333333333,-205.04,215.97750000000002,190.54925,0.0,0.0,0.0,0.0,0.04266666666666667,-5.498166666666667,-5.498166666666667,-0.6567000000000001,0.594,0.08322222222222209,0.066,68.53,0.13280000000000003,-0.31683333333333336,-1.83,100.0,1.0,1.0,211.54333333333335,0.0,0.0,0.0,0.0,0.0,0.0,0.0,8966.5,0.0,55.0,5.0,246.68333333333334,1.0,0.0,0.0,0.0,0.0,0.0,0.0,0.0,1.056000000000001,1.056000000000001,0.0,0.0,1.0,55.0,616.79921,10000.0,85.000001,85.000001,85.000001,85.000001,395.0,0.0,0.0,0.0,1.0,333.33500000000004,49.118,49.118,49.469,49.469,34.0,-20.08,31.58,-20.085,33.848,0.0,1782.049,-0.5199999999999996,100.0,30.131999999999998,31.033,41.08,42.868,0.0,0.0,100.0,0.0,0.0,0.0,0.0,3159.142857142857,3525.5,3853.5555555555557,4042.5,305.2235,303.619,315.6275,314.92575,21.9882,20.6829,22.1229,21.5302,314.999998,314.999998,324.999988,324.999988,99.55835714285715,99.50851666666667,99.57788571428571,99.55088571428571,0.19074999999999998,0.03299999999999992,0.037800000000000056,0.2684000000000002,-0.036666666666668846,-0.051666666666669414,1.6416666666666666,1.5779999999999998,38.426,30.268,39.268,35.564,55.947,36.095,62.839,53.8545,53.956,35.181,61.369,52.1195,53.183,34.725,61.34,51.51566666666667,-0.1373333333333333,-0.05600000000000005,0.10925000000000001,0.10773500000000001,0.0,214.5,214.64499999999998,211.54333333333335,211.54333333333335,0.0,0.0
22,0.0,0.0,0.0,1.0,1.0,0.0,0.0,1.0,0.0,100.0,1.0,1.1856,26.0,0.0,0.0,0.0,59.999996,0.0,26.0,26.0,26.0,26.0,0.12928571428571423,0.268,-0.002766666666666667,291.443,-2.6893000000000002,-2.601,-1.646,-1.460888888888889,-201.34,215.985,190.524125,0.0,0.0,0.0,0.0,0.0448,-5.498166666666667,-5.498166666666667,-0.6376000000000001,-0.1485,0.0775555555555556,0.655,68.675,0.12260000000000004,-0.3039,-0.45999999999999996,100.0,1.0,1.0,211.76999999999998,0.0,0.0,0.0,0.0,0.0,0.0,0.0,8976.1,0.0,55.0,5.0,247.20333333333335,0.0,0.0,0.0,0.0,0.0,0.0,0.0,0.0,1.1099999999999994,1.1099999999999994,0.0,0.0,0.0,55.0,616.79921,10000.0,85.000001,85.000001,85.000001,85.000001,395.0,0.0,0.0,0.0,1.0,166.665,49.408,49.408,48.37,48.37,34.0,-20.5425,28.137999999999998,-23.4575,35.216,0.0,1781.997,0.5199999999999996,100.0,30.242,30.977,41.678,43.14,0.0,0.0,100.0,0.0,0.0,0.0,0.0,3004.4285714285716,3429.1,4067.222222222222,4287.1,305.597,303.91766666666666,315.01275,314.281,21.9984,20.6895,22.1347,21.5403,314.999998,314.999998,324.999988,324.999988,99.55838571428572,99.50851666666667,99.57802857142858,99.55104285714286,0.13975000000000004,-0.021749999999999936,0.006399999999999961,0.2370000000000001,-0.03333333333333144,-0.061666666666667425,1.5093333333333332,1.5135,38.489999999999995,30.3095,39.342,35.6265,55.94,36.1395,62.8685,53.9185,53.949,35.222,61.396,52.1815,53.174,34.763999999999996,61.363,51.57666666666667,-0.05233333333333312,-0.133,0.109935,0.10701000000000001,0.0,214.99,215.05,211.76999999999998,211.76999999999998,0.0,0.0
23,0.0,0.0,0.0,1.0,1.0,0.0,0.0,1.0,0.0,100.0,1.0,1.1856,26.0,0.0,0.0,0.0,59.999996,0.0,26.0,26.0,26.0,26.0,0.04971428571428582,0.24490000000000012,-0.02986666666666667,291.428,-2.6931000000000003,-2.5768750000000002,-1.5482,-1.547111111111111,-198.04,215.9925,190.502,0.0,0.0,0.0,0.0,0.046733333333333335,-5.498166666666667,-5.498166666666667,-0.6566000000000001,-0.148,0.04933333333333323,0.112,68.798,0.07830000000000004,-0.32793333333333335,0.5300000000000002,100.0,1.0,1.0,212.3,0.0,0.0,0.0,0.0,0.0,0.0,0.0,8998.6,0.0,55.0,5.0,247.65,1.0,0.0,0.0,0.0,0.0,0.0,0.0,0.0,1.1580000000000013,1.1580000000000013,0.0,0.0,1.0,55.0,616.79921,10000.0,85.000001,85.000001,85.000001,85.000001,395.0,0.0,0.0,0.0,1.0,333.33500000000004,48.522999999999996,48.522999999999996,49.561,49.561,34.0,-25.3775,26.774,-22.66,29.415999999999997,0.0,1781.948,0.8249999999999993,100.0,30.725,30.94,41.877,43.123000000000005,0.0,0.0,100.0,0.0,0.0,0.0,0.0,3390.5714285714284,3478.5,3770.4444444444443,3889.7,304.474,303.8333333333333,315.67675,315.2035,22.0075,20.6954,22.1451,21.5491,314.999998,314.999998,324.999988,324.999988,99.5584,99.50851666666667,99.57815714285714,99.55118571428571,0.10450000000000004,-0.05325000000000002,-0.0484,0.1764000000000001,-0.04999999999999716,-0.03999999999999915,1.5616666666666665,1.5699999999999998,38.547,30.346,39.407,35.682,55.933,36.1795,62.891999999999996,53.973,53.942,35.259,61.417,52.234,53.166,34.8,61.381,51.628,-0.028666666666666618,-0.15649999999999986,0.106715,0.10540500000000001,0.0,215.4,215.365,212.3,212.3,0.0,0.0
24,0.0,0.0,0.0,1.0,1.0,0.0,0.0,1.0,0.0,100.0,1.0,1.1856,26.0,0.0,0.0,0.0,59.999996,0.0,26.0,26.0,26.0,26.0,-0.01942857142857146,0.25970000000000004,-0.014400000000000001,291.656,-2.6968,-2.60825,-1.5735000000000001,-1.5092222222222222,-194.53,216.0025,190.478,0.0,0.0,0.0,0.0,0.04876666666666667,-5.498166666666667,-5.498166666666667,-0.6622,-0.6955,0.03155555555555556,-0.535,68.93299999999999,0.022399999999999975,-0.3143666666666667,1.1160000000000005,100.0,1.0,1.0,212.57333333333332,0.0,0.0,0.0,0.0,0.0,0.0,0.0,9010.3,0.0,55.0,5.0,248.13333333333333,0.0,0.0,0.0,0.0,0.0,0.0,0.0,0.0,1.2089999999999996,1.2089999999999996,0.0,0.0,0.0,55.0,616.79921,10000.0,85.000001,85.000001,85.000001,85.000001,395.0,0.0,0.0,0.0,1.0,166.665,49.759,49.759,48.37,48.37,34.0,-25.5625,22.508,-30.11,27.088,0.0,1781.898,0.8550000000000004,100.0,30.322,30.634999999999998,42.19,42.85,0.0,0.0,100.0,0.0,0.0,0.0,0.0,3167.857142857143,3177.2,4204.333333333333,4019.5,305.321,304.636,314.72325,314.921,22.0171,20.7013,22.1562,21.5584,314.999998,314.999998,324.999988,324.999988,99.5584,99.50853333333333,99.57831428571428,99.55134285714286,0.052750000000000075,-0.09950000000000003,-0.11960000000000004,0.11340000000000017,-0.045000000000001705,-0.04999999999999716,1.513,1.5444999999999998,38.607,30.383499999999998,39.477000000000004,35.74,55.922,36.221000000000004,62.919,54.0285,53.931,35.2975,61.442,52.2875,53.153999999999996,34.8365,61.4025,51.68033333333334,-0.018999999999999906,-0.1575000000000002,0.11192500000000001,0.10393500000000001,0.0,215.845,215.75,212.57333333333332,212.57333333333332,0.0,0.0
25,0.0,0.0,0.0,1.0,1.0,0.0,0.0,1.0,0.0,100.0,1.0,1.1856,26.0,0.0,0.0,0.0,59.999996,0.0,26.0,26.0,26.0,26.0,-0.05971428571428561,0.26060000000000016,-0.04543333333333333,291.519,-2.7269,-2.607,-1.5559,-1.5427777777777778,-191.20999999999998,216.0125,190.454,0.0,0.0,0.0,0.0,0.0507,-5.498166666666667,-5.498166666666667,-0.6927,0.168,-0.0013333333333331865,-1.8780000000000001,69.055,-0.026899999999999924,-0.3211,1.402000000000001,100.0,1.0,1.0,213.12,0.0,0.0,0.0,0.0,0.0,0.0,0.0,9033.4,0.0,55.0,5.0,248.57333333333332,1.0,0.0,0.0,0.0,0.0,0.0,0.0,0.0,1.256999999999998,1.256999999999998,0.0,0.0,1.0,55.0,616.79921,10000.0,85.000001,85.000001,85.000001,85.000001,395.0,0.0,0.0,0.0,1.0,333.33500000000004,48.553,48.553,49.271,49.271,34.0,-31.4925,23.384,-29.2825,23.874,0.0,1781.849,0.8049999999999997,100.0,30.587,30.732,42.104,42.291,0.0,0.0,100.0,0.0,0.0,0.0,0.0,3613.714285714286,3436.6,3934.4444444444443,3846.3,304.121,303.8183333333333,315.431,315.35425,22.0262,20.7071,22.1665,21.567,314.999998,314.999998,324.999988,324.999988,99.55841428571429,99.50855,99.57845714285715,99.55147142857143,0.022250000000000103,-0.12524999999999997,-0.1632,0.0726,-0.051666666666669414,-0.02833333333332888,1.5763333333333334,1.624,38.664,30.4195,39.541,35.794,55.91,36.2635,62.941,54.0775,53.92,35.337,61.4625,52.335,53.141,34.8745,61.42,51.727000000000004,-0.025333333333333208,-0.15700000000000003,0.10690000000000001,0.10641,0.0,216.25,216.10000000000002,213.12,213.12,0.0,0.0
26,0.0,0.0,0.0,1.0,1.0,0.0,0.0,1.0,0.0,100.0,1.0,1.1856,26.0,0.0,0.0,0.0,59.999996,0.0,26.0,26.0,26.0,26.0,-0.12142857142857144,0.2742,0.10236666666666666,290.375,-2.6326,-2.7281250000000004,-1.5714000000000001,-1.5705555555555557,-187.69,216.01999999999998,190.42825,0.0,0.0,0.0,0.0,0.05273333333333334,-5.498166666666667,-5.498166666666667,-0.6499,0.5625,-0.05088888888888876,0.31,69.19,-0.0655,-0.2937666666666667,1.37,100.0,1.0,1.0,213.22333333333333,0.0,0.0,0.0,0.0,0.0,0.0,0.0,9037.7,0.0,55.0,5.0,249.05666666666667,0.0,0.0,0.0,0.0,0.0,0.0,0.0,0.0,1.3079999999999998,1.3079999999999998,0.0,0.0,0.0,55.0,616.79921,10000.0,85.000001,85.000001,85.000001,85.000001,395.0,0.0,0.0,0.0,1.0,166.665,48.325,48.325,47.394,47.394,34.0,-29.4,22.476,-36.945,27.516,0.0,1781.799,0.6350000000000016,100.0,31.769,30.87,43.138,42.295,0.0,0.0,100.0,0.0,0.0,0.0,0.0,3455.714285714286,3284.2,4548.888888888889,4410.6,304.281,304.376,313.9155,314.09825,22.0363,20.7132,22.1778,21.5764,314.999998,314.999998,324.999988,324.999988,99.55841428571429,99.50856666666667,99.5786,99.55161428571428,0.02124999999999999,-0.14349999999999996,-0.18159999999999998,0.04520000000000013,-0.03166666666666629,-0.054999999999999716,1.4503333333333333,1.4775,38.727000000000004,30.458,39.611000000000004,35.8525,55.902,36.3115,62.973,54.1335,53.911,35.381,61.4915,52.388999999999996,53.132,34.9165,61.445499999999996,51.779666666666664,-0.045666666666666744,-0.14700000000000024,0.10328000000000001,0.10679000000000001,0.0,216.685,216.57,213.22333333333333,213.22333333333333,0.0,0.0
27,0.0,0.0,0.0,1.0,1.0,0.0,0.0,1.0,0.0,100.0,1.0,1.1856,26.0,0.0,0.0,0.0,59.999996,0.0,26.0,26.0,26.0,26.0,-0.11771428571428566,0.24850000000000017,-0.0431,290.939,-2.5818,-2.7116249999999997,-1.5504,-1.6545555555555558,-184.36,216.025,190.405125,0.0,0.0,0.0,0.0,0.05466666666666667,-5.498166666666667,-5.498166666666667,-0.6823,-0.99,-0.06377777777777771,0.61,69.311,-0.08789999999999998,-0.34426666666666667,1.2960000000000003,100.0,1.0,1.0,213.7733333333333,0.0,0.0,0.0,0.0,0.0,0.0,0.0,9061.1,0.0,55.0,5.0,249.49666666666667,1.0,0.0,0.0,0.0,0.0,0.0,0.0,0.0,1.355999999999998,1.355999999999998,0.0,0.0,1.0,55.0,616.79921,10000.0,85.000001,85.000001,85.000001,85.000001,395.0,0.0,0.0,0.0,1.0,333.33500000000004,48.553,48.553,48.203,48.203,34.0,-29.0675,22.182000000000002,-31.545,23.84,0.0,1781.75,0.4800000000000004,100.0,31.568,30.547,43.837,42.628,0.0,0.0,100.0,0.0,0.0,0.0,0.0,3429.285714285714,3338.8,3955.222222222222,3886.5,304.3525,304.308,315.19,315.235,22.0455,20.7188,22.1884,21.5853,314.999998,314.999998,324.999988,324.999988,99.55841428571429,99.50858333333333,99.57874285714286,99.55175714285714,0.012499999999999956,-0.15300000000000002,-0.19779999999999998,0.030999999999999917,-0.04999999999999716,-0.04333333333332945,1.5343333333333335,1.5684999999999998,38.785,30.4925,39.678,35.908,55.891,36.3545,63.0015,54.1855,53.900999999999996,35.420500000000004,61.518,52.439,53.12,34.954499999999996,61.469,51.828,-0.05899999999999994,-0.13600000000000012,0.09771,0.11199500000000001,0.0,217.015,216.89499999999998,213.7733333333333,213.7733333333333,0.0,0.0
28,0.0,0.0,0.0,1.0,1.0,0.0,0.0,1.0,0.0,100.0,1.0,1.1856,26.0,0.0,0.0,0.0,59.999996,0.0,26.0,26.0,26.0,26.0,-0.12271428571428566,0.27059999999999995,-0.0393,291.092,-2.6132,-2.69475,-1.4973,-1.6156666666666668,-180.82999999999998,216.0275,190.379625,0.0,0.0,0.0,0.0,0.05673333333333334,-5.498166666666667,-5.498166666666667,-0.6784,0.632,-0.0725555555555557,-0.555,69.44,-0.10070000000000001,-0.3088,1.2039999999999997,100.0,1.0,1.0,214.21333333333334,0.0,0.0,0.0,0.0,0.0,0.0,0.0,9079.7,0.0,55.0,5.0,249.96,0.0,0.0,0.0,0.0,0.0,0.0,0.0,0.0,1.407,1.407,0.0,0.0,0.0,55.0,616.79921,10000.0,85.000001,85.000001,85.000001,85.000001,395.0,0.0,0.0,0.0,1.0,166.665,48.676,48.676,48.615,48.615,34.0,-30.69,20.402,-33.75,22.476,0.0,1781.7,0.245000000000001,100.0,31.559,30.599,43.177,42.171,0.0,0.0,100.0,0.0,0.0,0.0,0.0,3530.0,3138.3,4152.777777777777,3977.1000000000004,304.1915,304.711,314.95025,315.04275,22.0555,20.7248,22.1993,21.5944,314.999998,314.999998,324.999988,324.999988,99.55842857142858,99.5086,99.5789,99.5519,0.0024999999999999467,-0.16000000000000003,-0.22599999999999998,0.0025999999999999357,-0.05833333333333002,-0.03999999999999915,1.542,1.5865,38.847,30.53,39.745999999999995,35.965,55.881,36.4005,63.0265,54.237,53.891,35.463499999999996,61.5415,52.4885,53.109,34.995,61.489,51.876333333333335,-0.08099999999999996,-0.11649999999999983,0.10619500000000001,0.106645,0.0,217.45499999999998,217.35500000000002,214.21333333333334,214.21333333333334,0.0,0.0
29,0.0,0.0,0.0,1.0,1.0,0.0,0.0,1.0,0.0,100.0,1.0,1.1856,26.0,0.0,0.0,0.0,59.999996,0.0,26.0,26.0,26.0,26.0,-0.12271428571428566,0.24550000000000005,0.006166666666666667,290.787,-2.5465999999999998,-2.755125,-1.5328,-1.5933333333333333,-177.28,216.025,190.353125,0.0,0.0,0.0,0.0,0.058800000000000005,-5.498166666666667,-5.498166666666667,-0.6912,-0.7010000000000001,-0.06999999999999984,0.713,69.572,-0.0915999999999999,-0.32056666666666667,0.7420000000000009,100.0,1.0,1.0,214.50666666666666,0.0,0.0,0.0,0.0,0.0,0.0,0.0,9092.2,0.0,55.0,5.0,250.43333333333334,1.0,0.0,0.0,0.0,0.0,0.0,0.0,0.0,1.4579999999999984,1.4579999999999984,0.0,0.0,1.0,55.0,616.79921,10000.0,85.000001,85.000001,85.000001,85.000001,395.0,0.0,0.0,0.0,1.0,166.665,48.477000000000004,48.477000000000004,48.126,48.126,34.0,-29.5875,22.852,-33.275,24.592,0.0,1781.649,0.245000000000001,100.0,31.461,30.36,43.668,42.309,0.0,0.0,100.0,0.0,0.0,0.0,0.0,3537.714285714286,3338.9,4097.777777777777,4075.5,304.062,304.187,314.88575,314.82375,22.0652,20.7307,22.2105,21.6038,314.999998,314.999998,324.999988,324.999988,99.55842857142858,99.50863333333334,99.57904285714285,99.55204285714285,0.015249999999999986,-0.15125,-0.2066,0.03200000000000003,-0.046666666666666856,-0.04333333333332945,1.4943333333333333,1.5219999999999998,38.908,30.567,39.816,36.024,55.867999999999995,36.445499999999996,63.0575,54.292,53.879000000000005,35.504999999999995,61.57,52.5415,53.096000000000004,35.0345,61.513999999999996,51.92766666666667,-0.07966666666666677,-0.11699999999999999,0.11157,0.111505,0.0,217.81,217.72,214.50666666666666,214.50666666666666,0.0,0.0
30,0.0,0.0,0.0,1.0,1.0,0.0,0.0,1.0,0.0,100.0,1.0,1.1856,26.0,0.0,0.0,0.0,59.999996,0.0,26.0,26.0,26.0,26.0,-0.11071428571428565,0.25439999999999996,0.052566666666666664,290.283,-2.6048,-2.7415000000000003,-1.4749,-1.6711111111111112,-173.94,216.0225,190.328125,0.0,0.0,0.0,0.0,0.06073333333333334,-5.498166666666667,-5.498166666666667,-0.6818000000000001,0.759,-0.06833333333333336,1.131,69.69200000000001,-0.08009999999999995,-0.31323333333333336,0.7300000000000004,100.0,1.0,1.0,214.88,0.0,0.0,0.0,0.0,0.0,0.0,0.0,9108.0,0.0,55.0,5.0,250.86666666666667,0.0,0.0,0.0,0.0,0.0,0.0,1.0,0.0,1.5060000000000002,1.5060000000000002,0.0,0.0,0.0,55.0,616.79921,10000.0,85.000001,85.000001,85.000001,85.000001,395.0,0.0,0.0,0.0,1.0,333.33500000000004,47.638,47.638,48.126,48.126,34.0,-30.544999999999998,23.93,-32.7725,26.380000000000003,0.0,1781.599,0.13500000000000156,100.0,32.342,31.023,43.533,42.306,0.0,0.0,100.0,0.0,0.0,0.0,0.0,3633.142857142857,3397.9,4209.222222222223,4143.5,303.7625,304.22066666666666,314.6795,314.61975,22.0747,20.7366,22.2209,21.6126,314.999998,314.999998,324.999988,324.999988,99.55842857142858,99.50865,99.5792,99.55218571428571,0.02774999999999994,-0.131,-0.19240000000000002,0.034599999999999964,-0.041666666666671404,-0.04833333333333201,1.4886666666666666,1.5215,38.967,30.6035,39.879999999999995,36.0785,55.861000000000004,36.491,63.082499999999996,54.3425,53.872,35.5465,61.593,52.59,53.088,35.0745,61.5345,51.974666666666664,-0.08899999999999997,-0.10749999999999993,0.09973000000000001,0.10812000000000001,0.0,218.23000000000002,218.15,214.88,214.88,0.0,0.0
31,0.0,0.0,0.0,1.0,1.0,0.0,0.0,1.0,0.0,100.0,1.0,1.1856,26.0,0.0,0.0,0.0,59.999996,0.0,26.0,26.0,26.0,26.0,-0.0942857142857143,0.25750000000000006,-0.013333333333333334,290.192,-2.6781,-2.613625,-1.5261,-1.6415555555555557,-170.38,216.015,190.302375,0.0,0.0,0.0,0.0,0.06280000000000001,-5.498166666666667,-5.498166666666667,-0.6763,-0.6905,-0.06011111111111145,-0.805,69.822,-0.06379999999999997,-0.32593333333333335,0.46200000000000063,100.0,1.0,1.0,215.2,0.0,0.0,0.0,0.0,0.0,0.0,0.0,9121.5,0.0,55.0,5.0,251.33666666666664,1.0,0.0,0.0,0.0,0.0,0.0,1.0,0.0,1.5569999999999986,1.5569999999999986,0.0,0.0,1.0,55.0,616.79921,10000.0,85.000001,85.000001,85.000001,85.000001,395.0,0.0,0.0,0.0,1.0,333.33500000000004,48.096000000000004,48.096000000000004,47.012,47.012,34.0,-29.9675,22.734,-33.655,27.024,0.0,1781.548,0.060000000000002274,100.0,31.752,31.261,44.051,43.013,0.0,0.0,100.0,0.0,0.0,0.0,0.0,3530.285714285714,3364.6,4267.666666666667,4169.6,304.3655,304.18266666666665,314.551,314.579,22.0845,20.7427,22.2321,21.6221,314.999998,314.999998,324.999988,324.999988,99.55842857142858,99.50866666666667,99.57934285714286,99.55232857142857,0.026999999999999913,-0.126,-0.18399999999999994,0.04899999999999993,-0.036666666666668846,-0.041666666666671404,1.4786666666666668,1.4905,39.028,30.642,39.951,36.1385,55.851,36.5375,63.1135,54.399,53.861999999999995,35.5895,61.622,52.6445,53.077,35.1155,61.56,52.028,-0.09333333333333327,-0.09799999999999986,0.11047000000000001,0.103245,0.0,218.565,218.51999999999998,215.2,215.2,0.0,0.0
32,0.0,0.0,0.0,1.0,1.0,0.0,0.0,1.0,0.0,100.0,1.0,1.1856,26.0,0.0,0.0,0.0,59.999996,0.0,26.0,26.0,26.0,26.0,-0.09485714285714286,0.2633000000000001,-0.04243333333333334,290.39,-2.6058,-2.661875,-1.5843,-1.555111111111111,-166.82,216.005,190.276625,0.0,0.0,0.0,0.0,0.06486666666666667,-5.498166666666667,-5.498166666666667,-0.6904,0.262,-0.08477777777777806,0.377,69.947,-0.055299999999999905,-0.3264666666666667,0.44200000000000017,100.0,1.0,1.0,215.70666666666668,0.0,0.0,0.0,0.0,0.0,0.0,0.0,9143.0,0.0,55.0,5.0,251.78333333333336,0.0,0.0,0.0,0.0,0.0,0.0,1.0,0.0,1.6080000000000005,1.6080000000000005,0.0,0.0,0.0,55.0,616.79921,10000.0,85.000001,85.000001,85.000001,85.000001,395.0,0.0,0.0,0.0,1.0,333.33500000000004,47.958,47.958,47.897,47.897,34.0,-28.08,24.032,-32.0425,26.398,0.0,1781.497,-0.03999999999999915,100.0,31.997,31.185000000000002,43.684,42.706,0.0,0.0,100.0,0.0,0.0,0.0,0.0,3538.0,3335.3,4187.444444444444,4148.2,304.0835,304.28333333333336,314.844,314.78175,22.0943,20.7489,22.2431,21.6314,314.999998,314.999998,324.999988,324.999988,99.55844285714285,99.50868333333334,99.57948571428571,99.55248571428571,0.05824999999999991,-0.10399999999999998,-0.16179999999999994,0.07180000000000009,-0.045000000000001705,-0.036666666666668846,1.5563333333333333,1.557,39.089,30.680500000000002,40.019,36.1965,55.842,36.583,63.1385,54.452,53.854,35.6315,61.644999999999996,52.695499999999996,53.067,35.1555,61.579499999999996,52.077333333333335,-0.10533333333333328,-0.09299999999999997,0.10661000000000001,0.11493,0.0,218.98000000000002,218.92000000000002,215.70666666666668,215.70666666666668,0.0,0.0
33,0.0,0.0,0.0,1.0,1.0,0.0,0.0,1.0,0.0,100.0,1.0,1.1856,26.0,0.0,0.0,0.0,59.999996,0.0,26.0,26.0,26.0,26.0,-0.05228571428571427,0.25639999999999996,-0.03816666666666667,290.619,-2.6348000000000003,-2.6975,-1.5303,-1.6135555555555556,-163.25,215.9925,190.249875,0.0,0.0,0.0,0.0,0.06696666666666666,-5.498166666666667,-5.498166666666667,-0.6976,-0.535,-0.06777777777777771,0.047,70.076,-0.043399999999999994,-0.32056666666666667,0.24399999999999977,100.0,1.0,1.0,216.0233333333333,0.0,0.0,0.0,0.0,0.0,0.0,0.0,9156.5,0.0,55.0,5.0,252.25,1.0,0.0,0.0,0.0,0.0,0.0,1.0,0.0,1.658999999999999,1.658999999999999,0.0,0.0,1.0,55.0,616.79921,10000.0,85.000001,85.000001,85.000001,85.000001,395.0,0.0,0.0,0.0,1.0,166.665,48.522999999999996,48.522999999999996,47.989,47.989,34.0,-27.3275,23.146,-30.79,27.034,0.0,1781.447,-0.0799999999999983,100.0,31.615000000000002,31.021,43.605000000000004,42.978,0.0,0.0,100.0,0.0,0.0,0.0,0.0,3457.4285714285716,3192.0,4119.888888888889,4107.7,304.5045,304.567,314.93225,314.65725,22.1039,20.7549,22.2541,21.6409,314.999998,314.999998,324.999988,324.999988,99.55845714285714,99.5087,99.57964285714286,99.55262857142857,0.06000000000000005,-0.10875000000000001,-0.15759999999999996,0.06620000000000004,-0.03333333333333144,-0.051666666666669414,1.512,1.5204999999999997,39.15,30.718,40.088,36.2555,55.833,36.625,63.1655,54.5065,53.845,35.670500000000004,61.67,52.748,53.057,35.192499999999995,61.601,52.12866666666667,-0.11533333333333329,-0.08150000000000013,0.104785,0.10644500000000001,0.0,219.35000000000002,219.325,216.0233333333333,216.0233333333333,0.0,0.0
34,0.0,0.0,0.0,1.0,1.0,0.0,0.0,1.0,0.0,100.0,1.0,1.1856,26.0,0.0,0.0,0.0,59.999996,0.0,26.0,26.0,26.0,26.0,-0.0377142857142857,0.2601,-0.08926666666666666,291.031,-2.6431,-2.68575,-1.5916000000000001,-1.582888888888889,-159.88,215.98250000000002,190.2235,0.0,0.0,0.0,0.0,0.0689,-5.498166666666667,-5.498166666666667,-0.7321000000000001,-0.7895,-0.03688888888888897,-0.107,70.194,-0.027599999999999958,-0.3292333333333334,0.1739999999999995,100.0,1.0,1.0,216.4766666666667,0.0,0.0,0.0,0.0,0.0,0.0,0.0,9175.7,0.0,55.0,5.0,252.67333333333335,0.0,0.0,0.0,0.0,0.0,0.0,1.0,0.0,1.7070000000000007,1.7070000000000007,0.0,0.0,0.0,55.0,616.79921,10000.0,85.000001,85.000001,85.000001,85.000001,395.0,0.0,0.0,0.0,1.0,333.33500000000004,48.859,48.859,48.66,48.66,34.0,-26.33,23.226,-29.735,26.628,0.0,1781.398,-0.03500000000000014,100.0,31.339,30.762,43.272999999999996,42.967,0.0,0.0,100.0,0.0,0.0,0.0,0.0,3373.5714285714284,3187.4,3982.1111111111113,3995.2,304.6395,304.57666666666665,315.31975,314.96925,22.113,20.7606,22.2644,21.6497,314.999998,314.999998,324.999988,324.999988,99.55845714285714,99.5087,99.5798,99.55278571428572,0.06974999999999998,-0.10375000000000001,-0.15039999999999998,0.0875999999999999,-0.05333333333332746,-0.030000000000001137,1.552,1.553,39.206,30.7535,40.152,36.3105,55.822,36.667,63.189,54.5605,53.834,35.709,61.6915,52.8,53.045,35.2295,61.6195,52.179,-0.10233333333333317,-0.09450000000000003,0.10361500000000001,0.11055500000000001,0.0,219.695,219.66500000000002,216.4766666666667,216.4766666666667,0.0,0.0
35,0.0,0.0,0.0,1.0,1.0,0.0,0.0,1.0,0.0,100.0,1.0,1.1856,26.0,0.0,0.0,0.0,59.999996,0.0,26.0,26.0,26.0,26.0,-0.030571428571428583,0.25029999999999997,-0.0511,290.894,-2.6412,-2.641,-1.5575,-1.5956666666666668,-156.3,215.9675,190.19325,0.0,0.0,0.0,0.0,0.07100000000000001,-5.498166666666667,-5.498166666666667,-0.7696000000000001,-0.2745,-0.04644444444444451,-0.047,70.319,-0.017999999999999905,-0.3306333333333334,0.08399999999999963,100.0,1.0,1.0,216.92333333333335,0.0,0.0,0.0,0.0,0.0,0.0,0.0,9194.6,0.0,55.0,5.0,253.12333333333333,1.0,0.0,0.0,0.0,0.0,0.0,1.0,0.0,1.7579999999999991,1.7579999999999991,0.0,0.0,1.0,55.0,616.79921,10000.0,85.000001,85.000001,85.000001,85.000001,395.0,0.0,0.0,0.0,1.0,166.665,48.065,48.065,48.325,48.325,34.0,-26.4725,27.658,-27.5675,26.476,0.0,1781.348,-0.03999999999999915,100.0,31.296,31.031,43.033,42.467,0.0,0.0,100.0,0.0,0.0,0.0,0.0,3439.5714285714284,3633.1,3897.3333333333335,3868.2,304.432,303.408,315.43675,315.34375,22.1224,20.7668,22.275199999999998,21.6589,314.999998,314.999998,324.999988,324.999988,99.55847142857142,99.50871666666667,99.57992857142857,99.55291428571428,0.07925000000000004,-0.07699999999999996,-0.12919999999999998,0.10699999999999998,-0.04999999999999716,-0.054999999999999716,1.5779999999999998,1.5895000000000001,39.265,30.7925,40.22,36.3685,55.812,36.708,63.2115,54.608000000000004,53.824,35.747,61.712,52.846000000000004,53.034,35.266,61.6365,52.22366666666667,-0.09966666666666679,-0.09100000000000019,0.11055500000000001,0.10822000000000001,0.0,220.075,220.075,216.92333333333335,216.92333333333335,0.0,0.0
