,ABS Active,ABS Enabled,AID Allow Tire Blankets,AID Auto Blip,AID Auto Clutch,AID Auto Shift,AID Fuel Rate,AID Ideal Line,AID Mech Damage,AID Stability,AID Tire Wear Rate,Air Density,Air Temp,Ballast,Best Lap Delta,Best Lap Time,Brake Bias,Brake Pos,Brake Temp FL,Brake Temp FR,Brake Temp RL,Brake Temp RR,CG Accel Lateral,CG Accel Longitudinal,CG Accel Vertical,CG Height,Camber FL,Camber FR,Camber RL,Camber RR,Car Coord X,Car Coord Y,Car Coord Z,Car Damage Front,Car Damage Left,Car Damage Rear,Car Damage Right,Car Pos Norm,Caster FL,Caster FR,Chassis Pitch Angle,Chassis Pitch Rate,Chassis Roll Angle,Chassis Roll Rate,Chassis Velocity X,Chassis Velocity Y,Chassis Velocity Z,Chassis Yaw Rate,Clutch Pos,DRS Active,DRS Available,Drive Train Speed,ERS Heat Charging,ERS Is Charging,ERS Max Energy,ERS Power Level,ERS Recovery Level,Engine Brake Setting,Engine Limiter,Engine RPM,Flags,Fuel Level,Gear,Ground Speed,HR Sample Clock,In Pit,KERS Charge,KERS Deployed Energy,KERS Input,KERS Max Energy,LR Sample Clock,Lap Invalidated,Lap Time,Lap Time2,Last Lap Time,Last Sector Time,MR Sample Clock,Max Fuel,Max Power,Max RPM,Max Sus Travel FL,Max Sus Travel FR,Max Sus Travel RL,Max Sus Travel RR,Max Torque,Max Turbo Boost,Num Tires Off Track,Penalties Enabled,Position,Raw Data Sample Rate,Ride Height FL,Ride Height FR,Ride Height RL,Ride Height RR,Road Temp,Self Align Torque FL,Self Align Torque FR,Self Align Torque RL,Self Align Torque RR,Session Lap Count,Session Time Left,Steering Angle,Surface Grip,Suspension Travel FL,Suspension Travel FR,Suspension Travel RL,Suspension Travel RR,TC Active,TC Enabled,Throttle Pos,Tire Dirt Level FL,Tire Dirt Level FR,Tire Dirt Level RL,Tire Dirt Level RR,Tire Load FL,Tire Load FR,Tire Load RL,Tire Load RR,Tire Loaded Radius FL,Tire Loaded Radius FR,Tire Loaded Radius RL,Tire Loaded Radius RR,Tire Pressure FL,Tire Pressure FR,Tire Pressure RL,Tire Pressure RR,Tire Radius FL,Tire Radius FR,Tire Radius RL,Tire Radius RR,Tire Rubber Grip FL,Tire Rubber Grip FR,Tire Rubber Grip RL,Tire Rubber Grip RR,Tire Slip Angle FL,Tire Slip Angle FR,Tire Slip Angle RL,Tire Slip Angle RR,Tire Slip Ratio FL,Tire Slip Ratio FR,Tire Slip Ratio RL,Tire Slip Ratio RR,Tire Temp Core FL,Tire Temp Core FR,Tire Temp Core RL,Tire Temp Core RR,Tire Temp Inner FL,Tire Temp Inner FR,Tire Temp Inner RL,Tire Temp Inner RR,Tire Temp Middle FL,Tire Temp Middle FR,Tire Temp Middle RL,Tire Temp Middle RR,Tire Temp Outer FL,Tire Temp Outer FR,Tire Temp Outer RL,Tire Temp Outer RR,Toe In FL,Toe In FR,Toe In RL,Toe In RR,Turbo Boost,Wheel Angular Speed FL,Wheel Angular Speed FR,Wheel Angular Speed RL,Wheel Angular Speed RR,Wind Direction,Wind Speed
0,0.0,0.0,0.0,1.0,1.0,0.0,0.0,1.0,0.0,100.0,1.0,1.1856,26.0,0.0,0.0,0.0,59.99999,0.0,26.0,26.0,26.0,26.0,-0.056625,0.29110000000000014,0.18380000000000002,290.421,-2.6257,-2.3722222222222222,-1.5151,-1.5064444444444445,-275.69,215.85500000000002,190.9845,0.0,0.0,0.0,0.0,0.0015666666666666667,-5.498166666666667,-5.498166666666667,-0.752,1.5966666666666667,-0.0022222222222221255,-1.1440000000000001,65.435,-0.03100000000000014,-0.4414,0.5300000000000002,100.0,1.0,1.0,202.1,0.0,0.0,0.0,0.0,0.0,0.0,0.0,8566.3,0.0,55.0,5.0,235.54333333333335,0.0,0.0,0.0,0.0,0.0,0.0,0.0,0.0,0.0030000000000001137,0.0030000000000001137,0.0,0.0,0.0,55.0,616.79921,10000.0,85.0,85.0,85.0,85.0,395.0,0.0,0.0,0.0,1.0,20.0,42.647999999999996,42.647999999999996,51.01,51.01,34.0,-32.81666666666666,27.83,-28.664,24.292,0.0,1783.4,0.4800000000000004,100.0,34.195,34.044,38.923,38.816,0.0,0.0,100.0,0.0,0.0,0.0,0.0,3918.0,4501.4,3983.8888888888887,3899.6000000000004,302.96733333333333,300.37533333333334,315.3255,315.1285,21.8711,20.6525,22.095111111111112,21.4245,314.99999,314.99999,324.99998,324.99998,99.56037142857143,99.50981666666667,99.58894285714285,99.55307142857143,0.03699999999999992,-0.1356666666666666,-0.1546666666666665,0.081666666666667,-0.05749999999999744,-0.04833333333333201,1.592,1.6105,37.694,30.078,39.095,34.9035,57.113,36.5835,67.0245,54.9735,55.141999999999996,35.6415,65.4995,53.118,54.45,35.1805,65.607,52.4595,-0.07550000000000001,-0.14949999999999997,0.10993000000000001,0.10794000000000001,0.0,205.08333333333334,205.005,202.1,202.1,0.0,0.0
1,0.0,0.0,0.0,1.0,1.0,0.0,0.0,1.0,0.0,100.0,1.0,1.1856,26.0,0.0,0.0,0.0,59.999996,0.0,26.0,26.0,26.0,26.0,-0.106375,0.29310000000000014,0.2619,289.703,-2.5561,-2.607222222222222,-1.5279,-1.351222222222222,-272.16,215.875,190.963375,0.0,0.0,0.0,0.0,0.003633333333333334,-5.498166666666667,-5.498166666666667,-0.6880999999999999,-1.595,-0.04999999999999982,-0.784,65.589,-0.04166666666666652,-0.42069999999999996,1.1100000000000003,100.0,1.0,1.0,202.08333333333331,0.0,0.0,0.0,0.0,0.0,0.0,0.0,8565.6,0.0,55.0,5.0,236.0966666666667,1.0,0.0,0.0,0.0,0.0,0.0,0.0,0.0,0.05699999999999861,0.05699999999999861,0.0,0.0,1.0,55.0,616.79921,10000.0,85.000001,85.000001,85.000001,85.000001,395.0,0.0,0.0,0.0,1.0,166.665,44.952,44.952,50.034,50.034,34.0,-29.966666666666665,20.07,-35.504,27.486,0.0,1783.347,0.5449999999999999,100.0,34.367,33.928,40.942,40.982,0.0,0.0,100.0,0.0,0.0,0.0,0.0,3722.0,3178.1,4432.0,4807.1,303.61566666666664,304.6716666666667,314.10375,312.7775,21.8826,20.6593,22.108555555555554,21.435,314.999998,314.999998,324.999988,324.999988,99.56038571428572,99.50983333333333,99.58911428571429,99.55321428571429,0.03874999999999984,-0.1519999999999999,-0.17833333333333323,0.04699999999999971,-0.03499999999999659,-0.05333333333332746,1.358,1.4024999999999999,37.766,30.1205,39.178,34.969,57.105999999999995,36.6345,67.047,55.0325,55.135,35.689,65.5195,53.175,54.441,35.226,65.6235,52.5155,-0.0685,-0.15949999999999998,0.10875000000000001,0.10759500000000001,0.0,205.49,205.405,202.08333333333331,202.08333333333331,0.0,0.0
2,0.0,0.0,0.0,1.0,1.0,0.0,0.0,1.0,0.0,100.0,1.0,1.1856,26.0,0.0,0.0,0.0,59.999996,0.0,26.0,26.0,26.0,26.0,-0.11175,0.22819999999999996,-0.10196666666666666,290.848,-2.5212,-2.5757777777777777,-1.4969999999999999,-1.5087777777777778,-269.01,215.8875,190.94575,0.0,0.0,0.0,0.0,0.0054666666666666665,-5.498166666666667,-5.498166666666667,-0.766,0.265,-0.027222222222222037,1.447,65.705,-0.05549999999999988,-0.4931,1.3475000000000001,100.0,1.0,1.0,203.28333333333333,0.0,0.0,0.0,0.0,0.0,0.0,0.0,8616.4,0.0,55.0,5.0,236.51666666666665,0.0,0.0,0.0,0.0,0.0,0.0,0.0,0.0,0.10500000000000043,0.10500000000000043,0.0,0.0,0.0,55.0,616.79921,10000.0,85.000001,85.000001,85.000001,85.000001,395.0,0.0,0.0,0.0,1.0,166.665,43.137,43.137,52.719,52.719,34.0,-34.3,22.323999999999998,-25.548,17.116,0.0,1783.299,0.6749999999999998,100.0,35.161,34.157,40.546,39.897,0.0,0.0,100.0,0.0,0.0,0.0,0.0,4095.5,3633.8,3472.8888888888887,3247.1,302.37166666666667,303.09166666666664,316.4775,316.84475,21.8931,20.6653,22.119888888888887,21.4437,314.999998,314.999998,324.999988,324.999988,99.56038571428572,99.50985,99.58922857142858,99.55334285714285,0.020500000000000185,-0.16900000000000004,-0.20500000000000007,0.038333333333333997,-0.03999999999999915,-0.051666666666669414,1.7565,1.8144999999999998,37.832,30.1585,39.25,35.022999999999996,57.102999999999994,36.6815,67.056,55.0695,55.131,35.732,65.5275,53.211,54.436,35.266999999999996,65.6285,52.551,-0.06899999999999995,-0.16700000000000004,0.107145,0.11529,0.0,205.87333333333333,205.79000000000002,203.28333333333333,203.28333333333333,0.0,0.0
3,0.0,0.0,0.0,1.0,1.0,0.0,0.0,1.0,0.0,100.0,1.0,1.1856,26.0,0.0,0.0,0.0,59.999996,0.0,26.0,26.0,26.0,26.0,-0.128,0.2821,-0.0179,290.131,-2.5457,-2.6004444444444443,-1.486,-1.5566666666666669,-265.85,215.9,190.92675,0.0,0.0,0.0,0.0,0.0073,-5.498166666666667,-5.498166666666667,-0.7076,0.6483333333333334,-0.008999999999999897,-1.734,65.84100000000001,-0.07233333333333336,-0.42413333333333325,1.2275,100.0,1.0,1.0,203.16333333333333,0.0,0.0,0.0,0.0,0.0,0.0,0.0,8611.3,0.0,55.0,5.0,237.00333333333333,1.0,0.0,0.0,0.0,0.0,0.0,0.0,0.0,0.1529999999999987,0.1529999999999987,0.0,0.0,1.0,55.0,616.79921,10000.0,85.000001,85.000001,85.000001,85.000001,395.0,0.0,0.0,0.0,1.0,333.33500000000004,44.144,44.144,49.942,49.942,34.0,-30.926666666666666,21.381999999999998,-34.288,23.888,0.0,1783.25,0.6550000000000002,100.0,34.818,34.368,40.597,40.059,0.0,0.0,100.0,0.0,0.0,0.0,0.0,3704.375,3508.5,4338.666666666667,4032.6000000000004,303.69,303.47833333333335,314.434,314.86075,21.9033,20.6716,22.131333333333334,21.4527,314.999998,314.999998,324.999988,324.999988,99.56038571428572,99.50988333333333,99.58937142857143,99.55347142857143,0.014750000000000263,-0.17566666666666664,-0.19799999999999995,0.03533333333333388,-0.05124999999999602,-0.03499999999999659,1.488,1.5314999999999999,37.896,30.197499999999998,39.321,35.079499999999996,57.096000000000004,36.7315,67.0695,55.1185,55.123999999999995,35.778,65.539,53.2585,54.428,35.311,65.637,52.598,-0.0665,-0.1705000000000001,0.105105,0.10743000000000001,0.0,206.33333333333334,206.215,203.16333333333333,203.16333333333333,0.0,0.0
4,0.0,0.0,0.0,1.0,1.0,0.0,0.0,1.0,0.0,100.0,1.0,1.1856,26.0,0.0,0.0,0.0,59.999996,0.0,26.0,26.0,26.0,26.0,-0.12825,0.2521,-0.0098,290.359,-2.5721,-2.674666666666667,-1.4299,-1.566111111111111,-262.29,215.91,190.906125,0.0,0.0,0.0,0.0,0.009366666666666667,-5.498166666666667,-5.498166666666667,-0.738,-0.7946666666666666,-0.06655555555555548,-1.377,65.982,-0.0841666666666665,-0.4669,1.5375000000000005,100.0,1.0,1.0,203.75666666666666,0.0,0.0,0.0,0.0,0.0,0.0,0.0,8636.6,0.0,55.0,5.0,237.51333333333332,0.0,0.0,0.0,0.0,0.0,0.0,0.0,0.0,0.20700000000000074,0.20700000000000074,0.0,0.0,0.0,55.0,616.79921,10000.0,85.000001,85.000001,85.000001,85.000001,395.0,0.0,0.0,0.0,1.0,166.665,43.915,43.915,50.659,50.659,34.0,-34.66666666666667,21.997999999999998,-31.826,20.146,0.0,1783.197,0.6699999999999999,100.0,34.658,33.966,41.313,40.17,0.0,0.0,100.0,0.0,0.0,0.0,0.0,3992.0,3541.8,4030.4444444444443,3612.2,302.8433333333333,303.425,315.18525,315.842,21.9149,20.6784,22.144555555555556,21.4629,314.999998,314.999998,324.999988,324.999988,99.5604,99.5099,99.58952857142857,99.55361428571429,0.003750000000000142,-0.18333333333333313,-0.2313333333333336,0.020999999999999908,-0.05250000000000199,-0.01666666666666572,1.5735000000000001,1.6229999999999998,37.968,30.240000000000002,39.403,35.143,57.088,36.785,67.087,55.1695,55.116,35.8275,65.555,53.3075,54.418,35.3585,65.6495,52.646,-0.061999999999999944,-0.1665000000000001,0.11267500000000001,0.112265,0.0,206.73000000000002,206.59,203.75666666666666,203.75666666666666,0.0,0.0
5,0.0,0.0,0.0,1.0,1.0,0.0,0.0,1.0,0.0,100.0,1.0,1.1856,26.0,0.0,0.0,0.0,59.999996,0.0,26.0,26.0,26.0,26.0,-0.1295,0.28059999999999996,-0.036333333333333336,290.512,-2.5859,-2.6406666666666667,-1.5007000000000001,-1.5956666666666668,-259.12,215.91500000000002,190.88725,0.0,0.0,0.0,0.0,0.011233333333333333,-5.498166666666667,-5.498166666666667,-0.7414000000000001,0.37033333333333335,-0.06933333333333369,-0.534,66.108,-0.09850000000000003,-0.45056666666666667,1.4100000000000001,100.0,1.0,1.0,204.17666666666668,0.0,0.0,0.0,0.0,0.0,0.0,0.0,8654.3,0.0,55.0,5.0,237.96666666666667,1.0,0.0,0.0,0.0,0.0,0.0,0.0,0.0,0.254999999999999,0.254999999999999,0.0,0.0,1.0,55.0,616.79921,10000.0,85.000001,85.000001,85.000001,85.000001,395.0,0.0,0.0,0.0,1.0,166.665,44.052,44.052,51.178,51.178,34.0,-34.03666666666666,21.762,-31.556,20.592,0.0,1783.149,0.46999999999999975,100.0,34.828,33.875,40.99,39.728,0.0,0.0,100.0,0.0,0.0,0.0,0.0,3937.375,3498.6,3955.1111111111113,3795.8,302.97266666666667,303.58433333333335,315.4055,315.46675,21.9252,20.6845,22.15588888888889,21.4716,314.999998,314.999998,324.999988,324.999988,99.5604,99.50993333333334,99.58965714285715,99.55374285714285,0.009250000000000203,-0.17433333333333323,-0.22699999999999987,0.001000000000000334,-0.08874999999999744,-0.046666666666666856,1.6105,1.6635,38.033,30.278,39.474000000000004,35.1975,57.083,36.833,67.1,55.2115,55.111000000000004,35.872,65.566,53.3485,54.412,35.4005,65.657,52.686,-0.08450000000000002,-0.13949999999999996,0.097305,0.11089500000000001,0.0,207.18333333333334,207.05,204.17666666666668,204.17666666666668,0.0,0.0
6,0.0,0.0,0.0,1.0,1.0,0.0,0.0,1.0,0.0,100.0,1.0,1.1856,26.0,0.0,0.0,0.0,59.999996,0.0,26.0,26.0,26.0,26.0,-0.150375,0.272,0.020633333333333337,290.115,-2.5319000000000003,-2.6959999999999997,-1.526,-1.5601111111111112,-255.94,215.91750000000002,190.86775,0.0,0.0,0.0,0.0,0.013066666666666666,-5.498166666666667,-5.498166666666667,-0.7312,0.0006666666666666666,-0.07188888888888867,-0.863,66.236,-0.10150000000000015,-0.44076666666666664,1.2024999999999997,100.0,1.0,1.0,204.45,0.0,0.0,0.0,0.0,0.0,0.0,0.0,8665.8,0.0,55.0,5.0,238.42666666666668,0.0,0.0,0.0,0.0,0.0,0.0,0.0,0.0,0.3030000000000008,0.3030000000000008,0.0,0.0,0.0,55.0,616.79921,10000.0,85.000001,85.000001,85.000001,85.000001,395.0,0.0,0.0,0.0,1.0,166.665,43.9,43.9,50.446,50.446,34.0,-33.75,22.018,-34.742,20.664,0.0,1783.1,0.41999999999999993,100.0,34.877,33.956,41.223,39.965,0.0,0.0,100.0,0.0,0.0,0.0,0.0,3954.375,3511.1,4152.888888888889,3879.7,302.9343333333333,303.5013333333333,314.91225,315.2325,21.9355,20.6905,22.167444444444445,21.4806,314.999998,314.999998,324.999988,324.999988,99.5604,99.50995,99.58978571428571,99.55388571428571,0.00550000000000006,-0.18399999999999994,-0.23833333333333329,-0.0033333333333334103,-0.05624999999999858,-0.03833333333332689,1.5470000000000002,1.6219999999999999,38.097,30.316,39.547,35.254,57.077,36.881,67.115,55.2575,55.105000000000004,35.916,65.579,53.393,54.403999999999996,35.443,65.6675,52.7295,-0.09099999999999997,-0.14500000000000002,0.10455,0.111265,0.0,207.54000000000002,207.41500000000002,204.45,204.45,0.0,0.0
7,0.0,0.0,0.0,1.0,1.0,0.0,0.0,1.0,0.0,100.0,1.0,1.1856,26.0,0.0,0.0,0.0,59.999996,0.0,26.0,26.0,26.0,26.0,-0.112125,0.2643,0.019100000000000002,289.963,-2.4925,-2.6945555555555556,-1.4815,-1.6095555555555556,-252.56,215.91500000000002,190.84725,0.0,0.0,0.0,0.0,0.015033333333333334,-5.498166666666667,-5.498166666666667,-0.7423,0.026000000000000002,-0.060555555555555696,1.063,66.368,-0.0983333333333336,-0.4613999999999999,0.9625000000000004,100.0,1.0,1.0,204.90333333333334,0.0,0.0,0.0,0.0,0.0,0.0,0.0,8685.1,0.0,55.0,5.0,238.90333333333334,1.0,0.0,0.0,0.0,0.0,0.0,0.0,0.0,0.3539999999999992,0.3539999999999992,0.0,0.0,1.0,55.0,616.79921,10000.0,85.000001,85.000001,85.000001,85.000001,395.0,0.0,0.0,0.0,1.0,333.33500000000004,43.32,43.32,50.797,50.797,34.0,-31.106666666666666,25.118,-30.856,22.134,0.0,1783.048,0.004999999999999893,100.0,35.397999999999996,34.016,41.385,40.04,0.0,0.0,100.0,0.0,0.0,0.0,0.0,3912.625,3699.7,3912.1111111111113,3864.2,302.82,303.03566666666666,315.37725,315.30125,21.9465,20.6971,22.179666666666666,21.4902,314.999998,314.999998,324.999988,324.999988,99.5604,99.50998333333334,99.58992857142857,99.55401428571429,0.042749999999999844,-0.14966666666666661,-0.21700000000000008,0.015333333333333421,-0.03625000000000256,-0.061666666666667425,1.5685,1.605,38.166,30.357,39.623000000000005,35.314,57.073,36.932,67.13,55.3055,55.099999999999994,35.963,65.5925,53.439,54.397,35.488,65.67699999999999,52.7745,-0.11699999999999999,-0.11749999999999994,0.10284000000000001,0.10928,0.0,207.92333333333335,207.85000000000002,204.90333333333334,204.90333333333334,0.0,0.0
8,0.0,0.0,0.0,1.0,1.0,0.0,0.0,1.0,0.0,100.0,1.0,1.1856,26.0,0.0,0.0,0.0,59.999996,0.0,26.0,26.0,26.0,26.0,-0.09575,0.2714000000000001,-0.0024000000000000002,290.054,-2.5786,-2.6234444444444445,-1.464,-1.5987777777777779,-249.17000000000002,215.9125,190.826625,0.0,0.0,0.0,0.0,0.017,-5.498166666666667,-5.498166666666667,-0.7431,-0.424,-0.04911111111111133,-0.8180000000000001,66.502,-0.0838333333333332,-0.4571333333333333,0.5724999999999998,100.0,1.0,1.0,205.24333333333334,0.0,0.0,0.0,0.0,0.0,0.0,0.0,8699.5,0.0,55.0,5.0,239.38666666666666,0.0,0.0,0.0,0.0,0.0,0.0,0.0,0.0,0.40500000000000114,0.40500000000000114,0.0,0.0,0.0,55.0,616.79921,10000.0,85.000001,85.000001,85.000001,85.000001,395.0,0.0,0.0,0.0,1.0,333.33500000000004,43.9,43.9,50.171,50.171,34.0,-31.416666666666664,23.39,-31.01,22.932,0.0,1782.997,-0.07000000000000028,100.0,34.866,34.225,41.381,40.271,0.0,0.0,100.0,0.0,0.0,0.0,0.0,3829.625,3599.6,4029.8888888888887,3908.3,303.3313333333333,303.2703333333333,315.14225,315.096,21.9573,20.7036,22.19188888888889,21.4998,314.999998,314.999998,324.999988,324.999988,99.56041428571429,99.51,99.59007142857143,99.55415714285714,0.03600000000000003,-0.15399999999999991,-0.19999999999999973,0.022999999999999687,-0.04124999999999801,-0.02499999999999858,1.541,1.5659999999999998,38.233000000000004,30.3975,39.699,35.3735,57.066,36.982,67.145,55.3535,55.094,36.009,65.606,53.4855,54.39,35.532,65.687,52.82,-0.12749999999999995,-0.1100000000000001,0.09865,0.110335,0.0,208.31333333333333,208.265,205.24333333333334,205.24333333333334,0.0,0.0
9,0.0,0.0,0.0,1.0,1.0,0.0,0.0,1.0,0.0,100.0,1.0,1.1856,26.0,0.0,0.0,0.0,59.999996,0.0,26.0,26.0,26.0,26.0,-0.075625,0.26080000000000014,-0.012366666666666668,289.825,-2.5015,-2.643,-1.5173999999999999,-1.552,-245.98,215.905,190.806875,0.0,0.0,0.0,0.0,0.018866666666666667,-5.498166666666667,-5.498166666666667,-0.747,0.444,-0.055111111111111555,-0.441,66.625,-0.07066666666666643,-0.4566333333333332,0.40749999999999975,100.0,1.0,1.0,205.72,0.0,0.0,0.0,0.0,0.0,0.0,0.0,8719.7,0.0,55.0,5.0,239.82666666666665,1.0,0.0,0.0,0.0,0.0,0.0,0.0,0.0,0.4529999999999994,0.4529999999999994,0.0,0.0,1.0,55.0,616.79921,10000.0,85.000001,85.000001,85.000001,85.000001,395.0,0.0,0.0,0.0,1.0,333.33500000000004,43.015,43.015,50.964,50.964,34.0,-31.396666666666665,25.275999999999996,-30.388,22.51,0.0,1782.95,-0.22999999999999954,100.0,35.326,34.496,41.135,40.241,0.0,0.0,100.0,0.0,0.0,0.0,0.0,4070.25,3647.9,3927.777777777778,3866.2,302.5296666666667,303.07966666666664,315.4525,315.29925,21.9675,20.7099,22.203333333333333,21.5087,314.999998,314.999998,324.999988,324.999988,99.56042857142857,99.51001666666667,99.59021428571428,99.55428571428571,0.06075000000000008,-0.1306666666666667,-0.20033333333333347,0.03866666666666685,-0.04749999999999943,-0.030000000000001137,1.5995,1.6155,38.297,30.436999999999998,39.771,35.4295,57.064,37.0295,67.1565,55.3975,55.091,36.053,65.616,53.528,54.385,35.574,65.694,52.8615,-0.14349999999999996,-0.09699999999999998,0.106005,0.10905000000000001,0.0,208.70666666666665,208.65,205.72,205.72,0.0,0.0
10,0.0,0.0,0.0,1.0,1.0,0.0,0.0,1.0,0.0,100.0,1.0,1.1856,26.0,0.0,0.0,0.0,59.999996,0.0,26.0,26.0,26.0,26.0,-0.0495,0.266,0.02266666666666667,289.703,-2.5624000000000002,-2.635111111111111,-1.4871,-1.5322222222222222,-242.57,215.8975,190.78625,0.0,0.0,0.0,0.0,0.020833333333333336,-5.498166666666667,-5.498166666666667,-0.7319,-0.4326666666666667,-0.01955555555555577,1.7670000000000001,66.759,-0.04933333333333323,-0.45166666666666666,-0.020000000000000018,100.0,1.0,1.0,205.96333333333334,0.0,0.0,0.0,0.0,0.0,0.0,0.0,8730.0,0.0,55.0,5.0,240.31,0.0,0.0,0.0,0.0,0.0,0.0,1.0,0.0,0.5040000000000013,0.5040000000000013,0.0,0.0,0.0,55.0,616.79921,10000.0,85.000001,85.000001,85.000001,85.000001,395.0,0.0,0.0,0.0,1.0,333.33500000000004,43.732,43.732,49.927,49.927,34.0,-27.406666666666666,25.754,-29.876,26.316000000000003,0.0,1782.899,-0.25,100.0,35.384,34.373,41.53,40.637,0.0,0.0,100.0,0.0,0.0,0.0,0.0,3663.0,3650.4,4066.1111111111113,4134.5,303.636,303.301,314.98975,314.68425,21.9784,20.7165,22.215555555555554,21.5184,314.999998,314.999998,324.999988,324.999988,99.56042857142857,99.51003333333334,99.59035714285714,99.55442857142857,0.08349999999999991,-0.1156666666666668,-0.16000000000000014,0.07500000000000018,-0.038750000000000284,-0.06499999999999773,1.5230000000000001,1.5255,38.364999999999995,30.4785,39.847,35.49,57.061,37.078,67.172,55.448,55.087,36.0975,65.62950000000001,53.577,54.379999999999995,35.6165,65.7045,52.9095,-0.139,-0.09600000000000009,0.10695,0.11352000000000001,0.0,209.10333333333335,209.10000000000002,205.96333333333334,205.96333333333334,0.0,0.0
11,0.0,0.0,0.0,1.0,1.0,0.0,0.0,1.0,0.0,100.0,1.0,1.1856,26.0,0.0,0.0,0.0,59.999996,0.0,26.0,26.0,26.0,26.0,-0.014750000000000001,0.25690000000000013,-0.08533333333333334,290.176,-2.5789,-2.6086666666666667,-1.5438,-1.534,-239.17000000000002,215.885,190.7655,0.0,0.0,0.0,0.0,0.022600000000000002,-5.498166666666667,-5.498166666666667,-0.7666,-0.222,0.0029999999999998916,-0.47300000000000003,66.886,-0.028999999999999915,-0.47709999999999997,-0.027499999999999858,100.0,1.0,1.0,206.60666666666668,0.0,0.0,0.0,0.0,0.0,0.0,0.0,8757.3,0.0,55.0,5.0,240.76999999999998,1.0,0.0,0.0,0.0,0.0,0.0,1.0,0.0,0.5549999999999997,0.5549999999999997,0.0,0.0,1.0,55.0,616.79921,10000.0,85.000001,85.000001,85.000001,85.000001,395.0,0.0,0.0,0.0,1.0,333.33500000000004,43.304,43.304,51.163,51.163,34.0,-29.213333333333335,26.994,-25.936,23.32,0.0,1782.848,-0.22999999999999954,100.0,34.976,34.698,41.028,40.668,0.0,0.0,100.0,0.0,0.0,0.0,0.0,3886.75,3717.4,3668.777777777778,3727.9,303.156,302.8806666666667,316.07625,315.6185,21.9891,20.7232,22.227666666666668,21.528,314.999998,314.999998,324.999988,324.999988,99.56044285714286,99.51005,99.59048571428572,99.55457142857144,0.08574999999999999,-0.1016666666666668,-0.1499999999999999,0.0853333333333337,-0.048749999999998295,-0.046666666666666856,1.643,1.6585,38.432,30.5205,39.923,35.55,57.057,37.1265,67.1825,55.495,55.083,36.1425,65.6385,53.6225,54.375,35.6595,65.7095,52.954,-0.13849999999999996,-0.09349999999999992,0.10686000000000001,0.10649000000000002,0.0,209.48666666666668,209.485,206.60666666666668,206.60666666666668,0.0,0.0
12,0.0,0.0,0.0,1.0,1.0,0.0,0.0,1.0,0.0,100.0,1.0,1.1856,26.0,0.0,0.0,0.0,59.999996,0.0,26.0,26.0,26.0,26.0,-0.011875,0.26,0.014633333333333335,289.658,-2.6355,-2.5966666666666667,-1.5171999999999999,-1.5504444444444443,-235.95,215.875,190.744875,0.0,0.0,0.0,0.0,0.025466666666666665,-5.498166666666667,-5.498166666666667,-0.7559,0.261,-0.003666666666666707,-0.753,67.011,-0.012666666666666604,-0.4521666666666667,-0.13749999999999973,100.0,1.0,1.0,206.82,0.0,0.0,0.0,0.0,0.0,0.0,0.0,8766.3,0.0,55.0,5.0,241.21666666666667,0.0,0.0,0.0,0.0,0.0,0.0,1.0,0.0,0.602999999999998,0.602999999999998,0.0,0.0,0.0,55.0,616.79921,10000.0,85.000001,85.000001,85.000001,85.000001,395.0,0.0,0.0,0.0,1.0,166.665,43.121,43.121,50.14,50.14,34.0,-30.476666666666663,27.034,-28.828,27.164,0.0,1782.801,0.10000000000000053,100.0,34.929,34.907,40.882,40.663,0.0,0.0,100.0,0.0,0.0,0.0,0.0,3920.5,3759.8,4075.1111111111113,3968.1000000000004,303.0713333333333,302.76533333333333,315.12575,315.034,21.9991,20.7296,22.239,21.537,314.999998,314.999998,324.999988,324.999988,99.56045714285715,99.51006666666666,99.59062857142857,99.5547,0.0807500000000001,-0.10466666666666669,-0.1373333333333333,0.11399999999999988,-0.04999999999999716,-0.036666666666668846,1.564,1.5635,38.495000000000005,30.560499999999998,39.994,35.6065,57.055,37.172,67.194,55.54,55.081,36.1845,65.6485,53.666,54.370000000000005,35.6995,65.7165,52.997,-0.12149999999999994,-0.11099999999999999,0.11178500000000001,0.11987,0.0,209.88,209.885,206.82,206.82,0.0,0.0
13,0.0,0.0,0.0,1.0,1.0,0.0,0.0,1.0,0.0,100.0,1.0,1.1856,26.0,0.0,0.0,0.0,59.999996,0.0,26.0,26.0,26.0,26.0,-0.000625,0.2491000000000001,0.04853333333333333,289.246,-2.5993,-2.5983333333333336,-1.5442,-1.5444444444444443,-232.53,215.865,190.723125,0.0,0.0,0.0,0.0,0.02666666666666667,-5.498166666666667,-5.498166666666667,-0.7512,-0.14333333333333334,-0.004444444444444251,1.065,67.141,-0.005999999999999783,-0.4610333333333333,-0.17499999999999982,100.0,1.0,1.0,207.14,0.0,0.0,0.0,0.0,0.0,0.0,0.0,8780.0,0.0,55.0,5.0,241.68666666666667,1.0,0.0,0.0,0.0,0.0,0.0,1.0,0.0,0.6539999999999999,0.6539999999999999,0.0,0.0,1.0,55.0,616.79921,10000.0,85.000001,85.000001,85.000001,85.000001,395.0,0.0,0.0,0.0,1.0,333.33500000000004,42.769999999999996,42.769999999999996,50.003,50.003,34.0,-27.403333333333336,29.516,-28.238,28.836,0.0,1782.749,-0.3200000000000003,100.0,35.504,34.997,41.249,40.995000000000005,0.0,0.0,100.0,0.0,0.0,0.0,0.0,3858.875,3849.8,4037.4444444444443,4144.0,303.063,302.6666666666667,315.089,314.67625,22.009900000000002,20.7365,22.25111111111111,21.5468,314.999998,314.999998,324.999988,324.999988,99.56047142857143,99.51008333333333,99.59077142857143,99.55484285714286,0.12124999999999986,-0.07000000000000006,-0.11833333333333362,0.11800000000000033,-0.04124999999999801,-0.045000000000001705,1.532,1.5194999999999999,38.562,30.603,40.07,35.667,57.054,37.2205,67.2075,55.5905,55.079,36.2295,65.6605,53.715,54.367000000000004,35.7425,65.725,53.045,-0.14600000000000002,-0.09299999999999997,0.11105000000000001,0.09992500000000001,0.0,210.28666666666666,210.275,207.14,207.14,0.0,0.0
14,0.0,0.0,0.0,1.0,1.0,0.0,0.0,1.0,0.0,100.0,1.0,1.1856,26.0,0.0,0.0,0.0,59.999996,0.0,26.0,26.0,26.0,26.0,0.010750000000000001,0.25470000000000015,-0.0008333333333333334,289.368,-2.5938,-2.537777777777778,-1.548,-1.517777777777778,-229.1,215.85500000000002,190.701875,0.0,0.0,0.0,0.0,0.02866666666666667,-5.498166666666667,-5.498166666666667,-0.7643,-0.198,0.017777777777777892,-0.131,67.268,0.004666666666666597,-0.4786,-0.1924999999999999,100.0,1.0,1.0,207.62,0.0,0.0,0.0,0.0,0.0,0.0,0.0,8800.3,0.0,55.0,5.0,242.14666666666665,0.0,0.0,0.0,0.0,0.0,0.0,1.0,0.0,0.7049999999999983,0.7049999999999983,0.0,0.0,0.0,55.0,616.79921,10000.0,85.000001,85.000001,85.000001,85.000001,395.0,0.0,0.0,0.0,1.0,333.33500000000004,42.647999999999996,42.647999999999996,50.201,50.201,34.0,-27.986666666666665,28.154,-26.788,26.516,0.0,1782.697,-0.29499999999999993,100.0,35.415,35.363,41.123000000000005,41.265,0.0,0.0,100.0,0.0,0.0,0.0,0.0,3866.625,3837.7,3904.6666666666665,3962.0,303.209,302.53633333333335,315.4915,315.0485,22.0206,20.7433,22.263222222222222,21.5564,314.999998,314.999998,324.999988,324.999988,99.5605,99.5101,99.59091428571429,99.55497142857143,0.1080000000000001,-0.08333333333333326,-0.1160000000000001,0.1113333333333335,-0.04374999999999574,-0.04333333333332945,1.5710000000000002,1.576,38.629000000000005,30.6455,40.144999999999996,35.7275,57.054,37.2685,67.2195,55.6395,55.078,36.274,65.6705,53.7625,54.364000000000004,35.785,65.7315,53.091499999999996,-0.14200000000000002,-0.09400000000000008,0.10436000000000001,0.10917500000000001,0.0,210.65666666666667,210.675,207.62,207.62,0.0,0.0
15,0.0,0.0,0.0,1.0,1.0,0.0,0.0,1.0,0.0,100.0,1.0,1.1856,26.0,0.0,0.0,0.0,59.999996,0.0,26.0,26.0,26.0,26.0,0.028,0.2574000000000001,-0.016066666666666667,289.291,-2.5994,-2.501555555555556,-1.5691000000000002,-1.467888888888889,-225.87,215.845,190.681625,0.0,0.0,0.0,0.0,0.03056666666666667,-5.498166666666667,-5.498166666666667,-0.7572,0.2713333333333333,0.03988888888888886,-0.427,67.39,0.012166666666666437,-0.4647,-0.26249999999999973,100.0,1.0,1.0,207.96333333333334,0.0,0.0,0.0,0.0,0.0,0.0,0.0,8814.8,0.0,55.0,5.0,242.57999999999998,1.0,0.0,0.0,0.0,0.0,0.0,1.0,0.0,0.7530000000000001,0.7530000000000001,0.0,0.0,1.0,55.0,616.79921,10000.0,85.000001,85.000001,85.000001,85.000001,395.0,0.0,0.0,0.0,1.0,333.33500000000004,42.725,42.725,50.171,50.171,34.0,-26.46,27.968,-26.676000000000002,28.144,0.0,1782.649,-0.2450000000000001,100.0,35.502,35.494,40.964,41.339,0.0,0.0,100.0,0.0,0.0,0.0,0.0,3765.625,3809.4,3914.1111111111113,4124.8,303.5063333333333,302.605,315.49975,314.675,22.0307,20.7498,22.274444444444445,21.5655,314.999998,314.999998,324.999988,324.999988,99.56051428571429,99.5101,99.59104285714285,99.55511428571428,0.12150000000000016,-0.07499999999999996,-0.10666666666666647,0.13033333333333275,-0.038750000000000284,-0.036666666666668846,1.5665,1.565,38.692,30.686,40.216,35.7845,57.053,37.3135,67.229,55.6855,55.078,36.3155,65.6785,53.8075,54.361999999999995,35.825,65.7365,53.1355,-0.14749999999999996,-0.09699999999999998,0.10812500000000001,0.10829000000000001,0.0,211.06,211.065,207.96333333333334,207.96333333333334,0.0,0.0
16,0.0,0.0,0.0,1.0,1.0,0.0,0.0,1.0,0.0,100.0,1.0,1.1856,26.0,0.0,0.0,0.0,59.999996,0.0,26.0,26.0,26.0,26.0,0.006,0.2538,-0.028133333333333333,289.322,-2.6556,-2.5170000000000003,-1.5436,-1.4713333333333334,-222.43,215.83249999999998,190.659625,0.0,0.0,0.0,0.0,0.03256666666666667,-5.498166666666667,-5.498166666666667,-0.7726,-0.6433333333333334,0.028000000000000025,0.234,67.517,0.017333333333333645,-0.4765666666666667,-0.19999999999999973,100.0,1.0,1.0,208.3466666666667,0.0,0.0,0.0,0.0,0.0,0.0,0.0,8831.1,0.0,55.0,5.0,243.04333333333335,0.0,0.0,0.0,0.0,0.0,0.0,1.0,0.0,0.8039999999999985,0.8039999999999985,0.0,0.0,0.0,55.0,616.79921,10000.0,85.000001,85.000001,85.000001,85.000001,395.0,0.0,0.0,0.0,1.0,333.33500000000004,42.769999999999996,42.769999999999996,49.866,49.866,34.0,-26.946666666666665,29.358,-25.716,28.234,0.0,1782.598,-0.1200000000000001,100.0,35.259,35.34,41.35,41.371,0.0,0.0,100.0,0.0,0.0,0.0,0.0,3771.75,3951.9,3863.6666666666665,4027.3,303.4223333333333,302.385,315.53875,314.958,22.0412,20.7567,22.286555555555555,21.5752,314.999998,314.999998,324.999988,324.999988,99.56052857142858,99.51011666666666,99.59118571428571,99.55525714285714,0.12725000000000009,-0.07099999999999995,-0.09966666666666635,0.14833333333333343,-0.038750000000000284,-0.06333333333333258,1.568,1.56,38.757999999999996,30.7295,40.291,35.845,57.05,37.3615,67.242,55.7345,55.074,36.36,65.6895,53.855000000000004,54.357,35.868,65.744,53.1825,-0.13449999999999995,-0.10899999999999999,0.11480000000000001,0.11092500000000001,0.0,211.41666666666666,211.43,208.3466666666667,208.3466666666667,0.0,0.0
17,0.0,0.0,0.0,1.0,1.0,0.0,0.0,1.0,0.0,100.0,1.0,1.1856,26.0,0.0,0.0,0.0,59.999996,0.0,26.0,26.0,26.0,26.0,-0.002625,0.2590000000000001,-0.0103,289.017,-2.6066000000000003,-2.506555555555556,-1.5774,-1.497111111111111,-218.78,215.8225,190.636,0.0,0.0,0.0,0.0,0.03466666666666667,-5.498166666666667,-5.498166666666667,-0.7646,0.3806666666666667,0.00044444444444424747,0.604,67.652,0.014000000000000234,-0.4600666666666666,-0.08250000000000002,100.0,1.0,1.0,208.74666666666667,0.0,0.0,0.0,0.0,0.0,0.0,0.0,8848.0,0.0,55.0,5.0,243.52333333333334,1.0,0.0,0.0,0.0,0.0,0.0,1.0,0.0,0.8580000000000005,0.8580000000000005,0.0,0.0,1.0,55.0,616.79921,10000.0,85.000001,85.000001,85.000001,85.000001,395.0,0.0,0.0,0.0,1.0,166.665,42.480000000000004,42.480000000000004,49.805,49.805,34.0,-27.086666666666666,28.404,-28.426000000000002,28.516,0.0,1782.545,-0.1299999999999999,100.0,35.78,35.515,41.214,41.302,0.0,0.0,100.0,0.0,0.0,0.0,0.0,3850.0,3849.4,4128.666666666667,4109.2,303.1383333333333,302.696,315.01,314.82725,22.052599999999998,20.7641,22.299222222222223,21.5854,314.999998,314.999998,324.999988,324.999988,99.56055714285715,99.51011666666666,99.59134285714286,99.55541428571429,0.12674999999999992,-0.07033333333333314,-0.10233333333333361,0.1349999999999998,-0.02499999999999858,-0.046666666666666856,1.5474999999999999,1.5635,38.829,30.7755,40.370000000000005,35.909,57.051,37.4135,67.253,55.785,55.074,36.408,65.699,53.903999999999996,54.355000000000004,35.914,65.75,53.2305,-0.12649999999999995,-0.1100000000000001,0.11277000000000001,0.10370000000000001,0.0,211.87,211.88,208.74666666666667,208.74666666666667,0.0,0.0
18,0.0,0.0,0.0,1.0,1.0,0.0,0.0,1.0,0.0,100.0,1.0,1.1856,26.0,0.0,0.0,0.0,59.999996,0.0,26.0,26.0,26.0,26.0,-0.01525,0.25260000000000016,-0.0111,288.94,-2.6308,-2.486888888888889,-1.584,-1.4504444444444444,-215.53,215.815,190.614875,0.0,0.0,0.0,0.0,0.03656666666666667,-5.498166666666667,-5.498166666666667,-0.7764,-0.49933333333333335,0.015333333333333199,0.996,67.771,0.012500000000000178,-0.477,-0.07750000000000012,100.0,1.0,1.0,209.10666666666668,0.0,0.0,0.0,0.0,0.0,0.0,0.0,8863.2,0.0,55.0,5.0,243.95333333333335,0.0,0.0,0.0,0.0,0.0,0.0,1.0,0.0,0.9059999999999988,0.9059999999999988,0.0,0.0,0.0,55.0,616.79921,10000.0,85.000001,85.000001,85.000001,85.000001,395.0,0.0,0.0,0.0,1.0,166.665,42.282,42.282,49.728,49.728,34.0,-27.786666666666665,29.378,-27.258,27.328,0.0,1782.497,-0.14499999999999957,100.0,35.632,35.409,41.537,41.56,0.0,0.0,100.0,0.0,0.0,0.0,0.0,3887.625,4029.8,3947.6666666666665,4048.7,303.07033333333334,302.2006666666667,315.38525,314.94275,22.0627,20.7706,22.310666666666666,21.5946,314.999998,314.999998,324.999988,324.999988,99.56055714285715,99.51013333333333,99.59147142857142,99.55554285714285,0.12449999999999983,-0.07466666666666666,-0.10766666666666636,0.133,-0.026249999999997442,-0.060000000000002274,1.5675,1.5665,38.891999999999996,30.816,40.442,35.966499999999996,57.051,37.458,67.2655,55.8315,55.073,36.4495,65.71,53.9495,54.352000000000004,35.9535,65.757,53.275,-0.13249999999999995,-0.10850000000000004,0.11039500000000001,0.10669500000000001,0.0,212.20666666666665,212.22,209.10666666666668,209.10666666666668,0.0,0.0
19,0.0,0.0,0.0,1.0,1.0,0.0,0.0,1.0,0.0,100.0,1.0,1.1856,26.0,0.0,0.0,0.0,59.999996,0.0,26.0,26.0,26.0,26.0,-0.017375,0.26570000000000005,0.0323,288.467,-2.6001000000000003,-2.477444444444444,-1.5954000000000002,-1.4376666666666669,-212.28,215.805,190.593625,0.0,0.0,0.0,0.0,0.03846666666666667,-5.498166666666667,-5.498166666666667,-0.7701,0.8103333333333333,0.02066666666666661,0.744,67.888,0.011833333333333584,-0.46843333333333326,-0.05750000000000011,100.0,1.0,1.0,209.48666666666668,0.0,0.0,0.0,0.0,0.0,0.0,0.0,8879.3,0.0,55.0,5.0,244.37666666666667,1.0,0.0,0.0,0.0,0.0,0.0,1.0,0.0,0.9540000000000006,0.9540000000000006,0.0,0.0,1.0,55.0,616.79921,10000.0,85.000001,85.000001,85.000001,85.000001,395.0,0.0,0.0,0.0,1.0,166.665,41.55,41.55,49.667,49.667,34.0,-27.936666666666664,29.404,-28.48,28.36,0.0,1782.45,-0.10499999999999954,100.0,36.272,35.936,41.353,41.531,0.0,0.0,100.0,0.0,0.0,0.0,0.0,3938.375,4057.0,4056.4444444444443,4206.0,302.819,302.01,315.194,314.62925,22.0729,20.7773,22.32188888888889,21.6037,314.999998,314.999998,324.999988,324.999988,99.56058571428571,99.51015,99.5916,99.55568571428572,0.12449999999999983,-0.07866666666666666,-0.1113333333333335,0.13266666666666715,-0.03750000000000142,-0.061666666666667425,1.5554999999999999,1.5585,38.955,30.858,40.512,36.022999999999996,57.052,37.506,67.2745,55.876999999999995,55.074,36.4935,65.7175,53.9935,54.351,35.996,65.7615,53.318,-0.13249999999999995,-0.1180000000000001,0.10433500000000001,0.11261000000000002,0.0,212.59666666666666,212.625,209.48666666666668,209.48666666666668,0.0,0.0
20,0.0,0.0,0.0,1.0,1.0,0.0,0.0,1.0,0.0,100.0,1.0,1.1856,26.0,0.0,0.0,0.0,59.999996,0.0,26.0,26.0,26.0,26.0,0.00575,0.24629999999999996,-0.010433333333333333,288.635,-2.6452,-2.539888888888889,-1.5206,-1.5605555555555557,-208.81,215.79500000000002,190.571375,0.0,0.0,0.0,0.0,0.04046666666666667,-5.498166666666667,-5.498166666666667,-0.7694,-1.0013333333333334,0.016000000000000014,-0.968,68.016,0.009166666666666767,-0.4781333333333333,0.009999999999999787,100.0,1.0,1.0,209.73000000000002,0.0,0.0,0.0,0.0,0.0,0.0,0.0,8889.7,0.0,55.0,5.0,244.83666666666664,0.0,0.0,0.0,0.0,0.0,0.0,0.0,0.0,1.004999999999999,1.004999999999999,0.0,0.0,0.0,55.0,616.79921,10000.0,85.000001,85.000001,85.000001,85.000001,395.0,0.0,0.0,0.0,1.0,333.33500000000004,42.603,42.603,48.874,48.874,34.0,-27.256666666666664,27.036,-28.08,29.558,0.0,1782.398,-0.09499999999999975,100.0,35.685,35.88,41.931,42.09,0.0,0.0,100.0,0.0,0.0,0.0,0.0,3771.25,3757.6000000000004,4121.444444444444,4122.5,303.59066666666666,302.78166666666664,314.9625,314.5205,22.0833,20.7842,22.334,21.6135,314.999998,314.999998,324.999988,324.999988,99.56061428571428,99.51016666666666,99.59175714285715,99.55582857142858,0.11624999999999996,-0.09266666666666667,-0.10699999999999976,0.12300000000000022,-0.04374999999999574,-0.026666666666670835,1.5105,1.5,39.021,30.901,40.588,36.0845,57.05,37.554,67.289,55.928,55.071,36.5385,65.7305,54.043,54.346000000000004,36.039,65.771,53.3665,-0.13549999999999995,-0.11299999999999999,0.10919000000000001,0.110325,0.0,212.96,212.965,209.73000000000002,209.73000000000002,0.0,0.0
21,0.0,0.0,0.0,1.0,1.0,0.0,0.0,1.0,0.0,100.0,1.0,1.1856,26.0,0.0,0.0,0.0,59.999996,0.0,26.0,26.0,26.0,26.0,0.007625,0.24429999999999996,-0.07066666666666667,289.078,-2.5543,-2.599555555555556,-1.5852,-1.5224444444444443,-205.54,215.7875,190.549875,0.0,0.0,0.0,0.0,0.04236666666666667,-5.498166666666667,-5.498166666666667,-0.7968999999999999,0.2866666666666667,-0.002777777777777768,-0.937,68.128,0.005166666666666764,-0.4867666666666667,0.04999999999999982,100.0,1.0,1.0,210.35333333333335,0.0,0.0,0.0,0.0,0.0,0.0,0.0,8916.0,0.0,55.0,5.0,245.24333333333334,1.0,0.0,0.0,0.0,0.0,0.0,0.0,0.0,1.0530000000000008,1.0530000000000008,0.0,0.0,1.0,55.0,616.79921,10000.0,85.000001,85.000001,85.000001,85.000001,395.0,0.0,0.0,0.0,1.0,166.665,42.068,42.068,50.308,50.308,34.0,-27.976666666666663,28.242,-26.458,25.15,0.0,1782.351,-0.14499999999999957,100.0,35.949,35.952,41.379,41.626,0.0,0.0,100.0,0.0,0.0,0.0,0.0,3954.375,3774.8,3859.3333333333335,3805.9,302.943,302.6836666666667,315.71225,315.49875,22.0934,20.7908,22.345111111111112,21.6225,314.999998,314.999998,324.999988,324.999988,99.56062857142857,99.51018333333333,99.59188571428571,99.55595714285714,0.11324999999999985,-0.08699999999999997,-0.11433333333333362,0.11300000000000043,-0.03249999999999886,-0.05666666666667197,1.6320000000000001,1.6235,39.084,30.9425,40.657,36.1405,57.05,37.601,67.29599999999999,55.9705,55.071,36.5815,65.736,54.084,54.344,36.08,65.7735,53.407,-0.133,-0.11050000000000004,0.10594,0.10398500000000001,0.0,213.35000000000002,213.35000000000002,210.35333333333335,210.35333333333335,0.0,0.0
22,0.0,0.0,0.0,1.0,1.0,0.0,0.0,1.0,0.0,100.0,1.0,1.1856,26.0,0.0,0.0,0.0,59.999996,0.0,26.0,26.0,26.0,26.0,0.010750000000000001,0.2391000000000001,-0.0023,288.544,-2.5338000000000003,-2.6035555555555554,-1.5807,-1.5082222222222221,-202.06,215.7775,190.52625,0.0,0.0,0.0,0.0,0.0444,-5.498166666666667,-5.498166666666667,-0.778,0.15533333333333335,0.010222222222222133,1.281,68.255,0.004833333333333467,-0.46709999999999996,-0.07499999999999973,100.0,1.0,1.0,210.5366666666667,0.0,0.0,0.0,0.0,0.0,0.0,0.0,8923.8,0.0,55.0,5.0,245.7,0.0,0.0,0.0,0.0,0.0,0.0,0.0,0.0,1.1039999999999992,1.1039999999999992,0.0,0.0,0.0,55.0,616.79921,10000.0,85.000001,85.000001,85.000001,85.000001,395.0,0.0,0.0,0.0,1.0,333.33500000000004,42.022999999999996,42.022999999999996,49.24,49.24,34.0,-25.776666666666664,29.322,-28.656,28.942,0.0,1782.299,-0.17499999999999982,100.0,36.246,35.927,41.748000000000005,41.682,0.0,0.0,100.0,0.0,0.0,0.0,0.0,3739.375,3905.1000000000004,4051.6666666666665,4179.5,303.34833333333336,302.40233333333333,315.14425,314.6705,22.104,20.7978,22.35711111111111,21.6322,314.999998,314.999998,324.999988,324.999988,99.56064285714285,99.5102,99.59202857142857,99.5561,0.12150000000000016,-0.08633333333333315,-0.11466666666666647,0.1263333333333332,-0.015000000000000568,-0.06666666666666998,1.5225,1.5350000000000001,39.15,30.9865,40.732,36.201499999999996,57.05,37.65,67.3095,56.019,55.071,36.627,65.748,54.1315,54.342,36.1235,65.7815,53.4535,-0.13549999999999995,-0.11050000000000004,0.10840000000000001,0.11097000000000001,0.0,213.71,213.75,210.5366666666667,210.5366666666667,0.0,0.0
23,0.0,0.0,0.0,1.0,1.0,0.0,0.0,1.0,0.0,100.0,1.0,1.1856,26.0,0.0,0.0,0.0,59.999996,0.0,26.0,26.0,26.0,26.0,0.007,0.24029999999999996,-0.0085,288.589,-2.568,-2.552777777777778,-1.6311,-1.5722222222222222,-198.38,215.76749999999998,190.5015,0.0,0.0,0.0,0.0,0.046533333333333336,-5.498166666666667,-5.498166666666667,-0.7969999999999999,-0.2803333333333333,0.007111111111111068,0.501,68.384,0.005666666666666487,-0.49239999999999995,-0.009999999999999787,100.0,1.0,1.0,211.0366666666667,0.0,0.0,0.0,0.0,0.0,0.0,0.0,8945.1,0.0,55.0,5.0,246.16666666666666,1.0,0.0,0.0,0.0,0.0,0.0,0.0,0.0,1.1580000000000013,1.1580000000000013,0.0,0.0,1.0,55.0,616.79921,10000.0,85.000001,85.000001,85.000001,85.000001,395.0,0.0,0.0,0.0,1.0,166.665,41.473,41.473,50.232,50.232,34.0,-28.14,29.41,-26.823999999999998,27.256,0.0,1782.246,-0.14499999999999957,100.0,36.391,36.022,41.808,41.921,0.0,0.0,100.0,0.0,0.0,0.0,0.0,4043.5,3946.1000000000004,3810.1111111111113,3882.9,302.6213333333333,302.3786666666667,315.8055,315.2585,22.1152,20.8053,22.369777777777777,21.6426,314.999998,314.999998,324.999988,324.999988,99.56065714285714,99.5102,99.59217142857143,99.55625714285715,0.12700000000000022,-0.07833333333333314,-0.11299999999999999,0.1263333333333332,-0.045000000000001705,-0.045000000000001705,1.5745,1.5859999999999999,39.22,31.033,40.811,36.266,57.051,37.702,67.321,56.0715,55.07,36.6755,65.758,54.182,54.34,36.17,65.7875,53.503,-0.13449999999999995,-0.11149999999999993,0.10831500000000001,0.11036000000000001,0.0,214.11333333333334,214.10000000000002,211.0366666666667,211.0366666666667,0.0,0.0
24,0.0,0.0,0.0,1.0,1.0,0.0,0.0,1.0,0.0,100.0,1.0,1.1856,26.0,0.0,0.0,0.0,59.999996,0.0,26.0,26.0,26.0,26.0,-0.015,0.2593000000000001,-0.04916666666666667,288.757,-2.5924,-2.5605555555555557,-1.5537,-1.5132222222222222,-195.09,215.76,190.479125,0.0,0.0,0.0,0.0,0.048433333333333335,-5.498166666666667,-5.498166666666667,-0.802,-0.4446666666666667,0.018888888888888955,1.18,68.501,0.008333333333333748,-0.4823333333333333,-0.13749999999999973,100.0,1.0,1.0,211.3,0.0,0.0,0.0,0.0,0.0,0.0,0.0,8956.3,0.0,55.0,5.0,246.58333333333334,0.0,0.0,0.0,0.0,0.0,0.0,0.0,0.0,1.2059999999999995,1.2059999999999995,0.0,0.0,0.0,55.0,616.79921,10000.0,85.000001,85.000001,85.000001,85.000001,395.0,0.0,0.0,0.0,1.0,166.665,42.496,42.496,49.286,49.286,34.0,-25.72,27.86,-28.408,27.89,0.0,1782.198,-0.17999999999999972,100.0,36.172,35.784,41.813,41.851,0.0,0.0,100.0,0.0,0.0,0.0,0.0,3687.375,3811.4,4092.1111111111113,4045.1000000000004,303.608,302.82966666666664,315.0075,314.96125,22.1251,20.811799999999998,22.381,21.651699999999998,314.999998,314.999998,324.999988,324.999988,99.56067142857142,99.51021666666666,99.59231428571428,99.5564,0.1259999999999999,-0.08633333333333315,-0.11066666666666647,0.12666666666666693,-0.03125,-0.054999999999999716,1.548,1.557,39.282,31.073999999999998,40.881,36.323,57.05,37.7475,67.332,56.1165,55.069,36.7175,65.767,54.226,54.337,36.21,65.793,53.546,-0.13749999999999996,-0.11149999999999993,0.10636000000000001,0.10409,0.0,214.48333333333335,214.47,211.3,211.3,0.0,0.0
25,0.0,0.0,0.0,1.0,1.0,0.0,0.0,1.0,0.0,100.0,1.0,1.1856,26.0,0.0,0.0,0.0,59.999996,0.0,26.0,26.0,26.0,26.0,0.009000000000000001,0.2419,-0.06763333333333334,288.803,-2.6651,-2.518222222222222,-1.5702,-1.513111111111111,-191.8,215.7525,190.4555,0.0,0.0,0.0,0.0,0.05036666666666667,-5.498166666666667,-5.498166666666667,-0.8309,-0.20433333333333334,0.02544444444444438,0.279,68.614,0.008333333333333748,-0.48993333333333333,-0.125,100.0,1.0,1.0,211.77666666666667,0.0,0.0,0.0,0.0,0.0,0.0,0.0,8976.5,0.0,55.0,5.0,246.99,1.0,0.0,0.0,0.0,0.0,0.0,0.0,0.0,1.2540000000000013,1.2540000000000013,0.0,0.0,1.0,55.0,616.79921,10000.0,85.000001,85.000001,85.000001,85.000001,395.0,0.0,0.0,0.0,1.0,166.665,41.778999999999996,41.778999999999996,49.942,49.942,34.0,-28.633333333333333,30.036,-25.268,27.222,0.0,1782.149,-0.21499999999999986,100.0,35.979,35.975,41.576,41.668,0.0,0.0,100.0,0.0,0.0,0.0,0.0,3922.125,4073.7,3782.1111111111113,3925.4,303.066,302.04366666666664,315.80825,315.258,22.134900000000002,20.8185,22.392111111111113,21.6607,314.999998,314.999998,324.999988,324.999988,99.5607,99.51023333333333,99.59245714285714,99.55652857142857,0.12124999999999986,-0.07800000000000007,-0.10133333333333328,0.13833333333333275,-0.04124999999999801,-0.045000000000001705,1.611,1.608,39.343,31.115499999999997,40.951,36.3795,57.049,37.7935,67.34,56.1595,55.067,36.76,65.774,54.268,54.333,36.251,65.797,53.587,-0.13649999999999995,-0.11250000000000004,0.10247500000000001,0.114665,0.0,214.81666666666666,214.815,211.77666666666667,211.77666666666667,0.0,0.0
26,0.0,0.0,0.0,1.0,1.0,0.0,0.0,1.0,0.0,100.0,1.0,1.1856,26.0,0.0,0.0,0.0,59.999996,0.0,26.0,26.0,26.0,26.0,0.00475,0.27080000000000015,0.07343333333333334,287.628,-2.6173,-2.588888888888889,-1.6176,-1.5047777777777778,-188.3,215.7425,190.42975,0.0,0.0,0.0,0.0,0.0524,-5.498166666666667,-5.498166666666667,-0.7994,0.7566666666666666,0.005222222222222239,-0.885,68.738,0.0086666666666666,-0.46596666666666664,-0.0674999999999999,100.0,1.0,1.0,211.92666666666668,0.0,0.0,0.0,0.0,0.0,0.0,0.0,8982.8,0.0,55.0,5.0,247.43666666666667,0.0,0.0,0.0,0.0,0.0,0.0,0.0,0.0,1.3049999999999997,1.3049999999999997,0.0,0.0,0.0,55.0,616.79921,10000.0,85.000001,85.000001,85.000001,85.000001,395.0,0.0,0.0,0.0,1.0,333.33500000000004,40.924,40.924,48.599000000000004,48.599000000000004,34.0,-28.56,29.252000000000002,-31.866,29.810000000000002,0.0,1782.097,-0.27499999999999947,100.0,36.787,36.829,41.76,42.022,0.0,0.0,100.0,0.0,0.0,0.0,0.0,4052.625,3894.9,4378.555555555556,4279.9,302.677,302.23533333333336,314.52125,314.33825,22.1456,20.8257,22.404,21.6705,314.999998,314.999998,324.999988,324.999988,99.56072857142857,99.51025,99.5926,99.55668571428572,0.13074999999999992,-0.08733333333333326,-0.1123333333333334,0.12233333333333274,-0.03999999999999915,-0.045000000000001705,1.487,1.5070000000000001,39.41,31.161,41.025,36.4405,57.052,37.845,67.35249999999999,56.209,55.07,36.8075,65.7845,54.316,54.334,36.2965,65.8035,53.634,-0.14849999999999997,-0.10899999999999999,0.10768000000000001,0.10493500000000001,0.0,215.24666666666667,215.245,211.92666666666668,211.92666666666668,0.0,0.0
27,0.0,0.0,0.0,1.0,1.0,0.0,0.0,1.0,0.0,100.0,1.0,1.1856,26.0,0.0,0.0,0.0,59.999996,0.0,26.0,26.0,26.0,26.0,0.016625,0.22209999999999996,-0.006933333333333333,287.979,-2.576,-2.5598888888888887,-1.6058,-1.5782222222222222,-184.79,215.735,190.405375,0.0,0.0,0.0,0.0,0.05443333333333334,-5.498166666666667,-5.498166666666667,-0.8198,-1.0373333333333332,0.0086666666666666,0.6880000000000001,68.858,0.013333333333333641,-0.5092333333333332,-0.27749999999999986,100.0,1.0,1.0,212.36,0.0,0.0,0.0,0.0,0.0,0.0,0.0,9001.1,0.0,55.0,5.0,247.87333333333333,1.0,0.0,0.0,0.0,0.0,0.0,0.0,0.0,1.355999999999998,1.355999999999998,0.0,0.0,1.0,55.0,616.79921,10000.0,85.000001,85.000001,85.000001,85.000001,395.0,0.0,0.0,0.0,1.0,166.665,41.412,41.412,48.721000000000004,48.721000000000004,34.0,-25.776666666666664,30.174,-27.462,28.894,0.0,1782.048,-0.28500000000000014,100.0,36.695,36.533,42.565,42.548,0.0,0.0,100.0,0.0,0.0,0.0,0.0,3810.375,3976.9,3965.5555555555557,3991.8,303.2366666666667,302.305,315.30825,314.98875,22.1561,20.8328,22.41611111111111,21.6804,314.999998,314.999998,324.999988,324.999988,99.56074285714286,99.51026666666667,99.59274285714285,99.55682857142857,0.1392500000000001,-0.07133333333333325,-0.09766666666666657,0.1323333333333334,-0.04124999999999801,-0.04999999999999716,1.536,1.5175,39.476,31.2055,41.101,36.5025,57.053,37.894,67.3665,56.2595,55.07,36.853,65.7965,54.365,54.332,36.34,65.812,53.682,-0.14600000000000002,-0.10650000000000004,0.10994500000000001,0.09999500000000001,0.0,215.56666666666666,215.565,212.36,212.36,0.0,0.0
28,0.0,0.0,0.0,1.0,1.0,0.0,0.0,1.0,0.0,100.0,1.0,1.1856,26.0,0.0,0.0,0.0,59.999996,0.0,26.0,26.0,26.0,26.0,0.017875000000000002,0.2371000000000001,-0.05603333333333334,288.269,-2.593,-2.554777777777778,-1.5510000000000002,-1.543111111111111,-181.48000000000002,215.72750000000002,190.381625,0.0,0.0,0.0,0.0,0.05636666666666666,-5.498166666666667,-5.498166666666667,-0.8326,0.5023333333333333,0.0015555555555555323,0.752,68.968,0.020166666666666444,-0.49526666666666663,-0.2749999999999999,100.0,1.0,1.0,212.87,0.0,0.0,0.0,0.0,0.0,0.0,0.0,9022.8,0.0,55.0,5.0,248.26666666666665,0.0,0.0,0.0,0.0,0.0,0.0,0.0,0.0,1.404,1.404,0.0,0.0,0.0,55.0,616.79921,10000.0,85.000001,85.000001,85.000001,85.000001,395.0,0.0,0.0,0.0,1.0,333.33500000000004,41.199,41.199,49.789,49.789,34.0,-26.826666666666664,29.96,-25.026,28.458,0.0,1781.999,-0.2400000000000002,100.0,36.811,36.533,41.891,42.042,0.0,0.0,100.0,0.0,0.0,0.0,0.0,3940.5,3970.8,3832.0,3942.8,302.877,302.29766666666666,315.69575,315.237,22.1661,20.8396,22.42711111111111,21.6894,314.999998,314.999998,324.999988,324.999988,99.56075714285714,99.51028333333333,99.59288571428571,99.55695714285714,0.1419999999999999,-0.07333333333333325,-0.09166666666666634,0.15166666666666728,-0.04999999999999716,-0.061666666666667425,1.6005,1.5869999999999997,39.538,31.247500000000002,41.169,36.559,57.054,37.9405,67.373,56.301,55.071,36.8965,65.80199999999999,54.4055,54.331,36.3815,65.814,53.7215,-0.15249999999999997,-0.10850000000000004,0.108685,0.11302500000000001,0.0,215.95,215.95,212.87,212.87,0.0,0.0
29,0.0,0.0,0.0,1.0,1.0,0.0,0.0,1.0,0.0,100.0,1.0,1.1856,26.0,0.0,0.0,0.0,59.999996,0.0,26.0,26.0,26.0,26.0,0.023875,0.23460000000000014,0.0414,287.85699999999997,-2.5589,-2.5892222222222223,-1.5559,-1.5246666666666668,-177.95999999999998,215.72,190.3555,0.0,0.0,0.0,0.0,0.0584,-5.498166666666667,-5.498166666666667,-0.8286,-0.6396666666666666,0.00822222222222213,-0.631,69.092,0.023666666666666725,-0.4840333333333333,-0.25749999999999984,100.0,1.0,1.0,213.01,0.0,0.0,0.0,0.0,0.0,0.0,0.0,9028.7,0.0,55.0,5.0,248.71,1.0,0.0,0.0,0.0,0.0,0.0,0.0,0.0,1.4549999999999983,1.4549999999999983,0.0,0.0,1.0,55.0,616.79921,10000.0,85.000001,85.000001,85.000001,85.000001,395.0,0.0,0.0,0.0,1.0,166.665,41.351,41.351,48.522999999999996,48.522999999999996,34.0,-26.673333333333336,30.088,-28.654,29.686,0.0,1781.949,-0.23499999999999943,100.0,36.308,36.561,42.111000000000004,42.429,0.0,0.0,100.0,0.0,0.0,0.0,0.0,3954.875,3949.1000000000004,4181.111111111111,4137.6,302.994,302.094,314.88375,314.639,22.1765,20.8467,22.439,21.6992,314.999998,314.999998,324.999988,324.999988,99.56077142857143,99.51028333333333,99.59302857142858,99.55711428571429,0.13624999999999998,-0.08099999999999996,-0.0993333333333335,0.1349999999999998,-0.04999999999999716,-0.04333333333332945,1.5115,1.4929999999999999,39.602999999999994,31.292,41.244,36.62,57.054,37.989,67.386,56.3505,55.07,36.941,65.813,54.454,54.328,36.4245,65.8215,53.7685,-0.14749999999999996,-0.11099999999999999,0.1091,0.10040500000000001,0.0,216.30333333333334,216.29500000000002,213.01,213.01,0.0,0.0
30,0.0,0.0,0.0,1.0,1.0,0.0,0.0,1.0,0.0,100.0,1.0,1.1856,26.0,0.0,0.0,0.0,59.999996,0.0,26.0,26.0,26.0,26.0,0.03825,0.24890000000000012,0.0591,287.354,-2.6123000000000003,-2.4763333333333333,-1.5319,-1.5746666666666669,-174.64,215.7125,190.330625,0.0,0.0,0.0,0.0,0.06033333333333334,-5.498166666666667,-5.498166666666667,-0.838,0.5633333333333334,0.0038888888888888307,-0.9580000000000001,69.202,0.02516666666666678,-0.4972,-0.25249999999999995,100.0,1.0,1.0,213.44333333333333,0.0,0.0,0.0,0.0,0.0,0.0,0.0,9047.1,0.0,55.0,5.0,249.10666666666668,0.0,0.0,0.0,0.0,0.0,0.0,1.0,0.0,1.5030000000000001,1.5030000000000001,0.0,0.0,0.0,55.0,616.79921,10000.0,85.000001,85.000001,85.000001,85.000001,395.0,0.0,0.0,0.0,1.0,333.33500000000004,40.024,40.024,48.996,48.996,34.0,-29.48,29.567999999999998,-26.666,30.114,0.0,1781.9,-0.2649999999999997,100.0,37.079,37.35,41.943,42.466,0.0,0.0,100.0,0.0,0.0,0.0,0.0,4231.0,4069.7,4040.8888888888887,4086.4,302.28133333333335,301.65866666666665,315.24225,314.70875,22.1866,20.8536,22.450111111111113,21.7084,314.999998,314.999998,324.999988,324.999988,99.5608,99.5103,99.59315714285714,99.55725714285714,0.13600000000000012,-0.08399999999999985,-0.09299999999999997,0.14066666666666716,-0.03499999999999659,-0.03499999999999659,1.549,1.5350000000000001,39.666,31.3355,41.313,36.6775,57.058,38.0375,67.394,56.3955,55.073,36.9865,65.82,54.4975,54.33,36.468,65.825,53.8115,-0.15449999999999997,-0.119,0.105035,0.11116000000000001,0.0,216.63333333333333,216.675,213.44333333333333,213.44333333333333,0.0,0.0
31,0.0,0.0,0.0,1.0,1.0,0.0,0.0,1.0,0.0,100.0,1.0,1.1856,26.0,0.0,0.0,0.0,59.999996,0.0,26.0,26.0,26.0,26.0,0.02225,0.23750000000000004,0.04286666666666667,287.216,-2.5986000000000002,-2.565888888888889,-1.6133000000000002,-1.4743333333333333,-171.11,215.70749999999998,190.304875,0.0,0.0,0.0,0.0,0.062400000000000004,-5.498166666666667,-5.498166666666667,-0.8164,-0.396,0.012111111111110962,0.531,69.322,0.025833333333333375,-0.4923666666666666,-0.2974999999999999,100.0,1.0,1.0,213.65333333333334,0.0,0.0,0.0,0.0,0.0,0.0,0.0,9056.0,0.0,55.0,5.0,249.54000000000002,1.0,0.0,0.0,0.0,0.0,0.0,1.0,0.0,1.5539999999999985,1.5539999999999985,0.0,0.0,1.0,55.0,616.79921,10000.0,85.000001,85.000001,85.000001,85.000001,395.0,0.0,0.0,0.0,1.0,166.665,40.894,40.894,47.607,47.607,34.0,-25.066666666666663,31.268,-29.758,31.002000000000002,0.0,1781.85,-0.29000000000000004,100.0,37.177,37.211,42.676,43.004000000000005,0.0,0.0,100.0,0.0,0.0,0.0,0.0,3765.5,4057.8,4280.555555555556,4247.3,303.3906666666667,302.122,314.58025,314.3985,22.1972,20.8609,22.46211111111111,21.7183,314.999998,314.999998,324.999988,324.999988,99.56082857142857,99.51031666666667,99.5933,99.5574,0.15050000000000008,-0.06499999999999995,-0.08499999999999996,0.15300000000000047,-0.02499999999999858,-0.054999999999999716,1.484,1.4594999999999998,39.732,31.381,41.388,36.7395,57.061,38.088499999999996,67.4075,56.4465,55.075,37.033500000000004,65.832,54.547,54.329,36.513,65.833,53.86,-0.15000000000000002,-0.10749999999999993,0.10845500000000001,0.10953,0.0,217.01333333333332,217.04500000000002,213.65333333333334,213.65333333333334,0.0,0.0
32,0.0,0.0,0.0,1.0,1.0,0.0,0.0,1.0,0.0,100.0,1.0,1.1856,26.0,0.0,0.0,0.0,59.999996,0.0,26.0,26.0,26.0,26.0,0.020375,0.246,-0.07866666666666666,287.598,-2.6032,-2.570333333333333,-1.6238000000000001,-1.4835555555555557,-167.36,215.7025,190.278,0.0,0.0,0.0,0.0,0.06456666666666666,-5.498166666666667,-5.498166666666667,-0.8355,-0.029333333333333333,-0.013111111111111295,0.14,69.444,0.028666666666666618,-0.5054666666666667,-0.3424999999999998,100.0,1.0,1.0,214.21666666666667,0.0,0.0,0.0,0.0,0.0,0.0,0.0,9079.8,0.0,55.0,5.0,249.98000000000002,0.0,0.0,0.0,0.0,0.0,0.0,1.0,0.0,1.6080000000000005,1.6080000000000005,0.0,0.0,0.0,55.0,616.79921,10000.0,85.000001,85.000001,85.000001,85.000001,395.0,0.0,0.0,0.0,1.0,166.665,40.71,40.71,48.782,48.782,34.0,-26.396666666666665,30.426000000000002,-27.058,28.746000000000002,0.0,1781.796,-0.2549999999999999,100.0,37.13,37.228,42.462,42.743,0.0,0.0,100.0,0.0,0.0,0.0,0.0,3949.75,3975.2,4017.1111111111113,4072.0,302.894,302.26866666666666,315.34625,314.97925,22.2083,20.8687,22.474666666666668,21.7286,314.999998,314.999998,324.999988,324.999988,99.56085714285715,99.51031666666667,99.59345714285715,99.55755714285715,0.15225,-0.07000000000000006,-0.08299999999999974,0.15000000000000036,-0.03125,-0.04999999999999716,1.5750000000000002,1.5745,39.802,31.429000000000002,41.466,36.804,57.063,38.1415,67.4175,56.4955,55.077,37.082499999999996,65.8405,54.595,54.329,36.56,65.8375,53.9065,-0.15400000000000003,-0.1120000000000001,0.107825,0.10132500000000001,0.0,217.38666666666666,217.405,214.21666666666667,214.21666666666667,0.0,0.0
33,0.0,0.0,0.0,1.0,1.0,0.0,0.0,1.0,0.0,100.0,1.0,1.1856,26.0,0.0,0.0,0.0,59.999996,0.0,26.0,26.0,26.0,26.0,0.0365,0.23270000000000013,-0.0235,287.735,-2.6085000000000003,-2.546666666666667,-1.5945,-1.5663333333333334,-164.23000000000002,215.6975,190.25475,0.0,0.0,0.0,0.0,0.0664,-5.498166666666667,-5.498166666666667,-0.8436,-0.27366666666666667,-0.015666666666666718,-0.17300000000000001,69.548,0.029666666666666508,-0.497,-0.23749999999999982,100.0,1.0,1.0,214.5,0.0,0.0,0.0,0.0,0.0,0.0,0.0,9091.9,0.0,55.0,5.0,250.35333333333335,1.0,0.0,0.0,0.0,0.0,0.0,1.0,0.0,1.6529999999999987,1.6529999999999987,0.0,0.0,1.0,55.0,616.79921,10000.0,85.000001,85.000001,85.000001,85.000001,395.0,0.0,0.0,0.0,1.0,166.665,41.092,41.092,48.751999999999995,48.751999999999995,34.0,-27.099999999999998,29.284,-28.08,29.34,0.0,1781.75,-0.25,100.0,36.915,37.123000000000005,42.309,42.763,0.0,0.0,100.0,0.0,0.0,0.0,0.0,3936.25,3870.9,4082.6666666666665,4033.2,303.1476666666667,302.477,315.18925,314.96075,22.2176,20.8749,22.485,21.7372,314.999998,314.999998,324.999988,324.999988,99.56087142857143,99.51033333333334,99.59358571428571,99.55768571428571,0.13600000000000012,-0.07166666666666677,-0.09766666666666657,0.14133333333333287,-0.04625000000000057,-0.046666666666666856,1.542,1.5465,39.86,31.4685,41.531,36.8575,57.065,38.1835,67.4265,56.5375,55.078,37.1215,65.8475,54.6355,54.328,36.5975,65.8415,53.946,-0.14649999999999996,-0.10949999999999993,0.10916000000000001,0.10500500000000001,0.0,217.73000000000002,217.70499999999998,214.5,214.5,0.0,0.0
34,0.0,0.0,0.0,1.0,1.0,0.0,0.0,1.0,0.0,100.0,1.0,1.1856,26.0,0.0,0.0,0.0,59.999996,0.0,26.0,26.0,26.0,26.0,0.025750000000000002,0.23140000000000005,-0.05486666666666667,287.933,-2.6394,-2.4893333333333336,-1.6246,-1.5305555555555557,-160.47,215.695,190.2255,0.0,0.0,0.0,0.0,0.06856666666666666,-5.498166666666667,-5.498166666666667,-0.8685,-0.745,0.011888888888888838,-0.322,69.67099999999999,0.030166666666666675,-0.5005999999999999,-0.17999999999999972,100.0,1.0,1.0,214.87333333333333,0.0,0.0,0.0,0.0,0.0,0.0,0.0,9107.7,0.0,55.0,5.0,250.79666666666668,0.0,0.0,0.0,0.0,0.0,0.0,1.0,0.0,1.7070000000000007,1.7070000000000007,0.0,0.0,0.0,55.0,616.79921,10000.0,85.000001,85.000001,85.000001,85.000001,395.0,0.0,0.0,0.0,1.0,166.665,41.29,41.29,49.454,49.454,34.0,-28.4,28.198,-27.226,29.35,0.0,1781.697,-0.22499999999999964,100.0,36.626,36.754,42.127,42.806,0.0,0.0,100.0,0.0,0.0,0.0,0.0,4034.875,3850.2,3971.3333333333335,4057.4,302.88166666666666,302.592,315.47275,314.84825,22.2287,20.8825,22.497444444444444,21.7476,314.999998,314.999998,324.999988,324.999988,99.5609,99.51035,99.59374285714286,99.55784285714286,0.13375000000000004,-0.07433333333333314,-0.09233333333333338,0.14400000000000013,-0.042499999999996874,-0.023333333333326323,1.552,1.5354999999999999,39.929,31.5155,41.608999999999995,36.922,57.066,38.2335,67.4355,56.588499999999996,55.079,37.168,65.855,54.685,54.327,36.641999999999996,65.845,53.9945,-0.14700000000000002,-0.1140000000000001,0.103415,0.10644500000000001,0.0,218.09,218.085,214.87333333333333,214.87333333333333,0.0,0.0
35,0.0,0.0,0.0,1.0,1.0,0.0,0.0,1.0,0.0,100.0,1.0,1.1856,26.0,0.0,0.0,0.0,59.999996,0.0,26.0,26.0,26.0,26.0,0.018625,0.24209999999999998,-0.07100000000000001,288.101,-2.6684,-2.4963333333333333,-1.5276,-1.4814444444444443,-157.13,215.6925,190.19775,0.0,0.0,0.0,0.0,0.07050000000000001,-5.498166666666667,-5.498166666666667,-0.9097999999999999,-0.6156666666666667,0.0012222222222222356,-1.084,69.78,0.03166666666666673,-0.5106666666666666,-0.24249999999999972,100.0,1.0,1.0,215.26666666666665,0.0,0.0,0.0,0.0,0.0,0.0,0.0,9124.4,0.0,55.0,5.0,251.19,1.0,0.0,0.0,0.0,0.0,0.0,1.0,0.0,1.754999999999999,1.754999999999999,0.0,0.0,1.0,55.0,616.79921,10000.0,85.000001,85.000001,85.000001,85.000001,395.0,0.0,0.0,0.0,1.0,166.665,41.245,41.245,48.874,48.874,34.0,-27.513333333333335,30.056,-25.936,26.712,0.0,1781.649,-0.16999999999999993,100.0,36.423,36.924,41.972,42.33,0.0,0.0,100.0,0.0,0.0,0.0,0.0,3920.5,4058.0,3973.777777777778,3860.1000000000004,303.273,301.915,315.3615,315.4355,22.2383,20.8893,22.508333333333333,21.7566,314.999998,314.999998,324.999988,324.999988,99.56091428571429,99.51036666666667,99.59388571428572,99.55798571428572,0.1382500000000002,-0.07533333333333325,-0.09200000000000008,0.14566666666666706,-0.05375000000000085,-0.03999999999999915,1.595,1.5939999999999999,39.989000000000004,31.558,41.677,36.9785,57.065,38.278999999999996,67.4435,56.629999999999995,55.077,37.210499999999996,65.8615,54.7255,54.323,36.6825,65.848,54.0345,-0.14,-0.11549999999999994,0.110865,0.101805,0.0,218.42000000000002,218.41500000000002,215.26666666666665,215.26666666666665,0.0,0.0
