,ABS Active,ABS Enabled,AID Allow Tire Blankets,AID Auto Blip,AID Auto Clutch,AID Auto Shift,AID Fuel Rate,AID Ideal Line,AID Mech Damage,AID Stability,AID Tire Wear Rate,Air Density,Air Temp,Ballast,Best Lap Delta,Best Lap Time,Brake Bias,Brake Pos,Brake Temp FL,Brake Temp FR,Brake Temp RL,Brake Temp RR,CG Accel Lateral,CG Accel Longitudinal,CG Accel Vertical,CG Height,Camber FL,Camber FR,Camber RL,Camber RR,Car Coord X,Car Coord Y,Car Coord Z,Car Damage Front,Car Damage Left,Car Damage Rear,Car Damage Right,Car Pos Norm,Caster FL,Caster FR,Chassis Pitch Angle,Chassis Pitch Rate,Chassis Roll Angle,Chassis Roll Rate,Chassis Velocity X,Chassis Velocity Y,Chassis Velocity Z,Chassis Yaw Rate,Clutch Pos,DRS Active,DRS Available,Drive Train Speed,ERS Heat Charging,ERS Is Charging,ERS Max Energy,ERS Power Level,ERS Recovery Level,Engine Brake Setting,Engine Limiter,Engine RPM,Flags,Fuel Level,Gear,Ground Speed,HR Sample Clock,In Pit,KERS Charge,KERS Deployed Energy,KERS Input,KERS Max Energy,LR Sample Clock,Lap Invalidated,Lap Time,Lap Time2,Last Lap Time,Last Sector Time,MR Sample Clock,Max Fuel,Max Power,Max RPM,Max Sus Travel FL,Max Sus Travel FR,Max Sus Travel RL,Max Sus Travel RR,Max Torque,Max Turbo Boost,Num Tires Off Track,Penalties Enabled,Position,Raw Data Sample Rate,Ride Height FL,Ride Height FR,Ride Height RL,Ride Height RR,Road Temp,Self Align Torque FL,Self Align Torque FR,Self Align Torque RL,Self Align Torque RR,Session Lap Count,Session Time Left,Steering Angle,Surface Grip,Suspension Travel FL,Suspension Travel FR,Suspension Travel RL,Suspension Travel RR,TC Active,TC Enabled,Throttle Pos,Tire Dirt Level FL,Tire Dirt Level FR,Tire Dirt Level RL,Tire Dirt Level RR,Tire Load FL,Tire Load FR,Tire Load RL,Tire Load RR,Tire Loaded Radius FL,Tire Loaded Radius FR,Tire Loaded Radius RL,Tire Loaded Radius RR,Tire Pressure FL,Tire Pressure FR,Tire Pressure RL,Tire Pressure RR,Tire Radius FL,Tire Radius FR,Tire Radius RL,Tire Radius RR,Tire Rubber Grip FL,Tire Rubber Grip FR,Tire Rubber Grip RL,Tire Rubber Grip RR,Tire Slip Angle FL,Tire Slip Angle FR,Tire Slip Angle RL,Tire Slip Angle RR,Tire Slip Ratio FL,Tire Slip Ratio FR,Tire Slip Ratio RL,Tire Slip Ratio RR,Tire Temp Core FL,Tire Temp Core FR,Tire Temp Core RL,Tire Temp Core RR,Tire Temp Inner FL,Tire Temp Inner FR,Tire Temp Inner RL,Tire Temp Inner RR,Tire Temp Middle FL,Tire Temp Middle FR,Tire Temp Middle RL,Tire Temp Middle RR,Tire Temp Outer FL,Tire Temp Outer FR,Tire Temp Outer RL,Tire Temp Outer RR,Toe In FL,Toe In FR,Toe In RL,Toe In RR,Turbo Boost,Wheel Angular Speed FL,Wheel Angular Speed FR,Wheel Angular Speed RL,Wheel Angular Speed RR,Wind Direction,Wind Speed
0,0.0,0.0,0.0,1.0,1.0,0.0,0.0,1.0,0.0,100.0,1.0,1.1856,26.0,0.0,0.0,0.0,59.99999,0.0,26.0,26.0,26.0,26.0,-0.08524999999999994,0.27190000000000003,0.002533333333333333,290.817,-2.6203000000000003,-2.5535,-1.5025,-1.5357,-275.75,216.36,190.98475,0.0,0.0,0.0,0.0,0.0015666666666666051,-5.498166666666667,-5.498166666666667,-0.7494000000000001,1.0495,-0.004444444444444251,-1.0819999999999999,65.465,-0.03059999999999974,-0.44376666666666664,1.1075,100.0,1.0,1.0,202.21666666666667,0.0,0.0,0.0,0.0,0.0,0.0,0.0,8571.3,0.0,55.0,5.0,235.65,0.0,0.0,0.0,0.0,0.0,0.0,0.0,0.0,0.0030000000000001137,0.0030000000000001137,0.0,0.0,0.0,55.0,616.79921,10000.0,85.0,85.0,85.0,85.0,395.0,0.0,0.0,0.0,1.0,20.0,43.61,43.61,51.559,51.559,34.0,-30.7225,26.002000000000002,-28.874,23.568,0.0,1783.608,0.7599999999999998,100.0,34.571,34.082,39.138,39.231,0.0,0.0,100.0,0.0,0.0,0.0,0.0,3695.625,4001.9,3955.0,3828.2,303.652,302.06466666666665,315.38366666666667,315.294,21.8815,20.6515,22.06888888888889,21.4126,314.99999,314.99999,324.99998,324.99998,99.56081428571429,99.5099,99.58761428571428,99.5526,0.034499999999999975,-0.14466666666666672,-0.16733333333333267,0.07333333333333325,-0.04333333333332945,-0.011666666666670267,1.5845,1.6575,37.759,30.072,38.931,34.829,57.268,36.6075,66.604,54.807,55.283,35.6665,65.087,52.953,54.583,35.207,65.189,52.29,-0.0585,-0.178,0.10236,0.11211000000000002,0.0,205.16,205.04000000000002,202.21666666666667,202.21666666666667,0.0,0.0
1,0.0,0.0,0.0,1.0,1.0,0.0,0.0,1.0,0.0,100.0,1.0,1.1856,26.0,0.0,0.0,0.0,59.999996,0.0,26.0,26.0,26.0,26.0,-0.12387499999999996,0.28059999999999996,0.04713333333333333,289.749,-2.5380000000000003,-2.657,-1.5105,-1.5232,-272.41,216.35500000000002,190.9645,0.0,0.0,0.0,0.0,0.0034999999999999476,-5.498166666666667,-5.498166666666667,-0.7003,-0.2565,-0.046666666666666856,0.09399999999999986,65.608,-0.05459999999999976,-0.4248333333333333,1.4975000000000005,100.0,1.0,1.0,202.30666666666667,0.0,0.0,0.0,0.0,0.0,0.0,0.0,8575.1,0.0,55.0,5.0,236.16333333333333,1.0,0.0,0.0,0.0,0.0,0.0,0.0,0.0,0.053999999999998494,0.053999999999998494,0.0,0.0,1.0,55.0,616.79921,10000.0,85.000001,85.000001,85.000001,85.000001,395.0,0.0,0.0,0.0,1.0,333.33500000000004,44.067,44.067,50.247,50.247,34.0,-30.4625,22.302,-33.928,27.582,0.0,1783.555,0.7000000000000002,100.0,34.907,34.243,40.959,40.056,0.0,0.0,100.0,0.0,0.0,0.0,0.0,3765.75,3424.3,4258.25,4572.4,303.26166666666666,303.9356666666667,314.542,313.5635,21.8925,20.6581,22.081444444444443,21.4223,314.999998,314.999998,324.999988,324.999988,99.56082857142857,99.50993333333334,99.58775714285714,99.55274285714286,0.03849999999999998,-0.15399999999999991,-0.1936666666666671,0.03966666666666718,0.006666666666667709,-0.023333333333326323,1.4445,1.504,37.828,30.113,39.009,34.8895,57.262,36.658500000000004,66.625,54.8595,55.277,35.713499999999996,65.106,53.0035,54.576,35.251999999999995,65.205,52.3395,-0.0545,-0.168,0.10647000000000001,0.104885,0.0,205.575,205.45,202.30666666666667,202.30666666666667,0.0,0.0
2,0.0,0.0,0.0,1.0,1.0,0.0,0.0,1.0,0.0,100.0,1.0,1.1856,26.0,0.0,0.0,0.0,59.999996,0.0,26.0,26.0,26.0,26.0,-0.155625,0.25649999999999995,-0.06786666666666667,290.314,-2.5098000000000003,-2.68225,-1.4804,-1.5777,-268.86,216.345,190.9445,0.0,0.0,0.0,0.0,0.005566666666666609,-5.498166666666667,-5.498166666666667,-0.7523000000000001,0.112,-0.03544444444444439,2.383,65.745,-0.07339999999999991,-0.48673333333333324,1.4649999999999999,100.0,1.0,1.0,203.22333333333333,0.0,0.0,0.0,0.0,0.0,0.0,0.0,8613.8,0.0,55.0,5.0,236.66,0.0,0.0,0.0,0.0,0.0,0.0,0.0,0.0,0.10800000000000054,0.10800000000000054,0.0,0.0,0.0,55.0,616.79921,10000.0,85.000001,85.000001,85.000001,85.000001,395.0,0.0,0.0,0.0,1.0,166.665,42.908,42.908,52.016999999999996,52.016999999999996,34.0,-33.285,23.846,-27.552,19.69,0.0,1783.503,0.5800000000000001,100.0,35.688,34.225,41.019,39.923,0.0,0.0,100.0,0.0,0.0,0.0,0.0,3985.5,3737.6000000000004,3602.25,3608.8,302.552,303.027,316.112,316.0045,21.9044,20.6649,22.09422222222222,21.432299999999998,314.999998,314.999998,324.999988,324.999988,99.56084285714286,99.50995,99.5879,99.55288571428571,0.020999999999999908,-0.17333333333333312,-0.2190000000000003,0.01966666666666672,-0.036666666666668846,-0.061666666666667425,1.6655,1.7245,37.902,30.1555,39.089,34.952,57.257999999999996,36.71,66.6395,54.909,55.272,35.760999999999996,65.119,53.0515,54.57,35.298,65.214,52.3865,-0.078,-0.169,0.10451,0.10840500000000002,0.0,206.005,205.91,203.22333333333333,203.22333333333333,0.0,0.0
3,0.0,0.0,0.0,1.0,1.0,0.0,0.0,1.0,0.0,100.0,1.0,1.1856,26.0,0.0,0.0,0.0,59.999996,0.0,26.0,26.0,26.0,26.0,-0.14712499999999995,0.2671000000000001,-0.022333333333333337,290.131,-2.6285,-2.5845000000000002,-1.4935,-1.5684,-265.9,216.335,190.92725,0.0,0.0,0.0,0.0,0.0072666666666665325,-5.498166666666667,-5.498166666666667,-0.7137,0.63,-0.008111111111110958,-0.8380000000000001,65.869,-0.08139999999999992,-0.43566666666666665,1.2675,100.0,1.0,1.0,203.3,0.0,0.0,0.0,0.0,0.0,0.0,0.0,8617.1,0.0,55.0,5.0,237.10333333333335,1.0,0.0,0.0,0.0,0.0,0.0,0.0,0.0,0.1529999999999987,0.1529999999999987,0.0,0.0,1.0,55.0,616.79921,10000.0,85.000001,85.000001,85.000001,85.000001,395.0,0.0,0.0,0.0,1.0,166.665,44.083,44.083,50.079,50.079,34.0,-30.73,20.8,-34.226,22.644,0.0,1783.458,0.5049999999999999,100.0,35.161,34.405,40.846000000000004,39.973,0.0,0.0,100.0,0.0,0.0,0.0,0.0,3609.375,3479.7,4222.75,4055.0,303.84166666666664,303.5683333333333,314.7056666666667,314.81175,21.914,20.6707,22.104888888888887,21.4407,314.999998,314.999998,324.999988,324.999988,99.56084285714286,99.50996666666667,99.58802857142857,99.55301428571428,0.021749999999999936,-0.17933333333333312,-0.22066666666666723,0.009000000000000341,-0.05666666666667197,-0.05333333333332746,1.5285,1.587,37.963,30.191499999999998,39.156,35.0045,57.251999999999995,36.7565,66.653,54.9535,55.266,35.804,65.131,53.0945,54.562,35.338499999999996,65.223,52.429,-0.0825,-0.1555,0.10699000000000002,0.10683500000000001,0.0,206.45499999999998,206.335,203.3,203.3,0.0,0.0
4,0.0,0.0,0.0,1.0,1.0,0.0,0.0,1.0,0.0,100.0,1.0,1.1856,26.0,0.0,0.0,0.0,59.999996,0.0,26.0,26.0,26.0,26.0,-0.15325,0.25270000000000015,-0.0333,290.359,-2.5634,-2.644375,-1.5161,-1.5695000000000001,-262.54,216.32,190.9075,0.0,0.0,0.0,0.0,0.009233333333333316,-5.498166666666667,-5.498166666666667,-0.7474000000000001,-0.9095,-0.06755555555555581,-0.6320000000000001,66.002,-0.08079999999999998,-0.4701666666666666,1.0949999999999998,100.0,1.0,1.0,203.85333333333335,0.0,0.0,0.0,0.0,0.0,0.0,0.0,8640.6,0.0,55.0,5.0,237.59,0.0,0.0,0.0,0.0,0.0,0.0,0.0,0.0,0.20400000000000063,0.20400000000000063,0.0,0.0,0.0,55.0,616.79921,10000.0,85.000001,85.000001,85.000001,85.000001,395.0,0.0,0.0,0.0,1.0,333.33500000000004,43.686,43.686,50.674,50.674,34.0,-32.3725,23.816,-30.348,20.29,0.0,1783.405,0.45999999999999996,100.0,34.988,33.997,41.366,40.003,0.0,0.0,100.0,0.0,0.0,0.0,0.0,3879.0,3688.6,3893.125,3573.3,303.08633333333336,303.13466666666665,315.38366666666667,315.97775,21.9248,20.6772,22.11711111111111,21.4503,314.999998,314.999998,324.999988,324.999988,99.56084285714286,99.51,99.58817142857143,99.55314285714286,0.02574999999999994,-0.15999999999999992,-0.2016666666666671,0.030999999999999694,-0.041666666666671404,-0.07000000000000028,1.5835,1.6280000000000001,38.03,30.232,39.232,35.064499999999995,57.242000000000004,36.807,66.6705,55.0015,55.256,35.8505,65.146,53.141,54.551,35.382999999999996,65.2355,52.474000000000004,-0.078,-0.1485,0.10962000000000001,0.09956000000000001,0.0,206.78,206.695,203.85333333333335,203.85333333333332,0.0,0.0
5,0.0,0.0,0.0,1.0,1.0,0.0,0.0,1.0,0.0,100.0,1.0,1.1856,26.0,0.0,0.0,0.0,59.999996,0.0,26.0,26.0,26.0,26.0,-0.12812499999999993,0.27090000000000014,-0.021033333333333334,290.314,-2.5729,-2.6968750000000004,-1.4957,-1.5624,-259.17,216.3,190.887125,0.0,0.0,0.0,0.0,0.011199999999999988,-5.498166666666667,-5.498166666666667,-0.7408,0.4215,-0.07833333333333359,-0.3660000000000001,66.138,-0.0838000000000001,-0.4493666666666667,1.1075,100.0,1.0,1.0,204.21,0.0,0.0,0.0,0.0,0.0,0.0,0.0,8655.8,0.0,55.0,5.0,238.07,1.0,0.0,0.0,0.0,0.0,0.0,0.0,0.0,0.254999999999999,0.254999999999999,0.0,0.0,1.0,55.0,616.79921,10000.0,85.000001,85.000001,85.000001,85.000001,395.0,0.0,0.0,0.0,1.0,166.665,43.93,43.93,50.903,50.903,34.0,-32.5725,22.764,-32.186,21.51,0.0,1783.357,0.06500000000000039,100.0,35.064,34.119,40.999,39.739000000000004,0.0,0.0,100.0,0.0,0.0,0.0,0.0,3899.125,3452.4,4052.25,3893.8,303.10766666666666,303.69,315.161,315.20675,21.9358,20.6837,22.12922222222222,21.459699999999998,314.999998,314.999998,324.999988,324.999988,99.56085714285715,99.51001666666667,99.58831428571429,99.55328571428572,0.026000000000000245,-0.16100000000000003,-0.21866666666666656,0.01100000000000012,-0.026666666666670835,-0.03333333333333144,1.58,1.6065,38.099000000000004,30.273,39.308,35.123,57.238,36.8575,66.686,55.0475,55.251999999999995,35.897,65.16,53.1855,54.545,35.4275,65.246,52.5175,-0.108,-0.127,0.10189500000000001,0.10355,0.0,207.23000000000002,207.13,204.21,204.21,0.0,0.0
6,0.0,0.0,0.0,1.0,1.0,0.0,0.0,1.0,0.0,100.0,1.0,1.1856,26.0,0.0,0.0,0.0,59.999996,0.0,26.0,26.0,26.0,26.0,-0.10499999999999998,0.2674000000000001,-0.017666666666666667,290.054,-2.5506,-2.629375,-1.5399,-1.5985,-255.99,216.28,190.86775,0.0,0.0,0.0,0.0,0.013033333333333341,-5.498166666666667,-5.498166666666667,-0.7385,-0.011,-0.05744444444444419,-0.379,66.264,-0.07799999999999985,-0.4544666666666667,0.73,100.0,1.0,1.0,204.59,0.0,0.0,0.0,0.0,0.0,0.0,0.0,8671.8,0.0,55.0,5.0,238.52666666666667,0.0,0.0,0.0,0.0,0.0,0.0,0.0,0.0,0.3030000000000008,0.3030000000000008,0.0,0.0,0.0,55.0,616.79921,10000.0,85.000001,85.000001,85.000001,85.000001,395.0,0.0,0.0,0.0,1.0,166.665,43.472,43.472,50.781,50.781,34.0,-31.71,24.192,-31.092,22.43,0.0,1783.309,-0.11500000000000021,100.0,35.076,34.3,41.163,40.158,0.0,0.0,100.0,0.0,0.0,0.0,0.0,3953.5,3621.1,3943.25,3832.2,302.93233333333336,303.178,315.3983333333333,315.30725,21.9462,20.6899,22.140666666666668,21.4687,314.999998,314.999998,324.999988,324.999988,99.56085714285715,99.51003333333334,99.58844285714285,99.55341428571428,0.04600000000000026,-0.1436666666666666,-0.20500000000000007,0.027333333333332988,-0.02833333333332888,-0.03999999999999915,1.581,1.6019999999999999,38.164,30.311500000000002,39.379000000000005,35.1795,57.233000000000004,36.903999999999996,66.701,55.0945,55.247,35.94,65.174,53.231,54.538,35.4685,65.256,52.562,-0.1285,-0.112,0.10804000000000001,0.10337500000000001,0.0,207.595,207.54000000000002,204.59,204.59,0.0,0.0
7,0.0,0.0,0.0,1.0,1.0,0.0,0.0,1.0,0.0,100.0,1.0,1.1856,26.0,0.0,0.0,0.0,59.999996,0.0,26.0,26.0,26.0,26.0,-0.07924999999999993,0.27370000000000005,0.0441,289.719,-2.5987999999999998,-2.6189999999999998,-1.5018,-1.5436,-252.61,216.255,190.84725,0.0,0.0,0.0,0.0,0.014999999999999902,-5.498166666666667,-5.498166666666667,-0.7418,-0.07050000000000001,-0.041777777777777914,1.157,66.398,-0.05959999999999965,-0.4615666666666667,0.29499999999999993,100.0,1.0,1.0,204.95333333333332,0.0,0.0,0.0,0.0,0.0,0.0,0.0,8687.2,0.0,55.0,5.0,239.01,1.0,0.0,0.0,0.0,0.0,0.0,0.0,0.0,0.3539999999999992,0.3539999999999992,0.0,0.0,1.0,55.0,616.79921,10000.0,85.000001,85.000001,85.000001,85.000001,395.0,0.0,0.0,0.0,1.0,333.33500000000004,43.091,43.091,50.659,50.659,34.0,-31.2275,26.997999999999998,-29.508,24.598,0.0,1783.256,-0.2450000000000001,100.0,35.328,34.266,41.278,40.311,0.0,0.0,100.0,0.0,0.0,0.0,0.0,3971.875,3790.1000000000004,3928.875,3998.4,302.726,302.849,315.315,315.009,21.9571,20.6965,22.15277777777778,21.4783,314.999998,314.999998,324.999988,324.999988,99.56085714285715,99.51005,99.58858571428571,99.55355714285714,0.07125000000000004,-0.11033333333333317,-0.1783333333333328,0.06333333333333346,-0.03499999999999659,-0.04999999999999716,1.5635,1.5915,38.232,30.353,39.455,35.2395,57.229,36.953,66.716,55.144,55.242999999999995,35.985,65.187,53.278999999999996,54.533,35.5115,65.2665,52.6095,-0.138,-0.0935,0.11374000000000001,0.10564000000000001,0.0,207.99,207.965,204.95333333333332,204.95333333333332,0.0,0.0
8,0.0,0.0,0.0,1.0,1.0,0.0,0.0,1.0,0.0,100.0,1.0,1.1856,26.0,0.0,0.0,0.0,59.999996,0.0,26.0,26.0,26.0,26.0,-0.048875,0.27259999999999995,-0.024066666666666667,289.963,-2.589,-2.5975,-1.4859,-1.5256,-249.22,216.23000000000002,190.82675,0.0,0.0,0.0,0.0,0.016966666666666574,-5.498166666666667,-5.498166666666667,-0.7422000000000001,-0.4175,-0.025111111111111306,-0.4119999999999999,66.531,-0.04059999999999997,-0.4551333333333333,-0.04249999999999998,100.0,1.0,1.0,205.30666666666667,0.0,0.0,0.0,0.0,0.0,0.0,0.0,8702.2,0.0,55.0,5.0,239.49,0.0,0.0,0.0,0.0,0.0,0.0,0.0,0.0,0.40500000000000114,0.40500000000000114,0.0,0.0,0.0,55.0,616.79921,10000.0,85.000001,85.000001,85.000001,85.000001,395.0,0.0,0.0,0.0,1.0,333.33500000000004,43.93,43.93,49.881,49.881,34.0,-27.595,25.712,-29.602,25.796,0.0,1783.205,-0.3849999999999998,100.0,34.857,34.438,41.176,40.538,0.0,0.0,100.0,0.0,0.0,0.0,0.0,3689.375,3627.1,4112.75,4015.8,303.71133333333336,303.1766666666667,314.94166666666666,314.895,21.9678,20.7031,22.16488888888889,21.4879,314.999998,314.999998,324.999988,324.999988,99.56088571428572,99.51006666666666,99.58872857142858,99.5537,0.08650000000000002,-0.10866666666666669,-0.15200000000000014,0.08466666666666711,-0.04999999999999716,-0.04333333333332945,1.5545,1.552,38.299,30.3945,39.53,35.2995,57.224999999999994,37.001,66.731,55.1935,55.238,36.028999999999996,65.2,53.326499999999996,54.525999999999996,35.554,65.276,52.656,-0.1475,-0.0815,0.09905000000000001,0.11198500000000002,0.0,208.4,208.39,205.30666666666667,205.30666666666667,0.0,0.0
9,0.0,0.0,0.0,1.0,1.0,0.0,0.0,1.0,0.0,100.0,1.0,1.1856,26.0,0.0,0.0,0.0,59.999996,0.0,26.0,26.0,26.0,26.0,-0.022499999999999964,0.2570000000000001,-0.020800000000000003,289.749,-2.5896,-2.604375,-1.5305,-1.5263,-246.01999999999998,216.20499999999998,190.807,0.0,0.0,0.0,0.0,0.01883333333333337,-5.498166666666667,-5.498166666666667,-0.753,0.5215,-0.027444444444444382,-0.5049999999999999,66.653,-0.020999999999999908,-0.4611666666666667,-0.15249999999999986,100.0,1.0,1.0,205.84,0.0,0.0,0.0,0.0,0.0,0.0,0.0,8724.8,0.0,55.0,5.0,239.92666666666668,1.0,0.0,0.0,0.0,0.0,0.0,0.0,0.0,0.4529999999999994,0.4529999999999994,0.0,0.0,1.0,55.0,616.79921,10000.0,85.000001,85.000001,85.000001,85.000001,395.0,0.0,0.0,0.0,1.0,166.665,42.709,42.709,51.086,51.086,34.0,-29.7825,27.78,-26.866,25.198,0.0,1783.158,-0.5099999999999998,100.0,35.233000000000004,34.852000000000004,40.837,40.514,0.0,0.0,100.0,0.0,0.0,0.0,0.0,4087.375,3747.3,3828.75,3864.4,302.5423333333333,302.75666666666666,315.6793333333333,315.29725,21.9781,20.7095,22.176111111111112,21.4969,314.999998,314.999998,324.999988,324.999988,99.56088571428572,99.51008333333333,99.58885714285714,99.55382857142857,0.10775000000000023,-0.09133333333333327,-0.1416666666666666,0.10299999999999976,-0.03499999999999659,-0.036666666666668846,1.6205,1.6255000000000002,38.363,30.4345,39.601,35.3555,57.224000000000004,37.047,66.742,55.2385,55.236000000000004,36.072,65.21,53.37,54.522999999999996,35.5945,65.2825,52.698499999999996,-0.1605,-0.082,0.10924500000000001,0.11070500000000001,0.0,208.775,208.785,205.84,205.84,0.0,0.0
10,0.0,0.0,0.0,1.0,1.0,0.0,0.0,1.0,0.0,100.0,1.0,1.1856,26.0,0.0,0.0,0.0,59.999996,0.0,26.0,26.0,26.0,26.0,0.013374999999999915,0.25839999999999996,0.05003333333333333,289.459,-2.5609,-2.589,-1.5799,-1.5093,-242.62,216.1775,190.78625,0.0,0.0,0.0,0.0,0.02083333333333337,-5.498166666666667,-5.498166666666667,-0.7262000000000001,-0.35050000000000003,0.015666666666666718,1.902,66.788,-0.00019999999999953388,-0.4480333333333333,-0.5775000000000001,100.0,1.0,1.0,206.01333333333332,0.0,0.0,0.0,0.0,0.0,0.0,0.0,8732.1,0.0,55.0,5.0,240.41333333333336,0.0,0.0,0.0,0.0,0.0,0.0,1.0,0.0,0.5040000000000013,0.5040000000000013,0.0,0.0,0.0,55.0,616.79921,10000.0,85.000001,85.000001,85.000001,85.000001,395.0,0.0,0.0,0.0,1.0,333.33500000000004,43.579,43.579,49.545,49.545,34.0,-24.185,28.427999999999997,-29.3,30.08,0.0,1783.107,-0.5599999999999996,100.0,35.369,34.762,41.303,41.144,0.0,0.0,100.0,0.0,0.0,0.0,0.0,3559.5,3710.7,4153.875,4227.3,303.9096666666667,303.1003333333333,314.80466666666666,314.424,21.9889,20.7163,22.188333333333333,21.5067,314.999998,314.999998,324.999988,324.999988,99.56091428571429,99.5101,99.589,99.55397142857143,0.12824999999999998,-0.06499999999999995,-0.10933333333333284,0.1349999999999998,-0.036666666666668846,-0.04999999999999716,1.5145,1.494,38.43,30.4765,39.677,35.4165,57.223,37.093,66.7585,55.291,55.235,36.1145,65.224,53.421,54.519999999999996,35.6355,65.293,52.7485,-0.161,-0.07,0.10426,0.11496,0.0,209.18,209.20499999999998,206.01333333333332,206.01333333333332,0.0,0.0
11,0.0,0.0,0.0,1.0,1.0,0.0,0.0,1.0,0.0,100.0,1.0,1.1856,26.0,0.0,0.0,0.0,59.999996,0.0,26.0,26.0,26.0,26.0,0.05225000000000013,0.24280000000000013,-0.08610000000000001,290.07,-2.6149,-2.537875,-1.5429,-1.4926000000000001,-239.21,216.15,190.76575,0.0,0.0,0.0,0.0,0.022599999999999953,-5.498166666666667,-5.498166666666667,-0.7723,-0.389,0.042444444444444285,-0.7040000000000002,66.914,0.01980000000000004,-0.4862666666666666,-0.5874999999999999,100.0,1.0,1.0,206.72333333333333,0.0,0.0,0.0,0.0,0.0,0.0,0.0,8762.2,0.0,55.0,5.0,240.87,1.0,0.0,0.0,0.0,0.0,0.0,1.0,0.0,0.5549999999999997,0.5549999999999997,0.0,0.0,1.0,55.0,616.79921,10000.0,85.000001,85.000001,85.000001,85.000001,395.0,0.0,0.0,0.0,1.0,333.33500000000004,43.015,43.015,51.224000000000004,51.224000000000004,34.0,-26.4,29.902,-22.264000000000003,25.3,0.0,1783.055,-0.5249999999999995,100.0,34.878,35.127,40.766,41.15,0.0,0.0,100.0,0.0,0.0,0.0,0.0,3836.375,3835.1000000000004,3528.125,3723.7,303.3226666666667,302.498,316.38,315.61625,21.9994,20.7231,22.200222222222223,21.5163,314.999998,314.999998,324.999988,324.999988,99.56092857142858,99.51011666666666,99.58914285714286,99.55411428571429,0.13500000000000023,-0.052000000000000046,-0.09299999999999997,0.14133333333333287,-0.04333333333332945,-0.06499999999999773,1.6724999999999999,1.662,38.497,30.5195,39.751000000000005,35.477000000000004,57.221000000000004,37.14,66.7685,55.3395,55.232,36.158,65.233,53.4685,54.515,35.677,65.2985,52.795,-0.161,-0.0735,0.10692000000000002,0.10863500000000001,0.0,209.54000000000002,209.57999999999998,206.72333333333333,206.72333333333333,0.0,0.0
12,0.0,0.0,0.0,1.0,1.0,0.0,0.0,1.0,0.0,100.0,1.0,1.1856,26.0,0.0,0.0,0.0,59.999996,0.0,26.0,26.0,26.0,26.0,0.061125000000000096,0.26480000000000015,0.02836666666666667,289.612,-2.6635,-2.534875,-1.5369000000000002,-1.496,-235.99,216.125,190.745125,0.0,0.0,0.0,0.0,0.025466666666666526,-5.498166666666667,-5.498166666666667,-0.7574000000000001,0.2975,0.023666666666666725,-0.899,67.039,0.03340000000000032,-0.45223333333333327,-0.6374999999999997,100.0,1.0,1.0,206.88,0.0,0.0,0.0,0.0,0.0,0.0,0.0,8768.9,0.0,55.0,5.0,241.32,0.0,0.0,0.0,0.0,0.0,0.0,1.0,0.0,0.602999999999998,0.602999999999998,0.0,0.0,0.0,55.0,616.79921,10000.0,85.000001,85.000001,85.000001,85.000001,395.0,0.0,0.0,0.0,1.0,166.665,43.182,43.182,49.973,49.973,34.0,-25.6825,30.348,-26.09,28.951999999999998,0.0,1783.008,-0.6349999999999998,100.0,34.733000000000004,35.231,40.564,40.973,0.0,0.0,100.0,0.0,0.0,0.0,0.0,3838.75,3807.4,4104.5,4022.1000000000004,303.34433333333334,302.61066666666665,315.048,314.89525,22.0094,20.7297,22.211444444444446,21.5253,314.999998,314.999998,324.999988,324.999988,99.56095714285715,99.51011666666666,99.58928571428571,99.55424285714285,0.15799999999999992,-0.038000000000000034,-0.07399999999999984,0.1553333333333331,-0.05333333333332746,-0.03999999999999915,1.5695,1.5550000000000002,38.559,30.560499999999998,39.822,35.533,57.22,37.1835,66.781,55.3855,55.230999999999995,36.198499999999996,65.243,53.513,54.512,35.716,65.306,52.839,-0.17350000000000002,-0.068,0.10139500000000001,0.106645,0.0,209.96,209.995,206.88,206.88,0.0,0.0
13,0.0,0.0,0.0,1.0,1.0,0.0,0.0,1.0,0.0,100.0,1.0,1.1856,26.0,0.0,0.0,0.0,59.999996,0.0,26.0,26.0,26.0,26.0,0.0711250000000001,0.2559,0.05183333333333334,289.185,-2.6383,-2.54175,-1.6067,-1.4788000000000001,-232.57,216.1,190.72325,0.0,0.0,0.0,0.0,0.026666666666666505,-5.498166666666667,-5.498166666666667,-0.752,-0.0325,0.030777777777777793,0.8819999999999999,67.169,0.04459999999999997,-0.46033333333333326,-0.8975,100.0,1.0,1.0,207.23666666666668,0.0,0.0,0.0,0.0,0.0,0.0,0.0,8784.1,0.0,55.0,5.0,241.78666666666666,1.0,0.0,0.0,0.0,0.0,0.0,1.0,0.0,0.6539999999999999,0.6539999999999999,0.0,0.0,1.0,55.0,616.79921,10000.0,85.000001,85.000001,85.000001,85.000001,395.0,0.0,0.0,0.0,1.0,333.33500000000004,42.664,42.664,50.003,50.003,34.0,-24.2725,31.692,-25.342,31.226,0.0,1782.956,-0.71,100.0,35.293,35.336,40.888999999999996,41.359,0.0,0.0,100.0,0.0,0.0,0.0,0.0,3787.0,3937.6000000000004,3986.375,4210.8,303.291,302.374,315.254,314.50625,22.0202,20.7366,22.223555555555556,21.535,314.999998,314.999998,324.999988,324.999988,99.56097142857143,99.51011666666666,99.58941428571428,99.55438571428571,0.17399999999999993,-0.033333333333333215,-0.0563333333333329,0.17166666666666686,-0.03499999999999659,-0.030000000000001137,1.5655,1.5285,38.626000000000005,30.604,39.897,35.594,57.222,37.230000000000004,66.7945,55.438,55.232,36.241,65.255,53.5635,54.512,35.757,65.314,52.888999999999996,-0.17450000000000002,-0.074,0.11016000000000001,0.10632000000000001,0.0,210.335,210.385,207.23666666666668,207.23666666666668,0.0,0.0
14,0.0,0.0,0.0,1.0,1.0,0.0,0.0,1.0,0.0,100.0,1.0,1.1856,26.0,0.0,0.0,0.0,59.999996,0.0,26.0,26.0,26.0,26.0,0.09725000000000006,0.2519,-0.0079,289.291,-2.6359,-2.5086250000000003,-1.6139999999999999,-1.4726000000000001,-229.14,216.0775,190.702,0.0,0.0,0.0,0.0,0.028666666666666507,-5.498166666666667,-5.498166666666667,-0.7619,-0.216,0.053444444444444406,0.09199999999999986,67.29599999999999,0.05840000000000023,-0.47743333333333327,-0.9925000000000002,100.0,1.0,1.0,207.71,0.0,0.0,0.0,0.0,0.0,0.0,0.0,8804.0,0.0,55.0,5.0,242.24666666666667,0.0,0.0,0.0,0.0,0.0,0.0,1.0,0.0,0.7049999999999983,0.7049999999999983,0.0,0.0,0.0,55.0,616.79921,10000.0,85.000001,85.000001,85.000001,85.000001,395.0,0.0,0.0,0.0,1.0,333.33500000000004,42.679,42.679,50.156,50.156,34.0,-23.74,31.631999999999998,-24.476,30.33,0.0,1782.905,-0.7850000000000001,100.0,35.213,35.615,40.864000000000004,41.743,0.0,0.0,100.0,0.0,0.0,0.0,0.0,3800.25,3887.4,3886.125,4015.0,303.42133333333334,302.381,315.55033333333336,314.9095,22.0309,20.7436,22.235555555555557,21.5448,314.999998,314.999998,324.999988,324.999988,99.561,99.51011666666666,99.58955714285715,99.55452857142858,0.18175000000000008,-0.022333333333333316,-0.05600000000000005,0.19099999999999984,-0.03999999999999915,-0.01833333333333087,1.593,1.5594999999999999,38.693,30.6475,39.972,35.655,57.224999999999994,37.2755,66.807,55.489,55.233999999999995,36.283500000000004,65.266,53.6135,54.512,35.7975,65.321,52.9375,-0.187,-0.0615,0.10916000000000001,0.11509000000000001,0.0,210.72500000000002,210.775,207.71,207.71,0.0,0.0
15,0.0,0.0,0.0,1.0,1.0,0.0,0.0,1.0,0.0,100.0,1.0,1.1856,26.0,0.0,0.0,0.0,59.999996,0.0,26.0,26.0,26.0,26.0,0.11212500000000003,0.24619999999999997,-0.04096666666666667,289.307,-2.6143,-2.4532499999999997,-1.6179000000000001,-1.4304000000000001,-225.91,216.0575,190.68175,0.0,0.0,0.0,0.0,0.0305333333333333,-5.498166666666667,-5.498166666666667,-0.7557,0.3125,0.0888888888888888,0.05899999999999994,67.416,0.07220000000000004,-0.4643666666666667,-1.1275,100.0,1.0,1.0,208.08333333333331,0.0,0.0,0.0,0.0,0.0,0.0,0.0,8819.8,0.0,55.0,5.0,242.67666666666668,1.0,0.0,0.0,0.0,0.0,0.0,1.0,0.0,0.7530000000000001,0.7530000000000001,0.0,0.0,1.0,55.0,616.79921,10000.0,85.000001,85.000001,85.000001,85.000001,395.0,0.0,0.0,0.0,1.0,333.33500000000004,42.725,42.725,50.293,50.293,34.0,-22.305,30.996000000000002,-23.176000000000002,31.536,0.0,1782.857,-0.7850000000000001,100.0,35.319,35.747,40.623,41.795,0.0,0.0,100.0,0.0,0.0,0.0,0.0,3659.875,3874.6000000000004,3821.375,4158.9,303.7656666666667,302.40433333333334,315.711,314.59625,22.0409,20.7502,22.24677777777778,21.5539,314.999998,314.999998,324.999988,324.999988,99.56102857142857,99.51013333333333,99.58968571428571,99.55467142857142,0.18599999999999994,-0.020333333333333314,-0.03866666666666685,0.2010000000000005,-0.051666666666669414,-0.054999999999999716,1.6005,1.5554999999999999,38.756,30.689,40.042,35.712,57.227999999999994,37.3185,66.8165,55.5375,55.236000000000004,36.323499999999996,65.274,53.66,54.512,35.835499999999996,65.326,52.984,-0.182,-0.064,0.10177000000000001,0.11307,0.0,211.125,211.19,208.08333333333331,208.08333333333331,0.0,0.0
16,0.0,0.0,0.0,1.0,1.0,0.0,0.0,1.0,0.0,100.0,1.0,1.1856,26.0,0.0,0.0,0.0,59.999996,0.0,26.0,26.0,26.0,26.0,0.13137500000000002,0.24490000000000012,-0.05663333333333334,289.337,-2.7054,-2.490625,-1.5871,-1.4592,-222.26,216.04000000000002,190.6585,0.0,0.0,0.0,0.0,0.0326333333333334,-5.498166666666667,-5.498166666666667,-0.7771,-0.7345,0.07433333333333314,-1.0030000000000001,67.55199999999999,0.08080000000000043,-0.4786666666666667,-1.1175,100.0,1.0,1.0,208.4766666666667,0.0,0.0,0.0,0.0,0.0,0.0,0.0,8836.5,0.0,55.0,5.0,243.16666666666666,0.0,0.0,0.0,0.0,0.0,0.0,1.0,0.0,0.8069999999999986,0.8069999999999986,0.0,0.0,0.0,55.0,616.79921,10000.0,85.000001,85.000001,85.000001,85.000001,395.0,0.0,0.0,0.0,1.0,166.665,42.694,42.694,49.896,49.896,34.0,-23.455,32.763999999999996,-22.04,30.3,0.0,1782.804,-0.7199999999999998,100.0,34.955,35.905,40.862,41.927,0.0,0.0,100.0,0.0,0.0,0.0,0.0,3724.5,3935.9,3820.625,3975.8,303.74133333333333,302.21433333333334,315.70366666666666,315.0315,22.0518,20.7577,22.259444444444444,21.5642,314.999998,314.999998,324.999988,324.999988,99.56105714285714,99.51013333333333,99.58984285714286,99.55482857142857,0.19025000000000025,-0.007333333333333192,-0.022666666666666835,0.20433333333333348,-0.03166666666666629,-0.041666666666671404,1.6025,1.58,38.824,30.735500000000002,40.120999999999995,35.7765,57.227000000000004,37.367,66.8305,55.591499999999996,55.233999999999995,36.368,65.286,53.713,54.507999999999996,35.8785,65.334,53.0355,-0.17550000000000002,-0.063,0.10107000000000001,0.097235,0.0,211.48000000000002,211.555,208.4766666666667,208.4766666666667,0.0,0.0
17,0.0,0.0,0.0,1.0,1.0,0.0,0.0,1.0,0.0,100.0,1.0,1.1856,26.0,0.0,0.0,0.0,59.999996,0.0,26.0,26.0,26.0,26.0,0.13874999999999993,0.26859999999999995,-0.020066666666666667,289.078,-2.6643,-2.4450000000000003,-1.6249,-1.4994,-219.01999999999998,216.025,190.63725,0.0,0.0,0.0,0.0,0.034533333333333305,-5.498166666666667,-5.498166666666667,-0.7693,0.588,0.052000000000000046,-0.6920000000000002,67.67,0.08580000000000032,-0.4625666666666667,-1.14,100.0,1.0,1.0,208.84333333333333,0.0,0.0,0.0,0.0,0.0,0.0,0.0,8852.1,0.0,55.0,5.0,243.59333333333336,1.0,0.0,0.0,0.0,0.0,0.0,1.0,0.0,0.8550000000000004,0.8550000000000004,0.0,0.0,1.0,55.0,616.79921,10000.0,85.000001,85.000001,85.000001,85.000001,395.0,0.0,0.0,0.0,1.0,166.665,42.419,42.419,50.079,50.079,34.0,-23.59,30.802,-23.726,31.988,0.0,1782.756,-0.7400000000000002,100.0,35.434,36.196,40.571,41.870000000000005,0.0,0.0,100.0,0.0,0.0,0.0,0.0,3834.0,3805.3,4023.25,4045.4,303.3976666666667,302.67833333333334,315.314,314.872,22.0619,20.764499999999998,22.270555555555557,21.5733,314.999998,314.999998,324.999988,324.999988,99.56108571428571,99.51013333333333,99.58997142857143,99.55495714285715,0.19350000000000023,-0.009333333333333194,-0.01933333333333298,0.21199999999999974,-0.04999999999999716,-0.026666666666670835,1.597,1.5455,38.887,30.778,40.191,35.833,57.232,37.411500000000004,66.8405,55.638,55.238,36.4095,65.294,53.7585,54.51,35.9185,65.339,53.0805,-0.1845,-0.0655,0.10650000000000001,0.11270000000000001,0.0,211.9,211.97500000000002,208.84333333333333,208.84333333333333,0.0,0.0
18,0.0,0.0,0.0,1.0,1.0,0.0,0.0,1.0,0.0,100.0,1.0,1.1856,26.0,0.0,0.0,0.0,59.999996,0.0,26.0,26.0,26.0,26.0,0.131,0.24140000000000006,-0.0893,289.093,-2.6966,-2.41675,-1.6432,-1.3947,-215.76999999999998,216.015,190.61625,0.0,0.0,0.0,0.0,0.03643333333333332,-5.498166666666667,-5.498166666666667,-0.7745000000000001,-0.6255000000000001,0.07844444444444432,-0.10499999999999998,67.78999999999999,0.0895999999999999,-0.47743333333333327,-1.195,100.0,1.0,1.0,209.19333333333333,0.0,0.0,0.0,0.0,0.0,0.0,0.0,8866.9,0.0,55.0,5.0,244.02333333333334,0.0,0.0,0.0,0.0,0.0,0.0,1.0,0.0,0.9029999999999987,0.9029999999999987,0.0,0.0,0.0,55.0,616.79921,10000.0,85.000001,85.000001,85.000001,85.000001,395.0,0.0,0.0,0.0,1.0,166.665,42.557,42.557,49.835,49.835,34.0,-22.515,32.467999999999996,-22.933999999999997,30.018,0.0,1782.708,-0.96,100.0,35.231,36.066,41.012,42.341,0.0,0.0,100.0,0.0,0.0,0.0,0.0,3755.625,3934.3,3854.875,3990.5,303.681,302.351,315.65833333333336,315.01775,22.0719,20.7711,22.281777777777776,21.5826,314.999998,314.999998,324.999988,324.999988,99.56111428571428,99.51015,99.5901,99.5551,0.2087500000000002,0.006666666666666821,-0.0216666666666665,0.2110000000000003,-0.05333333333332746,-0.03499999999999659,1.5965,1.5575,38.949,30.819499999999998,40.260999999999996,35.891,57.233999999999995,37.454,66.853,55.688,55.239999999999995,36.448499999999996,65.305,53.807,54.51,35.956,65.34649999999999,53.128,-0.196,-0.0525,0.10110500000000001,0.11058000000000001,0.0,212.23000000000002,212.315,209.19333333333333,209.19333333333333,0.0,0.0
19,0.0,0.0,0.0,1.0,1.0,0.0,0.0,1.0,0.0,100.0,1.0,1.1856,26.0,0.0,0.0,0.0,59.999996,0.0,26.0,26.0,26.0,26.0,0.13687500000000008,0.26849999999999996,0.008666666666666668,288.605,-2.6617,-2.41125,-1.6554,-1.3781,-212.31,216.0075,190.59375,0.0,0.0,0.0,0.0,0.03843333333333332,-5.498166666666667,-5.498166666666667,-0.773,0.8015,0.08977777777777773,0.946,67.914,0.0990000000000002,-0.47143333333333326,-1.64,100.0,1.0,1.0,209.62,0.0,0.0,0.0,0.0,0.0,0.0,0.0,8885.0,0.0,55.0,5.0,244.47,1.0,0.0,0.0,0.0,0.0,0.0,1.0,0.0,0.9540000000000006,0.9540000000000006,0.0,0.0,1.0,55.0,616.79921,10000.0,85.000001,85.000001,85.000001,85.000001,395.0,0.0,0.0,0.0,1.0,333.33500000000004,41.534,41.534,49.927,49.927,34.0,-21.029999999999998,35.98,-22.686,32.480000000000004,0.0,1782.656,-1.1950000000000003,100.0,35.893,36.442,40.729,42.144999999999996,0.0,0.0,100.0,0.0,0.0,0.0,0.0,3816.125,4142.1,3900.75,4178.3,303.2,301.763,315.5726666666667,314.70275,22.0826,20.7784,22.293555555555557,21.5923,314.999998,314.999998,324.999988,324.999988,99.56114285714285,99.51015,99.59024285714285,99.55524285714286,0.23850000000000016,0.03533333333333344,-0.009333333333333194,0.23533333333333317,-0.04333333333332945,-0.051666666666669414,1.6285,1.5665,39.016,30.865000000000002,40.335,35.951499999999996,57.241,37.5025,66.8625,55.739,55.245999999999995,36.494,65.313,53.8565,54.513,36.0,65.3505,53.177,-0.2205,-0.035,0.116055,0.11031,0.0,212.64,212.74,209.62,209.62,0.0,0.0
20,0.0,0.0,0.0,1.0,1.0,0.0,0.0,1.0,0.0,100.0,1.0,1.1856,26.0,0.0,0.0,0.0,59.999996,0.0,26.0,26.0,26.0,26.0,0.1881250000000001,0.24770000000000003,-0.0634,288.681,-2.7257,-2.45575,-1.6471,-1.3737000000000001,-208.84,216.005,190.5715,0.0,0.0,0.0,0.0,0.04046666666666654,-5.498166666666667,-5.498166666666667,-0.7695000000000001,-0.933,0.10311111111111115,-0.41500000000000004,68.042,0.11440000000000028,-0.4773666666666667,-1.9725,100.0,1.0,1.0,209.82,0.0,0.0,0.0,0.0,0.0,0.0,0.0,8893.6,0.0,55.0,5.0,244.93,0.0,0.0,0.0,0.0,0.0,0.0,0.0,0.0,1.004999999999999,1.004999999999999,0.0,0.0,0.0,55.0,616.79921,10000.0,85.000001,85.000001,85.000001,85.000001,395.0,0.0,0.0,0.0,1.0,333.33500000000004,42.694,42.694,48.676,48.676,34.0,-18.737499999999997,34.948,-22.932000000000002,34.882000000000005,0.0,1782.604,-1.4699999999999998,100.0,35.263999999999996,36.501,41.175,42.787,0.0,0.0,100.0,0.0,0.0,0.0,0.0,3496.375,3913.1000000000004,4072.625,4258.8,304.38433333333336,302.291,315.1116666666667,314.333,22.0929,20.7856,22.305555555555557,21.6022,314.999998,314.999998,324.999988,324.999988,99.56118571428571,99.51015,99.59038571428572,99.5554,0.25349999999999984,0.04466666666666663,0.014333333333333087,0.25466666666666704,-0.045000000000001705,-0.03499999999999659,1.548,1.4785,39.081,30.91,40.41,36.013999999999996,57.244,37.5505,66.8775,55.7935,55.248000000000005,36.5385,65.326,53.9095,54.513,36.042500000000004,65.36,53.2295,-0.23950000000000002,-0.015,0.099305,0.11213500000000001,0.0,212.97,213.10500000000002,209.82,209.82,0.0,0.0
21,0.0,0.0,0.0,1.0,1.0,0.0,0.0,1.0,0.0,100.0,1.0,1.1856,26.0,0.0,0.0,0.0,59.999996,0.0,26.0,26.0,26.0,26.0,0.23724999999999996,0.2470000000000001,-0.08373333333333334,289.001,-2.648,-2.502625,-1.6688,-1.4380000000000002,-205.57,216.005,190.55,0.0,0.0,0.0,0.0,0.04236666666666655,-5.498166666666667,-5.498166666666667,-0.8027000000000001,0.404,0.09455555555555573,-0.8599999999999999,68.153,0.1344000000000003,-0.493,-2.3275,100.0,1.0,1.0,210.48000000000002,0.0,0.0,0.0,0.0,0.0,0.0,0.0,8921.4,0.0,55.0,5.0,245.33333333333334,1.0,0.0,0.0,0.0,0.0,0.0,0.0,0.0,1.0530000000000008,1.0530000000000008,0.0,0.0,1.0,55.0,616.79921,10000.0,85.000001,85.000001,85.000001,85.000001,395.0,0.0,0.0,0.0,1.0,333.33500000000004,41.733000000000004,41.733000000000004,50.568,50.568,34.0,-19.795,36.95,-18.496,32.134,0.0,1782.557,-1.0599999999999996,100.0,35.46,36.75,40.447,42.456,0.0,0.0,100.0,0.0,0.0,0.0,0.0,3820.375,4024.1000000000004,3647.875,3893.2,303.34066666666666,301.87166666666667,316.22833333333335,315.2825,22.1028,20.7925,22.316444444444443,21.6113,314.999998,314.999998,324.999988,324.999988,99.56122857142857,99.51016666666666,99.59051428571429,99.55552857142857,0.25450000000000017,0.04800000000000004,0.04100000000000037,0.27200000000000024,-0.054999999999999716,-0.030000000000001137,1.707,1.619,39.141999999999996,30.953,40.477999999999994,36.070499999999996,57.251000000000005,37.5985,66.8835,55.84,55.254000000000005,36.583,65.331,53.955,54.516,36.085499999999996,65.3615,53.274,-0.2235,-0.0275,0.11096,0.10089500000000001,0.0,213.345,213.48000000000002,210.48000000000002,210.48000000000002,0.0,0.0
22,0.0,0.0,0.0,1.0,1.0,0.0,0.0,1.0,0.0,100.0,1.0,1.1856,26.0,0.0,0.0,0.0,59.999996,0.0,26.0,26.0,26.0,26.0,0.19887500000000014,0.23320000000000007,0.05116666666666667,288.3,-2.632,-2.50325,-1.6082,-1.4826000000000001,-202.09,216.0125,190.52625,0.0,0.0,0.0,0.0,0.044366666666666554,-5.498166666666667,-5.498166666666667,-0.7785000000000001,0.117,0.10011111111111104,1.0230000000000001,68.281,0.15380000000000038,-0.4707,-1.42,100.0,1.0,1.0,210.59,0.0,0.0,0.0,0.0,0.0,0.0,0.0,8926.1,0.0,55.0,5.0,245.79000000000002,0.0,0.0,0.0,0.0,0.0,0.0,0.0,0.0,1.1039999999999992,1.1039999999999992,0.0,0.0,0.0,55.0,616.79921,10000.0,85.000001,85.000001,85.000001,85.000001,395.0,0.0,0.0,0.0,1.0,333.33500000000004,41.687,41.687,49.132999999999996,49.132999999999996,34.0,-22.1575,34.025999999999996,-19.904,38.03,0.0,1782.505,0.22500000000000053,100.0,35.705,36.679,40.896,42.663,0.0,0.0,100.0,0.0,0.0,0.0,0.0,3644.625,4124.6,3950.125,4293.2,303.638,301.6673333333333,315.31233333333336,314.30475,22.1132,20.7998,22.328444444444443,21.6211,314.999998,314.999998,324.999988,324.999988,99.56125714285714,99.51018333333333,99.59067142857143,99.5557,0.19425000000000026,-0.019333333333333202,0.04966666666666697,0.28133333333333344,-0.03999999999999915,-0.04999999999999716,1.536,1.4705,39.208,30.9985,40.553,36.132,57.254999999999995,37.6495,66.898,55.897,55.257,36.6305,65.343,54.010999999999996,54.516999999999996,36.131,65.37,53.329,-0.112,-0.1375,0.099635,0.108645,0.0,213.755,213.865,210.59,210.59,0.0,0.0
23,0.0,0.0,0.0,1.0,1.0,0.0,0.0,1.0,0.0,100.0,1.0,1.1856,26.0,0.0,0.0,0.0,59.999996,0.0,26.0,26.0,26.0,26.0,0.11575000000000002,0.22880000000000011,0.0033666666666666667,288.406,-2.6471999999999998,-2.503,-1.5627,-1.5201,-198.61,216.025,190.503,0.0,0.0,0.0,0.0,0.0464,-5.498166666666667,-5.498166666666667,-0.7971,-0.4285,0.06966666666666677,-1.435,68.403,0.12240000000000029,-0.4974333333333333,0.13250000000000028,100.0,1.0,1.0,211.01999999999998,0.0,0.0,0.0,0.0,0.0,0.0,0.0,8944.4,0.0,55.0,5.0,246.23333333333335,1.0,0.0,0.0,0.0,0.0,0.0,0.0,0.0,1.1550000000000011,1.1550000000000011,0.0,0.0,1.0,55.0,616.79921,10000.0,85.000001,85.000001,85.000001,85.000001,395.0,0.0,0.0,0.0,1.0,166.665,41.519,41.519,49.85,49.85,34.0,-27.8475,29.856,-22.036,32.504000000000005,0.0,1782.457,0.9050000000000002,100.0,35.75,36.735,41.055,42.844,0.0,0.0,100.0,0.0,0.0,0.0,0.0,4022.25,3911.4,3911.625,3950.5,302.864,302.2253333333333,315.4576666666667,314.98425,22.1237,20.8071,22.340333333333334,21.6309,314.999998,314.999998,324.999988,324.999988,99.56128571428572,99.51018333333333,99.5908,99.55584285714286,0.14274999999999993,-0.05966666666666676,-0.01100000000000012,0.23233333333333306,-0.04999999999999716,-0.03833333333332689,1.548,1.55,39.272999999999996,31.044,40.626999999999995,36.1935,57.254999999999995,37.695499999999996,66.9095,55.947,55.256,36.673500000000004,65.353,54.0595,54.515,36.172,65.3755,53.376999999999995,-0.056,-0.1875,0.10421000000000001,0.117565,0.0,214.185,214.14499999999998,211.01999999999998,211.01999999999998,0.0,0.0
24,0.0,0.0,0.0,1.0,1.0,0.0,0.0,1.0,0.0,100.0,1.0,1.1856,26.0,0.0,0.0,0.0,59.999996,0.0,26.0,26.0,26.0,26.0,0.01924999999999999,0.2621,-0.002466666666666667,288.742,-2.6241,-2.526875,-1.5782,-1.4857,-195.32,216.0375,190.480625,0.0,0.0,0.0,0.0,0.04830000000000001,-5.498166666666667,-5.498166666666667,-0.7978000000000001,-0.2895,0.04966666666666675,-0.7989999999999999,68.519,0.06420000000000003,-0.48,0.9700000000000002,100.0,1.0,1.0,211.3466666666667,0.0,0.0,0.0,0.0,0.0,0.0,0.0,8958.2,0.0,55.0,5.0,246.64666666666665,0.0,0.0,0.0,0.0,0.0,0.0,0.0,0.0,1.2029999999999994,1.2029999999999994,0.0,0.0,0.0,55.0,616.79921,10000.0,85.000001,85.000001,85.000001,85.000001,395.0,0.0,0.0,0.0,1.0,166.665,42.465,42.465,49.286,49.286,34.0,-27.63,25.695999999999998,-28.56,27.916,0.0,1782.409,1.0200000000000005,100.0,35.861000000000004,36.326,41.198,42.46,0.0,0.0,100.0,0.0,0.0,0.0,0.0,3723.75,3713.8,4248.625,3949.0,303.6526666666667,302.921,314.79133333333334,315.12825,22.1336,20.8137,22.351444444444443,21.64,314.999998,314.999998,324.999988,324.999988,99.5613,99.5102,99.59094285714286,99.55598571428571,0.10024999999999995,-0.10833333333333317,-0.08566666666666656,0.15066666666666695,-0.03999999999999915,-0.045000000000001705,1.53,1.5665,39.335,31.0855,40.696,36.25,57.254000000000005,37.7415,66.9205,55.993,55.254999999999995,36.716,65.362,54.104,54.510999999999996,36.213,65.3815,53.420500000000004,-0.0455,-0.20500000000000002,0.10364500000000001,0.100125,0.0,214.575,214.5,211.3466666666667,211.3466666666667,0.0,0.0
25,0.0,0.0,0.0,1.0,1.0,0.0,0.0,1.0,0.0,100.0,1.0,1.1856,26.0,0.0,0.0,0.0,59.999996,0.0,26.0,26.0,26.0,26.0,-0.050999999999999934,0.23150000000000004,-0.076,288.818,-2.5853,-2.554875,-1.566,-1.5337,-191.82,216.0525,190.455625,0.0,0.0,0.0,0.0,0.05033333333333334,-5.498166666666667,-5.498166666666667,-0.8369000000000001,-0.28150000000000003,0.022222222222222143,-0.6760000000000002,68.638,-0.0038000000000000256,-0.4967666666666667,1.5250000000000004,100.0,1.0,1.0,211.89333333333332,0.0,0.0,0.0,0.0,0.0,0.0,0.0,8981.4,0.0,55.0,5.0,247.07666666666665,1.0,0.0,0.0,0.0,0.0,0.0,0.0,0.0,1.2540000000000013,1.2540000000000013,0.0,0.0,1.0,55.0,616.79921,10000.0,85.000001,85.000001,85.000001,85.000001,395.0,0.0,0.0,0.0,1.0,333.33500000000004,41.641,41.641,50.095,50.095,34.0,-30.87,26.934,-27.35,24.088,0.0,1782.356,0.9900000000000002,100.0,36.037,36.116,41.461,41.819,0.0,0.0,100.0,0.0,0.0,0.0,0.0,3922.75,4044.7,3782.5,3774.8,302.94266666666664,302.045,315.8063333333333,315.592,22.144,20.8208,22.36311111111111,21.6496,314.999998,314.999998,324.999988,324.999988,99.56131428571429,99.5102,99.59108571428571,99.55612857142857,0.06824999999999992,-0.1353333333333333,-0.14700000000000024,0.0940000000000003,-0.03499999999999659,-0.04999999999999716,1.5945,1.647,39.4,31.13,40.769999999999996,36.31,57.248999999999995,37.7935,66.931,56.0385,55.248999999999995,36.763999999999996,65.371,54.1485,54.504000000000005,36.259,65.387,53.4645,-0.045,-0.20650000000000002,0.10806500000000001,0.1043,0.0,214.95499999999998,214.825,211.89333333333332,211.89333333333332,0.0,0.0
26,0.0,0.0,0.0,1.0,1.0,0.0,0.0,1.0,0.0,100.0,1.0,1.1856,26.0,0.0,0.0,0.0,59.999996,0.0,26.0,26.0,26.0,26.0,-0.13112499999999994,0.24450000000000016,0.075,287.598,-2.5611,-2.642625,-1.5694,-1.5551000000000001,-188.11,216.065,190.42825,0.0,0.0,0.0,0.0,0.05249999999999999,-5.498166666666667,-5.498166666666667,-0.7971,0.8205,-0.045111111111111324,0.07200000000000006,68.769,-0.06440000000000001,-0.4639333333333333,1.7275,100.0,1.0,1.0,212.0233333333333,0.0,0.0,0.0,0.0,0.0,0.0,0.0,8986.9,0.0,55.0,5.0,247.55,0.0,0.0,0.0,0.0,0.0,0.0,0.0,0.0,1.3079999999999998,1.3079999999999998,0.0,0.0,0.0,55.0,616.79921,10000.0,85.000001,85.000001,85.000001,85.000001,395.0,0.0,0.0,0.0,1.0,166.665,40.909,40.909,48.477000000000004,48.477000000000004,34.0,-32.72,24.968,-36.124,25.188,0.0,1782.303,0.71,100.0,37.307,36.475,42.29,41.644,0.0,0.0,100.0,0.0,0.0,0.0,0.0,4019.375,3900.8,4396.375,4227.7,302.6123333333333,302.4026666666667,314.382,314.56525,22.1555,20.8284,22.375777777777778,21.6598,314.999998,314.999998,324.999988,324.999988,99.56132857142858,99.51023333333333,99.59124285714286,99.55628571428572,0.047499999999999876,-0.17100000000000004,-0.19466666666666654,0.035666666666666735,-0.03333333333333144,-0.046666666666666856,1.4535,1.5345,39.472,31.177500000000002,40.849000000000004,36.3735,57.248000000000005,37.8525,66.94800000000001,56.089,55.247,36.819,65.386,54.1975,54.5,36.3115,65.3985,53.512,-0.0725,-0.188,0.09959000000000001,0.10879000000000001,0.0,215.42000000000002,215.26999999999998,212.0233333333333,212.0233333333333,0.0,0.0
27,0.0,0.0,0.0,1.0,1.0,0.0,0.0,1.0,0.0,100.0,1.0,1.1856,26.0,0.0,0.0,0.0,59.999996,0.0,26.0,26.0,26.0,26.0,-0.151625,0.23040000000000016,0.0036000000000000003,287.796,-2.5529,-2.6185,-1.5176,-1.5906,-185.01,216.0725,190.40675,0.0,0.0,0.0,0.0,0.054299999999999904,-5.498166666666667,-5.498166666666667,-0.8170000000000001,-1.125,-0.07055555555555548,-0.9870000000000001,68.876,-0.09019999999999984,-0.5069333333333332,1.6124999999999998,100.0,1.0,1.0,212.38666666666666,0.0,0.0,0.0,0.0,0.0,0.0,0.0,9002.4,0.0,55.0,5.0,247.93333333333334,1.0,0.0,0.0,0.0,0.0,0.0,0.0,0.0,1.352999999999998,1.352999999999998,0.0,0.0,1.0,55.0,616.79921,10000.0,85.000001,85.000001,85.000001,85.000001,395.0,0.0,0.0,0.0,1.0,166.665,41.26,41.26,48.721000000000004,48.721000000000004,34.0,-35.45,22.434,-34.22,22.554000000000002,0.0,1782.258,0.6050000000000004,100.0,37.019999999999996,36.253,43.218,42.129,0.0,0.0,100.0,0.0,0.0,0.0,0.0,4169.875,3738.3,4126.625,3956.6000000000004,302.394,302.89933333333335,314.957,315.0625,22.165,20.8345,22.386555555555557,21.6685,314.999998,314.999998,324.999988,324.999988,99.56132857142858,99.51026666666667,99.59137142857143,99.5564,0.01924999999999999,-0.18933333333333313,-0.22566666666666713,0.009666666666666934,-0.04833333333333201,-0.03333333333333144,1.496,1.5510000000000002,39.531,31.2155,40.916,36.428,57.242999999999995,37.9,66.965,56.1325,55.242999999999995,36.863,65.401,54.2395,54.494,36.3535,65.4105,53.553,-0.0795,-0.17450000000000002,0.10568500000000002,0.10372,0.0,215.685,215.555,212.38666666666666,212.38666666666666,0.0,0.0
28,0.0,0.0,0.0,1.0,1.0,0.0,0.0,1.0,0.0,100.0,1.0,1.1856,26.0,0.0,0.0,0.0,59.999996,0.0,26.0,26.0,26.0,26.0,-0.15849999999999997,0.242,-0.02986666666666667,288.208,-2.5211,-2.6260000000000003,-1.4816,-1.615,-181.29,216.07999999999998,190.380125,0.0,0.0,0.0,0.0,0.056466666666666554,-5.498166666666667,-5.498166666666667,-0.8277,0.6195,-0.08177777777777795,-0.54,69.0,-0.11019999999999985,-0.48873333333333324,1.54,100.0,1.0,1.0,212.92666666666668,0.0,0.0,0.0,0.0,0.0,0.0,0.0,9025.2,0.0,55.0,5.0,248.38,0.0,0.0,0.0,0.0,0.0,0.0,0.0,0.0,1.407,1.407,0.0,0.0,0.0,55.0,616.79921,10000.0,85.000001,85.000001,85.000001,85.000001,395.0,0.0,0.0,0.0,1.0,166.665,41.321,41.321,49.545,49.545,34.0,-35.055,21.572,-33.684,21.094,0.0,1782.205,0.4350000000000005,100.0,37.271,36.153999999999996,42.604,41.422,0.0,0.0,100.0,0.0,0.0,0.0,0.0,4156.625,3676.7,4057.875,3882.5,302.41566666666665,303.0443333333333,315.191,315.3425,22.1765,20.8419,22.398888888888887,21.6785,314.999998,314.999998,324.999988,324.999988,99.56132857142858,99.5103,99.59152857142857,99.55655714285714,0.01750000000000007,-0.19999999999999996,-0.2463333333333333,-0.009999999999999787,-0.03333333333333144,-0.045000000000001705,1.55,1.6065,39.602999999999994,31.261499999999998,40.992999999999995,36.4905,57.239000000000004,37.9585,66.97749999999999,56.1785,55.239000000000004,36.917,65.412,54.284,54.489000000000004,36.405,65.4175,53.5965,-0.098,-0.161,0.10500500000000001,0.10698500000000001,0.0,216.11,215.98000000000002,212.92666666666668,212.92666666666668,0.0,0.0
29,0.0,0.0,0.0,1.0,1.0,0.0,0.0,1.0,0.0,100.0,1.0,1.1856,26.0,0.0,0.0,0.0,59.999996,0.0,26.0,26.0,26.0,26.0,-0.16625,0.2289000000000001,0.010266666666666667,287.888,-2.5232,-2.573375,-1.5244,-1.5945,-177.98000000000002,216.08249999999998,190.355375,0.0,0.0,0.0,0.0,0.05840000000000001,-5.498166666666667,-5.498166666666667,-0.8301000000000001,-0.8245,-0.07944444444444443,-0.7400000000000002,69.11500000000001,-0.11180000000000012,-0.48449999999999993,1.2424999999999997,100.0,1.0,1.0,213.10000000000002,0.0,0.0,0.0,0.0,0.0,0.0,0.0,9032.5,0.0,55.0,5.0,248.79666666666668,1.0,0.0,0.0,0.0,0.0,0.0,0.0,0.0,1.4549999999999983,1.4549999999999983,0.0,0.0,1.0,55.0,616.79921,10000.0,85.000001,85.000001,85.000001,85.000001,395.0,0.0,0.0,0.0,1.0,333.33500000000004,41.397,41.397,48.66,48.66,34.0,-35.97,22.648,-36.392,22.186,0.0,1782.155,0.26500000000000057,100.0,36.867000000000004,35.874,42.998000000000005,41.632,0.0,0.0,100.0,0.0,0.0,0.0,0.0,4220.375,3816.4,4265.75,4008.3,302.34833333333336,302.747,314.7133333333333,314.95775,22.1865,20.848300000000002,22.410222222222224,21.6876,314.999998,314.999998,324.999988,324.999988,99.56134285714286,99.51031666666667,99.59167142857143,99.5567,0.010499999999999954,-0.18466666666666676,-0.24099999999999966,-0.005333333333332746,-0.03833333333332689,-0.02833333333332888,1.4885,1.5465,39.665,31.302,41.064,36.5475,57.233000000000004,38.0085,66.994,56.2235,55.233000000000004,36.963,65.428,54.328,54.480999999999995,36.449,65.4295,53.638999999999996,-0.1045,-0.14200000000000002,0.09983500000000001,0.11049,0.0,216.41500000000002,216.3,213.10000000000002,213.10000000000002,0.0,0.0
30,0.0,0.0,0.0,1.0,1.0,0.0,0.0,1.0,0.0,100.0,1.0,1.1856,26.0,0.0,0.0,0.0,59.999996,0.0,26.0,26.0,26.0,26.0,-0.16037499999999993,0.2530000000000001,0.039433333333333334,287.369,-2.5173,-2.573625,-1.5126,-1.5433000000000001,-174.45,216.07999999999998,190.329,0.0,0.0,0.0,0.0,0.06043333333333334,-5.498166666666667,-5.498166666666667,-0.8338,0.7955,-0.08055555555555571,0.831,69.232,-0.10460000000000003,-0.49193333333333333,0.9900000000000002,100.0,1.0,1.0,213.51666666666665,0.0,0.0,0.0,0.0,0.0,0.0,0.0,9050.2,0.0,55.0,5.0,249.21666666666667,0.0,0.0,0.0,0.0,0.0,0.0,1.0,0.0,1.5060000000000002,1.5060000000000002,0.0,0.0,0.0,55.0,616.79921,10000.0,85.000001,85.000001,85.000001,85.000001,395.0,0.0,0.0,0.0,1.0,166.665,40.329,40.329,48.92,48.92,34.0,-34.082499999999996,23.77,-34.998,23.23,0.0,1782.105,0.0600000000000005,100.0,37.949,36.542,42.915,41.431,0.0,0.0,100.0,0.0,0.0,0.0,0.0,4243.625,3867.5,4206.125,4181.3,301.9746666666667,302.5276666666667,314.782,314.719,22.197499999999998,20.8555,22.422,21.6972,314.999998,314.999998,324.999988,324.999988,99.56134285714286,99.51035,99.59181428571429,99.55684285714285,0.05025000000000013,-0.17233333333333323,-0.2283333333333326,0.01100000000000012,-0.046666666666666856,-0.054999999999999716,1.5105,1.569,39.733999999999995,31.3465,41.138,36.6075,57.232,38.0655,67.0075,56.2695,55.230999999999995,37.0155,65.439,54.372,54.477999999999994,36.499,65.438,53.682,-0.133,-0.1405,0.10861000000000001,0.10409500000000001,0.0,216.81,216.74,213.51666666666665,213.51666666666665,0.0,0.0
31,0.0,0.0,0.0,1.0,1.0,0.0,0.0,1.0,0.0,100.0,1.0,1.1856,26.0,0.0,0.0,0.0,59.999996,0.0,26.0,26.0,26.0,26.0,-0.131625,0.2258,0.021733333333333334,287.247,-2.5162,-2.648625,-1.5472000000000001,-1.5417,-171.12,216.075,190.30475,0.0,0.0,0.0,0.0,0.06236666666666657,-5.498166666666667,-5.498166666666667,-0.8160000000000001,-0.498,-0.06655555555555548,0.677,69.345,-0.08539999999999992,-0.492,0.5125000000000002,100.0,1.0,1.0,213.76,0.0,0.0,0.0,0.0,0.0,0.0,0.0,9060.4,0.0,55.0,5.0,249.62666666666667,1.0,0.0,0.0,0.0,0.0,0.0,1.0,0.0,1.5539999999999985,1.5539999999999985,0.0,0.0,1.0,55.0,616.79921,10000.0,85.000001,85.000001,85.000001,85.000001,395.0,0.0,0.0,0.0,1.0,333.33500000000004,40.771,40.771,47.592,47.592,34.0,-31.0975,25.509999999999998,-34.698,24.248,0.0,1782.055,0.08499999999999996,100.0,37.76,36.721000000000004,43.608000000000004,42.14,0.0,0.0,100.0,0.0,0.0,0.0,0.0,3916.25,3964.5,4266.375,4081.4,302.9463333333333,302.41133333333335,314.609,314.80875,22.2076,20.8622,22.433333333333334,21.7065,314.999998,314.999998,324.999988,324.999988,99.56135714285715,99.51038333333334,99.59197142857143,99.55697142857143,0.0495000000000001,-0.16766666666666663,-0.19599999999999973,0.035333333333332995,-0.01999999999999602,-0.03999999999999915,1.4669999999999999,1.4915,39.798,31.3885,41.209,36.6655,57.229,38.117,67.0245,56.316,55.227999999999994,37.0635,65.455,54.417,54.473,36.545,65.45,53.726,-0.1215,-0.135,0.10586500000000001,0.103175,0.0,217.11,217.06,213.76,213.76,0.0,0.0
32,0.0,0.0,0.0,1.0,1.0,0.0,0.0,1.0,0.0,100.0,1.0,1.1856,26.0,0.0,0.0,0.0,59.999996,0.0,26.0,26.0,26.0,26.0,-0.08137499999999998,0.2309000000000001,-0.05173333333333334,287.689,-2.5395,-2.6081250000000002,-1.5026000000000002,-1.6487,-167.57999999999998,216.065,190.27925,0.0,0.0,0.0,0.0,0.06443333333333334,-5.498166666666667,-5.498166666666667,-0.8414,0.0125,-0.09322222222222232,-1.0859999999999999,69.459,-0.0686,-0.5110333333333332,0.6375000000000002,100.0,1.0,1.0,214.34,0.0,0.0,0.0,0.0,0.0,0.0,0.0,9085.0,0.0,55.0,5.0,250.03666666666666,0.0,0.0,0.0,0.0,0.0,0.0,1.0,0.0,1.6050000000000004,1.6050000000000004,0.0,0.0,0.0,55.0,616.79921,10000.0,85.000001,85.000001,85.000001,85.000001,395.0,0.0,0.0,0.0,1.0,333.33500000000004,40.527,40.527,49.179,49.179,34.0,-33.0925,24.384,-29.926000000000002,23.864,0.0,1782.005,0.04499999999999993,100.0,37.558,36.944,43.127,42.077,0.0,0.0,100.0,0.0,0.0,0.0,0.0,4222.75,3785.6000000000004,3904.375,3799.9,302.25233333333335,302.666,315.56033333333335,315.4535,22.2184,20.8693,22.44511111111111,21.7161,314.999998,314.999998,324.999988,324.999988,99.56135714285715,99.5104,99.59211428571429,99.55711428571429,0.06349999999999989,-0.16066666666666674,-0.19533333333333314,0.048666666666666636,-0.054999999999999716,-0.03499999999999659,1.584,1.612,39.864999999999995,31.433500000000002,41.282,36.7255,57.227000000000004,38.172,67.0365,56.361000000000004,55.226,37.114,65.466,54.461,54.469,36.5935,65.457,53.7685,-0.13,-0.135,0.11236000000000002,0.106355,0.0,217.48000000000002,217.4,214.34,214.34,0.0,0.0
33,0.0,0.0,0.0,1.0,1.0,0.0,0.0,1.0,0.0,100.0,1.0,1.1856,26.0,0.0,0.0,0.0,59.999996,0.0,26.0,26.0,26.0,26.0,-0.08787500000000004,0.22520000000000007,-0.03133333333333333,287.628,-2.4843,-2.6225,-1.552,-1.5643,-164.04,216.055,190.252875,0.0,0.0,0.0,0.0,0.0665,-5.498166666666667,-5.498166666666667,-0.8382000000000001,-0.2415,-0.08055555555555571,1.488,69.578,-0.05559999999999965,-0.4918666666666667,0.3700000000000001,100.0,1.0,1.0,214.54000000000002,0.0,0.0,0.0,0.0,0.0,0.0,0.0,9093.6,0.0,55.0,5.0,250.46333333333334,1.0,0.0,0.0,0.0,0.0,0.0,1.0,0.0,1.6559999999999988,1.6559999999999988,0.0,0.0,1.0,55.0,616.79921,10000.0,85.000001,85.000001,85.000001,85.000001,395.0,0.0,0.0,0.0,1.0,166.665,41.122,41.122,48.553,48.553,34.0,-28.9325,25.88,-32.22,26.1,0.0,1781.956,-0.054999999999999716,100.0,37.603,36.493,43.121,42.058,0.0,0.0,100.0,0.0,0.0,0.0,0.0,3903.5,3830.4,4151.625,4123.4,302.9483333333333,302.78066666666666,314.94433333333336,314.80725,22.2291,20.8763,22.456888888888887,21.7258,314.999998,314.999998,324.999988,324.999988,99.56137142857143,99.51041666666667,99.59227142857142,99.55727142857143,0.07925000000000004,-0.1393333333333333,-0.17366666666666664,0.06400000000000006,-0.021666666666668277,-0.046666666666666856,1.513,1.5405,39.932,31.477,41.355999999999995,36.786500000000004,57.224999999999994,38.223,67.051,56.408,55.224000000000004,37.161,65.478,54.5065,54.466,36.6385,65.466,53.8125,-0.1395,-0.1215,0.10697000000000001,0.104495,0.0,217.82999999999998,217.79500000000002,214.54000000000002,214.54000000000002,0.0,0.0
34,0.0,0.0,0.0,1.0,1.0,0.0,0.0,1.0,0.0,100.0,1.0,1.1856,26.0,0.0,0.0,0.0,59.999996,0.0,26.0,26.0,26.0,26.0,-0.06525000000000003,0.22630000000000017,-0.0757,288.086,-2.5979,-2.591,-1.5697999999999999,-1.57,-160.69,216.04250000000002,190.227125,0.0,0.0,0.0,0.0,0.06843333333333335,-5.498166666666667,-5.498166666666667,-0.8681000000000001,-0.833,-0.048666666666666636,1.146,69.687,-0.040000000000000036,-0.5043666666666666,0.2650000000000001,100.0,1.0,1.0,214.95,0.0,0.0,0.0,0.0,0.0,0.0,0.0,9110.9,0.0,55.0,5.0,250.85666666666668,0.0,0.0,0.0,0.0,0.0,0.0,1.0,0.0,1.7040000000000006,1.7040000000000006,0.0,0.0,0.0,55.0,616.79921,10000.0,85.000001,85.000001,85.000001,85.000001,395.0,0.0,0.0,0.0,1.0,166.665,41.504,41.504,49.591,49.591,34.0,-30.24,25.9,-28.91,27.0,0.0,1781.907,-0.009999999999999787,100.0,37.208,36.253,42.833,42.18,0.0,0.0,100.0,0.0,0.0,0.0,0.0,3947.75,3795.6000000000004,3870.5,4049.7,302.9873333333333,302.958,315.65433333333334,314.953,22.239,20.883,22.468,21.7349,314.999998,314.999998,324.999988,324.999988,99.5614,99.51045,99.5924,99.5574,0.08450000000000024,-0.1256666666666666,-0.15866666666666696,0.09266666666666712,-0.041666666666671404,-0.041666666666671404,1.5434999999999999,1.5635,39.994,31.5185,41.425,36.8435,57.223,38.2705,67.0615,56.452,55.221000000000004,37.205,65.488,54.549,54.461,36.68,65.472,53.8545,-0.1355,-0.128,0.10868000000000001,0.11189,0.0,218.14499999999998,218.115,214.95,214.95,0.0,0.0
35,0.0,0.0,0.0,1.0,1.0,0.0,0.0,1.0,0.0,100.0,1.0,1.1856,26.0,0.0,0.0,0.0,59.999996,0.0,26.0,26.0,26.0,26.0,-0.05612499999999998,0.23060000000000014,-0.13243333333333332,288.223,-2.6197,-2.54475,-1.6045,-1.5563,-157.14,216.0275,190.197625,0.0,0.0,0.0,0.0,0.07050000000000001,-5.498166666666667,-5.498166666666667,-0.9123,-0.634,-0.045666666666666966,-0.8159999999999998,69.80199999999999,-0.030199999999999783,-0.51,0.2575000000000003,100.0,1.0,1.0,215.37333333333333,0.0,0.0,0.0,0.0,0.0,0.0,0.0,9128.9,0.0,55.0,5.0,251.26666666666665,1.0,0.0,0.0,0.0,0.0,0.0,1.0,0.0,1.754999999999999,1.754999999999999,0.0,0.0,1.0,55.0,616.79921,10000.0,85.000001,85.000001,85.000001,85.000001,395.0,0.0,0.0,0.0,1.0,333.33500000000004,41.443,41.443,48.903999999999996,48.903999999999996,34.0,-30.11,27.53,-30.312,25.136,0.0,1781.854,-0.0649999999999995,100.0,36.732,36.472,42.348,41.83,0.0,0.0,100.0,0.0,0.0,0.0,0.0,3928.0,3986.0,4044.25,3799.7,303.24066666666664,302.158,315.2513333333333,315.586,22.2494,20.8901,22.479555555555557,21.7445,314.999998,314.999998,324.999988,324.999988,99.5614,99.51046666666667,99.59255714285715,99.55755714285715,0.08424999999999994,-0.11799999999999988,-0.15066666666666695,0.1026666666666669,-0.03166666666666629,-0.03166666666666629,1.5975,1.596,40.059,31.563000000000002,41.497,36.903,57.218,38.321,67.0715,56.496,55.217,37.2515,65.496,54.592,54.455,36.7245,65.477,53.896,-0.1295,-0.1235,0.103455,0.11563000000000001,0.0,218.48000000000002,218.45499999999998,215.37333333333333,215.37333333333333,0.0,0.0
36,0.0,0.0,0.0,1.0,1.0,0.0,0.0,1.0,0.0,100.0,1.0,1.1856,26.0,0.0,0.0,0.0,59.999996,0.0,26.0,26.0,26.0,26.0,-0.027249999999999996,0.23680000000000012,-0.006066666666666666,287.521,-2.6277,-2.61375,-1.5735000000000001,-1.5530000000000002,-153.78,216.0125,190.16825,0.0,0.0,0.0,0.0,0.07246666666666657,-5.498166666666667,-5.498166666666667,-0.901,0.652,-0.07799999999999985,-1.646,69.912,-0.024599999999999955,-0.48229999999999995,0.3025000000000002,100.0,1.0,1.0,215.55,0.0,0.0,0.0,0.0,0.0,0.0,0.0,9136.4,0.0,55.0,5.0,251.66333333333336,0.0,0.0,0.0,0.0,0.0,0.0,1.0,0.0,1.8030000000000008,1.8030000000000008,0.0,0.0,0.0,55.0,616.79921,10000.0,85.000001,85.000001,85.000001,85.000001,395.0,0.0,0.0,0.0,1.0,333.33500000000004,40.802,40.802,48.644999999999996,48.644999999999996,34.0,-30.7275,26.814,-31.95,28.584,0.0,1781.806,-0.13999999999999968,100.0,37.237,37.178,42.217,41.872,0.0,0.0,100.0,0.0,0.0,0.0,0.0,4066.375,3778.9,4281.875,4233.2,302.867,302.521,314.83433333333335,314.499,22.2594,20.897100000000002,22.490555555555556,21.7535,314.999998,314.999998,324.999988,324.999988,99.56142857142858,99.51048333333334,99.59268571428571,99.5577,0.09600000000000009,-0.1213333333333333,-0.14466666666666672,0.09533333333333349,-0.04333333333332945,-0.03499999999999659,1.51,1.526,40.120999999999995,31.6065,41.566,36.9595,57.219,38.3715,67.082,56.539,55.216,37.298500000000004,65.505,54.634,54.453,36.7695,65.483,53.937,-0.1405,-0.1225,0.10490000000000001,0.10700000000000001,0.0,218.885,218.85000000000002,215.55,215.55,0.0,0.0
