,ABS Active,ABS Enabled,AID Allow Tire Blankets,AID Auto Blip,AID Auto Clutch,AID Auto Shift,AID Fuel Rate,AID Ideal Line,AID Mech Damage,AID Stability,AID Tire Wear Rate,Air Density,Air Temp,Ballast,Best Lap Delta,Best Lap Time,Brake Bias,Brake Pos,Brake Temp FL,Brake Temp FR,Brake Temp RL,Brake Temp RR,CG Accel Lateral,CG Accel Longitudinal,CG Accel Vertical,CG Height,Camber FL,Camber FR,Camber RL,Camber RR,Car Coord X,Car Coord Y,Car Coord Z,Car Damage Front,Car Damage Left,Car Damage Rear,Car Damage Right,Car Pos Norm,Caster FL,Caster FR,Chassis Pitch Angle,Chassis Pitch Rate,Chassis Roll Angle,Chassis Roll Rate,Chassis Velocity X,Chassis Velocity Y,Chassis Velocity Z,Chassis Yaw Rate,Clutch Pos,DRS Active,DRS Available,Drive Train Speed,ERS Heat Charging,ERS Is Charging,ERS Max Energy,ERS Power Level,ERS Recovery Level,Engine Brake Setting,Engine Limiter,Engine RPM,Flags,Fuel Level,Gear,Ground Speed,HR Sample Clock,In Pit,KERS Charge,KERS Deployed Energy,KERS Input,KERS Max Energy,LR Sample Clock,Lap Invalidated,Lap Time,Lap Time2,Last Lap Time,Last Sector Time,MR Sample Clock,Max Fuel,Max Power,Max RPM,Max Sus Travel FL,Max Sus Travel FR,Max Sus Travel RL,Max Sus Travel RR,Max Torque,Max Turbo Boost,Num Tires Off Track,Penalties Enabled,Position,Raw Data Sample Rate,Ride Height FL,Ride Height FR,Ride Height RL,Ride Height RR,Road Temp,Self Align Torque FL,Self Align Torque FR,Self Align Torque RL,Self Align Torque RR,Session Lap Count,Session Time Left,Steering Angle,Surface Grip,Suspension Travel FL,Suspension Travel FR,Suspension Travel RL,Suspension Travel RR,TC Active,TC Enabled,Throttle Pos,Tire Dirt Level FL,Tire Dirt Level FR,Tire Dirt Level RL,Tire Dirt Level RR,Tire Load FL,Tire Load FR,Tire Load RL,Tire Load RR,Tire Loaded Radius FL,Tire Loaded Radius FR,Tire Loaded Radius RL,Tire Loaded Radius RR,Tire Pressure FL,Tire Pressure FR,Tire Pressure RL,Tire Pressure RR,Tire Radius FL,Tire Radius FR,Tire Radius RL,Tire Radius RR,Tire Rubber Grip FL,Tire Rubber Grip FR,Tire Rubber Grip RL,Tire Rubber Grip RR,Tire Slip Angle FL,Tire Slip Angle FR,Tire Slip Angle RL,Tire Slip Angle RR,Tire Slip Ratio FL,Tire Slip Ratio FR,Tire Slip Ratio RL,Tire Slip Ratio RR,Tire Temp Core FL,Tire Temp Core FR,Tire Temp Core RL,Tire Temp Core RR,Tire Temp Inner FL,Tire Temp Inner FR,Tire Temp Inner RL,Tire Temp Inner RR,Tire Temp Middle FL,Tire Temp Middle FR,Tire Temp Middle RL,Tire Temp Middle RR,Tire Temp Outer FL,Tire Temp Outer FR,Tire Temp Outer RL,Tire Temp Outer RR,Toe In FL,Toe In FR,Toe In RL,Toe In RR,Turbo Boost,Wheel Angular Speed FL,Wheel Angular Speed FR,Wheel Angular Speed RL,Wheel Angular Speed RR,Wind Direction,Wind Speed
0,0.0,0.0,0.0,1.0,1.0,0.0,0.0,1.0,0.0,100.0,1.0,1.1856,26.0,0.0,0.0,0.0,59.99999,0.0,26.0,26.0,26.0,26.0,-0.18033333333333335,0.3346,0.04123333333333333,297.882,-2.7781,-2.623125,-1.4796,-1.5816249999999998,-275.52,216.16500000000002,190.990625,0.0,0.0,0.0,0.0,0.0016666666666665941,-5.498166666666667,-5.498166666666667,-0.3739,1.2843333333333333,-0.056111111111111445,-0.694,65.647,-0.1029,-0.01396,1.9900000000000002,100.0,1.0,1.0,202.64333333333332,0.0,0.0,0.0,0.0,0.0,0.0,0.0,8589.3,0.0,55.0,5.0,236.29333333333335,0.0,0.0,0.0,0.0,0.0,0.0,0.0,0.0,0.006000000000000227,0.006000000000000227,0.0,0.0,0.0,55.0,616.79921,10000.0,85.0,85.0,85.0,85.0,395.0,0.0,0.0,0.0,1.0,20.0,61.737,61.737,48.92,48.92,34.0,-24.978,15.128333333333334,-34.21333333333334,20.9125,0.0,1782.612,1.7250000000000014,100.0,20.655,19.6705,41.455,40.403999999999996,0.0,0.0,100.0,0.0,0.0,0.0,0.0,2455.4285714285716,2691.2,4200.555555555556,3950.2,307.349,306.29975,314.59725,314.99575,21.69088888888889,20.4305,21.7335,21.3076,314.99999,314.99999,324.99998,324.99998,99.55761428571428,99.50613333333334,99.56301428571429,99.54478571428571,-0.13149999999999995,-0.18699999999999994,-0.22883333333333333,-0.013666666666666605,-0.05833333333333002,-0.061666666666667425,1.5215,1.6015000000000001,36.568,28.690333333333335,36.834,34.173,55.497,33.1635,58.2915,51.455666666666666,53.376000000000005,32.444,56.9295,49.836666666666666,52.4855,32.0635,56.8765,49.279666666666664,0.09633333333333338,-0.16400000000000015,0.10493000000000001,0.11011000000000001,0.0,205.72,205.57999999999998,202.64333333333332,202.64333333333332,0.0,0.0
1,0.0,0.0,0.0,1.0,1.0,0.0,0.0,1.0,0.0,100.0,1.0,1.1856,26.0,0.0,0.0,0.0,59.999996,0.0,26.0,26.0,26.0,26.0,-0.20566666666666666,0.34340000000000015,0.23706666666666668,296.98199999999997,-2.681,-2.963,-1.4749,-1.6113750000000002,-272.17,216.18,190.970375,0.0,0.0,0.0,0.0,0.0036333333333333773,-5.498166666666667,-5.498166666666667,-0.322,-0.7126666666666667,-0.11822222222222223,-1.205,65.814,-0.1242,0.00542,2.2859999999999996,100.0,1.0,1.0,202.84333333333333,0.0,0.0,0.0,0.0,0.0,0.0,0.0,8597.8,0.0,55.0,5.0,236.89666666666668,1.0,0.0,0.0,0.0,0.0,0.0,0.0,0.0,0.05699999999999861,0.05699999999999861,0.0,0.0,1.0,55.0,616.79921,10000.0,85.000001,85.000001,85.000001,85.000001,395.0,0.0,0.0,0.0,1.0,333.33500000000004,62.897,62.897,47.729,47.729,34.0,-26.126,10.721666666666664,-39.986666666666665,24.9075,0.0,1782.56,1.8500000000000014,100.0,20.825,19.5485,43.574,41.609,0.0,0.0,100.0,0.0,0.0,0.0,0.0,2552.5714285714284,1862.1999999999998,4530.222222222223,4701.8,307.1565,308.9445,313.7535,313.126,21.7,20.4342,21.7442,21.3167,314.999998,314.999998,324.999988,324.999988,99.55762857142857,99.50615,99.56315714285714,99.54492857142857,-0.15725,-0.22050000000000003,-0.2576666666666666,-0.04483333333333339,-0.05666666666667197,-0.05833333333333002,1.3535,1.4605000000000001,36.625,28.71366666666667,36.900999999999996,34.2295,55.480000000000004,33.195499999999996,58.342,51.52133333333333,53.36,32.4735,56.977000000000004,49.89966666666667,52.4685,32.091499999999996,56.9215,49.34133333333333,0.10899999999999999,-0.1745000000000001,0.100385,0.11503000000000001,0.0,206.24,206.06,202.84333333333333,202.84333333333333,0.0,0.0
2,0.0,0.0,0.0,1.0,1.0,0.0,0.0,1.0,0.0,100.0,1.0,1.1856,26.0,0.0,0.0,0.0,59.999996,0.0,26.0,26.0,26.0,26.0,-0.22777777777777786,0.3288,-0.03636666666666667,297.745,-2.6596,-2.9335,-1.4499,-1.655875,-268.61,216.19,190.9505,0.0,0.0,0.0,0.0,0.005699999999999927,-5.498166666666667,-5.498166666666667,-0.3749,0.3306666666666667,-0.09766666666666657,1.8679999999999999,65.98,-0.14930000000000002,-0.05014,2.645999999999999,100.0,1.0,1.0,203.85,0.0,0.0,0.0,0.0,0.0,0.0,0.0,8640.4,0.0,55.0,5.0,237.49666666666667,0.0,0.0,0.0,0.0,0.0,0.0,0.0,0.0,0.11100000000000065,0.11100000000000065,0.0,0.0,0.0,55.0,616.79921,10000.0,85.000001,85.000001,85.000001,85.000001,395.0,0.0,0.0,0.0,1.0,166.665,61.722,61.722,49.789,49.789,34.0,-28.94,12.23333333333333,-32.916666666666664,16.7625,0.0,1782.507,1.5500000000000007,100.0,21.54,19.5725,43.394999999999996,41.093,0.0,0.0,100.0,0.0,0.0,0.0,0.0,2765.285714285714,2151.4,3811.777777777778,3724.7,306.4135,307.97325,315.5045,315.6715,21.71,20.438,21.7552,21.3259,314.999998,314.999998,324.999988,324.999988,99.55764285714285,99.50616666666667,99.56331428571428,99.54507142857143,-0.16349999999999998,-0.23324999999999996,-0.30199999999999994,-0.08350000000000002,-0.05833333333333002,-0.06833333333332803,1.608,1.6935,36.687,28.737666666666666,36.97,34.287,55.466,33.228,58.388,51.58133333333333,53.347,32.503,57.019999999999996,49.957,52.4555,32.1195,56.9615,49.397333333333336,0.08466666666666667,-0.1575000000000002,0.09546500000000001,0.11594000000000002,0.0,206.75,206.555,203.85000000000002,203.85,0.0,0.0
3,0.0,0.0,0.0,1.0,1.0,0.0,0.0,1.0,0.0,100.0,1.0,1.1856,26.0,0.0,0.0,0.0,59.999996,0.0,26.0,26.0,26.0,26.0,-0.2443333333333334,0.3317000000000001,-0.0475,297.47,-2.7737,-2.856625,-1.4643000000000002,-1.6475,-265.44,216.195,190.931875,0.0,0.0,0.0,0.0,0.007533333333333392,-5.498166666666667,-5.498166666666667,-0.3326,0.3793333333333333,-0.07066666666666643,-1.1950000000000003,66.137,-0.16455,0.0022800000000000003,1.952,100.0,1.0,1.0,203.99333333333334,0.0,0.0,0.0,0.0,0.0,0.0,0.0,8646.6,0.0,55.0,5.0,238.05666666666667,1.0,0.0,0.0,0.0,0.0,0.0,0.0,0.0,0.15899999999999892,0.15899999999999892,0.0,0.0,1.0,55.0,616.79921,10000.0,85.000001,85.000001,85.000001,85.000001,395.0,0.0,0.0,0.0,1.0,166.665,62.927,62.927,47.607,47.607,34.0,-23.586,10.863333333333333,-40.61666666666667,20.240000000000002,0.0,1782.459,1.3599999999999994,100.0,21.134999999999998,19.589,43.362,41.321,0.0,0.0,100.0,0.0,0.0,0.0,0.0,2272.4285714285716,1980.8,4459.666666666667,4203.1,307.8995,308.37575,313.975,314.371,21.718333333333334,20.4416,21.765,21.3343,314.999998,314.999998,324.999988,324.999988,99.55765714285714,99.50618333333334,99.56344285714286,99.5452,-0.16225,-0.22999999999999998,-0.29899999999999993,-0.07766666666666666,-0.06499999999999773,-0.060000000000002274,1.466,1.528,36.739999999999995,28.760333333333335,37.031,34.3395,55.449,33.26,58.4305,51.641666666666666,53.331,32.5325,57.06,50.01466666666666,52.4385,32.1475,56.999,49.45366666666666,0.06766666666666676,-0.13750000000000018,0.1092,0.10849500000000001,0.0,207.265,207.065,203.99333333333334,203.99333333333334,0.0,0.0
4,0.0,0.0,0.0,1.0,1.0,0.0,0.0,1.0,0.0,100.0,1.0,1.1856,26.0,0.0,0.0,0.0,59.999996,0.0,26.0,26.0,26.0,26.0,-0.23299999999999998,0.3264,-0.008833333333333334,297.623,-2.7102,-2.902125,-1.48415,-1.653375,-262.26,216.1925,190.91325,0.0,0.0,0.0,0.0,0.009399999999999964,-5.498166666666667,-5.498166666666667,-0.3672,-0.7203333333333334,-0.1336666666666666,-1.5030000000000001,66.288,-0.15645,-0.03352,1.8379999999999992,100.0,1.0,1.0,204.5966666666667,0.0,0.0,0.0,0.0,0.0,0.0,0.0,8672.0,0.0,55.0,5.0,238.60333333333335,0.0,0.0,0.0,0.0,0.0,0.0,0.0,0.0,0.20700000000000074,0.20700000000000074,0.0,0.0,0.0,55.0,616.79921,10000.0,85.000001,85.000001,85.000001,85.000001,395.0,0.0,0.0,0.0,1.0,333.33500000000004,62.393,62.393,48.248,48.248,34.0,-28.146,12.0,-36.983333333333334,17.745,0.0,1782.41,1.4350000000000023,100.0,20.914,19.3595,43.76,41.348,0.0,0.0,100.0,0.0,0.0,0.0,0.0,2686.4285714285716,2100.6,4215.444444444444,3683.8,306.807,308.03125,314.514,315.6425,21.726777777777777,20.4452,21.775,21.3426,314.999998,314.999998,324.999988,324.999988,99.55767142857142,99.5062,99.56358571428571,99.54532857142857,-0.16600000000000004,-0.22575,-0.2783333333333333,-0.06399999999999995,-0.041666666666671404,-0.04999999999999716,1.5225,1.6165,36.792,28.782333333333334,37.094,34.3915,55.431,33.2905,58.475,51.69733333333333,53.314,32.5605,57.102000000000004,50.06766666666667,52.4215,32.174,57.0385,49.50533333333333,0.07666666666666666,-0.14300000000000024,0.10408500000000001,0.11124,0.0,207.655,207.515,204.5966666666667,204.59666666666666,0.0,0.0
5,0.0,0.0,0.0,1.0,1.0,0.0,0.0,1.0,0.0,100.0,1.0,1.1856,26.0,0.0,0.0,0.0,59.999996,0.0,26.0,26.0,26.0,26.0,-0.2128888888888889,0.31810000000000005,-0.0061333333333333335,297.607,-2.7323,-2.919375,-1.47605,-1.6327500000000001,-258.68,216.185,190.891625,0.0,0.0,0.0,0.0,0.011466666666666514,-5.498166666666667,-5.498166666666667,-0.3569,0.3466666666666667,-0.12988888888888894,-0.23499999999999988,66.459,-0.15245,-0.00822,1.7140000000000004,100.0,1.0,1.0,205.05666666666667,0.0,0.0,0.0,0.0,0.0,0.0,0.0,8691.6,0.0,55.0,5.0,239.21666666666667,1.0,0.0,0.0,0.0,0.0,0.0,0.0,0.0,0.26099999999999923,0.26099999999999923,0.0,0.0,1.0,55.0,616.79921,10000.0,85.000001,85.000001,85.000001,85.000001,395.0,0.0,0.0,0.0,1.0,166.665,62.805,62.805,48.355000000000004,48.355000000000004,34.0,-26.218,12.098333333333333,-37.78666666666666,19.5175,0.0,1782.357,0.8200000000000003,100.0,20.884999999999998,19.223,43.514,41.147999999999996,0.0,0.0,100.0,0.0,0.0,0.0,0.0,2602.857142857143,1997.5,4306.666666666667,4067.2,307.025,308.40125,314.3815,314.71725,21.736444444444444,20.4492,21.786,21.3519,314.999998,314.999998,324.999988,324.999988,99.5577,99.50623333333333,99.56375714285714,99.54548571428572,-0.129,-0.19825000000000004,-0.277,-0.07133333333333336,-0.06666666666666998,-0.04999999999999716,1.4954999999999998,1.5495,36.852999999999994,28.807333333333332,37.162,34.449,55.414,33.324,58.522999999999996,51.75933333333333,53.298,32.591,57.147,50.127,52.405,32.2035,57.0805,49.563,0.03500000000000014,-0.10250000000000004,0.10066000000000001,0.109295,0.0,208.24,208.07,205.05666666666667,205.05666666666667,0.0,0.0
6,0.0,0.0,0.0,1.0,1.0,0.0,0.0,1.0,0.0,100.0,1.0,1.1856,26.0,0.0,0.0,0.0,59.999996,0.0,26.0,26.0,26.0,26.0,-0.19933333333333336,0.33709999999999996,0.006766666666666667,297.546,-2.6924,-2.95575,-1.516,-1.6324999999999998,-255.69,216.175,190.8735,0.0,0.0,0.0,0.0,0.01323333333333332,-5.498166666666667,-5.498166666666667,-0.3507,0.147,-0.11166666666666636,0.9979999999999998,66.601,-0.14215,-0.00634,1.2940000000000005,100.0,1.0,1.0,205.49,0.0,0.0,0.0,0.0,0.0,0.0,0.0,8709.9,0.0,55.0,5.0,239.73000000000002,0.0,0.0,0.0,0.0,0.0,0.0,0.0,0.0,0.30600000000000094,0.30600000000000094,0.0,0.0,0.0,55.0,616.79921,10000.0,85.000001,85.000001,85.000001,85.000001,395.0,0.0,0.0,0.0,1.0,333.33500000000004,62.698,62.698,48.157,48.157,34.0,-23.986,14.291666666666668,-35.693333333333335,20.755,0.0,1782.31,0.5899999999999999,100.0,20.891,19.147,43.66,41.349000000000004,0.0,0.0,100.0,0.0,0.0,0.0,0.0,2467.714285714286,2167.8,4191.222222222223,4071.9,307.201,307.951,314.5865,314.78475,21.744333333333334,20.4525,21.7952,21.3598,314.999998,314.999998,324.999988,324.999988,99.5577,99.50623333333333,99.56388571428572,99.54561428571428,-0.10375000000000001,-0.16899999999999993,-0.249,-0.04633333333333334,-0.04833333333333201,-0.06333333333333258,1.526,1.5645,36.902,28.828333333333333,37.22,34.4985,55.397,33.3535,58.5655,51.81766666666667,53.282,32.6175,57.187,50.18266666666666,52.3885,32.229,57.118,49.617333333333335,0.01633333333333331,-0.08199999999999985,0.10083,0.10909,0.0,208.63,208.525,205.49,205.49,0.0,0.0
7,0.0,0.0,0.0,1.0,1.0,0.0,0.0,1.0,0.0,100.0,1.0,1.1856,26.0,0.0,0.0,0.0,59.999996,0.0,26.0,26.0,26.0,26.0,-0.14700000000000002,0.3256000000000001,0.025633333333333334,297.47,-2.6756,-2.9063749999999997,-1.48335,-1.6641249999999999,-252.07999999999998,216.155,190.851875,0.0,0.0,0.0,0.0,0.01529999999999998,-5.498166666666667,-5.498166666666667,-0.35450000000000004,0.11366666666666668,-0.09011111111111125,1.248,66.77,-0.12205,-0.014780000000000001,0.8439999999999994,100.0,1.0,1.0,206.01333333333332,0.0,0.0,0.0,0.0,0.0,0.0,0.0,8732.2,0.0,55.0,5.0,240.33666666666667,1.0,0.0,0.0,0.0,0.0,0.0,0.0,0.0,0.35999999999999943,0.35999999999999943,0.0,0.0,1.0,55.0,616.79921,10000.0,85.000001,85.000001,85.000001,85.000001,395.0,0.0,0.0,0.0,1.0,166.665,62.531,62.531,48.431,48.431,34.0,-22.78,15.588333333333331,-33.376666666666665,22.59,0.0,1782.257,0.08500000000000085,100.0,20.902,19.228,43.574,41.647,0.0,0.0,100.0,0.0,0.0,0.0,0.0,2482.857142857143,2228.8,4078.8888888888887,4054.8,307.1145,307.74175,314.82125,314.77575,21.753888888888888,20.4566,21.8063,21.3693,314.999998,314.999998,324.999988,324.999988,99.55771428571428,99.50625,99.56402857142857,99.54575714285714,-0.0595,-0.13,-0.2313333333333334,-0.019000000000000017,-0.045000000000001705,-0.06333333333333258,1.5155,1.558,36.962,28.853666666666665,37.289,34.558,55.376999999999995,33.382999999999996,58.6095,51.879666666666665,53.263,32.644999999999996,57.228,50.24166666666667,52.369,32.254999999999995,57.1565,49.675,-0.021333333333333204,-0.04200000000000026,0.108035,0.11196,0.0,209.14499999999998,209.06,206.01333333333332,206.01333333333332,0.0,0.0
8,0.0,0.0,0.0,1.0,1.0,0.0,0.0,1.0,0.0,100.0,1.0,1.1856,26.0,0.0,0.0,0.0,59.999996,0.0,26.0,26.0,26.0,26.0,-0.0962222222222221,0.3164,0.04426666666666667,297.607,-2.7624,-2.8661250000000003,-1.4677,-1.6138750000000002,-248.88,216.1375,190.832375,0.0,0.0,0.0,0.0,0.017166666666666552,-5.498166666666667,-5.498166666666667,-0.3568,-0.6086666666666667,-0.07111111111111157,0.7759999999999998,66.92099999999999,-0.0971,-0.0055000000000000005,0.2859999999999996,100.0,1.0,1.0,206.39666666666668,0.0,0.0,0.0,0.0,0.0,0.0,0.0,8748.4,0.0,55.0,5.0,240.88333333333333,0.0,0.0,0.0,0.0,0.0,0.0,0.0,0.0,0.40800000000000125,0.40800000000000125,0.0,0.0,0.0,55.0,616.79921,10000.0,85.000001,85.000001,85.000001,85.000001,395.0,0.0,0.0,0.0,1.0,166.665,63.156,63.156,47.714,47.714,34.0,-20.442,16.436666666666667,-32.25,24.997500000000002,0.0,1782.21,-0.10500000000000043,100.0,20.409,19.169,43.599000000000004,41.84,0.0,0.0,100.0,0.0,0.0,0.0,0.0,2306.142857142857,2251.1,4154.111111111111,4154.6,307.8685,307.7775,314.6005,314.5085,21.762,20.4602,21.8161,21.3777,314.999998,314.999998,324.999988,324.999988,99.55772857142857,99.50625,99.56417142857143,99.54588571428572,-0.035499999999999976,-0.09424999999999994,-0.1945,0.023833333333333373,-0.051666666666669414,-0.06333333333333258,1.4925,1.5215,37.013,28.876666666666665,37.351,34.6105,55.352999999999994,33.4095,58.650999999999996,51.937333333333335,53.241,32.6695,57.266999999999996,50.297,52.3465,32.278,57.192499999999995,49.72866666666667,-0.04266666666666663,-0.026499999999999968,0.10562,0.11190000000000001,0.0,209.57,209.54500000000002,206.39666666666668,206.39666666666668,0.0,0.0
9,0.0,0.0,0.0,1.0,1.0,0.0,0.0,1.0,0.0,100.0,1.0,1.1856,26.0,0.0,0.0,0.0,59.999996,0.0,26.0,26.0,26.0,26.0,-0.06277777777777782,0.31210000000000004,-0.010166666666666668,297.195,-2.6972,-2.855375,-1.53145,-1.5982500000000002,-245.46,216.1125,190.811125,0.0,0.0,0.0,0.0,0.019166666666666554,-5.498166666666667,-5.498166666666667,-0.35660000000000003,0.7966666666666666,-0.06811111111111146,-0.2250000000000001,67.077,-0.06955,-0.00218,0.18799999999999883,100.0,1.0,1.0,206.9766666666667,0.0,0.0,0.0,0.0,0.0,0.0,0.0,8772.9,0.0,55.0,5.0,241.44333333333333,1.0,0.0,0.0,0.0,0.0,0.0,0.0,0.0,0.45899999999999963,0.45899999999999963,0.0,0.0,1.0,55.0,616.79921,10000.0,85.000001,85.000001,85.000001,85.000001,395.0,0.0,0.0,0.0,1.0,166.665,62.042,62.042,48.477000000000004,48.477000000000004,34.0,-22.764,17.09,-31.906666666666666,25.255000000000003,0.0,1782.159,-0.33500000000000085,100.0,20.785,19.7785,43.132,42.013,0.0,0.0,100.0,0.0,0.0,0.0,0.0,2665.714285714286,2230.0,4162.333333333333,4112.5,306.7595,307.59925,314.77075,314.6335,21.770888888888887,20.4643,21.8264,21.3866,314.999998,314.999998,324.999988,324.999988,99.55772857142857,99.50626666666666,99.56432857142858,99.54602857142856,-0.003750000000000031,-0.07199999999999995,-0.17916666666666659,0.04133333333333322,-0.05333333333332746,-0.05833333333333002,1.54,1.5545,37.068,28.902,37.415,34.6665,55.33,33.439499999999995,58.691,51.99733333333333,53.219,32.6965,57.3045,50.35433333333333,52.325,32.304,57.2275,49.785,-0.06366666666666676,-0.008000000000000007,0.11062000000000001,0.11439,0.0,210.10000000000002,210.06,206.9766666666667,206.9766666666667,0.0,0.0
10,0.0,0.0,0.0,1.0,1.0,0.0,0.0,1.0,0.0,100.0,1.0,1.1856,26.0,0.0,0.0,0.0,59.999996,0.0,26.0,26.0,26.0,26.0,-0.029555555555555557,0.3208,0.04266666666666667,297.211,-2.7797,-2.845875,-1.5194,-1.5742500000000001,-242.03,216.0875,190.790375,0.0,0.0,0.0,0.0,0.021166666666666556,-5.498166666666667,-5.498166666666667,-0.3396,-0.803,-0.01577777777777767,1.797,67.238,-0.043050000000000005,0.00298,-0.3039999999999994,100.0,1.0,1.0,207.29000000000002,0.0,0.0,0.0,0.0,0.0,0.0,0.0,8786.2,0.0,55.0,5.0,242.02666666666664,0.0,0.0,0.0,0.0,0.0,0.0,1.0,0.0,0.509999999999998,0.509999999999998,0.0,0.0,0.0,55.0,616.79921,10000.0,85.000001,85.000001,85.000001,85.000001,395.0,0.0,0.0,0.0,1.0,166.665,63.187,63.187,47.18,47.18,34.0,-17.328,17.884999999999998,-30.833333333333336,28.314999999999998,0.0,1782.108,-0.5999999999999979,100.0,20.479,19.5365,43.667,42.777,0.0,0.0,100.0,0.0,0.0,0.0,0.0,2155.1428571428573,2232.3,4247.0,4319.8,308.2615,307.8345,314.38325,314.12425,21.779666666666667,20.4683,21.837,21.3958,314.999998,314.999998,324.999988,324.999988,99.55772857142857,99.50626666666666,99.56445714285714,99.54617142857143,0.03049999999999997,-0.03149999999999997,-0.13583333333333336,0.0685,-0.041666666666671404,-0.06333333333333258,1.476,1.4695,37.123000000000005,28.926666666666666,37.480999999999995,34.724000000000004,55.304,33.4655,58.736,52.062,53.195,32.7205,57.3465,50.416333333333334,52.3005,32.327,57.2665,49.845666666666666,-0.08000000000000007,0.0129999999999999,0.10368500000000001,0.104455,0.0,210.53,210.54500000000002,207.29000000000002,207.29000000000002,0.0,0.0
11,0.0,0.0,0.0,1.0,1.0,0.0,0.0,1.0,0.0,100.0,1.0,1.1856,26.0,0.0,0.0,0.0,59.999996,0.0,26.0,26.0,26.0,26.0,0.02722222222222226,0.29690000000000016,-0.10553333333333333,297.623,-2.7973,-2.7969999999999997,-1.5755,-1.5473750000000002,-238.6,216.0625,190.769375,0.0,0.0,0.0,0.0,0.022599999999999953,-5.498166666666667,-5.498166666666667,-0.3779,0.085,0.007888888888888834,-0.6880000000000002,67.392,-0.01485,-0.01772,-0.532,100.0,1.0,1.0,208.05666666666667,0.0,0.0,0.0,0.0,0.0,0.0,0.0,8818.8,0.0,55.0,5.0,242.57666666666665,1.0,0.0,0.0,0.0,0.0,0.0,1.0,0.0,0.5609999999999999,0.5609999999999999,0.0,0.0,1.0,55.0,616.79921,10000.0,85.000001,85.000001,85.000001,85.000001,395.0,0.0,0.0,0.0,1.0,166.665,62.5,62.5,48.629999999999995,48.629999999999995,34.0,-18.682000000000002,19.740000000000002,-26.333333333333336,26.295,0.0,1782.056,-0.7749999999999986,100.0,20.218,20.07,42.891,42.747,0.0,0.0,100.0,0.0,0.0,0.0,0.0,2389.285714285714,2344.5,3858.4444444444443,3923.0,307.673,307.25975,315.528,315.1165,21.788222222222224,20.4724,21.8472,21.4048,314.999998,314.999998,324.999988,324.999988,99.55772857142857,99.50628333333333,99.5646,99.54631428571429,0.058499999999999996,-0.003750000000000031,-0.11449999999999994,0.1080000000000001,-0.06666666666666998,-0.05333333333332746,1.6139999999999999,1.5895000000000001,37.176,28.952666666666666,37.545,34.78,55.278,33.4935,58.7725,52.12166666666667,53.17,32.746,57.381,50.47366666666667,52.2755,32.3515,57.298,49.901666666666664,-0.09366666666666679,0.022499999999999964,0.11171,0.10952500000000001,0.0,211.005,211.035,208.05666666666667,208.05666666666667,0.0,0.0
12,0.0,0.0,0.0,1.0,1.0,0.0,0.0,1.0,0.0,100.0,1.0,1.1856,26.0,0.0,0.0,0.0,59.999996,0.0,26.0,26.0,26.0,26.0,0.027888888888888852,0.3116000000000001,0.0395,296.967,-2.8181,-2.807,-1.5468000000000002,-1.554875,-235.36,216.0375,190.7485,0.0,0.0,0.0,0.0,0.025466666666666526,-5.498166666666667,-5.498166666666667,-0.36060000000000003,0.315,-0.0022222222222221255,-0.7669999999999999,67.542,0.0102,0.0092,-0.5379999999999994,100.0,1.0,1.0,208.28333333333333,0.0,0.0,0.0,0.0,0.0,0.0,0.0,8828.4,0.0,55.0,5.0,243.11666666666667,0.0,0.0,0.0,0.0,0.0,0.0,1.0,0.0,0.6089999999999982,0.6089999999999982,0.0,0.0,0.0,55.0,616.79921,10000.0,85.000001,85.000001,85.000001,85.000001,395.0,0.0,0.0,0.0,1.0,166.665,62.378,62.378,47.256,47.256,34.0,-19.658,19.744999999999997,-29.003333333333334,30.5975,0.0,1782.009,-0.26500000000000057,100.0,20.076,20.261,42.956,42.896,0.0,0.0,100.0,0.0,0.0,0.0,0.0,2438.0,2373.9,4295.555555555556,4238.7,307.526,307.1585,314.3955,314.318,21.796222222222223,20.476399999999998,21.8569,21.4133,314.999998,314.999998,324.999988,324.999988,99.55774285714286,99.50628333333333,99.56474285714286,99.54644285714286,0.04600000000000004,-0.01574999999999993,-0.09316666666666662,0.1283333333333332,-0.04833333333333201,-0.04833333333333201,1.5135,1.474,37.227000000000004,28.977666666666664,37.605999999999995,34.833,55.254000000000005,33.519999999999996,58.8125,52.18,53.147,32.771,57.418,50.529666666666664,52.2525,32.375,57.332499999999996,49.95633333333333,-0.05699999999999994,-0.0045000000000001705,0.105395,0.11209000000000001,0.0,211.47500000000002,211.51,208.28333333333333,208.28333333333333,0.0,0.0
13,0.0,0.0,0.0,1.0,1.0,0.0,0.0,1.0,0.0,100.0,1.0,1.1856,26.0,0.0,0.0,0.0,59.999996,0.0,26.0,26.0,26.0,26.0,0.07222222222222219,0.30269999999999997,0.0422,296.707,-2.7995,-2.795125,-1.58655,-1.5605000000000002,-232.12,216.015,190.728,0.0,0.0,0.0,0.0,0.026933333333333365,-5.498166666666667,-5.498166666666667,-0.3531,-0.08733333333333333,0.008444444444444255,-0.2200000000000002,67.689,0.019100000000000002,0.00126,-0.6260000000000003,100.0,1.0,1.0,208.69333333333333,0.0,0.0,0.0,0.0,0.0,0.0,0.0,8845.7,0.0,55.0,5.0,243.65,1.0,0.0,0.0,0.0,0.0,0.0,1.0,0.0,0.657,0.657,0.0,0.0,1.0,55.0,616.79921,10000.0,85.000001,85.000001,85.000001,85.000001,395.0,0.0,0.0,0.0,1.0,166.665,62.21,62.21,47.272,47.272,34.0,-17.63,20.905,-28.623333333333335,31.795,0.0,1781.961,-0.9699999999999989,100.0,20.275,20.395,43.153999999999996,43.478,0.0,0.0,100.0,0.0,0.0,0.0,0.0,2433.5714285714284,2350.9,4251.555555555556,4335.9,307.517,307.22625,314.49375,314.0355,21.804444444444442,20.4804,21.8668,21.422,314.999998,314.999998,324.999988,324.999988,99.55774285714286,99.50628333333333,99.56488571428571,99.54658571428571,0.1060000000000001,0.03475000000000006,-0.07883333333333331,0.131,-0.04333333333332945,-0.07000000000000028,1.474,1.463,37.278,29.002666666666666,37.667,34.8875,55.232,33.5475,58.8515,52.24133333333333,53.126999999999995,32.796,57.454499999999996,50.58833333333333,52.2325,32.399,57.366,50.013999999999996,-0.11533333333333329,0.04499999999999993,0.10594500000000001,0.107935,0.0,211.93,211.97500000000002,208.69333333333333,208.69333333333333,0.0,0.0
14,0.0,0.0,0.0,1.0,1.0,0.0,0.0,1.0,0.0,100.0,1.0,1.1856,26.0,0.0,0.0,0.0,59.999996,0.0,26.0,26.0,26.0,26.0,0.07499999999999996,0.30100000000000016,-0.0054,296.997,-2.8317,-2.739375,-1.5974,-1.52875,-228.66,215.9925,190.70675,0.0,0.0,0.0,0.0,0.028933333333333366,-5.498166666666667,-5.498166666666667,-0.3619,-0.07066666666666667,0.044333333333333114,1.169,67.844,0.032150000000000005,-0.00818,-0.9799999999999995,100.0,1.0,1.0,209.25333333333333,0.0,0.0,0.0,0.0,0.0,0.0,0.0,8869.5,0.0,55.0,5.0,244.20333333333335,0.0,0.0,0.0,0.0,0.0,0.0,1.0,0.0,0.7079999999999984,0.7079999999999984,0.0,0.0,0.0,55.0,616.79921,10000.0,85.000001,85.000001,85.000001,85.000001,395.0,0.0,0.0,0.0,1.0,333.33500000000004,62.454,62.454,47.501,47.501,34.0,-15.195999999999998,23.273333333333333,-25.186666666666664,31.955,0.0,1781.909,-1.2100000000000009,100.0,20.167,20.285,43.091,43.563,0.0,0.0,100.0,0.0,0.0,0.0,0.0,2192.1428571428573,2540.0,3988.6666666666665,4274.2,308.088,306.8195,315.07775,314.284,21.813,20.4847,21.8771,21.4312,314.999998,314.999998,324.999988,324.999988,99.55775714285714,99.50628333333333,99.56502857142857,99.54672857142857,0.13274999999999992,0.06774999999999998,-0.05349999999999999,0.1581666666666668,-0.03833333333332689,-0.046666666666666856,1.541,1.4995,37.331,29.029333333333334,37.732,34.945,55.209,33.5775,58.891,52.305,53.105000000000004,32.823499999999996,57.491,50.64966666666667,52.210499999999996,32.4255,57.3995,50.074,-0.1296666666666666,0.06099999999999994,0.10362500000000001,0.110475,0.0,212.375,212.445,209.25333333333333,209.25333333333333,0.0,0.0
15,0.0,0.0,0.0,1.0,1.0,0.0,0.0,1.0,0.0,100.0,1.0,1.1856,26.0,0.0,0.0,0.0,59.999996,0.0,26.0,26.0,26.0,26.0,0.10955555555555563,0.3167,0.022766666666666668,297.043,-2.8414,-2.760125,-1.6243500000000002,-1.4689999999999999,-225.4,215.97,190.686375,0.0,0.0,0.0,0.0,0.03083333333333338,-5.498166666666667,-5.498166666666667,-0.3509,0.21966666666666665,0.07177777777777772,0.6819999999999999,67.989,0.0495,0.01462,-1.2039999999999997,100.0,1.0,1.0,209.67000000000002,0.0,0.0,0.0,0.0,0.0,0.0,0.0,8887.1,0.0,55.0,5.0,244.73000000000002,1.0,0.0,0.0,0.0,0.0,0.0,1.0,0.0,0.7560000000000002,0.7560000000000002,0.0,0.0,1.0,55.0,616.79921,10000.0,85.000001,85.000001,85.000001,85.000001,395.0,0.0,0.0,0.0,1.0,333.33500000000004,62.759,62.759,47.501,47.501,34.0,-13.824000000000002,23.096666666666664,-24.606666666666662,33.8475,0.0,1781.861,-1.2800000000000011,100.0,20.075,20.2725,42.829,43.671,0.0,0.0,100.0,0.0,0.0,0.0,0.0,2065.714285714286,2467.8,4000.1111111111113,4463.4,308.5065,306.96375,315.08475,313.84775,21.820888888888888,20.4887,21.8867,21.439799999999998,314.999998,314.999998,324.999988,324.999988,99.55777142857143,99.5063,99.56515714285715,99.54687142857144,0.14625,0.08024999999999993,-0.03283333333333338,0.17733333333333334,-0.04999999999999716,-0.05333333333332746,1.526,1.4945,37.381,29.054333333333332,37.792,34.999,55.188,33.6065,58.9265,52.36533333333333,53.085,32.8505,57.5245,50.70766666666667,52.19,32.451,57.43,50.131,-0.1296666666666666,0.06600000000000006,0.10655500000000001,0.107105,0.0,212.835,212.925,209.67000000000002,209.67000000000002,0.0,0.0
16,0.0,0.0,0.0,1.0,1.0,0.0,0.0,1.0,0.0,100.0,1.0,1.1856,26.0,0.0,0.0,0.0,59.999996,0.0,26.0,26.0,26.0,26.0,0.13111111111111118,0.2975000000000001,-0.046200000000000005,296.997,-2.9054,-2.7039999999999997,-1.59775,-1.529375,-221.93,215.9525,190.664125,0.0,0.0,0.0,0.0,0.03283333333333338,-5.498166666666667,-5.498166666666667,-0.37570000000000003,-0.641,0.058222222222222175,-0.9660000000000002,68.144,0.0693,-0.0049,-1.2720000000000002,100.0,1.0,1.0,210.18333333333334,0.0,0.0,0.0,0.0,0.0,0.0,0.0,8908.9,0.0,55.0,5.0,245.28333333333336,0.0,0.0,0.0,0.0,0.0,0.0,1.0,0.0,0.8069999999999986,0.8069999999999986,0.0,0.0,0.0,55.0,616.79921,10000.0,85.000001,85.000001,85.000001,85.000001,395.0,0.0,0.0,0.0,1.0,333.33500000000004,62.378,62.378,47.424,47.424,34.0,-16.592,23.538333333333334,-23.85,32.66,0.0,1781.809,-1.1449999999999996,100.0,19.682,20.537,42.965,43.862,0.0,0.0,100.0,0.0,0.0,0.0,0.0,2374.5714285714284,2524.9,3992.222222222222,4139.8,307.871,306.74025,315.12125,314.52575,21.82911111111111,20.4931,21.897100000000002,21.448999999999998,314.999998,314.999998,324.999988,324.999988,99.55778571428571,99.50631666666666,99.5653,99.54701428571428,0.13975000000000004,0.08374999999999999,-0.028000000000000025,0.1938333333333333,-0.03833333333332689,-0.051666666666669414,1.5485,1.5045000000000002,37.432,29.081666666666663,37.857,35.056,55.163,33.6385,58.968,52.42766666666667,53.061,32.879999999999995,57.5625,50.76766666666666,52.1655,32.4795,57.465,50.19,-0.119,0.05600000000000005,0.10695,0.106755,0.0,213.26999999999998,213.37,210.18333333333334,210.18333333333334,0.0,0.0
17,0.0,0.0,0.0,1.0,1.0,0.0,0.0,1.0,0.0,100.0,1.0,1.1856,26.0,0.0,0.0,0.0,59.999996,0.0,26.0,26.0,26.0,26.0,0.11377777777777776,0.32299999999999995,0.0083,296.6,-2.8708,-2.68425,-1.6455000000000002,-1.4867500000000002,-218.45,215.9375,190.641375,0.0,0.0,0.0,0.0,0.0348666666666666,-5.498166666666667,-5.498166666666667,-0.35960000000000003,0.46,0.04733333333333323,0.9910000000000001,68.298,0.07855000000000001,0.01796,-1.21,100.0,1.0,1.0,210.55,0.0,0.0,0.0,0.0,0.0,0.0,0.0,8924.5,0.0,55.0,5.0,245.83666666666664,1.0,0.0,0.0,0.0,0.0,0.0,1.0,0.0,0.8580000000000005,0.8580000000000005,0.0,0.0,1.0,55.0,616.79921,10000.0,85.000001,85.000001,85.000001,85.000001,395.0,0.0,0.0,0.0,1.0,166.665,62.347,62.347,46.982,46.982,34.0,-15.192,23.02166666666667,-26.41,35.6575,0.0,1781.761,-1.1099999999999994,100.0,20.191,20.6,42.851,43.824,0.0,0.0,100.0,0.0,0.0,0.0,0.0,2265.1428571428573,2476.5,4334.444444444444,4451.1,307.922,307.03575,314.33325,313.9215,21.837555555555554,20.4975,21.9074,21.4581,314.999998,314.999998,324.999988,324.999988,99.5578,99.50631666666666,99.56544285714286,99.54717142857143,0.1592500000000001,0.09525000000000006,-0.014499999999999957,0.20566666666666666,-0.045000000000001705,-0.05833333333333002,1.509,1.4595,37.485,29.109333333333332,37.921,35.1135,55.141999999999996,33.672,59.007,52.49133333333333,53.042,32.911,57.599000000000004,50.829,52.146,32.5095,57.498,50.25,-0.12366666666666681,0.05549999999999988,0.10874500000000001,0.10616500000000001,0.0,213.805,213.88,210.55,210.55,0.0,0.0
18,0.0,0.0,0.0,1.0,1.0,0.0,0.0,1.0,0.0,100.0,1.0,1.1856,26.0,0.0,0.0,0.0,59.999996,0.0,26.0,26.0,26.0,26.0,0.10444444444444434,0.31889999999999996,-0.010133333333333333,296.585,-2.9063,-2.6545,-1.6588,-1.4315000000000002,-215.17000000000002,215.925,190.62025,0.0,0.0,0.0,0.0,0.036766666666666614,-5.498166666666667,-5.498166666666667,-0.3713,-0.41300000000000003,0.06811111111111101,0.8010000000000002,68.441,0.0828,0.00084,-1.0899999999999999,100.0,1.0,1.0,211.03,0.0,0.0,0.0,0.0,0.0,0.0,0.0,8944.7,0.0,55.0,5.0,246.35666666666668,0.0,0.0,0.0,0.0,0.0,0.0,1.0,0.0,0.9059999999999988,0.9059999999999988,0.0,0.0,0.0,55.0,616.79921,10000.0,85.000001,85.000001,85.000001,85.000001,395.0,0.0,0.0,0.0,1.0,166.665,62.149,62.149,46.951,46.951,34.0,-16.292,24.496666666666666,-24.676666666666662,32.9475,0.0,1781.712,-0.7100000000000009,100.0,19.922,20.5315,43.139,44.229,0.0,0.0,100.0,0.0,0.0,0.0,0.0,2301.4285714285716,2688.1,4102.222222222223,4313.3,307.868,306.41675,314.85875,314.218,21.845333333333333,20.5016,21.9172,21.4669,314.999998,314.999998,324.999988,324.999988,99.55781428571429,99.50633333333333,99.56558571428572,99.5473,0.13824999999999998,0.0767500000000001,-0.011499999999999955,0.19700000000000006,-0.05333333333332746,-0.060000000000002274,1.539,1.5015,37.534,29.134999999999998,37.982,35.168,55.120000000000005,33.7025,59.045,52.55266666666667,53.021,32.939,57.634,50.888,52.1245,32.536,57.5305,50.308,-0.09633333333333316,0.02499999999999991,0.10312500000000001,0.10703000000000001,0.0,214.215,214.29500000000002,211.03,211.03,0.0,0.0
19,0.0,0.0,0.0,1.0,1.0,0.0,0.0,1.0,0.0,100.0,1.0,1.1856,26.0,0.0,0.0,0.0,59.999996,0.0,26.0,26.0,26.0,26.0,0.10011111111111104,0.3247,0.07136666666666666,296.219,-2.8194,-2.762,-1.58175,-1.430875,-211.67000000000002,215.91500000000002,190.597625,0.0,0.0,0.0,0.0,0.038799999999999946,-5.498166666666667,-5.498166666666667,-0.35500000000000004,0.79,0.06077777777777782,-1.0910000000000002,68.593,0.08135,0.018080000000000002,-0.6320000000000006,100.0,1.0,1.0,211.44666666666666,0.0,0.0,0.0,0.0,0.0,0.0,0.0,8962.5,0.0,55.0,5.0,246.90333333333334,1.0,0.0,0.0,0.0,0.0,0.0,1.0,0.0,0.9570000000000007,0.9570000000000007,0.0,0.0,1.0,55.0,616.79921,10000.0,85.000001,85.000001,85.000001,85.000001,395.0,0.0,0.0,0.0,1.0,333.33500000000004,61.966,61.966,46.722,46.722,34.0,-17.136,21.493333333333332,-26.666666666666664,34.254999999999995,0.0,1781.66,-0.23000000000000043,100.0,20.281,21.013,42.936,44.318,0.0,0.0,100.0,0.0,0.0,0.0,0.0,2343.857142857143,2418.1,4320.555555555556,4507.0,307.7675,306.85175,314.36325,313.72075,21.85377777777778,20.5061,21.9275,21.4761,314.999998,314.999998,324.999988,324.999988,99.55782857142857,99.50633333333333,99.56572857142856,99.54745714285714,0.10299999999999998,0.030000000000000027,-0.035666666666666624,0.18366666666666687,-0.06333333333333258,-0.05833333333333002,1.483,1.458,37.586,29.163333333333334,38.047,35.2255,55.098,33.735,59.083,52.61666666666667,53.0,32.969,57.6695,50.949666666666666,52.1035,32.565,57.563,50.36866666666667,-0.052999999999999936,-0.02300000000000013,0.11684000000000001,0.10661000000000001,0.0,214.75,214.785,211.44666666666666,211.44666666666666,0.0,0.0
20,0.0,0.0,0.0,1.0,1.0,0.0,0.0,1.0,0.0,100.0,1.0,1.1856,26.0,0.0,0.0,0.0,59.999996,0.0,26.0,26.0,26.0,26.0,0.07533333333333325,0.2922,-0.04406666666666667,296.661,-2.9002,-2.7335000000000003,-1.5721500000000002,-1.566875,-207.95999999999998,215.9075,190.573625,0.0,0.0,0.0,0.0,0.040966666666666596,-5.498166666666667,-5.498166666666667,-0.37110000000000004,-1.1483333333333332,0.04222222222222216,-1.2199999999999998,68.754,0.0594,-0.0011400000000000002,-0.013999999999999346,100.0,1.0,1.0,211.95333333333332,0.0,0.0,0.0,0.0,0.0,0.0,0.0,8983.9,0.0,55.0,5.0,247.48333333333335,0.0,0.0,0.0,0.0,0.0,0.0,0.0,0.0,1.0109999999999992,1.0109999999999992,0.0,0.0,0.0,55.0,616.79921,10000.0,85.000001,85.000001,85.000001,85.000001,395.0,0.0,0.0,0.0,1.0,166.665,62.637,62.637,46.707,46.707,34.0,-18.114,19.785,-25.826666666666664,31.3,0.0,1781.607,0.15500000000000114,100.0,19.854,20.611,43.71,44.617000000000004,0.0,0.0,100.0,0.0,0.0,0.0,0.0,2308.714285714286,2366.8,4114.555555555556,4126.0,308.0325,307.20875,314.81225,314.522,21.862444444444446,20.5107,21.9386,21.486,314.999998,314.999998,324.999988,324.999988,99.55782857142857,99.50633333333333,99.56588571428571,99.54761428571429,0.07050000000000001,0.0040000000000000036,-0.05116666666666658,0.15599999999999992,-0.05333333333332746,-0.02833333333332888,1.498,1.4865,37.64,29.191666666666666,38.116,35.287,55.069,33.7645,59.1275,52.685,52.973,32.9965,57.7115,51.01533333333333,52.0755,32.591,57.601,50.43266666666666,-0.026666666666666616,-0.04400000000000004,0.10482000000000001,0.10280500000000001,0.0,215.20499999999998,215.19,211.95333333333332,211.95333333333332,0.0,0.0
21,0.0,0.0,0.0,1.0,1.0,0.0,0.0,1.0,0.0,100.0,1.0,1.1856,26.0,0.0,0.0,0.0,59.999996,0.0,26.0,26.0,26.0,26.0,0.03722222222222227,0.3074000000000001,-0.012866666666666667,296.722,-2.8471,-2.756875,-1.5948,-1.54175,-204.66,215.9025,190.551625,0.0,0.0,0.0,0.0,0.04286666666666661,-5.498166666666667,-5.498166666666667,-0.3795,0.6346666666666666,0.00922222222222202,-1.1770000000000005,68.894,0.0298,0.015580000000000002,0.31200000000000117,100.0,1.0,1.0,212.49,0.0,0.0,0.0,0.0,0.0,0.0,0.0,9006.7,0.0,55.0,5.0,247.98666666666668,1.0,0.0,0.0,0.0,0.0,0.0,0.0,0.0,1.059000000000001,1.059000000000001,0.0,0.0,1.0,55.0,616.79921,10000.0,85.000001,85.000001,85.000001,85.000001,395.0,0.0,0.0,0.0,1.0,166.665,62.317,62.317,47.18,47.18,34.0,-19.537999999999997,19.02,-28.816666666666663,29.072499999999998,0.0,1781.559,0.1750000000000007,100.0,20.187,20.6015,43.26,43.966,0.0,0.0,100.0,0.0,0.0,0.0,0.0,2440.142857142857,2326.8,4221.777777777777,4107.0,307.5805,307.27625,314.663,314.70875,21.870333333333335,20.5148,21.9482,21.4944,314.999998,314.999998,324.999988,324.999988,99.55784285714286,99.50633333333333,99.56601428571429,99.54775714285714,0.055500000000000105,-0.01674999999999993,-0.09099999999999997,0.13116666666666688,-0.06833333333332803,-0.051666666666669414,1.5365,1.5514999999999999,37.69,29.217333333333336,38.176,35.34,55.046,33.792,59.162,52.74066666666667,52.951,33.022,57.743,51.069,52.054,32.6155,57.629999999999995,50.48533333333333,-0.024666666666666615,-0.04899999999999993,0.111045,0.103495,0.0,215.715,215.66,212.49,212.49,0.0,0.0
22,0.0,0.0,0.0,1.0,1.0,0.0,0.0,1.0,0.0,100.0,1.0,1.1856,26.0,0.0,0.0,0.0,59.999996,0.0,26.0,26.0,26.0,26.0,0.005666666666666709,0.3097000000000001,-0.006833333333333334,296.478,-2.7684,-2.822,-1.6101,-1.5394999999999999,-201.35,215.8975,190.52925,0.0,0.0,0.0,0.0,0.04479999999999995,-5.498166666666667,-5.498166666666667,-0.3622,-0.10233333333333333,0.005777777777777882,-0.871,69.038,0.00235,0.02798,0.43799999999999883,100.0,1.0,1.0,212.77666666666667,0.0,0.0,0.0,0.0,0.0,0.0,0.0,9018.9,0.0,55.0,5.0,248.50333333333333,0.0,0.0,0.0,0.0,0.0,0.0,0.0,0.0,1.1069999999999993,1.1069999999999993,0.0,0.0,0.0,55.0,616.79921,10000.0,85.000001,85.000001,85.000001,85.000001,395.0,0.0,0.0,0.0,1.0,166.665,62.805,62.805,46.295,46.295,34.0,-17.862000000000002,17.575,-32.663333333333334,29.175,0.0,1781.511,0.1700000000000017,100.0,20.266,20.5045,43.878,44.230000000000004,0.0,0.0,100.0,0.0,0.0,0.0,0.0,2228.5714285714284,2197.2,4369.444444444444,4321.9,308.138,307.65025,314.29075,314.093,21.87822222222222,20.5188,21.9581,21.5032,314.999998,314.999998,324.999988,324.999988,99.55784285714286,99.50633333333333,99.56615714285714,99.54788571428571,0.030999999999999917,-0.040000000000000036,-0.12716666666666665,0.09250000000000003,-0.041666666666671404,-0.051666666666669414,1.4535,1.4945,37.739000000000004,29.242666666666665,38.238,35.394999999999996,55.021,33.8185,59.202,52.800333333333334,52.928,33.046,57.781,51.126666666666665,52.0305,32.6385,57.665,50.541333333333334,-0.016999999999999904,-0.0495000000000001,0.11561500000000001,0.100775,0.0,216.135,216.095,212.77666666666667,212.77666666666667,0.0,0.0
23,0.0,0.0,0.0,1.0,1.0,0.0,0.0,1.0,0.0,100.0,1.0,1.1856,26.0,0.0,0.0,0.0,59.999996,0.0,26.0,26.0,26.0,26.0,-0.042333333333333334,0.2804,-0.040400000000000005,296.478,-2.7785,-2.79325,-1.6464500000000002,-1.52975,-197.82,215.89249999999998,190.505625,0.0,0.0,0.0,0.0,0.04686666666666661,-5.498166666666667,-5.498166666666667,-0.3801,-0.005,-0.009888888888888836,0.5760000000000001,69.185,-0.0145,0.00536,0.4939999999999998,100.0,1.0,1.0,213.36666666666667,0.0,0.0,0.0,0.0,0.0,0.0,0.0,9043.9,0.0,55.0,5.0,249.03333333333336,1.0,0.0,0.0,0.0,0.0,0.0,0.0,0.0,1.1580000000000013,1.1580000000000013,0.0,0.0,1.0,55.0,616.79921,10000.0,85.000001,85.000001,85.000001,85.000001,395.0,0.0,0.0,0.0,1.0,333.33500000000004,61.996,61.996,47.302,47.302,34.0,-20.564,18.873333333333335,-30.52,27.04,0.0,1781.457,0.21000000000000085,100.0,20.79,20.258,44.045,44.027,0.0,0.0,100.0,0.0,0.0,0.0,0.0,2468.857142857143,2397.4,4120.888888888889,4099.3,307.258,307.27425,314.88925,314.798,21.886666666666667,20.5231,21.9685,21.5124,314.999998,314.999998,324.999988,324.999988,99.55784285714286,99.50635,99.5663,99.54805714285715,0.027249999999999996,-0.04299999999999993,-0.12583333333333335,0.09616666666666673,-0.04333333333332945,-0.07166666666666544,1.5305,1.536,37.791,29.269333333333336,38.303,35.4525,54.994,33.849000000000004,59.245,52.86533333333333,52.903,33.074,57.821,51.18866666666666,52.004999999999995,32.6655,57.701499999999996,50.602333333333334,-0.022333333333333316,-0.052999999999999936,0.10537500000000001,0.11129000000000001,0.0,216.585,216.54500000000002,213.36666666666667,213.36666666666667,0.0,0.0
24,0.0,0.0,0.0,1.0,1.0,0.0,0.0,1.0,0.0,100.0,1.0,1.1856,26.0,0.0,0.0,0.0,59.999996,0.0,26.0,26.0,26.0,26.0,-0.036222222222222156,0.3013000000000001,-0.06013333333333334,296.799,-2.8043,-2.80225,-1.5325,-1.5833750000000002,-194.29,215.8875,190.481375,0.0,0.0,0.0,0.0,0.048899999999999944,-5.498166666666667,-5.498166666666667,-0.39080000000000004,-0.76,-0.0030000000000001137,-0.18000000000000016,69.336,-0.024900000000000002,0.0145,0.4299999999999997,100.0,1.0,1.0,213.72333333333333,0.0,0.0,0.0,0.0,0.0,0.0,0.0,9059.0,0.0,55.0,5.0,249.57666666666665,0.0,0.0,0.0,0.0,0.0,0.0,0.0,0.0,1.2089999999999996,1.2089999999999996,0.0,0.0,0.0,55.0,616.79921,10000.0,85.000001,85.000001,85.000001,85.000001,395.0,0.0,0.0,0.0,1.0,166.665,63.187,63.187,46.555,46.555,34.0,-18.23,16.461666666666666,-31.333333333333336,27.4875,0.0,1781.409,0.16499999999999915,100.0,20.298000000000002,20.066,44.201,43.987,0.0,0.0,100.0,0.0,0.0,0.0,0.0,2194.0,2166.6,4259.222222222223,4159.0,308.258,307.8615,314.4725,314.51775,21.89488888888889,20.5272,21.979,21.5216,314.999998,314.999998,324.999988,324.999988,99.55784285714286,99.50635,99.56645714285715,99.54818571428571,0.012750000000000039,-0.06174999999999997,-0.14216666666666666,0.07350000000000012,-0.05333333333332746,-0.054999999999999716,1.4905,1.484,37.843,29.295,38.369,35.51,54.967,33.8735,59.284,52.922333333333334,52.878,33.097,57.8575,51.24366666666667,51.980000000000004,32.6875,57.735,50.656,-0.024333333333333318,-0.04700000000000015,0.10748,0.10801500000000001,0.0,217.035,217.005,213.72333333333333,213.72333333333333,0.0,0.0
25,0.0,0.0,0.0,1.0,1.0,0.0,0.0,1.0,0.0,100.0,1.0,1.1856,26.0,0.0,0.0,0.0,59.999996,0.0,26.0,26.0,26.0,26.0,-0.028111111111111087,0.31000000000000005,-0.0308,296.432,-2.8555,-2.7742500000000003,-1.5654,-1.5743749999999999,-190.95999999999998,215.8825,190.457125,0.0,0.0,0.0,0.0,0.0508333333333334,-5.498166666666667,-5.498166666666667,-0.41390000000000005,0.40066666666666667,-0.014666666666666828,-1.274,69.473,-0.030250000000000003,0.014719999999999999,0.4339999999999993,100.0,1.0,1.0,214.26333333333332,0.0,0.0,0.0,0.0,0.0,0.0,0.0,9081.9,0.0,55.0,5.0,250.07333333333332,1.0,0.0,0.0,0.0,0.0,0.0,0.0,0.0,1.256999999999998,1.256999999999998,0.0,0.0,1.0,55.0,616.79921,10000.0,85.000001,85.000001,85.000001,85.000001,395.0,0.0,0.0,0.0,1.0,333.33500000000004,61.676,61.676,47.226,47.226,34.0,-23.79,19.383333333333333,-29.71,26.365000000000002,0.0,1781.359,0.1999999999999993,100.0,20.462,20.405,43.885,43.657,0.0,0.0,100.0,0.0,0.0,0.0,0.0,2685.285714285714,2506.4,4082.8888888888887,4063.4,306.889,306.8285,314.99625,314.79725,21.90277777777778,20.5313,21.988599999999998,21.5301,314.999998,314.999998,324.999988,324.999988,99.55785714285715,99.50635,99.56658571428571,99.54832857142857,0.0002500000000000835,-0.05899999999999994,-0.13883333333333336,0.07616666666666672,-0.06499999999999773,-0.060000000000002274,1.5365,1.5675,37.891999999999996,29.320333333333334,38.429,35.5635,54.942,33.902,59.319,52.977333333333334,52.854,33.123,57.89,51.29666666666667,51.956,32.712,57.765,50.70766666666667,-0.021333333333333204,-0.047499999999999876,0.107395,0.105745,0.0,217.48000000000002,217.44,214.26333333333332,214.26333333333332,0.0,0.0
26,0.0,0.0,0.0,1.0,1.0,0.0,0.0,1.0,0.0,100.0,1.0,1.1856,26.0,0.0,0.0,0.0,59.999996,0.0,26.0,26.0,26.0,26.0,-0.05744444444444441,0.3046,0.0879,295.425,-2.8009,-2.863125,-1.56235,-1.5765000000000002,-187.41,215.8725,190.431375,0.0,0.0,0.0,0.0,0.05289999999999995,-5.498166666666667,-5.498166666666667,-0.36960000000000004,0.30333333333333334,-0.03166666666666673,0.7479999999999998,69.625,-0.0322,0.04012,0.31400000000000006,100.0,1.0,1.0,214.42000000000002,0.0,0.0,0.0,0.0,0.0,0.0,0.0,9088.4,0.0,55.0,5.0,250.61666666666667,0.0,0.0,0.0,0.0,0.0,0.0,0.0,0.0,1.3079999999999998,1.3079999999999998,0.0,0.0,0.0,55.0,616.79921,10000.0,85.000001,85.000001,85.000001,85.000001,395.0,0.0,0.0,0.0,1.0,166.665,62.042,62.042,45.166,45.166,34.0,-19.32,17.85333333333333,-34.91,32.057500000000005,0.0,1781.31,0.030000000000001137,100.0,21.268,20.616,44.85,44.234,0.0,0.0,100.0,0.0,0.0,0.0,0.0,2315.285714285714,2283.6,4652.555555555556,4669.2,307.6595,307.59875,313.48125,313.38825,21.91133333333333,20.5356,21.999299999999998,21.5395,314.999998,314.999998,324.999988,324.999988,99.55785714285715,99.50636666666666,99.56674285714286,99.54847142857143,0.02675000000000005,-0.05899999999999994,-0.12483333333333335,0.07883333333333331,-0.04333333333332945,-0.05833333333333002,1.387,1.4005,37.946,29.347666666666665,38.495000000000005,35.622,54.918,33.9325,59.3645,53.041333333333334,52.831,33.150999999999996,57.9325,51.358000000000004,51.9335,32.739,57.804,50.76733333333333,-0.03533333333333322,-0.04400000000000004,0.10135000000000001,0.10856500000000001,0.0,217.97500000000002,217.935,214.42000000000002,214.42000000000002,0.0,0.0
27,0.0,0.0,0.0,1.0,1.0,0.0,0.0,1.0,0.0,100.0,1.0,1.1856,26.0,0.0,0.0,0.0,59.999996,0.0,26.0,26.0,26.0,26.0,-0.02244444444444449,0.2854000000000001,-0.07846666666666667,296.265,-2.802,-2.79725,-1.6099,-1.5932499999999998,-183.86,215.865,190.40675,0.0,0.0,0.0,0.0,0.05496666666666661,-5.498166666666667,-5.498166666666667,-0.4086,-0.8130000000000001,-0.030444444444444496,-0.548,69.768,-0.032150000000000005,-0.00836,0.25399999999999956,100.0,1.0,1.0,215.13,0.0,0.0,0.0,0.0,0.0,0.0,0.0,9118.6,0.0,55.0,5.0,251.13666666666666,1.0,0.0,0.0,0.0,0.0,0.0,0.0,0.0,1.3589999999999982,1.3589999999999982,0.0,0.0,1.0,55.0,616.79921,10000.0,85.000001,85.000001,85.000001,85.000001,395.0,0.0,0.0,0.0,1.0,166.665,62.057,62.057,46.646,46.646,34.0,-21.192,18.076666666666668,-30.08,26.0825,0.0,1781.26,-0.07000000000000028,100.0,20.692,20.5395,44.922,44.464,0.0,0.0,100.0,0.0,0.0,0.0,0.0,2529.0,2323.7,3987.0,4034.5,307.391,307.36175,315.1325,314.88625,21.919555555555554,20.5399,22.0098,21.5488,314.999998,314.999998,324.999988,324.999988,99.55785714285715,99.50636666666666,99.5669,99.54862857142857,0.01849999999999996,-0.05399999999999994,-0.14783333333333337,0.06800000000000006,-0.060000000000002274,-0.04333333333332945,1.5265,1.5385,37.998000000000005,29.374000000000002,38.561,35.68,54.891,33.960499999999996,59.406,53.102333333333334,52.806,33.177,57.9715,51.416333333333334,51.908,32.763999999999996,57.8395,50.824333333333335,-0.040999999999999925,-0.03299999999999992,0.11125000000000002,0.10256000000000001,0.0,218.365,218.32,215.13,215.13,0.0,0.0
28,0.0,0.0,0.0,1.0,1.0,0.0,0.0,1.0,0.0,100.0,1.0,1.1856,26.0,0.0,0.0,0.0,59.999996,0.0,26.0,26.0,26.0,26.0,-0.018000000000000016,0.3077000000000001,-0.04656666666666667,296.265,-2.764,-2.809,-1.58325,-1.576,-180.51,215.85500000000002,190.3825,0.0,0.0,0.0,0.0,0.05693333333333339,-5.498166666666667,-5.498166666666667,-0.39780000000000004,0.6926666666666667,-0.03255555555555567,-0.5310000000000001,69.906,-0.028,0.03264,0.17999999999999972,100.0,1.0,1.0,215.5,0.0,0.0,0.0,0.0,0.0,0.0,0.0,9134.3,0.0,55.0,5.0,251.63,0.0,0.0,0.0,0.0,0.0,0.0,0.0,0.0,1.407,1.407,0.0,0.0,0.0,55.0,616.79921,10000.0,85.000001,85.000001,85.000001,85.000001,395.0,0.0,0.0,0.0,1.0,333.33500000000004,62.424,62.424,46.356,46.356,34.0,-19.43,17.188333333333333,-32.056666666666665,28.1575,0.0,1781.209,-0.09499999999999886,100.0,20.729,20.443,44.318,44.08,0.0,0.0,100.0,0.0,0.0,0.0,0.0,2371.285714285714,2216.3,4361.444444444444,4240.1,307.689,307.64275,314.40475,314.4055,21.927555555555557,20.5439,22.0195,21.5574,314.999998,314.999998,324.999988,324.999988,99.55785714285715,99.50638333333333,99.56704285714285,99.54875714285714,0.025249999999999995,-0.05599999999999994,-0.1316666666666666,0.08099999999999996,-0.041666666666671404,-0.06833333333332803,1.5205,1.5285,38.047,29.39933333333333,38.622,35.734,54.867000000000004,33.9875,59.4415,53.157666666666664,52.784,33.201499999999996,58.0045,51.46933333333333,51.8855,32.7875,57.87,50.876,-0.04899999999999993,-0.033500000000000085,0.10483,0.10894500000000001,0.0,218.82999999999998,218.82,215.5,215.5,0.0,0.0
29,0.0,0.0,0.0,1.0,1.0,0.0,0.0,1.0,0.0,100.0,1.0,1.1856,26.0,0.0,0.0,0.0,59.999996,0.0,26.0,26.0,26.0,26.0,-0.022666666666666613,0.2842,-0.0152,296.14300000000003,-2.84,-2.862625,-1.5563,-1.5797500000000002,-176.94,215.845,190.355875,0.0,0.0,0.0,0.0,0.05899999999999994,-5.498166666666667,-5.498166666666667,-0.41250000000000003,-0.7126666666666667,-0.025111111111111306,0.7319999999999998,70.053,-0.019450000000000002,0.01982,-0.03399999999999981,100.0,1.0,1.0,215.88,0.0,0.0,0.0,0.0,0.0,0.0,0.0,9150.4,0.0,55.0,5.0,252.16333333333336,1.0,0.0,0.0,0.0,0.0,0.0,0.0,0.0,1.4579999999999984,1.4579999999999984,0.0,0.0,1.0,55.0,616.79921,10000.0,85.000001,85.000001,85.000001,85.000001,395.0,0.0,0.0,0.0,1.0,333.33500000000004,62.378,62.378,46.402,46.402,34.0,-20.067999999999998,19.181666666666665,-29.226666666666663,29.3625,0.0,1781.158,-0.134999999999998,100.0,20.63,20.1815,44.795,44.361000000000004,0.0,0.0,100.0,0.0,0.0,0.0,0.0,2430.0,2346.5,4128.333333333333,4295.7,307.617,307.39225,314.75175,314.26225,21.935666666666666,20.5481,22.0301,21.5668,314.999998,314.999998,324.999988,324.999988,99.55785714285715,99.50638333333333,99.56718571428571,99.54891428571429,0.034499999999999975,-0.03325,-0.1153333333333334,0.09000000000000008,-0.036666666666668846,-0.06666666666666998,1.4849999999999999,1.486,38.098,29.425666666666665,38.688,35.792500000000004,54.839,34.0145,59.4835,53.21966666666667,52.757999999999996,33.2265,58.044,51.529333333333334,51.859,32.811,57.9065,50.934333333333335,-0.05266666666666664,-0.020999999999999908,0.105145,0.10469500000000001,0.0,219.235,219.235,215.88,215.88,0.0,0.0
30,0.0,0.0,0.0,1.0,1.0,0.0,0.0,1.0,0.0,100.0,1.0,1.1856,26.0,0.0,0.0,0.0,59.999996,0.0,26.0,26.0,26.0,26.0,-0.014777777777777779,0.2884,0.007633333333333333,295.639,-2.7636,-2.8497500000000002,-1.62365,-1.503625,-173.57,215.835,190.33075,0.0,0.0,0.0,0.0,0.060966666666666613,-5.498166666666667,-5.498166666666667,-0.39590000000000003,0.9846666666666667,-0.02588888888888885,1.081,70.188,-0.01225,0.03506,0.02200000000000024,100.0,1.0,1.0,216.32666666666665,0.0,0.0,0.0,0.0,0.0,0.0,0.0,9169.3,0.0,55.0,5.0,252.64666666666665,0.0,0.0,0.0,0.0,0.0,0.0,1.0,0.0,1.5060000000000002,1.5060000000000002,0.0,0.0,0.0,55.0,616.79921,10000.0,85.000001,85.000001,85.000001,85.000001,395.0,0.0,0.0,0.0,1.0,166.665,61.478,61.478,46.004999999999995,46.004999999999995,34.0,-19.598,20.326666666666668,-32.44,28.564999999999998,0.0,1781.112,-0.18999999999999773,100.0,21.436,20.801,44.612,44.343,0.0,0.0,100.0,0.0,0.0,0.0,0.0,2442.5714285714284,2474.0,4428.444444444444,4283.1,307.2895,307.13525,314.23575,314.49525,21.943666666666665,20.5524,22.0399,21.575499999999998,314.999998,314.999998,324.999988,324.999988,99.55787142857143,99.50638333333333,99.56732857142858,99.54904285714285,0.049250000000000016,-0.02749999999999997,-0.11366666666666658,0.10233333333333339,-0.045000000000001705,-0.07000000000000028,1.486,1.484,38.147999999999996,29.452333333333335,38.748999999999995,35.847,54.818,34.0435,59.5205,53.27633333333333,52.738,33.2535,58.0785,51.583666666666666,51.8395,32.837,57.938,50.98733333333333,-0.05066666666666664,-0.028000000000000025,0.10487500000000001,0.112365,0.0,219.70499999999998,219.69,216.32666666666665,216.32666666666665,0.0,0.0
31,0.0,0.0,0.0,1.0,1.0,0.0,0.0,1.0,0.0,100.0,1.0,1.1856,26.0,0.0,0.0,0.0,59.999996,0.0,26.0,26.0,26.0,26.0,0.016111111111111187,0.28,0.050800000000000005,295.242,-2.8767,-2.724375,-1.5789,-1.6306250000000002,-169.99,215.8225,190.304875,0.0,0.0,0.0,0.0,0.06303333333333339,-5.498166666666667,-5.498166666666667,-0.3932,-0.5863333333333334,-0.020222222222222364,-0.8069999999999999,70.33500000000001,-0.006500000000000001,0.01776,-0.047999999999999154,100.0,1.0,1.0,216.68333333333334,0.0,0.0,0.0,0.0,0.0,0.0,0.0,9184.5,0.0,55.0,5.0,253.17333333333335,1.0,0.0,0.0,0.0,0.0,0.0,1.0,0.0,1.5569999999999986,1.5569999999999986,0.0,0.0,1.0,55.0,616.79921,10000.0,85.000001,85.000001,85.000001,85.000001,395.0,0.0,0.0,0.0,1.0,166.665,61.400999999999996,61.400999999999996,45.059,45.059,34.0,-20.668,20.54,-31.716666666666665,32.0125,0.0,1781.061,-0.2749999999999986,100.0,20.878999999999998,21.0955,45.191,45.150999999999996,0.0,0.0,100.0,0.0,0.0,0.0,0.0,2531.0,2543.4,4372.888888888889,4348.1,307.3725,306.7305,314.2915,314.0925,21.951777777777778,20.5568,22.0505,21.585,314.999998,314.999998,324.999988,324.999988,99.55787142857143,99.5064,99.56748571428571,99.5492,0.05249999999999999,-0.022749999999999937,-0.11483333333333334,0.11183333333333323,-0.06666666666666998,-0.051666666666669414,1.4329999999999998,1.4425,38.199,29.48,38.816,35.9065,54.792,34.0725,59.564,53.340666666666664,52.714,33.28,58.1195,51.64533333333333,51.814499999999995,32.8625,57.9755,51.047666666666665,-0.05933333333333324,-0.015000000000000124,0.09996000000000001,0.112335,0.0,220.115,220.095,216.68333333333334,216.68333333333334,0.0,0.0
32,0.0,0.0,0.0,1.0,1.0,0.0,0.0,1.0,0.0,100.0,1.0,1.1856,26.0,0.0,0.0,0.0,59.999996,0.0,26.0,26.0,26.0,26.0,0.022333333333333316,0.2903,-0.028300000000000002,295.898,-2.779,-2.8363750000000003,-1.5575999999999999,-1.6145,-166.19,215.8125,190.2775,0.0,0.0,0.0,0.0,0.06523333333333337,-5.498166666666667,-5.498166666666667,-0.4066,-0.11066666666666668,-0.0477777777777777,-0.9630000000000001,70.485,-0.00095,0.01916,-0.12799999999999923,100.0,1.0,1.0,217.22333333333333,0.0,0.0,0.0,0.0,0.0,0.0,0.0,9207.3,0.0,55.0,5.0,253.71666666666667,0.0,0.0,0.0,0.0,0.0,0.0,1.0,0.0,1.6110000000000007,1.6110000000000007,0.0,0.0,0.0,55.0,616.79921,10000.0,85.000001,85.000001,85.000001,85.000001,395.0,0.0,0.0,0.0,1.0,166.665,62.256,62.256,46.066,46.066,34.0,-18.548000000000002,18.2,-29.413333333333334,30.415,0.0,1781.006,-0.28000000000000114,100.0,20.786,20.8795,44.864000000000004,44.929,0.0,0.0,100.0,0.0,0.0,0.0,0.0,2379.285714285714,2199.3,4200.333333333333,4234.3,307.7155,307.685,314.66425,314.31275,21.960444444444445,20.5614,22.0615,21.5949,314.999998,314.999998,324.999988,324.999988,99.55788571428572,99.5064,99.56764285714286,99.54935714285715,0.05824999999999991,-0.020000000000000018,-0.10816666666666663,0.10716666666666685,-0.04833333333333201,-0.06499999999999773,1.483,1.484,38.253,29.508666666666667,38.885,35.968,54.765,34.102000000000004,59.6045,53.404666666666664,52.688,33.3075,58.157,51.707,51.789,32.8885,58.01,51.10766666666667,-0.06666666666666665,-0.013500000000000068,0.1096,0.10428000000000001,0.0,220.585,220.595,217.22333333333336,217.22333333333333,0.0,0.0
33,0.0,0.0,0.0,1.0,1.0,0.0,0.0,1.0,0.0,100.0,1.0,1.1856,26.0,0.0,0.0,0.0,59.999996,0.0,26.0,26.0,26.0,26.0,0.005444444444444585,0.2836000000000001,-0.09206666666666667,296.036,-2.8276,-2.794625,-1.5804,-1.6176249999999999,-163.01,215.8025,190.2535,0.0,0.0,0.0,0.0,0.06709999999999994,-5.498166666666667,-5.498166666666667,-0.41550000000000004,-0.397,-0.03188888888888908,1.325,70.612,0.0029000000000000002,0.031580000000000004,-0.05799999999999894,100.0,1.0,1.0,217.61,0.0,0.0,0.0,0.0,0.0,0.0,0.0,9223.6,0.0,55.0,5.0,254.17333333333335,1.0,0.0,0.0,0.0,0.0,0.0,1.0,0.0,1.6559999999999988,1.6559999999999988,0.0,0.0,1.0,55.0,616.79921,10000.0,85.000001,85.000001,85.000001,85.000001,395.0,0.0,0.0,0.0,1.0,333.33500000000004,62.393,62.393,46.249,46.249,34.0,-18.054000000000002,18.72833333333333,-28.666666666666664,31.2825,0.0,1780.961,-0.3299999999999983,100.0,20.788,20.585,44.863,44.79,0.0,0.0,100.0,0.0,0.0,0.0,0.0,2302.5714285714284,2272.3,4133.333333333333,4272.2,307.845,307.70775,314.77875,314.32075,21.967666666666666,20.5651,22.0708,21.6031,314.999998,314.999998,324.999988,324.999988,99.55788571428572,99.5064,99.56777142857143,99.5495,0.06574999999999998,-0.006000000000000005,-0.09850000000000003,0.1180000000000001,-0.05333333333332746,-0.060000000000002274,1.4954999999999998,1.4765000000000001,38.298,29.531666666666666,38.942,36.0195,54.742999999999995,34.124,59.638999999999996,53.45766666666667,52.667,33.3275,58.189499999999995,51.757999999999996,51.7675,32.908,58.039500000000004,51.157333333333334,-0.06366666666666676,-0.00749999999999984,0.09776000000000001,0.11491000000000001,0.0,220.97500000000002,220.96,217.61,217.61,0.0,0.0
34,0.0,0.0,0.0,1.0,1.0,0.0,0.0,1.0,0.0,100.0,1.0,1.1856,26.0,0.0,0.0,0.0,59.999996,0.0,26.0,26.0,26.0,26.0,0.015444444444444372,0.2862,-0.0897,296.295,-2.8557,-2.743875,-1.6506,-1.5452500000000002,-159.41,215.79000000000002,190.225,0.0,0.0,0.0,0.0,0.06919999999999993,-5.498166666666667,-5.498166666666667,-0.451,-0.922,-0.002666666666666817,-0.367,70.754,0.00755,0.02026,-0.13399999999999945,100.0,1.0,1.0,218.04000000000002,0.0,0.0,0.0,0.0,0.0,0.0,0.0,9242.0,0.0,55.0,5.0,254.68666666666667,0.0,0.0,0.0,0.0,0.0,0.0,1.0,0.0,1.7070000000000007,1.7070000000000007,0.0,0.0,0.0,55.0,616.79921,10000.0,85.000001,85.000001,85.000001,85.000001,395.0,0.0,0.0,0.0,1.0,166.665,62.881,62.881,46.31,46.31,34.0,-17.15,18.30166666666667,-30.163333333333334,29.735,0.0,1780.911,-0.34999999999999787,100.0,20.346,20.4435,44.564,44.891999999999996,0.0,0.0,100.0,0.0,0.0,0.0,0.0,2200.714285714286,2236.7,4179.222222222223,4259.6,308.222,307.64075,314.78475,314.34225,21.975555555555555,20.5692,22.0811,21.6125,314.999998,314.999998,324.999988,324.999988,99.55788571428572,99.5064,99.56791428571428,99.54964285714286,0.06774999999999998,-0.006750000000000034,-0.10399999999999998,0.11233333333333317,-0.06833333333332803,-0.054999999999999716,1.495,1.5045000000000002,38.348,29.557666666666666,39.007,36.078,54.716,34.1495,59.6765,53.519333333333336,52.641999999999996,33.351,58.224000000000004,51.81733333333333,51.742,32.93,58.070499999999996,51.215333333333334,-0.06333333333333324,-0.007000000000000117,0.1058,0.10244,0.0,221.39499999999998,221.38,218.04000000000002,218.04000000000002,0.0,0.0
35,0.0,0.0,0.0,1.0,1.0,0.0,0.0,1.0,0.0,100.0,1.0,1.1856,26.0,0.0,0.0,0.0,59.999996,0.0,26.0,26.0,26.0,26.0,0.014777777777777779,0.27459999999999996,-0.09026666666666666,296.127,-2.9098,-2.770375,-1.58995,-1.5455,-155.79,215.78,190.19425,0.0,0.0,0.0,0.0,0.07129999999999992,-5.498166666666667,-5.498166666666667,-0.48140000000000005,0.25433333333333336,-0.028666666666666618,-0.33199999999999985,70.894,0.015000000000000001,0.023,-0.3279999999999994,100.0,1.0,1.0,218.57333333333332,0.0,0.0,0.0,0.0,0.0,0.0,0.0,9264.6,0.0,55.0,5.0,255.19,1.0,0.0,0.0,0.0,0.0,0.0,1.0,0.0,1.7579999999999991,1.7579999999999991,0.0,0.0,1.0,55.0,616.79921,10000.0,85.000001,85.000001,85.000001,85.000001,395.0,0.0,0.0,0.0,1.0,333.33500000000004,61.966,61.966,46.173,46.173,34.0,-19.064,21.785,-27.263333333333335,29.380000000000003,0.0,1780.858,-0.15500000000000114,100.0,20.436,20.7555,44.405,44.296,0.0,0.0,100.0,0.0,0.0,0.0,0.0,2380.857142857143,2590.1,4070.777777777778,4137.0,307.7975,306.5485,315.036,314.77475,21.983555555555554,20.5738,22.0914,21.6216,314.999998,314.999998,324.999988,324.999988,99.5579,99.5064,99.56807142857143,99.5498,0.0665,-0.009749999999999925,-0.08466666666666656,0.13050000000000006,-0.04999999999999716,-0.07000000000000028,1.5365,1.5234999999999999,38.397,29.586,39.071,36.135,54.689,34.1785,59.713499999999996,53.576,52.616,33.378,58.2585,51.87166666666667,51.716499999999996,32.956,58.102000000000004,51.26833333333333,-0.056333333333333124,-0.02300000000000013,0.10737000000000001,0.10416500000000001,0.0,221.84,221.87,218.57333333333332,218.57333333333332,0.0,0.0
