,ABS Active,ABS Enabled,AID Allow Tire Blankets,AID Auto Blip,AID Auto Clutch,AID Auto Shift,AID Fuel Rate,AID Ideal Line,AID Mech Damage,AID Stability,AID Tire Wear Rate,Air Density,Air Temp,Ballast,Best Lap Delta,Best Lap Time,Brake Bias,Brake Pos,Brake Temp FL,Brake Temp FR,Brake Temp RL,Brake Temp RR,CG Accel Lateral,CG Accel Longitudinal,CG Accel Vertical,CG Height,Camber FL,Camber FR,Camber RL,Camber RR,Car Coord X,Car Coord Y,Car Coord Z,Car Damage Front,Car Damage Left,Car Damage Rear,Car Damage Right,Car Pos Norm,Caster FL,Caster FR,Chassis Pitch Angle,Chassis Pitch Rate,Chassis Roll Angle,Chassis Roll Rate,Chassis Velocity X,Chassis Velocity Y,Chassis Velocity Z,Chassis Yaw Rate,Clutch Pos,DRS Active,DRS Available,Drive Train Speed,ERS Heat Charging,ERS Is Charging,ERS Max Energy,ERS Power Level,ERS Recovery Level,Engine Brake Setting,Engine Limiter,Engine RPM,Flags,Fuel Level,Gear,Ground Speed,HR Sample Clock,In Pit,KERS Charge,KERS Deployed Energy,KERS Input,KERS Max Energy,LR Sample Clock,Lap Invalidated,Lap Time,Lap Time2,Last Lap Time,Last Sector Time,MR Sample Clock,Max Fuel,Max Power,Max RPM,Max Sus Travel FL,Max Sus Travel FR,Max Sus Travel RL,Max Sus Travel RR,Max Torque,Max Turbo Boost,Num Tires Off Track,Penalties Enabled,Position,Raw Data Sample Rate,Ride Height FL,Ride Height FR,Ride Height RL,Ride Height RR,Road Temp,Self Align Torque FL,Self Align Torque FR,Self Align Torque RL,Self Align Torque RR,Session Lap Count,Session Time Left,Steering Angle,Surface Grip,Suspension Travel FL,Suspension Travel FR,Suspension Travel RL,Suspension Travel RR,TC Active,TC Enabled,Throttle Pos,Tire Dirt Level FL,Tire Dirt Level FR,Tire Dirt Level RL,Tire Dirt Level RR,Tire Load FL,Tire Load FR,Tire Load RL,Tire Load RR,Tire Loaded Radius FL,Tire Loaded Radius FR,Tire Loaded Radius RL,Tire Loaded Radius RR,Tire Pressure FL,Tire Pressure FR,Tire Pressure RL,Tire Pressure RR,Tire Radius FL,Tire Radius FR,Tire Radius RL,Tire Radius RR,Tire Rubber Grip FL,Tire Rubber Grip FR,Tire Rubber Grip RL,Tire Rubber Grip RR,Tire Slip Angle FL,Tire Slip Angle FR,Tire Slip Angle RL,Tire Slip Angle RR,Tire Slip Ratio FL,Tire Slip Ratio FR,Tire Slip Ratio RL,Tire Slip Ratio RR,Tire Temp Core FL,Tire Temp Core FR,Tire Temp Core RL,Tire Temp Core RR,Tire Temp Inner FL,Tire Temp Inner FR,Tire Temp Inner RL,Tire Temp Inner RR,Tire Temp Middle FL,Tire Temp Middle FR,Tire Temp Middle RL,Tire Temp Middle RR,Tire Temp Outer FL,Tire Temp Outer FR,Tire Temp Outer RL,Tire Temp Outer RR,Toe In FL,Toe In FR,Toe In RL,Toe In RR,Turbo Boost,Wheel Angular Speed FL,Wheel Angular Speed FR,Wheel Angular Speed RL,Wheel Angular Speed RR,Wind Direction,Wind Speed
0,0.0,0.0,0.0,1.0,1.0,0.0,0.0,1.0,0.0,100.0,1.0,1.1856,26.0,0.0,0.0,0.0,59.99999,0.0,26.0,26.0,26.0,26.0,-0.0902222222222222,0.2795000000000001,0.0565,290.68,-2.6199,-2.5534444444444446,-1.5051999999999999,-1.537,-275.71,216.35000000000002,190.984375,0.0,0.0,0.0,0.0,0.0015666666666666667,-5.498166666666667,-5.498166666666667,-0.7455,1.2,-0.002888888888889163,-0.3775,65.47,-0.03200000000000003,-0.43903333333333333,1.0925000000000002,100.0,1.0,1.0,202.21,0.0,0.0,0.0,0.0,0.0,0.0,0.0,8571.0,0.0,55.0,5.0,235.66666666666669,0.0,0.0,0.0,0.0,0.0,0.0,0.0,0.0,0.0030000000000001137,0.0030000000000001137,0.0,0.0,0.0,55.0,616.79921,10000.0,85.0,85.0,85.0,85.0,395.0,0.0,0.0,0.0,1.0,20.0,43.533,43.533,51.315,51.315,34.0,-29.9675,26.177999999999997,-29.272,24.252000000000002,0.0,1783.466,0.75,100.0,34.765,34.125,39.28,39.236000000000004,0.0,0.0,100.0,0.0,0.0,0.0,0.0,3641.25,4044.5,3970.875,3922.9,303.7733333333333,302.019,315.29266666666666,315.11125,21.8788,20.6507,22.06688888888889,21.412399999999998,314.99999,314.99999,324.99998,324.99998,99.56078571428571,99.50991666666667,99.58714285714285,99.55245714285714,0.039750000000000174,-0.14533333333333331,-0.16833333333333345,0.07033333333333314,-0.05833333333333002,-0.061666666666667425,1.5646666666666667,1.6155,37.742000000000004,30.066499999999998,38.918,34.8275,57.274,36.603,66.439,54.7265,55.287,35.664,64.9305,52.884,54.585,35.207499999999996,65.0335,52.229,-0.059500000000000004,-0.1805000000000001,0.10616,0.10790000000000001,0.0,205.215,205.115,202.21,202.21,0.0,0.0
1,0.0,0.0,0.0,1.0,1.0,0.0,0.0,1.0,0.0,100.0,1.0,1.1856,26.0,0.0,0.0,0.0,59.999996,0.0,26.0,26.0,26.0,26.0,-0.11522222222222211,0.3023,0.19973333333333335,289.642,-2.5381,-2.657888888888889,-1.5118,-1.526,-272.37,216.345,190.964125,0.0,0.0,0.0,0.0,0.0035333333333333336,-5.498166666666667,-5.498166666666667,-0.7021000000000001,-0.5683333333333334,-0.050444444444444514,-0.674,65.611,-0.051000000000000156,-0.4220666666666667,1.5149999999999997,100.0,1.0,1.0,202.32999999999998,0.0,0.0,0.0,0.0,0.0,0.0,0.0,8576.0,0.0,55.0,5.0,236.17666666666668,1.0,0.0,0.0,0.0,0.0,0.0,0.0,0.0,0.053999999999998494,0.053999999999998494,0.0,0.0,1.0,55.0,616.79921,10000.0,85.000001,85.000001,85.000001,85.000001,395.0,0.0,0.0,0.0,1.0,333.33500000000004,43.976,43.976,50.125,50.125,34.0,-32.1025,21.702,-33.702,27.503999999999998,0.0,1783.415,0.7549999999999999,100.0,34.838,34.314,41.218,40.257,0.0,0.0,100.0,0.0,0.0,0.0,0.0,3866.75,3416.0,4221.25,4536.5,303.1406666666667,303.966,314.66366666666664,313.609,21.8897,20.6572,22.079333333333334,21.4221,314.999998,314.999998,324.999988,324.999988,99.5608,99.50993333333334,99.58731428571429,99.55261428571428,0.02200000000000024,-0.16500000000000004,-0.19599999999999973,0.04100000000000037,-0.03833333333332689,-0.03499999999999659,1.4366666666666668,1.502,37.811,30.1075,38.995999999999995,34.888,57.266999999999996,36.6565,66.462,54.783,55.28,35.713499999999996,64.951,52.939,54.576,35.2545,65.051,52.2825,-0.051500000000000004,-0.17799999999999994,0.10891,0.105575,0.0,205.59,205.47,202.32999999999998,202.32999999999998,0.0,0.0
2,0.0,0.0,0.0,1.0,1.0,0.0,0.0,1.0,0.0,100.0,1.0,1.1856,26.0,0.0,0.0,0.0,59.999996,0.0,26.0,26.0,26.0,26.0,-0.13177777777777777,0.2610000000000001,-0.025133333333333334,290.176,-2.5093,-2.679777777777778,-1.4811,-1.581888888888889,-268.82,216.3375,190.944125,0.0,0.0,0.0,0.0,0.005566666666666667,-5.498166666666667,-5.498166666666667,-0.7488,0.22033333333333335,-0.03977777777777769,1.5645,65.748,-0.07266666666666666,-0.48150000000000004,1.5825000000000005,100.0,1.0,1.0,203.20666666666668,0.0,0.0,0.0,0.0,0.0,0.0,0.0,8613.2,0.0,55.0,5.0,236.67000000000002,0.0,0.0,0.0,0.0,0.0,0.0,0.0,0.0,0.10800000000000054,0.10800000000000054,0.0,0.0,0.0,55.0,616.79921,10000.0,85.000001,85.000001,85.000001,85.000001,395.0,0.0,0.0,0.0,1.0,166.665,42.891999999999996,42.891999999999996,51.804,51.804,34.0,-34.12,23.137999999999998,-28.268,19.166,0.0,1783.363,0.665,100.0,35.602000000000004,34.38,41.138999999999996,40.072,0.0,0.0,100.0,0.0,0.0,0.0,0.0,4083.5,3649.3,3655.125,3614.8,302.414,303.1646666666667,316.00533333333334,315.974,21.9016,20.663899999999998,22.092111111111112,21.432,314.999998,314.999998,324.999988,324.999988,99.5608,99.50995,99.58745714285715,99.55275714285715,0.019000000000000128,-0.17599999999999993,-0.2250000000000001,0.006333333333333968,-0.046666666666666856,-0.07333333333333059,1.6653333333333333,1.74,37.885,30.1495,39.076,34.95,57.263999999999996,36.7055,66.4765,54.829,55.275999999999996,35.759,64.9635,52.983000000000004,54.571,35.298,65.0605,52.326,-0.074,-0.16749999999999998,0.106355,0.10555,0.0,206.04500000000002,205.905,203.20666666666668,203.20666666666668,0.0,0.0
3,0.0,0.0,0.0,1.0,1.0,0.0,0.0,1.0,0.0,100.0,1.0,1.1856,26.0,0.0,0.0,0.0,59.999996,0.0,26.0,26.0,26.0,26.0,-0.15000000000000002,0.278,-0.03926666666666667,290.024,-2.6293,-2.5852222222222223,-1.4973,-1.5711111111111111,-265.66,216.3275,190.92575,0.0,0.0,0.0,0.0,0.0074333333333333335,-5.498166666666667,-5.498166666666667,-0.7089000000000001,0.382,-0.008222222222222353,-1.0010000000000001,65.879,-0.08366666666666633,-0.4316666666666667,1.3025000000000002,100.0,1.0,1.0,203.29666666666668,0.0,0.0,0.0,0.0,0.0,0.0,0.0,8616.9,0.0,55.0,5.0,237.14,1.0,0.0,0.0,0.0,0.0,0.0,0.0,0.0,0.1559999999999988,0.1559999999999988,0.0,0.0,1.0,55.0,616.79921,10000.0,85.000001,85.000001,85.000001,85.000001,395.0,0.0,0.0,0.0,1.0,166.665,44.159,44.159,49.789,49.789,34.0,-30.5775,21.026,-34.416,22.976,0.0,1783.315,0.5250000000000004,100.0,35.189,34.397,41.104,40.226,0.0,0.0,100.0,0.0,0.0,0.0,0.0,3555.125,3473.6,4226.0,4089.6000000000004,304.00966666666665,303.59866666666665,314.6906666666667,314.70525,21.9118,20.6701,22.103555555555555,21.441,314.999998,314.999998,324.999988,324.999988,99.5608,99.50998333333334,99.5876,99.55288571428571,0.014000000000000234,-0.17433333333333323,-0.22066666666666634,0.009000000000000341,-0.07666666666666799,-0.045000000000001705,1.509,1.5715,37.949,30.188000000000002,39.147,35.006,57.256,36.7545,66.4915,54.8775,55.268,35.804,64.97749999999999,53.03,54.562,35.341499999999996,65.071,52.3725,-0.0765,-0.15500000000000003,0.10837000000000001,0.10993000000000001,0.0,206.465,206.335,203.29666666666668,203.29666666666668,0.0,0.0
4,0.0,0.0,0.0,1.0,1.0,0.0,0.0,1.0,0.0,100.0,1.0,1.1856,26.0,0.0,0.0,0.0,59.999996,0.0,26.0,26.0,26.0,26.0,-0.1547777777777778,0.2451000000000001,-0.0442,290.237,-2.5541,-2.641,-1.5107,-1.579777777777778,-262.3,216.3125,190.906,0.0,0.0,0.0,0.0,0.009366666666666667,-5.498166666666667,-5.498166666666667,-0.7476,-0.7646666666666666,-0.07500000000000018,-0.45,66.012,-0.0841666666666665,-0.4691,1.1725000000000003,100.0,1.0,1.0,203.89,0.0,0.0,0.0,0.0,0.0,0.0,0.0,8642.2,0.0,55.0,5.0,237.62,0.0,0.0,0.0,0.0,0.0,0.0,0.0,0.0,0.20700000000000074,0.20700000000000074,0.0,0.0,0.0,55.0,616.79921,10000.0,85.000001,85.000001,85.000001,85.000001,395.0,0.0,0.0,0.0,1.0,166.665,43.518,43.518,50.644,50.644,34.0,-32.942499999999995,23.714000000000002,-30.568,19.884,0.0,1783.264,0.4350000000000005,100.0,35.117,34.05,41.527,40.112,0.0,0.0,100.0,0.0,0.0,0.0,0.0,3927.5,3694.7,3889.625,3543.9,302.918,303.1333333333333,315.3976666666667,316.06825,21.9225,20.6766,22.11577777777778,21.4504,314.999998,314.999998,324.999988,324.999988,99.56081428571429,99.51,99.58772857142857,99.55301428571428,0.022250000000000103,-0.16166666666666663,-0.21199999999999974,0.02566666666666695,-0.05833333333333002,-0.05666666666667197,1.617,1.649,38.016,30.229,39.223,35.0655,57.247,36.8055,66.5095,54.9245,55.259,35.851,64.9935,53.0755,54.551,35.385999999999996,65.0835,52.4165,-0.0825,-0.14549999999999996,0.10426,0.10413000000000001,0.0,206.82,206.735,203.89,203.89,0.0,0.0
5,0.0,0.0,0.0,1.0,1.0,0.0,0.0,1.0,0.0,100.0,1.0,1.1856,26.0,0.0,0.0,0.0,59.999996,0.0,26.0,26.0,26.0,26.0,-0.12644444444444447,0.2813000000000001,-0.00013333333333333334,290.161,-2.569,-2.701666666666667,-1.4967000000000001,-1.5658888888888889,-259.13,216.29500000000002,190.88675,0.0,0.0,0.0,0.0,0.011233333333333333,-5.498166666666667,-5.498166666666667,-0.737,0.4746666666666667,-0.07566666666666677,1.1765,66.138,-0.08833333333333337,-0.4451666666666667,1.0225,100.0,1.0,1.0,204.20333333333332,0.0,0.0,0.0,0.0,0.0,0.0,0.0,8655.4,0.0,55.0,5.0,238.07333333333332,1.0,0.0,0.0,0.0,0.0,0.0,0.0,0.0,0.254999999999999,0.254999999999999,0.0,0.0,1.0,55.0,616.79921,10000.0,85.000001,85.000001,85.000001,85.000001,395.0,0.0,0.0,0.0,1.0,166.665,43.915,43.915,50.644,50.644,34.0,-30.99,24.108,-31.902,22.874,0.0,1783.217,0.14000000000000057,100.0,35.302,33.998,41.3,39.822,0.0,0.0,100.0,0.0,0.0,0.0,0.0,3783.5,3556.6,4018.0,3983.0,303.26033333333334,303.55266666666665,315.17633333333333,315.06975,21.933,20.6828,22.127111111111113,21.4593,314.999998,314.999998,324.999988,324.999988,99.56082857142857,99.51001666666667,99.58785714285715,99.55314285714286,0.03825000000000012,-0.14733333333333332,-0.21599999999999975,0.026333333333333542,-0.030000000000001137,-0.06666666666666998,1.5683333333333334,1.5999999999999999,38.081,30.267,39.294,35.1205,57.242999999999995,36.853,66.525,54.9685,55.254999999999995,35.8945,65.007,53.118,54.545,35.4275,65.094,52.4585,-0.10400000000000001,-0.1260000000000001,0.10485000000000001,0.115195,0.0,207.23000000000002,207.175,204.20333333333332,204.20333333333332,0.0,0.0
6,0.0,0.0,0.0,1.0,1.0,0.0,0.0,1.0,0.0,100.0,1.0,1.1856,26.0,0.0,0.0,0.0,59.999996,0.0,26.0,26.0,26.0,26.0,-0.1022222222222221,0.2632000000000001,-0.010166666666666668,289.993,-2.5403000000000002,-2.6292222222222223,-1.5413999999999999,-1.561,-255.75,216.275,190.86625,0.0,0.0,0.0,0.0,0.013166666666666667,-5.498166666666667,-5.498166666666667,-0.7344,0.02466666666666667,-0.05866666666666642,-0.461,66.272,-0.08066666666666666,-0.4503666666666667,0.7200000000000002,100.0,1.0,1.0,204.61,0.0,0.0,0.0,0.0,0.0,0.0,0.0,8672.6,0.0,55.0,5.0,238.55666666666667,0.0,0.0,0.0,0.0,0.0,0.0,0.0,0.0,0.30600000000000094,0.30600000000000094,0.0,0.0,0.0,55.0,616.79921,10000.0,85.000001,85.000001,85.000001,85.000001,395.0,0.0,0.0,0.0,1.0,166.665,43.518,43.518,50.537,50.537,34.0,-31.5525,24.322,-31.818,22.314,0.0,1783.165,-0.13999999999999968,100.0,35.045,34.261,41.321,40.278999999999996,0.0,0.0,100.0,0.0,0.0,0.0,0.0,3928.625,3627.8,3976.25,3855.9,302.9633333333333,303.1623333333333,315.32166666666666,315.291,21.9439,20.6893,22.139222222222223,21.4689,314.999998,314.999998,324.999988,324.999988,99.56082857142857,99.51003333333334,99.588,99.55328571428572,0.04349999999999987,-0.1419999999999999,-0.21199999999999974,0.03233333333333377,-0.045000000000001705,-0.03166666666666629,1.5673333333333335,1.599,38.15,30.308,39.370000000000005,35.1805,57.238,36.9025,66.5415,55.019,55.248999999999995,35.9405,65.022,53.1665,54.539,35.4715,65.1055,52.506,-0.1245,-0.10400000000000009,0.10805500000000001,0.11081,0.0,207.63,207.55,204.61,204.61,0.0,0.0
7,0.0,0.0,0.0,1.0,1.0,0.0,0.0,1.0,0.0,100.0,1.0,1.1856,26.0,0.0,0.0,0.0,59.999996,0.0,26.0,26.0,26.0,26.0,-0.08666666666666656,0.26239999999999997,0.0437,289.673,-2.5108,-2.6211111111111114,-1.5023,-1.5991111111111111,-252.37,216.25,190.845875,0.0,0.0,0.0,0.0,0.015133333333333335,-5.498166666666667,-5.498166666666667,-0.738,0.005333333333333333,-0.0427777777777778,1.1815,66.404,-0.059499999999999886,-0.45803333333333335,0.2925,100.0,1.0,1.0,204.98333333333335,0.0,0.0,0.0,0.0,0.0,0.0,0.0,8688.5,0.0,55.0,5.0,239.03333333333333,1.0,0.0,0.0,0.0,0.0,0.0,0.0,0.0,0.3569999999999993,0.3569999999999993,0.0,0.0,1.0,55.0,616.79921,10000.0,85.000001,85.000001,85.000001,85.000001,395.0,0.0,0.0,0.0,1.0,166.665,43.137,43.137,50.568,50.568,34.0,-29.4775,26.512,-29.186,25.214,0.0,1783.114,-0.23500000000000032,100.0,35.372,34.235,41.415,40.435,0.0,0.0,100.0,0.0,0.0,0.0,0.0,3900.0,3770.5,3913.125,3988.0,302.8036666666667,302.84933333333333,315.36033333333336,314.97925,21.9549,20.6959,22.151333333333334,21.4784,314.999998,314.999998,324.999988,324.999988,99.56084285714286,99.51006666666666,99.58814285714286,99.55341428571428,0.07425000000000015,-0.11833333333333318,-0.17433333333333323,0.0600000000000005,-0.041666666666671404,-0.061666666666667425,1.562,1.5735,38.218,30.3495,39.446,35.24,57.233999999999995,36.951499999999996,66.5575,55.069,55.245000000000005,35.986000000000004,65.036,53.215,54.533,35.5145,65.1165,52.553,-0.1355,-0.09600000000000009,0.10264500000000001,0.11260500000000001,0.0,208.01,207.995,204.98333333333335,204.98333333333335,0.0,0.0
8,0.0,0.0,0.0,1.0,1.0,0.0,0.0,1.0,0.0,100.0,1.0,1.1856,26.0,0.0,0.0,0.0,59.999996,0.0,26.0,26.0,26.0,26.0,-0.036222222222222156,0.2681,-0.012033333333333333,289.948,-2.6003,-2.5997777777777777,-1.4867,-1.5282222222222221,-248.98,216.225,190.82525,0.0,0.0,0.0,0.0,0.017133333333333334,-5.498166666666667,-5.498166666666667,-0.7409,-0.5376666666666666,-0.02677777777777779,-0.5195,66.538,-0.038833333333333275,-0.4529,-0.05500000000000016,100.0,1.0,1.0,205.31333333333333,0.0,0.0,0.0,0.0,0.0,0.0,0.0,8702.5,0.0,55.0,5.0,239.51333333333332,0.0,0.0,0.0,0.0,0.0,0.0,0.0,0.0,0.40800000000000125,0.40800000000000125,0.0,0.0,0.0,55.0,616.79921,10000.0,85.000001,85.000001,85.000001,85.000001,395.0,0.0,0.0,0.0,1.0,166.665,43.961,43.961,49.85,49.85,34.0,-27.82,25.784,-29.016,25.224,0.0,1783.063,-0.3600000000000003,100.0,34.81,34.385,41.297,40.655,0.0,0.0,100.0,0.0,0.0,0.0,0.0,3696.25,3638.0,4062.625,3985.1000000000004,303.71066666666667,303.146,315.049,314.92625,21.9657,20.7025,22.163444444444444,21.488,314.999998,314.999998,324.999988,324.999988,99.56085714285715,99.51008333333333,99.5883,99.55355714285714,0.08499999999999996,-0.10933333333333328,-0.14833333333333343,0.07600000000000051,-0.03833333333332689,-0.03166666666666629,1.5536666666666665,1.5494999999999999,38.285,30.391,39.521,35.3,57.229,36.9995,66.5735,55.1185,55.239999999999995,36.03,65.05,53.2625,54.525999999999996,35.557,65.127,52.6,-0.1465,-0.09050000000000002,0.10079500000000001,0.100555,0.0,208.41,208.385,205.31333333333333,205.31333333333333,0.0,0.0
9,0.0,0.0,0.0,1.0,1.0,0.0,0.0,1.0,0.0,100.0,1.0,1.1856,26.0,0.0,0.0,0.0,59.999996,0.0,26.0,26.0,26.0,26.0,-0.024666666666666615,0.25170000000000003,0.027633333333333333,289.673,-2.5859,-2.611111111111111,-1.5299,-1.5324444444444443,-245.98,216.2,190.80675,0.0,0.0,0.0,0.0,0.018866666666666667,-5.498166666666667,-5.498166666666667,-0.7502000000000001,0.55,-0.02666666666666684,0.7475,66.651,-0.020999999999999908,-0.45680000000000004,-0.20500000000000007,100.0,1.0,1.0,205.82666666666665,0.0,0.0,0.0,0.0,0.0,0.0,0.0,8724.3,0.0,55.0,5.0,239.92000000000002,1.0,0.0,0.0,0.0,0.0,0.0,0.0,0.0,0.4529999999999994,0.4529999999999994,0.0,0.0,1.0,55.0,616.79921,10000.0,85.000001,85.000001,85.000001,85.000001,395.0,0.0,0.0,0.0,1.0,166.665,42.694,42.694,50.949,50.949,34.0,-28.96,29.311999999999998,-26.116,25.864,0.0,1783.018,-0.4500000000000002,100.0,35.376,34.686,41.036,40.514,0.0,0.0,100.0,0.0,0.0,0.0,0.0,4009.25,3847.0,3800.0,3932.0,302.619,302.61966666666666,315.71,315.19075,21.9753,20.7085,22.17388888888889,21.4964,314.999998,314.999998,324.999988,324.999988,99.56085714285715,99.5101,99.58841428571428,99.55368571428572,0.11249999999999982,-0.07666666666666666,-0.129,0.10400000000000009,-0.036666666666668846,-0.03833333333332689,1.6136666666666666,1.605,38.346000000000004,30.4285,39.587,35.3525,57.227999999999994,37.042500000000004,66.584,55.1605,55.238,36.0695,65.059,53.3035,54.522999999999996,35.595,65.133,52.64,-0.1545,-0.08150000000000013,0.10499000000000001,0.10135500000000001,0.0,208.765,208.765,205.82666666666665,205.82666666666665,0.0,0.0
10,0.0,0.0,0.0,1.0,1.0,0.0,0.0,1.0,0.0,100.0,1.0,1.1856,26.0,0.0,0.0,0.0,59.999996,0.0,26.0,26.0,26.0,26.0,0.003444444444444583,0.25690000000000013,0.008533333333333334,289.368,-2.5653,-2.5843333333333334,-1.5831,-1.5101111111111112,-242.57999999999998,216.1725,190.785875,0.0,0.0,0.0,0.0,0.020833333333333336,-5.498166666666667,-5.498166666666667,-0.7222000000000001,-0.27666666666666667,0.013111111111111073,0.3045,66.785,0.00016666666666642627,-0.44396666666666673,-0.5049999999999999,100.0,1.0,1.0,205.99,0.0,0.0,0.0,0.0,0.0,0.0,0.0,8731.2,0.0,55.0,5.0,240.40333333333334,0.0,0.0,0.0,0.0,0.0,0.0,1.0,0.0,0.5040000000000013,0.5040000000000013,0.0,0.0,0.0,55.0,616.79921,10000.0,85.000001,85.000001,85.000001,85.000001,395.0,0.0,0.0,0.0,1.0,166.665,43.64,43.64,49.347,49.347,34.0,-24.974999999999998,26.61,-30.509999999999998,28.53,0.0,1782.967,-0.5300000000000002,100.0,35.239,34.907,41.356,41.407,0.0,0.0,100.0,0.0,0.0,0.0,0.0,3630.25,3595.1,4243.0,4171.4,303.84933333333333,303.25266666666664,314.683,314.47,21.9862,20.7153,22.18611111111111,21.5062,314.999998,314.999998,324.999988,324.999988,99.56088571428572,99.5101,99.58855714285714,99.55382857142857,0.12199999999999989,-0.08399999999999985,-0.11899999999999977,0.1113333333333335,-0.03499999999999659,-0.03166666666666629,1.5066666666666668,1.4889999999999999,38.414,30.4705,39.663,35.4135,57.227000000000004,37.089,66.601,55.213499999999996,55.236999999999995,36.1125,65.074,53.355000000000004,54.519999999999996,35.635999999999996,65.1445,52.6905,-0.165,-0.07850000000000001,0.101135,0.104535,0.0,209.15,209.195,205.99,205.99,0.0,0.0
11,0.0,0.0,0.0,1.0,1.0,0.0,0.0,1.0,0.0,100.0,1.0,1.1856,26.0,0.0,0.0,0.0,59.999996,0.0,26.0,26.0,26.0,26.0,0.06277777777777782,0.2558,-0.09643333333333334,289.993,-2.6097,-2.538666666666667,-1.5788,-1.497111111111111,-238.97,216.14499999999998,190.764125,0.0,0.0,0.0,0.0,0.022600000000000002,-5.498166666666667,-5.498166666666667,-0.7695000000000001,-0.22833333333333336,0.03922222222222205,-0.731,66.918,0.02200000000000024,-0.4799666666666667,-0.6149999999999998,100.0,1.0,1.0,206.74333333333334,0.0,0.0,0.0,0.0,0.0,0.0,0.0,8763.0,0.0,55.0,5.0,240.88333333333333,1.0,0.0,0.0,0.0,0.0,0.0,1.0,0.0,0.5579999999999998,0.5579999999999998,0.0,0.0,1.0,55.0,616.79921,10000.0,85.000001,85.000001,85.000001,85.000001,395.0,0.0,0.0,0.0,1.0,166.665,42.999,42.999,51.102000000000004,51.102000000000004,34.0,-26.215,29.576,-22.694000000000003,25.422,0.0,1782.913,-0.5549999999999997,100.0,34.941,35.138,40.865,41.275999999999996,0.0,0.0,100.0,0.0,0.0,0.0,0.0,3826.875,3829.5,3560.5,3717.7,303.3376666666667,302.51233333333334,316.348,315.64625,21.9975,20.7225,22.198666666666668,21.5163,314.999998,314.999998,324.999988,324.999988,99.5609,99.51011666666666,99.5887,99.55397142857143,0.13600000000000012,-0.057333333333333236,-0.08999999999999986,0.14566666666666706,-0.05666666666667197,-0.054999999999999716,1.685,1.675,38.483999999999995,30.5155,39.742000000000004,35.477000000000004,57.224999999999994,37.138999999999996,66.612,55.2655,55.233999999999995,36.158500000000004,65.0835,53.405,54.515,35.68,65.1505,52.7395,-0.1605,-0.07550000000000012,0.104965,0.10440500000000001,0.0,209.565,209.60500000000002,206.74333333333334,206.74333333333334,0.0,0.0
12,0.0,0.0,0.0,1.0,1.0,0.0,0.0,1.0,0.0,100.0,1.0,1.1856,26.0,0.0,0.0,0.0,59.999996,0.0,26.0,26.0,26.0,26.0,0.055222222222222284,0.26990000000000003,0.0019333333333333333,289.459,-2.6577,-2.540111111111111,-1.5361,-1.5025555555555556,-235.96,216.1225,190.744625,0.0,0.0,0.0,0.0,0.025466666666666665,-5.498166666666667,-5.498166666666667,-0.7546,0.3096666666666667,0.02400000000000002,0.608,67.035,0.035833333333333606,-0.4483333333333333,-0.6324999999999998,100.0,1.0,1.0,206.86666666666667,0.0,0.0,0.0,0.0,0.0,0.0,0.0,8768.3,0.0,55.0,5.0,241.30333333333334,0.0,0.0,0.0,0.0,0.0,0.0,1.0,0.0,0.602999999999998,0.602999999999998,0.0,0.0,0.0,55.0,616.79921,10000.0,85.000001,85.000001,85.000001,85.000001,395.0,0.0,0.0,0.0,1.0,333.33500000000004,43.106,43.106,49.744,49.744,34.0,-24.2725,31.598,-25.308,30.130000000000003,0.0,1782.867,-0.7350000000000003,100.0,34.976,35.106,40.887,41.085,0.0,0.0,100.0,0.0,0.0,0.0,0.0,3741.625,3915.9,4048.75,4080.2,303.4513333333333,302.45866666666666,315.09433333333334,314.8345,22.0068,20.7286,22.209222222222223,21.5247,314.999998,314.999998,324.999988,324.999988,99.56091428571429,99.51011666666666,99.58882857142856,99.5541,0.17174999999999985,-0.03066666666666662,-0.06433333333333335,0.168333333333333,-0.03166666666666629,-0.05833333333333002,1.5553333333333335,1.542,38.543,30.554000000000002,39.807,35.5295,57.224000000000004,37.1805,66.6245,55.3085,55.233000000000004,36.197,65.0945,53.447,54.512,35.717,65.1585,52.781,-0.176,-0.06750000000000012,0.10226500000000001,0.10788,0.0,209.93,210.0,206.86666666666667,206.86666666666667,0.0,0.0
13,0.0,0.0,0.0,1.0,1.0,0.0,0.0,1.0,0.0,100.0,1.0,1.1856,26.0,0.0,0.0,0.0,59.999996,0.0,26.0,26.0,26.0,26.0,0.06699999999999995,0.25680000000000014,0.028900000000000002,289.017,-2.6448,-2.533888888888889,-1.6135000000000002,-1.4793333333333334,-232.53,216.0975,190.722875,0.0,0.0,0.0,0.0,0.02666666666666667,-5.498166666666667,-5.498166666666667,-0.7476,-0.064,0.030999999999999917,-0.649,67.164,0.04283333333333372,-0.4567,-0.8125,100.0,1.0,1.0,207.21,0.0,0.0,0.0,0.0,0.0,0.0,0.0,8782.8,0.0,55.0,5.0,241.76999999999998,1.0,0.0,0.0,0.0,0.0,0.0,1.0,0.0,0.6539999999999999,0.6539999999999999,0.0,0.0,1.0,55.0,616.79921,10000.0,85.000001,85.000001,85.000001,85.000001,395.0,0.0,0.0,0.0,1.0,333.33500000000004,42.647999999999996,42.647999999999996,49.713,49.713,34.0,-25.4225,30.939999999999998,-26.944,30.608,0.0,1782.816,-0.7549999999999999,100.0,35.14,35.538,40.975,41.688,0.0,0.0,100.0,0.0,0.0,0.0,0.0,3881.75,3837.7,4073.875,4169.0,303.18466666666666,302.49666666666667,315.1173333333333,314.507,22.0176,20.7356,22.221222222222224,21.5345,314.999998,314.999998,324.999988,324.999988,99.56094285714286,99.51011666666666,99.58897142857143,99.55424285714285,0.16475000000000017,-0.03266666666666662,-0.07299999999999995,0.1626666666666674,-0.04833333333333201,-0.05666666666667197,1.5476666666666667,1.5165,38.61,30.5975,39.882999999999996,35.5905,57.226,37.226,66.639,55.3615,55.233999999999995,36.2395,65.107,53.4985,54.512,35.7575,65.1675,52.8315,-0.18,-0.06099999999999994,0.11042500000000001,0.103535,0.0,210.32,210.385,207.21,207.21,0.0,0.0
14,0.0,0.0,0.0,1.0,1.0,0.0,0.0,1.0,0.0,100.0,1.0,1.1856,26.0,0.0,0.0,0.0,59.999996,0.0,26.0,26.0,26.0,26.0,0.08577777777777795,0.2558,-0.0196,289.23,-2.6298,-2.513777777777778,-1.6135000000000002,-1.474888888888889,-229.1,216.075,190.70175,0.0,0.0,0.0,0.0,0.02866666666666667,-5.498166666666667,-5.498166666666667,-0.7586,-0.16933333333333334,0.05400000000000005,1.4005,67.291,0.05883333333333374,-0.4739666666666667,-1.075,100.0,1.0,1.0,207.69333333333333,0.0,0.0,0.0,0.0,0.0,0.0,0.0,8803.4,0.0,55.0,5.0,242.22666666666666,0.0,0.0,0.0,0.0,0.0,0.0,1.0,0.0,0.7049999999999983,0.7049999999999983,0.0,0.0,0.0,55.0,616.79921,10000.0,85.000001,85.000001,85.000001,85.000001,395.0,0.0,0.0,0.0,1.0,333.33500000000004,42.725,42.725,50.018,50.018,34.0,-22.875,32.64,-24.177999999999997,30.858,0.0,1782.765,-0.7649999999999997,100.0,35.362,35.43,41.079,41.78,0.0,0.0,100.0,0.0,0.0,0.0,0.0,3683.25,3979.1000000000004,3846.625,4063.8,303.574,302.2753333333333,315.581,314.864,22.0283,20.7425,22.23311111111111,21.5442,314.999998,314.999998,324.999988,324.999988,99.56097142857143,99.51013333333333,99.58911428571429,99.5544,0.18425000000000002,-0.016666666666666607,-0.05433333333333357,0.19399999999999995,-0.03499999999999659,-0.05666666666667197,1.5886666666666667,1.557,38.677,30.641,39.957,35.6515,57.227999999999994,37.2715,66.652,55.413,55.236000000000004,36.2815,65.1185,53.5485,54.510999999999996,35.798,65.175,52.8805,-0.1815,-0.06550000000000011,0.10927,0.10937000000000001,0.0,210.7,210.775,207.69333333333333,207.69333333333333,0.0,0.0
15,0.0,0.0,0.0,1.0,1.0,0.0,0.0,1.0,0.0,100.0,1.0,1.1856,26.0,0.0,0.0,0.0,59.999996,0.0,26.0,26.0,26.0,26.0,0.10488888888888903,0.25260000000000016,0.0035,289.261,-2.6109999999999998,-2.458666666666667,-1.6183,-1.4314444444444443,-225.87,216.055,190.6815,0.0,0.0,0.0,0.0,0.03056666666666667,-5.498166666666667,-5.498166666666667,-0.7509,0.3733333333333333,0.09166666666666679,1.4335,67.41,0.07083333333333375,-0.45696666666666674,-1.1099999999999999,100.0,1.0,1.0,208.05,0.0,0.0,0.0,0.0,0.0,0.0,0.0,8818.5,0.0,55.0,5.0,242.65666666666667,1.0,0.0,0.0,0.0,0.0,0.0,1.0,0.0,0.7530000000000001,0.7530000000000001,0.0,0.0,1.0,55.0,616.79921,10000.0,85.000001,85.000001,85.000001,85.000001,395.0,0.0,0.0,0.0,1.0,166.665,42.831,42.831,50.125,50.125,34.0,-21.56,32.208,-22.83,32.054,0.0,1782.718,-0.7949999999999999,100.0,35.366,35.53,40.834,41.834,0.0,0.0,100.0,0.0,0.0,0.0,0.0,3557.5,3974.2,3786.375,4243.0,303.903,302.28266666666667,315.742,314.47475,22.0383,20.7491,22.244222222222223,21.5533,314.999998,314.999998,324.999988,324.999988,99.561,99.51013333333333,99.58924285714286,99.55452857142858,0.1887500000000002,-0.01200000000000001,-0.03433333333333355,0.19899999999999984,-0.03499999999999659,-0.04833333333333201,1.5903333333333334,1.563,38.739000000000004,30.682000000000002,40.027,35.7085,57.230999999999995,37.314499999999995,66.6625,55.4615,55.236999999999995,36.3215,65.127,53.5955,54.510999999999996,35.8365,65.1805,52.9265,-0.1795,-0.06400000000000006,0.10781,0.10415,0.0,211.085,211.17000000000002,208.05,208.05,0.0,0.0
16,0.0,0.0,0.0,1.0,1.0,0.0,0.0,1.0,0.0,100.0,1.0,1.1856,26.0,0.0,0.0,0.0,59.999996,0.0,26.0,26.0,26.0,26.0,0.11388888888888893,0.2398,-0.039,289.307,-2.6667,-2.4915555555555557,-1.5561,-1.4604444444444444,-222.43,216.0375,190.6595,0.0,0.0,0.0,0.0,0.03256666666666667,-5.498166666666667,-5.498166666666667,-0.7696000000000001,-0.7763333333333334,0.07388888888888889,-1.099,67.538,0.08066666666666666,-0.47163333333333335,-1.0125,100.0,1.0,1.0,208.42333333333335,0.0,0.0,0.0,0.0,0.0,0.0,0.0,8834.3,0.0,55.0,5.0,243.11666666666667,0.0,0.0,0.0,0.0,0.0,0.0,1.0,0.0,0.8039999999999985,0.8039999999999985,0.0,0.0,0.0,55.0,616.79921,10000.0,85.000001,85.000001,85.000001,85.000001,395.0,0.0,0.0,0.0,1.0,166.665,42.876999999999995,42.876999999999995,49.606,49.606,34.0,-24.0225,31.478,-22.216,30.884,0.0,1782.667,-0.2649999999999997,100.0,34.787,35.778,41.03,42.061,0.0,0.0,100.0,0.0,0.0,0.0,0.0,3706.25,3910.5,3849.125,3984.1000000000004,303.758,302.29133333333334,315.599,315.002,22.0486,20.7561,22.25622222222222,21.563,314.999998,314.999998,324.999988,324.999988,99.56101428571428,99.51015,99.58938571428571,99.55467142857142,0.16999999999999993,-0.026000000000000023,-0.028666666666666618,0.2116666666666669,-0.026666666666670835,-0.04333333333332945,1.591,1.5534999999999999,38.804,30.726,40.101,35.769,57.230000000000004,37.36,66.6765,55.513,55.235,36.3635,65.1395,53.6455,54.507,35.877,65.189,52.976,-0.1485,-0.09149999999999991,0.10823,0.10920500000000001,0.0,211.43,211.53,208.42333333333335,208.42333333333335,0.0,0.0
17,0.0,0.0,0.0,1.0,1.0,0.0,0.0,1.0,0.0,100.0,1.0,1.1856,26.0,0.0,0.0,0.0,59.999996,0.0,26.0,26.0,26.0,26.0,0.07388888888888889,0.264,-0.05466666666666667,289.047,-2.6473,-2.4619999999999997,-1.6111,-1.493111111111111,-218.98000000000002,216.0225,190.637,0.0,0.0,0.0,0.0,0.03456666666666667,-5.498166666666667,-5.498166666666667,-0.764,0.6006666666666667,0.037555555555555564,0.3605,67.663,0.07933333333333348,-0.4567666666666667,-0.4849999999999999,100.0,1.0,1.0,208.81333333333333,0.0,0.0,0.0,0.0,0.0,0.0,0.0,8850.9,0.0,55.0,5.0,243.56666666666666,1.0,0.0,0.0,0.0,0.0,0.0,1.0,0.0,0.8550000000000004,0.8550000000000004,0.0,0.0,1.0,55.0,616.79921,10000.0,85.000001,85.000001,85.000001,85.000001,395.0,0.0,0.0,0.0,1.0,166.665,42.525999999999996,42.525999999999996,49.896,49.896,34.0,-25.1575,29.322000000000003,-24.606,31.294,0.0,1782.616,0.10000000000000053,100.0,35.631,35.91,40.885,41.841,0.0,0.0,100.0,0.0,0.0,0.0,0.0,3743.375,3834.0,4032.125,4065.3,303.474,302.74066666666664,315.223,314.8875,22.0593,20.7633,22.268,21.5726,314.999998,314.999998,324.999988,324.999988,99.56104285714285,99.51015,99.58952857142857,99.55481428571429,0.15425000000000022,-0.04166666666666674,-0.03733333333333322,0.19966666666666733,-0.04999999999999716,-0.036666666666668846,1.591,1.5705,38.870999999999995,30.7705,40.175,35.829,57.232,37.408,66.6875,55.563,55.236999999999995,36.408,65.1485,53.694,54.506,35.9195,65.195,53.0235,-0.1125,-0.127,0.11255000000000001,0.10501500000000001,0.0,211.89499999999998,211.925,208.81333333333333,208.81333333333333,0.0,0.0
18,0.0,0.0,0.0,1.0,1.0,0.0,0.0,1.0,0.0,100.0,1.0,1.1856,26.0,0.0,0.0,0.0,59.999996,0.0,26.0,26.0,26.0,26.0,0.030777777777777793,0.24060000000000015,-0.05946666666666667,289.017,-2.6710000000000003,-2.4494444444444445,-1.6159,-1.4248888888888889,-215.73000000000002,216.01,190.616,0.0,0.0,0.0,0.0,0.03643333333333333,-5.498166666666667,-5.498166666666667,-0.7715000000000001,-0.6546666666666666,0.04888888888888898,0.919,67.782,0.06033333333333335,-0.4728,0.040000000000000036,100.0,1.0,1.0,209.16333333333333,0.0,0.0,0.0,0.0,0.0,0.0,0.0,8865.7,0.0,55.0,5.0,243.99666666666667,0.0,0.0,0.0,0.0,0.0,0.0,1.0,0.0,0.9029999999999987,0.9029999999999987,0.0,0.0,0.0,55.0,616.79921,10000.0,85.000001,85.000001,85.000001,85.000001,395.0,0.0,0.0,0.0,1.0,166.665,42.557,42.557,49.667,49.667,34.0,-26.4675,29.224,-25.11,28.524,0.0,1782.569,0.2549999999999999,100.0,35.480000000000004,35.634,41.397,42.127,0.0,0.0,100.0,0.0,0.0,0.0,0.0,3745.875,3989.0,3891.5,3992.6000000000004,303.54266666666666,302.36833333333334,315.5063333333333,315.07925,22.0693,20.7698,22.279333333333334,21.5819,314.999998,314.999998,324.999988,324.999988,99.56107142857142,99.51016666666666,99.58965714285715,99.55495714285715,0.13474999999999993,-0.06266666666666665,-0.06400000000000006,0.17433333333333323,-0.036666666666668846,-0.05833333333333002,1.5653333333333332,1.569,38.933,30.811500000000002,40.245999999999995,35.8865,57.230999999999995,37.452,66.7015,55.612,55.236000000000004,36.449,65.161,53.7415,54.503,35.959,65.204,53.070499999999996,-0.1055,-0.14549999999999996,0.109935,0.10558000000000001,0.0,212.255,212.24,209.16333333333333,209.16333333333333,0.0,0.0
19,0.0,0.0,0.0,1.0,1.0,0.0,0.0,1.0,0.0,100.0,1.0,1.1856,26.0,0.0,0.0,0.0,59.999996,0.0,26.0,26.0,26.0,26.0,0.0013333333333334085,0.2522,0.012666666666666668,288.544,-2.6238,-2.4522222222222223,-1.613,-1.4235555555555557,-212.26999999999998,215.9975,190.5935,0.0,0.0,0.0,0.0,0.03846666666666667,-5.498166666666667,-5.498166666666667,-0.7686000000000001,0.8456666666666667,0.035222222222222044,-0.812,67.906,0.03266666666666662,-0.4662,0.46750000000000025,100.0,1.0,1.0,209.57666666666665,0.0,0.0,0.0,0.0,0.0,0.0,0.0,8883.2,0.0,55.0,5.0,244.43666666666667,1.0,0.0,0.0,0.0,0.0,0.0,1.0,0.0,0.9540000000000006,0.9540000000000006,0.0,0.0,1.0,55.0,616.79921,10000.0,85.000001,85.000001,85.000001,85.000001,395.0,0.0,0.0,0.0,1.0,166.665,41.611,41.611,49.759,49.759,34.0,-29.0775,27.5,-28.404,27.276,0.0,1782.518,0.28000000000000025,100.0,36.022999999999996,36.181,41.143,41.917,0.0,0.0,100.0,0.0,0.0,0.0,0.0,4011.375,3941.6000000000004,4067.125,4064.8,302.787,302.20733333333334,315.22266666666667,314.9325,22.08,20.777,22.291222222222224,21.5915,314.999998,314.999998,324.999988,324.999988,99.56108571428571,99.51018333333333,99.5898,99.5551,0.11724999999999985,-0.09266666666666667,-0.10699999999999976,0.1393333333333331,-0.04833333333333201,-0.04333333333332945,1.5766666666666667,1.59,39.0,30.856,40.32,35.9465,57.232,37.503,66.713,55.661,55.236000000000004,36.4965,65.1705,53.789500000000004,54.501999999999995,36.0045,65.21,53.1175,-0.109,-0.14650000000000007,0.10129,0.11393,0.0,212.695,212.65,209.57666666666665,209.57666666666665,0.0,0.0
20,0.0,0.0,0.0,1.0,1.0,0.0,0.0,1.0,0.0,100.0,1.0,1.1856,26.0,0.0,0.0,0.0,59.999996,0.0,26.0,26.0,26.0,26.0,-0.03011111111111109,0.256,-0.011166666666666668,288.635,-2.6454,-2.541333333333333,-1.574,-1.451,-208.8,215.985,190.57125,0.0,0.0,0.0,0.0,0.04046666666666667,-5.498166666666667,-5.498166666666667,-0.7646000000000001,-1.0333333333333332,0.017888888888888843,0.2335,68.033,0.008500000000000174,-0.4703666666666667,0.4624999999999999,100.0,1.0,1.0,209.78,0.0,0.0,0.0,0.0,0.0,0.0,0.0,8891.8,0.0,55.0,5.0,244.9,0.0,0.0,0.0,0.0,0.0,0.0,0.0,0.0,1.004999999999999,1.004999999999999,0.0,0.0,0.0,55.0,616.79921,10000.0,85.000001,85.000001,85.000001,85.000001,395.0,0.0,0.0,0.0,1.0,166.665,42.786,42.786,48.507999999999996,48.507999999999996,34.0,-26.875,27.334000000000003,-29.078,28.137999999999998,0.0,1782.467,0.27500000000000036,100.0,35.729,35.757,42.138999999999996,42.179,0.0,0.0,100.0,0.0,0.0,0.0,0.0,3657.75,3814.9,4156.125,4174.7,303.818,302.7973333333333,314.8226666666667,314.6085,22.0905,20.7839,22.30322222222222,21.6013,314.999998,314.999998,324.999988,324.999988,99.5611,99.51018333333333,99.58994285714286,99.55524285714286,0.10824999999999996,-0.09233333333333316,-0.10533333333333328,0.12300000000000022,-0.03333333333333144,-0.05833333333333002,1.5136666666666665,1.5095,39.066,30.8995,40.394999999999996,36.007999999999996,57.229,37.552,66.7305,55.7125,55.232,36.5415,65.186,53.8395,54.495999999999995,36.0475,65.22149999999999,53.1665,-0.1,-0.14349999999999996,0.100875,0.11188000000000001,0.0,213.025,213.005,209.78,209.78,0.0,0.0
21,0.0,0.0,0.0,1.0,1.0,0.0,0.0,1.0,0.0,100.0,1.0,1.1856,26.0,0.0,0.0,0.0,59.999996,0.0,26.0,26.0,26.0,26.0,-0.0407777777777778,0.2410000000000001,-0.06806666666666666,288.956,-2.5448,-2.6078888888888887,-1.5792000000000002,-1.5323333333333333,-205.54,215.975,190.549625,0.0,0.0,0.0,0.0,0.04236666666666667,-5.498166666666667,-5.498166666666667,-0.7954,0.391,-0.00955555555555554,-0.0155,68.145,-0.01416666666666666,-0.48400000000000004,0.6074999999999999,100.0,1.0,1.0,210.42666666666668,0.0,0.0,0.0,0.0,0.0,0.0,0.0,8919.2,0.0,55.0,5.0,245.3,1.0,0.0,0.0,0.0,0.0,0.0,0.0,0.0,1.0530000000000008,1.0530000000000008,0.0,0.0,1.0,55.0,616.79921,10000.0,85.000001,85.000001,85.000001,85.000001,395.0,0.0,0.0,0.0,1.0,333.33500000000004,41.931,41.931,50.308,50.308,34.0,-28.37,28.022,-27.13,24.274,0.0,1782.416,0.16000000000000014,100.0,36.206,35.803,41.609,41.674,0.0,0.0,100.0,0.0,0.0,0.0,0.0,3904.625,3888.8,3803.75,3789.5,302.9116666666667,302.5,315.81733333333335,315.5735,22.1006,20.7905,22.31422222222222,21.6102,314.999998,314.999998,324.999988,324.999988,99.56111428571428,99.5102,99.59007142857143,99.55538571428572,0.10099999999999998,-0.10666666666666669,-0.1413333333333333,0.09866666666666735,-0.03499999999999659,-0.06333333333333258,1.6403333333333334,1.6655,39.129000000000005,30.941,40.464,36.0635,57.227000000000004,37.6,66.73949999999999,55.754999999999995,55.230000000000004,36.586,65.194,53.881,54.492999999999995,36.09,65.226,53.207,-0.112,-0.137,0.10530500000000001,0.10816,0.0,213.39499999999998,213.38,210.42666666666668,210.42666666666668,0.0,0.0
22,0.0,0.0,0.0,1.0,1.0,0.0,0.0,1.0,0.0,100.0,1.0,1.1856,26.0,0.0,0.0,0.0,59.999996,0.0,26.0,26.0,26.0,26.0,-0.04788888888888887,0.23399999999999999,0.050466666666666674,288.315,-2.5185,-2.619888888888889,-1.5154,-1.5796666666666668,-202.06,215.96,190.526,0.0,0.0,0.0,0.0,0.0444,-5.498166666666667,-5.498166666666667,-0.7734000000000001,0.08933333333333333,-0.014222222222222136,-0.46,68.271,-0.025166666666666337,-0.46353333333333335,0.56,100.0,1.0,1.0,210.56,0.0,0.0,0.0,0.0,0.0,0.0,0.0,8924.9,0.0,55.0,5.0,245.75666666666666,0.0,0.0,0.0,0.0,0.0,0.0,0.0,0.0,1.1039999999999992,1.1039999999999992,0.0,0.0,0.0,55.0,616.79921,10000.0,85.000001,85.000001,85.000001,85.000001,395.0,0.0,0.0,0.0,1.0,333.33500000000004,41.855000000000004,41.855000000000004,48.996,48.996,34.0,-29.36,26.536,-31.088,27.096,0.0,1782.365,0.054999999999999716,100.0,36.234,36.001,42.04,41.851,0.0,0.0,100.0,0.0,0.0,0.0,0.0,3943.125,3780.9,4143.5,4097.5,302.91966666666667,302.6,314.9313333333333,314.702,22.1114,20.7975,22.32622222222222,21.6199,314.999998,314.999998,324.999988,324.999988,99.56112857142857,99.51021666666666,99.59022857142857,99.55552857142857,0.08174999999999999,-0.1246666666666667,-0.16199999999999992,0.07800000000000029,-0.03499999999999659,-0.03833333333332689,1.494,1.51,39.196,30.9845,40.539,36.124,57.226,37.6505,66.756,55.8045,55.229,36.6325,65.209,53.929,54.489000000000004,36.1345,65.2375,53.254,-0.11800000000000001,-0.13149999999999995,0.11152000000000001,0.10666,0.0,213.805,213.765,210.56,210.56,0.0,0.0
23,0.0,0.0,0.0,1.0,1.0,0.0,0.0,1.0,0.0,100.0,1.0,1.1856,26.0,0.0,0.0,0.0,59.999996,0.0,26.0,26.0,26.0,26.0,-0.03700000000000003,0.22910000000000008,0.02716666666666667,288.376,-2.545,-2.575111111111111,-1.4914,-1.5933333333333333,-198.57,215.945,190.502625,0.0,0.0,0.0,0.0,0.04643333333333333,-5.498166666666667,-5.498166666666667,-0.7934,-0.447,-0.015888888888889063,0.663,68.393,-0.028499999999999748,-0.4907333333333333,0.4275000000000002,100.0,1.0,1.0,211.00333333333333,0.0,0.0,0.0,0.0,0.0,0.0,0.0,8943.6,0.0,55.0,5.0,246.19666666666666,1.0,0.0,0.0,0.0,0.0,0.0,0.0,0.0,1.1550000000000011,1.1550000000000011,0.0,0.0,1.0,55.0,616.79921,10000.0,85.000001,85.000001,85.000001,85.000001,395.0,0.0,0.0,0.0,1.0,333.33500000000004,41.55,41.55,49.728,49.728,34.0,-29.9925,27.564,-27.194,26.933999999999997,0.0,1782.314,0.015000000000000568,100.0,36.468,35.84,42.275999999999996,41.911,0.0,0.0,100.0,0.0,0.0,0.0,0.0,4074.125,3898.3,3858.625,3961.9,302.52866666666665,302.54633333333334,315.5036666666667,315.04575,22.1221,20.8045,22.33811111111111,21.6296,314.999998,314.999998,324.999988,324.999988,99.56115714285714,99.51023333333333,99.59037142857143,99.55568571428572,0.09575000000000022,-0.10799999999999987,-0.1419999999999999,0.09633333333333294,-0.03499999999999659,-0.05833333333333002,1.5463333333333333,1.5485,39.263,31.028,40.613,36.185,57.224999999999994,37.704,66.771,55.857,55.227000000000004,36.6825,65.222,53.9795,54.485,36.1825,65.247,53.3035,-0.1275,-0.123,0.10679000000000001,0.11120500000000001,0.0,214.16,214.125,211.00333333333333,211.00333333333333,0.0,0.0
24,0.0,0.0,0.0,1.0,1.0,0.0,0.0,1.0,0.0,100.0,1.0,1.1856,26.0,0.0,0.0,0.0,59.999996,0.0,26.0,26.0,26.0,26.0,-0.03988888888888886,0.25570000000000004,-0.05386666666666667,288.681,-2.5522,-2.6006666666666667,-1.5332,-1.5358888888888889,-195.29,215.93,190.480375,0.0,0.0,0.0,0.0,0.04833333333333333,-5.498166666666667,-5.498166666666667,-0.7947000000000001,-0.3803333333333333,-0.004444444444444251,1.0835000000000001,68.508,-0.028666666666666618,-0.47583333333333333,0.2825000000000002,100.0,1.0,1.0,211.31333333333333,0.0,0.0,0.0,0.0,0.0,0.0,0.0,8956.9,0.0,55.0,5.0,246.61,0.0,0.0,0.0,0.0,0.0,0.0,0.0,0.0,1.2029999999999994,1.2029999999999994,0.0,0.0,0.0,55.0,616.79921,10000.0,85.000001,85.000001,85.000001,85.000001,395.0,0.0,0.0,0.0,1.0,333.33500000000004,42.542,42.542,49.118,49.118,34.0,-26.855,26.216,-30.276,26.482,0.0,1782.267,-0.08499999999999996,100.0,36.382,35.644999999999996,42.150999999999996,41.834,0.0,0.0,100.0,0.0,0.0,0.0,0.0,3704.875,3724.0,4174.875,4011.7,303.5316666666667,303.074,314.88366666666667,315.03725,22.1322,20.811,22.349222222222224,21.6387,314.999998,314.999998,324.999988,324.999988,99.56117142857143,99.51026666666667,99.59051428571429,99.55581428571429,0.09975000000000023,-0.11266666666666669,-0.14066666666666627,0.09799999999999986,-0.03166666666666629,-0.041666666666671404,1.5406666666666666,1.558,39.326,31.0685,40.683,36.2415,57.222,37.7475,66.783,55.8995,55.224000000000004,36.7225,65.2325,54.021,54.480999999999995,36.221000000000004,65.254,53.3435,-0.1355,-0.1200000000000001,0.10250500000000001,0.10951000000000001,0.0,214.505,214.47,211.31333333333333,211.31333333333333,0.0,0.0
25,0.0,0.0,0.0,1.0,1.0,0.0,0.0,1.0,0.0,100.0,1.0,1.1856,26.0,0.0,0.0,0.0,59.999996,0.0,26.0,26.0,26.0,26.0,-0.024777777777777787,0.22630000000000017,-0.050633333333333336,288.757,-2.5581,-2.582111111111111,-1.5566,-1.533111111111111,-191.79,215.9125,190.45525,0.0,0.0,0.0,0.0,0.05036666666666667,-5.498166666666667,-5.498166666666667,-0.8317,-0.25333333333333335,0.001777777777777878,-0.851,68.627,-0.026333333333333542,-0.4891666666666667,0.19500000000000028,100.0,1.0,1.0,211.83333333333331,0.0,0.0,0.0,0.0,0.0,0.0,0.0,8978.9,0.0,55.0,5.0,247.03666666666666,1.0,0.0,0.0,0.0,0.0,0.0,0.0,0.0,1.2540000000000013,1.2540000000000013,0.0,0.0,1.0,55.0,616.79921,10000.0,85.000001,85.000001,85.000001,85.000001,395.0,0.0,0.0,0.0,1.0,333.33500000000004,41.763,41.763,49.82,49.82,34.0,-29.134999999999998,28.16,-27.326,24.497999999999998,0.0,1782.215,-0.20999999999999996,100.0,36.034,35.985,41.862,41.655,0.0,0.0,100.0,0.0,0.0,0.0,0.0,4000.375,3925.4,3808.5,3834.8,302.88366666666667,302.258,315.77666666666664,315.44,22.1427,20.818,22.361,21.6482,314.999998,314.999998,324.999988,324.999988,99.56118571428571,99.51028333333333,99.59065714285714,99.55595714285714,0.10024999999999995,-0.10699999999999998,-0.1466666666666665,0.0903333333333336,-0.03833333333332689,-0.04333333333332945,1.6103333333333334,1.6165,39.391999999999996,31.112499999999997,40.756,36.3015,57.219,37.801,66.795,55.948,55.22,36.7715,65.243,54.068,54.475,36.268,65.261,53.39,-0.1375,-0.10749999999999993,0.101565,0.10834500000000001,0.0,214.87,214.84,211.83333333333331,211.83333333333331,0.0,0.0
26,0.0,0.0,0.0,1.0,1.0,0.0,0.0,1.0,0.0,100.0,1.0,1.1856,26.0,0.0,0.0,0.0,59.999996,0.0,26.0,26.0,26.0,26.0,-0.03155555555555556,0.25070000000000014,0.07680000000000001,287.491,-2.5955,-2.6115555555555554,-1.6004,-1.523777777777778,-188.07999999999998,215.89499999999998,190.428,0.0,0.0,0.0,0.0,0.05253333333333334,-5.498166666666667,-5.498166666666667,-0.7935,0.7483333333333334,-0.015111111111111075,-0.7095,68.758,-0.017333333333333645,-0.4606,0.05250000000000021,100.0,1.0,1.0,211.96333333333334,0.0,0.0,0.0,0.0,0.0,0.0,0.0,8984.4,0.0,55.0,5.0,247.50666666666666,0.0,0.0,0.0,0.0,0.0,0.0,0.0,0.0,1.3079999999999998,1.3079999999999998,0.0,0.0,0.0,55.0,616.79921,10000.0,85.000001,85.000001,85.000001,85.000001,395.0,0.0,0.0,0.0,1.0,166.665,40.97,40.97,48.294,48.294,34.0,-29.4875,27.688,-33.544,28.880000000000003,0.0,1782.163,-0.2450000000000001,100.0,36.962,36.769999999999996,42.147,42.046,0.0,0.0,100.0,0.0,0.0,0.0,0.0,4052.375,3835.8,4424.5,4296.3,302.691,302.432,314.3833333333333,314.292,22.1542,20.8257,22.373555555555555,21.6585,314.999998,314.999998,324.999988,324.999988,99.5612,99.5103,99.5908,99.5561,0.11050000000000004,-0.11099999999999999,-0.1383333333333332,0.09566666666666634,-0.04999999999999716,-0.02833333333332888,1.4723333333333333,1.4795,39.464,31.1605,40.835,36.3655,57.221000000000004,37.8535,66.8105,55.998,55.222,36.820499999999996,65.257,54.1165,54.475,36.3145,65.2715,53.437,-0.154,-0.11299999999999999,0.10654500000000001,0.11062500000000001,0.0,215.32,215.305,211.96333333333334,211.96333333333334,0.0,0.0
27,0.0,0.0,0.0,1.0,1.0,0.0,0.0,1.0,0.0,100.0,1.0,1.1856,26.0,0.0,0.0,0.0,59.999996,0.0,26.0,26.0,26.0,26.0,0.0041111111111111764,0.2198,-0.011533333333333333,287.842,-2.5661,-2.5715555555555554,-1.5953,-1.5953333333333333,-184.78,215.875,190.405125,0.0,0.0,0.0,0.0,0.05443333333333334,-5.498166666666667,-5.498166666666667,-0.8167000000000001,-1.0903333333333334,-0.010333333333333083,-0.616,68.87,-0.00649999999999995,-0.5062,-0.0625,100.0,1.0,1.0,212.39,0.0,0.0,0.0,0.0,0.0,0.0,0.0,9002.5,0.0,55.0,5.0,247.91333333333336,1.0,0.0,0.0,0.0,0.0,0.0,0.0,0.0,1.355999999999998,1.355999999999998,0.0,0.0,1.0,55.0,616.79921,10000.0,85.000001,85.000001,85.000001,85.000001,395.0,0.0,0.0,0.0,1.0,166.665,41.336,41.336,48.599000000000004,48.599000000000004,34.0,-28.175,28.037999999999997,-28.942,28.166,0.0,1782.116,-0.2999999999999998,100.0,36.627,36.6,42.811,42.732,0.0,0.0,100.0,0.0,0.0,0.0,0.0,3978.125,3861.3,4028.875,3955.1000000000004,302.91566666666665,302.472,315.216,314.988,22.1642,20.8323,22.384888888888888,21.6678,314.999998,314.999998,324.999988,324.999988,99.56121428571429,99.5103,99.59094285714286,99.55624285714286,0.11575000000000024,-0.09766666666666679,-0.1200000000000001,0.11766666666666747,-0.051666666666669414,-0.023333333333326323,1.5193333333333334,1.524,39.525999999999996,31.201999999999998,40.906,36.424,57.22,37.9,66.826,56.045500000000004,55.221000000000004,36.8635,65.2705,54.163,54.472,36.356,65.2815,53.4825,-0.1515,-0.10149999999999992,0.102745,0.10877,0.0,215.60000000000002,215.575,212.39,212.39,0.0,0.0
28,0.0,0.0,0.0,1.0,1.0,0.0,0.0,1.0,0.0,100.0,1.0,1.1856,26.0,0.0,0.0,0.0,59.999996,0.0,26.0,26.0,26.0,26.0,0.01577777777777789,0.238,-0.05006666666666667,288.147,-2.5879,-2.549888888888889,-1.5493000000000001,-1.5522222222222222,-181.47,215.85750000000002,190.381375,0.0,0.0,0.0,0.0,0.05636666666666666,-5.498166666666667,-5.498166666666667,-0.8278000000000001,0.542,-0.00855555555555565,-0.4165,68.979,0.002666666666666373,-0.4904,-0.17499999999999982,100.0,1.0,1.0,212.88666666666666,0.0,0.0,0.0,0.0,0.0,0.0,0.0,9023.5,0.0,55.0,5.0,248.30666666666667,0.0,0.0,0.0,0.0,0.0,0.0,0.0,0.0,1.404,1.404,0.0,0.0,0.0,55.0,616.79921,10000.0,85.000001,85.000001,85.000001,85.000001,395.0,0.0,0.0,0.0,1.0,166.665,41.245,41.245,49.515,49.515,34.0,-28.46,28.66,-26.646,27.189999999999998,0.0,1782.067,-0.34499999999999975,100.0,36.727000000000004,36.638999999999996,42.081,42.215,0.0,0.0,100.0,0.0,0.0,0.0,0.0,4038.75,3851.2,3903.0,3940.8,302.76933333333335,302.47933333333333,315.558,315.19075,22.1742,20.8391,22.395777777777777,21.6768,314.999998,314.999998,324.999988,324.999988,99.56124285714286,99.51031666666667,99.59108571428571,99.55638571428571,0.12349999999999994,-0.08099999999999996,-0.11499999999999977,0.12233333333333274,-0.030000000000001137,-0.041666666666671404,1.5963333333333334,1.5959999999999999,39.589,31.244,40.974000000000004,36.480000000000004,57.221000000000004,37.947,66.8345,56.088499999999996,55.221000000000004,36.907,65.2775,54.204499999999996,54.471000000000004,36.3975,65.2855,53.522999999999996,-0.155,-0.09800000000000009,0.10709,0.11151000000000001,0.0,215.97,215.985,212.88666666666666,212.88666666666666,0.0,0.0
29,0.0,0.0,0.0,1.0,1.0,0.0,0.0,1.0,0.0,100.0,1.0,1.1856,26.0,0.0,0.0,0.0,59.999996,0.0,26.0,26.0,26.0,26.0,0.009444444444444589,0.24760000000000004,0.019833333333333335,287.72,-2.5484999999999998,-2.505,-1.5843,-1.5247777777777778,-177.95,215.84,190.35525,0.0,0.0,0.0,0.0,0.0584,-5.498166666666667,-5.498166666666667,-0.8253,-0.7223333333333334,0.0032222222222222374,0.836,69.102,0.0129999999999999,-0.4803666666666667,-0.29000000000000004,100.0,1.0,1.0,213.03333333333333,0.0,0.0,0.0,0.0,0.0,0.0,0.0,9029.7,0.0,55.0,5.0,248.75,1.0,0.0,0.0,0.0,0.0,0.0,0.0,0.0,1.4549999999999983,1.4549999999999983,0.0,0.0,1.0,55.0,616.79921,10000.0,85.000001,85.000001,85.000001,85.000001,395.0,0.0,0.0,0.0,1.0,333.33500000000004,41.29,41.29,48.355000000000004,48.355000000000004,34.0,-26.0625,30.614,-28.48,30.490000000000002,0.0,1782.014,-0.34499999999999975,100.0,36.539,36.33,42.443,42.462,0.0,0.0,100.0,0.0,0.0,0.0,0.0,3889.25,4111.5,4150.75,4197.9,303.02366666666666,301.96866666666665,314.8976666666667,314.56225,22.1846,20.8462,22.407666666666668,21.6866,314.999998,314.999998,324.999988,324.999988,99.56125714285714,99.51033333333334,99.59122857142857,99.55652857142857,0.13874999999999993,-0.07066666666666666,-0.09133333333333349,0.14333333333333353,-0.03333333333333144,-0.04833333333333201,1.5043333333333333,1.5045,39.653999999999996,31.2885,41.048,36.541,57.22,37.9955,66.8495,56.138999999999996,55.22,36.952,65.291,54.2535,54.467,36.4405,65.295,53.571,-0.1535,-0.10349999999999993,0.098,0.11321,0.0,216.31,216.325,213.03333333333333,213.03333333333333,0.0,0.0
30,0.0,0.0,0.0,1.0,1.0,0.0,0.0,1.0,0.0,100.0,1.0,1.1856,26.0,0.0,0.0,0.0,59.999996,0.0,26.0,26.0,26.0,26.0,0.01866666666666661,0.2459,0.06656666666666666,287.262,-2.6078,-2.4803333333333333,-1.5314,-1.5805555555555557,-174.42000000000002,215.8225,190.328875,0.0,0.0,0.0,0.0,0.06046666666666667,-5.498166666666667,-5.498166666666667,-0.8323,0.706,-0.0007777777777779882,-0.8905000000000001,69.218,0.020000000000000018,-0.49193333333333333,-0.36499999999999977,100.0,1.0,1.0,213.48333333333335,0.0,0.0,0.0,0.0,0.0,0.0,0.0,9048.8,0.0,55.0,5.0,249.16666666666666,0.0,0.0,0.0,0.0,0.0,0.0,1.0,0.0,1.5060000000000002,1.5060000000000002,0.0,0.0,0.0,55.0,616.79921,10000.0,85.000001,85.000001,85.000001,85.000001,395.0,0.0,0.0,0.0,1.0,166.665,40.1,40.1,48.95,48.95,34.0,-28.505,29.518,-27.286,30.042,0.0,1781.965,-0.3849999999999998,100.0,37.212,37.370000000000005,42.126,42.571,0.0,0.0,100.0,0.0,0.0,0.0,0.0,4203.5,3983.6000000000004,4080.5,4096.1,302.236,301.963,315.1646666666667,314.6775,22.1953,20.8536,22.419333333333334,21.6963,314.999998,314.999998,324.999988,324.999988,99.56128571428572,99.51035,99.59137142857143,99.55668571428572,0.14924999999999988,-0.07299999999999995,-0.0993333333333335,0.13400000000000034,-0.036666666666668846,-0.046666666666666856,1.5443333333333333,1.5105,39.721000000000004,31.3345,41.120999999999995,36.6015,57.224000000000004,38.047,66.86,56.1875,55.223,37.0,65.3,54.3005,54.468,36.486000000000004,65.3005,53.617,-0.17,-0.10099999999999998,0.11163000000000001,0.10451,0.0,216.70499999999998,216.72500000000002,213.48333333333335,213.48333333333335,0.0,0.0
31,0.0,0.0,0.0,1.0,1.0,0.0,0.0,1.0,0.0,100.0,1.0,1.1856,26.0,0.0,0.0,0.0,59.999996,0.0,26.0,26.0,26.0,26.0,0.022777777777777786,0.23680000000000012,0.012433333333333333,287.094,-2.6044,-2.5612222222222223,-1.6174,-1.4746666666666668,-171.09,215.805,190.304625,0.0,0.0,0.0,0.0,0.062400000000000004,-5.498166666666667,-5.498166666666667,-0.8129000000000001,-0.41600000000000004,0.00922222222222202,-0.902,69.331,0.03100000000000014,-0.4885333333333333,-0.41000000000000014,100.0,1.0,1.0,213.67666666666668,0.0,0.0,0.0,0.0,0.0,0.0,0.0,9057.0,0.0,55.0,5.0,249.57333333333332,1.0,0.0,0.0,0.0,0.0,0.0,1.0,0.0,1.5539999999999985,1.5539999999999985,0.0,0.0,1.0,55.0,616.79921,10000.0,85.000001,85.000001,85.000001,85.000001,395.0,0.0,0.0,0.0,1.0,166.665,40.833,40.833,47.394,47.394,34.0,-25.8675,30.208,-30.498,29.93,0.0,1781.917,-0.3700000000000001,100.0,37.065,37.426,42.766,43.266000000000005,0.0,0.0,100.0,0.0,0.0,0.0,0.0,3856.125,3970.4,4339.875,4165.4,303.299,302.1976666666667,314.51866666666666,314.505,22.2052,20.8604,22.430555555555557,21.7056,314.999998,314.999998,324.999988,324.999988,99.5613,99.51036666666667,99.59151428571428,99.55681428571428,0.14674999999999994,-0.07299999999999995,-0.08933333333333326,0.14433333333333298,-0.03333333333333144,-0.02833333333332888,1.4703333333333333,1.466,39.783,31.377499999999998,41.191,36.66,57.226,38.094,66.875,56.236000000000004,55.224000000000004,37.0435,65.3135,54.348,54.468,36.528,65.31,53.6635,-0.156,-0.10749999999999993,0.10364500000000001,0.105135,0.0,217.03,217.05,213.67666666666668,213.67666666666668,0.0,0.0
32,0.0,0.0,0.0,1.0,1.0,0.0,0.0,1.0,0.0,100.0,1.0,1.1856,26.0,0.0,0.0,0.0,59.999996,0.0,26.0,26.0,26.0,26.0,0.04400000000000004,0.24330000000000007,-0.0665,287.521,-2.6098,-2.5615555555555556,-1.6445,-1.4812222222222222,-167.35,215.7875,190.27775,0.0,0.0,0.0,0.0,0.06456666666666666,-5.498166666666667,-5.498166666666667,-0.8340000000000001,0.018666666666666668,-0.01388888888888884,-1.1035,69.451,0.034833333333333716,-0.5030666666666668,-0.4224999999999999,100.0,1.0,1.0,214.26,0.0,0.0,0.0,0.0,0.0,0.0,0.0,9081.7,0.0,55.0,5.0,250.00666666666666,0.0,0.0,0.0,0.0,0.0,0.0,1.0,0.0,1.6080000000000005,1.6080000000000005,0.0,0.0,0.0,55.0,616.79921,10000.0,85.000001,85.000001,85.000001,85.000001,395.0,0.0,0.0,0.0,1.0,166.665,40.649,40.649,48.691,48.691,34.0,-26.7025,30.662,-27.508,28.55,0.0,1781.863,-0.39999999999999947,100.0,36.989000000000004,37.424,42.475,42.953,0.0,0.0,100.0,0.0,0.0,0.0,0.0,4051.875,3912.1000000000004,4034.5,4020.0,302.77233333333334,302.2986666666667,315.34566666666666,315.07025,22.2164,20.8682,22.442888888888888,21.7159,314.999998,314.999998,324.999988,324.999988,99.56132857142858,99.51036666666667,99.59167142857143,99.55697142857143,0.15825000000000022,-0.057666666666666755,-0.08566666666666656,0.15500000000000025,-0.051666666666669414,-0.04999999999999716,1.579,1.575,39.852000000000004,31.426499999999997,41.268,36.7245,57.229,38.147,66.8865,56.286500000000004,55.226,37.0925,65.32300000000001,54.397,54.468,36.575,65.316,53.7115,-0.165,-0.09800000000000009,0.10629500000000001,0.11118000000000001,0.0,217.405,217.43,214.26,214.26,0.0,0.0
33,0.0,0.0,0.0,1.0,1.0,0.0,0.0,1.0,0.0,100.0,1.0,1.1856,26.0,0.0,0.0,0.0,59.999996,0.0,26.0,26.0,26.0,26.0,0.05755555555555558,0.23409999999999997,-0.04103333333333333,287.643,-2.6176,-2.5573333333333332,-1.6004,-1.5618888888888889,-164.01,215.7725,190.252875,0.0,0.0,0.0,0.0,0.0665,-5.498166666666667,-5.498166666666667,-0.8394,-0.2796666666666667,-0.010111111111111182,-0.1015,69.562,0.03849999999999998,-0.4925333333333333,-0.4375,100.0,1.0,1.0,214.51333333333332,0.0,0.0,0.0,0.0,0.0,0.0,0.0,9092.5,0.0,55.0,5.0,250.40333333333334,1.0,0.0,0.0,0.0,0.0,0.0,1.0,0.0,1.6559999999999988,1.6559999999999988,0.0,0.0,1.0,55.0,616.79921,10000.0,85.000001,85.000001,85.000001,85.000001,395.0,0.0,0.0,0.0,1.0,166.665,41.183,41.183,48.522999999999996,48.522999999999996,34.0,-26.3125,30.025999999999996,-27.509999999999998,30.526,0.0,1781.815,-0.35499999999999954,100.0,36.808,37.081,42.365,42.939,0.0,0.0,100.0,0.0,0.0,0.0,0.0,3920.875,3870.1000000000004,4115.625,4090.7,303.193,302.43033333333335,315.0973333333333,314.80775,22.2262,20.875,22.45388888888889,21.7251,314.999998,314.999998,324.999988,324.999988,99.56135714285715,99.51038333333334,99.5918,99.55711428571429,0.14924999999999988,-0.062000000000000055,-0.07933333333333348,0.15366666666666706,-0.03999999999999915,-0.03833333333332689,1.5393333333333334,1.5245,39.914,31.4685,41.337,36.782,57.230999999999995,38.191,66.898,56.332499999999996,55.227999999999994,37.1335,65.333,54.442,54.467,36.6145,65.3225,53.754999999999995,-0.16,-0.10000000000000009,0.104885,0.10918000000000001,0.0,217.75,217.76999999999998,214.51333333333332,214.51333333333332,0.0,0.0
34,0.0,0.0,0.0,1.0,1.0,0.0,0.0,1.0,0.0,100.0,1.0,1.1856,26.0,0.0,0.0,0.0,59.999996,0.0,26.0,26.0,26.0,26.0,0.03955555555555579,0.23920000000000008,-0.07916666666666666,287.979,-2.6469,-2.4833333333333334,-1.6315,-1.525777777777778,-160.67000000000002,215.7575,190.227,0.0,0.0,0.0,0.0,0.06846666666666666,-5.498166666666667,-5.498166666666667,-0.8626,-0.8023333333333333,0.018000000000000016,-0.23550000000000001,69.67099999999999,0.042166666666666686,-0.49620000000000003,-0.3700000000000001,100.0,1.0,1.0,214.87,0.0,0.0,0.0,0.0,0.0,0.0,0.0,9107.6,0.0,55.0,5.0,250.79666666666668,0.0,0.0,0.0,0.0,0.0,0.0,1.0,0.0,1.7040000000000006,1.7040000000000006,0.0,0.0,0.0,55.0,616.79921,10000.0,85.000001,85.000001,85.000001,85.000001,395.0,0.0,0.0,0.0,1.0,166.665,41.519,41.519,49.408,49.408,34.0,-27.07,28.542,-26.626,29.878,0.0,1781.767,-0.34999999999999964,100.0,36.488,36.739000000000004,42.133,42.99,0.0,0.0,100.0,0.0,0.0,0.0,0.0,3967.125,3824.2,3930.125,4082.5,303.09566666666666,302.684,315.549,314.77175,22.236,20.8817,22.464777777777776,21.7343,314.999998,314.999998,324.999988,324.999988,99.56137142857143,99.51038333333334,99.59194285714285,99.55725714285714,0.14825,-0.06299999999999994,-0.08499999999999996,0.15300000000000047,-0.046666666666666856,-0.03999999999999915,1.5510000000000002,1.555,39.975,31.5105,41.405,36.8395,57.232,38.235,66.9075,56.379,55.227999999999994,37.174,65.341,54.487,54.466,36.6535,65.327,53.799,-0.155,-0.10250000000000004,0.110475,0.107605,0.0,218.07,218.09,214.87,214.87,0.0,0.0
35,0.0,0.0,0.0,1.0,1.0,0.0,0.0,1.0,0.0,100.0,1.0,1.1856,26.0,0.0,0.0,0.0,59.999996,0.0,26.0,26.0,26.0,26.0,0.026555555555555665,0.2470000000000001,-0.07350000000000001,288.101,-2.6774,-2.4923333333333333,-1.5328,-1.4752222222222222,-157.11,215.745,190.197625,0.0,0.0,0.0,0.0,0.07053333333333334,-5.498166666666667,-5.498166666666667,-0.9068,-0.6926666666666667,0.010666666666666602,-0.021500000000000002,69.785,0.04800000000000004,-0.5056333333333334,-0.5025,100.0,1.0,1.0,215.2866666666667,0.0,0.0,0.0,0.0,0.0,0.0,0.0,9125.3,0.0,55.0,5.0,251.21,1.0,0.0,0.0,0.0,0.0,0.0,1.0,0.0,1.754999999999999,1.754999999999999,0.0,0.0,1.0,55.0,616.79921,10000.0,85.000001,85.000001,85.000001,85.000001,395.0,0.0,0.0,0.0,1.0,166.665,41.367,41.367,48.721000000000004,48.721000000000004,34.0,-25.7575,32.128,-24.764,27.864,0.0,1781.716,-0.28500000000000014,100.0,36.319,36.724000000000004,41.993,42.463,0.0,0.0,100.0,0.0,0.0,0.0,0.0,3838.0,4170.9,3983.75,3881.9,303.41,301.732,315.344,315.4045,22.2462,20.889,22.476333333333333,21.7439,314.999998,314.999998,324.999988,324.999988,99.5614,99.5104,99.59208571428572,99.5574,0.1612499999999999,-0.052999999999999936,-0.06666666666666643,0.168333333333333,-0.03499999999999659,-0.05666666666667197,1.601,1.587,40.039,31.555999999999997,41.477000000000004,36.8995,57.230999999999995,38.2825,66.9175,56.425,55.227000000000004,37.2185,65.349,54.5315,54.462,36.695499999999996,65.3315,53.843,-0.152,-0.10949999999999993,0.10813,0.10319,0.0,218.41500000000002,218.435,215.2866666666667,215.2866666666667,0.0,0.0
