,ABS Active,ABS Enabled,AID Allow Tire Blankets,AID Auto Blip,AID Auto Clutch,AID Auto Shift,AID Fuel Rate,AID Ideal Line,AID Mech Damage,AID Stability,AID Tire Wear Rate,Air Density,Air Temp,Ballast,Best Lap Delta,Best Lap Time,Brake Bias,Brake Pos,Brake Temp FL,Brake Temp FR,Brake Temp RL,Brake Temp RR,CG Accel Lateral,CG Accel Longitudinal,CG Accel Vertical,CG Height,Camber FL,Camber FR,Camber RL,Camber RR,Car Coord X,Car Coord Y,Car Coord Z,Car Damage Front,Car Damage Left,Car Damage Rear,Car Damage Right,Car Pos Norm,Caster FL,Caster FR,Chassis Pitch Angle,Chassis Pitch Rate,Chassis Roll Angle,Chassis Roll Rate,Chassis Velocity X,Chassis Velocity Y,Chassis Velocity Z,Chassis Yaw Rate,Clutch Pos,DRS Active,DRS Available,Drive Train Speed,ERS Heat Charging,ERS Is Charging,ERS Max Energy,ERS Power Level,ERS Recovery Level,Engine Brake Setting,Engine Limiter,Engine RPM,Flags,Fuel Level,Gear,Ground Speed,HR Sample Clock,In Pit,KERS Charge,KERS Deployed Energy,KERS Input,KERS Max Energy,LR Sample Clock,Lap Invalidated,Lap Time,Lap Time2,Last Lap Time,Last Sector Time,MR Sample Clock,Max Fuel,Max Power,Max RPM,Max Sus Travel FL,Max Sus Travel FR,Max Sus Travel RL,Max Sus Travel RR,Max Torque,Max Turbo Boost,Num Tires Off Track,Penalties Enabled,Position,Raw Data Sample Rate,Ride Height FL,Ride Height FR,Ride Height RL,Ride Height RR,Road Temp,Self Align Torque FL,Self Align Torque FR,Self Align Torque RL,Self Align Torque RR,Session Lap Count,Session Time Left,Steering Angle,Surface Grip,Suspension Travel FL,Suspension Travel FR,Suspension Travel RL,Suspension Travel RR,TC Active,TC Enabled,Throttle Pos,Tire Dirt Level FL,Tire Dirt Level FR,Tire Dirt Level RL,Tire Dirt Level RR,Tire Load FL,Tire Load FR,Tire Load RL,Tire Load RR,Tire Loaded Radius FL,Tire Loaded Radius FR,Tire Loaded Radius RL,Tire Loaded Radius RR,Tire Pressure FL,Tire Pressure FR,Tire Pressure RL,Tire Pressure RR,Tire Radius FL,Tire Radius FR,Tire Radius RL,Tire Radius RR,Tire Rubber Grip FL,Tire Rubber Grip FR,Tire Rubber Grip RL,Tire Rubber Grip RR,Tire Slip Angle FL,Tire Slip Angle FR,Tire Slip Angle RL,Tire Slip Angle RR,Tire Slip Ratio FL,Tire Slip Ratio FR,Tire Slip Ratio RL,Tire Slip Ratio RR,Tire Temp Core FL,Tire Temp Core FR,Tire Temp Core RL,Tire Temp Core RR,Tire Temp Inner FL,Tire Temp Inner FR,Tire Temp Inner RL,Tire Temp Inner RR,Tire Temp Middle FL,Tire Temp Middle FR,Tire Temp Middle RL,Tire Temp Middle RR,Tire Temp Outer FL,Tire Temp Outer FR,Tire Temp Outer RL,Tire Temp Outer RR,Toe In FL,Toe In FR,Toe In RL,Toe In RR,Turbo Boost,Wheel Angular Speed FL,Wheel Angular Speed FR,Wheel Angular Speed RL,Wheel Angular Speed RR,Wind Direction,Wind Speed
0,0.0,0.0,0.0,1.0,1.0,0.0,0.0,1.0,0.0,100.0,1.0,1.1856,26.0,0.0,0.0,0.0,59.99999,0.0,26.0,26.0,26.0,26.0,-0.07750000000000001,0.27960000000000007,0.0728,292.099,-2.6646,-2.594666666666667,-1.5098,-1.5423333333333333,-275.78,216.3425,190.98625,0.0,0.0,0.0,0.0,0.0015333333333333865,-5.498166666666667,-5.498166666666667,-0.6616000000000001,1.5645,-0.0018888888888888289,-0.2509999999999999,65.402,-0.032571428571428473,-0.34293333333333337,1.0274999999999999,100.0,1.0,1.0,201.95666666666668,0.0,0.0,0.0,0.0,0.0,0.0,0.0,8560.2,0.0,55.0,5.0,235.42000000000002,0.0,0.0,0.0,0.0,0.0,0.0,0.0,0.0,0.0030000000000001137,0.0030000000000001137,0.0,0.0,0.0,55.0,616.79921,10000.0,85.0,85.0,85.0,85.0,395.0,0.0,0.0,0.0,1.0,20.0,47.531,47.531,50.613,50.613,34.0,-28.3,25.688,-29.2275,24.89,0.0,1783.4857142857143,0.7199999999999998,100.0,31.663,31.039,39.751,39.8,0.0,0.0,100.0,0.0,0.0,0.0,0.0,3346.875,3745.8,4052.0,4004.1000000000004,304.632,302.938,315.0685,314.9025,21.842285714285715,20.5883,21.976,21.381888888888888,314.99999,314.99999,324.99998,324.99998,99.56062857142857,99.50871666666667,99.58012857142857,99.55002857142857,0.02475000000000005,-0.12166666666666681,-0.15174999999999983,0.0677500000000002,-0.05333333333332746,-0.05833333333333002,1.5605000000000002,1.588,37.513999999999996,29.677,38.349999999999994,34.637,57.095,35.661500000000004,64.05799999999999,53.6285,55.073,34.7855,62.594,51.8705,54.333,34.353,62.653999999999996,51.257999999999996,-0.042,-0.1525,0.09891000000000001,0.10901000000000001,0.0,205.0,204.925,201.95666666666668,201.95666666666668,0.0,0.0
1,0.0,0.0,0.0,1.0,1.0,0.0,0.0,1.0,0.0,100.0,1.0,1.1856,26.0,0.0,0.0,0.0,59.999996,0.0,26.0,26.0,26.0,26.0,-0.10762499999999997,0.2856000000000001,-0.0233,291.153,-2.5774,-2.7061111111111114,-1.5228000000000002,-1.539777777777778,-272.25,216.3375,190.965,0.0,0.0,0.0,0.0,0.0035999999999999366,-5.498166666666667,-5.498166666666667,-0.6063000000000001,-0.583,-0.052444444444444294,-0.32299999999999995,65.557,-0.04814285714285749,-0.32020000000000004,1.3150000000000004,100.0,1.0,1.0,202.14333333333332,0.0,0.0,0.0,0.0,0.0,0.0,0.0,8568.1,0.0,55.0,5.0,235.98000000000002,1.0,0.0,0.0,0.0,0.0,0.0,0.0,0.0,0.05699999999999861,0.05699999999999861,0.0,0.0,1.0,55.0,616.79921,10000.0,85.000001,85.000001,85.000001,85.000001,395.0,0.0,0.0,0.0,1.0,166.665,48.385999999999996,48.385999999999996,49.225,49.225,34.0,-28.6175,20.342,-32.3775,29.018,0.0,1783.4342857142858,0.8550000000000004,100.0,31.674,30.967,42.235,41.019,0.0,0.0,100.0,0.0,0.0,0.0,0.0,3422.375,3090.6,4161.375,4628.8,304.33366666666666,305.007,314.7285,313.36875,21.853428571428573,20.5945,21.988625,21.392,314.999998,314.999998,324.999988,324.999988,99.56064285714285,99.50873333333334,99.58028571428571,99.55018571428572,0.016999999999999904,-0.1499999999999999,-0.1772499999999999,0.04974999999999996,0.0,-0.051666666666669414,1.4344999999999999,1.4809999999999999,37.584,29.716,38.429,34.7,57.082,35.7095,64.0885,53.6905,55.06,34.829499999999996,62.622,51.93,54.319,34.394999999999996,62.678,51.3165,-0.0325,-0.1675,0.102205,0.11078,0.0,205.39,205.32,202.14333333333332,202.14333333333332,0.0,0.0
2,0.0,0.0,0.0,1.0,1.0,0.0,0.0,1.0,0.0,100.0,1.0,1.1856,26.0,0.0,0.0,0.0,59.999996,0.0,26.0,26.0,26.0,26.0,-0.13787499999999997,0.2865,-0.010533333333333334,291.656,-2.545,-2.738,-1.4812,-1.601,-268.9,216.3275,190.946125,0.0,0.0,0.0,0.0,0.00553333333333339,-5.498166666666667,-5.498166666666667,-0.656,0.053,-0.04922222222222228,1.7930000000000001,65.69200000000001,-0.06671428571428573,-0.3737666666666667,1.6050000000000004,100.0,1.0,1.0,203.0,0.0,0.0,0.0,0.0,0.0,0.0,0.0,8604.5,0.0,55.0,5.0,236.46666666666667,0.0,0.0,0.0,0.0,0.0,0.0,0.0,0.0,0.10800000000000054,0.10800000000000054,0.0,0.0,0.0,55.0,616.79921,10000.0,85.000001,85.000001,85.000001,85.000001,395.0,0.0,0.0,0.0,1.0,166.665,47.165,47.165,50.919,50.919,34.0,-32.795,21.766,-28.895,19.744,0.0,1783.3842857142856,0.6450000000000005,100.0,32.311,31.033,41.988,40.753,0.0,0.0,100.0,0.0,0.0,0.0,0.0,3797.625,3305.6,3723.25,3651.2,303.273,304.282,315.796,315.8715,21.864285714285714,20.6002,22.000125,21.401222222222223,314.999998,314.999998,324.999988,324.999988,99.56064285714285,99.50875,99.58042857142857,99.55031428571428,-0.0004999999999999449,-0.16300000000000003,-0.22074999999999978,0.006750000000000256,-0.051666666666669414,-0.051666666666669414,1.6295000000000002,1.7075,37.652,29.7515,38.501000000000005,34.757999999999996,57.073,35.7535,64.1105,53.7405,55.052,34.8705,62.641999999999996,51.978,54.309,34.434,62.695499999999996,51.3635,-0.049,-0.1525,0.10829000000000001,0.10309000000000001,0.0,205.84,205.7,203.0,203.0,0.0,0.0
3,0.0,0.0,0.0,1.0,1.0,0.0,0.0,1.0,0.0,100.0,1.0,1.1856,26.0,0.0,0.0,0.0,59.999996,0.0,26.0,26.0,26.0,26.0,-0.14274999999999993,0.30500000000000016,-0.024766666666666666,291.443,-2.6772,-2.6254444444444447,-1.5088,-1.577888888888889,-265.75,216.3175,190.927625,0.0,0.0,0.0,0.0,0.0073666666666665215,-5.498166666666667,-5.498166666666667,-0.6189,0.438,-0.004555555555555646,-0.833,65.828,-0.08000000000000007,-0.32803333333333334,1.2599999999999998,100.0,1.0,1.0,203.12333333333333,0.0,0.0,0.0,0.0,0.0,0.0,0.0,8609.6,0.0,55.0,5.0,236.95,1.0,0.0,0.0,0.0,0.0,0.0,0.0,0.0,0.1559999999999988,0.1559999999999988,0.0,0.0,1.0,55.0,616.79921,10000.0,85.000001,85.000001,85.000001,85.000001,395.0,0.0,0.0,0.0,1.0,166.665,48.294,48.294,48.95,48.95,34.0,-28.662499999999998,20.06,-34.49,24.028,0.0,1783.3357142857142,0.5650000000000004,100.0,31.935000000000002,31.18,41.784,40.894,0.0,0.0,100.0,0.0,0.0,0.0,0.0,3257.75,3191.0,4266.875,4163.7,304.91266666666667,304.48633333333333,314.55675,314.51025,21.874142857142857,20.6059,22.011,21.41,314.999998,314.999998,324.999988,324.999988,99.56064285714285,99.50876666666667,99.58055714285715,99.55045714285714,-0.0004999999999999449,-0.16033333333333322,-0.21050000000000013,0.01650000000000018,-0.04333333333332945,-0.036666666666668846,1.499,1.5565,37.713,29.7865,38.569,34.812,57.062,35.798500000000004,64.1325,53.793,55.04,34.911500000000004,62.663,52.0285,54.296,34.4735,62.7125,51.413,-0.056,-0.1335,0.10074500000000002,0.108115,0.0,206.29000000000002,206.195,203.12333333333333,203.12333333333333,0.0,0.0
4,0.0,0.0,0.0,1.0,1.0,0.0,0.0,1.0,0.0,100.0,1.0,1.1856,26.0,0.0,0.0,0.0,59.999996,0.0,26.0,26.0,26.0,26.0,-0.14,0.26849999999999996,-0.03953333333333333,291.718,-2.6096,-2.691777777777778,-1.5259,-1.582888888888889,-262.58,216.3025,190.909125,0.0,0.0,0.0,0.0,0.009199999999999986,-5.498166666666667,-5.498166666666667,-0.6531,-0.805,-0.0725555555555557,-1.965,65.958,-0.0825714285714283,-0.36260000000000003,1.1925,100.0,1.0,1.0,203.66666666666669,0.0,0.0,0.0,0.0,0.0,0.0,0.0,8632.6,0.0,55.0,5.0,237.42333333333335,0.0,0.0,0.0,0.0,0.0,0.0,0.0,0.0,0.20400000000000063,0.20400000000000063,0.0,0.0,0.0,55.0,616.79921,10000.0,85.000001,85.000001,85.000001,85.000001,395.0,0.0,0.0,0.0,1.0,333.33500000000004,47.882,47.882,49.606,49.606,34.0,-31.1125,21.305999999999997,-32.185,20.66,0.0,1783.2857142857142,0.4950000000000001,100.0,31.695,30.954,42.097,40.893,0.0,0.0,100.0,0.0,0.0,0.0,0.0,3619.5,3258.3,4040.125,3612.1,303.98966666666666,304.2966666666667,315.0515,315.844,21.883857142857142,20.6114,22.022,21.418777777777777,314.999998,314.999998,324.999988,324.999988,99.56065714285714,99.50878333333333,99.5807,99.55058571428572,0.00649999999999995,-0.15833333333333321,-0.20924999999999994,0.027499999999999858,-0.05833333333333002,-0.036666666666668846,1.5705,1.607,37.774,29.820999999999998,38.638,34.867000000000004,57.048,35.842,64.1565,53.842,55.027,34.952,62.685,52.076,54.282,34.512,62.7315,51.4595,-0.06,-0.1355,0.10547500000000001,0.10741500000000001,0.0,206.64499999999998,206.53,203.66666666666669,203.66666666666669,0.0,0.0
5,0.0,0.0,0.0,1.0,1.0,0.0,0.0,1.0,0.0,100.0,1.0,1.1856,26.0,0.0,0.0,0.0,59.999996,0.0,26.0,26.0,26.0,26.0,-0.13537500000000002,0.28669999999999995,-0.016133333333333336,291.748,-2.6107,-2.7506666666666666,-1.5005000000000002,-1.5771111111111111,-259.21,216.285,190.888875,0.0,0.0,0.0,0.0,0.011166666666666547,-5.498166666666667,-5.498166666666667,-0.6467,0.47950000000000004,-0.07944444444444443,1.186,66.09700000000001,-0.08585714285714241,-0.34096666666666664,1.0250000000000004,100.0,1.0,1.0,204.04666666666668,0.0,0.0,0.0,0.0,0.0,0.0,0.0,8648.8,0.0,55.0,5.0,237.92333333333335,1.0,0.0,0.0,0.0,0.0,0.0,0.0,0.0,0.254999999999999,0.254999999999999,0.0,0.0,1.0,55.0,616.79921,10000.0,85.000001,85.000001,85.000001,85.000001,395.0,0.0,0.0,0.0,1.0,166.665,48.203,48.203,49.927,49.927,34.0,-29.3125,22.36,-31.5775,22.942,0.0,1783.2357142857143,0.08499999999999996,100.0,32.017,30.69,41.928,40.415,0.0,0.0,100.0,0.0,0.0,0.0,0.0,3461.25,3220.4,4058.375,4012.5,304.2393333333333,304.60833333333335,315.042,314.981,21.89442857142857,20.6173,22.0335,21.427888888888887,314.999998,314.999998,324.999988,324.999988,99.56065714285714,99.50881666666666,99.58084285714285,99.55071428571429,0.018000000000000238,-0.1373333333333333,-0.20124999999999993,0.020000000000000018,-0.04999999999999716,-0.045000000000001705,1.5779999999999998,1.5905,37.84,29.858,38.709,34.924,57.038,35.888,64.1805,53.891999999999996,55.016999999999996,34.994,62.707,52.124,54.271,34.552,62.7505,51.506,-0.0855,-0.1065,0.09836,0.10742000000000002,0.0,207.12,207.01,204.04666666666668,204.04666666666668,0.0,0.0
6,0.0,0.0,0.0,1.0,1.0,0.0,0.0,1.0,0.0,100.0,1.0,1.1856,26.0,0.0,0.0,0.0,59.999996,0.0,26.0,26.0,26.0,26.0,-0.11075000000000002,0.26360000000000006,0.004733333333333334,291.55,-2.589,-2.6815555555555557,-1.5483,-1.6103333333333334,-256.04,216.265,190.869625,0.0,0.0,0.0,0.0,0.0129999999999999,-5.498166666666667,-5.498166666666667,-0.6432,0.0245,-0.05788888888888888,0.9319999999999999,66.227,-0.08000000000000007,-0.3442,0.6950000000000003,100.0,1.0,1.0,204.44666666666666,0.0,0.0,0.0,0.0,0.0,0.0,0.0,8665.7,0.0,55.0,5.0,238.39333333333332,0.0,0.0,0.0,0.0,0.0,0.0,0.0,0.0,0.3030000000000008,0.3030000000000008,0.0,0.0,0.0,55.0,616.79921,10000.0,85.000001,85.000001,85.000001,85.000001,395.0,0.0,0.0,0.0,1.0,166.665,47.836,47.836,49.789,49.789,34.0,-28.9875,23.834000000000003,-31.69,23.744,0.0,1783.1871428571428,-0.07499999999999973,100.0,31.865000000000002,30.747,42.015,40.794,0.0,0.0,100.0,0.0,0.0,0.0,0.0,3522.0,3400.8,3970.75,3961.6000000000004,304.049,304.05066666666664,315.23325,315.0505,21.90442857142857,20.6229,22.044375,21.436666666666667,314.999998,314.999998,324.999988,324.999988,99.56065714285714,99.50881666666666,99.58097142857143,99.55084285714285,0.032500000000000195,-0.12233333333333318,-0.20474999999999977,0.033500000000000085,-0.03833333333332689,-0.04999999999999716,1.5500000000000003,1.5945,37.902,29.893,38.778,34.979,57.028,35.930499999999995,64.2035,53.9435,55.007,35.033500000000004,62.727999999999994,52.1735,54.26,34.5895,62.7685,51.5545,-0.1015,-0.0905,0.115845,0.11164,0.0,207.48000000000002,207.41500000000002,204.44666666666666,204.44666666666666,0.0,0.0
7,0.0,0.0,0.0,1.0,1.0,0.0,0.0,1.0,0.0,100.0,1.0,1.1856,26.0,0.0,0.0,0.0,59.999996,0.0,26.0,26.0,26.0,26.0,-0.08199999999999996,0.27790000000000004,0.049,291.229,-2.5563000000000002,-2.669888888888889,-1.5076,-1.5566666666666669,-252.46,216.2375,190.848,0.0,0.0,0.0,0.0,0.015100000000000002,-5.498166666666667,-5.498166666666667,-0.6459,-0.01,-0.04577777777777792,1.166,66.374,-0.05899999999999972,-0.3516,0.2925,100.0,1.0,1.0,204.84333333333333,0.0,0.0,0.0,0.0,0.0,0.0,0.0,8682.5,0.0,55.0,5.0,238.92000000000002,1.0,0.0,0.0,0.0,0.0,0.0,0.0,0.0,0.3569999999999993,0.3569999999999993,0.0,0.0,1.0,55.0,616.79921,10000.0,85.000001,85.000001,85.000001,85.000001,395.0,0.0,0.0,0.0,1.0,166.665,47.47,47.47,49.759,49.759,34.0,-28.27,25.072000000000003,-29.6075,25.436,0.0,1783.1342857142856,-0.21499999999999986,100.0,31.992,30.87,42.062,41.022999999999996,0.0,0.0,100.0,0.0,0.0,0.0,0.0,3607.625,3456.5,3983.375,4071.3,303.721,303.8883333333333,315.1495,314.813,21.91557142857143,20.6292,22.056625,21.446666666666665,314.999998,314.999998,324.999988,324.999988,99.56067142857142,99.50885,99.58112857142856,99.551,0.057250000000000245,-0.1036666666666668,-0.16825,0.06274999999999986,-0.04333333333332945,-0.041666666666671404,1.5545,1.5545,37.971999999999994,29.932499999999997,38.854,35.041,57.018,35.977999999999994,64.229,54.0005,54.997,35.077,62.751000000000005,52.228,54.248999999999995,34.631,62.788,51.608000000000004,-0.116,-0.0755,0.099945,0.108215,0.0,207.9,207.865,204.84333333333333,204.84333333333333,0.0,0.0
8,0.0,0.0,0.0,1.0,1.0,0.0,0.0,1.0,0.0,100.0,1.0,1.1856,26.0,0.0,0.0,0.0,59.999996,0.0,26.0,26.0,26.0,26.0,-0.04662500000000003,0.28800000000000003,0.02906666666666667,291.489,-2.6302,-2.6545555555555556,-1.4937,-1.538,-249.26999999999998,216.215,190.828625,0.0,0.0,0.0,0.0,0.016933333333333356,-5.498166666666667,-5.498166666666667,-0.6455000000000001,-0.47350000000000003,-0.02688888888888874,0.9210000000000003,66.504,-0.039142857142857146,-0.3422333333333334,-0.14749999999999996,100.0,1.0,1.0,205.18666666666667,0.0,0.0,0.0,0.0,0.0,0.0,0.0,8697.1,0.0,55.0,5.0,239.38666666666666,0.0,0.0,0.0,0.0,0.0,0.0,0.0,0.0,0.40500000000000114,0.40500000000000114,0.0,0.0,0.0,55.0,616.79921,10000.0,85.000001,85.000001,85.000001,85.000001,395.0,0.0,0.0,0.0,1.0,166.665,48.400999999999996,48.400999999999996,48.95,48.95,34.0,-25.25,25.458,-29.815,26.808,0.0,1783.0857142857142,-0.3500000000000001,100.0,31.57,30.847,42.042,41.167,0.0,0.0,100.0,0.0,0.0,0.0,0.0,3291.0,3387.8,4123.75,4131.1,304.79633333333334,304.125,314.7915,314.6685,21.925285714285714,20.6348,22.0675,21.455444444444446,314.999998,314.999998,324.999988,324.999988,99.56067142857142,99.50885,99.58125714285714,99.55112857142858,0.07350000000000012,-0.07933333333333326,-0.14849999999999985,0.08349999999999991,-0.026666666666670835,-0.036666666666668846,1.5354999999999999,1.5275,38.033,29.9675,38.922,35.096000000000004,57.007999999999996,36.0185,64.251,54.0505,54.988,35.1145,62.771,52.2765,54.238,34.667,62.805,51.6555,-0.126,-0.069,0.11583000000000002,0.10711000000000001,0.0,208.29500000000002,208.285,205.18666666666667,205.18666666666667,0.0,0.0
9,0.0,0.0,0.0,1.0,1.0,0.0,0.0,1.0,0.0,100.0,1.0,1.1856,26.0,0.0,0.0,0.0,59.999996,0.0,26.0,26.0,26.0,26.0,-0.02949999999999997,0.2653000000000001,0.023066666666666666,291.275,-2.6335,-2.6566666666666667,-1.5388000000000002,-1.539777777777778,-246.07,216.1875,190.808875,0.0,0.0,0.0,0.0,0.018799999999999928,-5.498166666666667,-5.498166666666667,-0.657,0.4955,-0.026000000000000245,0.7069999999999999,66.63,-0.019000000000000128,-0.34853333333333336,-0.1974999999999998,100.0,1.0,1.0,205.72,0.0,0.0,0.0,0.0,0.0,0.0,0.0,8719.7,0.0,55.0,5.0,239.84,1.0,0.0,0.0,0.0,0.0,0.0,0.0,0.0,0.4529999999999994,0.4529999999999994,0.0,0.0,1.0,55.0,616.79921,10000.0,85.000001,85.000001,85.000001,85.000001,395.0,0.0,0.0,0.0,1.0,166.665,47.15,47.15,50.11,50.11,34.0,-27.66,27.212,-26.7525,26.6,0.0,1783.0385714285715,-0.44499999999999984,100.0,31.938,31.284,41.67,41.167,0.0,0.0,100.0,0.0,0.0,0.0,0.0,3662.375,3520.9,3858.375,3985.7,303.673,303.6433333333333,315.529,315.04025,21.935142857142857,20.6406,22.07825,21.464222222222222,314.999998,314.999998,324.999988,324.999988,99.56068571428571,99.50886666666666,99.58138571428572,99.55125714285714,0.09224999999999994,-0.06966666666666677,-0.12824999999999998,0.10775000000000023,-0.041666666666671404,-0.051666666666669414,1.592,1.5999999999999999,38.095,30.0035,38.989000000000004,35.150999999999996,57.001000000000005,36.0605,64.27,54.0995,54.980000000000004,35.153,62.788,52.324,54.229,34.7035,62.8195,51.702,-0.13,-0.0675,0.10531000000000001,0.11030000000000001,0.0,208.71,208.71,205.72,205.72,0.0,0.0
10,0.0,0.0,0.0,1.0,1.0,0.0,0.0,1.0,0.0,100.0,1.0,1.1856,26.0,0.0,0.0,0.0,59.999996,0.0,26.0,26.0,26.0,26.0,0.008750000000000036,0.27049999999999996,0.014933333333333335,290.985,-2.6083,-2.636,-1.5869,-1.522,-242.67000000000002,216.16,190.788125,0.0,0.0,0.0,0.0,0.02079999999999993,-5.498166666666667,-5.498166666666667,-0.6296,-0.2175,0.010000000000000009,0.3210000000000002,66.769,-0.0009999999999998899,-0.3357,-0.45500000000000007,100.0,1.0,1.0,205.91,0.0,0.0,0.0,0.0,0.0,0.0,0.0,8727.8,0.0,55.0,5.0,240.34333333333333,0.0,0.0,0.0,0.0,0.0,0.0,1.0,0.0,0.5040000000000013,0.5040000000000013,0.0,0.0,0.0,55.0,616.79921,10000.0,85.000001,85.000001,85.000001,85.000001,395.0,0.0,0.0,0.0,1.0,166.665,48.035,48.035,48.629999999999995,48.629999999999995,34.0,-23.662499999999998,25.310000000000002,-30.6575,29.058,0.0,1782.9871428571428,-0.5699999999999998,100.0,31.837,31.511,41.925,41.987,0.0,0.0,100.0,0.0,0.0,0.0,0.0,3322.875,3268.6,4300.375,4221.2,304.78066666666666,304.276,314.50125,314.33425,21.945571428571427,20.6467,22.089875,21.473777777777777,314.999998,314.999998,324.999988,324.999988,99.5607,99.50886666666666,99.58152857142858,99.5514,0.1067499999999999,-0.06133333333333324,-0.11099999999999977,0.10924999999999985,-0.04999999999999716,-0.02833333333332888,1.5045000000000002,1.4705,38.16,30.0415,39.062,35.211,56.994,36.102000000000004,64.2945,54.1565,54.974000000000004,35.1915,62.811,52.379,54.222,34.7405,62.838499999999996,51.756,-0.1455,-0.0535,0.10106000000000001,0.10214500000000001,0.0,209.135,209.13,205.91,205.91,0.0,0.0
11,0.0,0.0,0.0,1.0,1.0,0.0,0.0,1.0,0.0,100.0,1.0,1.1856,26.0,0.0,0.0,0.0,59.999996,0.0,26.0,26.0,26.0,26.0,0.03225000000000011,0.24850000000000017,-0.063,291.565,-2.6546000000000003,-2.5917777777777777,-1.5503,-1.507888888888889,-239.26,216.1325,190.7675,0.0,0.0,0.0,0.0,0.022599999999999953,-5.498166666666667,-5.498166666666667,-0.6749,-0.434,0.04055555555555568,0.41999999999999993,66.9,0.019142857142857572,-0.3718666666666667,-0.6425000000000001,100.0,1.0,1.0,206.62666666666667,0.0,0.0,0.0,0.0,0.0,0.0,0.0,8758.1,0.0,55.0,5.0,240.81666666666666,1.0,0.0,0.0,0.0,0.0,0.0,1.0,0.0,0.5549999999999997,0.5549999999999997,0.0,0.0,1.0,55.0,616.79921,10000.0,85.000001,85.000001,85.000001,85.000001,395.0,0.0,0.0,0.0,1.0,333.33500000000004,47.44,47.44,50.186,50.186,34.0,-23.66,28.875999999999998,-22.745,26.804000000000002,0.0,1782.9342857142858,-0.5449999999999999,100.0,31.684,31.549,41.646,41.896,0.0,0.0,100.0,0.0,0.0,0.0,0.0,3392.125,3599.4,3587.25,3812.0,304.49833333333333,303.41366666666664,316.16825,315.42,21.95585714285714,20.6529,22.10125,21.48311111111111,314.999998,314.999998,324.999988,324.999988,99.56072857142857,99.50888333333333,99.58167142857143,99.55154285714286,0.1302500000000002,-0.03633333333333311,-0.0887500000000001,0.15275000000000016,-0.03166666666666629,-0.051666666666669414,1.6484999999999999,1.633,38.224000000000004,30.0805,39.132999999999996,35.269999999999996,56.986000000000004,36.1445,64.3135,54.2095,54.965,35.231,62.828,52.43,54.211,34.778,62.852000000000004,51.806,-0.148,-0.059000000000000004,0.106535,0.11527000000000001,0.0,209.485,209.54500000000002,206.62666666666667,206.62666666666667,0.0,0.0
12,0.0,0.0,0.0,1.0,1.0,0.0,0.0,1.0,0.0,100.0,1.0,1.1856,26.0,0.0,0.0,0.0,59.999996,0.0,26.0,26.0,26.0,26.0,0.046250000000000124,0.2733000000000001,0.005,291.061,-2.7064,-2.586666666666667,-1.5453000000000001,-1.5087777777777778,-236.05,216.11,190.746875,0.0,0.0,0.0,0.0,0.025466666666666526,-5.498166666666667,-5.498166666666667,-0.6615,0.302,0.02499999999999991,0.605,67.029,0.03171428571428603,-0.33940000000000003,-0.6875,100.0,1.0,1.0,206.81333333333333,0.0,0.0,0.0,0.0,0.0,0.0,0.0,8766.0,0.0,55.0,5.0,241.28,0.0,0.0,0.0,0.0,0.0,0.0,1.0,0.0,0.602999999999998,0.602999999999998,0.0,0.0,0.0,55.0,616.79921,10000.0,85.000001,85.000001,85.000001,85.000001,395.0,0.0,0.0,0.0,1.0,333.33500000000004,47.531,47.531,48.965,48.965,34.0,-23.189999999999998,29.706,-26.175,30.310000000000002,0.0,1782.8871428571429,-0.645,100.0,31.575,31.7,41.497,41.704,0.0,0.0,100.0,0.0,0.0,0.0,0.0,3400.5,3593.7,4101.375,4145.6,304.49,303.46633333333335,314.9275,314.6525,21.96542857142857,20.6588,22.112000000000002,21.491888888888887,314.999998,314.999998,324.999988,324.999988,99.56074285714286,99.50888333333333,99.58181428571429,99.55168571428571,0.15200000000000014,-0.016666666666666607,-0.06924999999999981,0.1575000000000002,-0.060000000000002274,-0.045000000000001705,1.532,1.532,38.284,30.1175,39.2,35.324,56.979,36.1845,64.3335,54.2595,54.959,35.268,62.846000000000004,52.4785,54.204,34.8135,62.867,51.8535,-0.1525,-0.048,0.106675,0.10928500000000001,0.0,209.92000000000002,209.95499999999998,206.81333333333333,206.81333333333333,0.0,0.0
13,0.0,0.0,0.0,1.0,1.0,0.0,0.0,1.0,0.0,100.0,1.0,1.1856,26.0,0.0,0.0,0.0,59.999996,0.0,26.0,26.0,26.0,26.0,0.06687500000000002,0.2742,0.026533333333333332,290.649,-2.6846,-2.5875555555555554,-1.6148,-1.493111111111111,-232.63,216.085,190.725125,0.0,0.0,0.0,0.0,0.026633333333333398,-5.498166666666667,-5.498166666666667,-0.6546000000000001,-0.025,0.02777777777777768,-0.657,67.164,0.04300000000000015,-0.34750000000000003,-0.7974999999999999,100.0,1.0,1.0,207.17666666666668,0.0,0.0,0.0,0.0,0.0,0.0,0.0,8781.4,0.0,55.0,5.0,241.76333333333332,1.0,0.0,0.0,0.0,0.0,0.0,1.0,0.0,0.6539999999999999,0.6539999999999999,0.0,0.0,1.0,55.0,616.79921,10000.0,85.000001,85.000001,85.000001,85.000001,395.0,0.0,0.0,0.0,1.0,333.33500000000004,47.073,47.073,48.935,48.935,34.0,-24.345,28.932000000000002,-27.05,31.142000000000003,0.0,1782.8357142857142,-0.75,100.0,31.758,32.119,41.624,42.291,0.0,0.0,100.0,0.0,0.0,0.0,0.0,3562.125,3491.9,4139.625,4201.1,304.146,303.57966666666664,314.91975,314.416,21.975714285714286,20.6652,22.1235,21.501444444444445,314.999998,314.999998,324.999988,324.999988,99.56075714285714,99.5089,99.58195714285715,99.55182857142857,0.14700000000000024,-0.018000000000000016,-0.06374999999999975,0.1625000000000001,-0.051666666666669414,-0.02833333333332888,1.5345,1.4975,38.348,30.157,39.272,35.384,56.974999999999994,36.2295,64.3575,54.3195,54.954,35.309,62.867000000000004,52.536500000000004,54.197,34.853,62.885,51.91,-0.1585,-0.0445,0.10369,0.110615,0.0,210.325,210.37,207.17666666666668,207.17666666666668,0.0,0.0
14,0.0,0.0,0.0,1.0,1.0,0.0,0.0,1.0,0.0,100.0,1.0,1.1856,26.0,0.0,0.0,0.0,59.999996,0.0,26.0,26.0,26.0,26.0,0.08499999999999996,0.25860000000000016,-0.016566666666666667,290.863,-2.6759,-2.5575555555555556,-1.6223,-1.4841111111111112,-229.2,216.06,190.704,0.0,0.0,0.0,0.0,0.0286333333333334,-5.498166666666667,-5.498166666666667,-0.6639,-0.179,0.05400000000000005,1.5100000000000002,67.29599999999999,0.054714285714285715,-0.36273333333333335,-1.0,100.0,1.0,1.0,207.65333333333334,0.0,0.0,0.0,0.0,0.0,0.0,0.0,8801.7,0.0,55.0,5.0,242.24,0.0,0.0,0.0,0.0,0.0,0.0,1.0,0.0,0.7049999999999983,0.7049999999999983,0.0,0.0,0.0,55.0,616.79921,10000.0,85.000001,85.000001,85.000001,85.000001,395.0,0.0,0.0,0.0,1.0,166.665,47.211,47.211,49.21,49.21,34.0,-21.55,30.896,-24.5925,31.208,0.0,1782.7857142857142,-0.8900000000000001,100.0,31.928,31.987000000000002,41.687,42.409,0.0,0.0,100.0,0.0,0.0,0.0,0.0,3339.375,3639.6,3910.875,4132.7,304.61133333333333,303.343,315.3835,314.68175,21.986,20.6715,22.134999999999998,21.511,314.999998,314.999998,324.999988,324.999988,99.56077142857143,99.5089,99.58208571428571,99.55197142857143,0.1705000000000001,0.004999999999999893,-0.049249999999999794,0.1844999999999999,-0.03333333333333144,-0.05333333333332746,1.5735000000000001,1.5385,38.412,30.1965,39.344,35.444,56.971000000000004,36.2685,64.377,54.3715,54.95,35.345,62.885,52.5865,54.192,34.888,62.8995,51.9595,-0.169,-0.031,0.11313000000000001,0.10298,0.0,210.71,210.78,207.65333333333334,207.65333333333334,0.0,0.0
15,0.0,0.0,0.0,1.0,1.0,0.0,0.0,1.0,0.0,100.0,1.0,1.1856,26.0,0.0,0.0,0.0,59.999996,0.0,26.0,26.0,26.0,26.0,0.09875000000000012,0.2581,-0.0020666666666666667,290.863,-2.6543,-2.5086666666666666,-1.6245,-1.443111111111111,-225.97,216.04250000000002,190.68375,0.0,0.0,0.0,0.0,0.03049999999999997,-5.498166666666667,-5.498166666666667,-0.6582,0.3405,0.0882222222222222,1.3860000000000001,67.42,0.06899999999999995,-0.34823333333333334,-1.19,100.0,1.0,1.0,208.04333333333335,0.0,0.0,0.0,0.0,0.0,0.0,0.0,8818.2,0.0,55.0,5.0,242.68666666666667,1.0,0.0,0.0,0.0,0.0,0.0,1.0,0.0,0.7530000000000001,0.7530000000000001,0.0,0.0,1.0,55.0,616.79921,10000.0,85.000001,85.000001,85.000001,85.000001,395.0,0.0,0.0,0.0,1.0,166.665,47.241,47.241,49.362,49.362,34.0,-20.085,30.598,-23.564999999999998,32.382000000000005,0.0,1782.7385714285715,-0.8799999999999999,100.0,31.972,32.108000000000004,41.443,42.435,0.0,0.0,100.0,0.0,0.0,0.0,0.0,3245.0,3637.0,3851.0,4272.2,304.84833333333336,303.335,315.54425,314.3835,21.995571428571427,20.6775,22.14575,21.51988888888889,314.999998,314.999998,324.999988,324.999988,99.5608,99.5089,99.58222857142857,99.55211428571428,0.18274999999999997,0.009666666666666934,-0.03724999999999978,0.19350000000000023,-0.02833333333332888,-0.041666666666671404,1.576,1.531,38.472,30.234499999999997,39.411,35.5,56.968,36.308,64.395,54.4235,54.947,35.382,62.900999999999996,52.637,54.186,34.923,62.912,52.009,-0.166,-0.037,0.11234500000000001,0.10121000000000001,0.0,211.115,211.185,208.04333333333335,208.04333333333335,0.0,0.0
16,0.0,0.0,0.0,1.0,1.0,0.0,0.0,1.0,0.0,100.0,1.0,1.1856,26.0,0.0,0.0,0.0,59.999996,0.0,26.0,26.0,26.0,26.0,0.12525000000000008,0.25660000000000016,-0.0505,290.878,-2.7099,-2.5412222222222223,-1.5647,-1.4704444444444444,-222.51999999999998,216.0225,190.66175,0.0,0.0,0.0,0.0,0.03249999999999997,-5.498166666666667,-5.498166666666667,-0.675,-0.7505000000000001,0.07388888888888889,-0.829,67.553,0.08185714285714285,-0.3602,-1.17,100.0,1.0,1.0,208.42000000000002,0.0,0.0,0.0,0.0,0.0,0.0,0.0,8834.2,0.0,55.0,5.0,243.16666666666666,0.0,0.0,0.0,0.0,0.0,0.0,1.0,0.0,0.8039999999999985,0.8039999999999985,0.0,0.0,0.0,55.0,616.79921,10000.0,85.000001,85.000001,85.000001,85.000001,395.0,0.0,0.0,0.0,1.0,333.33500000000004,47.302,47.302,48.721000000000004,48.721000000000004,34.0,-21.3475,30.758,-22.752499999999998,31.509999999999998,0.0,1782.6842857142858,-0.77,100.0,31.459,32.397,41.699,42.692,0.0,0.0,100.0,0.0,0.0,0.0,0.0,3346.125,3579.9,3926.25,4054.0,304.8256666666667,303.3283333333333,315.37,314.819,22.00542857142857,20.6839,22.15725,21.529444444444444,314.999998,314.999998,324.999988,324.999988,99.56082857142857,99.5089,99.58235714285715,99.55224285714286,0.17825000000000024,0.012333333333333307,-0.02499999999999991,0.20675,-0.03999999999999915,-0.051666666666669414,1.569,1.538,38.534,30.2745,39.482,35.559,56.961,36.3505,64.417,54.479,54.939,35.421,62.921,52.6905,54.177,34.961,62.9285,52.0615,-0.1605,-0.044,0.1063,0.10514000000000001,0.0,211.485,211.57,208.42000000000002,208.42000000000002,0.0,0.0
17,0.0,0.0,0.0,1.0,1.0,0.0,0.0,1.0,0.0,100.0,1.0,1.1856,26.0,0.0,0.0,0.0,59.999996,0.0,26.0,26.0,26.0,26.0,0.13149999999999995,0.26560000000000006,-0.032600000000000004,290.634,-2.7082,-2.4978888888888893,-1.6325,-1.488888888888889,-219.07,216.0075,190.63925,0.0,0.0,0.0,0.0,0.034499999999999975,-5.498166666666667,-5.498166666666667,-0.6706000000000001,0.626,0.05400000000000005,0.6139999999999999,67.682,0.08300000000000018,-0.3470666666666667,-1.17,100.0,1.0,1.0,208.85000000000002,0.0,0.0,0.0,0.0,0.0,0.0,0.0,8852.4,0.0,55.0,5.0,243.63333333333333,1.0,0.0,0.0,0.0,0.0,0.0,1.0,0.0,0.8550000000000004,0.8550000000000004,0.0,0.0,1.0,55.0,616.79921,10000.0,85.000001,85.000001,85.000001,85.000001,395.0,0.0,0.0,0.0,1.0,166.665,46.967,46.967,49.103,49.103,34.0,-20.6525,30.306,-23.595,33.592,0.0,1782.6357142857144,-0.875,100.0,32.137,32.618,41.479,42.591,0.0,0.0,100.0,0.0,0.0,0.0,0.0,3376.75,3548.5,4024.375,4172.0,304.587,303.6546666666667,315.207,314.6125,22.015571428571427,20.6905,22.1685,21.538888888888888,314.999998,314.999998,324.999988,324.999988,99.56085714285715,99.50891666666666,99.5825,99.5524,0.1995,0.024666666666666615,-0.012249999999999872,0.22299999999999986,-0.05333333333332746,-0.054999999999999716,1.5805000000000002,1.529,38.597,30.3155,39.553,35.617999999999995,56.959,36.394999999999996,64.4355,54.533500000000004,54.937,35.4625,62.937,52.7435,54.174,35.0005,62.9415,52.1135,-0.1715,-0.039,0.10494,0.11676,0.0,211.94,212.015,208.85000000000002,208.85000000000002,0.0,0.0
18,0.0,0.0,0.0,1.0,1.0,0.0,0.0,1.0,0.0,100.0,1.0,1.1856,26.0,0.0,0.0,0.0,59.999996,0.0,26.0,26.0,26.0,26.0,0.1312500000000001,0.24660000000000015,-0.03976666666666667,290.665,-2.7398,-2.4738888888888892,-1.6508,-1.4083333333333332,-215.82,215.9975,190.61825,0.0,0.0,0.0,0.0,0.03639999999999999,-5.498166666666667,-5.498166666666667,-0.6743,-0.614,0.07833333333333314,1.194,67.806,0.08542857142857141,-0.3587,-1.295,100.0,1.0,1.0,209.20333333333332,0.0,0.0,0.0,0.0,0.0,0.0,0.0,8867.3,0.0,55.0,5.0,244.07999999999998,0.0,0.0,0.0,0.0,0.0,0.0,1.0,0.0,0.9029999999999987,0.9029999999999987,0.0,0.0,0.0,55.0,616.79921,10000.0,85.000001,85.000001,85.000001,85.000001,395.0,0.0,0.0,0.0,1.0,166.665,47.134,47.134,48.828,48.828,34.0,-19.982499999999998,32.064,-23.259999999999998,32.096000000000004,0.0,1782.5885714285714,-1.045,100.0,31.853,32.384,41.878,43.076,0.0,0.0,100.0,0.0,0.0,0.0,0.0,3317.0,3689.5,3891.625,4109.8,304.83933333333334,303.312,315.47525,314.78875,22.025,20.6965,22.17925,21.548000000000002,314.999998,314.999998,324.999988,324.999988,99.56087142857143,99.50891666666666,99.58264285714286,99.55254285714285,0.2097500000000001,0.03966666666666674,-0.01750000000000007,0.22524999999999995,-0.01666666666666572,-0.05666666666667197,1.5670000000000002,1.51,38.656,30.353,39.620999999999995,35.675,56.956,36.435,64.4565,54.5875,54.934,35.4995,62.956,52.795500000000004,54.168,35.036,62.957,52.165,-0.1845,-0.0225,0.10658500000000001,0.10916500000000001,0.0,212.255,212.36,209.20333333333332,209.20333333333332,0.0,0.0
19,0.0,0.0,0.0,1.0,1.0,0.0,0.0,1.0,0.0,100.0,1.0,1.1856,26.0,0.0,0.0,0.0,59.999996,0.0,26.0,26.0,26.0,26.0,0.15837499999999993,0.2654000000000001,-0.012633333333333333,290.192,-2.7151,-2.4574444444444445,-1.6672,-1.388111111111111,-212.36,215.99,190.59575,0.0,0.0,0.0,0.0,0.03839999999999999,-5.498166666666667,-5.498166666666667,-0.6726000000000001,0.7895,0.08766666666666678,-0.30899999999999994,67.935,0.0952857142857142,-0.35273333333333334,-1.5474999999999999,100.0,1.0,1.0,209.64333333333332,0.0,0.0,0.0,0.0,0.0,0.0,0.0,8886.0,0.0,55.0,5.0,244.54000000000002,1.0,0.0,0.0,0.0,0.0,0.0,1.0,0.0,0.9540000000000006,0.9540000000000006,0.0,0.0,1.0,55.0,616.79921,10000.0,85.000001,85.000001,85.000001,85.000001,395.0,0.0,0.0,0.0,1.0,333.33500000000004,46.173,46.173,48.95,48.95,34.0,-20.7675,33.174,-23.7475,32.722,0.0,1782.5357142857142,-1.2650000000000001,100.0,32.173,32.995000000000005,41.439,43.034,0.0,0.0,100.0,0.0,0.0,0.0,0.0,3565.625,3712.6,4004.0,4194.2,304.1293333333333,302.92133333333334,315.32825,314.59575,22.03514285714286,20.7032,22.1905,21.557555555555556,314.999998,314.999998,324.999988,324.999988,99.5609,99.50893333333333,99.58278571428572,99.55268571428572,0.22199999999999998,0.052000000000000046,-0.011499999999999844,0.22924999999999995,-0.030000000000001137,-0.03999999999999915,1.597,1.53,38.72,30.3945,39.691,35.733999999999995,56.956,36.4815,64.4745,54.6425,54.933,35.542500000000004,62.972,52.849000000000004,54.166,35.0775,62.9695,52.2175,-0.2025,-0.0055,0.111585,0.10694000000000001,0.0,212.69,212.8,209.64333333333332,209.64333333333332,0.0,0.0
20,0.0,0.0,0.0,1.0,1.0,0.0,0.0,1.0,0.0,100.0,1.0,1.1856,26.0,0.0,0.0,0.0,59.999996,0.0,26.0,26.0,26.0,26.0,0.1941250000000001,0.27290000000000014,0.03316666666666667,290.253,-2.7676,-2.515888888888889,-1.6520000000000001,-1.3894444444444445,-208.89,215.9875,190.573375,0.0,0.0,0.0,0.0,0.04043333333333332,-5.498166666666667,-5.498166666666667,-0.6676000000000001,-1.0835000000000001,0.10066666666666668,0.706,68.06700000000001,0.11071428571428577,-0.3548333333333334,-2.0275,100.0,1.0,1.0,209.85000000000002,0.0,0.0,0.0,0.0,0.0,0.0,0.0,8894.7,0.0,55.0,5.0,245.01999999999998,0.0,0.0,0.0,0.0,0.0,0.0,0.0,0.0,1.004999999999999,1.004999999999999,0.0,0.0,0.0,55.0,616.79921,10000.0,85.000001,85.000001,85.000001,85.000001,395.0,0.0,0.0,0.0,1.0,166.665,47.318,47.318,47.623,47.623,34.0,-17.2425,34.198,-22.795,35.99,0.0,1782.4871428571428,-1.6099999999999999,100.0,31.766,32.728,42.09,43.495000000000005,0.0,0.0,100.0,0.0,0.0,0.0,0.0,3120.125,3674.8,4100.5,4386.3,305.451,303.236,314.913,314.07325,22.045,20.709699999999998,22.202125,21.56722222222222,314.999998,314.999998,324.999988,324.999988,99.56094285714286,99.50893333333333,99.58292857142857,99.55282857142858,0.2450000000000001,0.07366666666666655,0.02475000000000005,0.2472500000000002,-0.03333333333333144,-0.04999999999999716,1.5270000000000001,1.456,38.782,30.435499999999998,39.763,35.795,56.953,36.5275,64.498,54.701499999999996,54.929,35.585,62.992999999999995,52.906,54.161,35.118,62.987,52.2735,-0.2225,0.017,0.10408,0.10071500000000001,0.0,213.035,213.175,209.85000000000002,209.85000000000002,0.0,0.0
21,0.0,0.0,0.0,1.0,1.0,0.0,0.0,1.0,0.0,100.0,1.0,1.1856,26.0,0.0,0.0,0.0,59.999996,0.0,26.0,26.0,26.0,26.0,0.21587500000000004,0.25639999999999996,-0.06723333333333334,290.573,-2.6897,-2.5583333333333336,-1.6756,-1.453,-205.62,215.9875,190.551875,0.0,0.0,0.0,0.0,0.042333333333333334,-5.498166666666667,-5.498166666666667,-0.7028,0.3525,0.09388888888888891,0.39400000000000013,68.18299999999999,0.12914285714285745,-0.3747666666666667,-2.3425000000000002,100.0,1.0,1.0,210.52666666666667,0.0,0.0,0.0,0.0,0.0,0.0,0.0,8923.5,0.0,55.0,5.0,245.43666666666667,1.0,0.0,0.0,0.0,0.0,0.0,0.0,0.0,1.0530000000000008,1.0530000000000008,0.0,0.0,1.0,55.0,616.79921,10000.0,85.000001,85.000001,85.000001,85.000001,395.0,0.0,0.0,0.0,1.0,166.665,46.28,46.28,49.545,49.545,34.0,-17.79,36.44,-19.18,33.406,0.0,1782.4385714285713,-1.2349999999999999,100.0,32.089,33.032,41.335,43.215,0.0,0.0,100.0,0.0,0.0,0.0,0.0,3381.125,3784.8,3684.375,3979.3,304.4836666666667,302.801,316.05975,315.0835,22.05442857142857,20.716,22.2125,21.57611111111111,314.999998,314.999998,324.999988,324.999988,99.56097142857143,99.50895,99.58305714285714,99.55298571428571,0.25375000000000014,0.08266666666666644,0.03600000000000003,0.27600000000000025,-0.05333333333332746,-0.07499999999999574,1.6750000000000003,1.6025,38.841,30.475,39.828,35.851,56.954,36.573499999999996,64.5125,54.751999999999995,54.929,35.628,63.006,52.955,54.158,35.1595,62.9965,52.3215,-0.2135,0.005,0.10529000000000001,0.10981,0.0,213.41500000000002,213.60000000000002,210.52666666666667,210.52666666666667,0.0,0.0
22,0.0,0.0,0.0,1.0,1.0,0.0,0.0,1.0,0.0,100.0,1.0,1.1856,26.0,0.0,0.0,0.0,59.999996,0.0,26.0,26.0,26.0,26.0,0.19924999999999993,0.2550000000000001,0.05383333333333334,289.856,-2.6832000000000003,-2.549777777777778,-1.6171,-1.4924444444444445,-202.14,215.995,190.528125,0.0,0.0,0.0,0.0,0.044333333333333336,-5.498166666666667,-5.498166666666667,-0.6775,0.1595,0.09833333333333316,-0.5529999999999999,68.315,0.14814285714285758,-0.3499333333333334,-1.365,100.0,1.0,1.0,210.64666666666668,0.0,0.0,0.0,0.0,0.0,0.0,0.0,8928.5,0.0,55.0,5.0,245.91,0.0,0.0,0.0,0.0,0.0,0.0,0.0,0.0,1.1039999999999992,1.1039999999999992,0.0,0.0,0.0,55.0,616.79921,10000.0,85.000001,85.000001,85.000001,85.000001,395.0,0.0,0.0,0.0,1.0,333.33500000000004,46.28,46.28,48.111,48.111,34.0,-21.985,31.536,-21.7,37.938,0.0,1782.3857142857144,0.01499999999999968,100.0,32.005,33.282,41.598,43.591,0.0,0.0,100.0,0.0,0.0,0.0,0.0,3424.0,3707.4,4110.875,4298.2,304.52066666666667,302.8546666666667,314.9755,314.1815,22.06457142857143,20.7227,22.224,21.58577777777778,314.999998,314.999998,324.999988,324.999988,99.561,99.50895,99.5832,99.55312857142857,0.17375000000000007,-0.0020000000000000018,0.03575000000000017,0.27075000000000005,-0.041666666666671404,-0.054999999999999716,1.5255,1.458,38.903,30.5165,39.9,35.911,56.951,36.6195,64.535,54.8105,54.926,35.670500000000004,63.025999999999996,53.012,54.153999999999996,35.2005,63.013,52.3775,-0.107,-0.1,0.104745,0.105425,0.0,213.845,213.965,210.64666666666668,210.64666666666668,0.0,0.0
23,0.0,0.0,0.0,1.0,1.0,0.0,0.0,1.0,0.0,100.0,1.0,1.1856,26.0,0.0,0.0,0.0,59.999996,0.0,26.0,26.0,26.0,26.0,0.11212500000000003,0.23240000000000016,-0.018233333333333334,290.039,-2.6927,-2.523888888888889,-1.5719,-1.532888888888889,-198.45,216.0075,190.5035,0.0,0.0,0.0,0.0,0.046499999999999986,-5.498166666666667,-5.498166666666667,-0.6959000000000001,-0.374,0.06777777777777771,-1.321,68.44800000000001,0.11785714285714288,-0.3773,0.07250000000000023,100.0,1.0,1.0,211.14,0.0,0.0,0.0,0.0,0.0,0.0,0.0,8949.5,0.0,55.0,5.0,246.39333333333335,1.0,0.0,0.0,0.0,0.0,0.0,0.0,0.0,1.1580000000000013,1.1580000000000013,0.0,0.0,1.0,55.0,616.79921,10000.0,85.000001,85.000001,85.000001,85.000001,395.0,0.0,0.0,0.0,1.0,166.665,46.082,46.082,48.965,48.965,34.0,-26.4975,27.764,-22.71,32.114000000000004,0.0,1782.3328571428572,0.8049999999999997,100.0,32.215,33.14,41.877,43.639,0.0,0.0,100.0,0.0,0.0,0.0,0.0,3689.625,3581.7,3927.25,3974.6000000000004,303.853,303.30533333333335,315.379,314.921,22.075142857142858,20.7297,22.236,21.596,314.999998,314.999998,324.999988,324.999988,99.56101428571428,99.50895,99.58335714285714,99.55328571428572,0.12725000000000009,-0.04600000000000004,-0.018749999999999822,0.2137500000000001,-0.045000000000001705,-0.04999999999999716,1.5310000000000001,1.5294999999999999,38.97,30.560499999999998,39.974999999999994,35.974999999999994,56.945,36.6665,64.5565,54.871,54.92,35.714,63.045,53.071,54.144999999999996,35.242,63.0285,52.435,-0.043000000000000003,-0.1645,0.107255,0.10409,0.0,214.315,214.29500000000002,211.14,211.14,0.0,0.0
24,0.0,0.0,0.0,1.0,1.0,0.0,0.0,1.0,0.0,100.0,1.0,1.1856,26.0,0.0,0.0,0.0,59.999996,0.0,26.0,26.0,26.0,26.0,0.02287499999999998,0.2542,-0.0983,290.375,-2.6678,-2.581888888888889,-1.5868,-1.4981111111111112,-195.37,216.01999999999998,190.482625,0.0,0.0,0.0,0.0,0.04830000000000001,-5.498166666666667,-5.498166666666667,-0.6961,-0.28750000000000003,0.05111111111111111,0.4540000000000002,68.561,0.06642857142857173,-0.36023333333333335,0.8450000000000002,100.0,1.0,1.0,211.44666666666666,0.0,0.0,0.0,0.0,0.0,0.0,0.0,8962.5,0.0,55.0,5.0,246.79666666666668,0.0,0.0,0.0,0.0,0.0,0.0,0.0,0.0,1.2029999999999994,1.2029999999999994,0.0,0.0,0.0,55.0,616.79921,10000.0,85.000001,85.000001,85.000001,85.000001,395.0,0.0,0.0,0.0,1.0,166.665,47.119,47.119,48.34,48.34,34.0,-24.794999999999998,25.27,-27.775,29.794,0.0,1782.2885714285715,1.005,100.0,32.382,32.586,42.085,43.166,0.0,0.0,100.0,0.0,0.0,0.0,0.0,3277.375,3441.6,4227.875,4063.3,304.81,303.9103333333333,314.71325,314.88225,22.084142857142858,20.7354,22.246,21.604333333333333,314.999998,314.999998,324.999988,324.999988,99.56102857142857,99.50896666666667,99.58348571428571,99.55341428571428,0.09200000000000008,-0.08066666666666666,-0.06824999999999992,0.16425,-0.03499999999999659,-0.046666666666666856,1.508,1.541,39.025999999999996,30.596,40.038,36.027,56.938,36.705,64.574,54.918,54.913,35.75,63.061,53.1165,54.137,35.2765,63.041,52.480000000000004,-0.021,-0.1815,0.100845,0.10849500000000001,0.0,214.695,214.62,211.44666666666666,211.44666666666666,0.0,0.0
25,0.0,0.0,0.0,1.0,1.0,0.0,0.0,1.0,0.0,100.0,1.0,1.1856,26.0,0.0,0.0,0.0,59.999996,0.0,26.0,26.0,26.0,26.0,-0.05812499999999998,0.24229999999999996,-0.07873333333333334,290.405,-2.6297,-2.607333333333333,-1.574,-1.5318888888888889,-191.66,216.035,190.456,0.0,0.0,0.0,0.0,0.05043333333333333,-5.498166666666667,-5.498166666666667,-0.7346,-0.167,0.018888888888888955,-0.7289999999999999,68.69200000000001,-0.005428571428571338,-0.37283333333333335,1.5099999999999998,100.0,1.0,1.0,211.99333333333334,0.0,0.0,0.0,0.0,0.0,0.0,0.0,8985.7,0.0,55.0,5.0,247.26999999999998,1.0,0.0,0.0,0.0,0.0,0.0,0.0,0.0,1.256999999999998,1.256999999999998,0.0,0.0,1.0,55.0,616.79921,10000.0,85.000001,85.000001,85.000001,85.000001,395.0,0.0,0.0,0.0,1.0,166.665,46.31,46.31,49.042,49.042,34.0,-28.77,25.594,-27.73,24.616,0.0,1782.2342857142858,0.9900000000000002,100.0,32.467,32.524,42.244,42.598,0.0,0.0,100.0,0.0,0.0,0.0,0.0,3558.125,3686.9,3877.875,3873.3,304.03833333333336,303.1553333333333,315.5445,315.3605,22.094714285714286,20.7422,22.258,21.61422222222222,314.999998,314.999998,324.999988,324.999988,99.56104285714285,99.50898333333333,99.58362857142858,99.55357142857143,0.052999999999999936,-0.11933333333333329,-0.13424999999999976,0.0887500000000001,-0.04833333333333201,-0.04999999999999716,1.581,1.632,39.092,30.6385,40.113,36.089,56.926,36.754999999999995,64.5945,54.9715,54.900999999999996,35.796,63.079,53.168,54.123000000000005,35.320499999999996,63.0555,52.53,-0.024,-0.1845,0.09965500000000001,0.111115,0.0,215.12,214.995,211.99333333333334,211.99333333333334,0.0,0.0
26,0.0,0.0,0.0,1.0,1.0,0.0,0.0,1.0,0.0,100.0,1.0,1.1856,26.0,0.0,0.0,0.0,59.999996,0.0,26.0,26.0,26.0,26.0,-0.10849999999999993,0.25080000000000013,0.08703333333333334,289.246,-2.5915,-2.635,-1.5794000000000001,-1.6084444444444443,-188.36,216.04500000000002,190.431625,0.0,0.0,0.0,0.0,0.05236666666666656,-5.498166666666667,-5.498166666666667,-0.6976,0.9105,-0.04466666666666663,0.007000000000000117,68.813,-0.057428571428571384,-0.3421,1.6825,100.0,1.0,1.0,212.13666666666666,0.0,0.0,0.0,0.0,0.0,0.0,0.0,8991.8,0.0,55.0,5.0,247.70333333333335,0.0,0.0,0.0,0.0,0.0,0.0,0.0,0.0,1.3049999999999997,1.3049999999999997,0.0,0.0,0.0,55.0,616.79921,10000.0,85.000001,85.000001,85.000001,85.000001,395.0,0.0,0.0,0.0,1.0,166.665,45.516999999999996,45.516999999999996,47.729,47.729,34.0,-30.8925,23.064,-36.045,26.84,0.0,1782.1857142857143,0.7750000000000004,100.0,33.678,32.891999999999996,43.016999999999996,42.447,0.0,0.0,100.0,0.0,0.0,0.0,0.0,3695.0,3582.7,4418.125,4239.6,303.541,303.497,314.304,314.45775,22.10457142857143,20.7483,22.268875,21.62322222222222,314.999998,314.999998,324.999988,324.999988,99.56104285714285,99.509,99.58377142857142,99.55371428571429,0.03125,-0.15766666666666662,-0.18599999999999994,0.04574999999999996,-0.03333333333333144,-0.03833333333332689,1.436,1.492,39.153999999999996,30.677,40.18,36.144999999999996,56.919,36.803,64.6175,55.0205,54.894,35.84,63.101,53.215,54.114999999999995,35.363,63.073499999999996,52.576499999999996,-0.0465,-0.17300000000000001,0.10237500000000001,0.11379500000000001,0.0,215.54500000000002,215.4,212.13666666666666,212.13666666666666,0.0,0.0
27,0.0,0.0,0.0,1.0,1.0,0.0,0.0,1.0,0.0,100.0,1.0,1.1856,26.0,0.0,0.0,0.0,59.999996,0.0,26.0,26.0,26.0,26.0,-0.14400000000000002,0.23650000000000015,-0.011733333333333333,289.352,-2.6019,-2.6686666666666667,-1.5295,-1.602111111111111,-185.05,216.055,190.408625,0.0,0.0,0.0,0.0,0.054266666666666574,-5.498166666666667,-5.498166666666667,-0.7132000000000001,-1.1655,-0.06622222222222218,0.5460000000000003,68.931,-0.08871428571428552,-0.3826333333333334,1.5625,100.0,1.0,1.0,212.5,0.0,0.0,0.0,0.0,0.0,0.0,0.0,9007.0,0.0,55.0,5.0,248.13,1.0,0.0,0.0,0.0,0.0,0.0,0.0,0.0,1.352999999999998,1.352999999999998,0.0,0.0,1.0,55.0,616.79921,10000.0,85.000001,85.000001,85.000001,85.000001,395.0,0.0,0.0,0.0,1.0,166.665,45.929,45.929,47.592,47.592,34.0,-32.4,22.119999999999997,-33.9975,24.33,0.0,1782.1385714285714,0.6749999999999998,100.0,33.552,32.519,44.167,42.918,0.0,0.0,100.0,0.0,0.0,0.0,0.0,3709.0,3494.1,4147.125,4110.5,303.59566666666666,303.85833333333335,314.77175,314.73975,22.114285714285714,20.7542,22.279875,21.632333333333335,314.999998,314.999998,324.999988,324.999988,99.56104285714285,99.50903333333333,99.58391428571429,99.55384285714285,0.004750000000000032,-0.16866666666666674,-0.2084999999999999,0.020000000000000018,-0.030000000000001137,-0.05666666666667197,1.4660000000000002,1.5285,39.214,30.714,40.248999999999995,36.202,56.909,36.8485,64.6435,55.0715,54.884,35.8825,63.125,53.263999999999996,54.104,35.403,63.0945,52.624,-0.054,-0.159,0.10322500000000001,0.11236000000000002,0.0,215.845,215.71,212.5,212.5,0.0,0.0
28,0.0,0.0,0.0,1.0,1.0,0.0,0.0,1.0,0.0,100.0,1.0,1.1856,26.0,0.0,0.0,0.0,59.999996,0.0,26.0,26.0,26.0,26.0,-0.15337499999999993,0.2562,-0.03593333333333333,289.81,-2.5734,-2.6754444444444445,-1.4923,-1.6264444444444444,-181.54,216.0625,190.3835,0.0,0.0,0.0,0.0,0.056333333333333346,-5.498166666666667,-5.498166666666667,-0.7274,0.5760000000000001,-0.08177777777777795,-0.665,69.05199999999999,-0.11014285714285732,-0.37046666666666667,1.545,100.0,1.0,1.0,213.05333333333334,0.0,0.0,0.0,0.0,0.0,0.0,0.0,9030.6,0.0,55.0,5.0,248.56666666666666,0.0,0.0,0.0,0.0,0.0,0.0,0.0,0.0,1.404,1.404,0.0,0.0,0.0,55.0,616.79921,10000.0,85.000001,85.000001,85.000001,85.000001,395.0,0.0,0.0,0.0,1.0,333.33500000000004,46.004999999999995,46.004999999999995,48.507999999999996,48.507999999999996,34.0,-33.379999999999995,20.372,-34.1925,21.734,0.0,1782.0857142857142,0.5149999999999997,100.0,33.625,32.565,43.423,42.251,0.0,0.0,100.0,0.0,0.0,0.0,0.0,3808.125,3332.9,4133.75,3924.8,303.45033333333333,304.1093333333333,314.9595,315.21775,22.124714285714287,20.7606,22.291125,21.641555555555556,314.999998,314.999998,324.999988,324.999988,99.56105714285714,99.50905,99.58407142857143,99.554,-0.0044999999999999485,-0.18700000000000006,-0.23824999999999985,-0.007000000000000117,-0.036666666666668846,-0.054999999999999716,1.5514999999999999,1.593,39.278999999999996,30.7535,40.32,36.26,56.9,36.8985,64.6635,55.119,54.875,35.9285,63.143,53.3105,54.094,35.447,63.109,52.669,-0.0735,-0.1465,0.09867500000000001,0.113875,0.0,216.26,216.14499999999998,213.05333333333334,213.05333333333334,0.0,0.0
29,0.0,0.0,0.0,1.0,1.0,0.0,0.0,1.0,0.0,100.0,1.0,1.1856,26.0,0.0,0.0,0.0,59.999996,0.0,26.0,26.0,26.0,26.0,-0.16999999999999993,0.24530000000000007,0.020900000000000002,289.429,-2.5686,-2.627888888888889,-1.5291000000000001,-1.6096666666666668,-177.8,216.065,190.35575,0.0,0.0,0.0,0.0,0.058499999999999996,-5.498166666666667,-5.498166666666667,-0.7288,-0.796,-0.08444444444444432,-0.7249999999999999,69.187,-0.11071428571428577,-0.36283333333333334,1.25,100.0,1.0,1.0,213.27666666666667,0.0,0.0,0.0,0.0,0.0,0.0,0.0,9040.0,0.0,55.0,5.0,249.05,1.0,0.0,0.0,0.0,0.0,0.0,0.0,0.0,1.4579999999999984,1.4579999999999984,0.0,0.0,1.0,55.0,616.79921,10000.0,85.000001,85.000001,85.000001,85.000001,395.0,0.0,0.0,0.0,1.0,166.665,45.944,45.944,47.577,47.577,34.0,-34.2525,21.247999999999998,-37.24,22.648,0.0,1782.0328571428572,0.375,100.0,33.301,32.266,43.861000000000004,42.442,0.0,0.0,100.0,0.0,0.0,0.0,0.0,3904.5,3495.9,4354.875,4059.8,303.275,303.73466666666667,314.4505,314.817,22.135428571428573,20.7671,22.303375,21.651666666666667,314.999998,314.999998,324.999988,324.999988,99.56107142857142,99.50906666666667,99.58422857142857,99.55414285714286,-0.006000000000000005,-0.17966666666666664,-0.23599999999999977,-0.009749999999999925,-0.03999999999999915,-0.041666666666671404,1.4649999999999999,1.5095,39.346000000000004,30.7945,40.396,36.323,56.888,36.9495,64.6915,55.1745,54.864000000000004,35.9755,63.168,53.3635,54.081,35.492,63.131,52.7205,-0.08,-0.129,0.098095,0.10795,0.0,216.625,216.525,213.27666666666667,213.27666666666667,0.0,0.0
30,0.0,0.0,0.0,1.0,1.0,0.0,0.0,1.0,0.0,100.0,1.0,1.1856,26.0,0.0,0.0,0.0,59.999996,0.0,26.0,26.0,26.0,26.0,-0.159875,0.26150000000000007,0.025,289.032,-2.4722,-2.624888888888889,-1.5196,-1.5545555555555557,-174.69,216.0625,190.332375,0.0,0.0,0.0,0.0,0.06029999999999991,-5.498166666666667,-5.498166666666667,-0.7334,0.8,-0.0818888888888889,0.746,69.293,-0.10485714285714254,-0.3698,1.0200000000000005,100.0,1.0,1.0,213.69,0.0,0.0,0.0,0.0,0.0,0.0,0.0,9057.5,0.0,55.0,5.0,249.43333333333334,0.0,0.0,0.0,0.0,0.0,0.0,1.0,0.0,1.5030000000000001,1.5030000000000001,0.0,0.0,0.0,55.0,616.79921,10000.0,85.000001,85.000001,85.000001,85.000001,395.0,0.0,0.0,0.0,1.0,166.665,44.998,44.998,47.852000000000004,47.852000000000004,34.0,-31.5825,22.72,-35.46,23.532,0.0,1781.9885714285715,0.19500000000000028,100.0,34.31,32.891,43.705,42.24,0.0,0.0,100.0,0.0,0.0,0.0,0.0,3822.75,3573.1,4285.25,4182.1,303.1623333333333,303.40933333333334,314.6395,314.70025,22.144571428571428,20.7729,22.313375,21.66,314.999998,314.999998,324.999988,324.999988,99.56107142857142,99.5091,99.58435714285714,99.55427142857143,0.016249999999999876,-0.16300000000000003,-0.22275,0.012750000000000039,-0.03999999999999915,-0.051666666666669414,1.5085000000000002,1.5585,39.403999999999996,30.8305,40.459,36.375,56.881,36.9955,64.7105,55.2185,54.858000000000004,36.018,63.186,53.406,54.074,35.5325,63.1455,52.7615,-0.0955,-0.1235,0.10327000000000001,0.113265,0.0,216.985,216.89499999999998,213.69,213.69,0.0,0.0
31,0.0,0.0,0.0,1.0,1.0,0.0,0.0,1.0,0.0,100.0,1.0,1.1856,26.0,0.0,0.0,0.0,59.999996,0.0,26.0,26.0,26.0,26.0,-0.12349999999999994,0.23209999999999997,0.0386,288.895,-2.5636,-2.7004444444444444,-1.5550000000000002,-1.654777777777778,-170.94,216.0575,190.305125,0.0,0.0,0.0,0.0,0.0625,-5.498166666666667,-5.498166666666667,-0.7134,-0.549,-0.07077777777777783,0.5,69.425,-0.08842857142857152,-0.3684333333333334,0.5899999999999999,100.0,1.0,1.0,213.97,0.0,0.0,0.0,0.0,0.0,0.0,0.0,9069.4,0.0,55.0,5.0,249.90666666666667,1.0,0.0,0.0,0.0,0.0,0.0,1.0,0.0,1.5569999999999986,1.5569999999999986,0.0,0.0,1.0,55.0,616.79921,10000.0,85.000001,85.000001,85.000001,85.000001,395.0,0.0,0.0,0.0,1.0,166.665,45.563,45.563,46.524,46.524,34.0,-28.8775,23.764000000000003,-35.7475,26.954,0.0,1781.9342857142858,0.1349999999999998,100.0,34.086,33.055,44.462,42.945,0.0,0.0,100.0,0.0,0.0,0.0,0.0,3550.25,3530.0,4347.75,4188.1,304.05533333333335,303.5996666666667,314.37575,314.64925,22.155428571428573,20.7797,22.325625,21.670222222222222,314.999998,314.999998,324.999988,324.999988,99.56107142857142,99.50911666666667,99.58452857142858,99.55442857142857,0.03624999999999989,-0.1519999999999999,-0.19799999999999995,0.04200000000000026,-0.02499999999999858,-0.05666666666667197,1.4545,1.4695,39.472,30.872999999999998,40.536,36.439,56.872,37.0485,64.7385,55.2755,54.848,36.067,63.212,53.461,54.063,35.579,63.168,52.815,-0.107,-0.1165,0.104065,0.11291000000000001,0.0,217.35500000000002,217.29500000000002,213.97,213.97,0.0,0.0
32,0.0,0.0,0.0,1.0,1.0,0.0,0.0,1.0,0.0,100.0,1.0,1.1856,26.0,0.0,0.0,0.0,59.999996,0.0,26.0,26.0,26.0,26.0,-0.10050000000000003,0.24609999999999999,-0.03163333333333333,289.337,-2.5837,-2.666333333333333,-1.5098,-1.6644444444444444,-167.61,216.05,190.281125,0.0,0.0,0.0,0.0,0.06443333333333334,-5.498166666666667,-5.498166666666667,-0.7368,0.0495,-0.09600000000000009,0.05500000000000016,69.536,-0.07585714285714262,-0.3853666666666667,0.6475,100.0,1.0,1.0,214.5233333333333,0.0,0.0,0.0,0.0,0.0,0.0,0.0,9092.8,0.0,55.0,5.0,250.31,0.0,0.0,0.0,0.0,0.0,0.0,1.0,0.0,1.6050000000000004,1.6050000000000004,0.0,0.0,0.0,55.0,616.79921,10000.0,85.000001,85.000001,85.000001,85.000001,395.0,0.0,0.0,0.0,1.0,333.33500000000004,45.303,45.303,48.126,48.126,34.0,-30.34,23.97,-30.2075,24.988,0.0,1781.8842857142856,0.07000000000000028,100.0,34.033,33.087,44.042,42.774,0.0,0.0,100.0,0.0,0.0,0.0,0.0,3765.5,3509.5,3955.625,3914.7,303.43766666666664,303.699,315.358,315.2055,22.165,20.785800000000002,22.336375,21.679222222222222,314.999998,314.999998,324.999988,324.999988,99.56108571428571,99.50913333333334,99.58465714285714,99.55457142857144,0.05074999999999985,-0.137,-0.18575000000000008,0.04875000000000007,-0.046666666666666856,-0.04999999999999716,1.5575,1.589,39.532,30.9115,40.602000000000004,36.495000000000005,56.863,37.0955,64.7575,55.322,54.84,36.11,63.229,53.506,54.054,35.6205,63.1825,52.859,-0.10350000000000001,-0.11750000000000001,0.10811000000000001,0.10752,0.0,217.7,217.655,214.5233333333333,214.5233333333333,0.0,0.0
33,0.0,0.0,0.0,1.0,1.0,0.0,0.0,1.0,0.0,100.0,1.0,1.1856,26.0,0.0,0.0,0.0,59.999996,0.0,26.0,26.0,26.0,26.0,-0.09599999999999997,0.25050000000000017,-0.02666666666666667,289.276,-2.5278,-2.6799999999999997,-1.557,-1.5805555555555557,-164.26999999999998,216.04000000000002,190.25625,0.0,0.0,0.0,0.0,0.06636666666666657,-5.498166666666667,-5.498166666666667,-0.7331000000000001,-0.1485,-0.08733333333333348,1.4609999999999999,69.653,-0.06528571428571395,-0.36513333333333337,0.5,100.0,1.0,1.0,214.7266666666667,0.0,0.0,0.0,0.0,0.0,0.0,0.0,9101.5,0.0,55.0,5.0,250.72666666666666,1.0,0.0,0.0,0.0,0.0,0.0,1.0,0.0,1.6529999999999987,1.6529999999999987,0.0,0.0,1.0,55.0,616.79921,10000.0,85.000001,85.000001,85.000001,85.000001,395.0,0.0,0.0,0.0,1.0,333.33500000000004,45.853,45.853,47.638,47.638,34.0,-27.8525,23.976,-33.325,26.084,0.0,1781.8357142857142,-0.08999999999999986,100.0,33.934,32.802,43.943,42.789,0.0,0.0,100.0,0.0,0.0,0.0,0.0,3581.5,3445.4,4225.875,4182.9,303.89,303.96666666666664,314.727,314.65075,22.174714285714288,20.7917,22.347,21.688111111111112,314.999998,314.999998,324.999988,324.999988,99.56108571428571,99.50916666666667,99.58481428571429,99.5547,0.05650000000000022,-0.1279999999999999,-0.18074999999999974,0.05049999999999999,-0.041666666666671404,-0.03833333333332689,1.5125000000000002,1.534,39.592,30.9485,40.669,36.551,56.855999999999995,37.1385,64.779,55.3705,54.832,36.15,63.249,53.5525,54.045,35.658500000000004,63.198499999999996,52.903999999999996,-0.1165,-0.10350000000000001,0.10391500000000001,0.10261,0.0,218.07,218.0,214.7266666666667,214.7266666666667,0.0,0.0
34,0.0,0.0,0.0,1.0,1.0,0.0,0.0,1.0,0.0,100.0,1.0,1.1856,26.0,0.0,0.0,0.0,59.999996,0.0,26.0,26.0,26.0,26.0,-0.08324999999999994,0.2459,-0.06853333333333333,289.703,-2.6463,-2.6462222222222223,-1.5775000000000001,-1.5807777777777778,-160.5,216.025,190.22725,0.0,0.0,0.0,0.0,0.06856666666666655,-5.498166666666667,-5.498166666666667,-0.7657,-0.776,-0.05111111111111155,1.1070000000000002,69.78,-0.04842857142857149,-0.3784666666666667,0.27749999999999986,100.0,1.0,1.0,215.17666666666668,0.0,0.0,0.0,0.0,0.0,0.0,0.0,9120.6,0.0,55.0,5.0,251.18666666666667,0.0,0.0,0.0,0.0,0.0,0.0,1.0,0.0,1.7070000000000007,1.7070000000000007,0.0,0.0,0.0,55.0,616.79921,10000.0,85.000001,85.000001,85.000001,85.000001,395.0,0.0,0.0,0.0,1.0,166.665,46.249,46.249,48.599000000000004,48.599000000000004,34.0,-29.1475,24.046,-29.8775,26.876,0.0,1781.7842857142857,-0.06999999999999984,100.0,33.468,32.5,43.641,42.914,0.0,0.0,100.0,0.0,0.0,0.0,0.0,3634.625,3439.0,3965.375,4134.0,303.91266666666667,304.03633333333335,315.39025,314.7345,22.185285714285715,20.7984,22.359,21.69822222222222,314.999998,314.999998,324.999988,324.999988,99.5611,99.50918333333334,99.58495714285715,99.55485714285714,0.06199999999999983,-0.11733333333333329,-0.1589999999999998,0.07275000000000009,-0.026666666666670835,-0.046666666666666856,1.5434999999999999,1.5494999999999999,39.658,30.990000000000002,40.744,36.614000000000004,56.846000000000004,37.1865,64.8,55.425,54.823,36.194,63.268,53.605000000000004,54.034,35.7005,63.214,52.9555,-0.108,-0.1045,0.10348,0.10971000000000002,0.0,218.41,218.38,215.17666666666668,215.17666666666668,0.0,0.0
35,0.0,0.0,0.0,1.0,1.0,0.0,0.0,1.0,0.0,100.0,1.0,1.1856,26.0,0.0,0.0,0.0,59.999996,0.0,26.0,26.0,26.0,26.0,-0.06525000000000003,0.2521,-0.0666,289.886,-2.6606,-2.607666666666667,-1.6092,-1.5722222222222222,-157.14999999999998,216.01,190.199375,0.0,0.0,0.0,0.0,0.07050000000000001,-5.498166666666667,-5.498166666666667,-0.8065,-0.7655000000000001,-0.05077777777777781,-0.08999999999999986,69.892,-0.03399999999999981,-0.38070000000000004,0.1625000000000001,100.0,1.0,1.0,215.58666666666667,0.0,0.0,0.0,0.0,0.0,0.0,0.0,9137.9,0.0,55.0,5.0,251.59,1.0,0.0,0.0,0.0,0.0,0.0,1.0,0.0,1.754999999999999,1.754999999999999,0.0,0.0,1.0,55.0,616.79921,10000.0,85.000001,85.000001,85.000001,85.000001,395.0,0.0,0.0,0.0,1.0,166.665,46.265,46.265,47.821,47.821,34.0,-27.625,27.131999999999998,-30.8325,25.226,0.0,1781.7357142857143,-0.08000000000000007,100.0,33.106,32.591,43.307,42.603,0.0,0.0,100.0,0.0,0.0,0.0,0.0,3530.75,3692.5,4100.375,3876.6,304.365,303.23633333333333,315.0335,315.3985,22.19457142857143,20.8045,22.3695,21.70711111111111,314.999998,314.999998,324.999988,324.999988,99.5611,99.5092,99.5851,99.555,0.07275000000000009,-0.09066666666666667,-0.14650000000000007,0.08700000000000019,-0.04333333333332945,-0.05333333333332746,1.5779999999999998,1.588,39.716,31.028,40.809,36.669,56.836,37.229,64.8175,55.4705,54.813,36.2335,63.284,53.649,54.022999999999996,35.738,63.2265,52.998,-0.1135,-0.091,0.10890000000000001,0.10923500000000001,0.0,218.75,218.75,215.58666666666667,215.58666666666667,0.0,0.0
36,0.0,0.0,0.0,1.0,1.0,0.0,0.0,1.0,0.0,100.0,1.0,1.1856,26.0,0.0,0.0,0.0,59.999996,0.0,26.0,26.0,26.0,26.0,-0.044875,0.24980000000000002,-0.0041,288.971,-2.6728,-2.572888888888889,-1.5799,-1.5851111111111111,-153.57999999999998,215.995,190.168,0.0,0.0,0.0,0.0,0.07256666666666656,-5.498166666666667,-5.498166666666667,-0.7933,0.526,-0.08333333333333348,-1.46,70.014,-0.022714285714285687,-0.3512,0.22999999999999998,100.0,1.0,1.0,215.7733333333333,0.0,0.0,0.0,0.0,0.0,0.0,0.0,9145.8,0.0,55.0,5.0,252.02666666666664,0.0,0.0,0.0,0.0,0.0,0.0,1.0,0.0,1.806000000000001,1.806000000000001,0.0,0.0,0.0,55.0,616.79921,10000.0,85.000001,85.000001,85.000001,85.000001,395.0,0.0,0.0,0.0,1.0,166.665,45.609,45.609,47.44,47.44,34.0,-29.2975,24.448,-33.4275,30.086,0.0,1781.6842857142858,-0.08499999999999996,100.0,33.552,33.397999999999996,43.206,42.787,0.0,0.0,100.0,0.0,0.0,0.0,0.0,3771.5,3472.6,4445.0,4366.4,303.731,303.76233333333334,314.3875,314.1585,22.204714285714285,20.8112,22.38075,21.716555555555555,314.999998,314.999998,324.999988,324.999988,99.56111428571428,99.50921666666666,99.58525714285715,99.55514285714285,0.08349999999999991,-0.10299999999999998,-0.1392500000000001,0.09025000000000016,-0.05833333333333002,-0.030000000000001137,1.4700000000000002,1.478,39.78,31.07,40.879999999999995,36.729,56.829,37.2775,64.838,55.521,54.807,36.278,63.302,53.698,54.015,35.781,63.2415,53.045500000000004,-0.115,-0.1055,0.103885,0.10617000000000001,0.0,219.195,219.15,215.7733333333333,215.7733333333333,0.0,0.0
