,ABS Active,ABS Enabled,AID Allow Tire Blankets,AID Auto Blip,AID Auto Clutch,AID Auto Shift,AID Fuel Rate,AID Ideal Line,AID Mech Damage,AID Stability,AID Tire Wear Rate,Air Density,Air Temp,Ballast,Best Lap Delta,Best Lap Time,Brake Bias,Brake Pos,Brake Temp FL,Brake Temp FR,Brake Temp RL,Brake Temp RR,CG Accel Lateral,CG Accel Longitudinal,CG Accel Vertical,CG Height,Camber FL,Camber FR,Camber RL,Camber RR,Car Coord X,Car Coord Y,Car Coord Z,Car Damage Front,Car Damage Left,Car Damage Rear,Car Damage Right,Car Pos Norm,Caster FL,Caster FR,Chassis Pitch Angle,Chassis Pitch Rate,Chassis Roll Angle,Chassis Roll Rate,Chassis Velocity X,Chassis Velocity Y,Chassis Velocity Z,Chassis Yaw Rate,Clutch Pos,DRS Active,DRS Available,Drive Train Speed,ERS Heat Charging,ERS Is Charging,ERS Max Energy,ERS Power Level,ERS Recovery Level,Engine Brake Setting,Engine Limiter,Engine RPM,Flags,Fuel Level,Gear,Ground Speed,HR Sample Clock,In Pit,KERS Charge,KERS Deployed Energy,KERS Input,KERS Max Energy,LR Sample Clock,Lap Invalidated,Lap Time,Lap Time2,Last Lap Time,Last Sector Time,MR Sample Clock,Max Fuel,Max Power,Max RPM,Max Sus Travel FL,Max Sus Travel FR,Max Sus Travel RL,Max Sus Travel RR,Max Torque,Max Turbo Boost,Num Tires Off Track,Penalties Enabled,Position,Raw Data Sample Rate,Ride Height FL,Ride Height FR,Ride Height RL,Ride Height RR,Road Temp,Self Align Torque FL,Self Align Torque FR,Self Align Torque RL,Self Align Torque RR,Session Lap Count,Session Time Left,Steering Angle,Surface Grip,Suspension Travel FL,Suspension Travel FR,Suspension Travel RL,Suspension Travel RR,TC Active,TC Enabled,Throttle Pos,Tire Dirt Level FL,Tire Dirt Level FR,Tire Dirt Level RL,Tire Dirt Level RR,Tire Load FL,Tire Load FR,Tire Load RL,Tire Load RR,Tire Loaded Radius FL,Tire Loaded Radius FR,Tire Loaded Radius RL,Tire Loaded Radius RR,Tire Pressure FL,Tire Pressure FR,Tire Pressure RL,Tire Pressure RR,Tire Radius FL,Tire Radius FR,Tire Radius RL,Tire Radius RR,Tire Rubber Grip FL,Tire Rubber Grip FR,Tire Rubber Grip RL,Tire Rubber Grip RR,Tire Slip Angle FL,Tire Slip Angle FR,Tire Slip Angle RL,Tire Slip Angle RR,Tire Slip Ratio FL,Tire Slip Ratio FR,Tire Slip Ratio RL,Tire Slip Ratio RR,Tire Temp Core FL,Tire Temp Core FR,Tire Temp Core RL,Tire Temp Core RR,Tire Temp Inner FL,Tire Temp Inner FR,Tire Temp Inner RL,Tire Temp Inner RR,Tire Temp Middle FL,Tire Temp Middle FR,Tire Temp Middle RL,Tire Temp Middle RR,Tire Temp Outer FL,Tire Temp Outer FR,Tire Temp Outer RL,Tire Temp Outer RR,Toe In FL,Toe In FR,Toe In RL,Toe In RR,Turbo Boost,Wheel Angular Speed FL,Wheel Angular Speed FR,Wheel Angular Speed RL,Wheel Angular Speed RR,Wind Direction,Wind Speed
0,0.0,0.0,0.0,1.0,1.0,0.0,0.0,1.0,0.0,100.0,1.0,1.1856,26.0,0.0,0.0,0.0,59.99999,0.0,26.0,26.0,26.0,26.0,-0.09837499999999999,0.2855000000000001,0.043050000000000005,291.0,-2.6358,-2.393777777777778,-1.5006,-1.52125,-275.63,216.10250000000002,190.984375,0.0,0.0,0.0,0.0,0.0016333333333333332,-5.498166666666667,-5.498166666666667,-0.7090000000000001,1.564,-0.007249999999999979,-0.3085,65.489,-0.039599999999999635,-0.3960666666666667,0.8799999999999999,100.0,1.0,1.0,202.23666666666668,0.0,0.0,0.0,0.0,0.0,0.0,0.0,8572.0,0.0,55.0,5.0,235.73333333333335,0.0,0.0,0.0,0.0,0.0,0.0,0.0,0.0,0.0030000000000001137,0.0030000000000001137,0.0,0.0,0.0,55.0,616.79921,10000.0,85.0,85.0,85.0,85.0,395.0,0.0,0.0,0.0,1.0,20.0,44.754,44.754,50.613,50.613,34.0,-31.2675,25.03,-28.85,24.298000000000002,0.0,1783.414,0.8049999999999997,100.0,33.179,32.752,39.667,39.384,0.0,0.0,100.0,0.0,0.0,0.0,0.0,3690.25,4126.6,4020.222222222222,3957.3,303.513,301.6693333333333,315.16975,315.0495,21.847571428571428,20.6251,22.039857142857144,21.404888888888888,314.99999,314.99999,324.99998,324.99998,99.55968571428572,99.50936666666666,99.58527142857143,99.55188571428572,0.02933333333333321,-0.14066666666666672,-0.15333333333333332,0.06966666666666743,-0.03833333333332689,-0.045000000000001705,1.5795,1.598,37.548,29.907,38.748999999999995,34.781,56.822,36.182,65.804,54.466499999999996,54.854,35.2815,64.31,52.650999999999996,54.156,34.845,64.405,52.0135,-0.0525,-0.167,0.09543,0.10491,0.0,205.245,205.14499999999998,202.23666666666668,202.23666666666668,0.0,0.0
1,0.0,0.0,0.0,1.0,1.0,0.0,0.0,1.0,0.0,100.0,1.0,1.1856,26.0,0.0,0.0,0.0,59.999996,0.0,26.0,26.0,26.0,26.0,-0.13075000000000003,0.2962,-0.0105,290.207,-2.5445,-2.7204444444444444,-1.5288,-1.3595,-272.09,216.125,190.96325,0.0,0.0,0.0,0.0,0.0036666666666666666,-5.498166666666667,-5.498166666666667,-0.6566000000000001,-1.161,-0.058499999999999996,-0.29600000000000004,65.641,-0.05679999999999996,-0.3876,1.2774999999999999,100.0,1.0,1.0,202.30333333333334,0.0,0.0,0.0,0.0,0.0,0.0,0.0,8574.8,0.0,55.0,5.0,236.28333333333333,1.0,0.0,0.0,0.0,0.0,0.0,0.0,0.0,0.05699999999999861,0.05699999999999861,0.0,0.0,1.0,55.0,616.79921,10000.0,85.000001,85.000001,85.000001,85.000001,395.0,0.0,0.0,0.0,1.0,166.665,46.112,46.112,49.591,49.591,34.0,-29.7375,21.0125,-34.805,25.972,0.0,1783.362,0.7999999999999998,100.0,33.494,32.718,41.646,40.855000000000004,0.0,0.0,100.0,0.0,0.0,0.0,0.0,3593.75,3214.6,4317.0,4679.5,303.8256666666667,304.6363333333333,314.3435,313.20025,21.859,20.6317,22.053,21.415333333333333,314.999998,314.999998,324.999988,324.999988,99.55968571428572,99.5094,99.58542857142857,99.55205714285714,0.020999999999999908,-0.15966666666666662,-0.18799999999999972,0.040000000000000036,-0.03833333333332689,-0.045000000000001705,1.3895,1.457,37.617999999999995,29.948,38.831,34.846000000000004,56.813,36.233999999999995,65.8305,54.5265,54.846000000000004,35.329,64.334,52.709,54.146,34.8905,64.4255,52.07,-0.047,-0.17200000000000001,0.11161000000000001,0.11202500000000001,0.0,205.67000000000002,205.54500000000002,202.30333333333334,202.30333333333334,0.0,0.0
2,0.0,0.0,0.0,1.0,1.0,0.0,0.0,1.0,0.0,100.0,1.0,1.1856,26.0,0.0,0.0,0.0,59.999996,0.0,26.0,26.0,26.0,26.0,-0.15149999999999997,0.25080000000000013,-0.08205,291.061,-2.5135,-2.7026666666666666,-1.4835,-1.6260000000000001,-268.93,216.14249999999998,190.945625,0.0,0.0,0.0,0.0,0.005533333333333334,-5.498166666666667,-5.498166666666667,-0.7210000000000001,0.09650000000000003,-0.04800000000000004,2.5275,65.76,-0.07600000000000007,-0.446,1.7575000000000003,100.0,1.0,1.0,203.34,0.0,0.0,0.0,0.0,0.0,0.0,0.0,8618.8,0.0,55.0,5.0,236.71333333333334,0.0,0.0,0.0,0.0,0.0,0.0,0.0,0.0,0.10500000000000043,0.10500000000000043,0.0,0.0,0.0,55.0,616.79921,10000.0,85.000001,85.000001,85.000001,85.000001,395.0,0.0,0.0,0.0,1.0,166.665,44.647,44.647,51.91,51.91,34.0,-34.12,22.42,-27.607499999999998,19.31,0.0,1783.314,0.9450000000000003,100.0,34.349000000000004,32.739,41.396,40.121,0.0,0.0,100.0,0.0,0.0,0.0,0.0,3922.75,3590.8,3572.4444444444443,3480.1,302.7336666666667,303.515,316.17125,316.35325,21.869285714285716,20.6375,22.064285714285713,21.424,314.999998,314.999998,324.999988,324.999988,99.55968571428572,99.50941666666667,99.58555714285714,99.55217142857143,-0.0043333333333333,-0.18300000000000005,-0.2290000000000001,0.02133333333333276,-0.03166666666666629,-0.06499999999999773,1.689,1.756,37.683,29.983999999999998,38.902,34.9,56.809,36.278999999999996,65.845,54.568,54.841,35.3715,64.34700000000001,52.749,54.14,34.9305,64.4355,52.1095,-0.035,-0.185,0.10544500000000001,0.11592000000000001,0.0,206.07,205.91500000000002,203.34,203.34,0.0,0.0
3,0.0,0.0,0.0,1.0,1.0,0.0,0.0,1.0,0.0,100.0,1.0,1.1856,26.0,0.0,0.0,0.0,59.999996,0.0,26.0,26.0,26.0,26.0,-0.16662500000000002,0.28770000000000007,0.09335,290.512,-2.6311999999999998,-2.6154444444444445,-1.4842,-1.572625,-265.77,216.155,190.926875,0.0,0.0,0.0,0.0,0.007366666666666667,-5.498166666666667,-5.498166666666667,-0.6728000000000001,0.5595,-0.019874999999999865,0.09050000000000002,65.894,-0.0985999999999998,-0.38280000000000003,1.645,100.0,1.0,1.0,203.31666666666666,0.0,0.0,0.0,0.0,0.0,0.0,0.0,8617.9,0.0,55.0,5.0,237.19666666666666,1.0,0.0,0.0,0.0,0.0,0.0,0.0,0.0,0.1529999999999987,0.1529999999999987,0.0,0.0,1.0,55.0,616.79921,10000.0,85.000001,85.000001,85.000001,85.000001,395.0,0.0,0.0,0.0,1.0,333.33500000000004,45.609,45.609,49.5,49.5,34.0,-31.7975,19.975,-35.2725,23.064,0.0,1783.266,1.005,100.0,33.978,32.865,41.416,40.141,0.0,0.0,100.0,0.0,0.0,0.0,0.0,3532.125,3461.1,4280.333333333333,4168.8,303.9773333333333,303.827,314.47675,314.598,21.879428571428573,20.6434,22.07557142857143,21.433,314.999998,314.999998,324.999988,324.999988,99.55968571428572,99.50943333333333,99.5857,99.5523,-0.0129999999999999,-0.19599999999999995,-0.22499999999999964,0.0006666666666674814,-0.04333333333332945,-0.05833333333333002,1.4795,1.552,37.745999999999995,30.0215,38.971999999999994,34.956,56.801,36.329,65.8625,54.618,54.833,35.417,64.363,52.7975,54.131,34.974000000000004,64.4485,52.1565,-0.035500000000000004,-0.1815,0.10247500000000001,0.11276000000000001,0.0,206.51,206.38,203.31666666666666,203.31666666666666,0.0,0.0
4,0.0,0.0,0.0,1.0,1.0,0.0,0.0,1.0,0.0,100.0,1.0,1.1856,26.0,0.0,0.0,0.0,59.999996,0.0,26.0,26.0,26.0,26.0,-0.20162499999999994,0.26049999999999995,-0.0393,290.695,-2.558,-2.7176666666666667,-1.4957,-1.603375,-262.21,216.16500000000002,190.906,0.0,0.0,0.0,0.0,0.009433333333333334,-5.498166666666667,-5.498166666666667,-0.7068,-0.8420000000000001,-0.09299999999999997,-0.4365000000000001,66.036,-0.1155999999999997,-0.4278,1.9175,100.0,1.0,1.0,203.91,0.0,0.0,0.0,0.0,0.0,0.0,0.0,8643.0,0.0,55.0,5.0,237.70666666666668,0.0,0.0,0.0,0.0,0.0,0.0,0.0,0.0,0.20700000000000074,0.20700000000000074,0.0,0.0,0.0,55.0,616.79921,10000.0,85.000001,85.000001,85.000001,85.000001,395.0,0.0,0.0,0.0,1.0,166.665,45.197,45.197,50.049,50.049,34.0,-35.0875,20.8875,-33.2325,18.954,0.0,1783.212,1.005,100.0,33.858000000000004,32.605000000000004,42.091,40.281,0.0,0.0,100.0,0.0,0.0,0.0,0.0,3866.0,3528.2,3999.222222222222,3600.4,303.053,303.65166666666664,315.0925,315.9155,21.890714285714285,20.65,22.088428571428572,21.443,314.999998,314.999998,324.999988,324.999988,99.5597,99.50946666666667,99.58584285714285,99.55245714285714,-0.026999999999999913,-0.20866666666666678,-0.242,-0.011333333333332973,-0.02499999999999858,-0.046666666666666856,1.546,1.6420000000000001,37.817,30.0625,39.053,35.019,56.793,36.382999999999996,65.886,54.670500000000004,54.825,35.467,64.384,52.848,54.120999999999995,35.022,64.466,52.206,-0.0315,-0.188,0.10097,0.10920500000000001,0.0,206.885,206.75,203.91,203.91,0.0,0.0
5,0.0,0.0,0.0,1.0,1.0,0.0,0.0,1.0,0.0,100.0,1.0,1.1856,26.0,0.0,0.0,0.0,59.999996,0.0,26.0,26.0,26.0,26.0,-0.208125,0.2963,-0.03475,290.787,-2.5612,-2.6943333333333332,-1.4777,-1.59175,-259.04,216.17000000000002,190.886875,0.0,0.0,0.0,0.0,0.011266666666666668,-5.498166666666667,-5.498166666666667,-0.7025,0.38349999999999995,-0.10062499999999996,0.871,66.164,-0.1339999999999999,-0.4051666666666667,1.88,100.0,1.0,1.0,204.28,0.0,0.0,0.0,0.0,0.0,0.0,0.0,8658.6,0.0,55.0,5.0,238.16333333333333,1.0,0.0,0.0,0.0,0.0,0.0,0.0,0.0,0.254999999999999,0.254999999999999,0.0,0.0,1.0,55.0,616.79921,10000.0,85.000001,85.000001,85.000001,85.000001,395.0,0.0,0.0,0.0,1.0,166.665,45.563,45.563,50.415,50.415,34.0,-34.06,19.8425,-34.317499999999995,19.56,0.0,1783.164,0.7850000000000001,100.0,34.113,32.477000000000004,41.829,39.846000000000004,0.0,0.0,100.0,0.0,0.0,0.0,0.0,3745.625,3392.2,4046.5555555555557,3941.6000000000004,303.365,304.10066666666665,315.0985,315.15975,21.901,20.6558,22.099714285714285,21.451777777777778,314.999998,314.999998,324.999988,324.999988,99.55971428571429,99.5095,99.58598571428571,99.55258571428571,-0.028999999999999915,-0.20533333333333315,-0.26400000000000023,-0.03866666666666685,-0.01999999999999602,-0.045000000000001705,1.5474999999999999,1.6360000000000001,37.881,30.0985,39.123000000000005,35.073,56.788,36.431,65.904,54.715,54.82,35.510999999999996,64.4,52.8905,54.114999999999995,35.064,64.4795,52.248,-0.051000000000000004,-0.163,0.09732500000000001,0.10937000000000001,0.0,207.31,207.17000000000002,204.28,204.28,0.0,0.0
6,0.0,0.0,0.0,1.0,1.0,0.0,0.0,1.0,0.0,100.0,1.0,1.1856,26.0,0.0,0.0,0.0,59.999996,0.0,26.0,26.0,26.0,26.0,-0.21075,0.27290000000000014,0.0017000000000000001,290.527,-2.5132,-2.695333333333333,-1.5057,-1.6015,-255.86,216.17000000000002,190.8675,0.0,0.0,0.0,0.0,0.013133333333333335,-5.498166666666667,-5.498166666666667,-0.6970000000000001,0.09250000000000003,-0.09825000000000017,0.7215,66.28999999999999,-0.13859999999999983,-0.40340000000000004,1.6475,100.0,1.0,1.0,204.63666666666666,0.0,0.0,0.0,0.0,0.0,0.0,0.0,8673.8,0.0,55.0,5.0,238.62333333333333,0.0,0.0,0.0,0.0,0.0,0.0,0.0,0.0,0.3030000000000008,0.3030000000000008,0.0,0.0,0.0,55.0,616.79921,10000.0,85.000001,85.000001,85.000001,85.000001,395.0,0.0,0.0,0.0,1.0,166.665,45.227000000000004,45.227000000000004,50.079,50.079,34.0,-34.1825,20.884999999999998,-35.5175,19.736,0.0,1783.116,0.40500000000000025,100.0,34.143,32.52,42.002,40.031,0.0,0.0,100.0,0.0,0.0,0.0,0.0,3799.0,3510.1,4081.222222222222,3906.5,303.1596666666667,303.727,314.985,315.24425,21.911142857142856,20.6616,22.111,21.46066666666667,314.999998,314.999998,324.999988,324.999988,99.55971428571429,99.50951666666667,99.58611428571429,99.55271428571429,-0.02966666666666673,-0.20100000000000007,-0.27200000000000024,-0.03466666666666729,-0.03499999999999659,-0.061666666666667425,1.538,1.619,37.945,30.134999999999998,39.194,35.129000000000005,56.783,36.480000000000004,65.924,54.7625,54.815,35.5555,64.419,52.9365,54.108000000000004,35.1065,64.4945,52.292500000000004,-0.0665,-0.1505,0.11206,0.111865,0.0,207.72500000000002,207.57,204.63666666666666,204.63666666666666,0.0,0.0
7,0.0,0.0,0.0,1.0,1.0,0.0,0.0,1.0,0.0,100.0,1.0,1.1856,26.0,0.0,0.0,0.0,59.999996,0.0,26.0,26.0,26.0,26.0,-0.17512499999999998,0.27170000000000005,0.02475,290.253,-2.4858000000000002,-2.680777777777778,-1.4664000000000001,-1.641875,-252.47,216.16500000000002,190.847,0.0,0.0,0.0,0.0,0.0151,-5.498166666666667,-5.498166666666667,-0.7036,-0.09749999999999992,-0.08887500000000026,-0.14549999999999996,66.424,-0.13240000000000007,-0.41800000000000004,1.35,100.0,1.0,1.0,205.01666666666665,0.0,0.0,0.0,0.0,0.0,0.0,0.0,8690.0,0.0,55.0,5.0,239.10333333333335,1.0,0.0,0.0,0.0,0.0,0.0,0.0,0.0,0.3539999999999992,0.3539999999999992,0.0,0.0,1.0,55.0,616.79921,10000.0,85.000001,85.000001,85.000001,85.000001,395.0,0.0,0.0,0.0,1.0,333.33500000000004,44.754,44.754,50.217,50.217,34.0,-33.835,21.5925,-33.865,20.874,0.0,1783.064,0.15000000000000036,100.0,34.259,32.785,42.03,40.332,0.0,0.0,100.0,0.0,0.0,0.0,0.0,3978.625,3495.9,4046.4444444444443,3892.5,302.7556666666667,303.59566666666666,315.08525,315.131,21.922,20.6679,22.123142857142856,21.470222222222223,314.999998,314.999998,324.999988,324.999988,99.55971428571429,99.50955,99.58627142857142,99.55284285714286,0.0009999999999998899,-0.18566666666666665,-0.2549999999999999,-0.0259999999999998,-0.06333333333333258,-0.026666666666670835,1.531,1.588,38.013,30.174,39.269,35.189,56.778,36.53,65.945,54.813,54.809,35.602000000000004,64.437,52.985,54.101,35.1505,64.51,52.34,-0.108,-0.12,0.09491500000000001,0.11505000000000001,0.0,208.125,207.995,205.01666666666665,205.01666666666665,0.0,0.0
8,0.0,0.0,0.0,1.0,1.0,0.0,0.0,1.0,0.0,100.0,1.0,1.1856,26.0,0.0,0.0,0.0,59.999996,0.0,26.0,26.0,26.0,26.0,-0.13437500000000002,0.27770000000000006,0.017650000000000002,290.466,-2.5615,-2.674666666666667,-1.4466,-1.598375,-249.07999999999998,216.1575,190.8265,0.0,0.0,0.0,0.0,0.017066666666666667,-5.498166666666667,-5.498166666666667,-0.7050000000000001,-0.5170000000000001,-0.07362499999999983,0.771,66.55799999999999,-0.11339999999999995,-0.4105666666666667,0.7050000000000001,100.0,1.0,1.0,205.37,0.0,0.0,0.0,0.0,0.0,0.0,0.0,8704.9,0.0,55.0,5.0,239.58666666666667,0.0,0.0,0.0,0.0,0.0,0.0,0.0,0.0,0.40500000000000114,0.40500000000000114,0.0,0.0,0.0,55.0,616.79921,10000.0,85.000001,85.000001,85.000001,85.000001,395.0,0.0,0.0,0.0,1.0,333.33500000000004,45.578,45.578,49.5,49.5,34.0,-30.355,22.5325,-32.8775,22.982,0.0,1783.012,0.0,100.0,34.004,32.649,42.159,40.336,0.0,0.0,100.0,0.0,0.0,0.0,0.0,3619.375,3520.4,4088.777777777778,4030.6000000000004,303.80066666666664,303.71,314.88,314.8645,21.932714285714287,20.6741,22.135142857142856,21.479777777777777,314.999998,314.999998,324.999988,324.999988,99.55971428571429,99.50956666666667,99.58641428571428,99.55298571428571,0.0173333333333332,-0.16599999999999993,-0.22633333333333283,0.009000000000000341,-0.03499999999999659,-0.04999999999999716,1.5215,1.565,38.079,30.2135,39.344,35.248000000000005,56.769999999999996,36.58,65.965,54.863,54.801,35.6475,64.456,53.033500000000004,54.092,35.194,64.525,52.387,-0.114,-0.1115,0.10321500000000002,0.11170500000000001,0.0,208.49,208.435,205.37,205.37,0.0,0.0
9,0.0,0.0,0.0,1.0,1.0,0.0,0.0,1.0,0.0,100.0,1.0,1.1856,26.0,0.0,0.0,0.0,59.999996,0.0,26.0,26.0,26.0,26.0,-0.12162499999999998,0.2553000000000001,0.02935,290.146,-2.5514,-2.676,-1.504,-1.5755000000000001,-245.89,216.14499999999998,190.806625,0.0,0.0,0.0,0.0,0.018933333333333337,-5.498166666666667,-5.498166666666667,-0.7120000000000001,0.5760000000000001,-0.07237500000000008,0.9165,66.681,-0.09660000000000002,-0.4131,0.6025,100.0,1.0,1.0,205.88,0.0,0.0,0.0,0.0,0.0,0.0,0.0,8726.5,0.0,55.0,5.0,240.02666666666667,1.0,0.0,0.0,0.0,0.0,0.0,0.0,0.0,0.4529999999999994,0.4529999999999994,0.0,0.0,1.0,55.0,616.79921,10000.0,85.000001,85.000001,85.000001,85.000001,395.0,0.0,0.0,0.0,1.0,333.33500000000004,44.312,44.312,50.507,50.507,34.0,-32.114999999999995,24.884999999999998,-30.6625,22.578,0.0,1782.964,-0.2799999999999998,100.0,34.504,33.108000000000004,41.853,40.370000000000005,0.0,0.0,100.0,0.0,0.0,0.0,0.0,3973.0,3626.5,3904.5555555555557,3944.8,302.708,303.3206666666667,315.44925,315.159,21.942857142857143,20.6802,22.146285714285714,21.488666666666667,314.999998,314.999998,324.999988,324.999988,99.55972857142856,99.50958333333334,99.58654285714286,99.55312857142857,0.04600000000000026,-0.1379999999999999,-0.2116666666666669,0.02400000000000002,-0.03833333333332689,-0.05666666666667197,1.581,1.613,38.143,30.250999999999998,39.414,35.304,56.765,36.626999999999995,65.9805,54.908500000000004,54.796,35.691,64.47,53.0775,54.086,35.2355,64.536,52.43,-0.131,-0.089,0.10640000000000001,0.10552500000000001,0.0,208.89,208.84,205.88,205.88,0.0,0.0
10,0.0,0.0,0.0,1.0,1.0,0.0,0.0,1.0,0.0,100.0,1.0,1.1856,26.0,0.0,0.0,0.0,59.999996,0.0,26.0,26.0,26.0,26.0,-0.08337499999999998,0.2744,-0.0014,289.886,-2.5302,-2.6515555555555554,-1.4861,-1.55525,-242.48,216.13,190.785875,0.0,0.0,0.0,0.0,0.020900000000000002,-5.498166666666667,-5.498166666666667,-0.6884,-0.39050000000000007,-0.03374999999999995,0.3335,66.816,-0.06899999999999995,-0.4039666666666667,0.08749999999999991,100.0,1.0,1.0,206.07333333333332,0.0,0.0,0.0,0.0,0.0,0.0,0.0,8734.6,0.0,55.0,5.0,240.51333333333332,0.0,0.0,0.0,0.0,0.0,0.0,1.0,0.0,0.5040000000000013,0.5040000000000013,0.0,0.0,0.0,55.0,616.79921,10000.0,85.000001,85.000001,85.000001,85.000001,395.0,0.0,0.0,0.0,1.0,166.665,45.242,45.242,48.92,48.92,34.0,-27.5925,23.2325,-33.22,25.244,0.0,1782.914,-0.33000000000000007,100.0,34.314,33.346000000000004,42.189,41.275,0.0,0.0,100.0,0.0,0.0,0.0,0.0,3603.375,3395.3,4288.777777777777,4127.5,303.92333333333335,303.89233333333334,314.499,314.57525,21.95357142857143,20.6865,22.158285714285714,21.498333333333335,314.999998,314.999998,324.999988,324.999988,99.55974285714285,99.5096,99.5867,99.55325714285715,0.06000000000000005,-0.1323333333333332,-0.18599999999999994,0.04400000000000048,-0.041666666666671404,-0.03999999999999915,1.503,1.493,38.21,30.291,39.489000000000004,35.364999999999995,56.76,36.674,66.0015,54.962,54.792,35.7345,64.489,53.1285,54.079,35.277,64.5515,52.480000000000004,-0.1445,-0.0825,0.10237500000000001,0.111905,0.0,209.26999999999998,209.265,206.07333333333332,206.07333333333332,0.0,0.0
11,0.0,0.0,0.0,1.0,1.0,0.0,0.0,1.0,0.0,100.0,1.0,1.1856,26.0,0.0,0.0,0.0,59.999996,0.0,26.0,26.0,26.0,26.0,-0.04212499999999997,0.2538,-0.0712,290.421,-2.581,-2.6043333333333334,-1.5471,-1.538,-239.07,216.1125,190.765125,0.0,0.0,0.0,0.0,0.022600000000000002,-5.498166666666667,-5.498166666666667,-0.7316,-0.21799999999999997,0.0006249999999998757,0.6125,66.943,-0.039599999999999635,-0.4366333333333333,-0.13250000000000006,100.0,1.0,1.0,206.78,0.0,0.0,0.0,0.0,0.0,0.0,0.0,8764.6,0.0,55.0,5.0,240.97333333333336,1.0,0.0,0.0,0.0,0.0,0.0,1.0,0.0,0.5549999999999997,0.5549999999999997,0.0,0.0,1.0,55.0,616.79921,10000.0,85.000001,85.000001,85.000001,85.000001,395.0,0.0,0.0,0.0,1.0,166.665,44.601,44.601,50.583,50.583,34.0,-27.697499999999998,27.0725,-25.63,23.75,0.0,1782.866,-0.33999999999999986,100.0,34.148,33.476,41.769999999999996,41.144999999999996,0.0,0.0,100.0,0.0,0.0,0.0,0.0,3692.25,3733.0,3616.8888888888887,3781.4,303.5493333333333,302.99966666666666,316.16425,315.5235,21.964142857142857,20.693,22.170142857142856,21.50788888888889,314.999998,314.999998,324.999988,324.999988,99.55974285714285,99.50963333333333,99.58682857142857,99.5534,0.0863333333333336,-0.09766666666666679,-0.152333333333333,0.08466666666666711,-0.036666666666668846,-0.061666666666667425,1.649,1.6460000000000001,38.275,30.3315,39.563,35.424,56.754999999999995,36.722,66.016,55.0105,54.785,35.778999999999996,64.501,53.176,54.072,35.3195,64.5605,52.5265,-0.1405,-0.083,0.10745500000000001,0.10491500000000001,0.0,209.63,209.66500000000002,206.78,206.78,0.0,0.0
12,0.0,0.0,0.0,1.0,1.0,0.0,0.0,1.0,0.0,100.0,1.0,1.1856,26.0,0.0,0.0,0.0,59.999996,0.0,26.0,26.0,26.0,26.0,-0.01474999999999993,0.2639,0.015700000000000002,289.963,-2.6362,-2.5954444444444444,-1.5127000000000002,-1.53725,-235.85,216.095,190.7445,0.0,0.0,0.0,0.0,0.025466666666666665,-5.498166666666667,-5.498166666666667,-0.7174,0.25049999999999994,-0.010625000000000107,0.6445000000000001,67.068,-0.016999999999999904,-0.4066666666666667,-0.28749999999999987,100.0,1.0,1.0,206.94,0.0,0.0,0.0,0.0,0.0,0.0,0.0,8771.4,0.0,55.0,5.0,241.42333333333335,0.0,0.0,0.0,0.0,0.0,0.0,1.0,0.0,0.602999999999998,0.602999999999998,0.0,0.0,0.0,55.0,616.79921,10000.0,85.000001,85.000001,85.000001,85.000001,395.0,0.0,0.0,0.0,1.0,333.33500000000004,44.678,44.678,49.301,49.301,34.0,-27.2425,27.905,-28.2425,28.268,0.0,1782.814,-0.5249999999999999,100.0,33.975,33.597,41.616,41.022999999999996,0.0,0.0,100.0,0.0,0.0,0.0,0.0,3696.75,3741.5,4099.888888888889,4108.7,303.571,303.0063333333333,314.9555,314.75675,21.974,20.6992,22.181285714285714,21.51688888888889,314.999998,314.999998,324.999988,324.999988,99.55975714285714,99.50963333333333,99.58697142857143,99.55352857142857,0.1070000000000002,-0.08099999999999996,-0.11966666666666725,0.11533333333333307,-0.03166666666666629,-0.06666666666666998,1.554,1.526,38.337,30.369999999999997,39.632999999999996,35.480000000000004,56.751000000000005,36.766999999999996,66.032,55.058,54.782,35.82,64.51599999999999,53.2215,54.066,35.3585,64.572,52.571,-0.1475,-0.0835,0.10978,0.110835,0.0,210.05,210.09,206.94,206.94,0.0,0.0
13,0.0,0.0,0.0,1.0,1.0,0.0,0.0,1.0,0.0,100.0,1.0,1.1856,26.0,0.0,0.0,0.0,59.999996,0.0,26.0,26.0,26.0,26.0,0.015374999999999917,0.2623,0.025500000000000002,289.536,-2.6243,-2.5893333333333333,-1.5897000000000001,-1.515875,-232.43,216.0775,190.72275,0.0,0.0,0.0,0.0,0.02673333333333333,-5.498166666666667,-5.498166666666667,-0.7114,-0.050000000000000044,-0.0030000000000001137,-0.45100000000000007,67.199,-0.0018000000000002458,-0.4138666666666667,-0.4624999999999999,100.0,1.0,1.0,207.29666666666668,0.0,0.0,0.0,0.0,0.0,0.0,0.0,8786.5,0.0,55.0,5.0,241.89333333333335,1.0,0.0,0.0,0.0,0.0,0.0,1.0,0.0,0.6539999999999999,0.6539999999999999,0.0,0.0,1.0,55.0,616.79921,10000.0,85.000001,85.000001,85.000001,85.000001,395.0,0.0,0.0,0.0,1.0,333.33500000000004,44.266,44.266,49.316,49.316,34.0,-27.2125,28.32,-29.66,28.894000000000002,0.0,1782.764,-0.6200000000000001,100.0,34.17,34.051,41.686,41.675,0.0,0.0,100.0,0.0,0.0,0.0,0.0,3821.875,3651.3,4131.333333333333,4169.4,303.35,303.0896666666667,314.96325,314.50525,21.984571428571428,20.7058,22.193142857142856,21.526555555555554,314.999998,314.999998,324.999988,324.999988,99.55977142857142,99.50965,99.58711428571428,99.55368571428572,0.1206666666666667,-0.06133333333333324,-0.12166666666666703,0.11933333333333351,-0.046666666666666856,-0.041666666666671404,1.5294999999999999,1.51,38.403,30.4115,39.707,35.541,56.75,36.813,66.0495,55.1105,54.78,35.8625,64.531,53.2725,54.063,35.3995,64.584,52.621,-0.1655,-0.06,0.108185,0.11226000000000001,0.0,210.445,210.48000000000002,207.29666666666668,207.29666666666668,0.0,0.0
14,0.0,0.0,0.0,1.0,1.0,0.0,0.0,1.0,0.0,100.0,1.0,1.1856,26.0,0.0,0.0,0.0,59.999996,0.0,26.0,26.0,26.0,26.0,0.026874999999999982,0.26350000000000007,-0.008150000000000001,289.673,-2.6208,-2.5514444444444444,-1.5966,-1.50125,-229.0,216.06,190.7015,0.0,0.0,0.0,0.0,0.028733333333333333,-5.498166666666667,-5.498166666666667,-0.7220000000000001,-0.16949999999999998,0.028999999999999915,1.3980000000000001,67.327,0.018800000000000594,-0.4298,-0.7050000000000001,100.0,1.0,1.0,207.76333333333332,0.0,0.0,0.0,0.0,0.0,0.0,0.0,8806.3,0.0,55.0,5.0,242.35666666666668,0.0,0.0,0.0,0.0,0.0,0.0,1.0,0.0,0.7049999999999983,0.7049999999999983,0.0,0.0,0.0,55.0,616.79921,10000.0,85.000001,85.000001,85.000001,85.000001,395.0,0.0,0.0,0.0,1.0,333.33500000000004,44.25,44.25,49.469,49.469,34.0,-24.71,29.7275,-25.945,29.68,0.0,1782.712,-0.54,100.0,34.312,34.038,41.759,41.855000000000004,0.0,0.0,100.0,0.0,0.0,0.0,0.0,3620.375,3832.3,3906.777777777778,4112.5,303.75466666666665,302.73133333333334,315.427,314.7405,21.995,20.7125,22.205,21.53622222222222,314.999998,314.999998,324.999988,324.999988,99.5598,99.50966666666666,99.58725714285714,99.55382857142857,0.14000000000000012,-0.05266666666666664,-0.08399999999999963,0.15433333333333277,-0.03833333333332689,-0.041666666666671404,1.57,1.558,38.469,30.453,39.782,35.602000000000004,56.75,36.858000000000004,66.065,55.163,54.778999999999996,35.903999999999996,64.545,53.323,54.06,35.439499999999995,64.594,52.670500000000004,-0.1595,-0.07150000000000001,0.108505,0.10694500000000001,0.0,210.835,210.85000000000002,207.76333333333332,207.76333333333332,0.0,0.0
15,0.0,0.0,0.0,1.0,1.0,0.0,0.0,1.0,0.0,100.0,1.0,1.1856,26.0,0.0,0.0,0.0,59.999996,0.0,26.0,26.0,26.0,26.0,0.04574999999999996,0.25860000000000016,0.00645,289.688,-2.5968999999999998,-2.505,-1.5962,-1.463875,-225.76,216.04500000000002,190.68125,0.0,0.0,0.0,0.0,0.030600000000000002,-5.498166666666667,-5.498166666666667,-0.7154,0.30399999999999994,0.060124999999999984,1.195,67.44800000000001,0.03559999999999963,-0.4155333333333333,-0.6425000000000001,100.0,1.0,1.0,208.13333333333333,0.0,0.0,0.0,0.0,0.0,0.0,0.0,8822.0,0.0,55.0,5.0,242.79000000000002,1.0,0.0,0.0,0.0,0.0,0.0,1.0,0.0,0.7530000000000001,0.7530000000000001,0.0,0.0,1.0,55.0,616.79921,10000.0,85.000001,85.000001,85.000001,85.000001,395.0,0.0,0.0,0.0,1.0,333.33500000000004,44.327,44.327,49.606,49.606,34.0,-23.6175,29.32,-24.8675,30.682000000000002,0.0,1782.664,-0.2749999999999999,100.0,34.393,34.167,41.502,41.948,0.0,0.0,100.0,0.0,0.0,0.0,0.0,3498.75,3807.0,3863.8888888888887,4244.4,304.08366666666666,302.79966666666667,315.54225,314.458,22.005,20.7188,22.216142857142856,21.545333333333332,314.999998,314.999998,324.999988,324.999988,99.55981428571428,99.50966666666666,99.58738571428572,99.55395714285714,0.13833333333333364,-0.046333333333333115,-0.07033333333333314,0.16100000000000048,-0.045000000000001705,-0.05333333333332746,1.585,1.542,38.531,30.491999999999997,39.851,35.659,56.748999999999995,36.900999999999996,66.0785,55.2115,54.778,35.944,64.557,53.3705,54.057,35.4775,64.60249999999999,52.717,-0.135,-0.0885,0.10684,0.10611500000000001,0.0,211.22500000000002,211.26,208.13333333333333,208.13333333333333,0.0,0.0
16,0.0,0.0,0.0,1.0,1.0,0.0,0.0,1.0,0.0,100.0,1.0,1.1856,26.0,0.0,0.0,0.0,59.999996,0.0,26.0,26.0,26.0,26.0,0.05225000000000013,0.25690000000000013,-0.04635,289.749,-2.6476,-2.5389999999999997,-1.5644,-1.49425,-222.32,216.03,190.65925,0.0,0.0,0.0,0.0,0.032600000000000004,-5.498166666666667,-5.498166666666667,-0.7345,-0.7090000000000001,0.041124999999999856,-1.0775000000000001,67.577,0.04100000000000037,-0.4297333333333333,-0.33000000000000007,100.0,1.0,1.0,208.5233333333333,0.0,0.0,0.0,0.0,0.0,0.0,0.0,8838.5,0.0,55.0,5.0,243.25333333333333,0.0,0.0,0.0,0.0,0.0,0.0,1.0,0.0,0.8039999999999985,0.8039999999999985,0.0,0.0,0.0,55.0,616.79921,10000.0,85.000001,85.000001,85.000001,85.000001,395.0,0.0,0.0,0.0,1.0,333.33500000000004,44.403,44.403,49.179,49.179,34.0,-25.945,28.6375,-25.294999999999998,28.915999999999997,0.0,1782.614,-0.08999999999999986,100.0,33.848,34.381,41.735,42.143,0.0,0.0,100.0,0.0,0.0,0.0,0.0,3656.25,3745.0,3910.4444444444443,3985.0,303.89233333333334,302.80833333333334,315.474,315.0,22.015142857142855,20.7255,22.228,21.555,314.999998,314.999998,324.999988,324.999988,99.55982857142857,99.50966666666666,99.58752857142858,99.5541,0.12333333333333352,-0.06033333333333313,-0.08066666666666666,0.16133333333333333,-0.03499999999999659,-0.02833333333332888,1.577,1.554,38.594,30.534,39.925,35.719,56.744,36.947,66.0955,55.263,54.772999999999996,35.9865,64.572,53.42,54.051,35.5185,64.614,52.766,-0.125,-0.1005,0.10910500000000001,0.107355,0.0,211.585,211.595,208.5233333333333,208.5233333333333,0.0,0.0
17,0.0,0.0,0.0,1.0,1.0,0.0,0.0,1.0,0.0,100.0,1.0,1.1856,26.0,0.0,0.0,0.0,59.999996,0.0,26.0,26.0,26.0,26.0,0.024124999999999952,0.2579,-0.052750000000000005,289.444,-2.638,-2.508111111111111,-1.5951,-1.493625,-218.87,216.015,190.63675,0.0,0.0,0.0,0.0,0.034633333333333335,-5.498166666666667,-5.498166666666667,-0.7262000000000001,0.5429999999999999,0.013374999999999915,0.587,67.70400000000001,0.034399999999999764,-0.41283333333333333,-0.17249999999999988,100.0,1.0,1.0,208.9,0.0,0.0,0.0,0.0,0.0,0.0,0.0,8854.5,0.0,55.0,5.0,243.71,1.0,0.0,0.0,0.0,0.0,0.0,1.0,0.0,0.8550000000000004,0.8550000000000004,0.0,0.0,1.0,55.0,616.79921,10000.0,85.000001,85.000001,85.000001,85.000001,395.0,0.0,0.0,0.0,1.0,333.33500000000004,44.067,44.067,49.316,49.316,34.0,-25.525,27.7775,-27.4,30.21,0.0,1782.564,-0.06499999999999995,100.0,34.587,34.499,41.58,41.937,0.0,0.0,100.0,0.0,0.0,0.0,0.0,3682.0,3692.6,4120.444444444444,4142.9,303.639,303.181,315.02225,314.74775,22.02557142857143,20.7323,22.239714285714285,21.564666666666668,314.999998,314.999998,324.999988,324.999988,99.55985714285714,99.50968333333333,99.58767142857143,99.55424285714285,0.13666666666666671,-0.05666666666666664,-0.08000000000000007,0.1633333333333331,-0.03833333333332689,-0.04999999999999716,1.552,1.554,38.66,30.576999999999998,39.998000000000005,35.778999999999996,56.744,36.994,66.1095,55.3135,54.772,36.0305,64.584,53.469,54.048,35.5605,64.623,52.814,-0.124,-0.1055,0.10434500000000001,0.11446,0.0,212.025,212.05,208.9,208.9,0.0,0.0
18,0.0,0.0,0.0,1.0,1.0,0.0,0.0,1.0,0.0,100.0,1.0,1.1856,26.0,0.0,0.0,0.0,59.999996,0.0,26.0,26.0,26.0,26.0,-0.009000000000000008,0.2329000000000001,-0.03615,289.444,-2.6636,-2.487888888888889,-1.6041,-1.44475,-215.62,216.0025,190.61575,0.0,0.0,0.0,0.0,0.036500000000000005,-5.498166666666667,-5.498166666666667,-0.7356,-0.5915000000000001,0.030124999999999957,0.96,67.82300000000001,0.025599999999999845,-0.4301666666666667,-0.020000000000000018,100.0,1.0,1.0,209.26333333333332,0.0,0.0,0.0,0.0,0.0,0.0,0.0,8869.9,0.0,55.0,5.0,244.14333333333335,0.0,0.0,0.0,0.0,0.0,0.0,1.0,0.0,0.9029999999999987,0.9029999999999987,0.0,0.0,0.0,55.0,616.79921,10000.0,85.000001,85.000001,85.000001,85.000001,395.0,0.0,0.0,0.0,1.0,166.665,44.037,44.037,49.164,49.164,34.0,-26.634999999999998,28.515,-26.482499999999998,27.646,0.0,1782.516,-0.08499999999999996,100.0,34.378,34.261,42.005,42.269999999999996,0.0,0.0,100.0,0.0,0.0,0.0,0.0,3683.25,3877.2,3935.4444444444443,4033.5,303.708,302.71633333333335,315.3975,314.9705,22.035285714285713,20.738599999999998,22.251,21.573888888888888,314.999998,314.999998,324.999988,324.999988,99.55987142857143,99.50968333333333,99.5878,99.55438571428571,0.1206666666666667,-0.06600000000000006,-0.08766666666666723,0.1429999999999998,-0.01999999999999602,-0.04833333333333201,1.5545,1.561,38.721000000000004,30.616,40.069,35.837,56.742000000000004,37.038,66.126,55.363,54.769999999999996,36.070499999999996,64.598,53.516999999999996,54.044,35.5985,64.634,52.861000000000004,-0.1225,-0.109,0.10737500000000001,0.11170000000000001,0.0,212.36,212.38,209.26333333333332,209.26333333333332,0.0,0.0
19,0.0,0.0,0.0,1.0,1.0,0.0,0.0,1.0,0.0,100.0,1.0,1.1856,26.0,0.0,0.0,0.0,59.999996,0.0,26.0,26.0,26.0,26.0,-0.00187499999999996,0.26039999999999996,0.017750000000000002,288.94,-2.6262,-2.484888888888889,-1.6085,-1.439,-212.16,215.99,190.59325,0.0,0.0,0.0,0.0,0.038533333333333336,-5.498166666666667,-5.498166666666667,-0.7294,0.8285,0.023749999999999938,-0.6540000000000001,67.94800000000001,0.01980000000000004,-0.42000000000000004,0.04999999999999982,100.0,1.0,1.0,209.65333333333334,0.0,0.0,0.0,0.0,0.0,0.0,0.0,8886.4,0.0,55.0,5.0,244.59,1.0,0.0,0.0,0.0,0.0,0.0,1.0,0.0,0.9540000000000006,0.9540000000000006,0.0,0.0,1.0,55.0,616.79921,10000.0,85.000001,85.000001,85.000001,85.000001,395.0,0.0,0.0,0.0,1.0,166.665,43.198,43.198,49.103,49.103,34.0,-28.21,27.5975,-29.03,27.676000000000002,0.0,1782.464,-0.06499999999999995,100.0,34.888,34.885,41.723,42.179,0.0,0.0,100.0,0.0,0.0,0.0,0.0,3902.25,3810.5,4138.888888888889,4157.3,303.105,302.616,315.038,314.68675,22.046,20.7455,22.262714285714285,21.583444444444446,314.999998,314.999998,324.999988,324.999988,99.55988571428571,99.5097,99.58794285714286,99.55452857142858,0.1163333333333334,-0.07800000000000007,-0.1076666666666668,0.12533333333333285,-0.04333333333332945,-0.03499999999999659,1.563,1.563,38.787,30.659,40.141999999999996,35.897,56.742999999999995,37.086,66.14,55.413,54.769999999999996,36.1155,64.611,53.566,54.042,35.641999999999996,64.6425,52.909,-0.1265,-0.114,0.11135,0.10289500000000001,0.0,212.81,212.8,209.65333333333334,209.65333333333334,0.0,0.0
20,0.0,0.0,0.0,1.0,1.0,0.0,0.0,1.0,0.0,100.0,1.0,1.1856,26.0,0.0,0.0,0.0,59.999996,0.0,26.0,26.0,26.0,26.0,-0.0006249999999999867,0.26160000000000005,0.028650000000000002,289.078,-2.6638,-2.557777777777778,-1.5317,-1.453125,-208.69,215.975,190.570875,0.0,0.0,0.0,0.0,0.04053333333333333,-5.498166666666667,-5.498166666666667,-0.73,-1.1360000000000001,0.02200000000000002,0.45499999999999996,68.077,0.016799999999999926,-0.4295666666666667,-0.08000000000000007,100.0,1.0,1.0,209.9,0.0,0.0,0.0,0.0,0.0,0.0,0.0,8896.9,0.0,55.0,5.0,245.05666666666667,0.0,0.0,0.0,0.0,0.0,0.0,0.0,0.0,1.004999999999999,1.004999999999999,0.0,0.0,0.0,55.0,616.79921,10000.0,85.000001,85.000001,85.000001,85.000001,395.0,0.0,0.0,0.0,1.0,166.665,44.312,44.312,48.096000000000004,48.096000000000004,34.0,-25.68,28.1225,-28.005,29.304000000000002,0.0,1782.414,-0.015000000000000124,100.0,34.505,34.457,42.536,42.525999999999996,0.0,0.0,100.0,0.0,0.0,0.0,0.0,3545.625,3759.0,4121.333333333333,4258.9,304.15166666666664,302.9923333333333,314.837,314.39275,22.056142857142856,20.7522,22.274714285714285,21.593222222222224,314.999998,314.999998,324.999988,324.999988,99.5599,99.50971666666666,99.58808571428571,99.55467142857142,0.1163333333333334,-0.07166666666666677,-0.09766666666666701,0.12966666666666704,-0.03833333333332689,-0.04833333333333201,1.4825,1.489,38.851,30.701,40.217,35.958,56.739000000000004,37.132999999999996,66.15899999999999,55.466499999999996,54.765,36.159,64.628,53.6175,54.036,35.6835,64.6565,52.9595,-0.115,-0.113,0.10783000000000001,0.10392000000000001,0.0,213.14,213.14499999999998,209.9,209.9,0.0,0.0
21,0.0,0.0,0.0,1.0,1.0,0.0,0.0,1.0,0.0,100.0,1.0,1.1856,26.0,0.0,0.0,0.0,59.999996,0.0,26.0,26.0,26.0,26.0,0.016250000000000098,0.25450000000000017,-0.06605,289.459,-2.5721,-2.615333333333333,-1.5916000000000001,-1.5285,-205.20999999999998,215.9625,190.548,0.0,0.0,0.0,0.0,0.04256666666666667,-5.498166666666667,-5.498166666666667,-0.7565000000000001,0.5325,-0.0024999999999999467,-0.9375,68.197,0.007600000000000051,-0.4356666666666667,0.18500000000000005,100.0,1.0,1.0,210.54000000000002,0.0,0.0,0.0,0.0,0.0,0.0,0.0,8924.0,0.0,55.0,5.0,245.48666666666668,1.0,0.0,0.0,0.0,0.0,0.0,0.0,0.0,1.056000000000001,1.056000000000001,0.0,0.0,1.0,55.0,616.79921,10000.0,85.000001,85.000001,85.000001,85.000001,395.0,0.0,0.0,0.0,1.0,166.665,43.671,43.671,49.667,49.667,34.0,-27.27,27.4775,-27.005,26.305999999999997,0.0,1782.364,-0.08499999999999996,100.0,34.764,34.788,41.8,42.115,0.0,0.0,100.0,0.0,0.0,0.0,0.0,3816.25,3659.5,3933.222222222222,3872.0,303.351,303.03066666666666,315.525,315.34225,22.066714285714287,20.759,22.286428571428573,21.602777777777778,314.999998,314.999998,324.999988,324.999988,99.55992857142857,99.50973333333333,99.58822857142857,99.55481428571429,0.10933333333333373,-0.08599999999999985,-0.11099999999999977,0.12600000000000033,-0.03166666666666629,-0.051666666666669414,1.625,1.6380000000000001,38.917,30.743499999999997,40.29,36.016999999999996,56.736999999999995,37.182,66.17099999999999,55.5135,54.763,36.2035,64.638,53.663,54.032,35.7265,64.663,53.004,-0.1235,-0.11,0.10500500000000001,0.11887500000000001,0.0,213.56,213.55,210.54000000000002,210.54000000000002,0.0,0.0
22,0.0,0.0,0.0,1.0,1.0,0.0,0.0,1.0,0.0,100.0,1.0,1.1856,26.0,0.0,0.0,0.0,59.999996,0.0,26.0,26.0,26.0,26.0,0.0012499999999999734,0.24860000000000015,0.007200000000000001,288.925,-2.5503,-2.6211111111111114,-1.588,-1.516375,-201.73000000000002,215.95,190.52425,0.0,0.0,0.0,0.0,0.0446,-5.498166666666667,-5.498166666666667,-0.7361000000000001,0.033499999999999974,0.009500000000000064,1.181,68.325,0.0007999999999999119,-0.4189333333333333,0.04499999999999993,100.0,1.0,1.0,210.7,0.0,0.0,0.0,0.0,0.0,0.0,0.0,8930.8,0.0,55.0,5.0,245.95,0.0,0.0,0.0,0.0,0.0,0.0,0.0,0.0,1.1069999999999993,1.1069999999999993,0.0,0.0,0.0,55.0,616.79921,10000.0,85.000001,85.000001,85.000001,85.000001,395.0,0.0,0.0,0.0,1.0,166.665,43.716,43.716,48.538,48.538,34.0,-24.9775,28.3975,-29.22,29.668,0.0,1782.312,-0.14500000000000002,100.0,34.992,34.706,42.352000000000004,42.289,0.0,0.0,100.0,0.0,0.0,0.0,0.0,3591.25,3753.9,4089.777777777778,4259.5,303.802,302.88666666666666,315.019,314.45375,22.077142857142857,20.7658,22.298285714285715,21.612444444444446,314.999998,314.999998,324.999988,324.999988,99.55994285714286,99.50975,99.58838571428572,99.55495714285715,0.11766666666666659,-0.08233333333333315,-0.11599999999999966,0.12233333333333274,-0.041666666666671404,-0.046666666666666856,1.508,1.5090000000000001,38.982,30.786,40.364000000000004,36.078,56.736000000000004,37.229,66.189,55.5655,54.760999999999996,36.248,64.655,53.713499999999996,54.028999999999996,35.7685,64.676,53.0535,-0.1245,-0.1065,0.1043,0.11083000000000001,0.0,213.95,213.935,210.7,210.7,0.0,0.0
23,0.0,0.0,0.0,1.0,1.0,0.0,0.0,1.0,0.0,100.0,1.0,1.1856,26.0,0.0,0.0,0.0,59.999996,0.0,26.0,26.0,26.0,26.0,0.004124999999999934,0.23120000000000007,-0.0502,288.956,-2.5833,-2.569888888888889,-1.5122,-1.583,-198.24,215.9375,190.501,0.0,0.0,0.0,0.0,0.0466,-5.498166666666667,-5.498166666666667,-0.7566,-0.2510000000000001,0.0022499999999998632,-0.5805,68.447,0.0011999999999998678,-0.4466333333333333,0.10000000000000009,100.0,1.0,1.0,211.19666666666666,0.0,0.0,0.0,0.0,0.0,0.0,0.0,8951.9,0.0,55.0,5.0,246.39,1.0,0.0,0.0,0.0,0.0,0.0,0.0,0.0,1.1580000000000013,1.1580000000000013,0.0,0.0,1.0,55.0,616.79921,10000.0,85.000001,85.000001,85.000001,85.000001,395.0,0.0,0.0,0.0,1.0,166.665,43.06,43.06,49.576,49.576,34.0,-28.8475,27.3625,-26.265,26.948,0.0,1782.26,-0.1549999999999998,100.0,35.076,34.938,42.33,42.554,0.0,0.0,100.0,0.0,0.0,0.0,0.0,3983.75,3706.1,3838.4444444444443,3872.0,302.8326666666667,302.939,315.62225,315.21,22.08757142857143,20.7726,22.310142857142857,21.622222222222224,314.999998,314.999998,324.999988,324.999988,99.55995714285714,99.50975,99.58852857142857,99.55511428571428,0.10933333333333373,-0.08499999999999996,-0.12266666666666648,0.11466666666666736,-0.054999999999999716,-0.041666666666671404,1.5474999999999999,1.561,39.048,30.829,40.438,36.138999999999996,56.733999999999995,37.278,66.2045,55.6165,54.759,36.292500000000004,64.668,53.763,54.025,35.8115,64.686,53.1015,-0.1345,-0.105,0.109795,0.10621000000000001,0.0,214.315,214.29000000000002,211.19666666666666,211.19666666666666,0.0,0.0
24,0.0,0.0,0.0,1.0,1.0,0.0,0.0,1.0,0.0,100.0,1.0,1.1856,26.0,0.0,0.0,0.0,59.999996,0.0,26.0,26.0,26.0,26.0,-0.00737500000000002,0.24550000000000005,-0.047400000000000005,289.154,-2.6125,-2.573888888888889,-1.5603,-1.518125,-194.95,215.925,190.4785,0.0,0.0,0.0,0.0,0.04853333333333333,-5.498166666666667,-5.498166666666667,-0.7594000000000001,-0.4590000000000001,0.01550000000000007,-0.06899999999999995,68.564,0.0038000000000000256,-0.4320666666666667,-0.027499999999999858,100.0,1.0,1.0,211.44333333333333,0.0,0.0,0.0,0.0,0.0,0.0,0.0,8962.3,0.0,55.0,5.0,246.81,0.0,0.0,0.0,0.0,0.0,0.0,0.0,0.0,1.2059999999999995,1.2059999999999995,0.0,0.0,0.0,55.0,616.79921,10000.0,85.000001,85.000001,85.000001,85.000001,395.0,0.0,0.0,0.0,1.0,166.665,44.189,44.189,48.477000000000004,48.477000000000004,34.0,-26.044999999999998,26.085,-29.4125,27.738,0.0,1782.214,-0.16000000000000014,100.0,34.817,34.64,42.292,42.464,0.0,0.0,100.0,0.0,0.0,0.0,0.0,3604.75,3585.2,4220.888888888889,4052.2,304.0013333333333,303.35966666666667,314.74525,314.867,22.097285714285714,20.7789,22.321142857142856,21.631333333333334,314.999998,314.999998,324.999988,324.999988,99.55997142857143,99.50976666666666,99.58865714285714,99.55524285714286,0.1080000000000001,-0.08999999999999986,-0.10866666666666713,0.11666666666666714,-0.041666666666671404,-0.036666666666668846,1.5354999999999999,1.5230000000000001,39.108000000000004,30.868000000000002,40.507,36.196,56.732,37.321,66.22,55.6635,54.757,36.333,64.682,53.8085,54.019999999999996,35.85,64.696,53.146,-0.1245,-0.1045,0.10057500000000001,0.106255,0.0,214.675,214.66,211.44333333333333,211.44333333333333,0.0,0.0
25,0.0,0.0,0.0,1.0,1.0,0.0,0.0,1.0,0.0,100.0,1.0,1.1856,26.0,0.0,0.0,0.0,59.999996,0.0,26.0,26.0,26.0,26.0,-0.007499999999999951,0.23550000000000004,-0.0733,289.093,-2.6726,-2.543222222222222,-1.5709,-1.52925,-191.45,215.9125,190.45325,0.0,0.0,0.0,0.0,0.05056666666666667,-5.498166666666667,-5.498166666666667,-0.7941,-0.031500000000000083,0.016000000000000014,-0.010499999999999954,68.684,0.006000000000000227,-0.44260000000000005,-0.09499999999999997,100.0,1.0,1.0,211.99,0.0,0.0,0.0,0.0,0.0,0.0,0.0,8985.4,0.0,55.0,5.0,247.24333333333334,1.0,0.0,0.0,0.0,0.0,0.0,0.0,0.0,1.256999999999998,1.256999999999998,0.0,0.0,1.0,55.0,616.79921,10000.0,85.000001,85.000001,85.000001,85.000001,395.0,0.0,0.0,0.0,1.0,166.665,43.152,43.152,49.393,49.393,34.0,-28.205,29.9325,-25.6225,27.266,0.0,1782.162,-0.1499999999999999,100.0,34.906,34.812,42.129,42.171,0.0,0.0,100.0,0.0,0.0,0.0,0.0,3859.375,3974.1000000000004,3807.1111111111113,3944.5,303.22933333333333,302.32933333333335,315.74325,315.208,22.10757142857143,20.785800000000002,22.332714285714285,21.640888888888888,314.999998,314.999998,324.999988,324.999988,99.55998571428572,99.50978333333333,99.5888,99.55538571428572,0.121,-0.07033333333333314,-0.10400000000000009,0.13100000000000023,-0.03833333333332689,-0.045000000000001705,1.5965,1.604,39.172,30.911,40.58,36.254999999999995,56.727999999999994,37.369,66.2325,55.711,54.753,36.3775,64.693,53.855000000000004,54.015,35.8925,64.7035,53.1915,-0.1345,-0.106,0.10113000000000001,0.11003500000000001,0.0,215.035,215.04500000000002,211.99,211.99,0.0,0.0
26,0.0,0.0,0.0,1.0,1.0,0.0,0.0,1.0,0.0,100.0,1.0,1.1856,26.0,0.0,0.0,0.0,59.999996,0.0,26.0,26.0,26.0,26.0,0.0,0.25950000000000006,0.0673,287.949,-2.6236,-2.6166666666666667,-1.6173000000000002,-1.51975,-188.14999999999998,215.9,190.429,0.0,0.0,0.0,0.0,0.05246666666666667,-5.498166666666667,-5.498166666666667,-0.7561,0.8240000000000001,0.0015000000000000568,0.7665,68.80199999999999,0.008000000000000007,-0.4146,-0.11749999999999994,100.0,1.0,1.0,212.07999999999998,0.0,0.0,0.0,0.0,0.0,0.0,0.0,8989.3,0.0,55.0,5.0,247.66666666666666,0.0,0.0,0.0,0.0,0.0,0.0,0.0,0.0,1.3049999999999997,1.3049999999999997,0.0,0.0,0.0,55.0,616.79921,10000.0,85.000001,85.000001,85.000001,85.000001,395.0,0.0,0.0,0.0,1.0,166.665,42.525999999999996,42.525999999999996,47.791,47.791,34.0,-27.1775,29.7125,-31.2725,31.542,0.0,1782.114,-0.19499999999999984,100.0,35.785,35.503,42.521,42.485,0.0,0.0,100.0,0.0,0.0,0.0,0.0,3802.875,3854.5,4369.555555555556,4415.2,303.23766666666666,302.53633333333335,314.42675,314.09125,22.117571428571427,20.7924,22.343857142857143,21.65,314.999998,314.999998,324.999988,324.999988,99.56001428571429,99.5098,99.58894285714285,99.55552857142857,0.12366666666666637,-0.07466666666666666,-0.09966666666666679,0.1286666666666667,-0.046666666666666856,-0.023333333333326323,1.4715,1.478,39.235,30.9525,40.649,36.313,56.730000000000004,37.417,66.249,55.7595,54.754000000000005,36.421,64.708,53.902,54.013999999999996,35.9345,64.715,53.2375,-0.139,-0.1065,0.10210000000000001,0.10867,0.0,215.445,215.425,212.07999999999998,212.07999999999998,0.0,0.0
27,0.0,0.0,0.0,1.0,1.0,0.0,0.0,1.0,0.0,100.0,1.0,1.1856,26.0,0.0,0.0,0.0,59.999996,0.0,26.0,26.0,26.0,26.0,0.017875000000000085,0.2319,0.011250000000000001,288.223,-2.5883000000000003,-2.582,-1.6072000000000002,-1.5931250000000001,-184.85,215.8875,190.406,0.0,0.0,0.0,0.0,0.054400000000000004,-5.498166666666667,-5.498166666666667,-0.7767000000000001,-1.0630000000000002,0.0017499999999999183,0.696,68.916,0.01240000000000041,-0.4586666666666667,-0.16249999999999987,100.0,1.0,1.0,212.5,0.0,0.0,0.0,0.0,0.0,0.0,0.0,9007.1,0.0,55.0,5.0,248.07666666666665,1.0,0.0,0.0,0.0,0.0,0.0,0.0,0.0,1.352999999999998,1.352999999999998,0.0,0.0,1.0,55.0,616.79921,10000.0,85.000001,85.000001,85.000001,85.000001,395.0,0.0,0.0,0.0,1.0,166.665,42.938,42.938,48.004,48.004,34.0,-25.8525,29.5225,-28.1325,30.380000000000003,0.0,1782.066,-0.25,100.0,35.483000000000004,35.275,43.26,43.189,0.0,0.0,100.0,0.0,0.0,0.0,0.0,3735.125,3862.8,4019.8888888888887,4097.3,303.44666666666666,302.653,315.15275,314.71125,22.127285714285716,20.7989,22.355,21.659333333333333,314.999998,314.999998,324.999988,324.999988,99.56002857142857,99.5098,99.58908571428572,99.55565714285714,0.1299999999999999,-0.06899999999999995,-0.09933333333333305,0.13766666666666705,-0.01666666666666572,-0.0799999999999983,1.505,1.499,39.295,30.993499999999997,40.719,36.370999999999995,56.727999999999994,37.462,66.2665,55.8095,54.751999999999995,36.463,64.723,53.95,54.01,35.9745,64.727,53.285,-0.1395,-0.101,0.10677500000000001,0.10962000000000001,0.0,215.71,215.755,212.5,212.5,0.0,0.0
28,0.0,0.0,0.0,1.0,1.0,0.0,0.0,1.0,0.0,100.0,1.0,1.1856,26.0,0.0,0.0,0.0,59.999996,0.0,26.0,26.0,26.0,26.0,0.02187500000000009,0.24470000000000014,-0.048400000000000006,288.605,-2.6211,-2.5614444444444446,-1.5589,-1.55325,-181.32999999999998,215.875,190.380875,0.0,0.0,0.0,0.0,0.05643333333333334,-5.498166666666667,-5.498166666666667,-0.7876000000000001,0.5449999999999999,-0.0034999999999998366,-0.47550000000000003,69.033,0.016799999999999926,-0.4418,-0.1875,100.0,1.0,1.0,213.01,0.0,0.0,0.0,0.0,0.0,0.0,0.0,9028.6,0.0,55.0,5.0,248.5,0.0,0.0,0.0,0.0,0.0,0.0,0.0,0.0,1.404,1.404,0.0,0.0,0.0,55.0,616.79921,10000.0,85.000001,85.000001,85.000001,85.000001,395.0,0.0,0.0,0.0,1.0,333.33500000000004,42.876999999999995,42.876999999999995,48.981,48.981,34.0,-27.5975,27.9125,-26.985,28.282,0.0,1782.012,-0.22999999999999998,100.0,35.416,35.408,42.434,42.702,0.0,0.0,100.0,0.0,0.0,0.0,0.0,3904.25,3733.7,3950.8888888888887,4000.6000000000004,303.16266666666667,302.8426666666667,315.43325,315.0355,22.137714285714285,20.8059,22.36657142857143,21.668888888888887,314.999998,314.999998,324.999988,324.999988,99.56005714285715,99.50981666666667,99.58922857142858,99.55581428571429,0.12633333333333363,-0.07833333333333314,-0.11099999999999977,0.13266666666666715,-0.04833333333333201,-0.045000000000001705,1.5925,1.581,39.36,31.0365,40.791,36.431,56.729,37.51,66.278,55.8565,54.751999999999995,36.5075,64.733,53.996,54.007999999999996,36.016999999999996,64.73349999999999,53.329499999999996,-0.14,-0.0995,0.11715500000000001,0.10801000000000001,0.0,216.16,216.15,213.01,213.01,0.0,0.0
29,0.0,0.0,0.0,1.0,1.0,0.0,0.0,1.0,0.0,100.0,1.0,1.1856,26.0,0.0,0.0,0.0,59.999996,0.0,26.0,26.0,26.0,26.0,0.020499999999999963,0.2371000000000001,0.013250000000000001,288.162,-2.5678,-2.615111111111111,-1.5615,-1.5305,-177.81,215.8625,190.354625,0.0,0.0,0.0,0.0,0.0585,-5.498166666666667,-5.498166666666667,-0.7888000000000001,-0.7275,0.00649999999999995,0.8734999999999999,69.157,0.02120000000000033,-0.4370666666666667,-0.27749999999999986,100.0,1.0,1.0,213.19,0.0,0.0,0.0,0.0,0.0,0.0,0.0,9036.4,0.0,55.0,5.0,248.94333333333333,1.0,0.0,0.0,0.0,0.0,0.0,0.0,0.0,1.4549999999999983,1.4549999999999983,0.0,0.0,1.0,55.0,616.79921,10000.0,85.000001,85.000001,85.000001,85.000001,395.0,0.0,0.0,0.0,1.0,166.665,42.847,42.847,47.791,47.791,34.0,-25.165,30.9675,-28.29,31.37,0.0,1781.964,-0.2450000000000001,100.0,35.272999999999996,35.163,42.884,42.923,0.0,0.0,100.0,0.0,0.0,0.0,0.0,3759.125,3941.1000000000004,4145.888888888889,4229.8,303.38666666666666,302.28866666666664,314.85,314.483,22.14785714285714,20.8128,22.378285714285713,21.678666666666665,314.999998,314.999998,324.999988,324.999988,99.56007142857143,99.50983333333333,99.58937142857143,99.55595714285714,0.14100000000000001,-0.06566666666666676,-0.09266666666666712,0.15133333333333354,-0.02833333333332888,-0.04999999999999716,1.494,1.481,39.424,31.0795,40.864999999999995,36.492000000000004,56.727000000000004,37.557,66.2955,55.908500000000004,54.748999999999995,36.5505,64.749,54.046,54.004000000000005,36.0585,64.745,53.3785,-0.14,-0.10300000000000001,0.10891,0.11287000000000001,0.0,216.47500000000002,216.49,213.19,213.19,0.0,0.0
30,0.0,0.0,0.0,1.0,1.0,0.0,0.0,1.0,0.0,100.0,1.0,1.1856,26.0,0.0,0.0,0.0,59.999996,0.0,26.0,26.0,26.0,26.0,0.019749999999999934,0.25060000000000016,0.05075,287.72,-2.6209,-2.502222222222222,-1.5352000000000001,-1.584875,-174.49,215.85,190.32975,0.0,0.0,0.0,0.0,0.06043333333333334,-5.498166666666667,-5.498166666666667,-0.7934,0.7335,0.0031250000000000444,0.41600000000000004,69.267,0.022800000000000153,-0.44430000000000003,-0.3025,100.0,1.0,1.0,213.61666666666667,0.0,0.0,0.0,0.0,0.0,0.0,0.0,9054.4,0.0,55.0,5.0,249.34333333333336,0.0,0.0,0.0,0.0,0.0,0.0,1.0,0.0,1.5030000000000001,1.5030000000000001,0.0,0.0,0.0,55.0,616.79921,10000.0,85.000001,85.000001,85.000001,85.000001,395.0,0.0,0.0,0.0,1.0,166.665,41.778999999999996,41.778999999999996,48.325,48.325,34.0,-27.315,30.17,-27.1125,32.038,0.0,1781.916,-0.23999999999999977,100.0,36.028,35.925,42.633,42.91,0.0,0.0,100.0,0.0,0.0,0.0,0.0,4013.5,3965.5,4079.4444444444443,4225.2,302.75,302.17333333333335,315.086,314.43075,22.157714285714285,20.8195,22.389285714285712,21.68777777777778,314.999998,314.999998,324.999988,324.999988,99.56008571428572,99.50985,99.58951428571429,99.5561,0.1476666666666664,-0.06033333333333313,-0.09133333333333304,0.15000000000000036,-0.03833333333332689,-0.03833333333332689,1.5175,1.5010000000000001,39.486000000000004,31.122,40.933,36.549,56.729,37.604,66.307,55.9555,54.751000000000005,36.5945,64.759,54.091499999999996,54.004000000000005,36.1005,64.752,53.423,-0.151,-0.0995,0.11210500000000001,0.10965000000000001,0.0,216.86,216.87,213.61666666666667,213.61666666666667,0.0,0.0
31,0.0,0.0,0.0,1.0,1.0,0.0,0.0,1.0,0.0,100.0,1.0,1.1856,26.0,0.0,0.0,0.0,59.999996,0.0,26.0,26.0,26.0,26.0,0.019749999999999934,0.23080000000000012,0.0183,287.659,-2.6841,-2.4859999999999998,-1.5777999999999999,-1.4873750000000001,-170.74,215.84,190.3025,0.0,0.0,0.0,0.0,0.0626,-5.498166666666667,-5.498166666666667,-0.7762,-0.6715,0.006124999999999936,0.48150000000000004,69.395,0.028400000000000425,-0.44420000000000004,-0.355,100.0,1.0,1.0,213.89666666666668,0.0,0.0,0.0,0.0,0.0,0.0,0.0,9066.3,0.0,55.0,5.0,249.80333333333334,1.0,0.0,0.0,0.0,0.0,0.0,1.0,0.0,1.5569999999999986,1.5569999999999986,0.0,0.0,1.0,55.0,616.79921,10000.0,85.000001,85.000001,85.000001,85.000001,395.0,0.0,0.0,0.0,1.0,166.665,42.496,42.496,46.982,46.982,34.0,-26.09,29.18,-28.79,30.59,0.0,1781.862,-0.23999999999999977,100.0,35.819,35.896,43.377,43.571,0.0,0.0,100.0,0.0,0.0,0.0,0.0,3745.125,3951.6000000000004,4246.222222222223,4138.5,303.614,302.514,314.577,314.6535,22.16857142857143,20.826999999999998,22.401714285714284,21.69822222222222,314.999998,314.999998,324.999988,324.999988,99.56011428571429,99.50985,99.58967142857144,99.55625714285715,0.14433333333333342,-0.06600000000000006,-0.08000000000000007,0.16000000000000014,-0.02833333333332888,-0.05333333333332746,1.48,1.46,39.554,31.1685,41.010999999999996,36.614000000000004,56.730000000000004,37.656,66.3265,56.010999999999996,54.751000000000005,36.6425,64.776,54.146,54.001999999999995,36.146,64.7655,53.476,-0.1455,-0.1045,0.10774,0.10493000000000001,0.0,217.22,217.265,213.89666666666668,213.89666666666668,0.0,0.0
32,0.0,0.0,0.0,1.0,1.0,0.0,0.0,1.0,0.0,100.0,1.0,1.1856,26.0,0.0,0.0,0.0,59.999996,0.0,26.0,26.0,26.0,26.0,0.023374999999999924,0.23520000000000008,-0.0758,287.994,-2.6161,-2.590777777777778,-1.6439,-1.494125,-167.41,215.82999999999998,190.278625,0.0,0.0,0.0,0.0,0.06453333333333335,-5.498166666666667,-5.498166666666667,-0.7947000000000001,0.07250000000000001,-0.016999999999999904,0.15500000000000003,69.503,0.02880000000000038,-0.4549,-0.2649999999999999,100.0,1.0,1.0,214.40666666666667,0.0,0.0,0.0,0.0,0.0,0.0,0.0,9087.9,0.0,55.0,5.0,250.19,0.0,0.0,0.0,0.0,0.0,0.0,1.0,0.0,1.6050000000000004,1.6050000000000004,0.0,0.0,0.0,55.0,616.79921,10000.0,85.000001,85.000001,85.000001,85.000001,395.0,0.0,0.0,0.0,1.0,333.33500000000004,42.251999999999995,42.251999999999995,48.172,48.172,34.0,-26.205,30.1925,-27.465,29.165999999999997,0.0,1781.814,-0.23499999999999988,100.0,35.883,35.97,43.018,43.292,0.0,0.0,100.0,0.0,0.0,0.0,0.0,3840.375,3888.4,4025.777777777778,4058.0,303.21133333333336,302.54,315.31225,315.0365,22.178285714285714,20.8337,22.412714285714287,21.707333333333334,314.999998,314.999998,324.999988,324.999988,99.56012857142858,99.50986666666667,99.5898,99.5564,0.1436666666666664,-0.06433333333333313,-0.08499999999999996,0.1596666666666673,-0.045000000000001705,-0.04833333333333201,1.577,1.58,39.614000000000004,31.2105,41.079,36.671,56.730000000000004,37.702,66.339,56.0565,54.751000000000005,36.6855,64.787,54.19,54.0,36.187,64.773,53.519,-0.14250000000000002,-0.106,0.108575,0.115345,0.0,217.57,217.585,214.40666666666667,214.40666666666667,0.0,0.0
33,0.0,0.0,0.0,1.0,1.0,0.0,0.0,1.0,0.0,100.0,1.0,1.1856,26.0,0.0,0.0,0.0,59.999996,0.0,26.0,26.0,26.0,26.0,0.02774999999999994,0.24070000000000014,-0.0448,288.101,-2.6205,-2.5715555555555554,-1.5981,-1.5778750000000001,-164.07,215.82,190.25375,0.0,0.0,0.0,0.0,0.06646666666666666,-5.498166666666667,-5.498166666666667,-0.7986000000000001,-0.2889999999999999,-0.017875000000000085,1.1035,69.61500000000001,0.027800000000000047,-0.4437666666666667,-0.24249999999999994,100.0,1.0,1.0,214.64333333333332,0.0,0.0,0.0,0.0,0.0,0.0,0.0,9098.0,0.0,55.0,5.0,250.59333333333336,1.0,0.0,0.0,0.0,0.0,0.0,1.0,0.0,1.6529999999999987,1.6529999999999987,0.0,0.0,1.0,55.0,616.79921,10000.0,85.000001,85.000001,85.000001,85.000001,395.0,0.0,0.0,0.0,1.0,333.33500000000004,42.847,42.847,47.943,47.943,34.0,-25.2675,29.675,-28.38,31.294,0.0,1781.764,-0.2650000000000001,100.0,35.741,35.622,42.964,43.265,0.0,0.0,100.0,0.0,0.0,0.0,0.0,3702.375,3817.5,4135.333333333333,4176.9,303.66266666666667,302.793,314.97275,314.6525,22.187857142857144,20.8402,22.423571428571428,21.716555555555555,314.999998,314.999998,324.999988,324.999988,99.56014285714286,99.50988333333333,99.58994285714286,99.55654285714286,0.14100000000000001,-0.057666666666666755,-0.09033333333333271,0.15000000000000036,-0.03999999999999915,-0.03166666666666629,1.52,1.5170000000000001,39.674,31.250999999999998,41.147999999999996,36.727999999999994,56.730999999999995,37.745,66.353,56.104,54.751000000000005,36.7255,64.799,54.236,53.998000000000005,36.2255,64.7815,53.564,-0.14150000000000001,-0.1,0.11111000000000001,0.10641500000000001,0.0,217.91500000000002,217.92000000000002,214.64333333333332,214.64333333333332,0.0,0.0
34,0.0,0.0,0.0,1.0,1.0,0.0,0.0,1.0,0.0,100.0,1.0,1.1856,26.0,0.0,0.0,0.0,59.999996,0.0,26.0,26.0,26.0,26.0,0.008750000000000036,0.2371000000000001,-0.07730000000000001,288.406,-2.6474,-2.5486666666666666,-1.6294,-1.54125,-160.31,215.81,190.224625,0.0,0.0,0.0,0.0,0.06866666666666667,-5.498166666666667,-5.498166666666667,-0.8281000000000001,-0.6990000000000001,0.010375000000000023,0.9925,69.739,0.02859999999999996,-0.45120000000000005,-0.22249999999999992,100.0,1.0,1.0,215.06333333333333,0.0,0.0,0.0,0.0,0.0,0.0,0.0,9115.8,0.0,55.0,5.0,251.04000000000002,0.0,0.0,0.0,0.0,0.0,0.0,1.0,0.0,1.7070000000000007,1.7070000000000007,0.0,0.0,0.0,55.0,616.79921,10000.0,85.000001,85.000001,85.000001,85.000001,395.0,0.0,0.0,0.0,1.0,166.665,43.045,43.045,48.874,48.874,34.0,-26.162499999999998,28.8425,-27.22,30.177999999999997,0.0,1781.712,-0.22999999999999998,100.0,35.454,35.283,42.728,43.236000000000004,0.0,0.0,100.0,0.0,0.0,0.0,0.0,3731.875,3781.2,3947.4444444444443,4129.3,303.37,302.93966666666665,315.42375,314.73725,22.198714285714285,20.8475,22.43585714285714,21.726777777777777,314.999998,314.999998,324.999988,324.999988,99.56018571428571,99.50988333333333,99.5901,99.5567,0.13900000000000023,-0.06133333333333324,-0.09266666666666712,0.14766666666666683,-0.03833333333332689,-0.05833333333333002,1.5505,1.545,39.742000000000004,31.2965,41.224000000000004,36.793,56.729,37.794,66.3665,56.157,54.748999999999995,36.7705,64.811,54.287,53.994,36.2685,64.7895,53.614,-0.1365,-0.1055,0.10610000000000001,0.10058500000000001,0.0,218.285,218.29500000000002,215.06333333333333,215.06333333333333,0.0,0.0
35,0.0,0.0,0.0,1.0,1.0,0.0,0.0,1.0,0.0,100.0,1.0,1.1856,26.0,0.0,0.0,0.0,59.999996,0.0,26.0,26.0,26.0,26.0,0.02675000000000005,0.23550000000000004,-0.06975,288.498,-2.6827,-2.521,-1.612,-1.55475,-156.95999999999998,215.8025,190.196625,0.0,0.0,0.0,0.0,0.07060000000000001,-5.498166666666667,-5.498166666666667,-0.8683000000000001,-0.6214999999999999,-0.0006249999999998757,-0.02750000000000008,69.84700000000001,0.028999999999999915,-0.4572,-0.22499999999999987,100.0,1.0,1.0,215.45,0.0,0.0,0.0,0.0,0.0,0.0,0.0,9132.2,0.0,55.0,5.0,251.43333333333334,1.0,0.0,0.0,0.0,0.0,0.0,1.0,0.0,1.754999999999999,1.754999999999999,0.0,0.0,1.0,55.0,616.79921,10000.0,85.000001,85.000001,85.000001,85.000001,395.0,0.0,0.0,0.0,1.0,166.665,42.908,42.908,48.141,48.141,34.0,-26.634999999999998,31.0075,-26.6125,28.404000000000003,0.0,1781.664,-0.19999999999999973,100.0,35.161,35.42,42.584,42.83,0.0,0.0,100.0,0.0,0.0,0.0,0.0,3756.875,4042.4,3993.3333333333335,3897.6000000000004,303.635,302.124,315.22175,315.281,22.208142857142857,20.8541,22.446571428571428,21.735777777777777,314.999998,314.999998,324.999988,324.999988,99.5602,99.5099,99.59022857142857,99.55682857142857,0.13533333333333353,-0.058333333333333126,-0.07699999999999996,0.15166666666666728,-0.041666666666671404,-0.030000000000001137,1.581,1.574,39.801,31.338,41.291,36.849000000000004,56.726,37.838,66.3785,56.2005,54.745999999999995,36.811,64.821,54.329499999999996,53.989000000000004,36.308,64.79599999999999,53.655,-0.1325,-0.105,0.100875,0.11109000000000001,0.0,218.615,218.625,215.45,215.45,0.0,0.0
