,ABS Active,ABS Enabled,AID Allow Tire Blankets,AID Auto Blip,AID Auto Clutch,AID Auto Shift,AID Fuel Rate,AID Ideal Line,AID Mech Damage,AID Stability,AID Tire Wear Rate,Air Density,Air Temp,Ballast,Best Lap Delta,Best Lap Time,Brake Bias,Brake Pos,Brake Temp FL,Brake Temp FR,Brake Temp RL,Brake Temp RR,CG Accel Lateral,CG Accel Longitudinal,CG Accel Vertical,CG Height,Camber FL,Camber FR,Camber RL,Camber RR,Car Coord X,Car Coord Y,Car Coord Z,Car Damage Front,Car Damage Left,Car Damage Rear,Car Damage Right,Car Pos Norm,Caster FL,Caster FR,Chassis Pitch Angle,Chassis Pitch Rate,Chassis Roll Angle,Chassis Roll Rate,Chassis Velocity X,Chassis Velocity Y,Chassis Velocity Z,Chassis Yaw Rate,Clutch Pos,DRS Active,DRS Available,Drive Train Speed,ERS Heat Charging,ERS Is Charging,ERS Max Energy,ERS Power Level,ERS Recovery Level,Engine Brake Setting,Engine Limiter,Engine RPM,Flags,Fuel Level,Gear,Ground Speed,HR Sample Clock,In Pit,KERS Charge,KERS Deployed Energy,KERS Input,KERS Max Energy,LR Sample Clock,Lap Invalidated,Lap Time,Lap Time2,Last Lap Time,Last Sector Time,MR Sample Clock,Max Fuel,Max Power,Max RPM,Max Sus Travel FL,Max Sus Travel FR,Max Sus Travel RL,Max Sus Travel RR,Max Torque,Max Turbo Boost,Num Tires Off Track,Penalties Enabled,Position,Raw Data Sample Rate,Ride Height FL,Ride Height FR,Ride Height RL,Ride Height RR,Road Temp,Self Align Torque FL,Self Align Torque FR,Self Align Torque RL,Self Align Torque RR,Session Lap Count,Session Time Left,Steering Angle,Surface Grip,Suspension Travel FL,Suspension Travel FR,Suspension Travel RL,Suspension Travel RR,TC Active,TC Enabled,Throttle Pos,Tire Dirt Level FL,Tire Dirt Level FR,Tire Dirt Level RL,Tire Dirt Level RR,Tire Load FL,Tire Load FR,Tire Load RL,Tire Load RR,Tire Loaded Radius FL,Tire Loaded Radius FR,Tire Loaded Radius RL,Tire Loaded Radius RR,Tire Pressure FL,Tire Pressure FR,Tire Pressure RL,Tire Pressure RR,Tire Radius FL,Tire Radius FR,Tire Radius RL,Tire Radius RR,Tire Rubber Grip FL,Tire Rubber Grip FR,Tire Rubber Grip RL,Tire Rubber Grip RR,Tire Slip Angle FL,Tire Slip Angle FR,Tire Slip Angle RL,Tire Slip Angle RR,Tire Slip Ratio FL,Tire Slip Ratio FR,Tire Slip Ratio RL,Tire Slip Ratio RR,Tire Temp Core FL,Tire Temp Core FR,Tire Temp Core RL,Tire Temp Core RR,Tire Temp Inner FL,Tire Temp Inner FR,Tire Temp Inner RL,Tire Temp Inner RR,Tire Temp Middle FL,Tire Temp Middle FR,Tire Temp Middle RL,Tire Temp Middle RR,Tire Temp Outer FL,Tire Temp Outer FR,Tire Temp Outer RL,Tire Temp Outer RR,Toe In FL,Toe In FR,Toe In RL,Toe In RR,Turbo Boost,Wheel Angular Speed FL,Wheel Angular Speed FR,Wheel Angular Speed RL,Wheel Angular Speed RR,Wind Direction,Wind Speed
0,0.0,0.0,0.0,1.0,1.0,0.0,0.0,1.0,0.0,100.0,1.0,1.1856,26.0,0.0,0.0,0.0,59.99999,0.0,26.0,26.0,26.0,26.0,-0.08433333333333337,0.33550000000000013,0.10658,297.668,-2.8083,-2.7732857142857146,-1.5135,-1.5747777777777778,-275.59,216.2575,190.99075,0.0,0.0,0.0,0.0,0.0016333333333333332,-5.498166666666667,-5.498166666666667,-0.3688,1.7996666666666667,-0.020333333333333314,-0.6295000000000002,65.467,-0.048100000000000004,-0.00932,0.934000000000001,100.0,1.0,1.0,202.07999999999998,0.0,0.0,0.0,0.0,0.0,0.0,0.0,8565.4,0.0,55.0,5.0,235.64666666666668,0.0,0.0,0.0,0.0,0.0,0.0,0.0,0.0,0.006000000000000227,0.006000000000000227,0.0,0.0,0.0,55.0,616.79921,10000.0,85.0,85.0,85.0,85.0,395.0,0.0,0.0,0.0,1.0,20.0,61.768,61.768,48.584,48.584,34.0,-21.468,18.912,-31.526666666666667,25.5025,0.0,1783.195,0.9849999999999994,100.0,20.686,20.0775,41.233000000000004,40.948,0.0,0.0,100.0,0.0,0.0,0.0,0.0,2329.777777777778,2690.9,4257.222222222223,4116.4,307.741,306.2765,314.45575,314.5795,21.674777777777777,20.4207,21.6987,21.284,314.99999,314.99999,324.99998,324.99998,99.55644285714286,99.50595,99.55925714285715,99.5428,-0.05224999999999991,-0.11649999999999994,-0.15783333333333338,0.0515000000000001,-0.05666666666667197,-0.06833333333332803,1.5286666666666666,1.5445,36.467,28.629666666666665,36.617000000000004,34.025,55.028,33.028,56.9675,50.55433333333333,52.936,32.323,55.6405,49.001,52.0555,31.948999999999998,55.571,48.473333333333336,0.03849999999999998,-0.11299999999999999,0.09969000000000001,0.10408,0.0,205.19,205.085,202.07999999999998,202.07999999999998,0.0,0.0
1,0.0,0.0,0.0,1.0,1.0,0.0,0.0,1.0,0.0,100.0,1.0,1.1856,26.0,0.0,0.0,0.0,59.999996,0.0,26.0,26.0,26.0,26.0,-0.11522222222222211,0.34120000000000017,0.019940000000000003,296.799,-2.73025,-2.882857142857143,-1.52785,-1.5723333333333334,-272.05,216.255,190.969625,0.0,0.0,0.0,0.0,0.0037,-5.498166666666667,-5.498166666666667,-0.3186,-0.9683333333333334,-0.06766666666666676,-0.5105,65.646,-0.0591,0.005220000000000001,1.3800000000000008,100.0,1.0,1.0,202.32333333333332,0.0,0.0,0.0,0.0,0.0,0.0,0.0,8575.7,0.0,55.0,5.0,236.29000000000002,1.0,0.0,0.0,0.0,0.0,0.0,0.0,0.0,0.05999999999999872,0.05999999999999872,0.0,0.0,1.0,55.0,616.79921,10000.0,85.000001,85.000001,85.000001,85.000001,395.0,0.0,0.0,0.0,1.0,166.665,62.805,62.805,47.47,47.47,34.0,-21.852,13.469999999999999,-33.95,29.63,0.0,1783.141,1.1950000000000003,100.0,20.652,19.8645,43.708,42.425,0.0,0.0,100.0,0.0,0.0,0.0,0.0,2356.777777777778,2001.9,4299.666666666667,4770.5,307.61,308.512,314.2675,312.938,21.684,20.42475,21.709699999999998,21.2934,314.999998,314.999998,324.999988,324.999988,99.55644285714286,99.50596666666667,99.55941428571428,99.54295714285715,-0.06974999999999998,-0.133,-0.1775,0.031500000000000083,-0.04333333333332945,-0.054999999999999716,1.385,1.4515,36.525,28.654666666666664,36.686,34.084,55.004000000000005,33.059,57.022999999999996,50.62866666666667,52.913,32.351,55.693,49.072,52.0325,31.976,55.62,48.543,0.059499999999999886,-0.12250000000000005,0.098415,0.108755,0.0,205.655,205.54500000000002,202.32333333333332,202.32333333333332,0.0,0.0
2,0.0,0.0,0.0,1.0,1.0,0.0,0.0,1.0,0.0,100.0,1.0,1.1856,26.0,0.0,0.0,0.0,59.999996,0.0,26.0,26.0,26.0,26.0,-0.15700000000000003,0.31420000000000003,-0.09576000000000001,297.424,-2.6894,-2.912714285714286,-1.4837,-1.6323333333333332,-268.9,216.2475,190.95175,0.0,0.0,0.0,0.0,0.005533333333333334,-5.498166666666667,-5.498166666666667,-0.3677,0.24633333333333335,-0.05744444444444419,2.51,65.792,-0.0795,-0.044480000000000006,1.75,100.0,1.0,1.0,203.24333333333334,0.0,0.0,0.0,0.0,0.0,0.0,0.0,8614.7,0.0,55.0,5.0,236.81333333333333,0.0,0.0,0.0,0.0,0.0,0.0,0.0,0.0,0.10800000000000054,0.10800000000000054,0.0,0.0,0.0,55.0,616.79921,10000.0,85.000001,85.000001,85.000001,85.000001,395.0,0.0,0.0,0.0,1.0,333.33500000000004,61.6,61.6,49.24,49.24,34.0,-25.082,15.398,-30.293333333333333,20.4575,0.0,1783.091,0.8550000000000004,100.0,21.417,19.894,43.397999999999996,41.933,0.0,0.0,100.0,0.0,0.0,0.0,0.0,2649.6666666666665,2241.9,3847.4444444444443,3741.0,306.593,307.77075,315.37925,315.638,21.692666666666668,20.42825,21.7191,21.3014,314.999998,314.999998,324.999988,324.999988,99.55645714285714,99.50598333333333,99.55954285714286,99.54308571428571,-0.07200000000000006,-0.139,-0.22250000000000003,0.0,-0.041666666666671404,-0.0899999999999963,1.5943333333333334,1.6785,36.579,28.676333333333332,36.744,34.1335,54.986000000000004,33.088,57.067499999999995,50.68833333333333,52.896,32.378,55.7345,49.129,52.0155,32.0015,55.659,48.599000000000004,0.03699999999999992,-0.10950000000000015,0.10160500000000001,0.11124500000000001,0.0,206.135,206.01,203.24333333333334,203.24333333333334,0.0,0.0
3,0.0,0.0,0.0,1.0,1.0,0.0,0.0,1.0,0.0,100.0,1.0,1.1856,26.0,0.0,0.0,0.0,59.999996,0.0,26.0,26.0,26.0,26.0,-0.14,0.32020000000000004,-0.03332,297.165,-2.8276,-2.803571428571429,-1.5159,-1.6096666666666668,-265.54,216.2375,190.932125,0.0,0.0,0.0,0.0,0.007500000000000001,-5.498166666666667,-5.498166666666667,-0.3235,0.396,-0.020777777777778006,-0.9740000000000002,65.957,-0.09480000000000001,0.01068,1.1899999999999995,100.0,1.0,1.0,203.41666666666669,0.0,0.0,0.0,0.0,0.0,0.0,0.0,8622.1,0.0,55.0,5.0,237.41,1.0,0.0,0.0,0.0,0.0,0.0,0.0,0.0,0.15899999999999892,0.15899999999999892,0.0,0.0,1.0,55.0,616.79921,10000.0,85.000001,85.000001,85.000001,85.000001,395.0,0.0,0.0,0.0,1.0,166.665,62.912,62.912,47.058,47.058,34.0,-20.323999999999998,13.484000000000002,-37.20333333333333,24.3675,0.0,1783.041,0.8099999999999987,100.0,20.852,19.9365,43.289,42.209,0.0,0.0,100.0,0.0,0.0,0.0,0.0,2154.0,2079.6,4440.555555555556,4302.9,308.262,308.04975,314.002,314.108,21.701333333333334,20.43215,21.7291,21.3101,314.999998,314.999998,324.999988,324.999988,99.55647142857143,99.506,99.55968571428572,99.54322857142857,-0.07699999999999996,-0.14700000000000002,-0.22283333333333333,-0.007499999999999951,-0.030000000000001137,-0.045000000000001705,1.4453333333333334,1.4925,36.632999999999996,28.701,36.807,34.188,54.965,33.1175,57.112,50.752,52.876000000000005,32.405,55.775999999999996,49.18966666666667,51.995,32.0275,55.698499999999996,48.65833333333333,0.026499999999999968,-0.09600000000000009,0.10722000000000001,0.11295000000000001,0.0,206.66,206.565,203.41666666666669,203.41666666666669,0.0,0.0
4,0.0,0.0,0.0,1.0,1.0,0.0,0.0,1.0,0.0,100.0,1.0,1.1856,26.0,0.0,0.0,0.0,59.999996,0.0,26.0,26.0,26.0,26.0,-0.14422222222222214,0.3063,-0.03366,297.47,-2.7617,-2.854142857142857,-1.53115,-1.614111111111111,-262.37,216.225,190.913625,0.0,0.0,0.0,0.0,0.009333333333333334,-5.498166666666667,-5.498166666666667,-0.35960000000000003,-0.7576666666666666,-0.08522222222222231,-1.7265000000000001,66.108,-0.0911,-0.02578,1.144000000000002,100.0,1.0,1.0,204.03,0.0,0.0,0.0,0.0,0.0,0.0,0.0,8648.1,0.0,55.0,5.0,237.95666666666668,0.0,0.0,0.0,0.0,0.0,0.0,0.0,0.0,0.20700000000000074,0.20700000000000074,0.0,0.0,0.0,55.0,616.79921,10000.0,85.000001,85.000001,85.000001,85.000001,395.0,0.0,0.0,0.0,1.0,333.33500000000004,62.454,62.454,47.867,47.867,34.0,-24.434,14.66,-33.53,21.075000000000003,0.0,1782.992,0.8850000000000016,100.0,20.536,19.671,43.576,42.169,0.0,0.0,100.0,0.0,0.0,0.0,0.0,2561.1111111111113,2179.2,4173.222222222223,3734.6,307.18533333333335,307.76725,314.6015,315.501,21.709333333333333,20.4358,21.738599999999998,21.3182,314.999998,314.999998,324.999988,324.999988,99.55647142857143,99.50601666666667,99.55982857142857,99.54335714285715,-0.08274999999999988,-0.14200000000000002,-0.20650000000000002,0.008000000000000007,-0.0799999999999983,-0.051666666666669414,1.5403333333333333,1.5775000000000001,36.684,28.723666666666666,36.866,34.239,54.942,33.147,57.158,50.81066666666666,52.855000000000004,32.4315,55.8195,49.246,51.974000000000004,32.053,55.739,48.71333333333333,0.03500000000000014,-0.1030000000000002,0.10891,0.10608500000000001,0.0,207.085,206.97500000000002,204.03,204.03,0.0,0.0
5,0.0,0.0,0.0,1.0,1.0,0.0,0.0,1.0,0.0,100.0,1.0,1.1856,26.0,0.0,0.0,0.0,59.999996,0.0,26.0,26.0,26.0,26.0,-0.15111111111111108,0.33110000000000017,-0.0155,297.516,-2.7684,-2.8812857142857142,-1.5108000000000001,-1.6036666666666668,-258.99,216.20749999999998,190.893375,0.0,0.0,0.0,0.0,0.011300000000000001,-5.498166666666667,-5.498166666666667,-0.3497,0.4916666666666667,-0.08877777777777807,1.1055,66.27,-0.0937,0.00072,1.1720000000000006,100.0,1.0,1.0,204.46666666666667,0.0,0.0,0.0,0.0,0.0,0.0,0.0,8666.6,0.0,55.0,5.0,238.53333333333333,1.0,0.0,0.0,0.0,0.0,0.0,0.0,0.0,0.2579999999999991,0.2579999999999991,0.0,0.0,1.0,55.0,616.79921,10000.0,85.000001,85.000001,85.000001,85.000001,395.0,0.0,0.0,0.0,1.0,166.665,62.927,62.927,48.08,48.08,34.0,-22.366,14.386,-33.980000000000004,23.7875,0.0,1782.943,0.35999999999999943,100.0,20.694,19.355,43.400999999999996,41.747,0.0,0.0,100.0,0.0,0.0,0.0,0.0,2393.222222222222,2122.4,4223.0,4154.2,307.47933333333333,308.15275,314.51475,314.576,21.718222222222224,20.43965,21.7486,21.3267,314.999998,314.999998,324.999988,324.999988,99.55648571428571,99.50601666666667,99.55995714285714,99.5435,-0.06374999999999997,-0.13375000000000004,-0.21033333333333337,0.009666666666666712,-0.02833333333332888,-0.03166666666666629,1.5206666666666666,1.58,36.739000000000004,28.747666666666667,36.929,34.292,54.923,33.177,57.205,50.872,52.837,32.4595,55.8635,49.30433333333333,51.955,32.079,55.7805,48.77033333333333,0.008000000000000007,-0.07900000000000018,0.103035,0.11979500000000001,0.0,207.62,207.505,204.46666666666667,204.46666666666667,0.0,0.0
6,0.0,0.0,0.0,1.0,1.0,0.0,0.0,1.0,0.0,100.0,1.0,1.1856,26.0,0.0,0.0,0.0,59.999996,0.0,26.0,26.0,26.0,26.0,-0.12888888888888894,0.32030000000000003,0.0013000000000000002,297.333,-2.73735,-2.912571428571429,-1.556,-1.598111111111111,-255.81,216.1875,190.874,0.0,0.0,0.0,0.0,0.013133333333333335,-5.498166666666667,-5.498166666666667,-0.34340000000000004,0.12066666666666667,-0.0685555555555557,0.97,66.42,-0.0936,0.0022800000000000003,0.8279999999999994,100.0,1.0,1.0,204.92333333333335,0.0,0.0,0.0,0.0,0.0,0.0,0.0,8686.0,0.0,55.0,5.0,239.07999999999998,0.0,0.0,0.0,0.0,0.0,0.0,0.0,0.0,0.30600000000000094,0.30600000000000094,0.0,0.0,0.0,55.0,616.79921,10000.0,85.000001,85.000001,85.000001,85.000001,395.0,0.0,0.0,0.0,1.0,333.33500000000004,62.698,62.698,47.806,47.806,34.0,-21.756,16.708,-33.46666666666667,24.060000000000002,0.0,1782.894,0.129999999999999,100.0,20.549,19.39,43.527,42.138,0.0,0.0,100.0,0.0,0.0,0.0,0.0,2394.777777777778,2261.9,4167.222222222223,4118.2,307.426,307.64125,314.62825,314.65875,21.726444444444443,20.4433,21.7581,21.335,314.999998,314.999998,324.999988,324.999988,99.55648571428571,99.50603333333333,99.5601,99.54362857142857,-0.04600000000000004,-0.10150000000000003,-0.19733333333333336,0.019000000000000128,-0.05333333333332746,-0.060000000000002274,1.516,1.5495,36.79,28.770666666666664,36.988,34.344,54.902,33.204499999999996,57.25,50.93366666666667,52.817,32.4845,55.906,49.36333333333333,51.935,32.1035,55.82,48.827666666666666,-0.0129999999999999,-0.046499999999999986,0.09936,0.11939500000000002,0.0,208.055,207.98000000000002,204.92333333333335,204.92333333333335,0.0,0.0
7,0.0,0.0,0.0,1.0,1.0,0.0,0.0,1.0,0.0,100.0,1.0,1.1856,26.0,0.0,0.0,0.0,59.999996,0.0,26.0,26.0,26.0,26.0,-0.0852222222222222,0.3016000000000001,0.0341,297.195,-2.71145,-2.8707142857142856,-1.51705,-1.6403333333333332,-252.22,216.1625,190.852375,0.0,0.0,0.0,0.0,0.015233333333333335,-5.498166666666667,-5.498166666666667,-0.34590000000000004,0.11800000000000001,-0.05677777777777804,1.092,66.588,-0.0781,-0.0059,0.395999999999999,100.0,1.0,1.0,205.44666666666666,0.0,0.0,0.0,0.0,0.0,0.0,0.0,8708.2,0.0,55.0,5.0,239.68333333333334,1.0,0.0,0.0,0.0,0.0,0.0,0.0,0.0,0.35999999999999943,0.35999999999999943,0.0,0.0,1.0,55.0,616.79921,10000.0,85.000001,85.000001,85.000001,85.000001,395.0,0.0,0.0,0.0,1.0,166.665,62.485,62.485,47.943,47.943,34.0,-20.922,17.518,-31.613333333333333,25.75,0.0,1782.841,-0.14999999999999858,100.0,20.624,19.463,43.577,42.419,0.0,0.0,100.0,0.0,0.0,0.0,0.0,2436.666666666667,2290.8,4091.777777777778,4117.5,307.248,307.5235,314.77175,314.604,21.735666666666667,20.44745,21.7688,21.3443,314.999998,314.999998,324.999988,324.999988,99.55648571428571,99.50603333333333,99.56025714285714,99.54377142857143,-0.006999999999999895,-0.07450000000000001,-0.18266666666666664,0.03633333333333333,-0.04333333333332945,-0.06666666666666998,1.505,1.518,36.848,28.796333333333333,37.055,34.402,54.878,33.235,57.2995,51.00233333333333,52.794,32.5125,55.9525,49.429,51.9125,32.129999999999995,55.864,48.891666666666666,-0.04699999999999993,-0.01650000000000018,0.10617000000000001,0.10618500000000002,0.0,208.57,208.53,205.44666666666666,205.44666666666666,0.0,0.0
8,0.0,0.0,0.0,1.0,1.0,0.0,0.0,1.0,0.0,100.0,1.0,1.1856,26.0,0.0,0.0,0.0,59.999996,0.0,26.0,26.0,26.0,26.0,-0.053888888888888875,0.32600000000000007,0.0332,297.394,-2.79605,-2.845428571428571,-1.50055,-1.5931111111111111,-249.01999999999998,216.1375,190.833,0.0,0.0,0.0,0.0,0.0171,-5.498166666666667,-5.498166666666667,-0.3462,-0.6046666666666667,-0.04122222222222227,0.8154999999999999,66.739,-0.055600000000000004,0.00536,-0.09600000000000009,100.0,1.0,1.0,205.82999999999998,0.0,0.0,0.0,0.0,0.0,0.0,0.0,8724.4,0.0,55.0,5.0,240.23000000000002,0.0,0.0,0.0,0.0,0.0,0.0,0.0,0.0,0.40800000000000125,0.40800000000000125,0.0,0.0,0.0,55.0,616.79921,10000.0,85.000001,85.000001,85.000001,85.000001,395.0,0.0,0.0,0.0,1.0,166.665,63.339,63.339,47.241,47.241,34.0,-18.48,17.772,-31.016666666666666,27.34,0.0,1782.793,-0.28500000000000014,100.0,20.123,19.3195,43.6,42.506,0.0,0.0,100.0,0.0,0.0,0.0,0.0,2209.1111111111113,2277.1,4193.111111111111,4221.8,308.1093333333333,307.68175,314.4745,314.3215,21.743666666666666,20.4511,21.7782,21.3525,314.999998,314.999998,324.999988,324.999988,99.5565,99.50605,99.5604,99.54391428571428,0.009250000000000203,-0.050999999999999934,-0.15383333333333338,0.06066666666666687,-0.060000000000002274,-0.060000000000002274,1.4853333333333334,1.4865,36.897999999999996,28.819333333333333,37.114000000000004,34.4535,54.852999999999994,33.2605,57.3445,51.063,52.771,32.536,55.9945,49.486666666666665,51.888999999999996,32.1525,55.903,48.94833333333334,-0.05499999999999994,-0.008999999999999897,0.10894000000000001,0.110755,0.0,208.995,208.995,205.82999999999998,205.82999999999998,0.0,0.0
9,0.0,0.0,0.0,1.0,1.0,0.0,0.0,1.0,0.0,100.0,1.0,1.1856,26.0,0.0,0.0,0.0,59.999996,0.0,26.0,26.0,26.0,26.0,-0.02066666666666661,0.3104,-0.00918,297.058,-2.72805,-2.8415714285714286,-1.55765,-1.5772222222222223,-245.61,216.11,190.811875,0.0,0.0,0.0,0.0,0.019066666666666666,-5.498166666666667,-5.498166666666667,-0.3501,0.757,-0.04144444444444417,-0.31400000000000006,66.895,-0.032,0.00588,-0.08000000000000007,100.0,1.0,1.0,206.42333333333335,0.0,0.0,0.0,0.0,0.0,0.0,0.0,8749.6,0.0,55.0,5.0,240.79000000000002,1.0,0.0,0.0,0.0,0.0,0.0,0.0,0.0,0.45899999999999963,0.45899999999999963,0.0,0.0,1.0,55.0,616.79921,10000.0,85.000001,85.000001,85.000001,85.000001,395.0,0.0,0.0,0.0,1.0,166.665,62.088,62.088,48.187,48.187,34.0,-21.344,18.599999999999998,-29.97,26.7625,0.0,1782.742,-0.4549999999999983,100.0,20.489,19.9045,43.128,42.631,0.0,0.0,100.0,0.0,0.0,0.0,0.0,2619.8888888888887,2271.8,4135.333333333333,4124.8,306.8933333333333,307.4425,314.8275,314.59875,21.752333333333333,20.4552,21.7882,21.3613,314.999998,314.999998,324.999988,324.999988,99.5565,99.50605,99.56052857142858,99.54405714285714,0.03100000000000014,-0.03025,-0.13849999999999996,0.0728333333333333,-0.060000000000002274,-0.061666666666667425,1.5366666666666666,1.534,36.952,28.845,37.176,34.507999999999996,54.83,33.289500000000004,57.388,51.126,52.748999999999995,32.5625,56.035,49.547,51.867,32.1775,55.941,49.007333333333335,-0.06899999999999995,0.0015000000000000568,0.10305,0.10622000000000001,0.0,209.51,209.51,206.42333333333335,206.42333333333335,0.0,0.0
10,0.0,0.0,0.0,1.0,1.0,0.0,0.0,1.0,0.0,100.0,1.0,1.1856,26.0,0.0,0.0,0.0,59.999996,0.0,26.0,26.0,26.0,26.0,0.012111111111111184,0.3224,-0.02228,296.98199999999997,-2.76425,-2.8242857142857143,-1.53935,-1.5518888888888889,-242.39,216.085,190.792375,0.0,0.0,0.0,0.0,0.020933333333333335,-5.498166666666667,-5.498166666666667,-0.32730000000000004,-0.4103333333333333,-0.0009999999999998899,0.369,67.047,-0.0154,0.01584,-0.363999999999999,100.0,1.0,1.0,206.69,0.0,0.0,0.0,0.0,0.0,0.0,0.0,8760.9,0.0,55.0,5.0,241.33333333333334,0.0,0.0,0.0,0.0,0.0,0.0,1.0,0.0,0.5069999999999979,0.5069999999999979,0.0,0.0,0.0,55.0,616.79921,10000.0,85.000001,85.000001,85.000001,85.000001,395.0,0.0,0.0,0.0,1.0,166.665,63.248,63.248,46.707,46.707,34.0,-16.37,17.68,-31.586666666666666,29.4075,0.0,1782.694,-0.6649999999999991,100.0,20.257,19.8335,43.574,43.382,0.0,0.0,100.0,0.0,0.0,0.0,0.0,2147.333333333333,2132.0,4387.888888888889,4327.4,308.335,307.92225,314.10525,314.01375,21.760444444444445,20.4589,21.7978,21.3697,314.999998,314.999998,324.999988,324.999988,99.5565,99.50605,99.56067142857142,99.54418571428572,0.057250000000000245,-0.009000000000000008,-0.12383333333333335,0.09050000000000002,-0.03499999999999659,-0.06333333333333258,1.4723333333333333,1.456,37.001999999999995,28.868333333333332,37.236000000000004,34.561,54.807,33.314,57.4335,51.19,52.727999999999994,32.585,56.078,49.608333333333334,51.8455,32.1995,55.981,49.06733333333334,-0.08399999999999985,0.02499999999999991,0.10690000000000001,0.10517000000000001,0.0,209.945,209.965,206.69,206.69,0.0,0.0
11,0.0,0.0,0.0,1.0,1.0,0.0,0.0,1.0,0.0,100.0,1.0,1.1856,26.0,0.0,0.0,0.0,59.999996,0.0,26.0,26.0,26.0,26.0,0.021333333333333426,0.29720000000000013,-0.059879999999999996,297.516,-2.8076499999999998,-2.8064285714285715,-1.59225,-1.5393333333333332,-238.97,216.0575,190.771625,0.0,0.0,0.0,0.0,0.022600000000000002,-5.498166666666667,-5.498166666666667,-0.36960000000000004,-0.219,0.025333333333333208,0.24099999999999988,67.199,0.005,-0.010920000000000001,-0.6620000000000008,100.0,1.0,1.0,207.45,0.0,0.0,0.0,0.0,0.0,0.0,0.0,8793.1,0.0,55.0,5.0,241.88666666666666,1.0,0.0,0.0,0.0,0.0,0.0,1.0,0.0,0.5579999999999998,0.5579999999999998,0.0,0.0,1.0,55.0,616.79921,10000.0,85.000001,85.000001,85.000001,85.000001,395.0,0.0,0.0,0.0,1.0,333.33500000000004,62.622,62.622,48.34,48.34,34.0,-17.452,20.968,-24.72,27.2075,0.0,1782.643,-0.879999999999999,100.0,20.127,19.893,43.126,43.231,0.0,0.0,100.0,0.0,0.0,0.0,0.0,2267.8888888888887,2451.1,3782.777777777778,3945.1000000000004,307.914,307.07375,315.63225,315.0525,21.768666666666668,20.46305,21.8077,21.3785,314.999998,314.999998,324.999988,324.999988,99.5565,99.50605,99.5608,99.54432857142857,0.06925000000000026,0.006750000000000034,-0.08633333333333337,0.12549999999999994,-0.06499999999999773,-0.07000000000000028,1.6103333333333334,1.588,37.054,28.894,37.298,34.6155,54.781,33.342,57.475,51.25366666666667,52.704,32.6105,56.1165,49.669333333333334,51.8215,32.224000000000004,56.016999999999996,49.126666666666665,-0.08799999999999986,0.020499999999999963,0.10387500000000001,0.10189500000000001,0.0,210.39499999999998,210.44,207.45,207.45,0.0,0.0
12,0.0,0.0,0.0,1.0,1.0,0.0,0.0,1.0,0.0,100.0,1.0,1.1856,26.0,0.0,0.0,0.0,59.999996,0.0,26.0,26.0,26.0,26.0,0.04299999999999993,0.32120000000000015,0.018680000000000002,296.906,-2.86295,-2.798571428571429,-1.5603500000000001,-1.569888888888889,-235.74,216.03,190.750875,0.0,0.0,0.0,0.0,0.025466666666666665,-5.498166666666667,-5.498166666666667,-0.3541,0.3223333333333333,0.01288888888888895,0.7284999999999999,67.349,0.0251,0.01864,-0.7439999999999998,100.0,1.0,1.0,207.69333333333333,0.0,0.0,0.0,0.0,0.0,0.0,0.0,8803.3,0.0,55.0,5.0,242.42333333333335,0.0,0.0,0.0,0.0,0.0,0.0,1.0,0.0,0.6059999999999981,0.6059999999999981,0.0,0.0,0.0,55.0,616.79921,10000.0,85.000001,85.000001,85.000001,85.000001,395.0,0.0,0.0,0.0,1.0,166.665,62.546,62.546,47.012,47.012,34.0,-18.266,21.064,-27.516666666666666,32.715,0.0,1782.595,-0.21999999999999886,100.0,20.031,20.038,43.125,43.136,0.0,0.0,100.0,0.0,0.0,0.0,0.0,2309.1111111111113,2482.4,4256.777777777777,4310.2,307.78133333333335,307.00225,314.42175,314.1925,21.776555555555554,20.467,21.8171,21.3868,314.999998,314.999998,324.999988,324.999988,99.55651428571429,99.50606666666667,99.56094285714286,99.54445714285714,0.06674999999999986,0.0022500000000000853,-0.0668333333333333,0.15533333333333332,-0.045000000000001705,-0.04833333333333201,1.5133333333333334,1.4875,37.104,28.918666666666667,37.357,34.667500000000004,54.759,33.3695,57.518,51.31433333333334,52.683,32.635999999999996,56.157,49.727333333333334,51.8,32.248,56.0545,49.184,-0.06000000000000005,-0.009500000000000064,0.110975,0.11170500000000001,0.0,210.885,210.93,207.69333333333333,207.69333333333333,0.0,0.0
13,0.0,0.0,0.0,1.0,1.0,0.0,0.0,1.0,0.0,100.0,1.0,1.1856,26.0,0.0,0.0,0.0,59.999996,0.0,26.0,26.0,26.0,26.0,0.076888888888889,0.30500000000000016,0.03576000000000001,296.57,-2.8452,-2.788857142857143,-1.595,-1.5545555555555557,-232.3,216.005,190.729125,0.0,0.0,0.0,0.0,0.0268,-5.498166666666667,-5.498166666666667,-0.34490000000000004,-0.044,0.016666666666666607,-0.41800000000000015,67.505,0.0285,0.0118,-0.6600000000000001,100.0,1.0,1.0,208.13,0.0,0.0,0.0,0.0,0.0,0.0,0.0,8821.8,0.0,55.0,5.0,242.98333333333335,1.0,0.0,0.0,0.0,0.0,0.0,1.0,0.0,0.657,0.657,0.0,0.0,1.0,55.0,616.79921,10000.0,85.000001,85.000001,85.000001,85.000001,395.0,0.0,0.0,0.0,1.0,333.33500000000004,62.363,62.363,46.921,46.921,34.0,-17.61,21.310000000000002,-28.849999999999998,32.61,0.0,1782.542,-1.0300000000000011,100.0,20.097,20.372,43.298,43.798,0.0,0.0,100.0,0.0,0.0,0.0,0.0,2422.4444444444443,2350.2,4284.111111111111,4363.6,307.589,307.222,314.398,313.955,21.785,20.4712,21.8272,21.3959,314.999998,314.999998,324.999988,324.999988,99.55652857142857,99.50606666666667,99.56108571428571,99.54461428571429,0.11175000000000024,0.05049999999999999,-0.07566666666666666,0.14216666666666677,-0.054999999999999716,-0.060000000000002274,1.47,1.4525000000000001,37.156,28.945,37.42,34.724000000000004,54.738,33.3995,57.5635,51.382333333333335,52.663,32.6635,56.1995,49.79266666666666,51.7795,32.2745,56.094,49.24766666666667,-0.11399999999999988,0.052000000000000046,0.10901000000000001,0.10535000000000001,0.0,211.365,211.405,208.13,208.13,0.0,0.0
14,0.0,0.0,0.0,1.0,1.0,0.0,0.0,1.0,0.0,100.0,1.0,1.1856,26.0,0.0,0.0,0.0,59.999996,0.0,26.0,26.0,26.0,26.0,0.09944444444444445,0.31330000000000013,-0.01144,296.875,-2.8421,-2.792714285714286,-1.60525,-1.5306666666666668,-228.65,215.98000000000002,190.706625,0.0,0.0,0.0,0.0,0.028933333333333332,-5.498166666666667,-5.498166666666667,-0.3536,-0.11900000000000001,0.0451111111111111,-0.25349999999999984,67.668,0.0422,0.0016,-0.9779999999999998,100.0,1.0,1.0,208.71,0.0,0.0,0.0,0.0,0.0,0.0,0.0,8846.4,0.0,55.0,5.0,243.57333333333332,0.0,0.0,0.0,0.0,0.0,0.0,1.0,0.0,0.7109999999999985,0.7109999999999985,0.0,0.0,0.0,55.0,616.79921,10000.0,85.000001,85.000001,85.000001,85.000001,395.0,0.0,0.0,0.0,1.0,166.665,62.546,62.546,47.134,47.134,34.0,-16.054000000000002,22.054000000000002,-26.06,31.3725,0.0,1782.489,-0.9699999999999989,100.0,19.908,20.402,43.244,44.010999999999996,0.0,0.0,100.0,0.0,0.0,0.0,0.0,2281.0,2400.9,4065.3333333333335,4227.4,308.00733333333335,306.99925,314.936,314.30975,21.793888888888887,20.47565,21.8378,21.4054,314.999998,314.999998,324.999988,324.999988,99.55652857142857,99.50606666666667,99.56124285714286,99.54475714285714,0.12300000000000022,0.053749999999999964,-0.05799999999999994,0.15383333333333327,-0.054999999999999716,-0.06666666666666998,1.5350000000000001,1.5135,37.212,28.973,37.486000000000004,34.783500000000004,54.715,33.4315,57.61,51.452666666666666,52.641,32.6935,56.243,49.86033333333333,51.7575,32.303,56.134,49.314,-0.11850000000000005,0.04600000000000004,0.11113500000000001,0.10663500000000001,0.0,211.84,211.91500000000002,208.71,208.71,0.0,0.0
15,0.0,0.0,0.0,1.0,1.0,0.0,0.0,1.0,0.0,100.0,1.0,1.1856,26.0,0.0,0.0,0.0,59.999996,0.0,26.0,26.0,26.0,26.0,0.08466666666666667,0.30010000000000003,0.01426,296.89,-2.84915,-2.6952857142857143,-1.62845,-1.4706666666666668,-225.6,215.9625,190.6875,0.0,0.0,0.0,0.0,0.0307,-5.498166666666667,-5.498166666666667,-0.3436,0.2656666666666667,0.07299999999999995,0.78,67.804,0.0558,0.02254,-0.9559999999999995,100.0,1.0,1.0,209.10333333333335,0.0,0.0,0.0,0.0,0.0,0.0,0.0,8863.1,0.0,55.0,5.0,244.06,1.0,0.0,0.0,0.0,0.0,0.0,1.0,0.0,0.7560000000000002,0.7560000000000002,0.0,0.0,1.0,55.0,616.79921,10000.0,85.000001,85.000001,85.000001,85.000001,395.0,0.0,0.0,0.0,1.0,166.665,62.79,62.79,47.165,47.165,34.0,-14.724,21.646,-25.006666666666664,33.9725,0.0,1782.445,-0.5399999999999991,100.0,20.046,20.2205,43.109,43.957,0.0,0.0,100.0,0.0,0.0,0.0,0.0,2067.333333333333,2490.6,4030.1111111111113,4467.6,308.487,306.9745,314.98925,313.8285,21.801222222222222,20.4794,21.8466,21.4133,314.999998,314.999998,324.999988,324.999988,99.55654285714286,99.50606666666667,99.56137142857143,99.54488571428571,0.11525000000000007,0.040750000000000064,-0.03466666666666662,0.1771666666666667,-0.04833333333333201,-0.060000000000002274,1.52,1.4735,37.257,28.996333333333332,37.541,34.833,54.695,33.4585,57.6475,51.51166666666667,52.623000000000005,32.718,56.2775,49.917,51.739,32.326499999999996,56.1665,49.36933333333333,-0.08549999999999991,0.014999999999999902,0.10608000000000001,0.10287500000000001,0.0,212.285,212.34,209.10333333333335,209.10333333333335,0.0,0.0
16,0.0,0.0,0.0,1.0,1.0,0.0,0.0,1.0,0.0,100.0,1.0,1.1856,26.0,0.0,0.0,0.0,59.999996,0.0,26.0,26.0,26.0,26.0,0.08522222222222209,0.2953000000000001,-0.05004,296.89,-2.9013,-2.712428571428571,-1.5903,-1.5434444444444444,-222.14,215.9425,190.665375,0.0,0.0,0.0,0.0,0.03273333333333333,-5.498166666666667,-5.498166666666667,-0.3643,-0.6443333333333334,0.04499999999999993,-1.322,67.958,0.060000000000000005,0.0078000000000000005,-0.5,100.0,1.0,1.0,209.58333333333331,0.0,0.0,0.0,0.0,0.0,0.0,0.0,8883.4,0.0,55.0,5.0,244.61333333333334,0.0,0.0,0.0,0.0,0.0,0.0,1.0,0.0,0.8069999999999986,0.8069999999999986,0.0,0.0,0.0,55.0,616.79921,10000.0,85.000001,85.000001,85.000001,85.000001,395.0,0.0,0.0,0.0,1.0,333.33500000000004,62.683,62.683,46.951,46.951,34.0,-17.985999999999997,20.682000000000002,-25.43,31.86,0.0,1782.392,-0.09999999999999787,100.0,19.621,20.3525,43.352000000000004,44.092,0.0,0.0,100.0,0.0,0.0,0.0,0.0,2327.777777777778,2436.4,4090.222222222222,4144.1,307.959,306.99675,314.88875,314.47675,21.80922222222222,20.48365,21.8567,21.4222,314.999998,314.999998,324.999988,324.999988,99.55655714285714,99.50608333333334,99.56151428571428,99.54504285714286,0.08099999999999996,0.01649999999999996,-0.045499999999999985,0.17199999999999993,-0.05333333333332746,-0.041666666666671404,1.5213333333333334,1.499,37.308,29.022666666666666,37.604,34.888999999999996,54.669,33.4875,57.693,51.577333333333335,52.598,32.745,56.32,49.97966666666667,51.714,32.3525,56.206,49.431333333333335,-0.04249999999999998,-0.023499999999999854,0.10495000000000002,0.11162500000000002,0.0,212.735,212.755,209.58333333333331,209.58333333333331,0.0,0.0
17,0.0,0.0,0.0,1.0,1.0,0.0,0.0,1.0,0.0,100.0,1.0,1.1856,26.0,0.0,0.0,0.0,59.999996,0.0,26.0,26.0,26.0,26.0,0.03833333333333333,0.3183,0.045000000000000005,296.432,-2.84965,-2.7065714285714284,-1.6207500000000001,-1.5184444444444445,-218.47,215.9225,190.641375,0.0,0.0,0.0,0.0,0.03486666666666667,-5.498166666666667,-5.498166666666667,-0.3501,0.432,0.010666666666666602,-0.891,68.12,0.0425,0.02864,0.09600000000000009,100.0,1.0,1.0,210.0,0.0,0.0,0.0,0.0,0.0,0.0,0.0,8901.1,0.0,55.0,5.0,245.19666666666666,1.0,0.0,0.0,0.0,0.0,0.0,1.0,0.0,0.8610000000000007,0.8610000000000007,0.0,0.0,1.0,55.0,616.79921,10000.0,85.000001,85.000001,85.000001,85.000001,395.0,0.0,0.0,0.0,1.0,166.665,62.454,62.454,46.57,46.57,34.0,-19.16,18.822,-30.566666666666666,31.7925,0.0,1782.339,0.010000000000001563,100.0,20.146,20.4835,43.351,43.995000000000005,0.0,0.0,100.0,0.0,0.0,0.0,0.0,2433.1111111111113,2299.7,4482.111111111111,4353.1,307.5966666666667,307.42925,314.039,314.06975,21.81811111111111,20.4882,21.8673,21.4317,314.999998,314.999998,324.999988,324.999988,99.55655714285714,99.50608333333334,99.56167142857143,99.5452,0.06550000000000011,-0.00024999999999997247,-0.07366666666666666,0.14200000000000013,-0.05333333333332746,-0.04999999999999716,1.483,1.475,37.363,29.051333333333332,37.67,34.948,54.644999999999996,33.519,57.7395,51.64633333333333,52.576,32.7735,56.3635,50.046,51.691,32.379999999999995,56.246,49.496,-0.03400000000000003,-0.038000000000000256,0.10395000000000001,0.11154000000000001,0.0,213.29000000000002,213.28,210.0,210.0,0.0,0.0
18,0.0,0.0,0.0,1.0,1.0,0.0,0.0,1.0,0.0,100.0,1.0,1.1856,26.0,0.0,0.0,0.0,59.999996,0.0,26.0,26.0,26.0,26.0,0.0006666666666665932,0.3126,-0.009640000000000001,296.539,-2.86365,-2.702714285714286,-1.6193,-1.4776666666666667,-215.4,215.9075,190.621625,0.0,0.0,0.0,0.0,0.03663333333333333,-5.498166666666667,-5.498166666666667,-0.36210000000000003,-0.507,0.02011111111111097,0.7545,68.254,0.0201,0.011980000000000001,0.19599999999999973,100.0,1.0,1.0,210.45666666666668,0.0,0.0,0.0,0.0,0.0,0.0,0.0,8920.5,0.0,55.0,5.0,245.68333333333334,0.0,0.0,0.0,0.0,0.0,0.0,1.0,0.0,0.9059999999999988,0.9059999999999988,0.0,0.0,0.0,55.0,616.79921,10000.0,85.000001,85.000001,85.000001,85.000001,395.0,0.0,0.0,0.0,1.0,166.665,62.378,62.378,46.677,46.677,34.0,-18.94,20.823999999999998,-28.816666666666666,29.4375,0.0,1782.295,0.0,100.0,20.147,20.101,43.838,44.094,0.0,0.0,100.0,0.0,0.0,0.0,0.0,2356.777777777778,2548.5,4170.222222222223,4241.9,307.711,306.90225,314.67175,314.382,21.825444444444443,20.49185,21.8762,21.4396,314.999998,314.999998,324.999988,324.999988,99.55657142857143,99.50608333333334,99.56178571428572,99.54532857142857,0.05699999999999994,-0.0020000000000000018,-0.08816666666666662,0.13149999999999995,-0.051666666666669414,-0.06333333333333258,1.5073333333333334,1.516,37.409,29.074333333333335,37.727000000000004,34.998,54.623000000000005,33.543,57.7795,51.705,52.555,32.796,56.400999999999996,50.102333333333334,51.670500000000004,32.4015,56.281,49.551,-0.034499999999999975,-0.02950000000000008,0.10572000000000001,0.11259000000000001,0.0,213.68,213.67000000000002,210.45666666666668,210.45666666666668,0.0,0.0
19,0.0,0.0,0.0,1.0,1.0,0.0,0.0,1.0,0.0,100.0,1.0,1.1856,26.0,0.0,0.0,0.0,59.999996,0.0,26.0,26.0,26.0,26.0,-0.005777777777777771,0.30800000000000005,0.06292,296.051,-2.76985,-2.811857142857143,-1.6232,-1.475,-211.92000000000002,215.89249999999998,190.599,0.0,0.0,0.0,0.0,0.03866666666666667,-5.498166666666667,-5.498166666666667,-0.3498,0.8893333333333334,0.011444444444444368,-0.8879999999999999,68.405,0.0035,0.02628,0.2900000000000009,100.0,1.0,1.0,210.88666666666666,0.0,0.0,0.0,0.0,0.0,0.0,0.0,8938.8,0.0,55.0,5.0,246.22333333333336,1.0,0.0,0.0,0.0,0.0,0.0,1.0,0.0,0.9570000000000007,0.9570000000000007,0.0,0.0,1.0,55.0,616.79921,10000.0,85.000001,85.000001,85.000001,85.000001,395.0,0.0,0.0,0.0,1.0,333.33500000000004,61.859,61.859,46.387,46.387,34.0,-19.692,19.47,-32.54,30.0075,0.0,1782.242,0.02500000000000213,100.0,20.593,20.6325,43.665,44.086,0.0,0.0,100.0,0.0,0.0,0.0,0.0,2460.4444444444443,2371.9,4421.111111111111,4421.1,307.38166666666666,306.98575,314.1895,313.94525,21.83388888888889,20.4962,21.8863,21.4486,314.999998,314.999998,324.999988,324.999988,99.55658571428572,99.50608333333334,99.56192857142857,99.54547142857143,0.045250000000000234,-0.03374999999999995,-0.1173333333333334,0.11216666666666675,-0.05666666666667197,-0.051666666666669414,1.4849999999999999,1.4795,37.462,29.101333333333336,37.789,35.0535,54.601,33.573,57.823,51.769666666666666,52.534,32.823499999999996,56.442,50.16433333333333,51.649,32.428,56.3185,49.612,-0.03949999999999987,-0.04200000000000026,0.10165,0.11680000000000001,0.0,214.2,214.17000000000002,210.88666666666666,210.88666666666666,0.0,0.0
20,0.0,0.0,0.0,1.0,1.0,0.0,0.0,1.0,0.0,100.0,1.0,1.1856,26.0,0.0,0.0,0.0,59.999996,0.0,26.0,26.0,26.0,26.0,-0.0004444444444444695,0.2836000000000001,-0.05716,296.539,-2.85695,-2.782571428571429,-1.53845,-1.6076666666666668,-208.22,215.875,190.57525,0.0,0.0,0.0,0.0,0.0408,-5.498166666666667,-5.498166666666667,-0.35910000000000003,-1.1623333333333332,-0.000888888888888939,-1.0965000000000003,68.566,-0.009000000000000001,0.01156,0.28200000000000003,100.0,1.0,1.0,211.34,0.0,0.0,0.0,0.0,0.0,0.0,0.0,8957.9,0.0,55.0,5.0,246.80666666666667,0.0,0.0,0.0,0.0,0.0,0.0,0.0,0.0,1.0109999999999992,1.0109999999999992,0.0,0.0,0.0,55.0,616.79921,10000.0,85.000001,85.000001,85.000001,85.000001,395.0,0.0,0.0,0.0,1.0,166.665,62.881,62.881,46.234,46.234,34.0,-19.476,17.744,-30.203333333333333,29.01,0.0,1782.189,0.120000000000001,100.0,20.051,20.1455,44.343,44.359,0.0,0.0,100.0,0.0,0.0,0.0,0.0,2327.5555555555557,2261.4,4241.777777777777,4166.4,307.952,307.54075,314.47325,314.3965,21.842444444444446,20.50055,21.897100000000002,21.458199999999998,314.999998,314.999998,324.999988,324.999988,99.55658571428572,99.5061,99.5621,99.54562857142857,0.020999999999999908,-0.042749999999999955,-0.12016666666666664,0.09333333333333327,-0.051666666666669414,-0.03166666666666629,1.4643333333333333,1.487,37.515,29.128333333333334,37.857,35.114,54.571,33.6015,57.8735,51.839666666666666,52.506,32.85,56.489,50.23166666666667,51.6215,32.453,56.363,49.67766666666667,-0.023499999999999854,-0.044500000000000206,0.11170000000000001,0.10619500000000001,0.0,214.64499999999998,214.60500000000002,211.34,211.34,0.0,0.0
21,0.0,0.0,0.0,1.0,1.0,0.0,0.0,1.0,0.0,100.0,1.0,1.1856,26.0,0.0,0.0,0.0,59.999996,0.0,26.0,26.0,26.0,26.0,-0.04299999999999993,0.2946,-0.07604,296.76800000000003,-2.80825,-2.798857142857143,-1.59705,-1.5732222222222223,-205.13,215.86,190.55475,0.0,0.0,0.0,0.0,0.0426,-5.498166666666667,-5.498166666666667,-0.376,0.501,-0.021777777777777896,0.20100000000000007,68.695,-0.0162,0.0172,0.27800000000000047,100.0,1.0,1.0,211.93,0.0,0.0,0.0,0.0,0.0,0.0,0.0,8983.0,0.0,55.0,5.0,247.26999999999998,1.0,0.0,0.0,0.0,0.0,0.0,0.0,0.0,1.056000000000001,1.056000000000001,0.0,0.0,1.0,55.0,616.79921,10000.0,85.000001,85.000001,85.000001,85.000001,395.0,0.0,0.0,0.0,1.0,166.665,62.515,62.515,47.165,47.165,34.0,-19.744,18.714000000000002,-29.993333333333336,27.135,0.0,1782.145,0.054999999999999716,100.0,20.487000000000002,20.049,43.914,43.774,0.0,0.0,100.0,0.0,0.0,0.0,0.0,2375.0,2364.2,4139.111111111111,4069.8,307.59233333333333,307.40975,314.8265,314.82675,21.849777777777778,20.50425,21.9059,21.466,314.999998,314.999998,324.999988,324.999988,99.55658571428572,99.5061,99.56222857142858,99.54575714285714,0.027499999999999858,-0.03774999999999995,-0.12616666666666665,0.09200000000000008,-0.03166666666666629,-0.054999999999999716,1.5346666666666666,1.5550000000000002,37.561,29.151666666666664,37.912,35.1625,54.55,33.6275,57.9095,51.893,52.486000000000004,32.874,56.522999999999996,50.283,51.601,32.476,56.394,49.727666666666664,-0.03299999999999992,-0.038000000000000256,0.10954000000000001,0.109795,0.0,215.065,215.04500000000002,211.93,211.93,0.0,0.0
22,0.0,0.0,0.0,1.0,1.0,0.0,0.0,1.0,0.0,100.0,1.0,1.1856,26.0,0.0,0.0,0.0,59.999996,0.0,26.0,26.0,26.0,26.0,-0.02211111111111108,0.2956000000000001,-0.00542,296.326,-2.7434,-2.8495714285714286,-1.5949499999999999,-1.5604444444444443,-201.62,215.8425,190.530875,0.0,0.0,0.0,0.0,0.04463333333333333,-5.498166666666667,-5.498166666666667,-0.3541,0.026333333333333334,-0.012555555555555653,-0.4710000000000001,68.848,-0.021,0.03792,0.29800000000000004,100.0,1.0,1.0,212.18666666666667,0.0,0.0,0.0,0.0,0.0,0.0,0.0,8993.9,0.0,55.0,5.0,247.82,0.0,0.0,0.0,0.0,0.0,0.0,0.0,0.0,1.1069999999999993,1.1069999999999993,0.0,0.0,0.0,55.0,616.79921,10000.0,85.000001,85.000001,85.000001,85.000001,395.0,0.0,0.0,0.0,1.0,333.33500000000004,62.82,62.82,46.021,46.021,34.0,-18.34,17.184,-33.0,29.415,0.0,1782.091,-0.03500000000000014,100.0,20.366,20.2365,44.311,44.135999999999996,0.0,0.0,100.0,0.0,0.0,0.0,0.0,2273.4444444444443,2176.6,4397.777777777777,4378.6,307.9816666666667,307.70775,314.196,313.997,21.85811111111111,20.5084,21.9161,21.475,314.999998,314.999998,324.999988,324.999988,99.55658571428572,99.5061,99.56238571428571,99.54591428571429,0.02475000000000005,-0.05349999999999999,-0.1326666666666666,0.08200000000000007,-0.046666666666666856,-0.05333333333332746,1.4536666666666667,1.46,37.613,29.177666666666667,37.976,35.219,54.524,33.6575,57.96,51.963,52.462,32.900999999999996,56.570499999999996,50.349666666666664,51.576499999999996,32.502,56.438,49.793,-0.03949999999999987,-0.03149999999999986,0.09660500000000001,0.11514,0.0,215.56,215.51,212.18666666666667,212.18666666666667,0.0,0.0
23,0.0,0.0,0.0,1.0,1.0,0.0,0.0,1.0,0.0,100.0,1.0,1.1856,26.0,0.0,0.0,0.0,59.999996,0.0,26.0,26.0,26.0,26.0,-0.031333333333333324,0.29269999999999996,-0.07672000000000001,296.356,-2.7766,-2.798857142857143,-1.6465,-1.5335555555555558,-197.89999999999998,215.8225,190.506,0.0,0.0,0.0,0.0,0.0468,-5.498166666666667,-5.498166666666667,-0.37270000000000003,-0.01933333333333333,-0.016111111111110965,-0.5540000000000003,69.004,-0.0219,0.014240000000000001,0.24400000000000155,100.0,1.0,1.0,212.79333333333335,0.0,0.0,0.0,0.0,0.0,0.0,0.0,9019.6,0.0,55.0,5.0,248.38333333333333,1.0,0.0,0.0,0.0,0.0,0.0,0.0,0.0,1.1609999999999978,1.1609999999999978,0.0,0.0,1.0,55.0,616.79921,10000.0,85.000001,85.000001,85.000001,85.000001,395.0,0.0,0.0,0.0,1.0,166.665,62.119,62.119,46.921,46.921,34.0,-21.052,18.182,-31.57,25.89,0.0,1782.038,-0.129999999999999,100.0,20.588,20.267,44.35,44.243,0.0,0.0,100.0,0.0,0.0,0.0,0.0,2556.4444444444443,2285.1,4168.222222222223,4103.0,307.147,307.43775,314.79375,314.71775,21.866888888888887,20.51285,21.9268,21.4846,314.999998,314.999998,324.999988,324.999988,99.55658571428572,99.50611666666667,99.56252857142857,99.54607142857142,0.03125,-0.04025000000000001,-0.138,0.07133333333333325,-0.046666666666666856,-0.04999999999999716,1.516,1.5474999999999999,37.668,29.205333333333336,38.043,35.278999999999996,54.5,33.686,58.004,52.02766666666667,52.439,32.9275,56.6115,50.41166666666666,51.5535,32.5275,56.4765,49.85333333333333,-0.04149999999999987,-0.028500000000000192,0.110225,0.09777000000000001,0.0,216.03,215.97,212.79333333333335,212.79333333333335,0.0,0.0
24,0.0,0.0,0.0,1.0,1.0,0.0,0.0,1.0,0.0,100.0,1.0,1.1856,26.0,0.0,0.0,0.0,59.999996,0.0,26.0,26.0,26.0,26.0,-0.017111111111111077,0.30469999999999997,-0.05922000000000001,296.616,-2.8068,-2.806857142857143,-1.5357,-1.562,-194.57999999999998,215.805,190.483375,0.0,0.0,0.0,0.0,0.04873333333333334,-5.498166666666667,-5.498166666666667,-0.379,-0.5686666666666667,-0.003444444444444361,0.04949999999999988,69.145,-0.0165,0.02622,0.09200000000000053,100.0,1.0,1.0,213.11333333333334,0.0,0.0,0.0,0.0,0.0,0.0,0.0,9033.1,0.0,55.0,5.0,248.89,0.0,0.0,0.0,0.0,0.0,0.0,0.0,0.0,1.2089999999999996,1.2089999999999996,0.0,0.0,0.0,55.0,616.79921,10000.0,85.000001,85.000001,85.000001,85.000001,395.0,0.0,0.0,0.0,1.0,166.665,63.248,63.248,46.112,46.112,34.0,-17.972,16.814,-31.21666666666667,28.2325,0.0,1781.99,-0.16000000000000014,100.0,20.217,19.955,44.414,44.216,0.0,0.0,100.0,0.0,0.0,0.0,0.0,2193.0,2160.8,4333.111111111111,4232.1,308.239,307.8575,314.27075,314.361,21.874555555555556,20.51665,21.9364,21.4931,314.999998,314.999998,324.999988,324.999988,99.5566,99.50611666666667,99.56267142857143,99.5462,0.023499999999999854,-0.04849999999999999,-0.126,0.08416666666666672,-0.03999999999999915,-0.045000000000001705,1.4786666666666668,1.4969999999999999,37.716,29.229,38.102000000000004,35.332,54.474999999999994,33.710499999999996,58.047,52.087666666666664,52.416,32.9505,56.652,50.46933333333333,51.53,32.549,56.513999999999996,49.909666666666666,-0.04400000000000004,-0.023499999999999854,0.10719000000000001,0.10572500000000001,0.0,216.44,216.425,213.11333333333334,213.11333333333334,0.0,0.0
25,0.0,0.0,0.0,1.0,1.0,0.0,0.0,1.0,0.0,100.0,1.0,1.1856,26.0,0.0,0.0,0.0,59.999996,0.0,26.0,26.0,26.0,26.0,0.0018888888888888289,0.2946,-0.03702,296.371,-2.87035,-2.7664285714285715,-1.5841,-1.566,-191.26,215.785,190.45925,0.0,0.0,0.0,0.0,0.05066666666666667,-5.498166666666667,-5.498166666666667,-0.40590000000000004,0.09533333333333333,-0.0014444444444445814,-1.057,69.282,-0.0122,0.02228,0.012000000000000455,100.0,1.0,1.0,213.67000000000002,0.0,0.0,0.0,0.0,0.0,0.0,0.0,9056.7,0.0,55.0,5.0,249.38666666666666,1.0,0.0,0.0,0.0,0.0,0.0,0.0,0.0,1.256999999999998,1.256999999999998,0.0,0.0,1.0,55.0,616.79921,10000.0,85.000001,85.000001,85.000001,85.000001,395.0,0.0,0.0,0.0,1.0,166.665,61.981,61.981,46.875,46.875,34.0,-21.826,20.034,-28.833333333333336,27.6475,0.0,1781.943,-0.22499999999999787,100.0,20.258,20.2895,44.120000000000005,44.028,0.0,0.0,100.0,0.0,0.0,0.0,0.0,2601.1111111111113,2483.7,4062.222222222222,4116.0,307.17566666666664,306.85625,315.00825,314.6415,21.88211111111111,20.52065,21.9457,21.5015,314.999998,314.999998,324.999988,324.999988,99.5566,99.50611666666667,99.5628,99.54634285714286,0.03474999999999984,-0.031749999999999945,-0.11983333333333335,0.09250000000000003,-0.05333333333332746,-0.06833333333332803,1.5416666666666665,1.5305,37.763999999999996,29.253999999999998,38.161,35.3845,54.45,33.738,58.086,52.146,52.393,32.9755,56.6885,50.525333333333336,51.507,32.573,56.548,49.96433333333333,-0.05249999999999999,-0.016000000000000014,0.10716,0.10711000000000001,0.0,216.875,216.85500000000002,213.67000000000002,213.67000000000002,0.0,0.0
26,0.0,0.0,0.0,1.0,1.0,0.0,0.0,1.0,0.0,100.0,1.0,1.1856,26.0,0.0,0.0,0.0,59.999996,0.0,26.0,26.0,26.0,26.0,-0.002888888888888941,0.30790000000000006,0.07442000000000001,295.319,-2.8325,-2.8378571428571426,-1.5835,-1.5604444444444443,-187.51999999999998,215.765,190.432,0.0,0.0,0.0,0.0,0.052833333333333336,-5.498166666666667,-5.498166666666667,-0.3634,0.36833333333333335,-0.013222222222222246,-0.3915000000000002,69.441,-0.006200000000000001,0.04778,-0.03999999999999915,100.0,1.0,1.0,213.85666666666668,0.0,0.0,0.0,0.0,0.0,0.0,0.0,9064.6,0.0,55.0,5.0,249.95666666666665,0.0,0.0,0.0,0.0,0.0,0.0,0.0,0.0,1.311,1.311,0.0,0.0,0.0,55.0,616.79921,10000.0,85.000001,85.000001,85.000001,85.000001,395.0,0.0,0.0,0.0,1.0,166.665,62.057,62.057,44.952,44.952,34.0,-19.172,18.25,-34.58333333333333,32.7425,0.0,1781.89,-0.375,100.0,20.923000000000002,20.802,44.787,44.694,0.0,0.0,100.0,0.0,0.0,0.0,0.0,2405.4444444444443,2212.7,4680.444444444444,4654.7,307.56466666666665,307.625,313.4615,313.338,21.891,20.5253,21.9566,21.5113,314.999998,314.999998,324.999988,324.999988,99.55661428571429,99.50611666666667,99.56297142857143,99.5465,0.05900000000000016,-0.023249999999999993,-0.11316666666666664,0.09549999999999992,-0.054999999999999716,-0.05333333333332746,1.408,1.4085,37.819,29.283,38.229,35.445499999999996,54.427,33.7695,58.137,52.217,52.370999999999995,33.004,56.736,50.593333333333334,51.485,32.6005,56.592,50.03066666666667,-0.07250000000000001,-0.00749999999999984,0.10348500000000001,0.10612,0.0,217.39,217.38,213.85666666666668,213.85666666666668,0.0,0.0
27,0.0,0.0,0.0,1.0,1.0,0.0,0.0,1.0,0.0,100.0,1.0,1.1856,26.0,0.0,0.0,0.0,59.999996,0.0,26.0,26.0,26.0,26.0,0.0086666666666666,0.26870000000000016,-0.045700000000000005,296.021,-2.79605,-2.8034285714285714,-1.6298,-1.6233333333333333,-184.39,215.7475,190.410375,0.0,0.0,0.0,0.0,0.05466666666666667,-5.498166666666667,-5.498166666666667,-0.3935,-1.0443333333333333,-0.004222222222222349,0.8125,69.568,-0.0016,0.00402,-0.25,100.0,1.0,1.0,214.44,0.0,0.0,0.0,0.0,0.0,0.0,0.0,9089.4,0.0,55.0,5.0,250.41666666666666,1.0,0.0,0.0,0.0,0.0,0.0,0.0,0.0,1.355999999999998,1.355999999999998,0.0,0.0,1.0,55.0,616.79921,10000.0,85.000001,85.000001,85.000001,85.000001,395.0,0.0,0.0,0.0,1.0,333.33500000000004,62.363,62.363,45.7,45.7,34.0,-17.272,20.528,-29.526666666666664,30.4875,0.0,1781.843,-0.41999999999999815,100.0,20.624,20.4625,45.138000000000005,44.938,0.0,0.0,100.0,0.0,0.0,0.0,0.0,2232.333333333333,2431.2,4106.777777777777,4139.7,307.985,307.19075,314.7195,314.58125,21.89811111111111,20.529,21.9657,21.5194,314.999998,314.999998,324.999988,324.999988,99.55661428571429,99.50613333333334,99.5631,99.54662857142857,0.06574999999999998,0.0002500000000000835,-0.10333333333333339,0.1226666666666667,-0.05333333333332746,-0.051666666666669414,1.483,1.4685000000000001,37.863,29.306333333333335,38.286,35.496,54.405,33.7935,58.1775,52.27466666666667,52.35,33.0265,56.7745,50.648666666666664,51.463499999999996,32.622,56.6275,50.084666666666664,-0.06400000000000006,-0.0030000000000001137,0.11091500000000001,0.11414,0.0,217.73000000000002,217.72,214.44,214.44,0.0,0.0
28,0.0,0.0,0.0,1.0,1.0,0.0,0.0,1.0,0.0,100.0,1.0,1.1856,26.0,0.0,0.0,0.0,59.999996,0.0,26.0,26.0,26.0,26.0,0.030999999999999917,0.3003,-0.06098,296.188,-2.7878,-2.787,-1.6247500000000001,-1.5581111111111112,-180.84,215.72750000000002,190.384875,0.0,0.0,0.0,0.0,0.05673333333333334,-5.498166666666667,-5.498166666666667,-0.39440000000000003,0.709,-0.011666666666666714,-0.6034999999999999,69.712,0.0095,0.03554,-0.266,100.0,1.0,1.0,214.95,0.0,0.0,0.0,0.0,0.0,0.0,0.0,9111.0,0.0,55.0,5.0,250.93333333333334,0.0,0.0,0.0,0.0,0.0,0.0,0.0,0.0,1.407,1.407,0.0,0.0,0.0,55.0,616.79921,10000.0,85.000001,85.000001,85.000001,85.000001,395.0,0.0,0.0,0.0,1.0,333.33500000000004,62.378,62.378,46.371,46.371,34.0,-18.272,18.772,-29.556666666666665,29.5125,0.0,1781.792,-0.4499999999999993,100.0,20.53,20.544,44.35,44.542,0.0,0.0,100.0,0.0,0.0,0.0,0.0,2374.4444444444443,2270.0,4244.444444444444,4220.4,307.671,307.45575,314.6755,314.44725,21.906222222222222,20.5333,21.9756,21.5283,314.999998,314.999998,324.999988,324.999988,99.55661428571429,99.50613333333334,99.56324285714285,99.54677142857143,0.06899999999999995,-0.013249999999999984,-0.09483333333333333,0.1136666666666668,-0.05666666666667197,-0.051666666666669414,1.5376666666666665,1.5194999999999999,37.914,29.333333333333336,38.348,35.552,54.382,33.822,58.218,52.336333333333336,52.328,33.0525,56.812,50.708,51.442,32.647,56.662,50.14266666666667,-0.07099999999999995,-0.00649999999999995,0.11015000000000001,0.109075,0.0,218.215,218.215,214.95,214.95,0.0,0.0
29,0.0,0.0,0.0,1.0,1.0,0.0,0.0,1.0,0.0,100.0,1.0,1.1856,26.0,0.0,0.0,0.0,59.999996,0.0,26.0,26.0,26.0,26.0,0.04444444444444429,0.28910000000000013,-0.02278,296.005,-2.8711,-2.831857142857143,-1.5836000000000001,-1.5627777777777778,-177.07,215.70749999999998,190.356625,0.0,0.0,0.0,0.0,0.05893333333333334,-5.498166666666667,-5.498166666666667,-0.4017,-0.732,-0.002666666666666817,-0.6355,69.868,0.016900000000000002,0.03354,-0.3360000000000003,100.0,1.0,1.0,215.2866666666667,0.0,0.0,0.0,0.0,0.0,0.0,0.0,9125.3,0.0,55.0,5.0,251.49666666666667,1.0,0.0,0.0,0.0,0.0,0.0,0.0,0.0,1.4609999999999985,1.4609999999999985,0.0,0.0,1.0,55.0,616.79921,10000.0,85.000001,85.000001,85.000001,85.000001,395.0,0.0,0.0,0.0,1.0,166.665,62.561,62.561,45.959,45.959,34.0,-19.164,19.394000000000002,-28.833333333333336,31.04,0.0,1781.739,-0.5249999999999986,100.0,20.149,20.4195,44.722,44.963,0.0,0.0,100.0,0.0,0.0,0.0,0.0,2473.6666666666665,2261.8,4219.888888888889,4331.1,307.67466666666667,307.46425,314.5805,314.07575,21.914666666666665,20.53775,21.9865,21.5381,314.999998,314.999998,324.999988,324.999988,99.55662857142858,99.50613333333334,99.56341428571429,99.54694285714285,0.0754999999999999,0.0015000000000000568,-0.08599999999999997,0.11549999999999994,-0.05666666666667197,-0.06333333333333258,1.4626666666666668,1.458,37.967,29.361,38.415,35.613,54.355000000000004,33.8505,58.266999999999996,52.406333333333336,52.303,33.079,56.8575,50.775,51.4165,32.672,56.704499999999996,50.208,-0.07600000000000007,0.00550000000000006,0.10570500000000001,0.10545500000000001,0.0,218.655,218.675,215.2866666666667,215.2866666666667,0.0,0.0
30,0.0,0.0,0.0,1.0,1.0,0.0,0.0,1.0,0.0,100.0,1.0,1.1856,26.0,0.0,0.0,0.0,59.999996,0.0,26.0,26.0,26.0,26.0,0.03022222222222215,0.27470000000000017,0.0417,295.425,-2.79145,-2.7217142857142855,-1.6503999999999999,-1.616111111111111,-173.92000000000002,215.69,190.333125,0.0,0.0,0.0,0.0,0.06076666666666666,-5.498166666666667,-5.498166666666667,-0.3931,0.932,-0.0013333333333331865,0.6599999999999999,69.994,0.0227,0.03714,-0.4139999999999997,100.0,1.0,1.0,215.75,0.0,0.0,0.0,0.0,0.0,0.0,0.0,9144.8,0.0,55.0,5.0,251.94666666666666,0.0,0.0,0.0,0.0,0.0,0.0,1.0,0.0,1.5060000000000002,1.5060000000000002,0.0,0.0,0.0,55.0,616.79921,10000.0,85.000001,85.000001,85.000001,85.000001,395.0,0.0,0.0,0.0,1.0,333.33500000000004,61.264,61.264,45.897999999999996,45.897999999999996,34.0,-18.305999999999997,21.088,-30.05,32.125,0.0,1781.693,-0.5399999999999991,100.0,21.219,21.07,44.649,44.915,0.0,0.0,100.0,0.0,0.0,0.0,0.0,2453.0,2479.7,4308.333333333333,4254.5,307.241,306.9205,314.52225,314.31275,21.922,20.5418,21.9953,21.5462,314.999998,314.999998,324.999988,324.999988,99.55664285714286,99.50613333333334,99.56354285714286,99.54707142857143,0.09850000000000003,0.01475000000000004,-0.08283333333333331,0.13549999999999995,-0.04333333333332945,-0.06666666666666998,1.4903333333333333,1.461,38.012,29.386333333333333,38.471000000000004,35.6635,54.338,33.8785,58.304,52.463,52.287,33.105000000000004,56.8925,50.82933333333333,51.3995,32.697,56.7365,50.261,-0.0814999999999999,0.0015000000000000568,0.11109000000000001,0.10444500000000001,0.0,219.07999999999998,219.11,215.75,215.75,0.0,0.0
31,0.0,0.0,0.0,1.0,1.0,0.0,0.0,1.0,0.0,100.0,1.0,1.1856,26.0,0.0,0.0,0.0,59.999996,0.0,26.0,26.0,26.0,26.0,0.052000000000000046,0.27990000000000004,-0.00742,295.151,-2.8072,-2.7552857142857143,-1.6017000000000001,-1.6137777777777778,-170.14,215.6725,190.306,0.0,0.0,0.0,0.0,0.06296666666666667,-5.498166666666667,-5.498166666666667,-0.3844,-0.5216666666666666,0.0038888888888888307,0.5685,70.148,0.0262,0.02432,-0.48600000000000065,100.0,1.0,1.0,216.10333333333335,0.0,0.0,0.0,0.0,0.0,0.0,0.0,9159.8,0.0,55.0,5.0,252.50333333333333,1.0,0.0,0.0,0.0,0.0,0.0,1.0,0.0,1.5599999999999987,1.5599999999999987,0.0,0.0,1.0,55.0,616.79921,10000.0,85.000001,85.000001,85.000001,85.000001,395.0,0.0,0.0,0.0,1.0,166.665,61.493,61.493,44.815,44.815,34.0,-17.078,23.222,-28.746666666666666,34.230000000000004,0.0,1781.641,-0.625,100.0,20.889,21.083,45.312,45.443,0.0,0.0,100.0,0.0,0.0,0.0,0.0,2324.5555555555557,2647.1,4267.0,4428.1,307.675,306.55775,314.3805,313.9815,21.930444444444444,20.5465,22.0063,21.5561,314.999998,314.999998,324.999988,324.999988,99.55664285714286,99.50615,99.5637,99.54722857142858,0.10375000000000023,0.02825000000000011,-0.06966666666666665,0.14583333333333326,-0.045000000000001705,-0.05333333333332746,1.4573333333333334,1.44,38.065,29.415666666666667,38.539,35.7255,54.313,33.91,58.354,52.535333333333334,52.263999999999996,33.1335,56.939499999999995,50.899,51.3765,32.7245,56.78,50.329,-0.08799999999999986,0.010999999999999899,0.10945,0.11123500000000001,0.0,219.53,219.555,216.10333333333335,216.10333333333335,0.0,0.0
32,0.0,0.0,0.0,1.0,1.0,0.0,0.0,1.0,0.0,100.0,1.0,1.1856,26.0,0.0,0.0,0.0,59.999996,0.0,26.0,26.0,26.0,26.0,0.0798888888888889,0.2812000000000001,-0.01256,295.761,-2.80485,-2.8144285714285715,-1.5824,-1.6443333333333332,-166.55,215.655,190.28025,0.0,0.0,0.0,0.0,0.06503333333333335,-5.498166666666667,-5.498166666666667,-0.4015,-0.20333333333333334,-0.023555555555555774,-1.0110000000000001,70.28999999999999,0.031400000000000004,0.020880000000000003,-0.43599999999999994,100.0,1.0,1.0,216.62666666666667,0.0,0.0,0.0,0.0,0.0,0.0,0.0,9181.9,0.0,55.0,5.0,253.01333333333332,0.0,0.0,0.0,0.0,0.0,0.0,1.0,0.0,1.6110000000000007,1.6110000000000007,0.0,0.0,0.0,55.0,616.79921,10000.0,85.000001,85.000001,85.000001,85.000001,395.0,0.0,0.0,0.0,1.0,166.665,62.241,62.241,45.807,45.807,34.0,-17.374,19.637999999999998,-28.006666666666664,33.6425,0.0,1781.589,-0.6050000000000004,100.0,20.573,20.9615,44.847,45.257000000000005,0.0,0.0,100.0,0.0,0.0,0.0,0.0,2357.666666666667,2256.1,4197.333333333333,4297.9,307.77366666666666,307.483,314.64575,314.1115,21.938444444444443,20.55085,22.0163,21.5652,314.999998,314.999998,324.999988,324.999988,99.55665714285715,99.50615,99.56385714285715,99.54738571428571,0.09575000000000022,0.016250000000000098,-0.07499999999999996,0.14549999999999996,-0.060000000000002274,-0.045000000000001705,1.475,1.458,38.115,29.442666666666668,38.602000000000004,35.7825,54.29,33.9385,58.396,52.599666666666664,52.242000000000004,33.16,56.9785,50.96066666666667,51.3545,32.75,56.8155,50.389,-0.0814999999999999,0.007500000000000062,0.10504500000000001,0.10978500000000001,0.0,219.97500000000002,219.985,216.62666666666667,216.62666666666667,0.0,0.0
33,0.0,0.0,0.0,1.0,1.0,0.0,0.0,1.0,0.0,100.0,1.0,1.1856,26.0,0.0,0.0,0.0,59.999996,0.0,26.0,26.0,26.0,26.0,0.04577777777777792,0.2884,-0.05418,295.959,-2.84535,-2.8040000000000003,-1.6008,-1.5995555555555556,-163.39,215.64249999999998,190.2565,0.0,0.0,0.0,0.0,0.06686666666666667,-5.498166666666667,-5.498166666666667,-0.40800000000000003,-0.24766666666666667,-0.01088888888888917,1.2115,70.41499999999999,0.0313,0.03862,-0.4320000000000004,100.0,1.0,1.0,217.0,0.0,0.0,0.0,0.0,0.0,0.0,0.0,9197.8,0.0,55.0,5.0,253.46666666666667,1.0,0.0,0.0,0.0,0.0,0.0,1.0,0.0,1.6559999999999988,1.6559999999999988,0.0,0.0,1.0,55.0,616.79921,10000.0,85.000001,85.000001,85.000001,85.000001,395.0,0.0,0.0,0.0,1.0,333.33500000000004,62.515,62.515,45.959,45.959,34.0,-16.494,20.482,-27.963333333333335,33.04,0.0,1781.543,-0.6950000000000003,100.0,20.565,20.5785,44.789,45.046,0.0,0.0,100.0,0.0,0.0,0.0,0.0,2240.666666666667,2317.5,4158.111111111111,4347.7,308.00966666666665,307.5065,314.69925,314.119,21.945444444444444,20.55455,22.025199999999998,21.5733,314.999998,314.999998,324.999988,324.999988,99.55665714285715,99.50615,99.56398571428572,99.54751428571429,0.10424999999999995,0.03649999999999998,-0.07550000000000001,0.14283333333333337,-0.041666666666671404,-0.05333333333332746,1.4923333333333333,1.4785,38.159,29.465666666666664,38.657,35.833,54.269999999999996,33.962,58.433,52.656,52.223,33.182,57.0135,51.01433333333333,51.335,32.7705,56.848,50.44166666666666,-0.08650000000000002,0.01550000000000007,0.11464,0.10830500000000001,0.0,220.365,220.365,217.0,217.0,0.0,0.0
34,0.0,0.0,0.0,1.0,1.0,0.0,0.0,1.0,0.0,100.0,1.0,1.1856,26.0,0.0,0.0,0.0,59.999996,0.0,26.0,26.0,26.0,26.0,0.06222222222222218,0.2825,-0.07112,296.082,-2.87215,-2.7274285714285713,-1.66745,-1.5325555555555557,-159.79,215.6275,190.228125,0.0,0.0,0.0,0.0,0.06896666666666666,-5.498166666666667,-5.498166666666667,-0.438,-0.896,0.01344444444444437,-0.3285,70.55799999999999,0.033600000000000005,0.03094,-0.4640000000000004,100.0,1.0,1.0,217.41333333333333,0.0,0.0,0.0,0.0,0.0,0.0,0.0,9215.4,0.0,55.0,5.0,253.98000000000002,0.0,0.0,0.0,0.0,0.0,0.0,1.0,0.0,1.7070000000000007,1.7070000000000007,0.0,0.0,0.0,55.0,616.79921,10000.0,85.000001,85.000001,85.000001,85.000001,395.0,0.0,0.0,0.0,1.0,333.33500000000004,62.79,62.79,46.051,46.051,34.0,-16.715999999999998,19.7,-29.419999999999998,31.7075,0.0,1781.492,-0.6999999999999993,100.0,20.128,20.462,44.588,45.212,0.0,0.0,100.0,0.0,0.0,0.0,0.0,2259.5555555555557,2271.5,4212.888888888889,4313.3,308.036,307.49975,314.675,314.18675,21.953222222222223,20.5587,22.0352,21.5825,314.999998,314.999998,324.999988,324.999988,99.55667142857143,99.50615,99.56412857142857,99.54767142857143,0.10499999999999998,0.03374999999999995,-0.07933333333333337,0.14116666666666666,-0.05333333333332746,-0.04833333333333201,1.4936666666666667,1.477,38.208,29.491999999999997,38.72,35.891,54.245999999999995,33.989,58.4745,52.721666666666664,52.2,33.2065,57.052,51.077666666666666,51.312,32.794,56.882999999999996,50.50333333333333,-0.09349999999999992,0.025499999999999856,0.11001500000000002,0.107365,0.0,220.76999999999998,220.785,217.41333333333336,217.41333333333333,0.0,0.0
35,0.0,0.0,0.0,1.0,1.0,0.0,0.0,1.0,0.0,100.0,1.0,1.1856,26.0,0.0,0.0,0.0,59.999996,0.0,26.0,26.0,26.0,26.0,0.046222222222222165,0.27580000000000005,-0.0898,296.097,-2.84245,-2.7365714285714287,-1.6358000000000001,-1.5244444444444443,-156.19,215.615,190.197875,0.0,0.0,0.0,0.0,0.07106666666666667,-5.498166666666667,-5.498166666666667,-0.4736,0.010333333333333335,-0.002666666666666817,-0.08349999999999991,70.697,0.039900000000000005,0.02632,-0.6560000000000006,100.0,1.0,1.0,217.95333333333335,0.0,0.0,0.0,0.0,0.0,0.0,0.0,9238.2,0.0,55.0,5.0,254.48333333333335,1.0,0.0,0.0,0.0,0.0,0.0,1.0,0.0,1.7579999999999991,1.7579999999999991,0.0,0.0,1.0,55.0,616.79921,10000.0,85.000001,85.000001,85.000001,85.000001,395.0,0.0,0.0,0.0,1.0,333.33500000000004,62.195,62.195,45.897999999999996,45.897999999999996,34.0,-16.662,23.242,-26.256666666666664,30.6475,0.0,1781.442,-0.46499999999999986,100.0,20.118,20.6795,44.456,44.745999999999995,0.0,0.0,100.0,0.0,0.0,0.0,0.0,2258.333333333333,2652.1,4037.4444444444443,4129.6,307.94966666666664,306.46725,315.0045,314.6825,21.961,20.5632,22.0452,21.5916,314.999998,314.999998,324.999988,324.999988,99.55668571428572,99.50615,99.56427142857143,99.54781428571428,0.10375000000000023,0.02774999999999994,-0.0548333333333334,0.1581666666666668,-0.04999999999999716,-0.05833333333333002,1.526,1.5055,38.256,29.52,38.782,35.947,54.22,34.0195,58.515,52.782333333333334,52.177,33.2345,57.09,51.136,51.288,32.8215,56.918,50.56033333333333,-0.08000000000000007,0.0004999999999999449,0.104285,0.10848000000000001,0.0,221.215,221.25,217.95333333333335,217.95333333333332,0.0,0.0
