,ABS Active,ABS Enabled,AID Allow Tire Blankets,AID Auto Blip,AID Auto Clutch,AID Auto Shift,AID Fuel Rate,AID Ideal Line,AID Mech Damage,AID Stability,AID Tire Wear Rate,Air Density,Air Temp,Ballast,Best Lap Delta,Best Lap Time,Brake Bias,Brake Pos,Brake Temp FL,Brake Temp FR,Brake Temp RL,Brake Temp RR,CG Accel Lateral,CG Accel Longitudinal,CG Accel Vertical,CG Height,Camber FL,Camber FR,Camber RL,Camber RR,Car Coord X,Car Coord Y,Car Coord Z,Car Damage Front,Car Damage Left,Car Damage Rear,Car Damage Right,Car Pos Norm,Caster FL,Caster FR,Chassis Pitch Angle,Chassis Pitch Rate,Chassis Roll Angle,Chassis Roll Rate,Chassis Velocity X,Chassis Velocity Y,Chassis Velocity Z,Chassis Yaw Rate,Clutch Pos,DRS Active,DRS Available,Drive Train Speed,ERS Heat Charging,ERS Is Charging,ERS Max Energy,ERS Power Level,ERS Recovery Level,Engine Brake Setting,Engine Limiter,Engine RPM,Flags,Fuel Level,Gear,Ground Speed,HR Sample Clock,In Pit,KERS Charge,KERS Deployed Energy,KERS Input,KERS Max Energy,LR Sample Clock,Lap Invalidated,Lap Time,Lap Time2,Last Lap Time,Last Sector Time,MR Sample Clock,Max Fuel,Max Power,Max RPM,Max Sus Travel FL,Max Sus Travel FR,Max Sus Travel RL,Max Sus Travel RR,Max Torque,Max Turbo Boost,Num Tires Off Track,Penalties Enabled,Position,Raw Data Sample Rate,Ride Height FL,Ride Height FR,Ride Height RL,Ride Height RR,Road Temp,Self Align Torque FL,Self Align Torque FR,Self Align Torque RL,Self Align Torque RR,Session Lap Count,Session Time Left,Steering Angle,Surface Grip,Suspension Travel FL,Suspension Travel FR,Suspension Travel RL,Suspension Travel RR,TC Active,TC Enabled,Throttle Pos,Tire Dirt Level FL,Tire Dirt Level FR,Tire Dirt Level RL,Tire Dirt Level RR,Tire Load FL,Tire Load FR,Tire Load RL,Tire Load RR,Tire Loaded Radius FL,Tire Loaded Radius FR,Tire Loaded Radius RL,Tire Loaded Radius RR,Tire Pressure FL,Tire Pressure FR,Tire Pressure RL,Tire Pressure RR,Tire Radius FL,Tire Radius FR,Tire Radius RL,Tire Radius RR,Tire Rubber Grip FL,Tire Rubber Grip FR,Tire Rubber Grip RL,Tire Rubber Grip RR,Tire Slip Angle FL,Tire Slip Angle FR,Tire Slip Angle RL,Tire Slip Angle RR,Tire Slip Ratio FL,Tire Slip Ratio FR,Tire Slip Ratio RL,Tire Slip Ratio RR,Tire Temp Core FL,Tire Temp Core FR,Tire Temp Core RL,Tire Temp Core RR,Tire Temp Inner FL,Tire Temp Inner FR,Tire Temp Inner RL,Tire Temp Inner RR,Tire Temp Middle FL,Tire Temp Middle FR,Tire Temp Middle RL,Tire Temp Middle RR,Tire Temp Outer FL,Tire Temp Outer FR,Tire Temp Outer RL,Tire Temp Outer RR,Toe In FL,Toe In FR,Toe In RL,Toe In RR,Turbo Boost,Wheel Angular Speed FL,Wheel Angular Speed FR,Wheel Angular Speed RL,Wheel Angular Speed RR,Wind Direction,Wind Speed
0,0.0,0.0,0.0,1.0,1.0,0.0,0.0,1.0,0.0,100.0,1.0,1.1856,26.0,0.0,0.0,0.0,59.99999,0.0,26.0,26.0,26.0,26.0,-0.12344444444444447,0.3033000000000001,0.058725,295.807,-2.7336,-2.7445,-1.4926,-1.590875,-275.49,216.26999999999998,190.98825,0.0,0.0,0.0,0.0,0.0016999999999999238,-5.498166666666667,-5.498166666666667,-0.45880000000000004,1.0973333333333333,-0.04166666666666696,-0.5859999999999999,65.642,-0.07315,-0.110375,1.2199999999999998,100.0,1.0,1.0,202.66333333333333,0.0,0.0,0.0,0.0,0.0,0.0,0.0,8590.1,0.0,55.0,5.0,236.27666666666667,0.0,0.0,0.0,0.0,0.0,0.0,0.0,0.0,0.006000000000000227,0.006000000000000227,0.0,0.0,0.0,55.0,616.79921,10000.0,85.0,85.0,85.0,85.0,395.0,0.0,0.0,0.0,1.0,20.0,57.129,57.129,48.996,48.996,34.0,-25.6725,20.598,-31.633333333333333,22.215,0.0,1783.097,1.0,100.0,24.218,23.223,41.415,40.598,0.0,0.0,100.0,0.0,0.0,0.0,0.0,2746.0,3069.3,4123.0,3926.3,306.495,305.091,314.79533333333336,315.04125,21.711444444444446,20.4643,21.7332,21.2994,314.99999,314.99999,324.99998,324.99998,99.55702857142857,99.50651666666667,99.56248571428571,99.54422857142858,-0.056499999999999995,-0.14600000000000002,-0.19116666666666665,0.012833333333333334,-0.06333333333333258,-0.041666666666671404,1.5454999999999999,1.598,36.696,28.902,36.833,34.1215,55.437,33.7145,58.122,51.15866666666666,53.372,32.9465,56.7705,49.55766666666666,52.531,32.539500000000004,56.721000000000004,49.00633333333333,0.023666666666666725,-0.13200000000000012,0.10542000000000001,0.09653,0.0,205.70499999999998,205.595,202.66333333333333,202.66333333333333,0.0,0.0
1,0.0,0.0,0.0,1.0,1.0,0.0,0.0,1.0,0.0,100.0,1.0,1.1856,26.0,0.0,0.0,0.0,59.999996,0.0,26.0,26.0,26.0,26.0,-0.1571111111111111,0.32410000000000005,-0.019225000000000003,294.815,-2.6528,-2.8527500000000003,-1.5266000000000002,-1.541875,-271.94,216.26999999999998,190.967,0.0,0.0,0.0,0.0,0.003766666666666585,-5.498166666666667,-5.498166666666667,-0.40800000000000003,-0.6950000000000001,-0.08766666666666634,-0.43500000000000005,65.813,-0.08045000000000001,-0.09925,1.5300000000000002,100.0,1.0,1.0,202.83666666666667,0.0,0.0,0.0,0.0,0.0,0.0,0.0,8597.5,0.0,55.0,5.0,236.89333333333332,1.0,0.0,0.0,0.0,0.0,0.0,0.0,0.0,0.05999999999999872,0.05999999999999872,0.0,0.0,1.0,55.0,616.79921,10000.0,85.000001,85.000001,85.000001,85.000001,395.0,0.0,0.0,0.0,1.0,166.665,58.150999999999996,58.150999999999996,47.745,47.745,34.0,-25.5075,15.181999999999999,-36.43,27.2075,0.0,1783.043,1.125,100.0,24.343,23.218,43.417,41.956,0.0,0.0,100.0,0.0,0.0,0.0,0.0,2746.1666666666665,2331.7,4398.142857142857,4715.6,306.379,307.418,314.043,312.99075,21.721444444444444,20.469,21.7444,21.309,314.999998,314.999998,324.999988,324.999988,99.55704285714286,99.50653333333334,99.56264285714286,99.54438571428571,-0.06425000000000003,-0.16025,-0.20466666666666666,0.005,-0.07000000000000028,-0.02833333333332888,1.3739999999999999,1.4375,36.759,28.931333333333335,36.903,34.1815,55.42,33.753,58.174,51.230000000000004,53.355000000000004,32.982,56.8195,49.62566666666667,52.513999999999996,32.573499999999996,56.7665,49.07333333333334,0.03000000000000025,-0.14349999999999996,0.106145,0.10953500000000001,0.0,206.21,206.055,202.83666666666667,202.83666666666667,0.0,0.0
2,0.0,0.0,0.0,1.0,1.0,0.0,0.0,1.0,0.0,100.0,1.0,1.1856,26.0,0.0,0.0,0.0,59.999996,0.0,26.0,26.0,26.0,26.0,-0.17588888888888887,0.29800000000000004,-0.091475,295.593,-2.6323,-2.8676250000000003,-1.478,-1.631625,-268.78,216.265,190.94925,0.0,0.0,0.0,0.0,0.005599999999999938,-5.498166666666667,-5.498166666666667,-0.4539,0.12233333333333334,-0.06622222222222218,2.838,65.952,-0.09285,-0.145325,1.75,100.0,1.0,1.0,203.74333333333334,0.0,0.0,0.0,0.0,0.0,0.0,0.0,8635.9,0.0,55.0,5.0,237.39666666666668,0.0,0.0,0.0,0.0,0.0,0.0,0.0,0.0,0.10800000000000054,0.10800000000000054,0.0,0.0,0.0,55.0,616.79921,10000.0,85.000001,85.000001,85.000001,85.000001,395.0,0.0,0.0,0.0,1.0,166.665,57.19,57.19,49.622,49.622,34.0,-27.9225,17.13,-30.153333333333336,19.85,0.0,1782.995,0.9750000000000014,100.0,24.931,23.166,43.264,41.516999999999996,0.0,0.0,100.0,0.0,0.0,0.0,0.0,2955.833333333333,2595.4,3777.285714285714,3755.7,305.6525,306.66225,315.5523333333333,315.5975,21.730444444444444,20.473,21.7541,21.3171,314.999998,314.999998,324.999988,324.999988,99.55704285714286,99.50655,99.56278571428571,99.54451428571429,-0.06774999999999998,-0.16400000000000003,-0.23683333333333334,-0.015333333333333334,-0.03999999999999915,-0.09166666666666856,1.6055,1.678,36.816,28.956333333333333,36.963,34.232,55.407,33.7855,58.214,51.284,53.344,33.012,56.8565,49.67733333333334,52.5015,32.602000000000004,56.8015,49.123666666666665,0.020999999999999908,-0.13200000000000012,0.11036000000000001,0.1107,0.0,206.64499999999998,206.51999999999998,203.74333333333334,203.74333333333334,0.0,0.0
3,0.0,0.0,0.0,1.0,1.0,0.0,0.0,1.0,0.0,100.0,1.0,1.1856,26.0,0.0,0.0,0.0,59.999996,0.0,26.0,26.0,26.0,26.0,-0.15566666666666662,0.3258000000000001,0.09050000000000001,295.38,-2.7641999999999998,-2.764875,-1.5034,-1.6125,-265.61,216.255,190.93075,0.0,0.0,0.0,0.0,0.0074666666666665105,-5.498166666666667,-5.498166666666667,-0.4161,0.255,-0.026333333333333098,0.11799999999999988,66.10300000000001,-0.1037,-0.09175,1.3120000000000003,100.0,1.0,1.0,203.91333333333333,0.0,0.0,0.0,0.0,0.0,0.0,0.0,8643.1,0.0,55.0,5.0,237.93666666666667,1.0,0.0,0.0,0.0,0.0,0.0,0.0,0.0,0.1559999999999988,0.1559999999999988,0.0,0.0,1.0,55.0,616.79921,10000.0,85.000001,85.000001,85.000001,85.000001,395.0,0.0,0.0,0.0,1.0,166.665,58.334,58.334,47.684,47.684,34.0,-23.5625,16.082,-36.25,24.3475,0.0,1782.946,0.7800000000000011,100.0,24.402,23.178,43.065,41.64,0.0,0.0,100.0,0.0,0.0,0.0,0.0,2515.6666666666665,2515.0,4314.285714285715,4277.7,307.1235,306.851,314.25166666666667,314.251,21.73922222222222,20.4773,21.7638,21.3254,314.999998,314.999998,324.999988,324.999988,99.55705714285715,99.50656666666667,99.56291428571429,99.54464285714286,-0.0595,-0.15649999999999997,-0.2315,-0.0028333333333333335,-0.021666666666668277,-0.046666666666666856,1.462,1.514,36.870000000000005,28.983,37.024,34.284,55.39,33.821,58.254,51.34466666666667,53.328,33.0445,56.8945,49.73566666666667,52.485,32.632999999999996,56.8365,49.18066666666667,0.0076666666666667105,-0.1160000000000001,0.10789000000000001,0.10909500000000001,0.0,207.10500000000002,206.995,203.91333333333333,203.91333333333333,0.0,0.0
4,0.0,0.0,0.0,1.0,1.0,0.0,0.0,1.0,0.0,100.0,1.0,1.1856,26.0,0.0,0.0,0.0,59.999996,0.0,26.0,26.0,26.0,26.0,-0.1557777777777778,0.30510000000000015,-0.0223,295.578,-2.6992000000000003,-2.811875,-1.5186000000000002,-1.616125,-262.23,216.2425,190.911,0.0,0.0,0.0,0.0,0.009399999999999964,-5.498166666666667,-5.498166666666667,-0.4504,-0.6836666666666666,-0.09399999999999986,-1.5659999999999998,66.255,-0.10075,-0.12845,1.266,100.0,1.0,1.0,204.51999999999998,0.0,0.0,0.0,0.0,0.0,0.0,0.0,8668.9,0.0,55.0,5.0,238.48666666666668,0.0,0.0,0.0,0.0,0.0,0.0,0.0,0.0,0.20700000000000074,0.20700000000000074,0.0,0.0,0.0,55.0,616.79921,10000.0,85.000001,85.000001,85.000001,85.000001,395.0,0.0,0.0,0.0,1.0,333.33500000000004,57.8,57.8,48.37,48.37,34.0,-28.0125,16.508,-33.843333333333334,20.0925,0.0,1782.894,0.754999999999999,100.0,24.123,23.132,43.31,41.727000000000004,0.0,0.0,100.0,0.0,0.0,0.0,0.0,2955.333333333333,2509.0,4141.857142857143,3701.8,305.9855,306.70525,314.69866666666667,315.598,21.748333333333335,20.4817,21.7742,21.3342,314.999998,314.999998,324.999988,324.999988,99.55705714285715,99.50658333333334,99.56307142857143,99.54478571428571,-0.06925000000000003,-0.15774999999999995,-0.22233333333333336,-0.005833333333333333,-0.04333333333332945,-0.054999999999999716,1.542,1.6175,36.927,29.010666666666665,37.089,34.339,55.370000000000005,33.8575,58.3025,51.405,53.309,33.08,56.939499999999995,49.79633333333334,52.466499999999996,32.667,56.876999999999995,49.24,0.00533333333333319,-0.11299999999999999,0.10540500000000001,0.10738500000000001,0.0,207.54500000000002,207.435,204.51999999999998,204.51999999999998,0.0,0.0
5,0.0,0.0,0.0,1.0,1.0,0.0,0.0,1.0,0.0,100.0,1.0,1.1856,26.0,0.0,0.0,0.0,59.999996,0.0,26.0,26.0,26.0,26.0,-0.1514444444444445,0.32299999999999995,-0.009675000000000001,295.532,-2.7105,-2.832125,-1.5074,-1.600875,-258.85,216.225,190.8905,0.0,0.0,0.0,0.0,0.011366666666666525,-5.498166666666667,-5.498166666666667,-0.43970000000000004,0.42433333333333334,-0.09011111111111125,1.176,66.41,-0.1032,-0.10375000000000001,1.154,100.0,1.0,1.0,204.92333333333335,0.0,0.0,0.0,0.0,0.0,0.0,0.0,8686.0,0.0,55.0,5.0,239.04000000000002,1.0,0.0,0.0,0.0,0.0,0.0,0.0,0.0,0.2579999999999991,0.2579999999999991,0.0,0.0,1.0,55.0,616.79921,10000.0,85.000001,85.000001,85.000001,85.000001,395.0,0.0,0.0,0.0,1.0,166.665,58.243,58.243,48.400999999999996,48.400999999999996,34.0,-25.095,17.042,-34.516666666666666,23.560000000000002,0.0,1782.845,0.3150000000000013,100.0,24.294,22.853,43.173,41.419,0.0,0.0,100.0,0.0,0.0,0.0,0.0,2753.5,2491.2,4199.714285714285,4147.2,306.3725,306.9695,314.58233333333334,314.59775,21.757666666666665,20.4862,21.7845,21.3429,314.999998,314.999998,324.999988,324.999988,99.55707142857143,99.5066,99.5632,99.54492857142857,-0.037250000000000005,-0.13549999999999995,-0.22533333333333336,0.005833333333333333,-0.03999999999999915,-0.060000000000002274,1.5125,1.564,36.986000000000004,29.038333333333334,37.153,34.393,55.355000000000004,33.893,58.3435,51.464666666666666,53.294,33.1105,56.978,49.85033333333333,52.4505,32.696,56.915,49.29266666666666,-0.02499999999999991,-0.07900000000000018,0.10673500000000001,0.11348000000000001,0.0,208.05,207.95,204.92333333333335,204.92333333333335,0.0,0.0
6,0.0,0.0,0.0,1.0,1.0,0.0,0.0,1.0,0.0,100.0,1.0,1.1856,26.0,0.0,0.0,0.0,59.999996,0.0,26.0,26.0,26.0,26.0,-0.13611111111111107,0.31800000000000006,0.0005,295.425,-2.6792,-2.863125,-1.5501,-1.598375,-255.66,216.20499999999998,190.871125,0.0,0.0,0.0,0.0,0.01323333333333332,-5.498166666666667,-5.498166666666667,-0.4343,0.12466666666666668,-0.07266666666666666,0.952,66.554,-0.09720000000000001,-0.1032,0.7820000000000009,100.0,1.0,1.0,205.36333333333334,0.0,0.0,0.0,0.0,0.0,0.0,0.0,8704.7,0.0,55.0,5.0,239.56333333333333,0.0,0.0,0.0,0.0,0.0,0.0,0.0,0.0,0.30600000000000094,0.30600000000000094,0.0,0.0,0.0,55.0,616.79921,10000.0,85.000001,85.000001,85.000001,85.000001,395.0,0.0,0.0,0.0,1.0,166.665,58.06,58.06,48.218,48.218,34.0,-24.362499999999997,18.689999999999998,-33.81333333333333,23.880000000000003,0.0,1782.797,0.129999999999999,100.0,24.167,22.931,43.258,41.782,0.0,0.0,100.0,0.0,0.0,0.0,0.0,2742.3333333333335,2585.2,4140.285714285715,4087.1000000000004,306.3645,306.595,314.71133333333336,314.7415,21.766444444444446,20.4904,21.7942,21.3513,314.999998,314.999998,324.999988,324.999988,99.55707142857143,99.5066,99.56334285714286,99.54505714285715,-0.02474999999999994,-0.11849999999999994,-0.21216666666666667,0.02016666666666667,-0.03833333333332689,-0.051666666666669414,1.5245,1.559,37.04,29.064999999999998,37.214,34.445499999999996,55.338,33.926,58.385,51.52433333333333,53.278,33.141,57.016999999999996,49.907333333333334,52.434,32.725,56.951,49.348333333333336,-0.04366666666666674,-0.06400000000000006,0.10992500000000001,0.11138500000000001,0.0,208.48000000000002,208.405,205.36333333333334,205.36333333333334,0.0,0.0
7,0.0,0.0,0.0,1.0,1.0,0.0,0.0,1.0,0.0,100.0,1.0,1.1856,26.0,0.0,0.0,0.0,59.999996,0.0,26.0,26.0,26.0,26.0,-0.08099999999999996,0.3004,0.01435,295.273,-2.6614,-2.814,-1.5133,-1.6345,-252.26,216.18,190.85075,0.0,0.0,0.0,0.0,0.015199999999999991,-5.498166666666667,-5.498166666666667,-0.4383,0.01933333333333333,-0.05844444444444452,-0.14800000000000013,66.706,-0.07795,-0.11292500000000001,0.41999999999999993,100.0,1.0,1.0,205.82,0.0,0.0,0.0,0.0,0.0,0.0,0.0,8724.0,0.0,55.0,5.0,240.11333333333334,1.0,0.0,0.0,0.0,0.0,0.0,0.0,0.0,0.3569999999999993,0.3569999999999993,0.0,0.0,1.0,55.0,616.79921,10000.0,85.000001,85.000001,85.000001,85.000001,395.0,0.0,0.0,0.0,1.0,166.665,57.755,57.755,48.385999999999996,48.385999999999996,34.0,-24.487499999999997,19.177999999999997,-32.25666666666666,24.525,0.0,1782.745,-0.2049999999999983,100.0,24.093,23.153,43.153999999999996,42.107,0.0,0.0,100.0,0.0,0.0,0.0,0.0,2892.5,2559.8,4107.285714285715,4045.8,306.0205,306.4785,314.81,314.70325,21.775777777777776,20.4949,21.8046,21.3602,314.999998,314.999998,324.999988,324.999988,99.55707142857143,99.50661666666667,99.56348571428572,99.5452,0.005749999999999922,-0.09375,-0.197,0.0235,-0.07499999999999574,-0.04333333333332945,1.519,1.532,37.098,29.093333333333334,37.278999999999996,34.501,55.32,33.96,58.4285,51.587,53.260999999999996,33.1725,57.0575,49.967333333333336,52.416,32.754999999999995,56.989,49.407,-0.07166666666666677,-0.035499999999999865,0.10996500000000001,0.11208000000000001,0.0,208.96,208.89,205.82,205.82,0.0,0.0
8,0.0,0.0,0.0,1.0,1.0,0.0,0.0,1.0,0.0,100.0,1.0,1.1856,26.0,0.0,0.0,0.0,59.999996,0.0,26.0,26.0,26.0,26.0,-0.050555555555555576,0.2964,0.0356,295.486,-2.7443,-2.787,-1.4977,-1.58475,-248.85,216.155,190.830125,0.0,0.0,0.0,0.0,0.017199999999999993,-5.498166666666667,-5.498166666666667,-0.44110000000000005,-0.624,-0.03777777777777791,0.7439999999999998,66.86,-0.0558,-0.1043,-0.05399999999999938,100.0,1.0,1.0,206.22,0.0,0.0,0.0,0.0,0.0,0.0,0.0,8741.0,0.0,55.0,5.0,240.66333333333333,0.0,0.0,0.0,0.0,0.0,0.0,0.0,0.0,0.40800000000000125,0.40800000000000125,0.0,0.0,0.0,55.0,616.79921,10000.0,85.000001,85.000001,85.000001,85.000001,395.0,0.0,0.0,0.0,1.0,166.665,58.517,58.517,47.775,47.775,34.0,-21.4025,20.490000000000002,-30.293333333333337,26.685000000000002,0.0,1782.694,-0.33500000000000085,100.0,23.727,22.958,43.21,42.162,0.0,0.0,100.0,0.0,0.0,0.0,0.0,2591.0,2651.5,4114.142857142857,4169.2,306.9875,306.48375,314.6956666666667,314.4665,21.784777777777776,20.4994,21.8149,21.3691,314.999998,314.999998,324.999988,324.999988,99.55707142857143,99.50663333333333,99.56364285714285,99.54534285714286,0.02499999999999991,-0.0635,-0.156,0.059666666666666666,-0.061666666666667425,-0.04999999999999716,1.5,1.5030000000000001,37.155,29.121666666666666,37.343,34.557,55.298,33.993,58.4715,51.64966666666667,53.239999999999995,33.2025,57.098,50.02733333333333,52.394999999999996,32.784,57.0265,49.465666666666664,-0.07933333333333326,-0.026000000000000245,0.10823,0.10736000000000001,0.0,209.38,209.375,206.22,206.22,0.0,0.0
9,0.0,0.0,0.0,1.0,1.0,0.0,0.0,1.0,0.0,100.0,1.0,1.1856,26.0,0.0,0.0,0.0,59.999996,0.0,26.0,26.0,26.0,26.0,-0.013222222222222135,0.30910000000000015,-0.01095,295.074,-2.6738,-2.7807500000000003,-1.5544,-1.57075,-245.44,216.1275,190.808875,0.0,0.0,0.0,0.0,0.019166666666666554,-5.498166666666667,-5.498166666666667,-0.44160000000000005,0.7896666666666666,-0.04044444444444428,-0.30600000000000005,67.01,-0.03255,-0.1013,-0.12399999999999967,100.0,1.0,1.0,206.76666666666665,0.0,0.0,0.0,0.0,0.0,0.0,0.0,8764.0,0.0,55.0,5.0,241.2,1.0,0.0,0.0,0.0,0.0,0.0,0.0,0.0,0.45899999999999963,0.45899999999999963,0.0,0.0,1.0,55.0,616.79921,10000.0,85.000001,85.000001,85.000001,85.000001,395.0,0.0,0.0,0.0,1.0,166.665,57.358,57.358,48.553,48.553,34.0,-23.765,21.04,-30.15,26.5625,0.0,1782.644,-0.5649999999999977,100.0,24.184,23.565,42.761,42.275999999999996,0.0,0.0,100.0,0.0,0.0,0.0,0.0,2967.833333333333,2609.7,4136.285714285715,4122.7,305.848,306.352,314.83566666666667,314.607,21.79411111111111,20.5042,21.8251,21.378,314.999998,314.999998,324.999988,324.999988,99.55708571428572,99.50663333333333,99.56377142857143,99.54548571428572,0.04400000000000004,-0.04425000000000001,-0.14433333333333334,0.07216666666666667,-0.05666666666667197,-0.04833333333333201,1.5554999999999999,1.553,37.213,29.151,37.407,34.612,55.281,34.027,58.5115,51.711,53.224000000000004,33.234,57.1355,50.086,52.378,32.814,57.061,49.522999999999996,-0.09666666666666668,-0.012500000000000178,0.1067,0.09927000000000001,0.0,209.88,209.85500000000002,206.76666666666665,206.76666666666665,0.0,0.0
10,0.0,0.0,0.0,1.0,1.0,0.0,0.0,1.0,0.0,100.0,1.0,1.1856,26.0,0.0,0.0,0.0,59.999996,0.0,26.0,26.0,26.0,26.0,0.012666666666666604,0.29890000000000017,-0.02725,295.044,-2.7521,-2.762875,-1.5397,-1.542,-242.22,216.10250000000002,190.789375,0.0,0.0,0.0,0.0,0.02103333333333335,-5.498166666666667,-5.498166666666667,-0.4237,-0.5753333333333334,0.004444444444444251,0.45100000000000007,67.154,-0.0122,-0.09692500000000001,-0.44399999999999995,100.0,1.0,1.0,207.0366666666667,0.0,0.0,0.0,0.0,0.0,0.0,0.0,8775.6,0.0,55.0,5.0,241.72333333333336,0.0,0.0,0.0,0.0,0.0,0.0,1.0,0.0,0.5069999999999979,0.5069999999999979,0.0,0.0,0.0,55.0,616.79921,10000.0,85.000001,85.000001,85.000001,85.000001,395.0,0.0,0.0,0.0,1.0,166.665,58.456,58.456,47.211,47.211,34.0,-19.165,20.396,-30.71666666666666,29.59,0.0,1782.596,-0.6550000000000011,100.0,23.903,23.512,43.227000000000004,43.046,0.0,0.0,100.0,0.0,0.0,0.0,0.0,2514.5,2506.4,4320.571428571428,4293.2,307.2595,306.72525,314.2966666666667,314.11375,21.802666666666667,20.5085,21.8349,21.3866,314.999998,314.999998,324.999988,324.999988,99.55708571428572,99.50663333333333,99.56391428571429,99.54562857142857,0.07099999999999995,-0.028249999999999997,-0.11916666666666667,0.10166666666666667,-0.03499999999999659,-0.054999999999999716,1.4785,1.46,37.266,29.177999999999997,37.468,34.666,55.263,34.0565,58.554,51.772999999999996,53.207,33.260999999999996,57.1745,50.14533333333333,52.361,32.8395,57.0975,49.58133333333333,-0.10433333333333317,0.0009999999999998899,0.10504000000000001,0.11321500000000001,0.0,210.26999999999998,210.31,207.0366666666667,207.0366666666667,0.0,0.0
11,0.0,0.0,0.0,1.0,1.0,0.0,0.0,1.0,0.0,100.0,1.0,1.1856,26.0,0.0,0.0,0.0,59.999996,0.0,26.0,26.0,26.0,26.0,0.021444444444444377,0.2916000000000001,-0.066275,295.532,-2.7605,-2.745625,-1.5915,-1.53175,-238.79,216.0725,190.7685,0.0,0.0,0.0,0.0,0.022599999999999953,-5.498166666666667,-5.498166666666667,-0.46440000000000003,-0.059333333333333335,0.029555555555555557,0.17300000000000004,67.3,0.0078000000000000005,-0.12105,-0.6820000000000004,100.0,1.0,1.0,207.79333333333335,0.0,0.0,0.0,0.0,0.0,0.0,0.0,8807.5,0.0,55.0,5.0,242.24666666666667,1.0,0.0,0.0,0.0,0.0,0.0,1.0,0.0,0.5579999999999998,0.5579999999999998,0.0,0.0,1.0,55.0,616.79921,10000.0,85.000001,85.000001,85.000001,85.000001,395.0,0.0,0.0,0.0,1.0,166.665,57.769999999999996,57.769999999999996,48.766999999999996,48.766999999999996,34.0,-19.7775,24.03,-24.519999999999996,27.55,0.0,1782.545,-0.7149999999999999,100.0,23.811,23.664,42.698,42.871,0.0,0.0,100.0,0.0,0.0,0.0,0.0,2631.0,2810.8,3768.8571428571427,3929.6000000000004,306.7935,305.908,315.71666666666664,315.10675,21.811555555555557,20.5133,21.845,21.3955,314.999998,314.999998,324.999988,324.999988,99.5571,99.50665,99.56404285714285,99.54575714285714,0.08975,0.0002500000000000835,-0.08683333333333333,0.138,-0.05666666666667197,-0.07499999999999574,1.627,1.5905,37.322,29.208,37.532,34.722,55.244,34.089,58.5905,51.83433333333333,53.189,33.291,57.209,50.20433333333334,52.342,32.869,57.129,49.638999999999996,-0.10833333333333317,0.0024999999999999467,0.10705500000000001,0.10210500000000002,0.0,210.715,210.75,207.79333333333335,207.79333333333335,0.0,0.0
12,0.0,0.0,0.0,1.0,1.0,0.0,0.0,1.0,0.0,100.0,1.0,1.1856,26.0,0.0,0.0,0.0,59.999996,0.0,26.0,26.0,26.0,26.0,0.05800000000000005,0.30190000000000006,0.0453,294.815,-2.7749,-2.73925,-1.556,-1.536125,-235.36,216.0475,190.746375,0.0,0.0,0.0,0.0,0.025466666666666526,-5.498166666666667,-5.498166666666667,-0.4469,0.277,0.010888888888888948,-0.7720000000000002,67.452,0.028,-0.09317500000000001,-0.6959999999999997,100.0,1.0,1.0,208.01333333333332,0.0,0.0,0.0,0.0,0.0,0.0,0.0,8817.0,0.0,55.0,5.0,242.79666666666668,0.0,0.0,0.0,0.0,0.0,0.0,1.0,0.0,0.6089999999999982,0.6089999999999982,0.0,0.0,0.0,55.0,616.79921,10000.0,85.000001,85.000001,85.000001,85.000001,395.0,0.0,0.0,0.0,1.0,166.665,57.632,57.632,47.348,47.348,34.0,-20.54,23.764,-28.156666666666666,30.975,0.0,1782.494,-0.5300000000000011,100.0,23.616,23.981,42.726,42.97,0.0,0.0,100.0,0.0,0.0,0.0,0.0,2769.5,2741.3,4285.428571428572,4231.0,306.509,305.97375,314.416,314.32325,21.820444444444444,20.5181,21.8553,21.4044,314.999998,314.999998,324.999988,324.999988,99.5571,99.50665,99.5642,99.5459,0.10099999999999998,0.007749999999999924,-0.07633333333333334,0.14283333333333334,-0.04999999999999716,-0.054999999999999716,1.511,1.49,37.378,29.238333333333333,37.596000000000004,34.778,55.226,34.1225,58.632999999999996,51.897333333333336,53.172,33.322,57.2485,50.265,52.3245,32.8985,57.1655,49.69833333333334,-0.10233333333333317,-0.00550000000000006,0.11287000000000001,0.10977,0.0,211.20499999999998,211.24,208.01333333333332,208.01333333333332,0.0,0.0
13,0.0,0.0,0.0,1.0,1.0,0.0,0.0,1.0,0.0,100.0,1.0,1.1856,26.0,0.0,0.0,0.0,59.999996,0.0,26.0,26.0,26.0,26.0,0.08166666666666678,0.30290000000000017,0.04075,294.586,-2.7597,-2.729,-1.5949,-1.54675,-232.11,216.0225,190.725875,0.0,0.0,0.0,0.0,0.026933333333333365,-5.498166666666667,-5.498166666666667,-0.44060000000000005,-0.09733333333333333,0.02055555555555566,-0.34399999999999986,67.592,0.03465,-0.10135000000000001,-0.7379999999999995,100.0,1.0,1.0,208.40666666666667,0.0,0.0,0.0,0.0,0.0,0.0,0.0,8833.6,0.0,55.0,5.0,243.30333333333334,1.0,0.0,0.0,0.0,0.0,0.0,1.0,0.0,0.657,0.657,0.0,0.0,1.0,55.0,616.79921,10000.0,85.000001,85.000001,85.000001,85.000001,395.0,0.0,0.0,0.0,1.0,166.665,57.48,57.48,47.409,47.409,34.0,-19.2325,24.284,-27.843333333333334,32.44,0.0,1782.446,-0.9499999999999993,100.0,23.847,24.127,42.902,43.51,0.0,0.0,100.0,0.0,0.0,0.0,0.0,2761.5,2717.8,4231.857142857143,4332.3,306.516,306.0415,314.545,314.04075,21.82888888888889,20.5227,21.865,21.4131,314.999998,314.999998,324.999988,324.999988,99.55711428571429,99.50665,99.56432857142858,99.54604285714285,0.1312500000000001,0.03225000000000011,-0.06716666666666667,0.14833333333333334,-0.045000000000001705,-0.04999999999999716,1.498,1.475,37.431,29.267,37.657,34.8315,55.212,34.1545,58.6725,51.959666666666664,53.158,33.3515,57.285,50.324666666666666,52.31,32.9265,57.199,49.757,-0.1336666666666666,0.016000000000000014,0.102675,0.104285,0.0,211.64,211.685,208.40666666666667,208.40666666666667,0.0,0.0
14,0.0,0.0,0.0,1.0,1.0,0.0,0.0,1.0,0.0,100.0,1.0,1.1856,26.0,0.0,0.0,0.0,59.999996,0.0,26.0,26.0,26.0,26.0,0.09311111111111114,0.2934000000000001,-0.009975000000000001,294.83,-2.7877,-2.6734999999999998,-1.6046,-1.51575,-228.66,216.0,190.704625,0.0,0.0,0.0,0.0,0.028933333333333366,-5.498166666666667,-5.498166666666667,-0.44970000000000004,-0.06966666666666667,0.05422222222222217,1.141,67.739,0.045450000000000004,-0.11145000000000001,-1.0219999999999994,100.0,1.0,1.0,208.94333333333333,0.0,0.0,0.0,0.0,0.0,0.0,0.0,8856.4,0.0,55.0,5.0,243.82999999999998,0.0,0.0,0.0,0.0,0.0,0.0,1.0,0.0,0.7079999999999984,0.7079999999999984,0.0,0.0,0.0,55.0,616.79921,10000.0,85.000001,85.000001,85.000001,85.000001,395.0,0.0,0.0,0.0,1.0,166.665,57.632,57.632,47.607,47.607,34.0,-17.28,26.252000000000002,-24.53666666666666,32.8925,0.0,1782.395,-1.0850000000000009,100.0,23.8,24.014,42.889,43.584,0.0,0.0,100.0,0.0,0.0,0.0,0.0,2532.8333333333335,2912.1,3973.714285714286,4271.8,307.0415,305.6205,315.1143333333333,314.29,21.837777777777777,20.5276,21.8753,21.4222,314.999998,314.999998,324.999988,324.999988,99.55714285714286,99.50666666666666,99.56447142857142,99.5462,0.1452500000000001,0.0495000000000001,-0.041666666666666664,0.181,-0.03166666666666629,-0.07000000000000028,1.551,1.506,37.486000000000004,29.297666666666665,37.721000000000004,34.8885,55.196,34.189,58.712,52.02433333333333,53.143,33.3835,57.322,50.38666666666667,52.294,32.957499999999996,57.233000000000004,49.81766666666667,-0.1419999999999999,0.027499999999999858,0.09839,0.11694500000000001,0.0,212.055,212.14499999999998,208.94333333333333,208.94333333333333,0.0,0.0
15,0.0,0.0,0.0,1.0,1.0,0.0,0.0,1.0,0.0,100.0,1.0,1.1856,26.0,0.0,0.0,0.0,59.999996,0.0,26.0,26.0,26.0,26.0,0.11188888888888893,0.30380000000000007,0.020300000000000002,294.861,-2.7984,-2.693625,-1.6301999999999999,-1.4601250000000001,-225.41,215.98000000000002,190.68425,0.0,0.0,0.0,0.0,0.03083333333333338,-5.498166666666667,-5.498166666666667,-0.4393,0.20533333333333334,0.08066666666666666,0.6509999999999998,67.878,0.0599,-0.0902,-1.2639999999999993,100.0,1.0,1.0,209.34,0.0,0.0,0.0,0.0,0.0,0.0,0.0,8873.2,0.0,55.0,5.0,244.32999999999998,1.0,0.0,0.0,0.0,0.0,0.0,1.0,0.0,0.7560000000000002,0.7560000000000002,0.0,0.0,1.0,55.0,616.79921,10000.0,85.000001,85.000001,85.000001,85.000001,395.0,0.0,0.0,0.0,1.0,166.665,57.891999999999996,57.891999999999996,47.592,47.592,34.0,-15.7375,26.064,-24.226666666666667,34.615,0.0,1782.347,-1.129999999999999,100.0,23.735,24.033,42.659,43.697,0.0,0.0,100.0,0.0,0.0,0.0,0.0,2417.1666666666665,2844.3,3990.0,4459.0,307.43,305.7495,315.10633333333334,313.85425,21.84611111111111,20.5322,21.884900000000002,21.4307,314.999998,314.999998,324.999988,324.999988,99.55715714285714,99.50666666666666,99.56461428571428,99.54632857142857,0.16500000000000004,0.05675000000000008,-0.026333333333333334,0.19416666666666665,-0.03999999999999915,-0.045000000000001705,1.539,1.49,37.538,29.326333333333334,37.78,34.942,55.182,34.2225,58.748,52.08566666666667,53.129999999999995,33.414,57.3555,50.44566666666667,52.28,32.987,57.2635,49.87566666666667,-0.14500000000000002,0.028999999999999915,0.10528000000000001,0.10462500000000001,0.0,212.5,212.59,209.34,209.34,0.0,0.0
16,0.0,0.0,0.0,1.0,1.0,0.0,0.0,1.0,0.0,100.0,1.0,1.1856,26.0,0.0,0.0,0.0,59.999996,0.0,26.0,26.0,26.0,26.0,0.13888888888888884,0.2864,-0.04795,294.815,-2.8592,-2.641375,-1.6016,-1.5226250000000001,-221.94,215.9625,190.662,0.0,0.0,0.0,0.0,0.03283333333333338,-5.498166666666667,-5.498166666666667,-0.4635,-0.6326666666666666,0.06411111111111101,-1.0350000000000001,68.025,0.07525,-0.10952500000000001,-1.2119999999999997,100.0,1.0,1.0,209.82,0.0,0.0,0.0,0.0,0.0,0.0,0.0,8893.6,0.0,55.0,5.0,244.86,0.0,0.0,0.0,0.0,0.0,0.0,1.0,0.0,0.8069999999999986,0.8069999999999986,0.0,0.0,0.0,55.0,616.79921,10000.0,85.000001,85.000001,85.000001,85.000001,395.0,0.0,0.0,0.0,1.0,166.665,57.571,57.571,47.531,47.531,34.0,-18.835,26.22,-23.113333333333337,32.8,0.0,1782.295,-1.0,100.0,23.336,24.26,42.843,43.864000000000004,0.0,0.0,100.0,0.0,0.0,0.0,0.0,2725.0,2882.5,3970.8571428571427,4128.8,306.7945,305.5875,315.174,314.548,21.854777777777777,20.5372,21.8952,21.439799999999998,314.999998,314.999998,324.999988,324.999988,99.55717142857142,99.50666666666666,99.56475714285715,99.54647142857142,0.15025,0.05899999999999994,-0.01666666666666667,0.20216666666666666,-0.03999999999999915,-0.05333333333332746,1.5625,1.5205,37.592,29.357333333333333,37.845,34.9985,55.163,34.259,58.789500000000004,52.149,53.111999999999995,33.4475,57.394,50.507,52.2615,33.019,57.299,49.93566666666666,-0.133,0.024499999999999966,0.107325,0.11183000000000001,0.0,212.92000000000002,213.01999999999998,209.82,209.82,0.0,0.0
17,0.0,0.0,0.0,1.0,1.0,0.0,0.0,1.0,0.0,100.0,1.0,1.1856,26.0,0.0,0.0,0.0,59.999996,0.0,26.0,26.0,26.0,26.0,0.11033333333333317,0.31010000000000004,0.00585,294.418,-2.8183,-2.62475,-1.6452,-1.483125,-218.47,215.9475,190.639375,0.0,0.0,0.0,0.0,0.0348666666666666,-5.498166666666667,-5.498166666666667,-0.44730000000000003,0.437,0.04899999999999993,0.863,68.17099999999999,0.0818,-0.0868,-1.2060000000000004,100.0,1.0,1.0,210.18,0.0,0.0,0.0,0.0,0.0,0.0,0.0,8908.8,0.0,55.0,5.0,245.38666666666666,1.0,0.0,0.0,0.0,0.0,0.0,1.0,0.0,0.8580000000000005,0.8580000000000005,0.0,0.0,1.0,55.0,616.79921,10000.0,85.000001,85.000001,85.000001,85.000001,395.0,0.0,0.0,0.0,1.0,333.33500000000004,57.495,57.495,47.043,47.043,34.0,-17.2475,25.694,-26.53,35.322500000000005,0.0,1782.243,-1.0799999999999983,100.0,23.89,24.339,42.771,43.796,0.0,0.0,100.0,0.0,0.0,0.0,0.0,2622.0,2820.4,4325.428571428572,4439.0,306.831,305.9295,314.356,313.94425,21.863666666666667,20.5422,21.9054,21.448900000000002,314.999998,314.999998,324.999988,324.999988,99.55718571428571,99.50668333333333,99.5649,99.54662857142857,0.17074999999999996,0.07224999999999993,-0.017833333333333333,0.20333333333333334,-0.04333333333332945,-0.06499999999999773,1.5095,1.4655,37.647999999999996,29.389,37.908,35.0555,55.15,34.2965,58.8285,52.21366666666667,53.099000000000004,33.4825,57.4305,50.569,52.248,33.0525,57.332499999999996,49.99666666666667,-0.1356666666666666,0.02200000000000002,0.11456000000000001,0.10225000000000001,0.0,213.41500000000002,213.505,210.18,210.18,0.0,0.0
18,0.0,0.0,0.0,1.0,1.0,0.0,0.0,1.0,0.0,100.0,1.0,1.1856,26.0,0.0,0.0,0.0,59.999996,0.0,26.0,26.0,26.0,26.0,0.1306666666666667,0.2986,-0.003125,294.434,-2.851,-2.5965,-1.6616,-1.42875,-215.19,215.935,190.61825,0.0,0.0,0.0,0.0,0.036766666666666614,-5.498166666666667,-5.498166666666667,-0.46080000000000004,-0.4643333333333333,0.07400000000000007,1.105,68.30799999999999,0.08460000000000001,-0.10587500000000001,-1.362,100.0,1.0,1.0,210.64,0.0,0.0,0.0,0.0,0.0,0.0,0.0,8928.2,0.0,55.0,5.0,245.87666666666667,0.0,0.0,0.0,0.0,0.0,0.0,1.0,0.0,0.9059999999999988,0.9059999999999988,0.0,0.0,0.0,55.0,616.79921,10000.0,85.000001,85.000001,85.000001,85.000001,395.0,0.0,0.0,0.0,1.0,333.33500000000004,57.266,57.266,47.089,47.089,34.0,-16.935,28.842,-24.39666666666666,33.3425,0.0,1782.196,-1.3399999999999999,100.0,23.694,24.269,43.024,44.18,0.0,0.0,100.0,0.0,0.0,0.0,0.0,2640.5,3053.3,4065.4285714285716,4302.9,306.8385,305.25,314.94266666666664,314.24125,21.87188888888889,20.5469,21.9151,21.4575,314.999998,314.999998,324.999988,324.999988,99.5572,99.50668333333333,99.56502857142857,99.54677142857143,0.18825000000000003,0.09650000000000003,-0.011,0.20633333333333334,-0.04333333333332945,-0.06833333333332803,1.545,1.4965,37.699,29.418333333333333,37.969,35.1095,55.135999999999996,34.3315,58.867,52.275666666666666,53.086,33.515,57.466499999999996,50.62866666666667,52.2335,33.0835,57.365,50.055,-0.15766666666666662,0.04949999999999988,0.11232,0.101455,0.0,213.81,213.9,210.64,210.64,0.0,0.0
19,0.0,0.0,0.0,1.0,1.0,0.0,0.0,1.0,0.0,100.0,1.0,1.1856,26.0,0.0,0.0,0.0,59.999996,0.0,26.0,26.0,26.0,26.0,0.17833333333333323,0.30810000000000004,0.060575000000000004,293.991,-2.7798,-2.6895,-1.6013000000000002,-1.40675,-211.70999999999998,215.9275,190.595625,0.0,0.0,0.0,0.0,0.038799999999999946,-5.498166666666667,-5.498166666666667,-0.44630000000000003,0.802,0.0862222222222222,-0.5420000000000003,68.453,0.0952,-0.09027500000000001,-1.654,100.0,1.0,1.0,211.03333333333333,0.0,0.0,0.0,0.0,0.0,0.0,0.0,8945.0,0.0,55.0,5.0,246.39666666666665,1.0,0.0,0.0,0.0,0.0,0.0,1.0,0.0,0.9570000000000007,0.9570000000000007,0.0,0.0,1.0,55.0,616.79921,10000.0,85.000001,85.000001,85.000001,85.000001,395.0,0.0,0.0,0.0,1.0,333.33500000000004,56.946,56.946,46.829,46.829,34.0,-15.645,27.87,-24.18,36.32,0.0,1782.144,-1.6799999999999997,100.0,23.957,24.954,42.713,44.349000000000004,0.0,0.0,100.0,0.0,0.0,0.0,0.0,2667.6666666666665,2840.1,4240.285714285715,4546.3,306.7695,305.48625,314.55466666666666,313.622,21.880777777777777,20.5521,21.9252,21.4667,314.999998,314.999998,324.999988,324.999988,99.55722857142857,99.5067,99.56517142857143,99.54691428571428,0.21250000000000013,0.09899999999999998,0.0013333333333333333,0.22016666666666665,-0.04833333333333201,-0.06333333333333258,1.5175,1.4555,37.754999999999995,29.450666666666663,38.033,35.167,55.123999999999995,34.3725,58.905,52.341,53.075,33.553,57.5015,50.69166666666666,52.2215,33.12,57.397,50.117333333333335,-0.18933333333333313,0.0674999999999999,0.10812500000000001,0.10125,0.0,214.285,214.39499999999998,211.03333333333333,211.03333333333333,0.0,0.0
20,0.0,0.0,0.0,1.0,1.0,0.0,0.0,1.0,0.0,100.0,1.0,1.1856,26.0,0.0,0.0,0.0,59.999996,0.0,26.0,26.0,26.0,26.0,0.17388888888888898,0.27160000000000006,-0.07667500000000001,294.479,-2.8844000000000003,-2.63625,-1.6078000000000001,-1.526125,-208.01,215.925,190.57175,0.0,0.0,0.0,0.0,0.04093333333333338,-5.498166666666667,-5.498166666666667,-0.462,-1.1926666666666668,0.08677777777777784,-1.085,68.605,0.11275,-0.11030000000000001,-1.6239999999999997,100.0,1.0,1.0,211.51666666666665,0.0,0.0,0.0,0.0,0.0,0.0,0.0,8965.4,0.0,55.0,5.0,246.95,0.0,0.0,0.0,0.0,0.0,0.0,0.0,0.0,1.0109999999999992,1.0109999999999992,0.0,0.0,0.0,55.0,616.79921,10000.0,85.000001,85.000001,85.000001,85.000001,395.0,0.0,0.0,0.0,1.0,166.665,57.724000000000004,57.724000000000004,46.844,46.844,34.0,-16.96,25.828,-22.28333333333333,35.385000000000005,0.0,1782.092,-0.884999999999998,100.0,23.411,24.603,43.2,44.8,0.0,0.0,100.0,0.0,0.0,0.0,0.0,2542.6666666666665,2821.3,4034.714285714286,4202.1,307.295,305.73625,315.004,314.317,21.889666666666667,20.5574,21.9362,21.4766,314.999998,314.999998,324.999988,324.999988,99.55724285714285,99.50671666666666,99.56532857142857,99.54707142857143,0.16925000000000012,0.06525000000000003,0.013333333333333334,0.22983333333333333,-0.046666666666666856,-0.036666666666668846,1.52,1.4585000000000001,37.811,29.483666666666664,38.101,35.2285,55.105999999999995,34.4135,58.9495,52.412,53.057,33.5905,57.542500000000004,50.76,52.2035,33.1565,57.435,50.184333333333335,-0.1263333333333332,0.016999999999999904,0.10981,0.104215,0.0,214.685,214.805,211.51666666666665,211.51666666666665,0.0,0.0
21,0.0,0.0,0.0,1.0,1.0,0.0,0.0,1.0,0.0,100.0,1.0,1.1856,26.0,0.0,0.0,0.0,59.999996,0.0,26.0,26.0,26.0,26.0,0.11888888888888904,0.29890000000000017,-0.070175,294.617,-2.8367,-2.654875,-1.6601,-1.49925,-204.92000000000002,215.925,190.55125,0.0,0.0,0.0,0.0,0.0427333333333334,-5.498166666666667,-5.498166666666667,-0.47440000000000004,0.5933333333333334,0.060111111111111004,0.10199999999999987,68.729,0.11385,-0.099525,-0.9739999999999993,100.0,1.0,1.0,212.03,0.0,0.0,0.0,0.0,0.0,0.0,0.0,8987.2,0.0,55.0,5.0,247.39333333333335,1.0,0.0,0.0,0.0,0.0,0.0,0.0,0.0,1.056000000000001,1.056000000000001,0.0,0.0,1.0,55.0,616.79921,10000.0,85.000001,85.000001,85.000001,85.000001,395.0,0.0,0.0,0.0,1.0,333.33500000000004,57.388,57.388,47.516,47.516,34.0,-18.5425,25.752000000000002,-22.79333333333333,33.7625,0.0,1782.045,-0.09499999999999886,100.0,23.857,24.539,42.717,44.22,0.0,0.0,100.0,0.0,0.0,0.0,0.0,2600.1666666666665,2898.9,4067.0,4135.7,306.9045,305.68225,315.0226666666667,314.672,21.897444444444446,20.5619,21.945,21.4845,314.999998,314.999998,324.999988,324.999988,99.55727142857143,99.50671666666666,99.56545714285714,99.54721428571429,0.13400000000000012,0.04325000000000001,0.015333333333333334,0.23266666666666666,-0.04833333333333201,-0.06833333333332803,1.5855,1.549,37.858999999999995,29.512,38.156,35.278,55.093,34.447,58.981,52.46633333333333,53.045,33.6215,57.572,50.812333333333335,52.19,33.186,57.4615,50.23566666666667,-0.06666666666666665,-0.0495000000000001,0.09866000000000001,0.11191000000000001,0.0,215.15,215.22,212.03,212.03,0.0,0.0
22,0.0,0.0,0.0,1.0,1.0,0.0,0.0,1.0,0.0,100.0,1.0,1.1856,26.0,0.0,0.0,0.0,59.999996,0.0,26.0,26.0,26.0,26.0,0.0815555555555556,0.28580000000000005,-0.0076500000000000005,294.281,-2.8855,-2.62925,-1.6485,-1.49925,-201.2,215.93,190.526,0.0,0.0,0.0,0.0,0.04489999999999994,-5.498166666666667,-5.498166666666667,-0.45420000000000005,-0.21466666666666667,0.056777777777777816,0.47799999999999976,68.883,0.07945,-0.08275,0.06200000000000028,100.0,1.0,1.0,212.31666666666666,0.0,0.0,0.0,0.0,0.0,0.0,0.0,8999.3,0.0,55.0,5.0,247.95,0.0,0.0,0.0,0.0,0.0,0.0,0.0,0.0,1.1099999999999994,1.1099999999999994,0.0,0.0,0.0,55.0,616.79921,10000.0,85.000001,85.000001,85.000001,85.000001,395.0,0.0,0.0,0.0,1.0,166.665,57.831,57.831,46.463,46.463,34.0,-19.13,22.642,-27.449999999999996,34.8025,0.0,1781.993,0.4450000000000003,100.0,23.904,24.438,43.385,44.471000000000004,0.0,0.0,100.0,0.0,0.0,0.0,0.0,2475.0,2800.2,4245.571428571428,4425.2,307.3975,306.0705,314.4986666666667,313.919,21.906666666666666,20.5673,21.9561,21.4943,314.999998,314.999998,324.999988,324.999988,99.55727142857143,99.50671666666666,99.56561428571429,99.54737142857142,0.09099999999999997,-0.007750000000000035,-0.0395,0.18933333333333335,-0.045000000000001705,-0.051666666666669414,1.466,1.468,37.917,29.545333333333332,38.225,35.3395,55.074,34.483000000000004,59.0255,52.53633333333333,53.025999999999996,33.655,57.6135,50.879999999999995,52.171,33.218,57.4995,50.302,-0.01966666666666672,-0.08950000000000014,0.109145,0.11168000000000002,0.0,215.655,215.64,212.31666666666666,212.31666666666666,0.0,0.0
23,0.0,0.0,0.0,1.0,1.0,0.0,0.0,1.0,0.0,100.0,1.0,1.1856,26.0,0.0,0.0,0.0,59.999996,0.0,26.0,26.0,26.0,26.0,-0.00022222222222212373,0.27270000000000016,-0.047025000000000004,294.281,-2.7588,-2.69975,-1.671,-1.501625,-197.89,215.935,190.503875,0.0,0.0,0.0,0.0,0.04683333333333339,-5.498166666666667,-5.498166666666667,-0.47340000000000004,-0.084,0.023555555555555552,0.016999999999999904,69.015,0.035250000000000004,-0.107825,0.7020000000000008,100.0,1.0,1.0,212.86666666666667,0.0,0.0,0.0,0.0,0.0,0.0,0.0,9022.7,0.0,55.0,5.0,248.42333333333335,1.0,0.0,0.0,0.0,0.0,0.0,0.0,0.0,1.1580000000000013,1.1580000000000013,0.0,0.0,1.0,55.0,616.79921,10000.0,85.000001,85.000001,85.000001,85.000001,395.0,0.0,0.0,0.0,1.0,166.665,56.946,56.946,47.577,47.577,34.0,-22.557499999999997,22.02,-28.409999999999997,27.9175,0.0,1781.944,0.625,100.0,24.412,24.349,43.545,44.357,0.0,0.0,100.0,0.0,0.0,0.0,0.0,2803.333333333333,2811.4,4061.714285714286,4038.9,306.246,305.9415,315.0366666666667,314.93,21.915,20.572,21.9658,21.5029,314.999998,314.999998,324.999988,324.999988,99.55728571428571,99.50673333333333,99.56574285714285,99.54751428571429,0.05875000000000008,-0.04574999999999996,-0.08816666666666667,0.13166666666666665,-0.04999999999999716,-0.05333333333332746,1.5345,1.5525,37.969,29.575,38.286,35.393,55.057,34.516,59.0625,52.596000000000004,53.01,33.6855,57.647999999999996,50.937,52.153999999999996,33.2475,57.531,50.35766666666667,-0.010666666666666602,-0.11100000000000021,0.10601000000000001,0.10642000000000001,0.0,216.07999999999998,216.025,212.86666666666667,212.86666666666667,0.0,0.0
24,0.0,0.0,0.0,1.0,1.0,0.0,0.0,1.0,0.0,100.0,1.0,1.1856,26.0,0.0,0.0,0.0,59.999996,0.0,26.0,26.0,26.0,26.0,-0.035222222222222155,0.28680000000000017,-0.09240000000000001,294.525,-2.7644,-2.729125,-1.5754000000000001,-1.54675,-194.57,215.94,190.481125,0.0,0.0,0.0,0.0,0.048733333333333295,-5.498166666666667,-5.498166666666667,-0.4788,-0.7123333333333334,0.013777777777777889,0.7189999999999999,69.15,-0.0061,-0.09465,0.9139999999999997,100.0,1.0,1.0,213.15666666666667,0.0,0.0,0.0,0.0,0.0,0.0,0.0,9035.0,0.0,55.0,5.0,248.91,0.0,0.0,0.0,0.0,0.0,0.0,0.0,0.0,1.2059999999999995,1.2059999999999995,0.0,0.0,0.0,55.0,616.79921,10000.0,85.000001,85.000001,85.000001,85.000001,395.0,0.0,0.0,0.0,1.0,166.665,58.167,58.167,46.585,46.585,34.0,-21.045,19.32,-31.266666666666666,28.1625,0.0,1781.896,0.6350000000000016,100.0,24.112,23.947,43.926,44.069,0.0,0.0,100.0,0.0,0.0,0.0,0.0,2501.0,2597.7,4286.571428571428,4179.3,307.2005,306.6065,314.36066666666665,314.5435,21.923222222222222,20.5765,21.9756,21.511400000000002,314.999998,314.999998,324.999988,324.999988,99.55728571428571,99.50673333333333,99.5659,99.54764285714286,0.0182500000000001,-0.07450000000000001,-0.12316666666666667,0.09633333333333333,-0.046666666666666856,-0.05333333333332746,1.4855,1.5010000000000001,38.019999999999996,29.603,38.347,35.4465,55.037,34.5465,59.1025,52.653666666666666,52.991,33.714,57.685,50.992666666666665,52.1345,33.2745,57.565,50.412,-0.0033333333333331883,-0.1030000000000002,0.10082500000000001,0.11148000000000001,0.0,216.495,216.42000000000002,213.15666666666667,213.15666666666667,0.0,0.0
25,0.0,0.0,0.0,1.0,1.0,0.0,0.0,1.0,0.0,100.0,1.0,1.1856,26.0,0.0,0.0,0.0,59.999996,0.0,26.0,26.0,26.0,26.0,-0.08833333333333337,0.26990000000000003,-0.027100000000000003,294.189,-2.7946,-2.7199999999999998,-1.5618,-1.5775000000000001,-190.84,215.945,190.454,0.0,0.0,0.0,0.0,0.050933333333333386,-5.498166666666667,-5.498166666666667,-0.5059,0.4446666666666667,-0.014777777777777779,-0.7720000000000002,69.297,-0.043500000000000004,-0.09620000000000001,1.0679999999999996,100.0,1.0,1.0,213.75666666666666,0.0,0.0,0.0,0.0,0.0,0.0,0.0,9060.3,0.0,55.0,5.0,249.44,1.0,0.0,0.0,0.0,0.0,0.0,0.0,0.0,1.259999999999998,1.259999999999998,0.0,0.0,1.0,55.0,616.79921,10000.0,85.000001,85.000001,85.000001,85.000001,395.0,0.0,0.0,0.0,1.0,166.665,56.625,56.625,47.379,47.379,34.0,-26.8,21.476,-30.799999999999997,25.155,0.0,1781.843,0.6550000000000011,100.0,24.454,24.14,43.72,43.557,0.0,0.0,100.0,0.0,0.0,0.0,0.0,2990.166666666667,2963.6,4075.285714285714,4037.4,305.8155,305.51175,314.976,314.89925,21.932444444444442,20.5817,21.9864,21.5209,314.999998,314.999998,324.999988,324.999988,99.55728571428571,99.50675,99.56604285714286,99.5478,-0.00024999999999997247,-0.09824999999999995,-0.161,0.0565,-0.04999999999999716,-0.054999999999999716,1.527,1.5645,38.078,29.635666666666665,38.415,35.506,55.015,34.585499999999996,59.1425,52.716,52.97,33.75,57.723,51.05266666666667,52.113,33.309,57.5995,50.470666666666666,-0.008000000000000007,-0.11149999999999993,0.10758500000000001,0.1018,0.0,216.97500000000002,216.89,213.75666666666666,213.75666666666666,0.0,0.0
26,0.0,0.0,0.0,1.0,1.0,0.0,0.0,1.0,0.0,100.0,1.0,1.1856,26.0,0.0,0.0,0.0,59.999996,0.0,26.0,26.0,26.0,26.0,-0.1123333333333334,0.29920000000000013,0.105725,293.228,-2.7224,-2.82775,-1.5899,-1.5951250000000001,-187.51,215.9475,190.429875,0.0,0.0,0.0,0.0,0.052866666666666506,-5.498166666666667,-5.498166666666667,-0.4622,0.47100000000000003,-0.055333333333333456,0.4289999999999998,69.43299999999999,-0.06115,-0.06995,0.9979999999999993,100.0,1.0,1.0,213.86666666666667,0.0,0.0,0.0,0.0,0.0,0.0,0.0,9065.0,0.0,55.0,5.0,249.92666666666668,0.0,0.0,0.0,0.0,0.0,0.0,0.0,0.0,1.3079999999999998,1.3079999999999998,0.0,0.0,0.0,55.0,616.79921,10000.0,85.000001,85.000001,85.000001,85.000001,395.0,0.0,0.0,0.0,1.0,166.665,56.961,56.961,45.334,45.334,34.0,-24.39,18.754,-38.9,29.47,0.0,1781.795,0.5199999999999996,100.0,25.234,24.329,44.762,43.856,0.0,0.0,100.0,0.0,0.0,0.0,0.0,2762.8333333333335,2609.4,4741.714285714285,4592.3,306.2825,306.54275,313.35366666666664,313.59725,21.941,20.5864,21.9964,21.5296,314.999998,314.999998,324.999988,324.999988,99.55728571428571,99.50676666666666,99.5662,99.54794285714286,-0.006249999999999978,-0.11624999999999996,-0.17250000000000001,0.043833333333333335,-0.03833333333332689,-0.04333333333332945,1.392,1.4265,38.131,29.664666666666665,38.477000000000004,35.56,54.998000000000005,34.6215,59.187,52.775666666666666,52.955,33.783,57.7645,51.11,52.097,33.3405,57.638,50.526666666666664,-0.018000000000000016,-0.09750000000000014,0.10339500000000001,0.11122000000000001,0.0,217.41,217.32,213.86666666666667,213.86666666666667,0.0,0.0
27,0.0,0.0,0.0,1.0,1.0,0.0,0.0,1.0,0.0,100.0,1.0,1.1856,26.0,0.0,0.0,0.0,59.999996,0.0,26.0,26.0,26.0,26.0,-0.10311111111111104,0.26880000000000015,-0.064925,293.991,-2.6861,-2.796875,-1.5768,-1.666875,-184.17000000000002,215.95,190.40675,0.0,0.0,0.0,0.0,0.05479999999999996,-5.498166666666667,-5.498166666666667,-0.498,-0.9996666666666667,-0.055777777777777704,0.7570000000000001,69.562,-0.0719,-0.120575,0.9120000000000008,100.0,1.0,1.0,214.47333333333333,0.0,0.0,0.0,0.0,0.0,0.0,0.0,9090.8,0.0,55.0,5.0,250.39666666666665,1.0,0.0,0.0,0.0,0.0,0.0,0.0,0.0,1.355999999999998,1.355999999999998,0.0,0.0,1.0,55.0,616.79921,10000.0,85.000001,85.000001,85.000001,85.000001,395.0,0.0,0.0,0.0,1.0,333.33500000000004,57.159,57.159,46.539,46.539,34.0,-24.4225,19.25,-32.05,25.122500000000002,0.0,1781.746,0.4299999999999997,100.0,24.903,24.022,45.147,44.1,0.0,0.0,100.0,0.0,0.0,0.0,0.0,2790.666666666667,2712.0,4046.1428571428573,4002.4,306.3655,306.26175,314.90166666666664,314.93125,21.949333333333335,20.5909,22.0063,21.5383,314.999998,314.999998,324.999988,324.999988,99.5573,99.50678333333333,99.56634285714286,99.54808571428572,-0.013000000000000012,-0.11875000000000002,-0.18016666666666667,0.03283333333333334,-0.045000000000001705,-0.05833333333333002,1.4975,1.5275,38.183,29.692999999999998,38.54,35.6145,54.979,34.655,59.2285,52.833666666666666,52.937,33.814,57.8035,51.165333333333336,52.0785,33.3705,57.674,50.580333333333336,-0.02066666666666661,-0.08599999999999985,0.1038,0.10092500000000001,0.0,217.755,217.675,214.47333333333333,214.47333333333333,0.0,0.0
28,0.0,0.0,0.0,1.0,1.0,0.0,0.0,1.0,0.0,100.0,1.0,1.1856,26.0,0.0,0.0,0.0,59.999996,0.0,26.0,26.0,26.0,26.0,-0.08833333333333337,0.28710000000000013,-0.0455,294.067,-2.7105,-2.77575,-1.5533000000000001,-1.599375,-180.62,215.9475,190.381125,0.0,0.0,0.0,0.0,0.05686666666666651,-5.498166666666667,-5.498166666666667,-0.49260000000000004,0.7006666666666667,-0.06277777777777782,-0.7050000000000001,69.7,-0.07745,-0.08265,0.8799999999999999,100.0,1.0,1.0,214.91333333333333,0.0,0.0,0.0,0.0,0.0,0.0,0.0,9109.4,0.0,55.0,5.0,250.89,0.0,0.0,0.0,0.0,0.0,0.0,0.0,0.0,1.407,1.407,0.0,0.0,0.0,55.0,616.79921,10000.0,85.000001,85.000001,85.000001,85.000001,395.0,0.0,0.0,0.0,1.0,333.33500000000004,57.327,57.327,46.707,46.707,34.0,-25.1,17.824,-34.486666666666665,25.11,0.0,1781.694,0.240000000000002,100.0,24.821,24.07,44.44,43.647999999999996,0.0,0.0,100.0,0.0,0.0,0.0,0.0,2845.833333333333,2528.8,4339.714285714285,4149.8,306.2515,306.63325,314.4626666666667,314.63125,21.958222222222222,20.5957,22.0165,21.5473,314.999998,314.999998,324.999988,324.999988,99.5573,99.50678333333333,99.56648571428572,99.54822857142857,-0.012749999999999928,-0.118,-0.18883333333333335,0.030833333333333334,-0.06666666666666998,-0.06333333333333258,1.5145,1.5275,38.239000000000004,29.723333333333336,38.602999999999994,35.670500000000004,54.961,34.6915,59.266999999999996,52.891999999999996,52.92,33.8475,57.8395,51.221333333333334,52.061,33.4025,57.707499999999996,50.635,-0.03499999999999992,-0.07699999999999996,0.10384,0.10537,0.0,218.24,218.16,214.91333333333333,214.91333333333333,0.0,0.0
29,0.0,0.0,0.0,1.0,1.0,0.0,0.0,1.0,0.0,100.0,1.0,1.1856,26.0,0.0,0.0,0.0,59.999996,0.0,26.0,26.0,26.0,26.0,-0.0915555555555555,0.2711000000000001,-0.010575000000000001,293.9,-2.6567,-2.83875,-1.5587,-1.602625,-177.06,215.9425,190.3545,0.0,0.0,0.0,0.0,0.05893333333333339,-5.498166666666667,-5.498166666666667,-0.5046,-0.704,-0.05888888888888877,0.8289999999999997,69.84100000000001,-0.0731,-0.0935,0.5620000000000003,100.0,1.0,1.0,215.23333333333335,0.0,0.0,0.0,0.0,0.0,0.0,0.0,9122.9,0.0,55.0,5.0,251.4,1.0,0.0,0.0,0.0,0.0,0.0,0.0,0.0,1.4579999999999984,1.4579999999999984,0.0,0.0,1.0,55.0,616.79921,10000.0,85.000001,85.000001,85.000001,85.000001,395.0,0.0,0.0,0.0,1.0,166.665,57.281,57.281,46.463,46.463,34.0,-24.134999999999998,19.524,-32.879999999999995,26.48,0.0,1781.646,0.19000000000000128,100.0,24.712,23.775,44.953,43.822,0.0,0.0,100.0,0.0,0.0,0.0,0.0,2829.333333333333,2672.2,4193.714285714285,4245.6,306.1975,306.3375,314.5813333333333,314.382,21.96688888888889,20.6005,22.0271,21.5565,314.999998,314.999998,324.999988,324.999988,99.5573,99.5068,99.56664285714285,99.54837142857143,0.0012499999999999734,-0.11275000000000002,-0.1715,0.03883333333333334,-0.02833333333332888,-0.061666666666667425,1.4625,1.4885,38.293,29.753,38.669,35.7285,54.94,34.726,59.3115,52.95433333333334,52.9,33.8795,57.881,51.281,52.0405,33.433,57.746,50.693,-0.046333333333333115,-0.07200000000000006,0.10192000000000001,0.102385,0.0,218.60000000000002,218.55,215.23333333333335,215.23333333333335,0.0,0.0
30,0.0,0.0,0.0,1.0,1.0,0.0,0.0,1.0,0.0,100.0,1.0,1.1856,26.0,0.0,0.0,0.0,59.999996,0.0,26.0,26.0,26.0,26.0,-0.06699999999999995,0.2755000000000001,-0.0091,293.35,-2.6758,-2.82125,-1.5947,-1.66075,-173.5,215.9375,190.327875,0.0,0.0,0.0,0.0,0.06099999999999994,-5.498166666666667,-5.498166666666667,-0.4897,0.9306666666666666,-0.06111111111111134,-0.3919999999999999,69.977,-0.0629,-0.079575,0.54,100.0,1.0,1.0,215.69333333333333,0.0,0.0,0.0,0.0,0.0,0.0,0.0,9142.4,0.0,55.0,5.0,251.89,0.0,0.0,0.0,0.0,0.0,0.0,1.0,0.0,1.5090000000000003,1.5090000000000003,0.0,0.0,0.0,55.0,616.79921,10000.0,85.000001,85.000001,85.000001,85.000001,395.0,0.0,0.0,0.0,1.0,166.665,56.305,56.305,46.082,46.082,34.0,-25.5125,19.89,-36.21333333333334,26.07,0.0,1781.594,0.054999999999999716,100.0,25.46,24.652,44.749,43.945,0.0,0.0,100.0,0.0,0.0,0.0,0.0,2979.0,2698.8,4488.285714285715,4098.6,305.837,306.187,314.157,314.64925,21.976,20.6055,22.037399999999998,21.5657,314.999998,314.999998,324.999988,324.999988,99.5573,99.5068,99.5668,99.54852857142858,0.00550000000000006,-0.10699999999999998,-0.181,0.035333333333333335,-0.030000000000001137,-0.04999999999999716,1.4809999999999999,1.5015,38.35,29.784666666666666,38.733999999999995,35.7855,54.924,34.7645,59.352000000000004,53.01433333333333,52.884,33.914500000000004,57.9195,51.33866666666667,52.0245,33.466499999999996,57.781,50.749,-0.05933333333333324,-0.0674999999999999,0.10421000000000001,0.10860500000000001,0.0,219.065,219.025,215.69333333333333,215.69333333333333,0.0,0.0
31,0.0,0.0,0.0,1.0,1.0,0.0,0.0,1.0,0.0,100.0,1.0,1.1856,26.0,0.0,0.0,0.0,59.999996,0.0,26.0,26.0,26.0,26.0,-0.049111111111111105,0.2742,0.012725,293.106,-2.7843,-2.698,-1.5469,-1.654375,-170.13,215.93,190.30375,0.0,0.0,0.0,0.0,0.06296666666666662,-5.498166666666667,-5.498166666666667,-0.48910000000000003,-0.6896666666666667,-0.05133333333333345,-0.569,70.108,-0.0494,-0.098625,0.34799999999999986,100.0,1.0,1.0,215.98333333333335,0.0,0.0,0.0,0.0,0.0,0.0,0.0,9154.7,0.0,55.0,5.0,252.36,1.0,0.0,0.0,0.0,0.0,0.0,1.0,0.0,1.5569999999999986,1.5569999999999986,0.0,0.0,1.0,55.0,616.79921,10000.0,85.000001,85.000001,85.000001,85.000001,395.0,0.0,0.0,0.0,1.0,333.33500000000004,56.473,56.473,45.272999999999996,45.272999999999996,34.0,-25.369999999999997,20.454,-33.25333333333333,29.325,0.0,1781.544,0.045000000000001705,100.0,25.022,24.685,45.292,44.626999999999995,0.0,0.0,100.0,0.0,0.0,0.0,0.0,2924.833333333333,2820.5,4406.714285714285,4316.2,306.1795,305.85925,314.1983333333333,314.197,21.984222222222222,20.6102,22.0474,21.5745,314.999998,314.999998,324.999988,324.999988,99.55731428571428,99.50681666666667,99.56694285714286,99.54867142857142,0.01200000000000001,-0.09199999999999997,-0.14833333333333334,0.06383333333333334,-0.03833333333332689,-0.05666666666667197,1.4685,1.459,38.400999999999996,29.814,38.797,35.841,54.903999999999996,34.7985,59.3955,53.074666666666666,52.866,33.946,57.96,51.39666666666667,52.006,33.4965,57.8185,50.80566666666667,-0.06166666666666676,-0.06000000000000005,0.098225,0.10907000000000001,0.0,219.43,219.4,215.98333333333335,215.98333333333335,0.0,0.0
32,0.0,0.0,0.0,1.0,1.0,0.0,0.0,1.0,0.0,100.0,1.0,1.1856,26.0,0.0,0.0,0.0,59.999996,0.0,26.0,26.0,26.0,26.0,-0.06288888888888888,0.2794000000000001,-0.010775,293.472,-2.6909,-2.80525,-1.5507,-1.55925,-166.55,215.91750000000002,190.277875,0.0,0.0,0.0,0.0,0.06503333333333339,-5.498166666666667,-5.498166666666667,-0.5017,0.155,-0.0692222222222223,0.3460000000000001,70.243,-0.041850000000000005,-0.09897500000000001,0.20999999999999996,100.0,1.0,1.0,216.48666666666668,0.0,0.0,0.0,0.0,0.0,0.0,0.0,9176.0,0.0,55.0,5.0,252.84333333333336,0.0,0.0,0.0,0.0,0.0,0.0,1.0,0.0,1.6080000000000005,1.6080000000000005,0.0,0.0,0.0,55.0,616.79921,10000.0,85.000001,85.000001,85.000001,85.000001,395.0,0.0,0.0,0.0,1.0,166.665,56.885,56.885,46.051,46.051,34.0,-22.555,20.884,-31.543333333333337,28.795,0.0,1781.495,-0.06499999999999773,100.0,25.113,24.518,44.966,44.325,0.0,0.0,100.0,0.0,0.0,0.0,0.0,2760.5,2684.5,4255.571428571428,4365.0,306.341,306.26575,314.4646666666667,314.17225,21.993,20.6153,22.0577,21.5837,314.999998,314.999998,324.999988,324.999988,99.55731428571428,99.50683333333333,99.5671,99.54881428571429,0.03600000000000003,-0.07099999999999995,-0.13966666666666666,0.077,-0.03999999999999915,-0.06333333333333258,1.4895,1.4905,38.456,29.845333333333336,38.861000000000004,35.897999999999996,54.885,34.8345,59.4345,53.13466666666667,52.848,33.9795,57.9965,51.454,51.9875,33.5285,57.852000000000004,50.861333333333334,-0.06566666666666676,-0.05049999999999999,0.10354500000000001,0.10617000000000001,0.0,219.865,219.835,216.48666666666668,216.48666666666668,0.0,0.0
33,0.0,0.0,0.0,1.0,1.0,0.0,0.0,1.0,0.0,100.0,1.0,1.1856,26.0,0.0,0.0,0.0,59.999996,0.0,26.0,26.0,26.0,26.0,-0.027666666666666617,0.2579,-0.056975000000000005,293.808,-2.7456,-2.7902500000000003,-1.5546,-1.63575,-162.97,215.9075,190.250875,0.0,0.0,0.0,0.0,0.06713333333333338,-5.498166666666667,-5.498166666666667,-0.5098,-0.556,-0.06077777777777804,0.1299999999999999,70.379,-0.0334,-0.08665,0.23600000000000065,100.0,1.0,1.0,216.89333333333332,0.0,0.0,0.0,0.0,0.0,0.0,0.0,9193.3,0.0,55.0,5.0,253.33666666666664,1.0,0.0,0.0,0.0,0.0,0.0,1.0,0.0,1.658999999999999,1.658999999999999,0.0,0.0,1.0,55.0,616.79921,10000.0,85.000001,85.000001,85.000001,85.000001,395.0,0.0,0.0,0.0,1.0,166.665,57.388,57.388,46.432,46.432,34.0,-23.2,19.546,-31.116666666666667,28.4525,0.0,1781.443,-0.14499999999999957,100.0,24.698,24.284,44.866,44.426,0.0,0.0,100.0,0.0,0.0,0.0,0.0,2816.333333333333,2525.8,4202.428571428572,4197.6,306.455,306.70075,314.65566666666666,314.4265,22.001666666666665,20.62,22.0681,21.5929,314.999998,314.999998,324.999988,324.999988,99.55731428571428,99.50683333333333,99.56724285714286,99.54897142857143,0.03475000000000006,-0.06699999999999995,-0.14133333333333334,0.07033333333333333,-0.03999999999999915,-0.054999999999999716,1.4865,1.48,38.51,29.875,38.926,35.956,54.864999999999995,34.8665,59.475,53.19533333333334,52.83,34.0085,58.0345,51.51233333333333,51.968,33.5565,57.887,50.918,-0.06966666666666677,-0.04300000000000015,0.10487500000000001,0.10844000000000001,0.0,220.26999999999998,220.235,216.89333333333335,216.89333333333332,0.0,0.0
34,0.0,0.0,0.0,1.0,1.0,0.0,0.0,1.0,0.0,100.0,1.0,1.1856,26.0,0.0,0.0,0.0,59.999996,0.0,26.0,26.0,26.0,26.0,-0.024777777777777787,0.26880000000000015,-0.11015000000000001,294.159,-2.7588,-2.769125,-1.6264,-1.562375,-159.59,215.89499999999998,190.22425,0.0,0.0,0.0,0.0,0.06909999999999994,-5.498166666666667,-5.498166666666667,-0.5428000000000001,-0.839,-0.02666666666666684,-0.09200000000000008,70.506,-0.024550000000000002,-0.095275,0.10200000000000031,100.0,1.0,1.0,217.32333333333332,0.0,0.0,0.0,0.0,0.0,0.0,0.0,9211.6,0.0,55.0,5.0,253.79333333333335,0.0,0.0,0.0,0.0,0.0,0.0,1.0,0.0,1.7070000000000007,1.7070000000000007,0.0,0.0,0.0,55.0,616.79921,10000.0,85.000001,85.000001,85.000001,85.000001,395.0,0.0,0.0,0.0,1.0,166.665,57.861,57.861,46.722,46.722,34.0,-21.32,19.664,-31.063333333333333,27.585,0.0,1781.395,-0.18999999999999773,100.0,24.385,24.066,44.59,44.453,0.0,0.0,100.0,0.0,0.0,0.0,0.0,2642.0,2542.4,4140.428571428572,4181.9,306.8635,306.63325,314.87533333333334,314.5395,22.009666666666668,20.6245,22.0778,21.6016,314.999998,314.999998,324.999988,324.999988,99.55731428571428,99.50685,99.56738571428572,99.54911428571428,0.04774999999999996,-0.06399999999999995,-0.13583333333333333,0.08083333333333333,-0.03833333333332689,-0.06333333333333258,1.51,1.52,38.561,29.903333333333336,38.986000000000004,36.01,54.846000000000004,34.8965,59.5105,53.25266666666667,52.811,34.036,58.067499999999995,51.56733333333334,51.9495,33.583,57.917,50.972,-0.07333333333333325,-0.04150000000000009,0.10743000000000001,0.109505,0.0,220.635,220.64499999999998,217.32333333333332,217.32333333333332,0.0,0.0
35,0.0,0.0,0.0,1.0,1.0,0.0,0.0,1.0,0.0,100.0,1.0,1.1856,26.0,0.0,0.0,0.0,59.999996,0.0,26.0,26.0,26.0,26.0,-0.01577777777777778,0.2550000000000001,-0.097625,293.945,-2.7423,-2.7361250000000004,-1.5905,-1.554625,-155.99,215.8825,190.193625,0.0,0.0,0.0,0.0,0.0711666666666666,-5.498166666666667,-5.498166666666667,-0.5774,0.08633333333333333,-0.045222222222222275,-0.2280000000000002,70.639,-0.0135,-0.09415,-0.07000000000000028,100.0,1.0,1.0,217.82666666666665,0.0,0.0,0.0,0.0,0.0,0.0,0.0,9232.8,0.0,55.0,5.0,254.27333333333334,1.0,0.0,0.0,0.0,0.0,0.0,1.0,0.0,1.7579999999999991,1.7579999999999991,0.0,0.0,1.0,55.0,616.79921,10000.0,85.000001,85.000001,85.000001,85.000001,395.0,0.0,0.0,0.0,1.0,333.33500000000004,56.87,56.87,46.432,46.432,34.0,-22.057499999999997,23.884,-28.316666666666663,27.5925,0.0,1781.344,-0.08500000000000085,100.0,24.454,24.434,44.41,43.965,0.0,0.0,100.0,0.0,0.0,0.0,0.0,2740.0,3001.8,4046.4285714285716,4011.2,306.4725,305.37175,315.067,315.00525,22.01811111111111,20.6296,22.088,21.6107,314.999998,314.999998,324.999988,324.999988,99.55732857142857,99.50685,99.56752857142857,99.54925714285714,0.052999999999999936,-0.05125000000000002,-0.1085,0.1135,-0.045000000000001705,-0.060000000000002274,1.5354999999999999,1.545,38.613,29.935000000000002,39.05,36.0665,54.825,34.9315,59.5485,53.309666666666665,52.791,34.0685,58.103,51.62233333333333,51.929,33.614,57.949,51.025333333333336,-0.06366666666666676,-0.052999999999999936,0.10430500000000001,0.11203,0.0,221.07,221.075,217.82666666666665,217.82666666666665,0.0,0.0
