,ABS Active,ABS Enabled,AID Allow Tire Blankets,AID Auto Blip,AID Auto Clutch,AID Auto Shift,AID Fuel Rate,AID Ideal Line,AID Mech Damage,AID Stability,AID Tire Wear Rate,Air Density,Air Temp,Ballast,Best Lap Delta,Best Lap Time,Brake Bias,Brake Pos,Brake Temp FL,Brake Temp FR,Brake Temp RL,Brake Temp RR,CG Accel Lateral,CG Accel Longitudinal,CG Accel Vertical,CG Height,Camber FL,Camber FR,Camber RL,Camber RR,Car Coord X,Car Coord Y,Car Coord Z,Car Damage Front,Car Damage Left,Car Damage Rear,Car Damage Right,Car Pos Norm,Caster FL,Caster FR,Chassis Pitch Angle,Chassis Pitch Rate,Chassis Roll Angle,Chassis Roll Rate,Chassis Velocity X,Chassis Velocity Y,Chassis Velocity Z,Chassis Yaw Rate,Clutch Pos,DRS Active,DRS Available,Drive Train Speed,ERS Heat Charging,ERS Is Charging,ERS Max Energy,ERS Power Level,ERS Recovery Level,Engine Brake Setting,Engine Limiter,Engine RPM,Flags,Fuel Level,Gear,Ground Speed,HR Sample Clock,In Pit,KERS Charge,KERS Deployed Energy,KERS Input,KERS Max Energy,LR Sample Clock,Lap Invalidated,Lap Time,Lap Time2,Last Lap Time,Last Sector Time,MR Sample Clock,Max Fuel,Max Power,Max RPM,Max Sus Travel FL,Max Sus Travel FR,Max Sus Travel RL,Max Sus Travel RR,Max Torque,Max Turbo Boost,Num Tires Off Track,Penalties Enabled,Position,Raw Data Sample Rate,Ride Height FL,Ride Height FR,Ride Height RL,Ride Height RR,Road Temp,Self Align Torque FL,Self Align Torque FR,Self Align Torque RL,Self Align Torque RR,Session Lap Count,Session Time Left,Steering Angle,Surface Grip,Suspension Travel FL,Suspension Travel FR,Suspension Travel RL,Suspension Travel RR,TC Active,TC Enabled,Throttle Pos,Tire Dirt Level FL,Tire Dirt Level FR,Tire Dirt Level RL,Tire Dirt Level RR,Tire Load FL,Tire Load FR,Tire Load RL,Tire Load RR,Tire Loaded Radius FL,Tire Loaded Radius FR,Tire Loaded Radius RL,Tire Loaded Radius RR,Tire Pressure FL,Tire Pressure FR,Tire Pressure RL,Tire Pressure RR,Tire Radius FL,Tire Radius FR,Tire Radius RL,Tire Radius RR,Tire Rubber Grip FL,Tire Rubber Grip FR,Tire Rubber Grip RL,Tire Rubber Grip RR,Tire Slip Angle FL,Tire Slip Angle FR,Tire Slip Angle RL,Tire Slip Angle RR,Tire Slip Ratio FL,Tire Slip Ratio FR,Tire Slip Ratio RL,Tire Slip Ratio RR,Tire Temp Core FL,Tire Temp Core FR,Tire Temp Core RL,Tire Temp Core RR,Tire Temp Inner FL,Tire Temp Inner FR,Tire Temp Inner RL,Tire Temp Inner RR,Tire Temp Middle FL,Tire Temp Middle FR,Tire Temp Middle RL,Tire Temp Middle RR,Tire Temp Outer FL,Tire Temp Outer FR,Tire Temp Outer RL,Tire Temp Outer RR,Toe In FL,Toe In FR,Toe In RL,Toe In RR,Turbo Boost,Wheel Angular Speed FL,Wheel Angular Speed FR,Wheel Angular Speed RL,Wheel Angular Speed RR,Wind Direction,Wind Speed
0,0.0,0.0,0.0,1.0,1.0,0.0,0.0,1.0,0.0,100.0,1.0,1.1856,26.0,0.0,0.0,0.0,59.99999,0.0,26.0,26.0,26.0,26.0,-0.07433333333333336,0.30910000000000015,0.043000000000000003,294.861,-2.7464,-2.678888888888889,-1.52315,-1.5571000000000002,-275.76,216.29000000000002,190.988875,0.0,0.0,0.0,0.0,0.0015333333333333334,-5.498166666666667,-5.498166666666667,-0.5216000000000001,0.8293333333333334,-0.0058888888888888324,-0.9259999999999999,65.614,-0.033600000000000005,-0.177425,0.9900000000000002,100.0,1.0,1.0,202.62666666666667,0.0,0.0,0.0,0.0,0.0,0.0,0.0,8588.7,0.0,55.0,5.0,236.17666666666668,0.0,0.0,0.0,0.0,0.0,0.0,0.0,0.0,0.0030000000000001137,0.0030000000000001137,0.0,0.0,0.0,55.0,616.79921,10000.0,85.0,85.0,85.0,85.0,395.0,0.0,0.0,0.0,1.0,20.0,54.504,54.504,49.774,49.774,34.0,-26.439999999999998,23.40833333333333,-29.123333333333335,23.9225,0.0,1782.126,0.8000000000000007,100.0,25.829,25.366,40.743,40.803,0.0,0.0,100.0,0.0,0.0,0.0,0.0,2985.714285714286,3319.0,3986.0,3892.7,305.8105,304.28433333333334,315.1775,315.103,21.7419,20.491,21.7495,21.3053,314.99999,314.99999,324.99998,324.99998,99.55762857142857,99.50683333333333,99.56385714285715,99.54472857142858,-0.005333333333333301,-0.11499999999999999,-0.16133333333333336,0.06283333333333334,-0.046666666666666856,-0.07000000000000028,1.5776666666666666,1.621,36.887,29.0685,36.934,34.158,55.751999999999995,34.068,58.5965,51.3905,53.683,33.269,57.2345,49.768,52.848,32.8455,57.1935,49.206,-0.007500000000000062,-0.1259999999999999,0.10569,0.10824,0.0,205.575,205.51999999999998,202.62666666666667,202.62666666666667,0.0,0.0
1,0.0,0.0,0.0,1.0,1.0,0.0,0.0,1.0,0.0,100.0,1.0,1.1856,26.0,0.0,0.0,0.0,59.999996,0.0,26.0,26.0,26.0,26.0,-0.12088888888888893,0.32130000000000014,0.05026666666666667,293.793,-2.6717,-2.7862222222222224,-1.5258500000000002,-1.5499,-272.4,216.285,190.9685,0.0,0.0,0.0,0.0,0.0035,-5.498166666666667,-5.498166666666667,-0.4521,0.08566666666666667,-0.055333333333333456,-0.15300000000000002,65.773,-0.0506,-0.144625,1.3239999999999998,100.0,1.0,1.0,202.69666666666666,0.0,0.0,0.0,0.0,0.0,0.0,0.0,8591.5,0.0,55.0,5.0,236.75,1.0,0.0,0.0,0.0,0.0,0.0,0.0,0.0,0.053999999999998494,0.053999999999998494,0.0,0.0,1.0,55.0,616.79921,10000.0,85.000001,85.000001,85.000001,85.000001,395.0,0.0,0.0,0.0,1.0,333.33500000000004,55.649,55.649,47.852000000000004,47.852000000000004,34.0,-24.8875,16.955,-36.39,29.4975,0.0,1782.074,0.8949999999999996,100.0,26.224,25.593,42.574,41.74,0.0,0.0,100.0,0.0,0.0,0.0,0.0,2840.285714285714,2490.3,4545.0,4804.3,306.0295,306.8856666666667,313.695,312.915,21.7516,20.4959,21.7602,21.3143,314.999998,314.999998,324.999988,324.999988,99.55762857142857,99.50685,99.56401428571428,99.54488571428571,-0.011666666666666603,-0.131,-0.179,0.03166666666666667,-0.036666666666668846,-0.045000000000001705,1.38,1.442,36.947,29.0995,37.001000000000005,34.2145,55.733999999999995,34.11,58.647,51.460499999999996,53.666,33.308,57.2815,49.835,52.831,32.882999999999996,57.2375,49.27166666666667,0.007000000000000117,-0.1339999999999999,0.10312500000000001,0.10287500000000001,0.0,206.10500000000002,205.99,202.69666666666666,202.69666666666666,0.0,0.0
2,0.0,0.0,0.0,1.0,1.0,0.0,0.0,1.0,0.0,100.0,1.0,1.1856,26.0,0.0,0.0,0.0,59.999996,0.0,26.0,26.0,26.0,26.0,-0.13488888888888895,0.2984,-0.011666666666666667,294.678,-2.6336,-2.815,-1.4936,-1.6101,-269.05,216.2775,190.949875,0.0,0.0,0.0,0.0,0.0054666666666666665,-5.498166666666667,-5.498166666666667,-0.5086,-0.392,-0.046222222222222165,1.762,65.919,-0.0693,-0.211125,1.597999999999999,100.0,1.0,1.0,203.68333333333334,0.0,0.0,0.0,0.0,0.0,0.0,0.0,8633.4,0.0,55.0,5.0,237.28,0.0,0.0,0.0,0.0,0.0,0.0,0.0,0.0,0.10500000000000043,0.10500000000000043,0.0,0.0,0.0,55.0,616.79921,10000.0,85.000001,85.000001,85.000001,85.000001,395.0,0.0,0.0,0.0,1.0,333.33500000000004,54.657,54.657,50.11,50.11,34.0,-29.415,18.47,-28.766666666666666,19.814999999999998,0.0,1782.024,0.7250000000000014,100.0,26.519,25.43,42.7,41.667,0.0,0.0,100.0,0.0,0.0,0.0,0.0,3226.4285714285716,2726.2,3728.125,3609.6,305.0145,306.17566666666664,315.67575,315.9345,21.7614,20.5005,21.7706,21.3231,314.999998,314.999998,324.999988,324.999988,99.55764285714285,99.50686666666667,99.56414285714285,99.54501428571429,-0.037666666666666626,-0.14674999999999994,-0.21366666666666667,0.011666666666666665,-0.0933333333333266,-0.04999999999999716,1.6316666666666666,1.699,37.007999999999996,29.128,37.066,34.2695,55.721000000000004,34.144,58.6845,51.5145,53.653,33.3395,57.3165,49.887,52.817,32.913,57.269999999999996,49.32266666666666,-0.0035000000000000586,-0.13200000000000012,0.10503000000000001,0.10967,0.0,206.54000000000002,206.39499999999998,203.68333333333334,203.68333333333334,0.0,0.0
3,0.0,0.0,0.0,1.0,1.0,0.0,0.0,1.0,0.0,100.0,1.0,1.1856,26.0,0.0,0.0,0.0,59.999996,0.0,26.0,26.0,26.0,26.0,-0.12788888888888894,0.31479999999999997,-0.03573333333333333,294.388,-2.757,-2.7096666666666667,-1.5129000000000001,-1.5878,-265.88,216.265,190.931375,0.0,0.0,0.0,0.0,0.0073,-5.498166666666667,-5.498166666666667,-0.4697,0.8306666666666667,-0.007888888888889056,-0.9120000000000001,66.066,-0.08650000000000001,-0.152125,1.2739999999999991,100.0,1.0,1.0,203.84333333333333,0.0,0.0,0.0,0.0,0.0,0.0,0.0,8640.2,0.0,55.0,5.0,237.80333333333334,1.0,0.0,0.0,0.0,0.0,0.0,0.0,0.0,0.1529999999999987,0.1529999999999987,0.0,0.0,1.0,55.0,616.79921,10000.0,85.000001,85.000001,85.000001,85.000001,395.0,0.0,0.0,0.0,1.0,333.33500000000004,55.664,55.664,48.111,48.111,34.0,-24.9,17.046666666666667,-35.266666666666666,23.7825,0.0,1781.975,0.6099999999999994,100.0,26.229,25.512999999999998,42.33,41.528999999999996,0.0,0.0,100.0,0.0,0.0,0.0,0.0,2725.285714285714,2631.2,4359.625,4192.5,306.485,306.258,314.2525,314.435,21.7703,20.5051,21.7803,21.3314,314.999998,314.999998,324.999988,324.999988,99.55764285714285,99.50688333333333,99.56427142857143,99.54515714285715,-0.031333333333333324,-0.14900000000000002,-0.20716666666666667,0.005666666666666667,-0.05333333333332746,-0.06499999999999773,1.4863333333333335,1.5455,37.064,29.157,37.126999999999995,34.321,55.704,34.182,58.7215,51.573499999999996,53.637,33.374,57.3515,49.9435,52.801,32.946,57.302,49.378,-0.01949999999999985,-0.11450000000000005,0.100055,0.10822500000000002,0.0,207.025,206.905,203.84333333333333,203.84333333333333,0.0,0.0
4,0.0,0.0,0.0,1.0,1.0,0.0,0.0,1.0,0.0,100.0,1.0,1.1856,26.0,0.0,0.0,0.0,59.999996,0.0,26.0,26.0,26.0,26.0,-0.14255555555555555,0.2885,-0.004166666666666667,294.571,-2.6884,-2.7672222222222222,-1.5282499999999999,-1.6008,-262.31,216.25,190.910375,0.0,0.0,0.0,0.0,0.009366666666666667,-5.498166666666667,-5.498166666666667,-0.4993,-0.7366666666666667,-0.07955555555555582,-1.725,66.225,-0.08600000000000001,-0.18585000000000002,1.1020000000000003,100.0,1.0,1.0,204.43,0.0,0.0,0.0,0.0,0.0,0.0,0.0,8665.0,0.0,55.0,5.0,238.38,0.0,0.0,0.0,0.0,0.0,0.0,0.0,0.0,0.20700000000000074,0.20700000000000074,0.0,0.0,0.0,55.0,616.79921,10000.0,85.000001,85.000001,85.000001,85.000001,395.0,0.0,0.0,0.0,1.0,166.665,55.344,55.344,48.569,48.569,34.0,-28.5275,18.03666666666667,-33.61666666666666,20.7275,0.0,1781.923,0.6449999999999996,100.0,25.915,25.151,42.92,41.641,0.0,0.0,100.0,0.0,0.0,0.0,0.0,3114.4285714285716,2713.1,4132.0,3710.5,305.514,306.05066666666664,314.731,315.5695,21.7802,20.5101,21.7915,21.3408,314.999998,314.999998,324.999988,324.999988,99.55764285714285,99.5069,99.56442857142856,99.5453,-0.03866666666666663,-0.15000000000000002,-0.21783333333333335,0.009000000000000001,-0.046666666666666856,-0.06666666666666998,1.5473333333333332,1.596,37.126000000000005,29.188499999999998,37.197,34.379999999999995,55.684,34.2225,58.7685,51.6375,53.617999999999995,33.412,57.394999999999996,50.004999999999995,52.782,32.982,57.343,49.438,-0.02299999999999991,-0.11450000000000005,0.11246,0.09656,0.0,207.46,207.37,204.43,204.43,0.0,0.0
5,0.0,0.0,0.0,1.0,1.0,0.0,0.0,1.0,0.0,100.0,1.0,1.1856,26.0,0.0,0.0,0.0,59.999996,0.0,26.0,26.0,26.0,26.0,-0.126,0.30889999999999995,-0.014566666666666667,294.647,-2.6971,-2.7910000000000004,-1.5102,-1.5903,-259.12,216.23250000000002,190.89125,0.0,0.0,0.0,0.0,0.011233333333333333,-5.498166666666667,-5.498166666666667,-0.4919,0.42633333333333334,-0.08477777777777806,-0.22799999999999998,66.368,-0.0847,-0.1642,1.072000000000001,100.0,1.0,1.0,204.82999999999998,0.0,0.0,0.0,0.0,0.0,0.0,0.0,8682.0,0.0,55.0,5.0,238.89333333333332,1.0,0.0,0.0,0.0,0.0,0.0,0.0,0.0,0.254999999999999,0.254999999999999,0.0,0.0,1.0,55.0,616.79921,10000.0,85.000001,85.000001,85.000001,85.000001,395.0,0.0,0.0,0.0,1.0,166.665,55.771,55.771,48.859,48.859,34.0,-27.25,17.490000000000002,-33.526666666666664,22.3375,0.0,1781.874,0.26000000000000156,100.0,26.016,25.026,42.703,41.344,0.0,0.0,100.0,0.0,0.0,0.0,0.0,3019.4285714285716,2568.9,4186.875,4027.9,305.7495,306.5593333333333,314.691,314.8285,21.7893,20.5146,21.8012,21.349,314.999998,314.999998,324.999988,324.999988,99.55764285714285,99.50691666666667,99.56457142857143,99.54542857142857,-0.028000000000000025,-0.13749999999999996,-0.211,0.0006666666666666666,-0.061666666666667425,-0.045000000000001705,1.5256666666666667,1.5785,37.183,29.2165,37.257999999999996,34.431,55.67,34.259,58.8075,51.692,53.605000000000004,33.445,57.4315,50.0575,52.768,33.0135,57.376999999999995,49.489,-0.03600000000000003,-0.09200000000000008,0.10314000000000001,0.10264000000000001,0.0,207.94,207.845,204.82999999999998,204.82999999999998,0.0,0.0
6,0.0,0.0,0.0,1.0,1.0,0.0,0.0,1.0,0.0,100.0,1.0,1.1856,26.0,0.0,0.0,0.0,59.999996,0.0,26.0,26.0,26.0,26.0,-0.10755555555555552,0.2945,-0.0082,294.479,-2.6686,-2.766222222222222,-1.556,-1.5833,-255.93,216.2125,190.871875,0.0,0.0,0.0,0.0,0.013066666666666666,-5.498166666666667,-5.498166666666667,-0.4853,0.085,-0.06388888888888866,-0.476,66.51,-0.08030000000000001,-0.16195,0.8040000000000003,100.0,1.0,1.0,205.25333333333333,0.0,0.0,0.0,0.0,0.0,0.0,0.0,8700.0,0.0,55.0,5.0,239.40333333333334,0.0,0.0,0.0,0.0,0.0,0.0,0.0,0.0,0.3030000000000008,0.3030000000000008,0.0,0.0,0.0,55.0,616.79921,10000.0,85.000001,85.000001,85.000001,85.000001,395.0,0.0,0.0,0.0,1.0,166.665,55.481,55.481,48.599000000000004,48.599000000000004,34.0,-26.682499999999997,19.28333333333333,-33.67666666666666,23.075000000000003,0.0,1781.826,0.08000000000000185,100.0,25.849,25.05,42.778,41.679,0.0,0.0,100.0,0.0,0.0,0.0,0.0,3046.0,2722.8,4139.75,4006.8,305.665,306.01733333333334,314.78975,314.866,21.7983,20.5192,21.8111,21.3574,314.999998,314.999998,324.999988,324.999988,99.55765714285714,99.50693333333334,99.5647,99.54555714285715,-0.012666666666666604,-0.11849999999999994,-0.21,0.017833333333333333,-0.04999999999999716,-0.05666666666667197,1.5256666666666667,1.5605,37.239000000000004,29.244999999999997,37.319,34.484,55.653999999999996,34.294,58.8465,51.751,53.59,33.4775,57.4685,50.1135,52.751999999999995,33.045,57.411,49.544,-0.05449999999999999,-0.0714999999999999,0.11154000000000001,0.10398500000000001,0.0,208.35000000000002,208.26999999999998,205.25333333333333,205.25333333333333,0.0,0.0
7,0.0,0.0,0.0,1.0,1.0,0.0,0.0,1.0,0.0,100.0,1.0,1.1856,26.0,0.0,0.0,0.0,59.999996,0.0,26.0,26.0,26.0,26.0,-0.09111111111111103,0.2854000000000001,0.04533333333333334,294.22,-2.6366,-2.759888888888889,-1.51455,-1.5713,-252.54,216.1875,190.851375,0.0,0.0,0.0,0.0,0.015033333333333334,-5.498166666666667,-5.498166666666667,-0.4884,-0.02033333333333333,-0.051000000000000156,1.099,66.66,-0.0664,-0.16995000000000002,0.41000000000000014,100.0,1.0,1.0,205.66666666666669,0.0,0.0,0.0,0.0,0.0,0.0,0.0,8717.5,0.0,55.0,5.0,239.94333333333333,1.0,0.0,0.0,0.0,0.0,0.0,0.0,0.0,0.3539999999999992,0.3539999999999992,0.0,0.0,1.0,55.0,616.79921,10000.0,85.000001,85.000001,85.000001,85.000001,395.0,0.0,0.0,0.0,1.0,333.33500000000004,55.222,55.222,48.691,48.691,34.0,-25.0975,21.673333333333332,-30.803333333333335,25.21,0.0,1781.774,-0.16499999999999915,100.0,26.071,24.924,42.921,41.831,0.0,0.0,100.0,0.0,0.0,0.0,0.0,3032.4285714285716,2880.4,4062.0,4142.3,305.4575,305.71733333333333,314.8585,314.5985,21.8078,20.524,21.8215,21.3664,314.999998,314.999998,324.999988,324.999988,99.55765714285714,99.50693333333334,99.56484285714286,99.54571428571428,0.02499999999999991,-0.08374999999999999,-0.17316666666666666,0.043666666666666666,-0.03166666666666629,-0.046666666666666856,1.5143333333333333,1.5434999999999999,37.299,29.275,37.385,34.54,55.637,34.331,58.888,51.813,53.574,33.5115,57.5075,50.173,52.735,33.0775,57.447,49.602333333333334,-0.07600000000000007,-0.04899999999999993,0.102275,0.10543000000000001,0.0,208.79000000000002,208.75,205.66666666666669,205.66666666666669,0.0,0.0
8,0.0,0.0,0.0,1.0,1.0,0.0,0.0,1.0,0.0,100.0,1.0,1.1856,26.0,0.0,0.0,0.0,59.999996,0.0,26.0,26.0,26.0,26.0,-0.041999999999999926,0.3063,-0.020433333333333335,294.495,-2.7235,-2.7424444444444447,-1.4999500000000001,-1.5545,-249.14,216.1625,190.830875,0.0,0.0,0.0,0.0,0.017033333333333334,-5.498166666666667,-5.498166666666667,-0.4883,-0.4336666666666667,-0.03500000000000014,-0.44500000000000006,66.81,-0.0497,-0.160775,0.0039999999999995595,100.0,1.0,1.0,206.07,0.0,0.0,0.0,0.0,0.0,0.0,0.0,8734.6,0.0,55.0,5.0,240.48333333333335,0.0,0.0,0.0,0.0,0.0,0.0,0.0,0.0,0.40500000000000114,0.40500000000000114,0.0,0.0,0.0,55.0,616.79921,10000.0,85.000001,85.000001,85.000001,85.000001,395.0,0.0,0.0,0.0,1.0,333.33500000000004,56.137,56.137,47.943,47.943,34.0,-22.6775,20.701666666666668,-31.346666666666664,26.1325,0.0,1781.723,-0.35999999999999943,100.0,25.512,25.032,42.788,42.038,0.0,0.0,100.0,0.0,0.0,0.0,0.0,2793.285714285714,2717.4,4228.875,4143.3,306.426,306.05966666666666,314.5,314.48375,21.8171,20.5289,21.832,21.3753,314.999998,314.999998,324.999988,324.999988,99.55765714285714,99.50695,99.56498571428571,99.54584285714286,0.03866666666666685,-0.07274999999999998,-0.15916666666666665,0.06116666666666667,-0.04333333333332945,-0.041666666666671404,1.516,1.5215,37.357,29.305500000000002,37.45,34.596000000000004,55.617999999999995,34.3665,58.9295,51.8745,53.556,33.544,57.546,50.232,52.717,33.1085,57.4825,49.66,-0.09499999999999997,-0.034499999999999975,0.10814000000000001,0.11020500000000001,0.0,209.235,209.22,206.07,206.07,0.0,0.0
9,0.0,0.0,0.0,1.0,1.0,0.0,0.0,1.0,0.0,100.0,1.0,1.1856,26.0,0.0,0.0,0.0,59.999996,0.0,26.0,26.0,26.0,26.0,-0.014333333333333309,0.3097000000000001,-0.021233333333333337,294.22,-2.7148,-2.747777777777778,-1.5559500000000002,-1.5575999999999999,-245.93,216.1375,190.811,0.0,0.0,0.0,0.0,0.0189,-5.498166666666667,-5.498166666666667,-0.49620000000000003,0.5926666666666667,-0.035666666666666735,-0.4750000000000001,66.947,-0.0302,-0.16337500000000002,-0.09999999999999964,100.0,1.0,1.0,206.63333333333333,0.0,0.0,0.0,0.0,0.0,0.0,0.0,8758.5,0.0,55.0,5.0,240.97666666666666,1.0,0.0,0.0,0.0,0.0,0.0,0.0,0.0,0.4529999999999994,0.4529999999999994,0.0,0.0,1.0,55.0,616.79921,10000.0,85.000001,85.000001,85.000001,85.000001,395.0,0.0,0.0,0.0,1.0,333.33500000000004,54.886,54.886,49.010999999999996,49.010999999999996,34.0,-25.759999999999998,22.549999999999997,-28.736666666666665,26.337500000000002,0.0,1781.676,-0.495000000000001,100.0,25.897,25.432,42.512,42.068,0.0,0.0,100.0,0.0,0.0,0.0,0.0,3193.142857142857,2834.8,4000.125,4027.9,305.226,305.63866666666667,315.1445,314.839,21.8261,20.5336,21.8417,21.3837,314.999998,314.999998,324.999988,324.999988,99.55767142857142,99.50695,99.56511428571429,99.54598571428572,0.05466666666666686,-0.05399999999999994,-0.14066666666666666,0.08750000000000001,-0.045000000000001705,-0.060000000000002274,1.5766666666666667,1.5735000000000001,37.413,29.3355,37.51,34.647999999999996,55.604,34.400999999999996,58.965,51.931,53.542,33.576,57.579,50.286,52.702,33.138999999999996,57.513,49.713,-0.09899999999999998,-0.02400000000000002,0.10880500000000001,0.11069500000000002,0.0,209.67000000000002,209.67000000000002,206.63333333333333,206.63333333333333,0.0,0.0
10,0.0,0.0,0.0,1.0,1.0,0.0,0.0,1.0,0.0,100.0,1.0,1.1856,26.0,0.0,0.0,0.0,59.999996,0.0,26.0,26.0,26.0,26.0,0.01766666666666672,0.29510000000000014,-0.0167,294.022,-2.6902,-2.7335555555555557,-1.5369000000000002,-1.5384,-242.31,216.10750000000002,190.788875,0.0,0.0,0.0,0.0,0.021,-5.498166666666667,-5.498166666666667,-0.4713,-0.5043333333333333,0.006000000000000005,0.398,67.107,-0.008,-0.15232500000000002,-0.476,100.0,1.0,1.0,206.90333333333334,0.0,0.0,0.0,0.0,0.0,0.0,0.0,8769.9,0.0,55.0,5.0,241.55333333333334,0.0,0.0,0.0,0.0,0.0,0.0,1.0,0.0,0.5069999999999979,0.5069999999999979,0.0,0.0,0.0,55.0,616.79921,10000.0,85.000001,85.000001,85.000001,85.000001,395.0,0.0,0.0,0.0,1.0,166.665,55.969,55.969,47.424,47.424,34.0,-20.27,21.80833333333333,-30.756666666666664,29.552500000000002,0.0,1781.624,-0.6099999999999994,100.0,25.781,25.42,42.968,42.877,0.0,0.0,100.0,0.0,0.0,0.0,0.0,2691.285714285714,2690.1,4317.125,4271.6,306.6835,306.1326666666667,314.2995,314.16225,21.836,20.538899999999998,21.8528,21.3934,314.999998,314.999998,324.999988,324.999988,99.55767142857142,99.50695,99.56527142857144,99.54612857142857,0.07366666666666677,-0.03300000000000003,-0.12083333333333333,0.10616666666666667,-0.041666666666671404,-0.03333333333333144,1.4796666666666667,1.4735,37.474999999999994,29.368000000000002,37.58,34.7085,55.588,34.437,59.0105,51.9995,53.527,33.6095,57.621,50.352000000000004,52.686,33.171,57.552,49.77766666666667,-0.11050000000000004,-0.012500000000000178,0.10897000000000001,0.10644500000000001,0.0,210.13,210.155,206.90333333333334,206.90333333333334,0.0,0.0
11,0.0,0.0,0.0,1.0,1.0,0.0,0.0,1.0,0.0,100.0,1.0,1.1856,26.0,0.0,0.0,0.0,59.999996,0.0,26.0,26.0,26.0,26.0,0.054333333333333345,0.2876000000000001,-0.10223333333333334,294.556,-2.7365,-2.7105555555555556,-1.5943,-1.5249000000000001,-239.07999999999998,216.08249999999998,190.769375,0.0,0.0,0.0,0.0,0.022600000000000002,-5.498166666666667,-5.498166666666667,-0.5132,-0.26866666666666666,0.03222222222222215,-0.623,67.241,0.0106,-0.18285,-0.5860000000000003,100.0,1.0,1.0,207.62,0.0,0.0,0.0,0.0,0.0,0.0,0.0,8800.3,0.0,55.0,5.0,242.03666666666666,1.0,0.0,0.0,0.0,0.0,0.0,1.0,0.0,0.5549999999999997,0.5549999999999997,0.0,0.0,1.0,55.0,616.79921,10000.0,85.000001,85.000001,85.000001,85.000001,395.0,0.0,0.0,0.0,1.0,333.33500000000004,55.328,55.328,49.103,49.103,34.0,-21.5625,24.17,-24.473333333333336,26.72,0.0,1781.573,-0.7300000000000004,100.0,25.534,25.659,42.493,42.78,0.0,0.0,100.0,0.0,0.0,0.0,0.0,2898.5714285714284,2912.9,3714.5,3880.9,306.1255,305.40766666666667,315.8425,315.1865,21.8446,20.5437,21.8625,21.4018,314.999998,314.999998,324.999988,324.999988,99.5577,99.50696666666667,99.5654,99.54627142857143,0.09566666666666679,-0.022499999999999964,-0.09433333333333332,0.131,-0.03499999999999659,-0.046666666666666856,1.6283333333333334,1.6075,37.528999999999996,29.398,37.641,34.7615,55.572,34.4705,59.044,52.057,53.512,33.64,57.6525,50.407,52.671,33.2005,57.5805,49.83133333333333,-0.11349999999999993,-0.014000000000000234,0.10980000000000001,0.10586000000000001,0.0,210.53,210.56,207.62,207.62,0.0,0.0
12,0.0,0.0,0.0,1.0,1.0,0.0,0.0,1.0,0.0,100.0,1.0,1.1856,26.0,0.0,0.0,0.0,59.999996,0.0,26.0,26.0,26.0,26.0,0.04655555555555568,0.29300000000000015,0.02903333333333333,294.006,-2.7895,-2.7056666666666667,-1.5537,-1.5261,-235.85,216.0575,190.748625,0.0,0.0,0.0,0.0,0.025466666666666665,-5.498166666666667,-5.498166666666667,-0.4985,0.3066666666666667,0.017444444444444374,-0.875,67.381,0.0267,-0.150625,-0.6720000000000006,100.0,1.0,1.0,207.83333333333331,0.0,0.0,0.0,0.0,0.0,0.0,0.0,8809.3,0.0,55.0,5.0,242.54333333333335,0.0,0.0,0.0,0.0,0.0,0.0,1.0,0.0,0.602999999999998,0.602999999999998,0.0,0.0,0.0,55.0,616.79921,10000.0,85.000001,85.000001,85.000001,85.000001,395.0,0.0,0.0,0.0,1.0,333.33500000000004,55.313,55.313,47.775,47.775,34.0,-22.2525,24.67,-27.79,30.0725,0.0,1781.525,-0.6900000000000013,100.0,25.391,25.801000000000002,42.332,42.705,0.0,0.0,100.0,0.0,0.0,0.0,0.0,2938.0,2918.2,4252.75,4180.8,306.055,305.413,314.541,314.44925,21.8533,20.5485,21.8723,21.4103,314.999998,314.999998,324.999988,324.999988,99.5577,99.50696666666667,99.56554285714286,99.5464,0.09699999999999998,-0.009000000000000008,-0.07733333333333332,0.13783333333333334,-0.061666666666667425,-0.054999999999999716,1.5293333333333332,1.5035,37.583,29.427999999999997,37.702,34.814,55.558,34.504,59.081,52.1145,53.498000000000005,33.671,57.687,50.4625,52.656,33.230000000000004,57.6125,49.885999999999996,-0.10799999999999987,-0.020000000000000018,0.10463000000000001,0.102275,0.0,211.005,211.04500000000002,207.83333333333331,207.83333333333331,0.0,0.0
13,0.0,0.0,0.0,1.0,1.0,0.0,0.0,1.0,0.0,100.0,1.0,1.1856,26.0,0.0,0.0,0.0,59.999996,0.0,26.0,26.0,26.0,26.0,0.0705555555555557,0.2964,0.03736666666666667,293.625,-2.7672,-2.6995555555555555,-1.5926,-1.5432000000000001,-232.21,216.03,190.7255,0.0,0.0,0.0,0.0,0.02686666666666667,-5.498166666666667,-5.498166666666667,-0.49100000000000005,-0.10266666666666667,0.020777777777777784,-0.524,67.536,0.0362,-0.15937500000000002,-0.7199999999999998,100.0,1.0,1.0,208.25333333333333,0.0,0.0,0.0,0.0,0.0,0.0,0.0,8827.1,0.0,55.0,5.0,243.10000000000002,1.0,0.0,0.0,0.0,0.0,0.0,1.0,0.0,0.657,0.657,0.0,0.0,1.0,55.0,616.79921,10000.0,85.000001,85.000001,85.000001,85.000001,395.0,0.0,0.0,0.0,1.0,166.665,55.008,55.008,47.745,47.745,34.0,-21.2275,25.368333333333332,-27.88,32.11,0.0,1781.473,-0.875,100.0,25.722,26.025,42.619,43.233000000000004,0.0,0.0,100.0,0.0,0.0,0.0,0.0,2970.5714285714284,2898.0,4215.125,4302.1,305.924,305.4653333333333,314.59375,314.12025,21.8632,20.554,21.8834,21.42,314.999998,314.999998,324.999988,324.999988,99.55771428571428,99.50696666666667,99.5657,99.54655714285714,0.12566666666666682,0.01574999999999993,-0.07150000000000001,0.14816666666666667,-0.03999999999999915,-0.05833333333333002,1.5063333333333333,1.4775,37.644999999999996,29.4625,37.771,34.875,55.544,34.542500000000004,59.1235,52.1835,53.485,33.7065,57.7265,50.5285,52.641999999999996,33.263999999999996,57.6485,49.95066666666666,-0.133,0.0044999999999999485,0.105675,0.10563000000000002,0.0,211.45499999999998,211.51,208.25333333333333,208.25333333333333,0.0,0.0
14,0.0,0.0,0.0,1.0,1.0,0.0,0.0,1.0,0.0,100.0,1.0,1.1856,26.0,0.0,0.0,0.0,59.999996,0.0,26.0,26.0,26.0,26.0,0.09744444444444444,0.28869999999999996,-0.0083,293.854,-2.7651,-2.646777777777778,-1.5981,-1.5161,-228.96,216.0075,190.7055,0.0,0.0,0.0,0.0,0.02876666666666667,-5.498166666666667,-5.498166666666667,-0.5005000000000001,-0.179,0.04800000000000004,-0.03299999999999992,67.672,0.046400000000000004,-0.171325,-0.9379999999999997,100.0,1.0,1.0,208.76,0.0,0.0,0.0,0.0,0.0,0.0,0.0,8848.6,0.0,55.0,5.0,243.58666666666664,0.0,0.0,0.0,0.0,0.0,0.0,1.0,0.0,0.7049999999999983,0.7049999999999983,0.0,0.0,0.0,55.0,616.79921,10000.0,85.000001,85.000001,85.000001,85.000001,395.0,0.0,0.0,0.0,1.0,166.665,55.13,55.13,47.943,47.943,34.0,-19.544999999999998,26.081666666666667,-25.853333333333335,31.475,0.0,1781.425,-1.0399999999999991,100.0,25.599,26.049,42.558,43.369,0.0,0.0,100.0,0.0,0.0,0.0,0.0,2859.0,2968.5,4039.25,4179.2,306.252,305.2733333333333,315.01125,314.44625,21.8718,20.5589,21.8931,21.4286,314.999998,314.999998,324.999988,324.999988,99.55772857142857,99.50696666666667,99.56582857142857,99.54668571428572,0.14466666666666672,0.02774999999999994,-0.060333333333333336,0.16783333333333333,-0.04833333333333201,-0.051666666666669414,1.545,1.5065,37.699,29.493000000000002,37.832,34.9285,55.533,34.576499999999996,59.1595,52.243,53.474000000000004,33.738,57.76,50.586,52.629999999999995,33.294,57.679,50.00666666666667,-0.1479999999999999,0.016000000000000014,0.102815,0.11385,0.0,211.87,211.925,208.76,208.76,0.0,0.0
15,0.0,0.0,0.0,1.0,1.0,0.0,0.0,1.0,0.0,100.0,1.0,1.1856,26.0,0.0,0.0,0.0,59.999996,0.0,26.0,26.0,26.0,26.0,0.11488888888888904,0.2854000000000001,-0.04566666666666667,293.869,-2.7416,-2.5994444444444444,-1.63245,-1.4563000000000001,-225.71,215.99,190.685125,0.0,0.0,0.0,0.0,0.030633333333333332,-5.498166666666667,-5.498166666666667,-0.4919,0.30233333333333334,0.0802222222222222,-0.2230000000000001,67.80799999999999,0.061500000000000006,-0.15457500000000002,-1.1739999999999995,100.0,1.0,1.0,209.15666666666667,0.0,0.0,0.0,0.0,0.0,0.0,0.0,8865.3,0.0,55.0,5.0,244.07666666666665,1.0,0.0,0.0,0.0,0.0,0.0,1.0,0.0,0.7530000000000001,0.7530000000000001,0.0,0.0,1.0,55.0,616.79921,10000.0,85.000001,85.000001,85.000001,85.000001,395.0,0.0,0.0,0.0,1.0,333.33500000000004,55.298,55.298,48.004,48.004,34.0,-17.56,25.996666666666666,-24.86,32.56,0.0,1781.376,-1.0500000000000007,100.0,25.638,26.146,42.34,43.479,0.0,0.0,100.0,0.0,0.0,0.0,0.0,2702.4285714285716,2950.9,4008.75,4343.9,306.6565,305.31033333333335,315.1255,314.07175,21.8805,20.5638,21.9028,21.4372,314.999998,314.999998,324.999988,324.999988,99.55775714285714,99.50698333333334,99.56595714285714,99.54682857142858,0.16100000000000003,0.03974999999999995,-0.0365,0.17583333333333334,-0.04999999999999716,-0.051666666666669414,1.5366666666666666,1.498,37.753,29.5235,37.893,34.9825,55.521,34.6115,59.194,52.3025,53.463,33.7705,57.792,50.6435,52.617999999999995,33.3255,57.708,50.06333333333333,-0.15449999999999986,0.018000000000000016,0.09787000000000001,0.106925,0.0,212.29500000000002,212.38,209.15666666666667,209.15666666666667,0.0,0.0
16,0.0,0.0,0.0,1.0,1.0,0.0,0.0,1.0,0.0,100.0,1.0,1.1856,26.0,0.0,0.0,0.0,59.999996,0.0,26.0,26.0,26.0,26.0,0.12788888888888894,0.2781,-0.0572,293.9,-2.8324,-2.610888888888889,-1.6002,-1.5185,-222.05,215.97,190.66175,0.0,0.0,0.0,0.0,0.03276666666666667,-5.498166666666667,-5.498166666666667,-0.5137,-0.6636666666666666,0.06477777777777782,-1.125,67.96000000000001,0.0792,-0.16942500000000002,-1.2560000000000002,100.0,1.0,1.0,209.63,0.0,0.0,0.0,0.0,0.0,0.0,0.0,8885.5,0.0,55.0,5.0,244.62666666666667,0.0,0.0,0.0,0.0,0.0,0.0,1.0,0.0,0.8069999999999986,0.8069999999999986,0.0,0.0,0.0,55.0,616.79921,10000.0,85.000001,85.000001,85.000001,85.000001,395.0,0.0,0.0,0.0,1.0,166.665,55.161,55.161,47.806,47.806,34.0,-19.2925,27.298333333333332,-23.273333333333333,32.355000000000004,0.0,1781.324,-0.9100000000000001,100.0,25.26,26.209,42.583,43.597,0.0,0.0,100.0,0.0,0.0,0.0,0.0,2879.714285714286,3041.5,3965.875,4113.0,306.3255,305.0876666666667,315.19325,314.5825,21.8899,20.5694,21.9138,21.4468,314.999998,314.999998,324.999988,324.999988,99.55777142857143,99.50698333333334,99.56611428571429,99.54698571428571,0.16566666666666685,0.04875000000000007,-0.02033333333333333,0.19616666666666666,-0.04833333333333201,-0.041666666666671404,1.5563333333333333,1.5115,37.812,29.558500000000002,37.961,35.043,55.504999999999995,34.6515,59.2355,52.3695,53.447,33.8075,57.8305,50.708,52.602000000000004,33.361000000000004,57.7435,50.126666666666665,-0.14050000000000007,0.009500000000000064,0.10917,0.10526500000000001,0.0,212.72,212.825,209.63,209.63,0.0,0.0
17,0.0,0.0,0.0,1.0,1.0,0.0,0.0,1.0,0.0,100.0,1.0,1.1856,26.0,0.0,0.0,0.0,59.999996,0.0,26.0,26.0,26.0,26.0,0.13222222222222224,0.30510000000000015,0.0036000000000000003,293.61,-2.7923999999999998,-2.593222222222222,-1.64175,-1.4779,-218.78,215.95499999999998,190.640375,0.0,0.0,0.0,0.0,0.03466666666666667,-5.498166666666667,-5.498166666666667,-0.5011,0.515,0.04499999999999993,-0.7110000000000001,68.094,0.085,-0.147825,-1.1139999999999999,100.0,1.0,1.0,209.99666666666667,0.0,0.0,0.0,0.0,0.0,0.0,0.0,8901.0,0.0,55.0,5.0,245.11,1.0,0.0,0.0,0.0,0.0,0.0,1.0,0.0,0.8550000000000004,0.8550000000000004,0.0,0.0,1.0,55.0,616.79921,10000.0,85.000001,85.000001,85.000001,85.000001,395.0,0.0,0.0,0.0,1.0,166.665,55.022999999999996,55.022999999999996,47.653,47.653,34.0,-19.107499999999998,25.821666666666665,-25.963333333333335,33.5275,0.0,1781.274,-0.9849999999999994,100.0,25.708,26.421,42.366,43.547,0.0,0.0,100.0,0.0,0.0,0.0,0.0,2903.285714285714,2891.8,4273.875,4289.3,306.1795,305.5373333333333,314.58825,314.25275,21.8985,20.5744,21.9235,21.4554,314.999998,314.999998,324.999988,324.999988,99.55778571428571,99.50698333333334,99.56625714285714,99.54712857142857,0.16833333333333322,0.05425000000000013,-0.0205,0.1995,-0.054999999999999716,-0.054999999999999716,1.5486666666666666,1.505,37.866,29.59,38.022,35.096000000000004,55.495000000000005,34.689,59.2705,52.429,53.438,33.842,57.8625,50.765,52.591,33.394,57.7725,50.18266666666666,-0.14349999999999996,0.011500000000000066,0.1121,0.11001500000000002,0.0,213.2,213.26999999999998,209.99666666666667,209.99666666666667,0.0,0.0
18,0.0,0.0,0.0,1.0,1.0,0.0,0.0,1.0,0.0,100.0,1.0,1.1856,26.0,0.0,0.0,0.0,59.999996,0.0,26.0,26.0,26.0,26.0,0.1451111111111112,0.2815000000000001,-0.04443333333333333,293.549,-2.829,-2.5645555555555557,-1.6588,-1.4229,-215.51,215.945,190.61925,0.0,0.0,0.0,0.0,0.03656666666666667,-5.498166666666667,-5.498166666666667,-0.5103,-0.5443333333333333,0.07222222222222219,-0.06699999999999995,68.229,0.084,-0.16392500000000002,-1.1920000000000002,100.0,1.0,1.0,210.42666666666668,0.0,0.0,0.0,0.0,0.0,0.0,0.0,8919.2,0.0,55.0,5.0,245.59333333333336,0.0,0.0,0.0,0.0,0.0,0.0,1.0,0.0,0.9029999999999987,0.9029999999999987,0.0,0.0,0.0,55.0,616.79921,10000.0,85.000001,85.000001,85.000001,85.000001,395.0,0.0,0.0,0.0,1.0,333.33500000000004,54.932,54.932,47.501,47.501,34.0,-18.634999999999998,27.996666666666666,-24.953333333333333,32.03,0.0,1781.225,-1.2899999999999991,100.0,25.48,26.313,42.728,44.018,0.0,0.0,100.0,0.0,0.0,0.0,0.0,2884.857142857143,3085.4,4060.75,4206.4,306.279,304.99533333333335,315.0235,314.4285,21.907,20.5794,21.9333,21.4641,314.999998,314.999998,324.999988,324.999988,99.55781428571429,99.507,99.56638571428572,99.54725714285715,0.18333333333333335,0.06574999999999998,-0.02416666666666667,0.19966666666666666,-0.03999999999999915,-0.046666666666666856,1.542,1.5085000000000002,37.919,29.621000000000002,38.083,35.1505,55.483999999999995,34.725,59.3075,52.4905,53.427,33.8755,57.897,50.8245,52.579,33.4265,57.804,50.241,-0.16399999999999992,0.028000000000000025,0.10855500000000001,0.102915,0.0,213.56,213.64,210.42666666666668,210.42666666666668,0.0,0.0
19,0.0,0.0,0.0,1.0,1.0,0.0,0.0,1.0,0.0,100.0,1.0,1.1856,26.0,0.0,0.0,0.0,59.999996,0.0,26.0,26.0,26.0,26.0,0.13866666666666672,0.2983,0.051133333333333336,292.953,-2.752,-2.6594444444444445,-1.6766,-1.4066,-211.82,215.935,190.59525,0.0,0.0,0.0,0.0,0.038733333333333335,-5.498166666666667,-5.498166666666667,-0.498,0.8300000000000001,0.0822222222222222,-0.8180000000000001,68.379,0.09480000000000001,-0.15107500000000001,-1.4220000000000006,100.0,1.0,1.0,210.82666666666665,0.0,0.0,0.0,0.0,0.0,0.0,0.0,8936.2,0.0,55.0,5.0,246.13333333333333,1.0,0.0,0.0,0.0,0.0,0.0,1.0,0.0,0.9570000000000007,0.9570000000000007,0.0,0.0,1.0,55.0,616.79921,10000.0,85.000001,85.000001,85.000001,85.000001,395.0,0.0,0.0,0.0,1.0,166.665,54.291,54.291,47.104,47.104,34.0,-18.7775,28.1,-25.663333333333334,35.2575,0.0,1781.173,-0.8000000000000007,100.0,25.972,26.9,42.492000000000004,44.093,0.0,0.0,100.0,0.0,0.0,0.0,0.0,2885.5714285714284,3049.0,4267.875,4486.8,306.1025,304.819,314.58725,313.7785,21.9167,20.5852,21.9442,21.4738,314.999998,314.999998,324.999988,324.999988,99.55782857142857,99.50701666666667,99.56654285714286,99.54742857142857,0.16833333333333322,0.04800000000000004,-0.005333333333333333,0.21333333333333335,-0.04333333333332945,-0.04833333333333201,1.539,1.4785,37.979,29.6575,38.150999999999996,35.2115,55.474000000000004,34.769999999999996,59.346000000000004,52.5585,53.418,33.917,57.9325,50.89,52.569,33.466,57.8365,50.30566666666667,-0.13650000000000007,0.0004999999999999449,0.10920500000000001,0.09981000000000001,0.0,214.06,214.16500000000002,210.82666666666665,210.82666666666665,0.0,0.0
20,0.0,0.0,0.0,1.0,1.0,0.0,0.0,1.0,0.0,100.0,1.0,1.1856,26.0,0.0,0.0,0.0,59.999996,0.0,26.0,26.0,26.0,26.0,0.10844444444444434,0.28459999999999996,-0.02796666666666667,293.381,-2.8439,-2.620111111111111,-1.58945,-1.5383,-208.53,215.9325,190.57425,0.0,0.0,0.0,0.0,0.040633333333333334,-5.498166666666667,-5.498166666666667,-0.5038,-1.0863333333333334,0.06911111111111112,-1.31,68.513,0.0975,-0.163025,-0.694,100.0,1.0,1.0,211.17333333333335,0.0,0.0,0.0,0.0,0.0,0.0,0.0,8950.8,0.0,55.0,5.0,246.62,0.0,0.0,0.0,0.0,0.0,0.0,0.0,0.0,1.004999999999999,1.004999999999999,0.0,0.0,0.0,55.0,616.79921,10000.0,85.000001,85.000001,85.000001,85.000001,395.0,0.0,0.0,0.0,1.0,166.665,55.405,55.405,46.661,46.661,34.0,-20.1125,24.345,-24.996666666666663,35.14,0.0,1781.125,0.23499999999999943,100.0,25.423000000000002,26.456,43.098,44.464,0.0,0.0,100.0,0.0,0.0,0.0,0.0,2707.285714285714,2919.5,4219.625,4269.5,306.796,305.422,314.56775,314.09525,21.925,20.5901,21.9541,21.482599999999998,314.999998,314.999998,324.999988,324.999988,99.55784285714286,99.50701666666667,99.56667142857142,99.54757142857143,0.11099999999999999,-0.00024999999999997247,-0.015833333333333335,0.20750000000000002,-0.030000000000001137,-0.04333333333332945,1.4846666666666666,1.4645000000000001,38.031,29.688499999999998,38.213,35.2665,55.458,34.804,59.3845,52.6205,53.402,33.948499999999996,57.969,50.95,52.553,33.4965,57.8695,50.364333333333335,-0.05249999999999999,-0.07200000000000006,0.10951000000000001,0.10586500000000001,0.0,214.435,214.51,211.17333333333335,211.17333333333335,0.0,0.0
21,0.0,0.0,0.0,1.0,1.0,0.0,0.0,1.0,0.0,100.0,1.0,1.1856,26.0,0.0,0.0,0.0,59.999996,0.0,26.0,26.0,26.0,26.0,0.06988888888888889,0.27760000000000007,-0.06496666666666667,293.716,-2.7356,-2.6974444444444443,-1.63535,-1.5164,-205.24,215.93,190.5525,0.0,0.0,0.0,0.0,0.04253333333333333,-5.498166666666667,-5.498166666666667,-0.5271,0.495,0.03200000000000003,-1.322,68.642,0.06860000000000001,-0.164025,0.17999999999999972,100.0,1.0,1.0,211.82,0.0,0.0,0.0,0.0,0.0,0.0,0.0,8978.3,0.0,55.0,5.0,247.07999999999998,1.0,0.0,0.0,0.0,0.0,0.0,0.0,0.0,1.0530000000000008,1.0530000000000008,0.0,0.0,1.0,55.0,616.79921,10000.0,85.000001,85.000001,85.000001,85.000001,395.0,0.0,0.0,0.0,1.0,166.665,54.886,54.886,48.05,48.05,34.0,-22.055,23.515,-26.043333333333333,29.6575,0.0,1781.078,0.4800000000000004,100.0,25.83,26.43,42.634,43.791,0.0,0.0,100.0,0.0,0.0,0.0,0.0,2914.142857142857,2895.7,4036.875,4002.5,306.071,305.43,315.149,314.96625,21.9335,20.5952,21.9637,21.4911,314.999998,314.999998,324.999988,324.999988,99.55785714285715,99.50701666666667,99.56681428571429,99.5477,0.08833333333333337,-0.03474999999999995,-0.059000000000000004,0.17183333333333334,-0.05333333333332746,-0.04333333333332945,1.5703333333333334,1.588,38.085,29.72,38.272999999999996,35.319,55.445,34.839,59.4165,52.6765,53.388999999999996,33.981,57.9985,51.0035,52.539,33.5275,57.896,50.417,-0.03400000000000003,-0.1070000000000002,0.10742000000000002,0.11115000000000001,0.0,214.925,214.89,211.82,211.82,0.0,0.0
22,0.0,0.0,0.0,1.0,1.0,0.0,0.0,1.0,0.0,100.0,1.0,1.1856,26.0,0.0,0.0,0.0,59.999996,0.0,26.0,26.0,26.0,26.0,-0.0006666666666665932,0.28900000000000015,-0.0037666666666666664,293.152,-2.6905,-2.728222222222222,-1.6106500000000001,-1.5276,-201.74,215.93,190.528625,0.0,0.0,0.0,0.0,0.04456666666666667,-5.498166666666667,-5.498166666666667,-0.5056,0.08366666666666667,0.018444444444444263,0.6759999999999999,68.78399999999999,0.0246,-0.144675,0.7120000000000015,100.0,1.0,1.0,212.0366666666667,0.0,0.0,0.0,0.0,0.0,0.0,0.0,8987.4,0.0,55.0,5.0,247.59666666666666,0.0,0.0,0.0,0.0,0.0,0.0,0.0,0.0,1.1039999999999992,1.1039999999999992,0.0,0.0,0.0,55.0,616.79921,10000.0,85.000001,85.000001,85.000001,85.000001,395.0,0.0,0.0,0.0,1.0,166.665,54.932,54.932,46.844,46.844,34.0,-21.435,22.561666666666667,-29.856666666666666,30.6275,0.0,1781.026,0.5650000000000013,100.0,26.243,26.235,43.419,43.822,0.0,0.0,100.0,0.0,0.0,0.0,0.0,2750.142857142857,2932.2,4253.375,4351.9,306.3375,305.469,314.48875,314.16775,21.9426,20.6005,21.9743,21.5003,314.999998,314.999998,324.999988,324.999988,99.55785714285715,99.50703333333334,99.56695714285715,99.54785714285714,0.06366666666666676,-0.06999999999999995,-0.09316666666666668,0.12183333333333334,-0.046666666666666856,-0.07000000000000028,1.4729999999999999,1.4975,38.141999999999996,29.753,38.339,35.3765,55.429,34.876,59.457499999999996,52.7395,53.373999999999995,34.0155,58.037,51.0645,52.522999999999996,33.5605,57.9315,50.47666666666667,-0.025499999999999856,-0.11549999999999994,0.10862000000000001,0.10715500000000001,0.0,215.38,215.31,212.0366666666667,212.0366666666667,0.0,0.0
23,0.0,0.0,0.0,1.0,1.0,0.0,0.0,1.0,0.0,100.0,1.0,1.1856,26.0,0.0,0.0,0.0,59.999996,0.0,26.0,26.0,26.0,26.0,-0.04399999999999993,0.2581,-0.03013333333333333,293.243,-2.6943,-2.704888888888889,-1.63975,-1.6134,-198.01999999999998,215.9275,190.50375,0.0,0.0,0.0,0.0,0.046733333333333335,-5.498166666666667,-5.498166666666667,-0.5252,-0.12933333333333336,-0.00855555555555565,0.268,68.93,-0.018600000000000002,-0.17035,1.032,100.0,1.0,1.0,212.61666666666667,0.0,0.0,0.0,0.0,0.0,0.0,0.0,9012.1,0.0,55.0,5.0,248.12,1.0,0.0,0.0,0.0,0.0,0.0,0.0,0.0,1.1580000000000013,1.1580000000000013,0.0,0.0,1.0,55.0,616.79921,10000.0,85.000001,85.000001,85.000001,85.000001,395.0,0.0,0.0,0.0,1.0,166.665,54.306,54.306,47.897,47.897,34.0,-25.645,21.755,-30.053333333333335,26.2425,0.0,1780.973,0.5800000000000018,100.0,26.652,26.099,43.672,43.786,0.0,0.0,100.0,0.0,0.0,0.0,0.0,3067.0,2951.4,4039.875,3941.3,305.4425,305.50466666666665,315.103,315.0595,21.9524,20.606,21.9854,21.509999999999998,314.999998,314.999998,324.999988,324.999988,99.55787142857143,99.50703333333334,99.56711428571428,99.54801428571429,0.03166666666666673,-0.08699999999999997,-0.13333333333333336,0.08216666666666668,-0.04333333333332945,-0.05333333333332746,1.5306666666666666,1.5630000000000002,38.202,29.7875,38.409,35.4375,55.411,34.9165,59.4995,52.8045,53.357,34.053,58.0755,51.127,52.504999999999995,33.5965,57.967,50.537333333333336,-0.02299999999999991,-0.1120000000000001,0.09607500000000001,0.10879000000000001,0.0,215.815,215.745,212.61666666666667,212.61666666666667,0.0,0.0
24,0.0,0.0,0.0,1.0,1.0,0.0,0.0,1.0,0.0,100.0,1.0,1.1856,26.0,0.0,0.0,0.0,59.999996,0.0,26.0,26.0,26.0,26.0,-0.0812222222222222,0.2732000000000001,-0.08120000000000001,293.503,-2.7069,-2.726777777777778,-1.5524,-1.5647,-194.70999999999998,215.9275,190.481125,0.0,0.0,0.0,0.0,0.04866666666666667,-5.498166666666667,-5.498166666666667,-0.5303,-0.6920000000000001,-0.011777777777777665,0.773,69.062,-0.0441,-0.15765,0.9299999999999997,100.0,1.0,1.0,212.91333333333333,0.0,0.0,0.0,0.0,0.0,0.0,0.0,9024.6,0.0,55.0,5.0,248.59666666666666,0.0,0.0,0.0,0.0,0.0,0.0,0.0,0.0,1.2059999999999995,1.2059999999999995,0.0,0.0,0.0,55.0,616.79921,10000.0,85.000001,85.000001,85.000001,85.000001,395.0,0.0,0.0,0.0,1.0,166.665,55.542,55.542,46.906,46.906,34.0,-23.345,19.564999999999998,-33.26,26.177500000000002,0.0,1780.925,0.5100000000000016,100.0,26.33,25.743,43.919,43.515,0.0,0.0,100.0,0.0,0.0,0.0,0.0,2748.4285714285716,2765.9,4287.625,4136.6,306.4575,306.12266666666665,314.3655,314.655,21.9609,20.6107,21.9952,21.5185,314.999998,314.999998,324.999988,324.999988,99.55787142857143,99.50705,99.56725714285714,99.54814285714286,0.01100000000000012,-0.10675000000000001,-0.16583333333333333,0.060833333333333336,-0.04999999999999716,-0.051666666666669414,1.4803333333333333,1.509,38.256,29.817,38.47,35.491,55.393,34.951,59.5375,52.861000000000004,53.34,34.0845,58.1115,51.181,52.488,33.627,57.9995,50.590333333333334,-0.023499999999999854,-0.10550000000000015,0.113555,0.105425,0.0,216.245,216.15,212.91333333333333,212.91333333333333,0.0,0.0
25,0.0,0.0,0.0,1.0,1.0,0.0,0.0,1.0,0.0,100.0,1.0,1.1856,26.0,0.0,0.0,0.0,59.999996,0.0,26.0,26.0,26.0,26.0,-0.10788888888888892,0.25870000000000015,-0.0685,293.411,-2.7515,-2.7088888888888887,-1.5487000000000002,-1.5836999999999999,-191.39,215.9225,190.457125,0.0,0.0,0.0,0.0,0.0506,-5.498166666666667,-5.498166666666667,-0.5614,0.024333333333333332,-0.02688888888888874,-0.2650000000000001,69.19,-0.0587,-0.16445,0.9540000000000006,100.0,1.0,1.0,213.45333333333332,0.0,0.0,0.0,0.0,0.0,0.0,0.0,9047.6,0.0,55.0,5.0,249.05333333333334,1.0,0.0,0.0,0.0,0.0,0.0,0.0,0.0,1.2540000000000013,1.2540000000000013,0.0,0.0,1.0,55.0,616.79921,10000.0,85.000001,85.000001,85.000001,85.000001,395.0,0.0,0.0,0.0,1.0,166.665,54.459,54.459,47.76,47.76,34.0,-27.71,21.541666666666668,-30.759999999999998,24.8425,0.0,1780.876,0.495000000000001,100.0,26.406,25.853,43.707,43.075,0.0,0.0,100.0,0.0,0.0,0.0,0.0,3113.285714285714,3053.1,4004.75,3990.1000000000004,305.456,305.229,315.1345,315.012,21.9694,20.6156,22.0049,21.527,314.999998,314.999998,324.999988,324.999988,99.55787142857143,99.50705,99.56738571428572,99.54828571428571,0.0006666666666665932,-0.11349999999999993,-0.1775,0.05683333333333334,-0.05666666666667197,-0.03166666666666629,1.5376666666666667,1.5825,38.309,29.8475,38.531,35.544,55.375,34.9885,59.573,52.914500000000004,53.324,34.119,58.1445,51.233000000000004,52.47,33.66,58.0295,50.641,-0.028999999999999915,-0.10599999999999987,0.11183000000000001,0.11242500000000001,0.0,216.65,216.54000000000002,213.45333333333332,213.45333333333332,0.0,0.0
26,0.0,0.0,0.0,1.0,1.0,0.0,0.0,1.0,0.0,100.0,1.0,1.1856,26.0,0.0,0.0,0.0,59.999996,0.0,26.0,26.0,26.0,26.0,-0.11099999999999999,0.28869999999999996,0.06323333333333334,292.267,-2.694,-2.7942222222222224,-1.58735,-1.5866,-187.86,215.91750000000002,190.43125,0.0,0.0,0.0,0.0,0.05266666666666667,-5.498166666666667,-5.498166666666667,-0.5191,0.6653333333333333,-0.05744444444444419,-0.8800000000000001,69.331,-0.0658,-0.134625,0.8719999999999999,100.0,1.0,1.0,213.60333333333335,0.0,0.0,0.0,0.0,0.0,0.0,0.0,9053.9,0.0,55.0,5.0,249.56,0.0,0.0,0.0,0.0,0.0,0.0,0.0,0.0,1.3049999999999997,1.3049999999999997,0.0,0.0,0.0,55.0,616.79921,10000.0,85.000001,85.000001,85.000001,85.000001,395.0,0.0,0.0,0.0,1.0,333.33500000000004,54.108,54.108,45.959,45.959,34.0,-27.502499999999998,19.64,-39.31,27.4575,0.0,1780.823,0.27500000000000213,100.0,27.173000000000002,26.514,44.284,43.441,0.0,0.0,100.0,0.0,0.0,0.0,0.0,3138.0,2748.2,4683.0,4454.1,305.4175,305.8623333333333,313.58775,313.87725,21.9789,20.6209,22.0155,21.5362,314.999998,314.999998,324.999988,324.999988,99.55788571428572,99.50706666666666,99.56754285714285,99.54842857142857,-0.0016666666666665941,-0.12449999999999994,-0.1945,0.029666666666666668,-0.051666666666669414,-0.046666666666666856,1.4133333333333333,1.438,38.367999999999995,29.880499999999998,38.597,35.6015,55.361000000000004,35.0295,59.6165,52.9765,53.31,34.157,58.185,51.292,52.456,33.696,58.067499999999995,50.69866666666667,-0.05149999999999988,-0.09100000000000019,0.11189500000000001,0.10572000000000001,0.0,217.115,217.015,213.60333333333335,213.60333333333335,0.0,0.0
27,0.0,0.0,0.0,1.0,1.0,0.0,0.0,1.0,0.0,100.0,1.0,1.1856,26.0,0.0,0.0,0.0,59.999996,0.0,26.0,26.0,26.0,26.0,-0.08611111111111103,0.25439999999999996,-0.046933333333333334,292.862,-2.6591,-2.7632222222222222,-1.5799500000000002,-1.6586,-184.32,215.9075,190.40675,0.0,0.0,0.0,0.0,0.054700000000000006,-5.498166666666667,-5.498166666666667,-0.5502,-0.998,-0.05211111111111144,0.813,69.46600000000001,-0.0659,-0.1842,0.6460000000000008,100.0,1.0,1.0,214.18,0.0,0.0,0.0,0.0,0.0,0.0,0.0,9078.3,0.0,55.0,5.0,250.05,1.0,0.0,0.0,0.0,0.0,0.0,0.0,0.0,1.355999999999998,1.355999999999998,0.0,0.0,1.0,55.0,616.79921,10000.0,85.000001,85.000001,85.000001,85.000001,395.0,0.0,0.0,0.0,1.0,166.665,54.459,54.459,46.661,46.661,34.0,-24.6925,21.325,-31.833333333333336,26.055,0.0,1780.775,0.16499999999999915,100.0,26.992,26.114,44.969,43.859,0.0,0.0,100.0,0.0,0.0,0.0,0.0,2932.4285714285716,2930.4,4037.5,4026.4,305.8545,305.5953333333333,314.92275,314.876,21.988,20.626,22.0262,21.5455,314.999998,314.999998,324.999988,324.999988,99.55788571428572,99.50708333333333,99.5677,99.54858571428572,0.015666666666666718,-0.10549999999999993,-0.177,0.049666666666666665,-0.03833333333332689,-0.05333333333332746,1.5046666666666666,1.5245,38.425,29.9125,38.664,35.6595,55.343,35.068,59.659,53.038,53.293,34.192499999999995,58.225,51.351,52.438,33.7305,58.104,50.756,-0.057499999999999885,-0.07799999999999985,0.100455,0.10476,0.0,217.445,217.385,214.18,214.18,0.0,0.0
28,0.0,0.0,0.0,1.0,1.0,0.0,0.0,1.0,0.0,100.0,1.0,1.1856,26.0,0.0,0.0,0.0,59.999996,0.0,26.0,26.0,26.0,26.0,-0.08966666666666656,0.2701,-0.05253333333333334,293.015,-2.6892,-2.748111111111111,-1.5258,-1.6158000000000001,-180.98000000000002,215.8975,190.382625,0.0,0.0,0.0,0.0,0.05663333333333334,-5.498166666666667,-5.498166666666667,-0.55,0.6823333333333333,-0.05466666666666642,0.772,69.592,-0.061700000000000005,-0.1544,0.532,100.0,1.0,1.0,214.63333333333333,0.0,0.0,0.0,0.0,0.0,0.0,0.0,9097.5,0.0,55.0,5.0,250.50333333333333,0.0,0.0,0.0,0.0,0.0,0.0,0.0,0.0,1.404,1.404,0.0,0.0,0.0,55.0,616.79921,10000.0,85.000001,85.000001,85.000001,85.000001,395.0,0.0,0.0,0.0,1.0,166.665,54.397999999999996,54.397999999999996,47.348,47.348,34.0,-25.315,21.011666666666667,-31.25,26.075,0.0,1780.725,0.03999999999999915,100.0,27.081,26.076,44.234,43.367000000000004,0.0,0.0,100.0,0.0,0.0,0.0,0.0,3001.714285714286,2871.7,4129.875,4135.8,305.586,305.75466666666665,314.89625,314.6835,21.9967,20.6309,22.035800000000002,21.554,314.999998,314.999998,324.999988,324.999988,99.55788571428572,99.5071,99.56782857142858,99.54871428571428,0.025666666666666726,-0.09824999999999995,-0.171,0.04833333333333334,-0.023333333333326323,-0.05833333333333002,1.5336666666666667,1.5465,38.479,29.942999999999998,38.724000000000004,35.7125,55.328,35.105000000000004,59.693,53.092,53.278999999999996,34.2265,58.2565,51.403,52.423,33.7625,58.132999999999996,50.806666666666665,-0.07000000000000006,-0.06850000000000023,0.11095000000000001,0.11100000000000002,0.0,217.88,217.825,214.63333333333333,214.63333333333333,0.0,0.0
29,0.0,0.0,0.0,1.0,1.0,0.0,0.0,1.0,0.0,100.0,1.0,1.1856,26.0,0.0,0.0,0.0,59.999996,0.0,26.0,26.0,26.0,26.0,-0.05366666666666664,0.26380000000000003,0.046033333333333336,292.694,-2.6427,-2.788222222222222,-1.5364499999999999,-1.5874000000000001,-177.43,215.885,190.356125,0.0,0.0,0.0,0.0,0.0587,-5.498166666666667,-5.498166666666667,-0.5555,-0.719,-0.04677777777777781,-0.4990000000000001,69.731,-0.0517,-0.15625,0.3460000000000001,100.0,1.0,1.0,214.88666666666666,0.0,0.0,0.0,0.0,0.0,0.0,0.0,9108.2,0.0,55.0,5.0,251.00333333333333,1.0,0.0,0.0,0.0,0.0,0.0,0.0,0.0,1.4549999999999983,1.4549999999999983,0.0,0.0,1.0,55.0,616.79921,10000.0,85.000001,85.000001,85.000001,85.000001,395.0,0.0,0.0,0.0,1.0,166.665,54.489,54.489,46.432,46.432,34.0,-25.3025,21.436666666666667,-32.693333333333335,27.17,0.0,1780.675,-0.10500000000000043,100.0,26.567,26.148,44.54,43.819,0.0,0.0,100.0,0.0,0.0,0.0,0.0,3102.5714285714284,2841.1,4286.125,4216.9,305.5635,305.59633333333335,314.43575,314.3735,22.0057,20.636,22.0464,21.563299999999998,314.999998,314.999998,324.999988,324.999988,99.55788571428572,99.50711666666666,99.568,99.54887142857143,0.030999999999999917,-0.09675,-0.15916666666666665,0.05683333333333334,-0.041666666666671404,-0.04833333333333201,1.4613333333333334,1.478,38.536,29.975,38.79,35.7705,55.31,35.1415,59.7355,53.1535,53.260999999999996,34.2605,58.2965,51.462,52.405,33.795,58.17,50.864,-0.0814999999999999,-0.06150000000000011,0.10151,0.106065,0.0,218.265,218.22500000000002,214.88666666666666,214.88666666666666,0.0,0.0
30,0.0,0.0,0.0,1.0,1.0,0.0,0.0,1.0,0.0,100.0,1.0,1.1856,26.0,0.0,0.0,0.0,59.999996,0.0,26.0,26.0,26.0,26.0,-0.04677777777777781,0.2671000000000001,0.0032666666666666664,292.206,-2.7042,-2.6705555555555556,-1.5163,-1.6407,-174.07999999999998,215.8725,190.331125,0.0,0.0,0.0,0.0,0.06066666666666667,-5.498166666666667,-5.498166666666667,-0.5514,0.858,-0.04300000000000015,-0.6659999999999999,69.856,-0.042100000000000005,-0.155175,0.2759999999999998,100.0,1.0,1.0,215.34,0.0,0.0,0.0,0.0,0.0,0.0,0.0,9127.5,0.0,55.0,5.0,251.45333333333335,0.0,0.0,0.0,0.0,0.0,0.0,1.0,0.0,1.5030000000000001,1.5030000000000001,0.0,0.0,0.0,55.0,616.79921,10000.0,85.000001,85.000001,85.000001,85.000001,395.0,0.0,0.0,0.0,1.0,333.33500000000004,53.421,53.421,46.722,46.722,34.0,-26.7775,21.26833333333333,-32.230000000000004,27.905,0.0,1780.625,-0.23000000000000043,100.0,27.401,26.927,44.347,43.932,0.0,0.0,100.0,0.0,0.0,0.0,0.0,3259.142857142857,2864.5,4283.625,4172.6,305.035,305.51,314.518,314.44275,22.014499999999998,20.6411,22.0561,21.572,314.999998,314.999998,324.999988,324.999988,99.5579,99.50713333333333,99.56814285714286,99.54901428571429,0.046666666666666856,-0.08124999999999993,-0.159,0.06333333333333334,-0.046666666666666856,-0.060000000000002274,1.47,1.4975,38.59,30.006999999999998,38.851,35.8245,55.296,35.182,59.7725,53.213499999999996,53.248999999999995,34.298,58.3315,51.5195,52.391999999999996,33.831,58.201499999999996,50.92033333333333,-0.09199999999999986,-0.05650000000000022,0.10676500000000001,0.10315,0.0,218.695,218.68,215.34,215.34,0.0,0.0
31,0.0,0.0,0.0,1.0,1.0,0.0,0.0,1.0,0.0,100.0,1.0,1.1856,26.0,0.0,0.0,0.0,59.999996,0.0,26.0,26.0,26.0,26.0,-0.04699999999999993,0.2518,-0.0031000000000000003,292.007,-2.7641,-2.654888888888889,-1.56385,-1.6379000000000001,-170.51,215.85750000000002,190.30525,0.0,0.0,0.0,0.0,0.06273333333333334,-5.498166666666667,-5.498166666666667,-0.5383,-0.6336666666666666,-0.033222222222222264,0.758,69.992,-0.0238,-0.158225,-0.14999999999999947,100.0,1.0,1.0,215.65,0.0,0.0,0.0,0.0,0.0,0.0,0.0,9140.6,0.0,55.0,5.0,251.94333333333333,1.0,0.0,0.0,0.0,0.0,0.0,1.0,0.0,1.5539999999999985,1.5539999999999985,0.0,0.0,1.0,55.0,616.79921,10000.0,85.000001,85.000001,85.000001,85.000001,395.0,0.0,0.0,0.0,1.0,333.33500000000004,53.955,53.955,45.303,45.303,34.0,-23.544999999999998,23.33,-32.42,30.8425,0.0,1780.575,-0.2749999999999986,100.0,27.195,26.758,45.141999999999996,44.513999999999996,0.0,0.0,100.0,0.0,0.0,0.0,0.0,2963.0,3073.9,4348.125,4319.3,305.9275,305.27066666666667,314.19125,314.28025,22.0235,20.6465,22.0668,21.5814,314.999998,314.999998,324.999988,324.999988,99.5579,99.50713333333333,99.56828571428571,99.54915714285714,0.06966666666666677,-0.0605,-0.13216666666666665,0.0965,-0.036666666666668846,-0.041666666666671404,1.4446666666666665,1.446,38.647,30.0405,38.917,35.884,55.281,35.218,59.813,53.272999999999996,53.233999999999995,34.331,58.3695,51.577,52.376999999999995,33.8625,58.2365,50.97633333333333,-0.09149999999999991,-0.05500000000000016,0.111545,0.104785,0.0,219.065,219.05,215.65,215.65,0.0,0.0
32,0.0,0.0,0.0,1.0,1.0,0.0,0.0,1.0,0.0,100.0,1.0,1.1856,26.0,0.0,0.0,0.0,59.999996,0.0,26.0,26.0,26.0,26.0,-0.011666666666666603,0.2832000000000001,-0.019733333333333335,292.236,-2.6817,-2.7487777777777778,-1.6351,-1.5407000000000002,-166.94,215.84,190.2795,0.0,0.0,0.0,0.0,0.0648,-5.498166666666667,-5.498166666666667,-0.5545,0.09833333333333333,-0.0517777777777777,-0.788,70.123,-0.01,-0.16405,-0.08199999999999985,100.0,1.0,1.0,216.17000000000002,0.0,0.0,0.0,0.0,0.0,0.0,0.0,9162.6,0.0,55.0,5.0,252.41666666666666,0.0,0.0,0.0,0.0,0.0,0.0,1.0,0.0,1.6050000000000004,1.6050000000000004,0.0,0.0,0.0,55.0,616.79921,10000.0,85.000001,85.000001,85.000001,85.000001,395.0,0.0,0.0,0.0,1.0,166.665,53.955,53.955,46.204,46.204,34.0,-24.0225,22.846666666666664,-31.653333333333336,29.4475,0.0,1780.525,-0.29499999999999815,100.0,27.019,26.945,44.663,44.429,0.0,0.0,100.0,0.0,0.0,0.0,0.0,3090.0,2867.4,4308.25,4278.8,305.5545,305.5846666666667,314.5295,314.376,22.0325,20.6519,22.0771,21.5906,314.999998,314.999998,324.999988,324.999988,99.55791428571429,99.50713333333333,99.56844285714286,99.54931428571429,0.06866666666666688,-0.055499999999999994,-0.11883333333333333,0.108,-0.054999999999999716,-0.06666666666666998,1.5256666666666667,1.5110000000000001,38.703,30.073999999999998,38.982,35.9415,55.266,35.256,59.8505,53.332,53.22,34.366,58.403999999999996,51.6335,52.361999999999995,33.896,58.268,51.031333333333336,-0.09250000000000003,-0.04999999999999982,0.10902,0.11048500000000001,0.0,219.495,219.495,216.17000000000002,216.17000000000002,0.0,0.0
33,0.0,0.0,0.0,1.0,1.0,0.0,0.0,1.0,0.0,100.0,1.0,1.1856,26.0,0.0,0.0,0.0,59.999996,0.0,26.0,26.0,26.0,26.0,0.0031111111111110645,0.27100000000000013,-0.025833333333333333,292.48,-2.7308,-2.733888888888889,-1.5724,-1.6178,-163.57,215.825,190.254375,0.0,0.0,0.0,0.0,0.06676666666666667,-5.498166666666667,-5.498166666666667,-0.5611,-0.4346666666666667,-0.03944444444444439,0.06299999999999994,70.25,-0.0037,-0.1539,-0.09399999999999942,100.0,1.0,1.0,216.49666666666667,0.0,0.0,0.0,0.0,0.0,0.0,0.0,9176.5,0.0,55.0,5.0,252.87,1.0,0.0,0.0,0.0,0.0,0.0,1.0,0.0,1.6529999999999987,1.6529999999999987,0.0,0.0,1.0,55.0,616.79921,10000.0,85.000001,85.000001,85.000001,85.000001,395.0,0.0,0.0,0.0,1.0,333.33500000000004,54.474000000000004,54.474000000000004,46.326,46.326,34.0,-23.0225,22.726666666666667,-30.683333333333334,30.150000000000002,0.0,1780.475,-0.379999999999999,100.0,26.733,26.675,44.549,44.518,0.0,0.0,100.0,0.0,0.0,0.0,0.0,3009.857142857143,2809.4,4236.25,4268.0,305.8975,305.7923333333333,314.57175,314.29575,22.0409,20.6568,22.0869,21.5994,314.999998,314.999998,324.999988,324.999988,99.55792857142858,99.50715,99.56857142857143,99.54944285714285,0.08266666666666667,-0.04025000000000001,-0.12216666666666667,0.098,-0.02499999999999858,-0.061666666666667425,1.4853333333333334,1.4945,38.756,30.1045,39.043,35.996,55.251999999999995,35.2885,59.8865,53.3895,53.207,34.396,58.4375,51.689,52.348,33.925,58.2985,51.08533333333333,-0.10749999999999993,-0.03699999999999992,0.108215,0.10533500000000001,0.0,219.86,219.87,216.49666666666667,216.49666666666667,0.0,0.0
34,0.0,0.0,0.0,1.0,1.0,0.0,0.0,1.0,0.0,100.0,1.0,1.1856,26.0,0.0,0.0,0.0,59.999996,0.0,26.0,26.0,26.0,26.0,0.01811111111111119,0.25140000000000007,-0.08813333333333334,292.938,-2.7639,-2.6562222222222225,-1.6449,-1.5417,-159.76999999999998,215.8075,190.224625,0.0,0.0,0.0,0.0,0.06896666666666666,-5.498166666666667,-5.498166666666667,-0.5932000000000001,-0.8103333333333333,-0.004999999999999893,-0.07299999999999995,70.389,0.0076,-0.160575,-0.22799999999999976,100.0,1.0,1.0,216.9766666666667,0.0,0.0,0.0,0.0,0.0,0.0,0.0,9196.8,0.0,55.0,5.0,253.37333333333333,0.0,0.0,0.0,0.0,0.0,0.0,1.0,0.0,1.7070000000000007,1.7070000000000007,0.0,0.0,0.0,55.0,616.79921,10000.0,85.000001,85.000001,85.000001,85.000001,395.0,0.0,0.0,0.0,1.0,166.665,54.947,54.947,46.89,46.89,34.0,-21.5425,22.248333333333335,-29.509999999999998,29.6225,0.0,1780.424,-0.36499999999999844,100.0,26.427,26.378,44.256,44.532,0.0,0.0,100.0,0.0,0.0,0.0,0.0,2836.142857142857,2797.1,4101.625,4190.4,306.2755,305.8313333333333,314.974,314.516,22.0502,20.6623,22.0978,21.6092,314.999998,314.999998,324.999988,324.999988,99.55794285714286,99.50715,99.56872857142857,99.5496,0.09233333333333338,-0.033499999999999974,-0.10733333333333334,0.12166666666666667,-0.060000000000002274,-0.04333333333332945,1.5153333333333334,1.4965,38.814,30.139,39.111,36.058,55.236000000000004,35.324,59.924,53.4535,53.191,34.429,58.4725,51.7505,52.331,33.9565,58.33,51.14566666666667,-0.10099999999999998,-0.03849999999999998,0.10253000000000001,0.11039000000000002,0.0,220.31,220.26999999999998,216.97666666666666,216.9766666666667,0.0,0.0
35,0.0,0.0,0.0,1.0,1.0,0.0,0.0,1.0,0.0,100.0,1.0,1.1856,26.0,0.0,0.0,0.0,59.999996,0.0,26.0,26.0,26.0,26.0,0.03022222222222215,0.2590000000000001,-0.0526,292.816,-2.7401,-2.675666666666667,-1.61605,-1.5286,-156.39,215.79250000000002,190.196125,0.0,0.0,0.0,0.0,0.07093333333333333,-5.498166666666667,-5.498166666666667,-0.6312,-0.24166666666666667,-0.02066666666666661,-1.13,70.512,0.0177,-0.16440000000000002,-0.3539999999999992,100.0,1.0,1.0,217.42666666666668,0.0,0.0,0.0,0.0,0.0,0.0,0.0,9215.9,0.0,55.0,5.0,253.81666666666666,1.0,0.0,0.0,0.0,0.0,0.0,1.0,0.0,1.754999999999999,1.754999999999999,0.0,0.0,1.0,55.0,616.79921,10000.0,85.000001,85.000001,85.000001,85.000001,395.0,0.0,0.0,0.0,1.0,333.33500000000004,54.184,54.184,46.677,46.677,34.0,-22.544999999999998,25.55,-27.64,27.9525,0.0,1780.374,-0.25,100.0,26.327,26.738,44.036,44.084,0.0,0.0,100.0,0.0,0.0,0.0,0.0,2993.142857142857,3122.7,4038.125,3996.4,305.9005,304.8453333333333,315.076,314.998,22.0584,20.6674,22.1074,21.6178,314.999998,314.999998,324.999988,324.999988,99.55794285714286,99.50715,99.56887142857143,99.54975714285715,0.09433333333333338,-0.03049999999999997,-0.09033333333333333,0.12833333333333335,-0.04333333333332945,-0.04833333333333201,1.5523333333333333,1.538,38.864999999999995,30.171,39.172,36.1115,55.219,35.3585,59.957499999999996,53.507,53.175,34.461,58.504,51.802,52.315,33.987,58.358000000000004,51.19566666666667,-0.09699999999999998,-0.04850000000000021,0.10361500000000001,0.10444500000000001,0.0,220.66,220.67000000000002,217.42666666666668,217.42666666666668,0.0,0.0
