,ABS Active,ABS Enabled,AID Allow Tire Blankets,AID Auto Blip,AID Auto Clutch,AID Auto Shift,AID Fuel Rate,AID Ideal Line,AID Mech Damage,AID Stability,AID Tire Wear Rate,Air Density,Air Temp,Ballast,Best Lap Delta,Best Lap Time,Brake Bias,Brake Pos,Brake Temp FL,Brake Temp FR,Brake Temp RL,Brake Temp RR,CG Accel Lateral,CG Accel Longitudinal,CG Accel Vertical,CG Height,Camber FL,Camber FR,Camber RL,Camber RR,Car Coord X,Car Coord Y,Car Coord Z,Car Damage Front,Car Damage Left,Car Damage Rear,Car Damage Right,Car Pos Norm,Caster FL,Caster FR,Chassis Pitch Angle,Chassis Pitch Rate,Chassis Roll Angle,Chassis Roll Rate,Chassis Velocity X,Chassis Velocity Y,Chassis Velocity Z,Chassis Yaw Rate,Clutch Pos,DRS Active,DRS Available,Drive Train Speed,ERS Heat Charging,ERS Is Charging,ERS Max Energy,ERS Power Level,ERS Recovery Level,Engine Brake Setting,Engine Limiter,Engine RPM,Flags,Fuel Level,Gear,Ground Speed,HR Sample Clock,In Pit,KERS Charge,KERS Deployed Energy,KERS Input,KERS Max Energy,LR Sample Clock,Lap Invalidated,Lap Time,Lap Time2,Last Lap Time,Last Sector Time,MR Sample Clock,Max Fuel,Max Power,Max RPM,Max Sus Travel FL,Max Sus Travel FR,Max Sus Travel RL,Max Sus Travel RR,Max Torque,Max Turbo Boost,Num Tires Off Track,Penalties Enabled,Position,Raw Data Sample Rate,Ride Height FL,Ride Height FR,Ride Height RL,Ride Height RR,Road Temp,Self Align Torque FL,Self Align Torque FR,Self Align Torque RL,Self Align Torque RR,Session Lap Count,Session Time Left,Steering Angle,Surface Grip,Suspension Travel FL,Suspension Travel FR,Suspension Travel RL,Suspension Travel RR,TC Active,TC Enabled,Throttle Pos,Tire Dirt Level FL,Tire Dirt Level FR,Tire Dirt Level RL,Tire Dirt Level RR,Tire Load FL,Tire Load FR,Tire Load RL,Tire Load RR,Tire Loaded Radius FL,Tire Loaded Radius FR,Tire Loaded Radius RL,Tire Loaded Radius RR,Tire Pressure FL,Tire Pressure FR,Tire Pressure RL,Tire Pressure RR,Tire Radius FL,Tire Radius FR,Tire Radius RL,Tire Radius RR,Tire Rubber Grip FL,Tire Rubber Grip FR,Tire Rubber Grip RL,Tire Rubber Grip RR,Tire Slip Angle FL,Tire Slip Angle FR,Tire Slip Angle RL,Tire Slip Angle RR,Tire Slip Ratio FL,Tire Slip Ratio FR,Tire Slip Ratio RL,Tire Slip Ratio RR,Tire Temp Core FL,Tire Temp Core FR,Tire Temp Core RL,Tire Temp Core RR,Tire Temp Inner FL,Tire Temp Inner FR,Tire Temp Inner RL,Tire Temp Inner RR,Tire Temp Middle FL,Tire Temp Middle FR,Tire Temp Middle RL,Tire Temp Middle RR,Tire Temp Outer FL,Tire Temp Outer FR,Tire Temp Outer RL,Tire Temp Outer RR,Toe In FL,Toe In FR,Toe In RL,Toe In RR,Turbo Boost,Wheel Angular Speed FL,Wheel Angular Speed FR,Wheel Angular Speed RL,Wheel Angular Speed RR,Wind Direction,Wind Speed
0,0.0,0.0,0.0,1.0,1.0,0.0,0.0,1.0,0.0,100.0,1.0,1.1856,26.0,0.0,0.0,0.0,59.99999,0.0,26.0,26.0,26.0,26.0,-0.083125,0.3013000000000001,0.17950000000000002,292.74,-2.7129000000000003,-2.453125,-1.508,-1.533625,-275.41,215.985,190.985,0.0,0.0,0.0,0.0,0.0017666666666665831,-5.498166666666667,-5.498166666666667,-0.6001000000000001,1.3693333333333335,-0.014333333333333087,-1.7200000000000002,65.547,-0.04079999999999995,-0.271025,0.8239999999999998,100.0,1.0,1.0,202.41,0.0,0.0,0.0,0.0,0.0,0.0,0.0,8579.4,0.0,55.0,5.0,235.94333333333333,0.0,0.0,0.0,0.0,0.0,0.0,0.0,0.0,0.006000000000000227,0.006000000000000227,0.0,0.0,0.0,55.0,616.79921,10000.0,85.0,85.0,85.0,85.0,395.0,0.0,0.0,0.0,1.0,20.0,49.484,49.484,49.438,49.438,34.0,-30.605,24.72,-30.006666666666664,23.6975,0.0,1783.278,0.7899999999999991,100.0,29.073,28.937,40.35,40.087,0.0,0.0,100.0,0.0,0.0,0.0,0.0,3445.375,3888.2,4091.0,3889.3,304.48633333333333,302.3376666666667,314.96825,315.10725,21.8019,20.5424,21.8152,21.3275,314.99999,314.99999,324.99998,324.99998,99.5594,99.50758333333333,99.56902857142857,99.54651428571428,0.0015000000000000568,-0.13024999999999998,-0.16283333333333339,0.06333333333333324,-0.07666666666666799,-0.08833333333333115,1.5566666666666666,1.604,37.262,29.39,37.345,34.297,56.58,34.89,60.3505,52.205,54.518,34.048,58.954499999999996,50.5175,53.718,33.616,58.9445,49.92,-0.028000000000000025,-0.137,0.10216000000000001,0.10636000000000001,0.0,205.425,205.35500000000002,202.41,202.41,0.0,0.0
1,0.0,0.0,0.0,1.0,1.0,0.0,0.0,1.0,0.0,100.0,1.0,1.1856,26.0,0.0,0.0,0.0,59.999996,0.0,26.0,26.0,26.0,26.0,-0.11775000000000002,0.28659999999999997,0.272275,292.099,-2.596,-2.78425,-1.5284,-1.44525,-271.86,216.005,190.964,0.0,0.0,0.0,0.0,0.0037999999999999146,-5.498166666666667,-5.498166666666667,-0.5515,-1.7293333333333334,-0.06777777777777771,-1.19,65.709,-0.056400000000000006,-0.27005,1.234,100.0,1.0,1.0,202.47333333333333,0.0,0.0,0.0,0.0,0.0,0.0,0.0,8582.1,0.0,55.0,5.0,236.52666666666667,1.0,0.0,0.0,0.0,0.0,0.0,0.0,0.0,0.05999999999999872,0.05999999999999872,0.0,0.0,1.0,55.0,616.79921,10000.0,85.000001,85.000001,85.000001,85.000001,395.0,0.0,0.0,0.0,1.0,166.665,51.391999999999996,51.391999999999996,48.691,48.691,34.0,-28.515,18.740000000000002,-36.35333333333333,25.6275,0.0,1783.224,0.7950000000000017,100.0,29.368,28.691,42.199,41.957,0.0,0.0,100.0,0.0,0.0,0.0,0.0,3304.375,2799.8,4485.25,4460.1,304.9053333333333,305.95933333333335,313.85275,313.1895,21.8127,20.548,21.8271,21.3374,314.999998,314.999998,324.999988,324.999988,99.55941428571428,99.50761666666666,99.56918571428571,99.54667142857143,-0.009000000000000008,-0.14874999999999994,-0.1831666666666666,0.023500000000000076,-0.02833333333332888,-0.06333333333333258,1.3373333333333335,1.4005,37.329,29.4255,37.419,34.3585,56.565,34.9345,60.396,52.274,54.504000000000005,34.089,58.9965,50.584,53.703,33.6555,58.9835,49.985,-0.023666666666666725,-0.14100000000000001,0.10381000000000001,0.09817500000000001,0.0,205.84,205.785,202.47333333333333,202.47333333333333,0.0,0.0
2,0.0,0.0,0.0,1.0,1.0,0.0,0.0,1.0,0.0,100.0,1.0,1.1856,26.0,0.0,0.0,0.0,59.999996,0.0,26.0,26.0,26.0,26.0,-0.119,0.2956000000000001,-0.10210000000000001,293.152,-2.5907,-2.7405,-1.5048,-1.617375,-268.71,216.0225,190.946375,0.0,0.0,0.0,0.0,0.005633333333333379,-5.498166666666667,-5.498166666666667,-0.6128,0.47,-0.03500000000000014,1.708,65.836,-0.07399999999999995,-0.31920000000000004,1.6260000000000012,100.0,1.0,1.0,203.57,0.0,0.0,0.0,0.0,0.0,0.0,0.0,8628.5,0.0,55.0,5.0,236.98000000000002,0.0,0.0,0.0,0.0,0.0,0.0,0.0,0.0,0.10800000000000054,0.10800000000000054,0.0,0.0,0.0,55.0,616.79921,10000.0,85.000001,85.000001,85.000001,85.000001,395.0,0.0,0.0,0.0,1.0,166.665,50.003,50.003,51.224000000000004,51.224000000000004,34.0,-31.9425,20.316,-27.663333333333334,18.66,0.0,1783.175,0.9000000000000021,100.0,30.09,28.846,41.752,40.749,0.0,0.0,100.0,0.0,0.0,0.0,0.0,3538.875,3154.6,3578.75,3549.7,304.05766666666665,304.7,316.1205,316.15025,21.822499999999998,20.5531,21.8371,21.3455,314.999998,314.999998,324.999988,324.999988,99.55941428571428,99.50763333333333,99.5693,99.54678571428572,-0.02749999999999997,-0.17049999999999998,-0.22883333333333333,-0.002666666666666595,-0.07166666666666544,-0.04833333333333201,1.7196666666666667,1.7555,37.391,29.457,37.482,34.4095,56.556,34.976,60.4255,52.320499999999996,54.495000000000005,34.126999999999995,59.0245,50.6285,53.693,33.692,59.0085,50.028999999999996,-0.02066666666666661,-0.15050000000000008,0.10768000000000001,0.10086,0.0,206.305,206.155,203.57,203.57,0.0,0.0
3,0.0,0.0,0.0,1.0,1.0,0.0,0.0,1.0,0.0,100.0,1.0,1.1856,26.0,0.0,0.0,0.0,59.999996,0.0,26.0,26.0,26.0,26.0,-0.13987499999999997,0.3004,0.09275,292.45,-2.6838,-2.6801250000000003,-1.4896,-1.587625,-265.34,216.035,190.92625,0.0,0.0,0.0,0.0,0.00759999999999994,-5.498166666666667,-5.498166666666667,-0.5589000000000001,0.2426666666666668,-0.02588888888888885,-0.35199999999999987,65.987,-0.09139999999999993,-0.254375,1.3740000000000006,100.0,1.0,1.0,203.54666666666668,0.0,0.0,0.0,0.0,0.0,0.0,0.0,8627.6,0.0,55.0,5.0,237.5233333333333,1.0,0.0,0.0,0.0,0.0,0.0,0.0,0.0,0.15899999999999892,0.15899999999999892,0.0,0.0,1.0,55.0,616.79921,10000.0,85.000001,85.000001,85.000001,85.000001,395.0,0.0,0.0,0.0,1.0,166.665,51.01,51.01,48.492,48.492,34.0,-28.724999999999998,18.662,-35.349999999999994,24.177500000000002,0.0,1783.125,0.995000000000001,100.0,29.815,28.777,42.134,40.955,0.0,0.0,100.0,0.0,0.0,0.0,0.0,3121.125,3038.1,4356.125,4241.4,305.254,305.1646666666667,314.18225,314.3495,21.8326,20.5586,21.8478,21.3546,314.999998,314.999998,324.999988,324.999988,99.55941428571428,99.50765,99.56945714285715,99.54694285714285,-0.03325,-0.17399999999999993,-0.20950000000000002,0.006333333333333302,-0.054999999999999716,-0.05666666666667197,1.4586666666666668,1.5345,37.454,29.491500000000002,37.549,34.466,56.541,35.0225,60.462,52.3825,54.480999999999995,34.17,59.0585,50.688,53.678,33.733000000000004,59.04,50.087,-0.014666666666666606,-0.15900000000000025,0.10854000000000001,0.10000500000000001,0.0,206.78,206.64,203.54666666666668,203.54666666666668,0.0,0.0
4,0.0,0.0,0.0,1.0,1.0,0.0,0.0,1.0,0.0,100.0,1.0,1.1856,26.0,0.0,0.0,0.0,59.999996,0.0,26.0,26.0,26.0,26.0,-0.17125,0.28780000000000006,-0.0341,292.694,-2.6184000000000003,-2.7738750000000003,-1.5103,-1.60025,-262.17,216.04500000000002,190.90775,0.0,0.0,0.0,0.0,0.009433333333333294,-5.498166666666667,-5.498166666666667,-0.5944,-0.872,-0.0865555555555555,-0.1200000000000001,66.12,-0.10259999999999991,-0.300375,1.6579999999999995,100.0,1.0,1.0,204.12,0.0,0.0,0.0,0.0,0.0,0.0,0.0,8651.8,0.0,55.0,5.0,238.00666666666666,0.0,0.0,0.0,0.0,0.0,0.0,0.0,0.0,0.20700000000000074,0.20700000000000074,0.0,0.0,0.0,55.0,616.79921,10000.0,85.000001,85.000001,85.000001,85.000001,395.0,0.0,0.0,0.0,1.0,166.665,50.613,50.613,49.194,49.194,34.0,-31.9575,19.93,-33.45,19.82,0.0,1783.076,0.9400000000000013,100.0,29.69,28.476,42.668,40.998000000000005,0.0,0.0,100.0,0.0,0.0,0.0,0.0,3451.75,3135.3,4069.0,3688.0,304.29966666666667,304.898,314.8135,315.66725,21.8422,20.5637,21.8581,21.363,314.999998,314.999998,324.999988,324.999988,99.55941428571428,99.50768333333333,99.5696,99.54707142857143,-0.04074999999999995,-0.18025000000000002,-0.22850000000000004,-0.005499999999999949,-0.03833333333332689,-0.05833333333333002,1.5466666666666666,1.612,37.513999999999996,29.523,37.613,34.519,56.528999999999996,35.065,60.4985,52.436,54.47,34.209,59.0925,50.739,53.666,33.7705,59.071,50.1375,-0.014333333333333309,-0.1575000000000002,0.11000000000000001,0.09982500000000001,0.0,207.13,207.01,204.12,204.12,0.0,0.0
5,0.0,0.0,0.0,1.0,1.0,0.0,0.0,1.0,0.0,100.0,1.0,1.1856,26.0,0.0,0.0,0.0,59.999996,0.0,26.0,26.0,26.0,26.0,-0.1785,0.30110000000000015,-0.0099,292.725,-2.6369,-2.739875,-1.4985,-1.629375,-258.6,216.05,190.88625,0.0,0.0,0.0,0.0,0.011533333333333395,-5.498166666666667,-5.498166666666667,-0.5898,0.3840000000000001,-0.08644444444444455,0.8879999999999999,66.271,-0.1167999999999999,-0.27625,1.5299999999999994,100.0,1.0,1.0,204.55333333333334,0.0,0.0,0.0,0.0,0.0,0.0,0.0,8670.3,0.0,55.0,5.0,238.55,1.0,0.0,0.0,0.0,0.0,0.0,0.0,0.0,0.26099999999999923,0.26099999999999923,0.0,0.0,1.0,55.0,616.79921,10000.0,85.000001,85.000001,85.000001,85.000001,395.0,0.0,0.0,0.0,1.0,166.665,50.873,50.873,49.454,49.454,34.0,-30.855,18.866,-34.43,21.6425,0.0,1783.022,0.6649999999999991,100.0,29.902,28.396,42.376,40.63,0.0,0.0,100.0,0.0,0.0,0.0,0.0,3338.875,3054.7,4120.375,4032.9,304.5946666666667,305.162,314.8185,314.89475,21.8531,20.5694,21.8695,21.3724,314.999998,314.999998,324.999988,324.999988,99.55942857142857,99.5077,99.56974285714286,99.54721428571429,-0.03749999999999998,-0.18374999999999997,-0.24383333333333335,-0.021333333333333315,-0.01999999999999602,-0.03833333333332689,1.53,1.6005,37.582,29.558999999999997,37.684,34.5775,56.518,35.1125,60.536,52.4945,54.459,34.253,59.1275,50.795500000000004,53.653999999999996,33.8125,59.103,50.192499999999995,-0.03400000000000003,-0.13850000000000007,0.10991000000000001,0.11020500000000001,0.0,207.64,207.515,204.55333333333334,204.55333333333334,0.0,0.0
6,0.0,0.0,0.0,1.0,1.0,0.0,0.0,1.0,0.0,100.0,1.0,1.1856,26.0,0.0,0.0,0.0,59.999996,0.0,26.0,26.0,26.0,26.0,-0.16749999999999998,0.2976000000000001,0.021525000000000002,292.496,-2.5868,-2.7885,-1.5259,-1.592,-255.61,216.0525,190.868,0.0,0.0,0.0,0.0,0.013266666666666538,-5.498166666666667,-5.498166666666667,-0.5826,0.05333333333333323,-0.0903333333333336,-0.7789999999999999,66.398,-0.11929999999999996,-0.2713,1.4399999999999995,100.0,1.0,1.0,204.90333333333334,0.0,0.0,0.0,0.0,0.0,0.0,0.0,8685.1,0.0,55.0,5.0,239.00333333333333,0.0,0.0,0.0,0.0,0.0,0.0,0.0,0.0,0.30600000000000094,0.30600000000000094,0.0,0.0,0.0,55.0,616.79921,10000.0,85.000001,85.000001,85.000001,85.000001,395.0,0.0,0.0,0.0,1.0,166.665,50.735,50.735,49.025999999999996,49.025999999999996,34.0,-31.7075,18.542,-36.019999999999996,21.165,0.0,1782.978,0.4200000000000017,100.0,29.778,28.637999999999998,42.525999999999996,40.977000000000004,0.0,0.0,100.0,0.0,0.0,0.0,0.0,3449.0,2956.2,4250.75,3964.6000000000004,304.42,305.23133333333334,314.55225,314.97975,21.8622,20.5742,21.879,21.3804,314.999998,314.999998,324.999988,324.999988,99.55944285714286,99.50771666666667,99.56987142857143,99.54734285714285,-0.04599999999999993,-0.19025000000000003,-0.243,-0.015666666666666607,-0.05333333333332746,-0.04333333333332945,1.5303333333333333,1.5705,37.638999999999996,29.589,37.744,34.626999999999995,56.509,35.1525,60.5695,52.546,54.45,34.289500000000004,59.158500000000004,50.845,53.644,33.8475,59.132,50.2405,-0.04066666666666663,-0.133,0.10194500000000001,0.10903000000000002,0.0,208.04500000000002,207.91,204.90333333333334,204.90333333333334,0.0,0.0
7,0.0,0.0,0.0,1.0,1.0,0.0,0.0,1.0,0.0,100.0,1.0,1.1856,26.0,0.0,0.0,0.0,59.999996,0.0,26.0,26.0,26.0,26.0,-0.13937500000000003,0.2772000000000001,0.017150000000000002,292.404,-2.5505,-2.7855,-1.4843,-1.636125,-252.22,216.05,190.847625,0.0,0.0,0.0,0.0,0.015233333333333321,-5.498166666666667,-5.498166666666667,-0.5914,0.04866666666666686,-0.07644444444444431,1.0699999999999998,66.539,-0.11809999999999998,-0.289425,1.136000000000001,100.0,1.0,1.0,205.37333333333333,0.0,0.0,0.0,0.0,0.0,0.0,0.0,8705.1,0.0,55.0,5.0,239.51333333333332,1.0,0.0,0.0,0.0,0.0,0.0,0.0,0.0,0.3569999999999993,0.3569999999999993,0.0,0.0,1.0,55.0,616.79921,10000.0,85.000001,85.000001,85.000001,85.000001,395.0,0.0,0.0,0.0,1.0,333.33500000000004,50.293,50.293,49.408,49.408,34.0,-29.18,21.662,-32.59,22.22,0.0,1782.925,0.129999999999999,100.0,30.19,28.63,42.669,41.041,0.0,0.0,100.0,0.0,0.0,0.0,0.0,3390.75,3144.0,4000.625,3954.1000000000004,304.351,304.79566666666665,315.04775,315.0325,21.8725,20.5797,21.8899,21.3894,314.999998,314.999998,324.999988,324.999988,99.55944285714286,99.50773333333333,99.57001428571428,99.54747142857143,-0.0044999999999999485,-0.14700000000000002,-0.2333333333333334,-0.0050000000000000044,-0.03333333333333144,-0.07666666666666799,1.5453333333333332,1.566,37.703,29.622999999999998,37.812,34.684,56.498000000000005,35.1975,60.6065,52.6045,54.439,34.331,59.193,50.9005,53.632,33.887,59.163,50.295500000000004,-0.07566666666666677,-0.09250000000000025,0.10174000000000001,0.11518,0.0,208.46,208.37,205.37333333333333,205.37333333333333,0.0,0.0
8,0.0,0.0,0.0,1.0,1.0,0.0,0.0,1.0,0.0,100.0,1.0,1.1856,26.0,0.0,0.0,0.0,59.999996,0.0,26.0,26.0,26.0,26.0,-0.11737500000000001,0.27449999999999997,0.006925000000000001,292.557,-2.6324,-2.720625,-1.4622,-1.629875,-248.63,216.04250000000002,190.82575,0.0,0.0,0.0,0.0,0.01733333333333331,-5.498166666666667,-5.498166666666667,-0.5957,-0.528,-0.06566666666666654,0.558,66.689,-0.1036999999999999,-0.2847,0.612000000000001,100.0,1.0,1.0,205.7866666666667,0.0,0.0,0.0,0.0,0.0,0.0,0.0,8722.5,0.0,55.0,5.0,240.05333333333334,0.0,0.0,0.0,0.0,0.0,0.0,0.0,0.0,0.41100000000000136,0.41100000000000136,0.0,0.0,0.0,55.0,616.79921,10000.0,85.000001,85.000001,85.000001,85.000001,395.0,0.0,0.0,0.0,1.0,166.665,50.812,50.812,48.935,48.935,34.0,-28.235,21.338,-31.826666666666664,23.525000000000002,0.0,1782.872,0.004999999999999005,100.0,29.740000000000002,28.581,42.705,41.13,0.0,0.0,100.0,0.0,0.0,0.0,0.0,3272.75,3173.9,4019.375,4009.3,304.891,304.801,314.979,314.887,21.8832,20.5855,21.9013,21.399,314.999998,314.999998,324.999988,324.999988,99.55944285714286,99.50775,99.57017142857143,99.54762857142858,0.0024999999999999467,-0.14374999999999993,-0.21699999999999997,0.01416666666666666,-0.03166666666666629,-0.060000000000002274,1.531,1.561,37.769999999999996,29.6595,37.882999999999996,34.7435,56.483000000000004,35.244,60.6455,52.6655,54.424,34.3735,59.2295,50.9595,53.617,33.9275,59.1965,50.3525,-0.08766666666666678,-0.08599999999999985,0.10759500000000001,0.107615,0.0,208.875,208.84,205.7866666666667,205.7866666666667,0.0,0.0
9,0.0,0.0,0.0,1.0,1.0,0.0,0.0,1.0,0.0,100.0,1.0,1.1856,26.0,0.0,0.0,0.0,59.999996,0.0,26.0,26.0,26.0,26.0,-0.08699999999999997,0.2832000000000001,-0.013225,292.206,-2.5578000000000003,-2.737375,-1.5154,-1.582,-245.62,216.035,190.807125,0.0,0.0,0.0,0.0,0.019066666666666565,-5.498166666666667,-5.498166666666667,-0.5924,0.655,-0.0694444444444442,-0.34299999999999997,66.812,-0.08589999999999998,-0.2796,0.4920000000000009,100.0,1.0,1.0,206.22333333333333,0.0,0.0,0.0,0.0,0.0,0.0,0.0,8741.0,0.0,55.0,5.0,240.49333333333334,1.0,0.0,0.0,0.0,0.0,0.0,0.0,0.0,0.4559999999999995,0.4559999999999995,0.0,0.0,1.0,55.0,616.79921,10000.0,85.000001,85.000001,85.000001,85.000001,395.0,0.0,0.0,0.0,1.0,333.33500000000004,49.927,49.927,49.576,49.576,34.0,-30.03,21.724,-31.676666666666666,23.5275,0.0,1782.825,-0.134999999999998,100.0,30.157,29.054000000000002,42.348,41.185,0.0,0.0,100.0,0.0,0.0,0.0,0.0,3591.875,3095.4,4078.125,3988.5,303.9526666666667,304.808,315.0145,314.95375,21.8923,20.5905,21.9107,21.4069,314.999998,314.999998,324.999988,324.999988,99.55944285714286,99.50776666666667,99.57031428571429,99.54775714285714,0.015000000000000124,-0.12975000000000003,-0.1971666666666666,0.030999999999999917,-0.054999999999999716,-0.04999999999999716,1.5656666666666665,1.5735000000000001,37.827,29.6905,37.942,34.793,56.472,35.2855,60.6775,52.7185,54.415,34.412,59.2595,51.0105,53.606,33.9645,59.2235,50.4025,-0.09999999999999987,-0.07799999999999985,0.10148000000000001,0.10713500000000001,0.0,209.29500000000002,209.235,206.22333333333333,206.22333333333333,0.0,0.0
10,0.0,0.0,0.0,1.0,1.0,0.0,0.0,1.0,0.0,100.0,1.0,1.1856,26.0,0.0,0.0,0.0,59.999996,0.0,26.0,26.0,26.0,26.0,-0.06362499999999993,0.27590000000000003,-0.038450000000000005,292.175,-2.6412,-2.678375,-1.5023,-1.549,-242.01,216.0225,190.78525,0.0,0.0,0.0,0.0,0.021166666666666556,-5.498166666666667,-5.498166666666667,-0.5813,-0.71,-0.0257777777777779,0.268,66.963,-0.061799999999999966,-0.279225,0.11799999999999944,100.0,1.0,1.0,206.51999999999998,0.0,0.0,0.0,0.0,0.0,0.0,0.0,8753.6,0.0,55.0,5.0,241.03666666666666,0.0,0.0,0.0,0.0,0.0,0.0,1.0,0.0,0.509999999999998,0.509999999999998,0.0,0.0,0.0,55.0,616.79921,10000.0,85.000001,85.000001,85.000001,85.000001,395.0,0.0,0.0,0.0,1.0,166.665,50.858,50.858,48.385999999999996,48.385999999999996,34.0,-25.7975,21.275999999999996,-32.193333333333335,25.3825,0.0,1782.773,-0.21499999999999986,100.0,29.847,29.022,42.754,41.911,0.0,0.0,100.0,0.0,0.0,0.0,0.0,3189.5,3043.8,4209.875,4135.9,305.226,305.05833333333334,314.61225,314.5055,21.903,20.5963,21.9223,21.4167,314.999998,314.999998,324.999988,324.999988,99.55945714285714,99.50778333333334,99.57045714285714,99.5479,0.038999999999999924,-0.11599999999999999,-0.17766666666666664,0.04833333333333334,-0.03333333333333144,-0.030000000000001137,1.5046666666666666,1.5095,37.894,29.727,38.013999999999996,34.854,56.459,35.3275,60.7155,52.7795,54.402,34.4505,59.2945,51.0685,53.593,34.001,59.256,50.4595,-0.11033333333333317,-0.06999999999999984,0.106785,0.10637500000000001,0.0,209.715,209.68,206.51999999999998,206.51999999999998,0.0,0.0
11,0.0,0.0,0.0,1.0,1.0,0.0,0.0,1.0,0.0,100.0,1.0,1.1856,26.0,0.0,0.0,0.0,59.999996,0.0,26.0,26.0,26.0,26.0,-0.019874999999999976,0.27980000000000005,-0.08475,292.603,-2.6434,-2.698,-1.5471,-1.52725,-238.79,216.01,190.765625,0.0,0.0,0.0,0.0,0.022599999999999953,-5.498166666666667,-5.498166666666667,-0.6158,-0.02100000000000002,-0.00855555555555565,-0.7949999999999999,67.09,-0.03939999999999999,-0.29807500000000003,0.002000000000000668,100.0,1.0,1.0,207.18666666666667,0.0,0.0,0.0,0.0,0.0,0.0,0.0,8781.9,0.0,55.0,5.0,241.49666666666667,1.0,0.0,0.0,0.0,0.0,0.0,1.0,0.0,0.5579999999999998,0.5579999999999998,0.0,0.0,1.0,55.0,616.79921,10000.0,85.000001,85.000001,85.000001,85.000001,395.0,0.0,0.0,0.0,1.0,166.665,50.308,50.308,49.759,49.759,34.0,-26.9275,23.582,-27.14,23.67,0.0,1782.726,-0.14499999999999957,100.0,29.642,29.265,42.197,41.72,0.0,0.0,100.0,0.0,0.0,0.0,0.0,3385.375,3191.0,3787.75,3832.3,304.66966666666667,304.5163333333333,315.72825,315.36225,21.912399999999998,20.6017,21.9322,21.4252,314.999998,314.999998,324.999988,324.999988,99.55945714285714,99.5078,99.57058571428571,99.54802857142857,0.05449999999999999,-0.09724999999999995,-0.15349999999999997,0.07716666666666683,-0.05833333333333002,-0.01999999999999602,1.6236666666666668,1.637,37.953,29.7605,38.076,34.9075,56.447,35.368,60.744,52.832,54.391,34.488,59.321,51.1195,53.58,34.037,59.2795,50.5095,-0.10199999999999987,-0.07600000000000007,0.10361500000000001,0.10664000000000001,0.0,210.11,210.07999999999998,207.18666666666667,207.18666666666667,0.0,0.0
12,0.0,0.0,0.0,1.0,1.0,0.0,0.0,1.0,0.0,100.0,1.0,1.1856,26.0,0.0,0.0,0.0,59.999996,0.0,26.0,26.0,26.0,26.0,-0.005874999999999964,0.2873000000000001,0.0322,291.946,-2.6586,-2.690875,-1.5199,-1.55925,-235.37,215.9975,190.7435,0.0,0.0,0.0,0.0,0.025466666666666526,-5.498166666666667,-5.498166666666667,-0.5996,0.256,-0.015666666666666718,0.8009999999999999,67.231,-0.023499999999999965,-0.27155,-0.02200000000000024,100.0,1.0,1.0,207.39333333333332,0.0,0.0,0.0,0.0,0.0,0.0,0.0,8790.7,0.0,55.0,5.0,242.00666666666666,0.0,0.0,0.0,0.0,0.0,0.0,1.0,0.0,0.6089999999999982,0.6089999999999982,0.0,0.0,0.0,55.0,616.79921,10000.0,85.000001,85.000001,85.000001,85.000001,395.0,0.0,0.0,0.0,1.0,166.665,50.156,50.156,48.400999999999996,48.400999999999996,34.0,-26.195,25.228,-29.243333333333336,28.5825,0.0,1782.675,0.21000000000000085,100.0,29.761,29.314,42.347,41.706,0.0,0.0,100.0,0.0,0.0,0.0,0.0,3290.875,3333.4,4154.5,4198.2,304.75166666666667,304.2783333333333,314.6875,314.5185,21.9224,20.6074,21.9429,21.4343,314.999998,314.999998,324.999988,324.999988,99.55947142857143,99.50781666666667,99.57072857142857,99.54817142857142,0.0605,-0.08174999999999999,-0.12549999999999994,0.1016666666666668,-0.04833333333333201,-0.03999999999999915,1.5253333333333332,1.5215,38.015,29.7965,38.143,34.964,56.436,35.4105,60.778999999999996,52.89,54.379000000000005,34.527,59.354,51.1755,53.568,34.0745,59.3095,50.564,-0.08866666666666667,-0.08899999999999997,0.10048000000000001,0.109895,0.0,210.57,210.54500000000002,207.39333333333332,207.39333333333332,0.0,0.0
13,0.0,0.0,0.0,1.0,1.0,0.0,0.0,1.0,0.0,100.0,1.0,1.1856,26.0,0.0,0.0,0.0,59.999996,0.0,26.0,26.0,26.0,26.0,0.002874999999999961,0.27249999999999996,0.03115,291.656,-2.6385,-2.6855,-1.5528,-1.561375,-231.93,215.98250000000002,190.721875,0.0,0.0,0.0,0.0,0.027033333333333354,-5.498166666666667,-5.498166666666667,-0.5965,-0.20699999999999996,-0.015333333333333421,-0.47299999999999986,67.37,-0.018399999999999972,-0.28395000000000004,-0.06200000000000028,100.0,1.0,1.0,207.7866666666667,0.0,0.0,0.0,0.0,0.0,0.0,0.0,8807.3,0.0,55.0,5.0,242.50333333333333,1.0,0.0,0.0,0.0,0.0,0.0,1.0,0.0,0.6600000000000001,0.6600000000000001,0.0,0.0,1.0,55.0,616.79921,10000.0,85.000001,85.000001,85.000001,85.000001,395.0,0.0,0.0,0.0,1.0,166.665,49.866,49.866,48.477000000000004,48.477000000000004,34.0,-25.7125,24.887999999999998,-30.47,28.47,0.0,1782.623,-0.3249999999999993,100.0,29.956,29.677,42.439,42.328,0.0,0.0,100.0,0.0,0.0,0.0,0.0,3405.375,3210.6,4187.625,4180.8,304.576,304.46866666666665,314.70975,314.38975,21.9324,20.6132,21.9538,21.4435,314.999998,314.999998,324.999988,324.999988,99.55948571428571,99.50781666666667,99.57087142857142,99.54831428571428,0.08400000000000007,-0.06874999999999998,-0.135,0.09450000000000003,-0.046666666666666856,-0.04999999999999716,1.4953333333333334,1.4905,38.078,29.8325,38.211,35.022,56.426,35.4525,60.814,52.951,54.370000000000005,34.5655,59.3865,51.2335,53.557,34.1115,59.338499999999996,50.6215,-0.11966666666666681,-0.058499999999999996,0.10924,0.11044500000000002,0.0,210.97500000000002,210.97500000000002,207.7866666666667,207.7866666666667,0.0,0.0
14,0.0,0.0,0.0,1.0,1.0,0.0,0.0,1.0,0.0,100.0,1.0,1.1856,26.0,0.0,0.0,0.0,59.999996,0.0,26.0,26.0,26.0,26.0,0.009000000000000119,0.27290000000000014,-0.00675,291.855,-2.6648,-2.6260000000000003,-1.5575999999999999,-1.54375,-228.7,215.9675,190.701875,0.0,0.0,0.0,0.0,0.028899999999999926,-5.498166666666667,-5.498166666666667,-0.6082000000000001,-0.15600000000000003,0.010000000000000009,-0.28200000000000003,67.498,-0.005499999999999949,-0.296375,-0.21799999999999908,100.0,1.0,1.0,208.26333333333332,0.0,0.0,0.0,0.0,0.0,0.0,0.0,8827.5,0.0,55.0,5.0,242.96666666666667,0.0,0.0,0.0,0.0,0.0,0.0,1.0,0.0,0.7079999999999984,0.7079999999999984,0.0,0.0,0.0,55.0,616.79921,10000.0,85.000001,85.000001,85.000001,85.000001,395.0,0.0,0.0,0.0,1.0,166.665,49.866,49.866,48.676,48.676,34.0,-25.055,25.314,-27.856666666666666,27.3875,0.0,1782.575,-0.3200000000000003,100.0,29.877,29.799,42.369,42.416,0.0,0.0,100.0,0.0,0.0,0.0,0.0,3325.125,3303.6,3990.0,4069.0,304.843,304.201,315.17375,314.73075,21.9418,20.6186,21.9639,21.4522,314.999998,314.999998,324.999988,324.999988,99.5595,99.50783333333334,99.57101428571428,99.54845714285715,0.08800000000000008,-0.0645,-0.12066666666666659,0.10200000000000009,-0.03833333333332689,-0.04333333333332945,1.5586666666666666,1.548,38.135999999999996,29.866500000000002,38.274,35.076,56.417,35.4915,60.845,53.006,54.361000000000004,34.6015,59.415,51.287,53.547,34.146,59.3645,50.673500000000004,-0.1186666666666667,-0.0625,0.10731,0.10497500000000001,0.0,211.35000000000002,211.365,208.26333333333332,208.26333333333332,0.0,0.0
15,0.0,0.0,0.0,1.0,1.0,0.0,0.0,1.0,0.0,100.0,1.0,1.1856,26.0,0.0,0.0,0.0,59.999996,0.0,26.0,26.0,26.0,26.0,0.026124999999999954,0.2821,-0.047325,291.84,-2.6763,-2.642125,-1.5826,-1.48475,-225.45,215.95499999999998,190.6815,0.0,0.0,0.0,0.0,0.03079999999999994,-5.498166666666667,-5.498166666666667,-0.5983,0.20300000000000007,0.03699999999999992,-0.621,67.627,0.0049000000000001265,-0.27835,-0.23399999999999999,100.0,1.0,1.0,208.61666666666667,0.0,0.0,0.0,0.0,0.0,0.0,0.0,8842.4,0.0,55.0,5.0,243.43,1.0,0.0,0.0,0.0,0.0,0.0,1.0,0.0,0.7560000000000002,0.7560000000000002,0.0,0.0,1.0,55.0,616.79921,10000.0,85.000001,85.000001,85.000001,85.000001,395.0,0.0,0.0,0.0,1.0,166.665,50.049,50.049,48.629999999999995,48.629999999999995,34.0,-23.8825,25.084,-27.78,29.5825,0.0,1782.528,-0.23499999999999943,100.0,29.928,29.887999999999998,42.164,42.51,0.0,0.0,100.0,0.0,0.0,0.0,0.0,3181.5,3241.8,4009.5,4276.8,305.26233333333334,304.30066666666664,315.15125,314.235,21.9511,20.6241,21.9739,21.4608,314.999998,314.999998,324.999988,324.999988,99.5595,99.50783333333334,99.57115714285715,99.54858571428572,0.0887500000000001,-0.0635,-0.10716666666666663,0.1260000000000001,-0.061666666666667425,-0.036666666666668846,1.5313333333333334,1.5314999999999999,38.195,29.901,38.337,35.129999999999995,56.408,35.5305,60.875,53.062,54.352000000000004,34.6375,59.443,51.341,53.537,34.1805,59.3895,50.7265,-0.10733333333333328,-0.06950000000000012,0.10432500000000001,0.11016500000000001,0.0,211.79000000000002,211.78,208.61666666666667,208.61666666666667,0.0,0.0
16,0.0,0.0,0.0,1.0,1.0,0.0,0.0,1.0,0.0,100.0,1.0,1.1856,26.0,0.0,0.0,0.0,59.999996,0.0,26.0,26.0,26.0,26.0,0.006000000000000005,0.26160000000000005,-0.0164,291.809,-2.7204,-2.604125,-1.5509,-1.552125,-222.0,215.94,190.659375,0.0,0.0,0.0,0.0,0.03279999999999994,-5.498166666666667,-5.498166666666667,-0.6215,-0.6196666666666667,0.01855555555555566,0.014000000000000012,67.762,0.012700000000000156,-0.29700000000000004,-0.20399999999999974,100.0,1.0,1.0,209.07333333333332,0.0,0.0,0.0,0.0,0.0,0.0,0.0,8861.9,0.0,55.0,5.0,243.92000000000002,0.0,0.0,0.0,0.0,0.0,0.0,1.0,0.0,0.8069999999999986,0.8069999999999986,0.0,0.0,0.0,55.0,616.79921,10000.0,85.000001,85.000001,85.000001,85.000001,395.0,0.0,0.0,0.0,1.0,166.665,49.82,49.82,48.538,48.538,34.0,-25.375,26.738,-26.36,29.07,0.0,1782.477,-0.14499999999999957,100.0,29.797,29.769,42.516999999999996,42.468,0.0,0.0,100.0,0.0,0.0,0.0,0.0,3313.5,3449.4,3932.125,4045.7,304.85633333333334,303.9716666666667,315.25025,314.82225,21.9608,20.63,21.9847,21.47,314.999998,314.999998,324.999988,324.999988,99.55951428571429,99.50785,99.5713,99.54874285714286,0.09175,-0.051999999999999935,-0.09916666666666663,0.1373333333333333,-0.03999999999999915,-0.054999999999999716,1.554,1.5390000000000001,38.254999999999995,29.9375,38.403999999999996,35.1875,56.394999999999996,35.572,60.9095,53.12,54.34,34.6765,59.4745,51.3965,53.524,34.2175,59.418,50.781,-0.09866666666666668,-0.07699999999999996,0.11146,0.10958500000000002,0.0,212.175,212.175,209.07333333333332,209.07333333333332,0.0,0.0
17,0.0,0.0,0.0,1.0,1.0,0.0,0.0,1.0,0.0,100.0,1.0,1.1856,26.0,0.0,0.0,0.0,59.999996,0.0,26.0,26.0,26.0,26.0,-0.0022499999999999742,0.2905,0.020775000000000002,291.336,-2.6785,-2.591125,-1.588,-1.5170000000000001,-218.34,215.925,190.6355,0.0,0.0,0.0,0.0,0.03493333333333337,-5.498166666666667,-5.498166666666667,-0.6065,0.33866666666666667,-0.0033333333333334103,0.9530000000000001,67.907,0.009300000000000086,-0.274975,-0.07000000000000028,100.0,1.0,1.0,209.40333333333334,0.0,0.0,0.0,0.0,0.0,0.0,0.0,8875.9,0.0,55.0,5.0,244.43666666666667,1.0,0.0,0.0,0.0,0.0,0.0,1.0,0.0,0.8610000000000007,0.8610000000000007,0.0,0.0,1.0,55.0,616.79921,10000.0,85.000001,85.000001,85.000001,85.000001,395.0,0.0,0.0,0.0,1.0,166.665,49.622,49.622,48.019,48.019,34.0,-24.48,25.714,-30.196666666666665,30.35,0.0,1782.422,-0.21999999999999886,100.0,30.325,29.961,42.486000000000004,42.45,0.0,0.0,100.0,0.0,0.0,0.0,0.0,3323.75,3315.4,4323.875,4315.3,304.71,304.3743333333333,314.3865,314.26475,21.9714,20.6363,21.996,21.4797,314.999998,314.999998,324.999988,324.999988,99.55952857142857,99.50785,99.57144285714286,99.54888571428572,0.10675000000000012,-0.045499999999999985,-0.09816666666666662,0.1266666666666667,-0.03333333333333144,-0.04333333333332945,1.4986666666666668,1.5085000000000002,38.321,29.9765,38.474999999999994,35.248,56.385999999999996,35.6165,60.9445,53.1815,54.331,34.7175,59.507,51.456,53.513999999999996,34.257,59.447,50.8395,-0.1096666666666668,-0.07350000000000012,0.105755,0.10669000000000001,0.0,212.64499999999998,212.655,209.40333333333334,209.40333333333334,0.0,0.0
18,0.0,0.0,0.0,1.0,1.0,0.0,0.0,1.0,0.0,100.0,1.0,1.1856,26.0,0.0,0.0,0.0,59.999996,0.0,26.0,26.0,26.0,26.0,-0.013249999999999984,0.25960000000000005,0.002975,291.275,-2.709,-2.5635000000000003,-1.603,-1.465125,-215.07999999999998,215.9125,190.614375,0.0,0.0,0.0,0.0,0.036833333333333385,-5.498166666666667,-5.498166666666667,-0.622,-0.4053333333333333,0.01633333333333331,0.758,68.033,0.008199999999999985,-0.29675,-0.1200000000000001,100.0,1.0,1.0,209.8466666666667,0.0,0.0,0.0,0.0,0.0,0.0,0.0,8894.6,0.0,55.0,5.0,244.89333333333335,0.0,0.0,0.0,0.0,0.0,0.0,1.0,0.0,0.9089999999999989,0.9089999999999989,0.0,0.0,0.0,55.0,616.79921,10000.0,85.000001,85.000001,85.000001,85.000001,395.0,0.0,0.0,0.0,1.0,166.665,49.24,49.24,48.065,48.065,34.0,-25.72,27.334,-28.693333333333335,28.5675,0.0,1782.374,-0.21499999999999986,100.0,30.181,29.989,42.742000000000004,42.763,0.0,0.0,100.0,0.0,0.0,0.0,0.0,3376.875,3546.5,4069.5,4186.8,304.596,303.665,314.97375,314.54675,21.9807,20.6418,22.0061,21.4884,314.999998,314.999998,324.999988,324.999988,99.55954285714286,99.50785,99.57158571428572,99.54902857142856,0.09600000000000009,-0.04949999999999999,-0.10849999999999993,0.1280000000000001,-0.03999999999999915,-0.04833333333333201,1.5316666666666667,1.53,38.379000000000005,30.011,38.538,35.3025,56.376999999999995,35.6555,60.976,53.238,54.322,34.7535,59.536500000000004,51.5105,53.504,34.2915,59.4735,50.8925,-0.1096666666666668,-0.07200000000000006,0.110515,0.10686500000000002,0.0,213.015,213.005,209.8466666666667,209.8466666666667,0.0,0.0
19,0.0,0.0,0.0,1.0,1.0,0.0,0.0,1.0,0.0,100.0,1.0,1.1856,26.0,0.0,0.0,0.0,59.999996,0.0,26.0,26.0,26.0,26.0,0.008625000000000105,0.28100000000000014,0.0565,290.894,-2.6208,-2.6713750000000003,-1.6109,-1.45525,-211.81,215.9,190.593125,0.0,0.0,0.0,0.0,0.0387333333333334,-5.498166666666667,-5.498166666666667,-0.608,0.8180000000000001,0.01855555555555566,0.7669999999999999,68.15899999999999,0.008099999999999996,-0.281325,-0.1200000000000001,100.0,1.0,1.0,210.18666666666667,0.0,0.0,0.0,0.0,0.0,0.0,0.0,8909.0,0.0,55.0,5.0,245.34666666666666,1.0,0.0,0.0,0.0,0.0,0.0,1.0,0.0,0.9570000000000007,0.9570000000000007,0.0,0.0,1.0,55.0,616.79921,10000.0,85.000001,85.000001,85.000001,85.000001,395.0,0.0,0.0,0.0,1.0,166.665,48.95,48.95,47.852000000000004,47.852000000000004,34.0,-24.1175,26.862000000000002,-29.733333333333334,30.66,0.0,1782.327,-0.17999999999999972,100.0,30.743000000000002,30.424,42.613,42.75,0.0,0.0,100.0,0.0,0.0,0.0,0.0,3304.125,3395.7,4236.25,4428.1,304.665,303.903,314.61525,314.02,21.990099999999998,20.6475,22.0161,21.4971,314.999998,314.999998,324.999988,324.999988,99.55955714285714,99.50786666666667,99.57171428571428,99.54915714285714,0.10125000000000006,-0.0595,-0.09816666666666662,0.1323333333333332,-0.03166666666666629,-0.061666666666667425,1.509,1.5154999999999998,38.438,30.0465,38.601,35.357,56.370000000000005,35.6965,61.006,53.293,54.315,34.7915,59.564,51.5635,53.495,34.328,59.4985,50.945,-0.10799999999999987,-0.08499999999999996,0.10373,0.10652,0.0,213.435,213.445,210.18666666666667,210.18666666666667,0.0,0.0
20,0.0,0.0,0.0,1.0,1.0,0.0,0.0,1.0,0.0,100.0,1.0,1.1856,26.0,0.0,0.0,0.0,59.999996,0.0,26.0,26.0,26.0,26.0,0.024375000000000036,0.25260000000000016,-0.029125,291.351,-2.7216,-2.6233750000000002,-1.5348000000000002,-1.581,-208.32999999999998,215.885,190.57075,0.0,0.0,0.0,0.0,0.0407333333333334,-5.498166666666667,-5.498166666666667,-0.6182000000000001,-1.1373333333333333,0.012444444444444258,-0.9660000000000002,68.294,0.008000000000000007,-0.298,-0.02799999999999958,100.0,1.0,1.0,210.57333333333332,0.0,0.0,0.0,0.0,0.0,0.0,0.0,8925.4,0.0,55.0,5.0,245.83333333333334,0.0,0.0,0.0,0.0,0.0,0.0,0.0,0.0,1.0079999999999991,1.0079999999999991,0.0,0.0,0.0,55.0,616.79921,10000.0,85.000001,85.000001,85.000001,85.000001,395.0,0.0,0.0,0.0,1.0,166.665,49.881,49.881,47.653,47.653,34.0,-24.985,24.586,-28.353333333333335,30.142500000000002,0.0,1782.276,-0.09999999999999787,100.0,30.001,30.163,43.077,43.237,0.0,0.0,100.0,0.0,0.0,0.0,0.0,3271.375,3248.4,4127.25,4100.0,305.1,304.383,314.809,314.57975,21.9998,20.6533,22.027,21.5065,314.999998,314.999998,324.999988,324.999988,99.55957142857143,99.50786666666667,99.57187142857143,99.54931428571429,0.08949999999999991,-0.06974999999999998,-0.10666666666666658,0.133,-0.046666666666666856,-0.021666666666668277,1.4956666666666667,1.4849999999999999,38.498999999999995,30.083,38.669,35.4155,56.357,35.7375,61.042,53.353,54.303,34.829499999999996,59.5975,51.6215,53.483000000000004,34.3645,59.5285,51.002,-0.10066666666666668,-0.08050000000000024,0.09871,0.11608,0.0,213.81,213.785,210.57333333333332,210.57333333333332,0.0,0.0
21,0.0,0.0,0.0,1.0,1.0,0.0,0.0,1.0,0.0,100.0,1.0,1.1856,26.0,0.0,0.0,0.0,59.999996,0.0,26.0,26.0,26.0,26.0,-0.006624999999999992,0.2751000000000001,-0.056525000000000006,291.534,-2.6767000000000003,-2.6345,-1.5951,-1.5425,-204.84,215.8725,190.547625,0.0,0.0,0.0,0.0,0.04276666666666651,-5.498166666666667,-5.498166666666667,-0.6337,0.5676666666666668,-0.004444444444444251,0.40900000000000003,68.423,0.0017000000000000348,-0.28845000000000004,-0.03200000000000003,100.0,1.0,1.0,211.14666666666668,0.0,0.0,0.0,0.0,0.0,0.0,0.0,8949.8,0.0,55.0,5.0,246.29666666666668,1.0,0.0,0.0,0.0,0.0,0.0,0.0,0.0,1.059000000000001,1.059000000000001,0.0,0.0,1.0,55.0,616.79921,10000.0,85.000001,85.000001,85.000001,85.000001,395.0,0.0,0.0,0.0,1.0,166.665,49.454,49.454,48.492,48.492,34.0,-24.505,26.438,-27.913333333333334,27.9125,0.0,1782.224,-0.18999999999999773,100.0,30.412,30.125,42.569,42.655,0.0,0.0,100.0,0.0,0.0,0.0,0.0,3315.875,3366.6,4054.0,4033.4,304.74033333333335,304.2056666666667,315.08575,314.94875,22.0097,20.6593,22.0376,21.5155,314.999998,314.999998,324.999988,324.999988,99.55957142857143,99.50788333333334,99.572,99.54945714285714,0.10475000000000012,-0.04999999999999993,-0.10466666666666657,0.1233333333333333,-0.01999999999999602,-0.054999999999999716,1.5926666666666667,1.572,38.561,30.1205,38.735,35.472,56.349000000000004,35.7805,61.071,53.408500000000004,54.295,34.869,59.624,51.675,53.473,34.4025,59.552,51.054,-0.11033333333333317,-0.07650000000000023,0.10558000000000001,0.109935,0.0,214.22500000000002,214.255,211.14666666666668,211.14666666666668,0.0,0.0
22,0.0,0.0,0.0,1.0,1.0,0.0,0.0,1.0,0.0,100.0,1.0,1.1856,26.0,0.0,0.0,0.0,59.999996,0.0,26.0,26.0,26.0,26.0,-0.001375000000000015,0.2682,-0.0018750000000000001,291.168,-2.6170999999999998,-2.684625,-1.5964,-1.5246250000000001,-201.55,215.86,190.52525,0.0,0.0,0.0,0.0,0.04469999999999996,-5.498166666666667,-5.498166666666667,-0.6166,-0.07333333333333336,0.009444444444444366,1.097,68.55,-0.0010999999999999899,-0.2755,-0.08000000000000007,100.0,1.0,1.0,211.35333333333335,0.0,0.0,0.0,0.0,0.0,0.0,0.0,8958.5,0.0,55.0,5.0,246.75333333333333,0.0,0.0,0.0,0.0,0.0,0.0,0.0,0.0,1.1069999999999993,1.1069999999999993,0.0,0.0,0.0,55.0,616.79921,10000.0,85.000001,85.000001,85.000001,85.000001,395.0,0.0,0.0,0.0,1.0,166.665,49.744,49.744,47.592,47.592,34.0,-22.5275,25.55,-29.716666666666665,30.4675,0.0,1782.176,-0.25,100.0,30.445,30.21,42.97,42.957,0.0,0.0,100.0,0.0,0.0,0.0,0.0,3105.0,3289.3,4178.0,4368.1,305.28366666666665,304.36833333333334,314.7005,314.1355,22.019,20.6649,22.0478,21.5243,314.999998,314.999998,324.999988,324.999988,99.5596,99.50788333333334,99.57214285714285,99.54958571428571,0.09850000000000003,-0.06699999999999995,-0.10849999999999993,0.11699999999999999,-0.041666666666671404,-0.04333333333332945,1.4996666666666667,1.501,38.619,30.1555,38.799,35.527,56.34,35.82,61.104,53.465,54.286,34.9055,59.655,51.7295,53.463,34.4375,59.58,51.1075,-0.11033333333333317,-0.07600000000000007,0.11194000000000001,0.10230500000000001,0.0,214.64,214.63,211.35333333333335,211.35333333333335,0.0,0.0
23,0.0,0.0,0.0,1.0,1.0,0.0,0.0,1.0,0.0,100.0,1.0,1.1856,26.0,0.0,0.0,0.0,59.999996,0.0,26.0,26.0,26.0,26.0,0.008124999999999938,0.2479,-0.0702,291.122,-2.6475,-2.63225,-1.6454,-1.503625,-198.05,215.8475,190.501875,0.0,0.0,0.0,0.0,0.04673333333333329,-5.498166666666667,-5.498166666666667,-0.6374000000000001,-0.10166666666666657,0.002555555555555644,-0.5470000000000002,68.68,0.0013000000000000789,-0.3034,0.02400000000000002,100.0,1.0,1.0,211.89666666666668,0.0,0.0,0.0,0.0,0.0,0.0,0.0,8981.5,0.0,55.0,5.0,247.22333333333336,1.0,0.0,0.0,0.0,0.0,0.0,0.0,0.0,1.1580000000000013,1.1580000000000013,0.0,0.0,1.0,55.0,616.79921,10000.0,85.000001,85.000001,85.000001,85.000001,395.0,0.0,0.0,0.0,1.0,333.33500000000004,48.828,48.828,48.584,48.584,34.0,-26.599999999999998,25.037999999999997,-28.71,26.5625,0.0,1782.124,-0.2049999999999983,100.0,30.65,30.518,42.952,43.212,0.0,0.0,100.0,0.0,0.0,0.0,0.0,3528.375,3289.0,3988.625,3956.0,304.20666666666665,304.237,315.30025,315.102,22.0289,20.6709,22.0585,21.5336,314.999998,314.999998,324.999988,324.999988,99.55961428571429,99.5079,99.57228571428571,99.54974285714286,0.09125000000000005,-0.07025000000000003,-0.11699999999999999,0.11699999999999999,-0.041666666666671404,-0.04333333333332945,1.5576666666666668,1.5585,38.681,30.192999999999998,38.866,35.585,56.331,35.863,61.1365,53.5235,54.277,34.945,59.685,51.786,53.453,34.4755,59.607,51.1625,-0.10866666666666669,-0.08099999999999996,0.10258500000000001,0.108475,0.0,215.03,215.015,211.89666666666668,211.89666666666668,0.0,0.0
24,0.0,0.0,0.0,1.0,1.0,0.0,0.0,1.0,0.0,100.0,1.0,1.1856,26.0,0.0,0.0,0.0,59.999996,0.0,26.0,26.0,26.0,26.0,0.0011250000000000426,0.27449999999999997,-0.052525,291.397,-2.6752000000000002,-2.638625,-1.5366,-1.52825,-194.55,215.835,190.477875,0.0,0.0,0.0,0.0,0.048766666666666514,-5.498166666666667,-5.498166666666667,-0.6444000000000001,-0.7003333333333333,0.01922222222222203,1.1139999999999999,68.813,0.00649999999999995,-0.292125,-0.14999999999999947,100.0,1.0,1.0,212.18666666666667,0.0,0.0,0.0,0.0,0.0,0.0,0.0,8993.8,0.0,55.0,5.0,247.7,0.0,0.0,0.0,0.0,0.0,0.0,0.0,0.0,1.2089999999999996,1.2089999999999996,0.0,0.0,0.0,55.0,616.79921,10000.0,85.000001,85.000001,85.000001,85.000001,395.0,0.0,0.0,0.0,1.0,166.665,50.018,50.018,47.684,47.684,34.0,-22.849999999999998,25.244,-28.376666666666665,29.5075,0.0,1782.075,-0.23999999999999844,100.0,30.349,30.067,43.082,43.073,0.0,0.0,100.0,0.0,0.0,0.0,0.0,3091.0,3260.4,4130.375,4174.8,305.421,304.5203333333333,314.747,314.57775,22.0386,20.6767,22.0692,21.5428,314.999998,314.999998,324.999988,324.999988,99.55961428571429,99.50791666666667,99.57244285714286,99.54988571428571,0.09850000000000003,-0.05674999999999997,-0.10649999999999993,0.1283333333333332,-0.04833333333333201,-0.045000000000001705,1.5253333333333332,1.5075,38.741,30.2295,38.933,35.643,56.32,35.9035,61.17,53.5815,54.266999999999996,34.9825,59.716,51.842,53.442,34.510999999999996,59.6345,51.2175,-0.11399999999999988,-0.06850000000000023,0.09908,0.11127500000000001,0.0,215.425,215.425,212.18666666666667,212.18666666666667,0.0,0.0
25,0.0,0.0,0.0,1.0,1.0,0.0,0.0,1.0,0.0,100.0,1.0,1.1856,26.0,0.0,0.0,0.0,59.999996,0.0,26.0,26.0,26.0,26.0,-0.0030000000000000027,0.25560000000000005,-0.030775,291.183,-2.7365,-2.603625,-1.5804,-1.5342500000000001,-191.24,215.8225,190.453875,0.0,0.0,0.0,0.0,0.05066666666666653,-5.498166666666667,-5.498166666666667,-0.6713,0.123,0.01822222222222214,-0.04499999999999993,68.93299999999999,0.007200000000000095,-0.2973,-0.16600000000000037,100.0,1.0,1.0,212.69666666666666,0.0,0.0,0.0,0.0,0.0,0.0,0.0,9015.5,0.0,55.0,5.0,248.13333333333333,1.0,0.0,0.0,0.0,0.0,0.0,0.0,0.0,1.256999999999998,1.256999999999998,0.0,0.0,1.0,55.0,616.79921,10000.0,85.000001,85.000001,85.000001,85.000001,395.0,0.0,0.0,0.0,1.0,166.665,48.798,48.798,48.477000000000004,48.477000000000004,34.0,-26.665,28.014,-26.683333333333334,28.005,0.0,1782.026,-0.259999999999998,100.0,30.41,30.393,42.706,42.868,0.0,0.0,100.0,0.0,0.0,0.0,0.0,3470.875,3568.0,3899.125,4032.0,304.3736666666667,303.5656666666667,315.424,314.92,22.0477,20.6824,22.0792,21.5515,314.999998,314.999998,324.999988,324.999988,99.55962857142858,99.50791666666667,99.57257142857142,99.55001428571428,0.09949999999999992,-0.04974999999999996,-0.10699999999999998,0.12566666666666682,-0.03333333333333144,-0.04833333333333201,1.578,1.569,38.798,30.265,38.995000000000005,35.6965,56.31,35.9435,61.1975,53.634,54.257,35.0195,59.7415,51.8925,53.431,34.547,59.657,51.266999999999996,-0.11199999999999988,-0.07299999999999995,0.11398000000000001,0.10124000000000001,0.0,215.805,215.79000000000002,212.69666666666666,212.69666666666666,0.0,0.0
26,0.0,0.0,0.0,1.0,1.0,0.0,0.0,1.0,0.0,100.0,1.0,1.1856,26.0,0.0,0.0,0.0,59.999996,0.0,26.0,26.0,26.0,26.0,0.01100000000000012,0.26890000000000014,0.06810000000000001,290.115,-2.692,-2.675375,-1.6297000000000001,-1.52825,-187.72,215.81,190.42825,0.0,0.0,0.0,0.0,0.0527333333333333,-5.498166666666667,-5.498166666666667,-0.6308,0.5023333333333333,0.0040000000000000036,-0.6440000000000001,69.06700000000001,0.009500000000000064,-0.272,-0.08200000000000074,100.0,1.0,1.0,212.81,0.0,0.0,0.0,0.0,0.0,0.0,0.0,9020.2,0.0,55.0,5.0,248.61333333333334,0.0,0.0,0.0,0.0,0.0,0.0,0.0,0.0,1.3079999999999998,1.3079999999999998,0.0,0.0,0.0,55.0,616.79921,10000.0,85.000001,85.000001,85.000001,85.000001,395.0,0.0,0.0,0.0,1.0,333.33500000000004,48.66,48.66,46.692,46.692,34.0,-25.73,25.406,-33.79333333333334,32.47,0.0,1781.973,-0.28999999999999915,100.0,31.041,31.091,43.201,43.431,0.0,0.0,100.0,0.0,0.0,0.0,0.0,3441.875,3231.7,4585.5,4498.4,304.51866666666666,304.33666666666664,313.84775,313.771,22.0577,20.6886,22.09,21.5609,314.999998,314.999998,324.999988,324.999988,99.55964285714286,99.50793333333333,99.57272857142857,99.55018571428572,0.10224999999999995,-0.0625,-0.10566666666666658,0.1246666666666667,-0.041666666666671404,-0.04833333333333201,1.4296666666666666,1.4315,38.86,30.3035,39.063,35.7555,56.303,35.99,61.2355,53.698499999999996,54.25,35.0625,59.7765,51.954499999999996,53.422,34.588,59.6885,51.328,-0.11733333333333329,-0.07299999999999995,0.10437,0.11610000000000001,0.0,216.245,216.24,212.81,212.81,0.0,0.0
27,0.0,0.0,0.0,1.0,1.0,0.0,0.0,1.0,0.0,100.0,1.0,1.1856,26.0,0.0,0.0,0.0,59.999996,0.0,26.0,26.0,26.0,26.0,0.019749999999999934,0.23310000000000008,-0.06435,290.802,-2.6864,-2.6425,-1.6259000000000001,-1.596875,-184.2,215.7975,190.40375,0.0,0.0,0.0,0.0,0.05476666666666652,-5.498166666666667,-5.498166666666667,-0.6643,-0.9453333333333334,0.00533333333333319,0.565,69.193,0.009000000000000119,-0.31930000000000003,-0.21999999999999975,100.0,1.0,1.0,213.41666666666669,0.0,0.0,0.0,0.0,0.0,0.0,0.0,9045.9,0.0,55.0,5.0,249.07333333333332,1.0,0.0,0.0,0.0,0.0,0.0,0.0,0.0,1.3589999999999982,1.3589999999999982,0.0,0.0,1.0,55.0,616.79921,10000.0,85.000001,85.000001,85.000001,85.000001,395.0,0.0,0.0,0.0,1.0,166.665,48.95,48.95,47.531,47.531,34.0,-23.982499999999998,27.3,-27.576666666666664,29.0825,0.0,1781.924,-0.375,100.0,30.816,30.743000000000002,43.737,43.766,0.0,0.0,100.0,0.0,0.0,0.0,0.0,3293.75,3427.6,3909.625,3976.1000000000004,304.92333333333335,303.97866666666664,315.289,315.0135,22.0673,20.6946,22.1009,21.5703,314.999998,314.999998,324.999988,324.999988,99.55965714285715,99.50793333333333,99.57287142857143,99.55031428571428,0.11175000000000002,-0.04674999999999996,-0.10383333333333333,0.13600000000000012,-0.030000000000001137,-0.051666666666669414,1.53,1.5270000000000001,38.921,30.3415,39.131,35.814499999999995,56.294,36.0295,61.266999999999996,53.7535,54.241,35.0995,59.806,52.007999999999996,53.412,34.623,59.715,51.379999999999995,-0.1206666666666667,-0.06199999999999983,0.105395,0.10911000000000001,0.0,216.57,216.60000000000002,213.41666666666669,213.41666666666669,0.0,0.0
28,0.0,0.0,0.0,1.0,1.0,0.0,0.0,1.0,0.0,100.0,1.0,1.1856,26.0,0.0,0.0,0.0,59.999996,0.0,26.0,26.0,26.0,26.0,0.023125000000000062,0.264,-0.046200000000000005,290.848,-2.6418,-2.63075,-1.6142,-1.53675,-180.87,215.785,190.37975,0.0,0.0,0.0,0.0,0.05669999999999997,-5.498166666666667,-5.498166666666667,-0.6623,0.6656666666666669,0.0,0.7989999999999999,69.313,0.012199999999999989,-0.288875,-0.2860000000000005,100.0,1.0,1.0,213.81,0.0,0.0,0.0,0.0,0.0,0.0,0.0,9062.7,0.0,55.0,5.0,249.5,0.0,0.0,0.0,0.0,0.0,0.0,0.0,0.0,1.407,1.407,0.0,0.0,0.0,55.0,616.79921,10000.0,85.000001,85.000001,85.000001,85.000001,395.0,0.0,0.0,0.0,1.0,333.33500000000004,48.903999999999996,48.903999999999996,47.958,47.958,34.0,-23.215,26.956,-27.753333333333334,29.8575,0.0,1781.875,-0.3550000000000004,100.0,30.997,30.688,43.083,43.311,0.0,0.0,100.0,0.0,0.0,0.0,0.0,3270.75,3383.9,4075.75,4150.6,304.7803333333333,304.10766666666666,315.095,314.699,22.0765,20.7004,22.1108,21.5789,314.999998,314.999998,324.999988,324.999988,99.55967142857143,99.50795,99.57301428571428,99.55045714285714,0.11975000000000002,-0.04325000000000001,-0.08999999999999997,0.14100000000000001,-0.036666666666668846,-0.05666666666667197,1.5536666666666668,1.5405,38.977999999999994,30.377000000000002,39.192,35.868,56.287,36.0695,61.294,53.806,54.235,35.135999999999996,59.831,52.0585,53.403999999999996,34.658500000000004,59.737,51.4295,-0.12366666666666681,-0.06850000000000023,0.106425,0.11520000000000001,0.0,217.0,217.015,213.81,213.81,0.0,0.0
29,0.0,0.0,0.0,1.0,1.0,0.0,0.0,1.0,0.0,100.0,1.0,1.1856,26.0,0.0,0.0,0.0,59.999996,0.0,26.0,26.0,26.0,26.0,0.02662500000000012,0.2490000000000001,0.01205,290.619,-2.6362,-2.674,-1.5725,-1.539,-177.32999999999998,215.775,190.353375,0.0,0.0,0.0,0.0,0.05876666666666652,-5.498166666666667,-5.498166666666667,-0.6699,-0.7116666666666667,0.003666666666666707,-0.7570000000000001,69.444,0.017900000000000027,-0.29400000000000004,-0.2939999999999996,100.0,1.0,1.0,214.05666666666667,0.0,0.0,0.0,0.0,0.0,0.0,0.0,9073.1,0.0,55.0,5.0,249.97333333333336,1.0,0.0,0.0,0.0,0.0,0.0,0.0,0.0,1.4579999999999984,1.4579999999999984,0.0,0.0,1.0,55.0,616.79921,10000.0,85.000001,85.000001,85.000001,85.000001,395.0,0.0,0.0,0.0,1.0,166.665,49.042,49.042,47.333,47.333,34.0,-24.5925,26.376,-28.743333333333336,30.21,0.0,1781.826,-0.33500000000000085,100.0,30.485,30.781,43.393,43.712,0.0,0.0,100.0,0.0,0.0,0.0,0.0,3398.75,3299.0,4143.25,4201.0,304.69666666666666,304.148,314.81825,314.42025,22.086,20.7064,22.1216,21.5883,314.999998,314.999998,324.999988,324.999988,99.55968571428572,99.50795,99.57315714285714,99.55061428571429,0.10525000000000007,-0.05399999999999994,-0.10233333333333339,0.12949999999999995,-0.04333333333332945,-0.045000000000001705,1.508,1.4835,39.038,30.415,39.26,35.927,56.277,36.1105,61.3285,53.8655,54.224999999999994,35.174,59.863,52.116,53.393,34.695,59.7655,51.4855,-0.119,-0.06999999999999984,0.111295,0.10970500000000001,0.0,217.35500000000002,217.38,214.05666666666667,214.05666666666667,0.0,0.0
30,0.0,0.0,0.0,1.0,1.0,0.0,0.0,1.0,0.0,100.0,1.0,1.1856,26.0,0.0,0.0,0.0,59.999996,0.0,26.0,26.0,26.0,26.0,0.038999999999999924,0.2533000000000001,-0.00335,290.146,-2.649,-2.565625,-1.5415,-1.597875,-174.0,215.765,190.3285,0.0,0.0,0.0,0.0,0.060699999999999976,-5.498166666666667,-5.498166666666667,-0.6652,0.859,-0.0016666666666669272,-0.6160000000000001,69.561,0.020299999999999985,-0.29195,-0.2060000000000004,100.0,1.0,1.0,214.51,0.0,0.0,0.0,0.0,0.0,0.0,0.0,9092.2,0.0,55.0,5.0,250.39666666666665,0.0,0.0,0.0,0.0,0.0,0.0,1.0,0.0,1.5060000000000002,1.5060000000000002,0.0,0.0,0.0,55.0,616.79921,10000.0,85.000001,85.000001,85.000001,85.000001,395.0,0.0,0.0,0.0,1.0,333.33500000000004,47.821,47.821,47.638,47.638,34.0,-25.77,26.23,-27.78,30.372500000000002,0.0,1781.776,-0.3149999999999977,100.0,31.403,31.467,43.222,43.698,0.0,0.0,100.0,0.0,0.0,0.0,0.0,3583.25,3366.7,4164.875,4084.2,304.0013333333333,303.9096666666667,314.8395,314.68825,22.095399999999998,20.7123,22.1316,21.5971,314.999998,314.999998,324.999988,324.999988,99.55971428571429,99.50795,99.5733,99.55075714285714,0.11875000000000013,-0.048250000000000015,-0.09083333333333332,0.13866666666666672,-0.054999999999999716,-0.02499999999999858,1.5113333333333334,1.512,39.096000000000004,30.451999999999998,39.323,35.982,56.272,36.1525,61.357,53.9195,54.22,35.213,59.8895,52.168,53.387,34.7325,59.789,51.536500000000004,-0.12366666666666681,-0.0665,0.103995,0.10741500000000001,0.0,217.785,217.765,214.51,214.51,0.0,0.0
31,0.0,0.0,0.0,1.0,1.0,0.0,0.0,1.0,0.0,100.0,1.0,1.1856,26.0,0.0,0.0,0.0,59.999996,0.0,26.0,26.0,26.0,26.0,0.017875000000000085,0.24890000000000012,0.024200000000000003,289.825,-2.7468,-2.551,-1.588,-1.595625,-170.45,215.755,190.30275,0.0,0.0,0.0,0.0,0.06276666666666653,-5.498166666666667,-5.498166666666667,-0.6537000000000001,-0.5549999999999999,0.006555555555555648,0.5700000000000001,69.69,0.023700000000000054,-0.29860000000000003,-0.32200000000000006,100.0,1.0,1.0,214.7733333333333,0.0,0.0,0.0,0.0,0.0,0.0,0.0,9103.5,0.0,55.0,5.0,250.86,1.0,0.0,0.0,0.0,0.0,0.0,1.0,0.0,1.5569999999999986,1.5569999999999986,0.0,0.0,1.0,55.0,616.79921,10000.0,85.000001,85.000001,85.000001,85.000001,395.0,0.0,0.0,0.0,1.0,333.33500000000004,48.157,48.157,46.188,46.188,34.0,-24.55,28.137999999999998,-28.61,32.9225,0.0,1781.725,-0.33999999999999986,100.0,31.247,31.344,44.101,44.284,0.0,0.0,100.0,0.0,0.0,0.0,0.0,3358.0,3597.3,4214.375,4254.8,304.74066666666664,303.58,314.5595,314.45025,22.105,20.7185,22.1425,21.6067,314.999998,314.999998,324.999988,324.999988,99.55972857142856,99.50796666666666,99.57344285714285,99.5509,0.12474999999999992,-0.03925000000000001,-0.08033333333333337,0.15933333333333333,-0.02833333333332888,-0.036666666666668846,1.4853333333333334,1.464,39.156,30.491,39.391,36.0415,56.263999999999996,36.196,61.3925,53.981,54.212,35.253,59.9225,52.227000000000004,53.378,34.771,59.8185,51.5945,-0.1233333333333333,-0.07500000000000018,0.10451500000000001,0.11289,0.0,218.115,218.13,214.7733333333333,214.7733333333333,0.0,0.0
32,0.0,0.0,0.0,1.0,1.0,0.0,0.0,1.0,0.0,100.0,1.0,1.1856,26.0,0.0,0.0,0.0,59.999996,0.0,26.0,26.0,26.0,26.0,0.02937499999999993,0.2612000000000001,-0.006575,290.115,-2.6497,-2.662875,-1.5668000000000002,-1.508625,-166.89,215.7475,190.277125,0.0,0.0,0.0,0.0,0.0648333333333333,-5.498166666666667,-5.498166666666667,-0.6687000000000001,-0.05733333333333335,-0.024222222222222367,-1.0500000000000003,69.814,0.023900000000000032,-0.30305000000000004,-0.2920000000000007,100.0,1.0,1.0,215.23666666666668,0.0,0.0,0.0,0.0,0.0,0.0,0.0,9123.1,0.0,55.0,5.0,251.30666666666667,0.0,0.0,0.0,0.0,0.0,0.0,1.0,0.0,1.6080000000000005,1.6080000000000005,0.0,0.0,0.0,55.0,616.79921,10000.0,85.000001,85.000001,85.000001,85.000001,395.0,0.0,0.0,0.0,1.0,333.33500000000004,48.477000000000004,48.477000000000004,46.951,46.951,34.0,-24.4925,26.596,-29.133333333333333,30.3475,0.0,1781.674,-0.33999999999999986,100.0,31.097,31.377,43.716,44.095,0.0,0.0,100.0,0.0,0.0,0.0,0.0,3443.125,3301.8,4219.875,4267.6,304.521,304.19966666666664,314.657,314.39475,22.1147,20.7247,22.1532,21.616,314.999998,314.999998,324.999988,324.999988,99.55974285714285,99.50796666666666,99.5736,99.55104285714286,0.119,-0.046499999999999986,-0.09966666666666657,0.1343333333333332,-0.04999999999999716,-0.05333333333332746,1.5123333333333333,1.5065,39.217,30.5295,39.457,36.1,56.257,36.2385,61.4235,54.038,54.205,35.293,59.951,52.282,53.369,34.809,59.8435,51.6485,-0.12399999999999989,-0.07050000000000001,0.11805500000000001,0.101885,0.0,218.525,218.54000000000002,215.23666666666668,215.23666666666668,0.0,0.0
33,0.0,0.0,0.0,1.0,1.0,0.0,0.0,1.0,0.0,100.0,1.0,1.1856,26.0,0.0,0.0,0.0,59.999996,0.0,26.0,26.0,26.0,26.0,0.030625000000000124,0.2599,-0.047,290.436,-2.691,-2.65325,-1.5816,-1.588125,-163.32999999999998,215.7375,190.250375,0.0,0.0,0.0,0.0,0.06689999999999996,-5.498166666666667,-5.498166666666667,-0.6792,-0.3736666666666666,-0.014222222222222136,1.321,69.94,0.02540000000000009,-0.294375,-0.2699999999999996,100.0,1.0,1.0,215.62333333333333,0.0,0.0,0.0,0.0,0.0,0.0,0.0,9139.5,0.0,55.0,5.0,251.76,1.0,0.0,0.0,0.0,0.0,0.0,1.0,0.0,1.658999999999999,1.658999999999999,0.0,0.0,1.0,55.0,616.79921,10000.0,85.000001,85.000001,85.000001,85.000001,395.0,0.0,0.0,0.0,1.0,166.665,48.828,48.828,47.394,47.394,34.0,-23.77,26.814,-27.24,31.2,0.0,1781.624,-0.28000000000000114,100.0,31.102,30.925,43.708,43.964,0.0,0.0,100.0,0.0,0.0,0.0,0.0,3285.375,3347.0,4046.625,4197.1,304.8643333333333,304.23966666666666,315.01625,314.5125,22.124299999999998,20.7307,22.1638,21.6253,314.999998,314.999998,324.999988,324.999988,99.55975714285714,99.50798333333333,99.57374285714286,99.5512,0.11875000000000013,-0.043749999999999956,-0.08583333333333332,0.1403333333333332,-0.011666666666670267,-0.041666666666671404,1.5183333333333333,1.5145,39.277,30.567,39.524,36.158,56.248000000000005,36.278999999999996,61.454499999999996,54.095,54.197,35.33,59.980000000000004,52.337,53.36,34.8445,59.8695,51.702,-0.11633333333333318,-0.06999999999999984,0.10877,0.10346000000000001,0.0,218.885,218.9,215.62333333333333,215.62333333333333,0.0,0.0
34,0.0,0.0,0.0,1.0,1.0,0.0,0.0,1.0,0.0,100.0,1.0,1.1856,26.0,0.0,0.0,0.0,59.999996,0.0,26.0,26.0,26.0,26.0,0.03887499999999999,0.2552000000000001,-0.08407500000000001,290.756,-2.7199,-2.57675,-1.6493,-1.5205,-159.76,215.73000000000002,190.222375,0.0,0.0,0.0,0.0,0.06899999999999995,-5.498166666666667,-5.498166666666667,-0.7093,-0.8180000000000001,0.011222222222222022,-0.3460000000000001,70.064,0.026499999999999968,-0.30195,-0.19399999999999995,100.0,1.0,1.0,216.01333333333332,0.0,0.0,0.0,0.0,0.0,0.0,0.0,9156.1,0.0,55.0,5.0,252.20666666666665,0.0,0.0,0.0,0.0,0.0,0.0,1.0,0.0,1.7100000000000009,1.7100000000000009,0.0,0.0,0.0,55.0,616.79921,10000.0,85.000001,85.000001,85.000001,85.000001,395.0,0.0,0.0,0.0,1.0,166.665,49.301,49.301,47.684,47.684,34.0,-23.945,25.276,-28.143333333333334,29.8525,0.0,1781.574,-0.2699999999999996,100.0,30.636,30.793,43.391,44.039,0.0,0.0,100.0,0.0,0.0,0.0,0.0,3258.375,3251.9,4070.75,4143.0,305.029,304.371,315.08425,314.64175,22.1338,20.7367,22.1744,21.6347,314.999998,314.999998,324.999988,324.999988,99.55977142857142,99.50798333333333,99.57388571428571,99.55135714285714,0.11424999999999996,-0.04674999999999996,-0.08633333333333337,0.14250000000000007,-0.05333333333332746,-0.05833333333333002,1.539,1.529,39.336,30.6045,39.59,36.216499999999996,56.239000000000004,36.319,61.4845,54.153,54.188,35.367,60.007,52.3935,53.349000000000004,34.879999999999995,59.8935,51.7565,-0.11233333333333317,-0.07050000000000001,0.10443500000000001,0.10971500000000001,0.0,219.285,219.29000000000002,216.01333333333332,216.01333333333332,0.0,0.0
35,0.0,0.0,0.0,1.0,1.0,0.0,0.0,1.0,0.0,100.0,1.0,1.1856,26.0,0.0,0.0,0.0,59.999996,0.0,26.0,26.0,26.0,26.0,0.04037500000000005,0.23940000000000006,-0.025875000000000002,290.68,-2.6893000000000002,-2.588,-1.6147,-1.512,-156.39,215.725,190.194,0.0,0.0,0.0,0.0,0.0709333333333334,-5.498166666666667,-5.498166666666667,-0.7453000000000001,-0.19833333333333336,-0.010222222222222133,-1.2229999999999999,70.18,0.02540000000000009,-0.30510000000000004,-0.17600000000000016,100.0,1.0,1.0,216.45333333333332,0.0,0.0,0.0,0.0,0.0,0.0,0.0,9174.6,0.0,55.0,5.0,252.62333333333333,1.0,0.0,0.0,0.0,0.0,0.0,1.0,0.0,1.7579999999999991,1.7579999999999991,0.0,0.0,1.0,55.0,616.79921,10000.0,85.000001,85.000001,85.000001,85.000001,395.0,0.0,0.0,0.0,1.0,166.665,48.615,48.615,47.44,47.44,34.0,-25.16,27.968,-27.306666666666665,28.155,0.0,1781.524,-0.21000000000000085,100.0,30.486,31.09,43.238,43.499,0.0,0.0,100.0,0.0,0.0,0.0,0.0,3416.875,3536.7,3991.375,3954.2,304.654,303.508,315.21725,315.10875,22.1427,20.7426,22.1843,21.6433,314.999998,314.999998,324.999988,324.999988,99.55978571428571,99.508,99.57402857142857,99.55148571428572,0.10875000000000012,-0.04625000000000001,-0.09266666666666656,0.14666666666666672,-0.03166666666666629,-0.03833333333332689,1.5643333333333334,1.5625,39.391999999999996,30.6415,39.652,36.2705,56.229,36.359,61.512,54.2035,54.178,35.4045,60.033,52.442,53.338,34.916,59.916,51.8045,-0.11099999999999999,-0.08000000000000007,0.10930500000000001,0.11464,0.0,219.64499999999998,219.64,216.45333333333332,216.45333333333332,0.0,0.0
36,0.0,0.0,0.0,1.0,1.0,0.0,0.0,1.0,0.0,100.0,1.0,1.1856,26.0,0.0,0.0,0.0,59.999996,0.0,26.0,26.0,26.0,26.0,0.03475000000000006,0.26239999999999997,0.042825,289.871,-2.6138,-2.686,-1.5626,-1.571375,-153.02,215.72,190.164625,0.0,0.0,0.0,0.0,0.07289999999999996,-5.498166666666667,-5.498166666666667,-0.7260000000000001,0.18633333333333324,-0.05288888888888854,-1.358,70.299,0.020000000000000018,-0.278625,-0.013999999999999346,100.0,1.0,1.0,216.58333333333331,0.0,0.0,0.0,0.0,0.0,0.0,0.0,9180.1,0.0,55.0,5.0,253.05333333333334,0.0,0.0,0.0,0.0,0.0,0.0,1.0,0.0,1.806000000000001,1.806000000000001,0.0,0.0,0.0,55.0,616.79921,10000.0,85.000001,85.000001,85.000001,85.000001,395.0,0.0,0.0,0.0,1.0,333.33500000000004,48.447,48.447,46.814,46.814,34.0,-24.0625,26.374,-30.606666666666666,33.2225,0.0,1781.476,-0.129999999999999,100.0,31.124,31.28,43.432,43.824,0.0,0.0,100.0,0.0,0.0,0.0,0.0,3381.875,3297.3,4416.125,4448.0,304.498,304.11333333333334,314.2515,313.8985,22.1518,20.7485,22.1943,21.6521,314.999998,314.999998,324.999988,324.999988,99.5598,99.508,99.57417142857143,99.55164285714285,0.11525000000000007,-0.058250000000000024,-0.09450000000000003,0.1353333333333333,-0.03833333333332689,-0.04833333333333201,1.459,1.461,39.449,30.677999999999997,39.715,36.326,56.222,36.4,61.542500000000004,54.259,54.171,35.442,60.061,52.4955,53.33,34.952,59.941,51.8565,-0.1056666666666668,-0.08150000000000013,0.101065,0.109225,0.0,220.05,220.035,216.58333333333331,216.58333333333331,0.0,0.0
