,ABS Active,ABS Enabled,AID Allow Tire Blankets,AID Auto Blip,AID Auto Clutch,AID Auto Shift,AID Fuel Rate,AID Ideal Line,AID Mech Damage,AID Stability,AID Tire Wear Rate,Air Density,Air Temp,Ballast,Best Lap Delta,Best Lap Time,Brake Bias,Brake Pos,Brake Temp FL,Brake Temp FR,Brake Temp RL,Brake Temp RR,CG Accel Lateral,CG Accel Longitudinal,CG Accel Vertical,CG Height,Camber FL,Camber FR,Camber RL,Camber RR,Car Coord X,Car Coord Y,Car Coord Z,Car Damage Front,Car Damage Left,Car Damage Rear,Car Damage Right,Car Pos Norm,Caster FL,Caster FR,Chassis Pitch Angle,Chassis Pitch Rate,Chassis Roll Angle,Chassis Roll Rate,Chassis Velocity X,Chassis Velocity Y,Chassis Velocity Z,Chassis Yaw Rate,Clutch Pos,DRS Active,DRS Available,Drive Train Speed,ERS Heat Charging,ERS Is Charging,ERS Max Energy,ERS Power Level,ERS Recovery Level,Engine Brake Setting,Engine Limiter,Engine RPM,Flags,Fuel Level,Gear,Ground Speed,HR Sample Clock,In Pit,KERS Charge,KERS Deployed Energy,KERS Input,KERS Max Energy,LR Sample Clock,Lap Invalidated,Lap Time,Lap Time2,Last Lap Time,Last Sector Time,MR Sample Clock,Max Fuel,Max Power,Max RPM,Max Sus Travel FL,Max Sus Travel FR,Max Sus Travel RL,Max Sus Travel RR,Max Torque,Max Turbo Boost,Num Tires Off Track,Penalties Enabled,Position,Raw Data Sample Rate,Ride Height FL,Ride Height FR,Ride Height RL,Ride Height RR,Road Temp,Self Align Torque FL,Self Align Torque FR,Self Align Torque RL,Self Align Torque RR,Session Lap Count,Session Time Left,Steering Angle,Surface Grip,Suspension Travel FL,Suspension Travel FR,Suspension Travel RL,Suspension Travel RR,TC Active,TC Enabled,Throttle Pos,Tire Dirt Level FL,Tire Dirt Level FR,Tire Dirt Level RL,Tire Dirt Level RR,Tire Load FL,Tire Load FR,Tire Load RL,Tire Load RR,Tire Loaded Radius FL,Tire Loaded Radius FR,Tire Loaded Radius RL,Tire Loaded Radius RR,Tire Pressure FL,Tire Pressure FR,Tire Pressure RL,Tire Pressure RR,Tire Radius FL,Tire Radius FR,Tire Radius RL,Tire Radius RR,Tire Rubber Grip FL,Tire Rubber Grip FR,Tire Rubber Grip RL,Tire Rubber Grip RR,Tire Slip Angle FL,Tire Slip Angle FR,Tire Slip Angle RL,Tire Slip Angle RR,Tire Slip Ratio FL,Tire Slip Ratio FR,Tire Slip Ratio RL,Tire Slip Ratio RR,Tire Temp Core FL,Tire Temp Core FR,Tire Temp Core RL,Tire Temp Core RR,Tire Temp Inner FL,Tire Temp Inner FR,Tire Temp Inner RL,Tire Temp Inner RR,Tire Temp Middle FL,Tire Temp Middle FR,Tire Temp Middle RL,Tire Temp Middle RR,Tire Temp Outer FL,Tire Temp Outer FR,Tire Temp Outer RL,Tire Temp Outer RR,Toe In FL,Toe In FR,Toe In RL,Toe In RR,Turbo Boost,Wheel Angular Speed FL,Wheel Angular Speed FR,Wheel Angular Speed RL,Wheel Angular Speed RR,Wind Direction,Wind Speed
0,0.0,0.0,0.0,1.0,1.0,0.0,0.0,1.0,0.0,100.0,1.0,1.1856,26.0,0.0,0.0,0.0,59.99999,0.0,26.0,26.0,26.0,26.0,-0.08724999999999994,0.2845,0.0354,290.237,-2.6157,-2.550222222222222,-1.5005000000000002,-1.5405555555555557,-275.61,216.35750000000002,190.983375,0.0,0.0,0.0,0.0,0.0016333333333333332,-5.498166666666667,-5.498166666666667,-0.7456,2.152,-0.005111111111111288,-0.22599999999999998,65.358,-0.024166666666666448,-0.4408,1.0550000000000002,100.0,1.0,1.0,201.85333333333332,0.0,0.0,0.0,0.0,0.0,0.0,0.0,8555.8,0.0,55.0,5.0,235.26666666666665,0.0,0.0,0.0,0.0,0.0,0.0,0.0,0.0,0.0030000000000001137,0.0030000000000001137,0.0,0.0,0.0,55.0,616.79921,10000.0,85.0,85.0,85.0,85.0,395.0,0.0,0.0,0.0,1.0,20.0,43.045,43.045,50.858000000000004,50.858000000000004,34.0,-30.8275,27.082,-29.55,25.054,0.0,1783.48,0.7750000000000004,100.0,34.844,34.468,39.344,39.386,0.0,0.0,100.0,0.0,0.0,0.0,0.0,3751.75,4102.2,4089.8888888888887,3960.3,303.3065,301.7656666666667,315.0095,315.057,21.8714,20.6412,22.04911111111111,21.408,314.99999,314.99999,324.99998,324.99998,99.56012857142858,99.5097,99.58535714285715,99.55197142857143,0.04574999999999996,-0.1383333333333332,-0.15366666666666662,0.08133333333333326,-0.01666666666666572,-0.04333333333332945,1.5583333333333333,1.619,37.696,30.0075,38.807,34.8005,57.046,36.448,65.8435,54.4905,55.065,35.522999999999996,64.341,52.664500000000004,54.36,35.0745,64.4265,52.0165,-0.051500000000000004,-0.1815,0.10525000000000001,0.11082000000000002,0.0,204.845,204.775,201.85333333333332,201.85333333333332,0.0,0.0
1,0.0,0.0,0.0,1.0,1.0,0.0,0.0,1.0,0.0,100.0,1.0,1.1856,26.0,0.0,0.0,0.0,59.999996,0.0,26.0,26.0,26.0,26.0,-0.10287499999999994,0.28900000000000015,0.1908,289.581,-2.552,-2.648,-1.5296,-1.52,-272.28,216.35250000000002,190.9635,0.0,0.0,0.0,0.0,0.0035666666666666668,-5.498166666666667,-5.498166666666667,-0.6817000000000001,-0.8493333333333333,-0.03944444444444439,-0.732,65.499,-0.04249999999999998,-0.4077333333333334,1.4075000000000002,100.0,1.0,1.0,201.96,0.0,0.0,0.0,0.0,0.0,0.0,0.0,8560.3,0.0,55.0,5.0,235.7733333333333,1.0,0.0,0.0,0.0,0.0,0.0,0.0,0.0,0.053999999999998494,0.053999999999998494,0.0,0.0,1.0,55.0,616.79921,10000.0,85.000001,85.000001,85.000001,85.000001,395.0,0.0,0.0,0.0,1.0,166.665,44.495,44.495,49.576,49.576,34.0,-30.509999999999998,21.554000000000002,-33.1175,28.528,0.0,1783.43,0.7700000000000005,100.0,34.513,34.169,41.725,40.765,0.0,0.0,100.0,0.0,0.0,0.0,0.0,3752.0,3353.7,4173.111111111111,4640.8,303.5135,304.1863333333333,314.7475,313.3265,21.8822,20.6476,22.061444444444444,21.4178,314.999998,314.999998,324.999988,324.999988,99.56014285714286,99.50971666666666,99.5855,99.55211428571428,0.033250000000000224,-0.15533333333333332,-0.18666666666666654,0.04533333333333367,-0.04833333333333201,-0.026666666666670835,1.4216666666666666,1.4869999999999999,37.763999999999996,30.0475,38.884,34.8615,57.039,36.497,65.8675,54.547,55.058,35.5685,64.363,52.719,54.352000000000004,35.118,64.445,52.07,-0.051000000000000004,-0.176,0.106495,0.108755,0.0,205.26,205.125,201.96,201.96,0.0,0.0
2,0.0,0.0,0.0,1.0,1.0,0.0,0.0,1.0,0.0,100.0,1.0,1.1856,26.0,0.0,0.0,0.0,59.999996,0.0,26.0,26.0,26.0,26.0,-0.12137500000000001,0.2502,-0.0329,290.161,-2.5166,-2.678,-1.4859,-1.580888888888889,-268.74,216.3425,190.943625,0.0,0.0,0.0,0.0,0.005633333333333334,-5.498166666666667,-5.498166666666667,-0.7415,0.20666666666666667,-0.03588888888888908,1.54,65.635,-0.06666666666666643,-0.4682,1.605,100.0,1.0,1.0,202.89,0.0,0.0,0.0,0.0,0.0,0.0,0.0,8599.8,0.0,55.0,5.0,236.26333333333332,0.0,0.0,0.0,0.0,0.0,0.0,0.0,0.0,0.10800000000000054,0.10800000000000054,0.0,0.0,0.0,55.0,616.79921,10000.0,85.000001,85.000001,85.000001,85.000001,395.0,0.0,0.0,0.0,1.0,166.665,43.076,43.076,51.605000000000004,51.605000000000004,34.0,-34.0325,23.478,-27.807499999999997,19.772,0.0,1783.376,0.665,100.0,35.373,34.226,41.323,40.327,0.0,0.0,100.0,0.0,0.0,0.0,0.0,4070.375,3654.4,3629.5555555555557,3620.4,302.452,303.15566666666666,316.07275,315.96525,21.894,20.6542,22.073999999999998,21.4277,314.999998,314.999998,324.999988,324.999988,99.56014285714286,99.50975,99.58564285714286,99.55224285714286,0.019750000000000156,-0.16999999999999993,-0.21866666666666656,0.017999999999999794,-0.05333333333332746,-0.05833333333333002,1.6653333333333333,1.7145,37.837,30.089,38.963,34.923,57.036,36.5485,65.8835,54.5965,55.054,35.6155,64.377,52.766999999999996,54.346000000000004,35.163,64.4555,52.117,-0.07,-0.1645,0.10184000000000001,0.10778000000000001,0.0,205.675,205.565,202.89,202.89,0.0,0.0
3,0.0,0.0,0.0,1.0,1.0,0.0,0.0,1.0,0.0,100.0,1.0,1.1856,26.0,0.0,0.0,0.0,59.999996,0.0,26.0,26.0,26.0,26.0,-0.13537500000000002,0.27770000000000006,0.0876,289.871,-2.6333,-2.5856666666666666,-1.5039,-1.5703333333333334,-265.78,216.33249999999998,190.92625,0.0,0.0,0.0,0.0,0.007366666666666667,-5.498166666666667,-5.498166666666667,-0.7005,0.4103333333333333,-0.0005555555555556424,0.387,65.758,-0.07966666666666633,-0.4177,1.2349999999999999,100.0,1.0,1.0,202.92333333333335,0.0,0.0,0.0,0.0,0.0,0.0,0.0,8601.1,0.0,55.0,5.0,236.70333333333332,1.0,0.0,0.0,0.0,0.0,0.0,0.0,0.0,0.1529999999999987,0.1529999999999987,0.0,0.0,1.0,55.0,616.79921,10000.0,85.000001,85.000001,85.000001,85.000001,395.0,0.0,0.0,0.0,1.0,166.665,44.266,44.266,49.469,49.469,34.0,-29.5075,22.444,-33.8175,24.692,0.0,1783.331,0.4850000000000003,100.0,35.062,34.116,41.38,40.361000000000004,0.0,0.0,100.0,0.0,0.0,0.0,0.0,3527.0,3601.6,4192.333333333333,4206.2,304.017,303.39233333333334,314.683,314.49925,21.9035,20.66,22.084555555555557,21.4361,314.999998,314.999998,324.999988,324.999988,99.56014285714286,99.50976666666666,99.58577142857143,99.55237142857143,0.03299999999999992,-0.16100000000000003,-0.20833333333333348,0.026333333333333542,-0.041666666666671404,-0.05833333333333002,1.48,1.5534999999999999,37.897,30.125,39.028999999999996,34.9755,57.028999999999996,36.5945,65.8995,54.6435,55.048,35.658,64.3915,52.8125,54.339,35.2035,64.467,52.161500000000004,-0.079,-0.154,0.10610000000000001,0.10972000000000001,0.0,206.06,205.985,202.92333333333335,202.92333333333335,0.0,0.0
4,0.0,0.0,0.0,1.0,1.0,0.0,0.0,1.0,0.0,100.0,1.0,1.1856,26.0,0.0,0.0,0.0,59.999996,0.0,26.0,26.0,26.0,26.0,-0.14174999999999993,0.2843,-0.0512,290.161,-2.5619,-2.641888888888889,-1.5135,-1.5824444444444443,-262.22,216.315,190.9055,0.0,0.0,0.0,0.0,0.009433333333333334,-5.498166666666667,-5.498166666666667,-0.738,-0.712,-0.0735555555555556,-0.42499999999999993,65.898,-0.08183333333333342,-0.45830000000000004,1.1400000000000001,100.0,1.0,1.0,203.54000000000002,0.0,0.0,0.0,0.0,0.0,0.0,0.0,8627.3,0.0,55.0,5.0,237.21,0.0,0.0,0.0,0.0,0.0,0.0,0.0,0.0,0.20700000000000074,0.20700000000000074,0.0,0.0,0.0,55.0,616.79921,10000.0,85.000001,85.000001,85.000001,85.000001,395.0,0.0,0.0,0.0,1.0,166.665,43.747,43.747,50.354,50.354,34.0,-32.519999999999996,23.778,-30.2275,20.484,0.0,1783.277,0.4350000000000005,100.0,34.887,33.873,41.768,40.375,0.0,0.0,100.0,0.0,0.0,0.0,0.0,3919.5,3680.9,3891.5555555555557,3570.6,302.925,303.17133333333334,315.3895,315.999,21.9148,20.6668,22.09733333333333,21.4461,314.999998,314.999998,324.999988,324.999988,99.56015714285714,99.5098,99.58592857142857,99.55251428571428,0.03049999999999997,-0.15866666666666673,-0.20166666666666622,0.0346666666666664,-0.03999999999999915,-0.030000000000001137,1.5973333333333333,1.6515,37.968,30.168,39.108000000000004,35.038,57.019999999999996,36.647999999999996,65.9205,54.695,55.039,35.707499999999996,64.4105,52.862,54.328,35.251,64.483,52.21,-0.08750000000000001,-0.1485,0.09967000000000001,0.11059500000000001,0.0,206.43,206.32999999999998,203.54000000000002,203.54000000000002,0.0,0.0
5,0.0,0.0,0.0,1.0,1.0,0.0,0.0,1.0,0.0,100.0,1.0,1.1856,26.0,0.0,0.0,0.0,59.999996,0.0,26.0,26.0,26.0,26.0,-0.12737500000000002,0.2602,-0.01175,290.115,-2.5733,-2.663111111111111,-1.4986000000000002,-1.566888888888889,-259.06,216.2975,190.88625,0.0,0.0,0.0,0.0,0.011266666666666668,-5.498166666666667,-5.498166666666667,-0.7269,0.43599999999999994,-0.07477777777777783,1.124,66.024,-0.0841666666666665,-0.43243333333333334,0.9725000000000001,100.0,1.0,1.0,203.83666666666667,0.0,0.0,0.0,0.0,0.0,0.0,0.0,8639.9,0.0,55.0,5.0,237.66,1.0,0.0,0.0,0.0,0.0,0.0,0.0,0.0,0.254999999999999,0.254999999999999,0.0,0.0,1.0,55.0,616.79921,10000.0,85.000001,85.000001,85.000001,85.000001,395.0,0.0,0.0,0.0,1.0,333.33500000000004,44.174,44.174,50.369,50.369,34.0,-30.9175,23.516,-32.005,23.148,0.0,1783.228,0.13999999999999968,100.0,35.071,33.793,41.506,40.083,0.0,0.0,100.0,0.0,0.0,0.0,0.0,3767.125,3544.2,4042.3333333333335,4002.0,303.3125,303.63533333333334,315.1075,315.016,21.9251,20.6729,22.108555555555554,21.4549,314.999998,314.999998,324.999988,324.999988,99.56017142857142,99.50981666666667,99.58605714285714,99.55264285714286,0.03750000000000009,-0.1476666666666666,-0.20999999999999996,0.02833333333333332,-0.026666666666670835,-0.03833333333332689,1.5426666666666666,1.5905,38.032,30.206,39.179,35.093,57.016,36.695,65.938,54.74,55.034,35.751,64.4255,52.9055,54.323,35.292500000000004,64.495,52.2525,-0.1045,-0.126,0.10595500000000001,0.11238000000000001,0.0,206.88,206.775,203.83666666666667,203.83666666666667,0.0,0.0
6,0.0,0.0,0.0,1.0,1.0,0.0,0.0,1.0,0.0,100.0,1.0,1.1856,26.0,0.0,0.0,0.0,59.999996,0.0,26.0,26.0,26.0,26.0,-0.10875000000000001,0.27080000000000015,0.0066,289.917,-2.5404999999999998,-2.635666666666667,-1.5457,-1.6013333333333333,-255.89,216.2775,190.867,0.0,0.0,0.0,0.0,0.0131,-5.498166666666667,-5.498166666666667,-0.7250000000000001,0.026666666666666616,-0.05433333333333357,0.956,66.148,-0.07733333333333325,-0.4379,0.6499999999999999,100.0,1.0,1.0,204.20666666666668,0.0,0.0,0.0,0.0,0.0,0.0,0.0,8655.6,0.0,55.0,5.0,238.11333333333334,0.0,0.0,0.0,0.0,0.0,0.0,0.0,0.0,0.3030000000000008,0.3030000000000008,0.0,0.0,0.0,55.0,616.79921,10000.0,85.000001,85.000001,85.000001,85.000001,395.0,0.0,0.0,0.0,1.0,333.33500000000004,43.716,43.716,50.262,50.262,34.0,-30.015,25.174,-30.825,23.246,0.0,1783.179,-0.0649999999999995,100.0,34.988,33.915,41.609,40.415,0.0,0.0,100.0,0.0,0.0,0.0,0.0,3828.875,3708.4,3936.6666666666665,3934.1,303.1075,303.07866666666666,315.34475,315.1315,21.9354,20.679,22.119888888888887,21.4639,314.999998,314.999998,324.999988,324.999988,99.56017142857142,99.50983333333333,99.5862,99.55278571428572,0.05799999999999983,-0.1356666666666666,-0.19599999999999973,0.028999999999999915,-0.03833333333332689,-0.07000000000000028,1.574,1.5865,38.096000000000004,30.244,39.248999999999995,35.149,57.012,36.742,65.9555,54.7885,55.03,35.794,64.4415,52.952,54.316,35.3335,64.508,52.298500000000004,-0.123,-0.1075,0.10417000000000001,0.102095,0.0,207.245,207.2,204.20666666666668,204.20666666666668,0.0,0.0
7,0.0,0.0,0.0,1.0,1.0,0.0,0.0,1.0,0.0,100.0,1.0,1.1856,26.0,0.0,0.0,0.0,59.999996,0.0,26.0,26.0,26.0,26.0,-0.08224999999999993,0.2581,0.01395,289.627,-2.6043000000000003,-2.62,-1.5038,-1.5486666666666669,-252.51,216.255,190.846625,0.0,0.0,0.0,0.0,0.015066666666666666,-5.498166666666667,-5.498166666666667,-0.7288,-0.06600000000000006,-0.04588888888888887,-0.236,66.28,-0.059499999999999886,-0.4462333333333333,0.40249999999999986,100.0,1.0,1.0,204.58666666666667,0.0,0.0,0.0,0.0,0.0,0.0,0.0,8671.6,0.0,55.0,5.0,238.58666666666667,1.0,0.0,0.0,0.0,0.0,0.0,0.0,0.0,0.3539999999999992,0.3539999999999992,0.0,0.0,1.0,55.0,616.79921,10000.0,85.000001,85.000001,85.000001,85.000001,395.0,0.0,0.0,0.0,1.0,166.665,43.35,43.35,50.262,50.262,34.0,-32.31,25.36,-30.305,24.182,0.0,1783.131,-0.27499999999999947,100.0,34.981,34.181,41.549,40.752,0.0,0.0,100.0,0.0,0.0,0.0,0.0,4053.0,3665.3,4002.1111111111113,3960.7,302.6415,303.05466666666666,315.2005,315.01675,21.9463,20.6856,22.131888888888888,21.473399999999998,314.999998,314.999998,324.999988,324.999988,99.56018571428571,99.50985,99.58632857142857,99.55292857142857,0.06300000000000017,-0.1256666666666666,-0.18133333333333335,0.054999999999999716,-0.045000000000001705,-0.04999999999999716,1.5473333333333332,1.5585,38.164,30.285,39.324,35.209,57.007999999999996,36.791,65.9735,54.8395,55.025999999999996,35.8395,64.4575,53.0015,54.311,35.3765,64.5205,52.3465,-0.1365,-0.097,0.10447000000000001,0.10830000000000001,0.0,207.64,207.60500000000002,204.58666666666667,204.58666666666667,0.0,0.0
8,0.0,0.0,0.0,1.0,1.0,0.0,0.0,1.0,0.0,100.0,1.0,1.1856,26.0,0.0,0.0,0.0,59.999996,0.0,26.0,26.0,26.0,26.0,-0.041999999999999926,0.2653000000000001,0.03185,289.856,-2.5882,-2.607555555555556,-1.4905,-1.5303333333333333,-249.13,216.22750000000002,190.826125,0.0,0.0,0.0,0.0,0.017033333333333334,-5.498166666666667,-5.498166666666667,-0.7298,-0.5356666666666667,-0.02388888888888907,0.9120000000000001,66.413,-0.039666666666666295,-0.4385666666666667,-0.10999999999999988,100.0,1.0,1.0,204.93333333333334,0.0,0.0,0.0,0.0,0.0,0.0,0.0,8686.4,0.0,55.0,5.0,239.06333333333333,0.0,0.0,0.0,0.0,0.0,0.0,0.0,0.0,0.40500000000000114,0.40500000000000114,0.0,0.0,0.0,55.0,616.79921,10000.0,85.000001,85.000001,85.000001,85.000001,395.0,0.0,0.0,0.0,1.0,333.33500000000004,44.22,44.22,49.469,49.469,34.0,-26.675,26.72,-29.0675,26.759999999999998,0.0,1783.078,-0.3899999999999997,100.0,34.71,34.033,41.614000000000004,40.814,0.0,0.0,100.0,0.0,0.0,0.0,0.0,3611.875,3714.2,4059.777777777778,4080.3,303.8255,303.0926666666667,314.94975,314.766,21.9569,20.6921,22.14377777777778,21.4829,314.999998,314.999998,324.999988,324.999988,99.5602,99.50986666666667,99.58647142857143,99.55305714285714,0.09324999999999983,-0.10133333333333328,-0.14466666666666628,0.09166666666666679,-0.045000000000001705,-0.04999999999999716,1.5363333333333333,1.5345,38.230999999999995,30.326,39.399,35.2685,57.004000000000005,36.838499999999996,65.991,54.89,55.021,35.882999999999996,64.4735,53.05,54.305,35.4185,64.533,52.394,-0.1455,-0.08750000000000001,0.10342000000000001,0.115415,0.0,208.03,208.025,204.93333333333334,204.93333333333334,0.0,0.0
9,0.0,0.0,0.0,1.0,1.0,0.0,0.0,1.0,0.0,100.0,1.0,1.1856,26.0,0.0,0.0,0.0,59.999996,0.0,26.0,26.0,26.0,26.0,-0.025374999999999925,0.25970000000000004,0.0315,289.627,-2.5906000000000002,-2.6101111111111113,-1.5362,-1.5323333333333333,-245.93,216.2025,190.806375,0.0,0.0,0.0,0.0,0.0189,-5.498166666666667,-5.498166666666667,-0.7392000000000001,0.5680000000000001,-0.023555555555555774,0.6600000000000001,66.533,-0.019666666666666277,-0.44353333333333333,-0.22750000000000004,100.0,1.0,1.0,205.45666666666668,0.0,0.0,0.0,0.0,0.0,0.0,0.0,8708.5,0.0,55.0,5.0,239.49666666666667,1.0,0.0,0.0,0.0,0.0,0.0,0.0,0.0,0.4529999999999994,0.4529999999999994,0.0,0.0,1.0,55.0,616.79921,10000.0,85.000001,85.000001,85.000001,85.000001,395.0,0.0,0.0,0.0,1.0,333.33500000000004,42.999,42.999,50.69,50.69,34.0,-28.7125,28.816000000000003,-26.6,26.08,0.0,1783.03,-0.46999999999999975,100.0,35.136,34.476,41.228,40.778,0.0,0.0,100.0,0.0,0.0,0.0,0.0,3975.75,3827.4,3819.5555555555557,3964.6,302.7175,302.67266666666666,315.65625,315.10625,21.9671,20.6985,22.154888888888888,21.4919,314.999998,314.999998,324.999988,324.999988,99.5602,99.50988333333333,99.58661428571429,99.55318571428572,0.11275000000000013,-0.08266666666666667,-0.1349999999999998,0.10366666666666724,-0.036666666666668846,-0.054999999999999716,1.6179999999999999,1.6105,38.294,30.365499999999997,39.468,35.324,57.003,36.8845,66.00450000000001,54.936,55.019999999999996,35.926,64.4855,53.095,54.302,35.4595,64.542,52.438,-0.154,-0.085,0.113585,0.10987000000000001,0.0,208.4,208.425,205.45666666666668,205.45666666666668,0.0,0.0
10,0.0,0.0,0.0,1.0,1.0,0.0,0.0,1.0,0.0,100.0,1.0,1.1856,26.0,0.0,0.0,0.0,59.999996,0.0,26.0,26.0,26.0,26.0,0.006250000000000089,0.2634000000000001,0.005,289.383,-2.5676,-2.587666666666667,-1.5852,-1.5138888888888888,-242.54,216.175,190.78575,0.0,0.0,0.0,0.0,0.020866666666666665,-5.498166666666667,-5.498166666666667,-0.7127,-0.33133333333333326,0.01288888888888895,0.381,66.667,0.0024999999999999467,-0.4318,-0.5125,100.0,1.0,1.0,205.62333333333333,0.0,0.0,0.0,0.0,0.0,0.0,0.0,8715.6,0.0,55.0,5.0,239.97666666666666,0.0,0.0,0.0,0.0,0.0,0.0,1.0,0.0,0.5040000000000013,0.5040000000000013,0.0,0.0,0.0,55.0,616.79921,10000.0,85.000001,85.000001,85.000001,85.000001,395.0,0.0,0.0,0.0,1.0,333.33500000000004,43.961,43.961,49.088,49.088,34.0,-25.105,26.855999999999998,-30.759999999999998,29.294,0.0,1782.979,-0.5350000000000001,100.0,34.983000000000004,34.653999999999996,41.55,41.605000000000004,0.0,0.0,100.0,0.0,0.0,0.0,0.0,3608.0,3574.1,4265.111111111111,4179.9,303.9175,303.321,314.614,314.447,21.977899999999998,20.7052,22.166888888888888,21.5016,314.999998,314.999998,324.999988,324.999988,99.56022857142857,99.50988333333333,99.58674285714285,99.55334285714285,0.11649999999999983,-0.07633333333333314,-0.11866666666666648,0.12233333333333274,-0.036666666666668846,-0.03333333333333144,1.4996666666666667,1.474,38.361999999999995,30.407,39.543,35.385,57.001999999999995,36.9305,66.024,54.99,55.019,35.9685,64.5025,53.147,54.299,35.5,64.5555,52.489,-0.159,-0.07100000000000001,0.110725,0.10609,0.0,208.79500000000002,208.82999999999998,205.62333333333333,205.62333333333333,0.0,0.0
11,0.0,0.0,0.0,1.0,1.0,0.0,0.0,1.0,0.0,100.0,1.0,1.1856,26.0,0.0,0.0,0.0,59.999996,0.0,26.0,26.0,26.0,26.0,0.05325000000000002,0.24330000000000007,-0.0896,289.978,-2.6159,-2.540888888888889,-1.5847,-1.4985555555555556,-238.93,216.1475,190.763875,0.0,0.0,0.0,0.0,0.022600000000000002,-5.498166666666667,-5.498166666666667,-0.7596,-0.18199999999999994,0.041444444444444395,-0.778,66.799,0.023499999999999854,-0.4660333333333333,-0.6125,100.0,1.0,1.0,206.37333333333333,0.0,0.0,0.0,0.0,0.0,0.0,0.0,8747.4,0.0,55.0,5.0,240.45333333333335,1.0,0.0,0.0,0.0,0.0,0.0,1.0,0.0,0.5579999999999998,0.5579999999999998,0.0,0.0,1.0,55.0,616.79921,10000.0,85.000001,85.000001,85.000001,85.000001,395.0,0.0,0.0,0.0,1.0,166.665,43.274,43.274,50.812,50.812,34.0,-25.919999999999998,29.631999999999998,-23.1325,25.962,0.0,1782.927,-0.5549999999999997,100.0,34.661,34.92,41.041,41.481,0.0,0.0,100.0,0.0,0.0,0.0,0.0,3816.125,3815.8,3581.5555555555557,3751.2,303.3755,302.55033333333336,316.2945,315.562,21.989,20.7124,22.179333333333332,21.5117,314.999998,314.999998,324.999988,324.999988,99.56024285714285,99.5099,99.5869,99.55348571428571,0.14100000000000001,-0.05433333333333312,-0.0943333333333336,0.14866666666666717,-0.036666666666668846,-0.06333333333333258,1.6773333333333333,1.647,38.431,30.451999999999998,39.620999999999995,35.448,57.0,36.9805,66.037,55.042500000000004,55.016,36.013999999999996,64.514,53.198,54.294,35.544,64.5635,52.539500000000004,-0.16,-0.073,0.10902,0.105755,0.0,209.18,209.245,206.37333333333333,206.37333333333333,0.0,0.0
12,0.0,0.0,0.0,1.0,1.0,0.0,0.0,1.0,0.0,100.0,1.0,1.1856,26.0,0.0,0.0,0.0,59.999996,0.0,26.0,26.0,26.0,26.0,0.05537499999999995,0.25760000000000005,0.0082,289.459,-2.6597,-2.541888888888889,-1.5411000000000001,-1.5044444444444445,-235.93,216.1225,190.7445,0.0,0.0,0.0,0.0,0.025466666666666665,-5.498166666666667,-5.498166666666667,-0.7439,0.2846666666666666,0.025555555555555554,0.605,66.91499999999999,0.0365000000000002,-0.43553333333333333,-0.6199999999999999,100.0,1.0,1.0,206.48333333333335,0.0,0.0,0.0,0.0,0.0,0.0,0.0,8752.1,0.0,55.0,5.0,240.87333333333333,0.0,0.0,0.0,0.0,0.0,0.0,1.0,0.0,0.602999999999998,0.602999999999998,0.0,0.0,0.0,55.0,616.79921,10000.0,85.000001,85.000001,85.000001,85.000001,395.0,0.0,0.0,0.0,1.0,333.33500000000004,43.427,43.427,49.484,49.484,34.0,-24.43,31.834,-25.655,30.714,0.0,1782.88,-0.7450000000000001,100.0,34.678,34.849000000000004,41.052,41.274,0.0,0.0,100.0,0.0,0.0,0.0,0.0,3722.625,3901.7,4071.777777777778,4118.1,303.5045,302.4963333333333,315.0255,314.73525,21.9983,20.7184,22.189666666666668,21.5201,314.999998,314.999998,324.999988,324.999988,99.56027142857143,99.50991666666667,99.58701428571429,99.55361428571429,0.16674999999999995,-0.024666666666666615,-0.06599999999999984,0.17133333333333312,-0.045000000000001705,-0.045000000000001705,1.553,1.53,38.489000000000004,30.490000000000002,39.685,35.501,57.0,37.0215,66.0515,55.0875,55.015,36.0525,64.527,53.2415,54.292,35.5805,64.57300000000001,52.582,-0.165,-0.0675,0.100385,0.11408000000000001,0.0,209.57,209.615,206.48333333333335,206.48333333333335,0.0,0.0
13,0.0,0.0,0.0,1.0,1.0,0.0,0.0,1.0,0.0,100.0,1.0,1.1856,26.0,0.0,0.0,0.0,59.999996,0.0,26.0,26.0,26.0,26.0,0.07224999999999993,0.25429999999999997,0.053000000000000005,289.001,-2.6437,-2.541888888888889,-1.6163,-1.4823333333333333,-232.31,216.0975,190.7215,0.0,0.0,0.0,0.0,0.0268,-5.498166666666667,-5.498166666666667,-0.7386,-0.08899999999999997,0.033777777777777684,0.8340000000000001,67.051,0.043333333333333446,-0.4455,-0.885,100.0,1.0,1.0,206.8466666666667,0.0,0.0,0.0,0.0,0.0,0.0,0.0,8767.5,0.0,55.0,5.0,241.36333333333334,1.0,0.0,0.0,0.0,0.0,0.0,1.0,0.0,0.657,0.657,0.0,0.0,1.0,55.0,616.79921,10000.0,85.000001,85.000001,85.000001,85.000001,395.0,0.0,0.0,0.0,1.0,166.665,42.923,42.923,49.484,49.484,34.0,-24.245,32.178,-25.862499999999997,31.71,0.0,1782.827,-0.7750000000000004,100.0,35.085,35.152,41.289,41.825,0.0,0.0,100.0,0.0,0.0,0.0,0.0,3763.125,3927.8,4020.8888888888887,4252.4,303.359,302.39666666666665,315.155,314.392,22.0096,20.7258,22.202222222222222,21.5305,314.999998,314.999998,324.999988,324.999988,99.56028571428571,99.50991666666667,99.58717142857142,99.55375714285714,0.17249999999999988,-0.02299999999999991,-0.05766666666666653,0.1706666666666674,-0.03166666666666629,-0.05833333333333002,1.551,1.5105,38.56,30.536,39.763999999999996,35.5655,57.001999999999995,37.070499999999996,66.069,55.1445,55.016999999999996,36.0975,64.542,53.2965,54.291,35.624,64.585,52.635999999999996,-0.17550000000000002,-0.0635,0.10431000000000001,0.10051500000000001,0.0,209.96,210.055,206.8466666666667,206.8466666666667,0.0,0.0
14,0.0,0.0,0.0,1.0,1.0,0.0,0.0,1.0,0.0,100.0,1.0,1.1856,26.0,0.0,0.0,0.0,59.999996,0.0,26.0,26.0,26.0,26.0,0.08400000000000007,0.24639999999999995,-0.014150000000000001,289.185,-2.6338,-2.516,-1.6171,-1.476222222222222,-229.09,216.0775,190.701625,0.0,0.0,0.0,0.0,0.02866666666666667,-5.498166666666667,-5.498166666666667,-0.7486,-0.16066666666666674,0.05555555555555558,1.4780000000000002,67.17,0.056333333333333346,-0.4601,-1.075,100.0,1.0,1.0,207.29666666666668,0.0,0.0,0.0,0.0,0.0,0.0,0.0,8786.5,0.0,55.0,5.0,241.79000000000002,0.0,0.0,0.0,0.0,0.0,0.0,1.0,0.0,0.7049999999999983,0.7049999999999983,0.0,0.0,0.0,55.0,616.79921,10000.0,85.000001,85.000001,85.000001,85.000001,395.0,0.0,0.0,0.0,1.0,166.665,42.953,42.953,49.667,49.667,34.0,-22.8625,32.666,-23.6075,31.222,0.0,1782.78,-0.7850000000000001,100.0,35.133,35.237,41.289,42.024,0.0,0.0,100.0,0.0,0.0,0.0,0.0,3664.375,3966.6000000000004,3871.8888888888887,4098.9,303.627,302.313,315.5125,314.78025,22.0195,20.7323,22.213333333333335,21.5396,314.999998,314.999998,324.999988,324.999988,99.56031428571428,99.50991666666667,99.5873,99.5539,0.18274999999999997,-0.014666666666666606,-0.03799999999999981,0.19333333333333336,-0.023333333333326323,-0.061666666666667425,1.5953333333333333,1.5425,38.622,30.5765,39.833,35.6225,57.004999999999995,37.113,66.083,55.1935,55.018,36.137,64.5545,53.344,54.291,35.661500000000004,64.594,52.683,-0.1785,-0.058,0.10049500000000001,0.11214,0.0,210.325,210.41500000000002,207.29666666666668,207.29666666666668,0.0,0.0
15,0.0,0.0,0.0,1.0,1.0,0.0,0.0,1.0,0.0,100.0,1.0,1.1856,26.0,0.0,0.0,0.0,59.999996,0.0,26.0,26.0,26.0,26.0,0.10837500000000011,0.25470000000000015,-0.0413,289.2,-2.6192,-2.453555555555556,-1.6252,-1.4332222222222222,-225.66,216.055,190.680125,0.0,0.0,0.0,0.0,0.03066666666666667,-5.498166666666667,-5.498166666666667,-0.7415,0.242,0.09011111111111103,-0.31199999999999994,67.297,0.07350000000000012,-0.44620000000000004,-1.145,100.0,1.0,1.0,207.67000000000002,0.0,0.0,0.0,0.0,0.0,0.0,0.0,8802.4,0.0,55.0,5.0,242.24666666666667,1.0,0.0,0.0,0.0,0.0,0.0,1.0,0.0,0.7560000000000002,0.7560000000000002,0.0,0.0,1.0,55.0,616.79921,10000.0,85.000001,85.000001,85.000001,85.000001,395.0,0.0,0.0,0.0,1.0,166.665,43.076,43.076,49.759,49.759,34.0,-22.0925,31.052,-23.945,31.874000000000002,0.0,1782.728,-0.7649999999999997,100.0,35.008,35.528999999999996,40.932,42.208,0.0,0.0,100.0,0.0,0.0,0.0,0.0,3609.0,3869.0,3866.6666666666665,4222.4,303.9405,302.412,315.59725,314.4215,22.0301,20.7392,22.22511111111111,21.5492,314.999998,314.999998,324.999988,324.999988,99.56034285714286,99.50993333333334,99.58744285714286,99.55404285714286,0.18374999999999986,-0.018333333333333313,-0.044333333333333336,0.19266666666666676,-0.02833333333332888,-0.04333333333332945,1.58,1.5334999999999999,38.688,30.619999999999997,39.907,35.6825,57.007,37.158500000000004,66.09649999999999,55.246,55.019999999999996,36.1795,64.566,53.3955,54.291,35.7025,64.602,52.733000000000004,-0.18,-0.064,0.112835,0.10090500000000001,0.0,210.73000000000002,210.79500000000002,207.67000000000002,207.67000000000002,0.0,0.0
16,0.0,0.0,0.0,1.0,1.0,0.0,0.0,1.0,0.0,100.0,1.0,1.1856,26.0,0.0,0.0,0.0,59.999996,0.0,26.0,26.0,26.0,26.0,0.12687500000000007,0.23429999999999995,-0.0391,289.261,-2.6682,-2.494222222222222,-1.5584,-1.463111111111111,-222.42000000000002,216.04000000000002,190.6595,0.0,0.0,0.0,0.0,0.03256666666666667,-5.498166666666667,-5.498166666666667,-0.7612,-0.7370000000000001,0.07577777777777772,-0.863,67.41499999999999,0.08483333333333354,-0.46106666666666674,-1.15,100.0,1.0,1.0,208.03333333333333,0.0,0.0,0.0,0.0,0.0,0.0,0.0,8817.8,0.0,55.0,5.0,242.67333333333335,0.0,0.0,0.0,0.0,0.0,0.0,1.0,0.0,0.8039999999999985,0.8039999999999985,0.0,0.0,0.0,55.0,616.79921,10000.0,85.000001,85.000001,85.000001,85.000001,395.0,0.0,0.0,0.0,1.0,166.665,43.106,43.106,49.347,49.347,34.0,-22.982499999999998,32.507999999999996,-21.92,31.323999999999998,0.0,1782.681,-0.6849999999999996,100.0,34.613,35.622,41.242000000000004,42.272999999999996,0.0,0.0,100.0,0.0,0.0,0.0,0.0,3690.625,3902.6000000000004,3861.1111111111113,4006.0,303.796,302.314,315.561,314.94875,22.0397,20.7458,22.23622222222222,21.5583,314.999998,314.999998,324.999988,324.999988,99.56037142857143,99.50993333333334,99.58757142857142,99.55418571428571,0.18699999999999983,-0.006333333333333302,-0.020000000000000018,0.2140000000000004,-0.036666666666668846,-0.04333333333332945,1.5853333333333333,1.5334999999999999,38.748000000000005,30.661,39.976,35.7395,57.007,37.201499999999996,66.112,55.295,55.019,36.219,64.58,53.442499999999995,54.288,35.7405,64.612,52.7795,-0.168,-0.067,0.10902,0.10659,0.0,211.065,211.16,208.03333333333333,208.03333333333333,0.0,0.0
17,0.0,0.0,0.0,1.0,1.0,0.0,0.0,1.0,0.0,100.0,1.0,1.1856,26.0,0.0,0.0,0.0,59.999996,0.0,26.0,26.0,26.0,26.0,0.12549999999999994,0.25470000000000015,-0.04245,289.078,-2.6659,-2.4512222222222224,-1.6298,-1.4792222222222222,-218.98000000000002,216.025,190.637125,0.0,0.0,0.0,0.0,0.03456666666666667,-5.498166666666667,-5.498166666666667,-0.7543000000000001,0.6016666666666667,0.056111111111111,0.611,67.53999999999999,0.08616666666666672,-0.4444,-1.1324999999999998,100.0,1.0,1.0,208.42666666666668,0.0,0.0,0.0,0.0,0.0,0.0,0.0,8834.4,0.0,55.0,5.0,243.12333333333333,1.0,0.0,0.0,0.0,0.0,0.0,1.0,0.0,0.8550000000000004,0.8550000000000004,0.0,0.0,1.0,55.0,616.79921,10000.0,85.000001,85.000001,85.000001,85.000001,395.0,0.0,0.0,0.0,1.0,166.665,42.847,42.847,49.667,49.667,34.0,-22.04,31.78,-23.5475,32.876,0.0,1782.629,-0.7599999999999998,100.0,35.272999999999996,35.765,40.951,42.101,0.0,0.0,100.0,0.0,0.0,0.0,0.0,3678.0,3857.0,4001.222222222222,4143.0,303.665,302.6716666666667,315.29175,314.697,22.0503,20.7529,22.247777777777777,21.5679,314.999998,314.999998,324.999988,324.999988,99.5604,99.50993333333334,99.58771428571428,99.55431428571428,0.20500000000000007,0.0023333333333335204,-0.015000000000000124,0.2190000000000003,-0.03499999999999659,-0.06666666666666998,1.5816666666666666,1.554,38.815,30.7055,40.049,35.7995,57.012,37.2485,66.1245,55.3465,55.022999999999996,36.2625,64.5905,53.493,54.29,35.7825,64.6195,52.829,-0.1765,-0.069,0.10228000000000001,0.10669500000000001,0.0,211.485,211.59,208.42666666666668,208.42666666666668,0.0,0.0
18,0.0,0.0,0.0,1.0,1.0,0.0,0.0,1.0,0.0,100.0,1.0,1.1856,26.0,0.0,0.0,0.0,59.999996,0.0,26.0,26.0,26.0,26.0,0.12949999999999995,0.23720000000000008,-0.04505,289.047,-2.6965,-2.429777777777778,-1.6438000000000001,-1.4002222222222223,-215.74,216.015,190.616,0.0,0.0,0.0,0.0,0.03643333333333333,-5.498166666666667,-5.498166666666667,-0.7617,-0.6333333333333333,0.0795555555555556,1.3000000000000003,67.658,0.0863333333333336,-0.45946666666666675,-1.2574999999999998,100.0,1.0,1.0,208.76999999999998,0.0,0.0,0.0,0.0,0.0,0.0,0.0,8849.0,0.0,55.0,5.0,243.54666666666668,0.0,0.0,0.0,0.0,0.0,0.0,1.0,0.0,0.9029999999999987,0.9029999999999987,0.0,0.0,0.0,55.0,616.79921,10000.0,85.000001,85.000001,85.000001,85.000001,395.0,0.0,0.0,0.0,1.0,166.665,42.862,42.862,49.423,49.423,34.0,-21.5775,34.548,-22.905,31.003999999999998,0.0,1782.582,-0.9850000000000003,100.0,35.038,35.547,41.349000000000004,42.554,0.0,0.0,100.0,0.0,0.0,0.0,0.0,3654.75,4042.2,3853.777777777778,4065.6000000000004,303.8105,302.20666666666665,315.5905,314.904,22.0601,20.7594,22.259,21.5772,314.999998,314.999998,324.999988,324.999988,99.56042857142857,99.50993333333334,99.58785714285715,99.55447142857143,0.2157499999999999,0.027000000000000135,-0.019000000000000128,0.21633333333333304,-0.023333333333326323,-0.045000000000001705,1.591,1.542,38.876000000000005,30.746499999999997,40.119,35.8575,57.013999999999996,37.291,66.14,55.3975,55.025,36.302,64.604,53.542500000000004,54.29,35.82,64.62950000000001,52.8775,-0.195,-0.044,0.11426000000000001,0.10830500000000001,0.0,211.805,211.91,208.76999999999998,208.76999999999998,0.0,0.0
19,0.0,0.0,0.0,1.0,1.0,0.0,0.0,1.0,0.0,100.0,1.0,1.1856,26.0,0.0,0.0,0.0,59.999996,0.0,26.0,26.0,26.0,26.0,0.15799999999999992,0.25880000000000014,0.0008,288.513,-2.675,-2.408555555555556,-1.6640000000000001,-1.3780000000000001,-212.28,216.0075,190.593625,0.0,0.0,0.0,0.0,0.03846666666666667,-5.498166666666667,-5.498166666666667,-0.7587,0.8,0.09166666666666679,-0.32599999999999996,67.781,0.09733333333333372,-0.4531,-1.625,100.0,1.0,1.0,209.18333333333334,0.0,0.0,0.0,0.0,0.0,0.0,0.0,8866.5,0.0,55.0,5.0,243.98666666666668,1.0,0.0,0.0,0.0,0.0,0.0,1.0,0.0,0.9540000000000006,0.9540000000000006,0.0,0.0,1.0,55.0,616.79921,10000.0,85.000001,85.000001,85.000001,85.000001,395.0,0.0,0.0,0.0,1.0,166.665,41.885,41.885,49.454,49.454,34.0,-22.025,34.738,-23.59,32.604,0.0,1782.53,-1.225,100.0,35.449,36.301,40.946,42.568,0.0,0.0,100.0,0.0,0.0,0.0,0.0,3876.375,4040.9,3982.4444444444443,4193.8,303.193,301.8933333333333,315.4135,314.6045,22.0707,20.7666,22.270555555555557,21.5868,314.999998,314.999998,324.999988,324.999988,99.56045714285715,99.50993333333334,99.58798571428571,99.55461428571428,0.22849999999999993,0.027666666666666728,-0.013333333333333197,0.23133333333333272,-0.046666666666666856,-0.03833333333332689,1.6116666666666668,1.5494999999999999,38.942,30.7915,40.191,35.917500000000004,57.021,37.34,66.152,55.4495,55.031,36.3475,64.61449999999999,53.593,54.293,35.864,64.6365,52.9275,-0.213,-0.033,0.11079000000000001,0.10470000000000002,0.0,212.23000000000002,212.32,209.18333333333334,209.18333333333334,0.0,0.0
20,0.0,0.0,0.0,1.0,1.0,0.0,0.0,1.0,0.0,100.0,1.0,1.1856,26.0,0.0,0.0,0.0,59.999996,0.0,26.0,26.0,26.0,26.0,0.19274999999999998,0.25540000000000007,0.02595,288.559,-2.7237999999999998,-2.467,-1.6479,-1.3815555555555556,-208.82,216.0025,190.57125,0.0,0.0,0.0,0.0,0.04046666666666667,-5.498166666666667,-5.498166666666667,-0.7561,-1.0996666666666663,0.10255555555555551,0.724,67.907,0.11500000000000021,-0.45846666666666674,-2.02,100.0,1.0,1.0,209.39333333333332,0.0,0.0,0.0,0.0,0.0,0.0,0.0,8875.5,0.0,55.0,5.0,244.44333333333333,0.0,0.0,0.0,0.0,0.0,0.0,0.0,0.0,1.004999999999999,1.004999999999999,0.0,0.0,0.0,55.0,616.79921,10000.0,85.000001,85.000001,85.000001,85.000001,395.0,0.0,0.0,0.0,1.0,333.33500000000004,42.969,42.969,48.187,48.187,34.0,-18.265,35.97,-22.1875,35.775999999999996,0.0,1782.478,-1.4499999999999997,100.0,35.079,36.06,41.658,43.109,0.0,0.0,100.0,0.0,0.0,0.0,0.0,3443.375,3999.6000000000004,4047.5555555555557,4326.4,304.469,302.223,315.0745,314.235,22.0809,20.773699999999998,22.282444444444444,21.5967,314.999998,314.999998,324.999988,324.999988,99.5605,99.50995,99.58812857142857,99.55475714285714,0.2570000000000001,0.049666666666666526,0.02800000000000047,0.2569999999999997,-0.030000000000001137,-0.04999999999999716,1.537,1.4615,39.006,30.836,40.265,35.9795,57.024,37.388,66.17,55.504999999999995,55.033,36.391999999999996,64.6305,53.647,54.293,35.9065,64.6485,52.981,-0.2315,-0.014,0.10253000000000001,0.10597000000000001,0.0,212.535,212.70499999999998,209.39333333333332,209.39333333333332,0.0,0.0
21,0.0,0.0,0.0,1.0,1.0,0.0,0.0,1.0,0.0,100.0,1.0,1.1856,26.0,0.0,0.0,0.0,59.999996,0.0,26.0,26.0,26.0,26.0,0.21662500000000007,0.242,-0.062400000000000004,288.834,-2.6484,-2.508,-1.6728,-1.443888888888889,-205.56,216.005,190.54975,0.0,0.0,0.0,0.0,0.04236666666666667,-5.498166666666667,-5.498166666666667,-0.7888000000000001,0.4116666666666666,0.09788888888888891,0.41500000000000004,68.017,0.1296666666666666,-0.4750333333333333,-2.2475,100.0,1.0,1.0,210.04000000000002,0.0,0.0,0.0,0.0,0.0,0.0,0.0,8902.8,0.0,55.0,5.0,244.84333333333336,1.0,0.0,0.0,0.0,0.0,0.0,0.0,0.0,1.0530000000000008,1.0530000000000008,0.0,0.0,1.0,55.0,616.79921,10000.0,85.000001,85.000001,85.000001,85.000001,395.0,0.0,0.0,0.0,1.0,333.33500000000004,41.977000000000004,41.977000000000004,50.049,50.049,34.0,-18.384999999999998,38.094,-18.5325,33.476,0.0,1782.43,-1.3399999999999999,100.0,35.415,36.403999999999996,40.884,42.836,0.0,0.0,100.0,0.0,0.0,0.0,0.0,3692.625,4108.5,3665.8888888888887,3966.0,303.547,301.78866666666664,316.1455,315.13875,22.0907,20.7806,22.293222222222223,21.6057,314.999998,314.999998,324.999988,324.999988,99.56052857142858,99.50996666666667,99.58825714285715,99.5549,0.26800000000000024,0.05600000000000005,0.04566666666666652,0.28300000000000036,-0.04333333333332945,-0.046666666666666856,1.6933333333333334,1.5979999999999999,39.067,30.8785,40.332,36.036,57.031,37.436,66.1785,55.553,55.039,36.4365,64.6375,53.6935,54.297,35.9495,64.6525,53.0265,-0.229,-0.0205,0.10331000000000001,0.11607500000000001,0.0,212.91500000000002,213.07,210.04000000000002,210.04000000000002,0.0,0.0
22,0.0,0.0,0.0,1.0,1.0,0.0,0.0,1.0,0.0,100.0,1.0,1.1856,26.0,0.0,0.0,0.0,59.999996,0.0,26.0,26.0,26.0,26.0,0.18837499999999996,0.238,0.0533,288.147,-2.6398,-2.501666666666667,-1.6120999999999999,-1.4855555555555557,-202.09,216.0125,190.526,0.0,0.0,0.0,0.0,0.04436666666666667,-5.498166666666667,-5.498166666666667,-0.7655000000000001,0.09466666666666657,0.0988888888888888,-0.669,68.143,0.14733333333333354,-0.45456666666666673,-1.3375,100.0,1.0,1.0,210.14333333333332,0.0,0.0,0.0,0.0,0.0,0.0,0.0,8907.3,0.0,55.0,5.0,245.29666666666668,0.0,0.0,0.0,0.0,0.0,0.0,0.0,0.0,1.1039999999999992,1.1039999999999992,0.0,0.0,0.0,55.0,616.79921,10000.0,85.000001,85.000001,85.000001,85.000001,395.0,0.0,0.0,0.0,1.0,333.33500000000004,41.900999999999996,41.900999999999996,48.644999999999996,48.644999999999996,34.0,-23.4575,32.474,-21.369999999999997,37.025999999999996,0.0,1782.378,0.27000000000000046,100.0,35.359,36.644,41.178,43.194,0.0,0.0,100.0,0.0,0.0,0.0,0.0,3729.875,4009.2,4062.6666666666665,4248.4,303.555,301.8433333333333,315.12275,314.3135,22.1011,20.7878,22.30488888888889,21.6155,314.999998,314.999998,324.999988,324.999988,99.56057142857142,99.50996666666667,99.58841428571428,99.55505714285714,0.1807500000000002,-0.030333333333333323,0.03500000000000014,0.266,-0.03333333333333144,-0.030000000000001137,1.526,1.4689999999999999,39.132,30.9235,40.405,36.097,57.036,37.4845,66.195,55.6085,55.042,36.4815,64.652,53.7475,54.298,35.9925,64.663,53.08,-0.1125,-0.1345,0.112405,0.10457500000000002,0.0,213.325,213.425,210.14333333333332,210.14333333333332,0.0,0.0
23,0.0,0.0,0.0,1.0,1.0,0.0,0.0,1.0,0.0,100.0,1.0,1.1856,26.0,0.0,0.0,0.0,59.999996,0.0,26.0,26.0,26.0,26.0,0.09587499999999993,0.2189000000000001,-0.017750000000000002,288.269,-2.6448,-2.477444444444444,-1.5644,-1.5283333333333333,-198.41,216.025,190.501375,0.0,0.0,0.0,0.0,0.046533333333333336,-5.498166666666667,-5.498166666666667,-0.7848,-0.32099999999999995,0.06622222222222218,-1.3,68.27,0.11816666666666675,-0.4815333333333333,0.14500000000000002,100.0,1.0,1.0,210.64333333333332,0.0,0.0,0.0,0.0,0.0,0.0,0.0,8928.4,0.0,55.0,5.0,245.75666666666666,1.0,0.0,0.0,0.0,0.0,0.0,0.0,0.0,1.1580000000000013,1.1580000000000013,0.0,0.0,1.0,55.0,616.79921,10000.0,85.000001,85.000001,85.000001,85.000001,395.0,0.0,0.0,0.0,1.0,166.665,41.626,41.626,49.545,49.545,34.0,-28.435,28.990000000000002,-22.7775,31.338,0.0,1782.326,0.8650000000000002,100.0,35.699,36.55,41.489000000000004,43.255,0.0,0.0,100.0,0.0,0.0,0.0,0.0,4030.25,3905.2,3886.8888888888887,3917.9,302.8265,302.2936666666667,315.511,315.0835,22.112099999999998,20.7954,22.31722222222222,21.6259,314.999998,314.999998,324.999988,324.999988,99.5606,99.50998333333334,99.58855714285714,99.55521428571429,0.13350000000000017,-0.06733333333333325,-0.027666666666666284,0.21233333333333348,-0.04999999999999716,-0.041666666666671404,1.5316666666666667,1.549,39.201,30.971,40.483000000000004,36.162,57.036,37.536,66.2105,55.665,55.042,36.5295,64.6655,53.803,54.296,36.039,64.6725,53.134,-0.0565,-0.192,0.11514500000000001,0.10258,0.0,213.765,213.76,210.64333333333332,210.64333333333332,0.0,0.0
24,0.0,0.0,0.0,1.0,1.0,0.0,0.0,1.0,0.0,100.0,1.0,1.1856,26.0,0.0,0.0,0.0,59.999996,0.0,26.0,26.0,26.0,26.0,0.01012499999999994,0.2529000000000001,0.0038,288.559,-2.6257,-2.5295555555555556,-1.584,-1.4917777777777779,-195.13,216.0375,190.479125,0.0,0.0,0.0,0.0,0.048433333333333335,-5.498166666666667,-5.498166666666667,-0.7853,-0.4179999999999999,0.048555555555555685,-0.646,68.385,0.0631666666666666,-0.46290000000000003,1.0274999999999999,100.0,1.0,1.0,210.91333333333333,0.0,0.0,0.0,0.0,0.0,0.0,0.0,8939.8,0.0,55.0,5.0,246.17000000000002,0.0,0.0,0.0,0.0,0.0,0.0,0.0,0.0,1.2059999999999995,1.2059999999999995,0.0,0.0,0.0,55.0,616.79921,10000.0,85.000001,85.000001,85.000001,85.000001,395.0,0.0,0.0,0.0,1.0,166.665,42.786,42.786,48.629999999999995,48.629999999999995,34.0,-27.607499999999998,25.198,-29.052500000000002,28.28,0.0,1782.278,1.0650000000000004,100.0,35.629,36.115,41.716,42.849000000000004,0.0,0.0,100.0,0.0,0.0,0.0,0.0,3692.0,3687.3,4263.222222222223,3993.6,303.753,303.0203333333333,314.649,315.015,22.122,20.8019,22.328222222222223,21.634900000000002,314.999998,314.999998,324.999988,324.999988,99.56061428571428,99.50998333333334,99.5887,99.55535714285715,0.09549999999999992,-0.1136666666666668,-0.08699999999999974,0.14700000000000024,-0.06499999999999773,-0.03166666666666629,1.5136666666666667,1.5514999999999999,39.262,31.012,40.551,36.218,57.035,37.582,66.2245,55.712,55.04,36.5725,64.678,53.8485,54.292,36.08,64.6815,53.179,-0.038,-0.2115,0.109115,0.10568500000000002,0.0,214.175,214.07999999999998,210.91333333333333,210.91333333333333,0.0,0.0
25,0.0,0.0,0.0,1.0,1.0,0.0,0.0,1.0,0.0,100.0,1.0,1.1856,26.0,0.0,0.0,0.0,59.999996,0.0,26.0,26.0,26.0,26.0,-0.03774999999999995,0.23360000000000003,-0.040400000000000005,288.666,-2.5887000000000002,-2.554444444444444,-1.5572,-1.5403333333333333,-191.84,216.05,190.455625,0.0,0.0,0.0,0.0,0.050333333333333334,-5.498166666666667,-5.498166666666667,-0.8236,-0.2593333333333332,0.019555555555555548,-1.754,68.497,-0.0011666666666663161,-0.4801,1.5875,100.0,1.0,1.0,211.43666666666667,0.0,0.0,0.0,0.0,0.0,0.0,0.0,8962.1,0.0,55.0,5.0,246.57,1.0,0.0,0.0,0.0,0.0,0.0,0.0,0.0,1.2540000000000013,1.2540000000000013,0.0,0.0,1.0,55.0,616.79921,10000.0,85.000001,85.000001,85.000001,85.000001,395.0,0.0,0.0,0.0,1.0,166.665,41.885,41.885,49.561,49.561,34.0,-31.482499999999998,25.89,-28.0625,24.356,0.0,1782.23,0.9850000000000003,100.0,35.719,36.044,41.795,42.26,0.0,0.0,100.0,0.0,0.0,0.0,0.0,3994.125,3929.2,3857.222222222222,3783.0,302.8905,302.22133333333335,315.64775,315.54,22.1317,20.8085,22.339111111111112,21.6438,314.999998,314.999998,324.999988,324.999988,99.56062857142857,99.51001666666667,99.58882857142856,99.55548571428571,0.06574999999999998,-0.1413333333333333,-0.1503333333333332,0.0946666666666669,-0.046666666666666856,-0.041666666666671404,1.58,1.6315,39.323,31.0535,40.620000000000005,36.274,57.03,37.631,66.237,55.7565,55.035,36.618,64.6885,53.8915,54.285,36.1235,64.689,53.221000000000004,-0.0455,-0.199,0.10633500000000001,0.10852500000000001,0.0,214.51999999999998,214.38,211.43666666666667,211.43666666666667,0.0,0.0
26,0.0,0.0,0.0,1.0,1.0,0.0,0.0,1.0,0.0,100.0,1.0,1.1856,26.0,0.0,0.0,0.0,59.999996,0.0,26.0,26.0,26.0,26.0,-0.11875000000000002,0.2359,0.08185,287.521,-2.5468,-2.586888888888889,-1.5724,-1.6025555555555557,-188.34,216.0625,190.429875,0.0,0.0,0.0,0.0,0.052366666666666666,-5.498166666666667,-5.498166666666667,-0.7858,0.9213333333333333,-0.04411111111111099,0.07899999999999996,68.619,-0.05750000000000011,-0.44680000000000003,1.7125,100.0,1.0,1.0,211.56666666666666,0.0,0.0,0.0,0.0,0.0,0.0,0.0,8967.6,0.0,55.0,5.0,247.00666666666666,0.0,0.0,0.0,0.0,0.0,0.0,0.0,0.0,1.3049999999999997,1.3049999999999997,0.0,0.0,0.0,55.0,616.79921,10000.0,85.000001,85.000001,85.000001,85.000001,395.0,0.0,0.0,0.0,1.0,333.33500000000004,41.138,41.138,48.248,48.248,34.0,-32.29,24.58,-35.8325,26.378,0.0,1782.177,0.8100000000000005,100.0,37.085,36.232,42.56,42.0,0.0,0.0,100.0,0.0,0.0,0.0,0.0,4011.625,3915.8,4382.555555555556,4204.3,302.5915,302.456,314.42175,314.5605,22.1426,20.8157,22.351,21.6534,314.999998,314.999998,324.999988,324.999988,99.56064285714285,99.51003333333334,99.58898571428571,99.55562857142857,0.05125000000000002,-0.1653333333333331,-0.19266666666666632,0.04400000000000048,-0.030000000000001137,-0.045000000000001705,1.462,1.498,39.391,31.098,40.693,36.334,57.028999999999996,37.687,66.2555,55.805,55.033,36.6695,64.7055,53.939,54.282,36.173,64.702,53.266999999999996,-0.0645,-0.1935,0.09968500000000001,0.108725,0.0,214.96,214.815,211.56666666666666,211.56666666666666,0.0,0.0
27,0.0,0.0,0.0,1.0,1.0,0.0,0.0,1.0,0.0,100.0,1.0,1.1856,26.0,0.0,0.0,0.0,59.999996,0.0,26.0,26.0,26.0,26.0,-0.15774999999999995,0.21950000000000003,0.0009000000000000001,287.659,-2.5531,-2.623333333333333,-1.5243,-1.5954444444444444,-185.05,216.07,190.406875,0.0,0.0,0.0,0.0,0.0543,-5.498166666666667,-5.498166666666667,-0.8023,-1.1883333333333335,-0.06566666666666654,0.587,68.731,-0.08833333333333337,-0.4880666666666667,1.6175000000000002,100.0,1.0,1.0,211.92000000000002,0.0,0.0,0.0,0.0,0.0,0.0,0.0,8982.5,0.0,55.0,5.0,247.41666666666666,1.0,0.0,0.0,0.0,0.0,0.0,0.0,0.0,1.352999999999998,1.352999999999998,0.0,0.0,1.0,55.0,616.79921,10000.0,85.000001,85.000001,85.000001,85.000001,395.0,0.0,0.0,0.0,1.0,333.33500000000004,41.565,41.565,48.187,48.187,34.0,-33.8675,23.240000000000002,-33.655,23.604,0.0,1782.129,0.6799999999999997,100.0,36.903,35.834,43.707,42.453,0.0,0.0,100.0,0.0,0.0,0.0,0.0,4045.875,3835.3,4099.0,4062.6000000000004,302.586,302.802,314.92075,314.8735,22.1526,20.8221,22.362333333333332,21.6626,314.999998,314.999998,324.999988,324.999988,99.56064285714285,99.51005,99.58911428571429,99.55577142857143,0.02925000000000022,-0.18500000000000005,-0.21199999999999974,0.014666666666666828,-0.046666666666666856,-0.041666666666671404,1.4616666666666667,1.5305,39.454,31.137999999999998,40.763999999999996,36.3915,57.024,37.7375,66.276,55.853,55.028999999999996,36.716,64.724,53.985,54.275999999999996,36.2175,64.7175,53.312,-0.075,-0.179,0.09682,0.10663500000000001,0.0,215.245,215.10000000000002,211.92000000000002,211.92000000000002,0.0,0.0
28,0.0,0.0,0.0,1.0,1.0,0.0,0.0,1.0,0.0,100.0,1.0,1.1856,26.0,0.0,0.0,0.0,59.999996,0.0,26.0,26.0,26.0,26.0,-0.15674999999999994,0.24960000000000004,-0.03475,288.101,-2.5263999999999998,-2.6294444444444443,-1.4882,-1.6204444444444444,-181.54,216.0775,190.38175,0.0,0.0,0.0,0.0,0.05633333333333334,-5.498166666666667,-5.498166666666667,-0.8166,0.5713333333333332,-0.08099999999999996,-0.612,68.84700000000001,-0.11249999999999982,-0.4758,1.5925000000000002,100.0,1.0,1.0,212.46,0.0,0.0,0.0,0.0,0.0,0.0,0.0,9005.4,0.0,55.0,5.0,247.82999999999998,0.0,0.0,0.0,0.0,0.0,0.0,0.0,0.0,1.404,1.404,0.0,0.0,0.0,55.0,616.79921,10000.0,85.000001,85.000001,85.000001,85.000001,395.0,0.0,0.0,0.0,1.0,166.665,41.58,41.58,49.072,49.072,34.0,-35.1525,21.64,-33.8225,21.662,0.0,1782.08,0.375,100.0,37.022999999999996,35.964,43.003,41.817,0.0,0.0,100.0,0.0,0.0,0.0,0.0,4148.0,3666.0,4083.777777777778,3889.2,302.44,303.06933333333336,315.1085,315.321,22.1633,20.829,22.37388888888889,21.672,314.999998,314.999998,324.999988,324.999988,99.56064285714285,99.51008333333333,99.58927142857142,99.55591428571428,0.015249999999999986,-0.19799999999999995,-0.24166666666666625,-0.0003333333333332966,-0.03499999999999659,-0.05833333333333002,1.5463333333333333,1.6179999999999999,39.521,31.1815,40.837,36.45,57.021,37.793,66.28999999999999,55.8975,55.025,36.766999999999996,64.7365,54.0285,54.271,36.266,64.7265,53.354,-0.1,-0.1545,0.102055,0.11681000000000001,0.0,215.64,215.505,212.46,212.46,0.0,0.0
29,0.0,0.0,0.0,1.0,1.0,0.0,0.0,1.0,0.0,100.0,1.0,1.1856,26.0,0.0,0.0,0.0,59.999996,0.0,26.0,26.0,26.0,26.0,-0.16562500000000002,0.23360000000000003,0.02765,287.689,-2.5242,-2.577777777777778,-1.5272000000000001,-1.600888888888889,-177.82,216.0775,190.354125,0.0,0.0,0.0,0.0,0.0585,-5.498166666666667,-5.498166666666667,-0.8181,-0.8109999999999999,-0.08144444444444421,-0.724,68.975,-0.11383333333333345,-0.4693333333333333,1.2025000000000001,100.0,1.0,1.0,212.66,0.0,0.0,0.0,0.0,0.0,0.0,0.0,9013.8,0.0,55.0,5.0,248.29333333333335,1.0,0.0,0.0,0.0,0.0,0.0,0.0,0.0,1.4579999999999984,1.4579999999999984,0.0,0.0,1.0,55.0,616.79921,10000.0,85.000001,85.000001,85.000001,85.000001,395.0,0.0,0.0,0.0,1.0,166.665,41.534,41.534,48.157,48.157,34.0,-35.745000000000005,22.458,-36.78,22.706,0.0,1782.027,0.27000000000000046,100.0,36.669,35.653,43.408,42.037,0.0,0.0,100.0,0.0,0.0,0.0,0.0,4240.25,3833.7,4308.0,4022.3,302.265,302.679,314.6,314.92075,22.1745,20.8362,22.386444444444443,21.6822,314.999998,314.999998,324.999988,324.999988,99.56064285714285,99.51011666666666,99.58942857142857,99.55605714285714,0.018000000000000238,-0.19066666666666676,-0.23833333333333329,-0.0003333333333332966,-0.04333333333332945,-0.02499999999999858,1.4806666666666666,1.5265,39.591,31.2265,40.915,36.513999999999996,57.015,37.849000000000004,66.3115,55.9495,55.019,36.819,64.7565,54.0785,54.263,36.3155,64.7425,53.403,-0.1095,-0.14250000000000002,0.10613,0.117165,0.0,215.99,215.865,212.66,212.66,0.0,0.0
30,0.0,0.0,0.0,1.0,1.0,0.0,0.0,1.0,0.0,100.0,1.0,1.1856,26.0,0.0,0.0,0.0,59.999996,0.0,26.0,26.0,26.0,26.0,-0.15774999999999995,0.242,0.03045,287.323,-2.427,-2.5789999999999997,-1.5146000000000002,-1.5462222222222222,-174.70999999999998,216.0775,190.330875,0.0,0.0,0.0,0.0,0.0603,-5.498166666666667,-5.498166666666667,-0.8226,0.8306666666666667,-0.08111111111111136,0.714,69.077,-0.10633333333333361,-0.4758,1.0125000000000002,100.0,1.0,1.0,213.06666666666666,0.0,0.0,0.0,0.0,0.0,0.0,0.0,9031.1,0.0,55.0,5.0,248.65666666666667,0.0,0.0,0.0,0.0,0.0,0.0,1.0,0.0,1.5030000000000001,1.5030000000000001,0.0,0.0,0.0,55.0,616.79921,10000.0,85.000001,85.000001,85.000001,85.000001,395.0,0.0,0.0,0.0,1.0,166.665,40.558,40.558,48.431,48.431,34.0,-32.807500000000005,23.646,-35.01,23.324,0.0,1781.981,0.1349999999999998,100.0,37.724000000000004,36.327,43.263,41.805,0.0,0.0,100.0,0.0,0.0,0.0,0.0,4163.5,3894.2,4239.222222222223,4134.7,302.1375,302.41566666666665,314.78925,314.83475,22.1841,20.8425,22.39666666666667,21.6906,314.999998,314.999998,324.999988,324.999988,99.56065714285714,99.51015,99.58955714285715,99.5562,0.040999999999999925,-0.17900000000000005,-0.22533333333333339,0.017999999999999794,-0.04833333333333201,-0.03999999999999915,1.5156666666666667,1.5655,39.650999999999996,31.2655,40.979,36.5665,57.013999999999996,37.8995,66.3255,55.9905,55.018,36.8655,64.7685,54.118,54.26,36.36,64.752,53.4415,-0.121,-0.1385,0.108505,0.10771000000000001,0.0,216.35500000000002,216.20499999999998,213.06666666666666,213.06666666666666,0.0,0.0
31,0.0,0.0,0.0,1.0,1.0,0.0,0.0,1.0,0.0,100.0,1.0,1.1856,26.0,0.0,0.0,0.0,59.999996,0.0,26.0,26.0,26.0,26.0,-0.13587499999999997,0.23429999999999995,-0.00895,287.109,-2.5206,-2.648111111111111,-1.5525,-1.5447777777777778,-171.19,216.07,190.305125,0.0,0.0,0.0,0.0,0.06233333333333334,-5.498166666666667,-5.498166666666667,-0.8019000000000001,-0.4676666666666667,-0.06866666666666665,-0.802,69.196,-0.09016666666666628,-0.47400000000000003,0.6425000000000001,100.0,1.0,1.0,213.28,0.0,0.0,0.0,0.0,0.0,0.0,0.0,9040.1,0.0,55.0,5.0,249.08666666666664,1.0,0.0,0.0,0.0,0.0,0.0,1.0,0.0,1.5539999999999985,1.5539999999999985,0.0,0.0,1.0,55.0,616.79921,10000.0,85.000001,85.000001,85.000001,85.000001,395.0,0.0,0.0,0.0,1.0,333.33500000000004,41.061,41.061,47.134,47.134,34.0,-32.0875,24.364,-36.3725,23.428,0.0,1781.928,0.025000000000000355,100.0,37.383,36.620000000000005,43.846000000000004,42.637,0.0,0.0,100.0,0.0,0.0,0.0,0.0,4009.0,3838.3,4377.444444444444,4047.0,302.8785,302.60366666666664,314.42,314.77275,22.1948,20.8495,22.408555555555555,21.7004,314.999998,314.999998,324.999988,324.999988,99.56067142857142,99.51016666666666,99.58971428571428,99.55632857142857,0.04349999999999987,-0.17466666666666675,-0.20866666666666633,0.020000000000000462,-0.03999999999999915,-0.03499999999999659,1.4733333333333334,1.4825,39.718,31.3095,41.054,36.628,57.010999999999996,37.954,66.34649999999999,56.0415,55.015,36.9165,64.788,54.167500000000004,54.256,36.408500000000004,64.7675,53.4895,-0.126,-0.1285,0.10588,0.10812500000000001,0.0,216.67000000000002,216.59,213.28,213.28,0.0,0.0
32,0.0,0.0,0.0,1.0,1.0,0.0,0.0,1.0,0.0,100.0,1.0,1.1856,26.0,0.0,0.0,0.0,59.999996,0.0,26.0,26.0,26.0,26.0,-0.10875000000000001,0.2237,-0.0342,287.552,-2.5414,-2.615,-1.5075,-1.6533333333333333,-167.64999999999998,216.0625,190.27975,0.0,0.0,0.0,0.0,0.0644,-5.498166666666667,-5.498166666666667,-0.8278000000000001,0.024333333333333318,-0.09200000000000008,-0.020000000000000018,69.309,-0.07266666666666666,-0.4936333333333333,0.5500000000000003,100.0,1.0,1.0,213.85000000000002,0.0,0.0,0.0,0.0,0.0,0.0,0.0,9064.4,0.0,55.0,5.0,249.49333333333334,0.0,0.0,0.0,0.0,0.0,0.0,1.0,0.0,1.6050000000000004,1.6050000000000004,0.0,0.0,0.0,55.0,616.79921,10000.0,85.000001,85.000001,85.000001,85.000001,395.0,0.0,0.0,0.0,1.0,166.665,40.833,40.833,48.691,48.691,34.0,-31.89,25.652,-29.990000000000002,24.472,0.0,1781.877,0.0,100.0,37.465,36.54,43.546,42.355000000000004,0.0,0.0,100.0,0.0,0.0,0.0,0.0,4094.0,3862.3,3912.3333333333335,3888.2,302.46,302.59866666666665,315.4935,315.28,22.2054,20.8566,22.420222222222222,21.71,314.999998,314.999998,324.999988,324.999988,99.56067142857142,99.5102,99.58987142857143,99.55648571428571,0.06800000000000006,-0.14700000000000002,-0.19033333333333324,0.04533333333333367,-0.04833333333333201,-0.051666666666669414,1.561,1.5905,39.784,31.354,41.126000000000005,36.6875,57.009,38.009,66.361,56.088,55.012,36.967,64.801,54.2125,54.251999999999995,36.4565,64.7775,53.533,-0.1335,-0.1265,0.10653000000000001,0.09814,0.0,216.99,216.965,213.85000000000002,213.85000000000002,0.0,0.0
33,0.0,0.0,0.0,1.0,1.0,0.0,0.0,1.0,0.0,100.0,1.0,1.1856,26.0,0.0,0.0,0.0,59.999996,0.0,26.0,26.0,26.0,26.0,-0.08662499999999995,0.2259,-0.009250000000000001,287.476,-2.4818,-2.631111111111111,-1.5517,-1.5736666666666668,-164.32,216.05,190.254875,0.0,0.0,0.0,0.0,0.06633333333333334,-5.498166666666667,-5.498166666666667,-0.8235,-0.137,-0.08566666666666656,1.528,69.419,-0.05966666666666631,-0.4743666666666667,0.4275000000000002,100.0,1.0,1.0,214.04000000000002,0.0,0.0,0.0,0.0,0.0,0.0,0.0,9072.4,0.0,55.0,5.0,249.89,1.0,0.0,0.0,0.0,0.0,0.0,1.0,0.0,1.6529999999999987,1.6529999999999987,0.0,0.0,1.0,55.0,616.79921,10000.0,85.000001,85.000001,85.000001,85.000001,395.0,0.0,0.0,0.0,1.0,166.665,41.306,41.306,48.187,48.187,34.0,-29.2225,25.854,-32.785,25.990000000000002,0.0,1781.831,-0.09499999999999975,100.0,37.407,36.252,43.479,42.376,0.0,0.0,100.0,0.0,0.0,0.0,0.0,3937.25,3799.2,4188.333333333333,4139.7,302.821,302.86633333333333,314.8475,314.7715,22.2154,20.8631,22.43111111111111,21.7191,314.999998,314.999998,324.999988,324.999988,99.56068571428571,99.51021666666666,99.59,99.55662857142858,0.07925000000000004,-0.137,-0.17733333333333334,0.05600000000000005,-0.03499999999999659,-0.04333333333332945,1.5053333333333332,1.5245,39.846000000000004,31.3945,41.195,36.7445,57.007999999999996,38.0565,66.377,56.1335,55.010999999999996,37.010999999999996,64.8155,54.2565,54.248999999999995,36.499,64.7885,53.576,-0.1355,-0.12,0.10656,0.10276,0.0,217.34,217.31,214.04000000000002,214.04000000000002,0.0,0.0
34,0.0,0.0,0.0,1.0,1.0,0.0,0.0,1.0,0.0,100.0,1.0,1.1856,26.0,0.0,0.0,0.0,59.999996,0.0,26.0,26.0,26.0,26.0,-0.0615,0.2239,-0.10495,287.994,-2.6044,-2.5922222222222224,-1.5256,-1.571888888888889,-160.78,216.0375,190.227625,0.0,0.0,0.0,0.0,0.0684,-5.498166666666667,-5.498166666666667,-0.8531000000000001,-0.865,-0.05088888888888876,-0.04799999999999993,69.53399999999999,-0.043333333333333446,-0.4875666666666667,0.29000000000000004,100.0,1.0,1.0,214.45333333333332,0.0,0.0,0.0,0.0,0.0,0.0,0.0,9089.8,0.0,55.0,5.0,250.30333333333334,0.0,0.0,0.0,0.0,0.0,0.0,1.0,0.0,1.7040000000000006,1.7040000000000006,0.0,0.0,0.0,55.0,616.79921,10000.0,85.000001,85.000001,85.000001,85.000001,395.0,0.0,0.0,0.0,1.0,166.665,41.87,41.87,49.088,49.088,34.0,-31.009999999999998,24.488,-29.259999999999998,26.282,0.0,1781.781,-0.09999999999999964,100.0,36.794,36.181,43.159,42.601,0.0,0.0,100.0,0.0,0.0,0.0,0.0,4001.875,3651.0,3914.5555555555557,4044.6000000000004,302.982,303.22633333333334,315.498,314.8865,22.2258,20.8701,22.442666666666668,21.7288,314.999998,314.999998,324.999988,324.999988,99.5607,99.51023333333333,99.59014285714285,99.55677142857142,0.07750000000000012,-0.1343333333333332,-0.16733333333333356,0.07500000000000018,-0.061666666666667425,-0.03333333333333144,1.538,1.543,39.911,31.438000000000002,41.266999999999996,36.8045,57.004999999999995,38.107,66.391,56.182,55.007999999999996,37.0575,64.828,54.3035,54.244,36.543,64.7975,53.6215,-0.139,-0.11750000000000001,0.10869500000000001,0.10766500000000001,0.0,217.685,217.655,214.45333333333332,214.45333333333332,0.0,0.0
35,0.0,0.0,0.0,1.0,1.0,0.0,0.0,1.0,0.0,100.0,1.0,1.1856,26.0,0.0,0.0,0.0,59.999996,0.0,26.0,26.0,26.0,26.0,-0.06137499999999996,0.23330000000000006,-0.0729,288.162,-2.6295,-2.5517777777777777,-1.6054,-1.558888888888889,-157.23000000000002,216.0225,190.198375,0.0,0.0,0.0,0.0,0.07046666666666666,-5.498166666666667,-5.498166666666667,-0.8981,-0.8196666666666668,-0.04233333333333311,-0.0020000000000000018,69.647,-0.030166666666666675,-0.49023333333333335,0.12250000000000005,100.0,1.0,1.0,214.87666666666667,0.0,0.0,0.0,0.0,0.0,0.0,0.0,9107.9,0.0,55.0,5.0,250.71333333333334,1.0,0.0,0.0,0.0,0.0,0.0,1.0,0.0,1.754999999999999,1.754999999999999,0.0,0.0,1.0,55.0,616.79921,10000.0,85.000001,85.000001,85.000001,85.000001,395.0,0.0,0.0,0.0,1.0,166.665,41.748,41.748,48.477000000000004,48.477000000000004,34.0,-28.357499999999998,28.735999999999997,-29.7925,25.254,0.0,1781.73,-0.11500000000000021,100.0,36.564,36.114000000000004,42.777,42.221000000000004,0.0,0.0,100.0,0.0,0.0,0.0,0.0,3795.125,4041.7,4044.0,3827.2,303.436,302.15233333333333,315.28975,315.5345,22.2361,20.8771,22.45411111111111,21.7383,314.999998,314.999998,324.999988,324.999988,99.56071428571428,99.51026666666667,99.5903,99.55691428571429,0.10099999999999998,-0.10333333333333328,-0.14066666666666627,0.10066666666666713,-0.030000000000001137,-0.06833333333332803,1.5916666666666668,1.6039999999999999,39.975,31.482,41.338,36.864,57.001000000000005,38.1565,66.4035,56.2275,55.004000000000005,37.1035,64.839,54.3475,54.238,36.587,64.8045,53.664500000000004,-0.14150000000000001,-0.1105,0.10901000000000001,0.11442000000000001,0.0,218.0,218.015,214.87666666666667,214.87666666666667,0.0,0.0
36,0.0,0.0,0.0,1.0,1.0,0.0,0.0,1.0,0.0,100.0,1.0,1.1856,26.0,0.0,0.0,0.0,59.999996,0.0,26.0,26.0,26.0,26.0,-0.03049999999999997,0.24009999999999998,0.017400000000000002,287.308,-2.5248,-2.619666666666667,-1.5801,-1.5553333333333332,-153.89,216.0075,190.168875,0.0,0.0,0.0,0.0,0.0724,-5.498166666666667,-5.498166666666667,-0.8884000000000001,0.7506666666666666,-0.07288888888888856,-0.08199999999999996,69.756,-0.020000000000000018,-0.4648333333333333,0.11500000000000021,100.0,1.0,1.0,215.06,0.0,0.0,0.0,0.0,0.0,0.0,0.0,9115.7,0.0,55.0,5.0,251.10333333333335,0.0,0.0,0.0,0.0,0.0,0.0,1.0,0.0,1.8030000000000008,1.8030000000000008,0.0,0.0,0.0,55.0,616.79921,10000.0,85.000001,85.000001,85.000001,85.000001,395.0,0.0,0.0,0.0,1.0,166.665,40.939,40.939,48.172,48.172,34.0,-27.3125,28.234,-31.025,30.062,0.0,1781.681,-0.07000000000000028,100.0,37.242000000000004,36.858000000000004,42.681,42.162,0.0,0.0,100.0,0.0,0.0,0.0,0.0,3865.625,3913.9,4236.0,4333.2,303.003,302.27133333333336,314.87475,314.341,22.246,20.884,22.46488888888889,21.7473,314.999998,314.999998,324.999988,324.999988,99.56072857142857,99.51028333333333,99.59044285714286,99.55705714285715,0.11175000000000024,-0.1136666666666668,-0.1306666666666665,0.10833333333333339,-0.036666666666668846,-0.045000000000001705,1.498,1.5165,40.037,31.525,41.406,36.920500000000004,57.001999999999995,38.207,66.4165,56.272,55.004000000000005,37.1505,64.8505,54.3905,54.236999999999995,36.632,64.813,53.7065,-0.14,-0.1255,0.10429000000000001,0.10622500000000001,0.0,218.39,218.38,215.06,215.06,0.0,0.0
