,ABS Active,ABS Enabled,AID Allow Tire Blankets,AID Auto Blip,AID Auto Clutch,AID Auto Shift,AID Fuel Rate,AID Ideal Line,AID Mech Damage,AID Stability,AID Tire Wear Rate,Air Density,Air Temp,Ballast,Best Lap Delta,Best Lap Time,Brake Bias,Brake Pos,Brake Temp FL,Brake Temp FR,Brake Temp RL,Brake Temp RR,CG Accel Lateral,CG Accel Longitudinal,CG Accel Vertical,CG Height,Camber FL,Camber FR,Camber RL,Camber RR,Car Coord X,Car Coord Y,Car Coord Z,Car Damage Front,Car Damage Left,Car Damage Rear,Car Damage Right,Car Pos Norm,Caster FL,Caster FR,Chassis Pitch Angle,Chassis Pitch Rate,Chassis Roll Angle,Chassis Roll Rate,Chassis Velocity X,Chassis Velocity Y,Chassis Velocity Z,Chassis Yaw Rate,Clutch Pos,DRS Active,DRS Available,Drive Train Speed,ERS Heat Charging,ERS Is Charging,ERS Max Energy,ERS Power Level,ERS Recovery Level,Engine Brake Setting,Engine Limiter,Engine RPM,Flags,Fuel Level,Gear,Ground Speed,HR Sample Clock,In Pit,KERS Charge,KERS Deployed Energy,KERS Input,KERS Max Energy,LR Sample Clock,Lap Invalidated,Lap Time,Lap Time2,Last Lap Time,Last Sector Time,MR Sample Clock,Max Fuel,Max Power,Max RPM,Max Sus Travel FL,Max Sus Travel FR,Max Sus Travel RL,Max Sus Travel RR,Max Torque,Max Turbo Boost,Num Tires Off Track,Penalties Enabled,Position,Raw Data Sample Rate,Ride Height FL,Ride Height FR,Ride Height RL,Ride Height RR,Road Temp,Self Align Torque FL,Self Align Torque FR,Self Align Torque RL,Self Align Torque RR,Session Lap Count,Session Time Left,Steering Angle,Surface Grip,Suspension Travel FL,Suspension Travel FR,Suspension Travel RL,Suspension Travel RR,TC Active,TC Enabled,Throttle Pos,Tire Dirt Level FL,Tire Dirt Level FR,Tire Dirt Level RL,Tire Dirt Level RR,Tire Load FL,Tire Load FR,Tire Load RL,Tire Load RR,Tire Loaded Radius FL,Tire Loaded Radius FR,Tire Loaded Radius RL,Tire Loaded Radius RR,Tire Pressure FL,Tire Pressure FR,Tire Pressure RL,Tire Pressure RR,Tire Radius FL,Tire Radius FR,Tire Radius RL,Tire Radius RR,Tire Rubber Grip FL,Tire Rubber Grip FR,Tire Rubber Grip RL,Tire Rubber Grip RR,Tire Slip Angle FL,Tire Slip Angle FR,Tire Slip Angle RL,Tire Slip Angle RR,Tire Slip Ratio FL,Tire Slip Ratio FR,Tire Slip Ratio RL,Tire Slip Ratio RR,Tire Temp Core FL,Tire Temp Core FR,Tire Temp Core RL,Tire Temp Core RR,Tire Temp Inner FL,Tire Temp Inner FR,Tire Temp Inner RL,Tire Temp Inner RR,Tire Temp Middle FL,Tire Temp Middle FR,Tire Temp Middle RL,Tire Temp Middle RR,Tire Temp Outer FL,Tire Temp Outer FR,Tire Temp Outer RL,Tire Temp Outer RR,Toe In FL,Toe In FR,Toe In RL,Toe In RR,Turbo Boost,Wheel Angular Speed FL,Wheel Angular Speed FR,Wheel Angular Speed RL,Wheel Angular Speed RR,Wind Direction,Wind Speed
0,0.0,0.0,0.0,1.0,1.0,0.0,0.0,1.0,0.0,100.0,1.0,1.1856,26.0,0.0,0.0,0.0,59.99999,0.0,26.0,26.0,26.0,26.0,-0.09522222222222221,0.31910000000000016,0.11860000000000001,294.907,-2.7323,-2.706,-1.5014,-1.5766,-275.43,216.275,190.987,0.0,0.0,0.0,0.0,0.0017333333333333645,-5.498166666666667,-5.498166666666667,-0.4959,1.4333333333333333,-0.0301111111111112,-1.6360000000000001,65.514,-0.0512,-0.1559,1.1340000000000003,100.0,1.0,1.0,202.26,0.0,0.0,0.0,0.0,0.0,0.0,0.0,8573.1,0.0,55.0,5.0,235.82,0.0,0.0,0.0,0.0,0.0,0.0,0.0,0.0,0.006000000000000227,0.006000000000000227,0.0,0.0,0.0,55.0,616.79921,10000.0,85.0,85.0,85.0,85.0,395.0,0.0,0.0,0.0,1.0,20.0,55.069,55.069,49.042,49.042,34.0,-27.83,21.587999999999997,-31.95,23.505,0.0,1783.364,0.9550000000000018,100.0,25.34,25.117,40.903999999999996,40.601,0.0,0.0,100.0,0.0,0.0,0.0,0.0,3023.75,3162.9,4248.333333333333,3938.3,305.739,304.65625,314.55925,314.973,21.7569,20.4857,21.7486,21.3106,314.99999,314.99999,324.99998,324.99998,99.55864285714286,99.50681666666667,99.56328571428571,99.54467142857143,-0.035250000000000004,-0.1353333333333333,-0.17350000000000002,0.037333333333333336,-0.04333333333332945,-0.061666666666667425,1.539,1.5630000000000002,36.980999999999995,29.035666666666664,36.928,34.1915,56.092,34.0625,58.415,51.3695,53.992000000000004,33.263,57.055,49.7505,53.14,32.838,57.0065,49.18866666666666,0.008000000000000007,-0.137,0.10132000000000001,0.10648,0.0,205.32999999999998,205.23000000000002,202.26,202.26,0.0,0.0
1,0.0,0.0,0.0,1.0,1.0,0.0,0.0,1.0,0.0,100.0,1.0,1.1856,26.0,0.0,0.0,0.0,59.999996,0.0,26.0,26.0,26.0,26.0,-0.12022222222222212,0.30900000000000016,-0.0047666666666666664,294.113,-2.6572,-2.803,-1.52335,-1.5606,-272.08,216.2725,190.967,0.0,0.0,0.0,0.0,0.0036999999999999256,-5.498166666666667,-5.498166666666667,-0.448,-0.7043333333333334,-0.061555555555555586,-0.4099999999999999,65.672,-0.0668,-0.14295,1.4779999999999998,100.0,1.0,1.0,202.44333333333333,0.0,0.0,0.0,0.0,0.0,0.0,0.0,8580.9,0.0,55.0,5.0,236.38666666666666,1.0,0.0,0.0,0.0,0.0,0.0,0.0,0.0,0.05699999999999861,0.05699999999999861,0.0,0.0,1.0,55.0,616.79921,10000.0,85.000001,85.000001,85.000001,85.000001,395.0,0.0,0.0,0.0,1.0,333.33500000000004,56.168,56.168,48.08,48.08,34.0,-25.435,16.774,-34.17666666666666,28.8,0.0,1783.312,0.9600000000000009,100.0,25.722,24.966,43.113,41.902,0.0,0.0,100.0,0.0,0.0,0.0,0.0,2838.125,2493.4,4260.333333333333,4737.9,306.112,306.9075,314.38725,313.0425,21.7666,20.4904,21.7592,21.3197,314.999998,314.999998,324.999988,324.999988,99.55865714285714,99.50683333333333,99.56342857142857,99.54481428571428,-0.03325,-0.1396666666666666,-0.1905,0.025,-0.008333333333325754,-0.01999999999999602,1.3935,1.446,37.041,29.064999999999998,36.995000000000005,34.2485,56.074,34.1,58.462,51.4365,53.976,33.2975,57.0995,49.815,53.123,32.871,57.048,49.251333333333335,0.013000000000000123,-0.13800000000000012,0.10202000000000001,0.10668000000000001,0.0,205.75,205.635,202.44333333333333,202.44333333333333,0.0,0.0
2,0.0,0.0,0.0,1.0,1.0,0.0,0.0,1.0,0.0,100.0,1.0,1.1856,26.0,0.0,0.0,0.0,59.999996,0.0,26.0,26.0,26.0,26.0,-0.14322222222222214,0.31089999999999995,-0.014866666666666667,294.678,-2.6250999999999998,-2.8291250000000003,-1.48415,-1.6183,-268.73,216.265,190.948125,0.0,0.0,0.0,0.0,0.005633333333333379,-5.498166666666667,-5.498166666666667,-0.49810000000000004,0.14566666666666667,-0.056333333333333346,1.737,65.818,-0.08535000000000001,-0.189225,1.734,100.0,1.0,1.0,203.34,0.0,0.0,0.0,0.0,0.0,0.0,0.0,8618.8,0.0,55.0,5.0,236.91333333333333,0.0,0.0,0.0,0.0,0.0,0.0,0.0,0.0,0.10800000000000054,0.10800000000000054,0.0,0.0,0.0,55.0,616.79921,10000.0,85.000001,85.000001,85.000001,85.000001,395.0,0.0,0.0,0.0,1.0,333.33500000000004,54.947,54.947,49.866,49.866,34.0,-29.515,17.919999999999998,-30.253333333333334,19.697499999999998,0.0,1783.261,0.6799999999999997,100.0,26.383,25.044,42.828,41.478,0.0,0.0,100.0,0.0,0.0,0.0,0.0,3208.5,2725.6,3789.1111111111113,3737.3,305.066,306.136,315.56025,315.63575,21.7766,20.495,21.7695,21.3284,314.999998,314.999998,324.999988,324.999988,99.55865714285714,99.50685,99.56357142857142,99.54494285714286,-0.04600000000000004,-0.1653333333333331,-0.23683333333333334,-0.011666666666666665,-0.060000000000002274,-0.046666666666666856,1.6165,1.698,37.104,29.093666666666664,37.059,34.3025,56.06,34.1365,58.501999999999995,51.4935,53.963,33.331,57.1365,49.8695,53.109,32.903,57.083,49.305,-0.008499999999999952,-0.12949999999999995,0.105965,0.10627500000000001,0.0,206.22500000000002,206.085,203.34,203.34,0.0,0.0
3,0.0,0.0,0.0,1.0,1.0,0.0,0.0,1.0,0.0,100.0,1.0,1.1856,26.0,0.0,0.0,0.0,59.999996,0.0,26.0,26.0,26.0,26.0,-0.14855555555555555,0.30310000000000015,-0.024633333333333337,294.373,-2.7503,-2.72425,-1.50705,-1.5998999999999999,-265.57,216.255,190.9295,0.0,0.0,0.0,0.0,0.0074666666666665105,-5.498166666666667,-5.498166666666667,-0.4595,0.3906666666666667,-0.018444444444444485,-0.913,65.964,-0.0971,-0.144575,1.2840000000000007,100.0,1.0,1.0,203.46333333333334,0.0,0.0,0.0,0.0,0.0,0.0,0.0,8624.1,0.0,55.0,5.0,237.43666666666667,1.0,0.0,0.0,0.0,0.0,0.0,0.0,0.0,0.1559999999999988,0.1559999999999988,0.0,0.0,1.0,55.0,616.79921,10000.0,85.000001,85.000001,85.000001,85.000001,395.0,0.0,0.0,0.0,1.0,166.665,56.015,56.015,47.775,47.775,34.0,-25.22,16.669999999999998,-36.21333333333333,24.0775,0.0,1783.214,0.6499999999999986,100.0,25.991,25.147,42.716,41.66,0.0,0.0,100.0,0.0,0.0,0.0,0.0,2716.875,2600.1,4382.0,4248.1,306.55266666666665,306.37,314.16875,314.2595,21.7856,20.4995,21.7792,21.3368,314.999998,314.999998,324.999988,324.999988,99.55865714285714,99.50685,99.56371428571428,99.54508571428572,-0.0462499999999999,-0.15566666666666662,-0.22,-0.0021666666666666666,-0.06666666666666998,-0.01833333333333087,1.4725000000000001,1.5145,37.16,29.122,37.120000000000005,34.355000000000004,56.043,34.174,58.542,51.5535,53.946,33.366,57.174,49.927,53.093,32.936,57.118,49.361333333333334,-0.01749999999999996,-0.1120000000000001,0.09836,0.11388500000000001,0.0,206.715,206.595,203.46333333333334,203.46333333333334,0.0,0.0
4,0.0,0.0,0.0,1.0,1.0,0.0,0.0,1.0,0.0,100.0,1.0,1.1856,26.0,0.0,0.0,0.0,59.999996,0.0,26.0,26.0,26.0,26.0,-0.1584444444444444,0.3053000000000001,-0.041133333333333334,294.678,-2.6811,-2.7817499999999997,-1.52295,-1.609,-262.2,216.24,190.909875,0.0,0.0,0.0,0.0,0.009433333333333294,-5.498166666666667,-5.498166666666667,-0.4959,-0.74,-0.08400000000000007,-0.589,66.114,-0.09285,-0.182475,1.0860000000000003,100.0,1.0,1.0,204.10333333333332,0.0,0.0,0.0,0.0,0.0,0.0,0.0,8651.1,0.0,55.0,5.0,237.98000000000002,0.0,0.0,0.0,0.0,0.0,0.0,0.0,0.0,0.20700000000000074,0.20700000000000074,0.0,0.0,0.0,55.0,616.79921,10000.0,85.000001,85.000001,85.000001,85.000001,395.0,0.0,0.0,0.0,1.0,166.665,55.527,55.527,48.644999999999996,48.644999999999996,34.0,-27.877499999999998,18.712,-32.20333333333333,20.9075,0.0,1783.162,0.6700000000000017,100.0,25.899,24.775,43.109,41.584,0.0,0.0,100.0,0.0,0.0,0.0,0.0,3041.0,2788.9,4048.4444444444443,3695.7,305.59766666666667,305.9965,314.87475,315.63675,21.795,20.5043,21.7896,21.3456,314.999998,314.999998,324.999988,324.999988,99.55867142857143,99.50686666666667,99.56385714285715,99.54521428571428,-0.03875000000000006,-0.1459999999999999,-0.20816666666666667,0.015333333333333334,-0.03833333333332689,-0.054999999999999716,1.578,1.621,37.219,29.151666666666664,37.185,34.41,56.024,34.213,58.585499999999996,51.6135,53.928,33.4015,57.215,49.9845,53.074,32.9705,57.156,49.41733333333333,-0.013499999999999956,-0.11099999999999999,0.109075,0.10739000000000001,0.0,207.09,207.005,204.10333333333335,204.10333333333332,0.0,0.0
5,0.0,0.0,0.0,1.0,1.0,0.0,0.0,1.0,0.0,100.0,1.0,1.1856,26.0,0.0,0.0,0.0,59.999996,0.0,26.0,26.0,26.0,26.0,-0.13488888888888895,0.2954000000000001,-0.0108,294.678,-2.6962,-2.798875,-1.50815,-1.5936,-258.82,216.2225,190.8895,0.0,0.0,0.0,0.0,0.011399999999999966,-5.498166666666667,-5.498166666666667,-0.4849,0.3506666666666667,-0.08800000000000008,-0.19999999999999996,66.264,-0.0931,-0.1547,1.1159999999999997,100.0,1.0,1.0,204.48000000000002,0.0,0.0,0.0,0.0,0.0,0.0,0.0,8667.2,0.0,55.0,5.0,238.51666666666665,1.0,0.0,0.0,0.0,0.0,0.0,0.0,0.0,0.2579999999999991,0.2579999999999991,0.0,0.0,1.0,55.0,616.79921,10000.0,85.000001,85.000001,85.000001,85.000001,395.0,0.0,0.0,0.0,1.0,333.33500000000004,56.0,56.0,48.691,48.691,34.0,-27.3425,17.344,-34.72333333333333,22.8625,0.0,1783.111,0.23499999999999943,100.0,25.827,24.733,42.778,41.334,0.0,0.0,100.0,0.0,0.0,0.0,0.0,3020.0,2570.4,4237.111111111111,4065.5,305.7556666666667,306.55075,314.5605,314.7285,21.8047,20.509,21.7999,21.3543,314.999998,314.999998,324.999988,324.999988,99.55867142857143,99.50688333333333,99.564,99.54535714285714,-0.03049999999999997,-0.1436666666666666,-0.22533333333333336,0.0036666666666666666,-0.06666666666666998,-0.04833333333333201,1.528,1.5630000000000002,37.28,29.181333333333335,37.25,34.4645,56.009,34.2505,58.628,51.672,53.913,33.436,57.254999999999995,50.0405,53.058,33.0035,57.193,49.472,-0.04249999999999998,-0.09099999999999997,0.108005,0.10843000000000001,0.0,207.635,207.515,204.48000000000002,204.48000000000002,0.0,0.0
6,0.0,0.0,0.0,1.0,1.0,0.0,0.0,1.0,0.0,100.0,1.0,1.1856,26.0,0.0,0.0,0.0,59.999996,0.0,26.0,26.0,26.0,26.0,-0.11788888888888893,0.30290000000000017,-0.0081,294.51,-2.6658,-2.826125,-1.5523500000000001,-1.5882,-255.64,216.2025,190.870125,0.0,0.0,0.0,0.0,0.01323333333333332,-5.498166666666667,-5.498166666666667,-0.4811,0.08966666666666667,-0.06777777777777771,-0.4949999999999999,66.405,-0.0864,-0.15610000000000002,0.766,100.0,1.0,1.0,204.92333333333335,0.0,0.0,0.0,0.0,0.0,0.0,0.0,8685.9,0.0,55.0,5.0,239.02666666666667,0.0,0.0,0.0,0.0,0.0,0.0,0.0,0.0,0.30600000000000094,0.30600000000000094,0.0,0.0,0.0,55.0,616.79921,10000.0,85.000001,85.000001,85.000001,85.000001,395.0,0.0,0.0,0.0,1.0,166.665,55.725,55.725,48.492,48.492,34.0,-26.3925,19.29,-33.766666666666666,22.805,0.0,1783.064,0.010000000000001563,100.0,25.729,24.907,42.870000000000005,41.691,0.0,0.0,100.0,0.0,0.0,0.0,0.0,3015.125,2669.2,4161.222222222223,4023.8,305.733,306.131,314.73525,314.82675,21.8138,20.5135,21.8097,21.3627,314.999998,314.999998,324.999988,324.999988,99.55867142857143,99.5069,99.56412857142857,99.5455,-0.012750000000000039,-0.12033333333333318,-0.20783333333333334,0.008666666666666666,-0.046666666666666856,-0.04333333333332945,1.5185,1.5565,37.336,29.209333333333333,37.311,34.516999999999996,55.992000000000004,34.286,58.668,51.7305,53.897999999999996,33.469,57.292500000000004,50.0965,53.042,33.0345,57.228,49.527,-0.0595,-0.07099999999999995,0.10713500000000001,0.10015,0.0,208.015,207.94,204.92333333333335,204.92333333333335,0.0,0.0
7,0.0,0.0,0.0,1.0,1.0,0.0,0.0,1.0,0.0,100.0,1.0,1.1856,26.0,0.0,0.0,0.0,59.999996,0.0,26.0,26.0,26.0,26.0,-0.06533333333333335,0.29300000000000015,0.008933333333333333,294.403,-2.6409,-2.7828749999999998,-1.51505,-1.6264,-252.05,216.1775,190.8485,0.0,0.0,0.0,0.0,0.01533333333333331,-5.498166666666667,-5.498166666666667,-0.4847,0.066,-0.05311111111111133,-0.22399999999999998,66.562,-0.0684,-0.166,0.3780000000000001,100.0,1.0,1.0,205.40666666666667,0.0,0.0,0.0,0.0,0.0,0.0,0.0,8706.4,0.0,55.0,5.0,239.59333333333333,1.0,0.0,0.0,0.0,0.0,0.0,0.0,0.0,0.35999999999999943,0.35999999999999943,0.0,0.0,1.0,55.0,616.79921,10000.0,85.000001,85.000001,85.000001,85.000001,395.0,0.0,0.0,0.0,1.0,166.665,55.511,55.511,48.691,48.691,34.0,-25.32,20.244,-31.526666666666664,24.8075,0.0,1783.01,-0.17499999999999893,100.0,25.851,24.996,42.865,41.959,0.0,0.0,100.0,0.0,0.0,0.0,0.0,3035.875,2721.5,4071.1111111111113,4004.9,305.6173333333333,305.9685,314.90975,314.8185,21.8239,20.5186,21.8207,21.3722,314.999998,314.999998,324.999988,324.999988,99.55867142857143,99.50691666666667,99.5643,99.54564285714285,0.016000000000000014,-0.09733333333333327,-0.18883333333333335,0.0385,-0.060000000000002274,-0.045000000000001705,1.521,1.546,37.399,29.241333333333333,37.379000000000005,34.576,55.973,34.325,58.7125,51.796,53.879999999999995,33.5045,57.334,50.1595,53.024,33.069,57.2665,49.58833333333333,-0.07850000000000001,-0.0475000000000001,0.10824,0.10763,0.0,208.5,208.44,205.40666666666667,205.40666666666667,0.0,0.0
8,0.0,0.0,0.0,1.0,1.0,0.0,0.0,1.0,0.0,100.0,1.0,1.1856,26.0,0.0,0.0,0.0,59.999996,0.0,26.0,26.0,26.0,26.0,-0.040444444444444394,0.2895000000000001,-0.0268,294.556,-2.7245,-2.752125,-1.49805,-1.5779,-248.85,216.1525,190.829125,0.0,0.0,0.0,0.0,0.017199999999999993,-5.498166666666667,-5.498166666666667,-0.4873,-0.545,-0.036666666666666625,-0.512,66.703,-0.0488,-0.1588,0.008000000000000007,100.0,1.0,1.0,205.76,0.0,0.0,0.0,0.0,0.0,0.0,0.0,8721.4,0.0,55.0,5.0,240.10000000000002,0.0,0.0,0.0,0.0,0.0,0.0,0.0,0.0,0.40800000000000125,0.40800000000000125,0.0,0.0,0.0,55.0,616.79921,10000.0,85.000001,85.000001,85.000001,85.000001,395.0,0.0,0.0,0.0,1.0,333.33500000000004,56.198,56.198,48.05,48.05,34.0,-23.2425,20.808,-30.666666666666664,26.005,0.0,1782.96,-0.33999999999999986,100.0,25.369,24.912,42.855000000000004,42.084,0.0,0.0,100.0,0.0,0.0,0.0,0.0,2838.625,2729.0,4164.333333333333,4094.1000000000004,306.35566666666665,306.03525,314.659,314.58225,21.8327,20.5232,21.8304,21.3806,314.999998,314.999998,324.999988,324.999988,99.55868571428572,99.50691666666667,99.56442857142856,99.54577142857143,0.033250000000000224,-0.07400000000000007,-0.158,0.058166666666666665,-0.046666666666666856,-0.03499999999999659,1.5150000000000001,1.509,37.454,29.27,37.44,34.6285,55.955,34.358000000000004,58.751999999999995,51.854,53.861999999999995,33.535,57.371,50.215,53.006,33.098,57.3005,49.64266666666666,-0.08999999999999997,-0.03499999999999992,0.105425,0.10415,0.0,208.905,208.89499999999998,205.76,205.76,0.0,0.0
9,0.0,0.0,0.0,1.0,1.0,0.0,0.0,1.0,0.0,100.0,1.0,1.1856,26.0,0.0,0.0,0.0,59.999996,0.0,26.0,26.0,26.0,26.0,-0.022333333333333316,0.29410000000000003,-0.0097,294.159,-2.6542,-2.75625,-1.5572,-1.5588000000000002,-245.65,216.1275,190.80925,0.0,0.0,0.0,0.0,0.019066666666666565,-5.498166666666667,-5.498166666666667,-0.4898,0.7183333333333334,-0.03622222222222238,-0.3899999999999999,66.839,-0.030250000000000003,-0.15665,-0.08999999999999986,100.0,1.0,1.0,206.2866666666667,0.0,0.0,0.0,0.0,0.0,0.0,0.0,8743.8,0.0,55.0,5.0,240.59,1.0,0.0,0.0,0.0,0.0,0.0,0.0,0.0,0.4559999999999995,0.4559999999999995,0.0,0.0,1.0,55.0,616.79921,10000.0,85.000001,85.000001,85.000001,85.000001,395.0,0.0,0.0,0.0,1.0,166.665,54.993,54.993,48.888999999999996,48.888999999999996,34.0,-24.605,22.39,-29.526666666666664,26.7525,0.0,1782.914,-0.5299999999999994,100.0,25.893,25.363,42.539,42.122,0.0,0.0,100.0,0.0,0.0,0.0,0.0,3152.125,2802.3,4063.1111111111113,4075.6000000000004,305.279,305.73625,315.0285,314.7385,21.8417,20.5279,21.84,21.389,314.999998,314.999998,324.999988,324.999988,99.5587,99.50693333333334,99.56455714285714,99.5459,0.06174999999999997,-0.052000000000000046,-0.14533333333333334,0.08766666666666667,-0.05333333333332746,-0.023333333333326323,1.5675,1.5655000000000001,37.510999999999996,29.299666666666667,37.5,34.681,55.94,34.3925,58.788,51.911,53.848,33.567,57.4045,50.2695,52.991,33.1285,57.3315,49.696,-0.10399999999999998,-0.02100000000000013,0.11454,0.11545000000000001,0.0,209.35000000000002,209.325,206.2866666666667,206.2866666666667,0.0,0.0
10,0.0,0.0,0.0,1.0,1.0,0.0,0.0,1.0,0.0,100.0,1.0,1.1856,26.0,0.0,0.0,0.0,59.999996,0.0,26.0,26.0,26.0,26.0,0.014666666666666606,0.29110000000000014,-0.05223333333333334,294.113,-2.7323,-2.7335000000000003,-1.5416,-1.5484,-242.03,216.1,190.78725,0.0,0.0,0.0,0.0,0.021166666666666556,-5.498166666666667,-5.498166666666667,-0.4717,-0.7033333333333334,0.008999999999999897,0.31300000000000017,66.998,-0.008700000000000001,-0.15232500000000002,-0.4939999999999998,100.0,1.0,1.0,206.57666666666665,0.0,0.0,0.0,0.0,0.0,0.0,0.0,8756.0,0.0,55.0,5.0,241.16333333333336,0.0,0.0,0.0,0.0,0.0,0.0,1.0,0.0,0.509999999999998,0.509999999999998,0.0,0.0,0.0,55.0,616.79921,10000.0,85.000001,85.000001,85.000001,85.000001,395.0,0.0,0.0,0.0,1.0,166.665,56.107,56.107,47.485,47.485,34.0,-20.2675,21.73,-29.856666666666666,29.3425,0.0,1782.86,-0.6449999999999996,100.0,25.654,25.319,43.04,42.94,0.0,0.0,100.0,0.0,0.0,0.0,0.0,2689.375,2690.8,4269.333333333333,4247.5,306.735,306.1395,314.42775,314.2145,21.8517,20.5331,21.8511,21.398699999999998,314.999998,314.999998,324.999988,324.999988,99.5587,99.50693333333334,99.56471428571429,99.54607142857142,0.08099999999999996,-0.03499999999999992,-0.11233333333333333,0.10316666666666667,-0.045000000000001705,-0.041666666666671404,1.4975,1.474,37.573,29.332,37.569,34.7415,55.922,34.428,58.834,51.9795,53.831,33.6,57.4475,50.335499999999996,52.973,33.16,57.3715,49.760666666666665,-0.11649999999999994,-0.016000000000000014,0.10925000000000001,0.10852,0.0,209.8,209.82,206.57666666666665,206.57666666666665,0.0,0.0
11,0.0,0.0,0.0,1.0,1.0,0.0,0.0,1.0,0.0,100.0,1.0,1.1856,26.0,0.0,0.0,0.0,59.999996,0.0,26.0,26.0,26.0,26.0,0.05111111111111111,0.28869999999999996,-0.10333333333333333,294.54,-2.7398,-2.714,-1.5893000000000002,-1.526,-238.81,216.0725,190.767625,0.0,0.0,0.0,0.0,0.022599999999999953,-5.498166666666667,-5.498166666666667,-0.5109,-0.058,0.02933333333333321,-0.69,67.132,0.01025,-0.1758,-0.6179999999999994,100.0,1.0,1.0,207.29000000000002,0.0,0.0,0.0,0.0,0.0,0.0,0.0,8786.3,0.0,55.0,5.0,241.64333333333335,1.0,0.0,0.0,0.0,0.0,0.0,1.0,0.0,0.5579999999999998,0.5579999999999998,0.0,0.0,1.0,55.0,616.79921,10000.0,85.000001,85.000001,85.000001,85.000001,395.0,0.0,0.0,0.0,1.0,333.33500000000004,55.389,55.389,48.996,48.996,34.0,-21.55,24.131999999999998,-24.263333333333335,26.925,0.0,1782.81,-0.8100000000000005,100.0,25.521,25.619,42.463,42.757,0.0,0.0,100.0,0.0,0.0,0.0,0.0,2887.5,2894.4,3759.5555555555557,3885.6000000000004,306.16333333333336,305.46025,315.742,315.193,21.8604,20.5379,21.860599999999998,21.407,314.999998,314.999998,324.999988,324.999988,99.55871428571429,99.50693333333334,99.56482857142858,99.5462,0.09450000000000003,-0.01966666666666672,-0.0845,0.134,-0.05666666666667197,-0.06333333333333258,1.6395,1.5995,37.628,29.362000000000002,37.629000000000005,34.794,55.906,34.4615,58.868,52.036500000000004,53.816,33.6305,57.4785,50.39,52.957,33.189499999999995,57.4,49.814,-0.11699999999999999,-0.01100000000000012,0.10268500000000001,0.10629500000000001,0.0,210.19,210.24,207.29000000000002,207.29000000000002,0.0,0.0
12,0.0,0.0,0.0,1.0,1.0,0.0,0.0,1.0,0.0,100.0,1.0,1.1856,26.0,0.0,0.0,0.0,59.999996,0.0,26.0,26.0,26.0,26.0,0.047666666666666746,0.3042,0.02806666666666667,293.839,-2.7505,-2.711125,-1.5572,-1.5305,-235.39,216.0475,190.7455,0.0,0.0,0.0,0.0,0.025466666666666526,-5.498166666666667,-5.498166666666667,-0.4944,0.256,0.017444444444444374,0.6670000000000003,67.28,0.029650000000000003,-0.14830000000000002,-0.7400000000000002,100.0,1.0,1.0,207.49666666666667,0.0,0.0,0.0,0.0,0.0,0.0,0.0,8795.1,0.0,55.0,5.0,242.18,0.0,0.0,0.0,0.0,0.0,0.0,1.0,0.0,0.6089999999999982,0.6089999999999982,0.0,0.0,0.0,55.0,616.79921,10000.0,85.000001,85.000001,85.000001,85.000001,395.0,0.0,0.0,0.0,1.0,166.665,55.206,55.206,47.546,47.546,34.0,-20.995,25.256,-26.846666666666664,31.9225,0.0,1782.76,-0.35999999999999943,100.0,25.597,25.685,42.593,42.711,0.0,0.0,100.0,0.0,0.0,0.0,0.0,2839.875,3025.6,4211.666666666667,4282.1,306.123,305.252,314.54775,314.27275,21.869799999999998,20.5431,21.8709,21.416,314.999998,314.999998,324.999988,324.999988,99.55872857142857,99.50695,99.56498571428571,99.54634285714286,0.10599999999999987,-0.01633333333333331,-0.06166666666666667,0.15566666666666665,-0.04833333333333201,-0.086666666666666,1.5165,1.492,37.686,29.394333333333336,37.693,34.85,55.89,34.497,58.908500000000004,52.0985,53.801,33.6635,57.516999999999996,50.4495,52.941,33.221000000000004,57.435,49.87233333333333,-0.09999999999999998,-0.03750000000000009,0.10865000000000001,0.10561000000000001,0.0,210.68,210.74,207.49666666666667,207.49666666666667,0.0,0.0
13,0.0,0.0,0.0,1.0,1.0,0.0,0.0,1.0,0.0,100.0,1.0,1.1856,26.0,0.0,0.0,0.0,59.999996,0.0,26.0,26.0,26.0,26.0,0.08055555555555571,0.29900000000000015,0.036533333333333334,293.579,-2.7358000000000002,-2.69925,-1.59435,-1.5363,-231.95,216.0225,190.723875,0.0,0.0,0.0,0.0,0.027033333333333354,-5.498166666666667,-5.498166666666667,-0.4887,-0.109,0.022222222222222143,-0.357,67.425,0.0357,-0.15910000000000002,-0.7699999999999996,100.0,1.0,1.0,207.91666666666669,0.0,0.0,0.0,0.0,0.0,0.0,0.0,8812.8,0.0,55.0,5.0,242.70333333333335,1.0,0.0,0.0,0.0,0.0,0.0,1.0,0.0,0.6600000000000001,0.6600000000000001,0.0,0.0,1.0,55.0,616.79921,10000.0,85.000001,85.000001,85.000001,85.000001,395.0,0.0,0.0,0.0,1.0,166.665,55.022999999999996,55.022999999999996,47.638,47.638,34.0,-20.6275,25.67,-27.226666666666663,32.3875,0.0,1782.71,-0.8550000000000004,100.0,25.716,26.011,42.745000000000005,43.366,0.0,0.0,100.0,0.0,0.0,0.0,0.0,2936.0,2899.8,4195.777777777777,4294.8,305.992,305.4565,314.66125,314.097,21.8792,20.5483,21.8813,21.4252,314.999998,314.999998,324.999988,324.999988,99.55872857142857,99.50695,99.56512857142857,99.54648571428571,0.12775000000000025,0.023333333333333428,-0.06283333333333334,0.155,-0.04833333333333201,-0.045000000000001705,1.5145,1.475,37.745000000000005,29.426666666666666,37.757999999999996,34.9075,55.876999999999995,34.533500000000004,58.9495,52.163,53.788,33.697,57.5545,50.512,52.928,33.253,57.4695,49.93333333333334,-0.13749999999999996,0.007000000000000006,0.103425,0.10845,0.0,211.12,211.16,207.91666666666669,207.91666666666669,0.0,0.0
14,0.0,0.0,0.0,1.0,1.0,0.0,0.0,1.0,0.0,100.0,1.0,1.1856,26.0,0.0,0.0,0.0,59.999996,0.0,26.0,26.0,26.0,26.0,0.10422222222222222,0.27880000000000016,-0.012233333333333334,293.869,-2.7633,-2.643,-1.60395,-1.5158,-228.71,216.0,190.703875,0.0,0.0,0.0,0.0,0.028899999999999926,-5.498166666666667,-5.498166666666667,-0.497,-0.13433333333333333,0.05077777777777781,-0.264,67.56,0.0468,-0.1671,-0.944,100.0,1.0,1.0,208.42000000000002,0.0,0.0,0.0,0.0,0.0,0.0,0.0,8834.2,0.0,55.0,5.0,243.18333333333334,0.0,0.0,0.0,0.0,0.0,0.0,1.0,0.0,0.7079999999999984,0.7079999999999984,0.0,0.0,0.0,55.0,616.79921,10000.0,85.000001,85.000001,85.000001,85.000001,395.0,0.0,0.0,0.0,1.0,333.33500000000004,55.222,55.222,47.821,47.821,34.0,-19.169999999999998,26.218,-25.666666666666664,31.7275,0.0,1782.659,-1.0299999999999994,100.0,25.512,26.037,42.647999999999996,43.515,0.0,0.0,100.0,0.0,0.0,0.0,0.0,2827.875,2972.2,4009.777777777778,4182.9,306.3503333333333,305.24975,315.09425,314.43775,21.8879,20.5531,21.891,21.433799999999998,314.999998,314.999998,324.999988,324.999988,99.55875714285715,99.50695,99.56525714285715,99.54662857142857,0.14749999999999996,0.03100000000000014,-0.06016666666666667,0.17200000000000001,-0.04999999999999716,-0.04999999999999716,1.55,1.5075,37.8,29.457,37.818,34.961,55.863,34.5695,58.9875,52.2265,53.775,33.7305,57.59,50.573,52.913,33.2855,57.501999999999995,49.99333333333333,-0.14900000000000002,0.014000000000000012,0.10332000000000001,0.11628500000000001,0.0,211.535,211.585,208.42000000000002,208.42000000000002,0.0,0.0
15,0.0,0.0,0.0,1.0,1.0,0.0,0.0,1.0,0.0,100.0,1.0,1.1856,26.0,0.0,0.0,0.0,59.999996,0.0,26.0,26.0,26.0,26.0,0.12155555555555564,0.28380000000000005,-0.05116666666666667,293.869,-2.7751,-2.6020000000000003,-1.6292499999999999,-1.4565000000000001,-225.47,215.98000000000002,190.683625,0.0,0.0,0.0,0.0,0.03079999999999994,-5.498166666666667,-5.498166666666667,-0.48710000000000003,0.21633333333333335,0.0794444444444442,-0.514,67.695,0.059000000000000004,-0.14827500000000002,-1.12,100.0,1.0,1.0,208.79333333333335,0.0,0.0,0.0,0.0,0.0,0.0,0.0,8850.1,0.0,55.0,5.0,243.67333333333335,1.0,0.0,0.0,0.0,0.0,0.0,1.0,0.0,0.7560000000000002,0.7560000000000002,0.0,0.0,1.0,55.0,616.79921,10000.0,85.000001,85.000001,85.000001,85.000001,395.0,0.0,0.0,0.0,1.0,333.33500000000004,55.466,55.466,47.836,47.836,34.0,-17.71,25.984,-25.026666666666664,32.9975,0.0,1782.613,-1.084999999999999,100.0,25.499,26.056,42.407,43.611000000000004,0.0,0.0,100.0,0.0,0.0,0.0,0.0,2683.125,2947.3,4016.4444444444443,4373.3,306.7696666666667,305.31775,315.102,313.98725,21.8966,20.558,21.9005,21.4424,314.999998,314.999998,324.999988,324.999988,99.55877142857143,99.50695,99.5654,99.54675714285715,0.15874999999999995,0.040000000000000036,-0.03983333333333334,0.17833333333333334,-0.03333333333333144,-0.05833333333333002,1.543,1.4965,37.854,29.487666666666666,37.878,35.015,55.851,34.602000000000004,59.0205,52.283,53.763999999999996,33.7605,57.6205,50.6275,52.900999999999996,33.314,57.53,50.04666666666667,-0.15349999999999997,0.018000000000000016,0.09996000000000001,0.11156500000000001,0.0,211.93,212.01999999999998,208.79333333333335,208.79333333333335,0.0,0.0
16,0.0,0.0,0.0,1.0,1.0,0.0,0.0,1.0,0.0,100.0,1.0,1.1856,26.0,0.0,0.0,0.0,59.999996,0.0,26.0,26.0,26.0,26.0,0.11244444444444435,0.2823,-0.003,293.869,-2.8284,-2.6178749999999997,-1.6001500000000002,-1.5203,-222.01,215.9625,190.6615,0.0,0.0,0.0,0.0,0.03279999999999994,-5.498166666666667,-5.498166666666667,-0.5106,-0.6503333333333334,0.06733333333333325,0.10599999999999987,67.838,0.07100000000000001,-0.16535,-1.2800000000000002,100.0,1.0,1.0,209.26,0.0,0.0,0.0,0.0,0.0,0.0,0.0,8869.7,0.0,55.0,5.0,244.18666666666667,0.0,0.0,0.0,0.0,0.0,0.0,1.0,0.0,0.8069999999999986,0.8069999999999986,0.0,0.0,0.0,55.0,616.79921,10000.0,85.000001,85.000001,85.000001,85.000001,395.0,0.0,0.0,0.0,1.0,333.33500000000004,55.206,55.206,47.714,47.714,34.0,-18.857499999999998,28.742,-23.133333333333333,33.144999999999996,0.0,1782.562,-1.004999999999999,100.0,25.306,25.981,42.706,43.615,0.0,0.0,100.0,0.0,0.0,0.0,0.0,2807.0,3144.7,3929.1111111111113,4157.4,306.40933333333334,304.943,315.23125,314.52875,21.9055,20.563299999999998,21.910899999999998,21.4515,314.999998,314.999998,324.999988,324.999988,99.55878571428572,99.50696666666667,99.56554285714286,99.5469,0.1652499999999999,0.06300000000000017,-0.021666666666666667,0.20500000000000002,-0.04333333333332945,-0.07166666666666544,1.5575,1.517,37.91,29.520666666666664,37.943,35.0715,55.835,34.64,59.0605,52.346000000000004,53.748000000000005,33.796,57.658,50.688,52.885,33.348,57.564,50.10633333333333,-0.14249999999999996,0.01749999999999996,0.10954000000000001,0.10418000000000001,0.0,212.345,212.465,209.26,209.26,0.0,0.0
17,0.0,0.0,0.0,1.0,1.0,0.0,0.0,1.0,0.0,100.0,1.0,1.1856,26.0,0.0,0.0,0.0,59.999996,0.0,26.0,26.0,26.0,26.0,0.12811111111111106,0.29200000000000004,0.022366666666666667,293.427,-2.7936,-2.59225,-1.6435,-1.4803,-218.55,215.9475,190.638875,0.0,0.0,0.0,0.0,0.03479999999999994,-5.498166666666667,-5.498166666666667,-0.49570000000000003,0.4316666666666667,0.04644444444444429,-0.6139999999999999,67.981,0.0789,-0.14247500000000002,-1.1660000000000004,100.0,1.0,1.0,209.62,0.0,0.0,0.0,0.0,0.0,0.0,0.0,8885.0,0.0,55.0,5.0,244.7,1.0,0.0,0.0,0.0,0.0,0.0,1.0,0.0,0.8580000000000005,0.8580000000000005,0.0,0.0,1.0,55.0,616.79921,10000.0,85.000001,85.000001,85.000001,85.000001,395.0,0.0,0.0,0.0,1.0,333.33500000000004,55.054,55.054,47.318,47.318,34.0,-18.8625,25.922,-27.136666666666663,34.1175,0.0,1782.511,-1.0649999999999995,100.0,25.63,26.375,42.495000000000005,43.722,0.0,0.0,100.0,0.0,0.0,0.0,0.0,2912.0,2899.5,4344.444444444444,4339.0,306.15633333333335,305.514,314.3975,314.123,21.9148,20.5687,21.9211,21.4605,314.999998,314.999998,324.999988,324.999988,99.5588,99.50696666666667,99.56568571428572,99.54705714285714,0.17649999999999988,0.05500000000000016,-0.03,0.1985,-0.05666666666667197,-0.04999999999999716,1.533,1.4815,37.967,29.554000000000002,38.007,35.1285,55.824,34.6795,59.0985,52.409,53.736999999999995,33.832,57.693,50.7485,52.873000000000005,33.382999999999996,57.5965,50.166,-0.14700000000000002,0.014499999999999957,0.11250500000000001,0.103455,0.0,212.845,212.905,209.62,209.62,0.0,0.0
18,0.0,0.0,0.0,1.0,1.0,0.0,0.0,1.0,0.0,100.0,1.0,1.1856,26.0,0.0,0.0,0.0,59.999996,0.0,26.0,26.0,26.0,26.0,0.13722222222222213,0.27990000000000004,-0.006500000000000001,293.427,-2.8287,-2.5641249999999998,-1.6609,-1.4227,-215.28,215.9375,190.61775,0.0,0.0,0.0,0.0,0.036699999999999955,-5.498166666666667,-5.498166666666667,-0.5083,-0.5043333333333333,0.07244444444444431,-0.22499999999999987,68.114,0.0825,-0.161475,-1.2800000000000002,100.0,1.0,1.0,210.06666666666666,0.0,0.0,0.0,0.0,0.0,0.0,0.0,8904.0,0.0,55.0,5.0,245.18,0.0,0.0,0.0,0.0,0.0,0.0,1.0,0.0,0.9059999999999988,0.9059999999999988,0.0,0.0,0.0,55.0,616.79921,10000.0,85.000001,85.000001,85.000001,85.000001,395.0,0.0,0.0,0.0,1.0,166.665,54.855,54.855,47.348,47.348,34.0,-18.8425,28.57,-25.346666666666664,32.445,0.0,1782.464,-1.3249999999999993,100.0,25.414,26.297,42.782,44.105000000000004,0.0,0.0,100.0,0.0,0.0,0.0,0.0,2921.0,3125.3,4089.6666666666665,4233.8,306.179,304.8495,314.95425,314.35925,21.9232,20.5736,21.9308,21.4692,314.999998,314.999998,324.999988,324.999988,99.55882857142858,99.50698333333334,99.56581428571428,99.5472,0.18500000000000005,0.06966666666666654,-0.026833333333333334,0.202,-0.04999999999999716,-0.051666666666669414,1.537,1.502,38.019999999999996,29.585,38.067,35.183,55.811,34.7155,59.135999999999996,52.4705,53.724999999999994,33.8655,57.728,50.8075,52.86,33.4155,57.628,50.22366666666667,-0.16249999999999998,0.03049999999999997,0.11057000000000002,0.10402000000000002,0.0,213.20499999999998,213.29500000000002,210.06666666666666,210.06666666666666,0.0,0.0
19,0.0,0.0,0.0,1.0,1.0,0.0,0.0,1.0,0.0,100.0,1.0,1.1856,26.0,0.0,0.0,0.0,59.999996,0.0,26.0,26.0,26.0,26.0,0.16733333333333333,0.2943,0.06336666666666667,292.938,-2.7447,-2.666625,-1.67725,-1.4067,-211.8,215.93,190.595125,0.0,0.0,0.0,0.0,0.0387333333333334,-5.498166666666667,-5.498166666666667,-0.49520000000000003,0.851,0.08699999999999997,0.9870000000000001,68.254,0.09275,-0.147875,-1.7079999999999993,100.0,1.0,1.0,210.44666666666666,0.0,0.0,0.0,0.0,0.0,0.0,0.0,8920.1,0.0,55.0,5.0,245.68333333333334,1.0,0.0,0.0,0.0,0.0,0.0,1.0,0.0,0.9570000000000007,0.9570000000000007,0.0,0.0,1.0,55.0,616.79921,10000.0,85.000001,85.000001,85.000001,85.000001,395.0,0.0,0.0,0.0,1.0,166.665,54.382,54.382,47.012,47.012,34.0,-15.767499999999998,31.098,-24.586666666666666,36.58,0.0,1782.412,-1.5649999999999995,100.0,26.065,26.688,42.646,44.049,0.0,0.0,100.0,0.0,0.0,0.0,0.0,2767.75,3140.6,4208.444444444444,4574.3,306.2783333333333,304.70425,314.656,313.64875,21.9324,20.5791,21.9409,21.4784,314.999998,314.999998,324.999988,324.999988,99.55884285714286,99.50698333333334,99.56595714285714,99.54734285714285,0.22425000000000006,0.10400000000000009,0.009666666666666665,0.223,-0.051666666666669414,-0.04833333333333201,1.521,1.4645000000000001,38.078,29.619333333333334,38.131,35.24,55.802,34.7585,59.1725,52.5345,53.716,33.905,57.762,50.8695,52.85,33.4535,57.659,50.284666666666666,-0.18499999999999994,0.056499999999999995,0.09713500000000001,0.10354500000000001,0.0,213.66500000000002,213.79500000000002,210.44666666666666,210.44666666666666,0.0,0.0
20,0.0,0.0,0.0,1.0,1.0,0.0,0.0,1.0,0.0,100.0,1.0,1.1856,26.0,0.0,0.0,0.0,59.999996,0.0,26.0,26.0,26.0,26.0,0.2148888888888889,0.2592000000000001,-0.0663,293.442,-2.8551,-2.6102499999999997,-1.6127,-1.5177,-208.32,215.925,190.57275,0.0,0.0,0.0,0.0,0.04076666666666651,-5.498166666666667,-5.498166666666667,-0.5056,-1.182,0.09388888888888891,-0.71,68.396,0.10665000000000001,-0.164225,-1.9779999999999998,100.0,1.0,1.0,210.84,0.0,0.0,0.0,0.0,0.0,0.0,0.0,8936.7,0.0,55.0,5.0,246.19666666666666,0.0,0.0,0.0,0.0,0.0,0.0,0.0,0.0,1.0079999999999991,1.0079999999999991,0.0,0.0,0.0,55.0,616.79921,10000.0,85.000001,85.000001,85.000001,85.000001,395.0,0.0,0.0,0.0,1.0,333.33500000000004,55.359,55.359,46.799,46.799,34.0,-15.317499999999999,29.214,-22.873333333333335,36.3725,0.0,1782.361,-1.4749999999999996,100.0,25.35,26.519,43.009,44.638999999999996,0.0,0.0,100.0,0.0,0.0,0.0,0.0,2639.125,2995.1,4076.222222222222,4275.4,306.9873333333333,305.184,314.89525,314.132,21.9412,20.5844,21.9513,21.4878,314.999998,314.999998,324.999988,324.999988,99.55887142857142,99.507,99.56611428571429,99.5475,0.22975000000000012,0.11033333333333362,0.010333333333333335,0.23550000000000001,-0.03833333333332689,-0.041666666666671404,1.5030000000000001,1.449,38.132,29.65266666666667,38.196,35.2985,55.788,34.7995,59.214,52.601,53.703,33.9435,57.8,50.934,52.836,33.49,57.694,50.34766666666667,-0.19499999999999995,0.06399999999999995,0.10726000000000001,0.10458,0.0,214.04000000000002,214.195,210.84,210.84,0.0,0.0
21,0.0,0.0,0.0,1.0,1.0,0.0,0.0,1.0,0.0,100.0,1.0,1.1856,26.0,0.0,0.0,0.0,59.999996,0.0,26.0,26.0,26.0,26.0,0.19611111111111112,0.2791000000000001,-0.05906666666666666,293.64,-2.8275,-2.608,-1.67575,-1.4815,-205.03,215.9275,190.551,0.0,0.0,0.0,0.0,0.04266666666666652,-5.498166666666667,-5.498166666666667,-0.5244,0.5876666666666667,0.07577777777777772,-1.029,68.523,0.12555,-0.15855,-1.6920000000000002,100.0,1.0,1.0,211.44666666666666,0.0,0.0,0.0,0.0,0.0,0.0,0.0,8962.4,0.0,55.0,5.0,246.65333333333334,1.0,0.0,0.0,0.0,0.0,0.0,0.0,0.0,1.056000000000001,1.056000000000001,0.0,0.0,1.0,55.0,616.79921,10000.0,85.000001,85.000001,85.000001,85.000001,395.0,0.0,0.0,0.0,1.0,166.665,54.886,54.886,47.836,47.836,34.0,-19.035,27.188,-21.906666666666666,34.8725,0.0,1782.313,-0.3849999999999998,100.0,25.541,26.684,42.332,44.215,0.0,0.0,100.0,0.0,0.0,0.0,0.0,2853.25,3018.4,4022.777777777778,4104.9,306.338,305.114,315.187,314.71425,21.9496,20.5896,21.9608,21.4962,314.999998,314.999998,324.999988,324.999988,99.5589,99.50701666666667,99.56624285714285,99.54764285714286,0.16875000000000018,0.050666666666666416,0.029166666666666667,0.2646666666666667,-0.051666666666669414,-0.05333333333332746,1.595,1.538,38.185,29.685333333333332,38.254999999999995,35.3515,55.778,34.84,59.2455,52.658500000000004,53.693,33.9805,57.829499999999996,50.9895,52.825,33.5255,57.7205,50.40233333333333,-0.11699999999999999,-0.023500000000000076,0.10070000000000001,0.11511,0.0,214.49,214.615,211.44666666666666,211.44666666666666,0.0,0.0
22,0.0,0.0,0.0,1.0,1.0,0.0,0.0,1.0,0.0,100.0,1.0,1.1856,26.0,0.0,0.0,0.0,59.999996,0.0,26.0,26.0,26.0,26.0,0.12377777777777776,0.26870000000000016,-0.005,293.167,-2.7503,-2.66975,-1.66185,-1.4806,-201.53,215.9325,190.527125,0.0,0.0,0.0,0.0,0.04469999999999996,-5.498166666666667,-5.498166666666667,-0.5024000000000001,-0.004333333333333333,0.07522222222222208,0.6299999999999999,68.66499999999999,0.11595000000000001,-0.14185,-0.5539999999999994,100.0,1.0,1.0,211.66666666666669,0.0,0.0,0.0,0.0,0.0,0.0,0.0,8971.7,0.0,55.0,5.0,247.16666666666666,0.0,0.0,0.0,0.0,0.0,0.0,0.0,0.0,1.1069999999999993,1.1069999999999993,0.0,0.0,0.0,55.0,616.79921,10000.0,85.000001,85.000001,85.000001,85.000001,395.0,0.0,0.0,0.0,1.0,333.33500000000004,55.144999999999996,55.144999999999996,46.707,46.707,34.0,-18.287499999999998,25.434,-24.95,37.085,0.0,1782.262,0.370000000000001,100.0,25.813,26.533,42.999,44.419,0.0,0.0,100.0,0.0,0.0,0.0,0.0,2579.125,3004.0,4197.0,4468.0,306.87966666666665,305.24575,314.6335,313.87025,21.9586,20.5951,21.9711,21.5055,314.999998,314.999998,324.999988,324.999988,99.5589,99.50701666666667,99.56638571428572,99.54778571428571,0.12150000000000016,-0.0009999999999998899,0.0018333333333333333,0.229,-0.03166666666666629,-0.07166666666666544,1.4769999999999999,1.456,38.242000000000004,29.719,38.32,35.4095,55.763,34.8775,59.286500000000004,52.725,53.679,34.0155,57.8675,51.053,52.81,33.5595,57.754999999999995,50.465,-0.04049999999999998,-0.09600000000000009,0.10725000000000001,0.10831,0.0,214.945,215.025,211.66666666666669,211.66666666666669,0.0,0.0
23,0.0,0.0,0.0,1.0,1.0,0.0,0.0,1.0,0.0,100.0,1.0,1.1856,26.0,0.0,0.0,0.0,59.999996,0.0,26.0,26.0,26.0,26.0,0.06988888888888889,0.24950000000000006,-0.05156666666666666,293.228,-2.7563,-2.645375,-1.68465,-1.5695000000000001,-198.03,215.9425,190.50375,0.0,0.0,0.0,0.0,0.04673333333333329,-5.498166666666667,-5.498166666666667,-0.5231,-0.08466666666666667,0.04122222222222205,-1.1059999999999999,68.80199999999999,0.07085000000000001,-0.16815000000000002,0.6020000000000003,100.0,1.0,1.0,212.24,0.0,0.0,0.0,0.0,0.0,0.0,0.0,8996.1,0.0,55.0,5.0,247.65666666666667,1.0,0.0,0.0,0.0,0.0,0.0,0.0,0.0,1.1580000000000013,1.1580000000000013,0.0,0.0,1.0,55.0,616.79921,10000.0,85.000001,85.000001,85.000001,85.000001,395.0,0.0,0.0,0.0,1.0,333.33500000000004,54.367,54.367,47.852000000000004,47.852000000000004,34.0,-24.1325,22.965999999999998,-27.02,29.55,0.0,1782.21,0.740000000000002,100.0,26.124,26.601,43.144999999999996,44.474000000000004,0.0,0.0,100.0,0.0,0.0,0.0,0.0,3053.625,2930.5,4029.8888888888887,3939.4,305.649,305.359,315.18675,315.02125,21.9678,20.6004,21.9815,21.5147,314.999998,314.999998,324.999988,324.999988,99.55892857142857,99.50701666666667,99.56654285714286,99.54794285714286,0.07325000000000026,-0.04499999999999993,-0.06383333333333334,0.16033333333333336,-0.060000000000002274,-0.03833333333332689,1.5335,1.55,38.298,29.752666666666666,38.384,35.467,55.747,34.914500000000004,59.325,52.788,53.663,34.05,57.903,51.114,52.793,33.5925,57.7875,50.52466666666667,-0.008000000000000007,-0.1260000000000001,0.10211500000000001,0.11065000000000001,0.0,215.41,215.37,212.24,212.24,0.0,0.0
24,0.0,0.0,0.0,1.0,1.0,0.0,0.0,1.0,0.0,100.0,1.0,1.1856,26.0,0.0,0.0,0.0,59.999996,0.0,26.0,26.0,26.0,26.0,-0.010000000000000009,0.2804,-0.0027,293.488,-2.7588,-2.677,-1.58635,-1.5306000000000002,-194.72,215.9525,190.481125,0.0,0.0,0.0,0.0,0.048666666666666525,-5.498166666666667,-5.498166666666667,-0.5268,-0.5703333333333334,0.02877777777777779,-0.45500000000000007,68.93299999999999,0.01845,-0.152225,0.9979999999999993,100.0,1.0,1.0,212.50666666666666,0.0,0.0,0.0,0.0,0.0,0.0,0.0,9007.4,0.0,55.0,5.0,248.13333333333333,0.0,0.0,0.0,0.0,0.0,0.0,0.0,0.0,1.2059999999999995,1.2059999999999995,0.0,0.0,0.0,55.0,616.79921,10000.0,85.000001,85.000001,85.000001,85.000001,395.0,0.0,0.0,0.0,1.0,333.33500000000004,55.603,55.603,46.799,46.799,34.0,-22.45,20.465999999999998,-31.32,28.42,0.0,1782.162,0.8049999999999997,100.0,25.846,26.112000000000002,43.438,44.068,0.0,0.0,100.0,0.0,0.0,0.0,0.0,2740.75,2749.5,4333.111111111111,4148.6,306.61833333333334,306.0235,314.34275,314.58675,21.9763,20.6053,21.9913,21.5233,314.999998,314.999998,324.999988,324.999988,99.55892857142857,99.50703333333334,99.56667142857142,99.54808571428572,0.040000000000000036,-0.07233333333333314,-0.11516666666666667,0.11116666666666668,-0.060000000000002274,-0.026666666666670835,1.4755,1.5234999999999999,38.352000000000004,29.782666666666664,38.445,35.5205,55.729,34.948,59.3625,52.8455,53.646,34.081,57.9385,51.1695,52.775999999999996,33.622,57.82,50.57866666666666,-0.0034999999999999476,-0.12149999999999994,0.10635000000000001,0.10449000000000001,0.0,215.85000000000002,215.745,212.50666666666666,212.50666666666666,0.0,0.0
25,0.0,0.0,0.0,1.0,1.0,0.0,0.0,1.0,0.0,100.0,1.0,1.1856,26.0,0.0,0.0,0.0,59.999996,0.0,26.0,26.0,26.0,26.0,-0.059111111111111114,0.2735000000000001,-0.024833333333333336,293.228,-2.7815,-2.6799999999999997,-1.56485,-1.5674000000000001,-190.99,215.9625,190.454125,0.0,0.0,0.0,0.0,0.0508333333333334,-5.498166666666667,-5.498166666666667,-0.557,0.34700000000000003,-0.00855555555555565,-1.925,69.077,-0.034300000000000004,-0.15755,1.3580000000000005,100.0,1.0,1.0,213.09,0.0,0.0,0.0,0.0,0.0,0.0,0.0,9032.1,0.0,55.0,5.0,248.64666666666665,1.0,0.0,0.0,0.0,0.0,0.0,0.0,0.0,1.259999999999998,1.259999999999998,0.0,0.0,1.0,55.0,616.79921,10000.0,85.000001,85.000001,85.000001,85.000001,395.0,0.0,0.0,0.0,1.0,166.665,54.23,54.23,47.638,47.638,34.0,-29.0775,21.387999999999998,-30.89,25.28,0.0,1782.11,0.8300000000000018,100.0,26.162,26.227,43.346000000000004,43.49,0.0,0.0,100.0,0.0,0.0,0.0,0.0,3229.25,3038.7,4097.888888888889,3981.3,305.26433333333335,305.1135,314.97375,315.00375,21.986,20.6108,22.0021,21.5328,314.999998,314.999998,324.999988,324.999988,99.55892857142857,99.50705,99.56682857142857,99.54824285714285,-0.0015000000000000568,-0.1116666666666668,-0.1605,0.07016666666666667,-0.05833333333333002,-0.045000000000001705,1.5434999999999999,1.5795,38.412,29.817666666666668,38.513,35.58,55.708,34.99,59.4015,52.907,53.626000000000005,34.1195,57.975,51.2285,52.754999999999995,33.659,57.853,50.63666666666667,0.001000000000000112,-0.135,0.10559500000000001,0.10762000000000001,0.0,216.305,216.19,213.09,213.09,0.0,0.0
26,0.0,0.0,0.0,1.0,1.0,0.0,0.0,1.0,0.0,100.0,1.0,1.1856,26.0,0.0,0.0,0.0,59.999996,0.0,26.0,26.0,26.0,26.0,-0.11499999999999999,0.2816000000000001,0.04873333333333334,292.236,-2.6991,-2.7915,-1.5882,-1.5897000000000001,-187.68,215.97,190.43,0.0,0.0,0.0,0.0,0.05276666666666652,-5.498166666666667,-5.498166666666667,-0.5143,0.5393333333333333,-0.0564444444444443,-1.178,69.208,-0.06915,-0.13112500000000002,1.4060000000000006,100.0,1.0,1.0,213.21666666666667,0.0,0.0,0.0,0.0,0.0,0.0,0.0,9037.5,0.0,55.0,5.0,249.12,0.0,0.0,0.0,0.0,0.0,0.0,0.0,0.0,1.3079999999999998,1.3079999999999998,0.0,0.0,0.0,55.0,616.79921,10000.0,85.000001,85.000001,85.000001,85.000001,395.0,0.0,0.0,0.0,1.0,166.665,54.26,54.26,45.775999999999996,45.775999999999996,34.0,-27.7325,18.632,-39.94333333333333,26.985,0.0,1782.062,0.5949999999999989,100.0,27.05,26.474,44.363,43.707,0.0,0.0,100.0,0.0,0.0,0.0,0.0,3126.0,2707.5,4728.777777777777,4455.4,305.4703333333333,305.9925,313.458,313.8695,21.9949,20.6158,22.0121,21.5414,314.999998,314.999998,324.999988,324.999988,99.55894285714285,99.50705,99.56697142857143,99.54837142857143,-0.009500000000000064,-0.1419999999999999,-0.19483333333333336,0.021333333333333333,-0.04833333333333201,-0.06499999999999773,1.396,1.4525000000000001,38.468,29.848666666666666,38.576,35.634,55.693,35.028999999999996,59.4445,52.9655,53.611999999999995,34.1555,58.015,51.2845,52.741,33.6935,57.89,50.69133333333333,-0.026499999999999968,-0.12149999999999994,0.10379500000000001,0.10833500000000001,0.0,216.735,216.63,213.21666666666667,213.21666666666667,0.0,0.0
27,0.0,0.0,0.0,1.0,1.0,0.0,0.0,1.0,0.0,100.0,1.0,1.1856,26.0,0.0,0.0,0.0,59.999996,0.0,26.0,26.0,26.0,26.0,-0.10888888888888892,0.24619999999999997,-0.030000000000000002,292.847,-2.6537,-2.773625,-1.5663,-1.6702,-184.35,215.975,190.406875,0.0,0.0,0.0,0.0,0.05469999999999997,-5.498166666666667,-5.498166666666667,-0.5457000000000001,-1.0026666666666666,-0.06711111111111157,-0.7,69.33500000000001,-0.08655,-0.1792,1.2100000000000009,100.0,1.0,1.0,213.76999999999998,0.0,0.0,0.0,0.0,0.0,0.0,0.0,9060.9,0.0,55.0,5.0,249.57999999999998,1.0,0.0,0.0,0.0,0.0,0.0,0.0,0.0,1.355999999999998,1.355999999999998,0.0,0.0,1.0,55.0,616.79921,10000.0,85.000001,85.000001,85.000001,85.000001,395.0,0.0,0.0,0.0,1.0,166.665,54.581,54.581,46.555,46.555,34.0,-27.535,18.805999999999997,-34.67666666666666,23.855,0.0,1782.014,0.5399999999999991,100.0,26.785,26.085,45.003,43.962,0.0,0.0,100.0,0.0,0.0,0.0,0.0,3081.5,2782.9,4149.0,3959.5,305.6023333333333,305.86325,314.71725,314.97575,22.0036,20.6206,22.022100000000002,21.5501,314.999998,314.999998,324.999988,324.999988,99.55894285714285,99.50706666666666,99.56711428571428,99.54851428571429,-0.025499999999999856,-0.1463333333333332,-0.21533333333333335,0.012166666666666666,-0.045000000000001705,-0.04833333333333201,1.474,1.5375,38.522999999999996,29.878666666666668,38.638,35.6885,55.676,35.0655,59.4855,53.0225,53.596000000000004,34.189499999999995,58.0535,51.3395,52.724000000000004,33.726,57.926,50.74466666666667,-0.02749999999999997,-0.11050000000000004,0.10894500000000001,0.10364500000000001,0.0,217.07,216.95,213.76999999999998,213.76999999999998,0.0,0.0
28,0.0,0.0,0.0,1.0,1.0,0.0,0.0,1.0,0.0,100.0,1.0,1.1856,26.0,0.0,0.0,0.0,59.999996,0.0,26.0,26.0,26.0,26.0,-0.14288888888888884,0.2842,-0.05466666666666667,293.03,-2.6642,-2.766375,-1.5386000000000002,-1.6348,-180.81,215.97750000000002,190.381375,0.0,0.0,0.0,0.0,0.0567333333333333,-5.498166666666667,-5.498166666666667,-0.5438000000000001,0.666,-0.07299999999999995,0.77,69.469,-0.09340000000000001,-0.14595,1.0920000000000005,100.0,1.0,1.0,214.23333333333335,0.0,0.0,0.0,0.0,0.0,0.0,0.0,9080.5,0.0,55.0,5.0,250.05666666666667,0.0,0.0,0.0,0.0,0.0,0.0,0.0,0.0,1.407,1.407,0.0,0.0,0.0,55.0,616.79921,10000.0,85.000001,85.000001,85.000001,85.000001,395.0,0.0,0.0,0.0,1.0,333.33500000000004,54.687,54.687,47.134,47.134,34.0,-26.705,18.898,-34.099999999999994,24.6475,0.0,1781.961,0.46000000000000085,100.0,27.106,25.814,44.459,43.294,0.0,0.0,100.0,0.0,0.0,0.0,0.0,2977.75,2796.3,4231.444444444444,4123.1,305.6546666666667,305.97625,314.6745,314.72175,22.012999999999998,20.6257,22.0323,21.5591,314.999998,314.999998,324.999988,324.999988,99.55894285714285,99.50708333333333,99.56725714285714,99.54865714285714,-0.02024999999999988,-0.1413333333333333,-0.20433333333333334,0.018000000000000002,-0.046666666666666856,-0.046666666666666856,1.52,1.5495,38.581,29.910666666666664,38.702,35.7445,55.66,35.1055,59.5235,53.079499999999996,53.581,34.226,58.0895,51.394,52.708,33.760999999999996,57.9585,50.797666666666665,-0.033499999999999974,-0.10549999999999993,0.10041000000000001,0.109045,0.0,217.535,217.425,214.23333333333335,214.23333333333335,0.0,0.0
29,0.0,0.0,0.0,1.0,1.0,0.0,0.0,1.0,0.0,100.0,1.0,1.1856,26.0,0.0,0.0,0.0,59.999996,0.0,26.0,26.0,26.0,26.0,-0.11388888888888893,0.2551000000000001,0.03383333333333333,292.709,-2.6174,-2.816375,-1.54785,-1.6125,-177.26,215.975,190.354875,0.0,0.0,0.0,0.0,0.05879999999999996,-5.498166666666667,-5.498166666666667,-0.5543,-0.6766666666666666,-0.07244444444444431,-0.6859999999999999,69.605,-0.09065000000000001,-0.153525,0.8840000000000003,100.0,1.0,1.0,214.52666666666667,0.0,0.0,0.0,0.0,0.0,0.0,0.0,9093.1,0.0,55.0,5.0,250.55,1.0,0.0,0.0,0.0,0.0,0.0,0.0,0.0,1.4579999999999984,1.4579999999999984,0.0,0.0,1.0,55.0,616.79921,10000.0,85.000001,85.000001,85.000001,85.000001,395.0,0.0,0.0,0.0,1.0,166.665,54.519999999999996,54.519999999999996,46.478,46.478,34.0,-27.86,19.156,-34.879999999999995,25.28,0.0,1781.911,0.3249999999999993,100.0,26.683,25.905,44.841,43.666,0.0,0.0,100.0,0.0,0.0,0.0,0.0,3169.75,2783.3,4284.444444444444,4156.3,305.35766666666666,305.78725,314.443,314.53325,22.022100000000002,20.6308,22.0429,21.5683,314.999998,314.999998,324.999988,324.999988,99.55895714285714,99.5071,99.56741428571429,99.5488,-0.01924999999999999,-0.14866666666666672,-0.19783333333333333,0.024333333333333332,-0.060000000000002274,-0.046666666666666856,1.459,1.4855,38.638,29.942333333333334,38.768,35.802,55.641,35.144,59.567499999999995,53.1405,53.563,34.2615,58.1305,51.452,52.689,33.795,57.9965,50.85433333333333,-0.04299999999999993,-0.09299999999999997,0.09990500000000001,0.11192,0.0,217.9,217.82,214.52666666666667,214.52666666666667,0.0,0.0
30,0.0,0.0,0.0,1.0,1.0,0.0,0.0,1.0,0.0,100.0,1.0,1.1856,26.0,0.0,0.0,0.0,59.999996,0.0,26.0,26.0,26.0,26.0,-0.11011111111111105,0.27100000000000013,0.009433333333333334,292.191,-2.6713,-2.804625,-1.48915,-1.6720000000000002,-173.92000000000002,215.97,190.329875,0.0,0.0,0.0,0.0,0.060766666666666524,-5.498166666666667,-5.498166666666667,-0.5447000000000001,0.838,-0.07411111111111124,-0.5269999999999999,69.73,-0.0835,-0.1476,0.8440000000000003,100.0,1.0,1.0,214.94,0.0,0.0,0.0,0.0,0.0,0.0,0.0,9110.6,0.0,55.0,5.0,251.0,0.0,0.0,0.0,0.0,0.0,0.0,1.0,0.0,1.5060000000000002,1.5060000000000002,0.0,0.0,0.0,55.0,616.79921,10000.0,85.000001,85.000001,85.000001,85.000001,395.0,0.0,0.0,0.0,1.0,333.33500000000004,53.65,53.65,46.539,46.539,34.0,-28.755,20.166,-34.846666666666664,26.145,0.0,1781.862,0.16499999999999915,100.0,27.57,26.579,44.738,43.734,0.0,0.0,100.0,0.0,0.0,0.0,0.0,3290.875,2821.6,4378.777777777777,4152.7,304.96566666666666,305.8205,314.2815,314.4965,22.031,20.6358,22.0527,21.5769,314.999998,314.999998,324.999988,324.999988,99.55895714285714,99.50713333333333,99.56757142857143,99.54895714285715,0.0015000000000000568,-0.12399999999999989,-0.19833333333333333,0.024,-0.04333333333332945,-0.054999999999999716,1.4715,1.4855,38.694,29.974,38.829,35.856,55.626999999999995,35.1835,59.605000000000004,53.196,53.55,34.298,58.1655,51.5055,52.676,33.83,58.028999999999996,50.906333333333336,-0.06299999999999994,-0.07899999999999996,0.10743000000000001,0.10544500000000001,0.0,218.335,218.265,214.94,214.94,0.0,0.0
31,0.0,0.0,0.0,1.0,1.0,0.0,0.0,1.0,0.0,100.0,1.0,1.1856,26.0,0.0,0.0,0.0,59.999996,0.0,26.0,26.0,26.0,26.0,-0.09644444444444444,0.2582,0.013333333333333334,292.068,-2.7388,-2.68725,-1.5385499999999999,-1.6637,-170.36,215.965,190.30425,0.0,0.0,0.0,0.0,0.0628333333333333,-5.498166666666667,-5.498166666666667,-0.5373,-0.7563333333333334,-0.060555555555555696,0.6870000000000003,69.866,-0.0683,-0.156725,0.3720000000000008,100.0,1.0,1.0,215.26,0.0,0.0,0.0,0.0,0.0,0.0,0.0,9124.0,0.0,55.0,5.0,251.48666666666668,1.0,0.0,0.0,0.0,0.0,0.0,1.0,0.0,1.5569999999999986,1.5569999999999986,0.0,0.0,1.0,55.0,616.79921,10000.0,85.000001,85.000001,85.000001,85.000001,395.0,0.0,0.0,0.0,1.0,166.665,54.108,54.108,45.364,45.364,34.0,-26.0275,21.137999999999998,-34.870000000000005,28.965,0.0,1781.813,0.129999999999999,100.0,27.266,26.418,45.4,44.253,0.0,0.0,100.0,0.0,0.0,0.0,0.0,3002.0,3030.4,4359.111111111111,4333.1,305.8283333333333,305.41625,314.16825,314.227,22.0401,20.6411,22.063299999999998,21.5863,314.999998,314.999998,324.999988,324.999988,99.55895714285714,99.50713333333333,99.56771428571429,99.5491,0.01100000000000012,-0.11099999999999999,-0.18133333333333335,0.05416666666666667,-0.03499999999999659,-0.03833333333332689,1.4395,1.4635,38.751000000000005,30.006666666666668,38.896,35.914500000000004,55.608999999999995,35.2235,59.6495,53.2585,53.533,34.335,58.207499999999996,51.5655,52.658,33.865,58.067499999999995,50.965,-0.06299999999999994,-0.08200000000000007,0.11098000000000001,0.10650000000000001,0.0,218.675,218.64,215.26,215.26,0.0,0.0
32,0.0,0.0,0.0,1.0,1.0,0.0,0.0,1.0,0.0,100.0,1.0,1.1856,26.0,0.0,0.0,0.0,59.999996,0.0,26.0,26.0,26.0,26.0,-0.08277777777777784,0.27570000000000006,-0.018500000000000003,292.343,-2.6446,-2.792375,-1.53495,-1.5697999999999999,-166.57999999999998,215.95499999999998,190.277,0.0,0.0,0.0,0.0,0.06503333333333339,-5.498166666666667,-5.498166666666667,-0.5531,0.20800000000000002,-0.08344444444444443,0.46399999999999997,70.004,-0.0551,-0.1608,0.39200000000000035,100.0,1.0,1.0,215.7866666666667,0.0,0.0,0.0,0.0,0.0,0.0,0.0,9146.4,0.0,55.0,5.0,251.98333333333335,0.0,0.0,0.0,0.0,0.0,0.0,1.0,0.0,1.6110000000000007,1.6110000000000007,0.0,0.0,0.0,55.0,616.79921,10000.0,85.000001,85.000001,85.000001,85.000001,395.0,0.0,0.0,0.0,1.0,166.665,54.169,54.169,46.204,46.204,34.0,-24.73,21.3,-32.166666666666664,27.9125,0.0,1781.759,0.05999999999999872,100.0,27.271,26.475,44.941,44.038,0.0,0.0,100.0,0.0,0.0,0.0,0.0,2999.0,2856.3,4267.666666666667,4307.3,305.62333333333333,305.7155,314.44775,314.3235,22.0498,20.6467,22.0743,21.596,314.999998,314.999998,324.999988,324.999988,99.55895714285714,99.50715,99.56788571428571,99.54925714285714,0.029749999999999943,-0.09966666666666679,-0.15433333333333335,0.06783333333333333,-0.026666666666670835,-0.05333333333332746,1.495,1.5075,38.811,30.042,38.964,35.975,55.59,35.2655,59.6905,53.32,53.516,34.3735,58.246,51.625,52.64,33.902,58.103,51.022333333333336,-0.06499999999999995,-0.07600000000000007,0.10268500000000001,0.109795,0.0,219.115,219.095,215.7866666666667,215.7866666666667,0.0,0.0
33,0.0,0.0,0.0,1.0,1.0,0.0,0.0,1.0,0.0,100.0,1.0,1.1856,26.0,0.0,0.0,0.0,59.999996,0.0,26.0,26.0,26.0,26.0,-0.06888888888888889,0.26859999999999995,-0.014766666666666666,292.511,-2.7015000000000002,-2.768125,-1.54515,-1.6331,-163.43,215.945,190.25325,0.0,0.0,0.0,0.0,0.0668333333333333,-5.498166666666667,-5.498166666666667,-0.557,-0.4736666666666667,-0.07055555555555548,0.125,70.12100000000001,-0.050100000000000006,-0.14775000000000002,0.40000000000000036,100.0,1.0,1.0,216.09333333333333,0.0,0.0,0.0,0.0,0.0,0.0,0.0,9159.4,0.0,55.0,5.0,252.41,1.0,0.0,0.0,0.0,0.0,0.0,1.0,0.0,1.6559999999999988,1.6559999999999988,0.0,0.0,1.0,55.0,616.79921,10000.0,85.000001,85.000001,85.000001,85.000001,395.0,0.0,0.0,0.0,1.0,166.665,54.657,54.657,46.234,46.234,34.0,-24.9375,20.346,-33.03333333333333,28.28,0.0,1781.714,-0.09999999999999964,100.0,26.87,26.364,44.885,44.243,0.0,0.0,100.0,0.0,0.0,0.0,0.0,3008.375,2730.2,4281.666666666667,4251.5,305.86033333333336,306.0595,314.45775,314.28975,22.0577,20.6512,22.0835,21.6041,314.999998,314.999998,324.999988,324.999988,99.55897142857143,99.50715,99.56801428571428,99.54938571428572,0.030749999999999833,-0.09233333333333316,-0.16433333333333336,0.059500000000000004,-0.046666666666666856,-0.041666666666671404,1.4695,1.4795,38.861000000000004,30.07,39.022,36.025999999999996,55.574,35.297,59.726,53.373,53.501000000000005,34.4025,58.278999999999996,51.6755,52.623999999999995,33.9295,58.132999999999996,51.071666666666665,-0.07799999999999996,-0.0605,0.10635000000000001,0.11182500000000001,0.0,219.49,219.45,216.09333333333336,216.09333333333333,0.0,0.0
34,0.0,0.0,0.0,1.0,1.0,0.0,0.0,1.0,0.0,100.0,1.0,1.1856,26.0,0.0,0.0,0.0,59.999996,0.0,26.0,26.0,26.0,26.0,-0.05977777777777782,0.25460000000000016,-0.07073333333333334,292.953,-2.7072,-2.75525,-1.6129,-1.6012,-159.85,215.9325,190.22525,0.0,0.0,0.0,0.0,0.0689333333333334,-5.498166666666667,-5.498166666666667,-0.5904,-0.7426666666666667,-0.037555555555555564,0.968,70.252,-0.0413,-0.158,0.24399999999999977,100.0,1.0,1.0,216.56333333333333,0.0,0.0,0.0,0.0,0.0,0.0,0.0,9179.3,0.0,55.0,5.0,252.88,0.0,0.0,0.0,0.0,0.0,0.0,1.0,0.0,1.7070000000000007,1.7070000000000007,0.0,0.0,0.0,55.0,616.79921,10000.0,85.000001,85.000001,85.000001,85.000001,395.0,0.0,0.0,0.0,1.0,333.33500000000004,55.022999999999996,55.022999999999996,46.967,46.967,34.0,-23.0525,21.145999999999997,-31.166666666666664,27.9475,0.0,1781.662,-0.14499999999999957,100.0,26.7,25.965,44.622,44.19,0.0,0.0,100.0,0.0,0.0,0.0,0.0,2828.75,2796.7,4095.8888888888887,4186.6,306.11566666666664,305.94725,314.9515,314.54025,22.0666,20.6563,22.0938,21.6134,314.999998,314.999998,324.999988,324.999988,99.55897142857143,99.50716666666666,99.56815714285715,99.54952857142857,0.045250000000000234,-0.08066666666666666,-0.14866666666666667,0.07716666666666668,-0.02833333333332888,-0.05833333333333002,1.512,1.5245,38.916,30.102,39.086,36.0835,55.556,35.332,59.763,53.433,53.483000000000004,34.435,58.3135,51.7335,52.605999999999995,33.960499999999996,58.164500000000004,51.128,-0.07750000000000001,-0.06099999999999994,0.10696000000000001,0.10834,0.0,219.865,219.835,216.56333333333333,216.56333333333333,0.0,0.0
35,0.0,0.0,0.0,1.0,1.0,0.0,0.0,1.0,0.0,100.0,1.0,1.1856,26.0,0.0,0.0,0.0,59.999996,0.0,26.0,26.0,26.0,26.0,-0.01777777777777778,0.2532000000000001,-0.04593333333333333,292.831,-2.7096999999999998,-2.709625,-1.58915,-1.6135000000000002,-156.26999999999998,215.91750000000002,190.195,0.0,0.0,0.0,0.0,0.07103333333333339,-5.498166666666667,-5.498166666666667,-0.6302,-0.185,-0.05088888888888876,-1.06,70.382,-0.0279,-0.161225,0.06200000000000028,100.0,1.0,1.0,217.04333333333335,0.0,0.0,0.0,0.0,0.0,0.0,0.0,9199.7,0.0,55.0,5.0,253.34666666666666,1.0,0.0,0.0,0.0,0.0,0.0,1.0,0.0,1.7579999999999991,1.7579999999999991,0.0,0.0,1.0,55.0,616.79921,10000.0,85.000001,85.000001,85.000001,85.000001,395.0,0.0,0.0,0.0,1.0,333.33500000000004,54.214,54.214,46.692,46.692,34.0,-24.755,23.802,-29.7,26.695,0.0,1781.609,-0.08000000000000007,100.0,26.431,26.48,44.289,43.809,0.0,0.0,100.0,0.0,0.0,0.0,0.0,3064.875,3080.9,4048.3333333333335,3954.1000000000004,305.69466666666665,304.97575,315.053,315.097,22.0754,20.6617,22.1041,21.6225,314.999998,314.999998,324.999988,324.999988,99.55898571428571,99.50718333333333,99.56831428571428,99.54968571428572,0.05025000000000013,-0.07033333333333314,-0.13716666666666666,0.08833333333333333,-0.02833333333332888,-0.061666666666667425,1.551,1.5545,38.971000000000004,30.135333333333335,39.15,36.1405,55.536,35.3695,59.8,53.489,53.464,34.4695,58.348,51.787,52.587,33.9935,58.196,51.18033333333333,-0.08499999999999996,-0.05699999999999994,0.10916500000000001,0.10909500000000001,0.0,220.255,220.26999999999998,217.04333333333335,217.04333333333335,0.0,0.0
36,0.0,0.0,0.0,1.0,1.0,0.0,0.0,1.0,0.0,100.0,1.0,1.1856,26.0,0.0,0.0,0.0,59.999996,0.0,26.0,26.0,26.0,26.0,-0.02011111111111108,0.2659,0.05473333333333334,291.885,-2.6588,-2.784875,-1.54365,-1.6096,-152.88,215.905,190.16525,0.0,0.0,0.0,0.0,0.07296666666666651,-5.498166666666667,-5.498166666666667,-0.6071000000000001,0.2636666666666667,-0.0865555555555555,-1.222,70.508,-0.01925,-0.132875,0.21799999999999997,100.0,1.0,1.0,217.15,0.0,0.0,0.0,0.0,0.0,0.0,0.0,9204.2,0.0,55.0,5.0,253.80333333333334,0.0,0.0,0.0,0.0,0.0,0.0,1.0,0.0,1.806000000000001,1.806000000000001,0.0,0.0,0.0,55.0,616.79921,10000.0,85.000001,85.000001,85.000001,85.000001,395.0,0.0,0.0,0.0,1.0,333.33500000000004,54.092,54.092,45.7,45.7,34.0,-23.6425,22.354,-33.156666666666666,32.2425,0.0,1781.562,-0.09499999999999886,100.0,26.958,26.715,44.502,44.272000000000006,0.0,0.0,100.0,0.0,0.0,0.0,0.0,3002.25,2800.2,4539.555555555556,4545.6,305.6143333333333,305.523,313.89,313.64325,22.0839,20.6668,22.1139,21.6313,314.999998,314.999998,324.999988,324.999988,99.55898571428571,99.50718333333333,99.56845714285714,99.54982857142858,0.06050000000000022,-0.06866666666666665,-0.1215,0.08966666666666667,-0.03166666666666629,-0.041666666666671404,1.4155,1.4224999999999999,39.024,30.167666666666666,39.212,36.195499999999996,55.521,35.4055,59.8375,53.547,53.451,34.503,58.3835,51.843,52.572,34.025999999999996,58.228,51.23466666666667,-0.07950000000000002,-0.058499999999999996,0.10657000000000001,0.11195000000000001,0.0,220.685,220.66,217.15,217.15,0.0,0.0
