,ABS Active,ABS Enabled,AID Allow Tire Blankets,AID Auto Blip,AID Auto Clutch,AID Auto Shift,AID Fuel Rate,AID Ideal Line,AID Mech Damage,AID Stability,AID Tire Wear Rate,Air Density,Air Temp,Ballast,Best Lap Delta,Best Lap Time,Brake Bias,Brake Pos,Brake Temp FL,Brake Temp FR,Brake Temp RL,Brake Temp RR,CG Accel Lateral,CG Accel Longitudinal,CG Accel Vertical,CG Height,Camber FL,Camber FR,Camber RL,Camber RR,Car Coord X,Car Coord Y,Car Coord Z,Car Damage Front,Car Damage Left,Car Damage Rear,Car Damage Right,Car Pos Norm,Caster FL,Caster FR,Chassis Pitch Angle,Chassis Pitch Rate,Chassis Roll Angle,Chassis Roll Rate,Chassis Velocity X,Chassis Velocity Y,Chassis Velocity Z,Chassis Yaw Rate,Clutch Pos,DRS Active,DRS Available,Drive Train Speed,ERS Heat Charging,ERS Is Charging,ERS Max Energy,ERS Power Level,ERS Recovery Level,Engine Brake Setting,Engine Limiter,Engine RPM,Flags,Fuel Level,Gear,Ground Speed,HR Sample Clock,In Pit,KERS Charge,KERS Deployed Energy,KERS Input,KERS Max Energy,LR Sample Clock,Lap Invalidated,Lap Time,Lap Time2,Last Lap Time,Last Sector Time,MR Sample Clock,Max Fuel,Max Power,Max RPM,Max Sus Travel FL,Max Sus Travel FR,Max Sus Travel RL,Max Sus Travel RR,Max Torque,Max Turbo Boost,Num Tires Off Track,Penalties Enabled,Position,Raw Data Sample Rate,Ride Height FL,Ride Height FR,Ride Height RL,Ride Height RR,Road Temp,Self Align Torque FL,Self Align Torque FR,Self Align Torque RL,Self Align Torque RR,Session Lap Count,Session Time Left,Steering Angle,Surface Grip,Suspension Travel FL,Suspension Travel FR,Suspension Travel RL,Suspension Travel RR,TC Active,TC Enabled,Throttle Pos,Tire Dirt Level FL,Tire Dirt Level FR,Tire Dirt Level RL,Tire Dirt Level RR,Tire Load FL,Tire Load FR,Tire Load RL,Tire Load RR,Tire Loaded Radius FL,Tire Loaded Radius FR,Tire Loaded Radius RL,Tire Loaded Radius RR,Tire Pressure FL,Tire Pressure FR,Tire Pressure RL,Tire Pressure RR,Tire Radius FL,Tire Radius FR,Tire Radius RL,Tire Radius RR,Tire Rubber Grip FL,Tire Rubber Grip FR,Tire Rubber Grip RL,Tire Rubber Grip RR,Tire Slip Angle FL,Tire Slip Angle FR,Tire Slip Angle RL,Tire Slip Angle RR,Tire Slip Ratio FL,Tire Slip Ratio FR,Tire Slip Ratio RL,Tire Slip Ratio RR,Tire Temp Core FL,Tire Temp Core FR,Tire Temp Core RL,Tire Temp Core RR,Tire Temp Inner FL,Tire Temp Inner FR,Tire Temp Inner RL,Tire Temp Inner RR,Tire Temp Middle FL,Tire Temp Middle FR,Tire Temp Middle RL,Tire Temp Middle RR,Tire Temp Outer FL,Tire Temp Outer FR,Tire Temp Outer RL,Tire Temp Outer RR,Toe In FL,Toe In FR,Toe In RL,Toe In RR,Turbo Boost,Wheel Angular Speed FL,Wheel Angular Speed FR,Wheel Angular Speed RL,Wheel Angular Speed RR,Wind Direction,Wind Speed
0,0.0,0.0,0.0,1.0,1.0,0.0,0.0,1.0,0.0,100.0,1.0,1.1856,26.0,0.0,0.0,0.0,59.99999,0.0,26.0,26.0,26.0,26.0,-0.026249999999999996,0.2892000000000001,0.09386666666666667,292.389,-2.7633,-2.5945714285714288,-1.5543,-1.5037500000000001,-275.79,215.49,190.987125,0.0,0.0,0.0,0.0,0.0015333333333333334,-5.498166666666667,-5.498166666666667,-0.6151,2.0233333333333334,0.0020000000000000018,0.355,65.42699999999999,-0.0238,-0.282275,0.02400000000000002,100.0,1.0,1.0,202.01333333333332,0.0,0.0,0.0,0.0,0.0,0.0,0.0,8562.6,0.0,55.0,5.0,235.51,0.0,0.0,0.0,0.0,0.0,0.0,0.0,0.0,0.0030000000000001137,0.0030000000000001137,0.0,0.0,0.0,55.0,616.79921,10000.0,85.0,85.0,85.0,85.0,395.0,0.0,0.0,0.0,1.0,20.0,48.66,48.66,49.515,49.515,34.0,-30.023333333333333,32.69,-28.396666666666665,27.2425,0.0,1783.453,0.16000000000000014,100.0,29.347,28.990000000000002,40.074,39.762,0.0,0.0,100.0,0.0,0.0,0.0,0.0,3483.0,4369.8,4029.8571428571427,4143.4,304.128,301.3315,315.05266666666665,314.59575,21.8156,20.540399999999998,21.802,21.328,314.99999,314.99999,324.99998,324.99998,99.56037142857143,99.50761666666666,99.56758571428571,99.54625714285714,0.040000000000000036,-0.08350000000000002,-0.12816666666666665,0.10200000000000009,-0.045000000000001705,-0.05666666666667197,1.571,1.554,37.348,29.378,37.262,34.3,56.905,34.939,59.8775,52.061,54.807,34.064,58.487,50.385,53.983000000000004,33.601,58.463,49.792500000000004,-0.07899999999999996,-0.09600000000000009,0.10009000000000001,0.11320000000000001,0.0,205.0,205.005,202.01333333333332,202.01333333333332,0.0,0.0
1,0.0,0.0,0.0,1.0,1.0,0.0,0.0,1.0,0.0,100.0,1.0,1.1856,26.0,0.0,0.0,0.0,59.999996,0.0,26.0,26.0,26.0,26.0,-0.058250000000000024,0.33130000000000015,0.1837,291.412,-2.613,-2.6701428571428574,-1.5965,-1.5166250000000001,-272.45,215.4925,190.96725,0.0,0.0,0.0,0.0,0.0034666666666666665,-5.498166666666667,-5.498166666666667,-0.5206000000000001,-1.2313333333333336,-0.04488888888888898,-0.057,65.582,-0.0201,-0.226325,0.5860000000000003,100.0,1.0,1.0,201.87666666666667,0.0,0.0,0.0,0.0,0.0,0.0,0.0,8556.8,0.0,55.0,5.0,236.06,1.0,0.0,0.0,0.0,0.0,0.0,0.0,0.0,0.053999999999998494,0.053999999999998494,0.0,0.0,1.0,55.0,616.79921,10000.0,85.000001,85.000001,85.000001,85.000001,395.0,0.0,0.0,0.0,1.0,333.33500000000004,51.772999999999996,51.772999999999996,47.44,47.44,34.0,-23.78666666666667,18.016,-38.0,38.47,0.0,1783.401,0.3100000000000023,100.0,29.414,29.161,42.112,42.259,0.0,0.0,100.0,0.0,0.0,0.0,0.0,3031.0,2620.0,4823.0,5573.200000000001,305.7055,306.45625,312.94733333333335,311.2035,21.8257,20.5459,21.8131,21.3374,314.999998,314.999998,324.999988,324.999988,99.56037142857143,99.50765,99.56774285714286,99.5464,0.04425000000000012,-0.10699999999999998,-0.135,0.07800000000000007,-0.01999999999999602,-0.045000000000001705,1.322,1.3385,37.411,29.4115,37.332,34.359,56.888999999999996,34.980000000000004,59.923,52.1285,54.793,34.102000000000004,58.5295,50.45,53.967,33.6375,58.5025,49.856,-0.06033333333333313,-0.11500000000000021,0.104425,0.106675,0.0,205.45499999999998,205.41500000000002,201.87666666666667,201.87666666666667,0.0,0.0
2,0.0,0.0,0.0,1.0,1.0,0.0,0.0,1.0,0.0,100.0,1.0,1.1856,26.0,0.0,0.0,0.0,59.999996,0.0,26.0,26.0,26.0,26.0,-0.08224999999999993,0.29110000000000014,-0.10306666666666668,292.908,-2.6352,-2.6301428571428573,-1.5636,-1.5133750000000001,-269.1,215.4925,190.9485,0.0,0.0,0.0,0.0,0.005433333333333333,-5.498166666666667,-5.498166666666667,-0.6347,0.358,-0.009777777777777885,2.486,65.711,-0.0246,-0.33787500000000004,0.75,100.0,1.0,1.0,203.32666666666665,0.0,0.0,0.0,0.0,0.0,0.0,0.0,8618.3,0.0,55.0,5.0,236.53333333333333,0.0,0.0,0.0,0.0,0.0,0.0,0.0,0.0,0.10500000000000043,0.10500000000000043,0.0,0.0,0.0,55.0,616.79921,10000.0,85.000001,85.000001,85.000001,85.000001,395.0,0.0,0.0,0.0,1.0,333.33500000000004,49.24,49.24,51.178,51.178,34.0,-29.416666666666664,24.13,-23.816666666666663,18.552500000000002,0.0,1783.35,0.4299999999999997,100.0,30.118,29.326999999999998,41.578,41.461,0.0,0.0,100.0,0.0,0.0,0.0,0.0,3521.333333333333,3440.7,3434.5714285714284,3311.6,303.959,303.809,316.461,316.706,21.836100000000002,20.5513,21.8235,21.346,314.999998,314.999998,324.999988,324.999988,99.56038571428572,99.50765,99.56788571428571,99.54652857142857,0.03475000000000006,-0.11299999999999999,-0.15716666666666657,0.06633333333333336,-0.061666666666667425,-0.08166666666667055,1.8075,1.8305,37.476,29.445999999999998,37.397,34.4125,56.878,35.022,59.954499999999996,52.1775,54.781,34.1405,58.5585,50.497,53.955,33.6745,58.528999999999996,49.9025,-0.05566666666666675,-0.12199999999999989,0.10496000000000001,0.10451,0.0,205.86,205.81,203.32666666666665,203.32666666666665,0.0,0.0
3,0.0,0.0,0.0,1.0,1.0,0.0,0.0,1.0,0.0,100.0,1.0,1.1856,26.0,0.0,0.0,0.0,59.999996,0.0,26.0,26.0,26.0,26.0,-0.07474999999999998,0.30380000000000007,0.18366666666666667,292.068,-2.6645,-2.648142857142857,-1.554,-1.468875,-265.95,215.4925,190.92925,0.0,0.0,0.0,0.0,0.007266666666666668,-5.498166666666667,-5.498166666666667,-0.554,0.7483333333333333,0.015666666666666718,-1.2630000000000001,65.856,-0.0367,-0.2422,0.6479999999999997,100.0,1.0,1.0,203.07,0.0,0.0,0.0,0.0,0.0,0.0,0.0,8607.4,0.0,55.0,5.0,237.05333333333334,1.0,0.0,0.0,0.0,0.0,0.0,0.0,0.0,0.1529999999999987,0.1529999999999987,0.0,0.0,1.0,55.0,616.79921,10000.0,85.000001,85.000001,85.000001,85.000001,395.0,0.0,0.0,0.0,1.0,166.665,50.858000000000004,50.858000000000004,47.974000000000004,47.974000000000004,34.0,-24.25,21.786,-34.129999999999995,27.8075,0.0,1783.302,0.5150000000000006,100.0,29.691,29.351,41.599000000000004,41.65,0.0,0.0,100.0,0.0,0.0,0.0,0.0,2999.6666666666665,3171.2,4458.714285714285,4454.1,305.779,304.713,313.978,313.7195,21.8456,20.5567,21.8334,21.3546,314.999998,314.999998,324.999988,324.999988,99.56038571428572,99.50766666666667,99.56801428571428,99.54665714285714,0.03774999999999995,-0.11924999999999997,-0.15049999999999997,0.06866666666666688,-0.01999999999999602,-0.05333333333332746,1.4245,1.4725000000000001,37.535,29.4795,37.459,34.466,56.863,35.064499999999995,59.9885,52.238,54.766999999999996,34.18,58.59,50.5555,53.94,33.7125,58.5575,49.96,-0.052999999999999936,-0.1280000000000001,0.10896000000000002,0.10013000000000001,0.0,206.36,206.3,203.07,203.07,0.0,0.0
4,0.0,0.0,0.0,1.0,1.0,0.0,0.0,1.0,0.0,100.0,1.0,1.1856,26.0,0.0,0.0,0.0,59.999996,0.0,26.0,26.0,26.0,26.0,-0.07587500000000003,0.27700000000000014,0.006966666666666668,292.419,-2.6469,-2.721285714285714,-1.4896,-1.589625,-262.58,215.49,190.909875,0.0,0.0,0.0,0.0,0.0092,-5.498166666666667,-5.498166666666667,-0.5809000000000001,-0.9423333333333332,-0.04400000000000004,-0.807,65.997,-0.043500000000000004,-0.292925,1.0359999999999996,100.0,1.0,1.0,203.71333333333334,0.0,0.0,0.0,0.0,0.0,0.0,0.0,8634.6,0.0,55.0,5.0,237.56,0.0,0.0,0.0,0.0,0.0,0.0,0.0,0.0,0.20400000000000063,0.20400000000000063,0.0,0.0,0.0,55.0,616.79921,10000.0,85.000001,85.000001,85.000001,85.000001,395.0,0.0,0.0,0.0,1.0,333.33500000000004,50.552,50.552,49.088,49.088,34.0,-29.126666666666665,20.77,-30.246666666666666,24.012500000000003,0.0,1783.251,0.6449999999999996,100.0,29.601,29.11,42.515,41.962,0.0,0.0,100.0,0.0,0.0,0.0,0.0,3400.666666666667,3035.1,4051.714285714286,3819.7,304.6135,305.057,314.988,315.29325,21.8557,20.5621,21.8443,21.363599999999998,314.999998,314.999998,324.999988,324.999988,99.5604,99.50768333333333,99.56815714285715,99.5468,0.010499999999999954,-0.13524999999999998,-0.1755,0.06383333333333319,-0.07333333333333059,-0.021666666666668277,1.541,1.5815000000000001,37.598,29.5135,37.527,34.5225,56.848,35.1065,60.0285,52.2965,54.753,34.2185,58.6275,50.6115,53.925,33.7495,58.592,50.015,-0.03533333333333322,-0.13900000000000023,0.107605,0.11599000000000001,0.0,206.76,206.63,203.71333333333334,203.71333333333334,0.0,0.0
5,0.0,0.0,0.0,1.0,1.0,0.0,0.0,1.0,0.0,100.0,1.0,1.1856,26.0,0.0,0.0,0.0,59.999996,0.0,26.0,26.0,26.0,26.0,-0.09987499999999994,0.27770000000000006,-0.0422,292.755,-2.6166,-2.6742857142857144,-1.5381,-1.5795000000000001,-259.21,215.485,190.89025,0.0,0.0,0.0,0.0,0.011166666666666668,-5.498166666666667,-5.498166666666667,-0.5920000000000001,0.5276666666666667,-0.02733333333333343,0.889,66.137,-0.0648,-0.286375,1.0460000000000012,100.0,1.0,1.0,204.26,0.0,0.0,0.0,0.0,0.0,0.0,0.0,8657.9,0.0,55.0,5.0,238.06666666666666,1.0,0.0,0.0,0.0,0.0,0.0,0.0,0.0,0.254999999999999,0.254999999999999,0.0,0.0,1.0,55.0,616.79921,10000.0,85.000001,85.000001,85.000001,85.000001,395.0,0.0,0.0,0.0,1.0,333.33500000000004,50.674,50.674,49.652,49.652,34.0,-26.43,22.067999999999998,-29.599999999999998,23.2175,0.0,1783.199,0.125,100.0,29.701,28.876,42.123,41.314,0.0,0.0,100.0,0.0,0.0,0.0,0.0,3224.5,3184.6,3865.714285714286,3913.1000000000004,304.8785,304.728,315.43533333333335,315.191,21.866,20.5677,21.8549,21.3724,314.999998,314.999998,324.999988,324.999988,99.5604,99.5077,99.5683,99.54694285714285,0.033500000000000085,-0.11975000000000002,-0.18766666666666665,0.04249999999999998,-0.041666666666671404,-0.07666666666666799,1.573,1.6365,37.662,29.548000000000002,37.593,34.5775,56.835,35.15,60.063,52.352000000000004,54.739999999999995,34.259,58.6595,50.665,53.911,33.788,58.621,50.067499999999995,-0.07400000000000007,-0.10749999999999993,0.10600000000000001,0.105925,0.0,207.22500000000002,207.135,204.26,204.26,0.0,0.0
6,0.0,0.0,0.0,1.0,1.0,0.0,0.0,1.0,0.0,100.0,1.0,1.1856,26.0,0.0,0.0,0.0,59.999996,0.0,26.0,26.0,26.0,26.0,-0.10375000000000001,0.29510000000000014,-0.014566666666666667,292.557,-2.6461,-2.7504285714285714,-1.4851,-1.557625,-256.04,215.48000000000002,190.87075,0.0,0.0,0.0,0.0,0.013000000000000001,-5.498166666666667,-5.498166666666667,-0.5775,-0.2250000000000001,-0.04688888888888876,0.398,66.273,-0.068,-0.262225,0.71,100.0,1.0,1.0,204.4766666666667,0.0,0.0,0.0,0.0,0.0,0.0,0.0,8667.0,0.0,55.0,5.0,238.55666666666667,0.0,0.0,0.0,0.0,0.0,0.0,0.0,0.0,0.3030000000000008,0.3030000000000008,0.0,0.0,0.0,55.0,616.79921,10000.0,85.000001,85.000001,85.000001,85.000001,395.0,0.0,0.0,0.0,1.0,166.665,51.117,51.117,48.813,48.813,34.0,-27.806666666666665,21.344,-31.64,24.41,0.0,1783.153,0.2950000000000017,100.0,29.42,28.560000000000002,42.339,41.438,0.0,0.0,100.0,0.0,0.0,0.0,0.0,3253.8333333333335,3056.0,4190.714285714285,4071.5,304.901,305.14675,314.56166666666667,314.7745,21.8755,20.5728,21.8649,21.3809,314.999998,314.999998,324.999988,324.999988,99.5604,99.50771666666667,99.56844285714286,99.54707142857143,0.012250000000000094,-0.12849999999999995,-0.17433333333333334,0.04083333333333328,-0.04833333333333201,-0.05333333333332746,1.52,1.5305,37.722,29.58,37.656,34.6305,56.82,35.189,60.0985,52.408500000000004,54.726,34.295,58.692499999999995,50.719,53.896,33.823,58.6515,50.1205,-0.06166666666666676,-0.10650000000000004,0.10629000000000001,0.10375500000000001,0.0,207.615,207.565,204.4766666666667,204.4766666666667,0.0,0.0
7,0.0,0.0,0.0,1.0,1.0,0.0,0.0,1.0,0.0,100.0,1.0,1.1856,26.0,0.0,0.0,0.0,59.999996,0.0,26.0,26.0,26.0,26.0,-0.06962499999999994,0.2833000000000001,-0.003033333333333333,292.465,-2.5987,-2.741857142857143,-1.5387,-1.604375,-252.65,215.47,190.850125,0.0,0.0,0.0,0.0,0.015000000000000001,-5.498166666666667,-5.498166666666667,-0.5869,0.08399999999999996,-0.04066666666666663,-0.28500000000000003,66.413,-0.0659,-0.277225,0.6060000000000008,100.0,1.0,1.0,204.98666666666668,0.0,0.0,0.0,0.0,0.0,0.0,0.0,8688.7,0.0,55.0,5.0,239.06,1.0,0.0,0.0,0.0,0.0,0.0,0.0,0.0,0.3539999999999992,0.3539999999999992,0.0,0.0,1.0,55.0,616.79921,10000.0,85.000001,85.000001,85.000001,85.000001,395.0,0.0,0.0,0.0,1.0,166.665,50.629,50.629,49.118,49.118,34.0,-27.506666666666668,22.334000000000003,-31.936666666666664,23.605,0.0,1783.102,-0.14000000000000057,100.0,29.621,28.948,42.291,41.539,0.0,0.0,100.0,0.0,0.0,0.0,0.0,3378.166666666667,3061.7,4106.428571428572,3929.6000000000004,304.649,304.89425,314.90166666666664,315.04,21.8858,20.5784,21.8756,21.3899,314.999998,314.999998,324.999988,324.999988,99.5604,99.50773333333333,99.56857142857143,99.54721428571429,0.031749999999999945,-0.11024999999999996,-0.18899999999999995,0.03416666666666668,-0.061666666666667425,-0.03999999999999915,1.557,1.5765,37.786,29.6145,37.723,34.6865,56.807,35.232,60.1355,52.466,54.713,34.3345,58.727000000000004,50.7745,53.882999999999996,33.861000000000004,58.683,50.1745,-0.09499999999999997,-0.07500000000000018,0.10719000000000001,0.10549000000000001,0.0,208.065,207.98000000000002,204.98666666666668,204.98666666666668,0.0,0.0
8,0.0,0.0,0.0,1.0,1.0,0.0,0.0,1.0,0.0,100.0,1.0,1.1856,26.0,0.0,0.0,0.0,59.999996,0.0,26.0,26.0,26.0,26.0,-0.050124999999999975,0.2853000000000001,-0.02976666666666667,292.542,-2.649,-2.6737142857142855,-1.5535,-1.594125,-249.06,215.45749999999998,190.8285,0.0,0.0,0.0,0.0,0.017066666666666667,-5.498166666666667,-5.498166666666667,-0.5899,-0.1326666666666667,-0.028000000000000025,-1.092,66.562,-0.054700000000000006,-0.28075,0.24799999999999933,100.0,1.0,1.0,205.44,0.0,0.0,0.0,0.0,0.0,0.0,0.0,8707.9,0.0,55.0,5.0,239.5966666666667,0.0,0.0,0.0,0.0,0.0,0.0,0.0,0.0,0.40800000000000125,0.40800000000000125,0.0,0.0,0.0,55.0,616.79921,10000.0,85.000001,85.000001,85.000001,85.000001,395.0,0.0,0.0,0.0,1.0,166.665,50.751,50.751,48.903999999999996,48.903999999999996,34.0,-26.543333333333333,22.796,-30.523333333333333,24.6475,0.0,1783.048,-0.21000000000000085,100.0,29.31,29.067,42.252,41.669,0.0,0.0,100.0,0.0,0.0,0.0,0.0,3299.1666666666665,3138.3,4035.8571428571427,3926.0,304.93,304.68575,315.0613333333333,315.031,21.8965,20.5843,21.8869,21.3995,314.999998,314.999998,324.999988,324.999988,99.56041428571429,99.50775,99.56872857142857,99.54735714285714,0.046250000000000124,-0.09924999999999995,-0.16966666666666663,0.05683333333333329,-0.04333333333332945,-0.03333333333333144,1.5655000000000001,1.5615,37.852999999999994,29.652,37.793,34.7465,56.792,35.277,60.174,52.528999999999996,54.699,34.376,58.7625,50.835,53.867999999999995,33.9005,58.7155,50.2335,-0.09966666666666679,-0.06899999999999995,0.105035,0.109505,0.0,208.48000000000002,208.45499999999998,205.44,205.44,0.0,0.0
9,0.0,0.0,0.0,1.0,1.0,0.0,0.0,1.0,0.0,100.0,1.0,1.1856,26.0,0.0,0.0,0.0,59.999996,0.0,26.0,26.0,26.0,26.0,-0.03487499999999999,0.2854000000000001,0.0073,292.343,-2.6439,-2.6957142857142857,-1.5171999999999999,-1.5538750000000001,-246.06,215.4475,190.81,0.0,0.0,0.0,0.0,0.018833333333333334,-5.498166666666667,-5.498166666666667,-0.5878,0.17766666666666664,-0.036555555555555674,0.749,66.686,-0.042100000000000005,-0.273625,0.0039999999999995595,100.0,1.0,1.0,205.80333333333334,0.0,0.0,0.0,0.0,0.0,0.0,0.0,8723.2,0.0,55.0,5.0,240.04000000000002,1.0,0.0,0.0,0.0,0.0,0.0,0.0,0.0,0.4529999999999994,0.4529999999999994,0.0,0.0,1.0,55.0,616.79921,10000.0,85.000001,85.000001,85.000001,85.000001,395.0,0.0,0.0,0.0,1.0,166.665,50.491,50.491,49.072,49.072,34.0,-25.68,24.915999999999997,-29.213333333333335,26.3975,0.0,1783.003,-0.3550000000000004,100.0,29.659,28.907,42.293,41.613,0.0,0.0,100.0,0.0,0.0,0.0,0.0,3298.6666666666665,3240.5,4015.5714285714284,4084.8,304.7385,304.57125,315.039,314.76375,21.9054,20.5893,21.8963,21.4074,314.999998,314.999998,324.999988,324.999988,99.56041428571429,99.50775,99.56884285714285,99.54748571428571,0.06925000000000003,-0.07074999999999998,-0.15333333333333332,0.08000000000000007,-0.023333333333326323,-0.06333333333333258,1.557,1.5485,37.909,29.683,37.852000000000004,34.796,56.781,35.314,60.2055,52.58,54.689,34.41,58.792,50.884,53.857,33.933,58.7425,50.282,-0.11533333333333329,-0.05900000000000016,0.11600500000000001,0.10569500000000001,0.0,208.87,208.865,205.80333333333334,205.80333333333334,0.0,0.0
10,0.0,0.0,0.0,1.0,1.0,0.0,0.0,1.0,0.0,100.0,1.0,1.1856,26.0,0.0,0.0,0.0,59.999996,0.0,26.0,26.0,26.0,26.0,-0.004375000000000018,0.2856000000000001,0.002466666666666667,292.206,-2.6508000000000003,-2.6695714285714285,-1.5528,-1.540875,-242.66,215.435,190.78925,0.0,0.0,0.0,0.0,0.020800000000000003,-5.498166666666667,-5.498166666666667,-0.5823,-0.20066666666666677,-0.016666666666666607,0.065,66.826,-0.024300000000000002,-0.27290000000000003,-0.1559999999999997,100.0,1.0,1.0,206.16,0.0,0.0,0.0,0.0,0.0,0.0,0.0,8738.4,0.0,55.0,5.0,240.54666666666668,0.0,0.0,0.0,0.0,0.0,0.0,1.0,0.0,0.5040000000000013,0.5040000000000013,0.0,0.0,0.0,55.0,616.79921,10000.0,85.000001,85.000001,85.000001,85.000001,395.0,0.0,0.0,0.0,1.0,166.665,50.644,50.644,48.751999999999995,48.751999999999995,34.0,-25.21333333333333,23.722,-30.253333333333334,27.1125,0.0,1782.952,-0.3949999999999996,100.0,29.534,29.087,42.308,42.001,0.0,0.0,100.0,0.0,0.0,0.0,0.0,3308.3333333333335,3116.2,4139.714285714285,4157.2,304.8835,304.79175,314.80266666666665,314.497,21.9156,20.5949,21.9069,21.4165,314.999998,314.999998,324.999988,324.999988,99.56042857142857,99.50776666666667,99.569,99.54762857142858,0.07824999999999993,-0.07174999999999998,-0.14100000000000001,0.08166666666666678,-0.03833333333332689,-0.041666666666671404,1.518,1.5190000000000001,37.973,29.718,37.918,34.853,56.769999999999996,35.354,60.2425,52.64,54.678,34.4475,58.826499999999996,50.9415,53.845,33.969,58.7735,50.338,-0.12366666666666681,-0.05250000000000021,0.104995,0.107005,0.0,209.29500000000002,209.285,206.16,206.16,0.0,0.0
11,0.0,0.0,0.0,1.0,1.0,0.0,0.0,1.0,0.0,100.0,1.0,1.1856,26.0,0.0,0.0,0.0,59.999996,0.0,26.0,26.0,26.0,26.0,-0.0006249999999999867,0.2782,-0.0364,292.496,-2.6632,-2.6630000000000003,-1.564,-1.513625,-239.25,215.42000000000002,190.768375,0.0,0.0,0.0,0.0,0.022600000000000002,-5.498166666666667,-5.498166666666667,-0.6029,-0.29499999999999993,0.014000000000000012,1.108,66.963,-0.0071,-0.2866,-0.387999999999999,100.0,1.0,1.0,206.68666666666667,0.0,0.0,0.0,0.0,0.0,0.0,0.0,8760.7,0.0,55.0,5.0,241.04000000000002,1.0,0.0,0.0,0.0,0.0,0.0,1.0,0.0,0.5549999999999997,0.5549999999999997,0.0,0.0,1.0,55.0,616.79921,10000.0,85.000001,85.000001,85.000001,85.000001,395.0,0.0,0.0,0.0,1.0,166.665,50.659,50.659,49.225,49.225,34.0,-23.796666666666667,26.156,-26.383333333333333,27.2725,0.0,1782.901,-0.46999999999999886,100.0,29.416,28.981,42.199,41.996,0.0,0.0,100.0,0.0,0.0,0.0,0.0,3184.6666666666665,3307.1,3858.285714285714,4062.8,305.089,304.387,315.4336666666667,314.82275,21.9256,20.6005,21.9175,21.4256,314.999998,314.999998,324.999988,324.999988,99.56044285714286,99.50776666666667,99.56914285714285,99.54777142857142,0.09250000000000003,-0.04949999999999999,-0.11199999999999999,0.11383333333333323,-0.036666666666668846,-0.061666666666667425,1.5815000000000001,1.5775000000000001,38.035,29.7535,37.983999999999995,34.91,56.757999999999996,35.3945,60.275999999999996,52.699,54.666,34.4845,58.8575,50.998,53.832,34.0045,58.802,50.394,-0.123,-0.04800000000000004,0.106645,0.10504500000000001,0.0,209.70499999999998,209.71,206.68666666666667,206.68666666666667,0.0,0.0
12,0.0,0.0,0.0,1.0,1.0,0.0,0.0,1.0,0.0,100.0,1.0,1.1856,26.0,0.0,0.0,0.0,59.999996,0.0,26.0,26.0,26.0,26.0,0.026499999999999968,0.2872000000000001,0.003966666666666667,292.13,-2.6988000000000003,-2.648428571428571,-1.5628000000000002,-1.528125,-235.82999999999998,215.4075,190.746625,0.0,0.0,0.0,0.0,0.025466666666666665,-5.498166666666667,-5.498166666666667,-0.5956,0.41100000000000003,0.016000000000000014,-0.641,67.101,0.0085,-0.267525,-0.3460000000000001,100.0,1.0,1.0,207.05,0.0,0.0,0.0,0.0,0.0,0.0,0.0,8776.1,0.0,55.0,5.0,241.53666666666666,0.0,0.0,0.0,0.0,0.0,0.0,1.0,0.0,0.6059999999999981,0.6059999999999981,0.0,0.0,0.0,55.0,616.79921,10000.0,85.000001,85.000001,85.000001,85.000001,395.0,0.0,0.0,0.0,1.0,166.665,50.369,50.369,48.691,48.691,34.0,-25.053333333333335,25.466,-27.936666666666664,29.1425,0.0,1782.85,-0.41499999999999915,100.0,29.349,29.473,41.933,42.114000000000004,0.0,0.0,100.0,0.0,0.0,0.0,0.0,3295.6666666666665,3263.0,4100.428571428572,4135.3,304.9285,304.31625,314.93766666666664,314.6015,21.9357,20.6063,21.928,21.4346,314.999998,314.999998,324.999988,324.999988,99.56045714285715,99.50778333333334,99.56928571428571,99.54791428571428,0.08975,-0.05799999999999994,-0.10350000000000004,0.1306666666666667,-0.05833333333333002,-0.05666666666667197,1.5565,1.544,38.098,29.7895,38.05,34.966499999999996,56.747,35.435,60.31,52.7575,54.656,34.5225,58.888999999999996,51.055,53.82,34.041,58.83,50.4495,-0.1156666666666668,-0.05750000000000011,0.10142500000000002,0.11497500000000001,0.0,210.135,210.18,207.05,207.05,0.0,0.0
13,0.0,0.0,0.0,1.0,1.0,0.0,0.0,1.0,0.0,100.0,1.0,1.1856,26.0,0.0,0.0,0.0,59.999996,0.0,26.0,26.0,26.0,26.0,0.039875000000000105,0.26160000000000005,0.024633333333333337,291.84,-2.6699,-2.6598571428571427,-1.5619,-1.5326250000000001,-232.4,215.39499999999998,190.725,0.0,0.0,0.0,0.0,0.02676666666666667,-5.498166666666667,-5.498166666666667,-0.5916,-0.26866666666666683,0.019555555555555548,1.1260000000000001,67.24000000000001,0.0105,-0.2763,-0.44399999999999995,100.0,1.0,1.0,207.39333333333332,0.0,0.0,0.0,0.0,0.0,0.0,0.0,8790.6,0.0,55.0,5.0,242.03666666666666,1.0,0.0,0.0,0.0,0.0,0.0,1.0,0.0,0.657,0.657,0.0,0.0,1.0,55.0,616.79921,10000.0,85.000001,85.000001,85.000001,85.000001,395.0,0.0,0.0,0.0,1.0,166.665,50.217,50.217,48.416,48.416,34.0,-22.156666666666666,27.712,-27.276666666666664,30.745,0.0,1782.798,-0.48999999999999844,100.0,29.693,29.481,42.339,42.46,0.0,0.0,100.0,0.0,0.0,0.0,0.0,3193.1666666666665,3334.6,4063.0,4286.6,305.057,304.278,314.901,314.2745,21.9456,20.612099999999998,21.9387,21.4439,314.999998,314.999998,324.999988,324.999988,99.56047142857143,99.50778333333334,99.56941428571429,99.54805714285715,0.13200000000000012,-0.02024999999999999,-0.08933333333333338,0.1323333333333332,-0.046666666666666856,-0.03999999999999915,1.5070000000000001,1.4955,38.16,29.825499999999998,38.117000000000004,35.024,56.736999999999995,35.4755,60.3465,52.819,54.646,34.56,58.923,51.114,53.809,34.077,58.861,50.5075,-0.1363333333333332,-0.03949999999999987,0.10251,0.10562,0.0,210.585,210.57,207.39333333333332,207.39333333333332,0.0,0.0
14,0.0,0.0,0.0,1.0,1.0,0.0,0.0,1.0,0.0,100.0,1.0,1.1856,26.0,0.0,0.0,0.0,59.999996,0.0,26.0,26.0,26.0,26.0,0.041749999999999954,0.2821,-0.0279,292.038,-2.6799,-2.6745714285714284,-1.5668000000000002,-1.5330000000000001,-229.17000000000002,215.3825,190.704875,0.0,0.0,0.0,0.0,0.028633333333333334,-5.498166666666667,-5.498166666666667,-0.6052000000000001,-0.04200000000000004,0.027222222222222037,0.926,67.367,0.019100000000000002,-0.29005000000000003,-0.5259999999999998,100.0,1.0,1.0,207.89,0.0,0.0,0.0,0.0,0.0,0.0,0.0,8811.7,0.0,55.0,5.0,242.49333333333334,0.0,0.0,0.0,0.0,0.0,0.0,1.0,0.0,0.7049999999999983,0.7049999999999983,0.0,0.0,0.0,55.0,616.79921,10000.0,85.000001,85.000001,85.000001,85.000001,395.0,0.0,0.0,0.0,1.0,166.665,50.156,50.156,48.828,48.828,34.0,-22.85666666666667,27.606,-25.27,29.2575,0.0,1782.751,-0.495000000000001,100.0,29.74,29.655,42.249,42.504,0.0,0.0,100.0,0.0,0.0,0.0,0.0,3188.1666666666665,3326.9,3921.0,4079.0,305.0645,304.256,315.28766666666667,314.78375,21.955,20.6176,21.9487,21.4524,314.999998,314.999998,324.999988,324.999988,99.56047142857143,99.50778333333334,99.56955714285715,99.54818571428571,0.11824999999999997,-0.026000000000000023,-0.0781666666666666,0.14316666666666666,-0.02499999999999858,-0.07166666666666544,1.5925,1.5514999999999999,38.219,29.86,38.179,35.078,56.727999999999994,35.513999999999996,60.378,52.8745,54.637,34.595,58.952,51.167500000000004,53.799,34.111000000000004,58.8875,50.56,-0.1299999999999999,-0.04800000000000004,0.10536000000000001,0.10848000000000001,0.0,210.945,210.99,207.89,207.89,0.0,0.0
15,0.0,0.0,0.0,1.0,1.0,0.0,0.0,1.0,0.0,100.0,1.0,1.1856,26.0,0.0,0.0,0.0,59.999996,0.0,26.0,26.0,26.0,26.0,0.05212499999999998,0.26570000000000005,0.0037,291.901,-2.6719,-2.649857142857143,-1.557,-1.54925,-225.93,215.3725,190.6845,0.0,0.0,0.0,0.0,0.030533333333333332,-5.498166666666667,-5.498166666666667,-0.5985,0.253,0.037111111111111095,0.856,67.495,0.027100000000000003,-0.277275,-0.5599999999999996,100.0,1.0,1.0,208.23333333333335,0.0,0.0,0.0,0.0,0.0,0.0,0.0,8826.3,0.0,55.0,5.0,242.95666666666665,1.0,0.0,0.0,0.0,0.0,0.0,1.0,0.0,0.7530000000000001,0.7530000000000001,0.0,0.0,1.0,55.0,616.79921,10000.0,85.000001,85.000001,85.000001,85.000001,395.0,0.0,0.0,0.0,1.0,166.665,50.125,50.125,48.584,48.584,34.0,-22.57,27.195999999999998,-25.733333333333334,31.13,0.0,1782.703,-0.3550000000000004,100.0,29.781,29.735,42.147999999999996,42.537,0.0,0.0,100.0,0.0,0.0,0.0,0.0,3152.5,3327.1,4013.1428571428573,4191.2,305.1635,304.23225,315.06733333333335,314.488,21.9644,20.6231,21.9586,21.461100000000002,314.999998,314.999998,324.999988,324.999988,99.5605,99.50778333333334,99.56968571428571,99.54832857142857,0.11675000000000013,-0.03025,-0.07150000000000001,0.15300000000000002,-0.023333333333326323,-0.03833333333332689,1.5415,1.525,38.277,29.8945,38.241,35.1315,56.718,35.552,60.41,52.931,54.628,34.6305,58.9815,51.222,53.789,34.144999999999996,58.914,50.6135,-0.11799999999999988,-0.058499999999999996,0.10194500000000001,0.10480500000000001,0.0,211.34,211.38,208.23333333333335,208.23333333333335,0.0,0.0
16,0.0,0.0,0.0,1.0,1.0,0.0,0.0,1.0,0.0,100.0,1.0,1.1856,26.0,0.0,0.0,0.0,59.999996,0.0,26.0,26.0,26.0,26.0,0.049250000000000016,0.26470000000000016,0.0039000000000000003,291.763,-2.7368,-2.5904285714285713,-1.5367000000000002,-1.544875,-222.49,215.3625,190.6625,0.0,0.0,0.0,0.0,0.03253333333333333,-5.498166666666667,-5.498166666666667,-0.6062000000000001,-0.40166666666666684,0.027444444444444382,-1.101,67.631,0.033100000000000004,-0.28665,-0.33200000000000074,100.0,1.0,1.0,208.62,0.0,0.0,0.0,0.0,0.0,0.0,0.0,8842.6,0.0,55.0,5.0,243.44666666666666,0.0,0.0,0.0,0.0,0.0,0.0,1.0,0.0,0.8039999999999985,0.8039999999999985,0.0,0.0,0.0,55.0,616.79921,10000.0,85.000001,85.000001,85.000001,85.000001,395.0,0.0,0.0,0.0,1.0,333.33500000000004,49.957,49.957,48.294,48.294,34.0,-25.07,26.828,-26.566666666666663,29.25,0.0,1782.651,-0.259999999999998,100.0,29.409,29.919,42.262,42.831,0.0,0.0,100.0,0.0,0.0,0.0,0.0,3358.333333333333,3333.9,4081.1428571428573,4037.0,304.804,304.08675,314.95366666666666,314.75525,21.9742,20.629,21.9693,21.4703,314.999998,314.999998,324.999988,324.999988,99.56051428571429,99.5078,99.56982857142857,99.54847142857143,0.10824999999999996,-0.03049999999999997,-0.08316666666666661,0.14100000000000001,-0.05666666666667197,-0.05833333333333002,1.5314999999999999,1.5270000000000001,38.339,29.930999999999997,38.308,35.189,56.707,35.5925,60.445,52.9915,54.617000000000004,34.668,59.0145,51.28,53.777,34.181,58.9435,50.670500000000004,-0.11133333333333328,-0.06199999999999983,0.11166000000000001,0.10234000000000001,0.0,211.775,211.79000000000002,208.62,208.62,0.0,0.0
17,0.0,0.0,0.0,1.0,1.0,0.0,0.0,1.0,0.0,100.0,1.0,1.1856,26.0,0.0,0.0,0.0,59.999996,0.0,26.0,26.0,26.0,26.0,0.030000000000000027,0.27390000000000003,0.020533333333333334,291.504,-2.7327,-2.576714285714286,-1.5847,-1.506125,-219.04,215.35500000000002,190.640375,0.0,0.0,0.0,0.0,0.03453333333333333,-5.498166666666667,-5.498166666666667,-0.606,0.15833333333333333,0.009666666666666712,0.324,67.766,0.0297,-0.28065,-0.24600000000000044,100.0,1.0,1.0,209.0233333333333,0.0,0.0,0.0,0.0,0.0,0.0,0.0,8859.7,0.0,55.0,5.0,243.93,1.0,0.0,0.0,0.0,0.0,0.0,1.0,0.0,0.8550000000000004,0.8550000000000004,0.0,0.0,1.0,55.0,616.79921,10000.0,85.000001,85.000001,85.000001,85.000001,395.0,0.0,0.0,0.0,1.0,333.33500000000004,49.683,49.683,48.111,48.111,34.0,-24.566666666666666,27.264,-27.696666666666665,30.5375,0.0,1782.599,-0.21000000000000085,100.0,29.866,29.884,42.353,42.682,0.0,0.0,100.0,0.0,0.0,0.0,0.0,3309.8333333333335,3436.7,4161.0,4200.4,304.765,303.956,314.746,314.502,21.984099999999998,20.634900000000002,21.9798,21.4794,314.999998,314.999998,324.999988,324.999988,99.56052857142858,99.5078,99.56997142857144,99.54862857142857,0.11375000000000002,-0.03374999999999995,-0.07916666666666661,0.15100000000000002,-0.03333333333333144,-0.05833333333333002,1.5265,1.5105,38.4,29.968,38.373999999999995,35.2465,56.697,35.634,60.479,53.05,54.607,34.7065,59.046,51.3365,53.766,34.218,58.972,50.726,-0.10733333333333328,-0.07350000000000012,0.108115,0.108355,0.0,212.185,212.22,209.0233333333333,209.0233333333333,0.0,0.0
18,0.0,0.0,0.0,1.0,1.0,0.0,0.0,1.0,0.0,100.0,1.0,1.1856,26.0,0.0,0.0,0.0,59.999996,0.0,26.0,26.0,26.0,26.0,0.02200000000000002,0.2702,0.030100000000000002,291.397,-2.6282,-2.714,-1.5316,-1.477,-215.78,215.3475,190.61925,0.0,0.0,0.0,0.0,0.03643333333333333,-5.498166666666667,-5.498166666666667,-0.6136,-0.371,0.004555555555555646,0.859,67.892,0.0256,-0.2862,-0.22599999999999998,100.0,1.0,1.0,209.37333333333333,0.0,0.0,0.0,0.0,0.0,0.0,0.0,8874.5,0.0,55.0,5.0,244.38333333333333,0.0,0.0,0.0,0.0,0.0,0.0,1.0,0.0,0.9029999999999987,0.9029999999999987,0.0,0.0,0.0,55.0,616.79921,10000.0,85.000001,85.000001,85.000001,85.000001,395.0,0.0,0.0,0.0,1.0,333.33500000000004,49.683,49.683,47.974000000000004,47.974000000000004,34.0,-23.336666666666666,28.038,-27.133333333333333,30.095,0.0,1782.551,-0.22499999999999787,100.0,29.894,29.809,42.589,42.822,0.0,0.0,100.0,0.0,0.0,0.0,0.0,3278.3333333333335,3416.2,4104.714285714285,4267.7,304.804,303.8895,314.77133333333336,314.3425,21.9933,20.6404,21.9899,21.4881,314.999998,314.999998,324.999988,324.999988,99.56054285714286,99.50781666666667,99.57011428571428,99.54875714285714,0.11325000000000007,-0.04625000000000001,-0.08716666666666661,0.13916666666666666,-0.03166666666666629,-0.06333333333333258,1.513,1.5105,38.458,30.002000000000002,38.437,35.3005,56.687,35.6715,60.512,53.1065,54.598,34.741,59.076499999999996,51.3905,53.756,34.2515,58.9995,50.778999999999996,-0.10233333333333317,-0.07750000000000012,0.10875000000000001,0.09856500000000001,0.0,212.57999999999998,212.595,209.37333333333333,209.37333333333333,0.0,0.0
19,0.0,0.0,0.0,1.0,1.0,0.0,0.0,1.0,0.0,100.0,1.0,1.1856,26.0,0.0,0.0,0.0,59.999996,0.0,26.0,26.0,26.0,26.0,0.052875000000000005,0.2764,0.052366666666666666,291.122,-2.6169000000000002,-2.6695714285714285,-1.5375,-1.594,-212.31,215.34,190.5965,0.0,0.0,0.0,0.0,0.03843333333333333,-5.498166666666667,-5.498166666666667,-0.61,0.5653333333333332,0.01588888888888884,-0.59,68.025,0.019700000000000002,-0.283525,-0.08999999999999986,100.0,1.0,1.0,209.80333333333334,0.0,0.0,0.0,0.0,0.0,0.0,0.0,8892.8,0.0,55.0,5.0,244.86333333333334,1.0,0.0,0.0,0.0,0.0,0.0,1.0,0.0,0.9540000000000006,0.9540000000000006,0.0,0.0,1.0,55.0,616.79921,10000.0,85.000001,85.000001,85.000001,85.000001,395.0,0.0,0.0,0.0,1.0,333.33500000000004,49.179,49.179,48.157,48.157,34.0,-24.4,26.240000000000002,-28.193333333333335,31.1625,0.0,1782.499,-0.16999999999999815,100.0,30.302,30.48,42.426,43.012,0.0,0.0,100.0,0.0,0.0,0.0,0.0,3381.5,3302.6,4130.714285714285,4232.9,304.628,304.064,314.854,314.25975,22.0034,20.6463,22.0004,21.4972,314.999998,314.999998,324.999988,324.999988,99.56055714285715,99.50781666666667,99.57025714285714,99.5489,0.10375000000000001,-0.057499999999999996,-0.10433333333333339,0.129,-0.046666666666666856,-0.07499999999999574,1.5,1.509,38.521,30.0395,38.503,35.358000000000004,56.679,35.714,60.545500000000004,53.165,54.589,34.7805,59.1075,51.4475,53.745999999999995,34.289,59.0275,50.835,-0.10433333333333317,-0.07750000000000012,0.107895,0.10896000000000002,0.0,213.01999999999998,213.025,209.80333333333334,209.80333333333334,0.0,0.0
20,0.0,0.0,0.0,1.0,1.0,0.0,0.0,1.0,0.0,100.0,1.0,1.1856,26.0,0.0,0.0,0.0,59.999996,0.0,26.0,26.0,26.0,26.0,0.03487499999999999,0.2532000000000001,-0.011166666666666668,291.351,-2.6832000000000003,-2.612,-1.5202,-1.581,-208.64,215.33249999999998,190.572875,0.0,0.0,0.0,0.0,0.04056666666666667,-5.498166666666667,-5.498166666666667,-0.6099,-0.7073333333333334,0.013777777777777889,-0.993,68.166,0.0128,-0.29147500000000004,-0.013999999999999346,100.0,1.0,1.0,210.21666666666667,0.0,0.0,0.0,0.0,0.0,0.0,0.0,8910.3,0.0,55.0,5.0,245.37333333333333,0.0,0.0,0.0,0.0,0.0,0.0,0.0,0.0,1.0079999999999991,1.0079999999999991,0.0,0.0,0.0,55.0,616.79921,10000.0,85.000001,85.000001,85.000001,85.000001,395.0,0.0,0.0,0.0,1.0,166.665,49.805,49.805,47.852000000000004,47.852000000000004,34.0,-24.483333333333334,24.988,-27.506666666666664,29.105,0.0,1782.448,-0.1999999999999993,100.0,29.923000000000002,30.214,42.919,43.435,0.0,0.0,100.0,0.0,0.0,0.0,0.0,3321.8333333333335,3236.4,4108.142857142857,4018.6000000000004,304.9095,304.406,314.877,314.7705,22.0138,20.6525,22.0117,21.5071,314.999998,314.999998,324.999988,324.999988,99.56057142857142,99.50783333333334,99.57041428571429,99.54905714285714,0.10325000000000006,-0.05625000000000002,-0.09950000000000003,0.12783333333333324,-0.036666666666668846,-0.06333333333333258,1.514,1.5005000000000002,38.586,30.0785,38.573,35.4195,56.667,35.7575,60.5835,53.230000000000004,54.578,34.821,59.143,51.51,53.733000000000004,34.328,59.0595,50.896,-0.10599999999999987,-0.07799999999999985,0.100135,0.10709,0.0,213.41500000000002,213.43,210.21666666666667,210.21666666666667,0.0,0.0
21,0.0,0.0,0.0,1.0,1.0,0.0,0.0,1.0,0.0,100.0,1.0,1.1856,26.0,0.0,0.0,0.0,59.999996,0.0,26.0,26.0,26.0,26.0,0.019500000000000073,0.26470000000000016,-0.04133333333333333,291.611,-2.697,-2.5949999999999998,-1.5695000000000001,-1.52125,-205.36,215.3275,190.551375,0.0,0.0,0.0,0.0,0.04246666666666667,-5.498166666666667,-5.498166666666667,-0.6286,-0.015666666666666718,0.005444444444444363,-0.607,68.288,0.0082,-0.289825,-0.03200000000000003,100.0,1.0,1.0,210.71666666666667,0.0,0.0,0.0,0.0,0.0,0.0,0.0,8931.5,0.0,55.0,5.0,245.81333333333333,1.0,0.0,0.0,0.0,0.0,0.0,0.0,0.0,1.056000000000001,1.056000000000001,0.0,0.0,1.0,55.0,616.79921,10000.0,85.000001,85.000001,85.000001,85.000001,395.0,0.0,0.0,0.0,1.0,166.665,49.728,49.728,48.462,48.462,34.0,-25.636666666666667,25.266,-27.666666666666664,27.2775,0.0,1782.4,-0.2699999999999996,100.0,29.943,30.058,42.659,43.025999999999996,0.0,0.0,100.0,0.0,0.0,0.0,0.0,3406.166666666667,3278.2,4010.285714285714,3980.4,304.6575,304.3365,315.17133333333334,315.0185,22.023,20.6581,22.0216,21.5156,314.999998,314.999998,324.999988,324.999988,99.56058571428571,99.50783333333334,99.57054285714285,99.5492,0.09749999999999992,-0.05325000000000002,-0.1123333333333334,0.1233333333333333,-0.05666666666667197,-0.045000000000001705,1.579,1.5705,38.644,30.113,38.635,35.473,56.657,35.796,60.6135,53.283,54.568,34.8565,59.171,51.561,53.723,34.362,59.0845,50.946,-0.11266666666666669,-0.07450000000000001,0.11027,0.10810000000000002,0.0,213.815,213.815,210.71666666666667,210.71666666666667,0.0,0.0
22,0.0,0.0,0.0,1.0,1.0,0.0,0.0,1.0,0.0,100.0,1.0,1.1856,26.0,0.0,0.0,0.0,59.999996,0.0,26.0,26.0,26.0,26.0,0.010000000000000009,0.2782,0.0071333333333333335,291.153,-2.7324,-2.6325714285714286,-1.5983,-1.522375,-201.88,215.3225,190.527625,0.0,0.0,0.0,0.0,0.044500000000000005,-5.498166666666667,-5.498166666666667,-0.614,0.07566666666666666,0.01344444444444437,1.042,68.422,0.0059,-0.26635000000000003,-0.20999999999999996,100.0,1.0,1.0,210.95333333333332,0.0,0.0,0.0,0.0,0.0,0.0,0.0,8941.5,0.0,55.0,5.0,246.29333333333335,0.0,0.0,0.0,0.0,0.0,0.0,0.0,0.0,1.1069999999999993,1.1069999999999993,0.0,0.0,0.0,55.0,616.79921,10000.0,85.000001,85.000001,85.000001,85.000001,395.0,0.0,0.0,0.0,1.0,166.665,49.728,49.728,47.577,47.577,34.0,-24.36,26.808,-29.63,31.21,0.0,1782.348,-0.35999999999999943,100.0,30.172,29.971,42.851,42.975,0.0,0.0,100.0,0.0,0.0,0.0,0.0,3264.1666666666665,3376.0,4237.857142857143,4369.2,304.969,304.22175,314.55566666666664,314.14325,22.032899999999998,20.664,22.0322,21.5249,314.999998,314.999998,324.999988,324.999988,99.5606,99.50785,99.5707,99.54934285714286,0.10875000000000012,-0.041999999999999926,-0.09783333333333333,0.1306666666666667,-0.046666666666666856,-0.07666666666666799,1.509,1.4945,38.706,30.15,38.701,35.5305,56.647,35.8375,60.6485,53.342,54.558,34.894999999999996,59.2035,51.618,53.712,34.399,59.114,51.002,-0.11966666666666681,-0.06099999999999994,0.10139500000000001,0.10873500000000001,0.0,214.24,214.25,210.95333333333332,210.95333333333332,0.0,0.0
23,0.0,0.0,0.0,1.0,1.0,0.0,0.0,1.0,0.0,100.0,1.0,1.1856,26.0,0.0,0.0,0.0,59.999996,0.0,26.0,26.0,26.0,26.0,0.0003750000000000142,0.2561,0.0129,291.0,-2.7216,-2.6367142857142856,-1.6377000000000002,-1.532875,-198.59,215.3175,190.5055,0.0,0.0,0.0,0.0,0.046400000000000004,-5.498166666666667,-5.498166666666667,-0.6279,-0.32333333333333325,0.012444444444444258,0.47200000000000003,68.544,0.006500000000000001,-0.28955000000000003,-0.21399999999999952,100.0,1.0,1.0,211.39333333333332,0.0,0.0,0.0,0.0,0.0,0.0,0.0,8960.2,0.0,55.0,5.0,246.73333333333335,1.0,0.0,0.0,0.0,0.0,0.0,0.0,0.0,1.1550000000000011,1.1550000000000011,0.0,0.0,1.0,55.0,616.79921,10000.0,85.000001,85.000001,85.000001,85.000001,395.0,0.0,0.0,0.0,1.0,166.665,49.149,49.149,47.958,47.958,34.0,-26.299999999999997,26.916,-28.693333333333335,29.615000000000002,0.0,1782.3,-0.3299999999999983,100.0,30.377,30.182000000000002,43.018,43.238,0.0,0.0,100.0,0.0,0.0,0.0,0.0,3450.5,3404.3,4127.428571428572,4168.0,304.4125,304.06225,314.88233333333335,314.60775,22.0422,20.6696,22.0423,21.5336,314.999998,314.999998,324.999988,324.999988,99.56061428571428,99.50785,99.57082857142858,99.54947142857142,0.10050000000000003,-0.048250000000000015,-0.09099999999999997,0.13183333333333325,-0.046666666666666856,-0.03833333333332689,1.5394999999999999,1.5194999999999999,38.763999999999996,30.185000000000002,38.763999999999996,35.585,56.638,35.876999999999995,60.6815,53.3985,54.549,34.9315,59.2335,51.6725,53.701,34.434,59.1415,51.055,-0.11099999999999999,-0.06550000000000011,0.10466500000000001,0.10709500000000001,0.0,214.595,214.595,211.39333333333332,211.39333333333332,0.0,0.0
24,0.0,0.0,0.0,1.0,1.0,0.0,0.0,1.0,0.0,100.0,1.0,1.1856,26.0,0.0,0.0,0.0,59.999996,0.0,26.0,26.0,26.0,26.0,0.0012499999999999734,0.2662,-0.057100000000000005,291.321,-2.6552,-2.638,-1.545,-1.5365,-195.29,215.315,190.483125,0.0,0.0,0.0,0.0,0.04833333333333333,-5.498166666666667,-5.498166666666667,-0.6406000000000001,-0.31833333333333336,0.017777777777777892,1.085,68.666,0.0097,-0.2914,-0.3039999999999994,100.0,1.0,1.0,211.76666666666665,0.0,0.0,0.0,0.0,0.0,0.0,0.0,8976.0,0.0,55.0,5.0,247.17333333333335,0.0,0.0,0.0,0.0,0.0,0.0,0.0,0.0,1.2029999999999994,1.2029999999999994,0.0,0.0,0.0,55.0,616.79921,10000.0,85.000001,85.000001,85.000001,85.000001,395.0,0.0,0.0,0.0,1.0,333.33500000000004,49.866,49.866,47.821,47.821,34.0,-23.043333333333333,25.738,-28.113333333333333,28.905,0.0,1782.252,-0.36499999999999844,100.0,30.334,30.017,43.013,43.183,0.0,0.0,100.0,0.0,0.0,0.0,0.0,3178.3333333333335,3284.2,4134.142857142857,4144.0,305.109,304.45225,314.75466666666665,314.6625,22.0514,20.6751,22.0522,21.5423,314.999998,314.999998,324.999988,324.999988,99.56062857142857,99.50785,99.57097142857143,99.54961428571428,0.10824999999999996,-0.04999999999999993,-0.10033333333333339,0.1206666666666667,-0.03166666666666629,-0.061666666666667425,1.539,1.5185,38.821,30.2195,38.826,35.638999999999996,56.628,35.915,60.713,53.453,54.54,34.966499999999996,59.263,51.725,53.691,34.468,59.167500000000004,51.1065,-0.1146666666666667,-0.06400000000000006,0.11172000000000001,0.10049000000000001,0.0,214.97500000000002,214.985,211.76666666666665,211.76666666666665,0.0,0.0
25,0.0,0.0,0.0,1.0,1.0,0.0,0.0,1.0,0.0,100.0,1.0,1.1856,26.0,0.0,0.0,0.0,59.999996,0.0,26.0,26.0,26.0,26.0,0.026000000000000023,0.25750000000000006,-0.018133333333333335,291.183,-2.7183,-2.613142857142857,-1.5894,-1.5445,-191.57999999999998,215.31,190.4565,0.0,0.0,0.0,0.0,0.0505,-5.498166666666667,-5.498166666666667,-0.6581,0.03166666666666662,0.02633333333333332,0.402,68.803,0.014400000000000001,-0.28625,-0.2939999999999996,100.0,1.0,1.0,212.24333333333334,0.0,0.0,0.0,0.0,0.0,0.0,0.0,8996.2,0.0,55.0,5.0,247.66666666666666,1.0,0.0,0.0,0.0,0.0,0.0,0.0,0.0,1.256999999999998,1.256999999999998,0.0,0.0,1.0,55.0,616.79921,10000.0,85.000001,85.000001,85.000001,85.000001,395.0,0.0,0.0,0.0,1.0,166.665,49.118,49.118,48.172,48.172,34.0,-25.549999999999997,28.224,-26.32,29.8625,0.0,1782.199,-0.33500000000000085,100.0,30.186,30.181,42.8,42.997,0.0,0.0,100.0,0.0,0.0,0.0,0.0,3419.666666666667,3530.7,3975.5714285714284,4133.7,304.519,303.6955,315.234,314.6695,22.0617,20.6814,22.063299999999998,21.552,314.999998,314.999998,324.999988,324.999988,99.56064285714285,99.50786666666667,99.57111428571429,99.54977142857143,0.10925000000000007,-0.03974999999999995,-0.08283333333333331,0.14100000000000001,-0.02833333333332888,-0.06499999999999773,1.562,1.549,38.885999999999996,30.259,38.896,35.7,56.616,35.9585,60.747,53.5135,54.528999999999996,35.007,59.2945,51.783500000000004,53.679,34.507,59.196,51.164,-0.11399999999999988,-0.06599999999999984,0.10581000000000002,0.11390000000000002,0.0,215.38,215.425,212.24333333333334,212.24333333333334,0.0,0.0
26,0.0,0.0,0.0,1.0,1.0,0.0,0.0,1.0,0.0,100.0,1.0,1.1856,26.0,0.0,0.0,0.0,59.999996,0.0,26.0,26.0,26.0,26.0,0.023374999999999924,0.2772000000000001,0.07023333333333334,290.39,-2.6526,-2.6941428571428574,-1.5531000000000001,-1.5306250000000001,-188.28,215.3075,190.4325,0.0,0.0,0.0,0.0,0.0524,-5.498166666666667,-5.498166666666667,-0.6331,0.4763333333333334,0.016555555555555657,0.782,68.92699999999999,0.015700000000000002,-0.269625,-0.3439999999999994,100.0,1.0,1.0,212.41666666666669,0.0,0.0,0.0,0.0,0.0,0.0,0.0,9003.6,0.0,55.0,5.0,248.11,0.0,0.0,0.0,0.0,0.0,0.0,0.0,0.0,1.3049999999999997,1.3049999999999997,0.0,0.0,0.0,55.0,616.79921,10000.0,85.000001,85.000001,85.000001,85.000001,395.0,0.0,0.0,0.0,1.0,166.665,48.92,48.92,47.043,47.043,34.0,-23.75,27.363999999999997,-29.83,32.7475,0.0,1782.151,-0.3550000000000004,100.0,30.883,30.65,43.104,43.328,0.0,0.0,100.0,0.0,0.0,0.0,0.0,3333.5,3341.0,4393.857142857143,4484.2,304.6645,304.1925,314.14666666666665,313.8555,22.0711,20.6872,22.0733,21.5608,314.999998,314.999998,324.999988,324.999988,99.56065714285714,99.50786666666667,99.57125714285715,99.54991428571428,0.1200000000000001,-0.040000000000000036,-0.08550000000000002,0.13450000000000006,-0.03166666666666629,-0.05666666666667197,1.474,1.4605000000000001,38.944,30.295,38.958,35.754999999999995,56.608999999999995,35.999,60.7805,53.570499999999996,54.522,35.0445,59.3255,51.838499999999996,53.67,34.543,59.224000000000004,51.2175,-0.11933333333333329,-0.06599999999999984,0.109795,0.10576,0.0,215.805,215.82,212.41666666666669,212.41666666666669,0.0,0.0
27,0.0,0.0,0.0,1.0,1.0,0.0,0.0,1.0,0.0,100.0,1.0,1.1856,26.0,0.0,0.0,0.0,59.999996,0.0,26.0,26.0,26.0,26.0,0.03699999999999992,0.246,-0.03266666666666667,290.756,-2.6762,-2.626142857142857,-1.613,-1.60425,-184.97,215.305,190.409375,0.0,0.0,0.0,0.0,0.05433333333333334,-5.498166666666667,-5.498166666666667,-0.6496000000000001,-0.8076666666666668,0.02488888888888896,0.868,69.047,0.016800000000000002,-0.302975,-0.3120000000000003,100.0,1.0,1.0,212.89333333333332,0.0,0.0,0.0,0.0,0.0,0.0,0.0,9023.8,0.0,55.0,5.0,248.54333333333335,1.0,0.0,0.0,0.0,0.0,0.0,0.0,0.0,1.352999999999998,1.352999999999998,0.0,0.0,1.0,55.0,616.79921,10000.0,85.000001,85.000001,85.000001,85.000001,395.0,0.0,0.0,0.0,1.0,333.33500000000004,49.179,49.179,47.134,47.134,34.0,-22.85333333333333,27.451999999999998,-28.15,30.6575,0.0,1782.102,-0.34999999999999787,100.0,30.656,30.62,43.622,43.807,0.0,0.0,100.0,0.0,0.0,0.0,0.0,3185.1666666666665,3433.7,4086.285714285714,4088.5,305.102,303.97175,314.93033333333335,314.71875,22.0803,20.6928,22.0835,21.5696,314.999998,314.999998,324.999988,324.999988,99.56067142857142,99.50786666666667,99.5714,99.55004285714286,0.1180000000000001,-0.04074999999999995,-0.09016666666666662,0.14266666666666672,-0.026666666666670835,-0.041666666666671404,1.517,1.5035,39.001999999999995,30.33,39.022,35.81,56.599999999999994,36.0385,60.814,53.6275,54.513,35.081,59.357,51.893,53.66,34.5775,59.2525,51.271,-0.119,-0.0625,0.100345,0.11333000000000001,0.0,216.125,216.14499999999998,212.89333333333332,212.89333333333332,0.0,0.0
28,0.0,0.0,0.0,1.0,1.0,0.0,0.0,1.0,0.0,100.0,1.0,1.1856,26.0,0.0,0.0,0.0,59.999996,0.0,26.0,26.0,26.0,26.0,0.024375000000000036,0.25280000000000014,-0.037533333333333335,290.955,-2.6583,-2.62,-1.63,-1.55325,-181.23000000000002,215.3025,190.382625,0.0,0.0,0.0,0.0,0.0565,-5.498166666666667,-5.498166666666667,-0.6599,0.4906666666666667,0.013555555555555543,0.209,69.18,0.017,-0.2881,-0.36799999999999944,100.0,1.0,1.0,213.40666666666667,0.0,0.0,0.0,0.0,0.0,0.0,0.0,9045.6,0.0,55.0,5.0,249.01999999999998,0.0,0.0,0.0,0.0,0.0,0.0,0.0,0.0,1.407,1.407,0.0,0.0,0.0,55.0,616.79921,10000.0,85.000001,85.000001,85.000001,85.000001,395.0,0.0,0.0,0.0,1.0,166.665,49.103,49.103,47.836,47.836,34.0,-23.226666666666667,27.396,-28.023333333333333,29.5075,0.0,1782.049,-0.4399999999999977,100.0,30.674,30.619,43.087,43.399,0.0,0.0,100.0,0.0,0.0,0.0,0.0,3271.3333333333335,3419.8,4048.4285714285716,4116.6,304.849,304.0085,315.1186666666667,314.738,22.0906,20.6993,22.0945,21.5793,314.999998,314.999998,324.999988,324.999988,99.56068571428571,99.50788333333334,99.57154285714286,99.55021428571429,0.12175000000000002,-0.038250000000000006,-0.09499999999999997,0.1353333333333333,-0.041666666666671404,-0.04999999999999716,1.5565,1.5545,39.066,30.3705,39.09,35.871,56.59,36.083,60.8465,53.6875,54.503,35.1225,59.387,51.951,53.649,34.6175,59.278999999999996,51.3275,-0.12199999999999989,-0.06450000000000022,0.11382500000000001,0.10114500000000001,0.0,216.585,216.59,213.40666666666667,213.40666666666667,0.0,0.0
29,0.0,0.0,0.0,1.0,1.0,0.0,0.0,1.0,0.0,100.0,1.0,1.1856,26.0,0.0,0.0,0.0,59.999996,0.0,26.0,26.0,26.0,26.0,0.05049999999999999,0.25280000000000014,-0.012433333333333333,290.848,-2.6305,-2.689142857142857,-1.5659,-1.54325,-177.91,215.3025,190.358,0.0,0.0,0.0,0.0,0.05843333333333334,-5.498166666666667,-5.498166666666667,-0.6583,-0.5633333333333332,0.004222222222222127,0.899,69.30199999999999,0.020800000000000003,-0.280625,-0.4560000000000004,100.0,1.0,1.0,213.61,0.0,0.0,0.0,0.0,0.0,0.0,0.0,9054.1,0.0,55.0,5.0,249.46333333333334,1.0,0.0,0.0,0.0,0.0,0.0,0.0,0.0,1.4549999999999983,1.4549999999999983,0.0,0.0,1.0,55.0,616.79921,10000.0,85.000001,85.000001,85.000001,85.000001,395.0,0.0,0.0,0.0,1.0,333.33500000000004,49.637,49.637,47.104,47.104,34.0,-21.87333333333333,27.119999999999997,-28.189999999999998,31.7775,0.0,1781.999,-0.4349999999999987,100.0,30.328,30.323,43.431,43.546,0.0,0.0,100.0,0.0,0.0,0.0,0.0,3188.0,3328.9,4189.142857142857,4317.5,305.117,304.26325,314.643,314.2455,22.0996,20.7049,22.1045,21.5881,314.999998,314.999998,324.999988,324.999988,99.5607,99.50788333333334,99.5717,99.55034285714285,0.12975000000000003,-0.04125000000000001,-0.08366666666666656,0.14066666666666672,-0.026666666666670835,-0.061666666666667425,1.4889999999999999,1.475,39.123000000000005,30.4055,39.153,35.926,56.581,36.1205,60.8805,53.7435,54.494,35.1575,59.4185,52.004999999999995,53.638999999999996,34.650999999999996,59.3075,51.3805,-0.1283333333333332,-0.06499999999999995,0.1096,0.09892500000000001,0.0,216.94,216.96,213.61,213.61,0.0,0.0
30,0.0,0.0,0.0,1.0,1.0,0.0,0.0,1.0,0.0,100.0,1.0,1.1856,26.0,0.0,0.0,0.0,59.999996,0.0,26.0,26.0,26.0,26.0,0.07862499999999994,0.2329000000000001,-0.013333333333333334,290.314,-2.6093,-2.688714285714286,-1.6496,-1.59125,-174.37,215.3025,190.3315,0.0,0.0,0.0,0.0,0.060500000000000005,-5.498166666666667,-5.498166666666667,-0.6667000000000001,0.643,0.007222222222222241,-0.276,69.426,0.0233,-0.2879,-0.3860000000000001,100.0,1.0,1.0,214.14333333333332,0.0,0.0,0.0,0.0,0.0,0.0,0.0,9076.7,0.0,55.0,5.0,249.91,0.0,0.0,0.0,0.0,0.0,0.0,1.0,0.0,1.5060000000000002,1.5060000000000002,0.0,0.0,0.0,55.0,616.79921,10000.0,85.000001,85.000001,85.000001,85.000001,395.0,0.0,0.0,0.0,1.0,166.665,47.867,47.867,47.791,47.791,34.0,-25.689999999999998,29.974,-28.776666666666664,29.884999999999998,0.0,1781.95,-0.4450000000000003,100.0,31.019,31.064,43.13,43.653999999999996,0.0,0.0,100.0,0.0,0.0,0.0,0.0,3658.5,3596.1,4107.428571428572,4032.0,303.932,303.366,315.1186666666667,314.8325,22.1095,20.7111,22.115,21.5974,314.999998,314.999998,324.999988,324.999988,99.56071428571428,99.5079,99.57184285714285,99.5505,0.12024999999999997,-0.03674999999999995,-0.09799999999999998,0.1423333333333332,-0.06499999999999773,-0.041666666666671404,1.5525,1.5325,39.184,30.444499999999998,39.219,35.984,56.574,36.1635,60.912,53.801,54.488,35.197,59.4475,52.0605,53.632,34.6895,59.3335,51.435,-0.1316666666666666,-0.0625,0.11059000000000001,0.10604000000000001,0.0,217.345,217.35500000000002,214.14333333333332,214.14333333333332,0.0,0.0
31,0.0,0.0,0.0,1.0,1.0,0.0,0.0,1.0,0.0,100.0,1.0,1.1856,26.0,0.0,0.0,0.0,59.999996,0.0,26.0,26.0,26.0,26.0,0.06837500000000007,0.24829999999999997,0.0714,289.658,-2.7467,-2.5875714285714286,-1.5508000000000002,-1.602875,-171.04,215.305,190.307125,0.0,0.0,0.0,0.0,0.06243333333333334,-5.498166666666667,-5.498166666666667,-0.642,-0.14733333333333332,0.018111111111110967,-0.432,69.548,0.0308,-0.28090000000000004,-0.4119999999999999,100.0,1.0,1.0,214.25,0.0,0.0,0.0,0.0,0.0,0.0,0.0,9081.3,0.0,55.0,5.0,250.34666666666666,1.0,0.0,0.0,0.0,0.0,0.0,1.0,0.0,1.5539999999999985,1.5539999999999985,0.0,0.0,1.0,55.0,616.79921,10000.0,85.000001,85.000001,85.000001,85.000001,395.0,0.0,0.0,0.0,1.0,333.33500000000004,48.507999999999996,48.507999999999996,45.959,45.959,34.0,-24.71333333333333,26.951999999999998,-30.186666666666664,35.3425,0.0,1781.9,-0.3949999999999996,100.0,31.012999999999998,31.33,43.832,44.311,0.0,0.0,100.0,0.0,0.0,0.0,0.0,3408.666666666667,3405.2,4511.857142857143,4542.3,304.749,303.93925,314.03266666666667,313.591,22.1187,20.7169,22.1251,21.6064,314.999998,314.999998,324.999988,324.999988,99.56072857142857,99.5079,99.57197142857143,99.55064285714286,0.12650000000000006,-0.04149999999999998,-0.07650000000000001,0.14383333333333326,-0.04333333333332945,-0.03999999999999915,1.4409999999999998,1.4175,39.242000000000004,30.4805,39.282,36.04,56.567,36.204,60.947,53.8595,54.480999999999995,35.2345,59.4805,52.117,53.623000000000005,34.725,59.363,51.49,-0.131,-0.0665,0.098125,0.11132500000000001,0.0,217.7,217.72500000000002,214.25,214.25,0.0,0.0
32,0.0,0.0,0.0,1.0,1.0,0.0,0.0,1.0,0.0,100.0,1.0,1.1856,26.0,0.0,0.0,0.0,59.999996,0.0,26.0,26.0,26.0,26.0,0.031625000000000014,0.25,-0.0584,290.222,-2.6744,-2.641571428571429,-1.6607,-1.53475,-167.49,215.3075,190.281875,0.0,0.0,0.0,0.0,0.0645,-5.498166666666667,-5.498166666666667,-0.663,-0.28466666666666685,0.0058888888888888324,0.243,69.67099999999999,0.0329,-0.3035,-0.476,100.0,1.0,1.0,214.80666666666667,0.0,0.0,0.0,0.0,0.0,0.0,0.0,9104.9,0.0,55.0,5.0,250.79000000000002,0.0,0.0,0.0,0.0,0.0,0.0,1.0,0.0,1.6050000000000004,1.6050000000000004,0.0,0.0,0.0,55.0,616.79921,10000.0,85.000001,85.000001,85.000001,85.000001,395.0,0.0,0.0,0.0,1.0,166.665,48.66,48.66,46.89,46.89,34.0,-22.866666666666667,27.83,-28.373333333333335,31.552500000000002,0.0,1781.851,-0.4450000000000003,100.0,31.028,31.165,43.897999999999996,44.259,0.0,0.0,100.0,0.0,0.0,0.0,0.0,3286.1666666666665,3413.3,4125.285714285715,4240.6,304.8195,304.0255,314.923,314.49475,22.1283,20.7231,22.1357,21.6157,314.999998,314.999998,324.999988,324.999988,99.56075714285714,99.50791666666667,99.57212857142858,99.55078571428571,0.13549999999999995,-0.032749999999999946,-0.07833333333333337,0.15683333333333338,-0.03166666666666629,-0.05333333333332746,1.536,1.52,39.302,30.5195,39.348,36.0985,56.559,36.2465,60.9795,53.918,54.473,35.274,59.5105,52.173500000000004,53.614000000000004,34.763,59.3895,51.545500000000004,-0.1293333333333333,-0.06899999999999995,0.11372000000000002,0.10728000000000001,0.0,218.07,218.095,214.80666666666667,214.80666666666667,0.0,0.0
33,0.0,0.0,0.0,1.0,1.0,0.0,0.0,1.0,0.0,100.0,1.0,1.1856,26.0,0.0,0.0,0.0,59.999996,0.0,26.0,26.0,26.0,26.0,0.04562500000000003,0.25229999999999997,-0.07506666666666667,290.543,-2.7003,-2.6580000000000004,-1.5918,-1.57925,-164.14,215.3125,190.257,0.0,0.0,0.0,0.0,0.06643333333333334,-5.498166666666667,-5.498166666666667,-0.6721,-0.1523333333333332,-0.0021111111111111747,0.86,69.788,0.029500000000000002,-0.2887,-0.4239999999999995,100.0,1.0,1.0,215.19,0.0,0.0,0.0,0.0,0.0,0.0,0.0,9121.2,0.0,55.0,5.0,251.21,1.0,0.0,0.0,0.0,0.0,0.0,1.0,0.0,1.6529999999999987,1.6529999999999987,0.0,0.0,1.0,55.0,616.79921,10000.0,85.000001,85.000001,85.000001,85.000001,395.0,0.0,0.0,0.0,1.0,166.665,49.042,49.042,47.226,47.226,34.0,-23.009999999999998,27.458,-27.043333333333333,31.32,0.0,1781.802,-0.504999999999999,100.0,30.85,30.955,43.687,44.027,0.0,0.0,100.0,0.0,0.0,0.0,0.0,3270.8333333333335,3320.0,4072.285714285714,4155.1,304.9495,304.294,314.99333333333334,314.65725,22.1374,20.7288,22.1455,21.6244,314.999998,314.999998,324.999988,324.999988,99.56077142857143,99.50791666666667,99.57227142857143,99.55092857142857,0.13349999999999995,-0.025499999999999967,-0.07833333333333337,0.1543333333333332,-0.03499999999999659,-0.05833333333333002,1.5445,1.5230000000000001,39.358999999999995,30.555,39.41,36.153,56.551,36.284,61.0095,53.972,54.465,35.309,59.538,52.225,53.604,34.7965,59.414,51.596000000000004,-0.1313333333333333,-0.05699999999999994,0.10238000000000001,0.1111,0.0,218.425,218.465,215.19,215.19,0.0,0.0
34,0.0,0.0,0.0,1.0,1.0,0.0,0.0,1.0,0.0,100.0,1.0,1.1856,26.0,0.0,0.0,0.0,59.999996,0.0,26.0,26.0,26.0,26.0,0.05862499999999993,0.24520000000000008,-0.03953333333333333,290.619,-2.6469,-2.6315714285714287,-1.6468,-1.55775,-160.57999999999998,215.3175,190.229125,0.0,0.0,0.0,0.0,0.0685,-5.498166666666667,-5.498166666666667,-0.6949000000000001,-0.8193333333333332,0.020888888888888957,-0.28700000000000003,69.912,0.0292,-0.2896,-0.39200000000000035,100.0,1.0,1.0,215.52666666666667,0.0,0.0,0.0,0.0,0.0,0.0,0.0,9135.3,0.0,55.0,5.0,251.66,0.0,0.0,0.0,0.0,0.0,0.0,1.0,0.0,1.7040000000000006,1.7040000000000006,0.0,0.0,0.0,55.0,616.79921,10000.0,85.000001,85.000001,85.000001,85.000001,395.0,0.0,0.0,0.0,1.0,333.33500000000004,49.301,49.301,47.394,47.394,34.0,-22.67,25.863999999999997,-28.763333333333335,30.5275,0.0,1781.75,-0.4800000000000004,100.0,30.471,30.862000000000002,43.491,44.225,0.0,0.0,100.0,0.0,0.0,0.0,0.0,3288.1666666666665,3210.5,4118.285714285715,4171.7,304.9455,304.442,314.97133333333335,314.51475,22.147,20.7347,22.156,21.6338,314.999998,314.999998,324.999988,324.999988,99.56078571428571,99.50791666666667,99.57241428571429,99.55108571428572,0.1312500000000001,-0.038000000000000034,-0.08966666666666656,0.13800000000000012,-0.02833333333332888,-0.04999999999999716,1.5145,1.517,39.419,30.592,39.475,36.2115,56.541,36.323,61.041,54.031,54.456,35.3445,59.567499999999995,52.282,53.594,34.8315,59.44,51.6515,-0.1313333333333333,-0.05600000000000005,0.10446000000000001,0.10834,0.0,218.8,218.825,215.52666666666667,215.52666666666667,0.0,0.0
35,0.0,0.0,0.0,1.0,1.0,0.0,0.0,1.0,0.0,100.0,1.0,1.1856,26.0,0.0,0.0,0.0,59.999996,0.0,26.0,26.0,26.0,26.0,0.04437500000000005,0.24429999999999996,-0.09063333333333334,290.71,-2.7784,-2.5508571428571427,-1.5443,-1.56275,-157.01,215.325,190.199625,0.0,0.0,0.0,0.0,0.07060000000000001,-5.498166666666667,-5.498166666666667,-0.7358,-0.29066666666666685,0.008444444444444255,-0.296,70.03399999999999,0.0332,-0.302025,-0.48799999999999955,100.0,1.0,1.0,216.01,0.0,0.0,0.0,0.0,0.0,0.0,0.0,9155.9,0.0,55.0,5.0,252.10000000000002,1.0,0.0,0.0,0.0,0.0,0.0,1.0,0.0,1.754999999999999,1.754999999999999,0.0,0.0,1.0,55.0,616.79921,10000.0,85.000001,85.000001,85.000001,85.000001,395.0,0.0,0.0,0.0,1.0,333.33500000000004,48.752,48.752,47.394,47.394,34.0,-24.66,28.567999999999998,-24.769999999999996,28.950000000000003,0.0,1781.699,-0.28999999999999915,100.0,30.422,30.959,43.272999999999996,43.754,0.0,0.0,100.0,0.0,0.0,0.0,0.0,3325.3333333333335,3599.0,3988.4285714285716,3906.3,304.7545,303.4565,315.254,315.19475,22.1565,20.7409,22.1664,21.643,314.999998,314.999998,324.999988,324.999988,99.5608,99.50793333333333,99.57255714285715,99.55122857142857,0.1260000000000001,-0.034499999999999975,-0.06299999999999994,0.15683333333333338,-0.03333333333333144,-0.06333333333333258,1.5765,1.554,39.477999999999994,30.631,39.54,36.269,56.53,36.3645,61.0715,54.086,54.445,35.3835,59.5955,52.335499999999996,53.583,34.8685,59.465,51.704,-0.11599999999999988,-0.0714999999999999,0.10240500000000001,0.106755,0.0,219.185,219.215,216.01,216.01,0.0,0.0
36,0.0,0.0,0.0,1.0,1.0,0.0,0.0,1.0,0.0,100.0,1.0,1.1856,26.0,0.0,0.0,0.0,59.999996,0.0,26.0,26.0,26.0,26.0,0.04049999999999998,0.25770000000000004,0.037000000000000005,289.963,-2.7433,-2.620285714285714,-1.6513,-1.580375,-153.64,215.33249999999998,190.1705,0.0,0.0,0.0,0.0,0.07253333333333334,-5.498166666666667,-5.498166666666667,-0.7214,0.18933333333333335,-0.03311111111111131,0.046,70.153,0.0302,-0.275825,-0.2860000000000005,100.0,1.0,1.0,216.16,0.0,0.0,0.0,0.0,0.0,0.0,0.0,9162.2,0.0,55.0,5.0,252.52666666666664,0.0,0.0,0.0,0.0,0.0,0.0,1.0,0.0,1.8030000000000008,1.8030000000000008,0.0,0.0,0.0,55.0,616.79921,10000.0,85.000001,85.000001,85.000001,85.000001,395.0,0.0,0.0,0.0,1.0,166.665,48.522999999999996,48.522999999999996,46.921,46.921,34.0,-25.36,27.688,-30.32,33.822500000000005,0.0,1781.653,-0.2699999999999996,100.0,31.068,31.012,43.444,43.851,0.0,0.0,100.0,0.0,0.0,0.0,0.0,3470.166666666667,3420.4,4367.571428571428,4411.8,304.4095,304.07425,314.27566666666667,314.06025,22.1656,20.7468,22.1763,21.6518,314.999998,314.999998,324.999988,324.999988,99.56082857142857,99.50793333333333,99.5727,99.55137142857143,0.12775000000000003,-0.03125,-0.0708333333333333,0.15133333333333332,-0.026666666666670835,-0.051666666666669414,1.4569999999999999,1.4595,39.535,30.6675,39.602000000000004,36.324,56.522999999999996,36.4045,61.103,54.1415,54.438,35.420500000000004,59.625,52.388999999999996,53.574,34.903999999999996,59.491,51.756,-0.119,-0.07450000000000001,0.10594,0.102705,0.0,219.575,219.60000000000002,216.16,216.16,0.0,0.0
