,ABS Active,ABS Enabled,AID Allow Tire Blankets,AID Auto Blip,AID Auto Clutch,AID Auto Shift,AID Fuel Rate,AID Ideal Line,AID Mech Damage,AID Stability,AID Tire Wear Rate,Air Density,Air Temp,Ballast,Best Lap Delta,Best Lap Time,Brake Bias,Brake Pos,Brake Temp FL,Brake Temp FR,Brake Temp RL,Brake Temp RR,CG Accel Lateral,CG Accel Longitudinal,CG Accel Vertical,CG Height,Camber FL,Camber FR,Camber RL,Camber RR,Car Coord X,Car Coord Y,Car Coord Z,Car Damage Front,Car Damage Left,Car Damage Rear,Car Damage Right,Car Pos Norm,Caster FL,Caster FR,Chassis Pitch Angle,Chassis Pitch Rate,Chassis Roll Angle,Chassis Roll Rate,Chassis Velocity X,Chassis Velocity Y,Chassis Velocity Z,Chassis Yaw Rate,Clutch Pos,DRS Active,DRS Available,Drive Train Speed,ERS Heat Charging,ERS Is Charging,ERS Max Energy,ERS Power Level,ERS Recovery Level,Engine Brake Setting,Engine Limiter,Engine RPM,Flags,Fuel Level,Gear,Ground Speed,HR Sample Clock,In Pit,KERS Charge,KERS Deployed Energy,KERS Input,KERS Max Energy,LR Sample Clock,Lap Invalidated,Lap Time,Lap Time2,Last Lap Time,Last Sector Time,MR Sample Clock,Max Fuel,Max Power,Max RPM,Max Sus Travel FL,Max Sus Travel FR,Max Sus Travel RL,Max Sus Travel RR,Max Torque,Max Turbo Boost,Num Tires Off Track,Penalties Enabled,Position,Raw Data Sample Rate,Ride Height FL,Ride Height FR,Ride Height RL,Ride Height RR,Road Temp,Self Align Torque FL,Self Align Torque FR,Self Align Torque RL,Self Align Torque RR,Session Lap Count,Session Time Left,Steering Angle,Surface Grip,Suspension Travel FL,Suspension Travel FR,Suspension Travel RL,Suspension Travel RR,TC Active,TC Enabled,Throttle Pos,Tire Dirt Level FL,Tire Dirt Level FR,Tire Dirt Level RL,Tire Dirt Level RR,Tire Load FL,Tire Load FR,Tire Load RL,Tire Load RR,Tire Loaded Radius FL,Tire Loaded Radius FR,Tire Loaded Radius RL,Tire Loaded Radius RR,Tire Pressure FL,Tire Pressure FR,Tire Pressure RL,Tire Pressure RR,Tire Radius FL,Tire Radius FR,Tire Radius RL,Tire Radius RR,Tire Rubber Grip FL,Tire Rubber Grip FR,Tire Rubber Grip RL,Tire Rubber Grip RR,Tire Slip Angle FL,Tire Slip Angle FR,Tire Slip Angle RL,Tire Slip Angle RR,Tire Slip Ratio FL,Tire Slip Ratio FR,Tire Slip Ratio RL,Tire Slip Ratio RR,Tire Temp Core FL,Tire Temp Core FR,Tire Temp Core RL,Tire Temp Core RR,Tire Temp Inner FL,Tire Temp Inner FR,Tire Temp Inner RL,Tire Temp Inner RR,Tire Temp Middle FL,Tire Temp Middle FR,Tire Temp Middle RL,Tire Temp Middle RR,Tire Temp Outer FL,Tire Temp Outer FR,Tire Temp Outer RL,Tire Temp Outer RR,Toe In FL,Toe In FR,Toe In RL,Toe In RR,Turbo Boost,Wheel Angular Speed FL,Wheel Angular Speed FR,Wheel Angular Speed RL,Wheel Angular Speed RR,Wind Direction,Wind Speed
0,0.0,0.0,0.0,1.0,1.0,0.0,0.0,1.0,0.0,100.0,1.0,1.1856,26.0,0.0,0.0,0.0,59.99999,0.0,26.0,26.0,26.0,26.0,-0.0812222222222222,0.22530000000000006,0.1316,290.1,-2.6056,-2.548111111111111,-1.4956,-1.5388000000000002,-275.7,216.2575,190.98375,0.0,0.0,0.0,0.0,0.0015666666666666051,-5.498166666666667,-5.498166666666667,-0.7969,1.8805,-0.009777777777777885,-1.1139999999999999,65.279,-0.041857142857142815,-0.48450000000000004,1.1075,100.0,1.0,1.0,201.75333333333333,0.0,0.0,0.0,0.0,0.0,0.0,0.0,8551.6,0.0,55.0,5.0,234.98666666666668,0.0,0.0,0.0,0.0,0.0,0.0,0.0,0.0,0.0030000000000001137,0.0030000000000001137,0.0,0.0,0.0,55.0,616.79921,10000.0,85.0,85.0,85.0,85.0,395.0,0.0,0.0,0.0,1.0,20.0,41.382,41.382,52.048,52.048,34.0,-34.975,28.924,-26.869999999999997,21.509999999999998,0.0,1783.51,0.7599999999999998,100.0,35.431,34.772999999999996,39.096000000000004,39.087,0.0,0.0,100.0,0.0,0.0,0.0,0.0,4154.5,4454.6,3746.25,3594.9,302.229,300.5353333333333,315.928,315.96025,21.8433,20.6343,22.033666666666665,21.4048,314.99999,314.99999,324.99998,324.99998,99.55877142857143,99.50953333333334,99.58435714285714,99.55155714285715,0.035499999999999865,-0.1519999999999999,-0.1702499999999998,0.06574999999999998,-0.04999999999999716,-0.04999999999999716,1.6185,1.6360000000000001,37.521,29.9645,38.711,34.78,56.553,36.344,65.5015,54.358000000000004,54.611000000000004,35.4295,64.014,52.5495,53.925,34.9865,64.103,51.914,-0.0615,-0.1765000000000001,0.10069,0.11560000000000001,0.0,204.59,204.51,201.75333333333333,201.75333333333333,0.0,0.0
1,0.0,0.0,0.0,1.0,1.0,0.0,0.0,1.0,0.0,100.0,1.0,1.1856,26.0,0.0,0.0,0.0,59.999996,0.0,26.0,26.0,26.0,26.0,-0.10955555555555552,0.2954000000000001,0.112475,289.108,-2.5153,-2.67,-1.5075,-1.5501,-272.17,216.2625,190.9625,0.0,0.0,0.0,0.0,0.0036333333333333773,-5.498166666666667,-5.498166666666667,-0.6706000000000001,-0.27849999999999997,-0.06366666666666676,-0.6299999999999999,65.431,-0.05871428571428572,-0.3990666666666667,1.415,100.0,1.0,1.0,201.67000000000002,0.0,0.0,0.0,0.0,0.0,0.0,0.0,8548.0,0.0,55.0,5.0,235.5233333333333,1.0,0.0,0.0,0.0,0.0,0.0,0.0,0.0,0.05699999999999861,0.05699999999999861,0.0,0.0,1.0,55.0,616.79921,10000.0,85.000001,85.000001,85.000001,85.000001,395.0,0.0,0.0,0.0,1.0,166.665,44.449,44.449,48.798,48.798,34.0,-28.5075,19.698,-35.78,30.1125,0.0,1783.456,0.8399999999999999,100.0,35.425,34.492000000000004,42.004,40.954,0.0,0.0,100.0,0.0,0.0,0.0,0.0,3558.75,3189.4,4475.5,4782.8,303.99,304.6933333333333,313.975,312.9355,21.8547,20.6411,22.046777777777777,21.4151,314.999998,314.999998,324.999988,324.999988,99.55878571428572,99.50956666666667,99.58451428571429,99.5517,0.03125,-0.17433333333333323,-0.18374999999999986,0.040000000000000036,-0.02833333333332888,-0.01833333333333087,1.3855,1.4175,37.592,30.006999999999998,38.792,34.8445,56.549,36.3985,65.53,54.4185,54.605000000000004,35.4795,64.0405,52.6075,53.919,35.0345,64.1255,51.9715,-0.05699999999999994,-0.1815,0.10052000000000001,0.112905,0.0,205.06,204.94,201.67000000000002,201.67000000000002,0.0,0.0
2,0.0,0.0,0.0,1.0,1.0,0.0,0.0,1.0,0.0,100.0,1.0,1.1856,26.0,0.0,0.0,0.0,59.999996,0.0,26.0,26.0,26.0,26.0,-0.15111111111111108,0.2538,0.0063,289.917,-2.4912,-2.703222222222222,-1.4709,-1.6106,-269.02,216.2625,190.945,0.0,0.0,0.0,0.0,0.005466666666666509,-5.498166666666667,-5.498166666666667,-0.7467,-0.778,-0.05744444444444419,2.083,65.548,-0.07285714285714295,-0.47613333333333335,1.71,100.0,1.0,1.0,202.65,0.0,0.0,0.0,0.0,0.0,0.0,0.0,8589.6,0.0,55.0,5.0,235.95333333333332,0.0,0.0,0.0,0.0,0.0,0.0,0.0,0.0,0.10500000000000043,0.10500000000000043,0.0,0.0,0.0,55.0,616.79921,10000.0,85.000001,85.000001,85.000001,85.000001,395.0,0.0,0.0,0.0,1.0,166.665,42.709,42.709,51.453,51.453,34.0,-36.1,22.086,-27.805,18.925,0.0,1783.409,0.9700000000000006,100.0,35.673,34.214,41.958,40.615,0.0,0.0,100.0,0.0,0.0,0.0,0.0,4183.25,3661.9,3588.625,3442.5,302.122,303.253,316.12375,316.39775,21.865,20.6469,22.058,21.4239,314.999998,314.999998,324.999988,324.999988,99.55878571428572,99.50958333333334,99.58464285714285,99.55182857142857,-0.0022499999999998632,-0.19999999999999996,-0.23050000000000015,0.019750000000000156,-0.060000000000002274,-0.04333333333332945,1.6640000000000001,1.7399999999999998,37.656,30.043,38.863,34.899,56.545,36.444,65.5475,54.4615,54.601,35.5215,64.056,52.6495,53.913,35.0745,64.1385,52.0125,-0.04499999999999993,-0.19450000000000012,0.11173000000000001,0.1159,0.0,205.4,205.255,202.65,202.65,0.0,0.0
3,0.0,0.0,0.0,1.0,1.0,0.0,0.0,1.0,0.0,100.0,1.0,1.1856,26.0,0.0,0.0,0.0,59.999996,0.0,26.0,26.0,26.0,26.0,-0.17399999999999993,0.2751000000000001,0.01085,289.581,-2.6196,-2.5846666666666667,-1.4958,-1.5797,-265.68,216.2575,190.925375,0.0,0.0,0.0,0.0,0.007399999999999962,-5.498166666666667,-5.498166666666667,-0.7020000000000001,0.964,-0.013111111111111295,-0.885,65.686,-0.09214285714285708,-0.42010000000000003,1.6675000000000004,100.0,1.0,1.0,202.70333333333332,0.0,0.0,0.0,0.0,0.0,0.0,0.0,8591.9,0.0,55.0,5.0,236.44666666666666,1.0,0.0,0.0,0.0,0.0,0.0,0.0,0.0,0.1559999999999988,0.1559999999999988,0.0,0.0,1.0,55.0,616.79921,10000.0,85.000001,85.000001,85.000001,85.000001,395.0,0.0,0.0,0.0,1.0,166.665,43.884,43.884,49.24,49.24,34.0,-31.607499999999998,19.99,-35.87,22.8475,0.0,1783.357,0.8399999999999999,100.0,35.438,34.553,41.516999999999996,40.521,0.0,0.0,100.0,0.0,0.0,0.0,0.0,3580.125,3479.3,4300.375,4163.1,303.8523333333333,303.54966666666667,314.519,314.5795,21.875799999999998,20.6534,22.069777777777777,21.4332,314.999998,314.999998,324.999988,324.999988,99.55878571428572,99.50961666666667,99.58478571428572,99.55198571428572,-0.0022499999999998632,-0.19500000000000006,-0.23399999999999999,-0.004249999999999865,-0.03999999999999915,-0.05666666666667197,1.4935,1.5695000000000001,37.724000000000004,30.084,38.936,34.958,56.54,36.499,65.566,54.513999999999996,54.596000000000004,35.5725,64.0725,52.7,53.906,35.1235,64.1515,52.062,-0.05449999999999999,-0.1805000000000001,0.10382000000000001,0.10031000000000001,0.0,205.885,205.75,202.70333333333332,202.70333333333332,0.0,0.0
4,0.0,0.0,0.0,1.0,1.0,0.0,0.0,1.0,0.0,100.0,1.0,1.1856,26.0,0.0,0.0,0.0,59.999996,0.0,26.0,26.0,26.0,26.0,-0.1834444444444444,0.24680000000000013,-0.03175,289.841,-2.5514,-2.644222222222222,-1.512,-1.5936000000000001,-262.52,216.25,190.907,0.0,0.0,0.0,0.0,0.009233333333333316,-5.498166666666667,-5.498166666666667,-0.7291000000000001,-0.9595,-0.08511111111111136,-1.841,65.81,-0.10185714285714287,-0.4506,1.6600000000000001,100.0,1.0,1.0,203.20333333333332,0.0,0.0,0.0,0.0,0.0,0.0,0.0,8613.0,0.0,55.0,5.0,236.89666666666668,0.0,0.0,0.0,0.0,0.0,0.0,0.0,0.0,0.20400000000000063,0.20400000000000063,0.0,0.0,0.0,55.0,616.79921,10000.0,85.000001,85.000001,85.000001,85.000001,395.0,0.0,0.0,0.0,1.0,166.665,43.716,43.716,49.713,49.713,34.0,-34.3,20.485999999999997,-33.9275,19.265,0.0,1783.309,0.8250000000000011,100.0,35.137,34.158,42.138999999999996,40.696,0.0,0.0,100.0,0.0,0.0,0.0,0.0,3914.5,3515.8,4070.75,3597.9,303.06766666666664,303.52733333333333,314.984,315.8835,21.8858,20.6594,22.081222222222223,21.4422,314.999998,314.999998,324.999988,324.999988,99.55878571428572,99.50963333333333,99.58492857142858,99.5521,-0.008499999999999952,-0.20166666666666666,-0.24149999999999983,-0.0022500000000000853,-0.04833333333333201,-0.046666666666666856,1.564,1.6414999999999997,37.786,30.121000000000002,39.007,35.0135,56.531,36.5475,65.5875,54.561,54.588,35.617,64.092,52.745,53.897,35.166,64.168,52.106,-0.05799999999999994,-0.17799999999999994,0.10942,0.11008000000000001,0.0,206.18,206.085,203.20333333333332,203.20333333333332,0.0,0.0
5,0.0,0.0,0.0,1.0,1.0,0.0,0.0,1.0,0.0,100.0,1.0,1.1856,26.0,0.0,0.0,0.0,59.999996,0.0,26.0,26.0,26.0,26.0,-0.18822222222222218,0.2761,-0.025075,289.948,-2.5475,-2.6802222222222225,-1.4833,-1.5896000000000001,-259.16,216.24,190.88675,0.0,0.0,0.0,0.0,0.011199999999999988,-5.498166666666667,-5.498166666666667,-0.7295,0.506,-0.09644444444444433,1.053,65.941,-0.11342857142857121,-0.4366666666666667,1.6025,100.0,1.0,1.0,203.61,0.0,0.0,0.0,0.0,0.0,0.0,0.0,8630.2,0.0,55.0,5.0,237.36666666666667,1.0,0.0,0.0,0.0,0.0,0.0,0.0,0.0,0.254999999999999,0.254999999999999,0.0,0.0,1.0,55.0,616.79921,10000.0,85.000001,85.000001,85.000001,85.000001,395.0,0.0,0.0,0.0,1.0,333.33500000000004,43.9,43.9,50.278,50.278,34.0,-33.1225,21.325999999999997,-33.2775,21.195,0.0,1783.258,0.5750000000000011,100.0,35.393,33.839,41.902,40.09,0.0,0.0,100.0,0.0,0.0,0.0,0.0,3842.625,3514.4,4040.375,3932.4,303.058,303.717,315.11175,315.188,21.8967,20.6657,22.093,21.4514,314.999998,314.999998,324.999988,324.999988,99.55878571428572,99.50966666666666,99.58505714285714,99.55224285714286,0.004750000000000032,-0.18999999999999995,-0.24425000000000008,-0.0044999999999997264,-0.026666666666670835,-0.04833333333333201,1.572,1.6294999999999997,37.854,30.161,39.082,35.071,56.528,36.6,65.6075,54.608000000000004,54.584,35.6655,64.1105,52.79,53.891999999999996,35.212,64.18299999999999,52.15,-0.07650000000000001,-0.16100000000000003,0.10076,0.11893500000000001,0.0,206.64499999999998,206.525,203.61,203.61,0.0,0.0
6,0.0,0.0,0.0,1.0,1.0,0.0,0.0,1.0,0.0,100.0,1.0,1.1856,26.0,0.0,0.0,0.0,59.999996,0.0,26.0,26.0,26.0,26.0,-0.1721111111111111,0.25970000000000004,0.00525,289.825,-2.5161,-2.6608888888888886,-1.5246,-1.6271,-255.99,216.2225,190.867625,0.0,0.0,0.0,0.0,0.013033333333333341,-5.498166666666667,-5.498166666666667,-0.7203,0.10399999999999998,-0.0812222222222223,0.8639999999999999,66.066,-0.11399999999999988,-0.43283333333333335,1.3150000000000004,100.0,1.0,1.0,203.95666666666668,0.0,0.0,0.0,0.0,0.0,0.0,0.0,8645.0,0.0,55.0,5.0,237.81666666666666,0.0,0.0,0.0,0.0,0.0,0.0,0.0,0.0,0.3030000000000008,0.3030000000000008,0.0,0.0,0.0,55.0,616.79921,10000.0,85.000001,85.000001,85.000001,85.000001,395.0,0.0,0.0,0.0,1.0,333.33500000000004,43.793,43.793,50.034,50.034,34.0,-32.6275,22.485999999999997,-33.66,21.7425,0.0,1783.21,0.2699999999999996,100.0,35.206,33.763,42.002,40.314,0.0,0.0,100.0,0.0,0.0,0.0,0.0,3852.125,3636.1,4006.375,3914.4,303.021,303.31333333333333,315.1665,315.18225,21.9068,20.6718,22.104333333333333,21.4603,314.999998,314.999998,324.999988,324.999988,99.5588,99.50968333333333,99.5852,99.55237142857143,0.009250000000000203,-0.18100000000000005,-0.24524999999999997,-0.0044999999999997264,-0.061666666666667425,-0.06333333333333258,1.5499999999999998,1.5995,37.918,30.1985,39.152,35.126999999999995,56.524,36.6485,65.6275,54.6565,54.58,35.71,64.128,52.837,53.885999999999996,35.254999999999995,64.19800000000001,52.195499999999996,-0.08899999999999997,-0.14250000000000007,0.10996,0.10954000000000001,0.0,207.025,206.91,203.95666666666668,203.95666666666668,0.0,0.0
7,0.0,0.0,0.0,1.0,1.0,0.0,0.0,1.0,0.0,100.0,1.0,1.1856,26.0,0.0,0.0,0.0,59.999996,0.0,26.0,26.0,26.0,26.0,-0.14355555555555555,0.25150000000000006,0.017775,289.642,-2.5734,-2.654,-1.4779,-1.5754000000000001,-252.62,216.2025,190.847375,0.0,0.0,0.0,0.0,0.014999999999999902,-5.498166666666667,-5.498166666666667,-0.7248,-0.10200000000000009,-0.0773333333333337,-0.30499999999999994,66.197,-0.10071428571428576,-0.44160000000000005,1.0374999999999996,100.0,1.0,1.0,204.32666666666665,0.0,0.0,0.0,0.0,0.0,0.0,0.0,8660.7,0.0,55.0,5.0,238.2866666666667,1.0,0.0,0.0,0.0,0.0,0.0,0.0,0.0,0.3539999999999992,0.3539999999999992,0.0,0.0,1.0,55.0,616.79921,10000.0,85.000001,85.000001,85.000001,85.000001,395.0,0.0,0.0,0.0,1.0,333.33500000000004,43.518,43.518,50.156,50.156,34.0,-34.9225,22.914,-32.885,21.2925,0.0,1783.159,0.10500000000000043,100.0,35.072,33.827,41.944,40.538,0.0,0.0,100.0,0.0,0.0,0.0,0.0,4103.0,3596.9,4047.125,3921.2,302.47833333333335,303.273,315.0835,315.11325,21.9176,20.6781,22.116222222222223,21.4698,314.999998,314.999998,324.999988,324.999988,99.5588,99.50971666666666,99.58534285714286,99.5525,0.019750000000000156,-0.16900000000000004,-0.23150000000000004,-0.002749999999999808,-0.04833333333333201,-0.021666666666668277,1.5339999999999998,1.5869999999999997,37.985,30.238500000000002,39.226,35.186,56.519999999999996,36.6995,65.648,54.707,54.575,35.757,64.147,52.885999999999996,53.879999999999995,35.2995,64.2135,52.2435,-0.11299999999999999,-0.12250000000000005,0.104895,0.107825,0.0,207.41500000000002,207.325,204.32666666666665,204.32666666666665,0.0,0.0
8,0.0,0.0,0.0,1.0,1.0,0.0,0.0,1.0,0.0,100.0,1.0,1.1856,26.0,0.0,0.0,0.0,59.999996,0.0,26.0,26.0,26.0,26.0,-0.1062222222222221,0.2731000000000001,0.03515,289.856,-2.5569,-2.643222222222222,-1.4628,-1.5612000000000001,-249.24,216.1775,190.826875,0.0,0.0,0.0,0.0,0.016966666666666574,-5.498166666666667,-5.498166666666667,-0.7247,-0.496,-0.0564444444444443,0.899,66.32900000000001,-0.08485714285714274,-0.4316666666666667,0.5100000000000002,100.0,1.0,1.0,204.66333333333333,0.0,0.0,0.0,0.0,0.0,0.0,0.0,8674.9,0.0,55.0,5.0,238.76,0.0,0.0,0.0,0.0,0.0,0.0,0.0,0.0,0.40500000000000114,0.40500000000000114,0.0,0.0,0.0,55.0,616.79921,10000.0,85.000001,85.000001,85.000001,85.000001,395.0,0.0,0.0,0.0,1.0,166.665,44.357,44.357,49.332,49.332,34.0,-28.96,24.422,-31.91,24.35,0.0,1783.109,-0.10999999999999943,100.0,34.866,33.713,42.016999999999996,40.56,0.0,0.0,100.0,0.0,0.0,0.0,0.0,3656.625,3636.0,4125.125,4081.9,303.67766666666665,303.3426666666667,314.81725,314.801,21.9282,20.6846,22.12811111111111,21.4792,314.999998,314.999998,324.999988,324.999988,99.55881428571429,99.50975,99.58548571428571,99.55264285714286,0.05049999999999999,-0.1403333333333332,-0.19674999999999976,0.038000000000000256,-0.03333333333333144,-0.06666666666666998,1.5259999999999998,1.5415,38.052,30.2785,39.301,35.245,56.513999999999996,36.749,65.668,54.7575,54.57,35.8025,64.16499999999999,52.934,53.873000000000005,35.343,64.228,52.2905,-0.12649999999999995,-0.10450000000000004,0.09994000000000001,0.10623500000000001,0.0,207.76999999999998,207.75,204.66333333333333,204.66333333333333,0.0,0.0
9,0.0,0.0,0.0,1.0,1.0,0.0,0.0,1.0,0.0,100.0,1.0,1.1856,26.0,0.0,0.0,0.0,59.999996,0.0,26.0,26.0,26.0,26.0,-0.08911111111111103,0.2599,0.022975000000000002,289.642,-2.5581,-2.6452222222222224,-1.5075,-1.5617,-246.05,216.1525,190.807125,0.0,0.0,0.0,0.0,0.01883333333333337,-5.498166666666667,-5.498166666666667,-0.7363000000000001,0.49349999999999994,-0.056888888888888545,0.7309999999999999,66.44800000000001,-0.06542857142857139,-0.4397666666666667,0.3174999999999999,100.0,1.0,1.0,205.18333333333334,0.0,0.0,0.0,0.0,0.0,0.0,0.0,8697.0,0.0,55.0,5.0,239.19333333333333,1.0,0.0,0.0,0.0,0.0,0.0,0.0,0.0,0.4529999999999994,0.4529999999999994,0.0,0.0,1.0,55.0,616.79921,10000.0,85.000001,85.000001,85.000001,85.000001,395.0,0.0,0.0,0.0,1.0,333.33500000000004,43.121,43.121,50.568,50.568,34.0,-31.3625,26.560000000000002,-28.64,23.7725,0.0,1783.059,-0.2699999999999996,100.0,35.244,34.150999999999996,41.643,40.538,0.0,0.0,100.0,0.0,0.0,0.0,0.0,4034.625,3755.1,3862.375,3924.6000000000004,302.52433333333335,302.9073333333333,315.5395,315.20325,21.9384,20.6908,22.139222222222223,21.4881,314.999998,314.999998,324.999988,324.999988,99.55881428571429,99.50975,99.58561428571429,99.55277142857143,0.06999999999999984,-0.11999999999999988,-0.17700000000000005,0.05500000000000016,-0.05333333333332746,-0.060000000000002274,1.6,1.6164999999999998,38.114999999999995,30.3175,39.370000000000005,35.3005,56.513,36.797,65.684,54.8035,54.568,35.8465,64.1795,52.9785,53.869,35.385,64.239,52.334,-0.13549999999999995,-0.09499999999999997,0.104525,0.10564000000000001,0.0,208.175,208.14,205.18333333333334,205.18333333333334,0.0,0.0
10,0.0,0.0,0.0,1.0,1.0,0.0,0.0,1.0,0.0,100.0,1.0,1.1856,26.0,0.0,0.0,0.0,59.999996,0.0,26.0,26.0,26.0,26.0,-0.052444444444444405,0.24960000000000004,0.0137,289.368,-2.5337,-2.619666666666667,-1.5575,-1.5416,-242.66,216.125,190.7865,0.0,0.0,0.0,0.0,0.02079999999999993,-5.498166666666667,-5.498166666666667,-0.7094,-0.24449999999999994,-0.019444444444444375,0.3340000000000001,66.581,-0.041714285714285815,-0.42683333333333334,-0.03500000000000014,100.0,1.0,1.0,205.35333333333335,0.0,0.0,0.0,0.0,0.0,0.0,0.0,8704.2,0.0,55.0,5.0,239.66666666666669,0.0,0.0,0.0,0.0,0.0,0.0,1.0,0.0,0.5040000000000013,0.5040000000000013,0.0,0.0,0.0,55.0,616.79921,10000.0,85.000001,85.000001,85.000001,85.000001,395.0,0.0,0.0,0.0,1.0,333.33500000000004,44.022,44.022,49.025999999999996,49.025999999999996,34.0,-27.3325,24.468,-32.6725,26.572499999999998,0.0,1783.009,-0.33000000000000007,100.0,35.106,34.367000000000004,41.897999999999996,41.334,0.0,0.0,100.0,0.0,0.0,0.0,0.0,3677.375,3507.8,4300.625,4159.6,303.693,303.5246666666667,314.52775,314.498,21.9491,20.6973,22.15111111111111,21.497700000000002,314.999998,314.999998,324.999988,324.999988,99.55882857142858,99.50976666666666,99.58575714285715,99.55291428571428,0.07825000000000015,-0.119,-0.15549999999999997,0.06800000000000006,-0.03166666666666629,-0.03333333333333144,1.4939999999999998,1.4935,38.182,30.358,39.445,35.3605,56.512,36.845,65.705,54.857,54.566,35.891,64.19800000000001,53.0305,53.866,35.4275,64.25450000000001,52.3845,-0.14649999999999996,-0.09000000000000008,0.10186500000000001,0.099415,0.0,208.56,208.555,205.35333333333335,205.35333333333335,0.0,0.0
11,0.0,0.0,0.0,1.0,1.0,0.0,0.0,1.0,0.0,100.0,1.0,1.1856,26.0,0.0,0.0,0.0,59.999996,0.0,26.0,26.0,26.0,26.0,-0.022333333333333316,0.2511000000000001,-0.0651,289.902,-2.5818,-2.6046666666666667,-1.5223,-1.5264,-239.26,216.095,190.765875,0.0,0.0,0.0,0.0,0.022599999999999953,-5.498166666666667,-5.498166666666667,-0.7545000000000001,-0.39349999999999996,0.013222222222222024,0.5659999999999998,66.705,-0.016142857142857014,-0.4628666666666667,-0.24250000000000016,100.0,1.0,1.0,206.04666666666668,0.0,0.0,0.0,0.0,0.0,0.0,0.0,8733.6,0.0,55.0,5.0,240.11666666666667,1.0,0.0,0.0,0.0,0.0,0.0,1.0,0.0,0.5549999999999997,0.5549999999999997,0.0,0.0,1.0,55.0,616.79921,10000.0,85.000001,85.000001,85.000001,85.000001,395.0,0.0,0.0,0.0,1.0,166.665,43.396,43.396,50.613,50.613,34.0,-26.9275,28.514000000000003,-23.7525,24.7075,0.0,1782.959,-0.41000000000000014,100.0,34.96,34.472,41.598,41.28,0.0,0.0,100.0,0.0,0.0,0.0,0.0,3756.75,3844.4,3585.75,3765.5,303.36566666666664,302.648,316.19475,315.55325,21.959600000000002,20.704,22.162888888888887,21.5072,314.999998,314.999998,324.999988,324.999988,99.55884285714286,99.50978333333333,99.5859,99.55305714285714,0.11050000000000004,-0.08899999999999997,-0.12124999999999986,0.1120000000000001,-0.023333333333326323,-0.04833333333333201,1.6669999999999998,1.6520000000000001,38.247,30.3995,39.518,35.42,56.509,36.893,65.72,54.9065,54.563,35.9355,64.2115,53.0785,53.861000000000004,35.47,64.2645,52.432,-0.14649999999999996,-0.08899999999999997,0.09789,0.10457500000000002,0.0,208.875,208.91,206.04666666666668,206.04666666666668,0.0,0.0
12,0.0,0.0,0.0,1.0,1.0,0.0,0.0,1.0,0.0,100.0,1.0,1.1856,26.0,0.0,0.0,0.0,59.999996,0.0,26.0,26.0,26.0,26.0,0.00477777777777777,0.26460000000000017,0.01085,289.413,-2.6338,-2.6033333333333335,-1.5188000000000001,-1.5271000000000001,-236.06,216.065,190.74525,0.0,0.0,0.0,0.0,0.025466666666666526,-5.498166666666667,-5.498166666666667,-0.7407,0.3075,-0.0018888888888888289,0.6099999999999999,66.827,-0.0002857142857142225,-0.43126666666666674,-0.22999999999999998,100.0,1.0,1.0,206.21,0.0,0.0,0.0,0.0,0.0,0.0,0.0,8740.5,0.0,55.0,5.0,240.55666666666667,0.0,0.0,0.0,0.0,0.0,0.0,1.0,0.0,0.602999999999998,0.602999999999998,0.0,0.0,0.0,55.0,616.79921,10000.0,85.000001,85.000001,85.000001,85.000001,395.0,0.0,0.0,0.0,1.0,333.33500000000004,43.442,43.442,49.376999999999995,49.376999999999995,34.0,-25.7725,30.688,-27.932499999999997,28.1125,0.0,1782.91,-0.41500000000000004,100.0,34.841,34.59,41.42,41.096000000000004,0.0,0.0,100.0,0.0,0.0,0.0,0.0,3766.625,3840.7,4100.0,4098.3,303.3566666666667,302.6856666666667,314.9545,314.7865,21.9695,20.7103,22.17388888888889,21.5161,314.999998,314.999998,324.999988,324.999988,99.55885714285715,99.5098,99.58604285714286,99.55318571428572,0.14349999999999996,-0.04833333333333312,-0.11149999999999993,0.11825000000000019,-0.04833333333333201,-0.07333333333333059,1.5484999999999998,1.5455,38.309,30.439500000000002,39.587,35.4755,56.507999999999996,36.939,65.736,54.954,54.561,35.978,64.226,53.124,53.858000000000004,35.510999999999996,64.276,52.4765,-0.16400000000000003,-0.07600000000000007,0.11198000000000001,0.10604500000000001,0.0,209.32999999999998,209.34,206.21,206.21,0.0,0.0
13,0.0,0.0,0.0,1.0,1.0,0.0,0.0,1.0,0.0,100.0,1.0,1.1856,26.0,0.0,0.0,0.0,59.999996,0.0,26.0,26.0,26.0,26.0,0.008444444444444477,0.2683,0.023125,289.017,-2.6207000000000003,-2.584111111111111,-1.5951,-1.5078,-232.65,216.035,190.723625,0.0,0.0,0.0,0.0,0.026599999999999957,-5.498166666666667,-5.498166666666667,-0.7341000000000001,-0.0515000000000001,0.003444444444444361,-0.601,66.955,0.01185714285714301,-0.439,-0.35250000000000004,100.0,1.0,1.0,206.55,0.0,0.0,0.0,0.0,0.0,0.0,0.0,8754.9,0.0,55.0,5.0,241.01666666666665,1.0,0.0,0.0,0.0,0.0,0.0,1.0,0.0,0.6539999999999999,0.6539999999999999,0.0,0.0,1.0,55.0,616.79921,10000.0,85.000001,85.000001,85.000001,85.000001,395.0,0.0,0.0,0.0,1.0,333.33500000000004,43.045,43.045,49.347,49.347,34.0,-27.662499999999998,28.268,-28.6425,29.07,0.0,1782.859,-0.41500000000000004,100.0,35.038,35.04,41.55,41.730000000000004,0.0,0.0,100.0,0.0,0.0,0.0,0.0,3897.75,3750.9,4125.25,4157.5,303.12033333333335,302.76866666666666,314.97775,314.53525,21.9801,20.7171,22.185777777777776,21.5257,314.999998,314.999998,324.999988,324.999988,99.55887142857142,99.50981666666667,99.58617142857143,99.55334285714285,0.12300000000000022,-0.07800000000000007,-0.10250000000000004,0.1280000000000001,-0.02499999999999858,-0.03833333333332689,1.544,1.5255,38.376000000000005,30.482,39.661,35.5355,56.509,36.9865,65.75450000000001,55.007,54.562,36.022,64.242,53.1755,53.857,35.553,64.289,52.527,-0.14800000000000002,-0.09200000000000008,0.10798500000000001,0.106675,0.0,209.68,209.72500000000002,206.55,206.55,0.0,0.0
14,0.0,0.0,0.0,1.0,1.0,0.0,0.0,1.0,0.0,100.0,1.0,1.1856,26.0,0.0,0.0,0.0,59.999996,0.0,26.0,26.0,26.0,26.0,0.023777777777777898,0.25960000000000005,-0.012450000000000001,289.169,-2.6081,-2.538222222222222,-1.5954000000000002,-1.5198,-229.23,216.005,190.7025,0.0,0.0,0.0,0.0,0.02859999999999996,-5.498166666666667,-5.498166666666667,-0.7453000000000001,-0.17500000000000004,0.02677777777777779,1.4220000000000002,67.081,0.0258571428571428,-0.4552333333333333,-0.46999999999999975,100.0,1.0,1.0,207.01333333333332,0.0,0.0,0.0,0.0,0.0,0.0,0.0,8774.6,0.0,55.0,5.0,241.47,0.0,0.0,0.0,0.0,0.0,0.0,1.0,0.0,0.7049999999999983,0.7049999999999983,0.0,0.0,0.0,55.0,616.79921,10000.0,85.000001,85.000001,85.000001,85.000001,395.0,0.0,0.0,0.0,1.0,333.33500000000004,43.076,43.076,49.561,49.561,34.0,-25.0675,30.076,-26.1575,29.0825,0.0,1782.807,-0.40500000000000025,100.0,35.253,34.97,41.644999999999996,41.84,0.0,0.0,100.0,0.0,0.0,0.0,0.0,3709.125,3897.9,3916.75,4076.2,303.4796666666667,302.5323333333333,315.396,314.8315,21.9907,20.7239,22.197555555555557,21.5353,314.999998,314.999998,324.999988,324.999988,99.5589,99.50983333333333,99.58632857142857,99.55348571428571,0.14349999999999996,-0.05433333333333312,-0.08749999999999991,0.14400000000000013,-0.01833333333333087,-0.03999999999999915,1.5745,1.5579999999999998,38.442,30.5245,39.735,35.5955,56.510999999999996,37.036500000000004,65.772,55.062,54.563,36.068,64.258,53.2285,53.855999999999995,35.597,64.3005,52.579,-0.15049999999999997,-0.08850000000000002,0.09812000000000001,0.09956000000000001,0.0,210.055,210.095,207.01333333333332,207.01333333333332,0.0,0.0
15,0.0,0.0,0.0,1.0,1.0,0.0,0.0,1.0,0.0,100.0,1.0,1.1856,26.0,0.0,0.0,0.0,59.999996,0.0,26.0,26.0,26.0,26.0,0.04211111111111121,0.25960000000000005,-0.0014500000000000001,289.154,-2.5855,-2.4915555555555557,-1.596,-1.4576,-226.0,215.97750000000002,190.68225,0.0,0.0,0.0,0.0,0.03046666666666653,-5.498166666666667,-5.498166666666667,-0.7391000000000001,0.349,0.05977777777777771,1.4210000000000003,67.19800000000001,0.03357142857142881,-0.44220000000000004,-0.4874999999999998,100.0,1.0,1.0,207.37666666666667,0.0,0.0,0.0,0.0,0.0,0.0,0.0,8790.0,0.0,55.0,5.0,241.89333333333335,1.0,0.0,0.0,0.0,0.0,0.0,1.0,0.0,0.7530000000000001,0.7530000000000001,0.0,0.0,1.0,55.0,616.79921,10000.0,85.000001,85.000001,85.000001,85.000001,395.0,0.0,0.0,0.0,1.0,333.33500000000004,43.045,43.045,49.652,49.652,34.0,-23.96,30.292,-25.0125,30.4825,0.0,1782.76,-0.3799999999999999,100.0,35.31,35.101,41.423,41.871,0.0,0.0,100.0,0.0,0.0,0.0,0.0,3611.75,3899.5,3866.875,4222.3,303.71733333333333,302.51,315.52675,314.51875,22.0006,20.7303,22.208444444444446,21.5443,314.999998,314.999998,324.999988,324.999988,99.55892857142857,99.50983333333333,99.58644285714286,99.55361428571429,0.14650000000000007,-0.04133333333333322,-0.07224999999999993,0.16375000000000028,-0.04999999999999716,-0.05666666666667197,1.5785,1.5539999999999998,38.504000000000005,30.564500000000002,39.803,35.652,56.513,37.078,65.785,55.1075,54.565,36.1065,64.2695,53.272999999999996,53.855999999999995,35.634,64.309,52.6225,-0.15000000000000002,-0.08800000000000008,0.10421000000000001,0.11600500000000001,0.0,210.47500000000002,210.49,207.37666666666667,207.37666666666667,0.0,0.0
16,0.0,0.0,0.0,1.0,1.0,0.0,0.0,1.0,0.0,100.0,1.0,1.1856,26.0,0.0,0.0,0.0,59.999996,0.0,26.0,26.0,26.0,26.0,0.04755555555555557,0.24250000000000016,-0.028200000000000003,289.215,-2.6385,-2.526777777777778,-1.5325,-1.4593,-222.57,215.9475,190.660375,0.0,0.0,0.0,0.0,0.03246666666666653,-5.498166666666667,-5.498166666666667,-0.7543000000000001,-0.714,0.04177777777777769,-1.107,67.325,0.04042857142857148,-0.45353333333333334,-0.45500000000000007,100.0,1.0,1.0,207.73000000000002,0.0,0.0,0.0,0.0,0.0,0.0,0.0,8804.9,0.0,55.0,5.0,242.35000000000002,0.0,0.0,0.0,0.0,0.0,0.0,1.0,0.0,0.8039999999999985,0.8039999999999985,0.0,0.0,0.0,55.0,616.79921,10000.0,85.000001,85.000001,85.000001,85.000001,395.0,0.0,0.0,0.0,1.0,333.33500000000004,43.259,43.259,49.149,49.149,34.0,-25.662499999999998,29.355999999999998,-24.7425,28.36,0.0,1782.709,-0.2549999999999999,100.0,34.71,35.31,41.643,42.102000000000004,0.0,0.0,100.0,0.0,0.0,0.0,0.0,3741.75,3820.9,3932.5,3994.4,303.6333333333333,302.5643333333333,315.38375,314.97,22.0109,20.7372,22.220222222222223,21.5539,314.999998,314.999998,324.999988,324.999988,99.55894285714285,99.50985,99.5866,99.55374285714285,0.1392500000000001,-0.05699999999999994,-0.07275000000000009,0.15700000000000003,-0.023333333333326323,-0.030000000000001137,1.573,1.548,38.568,30.6075,39.876999999999995,35.712,56.512,37.125,65.803,55.1595,54.562,36.15,64.285,53.323499999999996,53.852000000000004,35.6755,64.3215,52.672,-0.14100000000000001,-0.09749999999999992,0.10569,0.10669000000000001,0.0,210.79500000000002,210.82999999999998,207.73000000000002,207.73000000000002,0.0,0.0
17,0.0,0.0,0.0,1.0,1.0,0.0,0.0,1.0,0.0,100.0,1.0,1.1856,26.0,0.0,0.0,0.0,59.999996,0.0,26.0,26.0,26.0,26.0,0.03133333333333321,0.2653000000000001,-0.050475,289.032,-2.6291,-2.491,-1.5969,-1.5145000000000002,-219.14,215.92000000000002,190.638,0.0,0.0,0.0,0.0,0.034466666666666534,-5.498166666666667,-5.498166666666667,-0.7503000000000001,0.5365,0.01644444444444426,0.5230000000000001,67.44800000000001,0.03785714285714281,-0.4403,-0.33499999999999996,100.0,1.0,1.0,208.14666666666668,0.0,0.0,0.0,0.0,0.0,0.0,0.0,8822.5,0.0,55.0,5.0,242.79333333333335,1.0,0.0,0.0,0.0,0.0,0.0,1.0,0.0,0.8550000000000004,0.8550000000000004,0.0,0.0,1.0,55.0,616.79921,10000.0,85.000001,85.000001,85.000001,85.000001,395.0,0.0,0.0,0.0,1.0,333.33500000000004,42.938,42.938,49.515,49.515,34.0,-25.245,28.794,-26.174999999999997,29.875,0.0,1782.658,-0.28000000000000025,100.0,35.424,35.406,41.454,41.891999999999996,0.0,0.0,100.0,0.0,0.0,0.0,0.0,3747.875,3801.7,4043.875,4082.6000000000004,303.441,302.861,315.17525,314.84,22.0214,20.7442,22.23188888888889,21.5634,314.999998,314.999998,324.999988,324.999988,99.55895714285714,99.50985,99.58672857142857,99.5539,0.14924999999999988,-0.05166666666666675,-0.06824999999999992,0.16075000000000017,-0.03833333333332689,-0.05666666666667197,1.569,1.5619999999999998,38.634,30.651,39.949,35.7715,56.513999999999996,37.173,65.8175,55.21,54.564,36.1945,64.2975,53.3725,53.852000000000004,35.718,64.3305,52.72,-0.13949999999999996,-0.09899999999999998,0.10157000000000001,0.10157500000000001,0.0,211.24,211.265,208.14666666666668,208.14666666666668,0.0,0.0
18,0.0,0.0,0.0,1.0,1.0,0.0,0.0,1.0,0.0,100.0,1.0,1.1856,26.0,0.0,0.0,0.0,59.999996,0.0,26.0,26.0,26.0,26.0,0.02966666666666673,0.24050000000000016,-0.036750000000000005,289.001,-2.6518,-2.474333333333333,-1.6038000000000001,-1.4429,-215.9,215.89499999999998,190.617125,0.0,0.0,0.0,0.0,0.03636666666666655,-5.498166666666667,-5.498166666666667,-0.7562,-0.6080000000000001,0.031444444444444386,1.125,67.566,0.03600000000000003,-0.4523333333333333,-0.3125,100.0,1.0,1.0,208.48000000000002,0.0,0.0,0.0,0.0,0.0,0.0,0.0,8836.7,0.0,55.0,5.0,243.21333333333334,0.0,0.0,0.0,0.0,0.0,0.0,1.0,0.0,0.9029999999999987,0.9029999999999987,0.0,0.0,0.0,55.0,616.79921,10000.0,85.000001,85.000001,85.000001,85.000001,395.0,0.0,0.0,0.0,1.0,166.665,42.999,42.999,49.286,49.286,34.0,-25.4425,29.758,-26.2025,28.77,0.0,1782.611,-0.2699999999999996,100.0,35.232,35.182,41.848,42.241,0.0,0.0,100.0,0.0,0.0,0.0,0.0,3739.125,3940.7,3939.0,4047.8,303.541,302.53366666666665,315.3825,314.95525,22.0312,20.7506,22.243,21.5726,314.999998,314.999998,324.999988,324.999988,99.55898571428571,99.50985,99.58687142857143,99.55402857142857,0.14800000000000013,-0.050999999999999934,-0.08150000000000013,0.16349999999999998,-0.026666666666670835,-0.051666666666669414,1.557,1.553,38.695,30.691,40.019,35.8285,56.515,37.216499999999996,65.8345,55.26,54.565,36.2345,64.313,53.420500000000004,53.851,35.757,64.3425,52.7675,-0.13949999999999996,-0.09549999999999992,0.11031500000000001,0.110335,0.0,211.56,211.57999999999998,208.48000000000002,208.48000000000002,0.0,0.0
19,0.0,0.0,0.0,1.0,1.0,0.0,0.0,1.0,0.0,100.0,1.0,1.1856,26.0,0.0,0.0,0.0,59.999996,0.0,26.0,26.0,26.0,26.0,0.01911111111111108,0.25649999999999995,0.007775000000000001,288.528,-2.6250999999999998,-2.461444444444444,-1.6155,-1.4283000000000001,-212.45,215.87,190.594625,0.0,0.0,0.0,0.0,0.03836666666666655,-5.498166666666667,-5.498166666666667,-0.7565000000000001,0.7565,0.03400000000000003,-0.5029999999999999,67.687,0.03699999999999992,-0.4496666666666667,-0.25,100.0,1.0,1.0,208.89,0.0,0.0,0.0,0.0,0.0,0.0,0.0,8854.0,0.0,55.0,5.0,243.65333333333334,1.0,0.0,0.0,0.0,0.0,0.0,1.0,0.0,0.9540000000000006,0.9540000000000006,0.0,0.0,1.0,55.0,616.79921,10000.0,85.000001,85.000001,85.000001,85.000001,395.0,0.0,0.0,0.0,1.0,166.665,41.977000000000004,41.977000000000004,49.393,49.393,34.0,-27.935,29.27,-27.369999999999997,28.2075,0.0,1782.56,-0.23499999999999943,100.0,35.661,35.824,41.474000000000004,42.132,0.0,0.0,100.0,0.0,0.0,0.0,0.0,3988.75,3951.1000000000004,4053.75,4117.0,302.83166666666665,302.1743333333333,315.23625,314.7935,22.0417,20.7576,22.254555555555555,21.5821,314.999998,314.999998,324.999988,324.999988,99.559,99.50986666666667,99.587,99.55418571428571,0.13324999999999987,-0.06499999999999995,-0.0887500000000001,0.1462500000000002,-0.04999999999999716,-0.05333333333332746,1.5869999999999997,1.572,38.760999999999996,30.735,40.091,35.8885,56.519,37.266,65.849,55.3105,54.568,36.2805,64.3255,53.47,53.851,35.8005,64.3515,52.816,-0.14149999999999996,-0.10949999999999993,0.10958000000000001,0.102055,0.0,211.985,212.01,208.89,208.89,0.0,0.0
20,0.0,0.0,0.0,1.0,1.0,0.0,0.0,1.0,0.0,100.0,1.0,1.1856,26.0,0.0,0.0,0.0,59.999996,0.0,26.0,26.0,26.0,26.0,0.025333333333333208,0.26080000000000014,0.036325,288.498,-2.6627,-2.530666666666667,-1.5402,-1.4412,-208.99,215.845,190.572375,0.0,0.0,0.0,0.0,0.04036666666666655,-5.498166666666667,-5.498166666666667,-0.7502000000000001,-0.9515,0.033333333333333215,0.637,67.813,0.03642857142857148,-0.45196666666666674,-0.3125,100.0,1.0,1.0,209.08666666666667,0.0,0.0,0.0,0.0,0.0,0.0,0.0,8862.4,0.0,55.0,5.0,244.10666666666668,0.0,0.0,0.0,0.0,0.0,0.0,0.0,0.0,1.004999999999999,1.004999999999999,0.0,0.0,0.0,55.0,616.79921,10000.0,85.000001,85.000001,85.000001,85.000001,395.0,0.0,0.0,0.0,1.0,333.33500000000004,43.03,43.03,48.111,48.111,34.0,-24.6025,29.567999999999998,-26.572499999999998,31.4525,0.0,1782.508,-0.21999999999999975,100.0,35.417,35.533,42.306,42.541,0.0,0.0,100.0,0.0,0.0,0.0,0.0,3598.625,3865.0,4139.125,4305.3,303.95433333333335,302.642,314.79175,314.28675,22.052,20.764499999999998,22.266444444444446,21.5919,314.999998,314.999998,324.999988,324.999988,99.55902857142857,99.50988333333333,99.58715714285714,99.55431428571428,0.14575000000000005,-0.057333333333333236,-0.0674999999999999,0.16500000000000004,-0.03999999999999915,-0.05333333333332746,1.504,1.4809999999999999,38.825,30.7785,40.165,35.9495,56.519,37.313,65.8685,55.3645,54.567,36.324,64.343,53.522,53.849000000000004,35.8425,64.3655,52.867,-0.14249999999999996,-0.10050000000000003,0.10461500000000001,0.11492000000000001,0.0,212.335,212.36,209.08666666666667,209.08666666666667,0.0,0.0
21,0.0,0.0,0.0,1.0,1.0,0.0,0.0,1.0,0.0,100.0,1.0,1.1856,26.0,0.0,0.0,0.0,59.999996,0.0,26.0,26.0,26.0,26.0,0.030333333333333323,0.2351000000000001,-0.057075,288.879,-2.5764,-2.584111111111111,-1.6097000000000001,-1.5130000000000001,-205.73000000000002,215.8225,190.551,0.0,0.0,0.0,0.0,0.042266666666666564,-5.498166666666667,-5.498166666666667,-0.7817000000000001,0.24649999999999994,0.018444444444444263,0.20999999999999996,67.923,0.02828571428571447,-0.4688333333333333,-0.23999999999999977,100.0,1.0,1.0,209.72333333333333,0.0,0.0,0.0,0.0,0.0,0.0,0.0,8889.4,0.0,55.0,5.0,244.50333333333333,1.0,0.0,0.0,0.0,0.0,0.0,0.0,0.0,1.0530000000000008,1.0530000000000008,0.0,0.0,1.0,55.0,616.79921,10000.0,85.000001,85.000001,85.000001,85.000001,395.0,0.0,0.0,0.0,1.0,166.665,42.328,42.328,49.85,49.85,34.0,-25.2075,30.836,-25.0375,27.9375,0.0,1782.461,-0.29499999999999993,100.0,35.725,35.678,41.762,42.26,0.0,0.0,100.0,0.0,0.0,0.0,0.0,3809.25,3917.2,3782.875,3881.6000000000004,303.185,302.40633333333335,315.83175,315.3285,22.061799999999998,20.7711,22.27722222222222,21.6008,314.999998,314.999998,324.999988,324.999988,99.55905714285714,99.50988333333333,99.58728571428571,99.55445714285715,0.14875000000000016,-0.05600000000000005,-0.08975,0.16225000000000023,-0.026666666666670835,-0.05833333333333002,1.6315,1.62,38.885999999999996,30.819499999999998,40.233000000000004,36.004999999999995,56.521,37.3585,65.87950000000001,55.4105,54.568,36.3665,64.353,53.5665,53.848,35.882999999999996,64.3725,52.9105,-0.14100000000000001,-0.10050000000000003,0.10484500000000001,0.11173500000000001,0.0,212.685,212.715,209.72333333333333,209.72333333333333,0.0,0.0
22,0.0,0.0,0.0,1.0,1.0,0.0,0.0,1.0,0.0,100.0,1.0,1.1856,26.0,0.0,0.0,0.0,59.999996,0.0,26.0,26.0,26.0,26.0,0.043777777777777915,0.24470000000000014,0.0075250000000000004,288.345,-2.5541,-2.591111111111111,-1.5992000000000002,-1.552,-202.06,215.8,190.526,0.0,0.0,0.0,0.0,0.044399999999999995,-5.498166666666667,-5.498166666666667,-0.7594000000000001,0.16849999999999998,0.02444444444444427,1.278,68.055,0.026857142857143135,-0.44403333333333334,-0.2875000000000001,100.0,1.0,1.0,209.89333333333332,0.0,0.0,0.0,0.0,0.0,0.0,0.0,8896.5,0.0,55.0,5.0,244.98000000000002,0.0,0.0,0.0,0.0,0.0,0.0,0.0,0.0,1.1069999999999993,1.1069999999999993,0.0,0.0,0.0,55.0,616.79921,10000.0,85.000001,85.000001,85.000001,85.000001,395.0,0.0,0.0,0.0,1.0,166.665,42.403999999999996,42.403999999999996,48.584,48.584,34.0,-24.0875,30.548000000000002,-27.535,31.07,0.0,1782.406,-0.3149999999999995,100.0,35.817,35.766999999999996,42.092,42.386,0.0,0.0,100.0,0.0,0.0,0.0,0.0,3684.875,3902.8,4084.75,4217.5,303.49833333333333,302.39933333333335,315.03525,314.5015,22.0728,20.7785,22.289666666666665,21.611,314.999998,314.999998,324.999988,324.999988,99.55907142857143,99.5099,99.58742857142857,99.55461428571428,0.14825,-0.06133333333333324,-0.08024999999999993,0.14425,-0.03833333333332689,-0.045000000000001705,1.4979999999999998,1.5,38.955,30.865499999999997,40.31,36.069,56.524,37.4095,65.899,55.465,54.57,36.4135,64.37,53.6195,53.848,35.928,64.38550000000001,52.9625,-0.14600000000000002,-0.10250000000000004,0.10631000000000002,0.103675,0.0,213.10500000000002,213.115,209.89333333333332,209.89333333333332,0.0,0.0
23,0.0,0.0,0.0,1.0,1.0,0.0,0.0,1.0,0.0,100.0,1.0,1.1856,26.0,0.0,0.0,0.0,59.999996,0.0,26.0,26.0,26.0,26.0,0.05111111111111111,0.22209999999999996,0.0122,288.33,-2.5929,-2.538333333333333,-1.5309,-1.5630000000000002,-198.79,215.7775,190.504125,0.0,0.0,0.0,0.0,0.04630000000000001,-5.498166666666667,-5.498166666666667,-0.7768,-0.5215000000000001,0.024666666666666615,0.5640000000000001,68.168,0.027857142857143025,-0.4703666666666667,-0.2875000000000001,100.0,1.0,1.0,210.29333333333335,0.0,0.0,0.0,0.0,0.0,0.0,0.0,8913.5,0.0,55.0,5.0,245.38666666666666,1.0,0.0,0.0,0.0,0.0,0.0,0.0,0.0,1.1550000000000011,1.1550000000000011,0.0,0.0,1.0,55.0,616.79921,10000.0,85.000001,85.000001,85.000001,85.000001,395.0,0.0,0.0,0.0,1.0,166.665,42.038,42.038,49.149,49.149,34.0,-26.2275,30.726,-24.73,30.73,0.0,1782.359,-0.3200000000000003,100.0,35.822,35.851,42.246,42.662,0.0,0.0,100.0,0.0,0.0,0.0,0.0,3922.5,3945.1000000000004,3857.625,4061.7,302.985,302.39166666666665,315.48725,314.785,22.0825,20.7851,22.300666666666665,21.6202,314.999998,314.999998,324.999988,324.999988,99.55908571428571,99.5099,99.58757142857142,99.55475714285714,0.14774999999999983,-0.05133333333333323,-0.0794999999999999,0.16225000000000023,-0.03166666666666629,-0.054999999999999716,1.5404999999999998,1.532,39.016,30.907,40.379000000000005,36.126,56.525,37.455,65.914,55.515,54.571,36.4555,64.384,53.667500000000004,53.847,35.9685,64.396,53.0095,-0.15000000000000002,-0.09650000000000003,0.102525,0.11707000000000001,0.0,213.45,213.45499999999998,210.29333333333335,210.29333333333335,0.0,0.0
24,0.0,0.0,0.0,1.0,1.0,0.0,0.0,1.0,0.0,100.0,1.0,1.1856,26.0,0.0,0.0,0.0,59.999996,0.0,26.0,26.0,26.0,26.0,0.027888888888888852,0.2499,-0.04145,288.62,-2.617,-2.5441111111111114,-1.5714000000000001,-1.5022,-195.31,215.7575,190.4805,0.0,0.0,0.0,0.0,0.04833333333333334,-5.498166666666667,-5.498166666666667,-0.7828,-0.30099999999999993,0.031888888888888856,-0.278,68.289,0.03014285714285725,-0.4589333333333333,-0.32499999999999973,100.0,1.0,1.0,210.64333333333332,0.0,0.0,0.0,0.0,0.0,0.0,0.0,8928.4,0.0,55.0,5.0,245.81666666666666,0.0,0.0,0.0,0.0,0.0,0.0,0.0,0.0,1.2059999999999995,1.2059999999999995,0.0,0.0,0.0,55.0,616.79921,10000.0,85.000001,85.000001,85.000001,85.000001,395.0,0.0,0.0,0.0,1.0,166.665,42.831,42.831,48.828,48.828,34.0,-25.32,28.006,-27.9175,28.622500000000002,0.0,1782.307,-0.33499999999999996,100.0,35.604,35.783,41.983000000000004,42.6,0.0,0.0,100.0,0.0,0.0,0.0,0.0,3742.5,3703.3,4178.375,4044.2,303.591,302.97933333333333,314.9425,314.88275,22.0929,20.792,22.31222222222222,21.6298,314.999998,314.999998,324.999988,324.999988,99.55911428571429,99.50991666666667,99.58771428571428,99.5549,0.14300000000000024,-0.06666666666666665,-0.08800000000000008,0.1419999999999999,-0.04333333333332945,-0.03499999999999659,1.553,1.5499999999999998,39.081,30.95,40.451,36.186,56.527,37.5015,65.929,55.565,54.572,36.499,64.397,53.716499999999996,53.847,36.01,64.4055,53.0575,-0.15249999999999997,-0.09800000000000009,0.10658500000000001,0.106395,0.0,213.82,213.825,210.64333333333332,210.64333333333332,0.0,0.0
25,0.0,0.0,0.0,1.0,1.0,0.0,0.0,1.0,0.0,100.0,1.0,1.1856,26.0,0.0,0.0,0.0,59.999996,0.0,26.0,26.0,26.0,26.0,0.04866666666666686,0.23070000000000013,-0.0454,288.727,-2.6048,-2.546333333333333,-1.5905,-1.5061,-192.03,215.7375,190.457,0.0,0.0,0.0,0.0,0.05023333333333335,-5.498166666666667,-5.498166666666667,-0.812,-0.32099999999999995,0.03733333333333322,-0.8519999999999999,68.399,0.03385714285714281,-0.4678333333333333,-0.40249999999999986,100.0,1.0,1.0,211.09,0.0,0.0,0.0,0.0,0.0,0.0,0.0,8947.3,0.0,55.0,5.0,246.22,1.0,0.0,0.0,0.0,0.0,0.0,0.0,0.0,1.2540000000000013,1.2540000000000013,0.0,0.0,1.0,55.0,616.79921,10000.0,85.000001,85.000001,85.000001,85.000001,395.0,0.0,0.0,0.0,1.0,166.665,42.358000000000004,42.358000000000004,49.254999999999995,49.254999999999995,34.0,-26.2275,30.302,-25.424999999999997,27.6825,0.0,1782.26,-0.3250000000000002,100.0,35.365,35.843,41.859,42.385,0.0,0.0,100.0,0.0,0.0,0.0,0.0,3869.375,3931.1000000000004,3856.875,3920.1000000000004,303.26433333333335,302.2253333333333,315.639,315.21075,22.1025,20.7986,22.32311111111111,21.6388,314.999998,314.999998,324.999988,324.999988,99.55912857142857,99.50993333333334,99.58784285714286,99.55502857142856,0.14100000000000001,-0.06299999999999994,-0.08574999999999999,0.14650000000000007,-0.045000000000001705,-0.04833333333333201,1.5915,1.576,39.141,30.991500000000002,40.519,36.2425,56.527,37.5465,65.9425,55.6115,54.572,36.5405,64.4085,53.7615,53.844,36.0495,64.414,53.1015,-0.15100000000000002,-0.09850000000000003,0.10921000000000002,0.09743500000000001,0.0,214.14499999999998,214.18,211.09,211.09,0.0,0.0
26,0.0,0.0,0.0,1.0,1.0,0.0,0.0,1.0,0.0,100.0,1.0,1.1856,26.0,0.0,0.0,0.0,59.999996,0.0,26.0,26.0,26.0,26.0,0.04777777777777792,0.24370000000000003,0.0637,287.598,-2.6372,-2.5806666666666667,-1.6357,-1.4947000000000001,-188.54,215.7175,190.4315,0.0,0.0,0.0,0.0,0.05226666666666657,-5.498166666666667,-5.498166666666667,-0.7837000000000001,0.8325,0.024222222222222145,0.7450000000000001,68.521,0.038857142857143145,-0.4433,-0.4175,100.0,1.0,1.0,211.26999999999998,0.0,0.0,0.0,0.0,0.0,0.0,0.0,8954.9,0.0,55.0,5.0,246.65333333333334,0.0,0.0,0.0,0.0,0.0,0.0,0.0,0.0,1.3049999999999997,1.3049999999999997,0.0,0.0,0.0,55.0,616.79921,10000.0,85.000001,85.000001,85.000001,85.000001,395.0,0.0,0.0,0.0,1.0,333.33500000000004,41.275,41.275,48.233000000000004,48.233000000000004,34.0,-26.165,32.06,-29.0425,32.667500000000004,0.0,1782.208,-0.3049999999999997,100.0,36.438,36.411,42.04,42.446,0.0,0.0,100.0,0.0,0.0,0.0,0.0,3902.125,4030.9,4271.875,4377.3,302.93466666666666,301.95866666666666,314.6715,314.19875,22.1131,20.8058,22.334666666666667,21.6484,314.999998,314.999998,324.999988,324.999988,99.55915714285715,99.50993333333334,99.588,99.55518571428571,0.15775000000000006,-0.05433333333333312,-0.07174999999999976,0.16325000000000012,-0.03333333333333144,-0.04833333333333201,1.499,1.4874999999999998,39.207,31.0365,40.592,36.3025,56.533,37.597,65.959,55.663,54.576,36.587,64.4235,53.8115,53.846000000000004,36.0945,64.425,53.1505,-0.14949999999999997,-0.1060000000000001,0.106255,0.10841,0.0,214.56,214.585,211.26999999999998,211.26999999999998,0.0,0.0
27,0.0,0.0,0.0,1.0,1.0,0.0,0.0,1.0,0.0,100.0,1.0,1.1856,26.0,0.0,0.0,0.0,59.999996,0.0,26.0,26.0,26.0,26.0,0.04400000000000004,0.2238,0.028550000000000002,287.659,-2.6047000000000002,-2.540111111111111,-1.6309,-1.5643,-185.25,215.7,190.408375,0.0,0.0,0.0,0.0,0.054166666666666585,-5.498166666666667,-5.498166666666667,-0.7947000000000001,-0.986,0.02966666666666673,0.7160000000000002,68.633,0.039000000000000146,-0.47873333333333334,-0.40249999999999986,100.0,1.0,1.0,211.59,0.0,0.0,0.0,0.0,0.0,0.0,0.0,8968.5,0.0,55.0,5.0,247.06,1.0,0.0,0.0,0.0,0.0,0.0,0.0,0.0,1.352999999999998,1.352999999999998,0.0,0.0,1.0,55.0,616.79921,10000.0,85.000001,85.000001,85.000001,85.000001,395.0,0.0,0.0,0.0,1.0,333.33500000000004,41.763,41.763,47.974000000000004,47.974000000000004,34.0,-24.6675,31.116,-27.345,32.345,0.0,1782.16,-0.3799999999999999,100.0,36.214,36.331,42.849000000000004,43.227000000000004,0.0,0.0,100.0,0.0,0.0,0.0,0.0,3769.375,3978.6000000000004,4064.0,4221.8,303.31166666666667,302.28766666666667,315.0335,314.3935,22.122799999999998,20.8125,22.34588888888889,21.6578,314.999998,314.999998,324.999988,324.999988,99.55918571428572,99.50995,99.58812857142857,99.55532857142857,0.15949999999999998,-0.05066666666666664,-0.06824999999999992,0.15949999999999998,-0.03499999999999659,-0.04999999999999716,1.4855,1.484,39.268,31.078,40.662,36.361,56.535,37.641999999999996,65.977,55.714,54.578,36.629,64.4395,53.861000000000004,53.846000000000004,36.1345,64.4375,53.198499999999996,-0.14949999999999997,-0.10499999999999998,0.10033500000000001,0.10307000000000001,0.0,214.85000000000002,214.885,211.59,211.59,0.0,0.0
28,0.0,0.0,0.0,1.0,1.0,0.0,0.0,1.0,0.0,100.0,1.0,1.1856,26.0,0.0,0.0,0.0,59.999996,0.0,26.0,26.0,26.0,26.0,0.052999999999999936,0.2399,-0.0533,288.147,-2.6188000000000002,-2.539777777777778,-1.5724,-1.5348000000000002,-181.75,215.6825,190.3835,0.0,0.0,0.0,0.0,0.05619999999999992,-5.498166666666667,-5.498166666666667,-0.8146,0.39649999999999996,0.01633333333333331,-0.732,68.747,0.040857142857142925,-0.4762666666666667,-0.43999999999999995,100.0,1.0,1.0,212.16333333333333,0.0,0.0,0.0,0.0,0.0,0.0,0.0,8992.8,0.0,55.0,5.0,247.47,0.0,0.0,0.0,0.0,0.0,0.0,0.0,0.0,1.404,1.404,0.0,0.0,0.0,55.0,616.79921,10000.0,85.000001,85.000001,85.000001,85.000001,395.0,0.0,0.0,0.0,1.0,333.33500000000004,41.595,41.595,49.132999999999996,49.132999999999996,34.0,-26.6175,30.046,-25.2025,28.5425,0.0,1782.108,-0.3799999999999999,100.0,36.176,36.482,42.136,42.789,0.0,0.0,100.0,0.0,0.0,0.0,0.0,3987.875,3875.2,3907.875,3929.5,302.90633333333335,302.387,315.5265,315.205,22.1333,20.8197,22.357222222222223,21.6673,314.999998,314.999998,324.999988,324.999988,99.55921428571429,99.50996666666667,99.58828571428572,99.55547142857142,0.1535000000000002,-0.058333333333333126,-0.07825000000000015,0.15600000000000014,-0.041666666666671404,-0.04833333333333201,1.5995,1.584,39.333,31.122999999999998,40.733000000000004,36.420500000000004,56.539,37.6935,65.98949999999999,55.7645,54.581,36.6765,64.4505,53.91,53.847,36.18,64.4445,53.2465,-0.16149999999999998,-0.09650000000000003,0.11189,0.10537,0.0,215.235,215.265,212.16333333333333,212.16333333333333,0.0,0.0
29,0.0,0.0,0.0,1.0,1.0,0.0,0.0,1.0,0.0,100.0,1.0,1.1856,26.0,0.0,0.0,0.0,59.999996,0.0,26.0,26.0,26.0,26.0,0.04866666666666686,0.24409999999999998,0.021050000000000003,287.766,-2.6459,-2.488777777777778,-1.6042,-1.5225,-178.24,215.66750000000002,190.357375,0.0,0.0,0.0,0.0,0.05823333333333336,-5.498166666666667,-5.498166666666667,-0.8077000000000001,-0.556,0.023111111111111082,0.9410000000000003,68.867,0.042571428571428704,-0.45656666666666673,-0.48,100.0,1.0,1.0,212.30666666666667,0.0,0.0,0.0,0.0,0.0,0.0,0.0,8998.8,0.0,55.0,5.0,247.90333333333334,1.0,0.0,0.0,0.0,0.0,0.0,0.0,0.0,1.4549999999999983,1.4549999999999983,0.0,0.0,1.0,55.0,616.79921,10000.0,85.000001,85.000001,85.000001,85.000001,395.0,0.0,0.0,0.0,1.0,166.665,41.885,41.885,47.943,47.943,34.0,-25.56,31.676000000000002,-27.4425,32.845,0.0,1782.058,-0.375,100.0,35.992000000000004,36.088,42.482,42.906,0.0,0.0,100.0,0.0,0.0,0.0,0.0,3834.25,4081.5,4183.625,4262.6,303.31033333333335,302.0586666666667,314.80525,314.40875,22.1435,20.8267,22.36888888888889,21.677,314.999998,314.999998,324.999988,324.999988,99.55922857142858,99.50996666666667,99.58841428571428,99.55561428571428,0.15825000000000022,-0.044333333333333114,-0.0625,0.17649999999999988,-0.03333333333333144,-0.03499999999999659,1.516,1.4849999999999999,39.397,31.167,40.806,36.481,56.54,37.7375,66.0065,55.8135,54.582,36.7175,64.4655,53.957499999999996,53.846000000000004,36.2195,64.456,53.2935,-0.15200000000000002,-0.09699999999999998,0.10830000000000001,0.11604,0.0,215.595,215.61,212.30666666666667,212.30666666666667,0.0,0.0
30,0.0,0.0,0.0,1.0,1.0,0.0,0.0,1.0,0.0,100.0,1.0,1.1856,26.0,0.0,0.0,0.0,59.999996,0.0,26.0,26.0,26.0,26.0,0.05366666666666675,0.24130000000000007,0.016625,287.292,-2.63,-2.6093333333333333,-1.5517,-1.4719,-174.93,215.6525,190.332625,0.0,0.0,0.0,0.0,0.06016666666666659,-5.498166666666667,-5.498166666666667,-0.8224,0.39349999999999996,0.02155555555555555,0.44799999999999995,68.975,0.04371428571428604,-0.4745666666666667,-0.6400000000000001,100.0,1.0,1.0,212.73666666666668,0.0,0.0,0.0,0.0,0.0,0.0,0.0,9017.1,0.0,55.0,5.0,248.29333333333335,0.0,0.0,0.0,0.0,0.0,0.0,1.0,0.0,1.5030000000000001,1.5030000000000001,0.0,0.0,0.0,55.0,616.79921,10000.0,85.000001,85.000001,85.000001,85.000001,395.0,0.0,0.0,0.0,1.0,333.33500000000004,40.619,40.619,48.325,48.325,34.0,-26.5625,34.632,-25.384999999999998,31.4525,0.0,1782.009,-0.3899999999999997,100.0,36.66,36.874,42.354,42.988,0.0,0.0,100.0,0.0,0.0,0.0,0.0,4042.875,4234.0,4017.0,4269.8,302.692,301.5473333333333,315.195,314.4755,22.1534,20.8336,22.37977777777778,21.6861,314.999998,314.999998,324.999988,324.999988,99.55925714285715,99.50998333333334,99.58855714285714,99.55575714285715,0.16500000000000004,-0.04499999999999993,-0.06400000000000006,0.16825,-0.041666666666671404,-0.05333333333332746,1.545,1.5314999999999999,39.459,31.21,40.873999999999995,36.538,56.545,37.785,66.0195,55.8615,54.586,36.7615,64.4765,54.004,53.848,36.2615,64.464,53.338499999999996,-0.16300000000000003,-0.09699999999999998,0.10434,0.10164500000000001,0.0,215.945,215.98000000000002,212.73666666666668,212.73666666666668,0.0,0.0
31,0.0,0.0,0.0,1.0,1.0,0.0,0.0,1.0,0.0,100.0,1.0,1.1856,26.0,0.0,0.0,0.0,59.999996,0.0,26.0,26.0,26.0,26.0,0.06711111111111112,0.24560000000000004,0.06365,286.911,-2.6814,-2.4847777777777775,-1.6317,-1.4652,-171.41,215.64,190.30675,0.0,0.0,0.0,0.0,0.06219999999999992,-5.498166666666667,-5.498166666666667,-0.7962,-0.12200000000000011,0.02488888888888896,-0.97,69.094,0.04828571428571404,-0.46530000000000005,-0.45999999999999996,100.0,1.0,1.0,212.93333333333334,0.0,0.0,0.0,0.0,0.0,0.0,0.0,9025.4,0.0,55.0,5.0,248.71666666666667,1.0,0.0,0.0,0.0,0.0,0.0,1.0,0.0,1.5539999999999985,1.5539999999999985,0.0,0.0,1.0,55.0,616.79921,10000.0,85.000001,85.000001,85.000001,85.000001,395.0,0.0,0.0,0.0,1.0,166.665,41.138,41.138,47.058,47.058,34.0,-25.822499999999998,29.598,-30.9675,32.6775,0.0,1781.96,-0.33499999999999996,100.0,36.669,37.254,42.816,43.736000000000004,0.0,0.0,100.0,0.0,0.0,0.0,0.0,3848.125,3920.8,4422.0,4360.8,303.32866666666666,302.22866666666664,314.4095,313.97075,22.1638,20.8409,22.391444444444446,21.6959,314.999998,314.999998,324.999988,324.999988,99.55928571428572,99.50998333333334,99.5887,99.55591428571428,0.16225000000000023,-0.06166666666666676,-0.08299999999999974,0.16225000000000023,-0.045000000000001705,-0.041666666666671404,1.456,1.4415,39.524,31.255499999999998,40.947,36.5995,56.55,37.835,66.0375,55.915,54.59,36.8075,64.493,54.056,53.849999999999994,36.3055,64.4765,53.3895,-0.16000000000000003,-0.10099999999999998,0.11324500000000001,0.11124,0.0,216.31,216.345,212.93333333333334,212.93333333333334,0.0,0.0
32,0.0,0.0,0.0,1.0,1.0,0.0,0.0,1.0,0.0,100.0,1.0,1.1856,26.0,0.0,0.0,0.0,59.999996,0.0,26.0,26.0,26.0,26.0,0.06877777777777783,0.22950000000000004,-0.06455,287.476,-2.6339,-2.546777777777778,-1.6513,-1.4709,-167.67000000000002,215.6275,190.280125,0.0,0.0,0.0,0.0,0.0643999999999999,-5.498166666666667,-5.498166666666667,-0.8165,-0.13949999999999996,0.005555555555555536,-1.089,69.213,0.05057142857142827,-0.4837,-0.5099999999999998,100.0,1.0,1.0,213.50333333333333,0.0,0.0,0.0,0.0,0.0,0.0,0.0,9049.7,0.0,55.0,5.0,249.14666666666665,0.0,0.0,0.0,0.0,0.0,0.0,1.0,0.0,1.6080000000000005,1.6080000000000005,0.0,0.0,0.0,55.0,616.79921,10000.0,85.000001,85.000001,85.000001,85.000001,395.0,0.0,0.0,0.0,1.0,166.665,41.092,41.092,48.187,48.187,34.0,-26.1775,30.537999999999997,-25.884999999999998,29.6,0.0,1781.906,-0.3700000000000001,100.0,36.554,37.185,42.796,43.54,0.0,0.0,100.0,0.0,0.0,0.0,0.0,3976.375,3906.1000000000004,4010.75,4043.1000000000004,303.00033333333334,302.31333333333333,315.37575,315.00875,22.1747,20.8486,22.403666666666666,21.7062,314.999998,314.999998,324.999988,324.999988,99.55931428571428,99.51,99.58885714285714,99.55605714285714,0.16199999999999992,-0.05566666666666675,-0.05600000000000005,0.17300000000000004,-0.04333333333332945,-0.03499999999999659,1.596,1.5524999999999998,39.592,31.3035,41.022999999999996,36.664,56.555,37.887,66.053,55.9675,54.593,36.856,64.5065,54.107,53.851,36.352000000000004,64.4865,53.4395,-0.15700000000000003,-0.09850000000000003,0.09448500000000001,0.10783000000000001,0.0,216.67000000000002,216.68,213.50333333333333,213.50333333333333,0.0,0.0
33,0.0,0.0,0.0,1.0,1.0,0.0,0.0,1.0,0.0,100.0,1.0,1.1856,26.0,0.0,0.0,0.0,59.999996,0.0,26.0,26.0,26.0,26.0,0.07299999999999995,0.23440000000000016,-0.025425,287.613,-2.6311,-2.533777777777778,-1.6145,-1.5576,-164.35,215.6175,190.2555,0.0,0.0,0.0,0.0,0.06633333333333336,-5.498166666666667,-5.498166666666667,-0.8248000000000001,-0.20500000000000007,0.00044444444444424747,-0.20100000000000007,69.321,0.04971428571428582,-0.47300000000000003,-0.49750000000000005,100.0,1.0,1.0,213.8,0.0,0.0,0.0,0.0,0.0,0.0,0.0,9062.2,0.0,55.0,5.0,249.53666666666666,1.0,0.0,0.0,0.0,0.0,0.0,1.0,0.0,1.6559999999999988,1.6559999999999988,0.0,0.0,1.0,55.0,616.79921,10000.0,85.000001,85.000001,85.000001,85.000001,395.0,0.0,0.0,0.0,1.0,166.665,41.534,41.534,48.141,48.141,34.0,-25.375,30.308,-27.25,31.05,0.0,1781.857,-0.3899999999999997,100.0,36.457,36.913,42.658,43.418,0.0,0.0,100.0,0.0,0.0,0.0,0.0,3870.25,3866.7,4085.625,4070.2,303.32966666666664,302.475,315.15725,314.86775,22.1844,20.8553,22.414444444444445,21.7153,314.999998,314.999998,324.999988,324.999988,99.55932857142857,99.51,99.58898571428571,99.5562,0.1612499999999999,-0.04966666666666675,-0.07649999999999979,0.1705000000000001,-0.045000000000001705,-0.041666666666671404,1.5514999999999999,1.536,39.652,31.3455,41.09,36.7205,56.558,37.931,66.0665,56.0145,54.596000000000004,36.8965,64.5185,54.1525,53.852000000000004,36.391,64.495,53.484,-0.15849999999999997,-0.09149999999999991,0.110905,0.10619,0.0,217.01,217.03,213.8,213.8,0.0,0.0
34,0.0,0.0,0.0,1.0,1.0,0.0,0.0,1.0,0.0,100.0,1.0,1.1856,26.0,0.0,0.0,0.0,59.999996,0.0,26.0,26.0,26.0,26.0,0.06477777777777782,0.21530000000000005,-0.078125,287.811,-2.6575,-2.4796666666666667,-1.6419000000000001,-1.5096,-161.01999999999998,215.61,190.22975,0.0,0.0,0.0,0.0,0.06826666666666659,-5.498166666666667,-5.498166666666667,-0.8443,-0.7710000000000001,0.024777777777777787,-0.28400000000000003,69.429,0.04985714285714282,-0.4734333333333333,-0.4325000000000001,100.0,1.0,1.0,214.0966666666667,0.0,0.0,0.0,0.0,0.0,0.0,0.0,9074.8,0.0,55.0,5.0,249.92666666666668,0.0,0.0,0.0,0.0,0.0,0.0,1.0,0.0,1.7040000000000006,1.7040000000000006,0.0,0.0,0.0,55.0,616.79921,10000.0,85.000001,85.000001,85.000001,85.000001,395.0,0.0,0.0,0.0,1.0,333.33500000000004,41.84,41.84,48.782,48.782,34.0,-26.145,29.008,-26.252499999999998,31.33,0.0,1781.809,-0.375,100.0,36.213,36.585,42.514,43.454,0.0,0.0,100.0,0.0,0.0,0.0,0.0,3893.125,3810.1,3968.25,4177.1,303.29333333333335,302.714,315.4575,314.5575,22.1939,20.8619,22.42522222222222,21.7245,314.999998,314.999998,324.999988,324.999988,99.55935714285714,99.51001666666667,99.58912857142857,99.55634285714285,0.15625,-0.05133333333333323,-0.06725000000000003,0.16674999999999995,-0.03499999999999659,-0.046666666666666856,1.5354999999999999,1.5259999999999998,39.712,31.387,41.158,36.778,56.561,37.9745,66.0795,56.063,54.598,36.937,64.5295,54.1995,53.852000000000004,36.4295,64.5025,53.5295,-0.15600000000000003,-0.09400000000000008,0.10217000000000001,0.10885500000000001,0.0,217.335,217.35000000000002,214.0966666666667,214.0966666666667,0.0,0.0
35,0.0,0.0,0.0,1.0,1.0,0.0,0.0,1.0,0.0,100.0,1.0,1.1856,26.0,0.0,0.0,0.0,59.999996,0.0,26.0,26.0,26.0,26.0,0.04677777777777781,0.23040000000000016,-0.0731,287.964,-2.6936999999999998,-2.472777777777778,-1.6320000000000001,-1.474,-157.47,215.60250000000002,190.200625,0.0,0.0,0.0,0.0,0.07029999999999992,-5.498166666666667,-5.498166666666667,-0.8902,-0.6950000000000001,0.016000000000000014,-0.17300000000000004,69.541,0.052714285714285936,-0.4876666666666667,-0.5800000000000001,100.0,1.0,1.0,214.5233333333333,0.0,0.0,0.0,0.0,0.0,0.0,0.0,9092.9,0.0,55.0,5.0,250.32999999999998,1.0,0.0,0.0,0.0,0.0,0.0,1.0,0.0,1.754999999999999,1.754999999999999,0.0,0.0,1.0,55.0,616.79921,10000.0,85.000001,85.000001,85.000001,85.000001,395.0,0.0,0.0,0.0,1.0,333.33500000000004,41.641,41.641,48.294,48.294,34.0,-25.6025,32.18,-26.2125,28.59,0.0,1781.757,-0.3200000000000003,100.0,36.056,36.511,42.343,42.973,0.0,0.0,100.0,0.0,0.0,0.0,0.0,3782.75,4126.7,4042.625,3916.8,303.39733333333334,301.8383333333333,315.266,315.2975,22.2039,20.8692,22.436555555555557,21.734,314.999998,314.999998,324.999988,324.999988,99.55938571428571,99.51001666666667,99.58928571428571,99.5565,0.16274999999999995,-0.04166666666666674,-0.06174999999999997,0.17500000000000027,-0.051666666666669414,-0.051666666666669414,1.6,1.569,39.775,31.432000000000002,41.229,36.8375,56.562,38.0245,66.0935,56.1135,54.598,36.9835,64.5415,54.2485,53.849999999999994,36.4745,64.51050000000001,53.5775,-0.14800000000000002,-0.10000000000000009,0.11073000000000001,0.10039500000000001,0.0,217.66500000000002,217.70499999999998,214.5233333333333,214.5233333333333,0.0,0.0
