,ABS Active,ABS Enabled,AID Allow Tire Blankets,AID Auto Blip,AID Auto Clutch,AID Auto Shift,AID Fuel Rate,AID Ideal Line,AID Mech Damage,AID Stability,AID Tire Wear Rate,Air Density,Air Temp,Ballast,Best Lap Delta,Best Lap Time,Brake Bias,Brake Pos,Brake Temp FL,Brake Temp FR,Brake Temp RL,Brake Temp RR,CG Accel Lateral,CG Accel Longitudinal,CG Accel Vertical,CG Height,Camber FL,Camber FR,Camber RL,Camber RR,Car Coord X,Car Coord Y,Car Coord Z,Car Damage Front,Car Damage Left,Car Damage Rear,Car Damage Right,Car Pos Norm,Caster FL,Caster FR,Chassis Pitch Angle,Chassis Pitch Rate,Chassis Roll Angle,Chassis Roll Rate,Chassis Velocity X,Chassis Velocity Y,Chassis Velocity Z,Chassis Yaw Rate,Clutch Pos,DRS Active,DRS Available,Drive Train Speed,ERS Heat Charging,ERS Is Charging,ERS Max Energy,ERS Power Level,ERS Recovery Level,Engine Brake Setting,Engine Limiter,Engine RPM,Flags,Fuel Level,Gear,Ground Speed,HR Sample Clock,In Pit,KERS Charge,KERS Deployed Energy,KERS Input,KERS Max Energy,LR Sample Clock,Lap Invalidated,Lap Time,Lap Time2,Last Lap Time,Last Sector Time,MR Sample Clock,Max Fuel,Max Power,Max RPM,Max Sus Travel FL,Max Sus Travel FR,Max Sus Travel RL,Max Sus Travel RR,Max Torque,Max Turbo Boost,Num Tires Off Track,Penalties Enabled,Position,Raw Data Sample Rate,Ride Height FL,Ride Height FR,Ride Height RL,Ride Height RR,Road Temp,Self Align Torque FL,Self Align Torque FR,Self Align Torque RL,Self Align Torque RR,Session Lap Count,Session Time Left,Steering Angle,Surface Grip,Suspension Travel FL,Suspension Travel FR,Suspension Travel RL,Suspension Travel RR,TC Active,TC Enabled,Throttle Pos,Tire Dirt Level FL,Tire Dirt Level FR,Tire Dirt Level RL,Tire Dirt Level RR,Tire Load FL,Tire Load FR,Tire Load RL,Tire Load RR,Tire Loaded Radius FL,Tire Loaded Radius FR,Tire Loaded Radius RL,Tire Loaded Radius RR,Tire Pressure FL,Tire Pressure FR,Tire Pressure RL,Tire Pressure RR,Tire Radius FL,Tire Radius FR,Tire Radius RL,Tire Radius RR,Tire Rubber Grip FL,Tire Rubber Grip FR,Tire Rubber Grip RL,Tire Rubber Grip RR,Tire Slip Angle FL,Tire Slip Angle FR,Tire Slip Angle RL,Tire Slip Angle RR,Tire Slip Ratio FL,Tire Slip Ratio FR,Tire Slip Ratio RL,Tire Slip Ratio RR,Tire Temp Core FL,Tire Temp Core FR,Tire Temp Core RL,Tire Temp Core RR,Tire Temp Inner FL,Tire Temp Inner FR,Tire Temp Inner RL,Tire Temp Inner RR,Tire Temp Middle FL,Tire Temp Middle FR,Tire Temp Middle RL,Tire Temp Middle RR,Tire Temp Outer FL,Tire Temp Outer FR,Tire Temp Outer RL,Tire Temp Outer RR,Toe In FL,Toe In FR,Toe In RL,Toe In RR,Turbo Boost,Wheel Angular Speed FL,Wheel Angular Speed FR,Wheel Angular Speed RL,Wheel Angular Speed RR,Wind Direction,Wind Speed
0,0.0,0.0,0.0,1.0,1.0,0.0,0.0,1.0,0.0,100.0,1.0,1.1856,26.0,0.0,0.0,0.0,59.99999,0.0,26.0,26.0,26.0,26.0,-0.09188888888888888,0.28510000000000013,0.15595,297.165,-2.7981,-2.5806,-1.5069,-1.5509,-275.65,216.0975,190.99075,0.0,0.0,0.0,0.0,0.0015999999999999348,-5.498166666666667,-5.498166666666667,-0.4263,2.226,-0.022888888888888737,-0.8320000000000001,65.384,-0.049600000000000005,-0.06241666666666667,0.952,100.0,1.0,1.0,201.95666666666668,0.0,0.0,0.0,0.0,0.0,0.0,0.0,8560.1,0.0,55.0,5.0,235.35000000000002,0.0,0.0,0.0,0.0,0.0,0.0,0.0,0.0,0.0030000000000001137,0.0030000000000001137,0.0,0.0,0.0,55.0,616.79921,10000.0,85.0,85.0,85.0,85.0,395.0,0.0,0.0,0.0,1.0,20.0,59.464,59.464,49.53,49.53,34.0,-27.406,21.798000000000002,-29.11,21.8625,0.0,1783.365,0.9150000000000009,100.0,21.173000000000002,20.6945,40.984,40.679,0.0,0.0,100.0,0.0,0.0,0.0,0.0,2886.0,3201.5,3944.222222222222,3783.2,306.02233333333334,304.453,315.32875,315.46775,21.69077777777778,20.412,21.7275,21.3137,314.99999,314.99999,324.99998,324.99998,99.55775714285714,99.50576666666667,99.56134285714286,99.54434285714285,-0.046499999999999986,-0.11125000000000007,-0.17400000000000002,0.03849999999999998,-0.07666666666666799,-0.054999999999999716,1.564,1.6036666666666668,36.567,28.575,36.797,34.210499999999996,55.541,32.8795,57.7735,51.288,53.409,32.189499999999995,56.42,49.678,52.509,31.823999999999998,56.3515,49.12,0.02300000000000013,-0.10349999999999993,0.10526,0.10534,0.0,204.92000000000002,204.82,201.95666666666668,201.95666666666668,0.0,0.0
1,0.0,0.0,0.0,1.0,1.0,0.0,0.0,1.0,0.0,100.0,1.0,1.1856,26.0,0.0,0.0,0.0,59.999996,0.0,26.0,26.0,26.0,26.0,-0.13844444444444445,0.3295000000000001,0.13065000000000002,296.448,-2.73805,-2.9017,-1.53015,-1.3893,-272.32,216.1,190.97075,0.0,0.0,0.0,0.0,0.003566666666666607,-5.498166666666667,-5.498166666666667,-0.29250000000000004,-0.09266666666666667,-0.06533333333333369,-0.8739999999999999,65.554,-0.055,0.03186666666666667,1.1400000000000006,100.0,1.0,1.0,201.93666666666667,0.0,0.0,0.0,0.0,0.0,0.0,0.0,8559.3,0.0,55.0,5.0,235.95666666666668,1.0,0.0,0.0,0.0,0.0,0.0,0.0,0.0,0.053999999999998494,0.053999999999998494,0.0,0.0,1.0,55.0,616.79921,10000.0,85.000001,85.000001,85.000001,85.000001,395.0,0.0,0.0,0.0,1.0,333.33500000000004,63.248,63.248,46.509,46.509,34.0,-18.94,11.16,-38.11,28.5375,0.0,1783.313,1.0899999999999999,100.0,21.15,20.3455,43.703,42.72,0.0,0.0,100.0,0.0,0.0,0.0,0.0,2097.0,1712.6999999999998,4701.333333333333,5018.200000000001,308.424,309.44725,313.31375,312.2615,21.699666666666666,20.41585,21.7381,21.3229,314.999998,314.999998,324.999988,324.999988,99.55777142857143,99.50576666666667,99.5615,99.5445,-0.06474999999999986,-0.13775000000000004,-0.17666666666666667,0.030333333333333323,-0.04833333333333201,-0.03999999999999915,1.3236666666666668,1.3683333333333334,36.623000000000005,28.599,36.863,34.268,55.516999999999996,32.91,57.826499999999996,51.35766666666667,53.387,32.218,56.4695,49.74466666666667,52.486000000000004,31.8515,56.3985,49.18533333333333,0.0515000000000001,-0.12200000000000011,0.10512,0.10914000000000001,0.0,205.41500000000002,205.315,201.93666666666667,201.93666666666667,0.0,0.0
2,0.0,0.0,0.0,1.0,1.0,0.0,0.0,1.0,0.0,100.0,1.0,1.1856,26.0,0.0,0.0,0.0,59.999996,0.0,26.0,26.0,26.0,26.0,-0.1431111111111111,0.30990000000000006,-0.19895000000000002,297.455,-2.696,-2.8908,-1.49015,-1.6606,-268.77,216.1,190.951,0.0,0.0,0.0,0.0,0.005599999999999938,-5.498166666666667,-5.498166666666667,-0.3774,0.054,-0.057111111111111335,2.569,65.71600000000001,-0.0693,-0.05123333333333334,1.7120000000000015,100.0,1.0,1.0,203.08333333333331,0.0,0.0,0.0,0.0,0.0,0.0,0.0,8608.0,0.0,55.0,5.0,236.54333333333335,0.0,0.0,0.0,0.0,0.0,0.0,0.0,0.0,0.10800000000000054,0.10800000000000054,0.0,0.0,0.0,55.0,616.79921,10000.0,85.000001,85.000001,85.000001,85.000001,395.0,0.0,0.0,0.0,1.0,166.665,61.371,61.371,49.5,49.5,34.0,-25.908,15.367999999999999,-28.436666666666664,19.990000000000002,0.0,1783.261,1.1750000000000007,100.0,21.464,19.9935,43.475,42.102000000000004,0.0,0.0,100.0,0.0,0.0,0.0,0.0,2680.6666666666665,2286.6,3700.222222222222,3618.2,306.522,307.57675,315.76375,315.977,21.709222222222223,20.4196,21.7489,21.332,314.999998,314.999998,324.999988,324.999988,99.55778571428571,99.50578333333333,99.56165714285714,99.54464285714286,-0.08650000000000002,-0.14924999999999988,-0.21566666666666667,0.0033333333333334103,-0.07166666666666544,-0.046666666666666856,1.6480000000000001,1.7146666666666666,36.683,28.622666666666667,36.931,34.325,55.495000000000005,32.939499999999995,57.872,51.41733333333333,53.366,32.245,56.5125,49.802,52.465,31.877,56.4385,49.24133333333333,0.05449999999999999,-0.13250000000000006,0.10403000000000001,0.104285,0.0,205.89499999999998,205.755,203.08333333333331,203.08333333333331,0.0,0.0
3,0.0,0.0,0.0,1.0,1.0,0.0,0.0,1.0,0.0,100.0,1.0,1.1856,26.0,0.0,0.0,0.0,59.999996,0.0,26.0,26.0,26.0,26.0,-0.14355555555555555,0.3387,0.0219,296.921,-2.82415,-2.7925,-1.5157,-1.5955,-265.61,216.0975,190.93225,0.0,0.0,0.0,0.0,0.007433333333333292,-5.498166666666667,-5.498166666666667,-0.32280000000000003,0.9856666666666667,-0.01966666666666672,-1.002,65.872,-0.08900000000000001,0.015300000000000001,1.4220000000000006,100.0,1.0,1.0,203.14333333333332,0.0,0.0,0.0,0.0,0.0,0.0,0.0,8610.5,0.0,55.0,5.0,237.10333333333335,1.0,0.0,0.0,0.0,0.0,0.0,0.0,0.0,0.1559999999999988,0.1559999999999988,0.0,0.0,1.0,55.0,616.79921,10000.0,85.000001,85.000001,85.000001,85.000001,395.0,0.0,0.0,0.0,1.0,166.665,62.592,62.592,46.936,46.936,34.0,-21.396,13.101999999999997,-37.17,24.8275,0.0,1783.214,1.2349999999999994,100.0,21.019,20.183,43.262,42.261,0.0,0.0,100.0,0.0,0.0,0.0,0.0,2211.0,2092.7,4506.777777777777,4348.1,308.03833333333336,307.979,313.8695,314.067,21.717666666666666,20.42335,21.758499999999998,21.3403,314.999998,314.999998,324.999988,324.999988,99.55778571428571,99.5058,99.56178571428572,99.54477142857142,-0.09099999999999997,-0.1632499999999999,-0.212,0.0015000000000000568,-0.051666666666669414,-0.06333333333333258,1.4646666666666666,1.5183333333333335,36.735,28.646,36.991,34.376999999999995,55.474000000000004,32.972,57.9135,51.47866666666667,53.346000000000004,32.2745,56.5515,49.86066666666667,52.445,31.9055,56.475,49.299,0.052999999999999936,-0.12949999999999995,0.10704500000000002,0.10926000000000001,0.0,206.41500000000002,206.305,203.14333333333332,203.14333333333332,0.0,0.0
4,0.0,0.0,0.0,1.0,1.0,0.0,0.0,1.0,0.0,100.0,1.0,1.1856,26.0,0.0,0.0,0.0,59.999996,0.0,26.0,26.0,26.0,26.0,-0.16566666666666666,0.31489999999999996,-0.02545,297.195,-2.7522,-2.8999,-1.5289000000000001,-1.6203,-262.25,216.09,190.91275,0.0,0.0,0.0,0.0,0.009399999999999964,-5.498166666666667,-5.498166666666667,-0.3534,-1.0636666666666668,-0.08977777777777796,-0.661,66.03,-0.09555000000000001,-0.020966666666666668,1.5199999999999996,100.0,1.0,1.0,203.76,0.0,0.0,0.0,0.0,0.0,0.0,0.0,8636.7,0.0,55.0,5.0,237.67666666666668,0.0,0.0,0.0,0.0,0.0,0.0,0.0,0.0,0.20700000000000074,0.20700000000000074,0.0,0.0,0.0,55.0,616.79921,10000.0,85.000001,85.000001,85.000001,85.000001,395.0,0.0,0.0,0.0,1.0,166.665,62.378,62.378,47.455,47.455,34.0,-24.631999999999998,14.087999999999997,-34.593333333333334,21.3325,0.0,1783.162,1.3550000000000004,100.0,20.82,19.674,44.025999999999996,42.453,0.0,0.0,100.0,0.0,0.0,0.0,0.0,2512.222222222222,2207.8,4196.555555555556,3770.1,307.2506666666667,307.86375,314.46975,315.43025,21.726333333333333,20.42705,21.7689,21.3492,314.999998,314.999998,324.999988,324.999988,99.5578,99.50581666666666,99.56192857142857,99.54491428571428,-0.10525000000000007,-0.17300000000000004,-0.2175,0.005166666666666542,-0.04833333333333201,-0.051666666666669414,1.5073333333333334,1.556,36.79,28.669,37.056,34.4325,55.45,33.003,57.9615,51.540333333333336,53.324,32.303,56.5965,49.919333333333334,52.422,31.932499999999997,56.516999999999996,49.35633333333333,0.06600000000000006,-0.14100000000000001,0.10957000000000001,0.10870500000000001,0.0,206.84,206.715,203.76,203.76,0.0,0.0
5,0.0,0.0,0.0,1.0,1.0,0.0,0.0,1.0,0.0,100.0,1.0,1.1856,26.0,0.0,0.0,0.0,59.999996,0.0,26.0,26.0,26.0,26.0,-0.18022222222222223,0.3176000000000001,-0.03445,297.348,-2.7603,-2.8747,-1.50655,-1.6531,-259.08,216.07999999999998,190.89375,0.0,0.0,0.0,0.0,0.011233333333333317,-5.498166666666667,-5.498166666666667,-0.3523,0.5760000000000001,-0.09566666666666634,0.9100000000000001,66.178,-0.10840000000000001,-0.003166666666666667,1.6240000000000006,100.0,1.0,1.0,204.23666666666668,0.0,0.0,0.0,0.0,0.0,0.0,0.0,8656.9,0.0,55.0,5.0,238.21,1.0,0.0,0.0,0.0,0.0,0.0,0.0,0.0,0.254999999999999,0.254999999999999,0.0,0.0,1.0,55.0,616.79921,10000.0,85.000001,85.000001,85.000001,85.000001,395.0,0.0,0.0,0.0,1.0,166.665,62.653,62.653,47.974000000000004,47.974000000000004,34.0,-24.136,13.744,-34.593333333333334,22.8675,0.0,1783.114,1.1099999999999994,100.0,20.893,19.4655,43.697,41.899,0.0,0.0,100.0,0.0,0.0,0.0,0.0,2458.666666666667,2133.8,4194.777777777777,4089.6000000000004,307.27166666666665,308.09775,314.61125,314.7485,21.73488888888889,20.4306,21.7785,21.3573,314.999998,314.999998,324.999988,324.999988,99.55781428571429,99.50583333333333,99.56207142857143,99.54504285714286,-0.10024999999999995,-0.15999999999999992,-0.22883333333333336,-0.012666666666666604,-0.06833333333332803,-0.07499999999999574,1.5136666666666665,1.5746666666666667,36.843,28.691333333333333,37.116,34.483000000000004,55.432,33.033,58.0035,51.595,53.307,32.3305,56.6355,49.972,52.405,31.9585,56.554,49.407333333333334,0.046499999999999986,-0.1120000000000001,0.10058500000000001,0.1092,0.0,207.36,207.245,204.23666666666668,204.23666666666668,0.0,0.0
6,0.0,0.0,0.0,1.0,1.0,0.0,0.0,1.0,0.0,100.0,1.0,1.1856,26.0,0.0,0.0,0.0,59.999996,0.0,26.0,26.0,26.0,26.0,-0.16166666666666665,0.33499999999999996,0.019375,297.195,-2.72745,-2.9172,-1.542,-1.6084,-255.7,216.065,190.87325,0.0,0.0,0.0,0.0,0.01319999999999999,-5.498166666666667,-5.498166666666667,-0.336,0.15766666666666665,-0.0908888888888888,-0.7949999999999999,66.339,-0.1135,0.010133333333333333,1.4000000000000004,100.0,1.0,1.0,204.64,0.0,0.0,0.0,0.0,0.0,0.0,0.0,8674.0,0.0,55.0,5.0,238.7866666666667,0.0,0.0,0.0,0.0,0.0,0.0,0.0,0.0,0.30600000000000094,0.30600000000000094,0.0,0.0,0.0,55.0,616.79921,10000.0,85.000001,85.000001,85.000001,85.000001,395.0,0.0,0.0,0.0,1.0,166.665,62.851,62.851,47.379,47.379,34.0,-24.168,13.732,-37.10333333333333,21.915,0.0,1783.063,0.7000000000000011,100.0,20.477,19.433,43.824,42.262,0.0,0.0,100.0,0.0,0.0,0.0,0.0,2514.8888888888887,2057.9,4349.888888888889,4091.7,307.2626666666667,308.10425,314.26775,314.649,21.74377777777778,20.4344,21.788899999999998,21.3662,314.999998,314.999998,324.999988,324.999988,99.55781428571429,99.50585,99.56221428571429,99.54518571428571,-0.09474999999999989,-0.15674999999999994,-0.23716666666666666,-0.024333333333333318,-0.07333333333333059,-0.060000000000002274,1.5,1.5316666666666667,36.899,28.715,37.18,34.539,55.412,33.064,58.05,51.65833333333333,53.288,32.3585,56.6795,50.032333333333334,52.385999999999996,31.985500000000002,56.595,49.46633333333333,0.02400000000000002,-0.09200000000000008,0.10641500000000001,0.11203,0.0,207.845,207.715,204.64,204.64,0.0,0.0
7,0.0,0.0,0.0,1.0,1.0,0.0,0.0,1.0,0.0,100.0,1.0,1.1856,26.0,0.0,0.0,0.0,59.999996,0.0,26.0,26.0,26.0,26.0,-0.15022222222222223,0.2973000000000001,0.0188,297.195,-2.68945,-2.9261,-1.49715,-1.6578,-252.31,216.04500000000002,190.852875,0.0,0.0,0.0,0.0,0.01516666666666655,-5.498166666666667,-5.498166666666667,-0.3422,0.05,-0.08177777777777795,1.0350000000000001,66.495,-0.10735,-0.0019333333333333333,1.0460000000000012,100.0,1.0,1.0,205.16333333333333,0.0,0.0,0.0,0.0,0.0,0.0,0.0,8696.2,0.0,55.0,5.0,239.35000000000002,1.0,0.0,0.0,0.0,0.0,0.0,0.0,0.0,0.3569999999999993,0.3569999999999993,0.0,0.0,1.0,55.0,616.79921,10000.0,85.000001,85.000001,85.000001,85.000001,395.0,0.0,0.0,0.0,1.0,166.665,62.607,62.607,47.806,47.806,34.0,-22.774,15.765999999999998,-33.46666666666667,23.0625,0.0,1783.012,0.39000000000000057,100.0,20.73,19.2155,43.962,42.308,0.0,0.0,100.0,0.0,0.0,0.0,0.0,2468.1111111111113,2227.2,4124.888888888889,4064.2,307.162,307.7435,314.70075,314.74675,21.752666666666666,20.43815,21.7992,21.3751,314.999998,314.999998,324.999988,324.999988,99.55782857142857,99.50585,99.56235714285714,99.54532857142857,-0.06174999999999997,-0.12749999999999995,-0.21833333333333335,-0.010499999999999954,-0.051666666666669414,-0.060000000000002274,1.5,1.5436666666666667,36.954,28.738666666666667,37.245000000000005,34.5945,55.391,33.094,58.096000000000004,51.720666666666666,53.268,32.385999999999996,56.7225,50.092,52.366,32.012,56.635,49.52433333333333,-0.0044999999999999485,-0.06699999999999995,0.101065,0.10315500000000001,0.0,208.31,208.2,205.16333333333333,205.16333333333333,0.0,0.0
8,0.0,0.0,0.0,1.0,1.0,0.0,0.0,1.0,0.0,100.0,1.0,1.1856,26.0,0.0,0.0,0.0,59.999996,0.0,26.0,26.0,26.0,26.0,-0.11033333333333332,0.31089999999999995,0.03535,297.348,-2.7697,-2.8614,-1.4781,-1.6475,-249.11,216.0225,190.8335,0.0,0.0,0.0,0.0,0.017033333333333345,-5.498166666666667,-5.498166666666667,-0.3422,-0.49133333333333334,-0.06755555555555581,0.7280000000000002,66.645,-0.0932,0.009833333333333333,0.5400000000000009,100.0,1.0,1.0,205.54000000000002,0.0,0.0,0.0,0.0,0.0,0.0,0.0,8712.1,0.0,55.0,5.0,239.88666666666666,0.0,0.0,0.0,0.0,0.0,0.0,0.0,0.0,0.40500000000000114,0.40500000000000114,0.0,0.0,0.0,55.0,616.79921,10000.0,85.000001,85.000001,85.000001,85.000001,395.0,0.0,0.0,0.0,1.0,333.33500000000004,63.339,63.339,47.134,47.134,34.0,-20.482,15.86,-32.93,25.5,0.0,1782.962,0.17999999999999972,100.0,20.296,19.0905,43.996,42.391,0.0,0.0,100.0,0.0,0.0,0.0,0.0,2265.4444444444443,2229.0,4219.0,4190.9,307.9313333333333,307.8405,314.4345,314.41875,21.76088888888889,20.4417,21.8089,21.383499999999998,314.999998,314.999998,324.999988,324.999988,99.55782857142857,99.50586666666666,99.5625,99.54545714285715,-0.04774999999999996,-0.10699999999999998,-0.19216666666666665,0.01766666666666672,-0.05333333333332746,-0.07666666666666799,1.4833333333333334,1.5016666666666667,37.006,28.760666666666665,37.306,34.6465,55.366,33.123,58.1415,51.782333333333334,53.244,32.413,56.7655,50.150999999999996,52.342,32.0375,56.675,49.582,-0.020499999999999963,-0.044499999999999984,0.10461500000000001,0.10377000000000002,0.0,208.74,208.69,205.54000000000002,205.54000000000002,0.0,0.0
9,0.0,0.0,0.0,1.0,1.0,0.0,0.0,1.0,0.0,100.0,1.0,1.1856,26.0,0.0,0.0,0.0,59.999996,0.0,26.0,26.0,26.0,26.0,-0.10377777777777777,0.3086,0.037425,297.104,-2.69565,-2.8789,-1.5327000000000002,-1.6098,-245.91,216.0,190.81375,0.0,0.0,0.0,0.0,0.018899999999999917,-5.498166666666667,-5.498166666666667,-0.34590000000000004,0.581,-0.07144444444444442,0.8199999999999998,66.78999999999999,-0.0763,0.010833333333333334,0.4540000000000006,100.0,1.0,1.0,206.09,0.0,0.0,0.0,0.0,0.0,0.0,0.0,8735.4,0.0,55.0,5.0,240.41,1.0,0.0,0.0,0.0,0.0,0.0,0.0,0.0,0.4529999999999994,0.4529999999999994,0.0,0.0,1.0,55.0,616.79921,10000.0,85.000001,85.000001,85.000001,85.000001,395.0,0.0,0.0,0.0,1.0,166.665,62.347,62.347,48.035,48.035,34.0,-22.482,17.169999999999998,-31.54,25.4075,0.0,1782.916,-0.11500000000000021,100.0,20.622,19.384,43.656,42.358000000000004,0.0,0.0,100.0,0.0,0.0,0.0,0.0,2580.5555555555557,2297.3,4117.111111111111,4129.2,306.8686666666667,307.5565,314.78925,314.6515,21.769222222222222,20.44545,21.8185,21.3918,314.999998,314.999998,324.999988,324.999988,99.55784285714286,99.50588333333333,99.56262857142858,99.54558571428572,-0.01550000000000007,-0.08824999999999994,-0.17466666666666666,0.038999999999999924,-0.051666666666669414,-0.06499999999999773,1.514,1.5426666666666666,37.058,28.784,37.364999999999995,34.698499999999996,55.345,33.15,58.1795,51.83566666666667,53.224999999999994,32.4375,56.8005,50.202,52.323,32.061,56.708,49.632,-0.03949999999999998,-0.03550000000000009,0.10497000000000001,0.11276000000000001,0.0,209.2,209.155,206.09,206.09,0.0,0.0
10,0.0,0.0,0.0,1.0,1.0,0.0,0.0,1.0,0.0,100.0,1.0,1.1856,26.0,0.0,0.0,0.0,59.999996,0.0,26.0,26.0,26.0,26.0,-0.052333333333333336,0.3216000000000001,-0.008325,297.028,-2.76975,-2.8609999999999998,-1.5096,-1.5894,-242.5,215.97,190.793125,0.0,0.0,0.0,0.0,0.02089999999999992,-5.498166666666667,-5.498166666666667,-0.3262,-0.382,-0.03000000000000025,0.363,66.949,-0.0557,0.02,0.08200000000000074,100.0,1.0,1.0,206.39333333333332,0.0,0.0,0.0,0.0,0.0,0.0,0.0,8748.2,0.0,55.0,5.0,240.98333333333335,0.0,0.0,0.0,0.0,0.0,0.0,1.0,0.0,0.5040000000000013,0.5040000000000013,0.0,0.0,0.0,55.0,616.79921,10000.0,85.000001,85.000001,85.000001,85.000001,395.0,0.0,0.0,0.0,1.0,333.33500000000004,63.354,63.354,46.722,46.722,34.0,-18.874,16.012,-33.54333333333334,27.200000000000003,0.0,1782.863,-0.3100000000000005,100.0,20.304,19.494,43.975,43.127,0.0,0.0,100.0,0.0,0.0,0.0,0.0,2264.0,2068.7,4399.666666666667,4283.5,308.035,308.127,314.096,314.142,21.778,20.4493,21.8289,21.4009,314.999998,314.999998,324.999988,324.999988,99.55784285714286,99.50588333333333,99.56278571428571,99.54574285714286,0.00550000000000006,-0.05824999999999991,-0.16433333333333336,0.046666666666666856,-0.045000000000001705,-0.03333333333333144,1.463,1.4556666666666667,37.113,28.808,37.43,34.7555,55.318,33.179,58.229,51.904333333333334,53.2,32.464,56.847,50.26766666666666,52.297,32.086,56.7515,49.696,-0.05599999999999994,-0.0044999999999999485,0.10474000000000001,0.10222,0.0,209.65,209.625,206.39333333333332,206.39333333333332,0.0,0.0
11,0.0,0.0,0.0,1.0,1.0,0.0,0.0,1.0,0.0,100.0,1.0,1.1856,26.0,0.0,0.0,0.0,59.999996,0.0,26.0,26.0,26.0,26.0,-0.035333333333333335,0.3075000000000001,-0.059925000000000006,297.485,-2.7842,-2.8374,-1.5693000000000001,-1.5733000000000001,-239.07999999999998,215.9425,190.77225,0.0,0.0,0.0,0.0,0.022599999999999953,-5.498166666666667,-5.498166666666667,-0.36210000000000003,-0.20233333333333334,-0.002888888888889163,0.5870000000000002,67.1,-0.0332,-0.0032166666666666667,-0.19200000000000017,100.0,1.0,1.0,207.12,0.0,0.0,0.0,0.0,0.0,0.0,0.0,8779.0,0.0,55.0,5.0,241.53,1.0,0.0,0.0,0.0,0.0,0.0,1.0,0.0,0.5549999999999997,0.5549999999999997,0.0,0.0,1.0,55.0,616.79921,10000.0,85.000001,85.000001,85.000001,85.000001,395.0,0.0,0.0,0.0,1.0,333.33500000000004,62.851,62.851,48.111000000000004,48.111000000000004,34.0,-18.804000000000002,19.198,-27.156666666666666,25.925,0.0,1782.813,-0.33999999999999986,100.0,20.151,19.5255,43.536,43.037,0.0,0.0,100.0,0.0,0.0,0.0,0.0,2307.222222222222,2376.2,3853.4444444444443,3962.7,307.782,307.32425,315.4555,315.0285,21.786555555555555,20.45325,21.839,21.4098,314.999998,314.999998,324.999988,324.999988,99.55784285714286,99.50588333333333,99.56291428571429,99.54587142857143,0.03125,-0.03400000000000003,-0.13033333333333336,0.08699999999999997,-0.04333333333332945,-0.05833333333333002,1.5926666666666667,1.5896666666666666,37.166,28.833,37.494,34.8115,55.293,33.2055,58.2665,51.961666666666666,53.176,32.4885,56.8825,50.32266666666666,52.272999999999996,32.1095,56.784,49.74966666666667,-0.06399999999999995,-0.0050000000000001155,0.10735000000000001,0.111435,0.0,210.10500000000002,210.11,207.12,207.12,0.0,0.0
12,0.0,0.0,0.0,1.0,1.0,0.0,0.0,1.0,0.0,100.0,1.0,1.1856,26.0,0.0,0.0,0.0,59.999996,0.0,26.0,26.0,26.0,26.0,-0.008888888888888889,0.31500000000000017,0.0347,296.906,-2.813,-2.8203,-1.54325,-1.5892,-235.66,215.9125,190.75025,0.0,0.0,0.0,0.0,0.025466666666666526,-5.498166666666667,-5.498166666666667,-0.3477,0.3243333333333333,-0.011777777777777665,-0.7,67.257,-0.012750000000000001,0.024783333333333334,-0.2060000000000004,100.0,1.0,1.0,207.41,0.0,0.0,0.0,0.0,0.0,0.0,0.0,8791.4,0.0,55.0,5.0,242.09333333333336,0.0,0.0,0.0,0.0,0.0,0.0,1.0,0.0,0.6059999999999981,0.6059999999999981,0.0,0.0,0.0,55.0,616.79921,10000.0,85.000001,85.000001,85.000001,85.000001,395.0,0.0,0.0,0.0,1.0,166.665,62.683,62.683,46.906,46.906,34.0,-20.34,18.772,-30.966666666666665,29.372500000000002,0.0,1782.763,-0.21999999999999886,100.0,19.91,19.897,43.379,43.133,0.0,0.0,100.0,0.0,0.0,0.0,0.0,2442.333333333333,2325.2,4337.0,4232.1,307.5126666666667,307.3135,314.3205,314.3205,21.79511111111111,20.457349999999998,21.8492,21.4188,314.999998,314.999998,324.999988,324.999988,99.55784285714286,99.50588333333333,99.56307142857143,99.54601428571429,0.024249999999999883,-0.03624999999999989,-0.12283333333333334,0.09733333333333327,-0.060000000000002274,-0.05333333333332746,1.4923333333333333,1.482,37.22,28.858333333333334,37.558,34.867,55.266,33.2335,58.31,52.02333333333333,53.150999999999996,32.5145,56.923,50.382,52.248000000000005,32.1345,56.822,49.808,-0.05449999999999999,-0.015000000000000124,0.10827,0.11185,0.0,210.625,210.625,207.41,207.41,0.0,0.0
13,0.0,0.0,0.0,1.0,1.0,0.0,0.0,1.0,0.0,100.0,1.0,1.1856,26.0,0.0,0.0,0.0,59.999996,0.0,26.0,26.0,26.0,26.0,0.02011111111111111,0.30590000000000006,0.040175,296.6,-2.78825,-2.817,-1.5768499999999999,-1.5779,-232.43,215.8825,190.729875,0.0,0.0,0.0,0.0,0.026733333333333387,-5.498166666666667,-5.498166666666667,-0.3395,-0.065,-0.009777777777777885,-0.476,67.402,-0.0023,0.01845,-0.22799999999999976,100.0,1.0,1.0,207.8,0.0,0.0,0.0,0.0,0.0,0.0,0.0,8807.9,0.0,55.0,5.0,242.61666666666667,1.0,0.0,0.0,0.0,0.0,0.0,1.0,0.0,0.6539999999999999,0.6539999999999999,0.0,0.0,1.0,55.0,616.79921,10000.0,85.000001,85.000001,85.000001,85.000001,395.0,0.0,0.0,0.0,1.0,166.665,62.531,62.531,46.814,46.814,34.0,-19.214000000000002,19.552,-30.669999999999998,30.695,0.0,1782.716,-0.5749999999999993,100.0,20.129,20.029,43.649,43.634,0.0,0.0,100.0,0.0,0.0,0.0,0.0,2454.1111111111113,2281.7,4326.555555555556,4324.6,307.4583333333333,307.44225,314.31275,314.068,21.80322222222222,20.461199999999998,21.859,21.4274,314.999998,314.999998,324.999988,324.999988,99.55785714285715,99.50588333333333,99.5632,99.54614285714285,0.05975000000000019,0.007000000000000117,-0.108,0.10899999999999999,-0.06833333333332803,-0.04833333333333201,1.4809999999999999,1.4763333333333333,37.269999999999996,28.882666666666665,37.617999999999995,34.921,55.242999999999995,33.2605,58.3515,52.084666666666664,53.129999999999995,32.539,56.962,50.440666666666665,52.227000000000004,32.1575,56.858000000000004,49.86533333333333,-0.07750000000000001,0.01849999999999996,0.10495000000000002,0.11451000000000001,0.0,211.07,211.065,207.8,207.8,0.0,0.0
14,0.0,0.0,0.0,1.0,1.0,0.0,0.0,1.0,0.0,100.0,1.0,1.1856,26.0,0.0,0.0,0.0,59.999996,0.0,26.0,26.0,26.0,26.0,0.025666666666666667,0.29679999999999995,-0.01315,296.844,-2.81035,-2.7659,-1.58155,-1.5535999999999999,-228.98,215.85250000000002,190.708625,0.0,0.0,0.0,0.0,0.02873333333333339,-5.498166666666667,-5.498166666666667,-0.3487,-0.08833333333333333,0.018111111111110967,1.259,67.555,0.00825,0.008033333333333333,-0.492,100.0,1.0,1.0,208.3466666666667,0.0,0.0,0.0,0.0,0.0,0.0,0.0,8831.1,0.0,55.0,5.0,243.16333333333336,0.0,0.0,0.0,0.0,0.0,0.0,1.0,0.0,0.7049999999999983,0.7049999999999983,0.0,0.0,0.0,55.0,616.79921,10000.0,85.000001,85.000001,85.000001,85.000001,395.0,0.0,0.0,0.0,1.0,166.665,62.668,62.668,46.997,46.997,34.0,-16.976,21.14,-27.383333333333333,30.240000000000002,0.0,1782.665,-0.6649999999999991,100.0,20.165,19.933,43.706,43.733000000000004,0.0,0.0,100.0,0.0,0.0,0.0,0.0,2234.777777777778,2460.8,4070.8888888888887,4257.9,307.953,307.082,314.86675,314.33225,21.811777777777777,20.4653,21.8692,21.4365,314.999998,314.999998,324.999988,324.999988,99.55785714285715,99.5059,99.56334285714286,99.5463,0.07925000000000004,0.019750000000000156,-0.08633333333333333,0.12183333333333324,-0.04333333333332945,-0.061666666666667425,1.5216666666666665,1.4976666666666667,37.324,28.908,37.682,34.978,55.219,33.288,58.3935,52.14833333333333,53.107,32.564499999999995,57.001,50.501666666666665,52.203,32.1825,56.894,49.925,-0.08399999999999996,0.021499999999999964,0.10432500000000001,0.10543500000000001,0.0,211.5,211.535,208.3466666666667,208.3466666666667,0.0,0.0
15,0.0,0.0,0.0,1.0,1.0,0.0,0.0,1.0,0.0,100.0,1.0,1.1856,26.0,0.0,0.0,0.0,59.999996,0.0,26.0,26.0,26.0,26.0,0.058555555555555555,0.31720000000000015,-0.039225,296.844,-2.8243,-2.7809,-1.6056,-1.5584,-225.53,215.825,190.687,0.0,0.0,0.0,0.0,0.03073333333333339,-5.498166666666667,-5.498166666666667,-0.33890000000000003,0.24,0.04122222222222205,-0.722,67.707,0.0224,0.026850000000000002,-0.5479999999999992,100.0,1.0,1.0,208.79000000000002,0.0,0.0,0.0,0.0,0.0,0.0,0.0,8849.8,0.0,55.0,5.0,243.71333333333334,1.0,0.0,0.0,0.0,0.0,0.0,1.0,0.0,0.7560000000000002,0.7560000000000002,0.0,0.0,1.0,55.0,616.79921,10000.0,85.000001,85.000001,85.000001,85.000001,395.0,0.0,0.0,0.0,1.0,166.665,62.912,62.912,46.967,46.967,34.0,-16.688,19.976,-27.313333333333333,31.8375,0.0,1782.614,-0.5800000000000001,100.0,19.926000000000002,20.1575,43.442,43.979,0.0,0.0,100.0,0.0,0.0,0.0,0.0,2218.333333333333,2296.2,4120.444444444444,4344.9,308.18733333333336,307.31725,314.84275,313.9885,21.82022222222222,20.46945,21.8793,21.4456,314.999998,314.999998,324.999988,324.999988,99.55785714285715,99.5059,99.56348571428572,99.54644285714286,0.07975000000000021,0.020500000000000185,-0.0735,0.13183333333333325,-0.054999999999999716,-0.04999999999999716,1.5236666666666667,1.4913333333333334,37.376999999999995,28.933999999999997,37.745999999999995,35.035,55.194,33.3165,58.4345,52.21233333333333,53.084,32.5905,57.039,50.563,52.18,32.207499999999996,56.929,49.98533333333333,-0.07850000000000001,0.021499999999999964,0.101665,0.11094500000000002,0.0,212.01,212.03,208.79000000000002,208.79000000000002,0.0,0.0
16,0.0,0.0,0.0,1.0,1.0,0.0,0.0,1.0,0.0,100.0,1.0,1.1856,26.0,0.0,0.0,0.0,59.999996,0.0,26.0,26.0,26.0,26.0,0.050444444444444445,0.30010000000000003,-0.023200000000000002,296.814,-2.88445,-2.7324,-1.5809000000000002,-1.5579,-222.28,215.7975,190.666125,0.0,0.0,0.0,0.0,0.0326333333333334,-5.498166666666667,-5.498166666666667,-0.3564,-0.651,0.02877777777777779,-1.142,67.85,0.0307,0.01405,-0.5020000000000007,100.0,1.0,1.0,209.22333333333333,0.0,0.0,0.0,0.0,0.0,0.0,0.0,8868.2,0.0,55.0,5.0,244.23000000000002,0.0,0.0,0.0,0.0,0.0,0.0,1.0,0.0,0.8039999999999985,0.8039999999999985,0.0,0.0,0.0,55.0,616.79921,10000.0,85.000001,85.000001,85.000001,85.000001,395.0,0.0,0.0,0.0,1.0,333.33500000000004,62.759,62.759,46.707,46.707,34.0,-18.128,20.558,-26.883333333333333,30.6075,0.0,1782.563,-0.4800000000000004,100.0,19.621,20.1375,43.69,44.081,0.0,0.0,100.0,0.0,0.0,0.0,0.0,2359.666666666667,2402.2,4121.666666666667,4166.4,307.87333333333333,307.095,314.8195,314.423,21.828,20.47335,21.8891,21.4542,314.999998,314.999998,324.999988,324.999988,99.55787142857143,99.5059,99.56362857142857,99.54658571428571,0.08199999999999985,0.01924999999999999,-0.07016666666666667,0.13850000000000007,-0.054999999999999716,-0.05833333333333002,1.5133333333333334,1.4886666666666666,37.425,28.958333333333336,37.807,35.088499999999996,55.169,33.3435,58.4755,52.27166666666667,53.059,32.6155,57.0775,50.620333333333335,52.156,32.231,56.9645,50.041333333333334,-0.07450000000000001,0.008499999999999952,0.10500000000000001,0.10321000000000001,0.0,212.425,212.44,209.22333333333333,209.22333333333333,0.0,0.0
17,0.0,0.0,0.0,1.0,1.0,0.0,0.0,1.0,0.0,100.0,1.0,1.1856,26.0,0.0,0.0,0.0,59.999996,0.0,26.0,26.0,26.0,26.0,0.03844444444444444,0.31620000000000004,0.029650000000000003,296.463,-2.84205,-2.7174,-1.61695,-1.525,-218.61,215.76749999999998,190.642375,0.0,0.0,0.0,0.0,0.03476666666666661,-5.498166666666667,-5.498166666666667,-0.34540000000000004,0.3896666666666667,0.0043333333333333,-0.8029999999999999,68.011,0.03275,0.0328,-0.3179999999999996,100.0,1.0,1.0,209.66,0.0,0.0,0.0,0.0,0.0,0.0,0.0,8886.7,0.0,55.0,5.0,244.80666666666667,1.0,0.0,0.0,0.0,0.0,0.0,1.0,0.0,0.8580000000000005,0.8580000000000005,0.0,0.0,1.0,55.0,616.79921,10000.0,85.000001,85.000001,85.000001,85.000001,395.0,0.0,0.0,0.0,1.0,166.665,62.576,62.576,46.448,46.448,34.0,-18.59,19.484,-30.03,31.2375,0.0,1782.512,-0.45500000000000007,100.0,19.995,20.282,43.543,44.021,0.0,0.0,100.0,0.0,0.0,0.0,0.0,2435.222222222222,2314.5,4451.333333333333,4341.9,307.588,307.3745,314.122,314.107,21.837,20.4778,21.8999,21.4638,314.999998,314.999998,324.999988,324.999988,99.55788571428572,99.5059,99.56377142857143,99.54672857142857,0.08274999999999988,0.015499999999999847,-0.07033333333333333,0.13166666666666682,-0.04333333333332945,-0.06333333333333258,1.492,1.4766666666666666,37.482,28.986333333333334,37.873999999999995,35.1485,55.144,33.375,58.519,52.338,53.036,32.6445,57.118,50.684333333333335,52.132,32.259,57.001999999999995,50.10366666666667,-0.07050000000000001,0.0044999999999999485,0.10169500000000001,0.10498500000000001,0.0,212.95,212.97,209.66,209.66,0.0,0.0
18,0.0,0.0,0.0,1.0,1.0,0.0,0.0,1.0,0.0,100.0,1.0,1.1856,26.0,0.0,0.0,0.0,59.999996,0.0,26.0,26.0,26.0,26.0,0.018000000000000002,0.3106,-0.010625,296.509,-2.86265,-2.7058999999999997,-1.62255,-1.4777,-215.55,215.745,190.622625,0.0,0.0,0.0,0.0,0.036566666666666525,-5.498166666666667,-5.498166666666667,-0.3561,-0.4653333333333333,0.02211111111111097,1.025,68.143,0.03015,0.019183333333333333,-0.387999999999999,100.0,1.0,1.0,210.0966666666667,0.0,0.0,0.0,0.0,0.0,0.0,0.0,8905.3,0.0,55.0,5.0,245.28333333333336,0.0,0.0,0.0,0.0,0.0,0.0,1.0,0.0,0.9029999999999987,0.9029999999999987,0.0,0.0,0.0,55.0,616.79921,10000.0,85.000001,85.000001,85.000001,85.000001,395.0,0.0,0.0,0.0,1.0,333.33500000000004,62.531,62.531,46.509,46.509,34.0,-17.912,21.718,-28.186666666666664,31.055,0.0,1782.465,-0.4800000000000004,100.0,19.939999999999998,19.9855,43.913,44.198,0.0,0.0,100.0,0.0,0.0,0.0,0.0,2348.5555555555557,2560.1,4182.0,4327.1,307.7176666666667,306.84775,314.64825,314.19075,21.844444444444445,20.48145,21.909,21.471899999999998,314.999998,314.999998,324.999988,324.999988,99.55788571428572,99.5059,99.5639,99.54685714285715,0.08924999999999983,0.021250000000000213,-0.07283333333333333,0.14566666666666683,-0.051666666666669414,-0.06499999999999773,1.502,1.4903333333333333,37.528,29.009,37.931,35.1995,55.120999999999995,33.4,58.557,52.394999999999996,53.015,32.667,57.1535,50.73866666666667,52.111000000000004,32.2805,57.035,50.157333333333334,-0.07350000000000001,0.0004999999999999449,0.10843000000000001,0.108035,0.0,213.32999999999998,213.345,210.0966666666667,210.0966666666667,0.0,0.0
19,0.0,0.0,0.0,1.0,1.0,0.0,0.0,1.0,0.0,100.0,1.0,1.1856,26.0,0.0,0.0,0.0,59.999996,0.0,26.0,26.0,26.0,26.0,0.044,0.3033000000000001,0.065425,296.097,-2.7843,-2.802,-1.5545499999999999,-1.4629,-212.07,215.72,190.6,0.0,0.0,0.0,0.0,0.03856666666666653,-5.498166666666667,-5.498166666666667,-0.3466,0.791,0.025222222222222035,-0.7489999999999999,68.293,0.02985,0.02951666666666667,-0.3279999999999994,100.0,1.0,1.0,210.5233333333333,0.0,0.0,0.0,0.0,0.0,0.0,0.0,8923.3,0.0,55.0,5.0,245.82,1.0,0.0,0.0,0.0,0.0,0.0,1.0,0.0,0.9540000000000006,0.9540000000000006,0.0,0.0,1.0,55.0,616.79921,10000.0,85.000001,85.000001,85.000001,85.000001,395.0,0.0,0.0,0.0,1.0,333.33500000000004,62.042,62.042,46.326,46.326,34.0,-18.332,20.77,-28.56,31.6,0.0,1782.414,-0.42499999999999893,100.0,20.311,20.610500000000002,43.632,44.269000000000005,0.0,0.0,100.0,0.0,0.0,0.0,0.0,2411.666666666667,2379.4,4340.777777777777,4492.6,307.5416666666667,306.962,314.3055,313.7695,21.852888888888888,20.4858,21.9191,21.4811,314.999998,314.999998,324.999988,324.999988,99.5579,99.50591666666666,99.56404285714285,99.54701428571428,0.07699999999999996,0.010250000000000092,-0.0725,0.13149999999999995,-0.06833333333332803,-0.06499999999999773,1.4683333333333333,1.4673333333333334,37.581,29.036,37.995000000000005,35.2565,55.099000000000004,33.4305,58.5975,52.458333333333336,52.994,32.695499999999996,57.1915,50.79966666666667,52.089,32.3075,57.07,50.217,-0.0655,0.0020000000000000018,0.10536500000000001,0.10505500000000001,0.0,213.835,213.845,210.5233333333333,210.5233333333333,0.0,0.0
20,0.0,0.0,0.0,1.0,1.0,0.0,0.0,1.0,0.0,100.0,1.0,1.1856,26.0,0.0,0.0,0.0,59.999996,0.0,26.0,26.0,26.0,26.0,0.05677777777777778,0.28500000000000014,0.03535,296.387,-2.8739,-2.765,-1.5584,-1.5913,-208.57999999999998,215.6975,190.5775,0.0,0.0,0.0,0.0,0.04059999999999997,-5.498166666666667,-5.498166666666667,-0.3493,-1.0423333333333333,0.023777777777777898,0.5270000000000001,68.444,0.02895,0.021583333333333336,-0.3539999999999992,100.0,1.0,1.0,210.93,0.0,0.0,0.0,0.0,0.0,0.0,0.0,8940.6,0.0,55.0,5.0,246.36666666666667,0.0,0.0,0.0,0.0,0.0,0.0,0.0,0.0,1.004999999999999,1.004999999999999,0.0,0.0,0.0,55.0,616.79921,10000.0,85.000001,85.000001,85.000001,85.000001,395.0,0.0,0.0,0.0,1.0,333.33500000000004,62.927,62.927,45.914,45.914,34.0,-16.52,20.484,-27.356666666666666,33.34,0.0,1782.363,-0.40000000000000036,100.0,20.008,20.0905,44.381,44.623999999999995,0.0,0.0,100.0,0.0,0.0,0.0,0.0,2187.5555555555557,2405.6,4220.0,4339.5,308.23466666666667,307.27325,314.466,314.024,21.86111111111111,20.4899,21.9296,21.4904,314.999998,314.999998,324.999988,324.999988,99.5579,99.50591666666666,99.5642,99.54715714285715,0.08899999999999997,0.01650000000000018,-0.0625,0.1463333333333332,-0.02833333333332888,-0.060000000000002274,1.453,1.4316666666666666,37.632,29.061666666666667,38.06,35.315,55.072,33.458,58.641999999999996,52.523666666666664,52.968,32.7205,57.233000000000004,50.86266666666667,52.064,32.332,57.1085,50.278333333333336,-0.0625,-0.0050000000000001155,0.10456000000000001,0.10729500000000002,0.0,214.23000000000002,214.26999999999998,210.93,210.93,0.0,0.0
21,0.0,0.0,0.0,1.0,1.0,0.0,0.0,1.0,0.0,100.0,1.0,1.1856,26.0,0.0,0.0,0.0,59.999996,0.0,26.0,26.0,26.0,26.0,0.04744444444444444,0.29720000000000013,-0.03935,296.631,-2.84465,-2.7687,-1.60045,-1.5486,-205.09,215.675,190.5545,0.0,0.0,0.0,0.0,0.0426333333333333,-5.498166666666667,-5.498166666666667,-0.36910000000000004,0.35100000000000003,0.005777777777777882,-0.81,68.589,0.024,0.023616666666666668,-0.2239999999999993,100.0,1.0,1.0,211.55666666666667,0.0,0.0,0.0,0.0,0.0,0.0,0.0,8967.1,0.0,55.0,5.0,246.89,1.0,0.0,0.0,0.0,0.0,0.0,0.0,0.0,1.056000000000001,1.056000000000001,0.0,0.0,1.0,55.0,616.79921,10000.0,85.000001,85.000001,85.000001,85.000001,395.0,0.0,0.0,0.0,1.0,166.665,62.576,62.576,46.829,46.829,34.0,-18.624,19.985999999999997,-28.133333333333333,29.4875,0.0,1782.313,-0.4499999999999993,100.0,20.014,20.2775,43.791,44.275,0.0,0.0,100.0,0.0,0.0,0.0,0.0,2423.222222222222,2334.6,4173.222222222223,4118.5,307.63,307.3245,314.758,314.6665,21.869444444444444,20.4941,21.9397,21.4994,314.999998,314.999998,324.999988,324.999988,99.55791428571429,99.50591666666666,99.56434285714286,99.5473,0.07925000000000004,0.015499999999999847,-0.08333333333333333,0.133,-0.06499999999999773,-0.04999999999999716,1.5306666666666666,1.5263333333333335,37.684,29.08833333333333,38.123,35.371,55.047,33.487,58.6805,52.584,52.946,32.747,57.269,50.92066666666666,52.041,32.3575,57.1415,50.33533333333334,-0.06999999999999995,0.0044999999999999485,0.10450000000000001,0.10544,0.0,214.74,214.72500000000002,211.55666666666667,211.55666666666667,0.0,0.0
22,0.0,0.0,0.0,1.0,1.0,0.0,0.0,1.0,0.0,100.0,1.0,1.1856,26.0,0.0,0.0,0.0,59.999996,0.0,26.0,26.0,26.0,26.0,0.03722222222222222,0.3035000000000001,-0.003575,296.31,-2.898,-2.739,-1.6226,-1.5349,-201.59,215.6525,190.53075,0.0,0.0,0.0,0.0,0.04466666666666652,-5.498166666666667,-5.498166666666667,-0.34990000000000004,-0.05466666666666666,0.017777777777777892,1.048,68.739,0.0219,0.04556666666666667,-0.3379999999999992,100.0,1.0,1.0,211.85000000000002,0.0,0.0,0.0,0.0,0.0,0.0,0.0,8979.5,0.0,55.0,5.0,247.43,0.0,0.0,0.0,0.0,0.0,0.0,0.0,0.0,1.1069999999999993,1.1069999999999993,0.0,0.0,0.0,55.0,616.79921,10000.0,85.000001,85.000001,85.000001,85.000001,395.0,0.0,0.0,0.0,1.0,166.665,62.943,62.943,45.897999999999996,45.897999999999996,34.0,-17.048,20.082,-29.566666666666663,33.7325,0.0,1782.262,-0.5,100.0,20.078,20.0845,44.202,44.421,0.0,0.0,100.0,0.0,0.0,0.0,0.0,2211.8888888888887,2389.1,4320.888888888889,4516.8,308.185,307.3915,314.30925,313.75925,21.877777777777776,20.4983,21.95,21.5086,314.999998,314.999998,324.999988,324.999988,99.55792857142858,99.50591666666666,99.56448571428571,99.54745714285714,0.08225000000000016,0.016249999999999876,-0.074,0.14516666666666667,-0.054999999999999716,-0.06499999999999773,1.4683333333333333,1.4526666666666668,37.736000000000004,29.114333333333335,38.188,35.429,55.022,33.515,58.7245,52.647999999999996,52.922,32.7735,57.31,50.98233333333333,52.016999999999996,32.3825,57.179,50.39566666666666,-0.06899999999999995,0.0050000000000000044,0.10633500000000001,0.112185,0.0,215.195,215.21,211.85000000000002,211.85000000000002,0.0,0.0
23,0.0,0.0,0.0,1.0,1.0,0.0,0.0,1.0,0.0,100.0,1.0,1.1856,26.0,0.0,0.0,0.0,59.999996,0.0,26.0,26.0,26.0,26.0,0.01911111111111111,0.2832000000000001,-0.022250000000000002,296.28,-2.8089,-2.7739,-1.6745999999999999,-1.5112,-198.28,215.6325,190.508625,0.0,0.0,0.0,0.0,0.046599999999999975,-5.498166666666667,-5.498166666666667,-0.3657,-0.19033333333333335,0.01588888888888884,0.4849999999999999,68.877,0.023100000000000002,0.023016666666666668,-0.3360000000000003,100.0,1.0,1.0,212.37,0.0,0.0,0.0,0.0,0.0,0.0,0.0,9001.6,0.0,55.0,5.0,247.92333333333335,1.0,0.0,0.0,0.0,0.0,0.0,0.0,0.0,1.1550000000000011,1.1550000000000011,0.0,0.0,1.0,55.0,616.79921,10000.0,85.000001,85.000001,85.000001,85.000001,395.0,0.0,0.0,0.0,1.0,166.665,62.241,62.241,46.661,46.661,34.0,-18.419999999999998,20.988,-28.563333333333333,29.7375,0.0,1782.215,-0.48499999999999943,100.0,20.284,20.1935,44.268,44.65,0.0,0.0,100.0,0.0,0.0,0.0,0.0,2421.222222222222,2441.9,4140.222222222223,4203.8,307.3996666666667,307.12475,314.83275,314.52775,21.885555555555555,20.50235,21.959699999999998,21.5173,314.999998,314.999998,324.999988,324.999988,99.55792857142858,99.50593333333333,99.56461428571428,99.54758571428572,0.08700000000000019,0.01750000000000007,-0.07583333333333334,0.13366666666666682,-0.02833333333332888,-0.07333333333333059,1.5230000000000001,1.509,37.785,29.139666666666663,38.248,35.4835,55.0,33.542500000000004,58.7635,52.708333333333336,52.900999999999996,32.798500000000004,57.3465,51.04,51.995000000000005,32.4065,57.2125,50.452,-0.07499999999999996,0.0,0.10526,0.10547000000000001,0.0,215.59,215.625,212.37,212.37,0.0,0.0
24,0.0,0.0,0.0,1.0,1.0,0.0,0.0,1.0,0.0,100.0,1.0,1.1856,26.0,0.0,0.0,0.0,59.999996,0.0,26.0,26.0,26.0,26.0,0.046,0.29610000000000003,-0.027875,296.57,-2.8388,-2.7777,-1.5629,-1.5392000000000001,-194.76999999999998,215.6125,190.484625,0.0,0.0,0.0,0.0,0.048633333333333306,-5.498166666666667,-5.498166666666667,-0.37410000000000004,-0.47100000000000003,0.025222222222222035,-0.038000000000000034,69.024,0.02615,0.03181666666666667,-0.30600000000000005,100.0,1.0,1.0,212.75333333333333,0.0,0.0,0.0,0.0,0.0,0.0,0.0,9017.9,0.0,55.0,5.0,248.45666666666665,0.0,0.0,0.0,0.0,0.0,0.0,0.0,0.0,1.2059999999999995,1.2059999999999995,0.0,0.0,0.0,55.0,616.79921,10000.0,85.000001,85.000001,85.000001,85.000001,395.0,0.0,0.0,0.0,1.0,166.665,63.263,63.263,46.066,46.066,34.0,-16.582,18.875999999999998,-29.233333333333334,31.245,0.0,1782.163,-0.48499999999999943,100.0,19.864,20.061,44.18,44.656,0.0,0.0,100.0,0.0,0.0,0.0,0.0,2196.5555555555557,2234.6,4308.222222222223,4271.1,308.26166666666666,307.65025,314.35425,314.27675,21.89377777777778,20.50645,21.97,21.5265,314.999998,314.999998,324.999988,324.999988,99.55794285714286,99.50593333333333,99.56477142857143,99.54774285714285,0.08024999999999993,0.009500000000000064,-0.08683333333333333,0.1383333333333332,-0.03833333333332689,-0.05666666666667197,1.48,1.4746666666666668,37.836,29.165333333333333,38.313,35.5405,54.974000000000004,33.5695,58.8055,52.77066666666666,52.876999999999995,32.823499999999996,57.3855,51.1,51.971000000000004,32.4305,57.249,50.510666666666665,-0.0685,0.0040000000000000036,0.10688500000000001,0.11019000000000001,0.0,216.05,216.075,212.75333333333333,212.75333333333333,0.0,0.0
25,0.0,0.0,0.0,1.0,1.0,0.0,0.0,1.0,0.0,100.0,1.0,1.1856,26.0,0.0,0.0,0.0,59.999996,0.0,26.0,26.0,26.0,26.0,0.02688888888888889,0.28890000000000016,-0.018425,296.28,-2.89835,-2.7412,-1.6475,-1.5442,-191.24,215.5925,190.459125,0.0,0.0,0.0,0.0,0.05066666666666653,-5.498166666666667,-5.498166666666667,-0.3961,0.17466666666666666,0.03022222222222215,-0.008999999999999897,69.169,0.026350000000000002,0.031983333333333336,-0.4299999999999997,100.0,1.0,1.0,213.29333333333335,0.0,0.0,0.0,0.0,0.0,0.0,0.0,9040.7,0.0,55.0,5.0,248.97666666666666,1.0,0.0,0.0,0.0,0.0,0.0,0.0,0.0,1.256999999999998,1.256999999999998,0.0,0.0,1.0,55.0,616.79921,10000.0,85.000001,85.000001,85.000001,85.000001,395.0,0.0,0.0,0.0,1.0,166.665,62.103,62.103,46.6,46.6,34.0,-19.157999999999998,22.612000000000002,-27.593333333333334,31.055,0.0,1782.112,-0.5,100.0,20.035,20.208,44.006,44.422,0.0,0.0,100.0,0.0,0.0,0.0,0.0,2462.4444444444443,2618.4,4092.1111111111113,4221.4,307.412,306.57225,314.95375,314.4355,21.902,20.51075,21.9801,21.5356,314.999998,314.999998,324.999988,324.999988,99.55794285714286,99.50593333333333,99.56491428571428,99.54788571428571,0.08975,0.019000000000000128,-0.07133333333333333,0.14483333333333337,-0.045000000000001705,-0.05333333333332746,1.5163333333333333,1.501,37.887,29.192,38.376,35.5975,54.948,33.599000000000004,58.844,52.832,52.852000000000004,32.8505,57.422,51.159,51.947,32.4565,57.282,50.568333333333335,-0.07599999999999996,0.0034999999999999476,0.103105,0.111405,0.0,216.495,216.54000000000002,213.29333333333335,213.29333333333335,0.0,0.0
26,0.0,0.0,0.0,1.0,1.0,0.0,0.0,1.0,0.0,100.0,1.0,1.1856,26.0,0.0,0.0,0.0,59.999996,0.0,26.0,26.0,26.0,26.0,0.034444444444444444,0.2921,0.0945,295.395,-2.8038,-2.8395,-1.57625,-1.5345,-187.92000000000002,215.575,190.435,0.0,0.0,0.0,0.0,0.05259999999999998,-5.498166666666667,-5.498166666666667,-0.36110000000000003,0.5483333333333333,0.017555555555555546,0.831,69.30799999999999,0.0261,0.0546,-0.3979999999999997,100.0,1.0,1.0,213.47,0.0,0.0,0.0,0.0,0.0,0.0,0.0,9048.3,0.0,55.0,5.0,249.47666666666666,0.0,0.0,0.0,0.0,0.0,0.0,0.0,0.0,1.3049999999999997,1.3049999999999997,0.0,0.0,0.0,55.0,616.79921,10000.0,85.000001,85.000001,85.000001,85.000001,395.0,0.0,0.0,0.0,1.0,333.33500000000004,62.119,62.119,45.028999999999996,45.028999999999996,34.0,-17.09,20.904,-31.169999999999998,35.337500000000006,0.0,1782.063,-0.5399999999999991,100.0,20.724,20.6335,44.535,44.825,0.0,0.0,100.0,0.0,0.0,0.0,0.0,2316.222222222222,2378.3,4595.888888888889,4672.3,307.724,307.25175,313.60725,313.362,21.90988888888889,20.5149,21.9899,21.5444,314.999998,314.999998,324.999988,324.999988,99.55795714285715,99.50593333333333,99.56505714285714,99.54802857142857,0.0990000000000002,0.01924999999999999,-0.0685,0.14300000000000002,-0.046666666666666856,-0.060000000000002274,1.4020000000000001,1.3986666666666667,37.937,29.218,38.437,35.6525,54.927,33.628,58.885999999999996,52.89333333333333,52.833,32.876999999999995,57.461,51.218,51.927,32.4815,57.318,50.626333333333335,-0.07999999999999996,0.008000000000000007,0.10086500000000001,0.10965000000000001,0.0,216.97,216.99,213.47,213.47,0.0,0.0
27,0.0,0.0,0.0,1.0,1.0,0.0,0.0,1.0,0.0,100.0,1.0,1.1856,26.0,0.0,0.0,0.0,59.999996,0.0,26.0,26.0,26.0,26.0,0.04977777777777778,0.2802,-0.04215,296.005,-2.8229,-2.7776,-1.6308,-1.6245,-184.59,215.56,190.411875,0.0,0.0,0.0,0.0,0.05456666666666654,-5.498166666666667,-5.498166666666667,-0.38480000000000003,-1.0093333333333334,0.02055555555555566,0.5489999999999999,69.443,0.024,0.014316666666666667,-0.4399999999999995,100.0,1.0,1.0,214.01999999999998,0.0,0.0,0.0,0.0,0.0,0.0,0.0,9071.5,0.0,55.0,5.0,249.96666666666667,1.0,0.0,0.0,0.0,0.0,0.0,0.0,0.0,1.352999999999998,1.352999999999998,0.0,0.0,1.0,55.0,616.79921,10000.0,85.000001,85.000001,85.000001,85.000001,395.0,0.0,0.0,0.0,1.0,333.33500000000004,62.546,62.546,45.425,45.425,34.0,-16.038,21.192,-28.746666666666666,32.43,0.0,1782.015,-0.5800000000000001,100.0,20.315,20.465,45.034,45.21,0.0,0.0,100.0,0.0,0.0,0.0,0.0,2172.666666666667,2453.8,4186.888888888889,4205.3,308.17633333333333,307.1065,314.64875,314.4065,21.917444444444445,20.5189,21.9998,21.5533,314.999998,314.999998,324.999988,324.999988,99.55797142857143,99.50593333333333,99.5652,99.54817142857142,0.09624999999999995,0.020000000000000018,-0.078,0.14700000000000002,-0.03166666666666629,-0.05666666666667197,1.482,1.4623333333333333,37.983999999999995,29.243000000000002,38.499,35.708,54.903,33.6545,58.927,52.95466666666667,52.81,32.902,57.4995,51.276666666666664,51.903999999999996,32.5055,57.3535,50.68333333333334,-0.07850000000000001,0.005499999999999949,0.11396,0.10597500000000001,0.0,217.31,217.36,214.01999999999998,214.01999999999998,0.0,0.0
28,0.0,0.0,0.0,1.0,1.0,0.0,0.0,1.0,0.0,100.0,1.0,1.1856,26.0,0.0,0.0,0.0,59.999996,0.0,26.0,26.0,26.0,26.0,0.05622222222222222,0.28970000000000007,-0.069875,296.219,-2.80285,-2.7735,-1.639,-1.5796999999999999,-181.04,215.54500000000002,190.3865,0.0,0.0,0.0,0.0,0.056599999999999984,-5.498166666666667,-5.498166666666667,-0.38920000000000005,0.6476666666666666,0.005111111111111066,-0.724,69.58500000000001,0.0258,0.03783333333333333,-0.3899999999999997,100.0,1.0,1.0,214.56,0.0,0.0,0.0,0.0,0.0,0.0,0.0,9094.4,0.0,55.0,5.0,250.47666666666666,0.0,0.0,0.0,0.0,0.0,0.0,0.0,0.0,1.404,1.404,0.0,0.0,0.0,55.0,616.79921,10000.0,85.000001,85.000001,85.000001,85.000001,395.0,0.0,0.0,0.0,1.0,333.33500000000004,62.424,62.424,46.295,46.295,34.0,-17.438,20.105999999999998,-29.033333333333335,30.1575,0.0,1781.963,-0.6150000000000002,100.0,20.287,20.5225,44.319,44.793,0.0,0.0,100.0,0.0,0.0,0.0,0.0,2377.5555555555557,2313.3,4215.222222222223,4186.2,307.7083333333333,307.34125,314.7595,314.51675,21.925666666666665,20.5232,22.0099,21.5624,314.999998,314.999998,324.999988,324.999988,99.55797142857143,99.50595,99.56535714285714,99.54832857142857,0.0987499999999999,0.023249999999999993,-0.08533333333333333,0.12583333333333324,-0.04833333333333201,-0.051666666666669414,1.5350000000000001,1.5293333333333334,38.036,29.27,38.562,35.765,54.878,33.686,58.9675,53.01833333333333,52.786,32.9305,57.537,51.338,51.879999999999995,32.5325,57.3875,50.74333333333333,-0.08550000000000002,0.017000000000000015,0.10881,0.10830000000000001,0.0,217.82,217.825,214.56,214.56,0.0,0.0
29,0.0,0.0,0.0,1.0,1.0,0.0,0.0,1.0,0.0,100.0,1.0,1.1856,26.0,0.0,0.0,0.0,59.999996,0.0,26.0,26.0,26.0,26.0,0.055,0.27990000000000004,-0.0026750000000000003,296.021,-2.7893,-2.8283,-1.59415,-1.5535,-177.49,215.53,190.36,0.0,0.0,0.0,0.0,0.058666666666666534,-5.498166666666667,-5.498166666666667,-0.3915,-0.664,0.011222222222222022,0.8770000000000002,69.731,0.026500000000000003,0.04471666666666667,-0.5,100.0,1.0,1.0,214.83666666666667,0.0,0.0,0.0,0.0,0.0,0.0,0.0,9106.2,0.0,55.0,5.0,251.00333333333333,1.0,0.0,0.0,0.0,0.0,0.0,0.0,0.0,1.4549999999999983,1.4549999999999983,0.0,0.0,1.0,55.0,616.79921,10000.0,85.000001,85.000001,85.000001,85.000001,395.0,0.0,0.0,0.0,1.0,166.665,62.897,62.897,45.532,45.532,34.0,-16.062,21.025999999999996,-28.373333333333335,33.795,0.0,1781.914,-0.6699999999999999,100.0,20.046,20.1655,44.814,45.031,0.0,0.0,100.0,0.0,0.0,0.0,0.0,2201.5555555555557,2376.8,4235.222222222223,4462.2,308.12766666666664,307.28925,314.4675,313.85575,21.933666666666667,20.5274,22.0203,21.5718,314.999998,314.999998,324.999988,324.999988,99.55798571428572,99.50595,99.56548571428571,99.54847142857143,0.09525000000000006,0.027249999999999996,-0.06883333333333333,0.14566666666666683,-0.04333333333332945,-0.04999999999999716,1.4473333333333334,1.4213333333333333,38.086,29.296333333333333,38.626999999999995,35.823499999999996,54.852999999999994,33.712,59.0085,53.079,52.763,32.954499999999996,57.5755,51.39633333333333,51.855999999999995,32.556,57.423,50.800333333333334,-0.08099999999999996,0.017000000000000015,0.104895,0.108475,0.0,218.23000000000002,218.255,214.83666666666667,214.83666666666667,0.0,0.0
30,0.0,0.0,0.0,1.0,1.0,0.0,0.0,1.0,0.0,100.0,1.0,1.1856,26.0,0.0,0.0,0.0,59.999996,0.0,26.0,26.0,26.0,26.0,0.05466666666666666,0.278,0.050350000000000006,295.38,-2.8011,-2.7173,-1.65805,-1.6106,-174.14,215.51749999999998,190.334875,0.0,0.0,0.0,0.0,0.06063333333333332,-5.498166666666667,-5.498166666666667,-0.3921,0.869,0.005666666666666709,0.532,69.863,0.0304,0.04045,-0.5620000000000003,100.0,1.0,1.0,215.35333333333335,0.0,0.0,0.0,0.0,0.0,0.0,0.0,9128.0,0.0,55.0,5.0,251.48000000000002,0.0,0.0,0.0,0.0,0.0,0.0,1.0,0.0,1.5030000000000001,1.5030000000000001,0.0,0.0,0.0,55.0,616.79921,10000.0,85.000001,85.000001,85.000001,85.000001,395.0,0.0,0.0,0.0,1.0,333.33500000000004,61.218,61.218,45.853,45.853,34.0,-18.542,22.426,-28.896666666666665,32.54,0.0,1781.865,-0.6349999999999998,100.0,20.962,20.9635,44.647,45.086,0.0,0.0,100.0,0.0,0.0,0.0,0.0,2486.333333333333,2566.6,4263.666666666667,4240.7,307.14233333333334,306.59275,314.65225,314.36625,21.941555555555556,20.53165,22.0299,21.5805,314.999998,314.999998,324.999988,324.999988,99.55798571428572,99.50595,99.56562857142858,99.54861428571428,0.10199999999999987,0.028500000000000192,-0.06666666666666668,0.14816666666666678,-0.03999999999999915,-0.06666666666666998,1.49,1.4743333333333333,38.135,29.323,38.687,35.878,54.833,33.7425,59.045500000000004,53.13766666666667,52.744,32.9825,57.61,51.452666666666666,51.837,32.582499999999996,57.454499999999996,50.855333333333334,-0.08950000000000002,0.010499999999999954,0.10164000000000001,0.10901500000000001,0.0,218.66500000000002,218.7,215.35333333333335,215.35333333333335,0.0,0.0
31,0.0,0.0,0.0,1.0,1.0,0.0,0.0,1.0,0.0,100.0,1.0,1.1856,26.0,0.0,0.0,0.0,59.999996,0.0,26.0,26.0,26.0,26.0,0.051444444444444445,0.28469999999999995,0.0287,295.09,-2.88775,-2.7485,-1.6565500000000002,-1.5070000000000001,-170.36,215.505,190.307625,0.0,0.0,0.0,0.0,0.0628333333333333,-5.498166666666667,-5.498166666666667,-0.37620000000000003,-0.47833333333333333,0.013555555555555543,0.5990000000000002,70.016,0.033600000000000005,0.03306666666666667,-0.5640000000000001,100.0,1.0,1.0,215.65333333333334,0.0,0.0,0.0,0.0,0.0,0.0,0.0,9140.8,0.0,55.0,5.0,252.03,1.0,0.0,0.0,0.0,0.0,0.0,1.0,0.0,1.5569999999999986,1.5569999999999986,0.0,0.0,1.0,55.0,616.79921,10000.0,85.000001,85.000001,85.000001,85.000001,395.0,0.0,0.0,0.0,1.0,166.665,61.676,61.676,44.571,44.571,34.0,-17.46,23.224,-29.456666666666663,33.582499999999996,0.0,1781.812,-0.6850000000000005,100.0,20.733,20.952,45.367000000000004,45.573,0.0,0.0,100.0,0.0,0.0,0.0,0.0,2351.777777777778,2624.9,4330.666666666667,4477.2,307.7266666666667,306.62675,314.237,313.764,21.950222222222223,20.5363,22.041,21.5906,314.999998,314.999998,324.999988,324.999988,99.558,99.50596666666667,99.5658,99.54877142857143,0.11125000000000007,0.03699999999999992,-0.05633333333333334,0.14900000000000002,-0.03499999999999659,-0.054999999999999716,1.4313333333333333,1.4096666666666666,38.189,29.352,38.757,35.941,54.808,33.774,59.093,53.208333333333336,52.721000000000004,33.012,57.6545,51.521,51.814,32.6105,57.4955,50.92166666666667,-0.08850000000000002,0.012499999999999956,0.10481000000000001,0.10494,0.0,219.12,219.155,215.65333333333334,215.65333333333334,0.0,0.0
32,0.0,0.0,0.0,1.0,1.0,0.0,0.0,1.0,0.0,100.0,1.0,1.1856,26.0,0.0,0.0,0.0,59.999996,0.0,26.0,26.0,26.0,26.0,0.04911111111111111,0.2855000000000001,-0.04585,295.731,-2.81345,-2.8096,-1.5947,-1.5635,-167.0,215.495,190.28375,0.0,0.0,0.0,0.0,0.06476666666666653,-5.498166666666667,-5.498166666666667,-0.3961,-0.2663333333333333,-0.009111111111111292,0.3210000000000002,70.147,0.036500000000000005,0.021516666666666667,-0.5820000000000007,100.0,1.0,1.0,216.16333333333333,0.0,0.0,0.0,0.0,0.0,0.0,0.0,9162.4,0.0,55.0,5.0,252.5,0.0,0.0,0.0,0.0,0.0,0.0,1.0,0.0,1.6050000000000004,1.6050000000000004,0.0,0.0,0.0,55.0,616.79921,10000.0,85.000001,85.000001,85.000001,85.000001,395.0,0.0,0.0,0.0,1.0,333.33500000000004,62.317,62.317,45.609,45.609,34.0,-16.288,21.14,-27.169999999999998,33.8525,0.0,1781.762,-0.6549999999999994,100.0,20.573999999999998,20.7045,45.022999999999996,45.256,0.0,0.0,100.0,0.0,0.0,0.0,0.0,2259.0,2381.9,4164.666666666667,4451.7,307.919,307.29225,314.66925,313.9645,21.95777777777778,20.540399999999998,22.0507,21.5994,314.999998,314.999998,324.999988,324.999988,99.55801428571428,99.50596666666667,99.56592857142857,99.54891428571429,0.11125000000000007,0.034499999999999975,-0.0605,0.15149999999999997,-0.045000000000001705,-0.04833333333333201,1.4886666666666666,1.4713333333333334,38.236000000000004,29.377666666666666,38.817,35.996,54.785,33.802,59.1305,53.26733333333333,52.7,33.0375,57.689,51.577333333333335,51.792,32.635,57.5275,50.977000000000004,-0.08999999999999997,0.013499999999999956,0.10412500000000001,0.10722000000000001,0.0,219.51999999999998,219.55,216.16333333333336,216.16333333333333,0.0,0.0
33,0.0,0.0,0.0,1.0,1.0,0.0,0.0,1.0,0.0,100.0,1.0,1.1856,26.0,0.0,0.0,0.0,59.999996,0.0,26.0,26.0,26.0,26.0,0.07533333333333334,0.29259999999999997,-0.055875,296.066,-2.8338,-2.8137,-1.60545,-1.5937000000000001,-163.42000000000002,215.4875,190.256875,0.0,0.0,0.0,0.0,0.06686666666666652,-5.498166666666667,-5.498166666666667,-0.4041,-0.21733333333333335,-0.006666666666666821,0.07200000000000006,70.288,0.0356,0.045200000000000004,-0.4320000000000004,100.0,1.0,1.0,216.62,0.0,0.0,0.0,0.0,0.0,0.0,0.0,9181.7,0.0,55.0,5.0,253.00666666666666,1.0,0.0,0.0,0.0,0.0,0.0,1.0,0.0,1.6559999999999988,1.6559999999999988,0.0,0.0,1.0,55.0,616.79921,10000.0,85.000001,85.000001,85.000001,85.000001,395.0,0.0,0.0,0.0,1.0,166.665,62.714,62.714,46.021,46.021,34.0,-17.012,19.7,-27.52,32.4525,0.0,1781.714,-0.6999999999999993,100.0,20.212,20.534,44.698,45.149,0.0,0.0,100.0,0.0,0.0,0.0,0.0,2333.4444444444443,2227.7,4185.222222222223,4285.4,307.89566666666667,307.65125,314.70675,314.2335,21.965777777777777,20.54455,22.0609,21.6086,314.999998,314.999998,324.999988,324.999988,99.55802857142857,99.50596666666667,99.56608571428572,99.54907142857142,0.10524999999999984,0.03299999999999992,-0.06283333333333334,0.14250000000000007,-0.06333333333333258,-0.04333333333332945,1.4873333333333334,1.48,38.286,29.403666666666666,38.881,36.054,54.760999999999996,33.829,59.17,53.32833333333333,52.677,33.0625,57.726,51.63633333333333,51.769,32.659,57.561,51.034,-0.09199999999999997,0.024499999999999966,0.10225000000000001,0.10498,0.0,219.96,219.98000000000002,216.62,216.62,0.0,0.0
34,0.0,0.0,0.0,1.0,1.0,0.0,0.0,1.0,0.0,100.0,1.0,1.1856,26.0,0.0,0.0,0.0,59.999996,0.0,26.0,26.0,26.0,26.0,0.056666666666666664,0.2611000000000001,-0.063975,296.158,-2.7955,-2.7949,-1.64355,-1.53,-160.04,215.48000000000002,190.23025,0.0,0.0,0.0,0.0,0.0688333333333333,-5.498166666666667,-5.498166666666667,-0.4303,-0.9580000000000001,0.018444444444444263,-0.278,70.42099999999999,0.0369,0.0402,-0.484,100.0,1.0,1.0,216.98333333333335,0.0,0.0,0.0,0.0,0.0,0.0,0.0,9197.1,0.0,55.0,5.0,253.48333333333335,0.0,0.0,0.0,0.0,0.0,0.0,1.0,0.0,1.7040000000000006,1.7040000000000006,0.0,0.0,0.0,55.0,616.79921,10000.0,85.000001,85.000001,85.000001,85.000001,395.0,0.0,0.0,0.0,1.0,166.665,63.049,63.049,46.036,46.036,34.0,-16.546,19.782,-29.096666666666664,32.057500000000005,0.0,1781.666,-0.6950000000000003,100.0,19.919,20.2755,44.620000000000005,45.292,0.0,0.0,100.0,0.0,0.0,0.0,0.0,2287.666666666667,2256.4,4231.444444444444,4344.7,308.07233333333335,307.67375,314.638,314.119,21.973222222222223,20.54845,22.0705,21.6175,314.999998,314.999998,324.999988,324.999988,99.55802857142857,99.50596666666667,99.56622857142857,99.54921428571429,0.09799999999999986,0.03474999999999984,-0.075,0.14116666666666666,-0.051666666666669414,-0.05666666666667197,1.4746666666666668,1.457,38.333,29.427999999999997,38.941,36.109,54.736999999999995,33.8545,59.2065,53.388666666666666,52.653999999999996,33.085499999999996,57.7605,51.694,51.745999999999995,32.6815,57.5925,51.090666666666664,-0.08750000000000002,0.020000000000000018,0.10710000000000001,0.104105,0.0,220.35000000000002,220.38,216.98333333333335,216.98333333333335,0.0,0.0
35,0.0,0.0,0.0,1.0,1.0,0.0,0.0,1.0,0.0,100.0,1.0,1.1856,26.0,0.0,0.0,0.0,59.999996,0.0,26.0,26.0,26.0,26.0,0.06122222222222222,0.27960000000000007,-0.0734,296.082,-2.84815,-2.7371,-1.6387,-1.5891000000000002,-156.45,215.475,190.20025,0.0,0.0,0.0,0.0,0.07089999999999996,-5.498166666666667,-5.498166666666667,-0.46630000000000005,-0.058333333333333334,0.0009999999999998899,0.016000000000000014,70.559,0.038700000000000005,0.03233333333333333,-0.5920000000000005,100.0,1.0,1.0,217.48333333333335,0.0,0.0,0.0,0.0,0.0,0.0,0.0,9218.4,0.0,55.0,5.0,253.98333333333335,1.0,0.0,0.0,0.0,0.0,0.0,1.0,0.0,1.754999999999999,1.754999999999999,0.0,0.0,1.0,55.0,616.79921,10000.0,85.000001,85.000001,85.000001,85.000001,395.0,0.0,0.0,0.0,1.0,166.665,62.485,62.485,45.624,45.624,34.0,-16.727999999999998,22.915999999999997,-27.283333333333335,31.8075,0.0,1781.614,-0.5299999999999994,100.0,19.924,20.4985,44.499,44.814,0.0,0.0,100.0,0.0,0.0,0.0,0.0,2239.4444444444443,2620.7,4142.666666666667,4218.6,308.004,306.5675,314.73875,314.552,21.981,20.5529,22.0807,21.6267,314.999998,314.999998,324.999988,324.999988,99.55804285714285,99.50596666666667,99.56637142857143,99.54935714285715,0.09750000000000014,0.027750000000000163,-0.056666666666666664,0.14900000000000002,-0.04333333333332945,-0.061666666666667425,1.5236666666666667,1.499,38.382,29.455666666666666,39.004,36.1665,54.711,33.885,59.245,53.44766666666666,52.629000000000005,33.114,57.7965,51.751,51.721000000000004,32.7085,57.625,51.14633333333333,-0.07799999999999996,0.0,0.107175,0.1019,0.0,220.775,220.82,217.48333333333335,217.48333333333335,0.0,0.0
