,ABS Active,ABS Enabled,AID Allow Tire Blankets,AID Auto Blip,AID Auto Clutch,AID Auto Shift,AID Fuel Rate,AID Ideal Line,AID Mech Damage,AID Stability,AID Tire Wear Rate,Air Density,Air Temp,Ballast,Best Lap Delta,Best Lap Time,Brake Bias,Brake Pos,Brake Temp FL,Brake Temp FR,Brake Temp RL,Brake Temp RR,CG Accel Lateral,CG Accel Longitudinal,CG Accel Vertical,CG Height,Camber FL,Camber FR,Camber RL,Camber RR,Car Coord X,Car Coord Y,Car Coord Z,Car Damage Front,Car Damage Left,Car Damage Rear,Car Damage Right,Car Pos Norm,Caster FL,Caster FR,Chassis Pitch Angle,Chassis Pitch Rate,Chassis Roll Angle,Chassis Roll Rate,Chassis Velocity X,Chassis Velocity Y,Chassis Velocity Z,Chassis Yaw Rate,Clutch Pos,DRS Active,DRS Available,Drive Train Speed,ERS Heat Charging,ERS Is Charging,ERS Max Energy,ERS Power Level,ERS Recovery Level,Engine Brake Setting,Engine Limiter,Engine RPM,Flags,Fuel Level,Gear,Ground Speed,HR Sample Clock,In Pit,KERS Charge,KERS Deployed Energy,KERS Input,KERS Max Energy,LR Sample Clock,Lap Invalidated,Lap Time,Lap Time2,Last Lap Time,Last Sector Time,MR Sample Clock,Max Fuel,Max Power,Max RPM,Max Sus Travel FL,Max Sus Travel FR,Max Sus Travel RL,Max Sus Travel RR,Max Torque,Max Turbo Boost,Num Tires Off Track,Penalties Enabled,Position,Raw Data Sample Rate,Ride Height FL,Ride Height FR,Ride Height RL,Ride Height RR,Road Temp,Self Align Torque FL,Self Align Torque FR,Self Align Torque RL,Self Align Torque RR,Session Lap Count,Session Time Left,Steering Angle,Surface Grip,Suspension Travel FL,Suspension Travel FR,Suspension Travel RL,Suspension Travel RR,TC Active,TC Enabled,Throttle Pos,Tire Dirt Level FL,Tire Dirt Level FR,Tire Dirt Level RL,Tire Dirt Level RR,Tire Load FL,Tire Load FR,Tire Load RL,Tire Load RR,Tire Loaded Radius FL,Tire Loaded Radius FR,Tire Loaded Radius RL,Tire Loaded Radius RR,Tire Pressure FL,Tire Pressure FR,Tire Pressure RL,Tire Pressure RR,Tire Radius FL,Tire Radius FR,Tire Radius RL,Tire Radius RR,Tire Rubber Grip FL,Tire Rubber Grip FR,Tire Rubber Grip RL,Tire Rubber Grip RR,Tire Slip Angle FL,Tire Slip Angle FR,Tire Slip Angle RL,Tire Slip Angle RR,Tire Slip Ratio FL,Tire Slip Ratio FR,Tire Slip Ratio RL,Tire Slip Ratio RR,Tire Temp Core FL,Tire Temp Core FR,Tire Temp Core RL,Tire Temp Core RR,Tire Temp Inner FL,Tire Temp Inner FR,Tire Temp Inner RL,Tire Temp Inner RR,Tire Temp Middle FL,Tire Temp Middle FR,Tire Temp Middle RL,Tire Temp Middle RR,Tire Temp Outer FL,Tire Temp Outer FR,Tire Temp Outer RL,Tire Temp Outer RR,Toe In FL,Toe In FR,Toe In RL,Toe In RR,Turbo Boost,Wheel Angular Speed FL,Wheel Angular Speed FR,Wheel Angular Speed RL,Wheel Angular Speed RR,Wind Direction,Wind Speed
0,0.0,0.0,0.0,1.0,1.0,0.0,0.0,1.0,0.0,100.0,1.0,1.1856,26.0,0.0,0.0,0.0,59.99999,0.0,26.0,26.0,26.0,26.0,-0.07362499999999994,0.3024,0.07423333333333335,294.891,-2.743,-2.687666666666667,-1.5166,-1.5615999999999999,-275.76,216.2775,190.988875,0.0,0.0,0.0,0.0,0.0015666666666666051,-5.498166666666667,-5.498166666666667,-0.5016,1.6266666666666665,-0.009444444444444589,-0.365,65.497,-0.0403,-0.16,0.9520000000000008,100.0,1.0,1.0,202.2,0.0,0.0,0.0,0.0,0.0,0.0,0.0,8570.5,0.0,55.0,5.0,235.76,0.0,0.0,0.0,0.0,0.0,0.0,0.0,0.0,0.0030000000000001137,0.0030000000000001137,0.0,0.0,0.0,55.0,616.79921,10000.0,85.0,85.0,85.0,85.0,395.0,0.0,0.0,0.0,1.0,20.0,55.115,55.115,49.271,49.271,34.0,-24.7075,22.553333333333335,-30.693333333333335,24.939999999999998,0.0,1782.651,0.8000000000000007,100.0,25.795,25.164,40.787,40.729,0.0,0.0,100.0,0.0,0.0,0.0,0.0,2814.0,3186.6,4156.0,4079.7,306.2595,304.7025,314.72825,314.68425,21.7633,20.4906,21.7601,21.318,314.99999,314.99999,324.99998,324.99998,99.55902857142857,99.50691666666667,99.56361428571428,99.54485714285714,-0.0044999999999999485,-0.11099999999999999,-0.15783333333333335,0.05014285714285715,-0.086666666666666,-0.05666666666667197,1.5225,1.557,37.021,29.066,37.0,34.2375,56.251999999999995,34.131,58.5355,51.4585,54.14,33.323,57.170500000000004,49.831,53.282,32.891,57.1205,49.263333333333335,-0.007499999999999951,-0.12650000000000006,0.10696000000000001,0.09838000000000001,0.0,205.29500000000002,205.195,202.2,202.2,0.0,0.0
1,0.0,0.0,0.0,1.0,1.0,0.0,0.0,1.0,0.0,100.0,1.0,1.1856,26.0,0.0,0.0,0.0,59.999996,0.0,26.0,26.0,26.0,26.0,-0.11962499999999998,0.3306,-0.020200000000000003,293.976,-2.6555,-2.804222222222222,-1.5231,-1.5632000000000001,-272.22,216.2725,190.967625,0.0,0.0,0.0,0.0,0.0035999999999999366,-5.498166666666667,-5.498166666666667,-0.4444,-0.8303333333333334,-0.06211111111111123,-0.07199999999999995,65.66499999999999,-0.0553,-0.13835,1.3559999999999999,100.0,1.0,1.0,202.36666666666667,0.0,0.0,0.0,0.0,0.0,0.0,0.0,8577.6,0.0,55.0,5.0,236.36333333333334,1.0,0.0,0.0,0.0,0.0,0.0,0.0,0.0,0.05699999999999861,0.05699999999999861,0.0,0.0,1.0,55.0,616.79921,10000.0,85.000001,85.000001,85.000001,85.000001,395.0,0.0,0.0,0.0,1.0,166.665,56.122,56.122,47.882,47.882,34.0,-25.3475,16.936666666666667,-34.833333333333336,29.7525,0.0,1782.598,0.9450000000000003,100.0,25.777,25.024,43.021,41.983000000000004,0.0,0.0,100.0,0.0,0.0,0.0,0.0,2854.0,2487.6,4389.875,4740.5,306.0675,306.95375,314.02225,313.04375,21.7735,20.4956,21.7714,21.3276,314.999998,314.999998,324.999988,324.999988,99.55904285714286,99.50693333333334,99.56377142857143,99.54501428571429,-0.026499999999999968,-0.1333333333333333,-0.17916666666666667,0.038285714285714284,-0.026666666666670835,-0.045000000000001705,1.4064999999999999,1.4355,37.084,29.0975,37.071,34.298,56.232,34.17,58.586,51.528999999999996,54.120999999999995,33.359,57.218,49.8985,53.262,32.926,57.165,49.32933333333334,0.013000000000000123,-0.13600000000000012,0.105995,0.11107000000000002,0.0,205.72500000000002,205.63,202.36666666666667,202.36666666666667,0.0,0.0
2,0.0,0.0,0.0,1.0,1.0,0.0,0.0,1.0,0.0,100.0,1.0,1.1856,26.0,0.0,0.0,0.0,59.999996,0.0,26.0,26.0,26.0,26.0,-0.15487499999999998,0.2915000000000001,-0.07350000000000001,294.724,-2.6231,-2.83,-1.48655,-1.6184,-269.06,216.265,190.95,0.0,0.0,0.0,0.0,0.005433333333333401,-5.498166666666667,-5.498166666666667,-0.5028,-0.018333333333333313,-0.05333333333333368,2.5140000000000002,65.8,-0.0727,-0.20170000000000002,1.556000000000001,100.0,1.0,1.0,203.31666666666666,0.0,0.0,0.0,0.0,0.0,0.0,0.0,8617.8,0.0,55.0,5.0,236.85000000000002,0.0,0.0,0.0,0.0,0.0,0.0,0.0,0.0,0.10500000000000043,0.10500000000000043,0.0,0.0,0.0,55.0,616.79921,10000.0,85.000001,85.000001,85.000001,85.000001,395.0,0.0,0.0,0.0,1.0,166.665,54.886,54.886,49.973,49.973,34.0,-28.6425,19.043333333333333,-29.366666666666667,20.4925,0.0,1782.55,0.75,100.0,26.485,24.935,42.818,41.562,0.0,0.0,100.0,0.0,0.0,0.0,0.0,3159.4285714285716,2801.5,3763.5,3645.6,305.052,305.99975,315.5915,315.88075,21.782899999999998,20.5,21.7811,21.3358,314.999998,314.999998,324.999988,324.999988,99.55904285714286,99.50695,99.5639,99.54512857142858,-0.03249999999999997,-0.14866666666666672,-0.22066666666666665,0.018714285714285715,-0.05666666666667197,-0.041666666666671404,1.6205,1.683,37.143,29.125,37.132,34.349000000000004,56.218,34.204499999999996,58.6235,51.582499999999996,54.108000000000004,33.3905,57.253,49.9495,53.248,32.956,57.1975,49.379666666666665,-0.0034999999999999476,-0.13450000000000006,0.111085,0.10930500000000001,0.0,206.16,206.01999999999998,203.31666666666666,203.31666666666666,0.0,0.0
3,0.0,0.0,0.0,1.0,1.0,0.0,0.0,1.0,0.0,100.0,1.0,1.1856,26.0,0.0,0.0,0.0,59.999996,0.0,26.0,26.0,26.0,26.0,-0.135625,0.3056000000000001,0.07736666666666667,294.464,-2.7513,-2.7247777777777777,-1.5098,-1.5981,-265.9,216.255,190.9315,0.0,0.0,0.0,0.0,0.0072666666666665325,-5.498166666666667,-5.498166666666667,-0.4587,0.5183333333333333,-0.012666666666666604,0.30600000000000005,65.945,-0.08660000000000001,-0.13905,1.193999999999999,100.0,1.0,1.0,203.44,0.0,0.0,0.0,0.0,0.0,0.0,0.0,8623.1,0.0,55.0,5.0,237.37,1.0,0.0,0.0,0.0,0.0,0.0,0.0,0.0,0.1529999999999987,0.1529999999999987,0.0,0.0,1.0,55.0,616.79921,10000.0,85.000001,85.000001,85.000001,85.000001,395.0,0.0,0.0,0.0,1.0,166.665,56.046,56.046,47.897,47.897,34.0,-24.415,17.296666666666667,-34.989999999999995,25.1625,0.0,1782.502,0.6950000000000003,100.0,26.071,24.996,42.653,41.546,0.0,0.0,100.0,0.0,0.0,0.0,0.0,2674.857142857143,2696.5,4334.125,4260.9,306.6145,306.265,314.21475,314.321,21.7919,20.5046,21.7907,21.3441,314.999998,314.999998,324.999988,324.999988,99.55905714285714,99.50696666666667,99.56402857142857,99.54527142857143,-0.03275000000000006,-0.15300000000000002,-0.203,0.019571428571428573,-0.06666666666666998,-0.060000000000002274,1.474,1.536,37.199,29.1535,37.192,34.400999999999996,56.201,34.242,58.661500000000004,51.6415,54.091,33.425,57.2885,50.0065,53.231,32.989,57.231,49.43533333333333,-0.014499999999999957,-0.11500000000000021,0.10594500000000001,0.10801500000000001,0.0,206.675,206.555,203.44,203.44,0.0,0.0
4,0.0,0.0,0.0,1.0,1.0,0.0,0.0,1.0,0.0,100.0,1.0,1.1856,26.0,0.0,0.0,0.0,59.999996,0.0,26.0,26.0,26.0,26.0,-0.13387499999999997,0.27849999999999997,-0.018733333333333334,294.601,-2.6923,-2.766888888888889,-1.5321,-1.6013000000000002,-262.53,216.24,190.91175,0.0,0.0,0.0,0.0,0.009233333333333316,-5.498166666666667,-5.498166666666667,-0.49160000000000004,-0.854,-0.0774444444444442,-1.75,66.095,-0.0876,-0.1766,1.193999999999999,100.0,1.0,1.0,204.00666666666666,0.0,0.0,0.0,0.0,0.0,0.0,0.0,8647.1,0.0,55.0,5.0,237.91333333333333,0.0,0.0,0.0,0.0,0.0,0.0,0.0,0.0,0.20400000000000063,0.20400000000000063,0.0,0.0,0.0,55.0,616.79921,10000.0,85.000001,85.000001,85.000001,85.000001,395.0,0.0,0.0,0.0,1.0,333.33500000000004,55.618,55.618,48.325,48.325,34.0,-28.2825,17.883333333333333,-33.47333333333333,21.14,0.0,1782.45,0.6950000000000003,100.0,25.734,24.937,43.1,41.784,0.0,0.0,100.0,0.0,0.0,0.0,0.0,3063.4285714285716,2698.4,4143.75,3724.9,305.675,306.10425,314.69375,315.532,21.8013,20.5093,21.8012,21.353,314.999998,314.999998,324.999988,324.999988,99.55905714285714,99.50698333333334,99.56417142857143,99.54541428571429,-0.04574999999999996,-0.15066666666666673,-0.21066666666666667,0.014285714285714287,-0.05833333333333002,-0.054999999999999716,1.544,1.58,37.257999999999996,29.183,37.257999999999996,34.4565,56.181,34.28,58.706,51.702,54.072,33.46,57.33,50.064499999999995,53.211,33.0225,57.2695,49.49166666666667,-0.008000000000000007,-0.11850000000000005,0.10334000000000002,0.11185500000000001,0.0,207.055,206.96,204.00666666666666,204.00666666666666,0.0,0.0
5,0.0,0.0,0.0,1.0,1.0,0.0,0.0,1.0,0.0,100.0,1.0,1.1856,26.0,0.0,0.0,0.0,59.999996,0.0,26.0,26.0,26.0,26.0,-0.15100000000000002,0.31730000000000014,-0.013766666666666667,294.647,-2.6947,-2.798,-1.5107,-1.5943,-259.16,216.2225,190.891375,0.0,0.0,0.0,0.0,0.011199999999999988,-5.498166666666667,-5.498166666666667,-0.4853,0.4913333333333332,-0.08355555555555583,1.013,66.244,-0.0903,-0.155625,1.072000000000001,100.0,1.0,1.0,204.44,0.0,0.0,0.0,0.0,0.0,0.0,0.0,8665.5,0.0,55.0,5.0,238.45,1.0,0.0,0.0,0.0,0.0,0.0,0.0,0.0,0.254999999999999,0.254999999999999,0.0,0.0,1.0,55.0,616.79921,10000.0,85.000001,85.000001,85.000001,85.000001,395.0,0.0,0.0,0.0,1.0,333.33500000000004,55.969,55.969,48.691,48.691,34.0,-26.455,18.336666666666666,-33.35333333333334,23.177500000000002,0.0,1782.399,0.21499999999999986,100.0,26.038,24.692,42.915,41.356,0.0,0.0,100.0,0.0,0.0,0.0,0.0,2900.5714285714284,2656.1,4155.125,4105.3,305.9395,306.4455,314.71375,314.71375,21.8111,20.5141,21.8115,21.3617,314.999998,314.999998,324.999988,324.999988,99.55905714285714,99.507,99.56432857142858,99.54554285714286,-0.03424999999999989,-0.1299999999999999,-0.2135,0.007571428571428571,-0.03333333333333144,-0.061666666666667425,1.5465,1.587,37.32,29.213,37.322,34.5105,56.164,34.318,58.7475,51.76,54.057,33.495,57.369,50.1195,53.195,33.056,57.3055,49.546,-0.03200000000000003,-0.08550000000000013,0.10977,0.10239500000000001,0.0,207.55,207.45,204.44,204.44,0.0,0.0
6,0.0,0.0,0.0,1.0,1.0,0.0,0.0,1.0,0.0,100.0,1.0,1.1856,26.0,0.0,0.0,0.0,59.999996,0.0,26.0,26.0,26.0,26.0,-0.12362499999999998,0.2942,0.0076,294.434,-2.6596,-2.7783333333333333,-1.55275,-1.6320999999999999,-255.97,216.2025,190.872125,0.0,0.0,0.0,0.0,0.01306666666666656,-5.498166666666667,-5.498166666666667,-0.4788,0.08933333333333326,-0.06700000000000017,1.013,66.385,-0.0838,-0.15457500000000002,0.7439999999999998,100.0,1.0,1.0,204.85000000000002,0.0,0.0,0.0,0.0,0.0,0.0,0.0,8682.8,0.0,55.0,5.0,238.95666666666668,0.0,0.0,0.0,0.0,0.0,0.0,0.0,0.0,0.3030000000000008,0.3030000000000008,0.0,0.0,0.0,55.0,616.79921,10000.0,85.000001,85.000001,85.000001,85.000001,395.0,0.0,0.0,0.0,1.0,333.33500000000004,55.679,55.679,48.400999999999996,48.400999999999996,34.0,-25.655,19.89,-33.026666666666664,24.55,0.0,1782.351,0.10500000000000043,100.0,25.924,24.755,43.086,41.732,0.0,0.0,100.0,0.0,0.0,0.0,0.0,2937.4285714285716,2791.9,4109.625,4046.4,305.81,305.994,314.79775,314.8135,21.8202,20.5186,21.8213,21.3701,314.999998,314.999998,324.999988,324.999988,99.55905714285714,99.50701666666667,99.56445714285714,99.54568571428571,-0.009749999999999925,-0.1146666666666667,-0.20166666666666666,0.029285714285714286,-0.051666666666669414,-0.054999999999999716,1.5275,1.564,37.376000000000005,29.241500000000002,37.382999999999996,34.5635,56.147,34.3525,58.7875,51.8185,54.041,33.527,57.4065,50.1755,53.179,33.0865,57.3405,49.60066666666667,-0.05049999999999999,-0.07100000000000017,0.10903000000000002,0.111405,0.0,207.965,207.9,204.85000000000002,204.85,0.0,0.0
7,0.0,0.0,0.0,1.0,1.0,0.0,0.0,1.0,0.0,100.0,1.0,1.1856,26.0,0.0,0.0,0.0,59.999996,0.0,26.0,26.0,26.0,26.0,-0.07587500000000003,0.29390000000000005,0.013300000000000001,294.159,-2.639,-2.76,-1.5183,-1.5762,-252.57999999999998,216.18,190.851625,0.0,0.0,0.0,0.0,0.015033333333333343,-5.498166666666667,-5.498166666666667,-0.48200000000000004,-0.03933333333333333,-0.05466666666666642,-0.265,66.533,-0.068,-0.162525,0.4720000000000004,100.0,1.0,1.0,205.28,0.0,0.0,0.0,0.0,0.0,0.0,0.0,8701.1,0.0,55.0,5.0,239.49,1.0,0.0,0.0,0.0,0.0,0.0,0.0,0.0,0.3539999999999992,0.3539999999999992,0.0,0.0,1.0,55.0,616.79921,10000.0,85.000001,85.000001,85.000001,85.000001,395.0,0.0,0.0,0.0,1.0,333.33500000000004,55.359,55.359,48.447,48.447,34.0,-26.2125,20.468333333333334,-32.11666666666666,24.762500000000003,0.0,1782.3,-0.17999999999999972,100.0,25.825,24.948,43.066,42.094,0.0,0.0,100.0,0.0,0.0,0.0,0.0,3123.4285714285716,2769.3,4126.75,4094.7,305.3585,305.893,314.77475,314.63675,21.8299,20.5235,21.831699999999998,21.3791,314.999998,314.999998,324.999988,324.999988,99.55907142857143,99.50701666666667,99.5646,99.54582857142857,0.014499999999999957,-0.09499999999999997,-0.18766666666666665,0.038,-0.03999999999999915,-0.04999999999999716,1.504,1.536,37.437,29.2715,37.448,34.619,56.129000000000005,34.388999999999996,58.829499999999996,51.879999999999995,54.024,33.5605,57.445499999999996,50.235,53.161,33.1185,57.3765,49.65866666666666,-0.07799999999999996,-0.04850000000000021,0.10305500000000001,0.10962000000000001,0.0,208.405,208.36,205.28,205.28,0.0,0.0
8,0.0,0.0,0.0,1.0,1.0,0.0,0.0,1.0,0.0,100.0,1.0,1.1856,26.0,0.0,0.0,0.0,59.999996,0.0,26.0,26.0,26.0,26.0,-0.04599999999999993,0.30479999999999996,0.0378,294.418,-2.7207,-2.753111111111111,-1.49835,-1.562,-249.19,216.1525,190.831125,0.0,0.0,0.0,0.0,0.016999999999999904,-5.498166666666667,-5.498166666666667,-0.48100000000000004,-0.5153333333333333,-0.03611111111111098,0.823,66.682,-0.049600000000000005,-0.150725,-0.06799999999999962,100.0,1.0,1.0,205.68,0.0,0.0,0.0,0.0,0.0,0.0,0.0,8718.0,0.0,55.0,5.0,240.0233333333333,0.0,0.0,0.0,0.0,0.0,0.0,0.0,0.0,0.40500000000000114,0.40500000000000114,0.0,0.0,0.0,55.0,616.79921,10000.0,85.000001,85.000001,85.000001,85.000001,395.0,0.0,0.0,0.0,1.0,333.33500000000004,56.29,56.29,47.684,47.684,34.0,-21.9675,21.6,-30.876666666666665,27.375,0.0,1782.249,-0.34499999999999886,100.0,25.548000000000002,24.754,43.150999999999996,42.138,0.0,0.0,100.0,0.0,0.0,0.0,0.0,2723.857142857143,2797.0,4186.25,4230.5,306.5405,306.0065,314.52325,314.3845,21.8393,20.5283,21.842,21.387999999999998,314.999998,314.999998,324.999988,324.999988,99.55907142857143,99.50703333333334,99.56474285714286,99.54597142857143,0.04325000000000001,-0.06333333333333324,-0.15416666666666667,0.07014285714285715,-0.051666666666669414,-0.05666666666667197,1.5025,1.49,37.495999999999995,29.302,37.513,34.675,56.108999999999995,34.4245,58.871,51.9415,54.004999999999995,33.593,57.4845,50.294,53.141999999999996,33.1495,57.4125,49.716,-0.09299999999999997,-0.032500000000000195,0.10980500000000001,0.10745,0.0,208.85000000000002,208.835,205.68,205.68,0.0,0.0
9,0.0,0.0,0.0,1.0,1.0,0.0,0.0,1.0,0.0,100.0,1.0,1.1856,26.0,0.0,0.0,0.0,59.999996,0.0,26.0,26.0,26.0,26.0,-0.01387499999999997,0.28190000000000004,-0.017766666666666667,294.083,-2.7131,-2.7558888888888893,-1.5584500000000001,-1.5592000000000001,-245.78,216.1275,190.81,0.0,0.0,0.0,0.0,0.018966666666666576,-5.498166666666667,-5.498166666666667,-0.4882,0.6480000000000001,-0.03633333333333333,-0.384,66.827,-0.0291,-0.15435000000000001,-0.12199999999999989,100.0,1.0,1.0,206.25333333333333,0.0,0.0,0.0,0.0,0.0,0.0,0.0,8742.4,0.0,55.0,5.0,240.54666666666668,1.0,0.0,0.0,0.0,0.0,0.0,0.0,0.0,0.4559999999999995,0.4559999999999995,0.0,0.0,1.0,55.0,616.79921,10000.0,85.000001,85.000001,85.000001,85.000001,395.0,0.0,0.0,0.0,1.0,166.665,54.993,54.993,48.766999999999996,48.766999999999996,34.0,-25.58,22.44833333333333,-29.21,26.455000000000002,0.0,1782.199,-0.4800000000000004,100.0,25.87,25.351,42.725,42.259,0.0,0.0,100.0,0.0,0.0,0.0,0.0,3186.4285714285716,2813.3,4028.875,4069.8,305.248,305.70675,315.076,314.73975,21.8489,20.5333,21.8523,21.3969,314.999998,314.999998,324.999988,324.999988,99.55908571428571,99.50705,99.56488571428571,99.5461,0.05750000000000011,-0.052999999999999936,-0.14183333333333334,0.08042857142857143,-0.04833333333333201,-0.02499999999999858,1.549,1.5465,37.556,29.3335,37.577,34.7305,56.093,34.460499999999996,58.909,52.0015,53.989000000000004,33.6265,57.519999999999996,50.3515,53.125,33.1815,57.445499999999996,49.772333333333336,-0.10499999999999998,-0.026499999999999968,0.11033000000000001,0.10187500000000001,0.0,209.305,209.285,206.25333333333333,206.25333333333333,0.0,0.0
10,0.0,0.0,0.0,1.0,1.0,0.0,0.0,1.0,0.0,100.0,1.0,1.1856,26.0,0.0,0.0,0.0,59.999996,0.0,26.0,26.0,26.0,26.0,0.00649999999999995,0.30110000000000015,0.0017666666666666668,293.915,-2.6869,-2.738666666666667,-1.53395,-1.5449000000000002,-242.57,216.1,190.790375,0.0,0.0,0.0,0.0,0.02083333333333337,-5.498166666666667,-5.498166666666667,-0.4632,-0.29166666666666663,0.000888888888888939,0.3780000000000001,66.967,-0.01,-0.142775,-0.41600000000000037,100.0,1.0,1.0,206.47333333333333,0.0,0.0,0.0,0.0,0.0,0.0,0.0,8751.7,0.0,55.0,5.0,241.05333333333334,0.0,0.0,0.0,0.0,0.0,0.0,1.0,0.0,0.5040000000000013,0.5040000000000013,0.0,0.0,0.0,55.0,616.79921,10000.0,85.000001,85.000001,85.000001,85.000001,395.0,0.0,0.0,0.0,1.0,333.33500000000004,56.046,56.046,47.195,47.195,34.0,-20.2725,21.281666666666666,-31.14666666666666,30.11,0.0,1782.149,-0.6149999999999984,100.0,25.745,25.358,43.116,43.004,0.0,0.0,100.0,0.0,0.0,0.0,0.0,2720.4285714285716,2655.1,4384.125,4303.3,306.6,306.23275,314.14,314.09425,21.8579,20.538,21.8622,21.4055,314.999998,314.999998,324.999988,324.999988,99.55908571428571,99.50705,99.56502857142857,99.54624285714286,0.08024999999999993,-0.040000000000000036,-0.11866666666666667,0.10857142857142857,-0.045000000000001705,-0.04999999999999716,1.4855,1.4569999999999999,37.611999999999995,29.362499999999997,37.638999999999996,34.7845,56.077,34.4925,58.9495,52.0625,53.974000000000004,33.656,57.558,50.41,53.11,33.2095,57.480000000000004,49.82966666666667,-0.11749999999999994,-0.020999999999999908,0.10905500000000001,0.11333000000000001,0.0,209.715,209.745,206.47333333333333,206.47333333333333,0.0,0.0
11,0.0,0.0,0.0,1.0,1.0,0.0,0.0,1.0,0.0,100.0,1.0,1.1856,26.0,0.0,0.0,0.0,59.999996,0.0,26.0,26.0,26.0,26.0,0.031625000000000014,0.2752000000000001,-0.0582,294.51,-2.7347,-2.718,-1.5956000000000001,-1.5289000000000001,-239.15,216.0725,190.76975,0.0,0.0,0.0,0.0,0.022599999999999953,-5.498166666666667,-5.498166666666667,-0.5072,-0.3526666666666666,0.03299999999999992,0.383,67.10900000000001,0.0082,-0.175325,-0.6099999999999994,100.0,1.0,1.0,207.20333333333332,0.0,0.0,0.0,0.0,0.0,0.0,0.0,8782.6,0.0,55.0,5.0,241.56333333333333,1.0,0.0,0.0,0.0,0.0,0.0,1.0,0.0,0.5549999999999997,0.5549999999999997,0.0,0.0,1.0,55.0,616.79921,10000.0,85.000001,85.000001,85.000001,85.000001,395.0,0.0,0.0,0.0,1.0,333.33500000000004,55.45,55.45,48.888999999999996,48.888999999999996,34.0,-20.6925,25.173333333333332,-24.346666666666664,27.330000000000002,0.0,1782.099,-0.7699999999999996,100.0,25.59,25.395,42.712,42.88,0.0,0.0,100.0,0.0,0.0,0.0,0.0,2796.5714285714284,2996.7,3706.125,3916.2,306.302,305.324,315.8355,315.13375,21.8671,20.5431,21.8724,21.4145,314.999998,314.999998,324.999988,324.999988,99.5591,99.50705,99.56515714285715,99.54638571428572,0.09925000000000006,-0.013333333333333197,-0.09116666666666667,0.1372857142857143,-0.06333333333333258,-0.05666666666667197,1.621,1.608,37.67,29.394,37.703,34.8405,56.059,34.5275,58.986,52.1235,53.957,33.688,57.592,50.4685,53.092,33.2405,57.5115,49.887,-0.11449999999999994,-0.01650000000000018,0.10604000000000001,0.10991000000000001,0.0,210.14,210.175,207.20333333333332,207.20333333333332,0.0,0.0
12,0.0,0.0,0.0,1.0,1.0,0.0,0.0,1.0,0.0,100.0,1.0,1.1856,26.0,0.0,0.0,0.0,59.999996,0.0,26.0,26.0,26.0,26.0,0.060124999999999984,0.2975000000000001,0.034833333333333334,293.9,-2.7896,-2.71,-1.5579,-1.5295,-235.72,216.0475,190.74775,0.0,0.0,0.0,0.0,0.025466666666666526,-5.498166666666667,-5.498166666666667,-0.4932,0.30200000000000005,0.014999999999999902,-0.859,67.257,0.025,-0.1441,-0.6579999999999995,100.0,1.0,1.0,207.44333333333333,0.0,0.0,0.0,0.0,0.0,0.0,0.0,8792.7,0.0,55.0,5.0,242.09333333333336,0.0,0.0,0.0,0.0,0.0,0.0,1.0,0.0,0.6059999999999981,0.6059999999999981,0.0,0.0,0.0,55.0,616.79921,10000.0,85.000001,85.000001,85.000001,85.000001,395.0,0.0,0.0,0.0,1.0,166.665,55.359,55.359,47.577,47.577,34.0,-22.21,24.693333333333335,-27.566666666666663,30.95,0.0,1782.049,-0.6950000000000003,100.0,25.368,25.742,42.533,42.858000000000004,0.0,0.0,100.0,0.0,0.0,0.0,0.0,2948.857142857143,2911.7,4271.375,4197.7,306.0325,305.43575,314.503,314.41125,21.8764,20.5482,21.8827,21.4234,314.999998,314.999998,324.999988,324.999988,99.55911428571429,99.50705,99.5653,99.54652857142857,0.10075000000000012,-0.0076666666666667105,-0.0695,0.15014285714285713,-0.054999999999999716,-0.045000000000001705,1.528,1.4954999999999998,37.727999999999994,29.426499999999997,37.766999999999996,34.8965,56.043,34.5625,59.025999999999996,52.1845,53.941,33.7205,57.629,50.527,53.076,33.272,57.545500000000004,49.94466666666666,-0.11199999999999999,-0.012500000000000178,0.10095000000000001,0.11631500000000002,0.0,210.60500000000002,210.655,207.44333333333333,207.44333333333333,0.0,0.0
13,0.0,0.0,0.0,1.0,1.0,0.0,0.0,1.0,0.0,100.0,1.0,1.1856,26.0,0.0,0.0,0.0,59.999996,0.0,26.0,26.0,26.0,26.0,0.06400000000000006,0.2932000000000001,0.05436666666666667,293.564,-2.7611,-2.708111111111111,-1.5917,-1.548,-232.29,216.0225,190.726,0.0,0.0,0.0,0.0,0.026833333333333376,-5.498166666666667,-5.498166666666667,-0.4849,-0.06233333333333335,0.020444444444444265,1.0630000000000002,67.402,0.0341,-0.151975,-0.8300000000000001,100.0,1.0,1.0,207.83666666666667,0.0,0.0,0.0,0.0,0.0,0.0,0.0,8809.4,0.0,55.0,5.0,242.61666666666667,1.0,0.0,0.0,0.0,0.0,0.0,1.0,0.0,0.657,0.657,0.0,0.0,1.0,55.0,616.79921,10000.0,85.000001,85.000001,85.000001,85.000001,395.0,0.0,0.0,0.0,1.0,166.665,55.115,55.115,47.516,47.516,34.0,-19.8,26.64,-27.269999999999996,33.457499999999996,0.0,1781.998,-0.9199999999999982,100.0,25.807,25.73,42.885,43.246,0.0,0.0,100.0,0.0,0.0,0.0,0.0,2863.857142857143,2988.7,4183.625,4388.5,306.0695,305.3665,314.58675,314.0065,21.8858,20.5534,21.8931,21.4326,314.999998,314.999998,324.999988,324.999988,99.55911428571429,99.50705,99.56544285714286,99.54667142857143,0.14300000000000024,0.029666666666666952,-0.06266666666666666,0.15814285714285714,-0.036666666666668846,-0.046666666666666856,1.5045,1.4595,37.786,29.459,37.832,34.954,56.028999999999996,34.5985,59.0665,52.2495,53.928,33.754,57.6665,50.5895,53.061,33.3035,57.58,50.00566666666667,-0.139,0.007500000000000062,0.10845,0.10323500000000001,0.0,211.035,211.09,207.83666666666667,207.83666666666667,0.0,0.0
14,0.0,0.0,0.0,1.0,1.0,0.0,0.0,1.0,0.0,100.0,1.0,1.1856,26.0,0.0,0.0,0.0,59.999996,0.0,26.0,26.0,26.0,26.0,0.09187499999999993,0.2895000000000001,-0.012766666666666667,293.869,-2.7699,-2.642555555555556,-1.60275,-1.5152999999999999,-228.85,215.9975,190.70475,0.0,0.0,0.0,0.0,0.028833333333333377,-5.498166666666667,-5.498166666666667,-0.49500000000000005,-0.16999999999999993,0.05088888888888898,-0.028000000000000025,67.544,0.0478,-0.1652,-0.9859999999999998,100.0,1.0,1.0,208.37,0.0,0.0,0.0,0.0,0.0,0.0,0.0,8832.0,0.0,55.0,5.0,243.13,0.0,0.0,0.0,0.0,0.0,0.0,1.0,0.0,0.7079999999999984,0.7079999999999984,0.0,0.0,0.0,55.0,616.79921,10000.0,85.000001,85.000001,85.000001,85.000001,395.0,0.0,0.0,0.0,1.0,166.665,55.298,55.298,47.806,47.806,34.0,-19.615,26.108333333333334,-25.82,31.2425,0.0,1781.947,-1.004999999999999,100.0,25.473,25.936,42.724000000000004,43.545,0.0,0.0,100.0,0.0,0.0,0.0,0.0,2834.142857142857,2974.5,4007.0,4185.0,306.3365,305.25075,315.0955,314.439,21.8951,20.5586,21.9035,21.4417,314.999998,314.999998,324.999988,324.999988,99.55914285714286,99.50705,99.56558571428572,99.54682857142858,0.13874999999999993,0.027666666666666728,-0.06283333333333334,0.16142857142857142,-0.045000000000001705,-0.054999999999999716,1.539,1.4975,37.844,29.491,37.897,35.010999999999996,56.015,34.634,59.105000000000004,52.3125,53.915,33.787,57.7025,50.65,53.047,33.335499999999996,57.6125,50.065,-0.14,0.014000000000000012,0.10795500000000001,0.10224000000000001,0.0,211.465,211.54000000000002,208.37,208.37,0.0,0.0
15,0.0,0.0,0.0,1.0,1.0,0.0,0.0,1.0,0.0,100.0,1.0,1.1856,26.0,0.0,0.0,0.0,59.999996,0.0,26.0,26.0,26.0,26.0,0.10375000000000001,0.2902,0.004266666666666667,293.869,-2.7377,-2.608777777777778,-1.63225,-1.4582,-225.81,215.98000000000002,190.68575,0.0,0.0,0.0,0.0,0.03059999999999996,-5.498166666666667,-5.498166666666667,-0.4857,0.33233333333333337,0.08099999999999996,1.1440000000000001,67.67,0.060700000000000004,-0.14515,-1.1639999999999997,100.0,1.0,1.0,208.73666666666668,0.0,0.0,0.0,0.0,0.0,0.0,0.0,8847.6,0.0,55.0,5.0,243.58333333333334,1.0,0.0,0.0,0.0,0.0,0.0,1.0,0.0,0.7530000000000001,0.7530000000000001,0.0,0.0,1.0,55.0,616.79921,10000.0,85.000001,85.000001,85.000001,85.000001,395.0,0.0,0.0,0.0,1.0,333.33500000000004,55.481,55.481,47.867,47.867,34.0,-17.107499999999998,26.93,-24.173333333333332,34.085,0.0,1781.9,-1.0399999999999991,100.0,25.663,25.84,42.571,43.505,0.0,0.0,100.0,0.0,0.0,0.0,0.0,2612.714285714286,3027.6,3977.125,4408.9,306.772,305.258,315.14875,314.0035,21.9032,20.5632,21.9125,21.4497,314.999998,314.999998,324.999988,324.999988,99.55915714285715,99.50706666666666,99.56571428571428,99.54695714285714,0.15850000000000009,0.04833333333333334,-0.026833333333333334,0.19471428571428573,-0.04999999999999716,-0.060000000000002274,1.545,1.4985,37.894999999999996,29.52,37.953,35.061,56.003,34.6665,59.1375,52.3685,53.903,33.817,57.7325,50.704,53.035,33.364,57.64,50.118,-0.14200000000000002,0.01200000000000001,0.09662000000000001,0.11599000000000001,0.0,211.87,211.95499999999998,208.73666666666668,208.73666666666668,0.0,0.0
16,0.0,0.0,0.0,1.0,1.0,0.0,0.0,1.0,0.0,100.0,1.0,1.1856,26.0,0.0,0.0,0.0,59.999996,0.0,26.0,26.0,26.0,26.0,0.1416250000000001,0.27590000000000003,-0.052833333333333336,293.869,-2.8353,-2.639111111111111,-1.6034000000000002,-1.4585,-222.35,215.9625,190.663625,0.0,0.0,0.0,0.0,0.03259999999999996,-5.498166666666667,-5.498166666666667,-0.5047,-0.729,0.06733333333333325,-0.953,67.813,0.0714,-0.159775,-1.2139999999999995,100.0,1.0,1.0,209.16,0.0,0.0,0.0,0.0,0.0,0.0,0.0,8865.5,0.0,55.0,5.0,244.09666666666666,0.0,0.0,0.0,0.0,0.0,0.0,1.0,0.0,0.8039999999999985,0.8039999999999985,0.0,0.0,0.0,55.0,616.79921,10000.0,85.000001,85.000001,85.000001,85.000001,395.0,0.0,0.0,0.0,1.0,333.33500000000004,55.435,55.435,47.455,47.455,34.0,-18.7375,27.035,-24.060000000000002,32.405,0.0,1781.849,-0.995000000000001,100.0,25.154,26.081,42.778,43.752,0.0,0.0,100.0,0.0,0.0,0.0,0.0,2787.857142857143,2980.6,4014.875,4172.9,306.564,305.22,315.09525,314.484,21.9122,20.5685,21.9229,21.4589,314.999998,314.999998,324.999988,324.999988,99.55917142857143,99.50706666666666,99.56587142857143,99.5471,0.16325000000000012,0.050666666666666416,-0.028333333333333332,0.2012857142857143,-0.05333333333332746,-0.05333333333332746,1.5545,1.494,37.951,29.552999999999997,38.018,35.118,55.986000000000004,34.704,59.177,52.4315,53.887,33.8515,57.7695,50.765,53.018,33.3975,57.674,50.178,-0.14500000000000002,0.01649999999999996,0.10746000000000001,0.11303,0.0,212.275,212.36,209.16,209.16,0.0,0.0
17,0.0,0.0,0.0,1.0,1.0,0.0,0.0,1.0,0.0,100.0,1.0,1.1856,26.0,0.0,0.0,0.0,59.999996,0.0,26.0,26.0,26.0,26.0,0.09737499999999999,0.2882,-0.03676666666666667,293.579,-2.7919,-2.5964444444444443,-1.63935,-1.4828999999999999,-218.89,215.9475,190.641125,0.0,0.0,0.0,0.0,0.034599999999999964,-5.498166666666667,-5.498166666666667,-0.49660000000000004,0.5643333333333334,0.045333333333333226,0.4910000000000001,67.95400000000001,0.07640000000000001,-0.14315,-0.9420000000000002,100.0,1.0,1.0,209.58333333333331,0.0,0.0,0.0,0.0,0.0,0.0,0.0,8883.4,0.0,55.0,5.0,244.60333333333335,1.0,0.0,0.0,0.0,0.0,0.0,1.0,0.0,0.8550000000000004,0.8550000000000004,0.0,0.0,1.0,55.0,616.79921,10000.0,85.000001,85.000001,85.000001,85.000001,395.0,0.0,0.0,0.0,1.0,333.33500000000004,55.13,55.13,47.546,47.546,34.0,-19.36,25.093333333333334,-25.023333333333333,34.155,0.0,1781.798,-0.36499999999999844,100.0,25.819,26.246,42.611000000000004,43.647999999999996,0.0,0.0,100.0,0.0,0.0,0.0,0.0,2786.142857142857,2945.3,4207.75,4296.4,306.356,305.5155,314.68825,314.29225,21.9214,20.5738,21.9331,21.4679,314.999998,314.999998,324.999988,324.999988,99.55918571428572,99.50706666666666,99.566,99.54724285714286,0.14375000000000027,0.024333333333333318,-0.010833333333333334,0.20885714285714285,-0.046666666666666856,-0.05333333333332746,1.542,1.491,38.009,29.5865,38.082,35.1745,55.973,34.7425,59.214,52.494,53.875,33.887,57.8035,50.8255,53.004999999999995,33.4315,57.705,50.23733333333333,-0.10549999999999993,-0.03200000000000003,0.09501000000000001,0.11539,0.0,212.755,212.825,209.58333333333331,209.58333333333331,0.0,0.0
18,0.0,0.0,0.0,1.0,1.0,0.0,0.0,1.0,0.0,100.0,1.0,1.1856,26.0,0.0,0.0,0.0,59.999996,0.0,26.0,26.0,26.0,26.0,0.052000000000000046,0.2793000000000001,-0.03693333333333333,293.579,-2.8148,-2.583111111111111,-1.6438000000000001,-1.4435,-215.63,215.935,190.62,0.0,0.0,0.0,0.0,0.03649999999999998,-5.498166666666667,-5.498166666666667,-0.504,-0.5493333333333332,0.05433333333333312,0.7989999999999999,68.087,0.0685,-0.15637500000000001,-0.44399999999999995,100.0,1.0,1.0,209.99666666666667,0.0,0.0,0.0,0.0,0.0,0.0,0.0,8901.0,0.0,55.0,5.0,245.08333333333334,0.0,0.0,0.0,0.0,0.0,0.0,1.0,0.0,0.9029999999999987,0.9029999999999987,0.0,0.0,0.0,55.0,616.79921,10000.0,85.000001,85.000001,85.000001,85.000001,395.0,0.0,0.0,0.0,1.0,333.33500000000004,55.161,55.161,47.348,47.348,34.0,-20.695,25.494999999999997,-25.759999999999998,31.1825,0.0,1781.751,-0.02499999999999858,100.0,25.604,25.956,43.045,43.982,0.0,0.0,100.0,0.0,0.0,0.0,0.0,2807.0,3103.9,4072.75,4196.0,306.3625,305.14175,314.9405,314.5135,21.93,20.5787,21.9429,21.4767,314.999998,314.999998,324.999988,324.999988,99.5592,99.50708333333333,99.56614285714285,99.54738571428571,0.11675000000000013,0.0016666666666669272,-0.039,0.18157142857142858,-0.036666666666668846,-0.05666666666667197,1.5215,1.5165,38.063,29.616999999999997,38.143,35.229,55.958,34.7755,59.2515,52.555,53.86,33.917500000000004,57.839,50.884,52.989999999999995,33.461,57.7375,50.294666666666664,-0.07399999999999995,-0.05500000000000016,0.102855,0.10221000000000001,0.0,213.16500000000002,213.185,209.99666666666667,209.99666666666667,0.0,0.0
19,0.0,0.0,0.0,1.0,1.0,0.0,0.0,1.0,0.0,100.0,1.0,1.1856,26.0,0.0,0.0,0.0,59.999996,0.0,26.0,26.0,26.0,26.0,0.03574999999999995,0.2914000000000001,0.0373,293.03,-2.7699,-2.5845555555555557,-1.64155,-1.441,-212.14999999999998,215.925,190.597375,0.0,0.0,0.0,0.0,0.03853333333333331,-5.498166666666667,-5.498166666666667,-0.49660000000000004,0.861,0.04200000000000004,-0.899,68.227,0.0492,-0.145925,0.1479999999999997,100.0,1.0,1.0,210.40666666666667,0.0,0.0,0.0,0.0,0.0,0.0,0.0,8918.4,0.0,55.0,5.0,245.58666666666664,1.0,0.0,0.0,0.0,0.0,0.0,1.0,0.0,0.9540000000000006,0.9540000000000006,0.0,0.0,1.0,55.0,616.79921,10000.0,85.000001,85.000001,85.000001,85.000001,395.0,0.0,0.0,0.0,1.0,333.33500000000004,54.352,54.352,47.241,47.241,34.0,-23.5875,23.674999999999997,-28.756666666666668,30.5275,0.0,1781.7,0.23000000000000043,100.0,26.094,26.483,42.866,43.864000000000004,0.0,0.0,100.0,0.0,0.0,0.0,0.0,3031.5714285714284,3032.3,4281.375,4321.2,305.728,305.0565,314.56525,314.22925,21.9394,20.5842,21.9532,21.4857,314.999998,314.999998,324.999988,324.999988,99.55921428571429,99.50708333333333,99.56628571428571,99.54754285714286,0.08375000000000021,-0.03633333333333311,-0.06783333333333333,0.15,-0.04333333333332945,-0.046666666666666856,1.518,1.5274999999999999,38.120999999999995,29.651,38.207,35.286,55.944,34.813,59.289,52.617,53.847,33.9525,57.8735,50.9435,52.975,33.4945,57.769,50.353,-0.04949999999999999,-0.08749999999999991,0.09782500000000001,0.111405,0.0,213.65,213.64,210.40666666666667,210.40666666666667,0.0,0.0
20,0.0,0.0,0.0,1.0,1.0,0.0,0.0,1.0,0.0,100.0,1.0,1.1856,26.0,0.0,0.0,0.0,59.999996,0.0,26.0,26.0,26.0,26.0,0.003249999999999975,0.28800000000000003,0.011933333333333334,293.304,-2.7945,-2.6743333333333332,-1.5525,-1.4691,-208.67000000000002,215.91500000000002,190.575,0.0,0.0,0.0,0.0,0.04056666666666653,-5.498166666666667,-5.498166666666667,-0.49570000000000003,-1.098,0.02444444444444427,0.08600000000000008,68.37,0.019,-0.152275,0.3520000000000003,100.0,1.0,1.0,210.71333333333334,0.0,0.0,0.0,0.0,0.0,0.0,0.0,8931.3,0.0,55.0,5.0,246.10000000000002,0.0,0.0,0.0,0.0,0.0,0.0,0.0,0.0,1.004999999999999,1.004999999999999,0.0,0.0,0.0,55.0,616.79921,10000.0,85.000001,85.000001,85.000001,85.000001,395.0,0.0,0.0,0.0,1.0,333.33500000000004,55.588,55.588,46.387,46.387,34.0,-21.61,22.401666666666667,-29.46,30.705000000000002,0.0,1781.649,0.35999999999999943,100.0,25.733,25.916,43.79,44.053,0.0,0.0,100.0,0.0,0.0,0.0,0.0,2707.285714285714,2897.4,4247.0,4391.4,306.682,305.691,314.40875,314.0105,21.9484,20.5893,21.9637,21.495,314.999998,314.999998,324.999988,324.999988,99.55922857142858,99.5071,99.56642857142857,99.54768571428572,0.06325000000000003,-0.05066666666666664,-0.09833333333333333,0.129,-0.02499999999999858,-0.04833333333333201,1.4505,1.4725000000000001,38.178,29.683,38.272999999999996,35.344,55.924,34.8485,59.3315,52.681,53.828,33.985,57.913,51.0055,52.956,33.525999999999996,57.805,50.414,-0.038000000000000034,-0.09200000000000008,0.11045500000000001,0.10550500000000002,0.0,214.04000000000002,214.01999999999998,210.71333333333334,210.71333333333334,0.0,0.0
21,0.0,0.0,0.0,1.0,1.0,0.0,0.0,1.0,0.0,100.0,1.0,1.1856,26.0,0.0,0.0,0.0,59.999996,0.0,26.0,26.0,26.0,26.0,-0.039874999999999994,0.2679,-0.06893333333333335,293.701,-2.6846,-2.7506666666666666,-1.60065,-1.5594999999999999,-205.38,215.905,190.553375,0.0,0.0,0.0,0.0,0.04246666666666654,-5.498166666666667,-5.498166666666667,-0.5223,0.43633333333333324,-0.011555555555555763,-0.12,68.49600000000001,-0.008700000000000001,-0.15945,0.6179999999999994,100.0,1.0,1.0,211.38,0.0,0.0,0.0,0.0,0.0,0.0,0.0,8959.6,0.0,55.0,5.0,246.55666666666667,1.0,0.0,0.0,0.0,0.0,0.0,0.0,0.0,1.0530000000000008,1.0530000000000008,0.0,0.0,1.0,55.0,616.79921,10000.0,85.000001,85.000001,85.000001,85.000001,395.0,0.0,0.0,0.0,1.0,166.665,54.977,54.977,47.928,47.928,34.0,-23.33,22.491666666666667,-29.08,26.3725,0.0,1781.602,0.28999999999999915,100.0,26.197,25.854,43.331,43.473,0.0,0.0,100.0,0.0,0.0,0.0,0.0,2908.5714285714284,2909.1,4031.625,3970.1000000000004,305.9115,305.57675,315.12725,315.082,21.9572,20.5942,21.973300000000002,21.5034,314.999998,314.999998,324.999988,324.999988,99.55922857142858,99.5071,99.56657142857142,99.54781428571428,0.04974999999999996,-0.07000000000000006,-0.12833333333333335,0.099,-0.046666666666666856,-0.051666666666669414,1.5614999999999999,1.5875,38.232,29.714,38.333,35.3965,55.907,34.8835,59.3645,52.735,53.812,34.0175,57.944,51.0575,52.939,33.557,57.8335,50.464666666666666,-0.039000000000000035,-0.09350000000000014,0.10963500000000001,0.10340500000000001,0.0,214.49,214.41500000000002,211.38,211.38,0.0,0.0
22,0.0,0.0,0.0,1.0,1.0,0.0,0.0,1.0,0.0,100.0,1.0,1.1856,26.0,0.0,0.0,0.0,59.999996,0.0,26.0,26.0,26.0,26.0,-0.03837499999999994,0.2761,0.02866666666666667,293.152,-2.6569,-2.7653333333333334,-1.58515,-1.6059999999999999,-201.88,215.89499999999998,190.5295,0.0,0.0,0.0,0.0,0.044499999999999984,-5.498166666666667,-5.498166666666667,-0.4994,0.13366666666666682,-0.01822222222222214,-0.517,68.638,-0.029900000000000003,-0.13645000000000002,0.6920000000000011,100.0,1.0,1.0,211.59,0.0,0.0,0.0,0.0,0.0,0.0,0.0,8968.5,0.0,55.0,5.0,247.06666666666666,0.0,0.0,0.0,0.0,0.0,0.0,0.0,0.0,1.1039999999999992,1.1039999999999992,0.0,0.0,0.0,55.0,616.79921,10000.0,85.000001,85.000001,85.000001,85.000001,395.0,0.0,0.0,0.0,1.0,166.665,55.054,55.054,46.677,46.677,34.0,-23.612499999999997,20.898333333333333,-34.123333333333335,27.87,0.0,1781.551,0.21000000000000085,100.0,26.206,25.995,43.813,43.635,0.0,0.0,100.0,0.0,0.0,0.0,0.0,2921.5714285714284,2772.2,4352.25,4243.3,306.011,305.78225,314.34525,314.3,21.9665,20.5994,21.9838,21.5126,314.999998,314.999998,324.999988,324.999988,99.55922857142858,99.5071,99.56671428571428,99.54797142857143,0.035499999999999865,-0.08999999999999986,-0.16433333333333336,0.06242857142857143,-0.06833333333332803,-0.03499999999999659,1.461,1.492,38.291,29.746000000000002,38.399,35.4535,55.89,34.920500000000004,59.407,52.7965,53.796,34.052,57.984,51.1165,52.922,33.5895,57.87,50.522333333333336,-0.05349999999999999,-0.08400000000000007,0.11329000000000002,0.102165,0.0,214.935,214.865,211.59,211.59,0.0,0.0
23,0.0,0.0,0.0,1.0,1.0,0.0,0.0,1.0,0.0,100.0,1.0,1.1856,26.0,0.0,0.0,0.0,59.999996,0.0,26.0,26.0,26.0,26.0,-0.05625000000000002,0.25880000000000014,-0.0028,293.137,-2.6769,-2.7270000000000003,-1.50705,-1.6292,-198.38,215.8825,190.506125,0.0,0.0,0.0,0.0,0.046533333333333315,-5.498166666666667,-5.498166666666667,-0.5184,-0.348,-0.02499999999999991,0.504,68.774,-0.037700000000000004,-0.16375,0.6299999999999999,100.0,1.0,1.0,212.10333333333335,0.0,0.0,0.0,0.0,0.0,0.0,0.0,8990.3,0.0,55.0,5.0,247.56,1.0,0.0,0.0,0.0,0.0,0.0,0.0,0.0,1.1550000000000011,1.1550000000000011,0.0,0.0,1.0,55.0,616.79921,10000.0,85.000001,85.000001,85.000001,85.000001,395.0,0.0,0.0,0.0,1.0,166.665,54.459,54.459,47.607,47.607,34.0,-25.9375,21.74666666666667,-29.11,27.505,0.0,1781.5,0.1700000000000017,100.0,26.576,25.859,44.144,43.730000000000004,0.0,0.0,100.0,0.0,0.0,0.0,0.0,3140.142857142857,2917.5,3986.375,4051.0,305.3285,305.6205,315.07025,314.78,21.9758,20.6046,21.9942,21.5218,314.999998,314.999998,324.999988,324.999988,99.55924285714286,99.50711666666666,99.56685714285715,99.54811428571429,0.03500000000000014,-0.08399999999999985,-0.15166666666666667,0.08114285714285714,-0.041666666666671404,-0.05333333333332746,1.5015,1.5195,38.349000000000004,29.7785,38.464,35.5115,55.870999999999995,34.9585,59.4475,52.858000000000004,53.778,34.087,58.0215,51.1755,52.903999999999996,33.623,57.9045,50.580333333333336,-0.05349999999999999,-0.08400000000000007,0.10662500000000001,0.11461,0.0,215.315,215.285,212.10333333333335,212.10333333333335,0.0,0.0
24,0.0,0.0,0.0,1.0,1.0,0.0,0.0,1.0,0.0,100.0,1.0,1.1856,26.0,0.0,0.0,0.0,59.999996,0.0,26.0,26.0,26.0,26.0,-0.06599999999999995,0.28269999999999995,-0.0539,293.442,-2.701,-2.7373333333333334,-1.54925,-1.5684,-195.07999999999998,215.87,190.483625,0.0,0.0,0.0,0.0,0.04846666666666655,-5.498166666666667,-5.498166666666667,-0.5216000000000001,-0.495,-0.016111111111110965,1.0260000000000002,68.904,-0.0422,-0.148925,0.41000000000000014,100.0,1.0,1.0,212.42666666666668,0.0,0.0,0.0,0.0,0.0,0.0,0.0,9004.0,0.0,55.0,5.0,248.02666666666664,0.0,0.0,0.0,0.0,0.0,0.0,0.0,0.0,1.2029999999999994,1.2029999999999994,0.0,0.0,0.0,55.0,616.79921,10000.0,85.000001,85.000001,85.000001,85.000001,395.0,0.0,0.0,0.0,1.0,166.665,55.649,55.649,46.738,46.738,34.0,-22.384999999999998,20.48833333333333,-32.96333333333334,26.54,0.0,1781.452,0.07499999999999929,100.0,26.351,25.553,44.116,43.567,0.0,0.0,100.0,0.0,0.0,0.0,0.0,2747.4285714285716,2752.1,4317.75,4170.6,306.4525,306.1625,314.2985,314.58825,21.9845,20.6093,22.004,21.5304,314.999998,314.999998,324.999988,324.999988,99.55925714285715,99.50713333333333,99.567,99.54824285714285,0.0365000000000002,-0.08066666666666666,-0.15633333333333335,0.063,-0.04833333333333201,-0.04999999999999716,1.4835,1.5225,38.403,29.808,38.525,35.565,55.854,34.992,59.485,52.914500000000004,53.760999999999996,34.1175,58.0565,51.230000000000004,52.887,33.653,57.937,50.632999999999996,-0.06599999999999995,-0.0665,0.105535,0.10289000000000001,0.0,215.735,215.68,212.42666666666668,212.42666666666668,0.0,0.0
25,0.0,0.0,0.0,1.0,1.0,0.0,0.0,1.0,0.0,100.0,1.0,1.1856,26.0,0.0,0.0,0.0,59.999996,0.0,26.0,26.0,26.0,26.0,-0.04799999999999993,0.2771000000000001,-0.06403333333333334,293.365,-2.768,-2.697,-1.56285,-1.5742,-191.56,215.85750000000002,190.458375,0.0,0.0,0.0,0.0,0.05049999999999999,-5.498166666666667,-5.498166666666667,-0.5547000000000001,-0.08199999999999996,-0.01722222222222225,-0.992,69.039,-0.0378,-0.15712500000000001,0.36600000000000055,100.0,1.0,1.0,212.96666666666667,0.0,0.0,0.0,0.0,0.0,0.0,0.0,9026.9,0.0,55.0,5.0,248.51333333333332,1.0,0.0,0.0,0.0,0.0,0.0,0.0,0.0,1.2540000000000013,1.2540000000000013,0.0,0.0,1.0,55.0,616.79921,10000.0,85.000001,85.000001,85.000001,85.000001,395.0,0.0,0.0,0.0,1.0,333.33500000000004,54.641999999999996,54.641999999999996,47.485,47.485,34.0,-26.4775,22.098333333333333,-29.336666666666666,26.03,0.0,1781.4,0.07499999999999929,100.0,26.161,25.921,43.827,43.39,0.0,0.0,100.0,0.0,0.0,0.0,0.0,3132.285714285714,2968.9,4018.25,4023.1000000000004,305.588,305.3295,315.14375,314.92925,21.9936,20.6145,22.0143,21.5394,314.999998,314.999998,324.999988,324.999988,99.55925714285715,99.50713333333333,99.56715714285714,99.5484,0.03275000000000006,-0.08399999999999985,-0.14566666666666667,0.07671428571428571,-0.05333333333332746,-0.060000000000002274,1.569,1.5685,38.46,29.8405,38.589,35.6215,55.833,35.0295,59.5225,52.9725,53.742000000000004,34.152,58.091499999999996,51.2855,52.867000000000004,33.686,57.969,50.687333333333335,-0.06999999999999995,-0.0714999999999999,0.09881500000000001,0.11387000000000001,0.0,216.14499999999998,216.115,212.96666666666667,212.96666666666667,0.0,0.0
26,0.0,0.0,0.0,1.0,1.0,0.0,0.0,1.0,0.0,100.0,1.0,1.1856,26.0,0.0,0.0,0.0,59.999996,0.0,26.0,26.0,26.0,26.0,-0.058250000000000024,0.2893000000000001,0.07886666666666667,292.191,-2.7144,-2.7743333333333333,-1.6112000000000002,-1.5669,-188.03,215.84,190.4325,0.0,0.0,0.0,0.0,0.05253333333333332,-5.498166666666667,-5.498166666666667,-0.5146000000000001,0.7803333333333333,-0.0301111111111112,0.764,69.178,-0.0358,-0.12815000000000001,0.25399999999999956,100.0,1.0,1.0,213.14,0.0,0.0,0.0,0.0,0.0,0.0,0.0,9034.2,0.0,55.0,5.0,249.01333333333332,0.0,0.0,0.0,0.0,0.0,0.0,0.0,0.0,1.3049999999999997,1.3049999999999997,0.0,0.0,0.0,55.0,616.79921,10000.0,85.000001,85.000001,85.000001,85.000001,395.0,0.0,0.0,0.0,1.0,333.33500000000004,54.123,54.123,45.807,45.807,34.0,-24.255,22.59166666666667,-35.57333333333334,30.88,0.0,1781.349,-0.16499999999999915,100.0,27.131,26.441,44.335,43.711,0.0,0.0,100.0,0.0,0.0,0.0,0.0,2991.714285714286,2912.2,4574.25,4545.6,305.6715,305.5205,313.78,313.70425,22.003,20.6199,22.0248,21.5487,314.999998,314.999998,324.999988,324.999988,99.55925714285715,99.50715,99.5673,99.54854285714286,0.052999999999999936,-0.07566666666666677,-0.1405,0.08157142857142857,-0.045000000000001705,-0.05666666666667197,1.423,1.436,38.519,29.874000000000002,38.655,35.679,55.818,35.069,59.564499999999995,53.0345,53.727999999999994,34.189,58.131,51.345,52.852000000000004,33.721000000000004,58.004999999999995,50.745666666666665,-0.07999999999999996,-0.06550000000000011,0.10630500000000001,0.10756500000000001,0.0,216.60000000000002,216.57,213.14,213.14,0.0,0.0
27,0.0,0.0,0.0,1.0,1.0,0.0,0.0,1.0,0.0,100.0,1.0,1.1856,26.0,0.0,0.0,0.0,59.999996,0.0,26.0,26.0,26.0,26.0,-0.03374999999999995,0.2602,-0.017733333333333334,292.618,-2.6863,-2.7377777777777776,-1.6044,-1.6360999999999999,-184.70999999999998,215.825,190.409375,0.0,0.0,0.0,0.0,0.05446666666666655,-5.498166666666667,-5.498166666666667,-0.5376000000000001,-1.055,-0.025555555555555554,0.8200000000000001,69.305,-0.0291,-0.1721,0.09200000000000053,100.0,1.0,1.0,213.63,0.0,0.0,0.0,0.0,0.0,0.0,0.0,9054.9,0.0,55.0,5.0,249.47333333333336,1.0,0.0,0.0,0.0,0.0,0.0,0.0,0.0,1.352999999999998,1.352999999999998,0.0,0.0,1.0,55.0,616.79921,10000.0,85.000001,85.000001,85.000001,85.000001,395.0,0.0,0.0,0.0,1.0,333.33500000000004,54.581,54.581,46.143,46.143,34.0,-22.775,22.96666666666667,-31.066666666666663,29.1925,0.0,1781.301,-0.23999999999999844,100.0,26.777,26.22,44.973,44.385000000000005,0.0,0.0,100.0,0.0,0.0,0.0,0.0,2881.4285714285716,2946.8,4157.625,4145.6,306.017,305.5435,314.688,314.5515,22.0116,20.6247,22.0348,21.5575,314.999998,314.999998,324.999988,324.999988,99.55927142857144,99.50715,99.56744285714285,99.54868571428571,0.05799999999999983,-0.062000000000000055,-0.13233333333333336,0.09342857142857143,-0.03499999999999659,-0.046666666666666856,1.478,1.4825,38.572,29.9045,38.717,35.7345,55.801,35.103,59.6045,53.0935,53.712,34.2205,58.168,51.402,52.835,33.751,58.039500000000004,50.800666666666665,-0.08399999999999996,-0.052999999999999936,0.10271000000000001,0.10808500000000001,0.0,216.93,216.91500000000002,213.63,213.63,0.0,0.0
28,0.0,0.0,0.0,1.0,1.0,0.0,0.0,1.0,0.0,100.0,1.0,1.1856,26.0,0.0,0.0,0.0,59.999996,0.0,26.0,26.0,26.0,26.0,-0.025374999999999925,0.27080000000000015,-0.04413333333333334,292.938,-2.679,-2.7190000000000003,-1.58575,-1.5913,-180.95999999999998,215.8075,190.3825,0.0,0.0,0.0,0.0,0.05666666666666653,-5.498166666666667,-5.498166666666667,-0.543,0.7076666666666669,-0.024111111111110972,0.823,69.445,-0.0221,-0.145375,-0.047999999999999154,100.0,1.0,1.0,214.17000000000002,0.0,0.0,0.0,0.0,0.0,0.0,0.0,9077.8,0.0,55.0,5.0,249.97333333333336,0.0,0.0,0.0,0.0,0.0,0.0,0.0,0.0,1.407,1.407,0.0,0.0,0.0,55.0,616.79921,10000.0,85.000001,85.000001,85.000001,85.000001,395.0,0.0,0.0,0.0,1.0,166.665,54.565,54.565,47.058,47.058,34.0,-22.2,23.15833333333333,-30.14333333333333,28.6575,0.0,1781.248,-0.34999999999999787,100.0,26.775,26.161,44.149,43.855000000000004,0.0,0.0,100.0,0.0,0.0,0.0,0.0,2905.0,2935.4,4134.375,4190.4,305.8705,305.56425,314.935,314.55525,22.0213,20.6303,22.0455,21.5671,314.999998,314.999998,324.999988,324.999988,99.55927142857144,99.50716666666666,99.5676,99.54884285714286,0.07874999999999988,-0.05066666666666664,-0.1345,0.09528571428571429,-0.030000000000001137,-0.05333333333332746,1.545,1.54,38.632999999999996,29.939500000000002,38.785,35.7945,55.784,35.141999999999996,59.641999999999996,53.155,53.696,34.2565,58.203,51.460499999999996,52.818,33.7855,58.071,50.858333333333334,-0.09850000000000003,-0.04200000000000026,0.110005,0.10754500000000002,0.0,217.41,217.4,214.17000000000002,214.17000000000002,0.0,0.0
29,0.0,0.0,0.0,1.0,1.0,0.0,0.0,1.0,0.0,100.0,1.0,1.1856,26.0,0.0,0.0,0.0,59.999996,0.0,26.0,26.0,26.0,26.0,-0.0010000000000000009,0.27080000000000015,0.0216,292.618,-2.6711,-2.7654444444444444,-1.56405,-1.5692,-177.63,215.79000000000002,190.357625,0.0,0.0,0.0,0.0,0.058599999999999985,-5.498166666666667,-5.498166666666667,-0.546,-0.6793333333333333,-0.015555555555555767,0.9490000000000001,69.574,-0.0103,-0.145925,-0.2400000000000002,100.0,1.0,1.0,214.38666666666666,0.0,0.0,0.0,0.0,0.0,0.0,0.0,9087.1,0.0,55.0,5.0,250.44,1.0,0.0,0.0,0.0,0.0,0.0,0.0,0.0,1.4549999999999983,1.4549999999999983,0.0,0.0,1.0,55.0,616.79921,10000.0,85.000001,85.000001,85.000001,85.000001,395.0,0.0,0.0,0.0,1.0,333.33500000000004,54.718,54.718,46.066,46.066,34.0,-21.7575,24.576666666666668,-30.493333333333332,30.7025,0.0,1781.199,-0.41999999999999815,100.0,26.372,26.052,44.533,44.186,0.0,0.0,100.0,0.0,0.0,0.0,0.0,2902.285714285714,2982.9,4243.875,4351.8,306.0005,305.315,314.4455,314.124,22.0297,20.6352,22.0555,21.5759,314.999998,314.999998,324.999988,324.999988,99.55928571428572,99.50716666666666,99.56774285714286,99.54898571428572,0.08400000000000007,-0.038999999999999924,-0.11516666666666667,0.10657142857142857,-0.03833333333332689,-0.041666666666671404,1.462,1.459,38.686,29.97,38.847,35.8495,55.766999999999996,35.175,59.681,53.213499999999996,53.679,34.287,58.24,51.516999999999996,52.801,33.8145,58.105000000000004,50.913333333333334,-0.10150000000000003,-0.03750000000000009,0.10815000000000001,0.10322,0.0,217.76,217.765,214.38666666666666,214.38666666666666,0.0,0.0
30,0.0,0.0,0.0,1.0,1.0,0.0,0.0,1.0,0.0,100.0,1.0,1.1856,26.0,0.0,0.0,0.0,59.999996,0.0,26.0,26.0,26.0,26.0,0.010874999999999968,0.26180000000000003,0.06696666666666666,292.191,-2.7328,-2.649,-1.53925,-1.6216,-174.28,215.7725,190.33275,0.0,0.0,0.0,0.0,0.06053333333333333,-5.498166666666667,-5.498166666666667,-0.5475,0.7573333333333332,-0.014666666666666828,0.623,69.69800000000001,0.0024000000000000002,-0.149325,-0.33000000000000007,100.0,1.0,1.0,214.85333333333335,0.0,0.0,0.0,0.0,0.0,0.0,0.0,9106.9,0.0,55.0,5.0,250.88666666666666,0.0,0.0,0.0,0.0,0.0,0.0,1.0,0.0,1.5030000000000001,1.5030000000000001,0.0,0.0,0.0,55.0,616.79921,10000.0,85.000001,85.000001,85.000001,85.000001,395.0,0.0,0.0,0.0,1.0,333.33500000000004,53.543,53.543,46.616,46.616,34.0,-23.8325,24.691666666666666,-28.086666666666666,31.7175,0.0,1781.15,-0.3949999999999996,100.0,27.133,26.787,44.237,44.214,0.0,0.0,100.0,0.0,0.0,0.0,0.0,3120.857142857143,3053.5,4192.125,4277.5,305.3045,305.092,314.68,314.26925,22.0384,20.6404,22.0651,21.584600000000002,314.999998,314.999998,324.999988,324.999988,99.5593,99.50718333333333,99.56788571428571,99.54911428571428,0.0950000000000002,-0.028000000000000025,-0.09016666666666667,0.12257142857142857,-0.04833333333333201,-0.054999999999999716,1.4935,1.4685000000000001,38.739999999999995,30.002499999999998,38.907,35.9035,55.754000000000005,35.211,59.7155,53.269999999999996,53.668,34.32,58.272,51.5715,52.788,33.847,58.134,50.96666666666667,-0.10849999999999993,-0.035499999999999865,0.10031000000000001,0.10691500000000001,0.0,218.18,218.2,214.85333333333335,214.85333333333335,0.0,0.0
31,0.0,0.0,0.0,1.0,1.0,0.0,0.0,1.0,0.0,100.0,1.0,1.1856,26.0,0.0,0.0,0.0,59.999996,0.0,26.0,26.0,26.0,26.0,0.007875000000000076,0.2559,0.0019,292.038,-2.8035,-2.623333333333333,-1.5927,-1.5128,-170.73000000000002,215.755,190.306875,0.0,0.0,0.0,0.0,0.06259999999999999,-5.498166666666667,-5.498166666666667,-0.5308,-0.5313333333333333,-0.004999999999999893,-0.755,69.833,0.0151,-0.148675,-0.33399999999999963,100.0,1.0,1.0,215.14333333333332,0.0,0.0,0.0,0.0,0.0,0.0,0.0,9119.1,0.0,55.0,5.0,251.37,1.0,0.0,0.0,0.0,0.0,0.0,1.0,0.0,1.5539999999999985,1.5539999999999985,0.0,0.0,1.0,55.0,616.79921,10000.0,85.000001,85.000001,85.000001,85.000001,395.0,0.0,0.0,0.0,1.0,166.665,54.23,54.23,45.135,45.135,34.0,-22.7,23.65,-31.299999999999997,30.84,0.0,1781.101,-0.4400000000000013,100.0,26.682,26.928,44.789,45.007999999999996,0.0,0.0,100.0,0.0,0.0,0.0,0.0,2972.714285714286,2995.5,4443.25,4262.9,306.0595,305.32575,314.04875,314.21675,22.0475,20.6458,22.0757,21.5941,314.999998,314.999998,324.999988,324.999988,99.55931428571428,99.50718333333333,99.56802857142857,99.54927142857143,0.09650000000000025,-0.033666666666666734,-0.09183333333333334,0.131,-0.045000000000001705,-0.03833333333332689,1.447,1.4155,38.797,30.0365,38.973,35.963,55.739000000000004,35.2475,59.7575,53.334,53.653,34.354,58.3115,51.632999999999996,52.772999999999996,33.879,58.170500000000004,51.02633333333333,-0.10250000000000004,-0.04249999999999998,0.10070000000000001,0.11159500000000001,0.0,218.57,218.585,215.14333333333332,215.14333333333332,0.0,0.0
32,0.0,0.0,0.0,1.0,1.0,0.0,0.0,1.0,0.0,100.0,1.0,1.1856,26.0,0.0,0.0,0.0,59.999996,0.0,26.0,26.0,26.0,26.0,0.03337499999999993,0.2822,-0.019866666666666668,292.267,-2.7118,-2.728111111111111,-1.6440000000000001,-1.5185,-166.95,215.7375,190.27975,0.0,0.0,0.0,0.0,0.06479999999999997,-5.498166666666667,-5.498166666666667,-0.547,-0.01100000000000001,-0.025333333333333208,-1.047,69.971,0.021500000000000002,-0.15625,-0.3860000000000001,100.0,1.0,1.0,215.66,0.0,0.0,0.0,0.0,0.0,0.0,0.0,9141.0,0.0,55.0,5.0,251.86666666666667,0.0,0.0,0.0,0.0,0.0,0.0,1.0,0.0,1.6080000000000005,1.6080000000000005,0.0,0.0,0.0,55.0,616.79921,10000.0,85.000001,85.000001,85.000001,85.000001,395.0,0.0,0.0,0.0,1.0,166.665,54.275999999999996,54.275999999999996,46.004999999999995,46.004999999999995,34.0,-21.935,24.101666666666667,-30.46666666666666,31.0775,0.0,1781.047,-0.47499999999999787,100.0,26.621,26.902,44.518,44.823,0.0,0.0,100.0,0.0,0.0,0.0,0.0,3007.4285714285716,2878.7,4324.0,4341.8,305.8235,305.533,314.49375,314.203,22.057,20.6516,22.0867,21.6039,314.999998,314.999998,324.999988,324.999988,99.55931428571428,99.50718333333333,99.56818571428572,99.54942857142858,0.1067499999999999,-0.020999999999999908,-0.09066666666666667,0.13171428571428573,-0.045000000000001705,-0.04333333333332945,1.5125,1.491,38.855999999999995,30.072499999999998,39.042,36.0245,55.723,35.286,59.797,53.3975,53.638,34.3895,58.348,51.6945,52.757,33.9135,58.2035,51.086333333333336,-0.11099999999999999,-0.032500000000000195,0.10844500000000001,0.110405,0.0,219.005,219.01,215.66,215.66,0.0,0.0
33,0.0,0.0,0.0,1.0,1.0,0.0,0.0,1.0,0.0,100.0,1.0,1.1856,26.0,0.0,0.0,0.0,59.999996,0.0,26.0,26.0,26.0,26.0,0.04062499999999991,0.2614000000000001,-0.040600000000000004,292.572,-2.7527,-2.7172222222222224,-1.5884,-1.6025,-163.59,215.7225,190.254625,0.0,0.0,0.0,0.0,0.06676666666666653,-5.498166666666667,-5.498166666666667,-0.5554,-0.3513333333333334,-0.020444444444444265,0.030000000000000027,70.095,0.025900000000000003,-0.145975,-0.3360000000000003,100.0,1.0,1.0,216.04000000000002,0.0,0.0,0.0,0.0,0.0,0.0,0.0,9157.1,0.0,55.0,5.0,252.31333333333333,1.0,0.0,0.0,0.0,0.0,0.0,1.0,0.0,1.6559999999999988,1.6559999999999988,0.0,0.0,1.0,55.0,616.79921,10000.0,85.000001,85.000001,85.000001,85.000001,395.0,0.0,0.0,0.0,1.0,166.665,54.687,54.687,46.265,46.265,34.0,-21.7875,23.38,-29.436666666666667,31.802500000000002,0.0,1780.999,-0.504999999999999,100.0,26.454,26.596,44.415,44.793,0.0,0.0,100.0,0.0,0.0,0.0,0.0,2949.142857142857,2822.4,4237.5,4258.4,306.0755,305.74,314.6105,314.33525,22.0654,20.6565,22.0964,21.6126,314.999998,314.999998,324.999988,324.999988,99.55932857142857,99.50718333333333,99.56832857142857,99.54957142857143,0.10499999999999998,-0.022666666666666613,-0.09583333333333333,0.135,-0.04333333333332945,-0.04333333333332945,1.4935,1.4965,38.909,30.1035,39.103,36.079,55.708,35.318,59.832499999999996,53.454499999999996,53.623999999999995,34.419,58.381,51.749,52.742000000000004,33.9415,58.2335,51.13966666666667,-0.10899999999999999,-0.03299999999999992,0.11076000000000001,0.11237000000000001,0.0,219.365,219.4,216.04000000000002,216.04000000000002,0.0,0.0
34,0.0,0.0,0.0,1.0,1.0,0.0,0.0,1.0,0.0,100.0,1.0,1.1856,26.0,0.0,0.0,0.0,59.999996,0.0,26.0,26.0,26.0,26.0,0.049250000000000016,0.2551000000000001,-0.0545,292.816,-2.7,-2.705,-1.65515,-1.5582,-160.22,215.70749999999998,190.228375,0.0,0.0,0.0,0.0,0.06869999999999998,-5.498166666666667,-5.498166666666667,-0.5817,-0.7923333333333333,0.011777777777777887,-0.132,70.219,0.0308,-0.15152500000000002,-0.3779999999999992,100.0,1.0,1.0,216.43333333333334,0.0,0.0,0.0,0.0,0.0,0.0,0.0,9173.9,0.0,55.0,5.0,252.76,0.0,0.0,0.0,0.0,0.0,0.0,1.0,0.0,1.7040000000000006,1.7040000000000006,0.0,0.0,0.0,55.0,616.79921,10000.0,85.000001,85.000001,85.000001,85.000001,395.0,0.0,0.0,0.0,1.0,333.33500000000004,54.962,54.962,46.844,46.844,34.0,-20.96,23.47833333333333,-28.57666666666666,31.4175,0.0,1780.95,-0.5,100.0,26.151,26.305,44.18,44.856,0.0,0.0,100.0,0.0,0.0,0.0,0.0,2938.285714285714,2804.1,4115.625,4229.3,306.0855,305.7205,314.92375,314.37475,22.0738,20.6615,22.1061,21.6214,314.999998,314.999998,324.999988,324.999988,99.55934285714285,99.5072,99.56847142857143,99.54971428571429,0.11249999999999982,-0.014999999999999902,-0.083,0.14314285714285716,-0.046666666666666856,-0.041666666666671404,1.508,1.4905,38.961,30.134,39.163,36.134,55.693,35.349000000000004,59.866,53.5125,53.608999999999995,34.448,58.4125,51.8045,52.727000000000004,33.969,58.2615,51.194,-0.10999999999999999,-0.028500000000000192,0.10573,0.10745500000000001,0.0,219.745,219.75,216.43333333333334,216.43333333333334,0.0,0.0
35,0.0,0.0,0.0,1.0,1.0,0.0,0.0,1.0,0.0,100.0,1.0,1.1856,26.0,0.0,0.0,0.0,59.999996,0.0,26.0,26.0,26.0,26.0,0.04512500000000008,0.2623,-0.0653,292.862,-2.7582,-2.652111111111111,-1.6326,-1.5162,-156.64,215.6925,190.1985,0.0,0.0,0.0,0.0,0.07079999999999997,-5.498166666666667,-5.498166666666667,-0.621,-0.3603333333333334,-0.0015555555555555323,-0.07599999999999996,70.348,0.037200000000000004,-0.1563,-0.5199999999999996,100.0,1.0,1.0,216.9,0.0,0.0,0.0,0.0,0.0,0.0,0.0,9193.5,0.0,55.0,5.0,253.22666666666666,1.0,0.0,0.0,0.0,0.0,0.0,1.0,0.0,1.754999999999999,1.754999999999999,0.0,0.0,1.0,55.0,616.79921,10000.0,85.000001,85.000001,85.000001,85.000001,395.0,0.0,0.0,0.0,1.0,333.33500000000004,54.611,54.611,46.402,46.402,34.0,-20.7925,26.85,-26.89666666666666,29.785,0.0,1780.899,-0.33999999999999986,100.0,26.058,26.419,44.057,44.359,0.0,0.0,100.0,0.0,0.0,0.0,0.0,2849.285714285714,3183.7,4062.0,4049.5,306.2005,304.795,314.949,314.871,22.0825,20.6669,22.1163,21.6306,314.999998,314.999998,324.999988,324.999988,99.55935714285714,99.5072,99.56861428571429,99.54987142857142,0.11474999999999991,-0.0043333333333333,-0.06483333333333333,0.15785714285714286,-0.03833333333332689,-0.060000000000002274,1.5434999999999999,1.521,39.016,30.168,39.227000000000004,36.191,55.675,35.385,59.9015,53.57,53.592,34.481,58.445499999999996,51.86,52.709,34.001,58.2915,51.248,-0.09799999999999998,-0.03750000000000009,0.10893000000000001,0.10351,0.0,220.14499999999998,220.175,216.9,216.9,0.0,0.0
36,0.0,0.0,0.0,1.0,1.0,0.0,0.0,1.0,0.0,100.0,1.0,1.1856,26.0,0.0,0.0,0.0,59.999996,0.0,26.0,26.0,26.0,26.0,0.04062499999999991,0.2691000000000001,0.05216666666666667,292.038,-2.682,-2.691666666666667,-1.5796999999999999,-1.5564,-153.26,215.68,190.168875,0.0,0.0,0.0,0.0,0.07276666666666654,-5.498166666666667,-5.498166666666667,-0.6033000000000001,0.2633333333333332,-0.04111111111111132,0.21100000000000008,70.47200000000001,0.0385,-0.1269,-0.32399999999999984,100.0,1.0,1.0,217.07666666666665,0.0,0.0,0.0,0.0,0.0,0.0,0.0,9201.0,0.0,55.0,5.0,253.67333333333335,0.0,0.0,0.0,0.0,0.0,0.0,1.0,0.0,1.8030000000000008,1.8030000000000008,0.0,0.0,0.0,55.0,616.79921,10000.0,85.000001,85.000001,85.000001,85.000001,395.0,0.0,0.0,0.0,1.0,166.665,54.199,54.199,45.975,45.975,34.0,-20.98,25.439999999999998,-29.136666666666663,35.1625,0.0,1780.852,-0.2699999999999996,100.0,26.618,26.595,44.17,44.497,0.0,0.0,100.0,0.0,0.0,0.0,0.0,2937.5714285714284,3042.4,4415.625,4572.2,305.707,305.26,314.135,313.6605,22.091,20.6721,22.1261,21.6394,314.999998,314.999998,324.999988,324.999988,99.55937142857142,99.5072,99.56875714285714,99.55001428571428,0.11874999999999991,-0.012333333333333307,-0.06116666666666667,0.15285714285714286,-0.01833333333333087,-0.045000000000001705,1.441,1.435,39.069,30.200499999999998,39.288,36.246,55.661,35.4195,59.9375,53.6275,53.579,34.513,58.4785,51.916,52.695,34.032,58.322,51.30266666666667,-0.09299999999999997,-0.051000000000000156,0.10805500000000001,0.10346500000000002,0.0,220.555,220.57999999999998,217.07666666666665,217.07666666666665,0.0,0.0
