,ABS Active,ABS Enabled,AID Allow Tire Blankets,AID Auto Blip,AID Auto Clutch,AID Auto Shift,AID Fuel Rate,AID Ideal Line,AID Mech Damage,AID Stability,AID Tire Wear Rate,Air Density,Air Temp,Ballast,Best Lap Delta,Best Lap Time,Brake Bias,Brake Pos,Brake Temp FL,Brake Temp FR,Brake Temp RL,Brake Temp RR,CG Accel Lateral,CG Accel Longitudinal,CG Accel Vertical,CG Height,Camber FL,Camber FR,Camber RL,Camber RR,Car Coord X,Car Coord Y,Car Coord Z,Car Damage Front,Car Damage Left,Car Damage Rear,Car Damage Right,Car Pos Norm,Caster FL,Caster FR,Chassis Pitch Angle,Chassis Pitch Rate,Chassis Roll Angle,Chassis Roll Rate,Chassis Velocity X,Chassis Velocity Y,Chassis Velocity Z,Chassis Yaw Rate,Clutch Pos,DRS Active,DRS Available,Drive Train Speed,ERS Heat Charging,ERS Is Charging,ERS Max Energy,ERS Power Level,ERS Recovery Level,Engine Brake Setting,Engine Limiter,Engine RPM,Flags,Fuel Level,Gear,Ground Speed,HR Sample Clock,In Pit,KERS Charge,KERS Deployed Energy,KERS Input,KERS Max Energy,LR Sample Clock,Lap Invalidated,Lap Time,Lap Time2,Last Lap Time,Last Sector Time,MR Sample Clock,Max Fuel,Max Power,Max RPM,Max Sus Travel FL,Max Sus Travel FR,Max Sus Travel RL,Max Sus Travel RR,Max Torque,Max Turbo Boost,Num Tires Off Track,Penalties Enabled,Position,Raw Data Sample Rate,Ride Height FL,Ride Height FR,Ride Height RL,Ride Height RR,Road Temp,Self Align Torque FL,Self Align Torque FR,Self Align Torque RL,Self Align Torque RR,Session Lap Count,Session Time Left,Steering Angle,Surface Grip,Suspension Travel FL,Suspension Travel FR,Suspension Travel RL,Suspension Travel RR,TC Active,TC Enabled,Throttle Pos,Tire Dirt Level FL,Tire Dirt Level FR,Tire Dirt Level RL,Tire Dirt Level RR,Tire Load FL,Tire Load FR,Tire Load RL,Tire Load RR,Tire Loaded Radius FL,Tire Loaded Radius FR,Tire Loaded Radius RL,Tire Loaded Radius RR,Tire Pressure FL,Tire Pressure FR,Tire Pressure RL,Tire Pressure RR,Tire Radius FL,Tire Radius FR,Tire Radius RL,Tire Radius RR,Tire Rubber Grip FL,Tire Rubber Grip FR,Tire Rubber Grip RL,Tire Rubber Grip RR,Tire Slip Angle FL,Tire Slip Angle FR,Tire Slip Angle RL,Tire Slip Angle RR,Tire Slip Ratio FL,Tire Slip Ratio FR,Tire Slip Ratio RL,Tire Slip Ratio RR,Tire Temp Core FL,Tire Temp Core FR,Tire Temp Core RL,Tire Temp Core RR,Tire Temp Inner FL,Tire Temp Inner FR,Tire Temp Inner RL,Tire Temp Inner RR,Tire Temp Middle FL,Tire Temp Middle FR,Tire Temp Middle RL,Tire Temp Middle RR,Tire Temp Outer FL,Tire Temp Outer FR,Tire Temp Outer RL,Tire Temp Outer RR,Toe In FL,Toe In FR,Toe In RL,Toe In RR,Turbo Boost,Wheel Angular Speed FL,Wheel Angular Speed FR,Wheel Angular Speed RL,Wheel Angular Speed RR,Wind Direction,Wind Speed
0,0.0,0.0,0.0,1.0,1.0,0.0,0.0,1.0,0.0,100.0,1.0,1.1856,26.0,0.0,0.0,0.0,59.99999,0.0,26.0,26.0,26.0,26.0,-0.15522222222222215,0.2915000000000001,0.07236666666666666,293.06,-2.6442,-2.6825555555555556,-1.47525,-1.595,-275.7,216.26,190.98675,0.0,0.0,0.0,0.0,0.0015666666666666051,-5.498166666666667,-5.498166666666667,-0.5941000000000001,1.3906666666666667,-0.052444444444444294,-0.32899999999999996,65.399,-0.10129999999999995,-0.26505,1.6280000000000001,100.0,1.0,1.0,201.93,0.0,0.0,0.0,0.0,0.0,0.0,0.0,8559.1,0.0,55.0,5.0,235.40666666666667,0.0,0.0,0.0,0.0,0.0,0.0,0.0,0.0,0.0030000000000001137,0.0030000000000001137,0.0,0.0,0.0,55.0,616.79921,10000.0,85.0,85.0,85.0,85.0,395.0,0.0,0.0,0.0,1.0,20.0,50.461,50.461,49.805,49.805,34.0,-29.93,21.212,-33.63,21.78,0.0,1783.642,1.0,100.0,29.746,28.415,40.870000000000005,39.837,0.0,0.0,100.0,0.0,0.0,0.0,0.0,3232.4285714285716,3461.9,4134.125,3982.4,305.013,303.8395,314.7943333333333,314.9335,21.8404,20.5435,21.805,21.3312,314.99999,314.99999,324.99998,324.99998,99.56178571428572,99.50775,99.56764285714286,99.54631428571429,-0.04499999999999993,-0.18399999999999994,-0.23383333333333334,-0.0030000000000000027,-0.041666666666671404,-0.05333333333332746,1.5443333333333333,1.616,37.501999999999995,29.397,37.281,34.32,57.387,35.0245,59.917,52.1135,55.251999999999995,34.135,58.525,50.4325,54.409,33.66,58.501,49.837,-0.010999999999999899,-0.16049999999999986,0.10752,0.10942,0.0,204.99,204.86,201.93,201.93,0.0,0.0
1,0.0,0.0,0.0,1.0,1.0,0.0,0.0,1.0,0.0,100.0,1.0,1.1856,26.0,0.0,0.0,0.0,59.999996,0.0,26.0,26.0,26.0,26.0,-0.18455555555555547,0.30930000000000013,0.16393333333333332,292.16,-2.5804,-2.785333333333333,-1.48515,-1.582,-272.36,216.265,190.966625,0.0,0.0,0.0,0.0,0.0035333333333333883,-5.498166666666667,-5.498166666666667,-0.5455,-0.7286666666666667,-0.09655555555555573,-0.5840000000000001,65.548,-0.1066999999999999,-0.24685,1.8200000000000003,100.0,1.0,1.0,202.07333333333332,0.0,0.0,0.0,0.0,0.0,0.0,0.0,8565.2,0.0,55.0,5.0,235.94333333333333,1.0,0.0,0.0,0.0,0.0,0.0,0.0,0.0,0.053999999999998494,0.053999999999998494,0.0,0.0,1.0,55.0,616.79921,10000.0,85.000001,85.000001,85.000001,85.000001,395.0,0.0,0.0,0.0,1.0,333.33500000000004,51.178,51.178,48.629999999999995,48.629999999999995,34.0,-31.814999999999998,16.64,-36.89666666666666,25.4175,0.0,1783.589,1.0800000000000018,100.0,29.637,28.5,42.818,40.929,0.0,0.0,100.0,0.0,0.0,0.0,0.0,3405.0,2780.5,4363.125,4626.1,304.5335,305.99975,314.1653333333333,313.33925,21.8508,20.5489,21.816,21.3403,314.999998,314.999998,324.999988,324.999988,99.56178571428572,99.50776666666667,99.56778571428572,99.54645714285714,-0.06000000000000005,-0.20033333333333325,-0.23466666666666658,-0.020333333333333314,-0.07000000000000028,-0.061666666666667425,1.4153333333333333,1.4725000000000001,37.568,29.430666666666667,37.349999999999994,34.376999999999995,57.373999999999995,35.069,59.9615,52.176,55.239999999999995,34.176,58.567,50.4925,54.396,33.6995,58.54,49.89533333333333,0.0009999999999998899,-0.1695000000000002,0.096985,0.11421,0.0,205.425,205.28,202.07333333333332,202.07333333333332,0.0,0.0
2,0.0,0.0,0.0,1.0,1.0,0.0,0.0,1.0,0.0,100.0,1.0,1.1856,26.0,0.0,0.0,0.0,59.999996,0.0,26.0,26.0,26.0,26.0,-0.20999999999999996,0.29080000000000017,-0.0745,292.74,-2.5342,-2.809222222222222,-1.4527,-1.6397,-269.01,216.265,190.94775,0.0,0.0,0.0,0.0,0.005466666666666509,-5.498166666666667,-5.498166666666667,-0.6,0.07200000000000006,-0.08411111111111147,2.682,65.685,-0.12039999999999995,-0.3109,2.0120000000000005,100.0,1.0,1.0,202.99666666666667,0.0,0.0,0.0,0.0,0.0,0.0,0.0,8604.3,0.0,55.0,5.0,236.44,0.0,0.0,0.0,0.0,0.0,0.0,0.0,0.0,0.10500000000000043,0.10500000000000043,0.0,0.0,0.0,55.0,616.79921,10000.0,85.000001,85.000001,85.000001,85.000001,395.0,0.0,0.0,0.0,1.0,166.665,49.973,49.973,50.522,50.522,34.0,-33.167500000000004,19.238,-31.29,18.1625,0.0,1783.541,0.865000000000002,100.0,30.541,28.498,42.695,40.721000000000004,0.0,0.0,100.0,0.0,0.0,0.0,0.0,3580.4285714285716,3095.6,3764.25,3611.2,303.777,305.06075,315.613,315.9785,21.8616,20.5541,21.8267,21.3492,314.999998,314.999998,324.999988,324.999988,99.5618,99.5078,99.56792857142857,99.54658571428571,-0.05074999999999985,-0.19566666666666666,-0.2736666666666666,-0.03200000000000003,-0.07333333333333059,-0.05833333333333002,1.617,1.718,37.635,29.46333333333333,37.417,34.4325,57.364999999999995,35.1125,59.998,52.231,55.230999999999995,34.216,58.601,50.545,54.385999999999996,33.7375,58.5715,49.947,-0.021499999999999853,-0.15399999999999991,0.10645,0.11231000000000001,0.0,205.845,205.675,202.99666666666667,202.99666666666667,0.0,0.0
3,0.0,0.0,0.0,1.0,1.0,0.0,0.0,1.0,0.0,100.0,1.0,1.1856,26.0,0.0,0.0,0.0,59.999996,0.0,26.0,26.0,26.0,26.0,-0.18944444444444442,0.3006,0.0763,292.496,-2.6672,-2.6993333333333336,-1.4813,-1.616,-265.86,216.26,190.92925,0.0,0.0,0.0,0.0,0.007299999999999973,-5.498166666666667,-5.498166666666667,-0.5582,0.40266666666666673,-0.0384444444444445,0.358,65.824,-0.12769999999999992,-0.25422500000000003,1.5020000000000007,100.0,1.0,1.0,203.09666666666666,0.0,0.0,0.0,0.0,0.0,0.0,0.0,8608.5,0.0,55.0,5.0,236.93666666666667,1.0,0.0,0.0,0.0,0.0,0.0,0.0,0.0,0.1529999999999987,0.1529999999999987,0.0,0.0,1.0,55.0,616.79921,10000.0,85.000001,85.000001,85.000001,85.000001,395.0,0.0,0.0,0.0,1.0,166.665,51.086,51.086,48.477000000000004,48.477000000000004,34.0,-28.735,18.018,-36.986666666666665,22.3625,0.0,1783.492,0.6950000000000003,100.0,30.092,28.589,42.527,40.807,0.0,0.0,100.0,0.0,0.0,0.0,0.0,3097.0,3015.1,4294.75,4203.6,305.34,305.2505,314.32866666666666,314.46525,21.871299999999998,20.5593,21.8366,21.357599999999998,314.999998,314.999998,324.999988,324.999988,99.56181428571429,99.50781666666667,99.56807142857143,99.54672857142857,-0.04299999999999993,-0.18866666666666676,-0.2573333333333333,-0.02833333333333332,-0.03999999999999915,-0.06333333333333258,1.483,1.546,37.696,29.495666666666665,37.479,34.485,57.352000000000004,35.156,60.033,52.288,55.219,34.256,58.634,50.6,54.373000000000005,33.775999999999996,58.6015,50.00066666666667,-0.038000000000000034,-0.13450000000000006,0.10655,0.10648,0.0,206.285,206.16,203.0966666666667,203.09666666666666,0.0,0.0
4,0.0,0.0,0.0,1.0,1.0,0.0,0.0,1.0,0.0,100.0,1.0,1.1856,26.0,0.0,0.0,0.0,59.999996,0.0,26.0,26.0,26.0,26.0,-0.1811111111111111,0.26550000000000007,-0.025166666666666667,292.633,-2.609,-2.738666666666667,-1.50505,-1.6149,-262.5,216.25,190.909625,0.0,0.0,0.0,0.0,0.009266666666666534,-5.498166666666667,-5.498166666666667,-0.5929,-0.8026666666666666,-0.10111111111111137,-1.6350000000000002,65.965,-0.1189,-0.292325,1.3760000000000012,100.0,1.0,1.0,203.66,0.0,0.0,0.0,0.0,0.0,0.0,0.0,8632.3,0.0,55.0,5.0,237.44666666666666,0.0,0.0,0.0,0.0,0.0,0.0,0.0,0.0,0.20400000000000063,0.20400000000000063,0.0,0.0,0.0,55.0,616.79921,10000.0,85.000001,85.000001,85.000001,85.000001,395.0,0.0,0.0,0.0,1.0,333.33500000000004,50.629,50.629,49.010999999999996,49.010999999999996,34.0,-32.5025,18.68,-34.29666666666667,19.59,0.0,1783.439,0.6700000000000017,100.0,29.782,28.576999999999998,42.86,41.01,0.0,0.0,100.0,0.0,0.0,0.0,0.0,3483.142857142857,3025.1,4102.625,3653.9,304.401,305.0595,314.8226666666667,315.722,21.8815,20.5647,21.8474,21.3666,314.999998,314.999998,324.999988,324.999988,99.56181428571429,99.50783333333334,99.56821428571429,99.54685714285715,-0.052999999999999936,-0.18666666666666676,-0.24516666666666664,-0.011499999999999955,-0.03833333333332689,-0.03499999999999659,1.5613333333333332,1.5955,37.759,29.529333333333334,37.546,34.5415,57.336,35.2005,60.073499999999996,52.3455,55.204,34.297,58.6715,50.655,54.358000000000004,33.8155,58.6365,50.05433333333333,-0.03200000000000003,-0.13249999999999984,0.10740500000000001,0.10681500000000001,0.0,206.65,206.535,203.66,203.66,0.0,0.0
5,0.0,0.0,0.0,1.0,1.0,0.0,0.0,1.0,0.0,100.0,1.0,1.1856,26.0,0.0,0.0,0.0,59.999996,0.0,26.0,26.0,26.0,26.0,-0.15900000000000003,0.2816000000000001,-0.015766666666666665,292.603,-2.6258,-2.758,-1.49095,-1.5992000000000002,-258.93,216.23250000000002,190.888,0.0,0.0,0.0,0.0,0.011333333333333306,-5.498166666666667,-5.498166666666667,-0.5843,0.3816666666666668,-0.10066666666666668,-0.2290000000000001,66.116,-0.1169,-0.26980000000000004,1.3079999999999998,100.0,1.0,1.0,204.05666666666667,0.0,0.0,0.0,0.0,0.0,0.0,0.0,8649.2,0.0,55.0,5.0,237.98666666666668,1.0,0.0,0.0,0.0,0.0,0.0,0.0,0.0,0.2579999999999991,0.2579999999999991,0.0,0.0,1.0,55.0,616.79921,10000.0,85.000001,85.000001,85.000001,85.000001,395.0,0.0,0.0,0.0,1.0,166.665,50.934,50.934,49.164,49.164,34.0,-30.5625,18.864,-35.29333333333334,21.59,0.0,1783.386,0.245000000000001,100.0,29.862000000000002,28.512999999999998,42.55,40.788,0.0,0.0,100.0,0.0,0.0,0.0,0.0,3414.142857142857,2918.0,4207.875,4027.5,304.5745,305.43075,314.6603333333333,314.8285,21.8927,20.5704,21.8586,21.376,314.999998,314.999998,324.999988,324.999988,99.56181428571429,99.50786666666667,99.56837142857142,99.547,-0.021749999999999936,-0.1673333333333331,-0.248,-0.017166666666666663,-0.051666666666669414,-0.03999999999999915,1.5366666666666666,1.5715,37.829,29.564999999999998,37.617000000000004,34.6,57.323,35.247,60.1135,52.4045,55.191,34.34,58.709,50.7115,54.344,33.8565,58.671,50.10966666666667,-0.06549999999999989,-0.10450000000000026,0.10629500000000001,0.11445500000000002,0.0,207.17000000000002,207.04500000000002,204.05666666666667,204.05666666666667,0.0,0.0
6,0.0,0.0,0.0,1.0,1.0,0.0,0.0,1.0,0.0,100.0,1.0,1.1856,26.0,0.0,0.0,0.0,59.999996,0.0,26.0,26.0,26.0,26.0,-0.13688888888888895,0.2813000000000001,-0.012133333333333333,292.542,-2.5939,-2.7864444444444443,-1.53545,-1.5933000000000002,-255.75,216.215,190.868875,0.0,0.0,0.0,0.0,0.013166666666666549,-5.498166666666667,-5.498166666666667,-0.5806,0.07566666666666677,-0.08111111111111136,-0.4119999999999999,66.248,-0.1049,-0.27245,0.886000000000001,100.0,1.0,1.0,204.48000000000002,0.0,0.0,0.0,0.0,0.0,0.0,0.0,8667.2,0.0,55.0,5.0,238.46666666666667,0.0,0.0,0.0,0.0,0.0,0.0,0.0,0.0,0.30600000000000094,0.30600000000000094,0.0,0.0,0.0,55.0,616.79921,10000.0,85.000001,85.000001,85.000001,85.000001,395.0,0.0,0.0,0.0,1.0,166.665,50.72,50.72,49.088,49.088,34.0,-30.0675,20.906,-34.163333333333334,21.6,0.0,1783.339,0.07000000000000028,100.0,29.656,28.609,42.565,41.085,0.0,0.0,100.0,0.0,0.0,0.0,0.0,3424.857142857143,3020.7,4116.875,3956.8,304.4915,305.0115,314.86633333333333,315.0035,21.9025,20.5756,21.8687,21.3845,314.999998,314.999998,324.999988,324.999988,99.56182857142858,99.50788333333334,99.5685,99.54714285714286,-0.013500000000000068,-0.1456666666666666,-0.23166666666666658,-0.006333333333333302,-0.07000000000000028,-0.05333333333332746,1.5413333333333332,1.5705,37.89,29.59733333333333,37.68,34.653,57.31,35.288,60.1495,52.46,55.178,34.378,58.7425,50.765,54.33,33.8925,58.702,50.162,-0.0774999999999999,-0.08349999999999991,0.10586500000000001,0.11120000000000001,0.0,207.555,207.47500000000002,204.48000000000002,204.48000000000002,0.0,0.0
7,0.0,0.0,0.0,1.0,1.0,0.0,0.0,1.0,0.0,100.0,1.0,1.1856,26.0,0.0,0.0,0.0,59.999996,0.0,26.0,26.0,26.0,26.0,-0.10666666666666658,0.27459999999999996,0.012366666666666668,292.267,-2.5765,-2.7156666666666665,-1.5027,-1.5734,-252.57,216.195,190.849625,0.0,0.0,0.0,0.0,0.015033333333333343,-5.498166666666667,-5.498166666666667,-0.5842,-0.05799999999999994,-0.061666666666666536,-0.09299999999999997,66.381,-0.08529999999999993,-0.27937500000000004,0.5199999999999996,100.0,1.0,1.0,204.8466666666667,0.0,0.0,0.0,0.0,0.0,0.0,0.0,8682.8,0.0,55.0,5.0,238.94333333333333,1.0,0.0,0.0,0.0,0.0,0.0,0.0,0.0,0.3539999999999992,0.3539999999999992,0.0,0.0,1.0,55.0,616.79921,10000.0,85.000001,85.000001,85.000001,85.000001,395.0,0.0,0.0,0.0,1.0,166.665,50.385,50.385,49.21,49.21,34.0,-29.127499999999998,22.13,-32.42666666666666,23.73,0.0,1783.291,-0.23999999999999844,100.0,29.707,28.678,42.537,41.374,0.0,0.0,100.0,0.0,0.0,0.0,0.0,3515.714285714286,3122.8,4080.375,4046.4,304.178,304.773,314.9053333333333,314.76725,21.9123,20.5808,21.8788,21.3931,314.999998,314.999998,324.999988,324.999988,99.56182857142858,99.50788333333334,99.56864285714286,99.54727142857143,0.022749999999999826,-0.11966666666666681,-0.20883333333333332,0.02666666666666684,-0.051666666666669414,-0.030000000000001137,1.5266666666666666,1.5505,37.952,29.63,37.742000000000004,34.7065,57.296,35.3275,60.1845,52.516,55.165,34.414500000000004,58.775,50.8185,54.316,33.9275,58.732,50.214,-0.10749999999999993,-0.06899999999999995,0.1018,0.11141500000000001,0.0,207.945,207.875,204.8466666666667,204.84666666666666,0.0,0.0
8,0.0,0.0,0.0,1.0,1.0,0.0,0.0,1.0,0.0,100.0,1.0,1.1856,26.0,0.0,0.0,0.0,59.999996,0.0,26.0,26.0,26.0,26.0,-0.054333333333333345,0.29610000000000003,0.03416666666666667,292.48,-2.6487,-2.6995555555555555,-1.4868999999999999,-1.5546,-249.18,216.17000000000002,190.829125,0.0,0.0,0.0,0.0,0.016999999999999904,-5.498166666666667,-5.498166666666667,-0.5846,-0.4896666666666667,-0.039111111111111097,0.899,66.522,-0.06289999999999996,-0.270975,-0.013999999999999346,100.0,1.0,1.0,205.21666666666667,0.0,0.0,0.0,0.0,0.0,0.0,0.0,8698.4,0.0,55.0,5.0,239.45333333333332,0.0,0.0,0.0,0.0,0.0,0.0,0.0,0.0,0.40500000000000114,0.40500000000000114,0.0,0.0,0.0,55.0,616.79921,10000.0,85.000001,85.000001,85.000001,85.000001,395.0,0.0,0.0,0.0,1.0,333.33500000000004,51.224000000000004,51.224000000000004,48.400999999999996,48.400999999999996,34.0,-24.787499999999998,23.296,-30.503333333333337,26.502499999999998,0.0,1783.239,-0.375,100.0,29.421,28.557000000000002,42.571,41.478,0.0,0.0,100.0,0.0,0.0,0.0,0.0,3117.0,3169.2,4146.5,4166.2,305.33,304.81075,314.639,314.51625,21.9225,20.5863,21.8894,21.4021,314.999998,314.999998,324.999988,324.999988,99.56184285714286,99.50791666666667,99.56878571428571,99.54741428571428,0.052000000000000046,-0.09399999999999986,-0.15900000000000003,0.06600000000000006,-0.046666666666666856,-0.061666666666667425,1.5253333333333332,1.5135,38.015,29.664666666666665,37.809,34.7635,57.28,35.3685,60.2215,52.5745,55.15,34.452,58.8095,50.8745,54.3,33.964,58.763,50.269333333333336,-0.11999999999999988,-0.05650000000000022,0.10178000000000001,0.10781500000000001,0.0,208.35000000000002,208.35000000000002,205.21666666666667,205.21666666666667,0.0,0.0
9,0.0,0.0,0.0,1.0,1.0,0.0,0.0,1.0,0.0,100.0,1.0,1.1856,26.0,0.0,0.0,0.0,59.999996,0.0,26.0,26.0,26.0,26.0,-0.041444444444444395,0.2794000000000001,0.027533333333333333,292.236,-2.6504,-2.701,-1.5461,-1.5558,-245.98,216.14499999999998,190.80925,0.0,0.0,0.0,0.0,0.018866666666666587,-5.498166666666667,-5.498166666666667,-0.5929,0.5643333333333334,-0.038000000000000256,0.781,66.651,-0.040099999999999913,-0.27415,-0.13600000000000012,100.0,1.0,1.0,205.76,0.0,0.0,0.0,0.0,0.0,0.0,0.0,8721.4,0.0,55.0,5.0,239.91666666666669,1.0,0.0,0.0,0.0,0.0,0.0,0.0,0.0,0.4529999999999994,0.4529999999999994,0.0,0.0,1.0,55.0,616.79921,10000.0,85.000001,85.000001,85.000001,85.000001,395.0,0.0,0.0,0.0,1.0,166.665,50.018,50.018,49.5,49.5,34.0,-26.82,25.212,-28.14333333333333,26.41,0.0,1783.193,-0.48499999999999943,100.0,29.836,28.997,42.230000000000004,41.525,0.0,0.0,100.0,0.0,0.0,0.0,0.0,3471.714285714286,3275.1,3928.5,4038.8,304.2515,304.4205,315.2993333333333,314.887,21.9322,20.5917,21.8993,21.4106,314.999998,314.999998,324.999988,324.999988,99.56184285714286,99.50791666666667,99.56891428571429,99.54754285714286,0.07900000000000018,-0.07333333333333325,-0.14249999999999996,0.08966666666666678,-0.045000000000001705,-0.04999999999999716,1.578,1.5805,38.076,29.698333333333334,37.870999999999995,34.8165,57.268,35.408,60.253,52.6285,55.138999999999996,34.489,58.839,50.9265,54.288,33.999,58.79,50.32,-0.12450000000000006,-0.04899999999999993,0.10425000000000001,0.105675,0.0,208.76999999999998,208.76999999999998,205.76,205.76,0.0,0.0
10,0.0,0.0,0.0,1.0,1.0,0.0,0.0,1.0,0.0,100.0,1.0,1.1856,26.0,0.0,0.0,0.0,59.999996,0.0,26.0,26.0,26.0,26.0,-0.005444444444444474,0.27670000000000017,0.004566666666666667,291.962,-2.6275,-2.677888888888889,-1.5854,-1.536,-242.57999999999998,216.1175,190.7885,0.0,0.0,0.0,0.0,0.02083333333333337,-5.498166666666667,-5.498166666666667,-0.5674,-0.32233333333333336,0.0005555555555556424,0.346,66.793,-0.014399999999999968,-0.2632,-0.4500000000000002,100.0,1.0,1.0,205.97,0.0,0.0,0.0,0.0,0.0,0.0,0.0,8730.3,0.0,55.0,5.0,240.42666666666668,0.0,0.0,0.0,0.0,0.0,0.0,1.0,0.0,0.5040000000000013,0.5040000000000013,0.0,0.0,0.0,55.0,616.79921,10000.0,85.000001,85.000001,85.000001,85.000001,395.0,0.0,0.0,0.0,1.0,166.665,50.919,50.919,47.913,47.913,34.0,-22.8725,23.57,-32.13,28.7575,0.0,1783.142,-0.5899999999999999,100.0,29.667,29.227,42.551,42.400999999999996,0.0,0.0,100.0,0.0,0.0,0.0,0.0,3113.714285714286,3038.9,4349.875,4247.5,305.4205,305.00775,314.302,314.24175,21.9424,20.5974,21.9101,21.4199,314.999998,314.999998,324.999988,324.999988,99.56185714285715,99.50793333333333,99.56905714285715,99.54768571428572,0.08899999999999997,-0.06166666666666676,-0.129,0.09466666666666668,-0.03166666666666629,-0.051666666666669414,1.48,1.457,38.14,29.733666666666664,37.938,34.8745,57.256,35.4475,60.291,52.6905,55.126999999999995,34.525,58.8745,50.986000000000004,54.275999999999996,34.034,58.8225,50.37833333333333,-0.135,-0.035499999999999865,0.10972000000000001,0.109895,0.0,209.17000000000002,209.2,205.97,205.97,0.0,0.0
11,0.0,0.0,0.0,1.0,1.0,0.0,0.0,1.0,0.0,100.0,1.0,1.1856,26.0,0.0,0.0,0.0,59.999996,0.0,26.0,26.0,26.0,26.0,0.026555555555555665,0.2791000000000001,-0.06866666666666667,292.511,-2.6775,-2.6612222222222224,-1.5479500000000002,-1.5213,-239.17000000000002,216.09,190.767875,0.0,0.0,0.0,0.0,0.022599999999999953,-5.498166666666667,-5.498166666666667,-0.6112000000000001,-0.29899999999999993,0.032777777777777795,0.506,66.92699999999999,0.007500000000000062,-0.2967,-0.597999999999999,100.0,1.0,1.0,206.68333333333334,0.0,0.0,0.0,0.0,0.0,0.0,0.0,8760.5,0.0,55.0,5.0,240.91,1.0,0.0,0.0,0.0,0.0,0.0,1.0,0.0,0.5549999999999997,0.5549999999999997,0.0,0.0,1.0,55.0,616.79921,10000.0,85.000001,85.000001,85.000001,85.000001,395.0,0.0,0.0,0.0,1.0,166.665,50.323,50.323,49.561,49.561,34.0,-23.4325,27.682000000000002,-22.769999999999996,26.46,0.0,1783.091,-0.625,100.0,29.516,29.305,42.198,42.304,0.0,0.0,100.0,0.0,0.0,0.0,0.0,3193.285714285714,3371.6,3633.0,3868.5,305.092,304.13,315.999,315.266,21.9524,20.6031,21.9206,21.429,314.999998,314.999998,324.999988,324.999988,99.56187142857142,99.50793333333333,99.5692,99.54782857142857,0.10499999999999998,-0.030333333333333323,-0.08266666666666656,0.13149999999999995,-0.045000000000001705,-0.05333333333332746,1.6513333333333333,1.6295000000000002,38.202,29.769666666666666,38.004000000000005,34.931,57.242999999999995,35.4875,60.323,52.7485,55.114000000000004,34.562,58.9035,51.042,54.262,34.0695,58.849000000000004,50.43333333333334,-0.12850000000000006,-0.04300000000000015,0.09546,0.10571000000000001,0.0,209.57,209.60000000000002,206.68333333333334,206.68333333333334,0.0,0.0
12,0.0,0.0,0.0,1.0,1.0,0.0,0.0,1.0,0.0,100.0,1.0,1.1856,26.0,0.0,0.0,0.0,59.999996,0.0,26.0,26.0,26.0,26.0,0.057222222222222285,0.2721,0.0291,291.992,-2.7342,-2.6550000000000002,-1.54735,-1.5222,-235.75,216.065,190.746,0.0,0.0,0.0,0.0,0.025466666666666526,-5.498166666666667,-5.498166666666667,-0.5961000000000001,0.258,0.016222222222222138,-0.8560000000000001,67.06700000000001,0.022800000000000153,-0.264575,-0.6339999999999995,100.0,1.0,1.0,206.89,0.0,0.0,0.0,0.0,0.0,0.0,0.0,8769.4,0.0,55.0,5.0,241.41333333333336,0.0,0.0,0.0,0.0,0.0,0.0,1.0,0.0,0.6059999999999981,0.6059999999999981,0.0,0.0,0.0,55.0,616.79921,10000.0,85.000001,85.000001,85.000001,85.000001,395.0,0.0,0.0,0.0,1.0,166.665,50.354,50.354,48.294,48.294,34.0,-23.982499999999998,27.537999999999997,-27.490000000000002,29.947499999999998,0.0,1783.039,-0.7149999999999999,100.0,29.232,29.606,41.953,42.261,0.0,0.0,100.0,0.0,0.0,0.0,0.0,3319.714285714286,3276.0,4217.75,4150.8,304.9145,304.27275,314.65133333333335,314.529,21.9624,20.609,21.9311,21.4381,314.999998,314.999998,324.999988,324.999988,99.56188571428571,99.50795,99.56934285714286,99.54797142857143,0.12349999999999994,-0.015666666666666718,-0.07799999999999996,0.14100000000000001,-0.046666666666666856,-0.054999999999999716,1.5216666666666667,1.502,38.265,29.806333333333335,38.07,34.988,57.230999999999995,35.5275,60.3575,52.807,55.102999999999994,34.599000000000004,58.936,51.0985,54.248999999999995,34.105000000000004,58.878,50.489,-0.14050000000000007,-0.027499999999999858,0.10043500000000001,0.10727500000000001,0.0,210.03,210.065,206.89,206.89,0.0,0.0
13,0.0,0.0,0.0,1.0,1.0,0.0,0.0,1.0,0.0,100.0,1.0,1.1856,26.0,0.0,0.0,0.0,59.999996,0.0,26.0,26.0,26.0,26.0,0.06711111111111112,0.2682,0.0281,291.611,-2.7088,-2.648,-1.61875,-1.5049000000000001,-232.53,216.04250000000002,190.7255,0.0,0.0,0.0,0.0,0.026666666666666505,-5.498166666666667,-5.498166666666667,-0.5902000000000001,-0.03600000000000003,0.019333333333333202,-0.5800000000000001,67.196,0.034599999999999964,-0.272575,-0.8320000000000007,100.0,1.0,1.0,207.25333333333333,0.0,0.0,0.0,0.0,0.0,0.0,0.0,8784.7,0.0,55.0,5.0,241.87666666666667,1.0,0.0,0.0,0.0,0.0,0.0,1.0,0.0,0.6539999999999999,0.6539999999999999,0.0,0.0,1.0,55.0,616.79921,10000.0,85.000001,85.000001,85.000001,85.000001,395.0,0.0,0.0,0.0,1.0,166.665,50.003,50.003,48.278999999999996,48.278999999999996,34.0,-23.31,27.944,-28.35333333333333,31.3325,0.0,1782.991,-0.8099999999999987,100.0,29.575,29.828,42.19,42.755,0.0,0.0,100.0,0.0,0.0,0.0,0.0,3354.0,3268.7,4195.625,4258.4,304.785,304.2805,314.70466666666664,314.24675,21.971899999999998,20.6145,21.9412,21.4468,314.999998,314.999998,324.999988,324.999988,99.5619,99.50795,99.56947142857143,99.54811428571429,0.13874999999999993,-0.003666666666666707,-0.07850000000000001,0.15283333333333338,-0.045000000000001705,-0.04833333333333201,1.5253333333333332,1.4945,38.324,29.840666666666664,38.132,35.042500000000004,57.222,35.564499999999995,60.391,52.8655,55.094,34.6335,58.967,51.1545,54.239000000000004,34.138,58.906,50.544,-0.15549999999999997,-0.019000000000000128,0.10939000000000002,0.10383500000000001,0.0,210.41500000000002,210.46,207.25333333333333,207.25333333333333,0.0,0.0
14,0.0,0.0,0.0,1.0,1.0,0.0,0.0,1.0,0.0,100.0,1.0,1.1856,26.0,0.0,0.0,0.0,59.999996,0.0,26.0,26.0,26.0,26.0,0.08377777777777795,0.27270000000000016,-0.010966666666666668,291.84,-2.7043,-2.5941111111111113,-1.62655,-1.5093,-229.1,216.01999999999998,190.704375,0.0,0.0,0.0,0.0,0.028666666666666507,-5.498166666666667,-5.498166666666667,-0.5997,-0.15433333333333332,0.051444444444444404,1.492,67.331,0.047800000000000065,-0.28715,-1.0099999999999998,100.0,1.0,1.0,207.73666666666668,0.0,0.0,0.0,0.0,0.0,0.0,0.0,8805.2,0.0,55.0,5.0,242.36666666666667,0.0,0.0,0.0,0.0,0.0,0.0,1.0,0.0,0.7049999999999983,0.7049999999999983,0.0,0.0,0.0,55.0,616.79921,10000.0,85.000001,85.000001,85.000001,85.000001,395.0,0.0,0.0,0.0,1.0,333.33500000000004,50.11,50.11,48.492,48.492,34.0,-20.655,29.439999999999998,-25.173333333333332,31.9925,0.0,1782.939,-0.9450000000000003,100.0,29.692,29.729,42.252,42.879,0.0,0.0,100.0,0.0,0.0,0.0,0.0,3125.714285714286,3438.4,3952.375,4196.6,305.2655,303.9665,315.214,314.497,21.9819,20.6204,21.9517,21.4561,314.999998,314.999998,324.999988,324.999988,99.56191428571428,99.50795,99.56961428571428,99.54825714285714,0.16075000000000017,0.009333333333333194,-0.052999999999999936,0.18033333333333323,-0.03833333333332689,-0.054999999999999716,1.5646666666666667,1.522,38.387,29.877333333333333,38.198,35.1005,57.213,35.604,60.425,52.926,55.085,34.67,58.998,51.213499999999996,54.229,34.173500000000004,58.934,50.601333333333336,-0.15749999999999997,-0.022499999999999964,0.10661000000000001,0.107325,0.0,210.815,210.89,207.73666666666668,207.73666666666668,0.0,0.0
15,0.0,0.0,0.0,1.0,1.0,0.0,0.0,1.0,0.0,100.0,1.0,1.1856,26.0,0.0,0.0,0.0,59.999996,0.0,26.0,26.0,26.0,26.0,0.10777777777777775,0.2741,0.0030666666666666668,291.84,-2.683,-2.548222222222222,-1.6257000000000001,-1.4494,-225.87,216.0,190.684,0.0,0.0,0.0,0.0,0.03056666666666652,-5.498166666666667,-5.498166666666667,-0.5927,0.31966666666666677,0.08311111111111114,1.292,67.458,0.061900000000000066,-0.2716,-1.186,100.0,1.0,1.0,208.12666666666667,0.0,0.0,0.0,0.0,0.0,0.0,0.0,8821.8,0.0,55.0,5.0,242.82,1.0,0.0,0.0,0.0,0.0,0.0,1.0,0.0,0.7530000000000001,0.7530000000000001,0.0,0.0,1.0,55.0,616.79921,10000.0,85.000001,85.000001,85.000001,85.000001,395.0,0.0,0.0,0.0,1.0,166.665,50.186,50.186,48.584,48.584,34.0,-19.0075,29.503999999999998,-23.77666666666667,33.41,0.0,1782.892,-0.9600000000000009,100.0,29.708,29.853,41.983000000000004,42.943,0.0,0.0,100.0,0.0,0.0,0.0,0.0,3017.714285714286,3412.8,3922.0,4341.0,305.5485,304.035,315.298,314.18325,21.9913,20.626,21.9616,21.4647,314.999998,314.999998,324.999988,324.999988,99.56194285714285,99.50795,99.56974285714286,99.5484,0.17600000000000016,0.026333333333333098,-0.03083333333333338,0.19799999999999995,-0.026666666666670835,-0.054999999999999716,1.5786666666666667,1.516,38.446,29.912333333333336,38.26,35.1545,57.205,35.641999999999996,60.455,52.9835,55.077,34.705,59.025999999999996,51.2685,54.22,34.207,58.959,50.65566666666666,-0.16900000000000004,-0.01100000000000012,0.09643,0.11382500000000001,0.0,211.22,211.29500000000002,208.12666666666667,208.12666666666667,0.0,0.0
16,0.0,0.0,0.0,1.0,1.0,0.0,0.0,1.0,0.0,100.0,1.0,1.1856,26.0,0.0,0.0,0.0,59.999996,0.0,26.0,26.0,26.0,26.0,0.12644444444444436,0.25890000000000013,-0.05146666666666667,291.87,-2.7401999999999997,-2.576666666666667,-1.6018,-1.446,-222.42000000000002,215.98250000000002,190.662125,0.0,0.0,0.0,0.0,0.03256666666666652,-5.498166666666667,-5.498166666666667,-0.611,-0.7123333333333333,0.07211111111111101,-0.9630000000000001,67.593,0.0737000000000001,-0.2846,-1.226,100.0,1.0,1.0,208.52666666666667,0.0,0.0,0.0,0.0,0.0,0.0,0.0,8838.7,0.0,55.0,5.0,243.31,0.0,0.0,0.0,0.0,0.0,0.0,1.0,0.0,0.8039999999999985,0.8039999999999985,0.0,0.0,0.0,55.0,616.79921,10000.0,85.000001,85.000001,85.000001,85.000001,395.0,0.0,0.0,0.0,1.0,333.33500000000004,50.232,50.232,48.157,48.157,34.0,-20.4725,29.162,-23.699999999999996,31.545,0.0,1782.839,-0.8449999999999989,100.0,29.169,30.116,42.167,43.217,0.0,0.0,100.0,0.0,0.0,0.0,0.0,3139.4285714285716,3369.7,3956.375,4111.6,305.464,303.982,315.26033333333334,314.649,22.001,20.6319,21.9723,21.474,314.999998,314.999998,324.999988,324.999988,99.56195714285714,99.50795,99.5699,99.54854285714286,0.1695000000000002,0.016666666666666607,-0.031000000000000028,0.20316666666666672,-0.041666666666671404,-0.036666666666668846,1.57,1.5350000000000001,38.506,29.949666666666666,38.327,35.2125,57.193,35.6825,60.49,53.044,55.066,34.743,59.0585,51.327,54.207,34.2435,58.988,50.71333333333333,-0.15300000000000002,-0.02499999999999991,0.11136000000000001,0.11038500000000001,0.0,211.61,211.68,208.52666666666667,208.52666666666667,0.0,0.0
17,0.0,0.0,0.0,1.0,1.0,0.0,0.0,1.0,0.0,100.0,1.0,1.1856,26.0,0.0,0.0,0.0,59.999996,0.0,26.0,26.0,26.0,26.0,0.12777777777777777,0.27700000000000014,0.016166666666666666,291.489,-2.7398,-2.5344444444444445,-1.6357,-1.4721,-218.76999999999998,215.965,190.63825,0.0,0.0,0.0,0.0,0.03466666666666651,-5.498166666666667,-5.498166666666667,-0.6016,0.4996666666666667,0.0474444444444444,-0.6540000000000001,67.735,0.0797000000000001,-0.265725,-1.1079999999999997,100.0,1.0,1.0,208.93666666666667,0.0,0.0,0.0,0.0,0.0,0.0,0.0,8856.0,0.0,55.0,5.0,243.81666666666666,1.0,0.0,0.0,0.0,0.0,0.0,1.0,0.0,0.8580000000000005,0.8580000000000005,0.0,0.0,1.0,55.0,616.79921,10000.0,85.000001,85.000001,85.000001,85.000001,395.0,0.0,0.0,0.0,1.0,166.665,49.881,49.881,48.126,48.126,34.0,-21.12,28.268,-26.35333333333333,33.1125,0.0,1782.787,-0.9100000000000001,100.0,29.671,30.398,41.937,43.207,0.0,0.0,100.0,0.0,0.0,0.0,0.0,3286.4285714285716,3261.7,4250.125,4244.6,305.0415,304.369,314.67033333333336,314.381,22.0116,20.6384,21.9833,21.4837,314.999998,314.999998,324.999988,324.999988,99.56198571428571,99.50795,99.57004285714285,99.5487,0.17925000000000013,0.031333333333333435,-0.03183333333333338,0.20199999999999996,-0.041666666666671404,-0.03499999999999659,1.5403333333333333,1.5115,38.572,29.990000000000002,38.396,35.272999999999996,57.186,35.7275,60.524,53.1075,55.058,34.7845,59.09,51.3885,54.199,34.283500000000004,59.0165,50.773666666666664,-0.16349999999999998,-0.020000000000000018,0.10772000000000001,0.10608500000000001,0.0,212.085,212.15,208.93666666666667,208.93666666666667,0.0,0.0
18,0.0,0.0,0.0,1.0,1.0,0.0,0.0,1.0,0.0,100.0,1.0,1.1856,26.0,0.0,0.0,0.0,59.999996,0.0,26.0,26.0,26.0,26.0,0.1323333333333332,0.2670000000000001,-0.054966666666666664,291.473,-2.7738,-2.504666666666667,-1.65515,-1.4157,-215.51,215.95499999999998,190.61725,0.0,0.0,0.0,0.0,0.036566666666666525,-5.498166666666667,-5.498166666666667,-0.6124,-0.569,0.07433333333333314,-0.14000000000000012,67.86,0.08010000000000006,-0.2841,-1.2060000000000004,100.0,1.0,1.0,209.33666666666667,0.0,0.0,0.0,0.0,0.0,0.0,0.0,8873.0,0.0,55.0,5.0,244.26999999999998,0.0,0.0,0.0,0.0,0.0,0.0,1.0,0.0,0.9059999999999988,0.9059999999999988,0.0,0.0,0.0,55.0,616.79921,10000.0,85.000001,85.000001,85.000001,85.000001,395.0,0.0,0.0,0.0,1.0,166.665,49.805,49.805,48.05,48.05,34.0,-20.599999999999998,30.622,-24.32,31.855,0.0,1782.739,-1.134999999999998,100.0,29.455,30.259,42.292,43.58,0.0,0.0,100.0,0.0,0.0,0.0,0.0,3256.5714285714284,3462.8,4006.125,4159.5,305.172,303.79675,315.18233333333336,314.557,22.0208,20.644,21.9934,21.4925,314.999998,314.999998,324.999988,324.999988,99.562,99.50796666666666,99.57017142857143,99.54884285714286,0.19200000000000017,0.046333333333333115,-0.022833333333333372,0.20750000000000002,-0.04833333333333201,-0.036666666666668846,1.5703333333333334,1.5205,38.629999999999995,30.025,38.459,35.3285,57.177,35.766,60.557,53.166,55.05,34.820499999999996,59.12,51.445,54.189,34.3185,59.0435,50.82933333333334,-0.17799999999999994,-0.0040000000000000036,0.10414500000000002,0.112365,0.0,212.435,212.5,209.33666666666667,209.33666666666667,0.0,0.0
19,0.0,0.0,0.0,1.0,1.0,0.0,0.0,1.0,0.0,100.0,1.0,1.1856,26.0,0.0,0.0,0.0,59.999996,0.0,26.0,26.0,26.0,26.0,0.1527777777777779,0.2771000000000001,0.010766666666666667,291.077,-2.7437,-2.494666666666667,-1.6682000000000001,-1.3999000000000001,-212.25,215.9475,190.596,0.0,0.0,0.0,0.0,0.03846666666666654,-5.498166666666667,-5.498166666666667,-0.6061000000000001,0.8476666666666668,0.08144444444444421,-0.47,67.98400000000001,0.09079999999999999,-0.274225,-1.484,100.0,1.0,1.0,209.74333333333334,0.0,0.0,0.0,0.0,0.0,0.0,0.0,8890.2,0.0,55.0,5.0,244.71666666666667,1.0,0.0,0.0,0.0,0.0,0.0,1.0,0.0,0.9540000000000006,0.9540000000000006,0.0,0.0,1.0,55.0,616.79921,10000.0,85.000001,85.000001,85.000001,85.000001,395.0,0.0,0.0,0.0,1.0,166.665,49.057,49.057,48.08,48.08,34.0,-21.0225,30.538,-24.88666666666667,33.1775,0.0,1782.691,-0.7399999999999984,100.0,29.956,30.732,41.982,43.553,0.0,0.0,100.0,0.0,0.0,0.0,0.0,3351.142857142857,3499.7,4114.5,4290.6,304.7825,303.57475,314.99066666666664,314.319,22.0302,20.6498,22.0032,21.5012,314.999998,314.999998,324.999988,324.999988,99.56202857142857,99.50796666666666,99.57031428571429,99.54898571428572,0.1937500000000001,0.03533333333333344,-0.016166666666666663,0.21516666666666673,-0.036666666666668846,-0.061666666666667425,1.5686666666666667,1.5105,38.689,30.061666666666667,38.519999999999996,35.3825,57.173,35.8085,60.586,53.223,55.045,34.8595,59.147,51.5,54.183,34.356,59.067499999999995,50.88333333333333,-0.16500000000000004,-0.015499999999999847,0.10998500000000001,0.10390500000000001,0.0,212.84,212.96,209.74333333333334,209.74333333333334,0.0,0.0
20,0.0,0.0,0.0,1.0,1.0,0.0,0.0,1.0,0.0,100.0,1.0,1.1856,26.0,0.0,0.0,0.0,59.999996,0.0,26.0,26.0,26.0,26.0,0.12044444444444435,0.27080000000000015,0.0275,291.214,-2.788,-2.5620000000000003,-1.58905,-1.4163000000000001,-208.78,215.9425,190.573625,0.0,0.0,0.0,0.0,0.04049999999999998,-5.498166666666667,-5.498166666666667,-0.6025,-1.0963333333333334,0.0778888888888889,0.236,68.119,0.10109999999999997,-0.2788,-1.0279999999999996,100.0,1.0,1.0,209.9766666666667,0.0,0.0,0.0,0.0,0.0,0.0,0.0,8900.1,0.0,55.0,5.0,245.20333333333335,0.0,0.0,0.0,0.0,0.0,0.0,0.0,0.0,1.004999999999999,1.004999999999999,0.0,0.0,0.0,55.0,616.79921,10000.0,85.000001,85.000001,85.000001,85.000001,395.0,0.0,0.0,0.0,1.0,333.33500000000004,50.262,50.262,46.967,46.967,34.0,-20.53,28.222,-23.733333333333327,35.567499999999995,0.0,1782.638,-0.004999999999999005,100.0,29.552,30.314,42.766999999999996,43.919,0.0,0.0,100.0,0.0,0.0,0.0,0.0,2977.0,3409.7,4161.125,4414.3,305.8895,304.0725,314.637,313.964,22.0399,20.6559,22.0139,21.5107,314.999998,314.999998,324.999988,324.999988,99.56205714285714,99.50796666666666,99.57045714285714,99.54912857142857,0.1512500000000001,-0.0040000000000000036,0.0011666666666667602,0.2273333333333334,-0.046666666666666856,-0.041666666666671404,1.495,1.46,38.748999999999995,30.099,38.587,35.4415,57.161,35.849000000000004,60.623,53.287,55.034,34.8975,59.181,51.562,54.17,34.3925,59.0985,50.944,-0.09399999999999986,-0.08250000000000002,0.10633500000000001,0.10635000000000001,0.0,213.245,213.305,209.9766666666667,209.9766666666667,0.0,0.0
21,0.0,0.0,0.0,1.0,1.0,0.0,0.0,1.0,0.0,100.0,1.0,1.1856,26.0,0.0,0.0,0.0,59.999996,0.0,26.0,26.0,26.0,26.0,0.06955555555555559,0.26090000000000013,-0.0655,291.641,-2.6798,-2.634888888888889,-1.63735,-1.5063,-205.51,215.9425,190.55225,0.0,0.0,0.0,0.0,0.04239999999999999,-5.498166666666667,-5.498166666666667,-0.6329,0.3943333333333332,0.041444444444444395,-0.17900000000000005,68.238,0.0818000000000001,-0.292175,-0.1459999999999999,100.0,1.0,1.0,210.65,0.0,0.0,0.0,0.0,0.0,0.0,0.0,8928.6,0.0,55.0,5.0,245.63333333333333,1.0,0.0,0.0,0.0,0.0,0.0,0.0,0.0,1.0530000000000008,1.0530000000000008,0.0,0.0,1.0,55.0,616.79921,10000.0,85.000001,85.000001,85.000001,85.000001,395.0,0.0,0.0,0.0,1.0,333.33500000000004,49.545,49.545,48.798,48.798,34.0,-23.224999999999998,28.046,-23.95666666666667,30.0825,0.0,1782.591,0.3249999999999993,100.0,29.97,30.319,42.197,43.370000000000005,0.0,0.0,100.0,0.0,0.0,0.0,0.0,3237.4285714285716,3416.5,3885.0,3945.9,304.9355,303.95875,315.508,315.142,22.0492,20.6616,22.023699999999998,21.519199999999998,314.999998,314.999998,324.999988,324.999988,99.56207142857143,99.50798333333333,99.57058571428571,99.54925714285714,0.1200000000000001,-0.027666666666666728,-0.04183333333333339,0.19650000000000012,-0.023333333333326323,-0.061666666666667425,1.6123333333333334,1.6035,38.808,30.134999999999998,38.647999999999996,35.495,57.150999999999996,35.888,60.6505,53.3405,55.024,34.9335,59.2065,51.6135,54.159,34.4275,59.121,50.995,-0.0645,-0.11750000000000016,0.10758500000000001,0.11093000000000001,0.0,213.655,213.69,210.65,210.65,0.0,0.0
22,0.0,0.0,0.0,1.0,1.0,0.0,0.0,1.0,0.0,100.0,1.0,1.1856,26.0,0.0,0.0,0.0,59.999996,0.0,26.0,26.0,26.0,26.0,0.03499999999999992,0.25160000000000005,0.004366666666666666,291.122,-2.6439,-2.659111111111111,-1.6155,-1.5582,-201.82,215.9425,190.527125,0.0,0.0,0.0,0.0,0.044533333333333314,-5.498166666666667,-5.498166666666667,-0.6096,0.09866666666666668,0.03211111111111098,0.808,68.381,0.03710000000000013,-0.2676,0.49799999999999933,100.0,1.0,1.0,210.84333333333333,0.0,0.0,0.0,0.0,0.0,0.0,0.0,8936.9,0.0,55.0,5.0,246.14333333333335,0.0,0.0,0.0,0.0,0.0,0.0,0.0,0.0,1.1069999999999993,1.1069999999999993,0.0,0.0,0.0,55.0,616.79921,10000.0,85.000001,85.000001,85.000001,85.000001,395.0,0.0,0.0,0.0,1.0,166.665,49.713,49.713,47.516,47.516,34.0,-22.7125,26.234,-29.04,31.9225,0.0,1782.538,0.370000000000001,100.0,30.165,30.265,42.793,43.379,0.0,0.0,100.0,0.0,0.0,0.0,0.0,3127.714285714286,3350.4,4175.25,4291.7,305.2175,304.13475,314.711,314.269,22.0597,20.6679,22.035,21.529,314.999998,314.999998,324.999988,324.999988,99.56208571428571,99.508,99.57074285714286,99.54941428571429,0.10475000000000012,-0.05966666666666676,-0.08983333333333332,0.14583333333333326,-0.03499999999999659,-0.03999999999999915,1.4833333333333334,1.502,38.873000000000005,30.174666666666667,38.719,35.5565,57.138,35.932,60.6885,53.4045,55.012,34.9745,59.242,51.675,54.146,34.466499999999996,59.153,51.05533333333334,-0.05699999999999994,-0.12049999999999983,0.11185500000000001,0.10804000000000001,0.0,214.135,214.075,210.84333333333333,210.84333333333333,0.0,0.0
23,0.0,0.0,0.0,1.0,1.0,0.0,0.0,1.0,0.0,100.0,1.0,1.1856,26.0,0.0,0.0,0.0,59.999996,0.0,26.0,26.0,26.0,26.0,-0.007555555555555538,0.2538,0.013066666666666666,291.016,-2.6522,-2.6340000000000003,-1.52335,-1.595,-198.54,215.945,190.505125,0.0,0.0,0.0,0.0,0.046433333333333326,-5.498166666666667,-5.498166666666667,-0.6282,-0.45799999999999996,0.005777777777777882,0.16700000000000004,68.502,0.00019999999999997797,-0.295125,0.7520000000000007,100.0,1.0,1.0,211.26999999999998,0.0,0.0,0.0,0.0,0.0,0.0,0.0,8955.0,0.0,55.0,5.0,246.58666666666664,1.0,0.0,0.0,0.0,0.0,0.0,0.0,0.0,1.1550000000000011,1.1550000000000011,0.0,0.0,1.0,55.0,616.79921,10000.0,85.000001,85.000001,85.000001,85.000001,395.0,0.0,0.0,0.0,1.0,166.665,49.132999999999996,49.132999999999996,48.203,48.203,34.0,-27.419999999999998,24.966,-27.743333333333332,28.380000000000003,0.0,1782.49,0.3949999999999996,100.0,30.434,30.179000000000002,43.17,43.488,0.0,0.0,100.0,0.0,0.0,0.0,0.0,3487.142857142857,3364.4,3982.75,4044.0,304.307,304.20325,315.08666666666664,314.79625,22.0691,20.6736,22.045099999999998,21.5378,314.999998,314.999998,324.999988,324.999988,99.5621,99.508,99.57088571428571,99.54955714285714,0.06974999999999998,-0.08133333333333326,-0.11966666666666659,0.11033333333333317,-0.03999999999999915,-0.06499999999999773,1.5003333333333333,1.537,38.932,30.21,38.782,35.611,57.126000000000005,35.9725,60.7215,53.460499999999996,55.001000000000005,35.012,59.2725,51.7295,54.134,34.5025,59.18,51.108666666666664,-0.05549999999999988,-0.12400000000000011,0.10834,0.10759500000000001,0.0,214.5,214.445,211.26999999999998,211.26999999999998,0.0,0.0
24,0.0,0.0,0.0,1.0,1.0,0.0,0.0,1.0,0.0,100.0,1.0,1.1856,26.0,0.0,0.0,0.0,59.999996,0.0,26.0,26.0,26.0,26.0,-0.05688888888888888,0.25950000000000006,-0.0853,291.336,-2.6414999999999997,-2.673888888888889,-1.5511,-1.5478,-195.24,215.945,190.48275,0.0,0.0,0.0,0.0,0.04836666666666656,-5.498166666666667,-5.498166666666667,-0.6298,-0.3573333333333334,0.00044444444444424747,0.868,68.625,-0.0260999999999999,-0.279675,0.7539999999999996,100.0,1.0,1.0,211.61333333333334,0.0,0.0,0.0,0.0,0.0,0.0,0.0,8969.6,0.0,55.0,5.0,247.02333333333334,0.0,0.0,0.0,0.0,0.0,0.0,0.0,0.0,1.2029999999999994,1.2029999999999994,0.0,0.0,0.0,55.0,616.79921,10000.0,85.000001,85.000001,85.000001,85.000001,395.0,0.0,0.0,0.0,1.0,166.665,50.201,50.201,47.531,47.531,34.0,-24.8775,22.334000000000003,-32.32333333333333,26.745,0.0,1782.442,0.35999999999999943,100.0,30.406,29.877,43.263,43.209,0.0,0.0,100.0,0.0,0.0,0.0,0.0,3134.857142857143,3139.9,4307.5,4099.9,305.2485,304.88275,314.435,314.77225,22.0785,20.679,22.0551,21.5464,314.999998,314.999998,324.999988,324.999988,99.5621,99.50801666666666,99.57102857142857,99.5497,0.05549999999999988,-0.10666666666666669,-0.14966666666666661,0.08350000000000013,-0.03999999999999915,-0.030000000000001137,1.505,1.5285,38.989999999999995,30.244,38.844,35.665,57.113,36.0115,60.754,53.513999999999996,54.988,35.048500000000004,59.3025,51.781,54.120000000000005,34.5375,59.207499999999996,51.159,-0.06499999999999995,-0.12049999999999983,0.11099500000000001,0.10760000000000002,0.0,214.885,214.815,211.61333333333334,211.61333333333334,0.0,0.0
25,0.0,0.0,0.0,1.0,1.0,0.0,0.0,1.0,0.0,100.0,1.0,1.1856,26.0,0.0,0.0,0.0,59.999996,0.0,26.0,26.0,26.0,26.0,-0.04566666666666663,0.24330000000000007,-0.04666666666666667,291.397,-2.6347,-2.6693333333333333,-1.56235,-1.5588000000000002,-191.74,215.9425,190.457625,0.0,0.0,0.0,0.0,0.0504,-5.498166666666667,-5.498166666666667,-0.6648000000000001,-0.17833333333333334,-0.007444444444444365,-1.1920000000000002,68.752,-0.04409999999999992,-0.290125,0.7960000000000012,100.0,1.0,1.0,212.15,0.0,0.0,0.0,0.0,0.0,0.0,0.0,8992.2,0.0,55.0,5.0,247.48333333333335,1.0,0.0,0.0,0.0,0.0,0.0,0.0,0.0,1.2540000000000013,1.2540000000000013,0.0,0.0,1.0,55.0,616.79921,10000.0,85.000001,85.000001,85.000001,85.000001,395.0,0.0,0.0,0.0,1.0,333.33500000000004,49.438,49.438,48.218,48.218,34.0,-28.3275,23.637999999999998,-29.78666666666666,24.5075,0.0,1782.39,0.3000000000000007,100.0,30.158,30.072,43.119,42.914,0.0,0.0,100.0,0.0,0.0,0.0,0.0,3449.142857142857,3323.8,3963.5,3927.0,304.539,304.12775,315.29766666666666,315.1745,22.0883,20.6849,22.0656,21.5555,314.999998,314.999998,324.999988,324.999988,99.56211428571429,99.50803333333333,99.57117142857143,99.54984285714286,0.03699999999999992,-0.11499999999999999,-0.16466666666666663,0.06699999999999995,-0.04833333333333201,-0.041666666666671404,1.562,1.5955,39.052,30.280666666666665,38.91,35.722,57.097,36.055,60.787,53.569,54.973,35.088499999999996,59.3335,51.834,54.104,34.576499999999996,59.2355,51.21066666666667,-0.0714999999999999,-0.11299999999999999,0.10416,0.10840500000000002,0.0,215.29000000000002,215.195,212.15,212.15,0.0,0.0
26,0.0,0.0,0.0,1.0,1.0,0.0,0.0,1.0,0.0,100.0,1.0,1.1856,26.0,0.0,0.0,0.0,59.999996,0.0,26.0,26.0,26.0,26.0,-0.08666666666666656,0.26970000000000005,0.06216666666666667,290.146,-2.6505,-2.718888888888889,-1.5918,-1.5668000000000002,-188.01999999999998,215.94,190.430375,0.0,0.0,0.0,0.0,0.05256666666666654,-5.498166666666667,-5.498166666666667,-0.6254000000000001,0.7313333333333334,-0.04266666666666685,-0.998,68.891,-0.05589999999999995,-0.26025000000000004,0.7960000000000012,100.0,1.0,1.0,212.31333333333333,0.0,0.0,0.0,0.0,0.0,0.0,0.0,8999.2,0.0,55.0,5.0,247.98333333333335,0.0,0.0,0.0,0.0,0.0,0.0,0.0,0.0,1.3079999999999998,1.3079999999999998,0.0,0.0,0.0,55.0,616.79921,10000.0,85.000001,85.000001,85.000001,85.000001,395.0,0.0,0.0,0.0,1.0,166.665,48.691,48.691,46.6,46.6,34.0,-29.085,22.828,-37.12,27.3925,0.0,1782.337,0.15000000000000213,100.0,31.176000000000002,30.675,43.63,43.125,0.0,0.0,100.0,0.0,0.0,0.0,0.0,3524.5714285714284,3201.9,4592.0,4372.2,304.2845,304.40875,313.84233333333333,314.05625,22.0991,20.6914,22.076999999999998,21.5653,314.999998,314.999998,324.999988,324.999988,99.56211428571429,99.50805,99.57132857142857,99.55,0.040750000000000064,-0.12399999999999989,-0.17233333333333334,0.045500000000000096,-0.051666666666669414,-0.045000000000001705,1.4283333333333332,1.464,39.119,30.320999999999998,38.980999999999995,35.783,57.085,36.1045,60.827,53.6305,54.961,35.1345,59.3705,51.8935,54.091,34.62,59.269,51.26866666666667,-0.08499999999999996,-0.10650000000000004,0.0999,0.105105,0.0,215.75,215.68,212.31333333333333,212.31333333333333,0.0,0.0
27,0.0,0.0,0.0,1.0,1.0,0.0,0.0,1.0,0.0,100.0,1.0,1.1856,26.0,0.0,0.0,0.0,59.999996,0.0,26.0,26.0,26.0,26.0,-0.06633333333333336,0.24639999999999995,-0.011333333333333334,290.543,-2.6134,-2.6905555555555556,-1.58165,-1.6428,-184.70999999999998,215.9375,190.407375,0.0,0.0,0.0,0.0,0.05446666666666655,-5.498166666666667,-5.498166666666667,-0.6499,-1.0596666666666668,-0.044333333333333336,-0.6420000000000001,69.011,-0.057599999999999985,-0.30675,0.5879999999999992,100.0,1.0,1.0,212.76333333333332,0.0,0.0,0.0,0.0,0.0,0.0,0.0,9018.3,0.0,55.0,5.0,248.41666666666666,1.0,0.0,0.0,0.0,0.0,0.0,0.0,0.0,1.355999999999998,1.355999999999998,0.0,0.0,1.0,55.0,616.79921,10000.0,85.000001,85.000001,85.000001,85.000001,395.0,0.0,0.0,0.0,1.0,166.665,49.103,49.103,47.012,47.012,34.0,-27.9625,22.631999999999998,-33.089999999999996,26.405,0.0,1782.289,0.05999999999999872,100.0,30.887999999999998,30.406,44.349000000000004,43.653999999999996,0.0,0.0,100.0,0.0,0.0,0.0,0.0,3456.5714285714284,3219.3,4165.375,4028.8,304.478,304.47825,314.766,314.767,22.1084,20.6969,22.0873,21.5742,314.999998,314.999998,324.999988,324.999988,99.56212857142857,99.50805,99.57147142857143,99.55012857142857,0.04300000000000015,-0.12233333333333318,-0.17933333333333334,0.056666666666666865,-0.041666666666671404,-0.021666666666668277,1.4886666666666666,1.5154999999999998,39.177,30.355666666666664,39.045,35.838499999999996,57.072,36.1455,60.863,53.687,54.949,35.172,59.4045,51.9475,54.078,34.6565,59.3,51.321333333333335,-0.09299999999999997,-0.09699999999999998,0.10641500000000001,0.11005000000000001,0.0,216.06,215.97,212.76333333333332,212.76333333333332,0.0,0.0
28,0.0,0.0,0.0,1.0,1.0,0.0,0.0,1.0,0.0,100.0,1.0,1.1856,26.0,0.0,0.0,0.0,59.999996,0.0,26.0,26.0,26.0,26.0,-0.05744444444444441,0.25439999999999996,-0.0478,290.894,-2.6418,-2.6753333333333336,-1.53225,-1.6027,-181.39999999999998,215.93,190.383625,0.0,0.0,0.0,0.0,0.056400000000000006,-5.498166666666667,-5.498166666666667,-0.6585000000000001,0.5613333333333332,-0.04688888888888876,-0.4730000000000001,69.128,-0.05459999999999998,-0.28695000000000004,0.5259999999999998,100.0,1.0,1.0,213.26,0.0,0.0,0.0,0.0,0.0,0.0,0.0,9039.3,0.0,55.0,5.0,248.83666666666664,0.0,0.0,0.0,0.0,0.0,0.0,0.0,0.0,1.404,1.404,0.0,0.0,0.0,55.0,616.79921,10000.0,85.000001,85.000001,85.000001,85.000001,395.0,0.0,0.0,0.0,1.0,166.665,49.088,49.088,47.897,47.897,34.0,-28.685,22.704,-31.096666666666664,25.145,0.0,1782.241,-0.05000000000000071,100.0,30.97,30.375,43.661,43.115,0.0,0.0,100.0,0.0,0.0,0.0,0.0,3514.4285714285716,3181.6,4072.875,4020.7,304.347,304.57725,315.0316666666667,314.95425,22.1178,20.7025,22.0971,21.5827,314.999998,314.999998,324.999988,324.999988,99.56212857142857,99.50808333333333,99.57161428571429,99.55027142857143,0.044500000000000206,-0.11133333333333328,-0.17799999999999994,0.052166666666666694,-0.03166666666666629,-0.05333333333332746,1.5576666666666668,1.5755,39.236999999999995,30.390666666666668,39.107,35.891999999999996,57.06,36.187,60.8925,53.7375,54.937,35.210499999999996,59.432,51.996,54.065,34.6935,59.3245,51.369,-0.09799999999999986,-0.08550000000000013,0.11041500000000001,0.10808000000000001,0.0,216.45,216.4,213.26,213.26,0.0,0.0
29,0.0,0.0,0.0,1.0,1.0,0.0,0.0,1.0,0.0,100.0,1.0,1.1856,26.0,0.0,0.0,0.0,59.999996,0.0,26.0,26.0,26.0,26.0,-0.056777777777777816,0.2451000000000001,0.04176666666666667,290.451,-2.5919,-2.723111111111111,-1.57105,-1.5777,-177.66,215.9225,190.35575,0.0,0.0,0.0,0.0,0.058566666666666545,-5.498166666666667,-5.498166666666667,-0.6598,-0.748,-0.03811111111111121,-0.5820000000000001,69.266,-0.047599999999999976,-0.281075,0.3260000000000005,100.0,1.0,1.0,213.49,0.0,0.0,0.0,0.0,0.0,0.0,0.0,9049.0,0.0,55.0,5.0,249.32999999999998,1.0,0.0,0.0,0.0,0.0,0.0,0.0,0.0,1.4579999999999984,1.4579999999999984,0.0,0.0,1.0,55.0,616.79921,10000.0,85.000001,85.000001,85.000001,85.000001,395.0,0.0,0.0,0.0,1.0,166.665,49.057,49.057,46.829,46.829,34.0,-27.5275,24.52,-33.39333333333333,27.39,0.0,1782.187,-0.125,100.0,30.617,30.25,43.977000000000004,43.421,0.0,0.0,100.0,0.0,0.0,0.0,0.0,3498.714285714286,3299.5,4288.375,4189.0,304.3865,304.1285,314.448,314.447,22.1282,20.7087,22.1085,21.5926,314.999998,314.999998,324.999988,324.999988,99.56214285714286,99.50808333333333,99.57177142857142,99.55042857142857,0.054749999999999854,-0.10533333333333328,-0.16233333333333333,0.0685,-0.051666666666669414,-0.02833333333332888,1.4656666666666665,1.494,39.301,30.429666666666666,39.178,35.9535,57.044,36.232,60.932,53.7995,54.922,35.251999999999995,59.4685,52.056,54.049,34.733000000000004,59.3575,51.42733333333334,-0.10399999999999987,-0.07900000000000018,0.10273,0.11509000000000001,0.0,216.85000000000002,216.785,213.49,213.49,0.0,0.0
30,0.0,0.0,0.0,1.0,1.0,0.0,0.0,1.0,0.0,100.0,1.0,1.1856,26.0,0.0,0.0,0.0,59.999996,0.0,26.0,26.0,26.0,26.0,-0.06888888888888889,0.2612000000000001,0.0412,289.993,-2.644,-2.610444444444444,-1.5145,-1.5365,-174.54,215.91500000000002,190.3325,0.0,0.0,0.0,0.0,0.06040000000000001,-5.498166666666667,-5.498166666666667,-0.6633,0.7323333333333333,-0.03677777777777802,0.506,69.375,-0.03959999999999997,-0.28700000000000003,0.16000000000000014,100.0,1.0,1.0,213.89,0.0,0.0,0.0,0.0,0.0,0.0,0.0,9066.1,0.0,55.0,5.0,249.72333333333336,0.0,0.0,0.0,0.0,0.0,0.0,1.0,0.0,1.5030000000000001,1.5030000000000001,0.0,0.0,0.0,55.0,616.79921,10000.0,85.000001,85.000001,85.000001,85.000001,395.0,0.0,0.0,0.0,1.0,166.665,48.05,48.05,47.195,47.195,34.0,-28.5175,24.676,-31.07666666666666,29.192500000000003,0.0,1782.143,-0.2049999999999983,100.0,31.522,30.89,43.844,43.3,0.0,0.0,100.0,0.0,0.0,0.0,0.0,3608.5714285714284,3419.3,4205.125,4370.8,303.979,303.892,314.638,314.193,22.1372,20.714199999999998,22.1178,21.6007,314.999998,314.999998,324.999988,324.999988,99.56214285714286,99.5081,99.5719,99.55055714285714,0.06850000000000023,-0.09633333333333316,-0.14983333333333337,0.09133333333333327,-0.013333333333328312,-0.05333333333332746,1.4906666666666668,1.5075,39.357,30.464,39.236000000000004,36.0045,57.035,36.2725,60.960499999999996,53.85,54.914,35.29,59.495,52.1045,54.04,34.7695,59.3815,51.474666666666664,-0.10949999999999993,-0.08550000000000013,0.10126500000000001,0.11511500000000001,0.0,217.18,217.18,213.89,213.89,0.0,0.0
31,0.0,0.0,0.0,1.0,1.0,0.0,0.0,1.0,0.0,100.0,1.0,1.1856,26.0,0.0,0.0,0.0,59.999996,0.0,26.0,26.0,26.0,26.0,-0.03722222222222216,0.24980000000000002,0.012700000000000001,289.886,-2.6446,-2.6833333333333336,-1.5998,-1.5242,-171.0,215.905,190.306625,0.0,0.0,0.0,0.0,0.06243333333333334,-5.498166666666667,-5.498166666666667,-0.6434000000000001,-0.46266666666666667,-0.028666666666666618,-0.8460000000000001,69.502,-0.029999999999999916,-0.28390000000000004,0.062000000000001165,100.0,1.0,1.0,214.15666666666667,0.0,0.0,0.0,0.0,0.0,0.0,0.0,9077.3,0.0,55.0,5.0,250.18333333333334,1.0,0.0,0.0,0.0,0.0,0.0,1.0,0.0,1.5539999999999985,1.5539999999999985,0.0,0.0,1.0,55.0,616.79921,10000.0,85.000001,85.000001,85.000001,85.000001,395.0,0.0,0.0,0.0,1.0,333.33500000000004,48.706,48.706,45.746,45.746,34.0,-25.465,24.624000000000002,-34.25333333333334,27.802500000000002,0.0,1782.089,-0.259999999999998,100.0,31.216,31.103,44.387,44.134,0.0,0.0,100.0,0.0,0.0,0.0,0.0,3325.0,3269.0,4467.25,4198.1,304.8905,304.22,314.082,314.38875,22.147,20.7203,22.1286,21.6102,314.999998,314.999998,324.999988,324.999988,99.56215714285715,99.50811666666667,99.57205714285715,99.5507,0.0767500000000001,-0.08966666666666678,-0.14,0.08433333333333337,-0.04333333333332945,-0.04999999999999716,1.4489999999999998,1.4465,39.419,30.502000000000002,39.304,36.064,57.022999999999996,36.3165,60.9985,53.91,54.902,35.3305,59.5305,52.162,54.028,34.8085,59.414,51.531,-0.119,-0.07050000000000001,0.10468500000000001,0.11180000000000001,0.0,217.59,217.56,214.15666666666667,214.15666666666667,0.0,0.0
32,0.0,0.0,0.0,1.0,1.0,0.0,0.0,1.0,0.0,100.0,1.0,1.1856,26.0,0.0,0.0,0.0,59.999996,0.0,26.0,26.0,26.0,26.0,-0.022333333333333316,0.24080000000000013,-0.046700000000000005,290.314,-2.6478,-2.6926666666666668,-1.6265,-1.5339,-167.45,215.89249999999998,190.281125,0.0,0.0,0.0,0.0,0.0645,-5.498166666666667,-5.498166666666667,-0.6644,0.10200000000000009,-0.051000000000000156,-0.018000000000000016,69.624,-0.017100000000000004,-0.2979,-0.06399999999999917,100.0,1.0,1.0,214.74666666666667,0.0,0.0,0.0,0.0,0.0,0.0,0.0,9102.3,0.0,55.0,5.0,250.62,0.0,0.0,0.0,0.0,0.0,0.0,1.0,0.0,1.6050000000000004,1.6050000000000004,0.0,0.0,0.0,55.0,616.79921,10000.0,85.000001,85.000001,85.000001,85.000001,395.0,0.0,0.0,0.0,1.0,166.665,48.462,48.462,47.15,47.15,34.0,-25.8275,26.016,-29.810000000000002,27.7125,0.0,1782.04,-0.19500000000000028,100.0,31.332,30.972,44.179,43.845,0.0,0.0,100.0,0.0,0.0,0.0,0.0,3434.857142857143,3381.9,4090.875,4053.9,304.44,304.1195,315.06166666666667,315.015,22.1569,20.7265,22.1391,21.6195,314.999998,314.999998,324.999988,324.999988,99.56217142857143,99.50813333333333,99.5722,99.55085714285714,0.09350000000000014,-0.07666666666666666,-0.125,0.1180000000000001,-0.054999999999999716,-0.041666666666671404,1.5573333333333332,1.552,39.480999999999995,30.540666666666667,39.370000000000005,36.122,57.012,36.3605,61.031,53.966,54.891999999999996,35.3715,59.561,52.216,54.016,34.8475,59.441,51.583666666666666,-0.11499999999999999,-0.08450000000000024,0.10597500000000001,0.11621000000000001,0.0,217.945,217.95,214.74666666666667,214.74666666666667,0.0,0.0
33,0.0,0.0,0.0,1.0,1.0,0.0,0.0,1.0,0.0,100.0,1.0,1.1856,26.0,0.0,0.0,0.0,59.999996,0.0,26.0,26.0,26.0,26.0,-0.018888888888888844,0.25770000000000004,-0.04996666666666667,290.329,-2.6041,-2.674444444444444,-1.5824500000000001,-1.6177000000000001,-164.11,215.8825,190.25625,0.0,0.0,0.0,0.0,0.06646666666666656,-5.498166666666667,-5.498166666666667,-0.6653,-0.257,-0.048666666666666636,1.305,69.742,-0.007499999999999951,-0.28245000000000003,-0.05600000000000005,100.0,1.0,1.0,214.9766666666667,0.0,0.0,0.0,0.0,0.0,0.0,0.0,9112.1,0.0,55.0,5.0,251.04666666666668,1.0,0.0,0.0,0.0,0.0,0.0,1.0,0.0,1.6529999999999987,1.6529999999999987,0.0,0.0,1.0,55.0,616.79921,10000.0,85.000001,85.000001,85.000001,85.000001,395.0,0.0,0.0,0.0,1.0,333.33500000000004,49.088,49.088,46.768,46.768,34.0,-23.919999999999998,25.218,-30.699999999999996,30.45,0.0,1781.991,-0.21499999999999986,100.0,31.179000000000002,30.654,44.129,43.844,0.0,0.0,100.0,0.0,0.0,0.0,0.0,3242.142857142857,3283.3,4242.375,4262.5,304.938,304.4645,314.6,314.40175,22.1661,20.7321,22.1491,21.6283,314.999998,314.999998,324.999988,324.999988,99.56218571428572,99.50813333333333,99.57232857142857,99.551,0.09100000000000019,-0.07000000000000006,-0.11966666666666659,0.10716666666666685,-0.03333333333333144,-0.07000000000000028,1.4933333333333332,1.502,39.538,30.575666666666663,39.432,36.1765,57.001000000000005,36.399,61.063,54.019999999999996,54.881,35.407,59.591,52.268,54.004000000000005,34.8815,59.468,51.63433333333333,-0.11149999999999993,-0.07500000000000018,0.10527,0.10417000000000001,0.0,218.31,218.32,214.9766666666667,214.9766666666667,0.0,0.0
34,0.0,0.0,0.0,1.0,1.0,0.0,0.0,1.0,0.0,100.0,1.0,1.1856,26.0,0.0,0.0,0.0,59.999996,0.0,26.0,26.0,26.0,26.0,-0.017555555555555546,0.2379,-0.06043333333333334,290.649,-2.7265,-2.640888888888889,-1.6219000000000001,-1.5722,-160.34,215.87,190.227,0.0,0.0,0.0,0.0,0.06863333333333332,-5.498166666666667,-5.498166666666667,-0.6959000000000001,-0.7,-0.012666666666666604,1.045,69.873,-0.0018999999999999018,-0.291275,-0.0259999999999998,100.0,1.0,1.0,215.43,0.0,0.0,0.0,0.0,0.0,0.0,0.0,9131.3,0.0,55.0,5.0,251.51666666666665,0.0,0.0,0.0,0.0,0.0,0.0,1.0,0.0,1.7070000000000007,1.7070000000000007,0.0,0.0,0.0,55.0,616.79921,10000.0,85.000001,85.000001,85.000001,85.000001,395.0,0.0,0.0,0.0,1.0,166.665,49.24,49.24,47.714,47.714,34.0,-25.49,25.29,-28.88666666666667,29.97,0.0,1781.939,-0.22499999999999787,100.0,30.811,30.348,43.839,43.881,0.0,0.0,100.0,0.0,0.0,0.0,0.0,3344.285714285714,3281.5,4028.0,4214.1,304.672,304.50325,315.12666666666667,314.48625,22.1764,20.7384,22.1602,21.6382,314.999998,314.999998,324.999988,324.999988,99.5622,99.50815,99.5725,99.55115714285714,0.10199999999999987,-0.06000000000000005,-0.11249999999999993,0.1180000000000001,-0.026666666666670835,-0.051666666666669414,1.5190000000000001,1.5125,39.602999999999994,30.615000000000002,39.501000000000005,36.2385,56.988,36.4415,61.0965,54.0815,54.869,35.446,59.622,52.327,53.989999999999995,34.9195,59.4955,51.692,-0.11549999999999994,-0.0714999999999999,0.10660000000000001,0.10886000000000001,0.0,218.685,218.69,215.43,215.43,0.0,0.0
35,0.0,0.0,0.0,1.0,1.0,0.0,0.0,1.0,0.0,100.0,1.0,1.1856,26.0,0.0,0.0,0.0,59.999996,0.0,26.0,26.0,26.0,26.0,0.0007777777777777661,0.25239999999999996,-0.06273333333333334,290.726,-2.7297,-2.6074444444444445,-1.6038000000000001,-1.5851000000000002,-156.76999999999998,215.85750000000002,190.19725,0.0,0.0,0.0,0.0,0.07073333333333331,-5.498166666666667,-5.498166666666667,-0.7392000000000001,-0.4836666666666666,-0.024666666666666615,-1.053,69.995,0.0038000000000000256,-0.297775,-0.07200000000000006,100.0,1.0,1.0,215.86,0.0,0.0,0.0,0.0,0.0,0.0,0.0,9149.5,0.0,55.0,5.0,251.96,1.0,0.0,0.0,0.0,0.0,0.0,1.0,0.0,1.7579999999999991,1.7579999999999991,0.0,0.0,1.0,55.0,616.79921,10000.0,85.000001,85.000001,85.000001,85.000001,395.0,0.0,0.0,0.0,1.0,166.665,48.965,48.965,47.211,47.211,34.0,-26.419999999999998,26.664,-28.53666666666667,27.8575,0.0,1781.886,-0.1999999999999993,100.0,30.441,30.695,43.548,43.489000000000004,0.0,0.0,100.0,0.0,0.0,0.0,0.0,3436.142857142857,3472.7,4080.25,3939.3,304.694,303.733,314.98466666666667,315.12025,22.1859,20.7445,22.1706,21.6473,314.999998,314.999998,324.999988,324.999988,99.56221428571429,99.50815,99.57264285714285,99.5513,0.09299999999999997,-0.06466666666666665,-0.10549999999999993,0.12233333333333318,-0.03833333333332689,-0.026666666666670835,1.572,1.5594999999999999,39.662,30.653333333333336,39.566,36.296,56.973,36.4825,61.128,54.1355,54.855000000000004,35.4845,59.650999999999996,52.3795,53.976,34.956,59.521,51.743,-0.11050000000000004,-0.07750000000000012,0.10583000000000001,0.11341000000000001,0.0,219.06,219.06,215.86,215.86,0.0,0.0
