,ABS Active,ABS Enabled,AID Allow Tire Blankets,AID Auto Blip,AID Auto Clutch,AID Auto Shift,AID Fuel Rate,AID Ideal Line,AID Mech Damage,AID Stability,AID Tire Wear Rate,Air Density,Air Temp,Ballast,Best Lap Delta,Best Lap Time,Brake Bias,Brake Pos,Brake Temp FL,Brake Temp FR,Brake Temp RL,Brake Temp RR,CG Accel Lateral,CG Accel Longitudinal,CG Accel Vertical,CG Height,Camber FL,Camber FR,Camber RL,Camber RR,Car Coord X,Car Coord Y,Car Coord Z,Car Damage Front,Car Damage Left,Car Damage Rear,Car Damage Right,Car Pos Norm,Caster FL,Caster FR,Chassis Pitch Angle,Chassis Pitch Rate,Chassis Roll Angle,Chassis Roll Rate,Chassis Velocity X,Chassis Velocity Y,Chassis Velocity Z,Chassis Yaw Rate,Clutch Pos,DRS Active,DRS Available,Drive Train Speed,ERS Heat Charging,ERS Is Charging,ERS Max Energy,ERS Power Level,ERS Recovery Level,Engine Brake Setting,Engine Limiter,Engine RPM,Flags,Fuel Level,Gear,Ground Speed,HR Sample Clock,In Pit,KERS Charge,KERS Deployed Energy,KERS Input,KERS Max Energy,LR Sample Clock,Lap Invalidated,Lap Time,Lap Time2,Last Lap Time,Last Sector Time,MR Sample Clock,Max Fuel,Max Power,Max RPM,Max Sus Travel FL,Max Sus Travel FR,Max Sus Travel RL,Max Sus Travel RR,Max Torque,Max Turbo Boost,Num Tires Off Track,Penalties Enabled,Position,Raw Data Sample Rate,Ride Height FL,Ride Height FR,Ride Height RL,Ride Height RR,Road Temp,Self Align Torque FL,Self Align Torque FR,Self Align Torque RL,Self Align Torque RR,Session Lap Count,Session Time Left,Steering Angle,Surface Grip,Suspension Travel FL,Suspension Travel FR,Suspension Travel RL,Suspension Travel RR,TC Active,TC Enabled,Throttle Pos,Tire Dirt Level FL,Tire Dirt Level FR,Tire Dirt Level RL,Tire Dirt Level RR,Tire Load FL,Tire Load FR,Tire Load RL,Tire Load RR,Tire Loaded Radius FL,Tire Loaded Radius FR,Tire Loaded Radius RL,Tire Loaded Radius RR,Tire Pressure FL,Tire Pressure FR,Tire Pressure RL,Tire Pressure RR,Tire Radius FL,Tire Radius FR,Tire Radius RL,Tire Radius RR,Tire Rubber Grip FL,Tire Rubber Grip FR,Tire Rubber Grip RL,Tire Rubber Grip RR,Tire Slip Angle FL,Tire Slip Angle FR,Tire Slip Angle RL,Tire Slip Angle RR,Tire Slip Ratio FL,Tire Slip Ratio FR,Tire Slip Ratio RL,Tire Slip Ratio RR,Tire Temp Core FL,Tire Temp Core FR,Tire Temp Core RL,Tire Temp Core RR,Tire Temp Inner FL,Tire Temp Inner FR,Tire Temp Inner RL,Tire Temp Inner RR,Tire Temp Middle FL,Tire Temp Middle FR,Tire Temp Middle RL,Tire Temp Middle RR,Tire Temp Outer FL,Tire Temp Outer FR,Tire Temp Outer RL,Tire Temp Outer RR,Toe In FL,Toe In FR,Toe In RL,Toe In RR,Turbo Boost,Wheel Angular Speed FL,Wheel Angular Speed FR,Wheel Angular Speed RL,Wheel Angular Speed RR,Wind Direction,Wind Speed
0,0.0,0.0,0.0,1.0,1.0,0.0,0.0,1.0,0.0,100.0,1.0,1.1856,26.0,0.0,0.0,0.0,59.99999,0.0,26.0,26.0,26.0,26.0,-0.10771428571428565,-0.395,0.0897,290.695,-2.6189,-2.5841250000000002,-1.4958,-1.5575555555555556,-275.73,216.3275,190.9845,0.0,0.0,0.0,0.0,0.0015666666666666667,-5.498166666666667,-5.498166666666667,-0.7581,-0.37033333333333335,-0.020222222222222364,-0.916,65.264,-0.05559999999999998,-0.43793333333333334,1.1899999999999995,100.0,1.0,1.0,198.41,0.0,0.0,0.0,0.0,0.0,0.0,0.0,9432.5,0.0,55.0,0.0,234.99666666666667,0.0,0.0,0.0,0.0,0.0,0.0,0.0,0.0,0.0030000000000001137,0.0030000000000001137,0.0,0.0,0.0,55.0,616.79921,10000.0,85.0,85.0,85.0,85.0,395.0,0.0,0.0,0.0,1.0,20.0,43.213,43.213,51.682,51.682,34.0,-36.153333333333336,28.887999999999998,-31.0775,23.82,0.0,1783.556,0.7349999999999994,100.0,33.746,32.964,39.902,39.703,0.0,0.0,0.0,0.0,0.0,0.0,0.0,4134.333333333333,4362.2,3646.4285714285716,3502.2,302.3955,300.9316666666667,316.068,316.117,21.861,20.6098,21.945999999999998,21.3719,314.99999,314.99999,324.99998,324.99998,99.56074285714286,99.50901666666667,99.57764285714286,99.54927142857143,0.012499999999999956,-0.14774999999999994,-0.18520000000000003,0.04380000000000006,0.016666666666672825,-0.015000000000000568,0.0,-0.002000000000000224,37.631,29.811500000000002,38.163,34.575,57.239000000000004,36.013999999999996,63.25,53.3215,55.214,35.104,61.7985,51.5655,54.473,34.650999999999996,61.8395,50.9415,-0.05699999999999994,-0.16300000000000026,0.10046000000000001,0.10396000000000001,0.0,204.565,204.47,198.41,198.41,0.0,0.0
1,0.0,0.0,0.0,1.0,1.0,0.0,0.0,1.0,0.0,100.0,1.0,1.1856,26.0,0.0,0.0,0.0,59.999996,0.0,26.0,26.0,26.0,26.0,-0.15485714285714292,0.28710000000000013,0.058675000000000005,289.459,-2.522,-2.680625,-1.5011,-1.5443333333333333,-272.4,216.325,190.964125,0.0,0.0,0.0,0.0,0.0035,-5.498166666666667,-5.498166666666667,-0.6629,1.087,-0.06400000000000006,0.03499999999999992,65.383,-0.06879999999999997,-0.38616666666666666,1.4860000000000007,100.0,1.0,1.0,201.56,0.0,0.0,0.0,0.0,0.0,0.0,0.0,8543.3,0.0,55.0,5.0,235.35333333333335,1.0,0.0,0.0,0.0,0.0,0.0,0.0,0.0,0.053999999999998494,0.053999999999998494,0.0,0.0,1.0,55.0,616.79921,10000.0,85.000001,85.000001,85.000001,85.000001,395.0,0.0,0.0,0.0,1.0,333.33500000000004,44.907,44.907,48.965,48.965,34.0,-29.38,19.921999999999997,-37.28,28.91,0.0,1783.503,0.7199999999999989,100.0,34.829,33.924,41.562,40.436,0.0,0.0,100.0,0.0,0.0,0.0,0.0,3604.5,3197.1,4564.428571428572,4792.6,303.6865,304.57433333333336,313.763,312.99825,21.87211111111111,20.6164,21.957666666666668,21.3812,314.999998,314.999998,324.999988,324.999988,99.56075714285714,99.50903333333333,99.57778571428571,99.54941428571429,0.02825000000000011,-0.17399999999999993,-0.19920000000000004,0.025599999999999845,-0.02499999999999858,-0.05666666666667197,1.3984999999999999,1.443,37.701,29.8525,38.236000000000004,34.632,57.233999999999995,36.069,63.278,53.3735,55.21,35.155,61.8245,51.616,54.467,34.6995,61.863,50.9915,-0.058333333333333126,-0.17100000000000026,0.10326,0.104395,0.0,204.96,204.835,201.56,201.56,0.0,0.0
2,0.0,0.0,0.0,1.0,1.0,0.0,0.0,1.0,0.0,100.0,1.0,1.1856,26.0,0.0,0.0,0.0,59.999996,0.0,26.0,26.0,26.0,26.0,-0.15314285714285714,0.27360000000000007,-0.136,290.466,-2.5136,-2.701125,-1.4858,-1.5967777777777779,-268.87,216.3175,190.94475,0.0,0.0,0.0,0.0,0.005566666666666667,-5.498166666666667,-5.498166666666667,-0.7117,-0.47300000000000003,-0.0427777777777778,2.404,65.521,-0.0774999999999999,-0.4432666666666667,1.4720000000000013,100.0,1.0,1.0,202.50666666666666,0.0,0.0,0.0,0.0,0.0,0.0,0.0,8583.5,0.0,55.0,5.0,235.85333333333335,0.0,0.0,0.0,0.0,0.0,0.0,0.0,0.0,0.10800000000000054,0.10800000000000054,0.0,0.0,0.0,55.0,616.79921,10000.0,85.000001,85.000001,85.000001,85.000001,395.0,0.0,0.0,0.0,1.0,166.665,44.312,44.312,51.132,51.132,34.0,-32.95333333333333,21.898,-28.057499999999997,19.384999999999998,0.0,1783.451,0.7300000000000004,100.0,34.814,33.353,41.973,40.749,0.0,0.0,100.0,0.0,0.0,0.0,0.0,3846.0,3512.2,3606.714285714286,3592.8,303.0235,303.71233333333333,316.0346666666667,316.0035,21.883666666666667,20.6226,21.96988888888889,21.3909,314.999998,314.999998,324.999988,324.999988,99.56075714285714,99.50906666666667,99.57792857142857,99.54955714285714,0.0015000000000000568,-0.1825,-0.22699999999999998,0.010000000000000009,-0.01666666666666572,-0.03999999999999915,1.6535,1.733,37.772999999999996,29.8915,38.312,34.693,57.226,36.118,63.3065,53.4295,55.201,35.2,61.8505,51.6695,54.457,34.7425,61.8855,51.044,-0.058666666666666645,-0.17100000000000026,0.10882000000000001,0.10995,0.0,205.29000000000002,205.16500000000002,202.50666666666666,202.50666666666666,0.0,0.0
3,0.0,0.0,0.0,1.0,1.0,0.0,0.0,1.0,0.0,100.0,1.0,1.1856,26.0,0.0,0.0,0.0,59.999996,0.0,26.0,26.0,26.0,26.0,-0.1478571428571429,0.2912000000000001,0.0843,290.176,-2.6329,-2.603875,-1.4982,-1.5823333333333334,-265.72,216.3075,190.92625,0.0,0.0,0.0,0.0,0.0074,-5.498166666666667,-5.498166666666667,-0.6813,0.5566666666666666,-0.010777777777777775,0.09499999999999997,65.651,-0.08549999999999991,-0.3915666666666667,1.3539999999999992,100.0,1.0,1.0,202.63,0.0,0.0,0.0,0.0,0.0,0.0,0.0,8588.7,0.0,55.0,5.0,236.32,1.0,0.0,0.0,0.0,0.0,0.0,0.0,0.0,0.1559999999999988,0.1559999999999988,0.0,0.0,1.0,55.0,616.79921,10000.0,85.000001,85.000001,85.000001,85.000001,395.0,0.0,0.0,0.0,1.0,166.665,45.150999999999996,45.150999999999996,49.271,49.271,34.0,-29.736666666666668,21.124,-33.6525,23.77,0.0,1783.403,0.5899999999999999,100.0,34.482,33.364,41.631,40.572,0.0,0.0,100.0,0.0,0.0,0.0,0.0,3471.0,3510.9,4188.285714285715,4129.7,304.2215,303.65833333333336,314.67333333333335,314.67275,21.89377777777778,20.6286,21.980444444444444,21.3995,314.999998,314.999998,324.999988,324.999988,99.56075714285714,99.50908333333334,99.57805714285715,99.54968571428572,0.01550000000000007,-0.1775,-0.21320000000000006,0.017000000000000126,-0.04999999999999716,-0.04999999999999716,1.529,1.563,37.836,29.9285,38.378,34.747,57.217,36.167500000000004,63.33,53.4805,55.192,35.2455,61.872,51.719,54.447,34.786500000000004,61.9045,51.0925,-0.06933333333333325,-0.15799999999999992,0.101925,0.11628000000000001,0.0,205.76,205.64,202.63,202.63,0.0,0.0
4,0.0,0.0,0.0,1.0,1.0,0.0,0.0,1.0,0.0,100.0,1.0,1.1856,26.0,0.0,0.0,0.0,59.999996,0.0,26.0,26.0,26.0,26.0,-0.15485714285714292,0.2553000000000001,0.00685,290.314,-2.5715,-2.6648750000000003,-1.5213,-1.586888888888889,-262.56,216.29500000000002,190.907625,0.0,0.0,0.0,0.0,0.009233333333333333,-5.498166666666667,-5.498166666666667,-0.7018,-0.8886666666666666,-0.0732222222222223,-0.7110000000000001,65.77799999999999,-0.08939999999999992,-0.41923333333333335,1.1959999999999997,100.0,1.0,1.0,203.07333333333332,0.0,0.0,0.0,0.0,0.0,0.0,0.0,8607.5,0.0,55.0,5.0,236.77666666666667,0.0,0.0,0.0,0.0,0.0,0.0,0.0,0.0,0.20400000000000063,0.20400000000000063,0.0,0.0,0.0,55.0,616.79921,10000.0,85.000001,85.000001,85.000001,85.000001,395.0,0.0,0.0,0.0,1.0,166.665,45.013,45.013,49.438,49.438,34.0,-31.546666666666667,22.586,-32.47,20.747500000000002,0.0,1783.355,0.4750000000000014,100.0,34.175,33.041,42.223,40.814,0.0,0.0,100.0,0.0,0.0,0.0,0.0,3733.833333333333,3547.1,4040.5714285714284,3691.3,303.5425,303.5756666666667,314.9563333333333,315.6575,21.903777777777776,20.6344,21.991333333333333,21.4081,314.999998,314.999998,324.999988,324.999988,99.56075714285714,99.50911666666667,99.5782,99.54981428571429,0.01550000000000007,-0.16700000000000004,-0.2108,0.016799999999999926,-0.046666666666666856,-0.06333333333333258,1.543,1.6065,37.899,29.965,38.446,34.801,57.206,36.214,63.358000000000004,53.531,55.182,35.2885,61.897999999999996,51.7675,54.435,34.8275,61.927,51.14,-0.06866666666666665,-0.15149999999999997,0.10982000000000001,0.102855,0.0,206.07999999999998,205.99,203.07333333333332,203.07333333333332,0.0,0.0
5,0.0,0.0,0.0,1.0,1.0,0.0,0.0,1.0,0.0,100.0,1.0,1.1856,26.0,0.0,0.0,0.0,59.999996,0.0,26.0,26.0,26.0,26.0,-0.12742857142857145,0.27180000000000004,-0.033775,290.497,-2.5812,-2.718,-1.5001,-1.5795555555555556,-259.21,216.2775,190.8875,0.0,0.0,0.0,0.0,0.011166666666666668,-5.498166666666667,-5.498166666666667,-0.6983,0.41333333333333333,-0.08388888888888868,-0.19599999999999995,65.911,-0.08979999999999999,-0.40240000000000004,1.0879999999999992,100.0,1.0,1.0,203.51,0.0,0.0,0.0,0.0,0.0,0.0,0.0,8626.0,0.0,55.0,5.0,237.25333333333333,1.0,0.0,0.0,0.0,0.0,0.0,0.0,0.0,0.254999999999999,0.254999999999999,0.0,0.0,1.0,55.0,616.79921,10000.0,85.000001,85.000001,85.000001,85.000001,395.0,0.0,0.0,0.0,1.0,333.33500000000004,45.379999999999995,45.379999999999995,50.003,50.003,34.0,-31.96,21.932,-32.8775,21.98,0.0,1783.303,0.09499999999999886,100.0,34.076,33.014,41.864000000000004,40.51,0.0,0.0,100.0,0.0,0.0,0.0,0.0,3765.333333333333,3312.3,4077.5714285714284,3913.5,303.4875,304.132,315.03766666666667,315.1445,21.914666666666665,20.6406,22.002555555555556,21.4171,314.999998,314.999998,324.999988,324.999988,99.56077142857143,99.50911666666667,99.57834285714286,99.54994285714285,0.01475000000000004,-0.15949999999999998,-0.22460000000000002,0.013600000000000056,-0.04333333333332945,-0.060000000000002274,1.5585,1.609,37.967,30.0035,38.516,34.857,57.199,36.2635,63.3845,53.582,55.175,35.334,61.922,51.816,54.427,34.871,61.948499999999996,51.1875,-0.09299999999999997,-0.12199999999999989,0.10269500000000001,0.11113500000000001,0.0,206.54500000000002,206.425,203.51,203.51,0.0,0.0
6,0.0,0.0,0.0,1.0,1.0,0.0,0.0,1.0,0.0,100.0,1.0,1.1856,26.0,0.0,0.0,0.0,59.999996,0.0,26.0,26.0,26.0,26.0,-0.11485714285714288,0.2704,-0.01925,290.359,-2.5627,-2.652125,-1.5462,-1.6096666666666668,-256.04,216.2575,190.868375,0.0,0.0,0.0,0.0,0.013000000000000001,-5.498166666666667,-5.498166666666667,-0.6916,0.097,-0.06199999999999983,-0.43599999999999994,66.036,-0.0817,-0.39940000000000003,0.7800000000000002,100.0,1.0,1.0,203.86333333333334,0.0,0.0,0.0,0.0,0.0,0.0,0.0,8641.0,0.0,55.0,5.0,237.71,0.0,0.0,0.0,0.0,0.0,0.0,0.0,0.0,0.3030000000000008,0.3030000000000008,0.0,0.0,0.0,55.0,616.79921,10000.0,85.000001,85.000001,85.000001,85.000001,395.0,0.0,0.0,0.0,1.0,166.665,45.181,45.181,49.866,49.866,34.0,-31.05666666666667,23.102,-32.442499999999995,22.189999999999998,0.0,1783.256,-0.07499999999999929,100.0,33.819,32.975,41.896,40.812,0.0,0.0,100.0,0.0,0.0,0.0,0.0,3817.666666666667,3475.8,4012.714285714286,3893.4,303.3435,303.62,315.1836666666667,315.13825,21.924888888888887,20.6464,22.013333333333335,21.4259,314.999998,314.999998,324.999988,324.999988,99.56077142857143,99.50915,99.57847142857143,99.55008571428571,0.03699999999999992,-0.14725,-0.2156,0.011800000000000033,-0.03166666666666629,-0.06333333333333258,1.5565,1.6155,38.031,30.04,38.583,34.912,57.192,36.309,63.4095,53.634,55.167,35.376,61.945,51.866,54.418,34.911,61.9685,51.2365,-0.11799999999999988,-0.10950000000000015,0.11116500000000001,0.100125,0.0,206.875,206.82999999999998,203.86333333333334,203.86333333333334,0.0,0.0
7,0.0,0.0,0.0,1.0,1.0,0.0,0.0,1.0,0.0,100.0,1.0,1.1856,26.0,0.0,0.0,0.0,59.999996,0.0,26.0,26.0,26.0,26.0,-0.0812857142857143,0.2715000000000001,0.041550000000000004,290.176,-2.6142,-2.646,-1.5042,-1.5563333333333333,-252.67,216.23250000000002,190.848125,0.0,0.0,0.0,0.0,0.014966666666666666,-5.498166666666667,-5.498166666666667,-0.6927,-0.08233333333333333,-0.04700000000000015,1.1280000000000001,66.17,-0.06259999999999999,-0.4037333333333334,0.33000000000000007,100.0,1.0,1.0,204.22,0.0,0.0,0.0,0.0,0.0,0.0,0.0,8656.1,0.0,55.0,5.0,238.18666666666667,1.0,0.0,0.0,0.0,0.0,0.0,0.0,0.0,0.3539999999999992,0.3539999999999992,0.0,0.0,1.0,55.0,616.79921,10000.0,85.000001,85.000001,85.000001,85.000001,395.0,0.0,0.0,0.0,1.0,166.665,45.028999999999996,45.028999999999996,49.82,49.82,34.0,-30.36,25.7,-30.36,24.91,0.0,1783.204,-0.23000000000000043,100.0,33.868,32.731,41.95,40.897,0.0,0.0,100.0,0.0,0.0,0.0,0.0,3830.833333333333,3628.2,3995.1428571428573,4046.9,303.152,303.35133333333334,315.10066666666665,314.856,21.935666666666666,20.6527,22.02466666666667,21.4351,314.999998,314.999998,324.999988,324.999988,99.56077142857143,99.50916666666667,99.57861428571428,99.55021428571429,0.06675000000000009,-0.11475000000000002,-0.18199999999999994,0.05699999999999994,-0.03333333333333144,-0.023333333333326323,1.552,1.568,38.098,30.0795,38.653999999999996,34.97,57.185,36.3565,63.436,53.6885,55.161,35.42,61.9695,51.919,54.41,34.953,61.9895,51.288,-0.127,-0.09200000000000008,0.111405,0.10521000000000001,0.0,207.26999999999998,207.235,204.22,204.22,0.0,0.0
8,0.0,0.0,0.0,1.0,1.0,0.0,0.0,1.0,0.0,100.0,1.0,1.1856,26.0,0.0,0.0,0.0,59.999996,0.0,26.0,26.0,26.0,26.0,-0.04942857142857138,0.27890000000000015,-0.03305,290.375,-2.6041,-2.6265,-1.4897,-1.5364444444444443,-249.29,216.20749999999998,190.827625,0.0,0.0,0.0,0.0,0.016933333333333335,-5.498166666666667,-5.498166666666667,-0.6931,-0.3896666666666667,-0.0303333333333331,-0.397,66.30199999999999,-0.04179999999999995,-0.39630000000000004,-0.043999999999999595,100.0,1.0,1.0,204.57333333333332,0.0,0.0,0.0,0.0,0.0,0.0,0.0,8671.1,0.0,55.0,5.0,238.66333333333333,0.0,0.0,0.0,0.0,0.0,0.0,0.0,0.0,0.40500000000000114,0.40500000000000114,0.0,0.0,0.0,55.0,616.79921,10000.0,85.000001,85.000001,85.000001,85.000001,395.0,0.0,0.0,0.0,1.0,333.33500000000004,45.822,45.822,49.025999999999996,49.025999999999996,34.0,-26.883333333333333,24.79,-30.355,25.52,0.0,1783.154,-0.3550000000000004,100.0,33.465,32.951,41.846000000000004,41.134,0.0,0.0,100.0,0.0,0.0,0.0,0.0,3545.833333333333,3470.1,4179.285714285715,4064.7,304.138,303.66433333333333,314.7273333333333,314.75675,21.946333333333335,20.659,22.036,21.4444,314.999998,314.999998,324.999988,324.999988,99.56078571428571,99.50918333333334,99.57877142857143,99.55035714285714,0.0787500000000001,-0.10675000000000001,-0.15439999999999998,0.06800000000000006,-0.04333333333332945,-0.05333333333332746,1.5495,1.541,38.164,30.118499999999997,38.724999999999994,35.027,57.178,36.403,63.462,53.743,55.153999999999996,35.4625,61.993,51.971000000000004,54.402,34.994,62.01,51.339,-0.14466666666666672,-0.08099999999999996,0.103565,0.10641500000000001,0.0,207.67000000000002,207.67000000000002,204.57333333333332,204.57333333333332,0.0,0.0
9,0.0,0.0,0.0,1.0,1.0,0.0,0.0,1.0,0.0,100.0,1.0,1.1856,26.0,0.0,0.0,0.0,59.999996,0.0,26.0,26.0,26.0,26.0,-0.021285714285714352,0.26070000000000015,0.036575,290.131,-2.6056,-2.6321250000000003,-1.5488,-1.5394444444444444,-245.91,216.18,190.80675,0.0,0.0,0.0,0.0,0.0189,-5.498166666666667,-5.498166666666667,-0.7028,0.624,-0.026111111111111196,0.792,66.431,-0.022499999999999964,-0.40040000000000003,-0.2060000000000004,100.0,1.0,1.0,205.12,0.0,0.0,0.0,0.0,0.0,0.0,0.0,8694.2,0.0,55.0,5.0,239.12666666666667,1.0,0.0,0.0,0.0,0.0,0.0,0.0,0.0,0.4559999999999995,0.4559999999999995,0.0,0.0,1.0,55.0,616.79921,10000.0,85.000001,85.000001,85.000001,85.000001,395.0,0.0,0.0,0.0,1.0,166.665,44.571,44.571,50.232,50.232,34.0,-28.053333333333335,28.266,-26.7775,26.4625,0.0,1783.103,-0.46000000000000085,100.0,33.947,33.253,41.571,41.06,0.0,0.0,100.0,0.0,0.0,0.0,0.0,3860.666666666667,3694.3,3861.714285714286,4006.2,303.0595,303.091,315.5253333333333,314.991,21.957,20.6655,22.04722222222222,21.4536,314.999998,314.999998,324.999988,324.999988,99.5608,99.5092,99.5789,99.5505,0.11075000000000013,-0.07474999999999998,-0.12719999999999998,0.10179999999999989,-0.03833333333332689,-0.045000000000001705,1.6095,1.5979999999999999,38.230999999999995,30.159,38.795,35.085,57.174,36.4505,63.4845,53.796,55.15,35.5065,62.0135,52.0225,54.396,35.0355,62.0275,51.3895,-0.14866666666666672,-0.07650000000000023,0.10595500000000001,0.10622500000000001,0.0,208.09,208.09,205.12,205.12,0.0,0.0
10,0.0,0.0,0.0,1.0,1.0,0.0,0.0,1.0,0.0,100.0,1.0,1.1856,26.0,0.0,0.0,0.0,59.999996,0.0,26.0,26.0,26.0,26.0,-0.00028571428571433355,0.26560000000000006,0.047075,289.856,-2.5752,-2.613125,-1.5829,-1.5223333333333333,-242.71,216.155,190.78725,0.0,0.0,0.0,0.0,0.020766666666666666,-5.498166666666667,-5.498166666666667,-0.6761,-0.25266666666666665,0.010555555555555651,1.806,66.557,-0.0030000000000000027,-0.3874666666666667,-0.5360000000000005,100.0,1.0,1.0,205.28,0.0,0.0,0.0,0.0,0.0,0.0,0.0,8701.0,0.0,55.0,5.0,239.57999999999998,0.0,0.0,0.0,0.0,0.0,0.0,1.0,0.0,0.5040000000000013,0.5040000000000013,0.0,0.0,0.0,55.0,616.79921,10000.0,85.000001,85.000001,85.000001,85.000001,395.0,0.0,0.0,0.0,1.0,333.33500000000004,45.502,45.502,48.737,48.737,34.0,-23.726666666666663,27.522,-30.005,30.1375,0.0,1783.053,-0.5399999999999991,100.0,33.899,33.242,41.941,41.752,0.0,0.0,100.0,0.0,0.0,0.0,0.0,3436.0,3560.3,4228.285714285715,4287.6,304.2745,303.5563333333333,314.57466666666664,314.255,21.967111111111112,20.6715,22.058,21.4625,314.999998,314.999998,324.999988,324.999988,99.56082857142857,99.5092,99.57902857142857,99.55064285714286,0.12125000000000008,-0.06074999999999997,-0.10939999999999994,0.123,-0.026666666666670835,-0.03833333333332689,1.505,1.4965,38.294,30.1965,38.861999999999995,35.14,57.171,36.4925,63.5115,53.8505,55.146,35.545,62.037,52.075,54.391999999999996,35.075,62.0475,51.444,-0.15166666666666662,-0.05900000000000016,0.10382000000000001,0.10811000000000001,0.0,208.465,208.495,205.28,205.28,0.0,0.0
11,0.0,0.0,0.0,1.0,1.0,0.0,0.0,1.0,0.0,100.0,1.0,1.1856,26.0,0.0,0.0,0.0,59.999996,0.0,26.0,26.0,26.0,26.0,0.049285714285714155,0.2563,-0.09155,290.466,-2.6299,-2.5627500000000003,-1.5489000000000002,-1.5061111111111112,-239.32,216.13,190.76675,0.0,0.0,0.0,0.0,0.022600000000000002,-5.498166666666667,-5.498166666666667,-0.7215,-0.4566666666666667,0.038000000000000034,-0.5349999999999999,66.68299999999999,0.01890000000000014,-0.4263,-0.597999999999999,100.0,1.0,1.0,205.97,0.0,0.0,0.0,0.0,0.0,0.0,0.0,8730.3,0.0,55.0,5.0,240.0366666666667,1.0,0.0,0.0,0.0,0.0,0.0,1.0,0.0,0.5549999999999997,0.5549999999999997,0.0,0.0,1.0,55.0,616.79921,10000.0,85.000001,85.000001,85.000001,85.000001,395.0,0.0,0.0,0.0,1.0,333.33500000000004,44.952,44.952,50.308,50.308,34.0,-25.646666666666665,28.492,-22.787499999999998,25.93,0.0,1783.002,-0.5150000000000006,100.0,33.45,33.584,41.528,41.833,0.0,0.0,100.0,0.0,0.0,0.0,0.0,3681.333333333333,3684.0,3593.4285714285716,3771.7,303.779,302.96933333333334,316.166,315.4785,21.977444444444444,20.678,22.069111111111113,21.4718,314.999998,314.999998,324.999988,324.999988,99.56084285714286,99.50921666666666,99.57917142857143,99.55077142857142,0.129,-0.057499999999999996,-0.09139999999999993,0.14059999999999984,-0.054999999999999716,-0.041666666666671404,1.668,1.6360000000000001,38.358999999999995,30.237000000000002,38.932,35.198,57.166,36.5375,63.5315,53.903999999999996,55.141,35.587,62.0565,52.126999999999995,54.384,35.113,62.064,51.492,-0.1519999999999999,-0.06999999999999984,0.10589000000000001,0.10528000000000001,0.0,208.84,208.85500000000002,205.97,205.97,0.0,0.0
12,0.0,0.0,0.0,1.0,1.0,0.0,0.0,1.0,0.0,100.0,1.0,1.1856,26.0,0.0,0.0,0.0,59.999996,0.0,26.0,26.0,26.0,26.0,0.06171428571428583,0.25429999999999997,0.0213,290.054,-2.6833,-2.556375,-1.5443,-1.508,-236.11,216.10500000000002,190.74625,0.0,0.0,0.0,0.0,0.025466666666666665,-5.498166666666667,-5.498166666666667,-0.7081000000000001,0.3133333333333333,0.022333333333333316,-0.924,66.807,0.03079999999999994,-0.392,-0.5739999999999998,100.0,1.0,1.0,206.14666666666668,0.0,0.0,0.0,0.0,0.0,0.0,0.0,8737.9,0.0,55.0,5.0,240.48000000000002,0.0,0.0,0.0,0.0,0.0,0.0,1.0,0.0,0.602999999999998,0.602999999999998,0.0,0.0,0.0,55.0,616.79921,10000.0,85.000001,85.000001,85.000001,85.000001,395.0,0.0,0.0,0.0,1.0,333.33500000000004,45.105000000000004,45.105000000000004,49.118,49.118,34.0,-25.383333333333333,29.201999999999998,-26.724999999999998,30.0075,0.0,1782.956,-0.629999999999999,100.0,33.248,33.698,41.234,41.628,0.0,0.0,100.0,0.0,0.0,0.0,0.0,3693.833333333333,3668.2,4152.714285714285,4076.8,303.786,303.0366666666667,314.87966666666665,314.742,21.987222222222222,20.6842,22.079666666666668,21.4804,314.999998,314.999998,324.999988,324.999988,99.56085714285715,99.50921666666666,99.57931428571429,99.55091428571428,0.14650000000000007,-0.03925000000000001,-0.07620000000000005,0.1624000000000001,-0.04333333333332945,-0.013333333333328312,1.5535,1.537,38.42,30.276,38.998000000000005,35.253,57.162,36.58,63.5535,53.955,55.137,35.6265,62.076499999999996,52.176,54.379000000000005,35.150999999999996,62.081,51.5405,-0.15866666666666673,-0.06550000000000011,0.10179500000000001,0.11090000000000001,0.0,209.235,209.255,206.14666666666668,206.14666666666668,0.0,0.0
13,0.0,0.0,0.0,1.0,1.0,0.0,0.0,1.0,0.0,100.0,1.0,1.1856,26.0,0.0,0.0,0.0,59.999996,0.0,26.0,26.0,26.0,26.0,0.06857142857142873,0.26870000000000016,0.053175,289.597,-2.6539,-2.566375,-1.6141,-1.492,-232.7,216.07999999999998,190.7245,0.0,0.0,0.0,0.0,0.02656666666666667,-5.498166666666667,-5.498166666666667,-0.7010000000000001,-0.004,0.028000000000000025,0.917,66.936,0.03810000000000002,-0.39916666666666667,-0.8799999999999999,100.0,1.0,1.0,206.49,0.0,0.0,0.0,0.0,0.0,0.0,0.0,8752.3,0.0,55.0,5.0,240.95,1.0,0.0,0.0,0.0,0.0,0.0,1.0,0.0,0.6539999999999999,0.6539999999999999,0.0,0.0,1.0,55.0,616.79921,10000.0,85.000001,85.000001,85.000001,85.000001,395.0,0.0,0.0,0.0,1.0,166.665,44.617,44.617,49.088,49.088,34.0,-23.666666666666664,31.406,-26.155,31.81,0.0,1782.905,-0.7650000000000006,100.0,33.811,33.809,41.576,42.036,0.0,0.0,100.0,0.0,0.0,0.0,0.0,3639.166666666667,3783.7,4058.4285714285716,4264.9,303.7325,302.8466666666667,315.0246666666667,314.35325,21.997777777777777,20.6908,22.091,21.4899,314.999998,314.999998,324.999988,324.999988,99.56088571428572,99.50921666666666,99.57944285714285,99.55104285714286,0.16825,-0.016000000000000014,-0.05740000000000001,0.16880000000000006,-0.02499999999999858,-0.04999999999999716,1.535,1.518,38.486000000000004,30.3175,39.069,35.312,57.162,36.625,63.578,54.0125,55.135999999999996,35.668,62.099000000000004,52.2315,54.376000000000005,35.1905,62.1,51.595,-0.17466666666666675,-0.05049999999999999,0.1062,0.10940000000000001,0.0,209.60500000000002,209.66500000000002,206.49,206.49,0.0,0.0
14,0.0,0.0,0.0,1.0,1.0,0.0,0.0,1.0,0.0,100.0,1.0,1.1856,26.0,0.0,0.0,0.0,59.999996,0.0,26.0,26.0,26.0,26.0,0.09114285714285719,0.252,-0.009325,289.764,-2.6522,-2.527625,-1.6189,-1.4826666666666668,-229.28,216.0575,190.703375,0.0,0.0,0.0,0.0,0.02856666666666667,-5.498166666666667,-5.498166666666667,-0.7113,-0.22833333333333336,0.050000000000000044,0.06699999999999995,67.063,0.05479999999999996,-0.4163666666666667,-0.992,100.0,1.0,1.0,206.95666666666668,0.0,0.0,0.0,0.0,0.0,0.0,0.0,8772.1,0.0,55.0,5.0,241.40333333333334,0.0,0.0,0.0,0.0,0.0,0.0,1.0,0.0,0.7049999999999983,0.7049999999999983,0.0,0.0,0.0,55.0,616.79921,10000.0,85.000001,85.000001,85.000001,85.000001,395.0,0.0,0.0,0.0,1.0,333.33500000000004,44.647,44.647,49.347,49.347,34.0,-23.983333333333334,30.208,-24.849999999999998,30.427500000000002,0.0,1782.853,-0.7699999999999996,100.0,33.684,34.043,41.505,42.375,0.0,0.0,100.0,0.0,0.0,0.0,0.0,3662.333333333333,3725.3,3952.8571428571427,4063.3,303.8325,302.884,315.33633333333336,314.77175,22.008333333333333,20.697400000000002,22.102333333333334,21.499299999999998,314.999998,314.999998,324.999988,324.999988,99.5609,99.50923333333333,99.57958571428571,99.5512,0.16225,-0.023749999999999938,-0.0514,0.17940000000000023,-0.04833333333333201,-0.041666666666671404,1.5845,1.5375,38.552,30.359,39.138999999999996,35.371,57.162,36.669,63.6015,54.0685,55.135,35.7085,62.1205,52.286,54.373999999999995,35.2295,62.118,51.647999999999996,-0.17533333333333312,-0.05650000000000022,0.09956500000000001,0.1116,0.0,210.0,210.07,206.95666666666668,206.95666666666668,0.0,0.0
15,0.0,0.0,0.0,1.0,1.0,0.0,0.0,1.0,0.0,100.0,1.0,1.1856,26.0,0.0,0.0,0.0,59.999996,0.0,26.0,26.0,26.0,26.0,0.1140000000000001,0.2610000000000001,-0.028300000000000002,289.764,-2.6305,-2.48125,-1.6231,-1.4424444444444444,-226.06,216.0375,190.68325,0.0,0.0,0.0,0.0,0.030433333333333333,-5.498166666666667,-5.498166666666667,-0.7062,0.3206666666666667,0.08444444444444432,0.139,67.182,0.06810000000000005,-0.4044666666666667,-1.0899999999999999,100.0,1.0,1.0,207.33333333333331,0.0,0.0,0.0,0.0,0.0,0.0,0.0,8788.1,0.0,55.0,5.0,241.83333333333334,1.0,0.0,0.0,0.0,0.0,0.0,1.0,0.0,0.7530000000000001,0.7530000000000001,0.0,0.0,1.0,55.0,616.79921,10000.0,85.000001,85.000001,85.000001,85.000001,395.0,0.0,0.0,0.0,1.0,166.665,44.647,44.647,49.5,49.5,34.0,-21.883333333333333,30.586,-24.325,31.4525,0.0,1782.806,-0.8099999999999987,100.0,33.784,34.193,41.282,42.409,0.0,0.0,100.0,0.0,0.0,0.0,0.0,3565.166666666667,3717.2,3894.714285714286,4189.5,304.0545,302.892,315.482,314.5045,22.01811111111111,20.7037,22.11277777777778,21.5081,314.999998,314.999998,324.999988,324.999988,99.56092857142858,99.50923333333333,99.57971428571429,99.55132857142857,0.1845000000000001,-0.005499999999999949,-0.04699999999999993,0.18880000000000008,-0.04833333333333201,-0.03833333333332689,1.565,1.5345,38.613,30.398,39.205,35.426,57.162,36.710499999999996,63.6215,54.1215,55.135,35.747,62.1385,52.337,54.370999999999995,35.266999999999996,62.132999999999996,51.698499999999996,-0.17933333333333312,-0.04850000000000021,0.108365,0.10645,0.0,210.385,210.44,207.33333333333331,207.33333333333331,0.0,0.0
16,0.0,0.0,0.0,1.0,1.0,0.0,0.0,1.0,0.0,100.0,1.0,1.1856,26.0,0.0,0.0,0.0,59.999996,0.0,26.0,26.0,26.0,26.0,0.12628571428571433,0.24380000000000002,-0.017425,289.795,-2.6823,-2.51825,-1.5612,-1.4362222222222223,-222.63,216.01999999999998,190.661375,0.0,0.0,0.0,0.0,0.032433333333333335,-5.498166666666667,-5.498166666666667,-0.7214,-0.8290000000000001,0.07577777777777772,0.272,67.31,0.08109999999999995,-0.4143,-1.226,100.0,1.0,1.0,207.68333333333334,0.0,0.0,0.0,0.0,0.0,0.0,0.0,8803.0,0.0,55.0,5.0,242.29333333333335,0.0,0.0,0.0,0.0,0.0,0.0,1.0,0.0,0.8039999999999985,0.8039999999999985,0.0,0.0,0.0,55.0,616.79921,10000.0,85.000001,85.000001,85.000001,85.000001,395.0,0.0,0.0,0.0,1.0,166.665,44.83,44.83,48.828,48.828,34.0,-21.493333333333336,32.862,-22.1325,31.785,0.0,1782.755,-0.6899999999999977,100.0,33.466,34.138999999999996,41.674,42.51,0.0,0.0,100.0,0.0,0.0,0.0,0.0,3470.0,3866.1000000000004,3873.0,4068.9,304.337,302.61,315.4153333333333,314.8185,22.028333333333332,20.7104,22.124111111111112,21.5176,314.999998,314.999998,324.999988,324.999988,99.56095714285715,99.50923333333333,99.57987142857142,99.55148571428572,0.19025000000000003,0.006750000000000034,-0.020000000000000018,0.21940000000000004,-0.02499999999999858,-0.03833333333332689,1.5795,1.53,38.677,30.439999999999998,39.275,35.485,57.158,36.754999999999995,63.646,54.178,55.131,35.7885,62.1605,52.3915,54.366,35.3065,62.1515,51.752,-0.16599999999999993,-0.05900000000000016,0.11306500000000001,0.10819000000000001,0.0,210.715,210.835,207.68333333333334,207.68333333333334,0.0,0.0
17,0.0,0.0,0.0,1.0,1.0,0.0,0.0,1.0,0.0,100.0,1.0,1.1856,26.0,0.0,0.0,0.0,59.999996,0.0,26.0,26.0,26.0,26.0,0.14157142857142868,0.25160000000000005,-0.030775,289.658,-2.6831,-2.566125,-1.6295000000000002,-1.4862222222222221,-219.2,216.005,190.639,0.0,0.0,0.0,0.0,0.03443333333333333,-5.498166666666667,-5.498166666666667,-0.7188,0.5856666666666667,0.0494444444444444,-0.845,67.435,0.08360000000000012,-0.4027,-1.0779999999999994,100.0,1.0,1.0,208.11,0.0,0.0,0.0,0.0,0.0,0.0,0.0,8821.0,0.0,55.0,5.0,242.74,1.0,0.0,0.0,0.0,0.0,0.0,1.0,0.0,0.8550000000000004,0.8550000000000004,0.0,0.0,1.0,55.0,616.79921,10000.0,85.000001,85.000001,85.000001,85.000001,395.0,0.0,0.0,0.0,1.0,166.665,44.54,44.54,49.347,49.347,34.0,-22.919999999999998,30.838,-24.3525,32.082499999999996,0.0,1782.703,-0.7850000000000001,100.0,33.895,34.617000000000004,41.222,42.467,0.0,0.0,100.0,0.0,0.0,0.0,0.0,3648.5,3595.3,4039.8571428571427,4091.1000000000004,303.961,303.183,315.2216666666667,314.734,22.038777777777778,20.7173,22.13511111111111,21.5269,314.999998,314.999998,324.999988,324.999988,99.56098571428572,99.50925,99.58,99.55161428571428,0.18500000000000005,0.0020000000000000018,-0.027200000000000002,0.20879999999999987,-0.04999999999999716,-0.03499999999999659,1.5815000000000001,1.55,38.742000000000004,30.483,39.345,35.543,57.16,36.801,63.6665,54.233000000000004,55.131,35.831,62.179,52.445,54.364999999999995,35.347,62.167,51.8045,-0.17233333333333323,-0.05699999999999994,0.11071500000000001,0.11148500000000001,0.0,211.175,211.24,208.11,208.11,0.0,0.0
18,0.0,0.0,0.0,1.0,1.0,0.0,0.0,1.0,0.0,100.0,1.0,1.1856,26.0,0.0,0.0,0.0,59.999996,0.0,26.0,26.0,26.0,26.0,0.15214285714285714,0.23570000000000002,-0.095725,289.673,-2.7154,-2.4459999999999997,-1.6473,-1.5032222222222222,-215.95999999999998,215.995,190.618,0.0,0.0,0.0,0.0,0.0363,-5.498166666666667,-5.498166666666667,-0.7221000000000001,-0.614,0.07388888888888889,-0.01100000000000001,67.553,0.08240000000000003,-0.4134333333333333,-1.1260000000000003,100.0,1.0,1.0,208.44,0.0,0.0,0.0,0.0,0.0,0.0,0.0,8835.1,0.0,55.0,5.0,243.17000000000002,0.0,0.0,0.0,0.0,0.0,0.0,1.0,0.0,0.9029999999999987,0.9029999999999987,0.0,0.0,0.0,55.0,616.79921,10000.0,85.000001,85.000001,85.000001,85.000001,395.0,0.0,0.0,0.0,1.0,166.665,44.724000000000004,44.724000000000004,49.072,49.072,34.0,-21.95,31.204,-24.075,31.7025,0.0,1782.656,-1.0150000000000006,100.0,33.641,34.391999999999996,41.609,42.952,0.0,0.0,100.0,0.0,0.0,0.0,0.0,3575.833333333333,3744.4,3928.1428571428573,4009.5,304.214,302.961,315.44466666666665,314.851,22.048444444444446,20.7236,22.145777777777777,21.535800000000002,314.999998,314.999998,324.999988,324.999988,99.56101428571428,99.50925,99.58014285714286,99.55175714285714,0.1995,0.012499999999999956,-0.031200000000000006,0.20779999999999998,-0.02833333333332888,-0.045000000000001705,1.5665,1.533,38.803,30.522,39.411,35.599000000000004,57.16,36.8425,63.69,54.288,55.131,35.869,62.2,52.498,54.361999999999995,35.384,62.185,51.8565,-0.19033333333333324,-0.03600000000000003,0.100025,0.114085,0.0,211.485,211.57999999999998,208.44,208.44,0.0,0.0
19,0.0,0.0,0.0,1.0,1.0,0.0,0.0,1.0,0.0,100.0,1.0,1.1856,26.0,0.0,0.0,0.0,59.999996,0.0,26.0,26.0,26.0,26.0,0.13328571428571423,0.25370000000000004,-0.004625000000000001,289.185,-2.6829,-2.4376249999999997,-1.6601,-1.3887777777777779,-212.51,215.9875,190.595625,0.0,0.0,0.0,0.0,0.03833333333333333,-5.498166666666667,-5.498166666666667,-0.7228,0.784,0.08755555555555561,0.8980000000000001,67.676,0.09220000000000006,-0.4092,-1.5939999999999994,100.0,1.0,1.0,208.88,0.0,0.0,0.0,0.0,0.0,0.0,0.0,8853.7,0.0,55.0,5.0,243.61333333333334,1.0,0.0,0.0,0.0,0.0,0.0,1.0,0.0,0.9540000000000006,0.9540000000000006,0.0,0.0,1.0,55.0,616.79921,10000.0,85.000001,85.000001,85.000001,85.000001,395.0,0.0,0.0,0.0,1.0,166.665,43.64,43.64,49.24,49.24,34.0,-21.206666666666663,34.934,-22.73,32.144999999999996,0.0,1782.605,-1.2199999999999989,100.0,34.255,34.762,41.328,42.751,0.0,0.0,100.0,0.0,0.0,0.0,0.0,3676.166666666667,3984.0,3927.4285714285716,4174.7,303.6265,302.251,315.4653333333333,314.68675,22.059,20.7305,22.15688888888889,21.5452,314.999998,314.999998,324.999988,324.999988,99.56104285714285,99.50925,99.58027142857142,99.55191428571429,0.22375000000000012,0.040750000000000064,-0.0041999999999999815,0.22560000000000002,-0.03499999999999659,-0.060000000000002274,1.6125,1.562,38.867999999999995,30.5655,39.480000000000004,35.657,57.163,36.8905,63.71,54.3435,55.132999999999996,35.914,62.2185,52.552,54.363,35.427,62.1995,51.91,-0.20666666666666678,-0.018000000000000238,0.11075000000000002,0.10253000000000001,0.0,211.89499999999998,212.01,208.88,208.88,0.0,0.0
20,0.0,0.0,0.0,1.0,1.0,0.0,0.0,1.0,0.0,100.0,1.0,1.1856,26.0,0.0,0.0,0.0,59.999996,0.0,26.0,26.0,26.0,26.0,0.19771428571428573,0.24819999999999998,-0.047025000000000004,289.215,-2.7434,-2.482875,-1.6503,-1.3866666666666667,-209.05,215.98250000000002,190.573375,0.0,0.0,0.0,0.0,0.04033333333333333,-5.498166666666667,-5.498166666666667,-0.7140000000000001,-0.7953333333333333,0.09844444444444433,-0.358,67.804,0.10940000000000016,-0.40966666666666673,-1.9939999999999998,100.0,1.0,1.0,209.06333333333333,0.0,0.0,0.0,0.0,0.0,0.0,0.0,8861.4,0.0,55.0,5.0,244.07,0.0,0.0,0.0,0.0,0.0,0.0,0.0,0.0,1.004999999999999,1.004999999999999,0.0,0.0,0.0,55.0,616.79921,10000.0,85.000001,85.000001,85.000001,85.000001,395.0,0.0,0.0,0.0,1.0,166.665,44.815,44.815,47.775,47.775,34.0,-18.223333333333333,33.988,-24.09,35.292500000000004,0.0,1782.554,-1.1950000000000003,100.0,33.637,34.821,41.796,43.362,0.0,0.0,100.0,0.0,0.0,0.0,0.0,3343.333333333333,3742.7,4164.428571428572,4308.9,304.856,302.809,314.83666666666664,314.1955,22.069111111111113,20.7373,22.16811111111111,21.5548,314.999998,314.999998,324.999988,324.999988,99.56108571428571,99.50926666666666,99.58041428571428,99.55205714285714,0.248,0.05499999999999994,0.005400000000000071,0.24859999999999993,-0.030000000000001137,-0.04833333333333201,1.541,1.466,38.932,30.6085,39.551,35.718,57.164,36.937,63.736,54.403,55.134,35.957499999999996,62.242,52.6095,54.361000000000004,35.469,62.2195,51.966499999999996,-0.22166666666666668,-0.007000000000000117,0.11017,0.10823500000000001,0.0,212.24,212.385,209.06333333333333,209.06333333333333,0.0,0.0
21,0.0,0.0,0.0,1.0,1.0,0.0,0.0,1.0,0.0,100.0,1.0,1.1856,26.0,0.0,0.0,0.0,59.999996,0.0,26.0,26.0,26.0,26.0,0.19185714285714295,0.23419999999999996,-0.07627500000000001,289.474,-2.6653000000000002,-2.5285,-1.6684999999999999,-1.4572222222222222,-205.8,215.985,190.552,0.0,0.0,0.0,0.0,0.04223333333333333,-5.498166666666667,-5.498166666666667,-0.7503000000000001,0.27266666666666667,0.08322222222222209,-1.228,67.91499999999999,0.12890000000000001,-0.4307333333333333,-1.6079999999999997,100.0,1.0,1.0,209.72333333333333,0.0,0.0,0.0,0.0,0.0,0.0,0.0,8889.4,0.0,55.0,5.0,244.47333333333336,1.0,0.0,0.0,0.0,0.0,0.0,0.0,0.0,1.0530000000000008,1.0530000000000008,0.0,0.0,1.0,55.0,616.79921,10000.0,85.000001,85.000001,85.000001,85.000001,395.0,0.0,0.0,0.0,1.0,166.665,43.747,43.747,49.759,49.759,34.0,-23.05,33.044,-19.56,32.45,0.0,1782.506,-0.18499999999999872,100.0,33.897,35.054,41.246,43.132,0.0,0.0,100.0,0.0,0.0,0.0,0.0,3711.333333333333,3859.8,3695.142857142857,3903.7,303.66,302.37533333333334,316.0606666666667,315.22175,22.078777777777777,20.7439,22.178444444444445,21.5636,314.999998,314.999998,324.999988,324.999988,99.5611,99.50926666666666,99.58055714285715,99.5522,0.18975000000000009,0.0022500000000000853,0.0262,0.268,-0.036666666666668846,-0.04333333333332945,1.678,1.5925,38.992000000000004,30.6495,39.614999999999995,35.772999999999996,57.165,36.982,63.7525,54.454499999999996,55.134,35.999,62.257,52.6595,54.358999999999995,35.509,62.2315,52.0155,-0.139,-0.08599999999999985,0.10680500000000001,0.10713500000000001,0.0,212.61,212.72500000000002,209.72333333333333,209.72333333333333,0.0,0.0
22,0.0,0.0,0.0,1.0,1.0,0.0,0.0,1.0,0.0,100.0,1.0,1.1856,26.0,0.0,0.0,0.0,59.999996,0.0,26.0,26.0,26.0,26.0,0.1277142857142859,0.23850000000000016,0.063875,288.681,-2.6247,-2.5562500000000004,-1.5872000000000002,-1.519777777777778,-202.32999999999998,215.99,190.52825,0.0,0.0,0.0,0.0,0.04423333333333333,-5.498166666666667,-5.498166666666667,-0.7261000000000001,0.12966666666666665,0.07011111111111101,0.972,68.042,0.119,-0.40493333333333337,-0.40200000000000014,100.0,1.0,1.0,209.81,0.0,0.0,0.0,0.0,0.0,0.0,0.0,8893.1,0.0,55.0,5.0,244.93,0.0,0.0,0.0,0.0,0.0,0.0,0.0,0.0,1.1039999999999992,1.1039999999999992,0.0,0.0,0.0,55.0,616.79921,10000.0,85.000001,85.000001,85.000001,85.000001,395.0,0.0,0.0,0.0,1.0,166.665,43.625,43.625,48.187,48.187,34.0,-23.71,31.78,-23.0,36.3875,0.0,1782.455,0.5100000000000016,100.0,34.315,34.875,41.823,43.149,0.0,0.0,100.0,0.0,0.0,0.0,0.0,3612.333333333333,3948.6000000000004,4114.142857142857,4304.6,303.758,302.27633333333335,314.8546666666667,314.259,22.089111111111112,20.750799999999998,22.189666666666668,21.5731,314.999998,314.999998,324.999988,324.999988,99.56112857142857,99.50928333333333,99.5807,99.55235714285715,0.15975000000000006,-0.038250000000000006,0.007400000000000073,0.2370000000000001,-0.046666666666666856,-0.03999999999999915,1.5055,1.478,39.057,30.6925,39.685,35.832,57.164,37.0285,63.7775,54.512,55.132,36.042,62.2795,52.7155,54.355999999999995,35.55,62.2505,52.070499999999996,-0.07866666666666666,-0.15649999999999986,0.096655,0.112375,0.0,213.06,213.09,209.81,209.81,0.0,0.0
23,0.0,0.0,0.0,1.0,1.0,0.0,0.0,1.0,0.0,100.0,1.0,1.1856,26.0,0.0,0.0,0.0,59.999996,0.0,26.0,26.0,26.0,26.0,0.06542857142857139,0.22550000000000003,0.029900000000000003,288.712,-2.6328,-2.550375,-1.5512000000000001,-1.5507777777777778,-198.86,215.9975,190.505,0.0,0.0,0.0,0.0,0.04626666666666667,-5.498166666666667,-5.498166666666667,-0.7426,-0.47600000000000003,0.04488888888888898,-1.505,68.163,0.07089999999999996,-0.4320666666666667,0.6000000000000005,100.0,1.0,1.0,210.21666666666667,0.0,0.0,0.0,0.0,0.0,0.0,0.0,8910.4,0.0,55.0,5.0,245.36666666666667,1.0,0.0,0.0,0.0,0.0,0.0,0.0,0.0,1.1550000000000011,1.1550000000000011,0.0,0.0,1.0,55.0,616.79921,10000.0,85.000001,85.000001,85.000001,85.000001,395.0,0.0,0.0,0.0,1.0,333.33500000000004,43.533,43.533,48.538,48.538,34.0,-28.286666666666665,27.614,-25.865,31.18,0.0,1782.403,0.75,100.0,34.335,35.035,42.099000000000004,43.372,0.0,0.0,100.0,0.0,0.0,0.0,0.0,3876.666666666667,3732.8,4067.714285714286,4071.8,303.29,302.77433333333335,315.0156666666667,314.649,22.099444444444444,20.7577,22.20088888888889,21.5826,314.999998,314.999998,324.999988,324.999988,99.56114285714285,99.50928333333333,99.58084285714285,99.5525,0.11125000000000007,-0.08174999999999999,-0.06320000000000003,0.16859999999999986,-0.01833333333333087,-0.04999999999999716,1.4985,1.5190000000000001,39.120999999999995,30.735500000000002,39.756,35.891,57.16,37.076499999999996,63.801,54.569,55.128,36.087,62.3005,52.7705,54.35,35.593,62.268,52.125,-0.05566666666666675,-0.1775000000000002,0.10432500000000001,0.109975,0.0,213.445,213.41,210.21666666666667,210.21666666666667,0.0,0.0
24,0.0,0.0,0.0,1.0,1.0,0.0,0.0,1.0,0.0,100.0,1.0,1.1856,26.0,0.0,0.0,0.0,59.999996,0.0,26.0,26.0,26.0,26.0,-0.01557142857142857,0.24530000000000007,0.0019500000000000001,289.124,-2.6117,-2.580625,-1.5543,-1.5496666666666667,-195.57999999999998,216.005,190.482875,0.0,0.0,0.0,0.0,0.04816666666666667,-5.498166666666667,-5.498166666666667,-0.7438,-0.19766666666666666,0.021444444444444377,-0.843,68.278,0.020299999999999985,-0.4156333333333333,1.0419999999999998,100.0,1.0,1.0,210.5966666666667,0.0,0.0,0.0,0.0,0.0,0.0,0.0,8926.4,0.0,55.0,5.0,245.77666666666664,0.0,0.0,0.0,0.0,0.0,0.0,0.0,0.0,1.2029999999999994,1.2029999999999994,0.0,0.0,0.0,55.0,616.79921,10000.0,85.000001,85.000001,85.000001,85.000001,395.0,0.0,0.0,0.0,1.0,166.665,44.342,44.342,48.538,48.538,34.0,-28.016666666666666,24.086,-30.5625,27.259999999999998,0.0,1782.355,0.7600000000000016,100.0,34.506,34.624,42.156,42.95,0.0,0.0,100.0,0.0,0.0,0.0,0.0,3669.666666666667,3505.6,4279.142857142857,3984.0,303.8045,303.561,314.65366666666665,314.976,22.109222222222222,20.7639,22.211444444444446,21.5914,314.999998,314.999998,324.999988,324.999988,99.56115714285714,99.5093,99.58097142857143,99.55262857142857,0.08125000000000004,-0.11824999999999997,-0.12379999999999991,0.11159999999999992,-0.02833333333332888,-0.036666666666668846,1.5215,1.557,39.183,30.7745,39.821,35.946,57.156,37.1215,63.822,54.619,55.123999999999995,36.1285,62.3195,52.819,54.345,35.632999999999996,62.284,52.172,-0.05466666666666664,-0.18100000000000005,0.10378000000000001,0.10533000000000001,0.0,213.815,213.755,210.5966666666667,210.5966666666667,0.0,0.0
25,0.0,0.0,0.0,1.0,1.0,0.0,0.0,1.0,0.0,100.0,1.0,1.1856,26.0,0.0,0.0,0.0,59.999996,0.0,26.0,26.0,26.0,26.0,-0.07571428571428562,0.23850000000000016,-0.07695,289.215,-2.5865,-2.5932500000000003,-1.5510000000000002,-1.554,-192.1,216.015,190.458,0.0,0.0,0.0,0.0,0.0502,-5.498166666666667,-5.498166666666667,-0.7829,-0.434,0.010555555555555651,-0.21299999999999997,68.397,-0.028999999999999915,-0.43336666666666673,1.2940000000000005,100.0,1.0,1.0,211.0966666666667,0.0,0.0,0.0,0.0,0.0,0.0,0.0,8947.7,0.0,55.0,5.0,246.21,1.0,0.0,0.0,0.0,0.0,0.0,0.0,0.0,1.2540000000000013,1.2540000000000013,0.0,0.0,1.0,55.0,616.79921,10000.0,85.000001,85.000001,85.000001,85.000001,395.0,0.0,0.0,0.0,1.0,333.33500000000004,43.686,43.686,49.057,49.057,34.0,-29.886666666666667,26.264000000000003,-28.505,23.9675,0.0,1782.304,0.6500000000000021,100.0,34.595,34.406,42.432,42.428,0.0,0.0,100.0,0.0,0.0,0.0,0.0,3774.333333333333,3867.7,3844.8571428571427,3838.3,303.3855,302.5933333333333,315.563,315.4095,22.119555555555557,20.7706,22.222555555555555,21.6007,314.999998,314.999998,324.999988,324.999988,99.56117142857143,99.50931666666666,99.58112857142856,99.55278571428572,0.06125000000000003,-0.13075000000000003,-0.16100000000000003,0.07340000000000013,-0.036666666666668846,-0.045000000000001705,1.5725,1.6255,39.247,30.816,39.891,36.004,57.147999999999996,37.171,63.8445,54.6695,55.116,36.1745,62.3405,52.868,54.335,35.677,62.3015,52.22,-0.06499999999999995,-0.1695000000000002,0.108355,0.104035,0.0,214.185,214.085,211.0966666666667,211.0966666666667,0.0,0.0
26,0.0,0.0,0.0,1.0,1.0,0.0,0.0,1.0,0.0,100.0,1.0,1.1856,26.0,0.0,0.0,0.0,59.999996,0.0,26.0,26.0,26.0,26.0,-0.10314285714285709,0.23409999999999997,0.080775,288.086,-2.5552,-2.608625,-1.576,-1.6065555555555557,-188.39999999999998,216.01999999999998,190.43075,0.0,0.0,0.0,0.0,0.05233333333333334,-5.498166666666667,-5.498166666666667,-0.7477,0.8946666666666666,-0.046222222222222165,0.22599999999999998,68.527,-0.06569999999999998,-0.4005,1.2859999999999996,100.0,1.0,1.0,211.28,0.0,0.0,0.0,0.0,0.0,0.0,0.0,8955.3,0.0,55.0,5.0,246.67333333333335,0.0,0.0,0.0,0.0,0.0,0.0,0.0,0.0,1.3079999999999998,1.3079999999999998,0.0,0.0,0.0,55.0,616.79921,10000.0,85.000001,85.000001,85.000001,85.000001,395.0,0.0,0.0,0.0,1.0,166.665,42.831,42.831,47.836,47.836,34.0,-31.2,24.71,-35.905,26.634999999999998,0.0,1782.251,0.4400000000000013,100.0,35.769,34.878,42.963,42.275999999999996,0.0,0.0,100.0,0.0,0.0,0.0,0.0,3892.0,3785.8,4379.0,4244.6,302.948,302.858,314.38166666666666,314.44425,22.13088888888889,20.7778,22.234555555555556,21.610599999999998,314.999998,314.999998,324.999988,324.999988,99.56118571428571,99.50933333333333,99.58127142857143,99.55292857142857,0.05249999999999999,-0.15025,-0.19399999999999995,0.042200000000000015,-0.02499999999999858,-0.03333333333333144,1.4605000000000001,1.5,39.318,30.8615,39.966,36.066,57.144,37.228,63.8725,54.725,55.111999999999995,36.227000000000004,62.366,52.9215,54.329,35.7275,62.323,52.2725,-0.08699999999999997,-0.15799999999999992,0.10644,0.10701500000000001,0.0,214.65,214.525,211.28,211.28,0.0,0.0
27,0.0,0.0,0.0,1.0,1.0,0.0,0.0,1.0,0.0,100.0,1.0,1.1856,26.0,0.0,0.0,0.0,59.999996,0.0,26.0,26.0,26.0,26.0,-0.12428571428571433,0.2339,0.00495,288.177,-2.5763,-2.6365,-1.5342,-1.5954444444444444,-185.11,216.025,190.40775,0.0,0.0,0.0,0.0,0.054266666666666664,-5.498166666666667,-5.498166666666667,-0.7626000000000001,-1.143,-0.0602222222222224,0.7510000000000001,68.64,-0.07729999999999992,-0.44,1.097999999999999,100.0,1.0,1.0,211.62666666666667,0.0,0.0,0.0,0.0,0.0,0.0,0.0,8970.1,0.0,55.0,5.0,247.08666666666664,1.0,0.0,0.0,0.0,0.0,0.0,0.0,0.0,1.355999999999998,1.355999999999998,0.0,0.0,1.0,55.0,616.79921,10000.0,85.000001,85.000001,85.000001,85.000001,395.0,0.0,0.0,0.0,1.0,166.665,43.274,43.274,47.699,47.699,34.0,-31.99,23.698,-33.5225,25.395,0.0,1782.203,0.379999999999999,100.0,35.584,34.554,44.005,42.814,0.0,0.0,100.0,0.0,0.0,0.0,0.0,3895.5,3715.0,4133.714285714285,4127.6,303.0345,303.17333333333335,314.789,314.69625,22.140777777777778,20.784,22.245333333333335,21.6196,314.999998,314.999998,324.999988,324.999988,99.56118571428571,99.50936666666666,99.58141428571429,99.55307142857143,0.041749999999999954,-0.16349999999999998,-0.20079999999999998,0.03859999999999997,-0.03333333333333144,-0.045000000000001705,1.4705,1.5115,39.379999999999995,30.9,40.034,36.123,57.138,37.275999999999996,63.9005,54.777,55.105000000000004,36.2715,62.391999999999996,52.9715,54.321,35.769999999999996,62.346000000000004,52.321,-0.09433333333333316,-0.15450000000000008,0.103425,0.11582500000000001,0.0,214.92000000000002,214.84,211.62666666666667,211.62666666666667,0.0,0.0
28,0.0,0.0,0.0,1.0,1.0,0.0,0.0,1.0,0.0,100.0,1.0,1.1856,26.0,0.0,0.0,0.0,59.999996,0.0,26.0,26.0,26.0,26.0,-0.13714285714285712,0.24450000000000016,-0.05525,288.635,-2.5576,-2.655125,-1.5535999999999999,-1.598,-181.81,216.025,190.384375,0.0,0.0,0.0,0.0,0.05616666666666666,-5.498166666666667,-5.498166666666667,-0.7796000000000001,0.5,-0.06388888888888866,0.6930000000000001,68.749,-0.08499999999999996,-0.43326666666666674,0.9800000000000004,100.0,1.0,1.0,212.15333333333334,0.0,0.0,0.0,0.0,0.0,0.0,0.0,8992.5,0.0,55.0,5.0,247.47666666666666,0.0,0.0,0.0,0.0,0.0,0.0,0.0,0.0,1.404,1.404,0.0,0.0,0.0,55.0,616.79921,10000.0,85.000001,85.000001,85.000001,85.000001,395.0,0.0,0.0,0.0,1.0,166.665,43.274,43.274,48.569,48.569,34.0,-31.926666666666666,24.456,-32.7825,23.3275,0.0,1782.155,0.23499999999999943,100.0,35.74,34.573,43.303,42.254,0.0,0.0,100.0,0.0,0.0,0.0,0.0,3880.333333333333,3672.1,4073.0,3934.2,303.058,303.18233333333336,315.098,315.2505,22.150777777777776,20.7903,22.255777777777777,21.6283,314.999998,314.999998,324.999988,324.999988,99.5612,99.5094,99.58155714285714,99.5532,0.03699999999999992,-0.14974999999999994,-0.20779999999999998,0.03279999999999994,-0.06666666666666998,-0.046666666666666856,1.57,1.5945,39.442,30.9395,40.099000000000004,36.177,57.132999999999996,37.3255,63.920500000000004,54.8225,55.099999999999994,36.317,62.41,53.0155,54.315,35.8135,62.361,52.364,-0.09933333333333327,-0.13649999999999984,0.09770000000000001,0.11071500000000001,0.0,215.315,215.21,212.15333333333334,212.15333333333334,0.0,0.0
29,0.0,0.0,0.0,1.0,1.0,0.0,0.0,1.0,0.0,100.0,1.0,1.1856,26.0,0.0,0.0,0.0,59.999996,0.0,26.0,26.0,26.0,26.0,-0.11985714285714288,0.23850000000000016,0.0092,288.345,-2.5548,-2.583375,-1.5473,-1.590111111111111,-178.09,216.0225,190.35675,0.0,0.0,0.0,0.0,0.05833333333333334,-5.498166666666667,-5.498166666666667,-0.7747,-0.7606666666666666,-0.060555555555555696,0.794,68.878,-0.0824999999999999,-0.4169333333333333,0.7599999999999998,100.0,1.0,1.0,212.32999999999998,0.0,0.0,0.0,0.0,0.0,0.0,0.0,8999.9,0.0,55.0,5.0,247.94,1.0,0.0,0.0,0.0,0.0,0.0,0.0,0.0,1.4579999999999984,1.4579999999999984,0.0,0.0,1.0,55.0,616.79921,10000.0,85.000001,85.000001,85.000001,85.000001,395.0,0.0,0.0,0.0,1.0,166.665,43.533,43.533,47.684,47.684,34.0,-31.226666666666667,24.448,-34.4075,25.1675,0.0,1782.101,0.09499999999999886,100.0,35.348,34.230000000000004,43.653999999999996,42.438,0.0,0.0,100.0,0.0,0.0,0.0,0.0,3886.666666666667,3780.6000000000004,4255.571428571428,4166.4,303.172,303.03566666666666,314.59133333333335,314.622,22.16177777777778,20.7973,22.267777777777777,21.6383,314.999998,314.999998,324.999988,324.999988,99.5612,99.50941666666667,99.58171428571428,99.55335714285714,0.04699999999999993,-0.14625,-0.19499999999999995,0.03079999999999994,-0.036666666666668846,-0.03166666666666629,1.4805000000000001,1.5155,39.510999999999996,30.983,40.174,36.239,57.123999999999995,37.3785,63.949,54.879,55.092,36.366,62.437,53.07,54.305,35.86,62.384,52.417,-0.11099999999999999,-0.12349999999999994,0.1062,0.10479500000000001,0.0,215.67000000000002,215.585,212.32999999999998,212.32999999999998,0.0,0.0
30,0.0,0.0,0.0,1.0,1.0,0.0,0.0,1.0,0.0,100.0,1.0,1.1856,26.0,0.0,0.0,0.0,59.999996,0.0,26.0,26.0,26.0,26.0,-0.1051428571428571,0.2430000000000001,0.02525,287.903,-2.4716,-2.56975,-1.5534,-1.5335555555555558,-174.99,216.01749999999998,190.3335,0.0,0.0,0.0,0.0,0.06013333333333334,-5.498166666666667,-5.498166666666667,-0.7862,0.744,-0.06211111111111123,-0.5720000000000001,68.979,-0.07509999999999994,-0.43060000000000004,0.6920000000000011,100.0,1.0,1.0,212.79333333333335,0.0,0.0,0.0,0.0,0.0,0.0,0.0,9019.6,0.0,55.0,5.0,248.30333333333334,0.0,0.0,0.0,0.0,0.0,0.0,1.0,0.0,1.5030000000000001,1.5030000000000001,0.0,0.0,0.0,55.0,616.79921,10000.0,85.000001,85.000001,85.000001,85.000001,395.0,0.0,0.0,0.0,1.0,166.665,42.16,42.16,48.08,48.08,34.0,-32.07333333333333,24.535999999999998,-33.5,23.9025,0.0,1782.057,-0.030000000000001137,100.0,36.011,35.252,43.333,42.44,0.0,0.0,100.0,0.0,0.0,0.0,0.0,4115.666666666667,3793.7,4194.0,4069.1000000000004,302.4495,302.543,314.90166666666664,314.93175,22.171222222222223,20.8033,22.277555555555555,21.6466,314.999998,314.999998,324.999988,324.999988,99.56121428571429,99.50943333333333,99.58184285714286,99.55348571428571,0.0515000000000001,-0.15149999999999997,-0.19799999999999995,0.041200000000000125,-0.04333333333332945,-0.04333333333332945,1.5394999999999999,1.5785,39.57,31.021,40.235,36.291,57.122,37.426,63.9695,54.923500000000004,55.089,36.41,62.455,53.113,54.301,35.902,62.3995,52.459,-0.1246666666666667,-0.11799999999999988,0.10399000000000001,0.11571500000000001,0.0,216.01,215.95,212.79333333333335,212.79333333333335,0.0,0.0
31,0.0,0.0,0.0,1.0,1.0,0.0,0.0,1.0,0.0,100.0,1.0,1.1856,26.0,0.0,0.0,0.0,59.999996,0.0,26.0,26.0,26.0,26.0,-0.07485714285714284,0.2249000000000001,0.038575000000000005,287.674,-2.5561,-2.6492500000000003,-1.5711,-1.5324444444444443,-171.47,216.01,190.30775,0.0,0.0,0.0,0.0,0.06216666666666667,-5.498166666666667,-5.498166666666667,-0.7598,-0.3566666666666667,-0.045333333333333226,0.627,69.1,-0.06209999999999993,-0.4216333333333333,0.34799999999999986,100.0,1.0,1.0,212.95,0.0,0.0,0.0,0.0,0.0,0.0,0.0,9026.1,0.0,55.0,5.0,248.74,1.0,0.0,0.0,0.0,0.0,0.0,1.0,0.0,1.5539999999999985,1.5539999999999985,0.0,0.0,1.0,55.0,616.79921,10000.0,85.000001,85.000001,85.000001,85.000001,395.0,0.0,0.0,0.0,1.0,333.33500000000004,42.891999999999996,42.891999999999996,46.875,46.875,34.0,-28.493333333333336,26.6,-33.86,27.89,0.0,1782.003,-0.07499999999999929,100.0,36.039,35.214,44.022,43.082,0.0,0.0,100.0,0.0,0.0,0.0,0.0,3732.666666666667,3807.8,4332.428571428572,4295.1,303.5405,302.91433333333333,314.501,314.215,22.18177777777778,20.8101,22.289,21.6562,314.999998,314.999998,324.999988,324.999988,99.56121428571429,99.50945,99.582,99.55364285714286,0.07374999999999998,-0.12624999999999997,-0.1634,0.07079999999999997,-0.03166666666666629,-0.045000000000001705,1.4455,1.4465,39.635999999999996,31.063499999999998,40.306,36.351,57.117000000000004,37.4775,63.997,54.9795,55.085,36.457499999999996,62.481,53.167,54.295,35.948,62.422,52.5115,-0.1313333333333333,-0.11299999999999999,0.09888000000000001,0.11410000000000001,0.0,216.35500000000002,216.335,212.95,212.95,0.0,0.0
32,0.0,0.0,0.0,1.0,1.0,0.0,0.0,1.0,0.0,100.0,1.0,1.1856,26.0,0.0,0.0,0.0,59.999996,0.0,26.0,26.0,26.0,26.0,-0.042857142857142816,0.23229999999999995,-0.0599,288.071,-2.5756,-2.6102499999999997,-1.5325,-1.6446666666666667,-167.94,216.0025,190.2825,0.0,0.0,0.0,0.0,0.06423333333333334,-5.498166666666667,-5.498166666666667,-0.7864,-0.11133333333333333,-0.07288888888888856,-1.238,69.213,-0.045599999999999974,-0.44643333333333335,0.29800000000000004,100.0,1.0,1.0,213.54333333333335,0.0,0.0,0.0,0.0,0.0,0.0,0.0,9051.3,0.0,55.0,5.0,249.14666666666665,0.0,0.0,0.0,0.0,0.0,0.0,1.0,0.0,1.6050000000000004,1.6050000000000004,0.0,0.0,0.0,55.0,616.79921,10000.0,85.000001,85.000001,85.000001,85.000001,395.0,0.0,0.0,0.0,1.0,166.665,42.587,42.587,48.035,48.035,34.0,-30.74,25.93,-29.685000000000002,26.37,0.0,1781.953,-0.05000000000000071,100.0,35.766,35.474000000000004,43.751,43.03,0.0,0.0,100.0,0.0,0.0,0.0,0.0,4026.1666666666665,3694.9,3971.285714285714,3970.1000000000004,302.862,302.985,315.33166666666665,315.11575,22.19222222222222,20.817,22.30011111111111,21.6656,314.999998,314.999998,324.999988,324.999988,99.56122857142857,99.50946666666667,99.58214285714286,99.55378571428571,0.08000000000000007,-0.119,-0.16659999999999997,0.07400000000000007,-0.03333333333333144,-0.04833333333333201,1.555,1.579,39.701,31.1065,40.376000000000005,36.41,57.113,37.5295,64.02,55.0305,55.081,36.5055,62.501999999999995,53.216,54.289,35.9935,62.44,52.5595,-0.131,-0.11100000000000021,0.10701500000000001,0.10999500000000001,0.0,216.69,216.67000000000002,213.54333333333335,213.54333333333335,0.0,0.0
33,0.0,0.0,0.0,1.0,1.0,0.0,0.0,1.0,0.0,100.0,1.0,1.1856,26.0,0.0,0.0,0.0,59.999996,0.0,26.0,26.0,26.0,26.0,-0.051999999999999935,0.238,-0.000275,288.025,-2.5215,-2.627125,-1.569,-1.5892222222222223,-164.62,215.99,190.25775,0.0,0.0,0.0,0.0,0.06616666666666667,-5.498166666666667,-5.498166666666667,-0.7826000000000001,-0.14566666666666667,-0.07244444444444431,0.06600000000000006,69.325,-0.03289999999999993,-0.42450000000000004,0.24600000000000044,100.0,1.0,1.0,213.75666666666666,0.0,0.0,0.0,0.0,0.0,0.0,0.0,9060.4,0.0,55.0,5.0,249.54666666666668,1.0,0.0,0.0,0.0,0.0,0.0,1.0,0.0,1.6529999999999987,1.6529999999999987,0.0,0.0,1.0,55.0,616.79921,10000.0,85.000001,85.000001,85.000001,85.000001,395.0,0.0,0.0,0.0,1.0,333.33500000000004,43.015,43.015,47.836,47.836,34.0,-29.35333333333333,25.208,-32.405,27.490000000000002,0.0,1781.904,-0.0799999999999983,100.0,35.757,35.159,43.574,43.024,0.0,0.0,100.0,0.0,0.0,0.0,0.0,3915.166666666667,3604.4,4236.571428571428,4128.4,303.056,303.32966666666664,314.7463333333333,314.7005,22.201999999999998,20.8233,22.310555555555556,21.674500000000002,314.999998,314.999998,324.999988,324.999988,99.56124285714286,99.50948333333334,99.58228571428572,99.55391428571428,0.07850000000000001,-0.12124999999999997,-0.1594,0.08000000000000007,-0.045000000000001705,-0.03999999999999915,1.5105,1.52,39.763,31.1455,40.441,36.465,57.11,37.5745,64.0425,55.079,55.077,36.5475,62.5225,53.2635,54.284,36.033500000000004,62.457,52.6055,-0.12399999999999989,-0.11249999999999982,0.11019500000000002,0.10469,0.0,217.04500000000002,217.0,213.75666666666666,213.75666666666666,0.0,0.0
34,0.0,0.0,0.0,1.0,1.0,0.0,0.0,1.0,0.0,100.0,1.0,1.1856,26.0,0.0,0.0,0.0,59.999996,0.0,26.0,26.0,26.0,26.0,-0.03685714285714292,0.22740000000000005,-0.09770000000000001,288.513,-2.6409,-2.593,-1.5453000000000001,-1.564888888888889,-160.87,215.97750000000002,190.229,0.0,0.0,0.0,0.0,0.06833333333333334,-5.498166666666667,-5.498166666666667,-0.812,-0.8223333333333334,-0.03511111111111109,-0.07499999999999996,69.447,-0.02179999999999993,-0.43736666666666674,0.1900000000000004,100.0,1.0,1.0,214.16666666666669,0.0,0.0,0.0,0.0,0.0,0.0,0.0,9077.7,0.0,55.0,5.0,249.99,0.0,0.0,0.0,0.0,0.0,0.0,1.0,0.0,1.7070000000000007,1.7070000000000007,0.0,0.0,0.0,55.0,616.79921,10000.0,85.000001,85.000001,85.000001,85.000001,395.0,0.0,0.0,0.0,1.0,166.665,43.594,43.594,48.538,48.538,34.0,-29.48,24.984,-28.845,27.177500000000002,0.0,1781.852,-0.09499999999999886,100.0,35.333,34.926,43.354,43.138,0.0,0.0,100.0,0.0,0.0,0.0,0.0,3842.0,3552.2,3950.0,4097.3,303.46,303.522,315.36633333333333,314.7395,22.212888888888887,20.8304,22.322333333333333,21.6845,314.999998,314.999998,324.999988,324.999988,99.56125714285714,99.5095,99.58244285714285,99.55407142857143,0.08650000000000002,-0.10975000000000001,-0.14639999999999997,0.08600000000000008,-0.030000000000001137,-0.03499999999999659,1.5305,1.54,39.831,31.189999999999998,40.513999999999996,36.528,57.105000000000004,37.625,64.066,55.135,55.072,36.594,62.544,53.317499999999995,54.277,36.0785,62.475,52.658,-0.1256666666666666,-0.10999999999999988,0.10455,0.10811000000000001,0.0,217.385,217.38,214.16666666666669,214.16666666666669,0.0,0.0
35,0.0,0.0,0.0,1.0,1.0,0.0,0.0,1.0,0.0,100.0,1.0,1.1856,26.0,0.0,0.0,0.0,59.999996,0.0,26.0,26.0,26.0,26.0,-0.022285714285714353,0.21760000000000002,-0.18407500000000002,288.803,-2.6621,-2.5558750000000003,-1.6225,-1.5552222222222223,-157.53,215.965,190.201625,0.0,0.0,0.0,0.0,0.07026666666666667,-5.498166666666667,-5.498166666666667,-0.8539,-0.7243333333333334,-0.03177777777777768,-0.806,69.554,-0.014399999999999968,-0.44210000000000005,0.11600000000000055,100.0,1.0,1.0,214.59,0.0,0.0,0.0,0.0,0.0,0.0,0.0,9095.7,0.0,55.0,5.0,250.37333333333333,1.0,0.0,0.0,0.0,0.0,0.0,1.0,0.0,1.754999999999999,1.754999999999999,0.0,0.0,1.0,55.0,616.79921,10000.0,85.000001,85.000001,85.000001,85.000001,395.0,0.0,0.0,0.0,1.0,166.665,43.594,43.594,48.233000000000004,48.233000000000004,34.0,-27.916666666666664,27.22,-29.505,25.52,0.0,1781.804,-0.09499999999999886,100.0,35.053,34.885,42.947,42.781,0.0,0.0,100.0,0.0,0.0,0.0,0.0,3687.5,3798.5,4037.8571428571427,3816.5,303.808,302.73766666666666,315.2803333333333,315.525,22.222444444444445,20.8367,22.332555555555555,21.6933,314.999998,314.999998,324.999988,324.999988,99.56127142857143,99.50951666666667,99.58258571428571,99.55421428571428,0.09725000000000006,-0.09824999999999995,-0.13339999999999996,0.10820000000000007,-0.02833333333332888,-0.051666666666669414,1.604,1.597,39.89,31.2295,40.579,36.583,57.099000000000004,37.6695,64.0845,55.1825,55.066,36.6355,62.561,53.363,54.269999999999996,36.1175,62.4885,52.7025,-0.1299999999999999,-0.10950000000000015,0.11051000000000001,0.11081500000000001,0.0,217.71,217.72,214.59,214.59,0.0,0.0
