,ABS Active,ABS Enabled,AID Allow Tire Blankets,AID Auto Blip,AID Auto Clutch,AID Auto Shift,AID Fuel Rate,AID Ideal Line,AID Mech Damage,AID Stability,AID Tire Wear Rate,Air Density,Air Temp,Ballast,Best Lap Delta,Best Lap Time,Brake Bias,Brake Pos,Brake Temp FL,Brake Temp FR,Brake Temp RL,Brake Temp RR,CG Accel Lateral,CG Accel Longitudinal,CG Accel Vertical,CG Height,Camber FL,Camber FR,Camber RL,Camber RR,Car Coord X,Car Coord Y,Car Coord Z,Car Damage Front,Car Damage Left,Car Damage Rear,Car Damage Right,Car Pos Norm,Caster FL,Caster FR,Chassis Pitch Angle,Chassis Pitch Rate,Chassis Roll Angle,Chassis Roll Rate,Chassis Velocity X,Chassis Velocity Y,Chassis Velocity Z,Chassis Yaw Rate,Clutch Pos,DRS Active,DRS Available,Drive Train Speed,ERS Heat Charging,ERS Is Charging,ERS Max Energy,ERS Power Level,ERS Recovery Level,Engine Brake Setting,Engine Limiter,Engine RPM,Flags,Fuel Level,Gear,Ground Speed,HR Sample Clock,In Pit,KERS Charge,KERS Deployed Energy,KERS Input,KERS Max Energy,LR Sample Clock,Lap Invalidated,Lap Time,Lap Time2,Last Lap Time,Last Sector Time,MR Sample Clock,Max Fuel,Max Power,Max RPM,Max Sus Travel FL,Max Sus Travel FR,Max Sus Travel RL,Max Sus Travel RR,Max Torque,Max Turbo Boost,Num Tires Off Track,Penalties Enabled,Position,Raw Data Sample Rate,Ride Height FL,Ride Height FR,Ride Height RL,Ride Height RR,Road Temp,Self Align Torque FL,Self Align Torque FR,Self Align Torque RL,Self Align Torque RR,Session Lap Count,Session Time Left,Steering Angle,Surface Grip,Suspension Travel FL,Suspension Travel FR,Suspension Travel RL,Suspension Travel RR,TC Active,TC Enabled,Throttle Pos,Tire Dirt Level FL,Tire Dirt Level FR,Tire Dirt Level RL,Tire Dirt Level RR,Tire Load FL,Tire Load FR,Tire Load RL,Tire Load RR,Tire Loaded Radius FL,Tire Loaded Radius FR,Tire Loaded Radius RL,Tire Loaded Radius RR,Tire Pressure FL,Tire Pressure FR,Tire Pressure RL,Tire Pressure RR,Tire Radius FL,Tire Radius FR,Tire Radius RL,Tire Radius RR,Tire Rubber Grip FL,Tire Rubber Grip FR,Tire Rubber Grip RL,Tire Rubber Grip RR,Tire Slip Angle FL,Tire Slip Angle FR,Tire Slip Angle RL,Tire Slip Angle RR,Tire Slip Ratio FL,Tire Slip Ratio FR,Tire Slip Ratio RL,Tire Slip Ratio RR,Tire Temp Core FL,Tire Temp Core FR,Tire Temp Core RL,Tire Temp Core RR,Tire Temp Inner FL,Tire Temp Inner FR,Tire Temp Inner RL,Tire Temp Inner RR,Tire Temp Middle FL,Tire Temp Middle FR,Tire Temp Middle RL,Tire Temp Middle RR,Tire Temp Outer FL,Tire Temp Outer FR,Tire Temp Outer RL,Tire Temp Outer RR,Toe In FL,Toe In FR,Toe In RL,Toe In RR,Turbo Boost,Wheel Angular Speed FL,Wheel Angular Speed FR,Wheel Angular Speed RL,Wheel Angular Speed RR,Wind Direction,Wind Speed
0,0.0,0.0,0.0,1.0,1.0,0.0,0.0,1.0,0.0,100.0,1.0,1.1856,26.0,0.0,0.0,0.0,59.99999,0.0,26.0,26.0,26.0,26.0,-0.01911111111111108,0.3114000000000001,0.23546666666666666,294.037,-2.83535,-2.638,-1.5699,-1.5053,-275.48,215.365,190.9875,0.0,0.0,0.0,0.0,0.0017000000000000001,-5.498166666666667,-5.498166666666667,-0.5045000000000001,3.653,0.0067777777777777715,-0.46399999999999997,65.391,-0.0252,-0.15748,-0.05600000000000005,100.0,1.0,1.0,201.98333333333335,0.0,0.0,0.0,0.0,0.0,0.0,0.0,8561.3,0.0,55.0,5.0,235.37333333333333,0.0,0.0,0.0,0.0,0.0,0.0,0.0,0.0,0.006000000000000227,0.006000000000000227,0.0,0.0,0.0,55.0,616.79921,10000.0,85.0,85.0,85.0,85.0,395.0,0.0,0.0,0.0,1.0,20.0,53.024,53.024,48.111000000000004,48.111000000000004,34.0,-29.6675,33.56,-28.97,26.015,0.0,1782.906,0.10999999999999943,100.0,24.793,25.6515,40.562,40.359,0.0,0.0,100.0,0.0,0.0,0.0,0.0,3301.625,4258.4,4044.8888888888887,4078.6000000000004,304.633,301.3485,315.0835,314.764,21.736,20.4673,21.7299,21.3084,314.99999,314.99999,324.99998,324.99998,99.55841428571429,99.50655,99.56112857142857,99.54397142857142,0.022749999999999826,-0.06774999999999998,-0.13683333333333333,0.09016666666666667,-0.05333333333332746,-0.07666666666666799,1.5789999999999997,1.585,36.849999999999994,28.920666666666666,36.812,34.1775,55.894999999999996,33.7575,57.685,51.102333333333334,53.775,32.984,56.335499999999996,49.50533333333333,52.897,32.573499999999996,56.2695,48.954,-0.061999999999999944,-0.07650000000000001,0.11341000000000001,0.10737000000000001,0.0,204.93,204.93,201.98333333333335,201.98333333333335,0.0,0.0
1,0.0,0.0,0.0,1.0,1.0,0.0,0.0,1.0,0.0,100.0,1.0,1.1856,26.0,0.0,0.0,0.0,59.999996,0.0,26.0,26.0,26.0,26.0,-0.0504444444444444,0.3238000000000001,0.21843333333333337,293.411,-2.75245,-2.730125,-1.6345,-1.3893,-272.14,215.37,190.96775,0.0,0.0,0.0,0.0,0.0036666666666666666,-5.498166666666667,-5.498166666666667,-0.3623,-2.0575,-0.03266666666666662,-0.812,65.55799999999999,-0.019100000000000002,-0.05894,0.41999999999999993,100.0,1.0,1.0,201.75666666666666,0.0,0.0,0.0,0.0,0.0,0.0,0.0,8551.7,0.0,55.0,5.0,235.97,1.0,0.0,0.0,0.0,0.0,0.0,0.0,0.0,0.05699999999999861,0.05699999999999861,0.0,0.0,1.0,55.0,616.79921,10000.0,85.000001,85.000001,85.000001,85.000001,395.0,0.0,0.0,0.0,1.0,166.665,59.036,59.036,45.441,45.441,34.0,-18.2075,13.865,-39.11,35.3825,0.0,1782.854,0.3150000000000013,100.0,24.282,24.0935,43.92,45.198,0.0,0.0,100.0,0.0,0.0,0.0,0.0,2274.625,1991.1,4848.777777777777,5461.4,307.982,308.5325,312.7835,310.80075,21.745,20.4715,21.7407,21.3179,314.999998,314.999998,324.999988,324.999988,99.55841428571429,99.50656666666667,99.56128571428572,99.54412857142857,0.02950000000000008,-0.08224999999999993,-0.1305,0.06766666666666667,-0.021666666666668277,-0.03999999999999915,1.2405,1.2650000000000001,36.906,28.947,36.879999999999995,34.237,55.870999999999995,33.786500000000004,57.74,51.179,53.751999999999995,33.010999999999996,56.3875,49.57833333333333,52.873000000000005,32.5995,56.3185,49.025333333333336,-0.03400000000000003,-0.08000000000000007,0.10494,0.10688500000000001,0.0,205.365,205.365,201.75666666666666,201.75666666666666,0.0,0.0
2,0.0,0.0,0.0,1.0,1.0,0.0,0.0,1.0,0.0,100.0,1.0,1.1856,26.0,0.0,0.0,0.0,59.999996,0.0,26.0,26.0,26.0,26.0,-0.06233333333333335,0.3075000000000001,-0.0858,295.319,-2.71855,-2.69875,-1.5828,-1.5235,-268.6,215.3775,190.94775,0.0,0.0,0.0,0.0,0.0057,-5.498166666666667,-5.498166666666667,-0.47850000000000004,1.164,-0.007888888888889056,1.5590000000000002,65.706,-0.0219,-0.15224000000000001,0.7320000000000002,100.0,1.0,1.0,203.24666666666667,0.0,0.0,0.0,0.0,0.0,0.0,0.0,8614.9,0.0,55.0,5.0,236.51,0.0,0.0,0.0,0.0,0.0,0.0,0.0,0.0,0.11100000000000065,0.11100000000000065,0.0,0.0,0.0,55.0,616.79921,10000.0,85.000001,85.000001,85.000001,85.000001,395.0,0.0,0.0,0.0,1.0,166.665,56.29,56.29,49.576,49.576,34.0,-26.622500000000002,20.10333333333333,-25.596666666666664,20.14,0.0,1782.801,0.46499999999999986,100.0,24.746,24.246,42.677,42.511,0.0,0.0,100.0,0.0,0.0,0.0,0.0,3031.375,2792.0,3612.1111111111113,3466.1,305.57666666666665,305.71625,316.06575,316.326,21.7551,20.4763,21.7512,21.3266,314.999998,314.999998,324.999988,324.999988,99.55841428571429,99.50658333333334,99.56142857142858,99.54425714285715,-0.0004999999999999449,-0.09899999999999998,-0.15533333333333335,0.07316666666666667,-0.07333333333333059,-0.06833333333332803,1.75,1.7839999999999998,36.969,28.977,36.945,34.291,55.851,33.823,57.7805,51.231,53.733000000000004,33.0445,56.4255,49.62866666666667,52.854,32.631,56.3535,49.075,-0.025000000000000022,-0.09499999999999997,0.10381000000000001,0.10948500000000001,0.0,205.875,205.805,203.24666666666667,203.24666666666667,0.0,0.0
3,0.0,0.0,0.0,1.0,1.0,0.0,0.0,1.0,0.0,100.0,1.0,1.1856,26.0,0.0,0.0,0.0,59.999996,0.0,26.0,26.0,26.0,26.0,-0.06188888888888888,0.31710000000000016,0.009766666666666668,294.495,-2.7359999999999998,-2.73225,-1.5636999999999999,-1.4977,-265.44,215.38,190.92875,0.0,0.0,0.0,0.0,0.007533333333333333,-5.498166666666667,-5.498166666666667,-0.39480000000000004,0.4375,0.005222222222222239,-2.144,65.861,-0.034300000000000004,-0.07200000000000001,0.5800000000000001,100.0,1.0,1.0,203.02666666666667,0.0,0.0,0.0,0.0,0.0,0.0,0.0,8605.5,0.0,55.0,5.0,237.06666666666666,1.0,0.0,0.0,0.0,0.0,0.0,0.0,0.0,0.15899999999999892,0.15899999999999892,0.0,0.0,1.0,55.0,616.79921,10000.0,85.000001,85.000001,85.000001,85.000001,395.0,0.0,0.0,0.0,1.0,166.665,58.014,58.014,46.31,46.31,34.0,-20.9575,17.84166666666667,-35.79,28.7525,0.0,1782.753,0.6350000000000016,100.0,24.261,24.0975,43.034,43.132,0.0,0.0,100.0,0.0,0.0,0.0,0.0,2486.125,2489.5,4619.444444444444,4426.3,307.3666666666667,306.727,313.567,313.69025,21.7637,20.4807,21.7608,21.3351,314.999998,314.999998,324.999988,324.999988,99.55841428571429,99.50658333333334,99.56157142857143,99.5444,0.002000000000000224,-0.09699999999999998,-0.15,0.07566666666666667,-0.041666666666671404,-0.026666666666670835,1.4095,1.428,37.022999999999996,29.004666666666665,37.004999999999995,34.3445,55.829,33.857,57.824,51.297333333333334,53.713,33.076,56.4655,49.69233333333334,52.833,32.661500000000004,56.391,49.13733333333333,-0.011499999999999955,-0.09499999999999997,0.10898000000000001,0.10837000000000001,0.0,206.35500000000002,206.28,203.02666666666667,203.02666666666667,0.0,0.0
4,0.0,0.0,0.0,1.0,1.0,0.0,0.0,1.0,0.0,100.0,1.0,1.1856,26.0,0.0,0.0,0.0,59.999996,0.0,26.0,26.0,26.0,26.0,-0.06733333333333336,0.3143,0.0004,295.09,-2.72765,-2.7915,-1.5043,-1.6038000000000001,-262.27,215.3825,190.91075,0.0,0.0,0.0,0.0,0.0094,-5.498166666666667,-5.498166666666667,-0.4314,-1.0105,-0.04300000000000015,-0.6099999999999999,66.002,-0.043300000000000005,-0.12004000000000002,1.0020000000000007,100.0,1.0,1.0,203.70666666666668,0.0,0.0,0.0,0.0,0.0,0.0,0.0,8634.4,0.0,55.0,5.0,237.57666666666665,0.0,0.0,0.0,0.0,0.0,0.0,0.0,0.0,0.20700000000000074,0.20700000000000074,0.0,0.0,0.0,55.0,616.79921,10000.0,85.000001,85.000001,85.000001,85.000001,395.0,0.0,0.0,0.0,1.0,166.665,57.769999999999996,57.769999999999996,47.882,47.882,34.0,-25.055,17.66166666666667,-30.23333333333333,23.955000000000002,0.0,1782.704,0.6449999999999996,100.0,24.118,23.653,43.625,43.082,0.0,0.0,100.0,0.0,0.0,0.0,0.0,2818.875,2497.4,4069.777777777778,3854.2,306.368,306.827,314.89625,315.217,21.7724,20.4849,21.7706,21.3434,314.999998,314.999998,324.999988,324.999988,99.55841428571429,99.5066,99.5617,99.54452857142857,-0.020499999999999963,-0.11349999999999993,-0.167,0.05416666666666667,-0.05333333333332746,-0.054999999999999716,1.5339999999999998,1.5855000000000001,37.078,29.030666666666665,37.066,34.3965,55.808,33.8885,57.8675,51.355333333333334,53.693,33.105000000000004,56.5065,49.74766666666667,52.813,32.689,56.429,49.19133333333333,0.0,-0.10899999999999999,0.10669500000000001,0.10760000000000002,0.0,206.745,206.67000000000002,203.70666666666668,203.70666666666668,0.0,0.0
5,0.0,0.0,0.0,1.0,1.0,0.0,0.0,1.0,0.0,100.0,1.0,1.1856,26.0,0.0,0.0,0.0,59.999996,0.0,26.0,26.0,26.0,26.0,-0.09099999999999997,0.3175000000000001,-0.06433333333333334,295.349,-2.69745,-2.7753750000000004,-1.5541,-1.5831,-258.9,215.385,190.890875,0.0,0.0,0.0,0.0,0.011333333333333334,-5.498166666666667,-5.498166666666667,-0.4384,0.6094999999999999,-0.026000000000000245,0.6680000000000001,66.15299999999999,-0.0664,-0.10584000000000002,0.9800000000000004,100.0,1.0,1.0,204.23333333333335,0.0,0.0,0.0,0.0,0.0,0.0,0.0,8656.7,0.0,55.0,5.0,238.11666666666667,1.0,0.0,0.0,0.0,0.0,0.0,0.0,0.0,0.2579999999999991,0.2579999999999991,0.0,0.0,1.0,55.0,616.79921,10000.0,85.000001,85.000001,85.000001,85.000001,395.0,0.0,0.0,0.0,1.0,166.665,57.907,57.907,48.187,48.187,34.0,-22.625,18.825,-30.956666666666667,23.6225,0.0,1782.652,0.23499999999999943,100.0,24.193,23.6055,43.168,42.366,0.0,0.0,100.0,0.0,0.0,0.0,0.0,2631.5,2575.5,3982.5555555555557,4052.1000000000004,306.709,306.604,315.13025,314.84,21.7818,20.4894,21.7806,21.352,314.999998,314.999998,324.999988,324.999988,99.55842857142858,99.5066,99.56184285714286,99.54467142857143,-0.003249999999999975,-0.09399999999999986,-0.189,0.0285,-0.045000000000001705,-0.05833333333333002,1.5675,1.6185,37.135999999999996,29.058999999999997,37.129000000000005,34.45,55.788,33.9225,57.909,51.41466666666666,53.674,33.1365,56.545500000000004,49.80466666666666,52.794,32.7195,56.465,49.247,-0.03049999999999997,-0.07499999999999996,0.09798000000000001,0.10751000000000001,0.0,207.26999999999998,207.17000000000002,204.23333333333335,204.23333333333335,0.0,0.0
6,0.0,0.0,0.0,1.0,1.0,0.0,0.0,1.0,0.0,100.0,1.0,1.1856,26.0,0.0,0.0,0.0,59.999996,0.0,26.0,26.0,26.0,26.0,-0.09311111111111103,0.30700000000000016,0.06076666666666666,295.074,-2.7343,-2.76,-1.5007000000000001,-1.5976,-255.52,215.3825,190.87025,0.0,0.0,0.0,0.0,0.013300000000000001,-5.498166666666667,-5.498166666666667,-0.4325,-0.46050000000000013,-0.0474444444444444,-0.7229999999999999,66.307,-0.0687,-0.09352,0.8339999999999996,100.0,1.0,1.0,204.55,0.0,0.0,0.0,0.0,0.0,0.0,0.0,8670.1,0.0,55.0,5.0,238.67333333333335,0.0,0.0,0.0,0.0,0.0,0.0,0.0,0.0,0.30900000000000105,0.30900000000000105,0.0,0.0,0.0,55.0,616.79921,10000.0,85.000001,85.000001,85.000001,85.000001,395.0,0.0,0.0,0.0,1.0,166.665,57.968,57.968,47.821,47.821,34.0,-26.14,16.85,-32.72,24.725,0.0,1782.603,0.17999999999999972,100.0,23.902,23.4375,43.347,42.64,0.0,0.0,100.0,0.0,0.0,0.0,0.0,2891.625,2464.3,4232.777777777777,4076.1000000000004,306.196,306.9905,314.49925,314.65175,21.791,20.4938,21.7908,21.3609,314.999998,314.999998,324.999988,324.999988,99.55842857142858,99.50661666666667,99.56198571428571,99.54481428571428,-0.02949999999999986,-0.12124999999999986,-0.18333333333333335,0.033,-0.06333333333333258,-0.03166666666666629,1.4925000000000002,1.5244999999999997,37.194,29.086666666666666,37.193,34.5055,55.766,33.9555,57.954499999999996,51.47866666666667,53.653,33.167,56.588,49.86566666666667,52.772999999999996,32.7485,56.5045,49.306666666666665,-0.028000000000000025,-0.08200000000000007,0.10222500000000001,0.10391500000000001,0.0,207.715,207.63,204.55,204.55,0.0,0.0
7,0.0,0.0,0.0,1.0,1.0,0.0,0.0,1.0,0.0,100.0,1.0,1.1856,26.0,0.0,0.0,0.0,59.999996,0.0,26.0,26.0,26.0,26.0,-0.06733333333333336,0.3023,0.0004333333333333333,295.044,-2.7319,-2.820875,-1.5537,-1.5551,-252.34,215.38,190.850875,0.0,0.0,0.0,0.0,0.015166666666666667,-5.498166666666667,-5.498166666666667,-0.43420000000000003,0.239,-0.03966666666666674,-0.22099999999999986,66.44800000000001,-0.0718,-0.10216,0.6460000000000008,100.0,1.0,1.0,205.02666666666667,0.0,0.0,0.0,0.0,0.0,0.0,0.0,8690.3,0.0,55.0,5.0,239.18333333333334,1.0,0.0,0.0,0.0,0.0,0.0,0.0,0.0,0.3569999999999993,0.3569999999999993,0.0,0.0,1.0,55.0,616.79921,10000.0,85.000001,85.000001,85.000001,85.000001,395.0,0.0,0.0,0.0,1.0,166.665,57.831,57.831,47.684,47.684,34.0,-24.314999999999998,18.67666666666667,-33.34,23.51,0.0,1782.554,-0.07499999999999929,100.0,24.132,23.5285,43.383,42.592,0.0,0.0,100.0,0.0,0.0,0.0,0.0,2836.625,2489.2,4243.111111111111,4040.9,306.29466666666667,306.73825,314.5345,314.82425,21.7998,20.4982,21.8004,21.3692,314.999998,314.999998,324.999988,324.999988,99.55842857142858,99.50663333333333,99.56211428571429,99.54494285714286,0.007000000000000117,-0.09050000000000002,-0.185,0.029,-0.054999999999999716,-0.03499999999999659,1.5345,1.5474999999999999,37.248999999999995,29.113666666666667,37.253,34.5575,55.748000000000005,33.9885,57.996,51.53666666666666,53.635999999999996,33.197,56.626999999999995,49.92133333333334,52.754999999999995,32.777,56.541,49.361000000000004,-0.0595,-0.050000000000000044,0.09568,0.11129000000000001,0.0,208.15,208.09,205.02666666666667,205.02666666666667,0.0,0.0
8,0.0,0.0,0.0,1.0,1.0,0.0,0.0,1.0,0.0,100.0,1.0,1.1856,26.0,0.0,0.0,0.0,59.999996,0.0,26.0,26.0,26.0,26.0,-0.04788888888888887,0.3013000000000001,-0.04096666666666667,295.273,-2.7445,-2.76425,-1.562,-1.5733000000000001,-248.75,215.3725,190.82925,0.0,0.0,0.0,0.0,0.017266666666666666,-5.498166666666667,-5.498166666666667,-0.4318,0.02949999999999997,-0.034777777777777796,-1.1059999999999999,66.607,-0.064,-0.09994,0.2939999999999996,100.0,1.0,1.0,205.5366666666667,0.0,0.0,0.0,0.0,0.0,0.0,0.0,8712.0,0.0,55.0,5.0,239.75666666666666,0.0,0.0,0.0,0.0,0.0,0.0,0.0,0.0,0.4109999999999978,0.4109999999999978,0.0,0.0,0.0,55.0,616.79921,10000.0,85.000001,85.000001,85.000001,85.000001,395.0,0.0,0.0,0.0,1.0,166.665,58.243,58.243,47.531,47.531,34.0,-23.2425,19.125,-32.4,24.8225,0.0,1782.5,-0.17999999999999972,100.0,23.684,23.417,43.379,42.687,0.0,0.0,100.0,0.0,0.0,0.0,0.0,2732.125,2549.5,4161.444444444444,4012.4,306.66633333333334,306.5605,314.7235,314.8605,21.8096,20.503,21.8112,21.3786,314.999998,314.999998,324.999988,324.999988,99.55842857142858,99.50663333333333,99.56228571428571,99.54508571428572,0.008249999999999869,-0.08050000000000002,-0.17933333333333334,0.052833333333333336,-0.041666666666671404,-0.07333333333333059,1.5385,1.5425,37.31,29.144,37.32,34.616,55.724999999999994,34.0245,58.042500000000004,51.60333333333333,53.614999999999995,33.230000000000004,56.670500000000004,49.98533333333333,52.733000000000004,32.809,56.5815,49.42366666666666,-0.06699999999999995,-0.03649999999999998,0.10587,0.11754500000000001,0.0,208.615,208.60500000000002,205.5366666666667,205.5366666666667,0.0,0.0
9,0.0,0.0,0.0,1.0,1.0,0.0,0.0,1.0,0.0,100.0,1.0,1.1856,26.0,0.0,0.0,0.0,59.999996,0.0,26.0,26.0,26.0,26.0,-0.037666666666666626,0.2956000000000001,-0.009833333333333333,295.166,-2.7222,-2.7817499999999997,-1.5463,-1.5723,-245.55,215.3675,190.80975,0.0,0.0,0.0,0.0,0.019133333333333336,-5.498166666666667,-5.498166666666667,-0.4279,0.1895,-0.04455555555555568,-0.742,66.749,-0.0489,-0.09046000000000001,0.06200000000000028,100.0,1.0,1.0,205.94,0.0,0.0,0.0,0.0,0.0,0.0,0.0,8729.0,0.0,55.0,5.0,240.26333333333332,1.0,0.0,0.0,0.0,0.0,0.0,0.0,0.0,0.45899999999999963,0.45899999999999963,0.0,0.0,1.0,55.0,616.79921,10000.0,85.000001,85.000001,85.000001,85.000001,395.0,0.0,0.0,0.0,1.0,166.665,58.09,58.09,47.791,47.791,34.0,-23.28,19.898333333333333,-31.37333333333333,26.2925,0.0,1782.453,-0.3200000000000003,100.0,23.679,23.228,43.256,42.698,0.0,0.0,100.0,0.0,0.0,0.0,0.0,2831.0,2573.5,4175.111111111111,4115.1,306.33733333333333,306.50525,314.71525,314.59325,21.8182,20.5074,21.8208,21.3869,314.999998,314.999998,324.999988,324.999988,99.55842857142858,99.50665,99.56241428571428,99.54521428571428,0.030749999999999833,-0.06674999999999986,-0.161,0.0645,-0.06333333333333258,-0.04333333333332945,1.5339999999999998,1.5234999999999999,37.364000000000004,29.171,37.379999999999995,34.668,55.706,34.0555,58.084,51.66166666666666,53.596000000000004,33.2585,56.709,50.041,52.715,32.836,56.6175,49.47833333333333,-0.08099999999999996,-0.028999999999999915,0.10771000000000001,0.11163500000000001,0.0,209.075,209.04000000000002,205.94,205.94,0.0,0.0
10,0.0,0.0,0.0,1.0,1.0,0.0,0.0,1.0,0.0,100.0,1.0,1.1856,26.0,0.0,0.0,0.0,59.999996,0.0,26.0,26.0,26.0,26.0,-0.014777777777777779,0.30610000000000004,-0.0022,295.151,-2.7349,-2.759125,-1.5627,-1.5571000000000002,-242.34,215.36,190.79025,0.0,0.0,0.0,0.0,0.021,-5.498166666666667,-5.498166666666667,-0.42350000000000004,-0.2370000000000001,-0.019333333333333425,-0.04400000000000004,66.89,-0.0327,-0.08824,-0.12200000000000077,100.0,1.0,1.0,206.29666666666668,0.0,0.0,0.0,0.0,0.0,0.0,0.0,8744.2,0.0,55.0,5.0,240.7733333333333,0.0,0.0,0.0,0.0,0.0,0.0,1.0,0.0,0.5069999999999979,0.5069999999999979,0.0,0.0,0.0,55.0,616.79921,10000.0,85.000001,85.000001,85.000001,85.000001,395.0,0.0,0.0,0.0,1.0,166.665,58.441,58.441,47.592,47.592,34.0,-21.9875,19.956666666666663,-31.173333333333332,27.740000000000002,0.0,1782.404,-0.3899999999999988,100.0,23.553,23.1205,43.29,42.923,0.0,0.0,100.0,0.0,0.0,0.0,0.0,2711.875,2554.4,4206.444444444444,4249.9,306.6956666666667,306.5885,314.6015,314.25025,21.8268,20.5116,21.8304,21.3953,314.999998,314.999998,324.999988,324.999988,99.55844285714285,99.50665,99.56254285714286,99.54535714285714,0.03774999999999995,-0.05424999999999991,-0.14250000000000002,0.07283333333333333,-0.051666666666669414,-0.045000000000001705,1.4945,1.4865,37.418,29.197666666666667,37.44,34.721000000000004,55.686,34.085499999999996,58.126,51.721666666666664,53.578,33.286,56.7485,50.098333333333336,52.696,32.8625,56.653999999999996,49.534333333333336,-0.08299999999999996,-0.022499999999999964,0.105145,0.10345000000000001,0.0,209.49,209.47,206.29666666666668,206.29666666666668,0.0,0.0
11,0.0,0.0,0.0,1.0,1.0,0.0,0.0,1.0,0.0,100.0,1.0,1.1856,26.0,0.0,0.0,0.0,59.999996,0.0,26.0,26.0,26.0,26.0,-0.003444444444444472,0.29590000000000005,-0.03016666666666667,295.456,-2.75815,-2.7567500000000003,-1.5639,-1.5321,-238.92000000000002,215.35,190.76925,0.0,0.0,0.0,0.0,0.022600000000000002,-5.498166666666667,-5.498166666666667,-0.444,-0.23150000000000004,0.007222222222222241,0.9060000000000001,67.038,-0.0159,-0.09918,-0.29600000000000026,100.0,1.0,1.0,206.8466666666667,0.0,0.0,0.0,0.0,0.0,0.0,0.0,8767.5,0.0,55.0,5.0,241.30333333333334,1.0,0.0,0.0,0.0,0.0,0.0,1.0,0.0,0.5579999999999998,0.5579999999999998,0.0,0.0,1.0,55.0,616.79921,10000.0,85.000001,85.000001,85.000001,85.000001,395.0,0.0,0.0,0.0,1.0,333.33500000000004,58.441,58.441,48.096000000000004,48.096000000000004,34.0,-20.835,22.314999999999998,-27.266666666666666,27.955000000000002,0.0,1782.352,-0.42499999999999893,100.0,23.399,22.97,43.118,42.836,0.0,0.0,100.0,0.0,0.0,0.0,0.0,2622.375,2746.3,3948.3333333333335,4157.3,306.794,306.1675,315.18625,314.57525,21.8359,20.5163,21.8405,21.4043,314.999998,314.999998,324.999988,324.999988,99.55844285714285,99.50666666666666,99.56268571428572,99.5455,0.05774999999999997,-0.030750000000000055,-0.1125,0.10466666666666667,-0.054999999999999716,-0.046666666666666856,1.5505,1.5524999999999998,37.474000000000004,29.226666666666667,37.503,34.7765,55.665,34.117,58.167,51.784333333333336,53.558,33.3155,56.787,50.15866666666666,52.676,32.8905,56.69,49.593,-0.07950000000000002,-0.01750000000000007,0.10177000000000001,0.10436500000000001,0.0,209.925,209.93,206.8466666666667,206.8466666666667,0.0,0.0
12,0.0,0.0,0.0,1.0,1.0,0.0,0.0,1.0,0.0,100.0,1.0,1.1856,26.0,0.0,0.0,0.0,59.999996,0.0,26.0,26.0,26.0,26.0,0.017888888888888843,0.2953000000000001,0.008466666666666667,295.09,-2.7549,-2.7465,-1.569,-1.5476,-235.7,215.3425,190.74875,0.0,0.0,0.0,0.0,0.025466666666666665,-5.498166666666667,-5.498166666666667,-0.43410000000000004,0.4575,0.011555555555555541,0.7930000000000001,67.17699999999999,-0.0028,-0.07902,-0.3520000000000003,100.0,1.0,1.0,207.21666666666667,0.0,0.0,0.0,0.0,0.0,0.0,0.0,8783.2,0.0,55.0,5.0,241.80666666666667,0.0,0.0,0.0,0.0,0.0,0.0,1.0,0.0,0.6059999999999981,0.6059999999999981,0.0,0.0,0.0,55.0,616.79921,10000.0,85.000001,85.000001,85.000001,85.000001,395.0,0.0,0.0,0.0,1.0,333.33500000000004,58.212,58.212,47.47,47.47,34.0,-20.4975,22.576666666666668,-28.22,30.63,0.0,1782.304,-0.4350000000000005,100.0,23.512999999999998,23.2975,43.016999999999996,42.853,0.0,0.0,100.0,0.0,0.0,0.0,0.0,2610.125,2777.0,4146.0,4303.1,306.81533333333334,306.0515,314.721,314.24725,21.8444,20.5208,21.85,21.4126,314.999998,314.999998,324.999988,324.999988,99.55845714285714,99.50666666666666,99.56281428571428,99.54562857142857,0.06450000000000022,-0.030249999999999888,-0.0955,0.12566666666666668,-0.045000000000001705,-0.05333333333332746,1.5230000000000001,1.5099999999999998,37.527,29.254666666666665,37.563,34.829,55.647,34.1485,58.2065,51.843,53.541,33.3445,56.823499999999996,50.215,52.658,32.918,56.724000000000004,49.64833333333333,-0.07750000000000001,-0.028000000000000025,0.10695,0.11721500000000001,0.0,210.38,210.39499999999998,207.21666666666667,207.21666666666667,0.0,0.0
13,0.0,0.0,0.0,1.0,1.0,0.0,0.0,1.0,0.0,100.0,1.0,1.1856,26.0,0.0,0.0,0.0,59.999996,0.0,26.0,26.0,26.0,26.0,0.048222222222222166,0.29180000000000006,0.0117,294.861,-2.7478,-2.75575,-1.5651000000000002,-1.5538,-232.26999999999998,215.335,190.72725,0.0,0.0,0.0,0.0,0.026833333333333334,-5.498166666666667,-5.498166666666667,-0.43010000000000004,-0.29600000000000004,0.005777777777777882,-0.5229999999999999,67.325,0.0016,-0.08742000000000001,-0.37399999999999967,100.0,1.0,1.0,207.60666666666668,0.0,0.0,0.0,0.0,0.0,0.0,0.0,8799.7,0.0,55.0,5.0,242.34,1.0,0.0,0.0,0.0,0.0,0.0,1.0,0.0,0.657,0.657,0.0,0.0,1.0,55.0,616.79921,10000.0,85.000001,85.000001,85.000001,85.000001,395.0,0.0,0.0,0.0,1.0,166.665,58.150999999999996,58.150999999999996,47.318,47.318,34.0,-20.5075,22.261666666666667,-29.746666666666666,29.490000000000002,0.0,1782.255,-0.41499999999999915,100.0,23.486,23.512,43.262,43.417,0.0,0.0,100.0,0.0,0.0,0.0,0.0,2728.375,2630.8,4211.0,4280.8,306.65433333333334,306.333,314.5915,314.17875,21.8534,20.5255,21.8603,21.4217,314.999998,314.999998,324.999988,324.999988,99.55845714285714,99.50666666666666,99.56297142857143,99.54577142857143,0.08599999999999985,-0.006750000000000034,-0.113,0.10116666666666667,-0.051666666666669414,-0.046666666666666856,1.487,1.488,37.584,29.284333333333336,37.626999999999995,34.8855,55.626999999999995,34.181,58.2505,51.908,53.522999999999996,33.3745,56.865,50.27733333333333,52.638999999999996,32.947,56.762,49.70933333333333,-0.10050000000000003,0.0010000000000000009,0.10939000000000002,0.10106000000000001,0.0,210.81,210.835,207.60666666666668,207.60666666666668,0.0,0.0
14,0.0,0.0,0.0,1.0,1.0,0.0,0.0,1.0,0.0,100.0,1.0,1.1856,26.0,0.0,0.0,0.0,59.999996,0.0,26.0,26.0,26.0,26.0,0.026000000000000023,0.29400000000000004,-0.03016666666666667,295.12,-2.7387,-2.770375,-1.5726,-1.55,-228.82999999999998,215.3275,190.705875,0.0,0.0,0.0,0.0,0.028833333333333332,-5.498166666666667,-5.498166666666667,-0.4424,-0.010499999999999954,0.02066666666666661,0.9940000000000002,67.47,0.012700000000000001,-0.09672000000000001,-0.4939999999999998,100.0,1.0,1.0,208.15,0.0,0.0,0.0,0.0,0.0,0.0,0.0,8822.7,0.0,55.0,5.0,242.86333333333334,0.0,0.0,0.0,0.0,0.0,0.0,1.0,0.0,0.7079999999999984,0.7079999999999984,0.0,0.0,0.0,55.0,616.79921,10000.0,85.000001,85.000001,85.000001,85.000001,395.0,0.0,0.0,0.0,1.0,333.33500000000004,58.197,58.197,47.729,47.729,34.0,-19.44,22.903333333333332,-26.796666666666663,29.82,0.0,1782.202,-0.46999999999999886,100.0,23.655,23.481,43.22,43.301,0.0,0.0,100.0,0.0,0.0,0.0,0.0,2582.0,2712.0,4005.6666666666665,4195.3,306.905,306.2335,315.05375,314.48875,21.8624,20.5303,21.8704,21.4307,314.999998,314.999998,324.999988,324.999988,99.55847142857142,99.50666666666666,99.56311428571429,99.54591428571429,0.08450000000000024,-0.008750000000000036,-0.09066666666666667,0.12866666666666665,-0.051666666666669414,-0.060000000000002274,1.548,1.54,37.64,29.314333333333334,37.69,34.9415,55.608000000000004,34.213,58.292,51.970666666666666,53.504000000000005,33.403999999999996,56.9035,50.337666666666664,52.620000000000005,32.9755,56.798,49.76833333333333,-0.08650000000000002,-0.01200000000000001,0.11296,0.10349000000000001,0.0,211.275,211.29000000000002,208.15,208.15,0.0,0.0
15,0.0,0.0,0.0,1.0,1.0,0.0,0.0,1.0,0.0,100.0,1.0,1.1856,26.0,0.0,0.0,0.0,59.999996,0.0,26.0,26.0,26.0,26.0,0.055777777777777926,0.30469999999999997,-0.0345,295.059,-2.7351,-2.744125,-1.6133000000000002,-1.5684,-225.39,215.3225,190.684,0.0,0.0,0.0,0.0,0.030833333333333334,-5.498166666666667,-5.498166666666667,-0.4348,0.2015,0.02644444444444427,-0.7209999999999999,67.617,0.0182,-0.08246,-0.3439999999999994,100.0,1.0,1.0,208.56333333333333,0.0,0.0,0.0,0.0,0.0,0.0,0.0,8840.3,0.0,55.0,5.0,243.39,1.0,0.0,0.0,0.0,0.0,0.0,1.0,0.0,0.7590000000000003,0.7590000000000003,0.0,0.0,1.0,55.0,616.79921,10000.0,85.000001,85.000001,85.000001,85.000001,395.0,0.0,0.0,0.0,1.0,166.665,58.258,58.258,47.485,47.485,34.0,-20.0325,21.366666666666667,-28.453333333333333,30.087500000000002,0.0,1782.153,-0.3650000000000002,100.0,23.469,23.723,43.014,43.481,0.0,0.0,100.0,0.0,0.0,0.0,0.0,2650.625,2575.6,4186.888888888889,4152.5,306.89633333333336,306.4535,314.7395,314.4965,21.8714,20.5351,21.8805,21.4397,314.999998,314.999998,324.999988,324.999988,99.55848571428571,99.50668333333333,99.56325714285714,99.54607142857142,0.07725000000000026,-0.017249999999999988,-0.085,0.1315,-0.03999999999999915,-0.06499999999999773,1.5324999999999998,1.516,37.696,29.344,37.753,34.998,55.589,34.2455,58.3335,52.034333333333336,53.486000000000004,33.434,56.942499999999995,50.398666666666664,52.602000000000004,33.004,56.834,49.828,-0.08750000000000002,-0.02300000000000013,0.1019,0.111685,0.0,211.71,211.75,208.56333333333333,208.56333333333333,0.0,0.0
16,0.0,0.0,0.0,1.0,1.0,0.0,0.0,1.0,0.0,100.0,1.0,1.1856,26.0,0.0,0.0,0.0,59.999996,0.0,26.0,26.0,26.0,26.0,0.03977777777777791,0.2783,-0.007833333333333333,294.785,-2.7659,-2.6891249999999998,-1.5958,-1.5658,-222.14,215.3175,190.663375,0.0,0.0,0.0,0.0,0.03273333333333333,-5.498166666666667,-5.498166666666667,-0.4446,-0.2490000000000001,0.017777777777777892,-1.071,67.754,0.0212,-0.0955,-0.2679999999999998,100.0,1.0,1.0,208.96666666666667,0.0,0.0,0.0,0.0,0.0,0.0,0.0,8857.3,0.0,55.0,5.0,243.88333333333333,0.0,0.0,0.0,0.0,0.0,0.0,1.0,0.0,0.8069999999999986,0.8069999999999986,0.0,0.0,0.0,55.0,616.79921,10000.0,85.000001,85.000001,85.000001,85.000001,395.0,0.0,0.0,0.0,1.0,166.665,57.785,57.785,47.211,47.211,34.0,-21.46,22.568333333333335,-28.169999999999998,29.355,0.0,1782.104,-0.3049999999999997,100.0,23.442,23.8445,43.261,43.641999999999996,0.0,0.0,100.0,0.0,0.0,0.0,0.0,2778.0,2746.4,4170.666666666667,4072.5,306.506,305.95625,314.7625,314.672,21.8798,20.5396,21.8902,21.4482,314.999998,314.999998,324.999988,324.999988,99.55848571428571,99.50668333333333,99.5634,99.5462,0.07650000000000023,-0.016999999999999904,-0.0855,0.12883333333333336,-0.046666666666666856,-0.05666666666667197,1.5230000000000001,1.4939999999999998,37.748999999999995,29.372666666666667,37.813,35.051,55.57,34.2765,58.374,52.09433333333333,53.468,33.4625,56.9805,50.45633333333333,52.583,33.0315,56.869,49.88466666666667,-0.07450000000000001,-0.026999999999999913,0.10118,0.108295,0.0,212.14499999999998,212.15,208.96666666666667,208.96666666666667,0.0,0.0
17,0.0,0.0,0.0,1.0,1.0,0.0,0.0,1.0,0.0,100.0,1.0,1.1856,26.0,0.0,0.0,0.0,59.999996,0.0,26.0,26.0,26.0,26.0,0.04677777777777781,0.2915000000000001,0.02986666666666667,294.647,-2.72075,-2.779,-1.5535999999999999,-1.59,-218.48,215.3125,190.639875,0.0,0.0,0.0,0.0,0.03486666666666667,-5.498166666666667,-5.498166666666667,-0.44110000000000005,0.11149999999999993,-0.006111111111111178,-1.143,67.907,0.0155,-0.0884,-0.11000000000000032,100.0,1.0,1.0,209.38333333333333,0.0,0.0,0.0,0.0,0.0,0.0,0.0,8875.0,0.0,55.0,5.0,244.43666666666667,1.0,0.0,0.0,0.0,0.0,0.0,1.0,0.0,0.8610000000000007,0.8610000000000007,0.0,0.0,1.0,55.0,616.79921,10000.0,85.000001,85.000001,85.000001,85.000001,395.0,0.0,0.0,0.0,1.0,166.665,57.938,57.938,46.951,46.951,34.0,-20.4875,21.596666666666664,-28.846666666666668,30.8875,0.0,1782.05,-0.24499999999999922,100.0,23.682,23.96,43.366,43.694,0.0,0.0,100.0,0.0,0.0,0.0,0.0,2697.0,2595.8,4266.444444444444,4219.4,306.71066666666667,306.31425,314.48075,314.3125,21.8893,20.5448,21.9009,21.4577,314.999998,314.999998,324.999988,324.999988,99.5585,99.50668333333333,99.56354285714286,99.54635714285715,0.07474999999999987,-0.02675000000000005,-0.09083333333333334,0.12566666666666668,-0.045000000000001705,-0.045000000000001705,1.4925000000000002,1.4809999999999999,37.808,29.404666666666664,37.881,35.111,55.55,34.3115,58.419,52.16133333333333,53.449,33.4945,57.022,50.52066666666666,52.564,33.0625,56.9075,49.94766666666666,-0.07450000000000001,-0.03849999999999998,0.102885,0.11315000000000001,0.0,212.64499999999998,212.64,209.38333333333333,209.38333333333333,0.0,0.0
18,0.0,0.0,0.0,1.0,1.0,0.0,0.0,1.0,0.0,100.0,1.0,1.1856,26.0,0.0,0.0,0.0,59.999996,0.0,26.0,26.0,26.0,26.0,0.0434444444444444,0.27100000000000013,0.004366666666666666,294.693,-2.71265,-2.807,-1.5392000000000001,-1.6005,-215.20999999999998,215.31,190.618625,0.0,0.0,0.0,0.0,0.03673333333333333,-5.498166666666667,-5.498166666666667,-0.4529,-0.3494999999999999,-0.004888888888888943,-0.649,68.043,0.0092,-0.09696,-0.11600000000000055,100.0,1.0,1.0,209.82,0.0,0.0,0.0,0.0,0.0,0.0,0.0,8893.5,0.0,55.0,5.0,244.92333333333335,0.0,0.0,0.0,0.0,0.0,0.0,1.0,0.0,0.9089999999999989,0.9089999999999989,0.0,0.0,0.0,55.0,616.79921,10000.0,85.000001,85.000001,85.000001,85.000001,395.0,0.0,0.0,0.0,1.0,166.665,57.892,57.892,47.272,47.272,34.0,-20.9375,22.153333333333332,-28.293333333333333,29.575,0.0,1782.001,-0.21499999999999986,100.0,23.681,23.831,43.497,43.817,0.0,0.0,100.0,0.0,0.0,0.0,0.0,2743.5,2621.7,4117.777777777777,4140.6,306.611,306.27625,314.80875,314.45825,21.8977,20.5492,21.9105,21.4663,314.999998,314.999998,324.999988,324.999988,99.55851428571428,99.50668333333333,99.56367142857142,99.5465,0.07100000000000017,-0.02200000000000002,-0.107,0.11066666666666668,-0.04833333333333201,-0.046666666666666856,1.4979999999999998,1.4905,37.86,29.432666666666666,37.941,35.164,55.531,34.341,58.4585,52.221000000000004,53.432,33.522,57.0595,50.578,52.546,33.088499999999996,56.942,50.00366666666667,-0.07850000000000001,-0.02849999999999997,0.10709,0.101275,0.0,213.04000000000002,213.03,209.82,209.82,0.0,0.0
19,0.0,0.0,0.0,1.0,1.0,0.0,0.0,1.0,0.0,100.0,1.0,1.1856,26.0,0.0,0.0,0.0,59.999996,0.0,26.0,26.0,26.0,26.0,0.041888888888888864,0.27680000000000016,-0.007233333333333333,294.388,-2.69355,-2.771375,-1.5382,-1.6172,-211.94,215.3075,190.59725,0.0,0.0,0.0,0.0,0.03866666666666667,-5.498166666666667,-5.498166666666667,-0.4415,0.5745,0.0043333333333333,-0.714,68.17699999999999,0.0063,-0.08370000000000001,-0.040000000000000036,100.0,1.0,1.0,210.23666666666668,0.0,0.0,0.0,0.0,0.0,0.0,0.0,8911.2,0.0,55.0,5.0,245.40666666666667,1.0,0.0,0.0,0.0,0.0,0.0,1.0,0.0,0.9570000000000007,0.9570000000000007,0.0,0.0,1.0,55.0,616.79921,10000.0,85.000001,85.000001,85.000001,85.000001,395.0,0.0,0.0,0.0,1.0,333.33500000000004,57.541,57.541,47.089,47.089,34.0,-21.072499999999998,21.3,-28.863333333333333,30.8225,0.0,1781.953,-0.1850000000000005,100.0,24.103,24.198999999999998,43.461,43.871,0.0,0.0,100.0,0.0,0.0,0.0,0.0,2744.0,2600.4,4210.777777777777,4216.6,306.57166666666666,306.31275,314.632,314.29725,21.9062,20.5539,21.920099999999998,21.4748,314.999998,314.999998,324.999988,324.999988,99.55851428571428,99.50668333333333,99.56381428571429,99.54664285714286,0.06475000000000009,-0.03499999999999992,-0.10350000000000001,0.117,-0.04833333333333201,-0.04333333333332945,1.4859999999999998,1.4805000000000001,37.914,29.461666666666666,38.0,35.2175,55.513999999999996,34.373,58.4975,52.28,53.416,33.5515,57.0955,50.63466666666667,52.528999999999996,33.117,56.975,50.059333333333335,-0.07050000000000001,-0.040999999999999925,0.10501500000000001,0.11062000000000001,0.0,213.49,213.47500000000002,210.23666666666668,210.23666666666668,0.0,0.0
20,0.0,0.0,0.0,1.0,1.0,0.0,0.0,1.0,0.0,100.0,1.0,1.1856,26.0,0.0,0.0,0.0,59.999996,0.0,26.0,26.0,26.0,26.0,0.02444444444444427,0.2772000000000001,-0.0236,294.51,-2.7591,-2.726,-1.6123,-1.6001,-208.45999999999998,215.305,190.574875,0.0,0.0,0.0,0.0,0.04066666666666667,-5.498166666666667,-5.498166666666667,-0.4446,-0.6719999999999999,0.008333333333333304,0.5779999999999998,68.32,0.0023,-0.09314,-0.05799999999999983,100.0,1.0,1.0,210.64666666666668,0.0,0.0,0.0,0.0,0.0,0.0,0.0,8928.6,0.0,55.0,5.0,245.92333333333335,0.0,0.0,0.0,0.0,0.0,0.0,0.0,0.0,1.0079999999999991,1.0079999999999991,0.0,0.0,0.0,55.0,616.79921,10000.0,85.000001,85.000001,85.000001,85.000001,395.0,0.0,0.0,0.0,1.0,333.33500000000004,57.922,57.922,46.646,46.646,34.0,-20.419999999999998,22.218333333333334,-29.599999999999998,29.7625,0.0,1781.902,-0.17499999999999893,100.0,23.87,23.755,44.04,44.147000000000006,0.0,0.0,100.0,0.0,0.0,0.0,0.0,2612.75,2747.0,4183.666666666667,4121.4,306.85366666666664,306.182,314.68325,314.594,21.915,20.5586,21.9304,21.484,314.999998,314.999998,324.999988,324.999988,99.55852857142857,99.50668333333333,99.56397142857143,99.54677142857143,0.0677500000000002,-0.027499999999999858,-0.10250000000000001,0.1205,-0.030000000000001137,-0.07166666666666544,1.4985,1.5030000000000001,37.969,29.491666666666667,38.065,35.275,55.492999999999995,34.405,58.5415,52.34466666666667,53.396,33.5815,57.137,50.696666666666665,52.509,33.1455,57.0135,50.12,-0.0665,-0.040999999999999925,0.10569,0.10472000000000001,0.0,213.87,213.89,210.64666666666668,210.64666666666668,0.0,0.0
21,0.0,0.0,0.0,1.0,1.0,0.0,0.0,1.0,0.0,100.0,1.0,1.1856,26.0,0.0,0.0,0.0,59.999996,0.0,26.0,26.0,26.0,26.0,-0.005111111111111066,0.28100000000000014,-0.04486666666666667,294.647,-2.77205,-2.70025,-1.5706,-1.5438,-205.18,215.3025,190.55325,0.0,0.0,0.0,0.0,0.04256666666666667,-5.498166666666667,-5.498166666666667,-0.46240000000000003,0.015499999999999958,-0.0023333333333335204,0.5340000000000003,68.452,-0.0001,-0.09114,-0.03799999999999937,100.0,1.0,1.0,211.14,0.0,0.0,0.0,0.0,0.0,0.0,0.0,8949.4,0.0,55.0,5.0,246.4,1.0,0.0,0.0,0.0,0.0,0.0,0.0,0.0,1.056000000000001,1.056000000000001,0.0,0.0,1.0,55.0,616.79921,10000.0,85.000001,85.000001,85.000001,85.000001,395.0,0.0,0.0,0.0,1.0,333.33500000000004,57.755,57.755,47.287,47.287,34.0,-21.855,22.73,-27.783333333333335,28.3225,0.0,1781.854,-0.1999999999999993,100.0,23.889,23.6025,43.726,43.778999999999996,0.0,0.0,100.0,0.0,0.0,0.0,0.0,2732.125,2799.7,4074.0,4119.5,306.509,306.03575,314.934,314.70475,21.9233,20.5632,21.9399,21.4924,314.999998,314.999998,324.999988,324.999988,99.55852857142857,99.5067,99.5641,99.54691428571428,0.06099999999999994,-0.020999999999999908,-0.09916666666666667,0.11483333333333333,-0.051666666666669414,-0.05666666666667197,1.5394999999999999,1.5564999999999998,38.021,29.519666666666666,38.124,35.3275,55.474999999999994,34.4355,58.579,52.401666666666664,53.378,33.6095,57.172,50.751666666666665,52.491,33.1725,57.045500000000004,50.17366666666666,-0.0655,-0.034499999999999975,0.10483,0.10844500000000001,0.0,214.315,214.315,211.14,211.14,0.0,0.0
22,0.0,0.0,0.0,1.0,1.0,0.0,0.0,1.0,0.0,100.0,1.0,1.1856,26.0,0.0,0.0,0.0,59.999996,0.0,26.0,26.0,26.0,26.0,0.0016666666666667052,0.28710000000000013,0.03026666666666667,294.113,-2.81395,-2.730125,-1.5789,-1.6016,-201.48000000000002,215.3,190.528125,0.0,0.0,0.0,0.0,0.04473333333333333,-5.498166666666667,-5.498166666666667,-0.4474,0.0050000000000000044,0.005777777777777882,1.0230000000000001,68.604,-0.001,-0.07002000000000001,-0.14200000000000035,100.0,1.0,1.0,211.43666666666667,0.0,0.0,0.0,0.0,0.0,0.0,0.0,8962.1,0.0,55.0,5.0,246.94666666666666,0.0,0.0,0.0,0.0,0.0,0.0,0.0,0.0,1.1099999999999994,1.1099999999999994,0.0,0.0,0.0,55.0,616.79921,10000.0,85.000001,85.000001,85.000001,85.000001,395.0,0.0,0.0,0.0,1.0,166.665,57.647999999999996,57.647999999999996,46.417,46.417,34.0,-21.6725,22.673333333333332,-30.32333333333333,32.3825,0.0,1781.802,-0.28500000000000014,100.0,23.99,23.712,43.934,43.882,0.0,0.0,100.0,0.0,0.0,0.0,0.0,2730.0,2802.2,4317.666666666667,4472.1,306.56,306.02625,314.3325,313.81425,21.9328,20.5683,21.9507,21.5021,314.999998,314.999998,324.999988,324.999988,99.55854285714285,99.5067,99.56425714285714,99.54707142857143,0.07299999999999995,-0.029749999999999943,-0.09933333333333333,0.10966666666666668,-0.03499999999999659,-0.05333333333332746,1.4575,1.4545,38.08,29.552,38.192,35.388,55.454,34.4705,58.625,52.468666666666664,53.358999999999995,33.6415,57.2145,50.816,52.471000000000004,33.203,57.085,50.236666666666665,-0.07999999999999996,-0.03299999999999992,0.09958,0.10713,0.0,214.775,214.79000000000002,211.43666666666667,211.43666666666667,0.0,0.0
23,0.0,0.0,0.0,1.0,1.0,0.0,0.0,1.0,0.0,100.0,1.0,1.1856,26.0,0.0,0.0,0.0,59.999996,0.0,26.0,26.0,26.0,26.0,-0.0032222222222221264,0.2901,0.019866666666666668,294.128,-2.7149,-2.7545,-1.6437,-1.5516,-198.18,215.3,190.506,0.0,0.0,0.0,0.0,0.04666666666666667,-5.498166666666667,-5.498166666666667,-0.46090000000000003,-0.26900000000000013,0.004222222222222127,0.645,68.736,0.0001,-0.09102,-0.19399999999999995,100.0,1.0,1.0,211.89,0.0,0.0,0.0,0.0,0.0,0.0,0.0,8981.3,0.0,55.0,5.0,247.42000000000002,1.0,0.0,0.0,0.0,0.0,0.0,0.0,0.0,1.1580000000000013,1.1580000000000013,0.0,0.0,1.0,55.0,616.79921,10000.0,85.000001,85.000001,85.000001,85.000001,395.0,0.0,0.0,0.0,1.0,333.33500000000004,57.51,57.51,46.585,46.585,34.0,-21.162499999999998,22.276666666666667,-31.06,30.5025,0.0,1781.752,-0.27500000000000036,100.0,24.179,23.858,44.074,44.101,0.0,0.0,100.0,0.0,0.0,0.0,0.0,2725.625,2747.3,4291.888888888889,4296.6,306.4476666666667,306.1115,314.42975,314.2775,21.9411,20.5729,21.9603,21.5107,314.999998,314.999998,324.999988,324.999988,99.55854285714285,99.5067,99.56438571428572,99.54721428571429,0.06899999999999995,-0.03475000000000006,-0.10433333333333333,0.12016666666666667,-0.041666666666671404,-0.051666666666669414,1.5055,1.4935,38.132,29.580666666666666,38.251999999999995,35.442,55.436,34.5015,58.665,52.528666666666666,53.342,33.670500000000004,57.251999999999995,50.873333333333335,52.453,33.231,57.1195,50.29266666666666,-0.07450000000000001,-0.040999999999999925,0.10981,0.10441,0.0,215.175,215.18,211.89,211.89,0.0,0.0
24,0.0,0.0,0.0,1.0,1.0,0.0,0.0,1.0,0.0,100.0,1.0,1.1856,26.0,0.0,0.0,0.0,59.999996,0.0,26.0,26.0,26.0,26.0,0.02100000000000013,0.2741,-0.055900000000000005,294.617,-2.7659,-2.753125,-1.5533000000000001,-1.5692,-194.67000000000002,215.2975,190.481875,0.0,0.0,0.0,0.0,0.0487,-5.498166666666667,-5.498166666666667,-0.4757,-0.369,0.009777777777777885,-0.21299999999999986,68.876,0.0024000000000000002,-0.08912,-0.10599999999999987,100.0,1.0,1.0,212.36333333333334,0.0,0.0,0.0,0.0,0.0,0.0,0.0,9001.4,0.0,55.0,5.0,247.92333333333335,0.0,0.0,0.0,0.0,0.0,0.0,0.0,0.0,1.2089999999999996,1.2089999999999996,0.0,0.0,0.0,55.0,616.79921,10000.0,85.000001,85.000001,85.000001,85.000001,395.0,0.0,0.0,0.0,1.0,166.665,58.197,58.197,46.86,46.86,34.0,-20.794999999999998,20.72,-29.16333333333333,28.925,0.0,1781.703,-0.27999999999999936,100.0,23.792,23.761,43.919,44.076,0.0,0.0,100.0,0.0,0.0,0.0,0.0,2652.625,2572.6,4176.888888888889,4146.0,306.912,306.515,314.69775,314.55975,21.9498,20.5777,21.9705,21.5199,314.999998,314.999998,324.999988,324.999988,99.55855714285714,99.50671666666666,99.56454285714285,99.54735714285714,0.06349999999999989,-0.03699999999999992,-0.11183333333333333,0.10783333333333334,-0.04833333333333201,-0.026666666666670835,1.5150000000000001,1.4929999999999999,38.187,29.610333333333333,38.316,35.499,55.416,34.533,58.706,52.59,53.323,33.6995,57.2905,50.93233333333333,52.433,33.2585,57.155,50.35033333333333,-0.08099999999999996,-0.03400000000000003,0.10224000000000001,0.110365,0.0,215.61,215.60500000000002,212.36333333333334,212.36333333333334,0.0,0.0
25,0.0,0.0,0.0,1.0,1.0,0.0,0.0,1.0,0.0,100.0,1.0,1.1856,26.0,0.0,0.0,0.0,59.999996,0.0,26.0,26.0,26.0,26.0,0.033333333333333215,0.2881,-0.021400000000000002,294.296,-2.74145,-2.726125,-1.5952000000000002,-1.5662,-191.37,215.2975,190.458125,0.0,0.0,0.0,0.0,0.0506,-5.498166666666667,-5.498166666666667,-0.4884,0.16549999999999998,0.015444444444444372,-0.875,69.007,0.003,-0.08248,-0.14999999999999947,100.0,1.0,1.0,212.79000000000002,0.0,0.0,0.0,0.0,0.0,0.0,0.0,9019.3,0.0,55.0,5.0,248.39333333333335,1.0,0.0,0.0,0.0,0.0,0.0,0.0,0.0,1.256999999999998,1.256999999999998,0.0,0.0,1.0,55.0,616.79921,10000.0,85.000001,85.000001,85.000001,85.000001,395.0,0.0,0.0,0.0,1.0,333.33500000000004,57.343,57.343,46.967,46.967,34.0,-22.355,23.241666666666667,-29.08,29.45,0.0,1781.653,-0.3249999999999993,100.0,23.787,23.9755,43.727000000000004,43.928,0.0,0.0,100.0,0.0,0.0,0.0,0.0,2868.375,2822.8,4151.444444444444,4169.9,306.21733333333333,305.72875,314.84125,314.506,21.9581,20.5823,21.98,21.5284,314.999998,314.999998,324.999988,324.999988,99.55855714285714,99.50671666666666,99.56467142857143,99.5475,0.07125000000000004,-0.026999999999999913,-0.106,0.11783333333333333,-0.046666666666666856,-0.07499999999999574,1.5255,1.5299999999999998,38.238,29.639333333333333,38.375,35.5525,55.396,34.564499999999995,58.7435,52.647666666666666,53.305,33.7285,57.3255,50.988,52.415,33.286500000000004,57.1875,50.404333333333334,-0.08050000000000002,-0.03550000000000009,0.10753000000000001,0.10589000000000001,0.0,216.025,216.025,212.79000000000002,212.79000000000002,0.0,0.0
26,0.0,0.0,0.0,1.0,1.0,0.0,0.0,1.0,0.0,100.0,1.0,1.1856,26.0,0.0,0.0,0.0,59.999996,0.0,26.0,26.0,26.0,26.0,0.01766666666666672,0.2772000000000001,0.0661,293.503,-2.75985,-2.7265,-1.5574,-1.5706,-187.84,215.2975,190.4325,0.0,0.0,0.0,0.0,0.05266666666666667,-5.498166666666667,-5.498166666666667,-0.4605,0.244,0.004888888888888943,0.9510000000000001,69.148,0.006900000000000001,-0.06606000000000001,-0.24399999999999977,100.0,1.0,1.0,213.0366666666667,0.0,0.0,0.0,0.0,0.0,0.0,0.0,9029.8,0.0,55.0,5.0,248.90333333333334,0.0,0.0,0.0,0.0,0.0,0.0,0.0,0.0,1.3079999999999998,1.3079999999999998,0.0,0.0,0.0,55.0,616.79921,10000.0,85.000001,85.000001,85.000001,85.000001,395.0,0.0,0.0,0.0,1.0,166.665,57.19,57.19,45.868,45.868,34.0,-21.349999999999998,22.63,-31.14333333333333,33.697500000000005,0.0,1781.603,-0.3100000000000005,100.0,24.568,24.179,44.337,44.358000000000004,0.0,0.0,100.0,0.0,0.0,0.0,0.0,2769.375,2762.0,4460.222222222223,4540.0,306.4053333333333,306.1915,313.96675,313.63125,21.967,20.5873,21.9904,21.5377,314.999998,314.999998,324.999988,324.999988,99.55857142857143,99.50671666666666,99.56482857142858,99.54764285714286,0.08174999999999999,-0.01849999999999996,-0.09483333333333333,0.12483333333333334,-0.045000000000001705,-0.05833333333333002,1.4285,1.4005,38.294,29.670666666666666,38.44,35.6105,55.379000000000005,34.5985,58.7875,52.71233333333333,53.288,33.7595,57.3665,51.05,52.397999999999996,33.3165,57.2255,50.465333333333334,-0.08350000000000002,-0.030000000000000027,0.10553000000000001,0.10953500000000001,0.0,216.485,216.485,213.0366666666667,213.0366666666667,0.0,0.0
27,0.0,0.0,0.0,1.0,1.0,0.0,0.0,1.0,0.0,100.0,1.0,1.1856,26.0,0.0,0.0,0.0,59.999996,0.0,26.0,26.0,26.0,26.0,0.02677777777777779,0.27180000000000004,-0.02996666666666667,293.976,-2.81705,-2.729125,-1.6238000000000001,-1.5453999999999999,-184.31,215.2975,190.408,0.0,0.0,0.0,0.0,0.054700000000000006,-5.498166666666667,-5.498166666666667,-0.48510000000000003,-0.7265000000000001,0.016999999999999904,-0.492,69.28399999999999,0.0086,-0.10138,-0.20399999999999974,100.0,1.0,1.0,213.58666666666667,0.0,0.0,0.0,0.0,0.0,0.0,0.0,9053.2,0.0,55.0,5.0,249.39666666666665,1.0,0.0,0.0,0.0,0.0,0.0,0.0,0.0,1.3589999999999982,1.3589999999999982,0.0,0.0,1.0,55.0,616.79921,10000.0,85.000001,85.000001,85.000001,85.000001,395.0,0.0,0.0,0.0,1.0,166.665,57.465,57.465,46.097,46.097,34.0,-21.775,22.208333333333336,-29.25,29.29,0.0,1781.551,-0.33000000000000007,100.0,24.043,24.3175,44.594,44.728,0.0,0.0,100.0,0.0,0.0,0.0,0.0,2762.875,2708.5,4129.0,4181.7,306.643,306.0785,314.766,314.5045,21.9757,20.5922,22.0007,21.547,314.999998,314.999998,324.999988,324.999988,99.55857142857143,99.50671666666666,99.56497142857143,99.5478,0.07350000000000012,-0.026499999999999968,-0.10016666666666667,0.11583333333333333,-0.05666666666667197,-0.046666666666666856,1.5059999999999998,1.4985,38.348,29.701333333333334,38.504,35.6685,55.36,34.631,58.8305,52.775666666666666,53.269999999999996,33.79,57.407,51.11066666666667,52.379000000000005,33.3455,57.2625,50.52466666666667,-0.08399999999999996,-0.030999999999999917,0.10634500000000001,0.10627,0.0,216.86,216.87,213.58666666666667,213.58666666666667,0.0,0.0
28,0.0,0.0,0.0,1.0,1.0,0.0,0.0,1.0,0.0,100.0,1.0,1.1856,26.0,0.0,0.0,0.0,59.999996,0.0,26.0,26.0,26.0,26.0,0.016000000000000014,0.2861,-0.03323333333333333,294.052,-2.7423,-2.72225,-1.6326,-1.5805,-180.78,215.2975,190.382375,0.0,0.0,0.0,0.0,0.05676666666666667,-5.498166666666667,-5.498166666666667,-0.4838,0.49849999999999994,0.002555555555555644,0.27200000000000024,69.42099999999999,0.0088,-0.07318,-0.2999999999999998,100.0,1.0,1.0,214.02666666666667,0.0,0.0,0.0,0.0,0.0,0.0,0.0,9071.8,0.0,55.0,5.0,249.88666666666666,0.0,0.0,0.0,0.0,0.0,0.0,0.0,0.0,1.4100000000000001,1.4100000000000001,0.0,0.0,0.0,55.0,616.79921,10000.0,85.000001,85.000001,85.000001,85.000001,395.0,0.0,0.0,0.0,1.0,166.665,57.632,57.632,46.158,46.158,34.0,-19.4425,22.768333333333334,-29.816666666666666,31.27,0.0,1781.501,-0.3550000000000004,100.0,24.23,24.1375,44.196,44.331,0.0,0.0,100.0,0.0,0.0,0.0,0.0,2585.375,2758.4,4298.111111111111,4251.8,306.88,306.085,314.49525,314.41975,21.9844,20.5972,22.0107,21.556,314.999998,314.999998,324.999988,324.999988,99.5586,99.50673333333333,99.56511428571429,99.54794285714286,0.08824999999999994,-0.016999999999999904,-0.08616666666666667,0.136,-0.051666666666669414,-0.04999999999999716,1.524,1.5095,38.403,29.732666666666667,38.567,35.7255,55.34,34.664500000000004,58.869,52.836333333333336,53.251999999999995,33.821,57.443,51.169333333333334,52.36,33.375,57.295500000000004,50.58166666666666,-0.08499999999999996,-0.026000000000000023,0.101235,0.11288000000000001,0.0,217.32,217.325,214.02666666666667,214.02666666666667,0.0,0.0
29,0.0,0.0,0.0,1.0,1.0,0.0,0.0,1.0,0.0,100.0,1.0,1.1856,26.0,0.0,0.0,0.0,59.999996,0.0,26.0,26.0,26.0,26.0,0.029444444444444384,0.2674000000000001,-0.023533333333333337,293.93,-2.80795,-2.6546250000000002,-1.6071,-1.5631,-177.44,215.3,190.3575,0.0,0.0,0.0,0.0,0.0587,-5.498166666666667,-5.498166666666667,-0.4899,-0.7215,-0.003444444444444361,0.786,69.55199999999999,0.008700000000000001,-0.07524,-0.30799999999999983,100.0,1.0,1.0,214.32999999999998,0.0,0.0,0.0,0.0,0.0,0.0,0.0,9084.7,0.0,55.0,5.0,250.35666666666668,1.0,0.0,0.0,0.0,0.0,0.0,0.0,0.0,1.4579999999999984,1.4579999999999984,0.0,0.0,1.0,55.0,616.79921,10000.0,85.000001,85.000001,85.000001,85.000001,395.0,0.0,0.0,0.0,1.0,166.665,57.831,57.831,46.066,46.066,34.0,-20.945,22.578333333333333,-29.71666666666667,32.075,0.0,1781.453,-0.4450000000000003,100.0,23.961,23.869,44.594,44.615,0.0,0.0,100.0,0.0,0.0,0.0,0.0,2724.375,2798.7,4230.111111111111,4375.4,306.7316666666667,306.24375,314.53725,314.064,21.9925,20.6018,22.0205,21.564799999999998,314.999998,314.999998,324.999988,324.999988,99.5586,99.50673333333333,99.56525714285715,99.54808571428572,0.08599999999999985,-0.008750000000000036,-0.09366666666666668,0.129,-0.036666666666668846,-0.04999999999999716,1.4649999999999999,1.4545,38.453,29.761,38.628,35.78,55.322,34.694,58.91,52.89633333333333,53.233999999999995,33.848,57.4815,51.227000000000004,52.342,33.400999999999996,57.331,50.63766666666667,-0.08699999999999997,-0.019000000000000128,0.110185,0.112115,0.0,217.7,217.695,214.32999999999998,214.32999999999998,0.0,0.0
30,0.0,0.0,0.0,1.0,1.0,0.0,0.0,1.0,0.0,100.0,1.0,1.1856,26.0,0.0,0.0,0.0,59.999996,0.0,26.0,26.0,26.0,26.0,0.011888888888888838,0.2876000000000001,0.0378,293.198,-2.7867,-2.712625,-1.6575000000000002,-1.4794,-173.89,215.3025,190.331125,0.0,0.0,0.0,0.0,0.06076666666666666,-5.498166666666667,-5.498166666666667,-0.48800000000000004,0.9045,-0.0011111111111112848,-0.361,69.687,0.011600000000000001,-0.07544000000000001,-0.31599999999999984,100.0,1.0,1.0,214.79333333333335,0.0,0.0,0.0,0.0,0.0,0.0,0.0,9104.3,0.0,55.0,5.0,250.84,0.0,0.0,0.0,0.0,0.0,0.0,1.0,0.0,1.5090000000000003,1.5090000000000003,0.0,0.0,0.0,55.0,616.79921,10000.0,85.000001,85.000001,85.000001,85.000001,395.0,0.0,0.0,0.0,1.0,166.665,56.305,56.305,45.897999999999996,45.897999999999996,34.0,-22.5625,23.605,-32.21,30.2875,0.0,1781.403,-0.504999999999999,100.0,24.783,24.7665,44.262,44.628,0.0,0.0,100.0,0.0,0.0,0.0,0.0,2933.625,2836.0,4440.444444444444,4389.4,305.9626666666667,305.56575,314.2505,314.14375,22.0015,20.6069,22.0306,21.573999999999998,314.999998,314.999998,324.999988,324.999988,99.55861428571428,99.50673333333333,99.56541428571428,99.54822857142857,0.09324999999999983,-0.02224999999999988,-0.10083333333333333,0.12133333333333333,-0.04833333333333201,-0.06333333333333258,1.4985,1.4785,38.509,29.793333333333333,38.691,35.8375,55.306,34.729,58.9505,52.958,53.219,33.8805,57.519,51.286,52.327,33.432,57.3655,50.69566666666667,-0.09999999999999998,-0.02100000000000013,0.10783000000000001,0.10178000000000001,0.0,218.14499999999998,218.16,214.79333333333335,214.79333333333335,0.0,0.0
31,0.0,0.0,0.0,1.0,1.0,0.0,0.0,1.0,0.0,100.0,1.0,1.1856,26.0,0.0,0.0,0.0,59.999996,0.0,26.0,26.0,26.0,26.0,0.03499999999999992,0.26439999999999997,0.09013333333333334,292.862,-2.7641999999999998,-2.6885000000000003,-1.6532,-1.5519,-170.54,215.305,190.30675,0.0,0.0,0.0,0.0,0.06273333333333334,-5.498166666666667,-5.498166666666667,-0.4706,-0.349,0.011777777777777887,-0.587,69.81700000000001,0.0196,-0.07842,-0.4059999999999997,100.0,1.0,1.0,215.0366666666667,0.0,0.0,0.0,0.0,0.0,0.0,0.0,9114.6,0.0,55.0,5.0,251.31333333333333,1.0,0.0,0.0,0.0,0.0,0.0,1.0,0.0,1.5569999999999986,1.5569999999999986,0.0,0.0,1.0,55.0,616.79921,10000.0,85.000001,85.000001,85.000001,85.000001,395.0,0.0,0.0,0.0,1.0,166.665,56.671,56.671,44.739,44.739,34.0,-20.9575,23.641666666666666,-32.36666666666667,32.42,0.0,1781.355,-0.4299999999999997,100.0,24.576,24.903,45.03,45.373000000000005,0.0,0.0,100.0,0.0,0.0,0.0,0.0,2769.5,2870.7,4451.777777777777,4456.8,306.505,305.66225,314.02025,313.715,22.0097,20.6117,22.040399999999998,21.5829,314.999998,314.999998,324.999988,324.999988,99.55862857142857,99.50675,99.56555714285714,99.54837142857143,0.09074999999999989,-0.01849999999999996,-0.09066666666666667,0.11766666666666667,-0.030000000000001137,-0.041666666666671404,1.4140000000000001,1.4129999999999998,38.561,29.823,38.753,35.893,55.289,34.760999999999996,58.993,53.02033333333333,53.203,33.91,57.559,51.346000000000004,52.31,33.460499999999996,57.402,50.754,-0.09699999999999998,-0.02200000000000002,0.108215,0.09917000000000001,0.0,218.495,218.53,215.0366666666667,215.0366666666667,0.0,0.0
32,0.0,0.0,0.0,1.0,1.0,0.0,0.0,1.0,0.0,100.0,1.0,1.1856,26.0,0.0,0.0,0.0,59.999996,0.0,26.0,26.0,26.0,26.0,0.0564444444444443,0.2754000000000001,-0.04373333333333333,293.579,-2.75385,-2.7513750000000003,-1.5918,-1.6332,-166.98000000000002,215.31,190.281375,0.0,0.0,0.0,0.0,0.0648,-5.498166666666667,-5.498166666666667,-0.49210000000000004,-0.31499999999999995,-0.007444444444444365,0.22599999999999998,69.949,0.0257,-0.09416000000000001,-0.4220000000000006,100.0,1.0,1.0,215.60333333333335,0.0,0.0,0.0,0.0,0.0,0.0,0.0,9138.7,0.0,55.0,5.0,251.79000000000002,0.0,0.0,0.0,0.0,0.0,0.0,1.0,0.0,1.6080000000000005,1.6080000000000005,0.0,0.0,0.0,55.0,616.79921,10000.0,85.000001,85.000001,85.000001,85.000001,395.0,0.0,0.0,0.0,1.0,166.665,57.236,57.236,45.944,45.944,34.0,-19.572499999999998,23.485,-27.056666666666665,33.565,0.0,1781.303,-0.3699999999999992,100.0,24.536,24.5645,44.903999999999996,45.094,0.0,0.0,100.0,0.0,0.0,0.0,0.0,2641.0,2749.7,4104.555555555556,4295.1,306.77133333333336,306.12975,314.83325,314.2375,22.0184,20.6167,22.0506,21.5922,314.999998,314.999998,324.999988,324.999988,99.55862857142857,99.50675,99.5657,99.54852857142858,0.09949999999999992,-0.00024999999999986144,-0.06883333333333333,0.153,-0.04833333333333201,-0.046666666666666856,1.4929999999999999,1.4865,38.614999999999995,29.854333333333333,38.816,35.951,55.269999999999996,34.794,59.0325,53.08266666666667,53.185,33.9405,57.596000000000004,51.406,52.292,33.4895,57.436,50.812666666666665,-0.08650000000000002,-0.02400000000000002,0.10793000000000001,0.10633000000000001,0.0,218.925,218.935,215.60333333333335,215.60333333333335,0.0,0.0
33,0.0,0.0,0.0,1.0,1.0,0.0,0.0,1.0,0.0,100.0,1.0,1.1856,26.0,0.0,0.0,0.0,59.999996,0.0,26.0,26.0,26.0,26.0,0.04577777777777792,0.27290000000000014,-0.05623333333333334,293.823,-2.7724,-2.715625,-1.6617000000000002,-1.5921,-163.41,215.315,190.254625,0.0,0.0,0.0,0.0,0.06686666666666667,-5.498166666666667,-5.498166666666667,-0.5008,-0.20750000000000002,-0.00855555555555565,-0.129,70.083,0.0228,-0.07302,-0.2759999999999998,100.0,1.0,1.0,216.03333333333333,0.0,0.0,0.0,0.0,0.0,0.0,0.0,9156.8,0.0,55.0,5.0,252.26999999999998,1.0,0.0,0.0,0.0,0.0,0.0,1.0,0.0,1.658999999999999,1.658999999999999,0.0,0.0,1.0,55.0,616.79921,10000.0,85.000001,85.000001,85.000001,85.000001,395.0,0.0,0.0,0.0,1.0,166.665,57.525999999999996,57.525999999999996,46.204,46.204,34.0,-20.485,21.953333333333333,-29.78333333333333,31.0725,0.0,1781.252,-0.48499999999999943,100.0,24.199,24.395,44.595,44.907,0.0,0.0,100.0,0.0,0.0,0.0,0.0,2742.375,2649.7,4208.444444444444,4231.3,306.6716666666667,306.396,314.762,314.367,22.027,20.6216,22.0607,21.6013,314.999998,314.999998,324.999988,324.999988,99.55864285714286,99.50675,99.56584285714285,99.54868571428571,0.09600000000000009,-0.010499999999999954,-0.09133333333333334,0.1275,-0.041666666666671404,-0.05833333333333002,1.5070000000000001,1.495,38.668,29.884666666666668,38.879999999999995,36.007999999999996,55.251999999999995,34.825,59.0725,53.14333333333333,53.168,33.969,57.632999999999996,51.464333333333336,52.272999999999996,33.516999999999996,57.4695,50.86933333333333,-0.09399999999999997,-0.020000000000000018,0.10681500000000001,0.10539000000000001,0.0,219.34,219.35000000000002,216.03333333333336,216.03333333333333,0.0,0.0
34,0.0,0.0,0.0,1.0,1.0,0.0,0.0,1.0,0.0,100.0,1.0,1.1856,26.0,0.0,0.0,0.0,59.999996,0.0,26.0,26.0,26.0,26.0,0.035222222222222266,0.25870000000000015,-0.08536666666666666,294.037,-2.7252,-2.7502500000000003,-1.6317,-1.5348000000000002,-159.82999999999998,215.3225,190.2265,0.0,0.0,0.0,0.0,0.06893333333333335,-5.498166666666667,-5.498166666666667,-0.5302,-0.9355,0.013555555555555543,0.8810000000000002,70.218,0.0239,-0.08094,-0.41999999999999993,100.0,1.0,1.0,216.39,0.0,0.0,0.0,0.0,0.0,0.0,0.0,9172.0,0.0,55.0,5.0,252.75666666666666,0.0,0.0,0.0,0.0,0.0,0.0,1.0,0.0,1.7100000000000009,1.7100000000000009,0.0,0.0,0.0,55.0,616.79921,10000.0,85.000001,85.000001,85.000001,85.000001,395.0,0.0,0.0,0.0,1.0,166.665,58.06,58.06,46.249,46.249,34.0,-18.445,22.701666666666668,-28.78,31.745,0.0,1781.202,-0.46999999999999886,100.0,23.989,23.9735,44.524,44.924,0.0,0.0,100.0,0.0,0.0,0.0,0.0,2561.875,2689.2,4175.222222222223,4342.3,307.07733333333334,306.42,314.72575,314.19175,22.0354,20.6264,22.0709,21.610599999999998,314.999998,314.999998,324.999988,324.999988,99.55865714285714,99.50675,99.566,99.54882857142857,0.10400000000000009,-0.0015000000000000568,-0.08133333333333333,0.13833333333333334,-0.036666666666668846,-0.04833333333333201,1.4925000000000002,1.4815,38.721000000000004,29.915,38.943,36.066,55.232,34.855000000000004,59.112,53.20633333333333,53.149,33.9965,57.67,51.525,52.254000000000005,33.5435,57.5035,50.928666666666665,-0.09250000000000003,-0.01849999999999996,0.105825,0.105895,0.0,219.72500000000002,219.74,216.39,216.39,0.0,0.0
35,0.0,0.0,0.0,1.0,1.0,0.0,0.0,1.0,0.0,100.0,1.0,1.1856,26.0,0.0,0.0,0.0,59.999996,0.0,26.0,26.0,26.0,26.0,0.038555555555555676,0.2679,-0.07226666666666666,293.945,-2.859,-2.72275,-1.5455,-1.5923,-156.45,215.32999999999998,190.19825,0.0,0.0,0.0,0.0,0.0709,-5.498166666666667,-5.498166666666667,-0.5608000000000001,0.0595,-0.004999999999999893,-0.17100000000000004,70.34100000000001,0.024800000000000003,-0.08258,-0.35799999999999965,100.0,1.0,1.0,216.87,0.0,0.0,0.0,0.0,0.0,0.0,0.0,9192.4,0.0,55.0,5.0,253.2,1.0,0.0,0.0,0.0,0.0,0.0,1.0,0.0,1.7579999999999991,1.7579999999999991,0.0,0.0,1.0,55.0,616.79921,10000.0,85.000001,85.000001,85.000001,85.000001,395.0,0.0,0.0,0.0,1.0,333.33500000000004,57.358,57.358,46.051,46.051,34.0,-20.7675,24.906666666666666,-27.013333333333335,30.7325,0.0,1781.152,-0.28999999999999915,100.0,23.91,24.34,44.284,44.504999999999995,0.0,0.0,100.0,0.0,0.0,0.0,0.0,2674.125,2947.9,4152.333333333333,4145.9,306.70466666666664,305.52725,314.83975,314.73175,22.0434,20.6312,22.0804,21.6191,314.999998,314.999998,324.999988,324.999988,99.55865714285714,99.50675,99.56614285714285,99.54897142857143,0.09600000000000009,-0.008999999999999897,-0.08,0.14250000000000002,-0.054999999999999716,-0.051666666666669414,1.5474999999999999,1.525,38.771,29.945,39.001999999999995,36.1195,55.212,34.887,59.147999999999996,53.26133333333333,53.131,34.0265,57.7035,51.577666666666666,52.235,33.572,57.534,50.980333333333334,-0.07999999999999996,-0.038999999999999924,0.10813500000000001,0.110075,0.0,220.14,220.175,216.87,216.87,0.0,0.0
