,ABS Active,ABS Enabled,AID Allow Tire Blankets,AID Auto Blip,AID Auto Clutch,AID Auto Shift,AID Fuel Rate,AID Ideal Line,AID Mech Damage,AID Stability,AID Tire Wear Rate,Air Density,Air Temp,Ballast,Best Lap Delta,Best Lap Time,Brake Bias,Brake Pos,Brake Temp FL,Brake Temp FR,Brake Temp RL,Brake Temp RR,CG Accel Lateral,CG Accel Longitudinal,CG Accel Vertical,CG Height,Camber FL,Camber FR,Camber RL,Camber RR,Car Coord X,Car Coord Y,Car Coord Z,Car Damage Front,Car Damage Left,Car Damage Rear,Car Damage Right,Car Pos Norm,Caster FL,Caster FR,Chassis Pitch Angle,Chassis Pitch Rate,Chassis Roll Angle,Chassis Roll Rate,Chassis Velocity X,Chassis Velocity Y,Chassis Velocity Z,Chassis Yaw Rate,Clutch Pos,DRS Active,DRS Available,Drive Train Speed,ERS Heat Charging,ERS Is Charging,ERS Max Energy,ERS Power Level,ERS Recovery Level,Engine Brake Setting,Engine Limiter,Engine RPM,Flags,Fuel Level,Gear,Ground Speed,HR Sample Clock,In Pit,KERS Charge,KERS Deployed Energy,KERS Input,KERS Max Energy,LR Sample Clock,Lap Invalidated,Lap Time,Lap Time2,Last Lap Time,Last Sector Time,MR Sample Clock,Max Fuel,Max Power,Max RPM,Max Sus Travel FL,Max Sus Travel FR,Max Sus Travel RL,Max Sus Travel RR,Max Torque,Max Turbo Boost,Num Tires Off Track,Penalties Enabled,Position,Raw Data Sample Rate,Ride Height FL,Ride Height FR,Ride Height RL,Ride Height RR,Road Temp,Self Align Torque FL,Self Align Torque FR,Self Align Torque RL,Self Align Torque RR,Session Lap Count,Session Time Left,Steering Angle,Surface Grip,Suspension Travel FL,Suspension Travel FR,Suspension Travel RL,Suspension Travel RR,TC Active,TC Enabled,Throttle Pos,Tire Dirt Level FL,Tire Dirt Level FR,Tire Dirt Level RL,Tire Dirt Level RR,Tire Load FL,Tire Load FR,Tire Load RL,Tire Load RR,Tire Loaded Radius FL,Tire Loaded Radius FR,Tire Loaded Radius RL,Tire Loaded Radius RR,Tire Pressure FL,Tire Pressure FR,Tire Pressure RL,Tire Pressure RR,Tire Radius FL,Tire Radius FR,Tire Radius RL,Tire Radius RR,Tire Rubber Grip FL,Tire Rubber Grip FR,Tire Rubber Grip RL,Tire Rubber Grip RR,Tire Slip Angle FL,Tire Slip Angle FR,Tire Slip Angle RL,Tire Slip Angle RR,Tire Slip Ratio FL,Tire Slip Ratio FR,Tire Slip Ratio RL,Tire Slip Ratio RR,Tire Temp Core FL,Tire Temp Core FR,Tire Temp Core RL,Tire Temp Core RR,Tire Temp Inner FL,Tire Temp Inner FR,Tire Temp Inner RL,Tire Temp Inner RR,Tire Temp Middle FL,Tire Temp Middle FR,Tire Temp Middle RL,Tire Temp Middle RR,Tire Temp Outer FL,Tire Temp Outer FR,Tire Temp Outer RL,Tire Temp Outer RR,Toe In FL,Toe In FR,Toe In RL,Toe In RR,Turbo Boost,Wheel Angular Speed FL,Wheel Angular Speed FR,Wheel Angular Speed RL,Wheel Angular Speed RR,Wind Direction,Wind Speed
0,0.0,0.0,0.0,1.0,1.0,0.0,0.0,1.0,0.0,100.0,1.0,1.1856,26.0,0.0,0.0,0.0,59.99999,0.0,26.0,26.0,26.0,26.0,-0.07733333333333337,0.29920000000000013,0.04833333333333333,293.793,-2.7215,-2.6452,-1.5192999999999999,-1.5523,-275.74,216.28750000000002,190.987625,0.0,0.0,0.0,0.0,0.0015666666666666667,-5.498166666666667,-5.498166666666667,-0.5557,2.1433333333333335,-0.0033333333333334103,-1.2650000000000001,65.394,-0.03059999999999996,-0.219675,0.9600000000000009,100.0,1.0,1.0,201.92666666666668,0.0,0.0,0.0,0.0,0.0,0.0,0.0,8558.9,0.0,55.0,5.0,235.39,0.0,0.0,0.0,0.0,0.0,0.0,0.0,0.0,0.0030000000000001137,0.0030000000000001137,0.0,0.0,0.0,55.0,616.79921,10000.0,85.0,85.0,85.0,85.0,395.0,0.0,0.0,0.0,1.0,20.0,52.399,52.399,49.576,49.576,34.0,-26.595,23.259999999999998,-30.95,25.42,0.0,1783.394,0.7349999999999994,100.0,27.77,27.386,40.299,40.571,0.0,0.0,100.0,0.0,0.0,0.0,0.0,3041.285714285714,3348.1,4194.75,4032.5,305.609,304.037,314.718,314.78075,21.7967,20.5104,21.7653,21.3154,314.99999,314.99999,324.99998,324.99998,99.55998571428572,99.50715,99.56424285714286,99.54498571428572,0.002000000000000224,-0.11933333333333329,-0.16066666666666662,0.07033333333333336,-0.06666666666666998,-0.03833333333332689,1.5575,1.5815000000000001,37.229,29.189999999999998,37.033,34.221000000000004,56.632,34.414,58.7575,51.5405,54.516,33.583,57.391,49.903,53.666,33.1405,57.3485,49.32933333333334,-0.017000000000000015,-0.13800000000000012,0.10755,0.10824,0.0,204.97500000000002,204.875,201.92666666666668,201.92666666666668,0.0,0.0
1,0.0,0.0,0.0,1.0,1.0,0.0,0.0,1.0,0.0,100.0,1.0,1.1856,26.0,0.0,0.0,0.0,59.999996,0.0,26.0,26.0,26.0,26.0,-0.10611111111111104,0.30000000000000004,0.18913333333333335,292.908,-2.6368,-2.7647,-1.5274,-1.5552000000000001,-272.2,216.2825,190.9665,0.0,0.0,0.0,0.0,0.003633333333333334,-5.498166666666667,-5.498166666666667,-0.4902,-1.1546666666666667,-0.054888888888888765,-0.597,65.56,-0.04959999999999998,-0.1907,1.4160000000000004,100.0,1.0,1.0,202.02666666666667,0.0,0.0,0.0,0.0,0.0,0.0,0.0,8563.2,0.0,55.0,5.0,235.98333333333335,1.0,0.0,0.0,0.0,0.0,0.0,0.0,0.0,0.05699999999999861,0.05699999999999861,0.0,0.0,1.0,55.0,616.79921,10000.0,85.000001,85.000001,85.000001,85.000001,395.0,0.0,0.0,0.0,1.0,166.665,53.65,53.65,47.958,47.958,34.0,-26.845,17.982,-35.67,30.0475,0.0,1783.341,0.8350000000000009,100.0,27.547,27.012,42.718,41.995000000000005,0.0,0.0,100.0,0.0,0.0,0.0,0.0,3092.285714285714,2661.6,4444.5,4746.7,305.5245,306.39566666666667,313.907,313.00475,21.8072,20.5157,21.776699999999998,21.3251,314.999998,314.999998,324.999988,324.999988,99.55998571428572,99.50716666666666,99.5644,99.54512857142858,-0.011333333333333195,-0.135,-0.1818333333333334,0.044666666666666854,-0.03999999999999915,-0.011666666666670267,1.3820000000000001,1.4449999999999998,37.295,29.223,37.105000000000004,34.2815,56.613,34.456,58.808,51.611,54.497,33.6215,57.4385,49.971000000000004,53.647,33.1775,57.393,49.39566666666666,-0.0050000000000000044,-0.14000000000000012,0.10114500000000001,0.109225,0.0,205.41500000000002,205.26999999999998,202.02666666666667,202.02666666666667,0.0,0.0
2,0.0,0.0,0.0,1.0,1.0,0.0,0.0,1.0,0.0,100.0,1.0,1.1856,26.0,0.0,0.0,0.0,59.999996,0.0,26.0,26.0,26.0,26.0,-0.14388888888888884,0.27859999999999996,-0.0777,293.716,-2.6081,-2.7867,-1.4954,-1.6006,-268.85,216.2725,190.947875,0.0,0.0,0.0,0.0,0.005566666666666667,-5.498166666666667,-5.498166666666667,-0.5535,0.2693333333333333,-0.039111111111111097,2.458,65.69800000000001,-0.07050000000000001,-0.25780000000000003,1.5099999999999998,100.0,1.0,1.0,203.04333333333335,0.0,0.0,0.0,0.0,0.0,0.0,0.0,8606.2,0.0,55.0,5.0,236.48666666666668,0.0,0.0,0.0,0.0,0.0,0.0,0.0,0.0,0.10800000000000054,0.10800000000000054,0.0,0.0,0.0,55.0,616.79921,10000.0,85.000001,85.000001,85.000001,85.000001,395.0,0.0,0.0,0.0,1.0,166.665,52.338,52.338,50.323,50.323,34.0,-29.3425,20.804000000000002,-28.240000000000002,20.15,0.0,1783.288,0.7300000000000004,100.0,28.43,26.971,42.469,41.396,0.0,0.0,100.0,0.0,0.0,0.0,0.0,3291.5714285714284,3040.3,3684.875,3672.5,304.645,305.2273333333333,315.81025,315.82475,21.8174,20.5207,21.787,21.3337,314.999998,314.999998,324.999988,324.999988,99.55998571428572,99.50718333333333,99.56454285714285,99.54527142857143,-0.01866666666666661,-0.1443333333333332,-0.21483333333333332,0.01416666666666666,-0.041666666666671404,-0.054999999999999716,1.6665,1.7125,37.358000000000004,29.254333333333335,37.169,34.335499999999996,56.599000000000004,34.496,58.8455,51.667,54.485,33.658500000000004,57.4735,50.025,53.632999999999996,33.2125,57.425,49.44833333333334,-0.019000000000000017,-0.137,0.111935,0.10854000000000001,0.0,205.875,205.735,203.04333333333335,203.04333333333335,0.0,0.0
3,0.0,0.0,0.0,1.0,1.0,0.0,0.0,1.0,0.0,100.0,1.0,1.1856,26.0,0.0,0.0,0.0,59.999996,0.0,26.0,26.0,26.0,26.0,-0.1343333333333333,0.30580000000000007,0.1068,293.427,-2.7277,-2.6963,-1.5099,-1.5936,-265.69,216.2625,190.92925,0.0,0.0,0.0,0.0,0.0074,-5.498166666666667,-5.498166666666667,-0.5037,0.377,-0.010777777777777775,0.08099999999999996,65.842,-0.08439999999999992,-0.191,1.1739999999999995,100.0,1.0,1.0,203.11666666666667,0.0,0.0,0.0,0.0,0.0,0.0,0.0,8609.3,0.0,55.0,5.0,237.00333333333333,1.0,0.0,0.0,0.0,0.0,0.0,0.0,0.0,0.1559999999999988,0.1559999999999988,0.0,0.0,1.0,55.0,616.79921,10000.0,85.000001,85.000001,85.000001,85.000001,395.0,0.0,0.0,0.0,1.0,166.665,53.711,53.711,48.004,48.004,34.0,-25.1225,18.38,-34.89666666666666,25.4,0.0,1783.24,0.615000000000002,100.0,27.901,26.878,42.513,41.471000000000004,0.0,0.0,100.0,0.0,0.0,0.0,0.0,2823.857142857143,2856.0,4331.625,4289.9,306.194,305.75266666666664,314.2215,314.236,21.8266,20.5255,21.7968,21.342,314.999998,314.999998,324.999988,324.999988,99.55998571428572,99.5072,99.56467142857143,99.54541428571429,-0.013666666666666716,-0.15066666666666673,-0.20133333333333336,0.01966666666666672,-0.07000000000000028,-0.04999999999999716,1.471,1.5135,37.416,29.284666666666666,37.230000000000004,34.3875,56.582,34.5355,58.884,51.7265,54.469,33.695,57.509,50.0815,53.617000000000004,33.2475,57.4585,49.504333333333335,-0.03700000000000003,-0.121,0.09924000000000001,0.11035,0.0,206.345,206.22,203.11666666666667,203.11666666666667,0.0,0.0
4,0.0,0.0,0.0,1.0,1.0,0.0,0.0,1.0,0.0,100.0,1.0,1.1856,26.0,0.0,0.0,0.0,59.999996,0.0,26.0,26.0,26.0,26.0,-0.15233333333333332,0.29059999999999997,-0.021566666666666668,293.594,-2.6654,-2.7417,-1.5318,-1.5971000000000002,-262.53,216.2475,190.91075,0.0,0.0,0.0,0.0,0.009233333333333333,-5.498166666666667,-5.498166666666667,-0.5389,-0.9943333333333334,-0.07288888888888856,-0.626,65.98,-0.08460000000000001,-0.23112500000000002,1.0820000000000007,100.0,1.0,1.0,203.66333333333333,0.0,0.0,0.0,0.0,0.0,0.0,0.0,8632.5,0.0,55.0,5.0,237.5,0.0,0.0,0.0,0.0,0.0,0.0,0.0,0.0,0.20400000000000063,0.20400000000000063,0.0,0.0,0.0,55.0,616.79921,10000.0,85.000001,85.000001,85.000001,85.000001,395.0,0.0,0.0,0.0,1.0,166.665,53.207,53.207,48.553,48.553,34.0,-28.605,19.892,-32.38666666666666,21.2275,0.0,1783.192,0.615000000000002,100.0,27.681,26.64,42.965,41.619,0.0,0.0,100.0,0.0,0.0,0.0,0.0,3176.0,2983.2,4083.125,3724.8,305.224,305.3786666666667,314.7765,315.55375,21.8357,20.5303,21.8067,21.3504,314.999998,314.999998,324.999988,324.999988,99.55998571428572,99.50721666666666,99.5648,99.54552857142858,-0.024666666666666615,-0.14666666666666672,-0.2018333333333333,0.020333333333333314,-0.04333333333332945,-0.03999999999999915,1.5775000000000001,1.6179999999999999,37.473,29.314333333333334,37.292,34.44,56.564,34.574,58.9245,51.7825,54.451,33.7305,57.547,50.1355,53.599000000000004,33.2815,57.494,49.557,-0.028000000000000025,-0.12250000000000005,0.10718000000000001,0.10928,0.0,206.7,206.60000000000002,203.66333333333333,203.66333333333333,0.0,0.0
5,0.0,0.0,0.0,1.0,1.0,0.0,0.0,1.0,0.0,100.0,1.0,1.1856,26.0,0.0,0.0,0.0,59.999996,0.0,26.0,26.0,26.0,26.0,-0.124,0.30700000000000016,-0.031,293.64,-2.6755,-2.7639,-1.5127000000000002,-1.5857,-259.16,216.23000000000002,190.8905,0.0,0.0,0.0,0.0,0.0112,-5.498166666666667,-5.498166666666667,-0.5327000000000001,0.442,-0.0818888888888889,-0.29699999999999993,66.125,-0.08609999999999995,-0.2101,1.1020000000000003,100.0,1.0,1.0,204.09333333333333,0.0,0.0,0.0,0.0,0.0,0.0,0.0,8650.8,0.0,55.0,5.0,238.01999999999998,1.0,0.0,0.0,0.0,0.0,0.0,0.0,0.0,0.254999999999999,0.254999999999999,0.0,0.0,1.0,55.0,616.79921,10000.0,85.000001,85.000001,85.000001,85.000001,395.0,0.0,0.0,0.0,1.0,333.33500000000004,53.543,53.543,48.92,48.92,34.0,-28.295,18.874,-33.63333333333333,22.68,0.0,1783.14,0.2950000000000017,100.0,27.709,26.740000000000002,42.607,41.282,0.0,0.0,100.0,0.0,0.0,0.0,0.0,3177.5714285714284,2738.7,4184.625,4045.5,305.2755,306.00966666666665,314.70575,314.782,21.8458,20.5354,21.8171,21.359,314.999998,314.999998,324.999988,324.999988,99.56,99.50723333333333,99.56494285714285,99.54567142857142,-0.016666666666666607,-0.1316666666666666,-0.21266666666666656,0.0050000000000001155,-0.05666666666667197,-0.03499999999999659,1.5230000000000001,1.568,37.536,29.346,37.357,34.494,56.55,34.615,58.965,51.84,54.437,33.768,57.585,50.1905,53.584,33.317499999999995,57.528999999999996,49.61033333333333,-0.04899999999999993,-0.09450000000000003,0.106105,0.10151500000000001,0.0,207.2,207.095,204.09333333333333,204.09333333333333,0.0,0.0
6,0.0,0.0,0.0,1.0,1.0,0.0,0.0,1.0,0.0,100.0,1.0,1.1856,26.0,0.0,0.0,0.0,59.999996,0.0,26.0,26.0,26.0,26.0,-0.10966666666666658,0.29380000000000006,-0.009466666666666668,293.427,-2.6418,-2.7395,-1.5548000000000002,-1.6243,-255.98,216.21,190.871125,0.0,0.0,0.0,0.0,0.013033333333333334,-5.498166666666667,-5.498166666666667,-0.5269,0.059333333333333335,-0.0642222222222224,-0.47,66.263,-0.08279999999999998,-0.20950000000000002,0.8599999999999994,100.0,1.0,1.0,204.50666666666666,0.0,0.0,0.0,0.0,0.0,0.0,0.0,8668.3,0.0,55.0,5.0,238.51666666666665,0.0,0.0,0.0,0.0,0.0,0.0,0.0,0.0,0.3030000000000008,0.3030000000000008,0.0,0.0,0.0,55.0,616.79921,10000.0,85.000001,85.000001,85.000001,85.000001,395.0,0.0,0.0,0.0,1.0,333.33500000000004,53.207,53.207,48.629999999999995,48.629999999999995,34.0,-27.7425,20.018,-33.61333333333333,23.17,0.0,1783.092,0.08999999999999986,100.0,27.611,26.803,42.766999999999996,41.69,0.0,0.0,100.0,0.0,0.0,0.0,0.0,3221.285714285714,2885.3,4129.625,3974.2,305.1455,305.498,314.81975,314.912,21.8551,20.5402,21.8269,21.3675,314.999998,314.999998,324.999988,324.999988,99.56,99.50723333333333,99.56508571428571,99.5458,0.0,-0.1286666666666667,-0.21099999999999997,0.01416666666666666,-0.05666666666667197,-0.05333333333332746,1.5234999999999999,1.5835,37.594,29.375999999999998,37.418,34.5465,56.534,34.6525,59.004,51.897999999999996,54.423,33.803,57.6215,50.246,53.569,33.351,57.5625,49.665,-0.07050000000000001,-0.08250000000000002,0.10389500000000002,0.10729000000000001,0.0,207.60500000000002,207.51999999999998,204.50666666666666,204.50666666666666,0.0,0.0
7,0.0,0.0,0.0,1.0,1.0,0.0,0.0,1.0,0.0,100.0,1.0,1.1856,26.0,0.0,0.0,0.0,59.999996,0.0,26.0,26.0,26.0,26.0,-0.07155555555555548,0.28180000000000005,0.0218,293.152,-2.6149,-2.7298999999999998,-1.5171000000000001,-1.6254,-252.4,216.185,190.8495,0.0,0.0,0.0,0.0,0.015133333333333335,-5.498166666666667,-5.498166666666667,-0.5295,0.009000000000000001,-0.052000000000000046,-0.259,66.416,-0.06819999999999993,-0.218025,0.4239999999999995,100.0,1.0,1.0,204.94666666666666,0.0,0.0,0.0,0.0,0.0,0.0,0.0,8686.9,0.0,55.0,5.0,239.07,1.0,0.0,0.0,0.0,0.0,0.0,0.0,0.0,0.3569999999999993,0.3569999999999993,0.0,0.0,1.0,55.0,616.79921,10000.0,85.000001,85.000001,85.000001,85.000001,395.0,0.0,0.0,0.0,1.0,166.665,52.887,52.887,48.644999999999996,48.644999999999996,34.0,-27.2225,21.951999999999998,-31.74,25.02,0.0,1783.041,-0.254999999999999,100.0,27.714,26.876,42.848,41.973,0.0,0.0,100.0,0.0,0.0,0.0,0.0,3288.714285714286,2955.8,4101.125,4039.8,304.8625,305.2896666666667,314.8425,314.72075,21.8656,20.5456,21.838,21.3769,314.999998,314.999998,324.999988,324.999988,99.56,99.50726666666667,99.56524285714286,99.54595714285715,0.02400000000000002,-0.09299999999999997,-0.1865,0.035833333333333384,-0.046666666666666856,-0.04999999999999716,1.5185,1.5270000000000001,37.66,29.41,37.486999999999995,34.6055,56.518,34.6945,59.0475,51.963,54.407,33.841,57.662,50.3085,53.552,33.3875,57.6,49.726,-0.09050000000000002,-0.05249999999999999,0.10610000000000001,0.10860500000000001,0.0,208.04000000000002,208.0,204.94666666666666,204.94666666666666,0.0,0.0
8,0.0,0.0,0.0,1.0,1.0,0.0,0.0,1.0,0.0,100.0,1.0,1.1856,26.0,0.0,0.0,0.0,59.999996,0.0,26.0,26.0,26.0,26.0,-0.0411111111111111,0.29520000000000013,0.03183333333333333,293.396,-2.6957,-2.721,-1.4992,-1.5786,-249.01,216.16,190.829,0.0,0.0,0.0,0.0,0.0171,-5.498166666666667,-5.498166666666667,-0.5303,-0.5966666666666667,-0.03277777777777802,0.7929999999999999,66.562,-0.04849999999999999,-0.20885,-0.09999999999999964,100.0,1.0,1.0,205.32666666666665,0.0,0.0,0.0,0.0,0.0,0.0,0.0,8703.0,0.0,55.0,5.0,239.59333333333333,0.0,0.0,0.0,0.0,0.0,0.0,0.0,0.0,0.40800000000000125,0.40800000000000125,0.0,0.0,0.0,55.0,616.79921,10000.0,85.000001,85.000001,85.000001,85.000001,395.0,0.0,0.0,0.0,1.0,166.665,53.772,53.772,47.943,47.943,34.0,-23.3725,23.122,-30.06,27.1725,0.0,1782.99,-0.3699999999999992,100.0,27.41,26.663,42.974000000000004,42.019999999999996,0.0,0.0,100.0,0.0,0.0,0.0,0.0,2913.857142857143,2997.8,4121.125,4175.1,305.968,305.35766666666666,314.68275,314.4535,21.8753,20.5508,21.848399999999998,21.3858,314.999998,314.999998,324.999988,324.999988,99.56001428571429,99.50726666666667,99.56538571428571,99.54608571428571,0.048666666666666636,-0.06533333333333324,-0.15033333333333332,0.07000000000000006,-0.04833333333333201,-0.04999999999999716,1.512,1.5110000000000001,37.721000000000004,29.442333333333334,37.552,34.661500000000004,56.5,34.7325,59.088,52.024,54.39,33.876,57.6995,50.367,53.535,33.421,57.635,49.783,-0.09999999999999998,-0.04049999999999998,0.10906500000000001,0.10487,0.0,208.48000000000002,208.45,205.32666666666665,205.32666666666665,0.0,0.0
9,0.0,0.0,0.0,1.0,1.0,0.0,0.0,1.0,0.0,100.0,1.0,1.1856,26.0,0.0,0.0,0.0,59.999996,0.0,26.0,26.0,26.0,26.0,-0.01633333333333331,0.28170000000000006,-0.018466666666666666,293.167,-2.6882,-2.7218,-1.5568,-1.5581,-246.01,216.135,190.810375,0.0,0.0,0.0,0.0,0.018833333333333334,-5.498166666666667,-5.498166666666667,-0.5383,0.5456666666666666,-0.03588888888888908,-0.44399999999999995,66.686,-0.02849999999999997,-0.21185,-0.14399999999999924,100.0,1.0,1.0,205.85000000000002,0.0,0.0,0.0,0.0,0.0,0.0,0.0,8725.2,0.0,55.0,5.0,240.04000000000002,1.0,0.0,0.0,0.0,0.0,0.0,0.0,0.0,0.4529999999999994,0.4529999999999994,0.0,0.0,1.0,55.0,616.79921,10000.0,85.000001,85.000001,85.000001,85.000001,395.0,0.0,0.0,0.0,1.0,166.665,52.597,52.597,48.996,48.996,34.0,-26.495,23.47,-28.566666666666663,26.255,0.0,1782.944,-0.45500000000000007,100.0,27.672,27.198,42.536,42.084,0.0,0.0,100.0,0.0,0.0,0.0,0.0,3359.5714285714284,3002.3,3989.25,4012.0,304.7385,305.105,315.17525,314.885,21.8841,20.5555,21.8574,21.3936,314.999998,314.999998,324.999988,324.999988,99.56001428571429,99.50728333333333,99.5655,99.54621428571429,0.06766666666666676,-0.06499999999999995,-0.139,0.08883333333333332,-0.05666666666667197,-0.03833333333332689,1.5804999999999998,1.581,37.775,29.471666666666664,37.608999999999995,34.710499999999996,56.486999999999995,34.766999999999996,59.1205,52.076,54.378,33.908,57.7305,50.417,53.522,33.451499999999996,57.663,49.832,-0.11699999999999999,-0.043500000000000094,0.10783000000000001,0.10977500000000001,0.0,208.86,208.86,205.85000000000002,205.85,0.0,0.0
10,0.0,0.0,0.0,1.0,1.0,0.0,0.0,1.0,0.0,100.0,1.0,1.1856,26.0,0.0,0.0,0.0,59.999996,0.0,26.0,26.0,26.0,26.0,0.000888888888888939,0.28790000000000004,0.05263333333333334,292.877,-2.658,-2.7135,-1.5926,-1.5381,-242.61,216.10750000000002,190.789625,0.0,0.0,0.0,0.0,0.020833333333333336,-5.498166666666667,-5.498166666666667,-0.511,-0.3453333333333333,0.006111111111110956,1.7810000000000001,66.832,-0.00759999999999994,-0.1965,-0.5099999999999998,100.0,1.0,1.0,206.06333333333333,0.0,0.0,0.0,0.0,0.0,0.0,0.0,8734.3,0.0,55.0,5.0,240.56666666666666,0.0,0.0,0.0,0.0,0.0,0.0,1.0,0.0,0.5040000000000013,0.5040000000000013,0.0,0.0,0.0,55.0,616.79921,10000.0,85.000001,85.000001,85.000001,85.000001,395.0,0.0,0.0,0.0,1.0,166.665,53.543,53.543,47.409,47.409,34.0,-20.755,23.854,-31.223333333333333,30.5625,0.0,1782.894,-0.5999999999999996,100.0,27.747,27.051000000000002,42.995000000000005,42.726,0.0,0.0,100.0,0.0,0.0,0.0,0.0,2822.4285714285716,2960.5,4318.25,4367.8,306.15,305.4626666666667,314.26925,314.026,21.8939,20.5607,21.8679,21.4028,314.999998,314.999998,324.999988,324.999988,99.56002857142857,99.50728333333333,99.56565714285715,99.54635714285715,0.08933333333333371,-0.03733333333333322,-0.11299999999999999,0.11216666666666675,-0.01833333333333087,-0.041666666666671404,1.4765000000000001,1.4695,37.837,29.504333333333335,37.675,34.7675,56.474000000000004,34.804,59.1625,52.1405,54.364999999999995,33.942,57.7695,50.479,53.507999999999996,33.4845,57.699,49.89266666666666,-0.12049999999999994,-0.02950000000000008,0.108395,0.10374000000000001,0.0,209.305,209.335,206.06333333333333,206.06333333333333,0.0,0.0
11,0.0,0.0,0.0,1.0,1.0,0.0,0.0,1.0,0.0,100.0,1.0,1.1856,26.0,0.0,0.0,0.0,59.999996,0.0,26.0,26.0,26.0,26.0,0.04877777777777781,0.26980000000000004,-0.0998,293.457,-2.709,-2.6863,-1.5554999999999999,-1.5268000000000002,-239.2,216.07999999999998,190.769,0.0,0.0,0.0,0.0,0.022600000000000002,-5.498166666666667,-5.498166666666667,-0.5554,-0.35000000000000003,0.030999999999999917,-0.5389999999999999,66.971,0.012700000000000156,-0.23245000000000002,-0.5999999999999996,100.0,1.0,1.0,206.79666666666668,0.0,0.0,0.0,0.0,0.0,0.0,0.0,8765.4,0.0,55.0,5.0,241.06666666666666,1.0,0.0,0.0,0.0,0.0,0.0,1.0,0.0,0.5549999999999997,0.5549999999999997,0.0,0.0,1.0,55.0,616.79921,10000.0,85.000001,85.000001,85.000001,85.000001,395.0,0.0,0.0,0.0,1.0,166.665,52.963,52.963,49.057,49.057,34.0,-22.485,25.438,-24.229999999999997,26.8,0.0,1782.842,-0.6050000000000004,100.0,27.383,27.453,42.534,42.783,0.0,0.0,100.0,0.0,0.0,0.0,0.0,3072.5714285714284,3076.6,3698.625,3869.1000000000004,305.6085,304.89,315.8445,315.21825,21.9035,20.5661,21.8782,21.4117,314.999998,314.999998,324.999988,324.999988,99.56004285714286,99.5073,99.56578571428571,99.5465,0.10499999999999998,-0.025666666666666726,-0.10016666666666663,0.13349999999999995,-0.054999999999999716,-0.04333333333332945,1.62,1.6,37.897,29.538,37.739000000000004,34.823499999999996,56.458,34.841,59.198499999999996,52.2005,54.349999999999994,33.9765,57.8025,50.536500000000004,53.492999999999995,33.5175,57.7295,49.949333333333335,-0.128,-0.026999999999999913,0.10950000000000001,0.10813500000000001,0.0,209.7,209.735,206.79666666666668,206.79666666666668,0.0,0.0
12,0.0,0.0,0.0,1.0,1.0,0.0,0.0,1.0,0.0,100.0,1.0,1.1856,26.0,0.0,0.0,0.0,59.999996,0.0,26.0,26.0,26.0,26.0,0.05333333333333323,0.2996000000000001,0.008066666666666668,292.877,-2.7575,-2.6857,-1.5522,-1.5272000000000001,-235.78,216.055,190.747,0.0,0.0,0.0,0.0,0.025466666666666665,-5.498166666666667,-5.498166666666667,-0.5409,0.29333333333333333,0.019333333333333202,0.6420000000000001,67.11500000000001,0.030299999999999994,-0.20005,-0.7279999999999998,100.0,1.0,1.0,207.01666666666665,0.0,0.0,0.0,0.0,0.0,0.0,0.0,8774.6,0.0,55.0,5.0,241.58333333333331,0.0,0.0,0.0,0.0,0.0,0.0,1.0,0.0,0.6059999999999981,0.6059999999999981,0.0,0.0,0.0,55.0,616.79921,10000.0,85.000001,85.000001,85.000001,85.000001,395.0,0.0,0.0,0.0,1.0,166.665,52.902,52.902,47.745,47.745,34.0,-21.805,26.992,-26.523333333333333,31.495,0.0,1782.792,-0.6400000000000006,100.0,27.418,27.483,42.455,42.608000000000004,0.0,0.0,100.0,0.0,0.0,0.0,0.0,3015.714285714286,3186.7,4188.5,4244.0,305.644,304.743,314.61825,314.37375,21.913,20.5715,21.8885,21.4207,314.999998,314.999998,324.999988,324.999988,99.56005714285715,99.5073,99.56592857142857,99.54664285714286,0.12366666666666637,-0.008000000000000007,-0.06116666666666659,0.15599999999999992,-0.041666666666671404,-0.06666666666666998,1.525,1.504,37.957,29.572,37.803,34.879,56.444,34.879,59.237,52.2615,54.337,34.012,57.838499999999996,50.595,53.479,33.551,57.7625,50.00666666666667,-0.121,-0.026499999999999968,0.10769500000000001,0.10583000000000001,0.0,210.16500000000002,210.215,207.01666666666665,207.01666666666665,0.0,0.0
13,0.0,0.0,0.0,1.0,1.0,0.0,0.0,1.0,0.0,100.0,1.0,1.1856,26.0,0.0,0.0,0.0,59.999996,0.0,26.0,26.0,26.0,26.0,0.08777777777777795,0.28100000000000014,0.0346,292.526,-2.7412,-2.6722,-1.6264,-1.5423,-232.35,216.03,190.725375,0.0,0.0,0.0,0.0,0.0268,-5.498166666666667,-5.498166666666667,-0.5336000000000001,-0.07233333333333333,0.02211111111111097,-0.478,67.256,0.036699999999999955,-0.20855,-0.7520000000000007,100.0,1.0,1.0,207.40666666666667,0.0,0.0,0.0,0.0,0.0,0.0,0.0,8791.3,0.0,55.0,5.0,242.09333333333336,1.0,0.0,0.0,0.0,0.0,0.0,1.0,0.0,0.657,0.657,0.0,0.0,1.0,55.0,616.79921,10000.0,85.000001,85.000001,85.000001,85.000001,395.0,0.0,0.0,0.0,1.0,166.665,52.612,52.612,47.699,47.699,34.0,-21.81,27.022,-28.67,32.585,0.0,1782.74,-0.8499999999999996,100.0,27.544,27.83,42.608000000000004,43.219,0.0,0.0,100.0,0.0,0.0,0.0,0.0,3145.142857142857,3078.0,4230.75,4304.0,305.407,304.887,314.59475,314.12175,21.9227,20.576999999999998,21.8989,21.4298,314.999998,314.999998,324.999988,324.999988,99.56007142857143,99.5073,99.56607142857143,99.54678571428572,0.14100000000000001,0.016000000000000014,-0.07566666666666666,0.15666666666666673,-0.051666666666669414,-0.054999999999999716,1.509,1.4725000000000001,38.016999999999996,29.606333333333332,37.867999999999995,34.9365,56.433,34.917,59.2765,52.3255,54.326,34.047,57.8755,50.657,53.467,33.585,57.796,50.06733333333334,-0.14800000000000002,-0.00550000000000006,0.10523500000000001,0.10879000000000001,0.0,210.595,210.655,207.40666666666667,207.40666666666667,0.0,0.0
14,0.0,0.0,0.0,1.0,1.0,0.0,0.0,1.0,0.0,100.0,1.0,1.1856,26.0,0.0,0.0,0.0,59.999996,0.0,26.0,26.0,26.0,26.0,0.08877777777777784,0.2885,-0.009666666666666667,292.801,-2.7401,-2.6173,-1.6328,-1.5146000000000002,-229.12,216.0075,190.705375,0.0,0.0,0.0,0.0,0.02866666666666667,-5.498166666666667,-5.498166666666667,-0.5424,-0.17366666666666666,0.04888888888888898,-0.07999999999999996,67.387,0.047700000000000076,-0.22035000000000002,-0.9799999999999995,100.0,1.0,1.0,207.88666666666666,0.0,0.0,0.0,0.0,0.0,0.0,0.0,8811.6,0.0,55.0,5.0,242.56333333333333,0.0,0.0,0.0,0.0,0.0,0.0,1.0,0.0,0.7049999999999983,0.7049999999999983,0.0,0.0,0.0,55.0,616.79921,10000.0,85.000001,85.000001,85.000001,85.000001,395.0,0.0,0.0,0.0,1.0,166.665,52.795,52.795,47.974000000000004,47.974000000000004,34.0,-20.7,26.997999999999998,-26.306666666666665,30.9325,0.0,1782.693,-0.9550000000000001,100.0,27.429,27.843,42.554,43.403999999999996,0.0,0.0,100.0,0.0,0.0,0.0,0.0,3039.142857142857,3129.7,4048.5,4168.6,305.72,304.757,315.028,314.47875,21.9317,20.5822,21.9087,21.4384,314.999998,314.999998,324.999988,324.999988,99.56008571428572,99.5073,99.56621428571428,99.54692857142857,0.1466666666666665,0.015000000000000124,-0.06033333333333335,0.1601666666666668,-0.03833333333332689,-0.051666666666669414,1.5575,1.5154999999999998,38.073,29.638666666666666,37.929,34.99,56.423,34.9525,59.3115,52.385,54.316,34.08,57.908,50.714,53.456,33.6165,57.826,50.123,-0.15000000000000002,-0.0024999999999999467,0.10978,0.10333,0.0,210.995,211.04500000000002,207.88666666666666,207.88666666666666,0.0,0.0
15,0.0,0.0,0.0,1.0,1.0,0.0,0.0,1.0,0.0,100.0,1.0,1.1856,26.0,0.0,0.0,0.0,59.999996,0.0,26.0,26.0,26.0,26.0,0.10533333333333328,0.28500000000000014,0.0099,292.816,-2.7126,-2.5766999999999998,-1.6259000000000001,-1.4548,-225.68,215.9875,190.683875,0.0,0.0,0.0,0.0,0.03066666666666667,-5.498166666666667,-5.498166666666667,-0.5343,0.262,0.0822222222222222,1.06,67.526,0.06400000000000006,-0.20225,-1.25,100.0,1.0,1.0,208.29333333333335,0.0,0.0,0.0,0.0,0.0,0.0,0.0,8828.9,0.0,55.0,5.0,243.06666666666666,1.0,0.0,0.0,0.0,0.0,0.0,1.0,0.0,0.7560000000000002,0.7560000000000002,0.0,0.0,1.0,55.0,616.79921,10000.0,85.000001,85.000001,85.000001,85.000001,395.0,0.0,0.0,0.0,1.0,166.665,52.963,52.963,48.004,48.004,34.0,-17.695,28.375999999999998,-24.009999999999998,33.519999999999996,0.0,1782.641,-0.9800000000000004,100.0,27.563,27.762,42.391999999999996,43.346000000000004,0.0,0.0,100.0,0.0,0.0,0.0,0.0,2785.285714285714,3224.9,3953.375,4409.5,306.2615,304.626,315.20325,313.997,21.9413,20.587699999999998,21.9189,21.447499999999998,314.999998,314.999998,324.999988,324.999988,99.5601,99.5073,99.56635714285714,99.54707142857143,0.17200000000000015,0.039000000000000146,-0.02966666666666662,0.18566666666666687,-0.036666666666668846,-0.05666666666667197,1.5590000000000002,1.505,38.132999999999996,29.673000000000002,37.992999999999995,35.0465,56.412,34.9915,59.348,52.448,54.306,34.116,57.9415,50.7745,53.444,33.650999999999996,57.8565,50.18266666666666,-0.15249999999999997,-0.0035000000000000586,0.10953,0.09853500000000001,0.0,211.42000000000002,211.51,208.29333333333335,208.29333333333335,0.0,0.0
16,0.0,0.0,0.0,1.0,1.0,0.0,0.0,1.0,0.0,100.0,1.0,1.1856,26.0,0.0,0.0,0.0,59.999996,0.0,26.0,26.0,26.0,26.0,0.12844444444444436,0.2762,-0.04646666666666667,292.831,-2.8099,-2.5825,-1.6012,-1.4557,-222.23,215.9675,190.661875,0.0,0.0,0.0,0.0,0.03266666666666667,-5.498166666666667,-5.498166666666667,-0.5553,-0.6970000000000001,0.0664444444444443,-1.092,67.666,0.07800000000000007,-0.21887500000000001,-1.2220000000000004,100.0,1.0,1.0,208.7266666666667,0.0,0.0,0.0,0.0,0.0,0.0,0.0,8847.2,0.0,55.0,5.0,243.57,0.0,0.0,0.0,0.0,0.0,0.0,1.0,0.0,0.8069999999999986,0.8069999999999986,0.0,0.0,0.0,55.0,616.79921,10000.0,85.000001,85.000001,85.000001,85.000001,395.0,0.0,0.0,0.0,1.0,166.665,52.872,52.872,47.76,47.76,34.0,-20.1425,28.124,-23.633333333333333,32.095,0.0,1782.589,-0.875,100.0,27.056,27.988,42.564,43.542,0.0,0.0,100.0,0.0,0.0,0.0,0.0,3012.4285714285716,3188.9,3982.375,4156.4,305.9015,304.5876666666667,315.18025,314.52325,21.950499999999998,20.5933,21.9293,21.4566,314.999998,314.999998,324.999988,324.999988,99.56012857142858,99.50731666666667,99.5665,99.54721428571429,0.16733333333333356,0.035666666666666735,-0.025666666666666615,0.19999999999999996,-0.023333333333326323,-0.06499999999999773,1.564,1.5015,38.191,29.708,38.058,35.1035,56.397999999999996,35.031,59.387,52.5105,54.292,34.1525,57.978,50.835,53.429,33.686,57.8895,50.242,-0.14700000000000002,-0.006000000000000005,0.11282500000000001,0.10298500000000001,0.0,211.81,211.92000000000002,208.7266666666667,208.7266666666667,0.0,0.0
17,0.0,0.0,0.0,1.0,1.0,0.0,0.0,1.0,0.0,100.0,1.0,1.1856,26.0,0.0,0.0,0.0,59.999996,0.0,26.0,26.0,26.0,26.0,0.1293333333333333,0.2821,-0.0287,292.648,-2.767,-2.5656,-1.6416,-1.4754,-218.98,215.95499999999998,190.640625,0.0,0.0,0.0,0.0,0.03456666666666667,-5.498166666666667,-5.498166666666667,-0.5458000000000001,0.5293333333333334,0.04600000000000004,-0.681,67.795,0.0818000000000001,-0.20020000000000002,-1.0999999999999996,100.0,1.0,1.0,209.12666666666667,0.0,0.0,0.0,0.0,0.0,0.0,0.0,8864.1,0.0,55.0,5.0,244.03333333333336,1.0,0.0,0.0,0.0,0.0,0.0,1.0,0.0,0.8550000000000004,0.8550000000000004,0.0,0.0,1.0,55.0,616.79921,10000.0,85.000001,85.000001,85.000001,85.000001,395.0,0.0,0.0,0.0,1.0,166.665,52.704,52.704,47.882,47.882,34.0,-20.037499999999998,26.778,-25.39,32.8925,0.0,1782.542,-0.9149999999999991,100.0,27.519,28.256,42.303,43.492000000000004,0.0,0.0,100.0,0.0,0.0,0.0,0.0,3066.285714285714,3040.7,4184.75,4221.3,305.6945,305.067,314.77425,314.40825,21.9595,20.5986,21.9389,21.4651,314.999998,314.999998,324.999988,324.999988,99.56014285714286,99.50731666666667,99.56662857142857,99.54735714285714,0.17133333333333356,0.04400000000000004,-0.02100000000000002,0.20033333333333325,-0.045000000000001705,-0.04833333333333201,1.5459999999999998,1.5124999999999997,38.247,29.741333333333333,38.117999999999995,35.157,56.388999999999996,35.0695,59.420500000000004,52.5685,54.284,34.188,58.009,50.891,53.42,33.7205,57.917500000000004,50.297333333333334,-0.15100000000000002,-0.007500000000000062,0.10457500000000002,0.10780500000000001,0.0,212.26,212.35500000000002,209.12666666666667,209.12666666666667,0.0,0.0
18,0.0,0.0,0.0,1.0,1.0,0.0,0.0,1.0,0.0,100.0,1.0,1.1856,26.0,0.0,0.0,0.0,59.999996,0.0,26.0,26.0,26.0,26.0,0.13055555555555576,0.2693000000000001,-0.06483333333333334,292.603,-2.8017,-2.5397,-1.6573,-1.4236,-215.72,215.9425,190.619625,0.0,0.0,0.0,0.0,0.03646666666666667,-5.498166666666667,-5.498166666666667,-0.5522,-0.5690000000000001,0.07111111111111112,-0.07599999999999996,67.925,0.08120000000000016,-0.2132,-1.1660000000000004,100.0,1.0,1.0,209.51333333333332,0.0,0.0,0.0,0.0,0.0,0.0,0.0,8880.5,0.0,55.0,5.0,244.50333333333333,0.0,0.0,0.0,0.0,0.0,0.0,1.0,0.0,0.9029999999999987,0.9029999999999987,0.0,0.0,0.0,55.0,616.79921,10000.0,85.000001,85.000001,85.000001,85.000001,395.0,0.0,0.0,0.0,1.0,166.665,52.734,52.734,47.653,47.653,34.0,-19.4875,28.524,-24.916666666666664,32.095,0.0,1782.495,-1.1600000000000001,100.0,27.274,28.08,42.674,43.952,0.0,0.0,100.0,0.0,0.0,0.0,0.0,3026.285714285714,3204.5,4037.25,4170.8,305.8695,304.63233333333335,315.08725,314.523,21.9683,20.6038,21.9486,21.4738,314.999998,314.999998,324.999988,324.999988,99.56017142857142,99.50731666666667,99.56677142857143,99.5475,0.18333333333333357,0.05366666666666653,-0.028666666666666618,0.20666666666666678,-0.030000000000001137,-0.061666666666667425,1.561,1.5044999999999997,38.302,29.774,38.179,35.2115,56.379000000000005,35.107,59.457,52.6295,54.274,34.223,58.043,50.9495,53.409,33.754,57.949,50.355000000000004,-0.16549999999999998,0.013000000000000012,0.10896000000000002,0.10989000000000002,0.0,212.63,212.72,209.51333333333332,209.51333333333332,0.0,0.0
19,0.0,0.0,0.0,1.0,1.0,0.0,0.0,1.0,0.0,100.0,1.0,1.1856,26.0,0.0,0.0,0.0,59.999996,0.0,26.0,26.0,26.0,26.0,0.14811111111111108,0.2845,0.0166,292.068,-2.7689,-2.529,-1.6723,-1.4046,-212.25,215.935,190.597,0.0,0.0,0.0,0.0,0.03846666666666667,-5.498166666666667,-5.498166666666667,-0.5474,0.8353333333333334,0.08522222222222209,0.915,68.061,0.08800000000000008,-0.2051,-1.58,100.0,1.0,1.0,209.93666666666667,0.0,0.0,0.0,0.0,0.0,0.0,0.0,8898.5,0.0,55.0,5.0,244.99,1.0,0.0,0.0,0.0,0.0,0.0,1.0,0.0,0.9540000000000006,0.9540000000000006,0.0,0.0,1.0,55.0,616.79921,10000.0,85.000001,85.000001,85.000001,85.000001,395.0,0.0,0.0,0.0,1.0,166.665,51.849000000000004,51.849000000000004,47.577,47.577,34.0,-18.265,31.636,-23.699999999999996,34.54,0.0,1782.443,-1.5549999999999997,100.0,27.916,28.467,42.442,43.836,0.0,0.0,100.0,0.0,0.0,0.0,0.0,3042.4285714285716,3388.7,4098.375,4397.0,305.526,304.104,314.95625,314.1015,21.977899999999998,20.6097,21.9588,21.4829,314.999998,314.999998,324.999988,324.999988,99.56018571428571,99.50733333333334,99.56691428571429,99.54764285714286,0.21366666666666667,0.08433333333333337,0.0071666666666665435,0.22083333333333321,-0.05333333333332746,-0.060000000000002274,1.56,1.4965000000000002,38.361999999999995,29.810333333333332,38.242999999999995,35.2685,56.372,35.150999999999996,59.492,52.692499999999995,54.266999999999996,34.2635,58.0755,51.0105,53.400999999999996,33.793,57.978,50.41466666666666,-0.19399999999999995,0.03749999999999998,0.10151500000000001,0.10871000000000001,0.0,213.085,213.195,209.93666666666667,209.93666666666667,0.0,0.0
20,0.0,0.0,0.0,1.0,1.0,0.0,0.0,1.0,0.0,100.0,1.0,1.1856,26.0,0.0,0.0,0.0,59.999996,0.0,26.0,26.0,26.0,26.0,0.189111111111111,0.28570000000000007,-0.05443333333333334,292.236,-2.8293,-2.5789,-1.6111,-1.4047,-208.78,215.9325,190.574625,0.0,0.0,0.0,0.0,0.0405,-5.498166666666667,-5.498166666666667,-0.5448000000000001,-0.9823333333333334,0.09411111111111103,-0.585,68.2,0.10170000000000012,-0.211125,-1.9079999999999995,100.0,1.0,1.0,210.20666666666668,0.0,0.0,0.0,0.0,0.0,0.0,0.0,8909.9,0.0,55.0,5.0,245.49333333333334,0.0,0.0,0.0,0.0,0.0,0.0,0.0,0.0,1.004999999999999,1.004999999999999,0.0,0.0,0.0,55.0,616.79921,10000.0,85.000001,85.000001,85.000001,85.000001,395.0,0.0,0.0,0.0,1.0,333.33500000000004,53.009,53.009,46.509,46.509,34.0,-16.7675,29.38,-23.759999999999998,36.269999999999996,0.0,1782.391,-1.254999999999999,100.0,27.301,28.464,42.905,44.5,0.0,0.0,100.0,0.0,0.0,0.0,0.0,2761.285714285714,3138.5,4215.375,4433.6,306.6175,304.72333333333336,314.57125,313.83725,21.987099999999998,20.6153,21.9693,21.4923,314.999998,314.999998,324.999988,324.999988,99.56021428571428,99.50735,99.56705714285714,99.5478,0.20933333333333337,0.07933333333333348,0.011166666666666547,0.2366666666666668,-0.026666666666670835,-0.060000000000002274,1.4985,1.4489999999999998,38.419,29.845666666666666,38.308,35.327,56.361000000000004,35.194,59.5325,52.759,54.256,34.3035,58.1135,51.0745,53.388999999999996,33.8315,58.0125,50.477666666666664,-0.18499999999999994,0.034499999999999975,0.108725,0.10669000000000001,0.0,213.44,213.59,210.20666666666668,210.20666666666668,0.0,0.0
21,0.0,0.0,0.0,1.0,1.0,0.0,0.0,1.0,0.0,100.0,1.0,1.1856,26.0,0.0,0.0,0.0,59.999996,0.0,26.0,26.0,26.0,26.0,0.1645555555555558,0.25970000000000004,-0.0712,292.603,-2.7434,-2.6306000000000003,-1.6705,-1.4813,-205.5,215.9325,190.553125,0.0,0.0,0.0,0.0,0.0424,-5.498166666666667,-5.498166666666667,-0.5756,0.4216666666666667,0.07111111111111112,-1.3,68.32300000000001,0.11830000000000007,-0.223275,-1.3719999999999999,100.0,1.0,1.0,210.87666666666667,0.0,0.0,0.0,0.0,0.0,0.0,0.0,8938.3,0.0,55.0,5.0,245.93666666666667,1.0,0.0,0.0,0.0,0.0,0.0,0.0,0.0,1.0530000000000008,1.0530000000000008,0.0,0.0,1.0,55.0,616.79921,10000.0,85.000001,85.000001,85.000001,85.000001,395.0,0.0,0.0,0.0,1.0,166.665,52.216,52.216,48.248,48.248,34.0,-20.8075,27.784,-21.61,32.5975,0.0,1782.344,-0.19500000000000028,100.0,27.532,28.588,42.285,44.085,0.0,0.0,100.0,0.0,0.0,0.0,0.0,3066.142857142857,3191.5,3901.25,4018.1000000000004,305.6185,304.472,315.48825,314.924,21.9959,20.6208,21.9788,21.5009,314.999998,314.999998,324.999988,324.999988,99.56022857142857,99.50735,99.56718571428571,99.54794285714286,0.15133333333333354,0.012666666666666604,0.015833333333333366,0.23750000000000004,-0.03333333333333144,-0.07333333333333059,1.6204999999999998,1.5659999999999998,38.474000000000004,29.88,38.367000000000004,35.3805,56.351,35.234,59.5635,52.816,54.247,34.3405,58.1415,51.1295,53.378,33.867,58.038,50.531666666666666,-0.10099999999999998,-0.05499999999999994,0.11009500000000001,0.10076500000000001,0.0,213.86,213.985,210.87666666666667,210.87666666666667,0.0,0.0
22,0.0,0.0,0.0,1.0,1.0,0.0,0.0,1.0,0.0,100.0,1.0,1.1856,26.0,0.0,0.0,0.0,59.999996,0.0,26.0,26.0,26.0,26.0,0.11411111111111105,0.2652000000000001,0.02756666666666667,292.023,-2.7053,-2.6557,-1.5931000000000002,-1.5397,-202.01999999999998,215.9375,190.529375,0.0,0.0,0.0,0.0,0.04443333333333333,-5.498166666666667,-5.498166666666667,-0.5514,0.17,0.06077777777777782,0.9120000000000001,68.462,0.10350000000000015,-0.199525,-0.20000000000000018,100.0,1.0,1.0,211.06,0.0,0.0,0.0,0.0,0.0,0.0,0.0,8946.1,0.0,55.0,5.0,246.43333333333334,0.0,0.0,0.0,0.0,0.0,0.0,0.0,0.0,1.1039999999999992,1.1039999999999992,0.0,0.0,0.0,55.0,616.79921,10000.0,85.000001,85.000001,85.000001,85.000001,395.0,0.0,0.0,0.0,1.0,333.33500000000004,52.292,52.292,47.012,47.012,34.0,-21.005,26.560000000000002,-24.65,35.4725,0.0,1782.292,0.6900000000000013,100.0,27.888,28.373,42.899,44.084,0.0,0.0,100.0,0.0,0.0,0.0,0.0,2898.714285714286,3232.8,4161.625,4364.1,305.8845,304.4803333333333,314.66225,314.08175,22.0053,20.6265,21.9892,21.5101,314.999998,314.999998,324.999988,324.999988,99.56024285714285,99.50735,99.56732857142858,99.5481,0.1123333333333334,-0.026999999999999913,-0.013000000000000012,0.2028333333333332,-0.041666666666671404,-0.05833333333333002,1.4605000000000001,1.4745,38.533,29.915666666666667,38.432,35.4385,56.338,35.272999999999996,59.6035,52.8795,54.233999999999995,34.376999999999995,58.179,51.191,53.364999999999995,33.902,58.072,50.592,-0.03049999999999997,-0.1280000000000001,0.10935,0.09559000000000001,0.0,214.35500000000002,214.375,211.06,211.06,0.0,0.0
23,0.0,0.0,0.0,1.0,1.0,0.0,0.0,1.0,0.0,100.0,1.0,1.1856,26.0,0.0,0.0,0.0,59.999996,0.0,26.0,26.0,26.0,26.0,0.03844444444444428,0.24740000000000006,-0.012533333333333334,292.053,-2.7193,-2.6289,-1.5503,-1.5786,-198.51999999999998,215.945,190.506,0.0,0.0,0.0,0.0,0.04646666666666667,-5.498166666666667,-5.498166666666667,-0.5691,-0.3626666666666667,0.028888888888888964,-1.323,68.595,0.05510000000000015,-0.22515000000000002,0.8780000000000001,100.0,1.0,1.0,211.54333333333335,0.0,0.0,0.0,0.0,0.0,0.0,0.0,8966.5,0.0,55.0,5.0,246.91666666666666,1.0,0.0,0.0,0.0,0.0,0.0,0.0,0.0,1.1550000000000011,1.1550000000000011,0.0,0.0,1.0,55.0,616.79921,10000.0,85.000001,85.000001,85.000001,85.000001,395.0,0.0,0.0,0.0,1.0,333.33500000000004,51.956,51.956,47.699,47.699,34.0,-26.415,23.242,-26.686666666666667,30.137500000000003,0.0,1782.24,0.9050000000000011,100.0,27.96,28.402,43.187,44.235,0.0,0.0,100.0,0.0,0.0,0.0,0.0,3311.714285714286,3081.8,4062.5,4033.3,304.9885,304.884,314.95925,314.74525,22.0148,20.6321,21.9996,21.5194,314.999998,314.999998,324.999988,324.999988,99.56025714285714,99.50736666666667,99.56748571428571,99.54824285714285,0.06566666666666654,-0.06833333333333313,-0.08050000000000002,0.14766666666666683,-0.046666666666666856,-0.04999999999999716,1.4935,1.513,38.592,29.951,38.497,35.4965,56.323,35.3135,59.641,52.942499999999995,54.22,34.414,58.214,51.2515,53.349000000000004,33.938,58.104,50.65133333333333,-0.008000000000000007,-0.14700000000000002,0.10445000000000002,0.11145000000000001,0.0,214.785,214.72,211.54333333333335,211.54333333333335,0.0,0.0
24,0.0,0.0,0.0,1.0,1.0,0.0,0.0,1.0,0.0,100.0,1.0,1.1856,26.0,0.0,0.0,0.0,59.999996,0.0,26.0,26.0,26.0,26.0,-0.03644444444444439,0.2742,-0.008766666666666667,292.343,-2.6978,-2.6816,-1.5688,-1.5409000000000002,-195.22,215.95,190.483625,0.0,0.0,0.0,0.0,0.04836666666666667,-5.498166666666667,-5.498166666666667,-0.5722,-0.3296666666666667,0.01388888888888884,-0.677,68.72200000000001,-0.0010999999999999899,-0.20785,1.2439999999999998,100.0,1.0,1.0,211.87666666666667,0.0,0.0,0.0,0.0,0.0,0.0,0.0,8980.6,0.0,55.0,5.0,247.37,0.0,0.0,0.0,0.0,0.0,0.0,0.0,0.0,1.2029999999999994,1.2029999999999994,0.0,0.0,0.0,55.0,616.79921,10000.0,85.000001,85.000001,85.000001,85.000001,395.0,0.0,0.0,0.0,1.0,333.33500000000004,52.994,52.994,46.997,46.997,34.0,-24.9575,20.5,-33.22,26.6625,0.0,1782.192,0.8449999999999989,100.0,27.984,27.966,43.347,43.863,0.0,0.0,100.0,0.0,0.0,0.0,0.0,2995.285714285714,2874.5,4431.375,4088.1000000000004,305.8375,305.564,314.201,314.73625,22.023699999999998,20.6373,22.0094,21.528,314.999998,314.999998,324.999988,324.999988,99.56027142857143,99.50736666666667,99.56761428571428,99.54838571428571,0.027666666666666728,-0.10299999999999998,-0.14183333333333337,0.08516666666666683,-0.06833333333332803,-0.03499999999999659,1.4889999999999999,1.5390000000000001,38.647999999999996,29.983,38.559,35.55,56.306,35.3525,59.6795,53.002,54.204,34.4505,58.25,51.309,53.333,33.9725,58.1365,50.70766666666667,-0.008000000000000007,-0.14250000000000007,0.11259500000000001,0.10589000000000001,0.0,215.23000000000002,215.09,211.87666666666667,211.87666666666667,0.0,0.0
25,0.0,0.0,0.0,1.0,1.0,0.0,0.0,1.0,0.0,100.0,1.0,1.1856,26.0,0.0,0.0,0.0,59.999996,0.0,26.0,26.0,26.0,26.0,-0.07999999999999996,0.25880000000000014,-0.047400000000000005,292.404,-2.7499000000000002,-2.6592000000000002,-1.56,-1.5703,-191.51,215.95749999999998,190.457,0.0,0.0,0.0,0.0,0.05053333333333333,-5.498166666666667,-5.498166666666667,-0.6062000000000001,-0.02666666666666667,-0.014111111111111185,-1.631,68.861,-0.051999999999999935,-0.218925,1.4800000000000004,100.0,1.0,1.0,212.45666666666668,0.0,0.0,0.0,0.0,0.0,0.0,0.0,9005.2,0.0,55.0,5.0,247.87333333333333,1.0,0.0,0.0,0.0,0.0,0.0,0.0,0.0,1.256999999999998,1.256999999999998,0.0,0.0,1.0,55.0,616.79921,10000.0,85.000001,85.000001,85.000001,85.000001,395.0,0.0,0.0,0.0,1.0,166.665,52.17,52.17,47.806,47.806,34.0,-30.064999999999998,20.919999999999998,-31.373333333333335,24.015,0.0,1782.139,0.7650000000000006,100.0,27.988,27.927,43.397999999999996,43.287,0.0,0.0,100.0,0.0,0.0,0.0,0.0,3343.4285714285716,3138.9,4051.75,3951.8,304.9725,304.77633333333335,315.07775,315.10725,22.0337,20.6431,22.0203,21.5375,314.999998,314.999998,324.999988,324.999988,99.56027142857143,99.5074,99.56777142857143,99.54854285714286,-0.0040000000000000036,-0.1376666666666666,-0.17966666666666664,0.05049999999999999,-0.054999999999999716,-0.03833333333332689,1.5394999999999999,1.5979999999999999,38.711,30.019333333333336,38.626999999999995,35.6095,56.288,35.394999999999996,59.716499999999996,53.059,54.187,34.4895,58.284,51.3635,53.315,34.0105,58.168,50.760999999999996,-0.020499999999999963,-0.14400000000000013,0.09954500000000001,0.11587000000000001,0.0,215.64,215.515,212.45666666666668,212.45666666666668,0.0,0.0
26,0.0,0.0,0.0,1.0,1.0,0.0,0.0,1.0,0.0,100.0,1.0,1.1856,26.0,0.0,0.0,0.0,59.999996,0.0,26.0,26.0,26.0,26.0,-0.12888888888888894,0.2682,0.059566666666666664,291.26,-2.6677,-2.7659000000000002,-1.5821,-1.5865,-188.2,215.96,190.432625,0.0,0.0,0.0,0.0,0.05246666666666667,-5.498166666666667,-5.498166666666667,-0.5675,0.852,-0.05977777777777771,-1.325,68.988,-0.08299999999999996,-0.18875,1.4760000000000009,100.0,1.0,1.0,212.61,0.0,0.0,0.0,0.0,0.0,0.0,0.0,9011.7,0.0,55.0,5.0,248.32999999999998,0.0,0.0,0.0,0.0,0.0,0.0,0.0,0.0,1.3049999999999997,1.3049999999999997,0.0,0.0,0.0,55.0,616.79921,10000.0,85.000001,85.000001,85.000001,85.000001,395.0,0.0,0.0,0.0,1.0,333.33500000000004,51.498,51.498,46.265,46.265,34.0,-29.619999999999997,19.924,-39.39333333333333,25.545,0.0,1782.091,0.5399999999999991,100.0,29.057,28.39,44.046,43.347,0.0,0.0,100.0,0.0,0.0,0.0,0.0,3358.714285714286,2986.0,4625.875,4336.3,304.7665,305.07466666666664,313.76025,314.15725,22.043,20.6484,22.0302,21.5461,314.999998,314.999998,324.999988,324.999988,99.56028571428571,99.5074,99.56791428571428,99.54867142857142,-0.002666666666666595,-0.16066666666666674,-0.2091666666666666,0.01333333333333342,-0.046666666666666856,-0.041666666666671404,1.4249999999999998,1.4739999999999998,38.769,30.052666666666667,38.689,35.6635,56.275,35.438,59.7565,53.1155,54.174,34.528999999999996,58.3215,51.418,53.302,34.048,58.2025,50.814,-0.038000000000000034,-0.12850000000000006,0.09916000000000001,0.11389,0.0,216.075,215.95,212.61,212.61,0.0,0.0
27,0.0,0.0,0.0,1.0,1.0,0.0,0.0,1.0,0.0,100.0,1.0,1.1856,26.0,0.0,0.0,0.0,59.999996,0.0,26.0,26.0,26.0,26.0,-0.13677777777777778,0.2582,0.0081,291.473,-2.6157,-2.7522,-1.5596999999999999,-1.6738,-184.89,215.96,190.4095,0.0,0.0,0.0,0.0,0.05436666666666667,-5.498166666666667,-5.498166666666667,-0.5874,-1.089,-0.07433333333333358,-0.847,69.113,-0.09109999999999996,-0.23175,1.154,100.0,1.0,1.0,213.02666666666667,0.0,0.0,0.0,0.0,0.0,0.0,0.0,9029.4,0.0,55.0,5.0,248.78,1.0,0.0,0.0,0.0,0.0,0.0,0.0,0.0,1.352999999999998,1.352999999999998,0.0,0.0,1.0,55.0,616.79921,10000.0,85.000001,85.000001,85.000001,85.000001,395.0,0.0,0.0,0.0,1.0,333.33500000000004,51.88,51.88,46.448,46.448,34.0,-29.4425,19.402,-36.29333333333334,24.5375,0.0,1782.043,0.46999999999999886,100.0,28.901,28.053,45.018,43.865,0.0,0.0,100.0,0.0,0.0,0.0,0.0,3327.5714285714284,2946.0,4294.625,4072.1000000000004,304.838,305.34233333333333,314.4405,314.63975,22.0519,20.6535,22.0403,21.5549,314.999998,314.999998,324.999988,324.999988,99.56028571428571,99.50743333333334,99.56805714285714,99.54881428571429,-0.01633333333333331,-0.15933333333333333,-0.22099999999999997,0.0044999999999999485,-0.04999999999999716,-0.02833333333332888,1.4634999999999998,1.4969999999999999,38.825,30.084333333333333,38.751999999999995,35.7185,56.259,35.4775,59.7985,53.173500000000004,54.16,34.566,58.361,51.4735,53.286,34.083,58.2385,50.868,-0.04749999999999999,-0.11699999999999999,0.107425,0.10114500000000001,0.0,216.38,216.26999999999998,213.02666666666667,213.02666666666667,0.0,0.0
28,0.0,0.0,0.0,1.0,1.0,0.0,0.0,1.0,0.0,100.0,1.0,1.1856,26.0,0.0,0.0,0.0,59.999996,0.0,26.0,26.0,26.0,26.0,-0.11955555555555553,0.25439999999999996,-0.04343333333333333,291.901,-2.6465,-2.7338,-1.5118,-1.6312,-181.14999999999998,215.95749999999998,190.38275,0.0,0.0,0.0,0.0,0.05653333333333334,-5.498166666666667,-5.498166666666667,-0.5963,0.6276666666666666,-0.07422222222222219,-0.40900000000000003,69.249,-0.09419999999999995,-0.210575,1.08,100.0,1.0,1.0,213.59333333333333,0.0,0.0,0.0,0.0,0.0,0.0,0.0,9053.4,0.0,55.0,5.0,249.26999999999998,0.0,0.0,0.0,0.0,0.0,0.0,0.0,0.0,1.407,1.407,0.0,0.0,0.0,55.0,616.79921,10000.0,85.000001,85.000001,85.000001,85.000001,395.0,0.0,0.0,0.0,1.0,166.665,51.926,51.926,47.409,47.409,34.0,-29.682499999999997,19.358,-33.413333333333334,23.595,0.0,1781.989,0.3049999999999997,100.0,28.988,28.018,44.336,43.246,0.0,0.0,100.0,0.0,0.0,0.0,0.0,3354.285714285714,2915.4,4145.125,4076.0,304.812,305.425,314.842,314.8105,22.0622,20.6593,22.0512,21.5644,314.999998,314.999998,324.999988,324.999988,99.56028571428571,99.50745,99.56821428571429,99.54897142857143,-0.010333333333333306,-0.15133333333333332,-0.21383333333333332,0.00550000000000006,-0.04999999999999716,-0.04333333333332945,1.5274999999999999,1.5604999999999998,38.888999999999996,30.120333333333335,38.82,35.7775,56.244,35.522999999999996,59.8375,53.2325,54.144999999999996,34.608000000000004,58.3975,51.53,53.271,34.1235,58.272,50.923,-0.055499999999999994,-0.10549999999999993,0.10202000000000001,0.10699000000000002,0.0,216.86,216.735,213.59333333333333,213.59333333333333,0.0,0.0
29,0.0,0.0,0.0,1.0,1.0,0.0,0.0,1.0,0.0,100.0,1.0,1.1856,26.0,0.0,0.0,0.0,59.999996,0.0,26.0,26.0,26.0,26.0,-0.1233333333333334,0.26880000000000015,0.0264,291.443,-2.6628,-2.6923,-1.5553,-1.6105,-177.82,215.9525,190.358,0.0,0.0,0.0,0.0,0.05846666666666667,-5.498166666666667,-5.498166666666667,-0.6004,-0.7546666666666666,-0.06877777777777805,-0.762,69.376,-0.08709999999999996,-0.20627500000000001,0.8020000000000014,100.0,1.0,1.0,213.7866666666667,0.0,0.0,0.0,0.0,0.0,0.0,0.0,9061.6,0.0,55.0,5.0,249.72666666666666,1.0,0.0,0.0,0.0,0.0,0.0,0.0,0.0,1.4549999999999983,1.4549999999999983,0.0,0.0,1.0,55.0,616.79921,10000.0,85.000001,85.000001,85.000001,85.000001,395.0,0.0,0.0,0.0,1.0,333.33500000000004,51.91,51.91,46.265,46.265,34.0,-30.07,20.432,-36.416666666666664,25.2825,0.0,1781.94,0.21499999999999986,100.0,28.604,27.809,44.69,43.525999999999996,0.0,0.0,100.0,0.0,0.0,0.0,0.0,3422.5714285714284,3087.1,4436.5,4200.9,304.7285,305.00466666666665,314.1505,314.42525,22.070999999999998,20.6643,22.0611,21.5732,314.999998,314.999998,324.999988,324.999988,99.56028571428571,99.50746666666667,99.56837142857142,99.54911428571428,-0.0033333333333331883,-0.1456666666666666,-0.1971666666666666,0.018166666666666664,-0.04833333333333201,-0.046666666666666856,1.4495,1.476,38.944,30.152,38.882,35.832,56.226,35.564499999999995,59.8795,53.293,54.128,34.646,58.4375,51.588,53.253,34.16,58.3085,50.97966666666667,-0.06699999999999995,-0.10299999999999998,0.094615,0.10641,0.0,217.2,217.11,213.7866666666667,213.7866666666667,0.0,0.0
30,0.0,0.0,0.0,1.0,1.0,0.0,0.0,1.0,0.0,100.0,1.0,1.1856,26.0,0.0,0.0,0.0,59.999996,0.0,26.0,26.0,26.0,26.0,-0.1123333333333334,0.26560000000000006,0.06443333333333334,291.061,-2.6432,-2.6768,-1.4892,-1.6673,-174.28,215.945,190.3315,0.0,0.0,0.0,0.0,0.06053333333333334,-5.498166666666667,-5.498166666666667,-0.5992000000000001,0.8033333333333333,-0.06933333333333369,0.73,69.504,-0.07639999999999991,-0.211625,0.6400000000000006,100.0,1.0,1.0,214.25333333333333,0.0,0.0,0.0,0.0,0.0,0.0,0.0,9081.4,0.0,55.0,5.0,250.18666666666667,0.0,0.0,0.0,0.0,0.0,0.0,1.0,0.0,1.5060000000000002,1.5060000000000002,0.0,0.0,0.0,55.0,616.79921,10000.0,85.000001,85.000001,85.000001,85.000001,395.0,0.0,0.0,0.0,1.0,166.665,50.995,50.995,46.753,46.753,34.0,-28.7725,21.694000000000003,-33.22666666666666,27.5575,0.0,1781.89,0.03999999999999915,100.0,29.608,28.414,44.627,43.465,0.0,0.0,100.0,0.0,0.0,0.0,0.0,3409.714285714286,3110.4,4286.875,4264.6,304.4305,304.9216666666667,314.44775,314.28125,22.0808,20.67,22.0715,21.5823,314.999998,314.999998,324.999988,324.999988,99.56028571428571,99.50748333333334,99.56851428571429,99.54925714285714,0.027666666666666728,-0.11833333333333318,-0.1815,0.03716666666666679,-0.04999999999999716,-0.03999999999999915,1.459,1.4935,39.004999999999995,30.187666666666665,38.947,35.8895,56.214,35.6065,59.9155,53.348,54.117000000000004,34.685,58.4705,51.641,53.241,34.197,58.339,51.031,-0.07999999999999996,-0.08499999999999996,0.09878500000000001,0.10932000000000001,0.0,217.625,217.55,214.25333333333333,214.25333333333333,0.0,0.0
31,0.0,0.0,0.0,1.0,1.0,0.0,0.0,1.0,0.0,100.0,1.0,1.1856,26.0,0.0,0.0,0.0,59.999996,0.0,26.0,26.0,26.0,26.0,-0.0915555555555555,0.2499,0.0025666666666666667,291.061,-2.7197,-2.7443,-1.5834000000000001,-1.6538,-170.73000000000002,215.9325,190.30575,0.0,0.0,0.0,0.0,0.0626,-5.498166666666667,-5.498166666666667,-0.5822,-0.5463333333333333,-0.056888888888888545,-0.772,69.635,-0.06099999999999994,-0.2099,0.3279999999999994,100.0,1.0,1.0,214.55,0.0,0.0,0.0,0.0,0.0,0.0,0.0,9094.0,0.0,55.0,5.0,250.66,1.0,0.0,0.0,0.0,0.0,0.0,1.0,0.0,1.5569999999999986,1.5569999999999986,0.0,0.0,1.0,55.0,616.79921,10000.0,85.000001,85.000001,85.000001,85.000001,395.0,0.0,0.0,0.0,1.0,166.665,51.772999999999996,51.772999999999996,45.334,45.334,34.0,-27.08,21.462,-36.34,27.6325,0.0,1781.84,-0.0649999999999995,100.0,29.099,28.616,45.134,44.237,0.0,0.0,100.0,0.0,0.0,0.0,0.0,3199.5714285714284,2968.3,4510.375,4227.8,305.4,305.204,313.9675,314.43925,22.0902,20.6756,22.0822,21.5917,314.999998,314.999998,324.999988,324.999988,99.5603,99.5075,99.56867142857143,99.5494,0.025333333333333208,-0.11433333333333318,-0.17416666666666658,0.04633333333333334,-0.04999999999999716,-0.04833333333333201,1.4445000000000001,1.4575,39.064,30.222666666666665,39.013999999999996,35.948499999999996,56.198,35.649,59.9585,53.4095,54.102000000000004,34.724000000000004,58.510999999999996,51.7005,53.225,34.2345,58.3765,51.089,-0.09150000000000003,-0.07200000000000006,0.10275000000000001,0.10562,0.0,217.98000000000002,217.95,214.55,214.55,0.0,0.0
32,0.0,0.0,0.0,1.0,1.0,0.0,0.0,1.0,0.0,100.0,1.0,1.1856,26.0,0.0,0.0,0.0,59.999996,0.0,26.0,26.0,26.0,26.0,-0.054444444444444406,0.2518,-0.07513333333333334,291.367,-2.6603,-2.7444,-1.6118999999999999,-1.5581,-167.39,215.92000000000002,190.28175,0.0,0.0,0.0,0.0,0.06456666666666666,-5.498166666666667,-5.498166666666667,-0.6041000000000001,0.064,-0.07588888888888867,-0.954,69.753,-0.047699999999999965,-0.223925,0.28800000000000026,100.0,1.0,1.0,215.10333333333335,0.0,0.0,0.0,0.0,0.0,0.0,0.0,9117.5,0.0,55.0,5.0,251.08666666666664,0.0,0.0,0.0,0.0,0.0,0.0,1.0,0.0,1.6050000000000004,1.6050000000000004,0.0,0.0,0.0,55.0,616.79921,10000.0,85.000001,85.000001,85.000001,85.000001,395.0,0.0,0.0,0.0,1.0,333.33500000000004,51.315,51.315,46.646,46.646,34.0,-27.335,22.89,-32.016666666666666,25.5225,0.0,1781.791,-0.11999999999999922,100.0,29.082,28.705,44.744,44.035,0.0,0.0,100.0,0.0,0.0,0.0,0.0,3373.857142857143,3039.5,4172.5,4051.4,304.7825,305.028,314.87125,314.962,22.0992,20.681,22.092,21.6004,314.999998,314.999998,324.999988,324.999988,99.5603,99.5075,99.56881428571428,99.54954285714285,0.047666666666666746,-0.09333333333333327,-0.15716666666666657,0.06666666666666687,-0.045000000000001705,-0.05666666666667197,1.54,1.549,39.120000000000005,30.256,39.075,36.0025,56.185,35.689,59.993,53.464,54.089,34.760999999999996,58.5435,51.7525,53.211,34.2695,58.406,51.13966666666666,-0.09399999999999997,-0.07050000000000001,0.10368000000000001,0.10817500000000001,0.0,218.36,218.325,215.10333333333335,215.10333333333335,0.0,0.0
33,0.0,0.0,0.0,1.0,1.0,0.0,0.0,1.0,0.0,100.0,1.0,1.1856,26.0,0.0,0.0,0.0,59.999996,0.0,26.0,26.0,26.0,26.0,-0.047111111111111104,0.25660000000000016,-0.0398,291.351,-2.6696999999999997,-2.7399,-1.5753,-1.6355,-163.82999999999998,215.905,190.255125,0.0,0.0,0.0,0.0,0.06663333333333334,-5.498166666666667,-5.498166666666667,-0.6052000000000001,-0.3273333333333333,-0.06499999999999995,1.278,69.883,-0.03479999999999994,-0.208175,0.10200000000000031,100.0,1.0,1.0,215.37333333333333,0.0,0.0,0.0,0.0,0.0,0.0,0.0,9128.9,0.0,55.0,5.0,251.55333333333334,1.0,0.0,0.0,0.0,0.0,0.0,1.0,0.0,1.6559999999999988,1.6559999999999988,0.0,0.0,1.0,55.0,616.79921,10000.0,85.000001,85.000001,85.000001,85.000001,395.0,0.0,0.0,0.0,1.0,166.665,52.002,52.002,46.234,46.234,34.0,-24.28,23.107999999999997,-32.416666666666664,30.035,0.0,1781.742,-0.23499999999999943,100.0,29.025,28.3,44.769999999999996,44.043,0.0,0.0,100.0,0.0,0.0,0.0,0.0,3109.857142857143,3030.4,4300.0,4324.2,305.4465,305.235,314.43975,314.2415,22.1086,20.6865,22.1024,21.6097,314.999998,314.999998,324.999988,324.999988,99.56031428571428,99.50751666666666,99.56895714285714,99.54968571428572,0.06700000000000017,-0.08033333333333315,-0.14316666666666666,0.08216666666666672,-0.02833333333332888,-0.054999999999999716,1.4819999999999998,1.4665,39.179,30.290333333333333,39.14,36.0605,56.17,35.7275,60.0315,53.5235,54.075,34.7965,58.579499999999996,51.8095,53.197,34.304,58.439,51.19533333333334,-0.10299999999999998,-0.06350000000000011,0.10671000000000001,0.10601000000000001,0.0,218.75,218.72,215.37333333333333,215.37333333333333,0.0,0.0
34,0.0,0.0,0.0,1.0,1.0,0.0,0.0,1.0,0.0,100.0,1.0,1.1856,26.0,0.0,0.0,0.0,59.999996,0.0,26.0,26.0,26.0,26.0,-0.0464444444444444,0.2481,-0.0604,291.687,-2.7339,-2.6927,-1.6083,-1.5947,-160.47,215.89,190.229125,0.0,0.0,0.0,0.0,0.06856666666666666,-5.498166666666667,-5.498166666666667,-0.6334000000000001,-0.741,-0.03188888888888908,1.15,70.003,-0.02199999999999991,-0.21652500000000002,-0.006000000000000227,100.0,1.0,1.0,215.79000000000002,0.0,0.0,0.0,0.0,0.0,0.0,0.0,9146.6,0.0,55.0,5.0,251.98333333333335,0.0,0.0,0.0,0.0,0.0,0.0,1.0,0.0,1.7040000000000006,1.7040000000000006,0.0,0.0,0.0,55.0,616.79921,10000.0,85.000001,85.000001,85.000001,85.000001,395.0,0.0,0.0,0.0,1.0,166.665,52.2,52.2,47.211,47.211,34.0,-25.0525,23.299999999999997,-30.043333333333333,28.965,0.0,1781.693,-0.23499999999999943,100.0,28.754,28.002,44.49,44.157,0.0,0.0,100.0,0.0,0.0,0.0,0.0,3163.857142857143,3035.3,4074.375,4242.5,305.3185,305.304,315.027,314.4025,22.1173,20.6916,22.1122,21.6184,314.999998,314.999998,324.999988,324.999988,99.56031428571428,99.50753333333333,99.56908571428572,99.54982857142858,0.07366666666666655,-0.06433333333333313,-0.132,0.08800000000000008,-0.03333333333333144,-0.05333333333332746,1.5154999999999998,1.5070000000000001,39.233000000000004,30.322666666666667,39.201,36.115,56.155,35.763,60.0655,53.579499999999996,54.061,34.829499999999996,58.611,51.8635,53.182,34.335,58.4675,51.248,-0.10350000000000004,-0.06299999999999994,0.10669000000000001,0.10191000000000001,0.0,219.07999999999998,219.095,215.79000000000002,215.79000000000002,0.0,0.0
35,0.0,0.0,0.0,1.0,1.0,0.0,0.0,1.0,0.0,100.0,1.0,1.1856,26.0,0.0,0.0,0.0,59.999996,0.0,26.0,26.0,26.0,26.0,-0.014666666666666606,0.2410000000000001,-0.0863,291.763,-2.7462,-2.6515,-1.585,-1.5713,-156.89999999999998,215.8725,190.199375,0.0,0.0,0.0,0.0,0.07066666666666667,-5.498166666666667,-5.498166666666667,-0.676,-0.516,-0.03644444444444428,-0.866,70.129,-0.005499999999999949,-0.223175,-0.1479999999999997,100.0,1.0,1.0,216.23666666666668,0.0,0.0,0.0,0.0,0.0,0.0,0.0,9165.4,0.0,55.0,5.0,252.44,1.0,0.0,0.0,0.0,0.0,0.0,1.0,0.0,1.754999999999999,1.754999999999999,0.0,0.0,1.0,55.0,616.79921,10000.0,85.000001,85.000001,85.000001,85.000001,395.0,0.0,0.0,0.0,1.0,333.33500000000004,51.971000000000004,51.971000000000004,46.524,46.524,34.0,-25.2,25.064,-29.666666666666664,27.785,0.0,1781.64,-0.16499999999999915,100.0,28.347,28.334,44.169,43.827,0.0,0.0,100.0,0.0,0.0,0.0,0.0,3174.4285714285716,3227.3,4143.125,4010.4,305.4645,304.50333333333333,314.779,314.98975,22.1265,20.6973,22.1225,21.6275,314.999998,314.999998,324.999988,324.999988,99.56032857142857,99.50753333333333,99.56924285714285,99.54998571428571,0.06966666666666654,-0.06033333333333313,-0.118,0.11050000000000004,-0.046666666666666856,-0.06333333333333258,1.536,1.5230000000000001,39.29,30.358,39.265,36.172,56.138999999999996,35.8015,60.1005,53.635999999999996,54.045,34.8655,58.644,51.918,53.165,34.3695,58.497,51.301,-0.08899999999999997,-0.06299999999999994,0.10801000000000001,0.10534,0.0,219.47500000000002,219.49,216.23666666666668,216.23666666666668,0.0,0.0
