,ABS Active,ABS Enabled,AID Allow Tire Blankets,AID Auto Blip,AID Auto Clutch,AID Auto Shift,AID Fuel Rate,AID Ideal Line,AID Mech Damage,AID Stability,AID Tire Wear Rate,Air Density,Air Temp,Ballast,Best Lap Delta,Best Lap Time,Brake Bias,Brake Pos,Brake Temp FL,Brake Temp FR,Brake Temp RL,Brake Temp RR,CG Accel Lateral,CG Accel Longitudinal,CG Accel Vertical,CG Height,Camber FL,Camber FR,Camber RL,Camber RR,Car Coord X,Car Coord Y,Car Coord Z,Car Damage Front,Car Damage Left,Car Damage Rear,Car Damage Right,Car Pos Norm,Caster FL,Caster FR,Chassis Pitch Angle,Chassis Pitch Rate,Chassis Roll Angle,Chassis Roll Rate,Chassis Velocity X,Chassis Velocity Y,Chassis Velocity Z,Chassis Yaw Rate,Clutch Pos,DRS Active,DRS Available,Drive Train Speed,ERS Heat Charging,ERS Is Charging,ERS Max Energy,ERS Power Level,ERS Recovery Level,Engine Brake Setting,Engine Limiter,Engine RPM,Flags,Fuel Level,Gear,Ground Speed,HR Sample Clock,In Pit,KERS Charge,KERS Deployed Energy,KERS Input,KERS Max Energy,LR Sample Clock,Lap Invalidated,Lap Time,Lap Time2,Last Lap Time,Last Sector Time,MR Sample Clock,Max Fuel,Max Power,Max RPM,Max Sus Travel FL,Max Sus Travel FR,Max Sus Travel RL,Max Sus Travel RR,Max Torque,Max Turbo Boost,Num Tires Off Track,Penalties Enabled,Position,Raw Data Sample Rate,Ride Height FL,Ride Height FR,Ride Height RL,Ride Height RR,Road Temp,Self Align Torque FL,Self Align Torque FR,Self Align Torque RL,Self Align Torque RR,Session Lap Count,Session Time Left,Steering Angle,Surface Grip,Suspension Travel FL,Suspension Travel FR,Suspension Travel RL,Suspension Travel RR,TC Active,TC Enabled,Throttle Pos,Tire Dirt Level FL,Tire Dirt Level FR,Tire Dirt Level RL,Tire Dirt Level RR,Tire Load FL,Tire Load FR,Tire Load RL,Tire Load RR,Tire Loaded Radius FL,Tire Loaded Radius FR,Tire Loaded Radius RL,Tire Loaded Radius RR,Tire Pressure FL,Tire Pressure FR,Tire Pressure RL,Tire Pressure RR,Tire Radius FL,Tire Radius FR,Tire Radius RL,Tire Radius RR,Tire Rubber Grip FL,Tire Rubber Grip FR,Tire Rubber Grip RL,Tire Rubber Grip RR,Tire Slip Angle FL,Tire Slip Angle FR,Tire Slip Angle RL,Tire Slip Angle RR,Tire Slip Ratio FL,Tire Slip Ratio FR,Tire Slip Ratio RL,Tire Slip Ratio RR,Tire Temp Core FL,Tire Temp Core FR,Tire Temp Core RL,Tire Temp Core RR,Tire Temp Inner FL,Tire Temp Inner FR,Tire Temp Inner RL,Tire Temp Inner RR,Tire Temp Middle FL,Tire Temp Middle FR,Tire Temp Middle RL,Tire Temp Middle RR,Tire Temp Outer FL,Tire Temp Outer FR,Tire Temp Outer RL,Tire Temp Outer RR,Toe In FL,Toe In FR,Toe In RL,Toe In RR,Turbo Boost,Wheel Angular Speed FL,Wheel Angular Speed FR,Wheel Angular Speed RL,Wheel Angular Speed RR,Wind Direction,Wind Speed
0,0.0,0.0,0.0,1.0,1.0,0.0,0.0,1.0,0.0,100.0,1.0,1.1856,26.0,0.0,0.0,0.0,59.99999,0.0,26.0,26.0,26.0,26.0,-0.05588888888888888,0.2902,0.137275,296.432,-2.79415,-2.7234,-1.5244,-1.5569000000000002,-275.72,216.255,190.99025,0.0,0.0,0.0,0.0,0.0015666666666666051,-5.498166666666667,-5.498166666666667,-0.46230000000000004,2.0443333333333333,-0.003666666666666707,-1.0539999999999998,65.369,-0.032200000000000006,-0.10483333333333333,0.9779999999999998,100.0,1.0,1.0,201.91,0.0,0.0,0.0,0.0,0.0,0.0,0.0,8558.3,0.0,55.0,5.0,235.29666666666668,0.0,0.0,0.0,0.0,0.0,0.0,0.0,0.0,0.0030000000000001137,0.0030000000000001137,0.0,0.0,0.0,55.0,616.79921,10000.0,85.0,85.0,85.0,85.0,395.0,0.0,0.0,0.0,1.0,20.0,57.8,57.8,49.774,49.774,34.0,-26.448,24.48,-28.086666666666666,23.1125,0.0,1782.374,0.7949999999999999,100.0,22.76,22.2425,40.766,40.951,0.0,0.0,100.0,0.0,0.0,0.0,0.0,2909.25,3258.6,3913.875,3784.4,306.03833333333336,304.3295,315.40575,315.4535,21.7583,20.4394,21.739,21.319,314.99999,314.99999,324.99998,324.99998,99.56071428571428,99.50613333333334,99.5619,99.54452857142857,-0.01649999999999996,-0.09175,-0.15333333333333332,0.06333333333333324,-0.046666666666666856,-0.06666666666666998,1.5693333333333332,1.607,36.989000000000004,28.746000000000002,36.869,34.2435,56.671,33.292,58.0295,51.447,54.46,32.562,56.668,49.818666666666665,53.522999999999996,32.1755,56.602000000000004,49.249,0.0044999999999999485,-0.10349999999999993,0.10134000000000001,0.10665000000000001,0.0,204.85000000000002,204.785,201.91,201.91,0.0,0.0
1,0.0,0.0,0.0,1.0,1.0,0.0,0.0,1.0,0.0,100.0,1.0,1.1856,26.0,0.0,0.0,0.0,59.999996,0.0,26.0,26.0,26.0,26.0,-0.11077777777777786,0.33110000000000017,0.1044,295.547,-2.7208,-2.8436,-1.53485,-1.5647,-272.38,216.25,190.970125,0.0,0.0,0.0,0.0,0.0034999999999999476,-5.498166666666667,-5.498166666666667,-0.3311,0.16933333333333334,-0.05777777777777793,-0.7330000000000001,65.53399999999999,-0.04830000000000001,-0.00915,1.2260000000000009,100.0,1.0,1.0,201.88666666666666,0.0,0.0,0.0,0.0,0.0,0.0,0.0,8557.3,0.0,55.0,5.0,235.89,1.0,0.0,0.0,0.0,0.0,0.0,0.0,0.0,0.053999999999998494,0.053999999999998494,0.0,0.0,1.0,55.0,616.79921,10000.0,85.000001,85.000001,85.000001,85.000001,395.0,0.0,0.0,0.0,1.0,166.665,61.035,61.035,46.524,46.524,34.0,-19.976,12.998000000000001,-37.29333333333334,31.3475,0.0,1782.324,0.9450000000000003,100.0,22.658,21.9795,43.546,42.56,0.0,0.0,100.0,0.0,0.0,0.0,0.0,2283.875,1928.4,4699.5,4976.8,307.82966666666664,308.71575,313.3295,312.42725,21.7676,20.4436,21.7497,21.3282,314.999998,314.999998,324.999988,324.999988,99.56072857142857,99.50615,99.56205714285714,99.54467142857143,-0.03049999999999997,-0.12175000000000002,-0.16366666666666663,0.03216666666666668,-0.03999999999999915,-0.04999999999999716,1.3426666666666667,1.4003333333333332,37.048,28.7725,36.935,34.301,56.646,33.325,58.0805,51.51533333333333,54.436,32.5925,56.716499999999996,49.884,53.499,32.205,56.6475,49.313,0.026499999999999968,-0.121,0.10326500000000001,0.10337500000000001,0.0,205.37,205.265,201.88666666666666,201.88666666666666,0.0,0.0
2,0.0,0.0,0.0,1.0,1.0,0.0,0.0,1.0,0.0,100.0,1.0,1.1856,26.0,0.0,0.0,0.0,59.999996,0.0,26.0,26.0,26.0,26.0,-0.1403333333333333,0.2944,-0.188225,296.356,-2.6743,-2.8773,-1.49715,-1.6249,-268.83,216.24,190.950375,0.0,0.0,0.0,0.0,0.005566666666666609,-5.498166666666667,-5.498166666666667,-0.41250000000000003,-0.18766666666666665,-0.052000000000000046,2.3920000000000003,65.69200000000001,-0.06409999999999993,-0.09538333333333335,1.532,100.0,1.0,1.0,202.98000000000002,0.0,0.0,0.0,0.0,0.0,0.0,0.0,8603.5,0.0,55.0,5.0,236.46,0.0,0.0,0.0,0.0,0.0,0.0,0.0,0.0,0.10800000000000054,0.10800000000000054,0.0,0.0,0.0,55.0,616.79921,10000.0,85.000001,85.000001,85.000001,85.000001,395.0,0.0,0.0,0.0,1.0,166.665,59.219,59.219,49.316,49.316,34.0,-26.454,17.08,-28.793333333333333,20.15,0.0,1782.27,0.8499999999999996,100.0,23.096,21.6685,43.558,42.3,0.0,0.0,100.0,0.0,0.0,0.0,0.0,2838.25,2456.4,3719.125,3656.8,306.066,307.029,315.705,315.85675,21.7777,20.4477,21.7605,21.3375,314.999998,314.999998,324.999988,324.999988,99.56072857142857,99.50615,99.5622,99.54481428571428,-0.05549999999999988,-0.1359999999999999,-0.21633333333333338,0.008499999999999952,-0.07333333333333059,-0.04999999999999716,1.638,1.6976666666666667,37.11,28.798000000000002,37.003,34.359,56.622,33.3565,58.126,51.57666666666667,54.414,32.621,56.7585,49.94266666666667,53.476,32.2325,56.687,49.370333333333335,0.02300000000000013,-0.11650000000000005,0.10923000000000001,0.10080000000000001,0.0,205.815,205.68,202.98000000000002,202.98000000000002,0.0,0.0
3,0.0,0.0,0.0,1.0,1.0,0.0,0.0,1.0,0.0,100.0,1.0,1.1856,26.0,0.0,0.0,0.0,59.999996,0.0,26.0,26.0,26.0,26.0,-0.13222222222222213,0.32810000000000006,0.061000000000000006,296.005,-2.8088,-2.7663,-1.5252,-1.6006,-265.88,216.23000000000002,190.933,0.0,0.0,0.0,0.0,0.007299999999999973,-5.498166666666667,-5.498166666666667,-0.3667,0.8796666666666666,-0.005444444444444585,0.20699999999999996,65.833,-0.07889999999999997,-0.03356666666666667,1.1440000000000001,100.0,1.0,1.0,203.09,0.0,0.0,0.0,0.0,0.0,0.0,0.0,8608.2,0.0,55.0,5.0,236.96666666666667,1.0,0.0,0.0,0.0,0.0,0.0,0.0,0.0,0.1529999999999987,0.1529999999999987,0.0,0.0,1.0,55.0,616.79921,10000.0,85.000001,85.000001,85.000001,85.000001,395.0,0.0,0.0,0.0,1.0,166.665,60.349000000000004,60.349000000000004,47.104,47.104,34.0,-21.5,16.104,-35.36333333333333,25.310000000000002,0.0,1782.225,0.8350000000000009,100.0,22.696,21.7565,43.246,42.252,0.0,0.0,100.0,0.0,0.0,0.0,0.0,2349.625,2391.9,4374.125,4324.0,307.613,307.2025,314.13025,314.145,21.785899999999998,20.4515,21.7695,21.3453,314.999998,314.999998,324.999988,324.999988,99.56072857142857,99.50616666666667,99.56232857142857,99.54494285714286,-0.03974999999999995,-0.12775000000000003,-0.19766666666666666,0.011333333333333417,-0.054999999999999716,-0.06499999999999773,1.4563333333333333,1.5086666666666666,37.162,28.822,37.059,34.408,56.601,33.388,58.163,51.632333333333335,54.394,32.65,56.7935,49.99633333333333,53.456,32.26,56.7195,49.423,0.0050000000000001155,-0.10200000000000009,0.104245,0.10873000000000001,0.0,206.325,206.20499999999998,203.09,203.09,0.0,0.0
4,0.0,0.0,0.0,1.0,1.0,0.0,0.0,1.0,0.0,100.0,1.0,1.1856,26.0,0.0,0.0,0.0,59.999996,0.0,26.0,26.0,26.0,26.0,-0.14988888888888885,0.30910000000000015,-0.01695,296.265,-2.74075,-2.8216,-1.5423499999999999,-1.6116000000000001,-262.32,216.215,190.912125,0.0,0.0,0.0,0.0,0.009366666666666523,-5.498166666666667,-5.498166666666667,-0.393,-1.004,-0.07577777777777772,-0.796,65.999,-0.0796,-0.06431666666666666,1.096,100.0,1.0,1.0,203.68,0.0,0.0,0.0,0.0,0.0,0.0,0.0,8633.3,0.0,55.0,5.0,237.56333333333333,0.0,0.0,0.0,0.0,0.0,0.0,0.0,0.0,0.20700000000000074,0.20700000000000074,0.0,0.0,0.0,55.0,616.79921,10000.0,85.000001,85.000001,85.000001,85.000001,395.0,0.0,0.0,0.0,1.0,166.665,60.242,60.242,47.531,47.531,34.0,-24.714,16.268,-33.099999999999994,22.045,0.0,1782.171,0.8800000000000008,100.0,22.335,21.355,43.873000000000005,42.543,0.0,0.0,100.0,0.0,0.0,0.0,0.0,2647.875,2427.4,4143.375,3783.7,306.85633333333334,307.1635,314.624,315.4015,21.7956,20.4558,21.7805,21.3548,314.999998,314.999998,324.999988,324.999988,99.56074285714286,99.50618333333334,99.56247142857143,99.54508571428572,-0.060249999999999915,-0.14124999999999988,-0.1961666666666666,0.020499999999999963,-0.07666666666666799,-0.061666666666667425,1.5166666666666666,1.551,37.222,28.849,37.128,34.4675,56.572,33.4225,58.212,51.698,54.367000000000004,32.6815,56.8395,50.059,53.43,32.2905,56.7625,49.48433333333333,0.02750000000000008,-0.11349999999999993,0.10812000000000001,0.10232500000000001,0.0,206.74,206.65,203.68,203.68,0.0,0.0
5,0.0,0.0,0.0,1.0,1.0,0.0,0.0,1.0,0.0,100.0,1.0,1.1856,26.0,0.0,0.0,0.0,59.999996,0.0,26.0,26.0,26.0,26.0,-0.13744444444444448,0.3126,-0.0256,296.371,-2.7472,-2.8481,-1.51915,-1.6024,-259.14,216.2,190.893125,0.0,0.0,0.0,0.0,0.011199999999999988,-5.498166666666667,-5.498166666666667,-0.3886,0.5333333333333334,-0.08344444444444443,1.044,66.143,-0.0847,-0.045033333333333335,1.1059999999999999,100.0,1.0,1.0,204.11666666666667,0.0,0.0,0.0,0.0,0.0,0.0,0.0,8651.7,0.0,55.0,5.0,238.08333333333331,1.0,0.0,0.0,0.0,0.0,0.0,0.0,0.0,0.254999999999999,0.254999999999999,0.0,0.0,1.0,55.0,616.79921,10000.0,85.000001,85.000001,85.000001,85.000001,395.0,0.0,0.0,0.0,1.0,333.33500000000004,60.608,60.608,47.943,47.943,34.0,-23.484,16.099999999999998,-33.72333333333333,23.552500000000002,0.0,1782.121,0.5850000000000009,100.0,22.455,21.1695,43.549,42.05,0.0,0.0,100.0,0.0,0.0,0.0,0.0,2560.5,2304.0,4205.625,4132.1,306.9836666666667,307.56575,314.58325,314.64425,21.8045,20.4597,21.7901,21.363,314.999998,314.999998,324.999988,324.999988,99.56074285714286,99.5062,99.56261428571429,99.54521428571428,-0.04349999999999987,-0.11924999999999986,-0.2051666666666666,0.005833333333333357,-0.07333333333333059,-0.07499999999999574,1.508,1.542,37.278,28.872999999999998,37.188,34.519,56.552,33.453,58.2535,51.75266666666667,54.348,32.71,56.878,50.111333333333334,53.41,32.317,56.7985,49.535333333333334,-0.0030000000000000027,-0.08600000000000008,0.100665,0.10486000000000001,0.0,207.255,207.14,204.11666666666667,204.11666666666667,0.0,0.0
6,0.0,0.0,0.0,1.0,1.0,0.0,0.0,1.0,0.0,100.0,1.0,1.1856,26.0,0.0,0.0,0.0,59.999996,0.0,26.0,26.0,26.0,26.0,-0.10977777777777786,0.31130000000000013,-0.005,296.295,-2.7225,-2.8789,-1.5642,-1.5953,-255.77,216.1775,190.87275,0.0,0.0,0.0,0.0,0.013166666666666549,-5.498166666666667,-5.498166666666667,-0.3773,0.145,-0.06633333333333358,-0.5840000000000001,66.298,-0.08429999999999993,-0.037700000000000004,0.8879999999999999,100.0,1.0,1.0,204.56,0.0,0.0,0.0,0.0,0.0,0.0,0.0,8670.6,0.0,55.0,5.0,238.64333333333332,0.0,0.0,0.0,0.0,0.0,0.0,0.0,0.0,0.30600000000000094,0.30600000000000094,0.0,0.0,0.0,55.0,616.79921,10000.0,85.000001,85.000001,85.000001,85.000001,395.0,0.0,0.0,0.0,1.0,166.665,60.623,60.623,47.623,47.623,34.0,-23.712,16.84,-34.42,23.325000000000003,0.0,1782.072,0.15000000000000036,100.0,21.955,21.1935,43.527,42.39,0.0,0.0,100.0,0.0,0.0,0.0,0.0,2646.375,2306.0,4243.875,4093.9,306.8686666666667,307.2975,314.529,314.65075,21.8137,20.4638,21.8004,21.372,314.999998,314.999998,324.999988,324.999988,99.56074285714286,99.5062,99.56275714285714,99.54535714285714,-0.03400000000000003,-0.11099999999999999,-0.19933333333333336,0.005333333333333412,-0.054999999999999716,-0.04333333333332945,1.496,1.5283333333333333,37.336,28.899,37.251999999999995,34.575,56.528,33.485,58.298,51.815666666666665,54.326,32.739,56.92,50.17166666666667,53.387,32.345,56.8375,49.594,-0.026499999999999968,-0.05449999999999999,0.09922,0.10525000000000001,0.0,207.695,207.60000000000002,204.56,204.56,0.0,0.0
7,0.0,0.0,0.0,1.0,1.0,0.0,0.0,1.0,0.0,100.0,1.0,1.1856,26.0,0.0,0.0,0.0,59.999996,0.0,26.0,26.0,26.0,26.0,-0.07799999999999996,0.3074000000000001,0.015300000000000001,296.097,-2.69355,-2.8075,-1.51895,-1.5865,-252.57999999999998,216.1575,190.8535,0.0,0.0,0.0,0.0,0.015033333333333343,-5.498166666666667,-5.498166666666667,-0.381,-0.036000000000000004,-0.05755555555555558,-0.2650000000000001,66.443,-0.07419999999999993,-0.04541666666666667,0.5700000000000003,100.0,1.0,1.0,204.97,0.0,0.0,0.0,0.0,0.0,0.0,0.0,8687.9,0.0,55.0,5.0,239.16333333333333,1.0,0.0,0.0,0.0,0.0,0.0,0.0,0.0,0.3539999999999992,0.3539999999999992,0.0,0.0,1.0,55.0,616.79921,10000.0,85.000001,85.000001,85.000001,85.000001,395.0,0.0,0.0,0.0,1.0,333.33500000000004,60.333,60.333,47.775,47.775,34.0,-23.637999999999998,17.968,-32.583333333333336,24.84,0.0,1782.023,-0.1349999999999998,100.0,22.008,21.1155,43.592,42.638,0.0,0.0,100.0,0.0,0.0,0.0,0.0,2749.5,2397.4,4187.375,4124.1,306.509,307.08925,314.61325,314.5665,21.822499999999998,20.4678,21.8101,21.3805,314.999998,314.999998,324.999988,324.999988,99.56075714285714,99.50621666666666,99.5629,99.5455,-0.004750000000000032,-0.08174999999999999,-0.1845,0.030666666666666842,-0.061666666666667425,-0.054999999999999716,1.4976666666666667,1.5103333333333333,37.39,28.9235,37.313,34.628,56.504999999999995,33.513999999999996,58.3395,51.87433333333333,54.304,32.766,56.9585,50.228,53.366,32.3705,56.8735,49.64933333333333,-0.04899999999999993,-0.03299999999999992,0.10121500000000001,0.10937500000000001,0.0,208.125,208.055,204.97,204.97,0.0,0.0
8,0.0,0.0,0.0,1.0,1.0,0.0,0.0,1.0,0.0,100.0,1.0,1.1856,26.0,0.0,0.0,0.0,59.999996,0.0,26.0,26.0,26.0,26.0,-0.04122222222222216,0.3069000000000002,-0.042175000000000004,296.387,-2.77725,-2.8139,-1.5024000000000002,-1.5913,-248.99,216.13,190.83175,0.0,0.0,0.0,0.0,0.017100000000000004,-5.498166666666667,-5.498166666666667,-0.38130000000000003,-0.505,-0.04066666666666663,-0.4970000000000001,66.606,-0.05599999999999994,-0.03523333333333333,0.016000000000000014,100.0,1.0,1.0,205.41333333333333,0.0,0.0,0.0,0.0,0.0,0.0,0.0,8706.7,0.0,55.0,5.0,239.75,0.0,0.0,0.0,0.0,0.0,0.0,0.0,0.0,0.40800000000000125,0.40800000000000125,0.0,0.0,0.0,55.0,616.79921,10000.0,85.000001,85.000001,85.000001,85.000001,395.0,0.0,0.0,0.0,1.0,166.665,61.203,61.203,47.104,47.104,34.0,-20.148,17.988,-31.626666666666665,26.415,0.0,1781.97,-0.3100000000000005,100.0,21.634999999999998,21.102,43.61,42.766999999999996,0.0,0.0,100.0,0.0,0.0,0.0,0.0,2424.25,2336.1,4251.25,4165.5,307.568,307.29275,314.437,314.406,21.832,20.4722,21.8209,21.39,314.999998,314.999998,324.999988,324.999988,99.56075714285714,99.50623333333333,99.56304285714286,99.54564285714285,0.017749999999999932,-0.06424999999999992,-0.15666666666666662,0.05066666666666686,-0.05333333333332746,-0.036666666666668846,1.478,1.4913333333333334,37.45,28.951,37.381,34.6875,56.476,33.545500000000004,58.3855,51.93966666666667,54.277,32.795,57.001999999999995,50.29066666666667,53.338,32.3985,56.914,49.71033333333334,-0.07250000000000001,-0.014499999999999957,0.09989,0.105175,0.0,208.60000000000002,208.57999999999998,205.41333333333333,205.41333333333333,0.0,0.0
9,0.0,0.0,0.0,1.0,1.0,0.0,0.0,1.0,0.0,100.0,1.0,1.1856,26.0,0.0,0.0,0.0,59.999996,0.0,26.0,26.0,26.0,26.0,-0.017444444444444485,0.3055000000000001,-0.01115,296.005,-2.76475,-2.8188,-1.56115,-1.5734,-245.79,216.10500000000002,190.811875,0.0,0.0,0.0,0.0,0.018966666666666576,-5.498166666666667,-5.498166666666667,-0.387,0.652,-0.041888888888888864,-0.387,66.747,-0.03420000000000001,-0.03668333333333333,-0.09200000000000053,100.0,1.0,1.0,205.97,0.0,0.0,0.0,0.0,0.0,0.0,0.0,8730.3,0.0,55.0,5.0,240.25666666666666,1.0,0.0,0.0,0.0,0.0,0.0,0.0,0.0,0.4559999999999995,0.4559999999999995,0.0,0.0,1.0,55.0,616.79921,10000.0,85.000001,85.000001,85.000001,85.000001,395.0,0.0,0.0,0.0,1.0,166.665,59.937,59.937,48.065,48.065,34.0,-23.336,19.823999999999998,-29.91,26.9775,0.0,1781.921,-0.47000000000000064,100.0,22.1,21.5265,43.317,42.772,0.0,0.0,100.0,0.0,0.0,0.0,0.0,2828.5,2440.5,4097.125,4115.7,306.352,306.90225,314.8985,314.62325,21.8407,20.4763,21.8305,21.3984,314.999998,314.999998,324.999988,324.999988,99.56075714285714,99.50623333333333,99.56318571428571,99.54577142857143,0.038000000000000256,-0.038999999999999924,-0.14300000000000002,0.0778333333333332,-0.060000000000002274,-0.04999999999999716,1.55,1.524,37.504999999999995,28.9765,37.441,34.74,56.453,33.575,58.424,51.99666666666667,54.254999999999995,32.822,57.0375,50.345333333333336,53.317,32.424,56.947,49.763666666666666,-0.07799999999999996,-0.00649999999999995,0.10626500000000001,0.10726500000000001,0.0,209.055,209.04500000000002,205.97,205.97,0.0,0.0
10,0.0,0.0,0.0,1.0,1.0,0.0,0.0,1.0,0.0,100.0,1.0,1.1856,26.0,0.0,0.0,0.0,59.999996,0.0,26.0,26.0,26.0,26.0,-0.0010000000000000009,0.30710000000000015,-0.0016250000000000001,295.868,-2.7365,-2.8014,-1.53755,-1.5556,-242.57999999999998,216.0775,190.792375,0.0,0.0,0.0,0.0,0.02083333333333337,-5.498166666666667,-5.498166666666667,-0.3617,-0.2743333333333333,-0.0043333333333333,0.348,66.893,-0.01529999999999998,-0.024183333333333334,-0.3520000000000003,100.0,1.0,1.0,206.21333333333334,0.0,0.0,0.0,0.0,0.0,0.0,0.0,8740.7,0.0,55.0,5.0,240.78333333333333,0.0,0.0,0.0,0.0,0.0,0.0,1.0,0.0,0.5040000000000013,0.5040000000000013,0.0,0.0,0.0,55.0,616.79921,10000.0,85.000001,85.000001,85.000001,85.000001,395.0,0.0,0.0,0.0,1.0,333.33500000000004,61.035,61.035,46.524,46.524,34.0,-18.244,18.66,-31.936666666666664,29.822499999999998,0.0,1781.872,-0.629999999999999,100.0,21.929,21.497,43.713,43.485,0.0,0.0,100.0,0.0,0.0,0.0,0.0,2351.375,2278.3,4428.0,4350.6,307.734,307.44275,314.02325,313.9775,21.8493,20.4802,21.8403,21.4071,314.999998,314.999998,324.999988,324.999988,99.56075714285714,99.50623333333333,99.56331428571428,99.5459,0.05149999999999988,-0.02124999999999999,-0.12316666666666665,0.09250000000000003,-0.05666666666667197,-0.036666666666668846,1.4633333333333334,1.4463333333333335,37.558,29.0015,37.501999999999995,34.794,56.43,33.602000000000004,58.466499999999996,52.05833333333334,54.233999999999995,32.8465,57.0775,50.404333333333334,53.295,32.448,56.984,49.821666666666665,-0.08999999999999997,0.01100000000000001,0.10601000000000001,0.10777500000000001,0.0,209.49,209.495,206.21333333333334,206.21333333333334,0.0,0.0
11,0.0,0.0,0.0,1.0,1.0,0.0,0.0,1.0,0.0,100.0,1.0,1.1856,26.0,0.0,0.0,0.0,59.999996,0.0,26.0,26.0,26.0,26.0,0.02822222222222215,0.2824,-0.0585,296.432,-2.78315,-2.7814,-1.5961500000000002,-1.5489000000000002,-239.17000000000002,216.05,190.77175,0.0,0.0,0.0,0.0,0.022599999999999953,-5.498166666666667,-5.498166666666667,-0.4043,-0.3426666666666667,0.02633333333333332,0.45299999999999996,67.03999999999999,0.0040999999999999925,-0.05448333333333334,-0.6120000000000001,100.0,1.0,1.0,206.95666666666668,0.0,0.0,0.0,0.0,0.0,0.0,0.0,8772.1,0.0,55.0,5.0,241.31333333333333,1.0,0.0,0.0,0.0,0.0,0.0,1.0,0.0,0.5549999999999997,0.5549999999999997,0.0,0.0,1.0,55.0,616.79921,10000.0,85.000001,85.000001,85.000001,85.000001,395.0,0.0,0.0,0.0,1.0,166.665,60.471000000000004,60.471000000000004,48.141,48.141,34.0,-18.573999999999998,22.165999999999997,-25.206666666666663,27.6,0.0,1781.823,-0.5899999999999999,100.0,21.769,21.5135,43.353,43.391999999999996,0.0,0.0,100.0,0.0,0.0,0.0,0.0,2432.875,2611.9,3774.625,3969.2,307.42,306.56475,315.6575,315.00125,21.8581,20.4846,21.8504,21.4161,314.999998,314.999998,324.999988,324.999988,99.56077142857143,99.50623333333333,99.56345714285715,99.54604285714285,0.07725000000000026,-0.0017499999999999183,-0.09499999999999997,0.12566666666666682,-0.04833333333333201,-0.054999999999999716,1.5883333333333334,1.5796666666666668,37.613,29.029,37.565,34.8505,56.403,33.6315,58.5055,52.11933333333333,54.209,32.874,57.114,50.463,53.269999999999996,32.474000000000004,57.0175,49.879333333333335,-0.08850000000000002,0.0034999999999999476,0.10990000000000001,0.10503000000000001,0.0,209.89499999999998,209.935,206.95666666666668,206.95666666666668,0.0,0.0
12,0.0,0.0,0.0,1.0,1.0,0.0,0.0,1.0,0.0,100.0,1.0,1.1856,26.0,0.0,0.0,0.0,59.999996,0.0,26.0,26.0,26.0,26.0,0.03988888888888886,0.29500000000000015,0.017075,295.868,-2.8397,-2.7727,-1.55935,-1.5693000000000001,-235.94,216.025,190.751,0.0,0.0,0.0,0.0,0.025466666666666526,-5.498166666666667,-5.498166666666667,-0.3901,0.3496666666666667,0.015222222222222026,0.629,67.184,0.02180000000000004,-0.023283333333333336,-0.7260000000000009,100.0,1.0,1.0,207.19333333333333,0.0,0.0,0.0,0.0,0.0,0.0,0.0,8782.1,0.0,55.0,5.0,241.82999999999998,0.0,0.0,0.0,0.0,0.0,0.0,1.0,0.0,0.602999999999998,0.602999999999998,0.0,0.0,0.0,55.0,616.79921,10000.0,85.000001,85.000001,85.000001,85.000001,395.0,0.0,0.0,0.0,1.0,166.665,60.455,60.455,46.86,46.86,34.0,-19.375999999999998,21.972,-27.453333333333333,32.6475,0.0,1781.775,-0.17499999999999893,100.0,21.663,21.6815,43.262,43.296,0.0,0.0,100.0,0.0,0.0,0.0,0.0,2459.25,2626.0,4249.5,4306.7,307.349,306.53925,314.46225,314.21775,21.8665,20.4888,21.86,21.424599999999998,314.999998,314.999998,324.999988,324.999988,99.56077142857143,99.50623333333333,99.56358571428571,99.54618571428571,0.0717500000000002,-0.009500000000000064,-0.0668333333333333,0.15283333333333338,-0.046666666666666856,-0.04999999999999716,1.512,1.4736666666666665,37.666,29.055,37.625,34.9035,56.379999999999995,33.661,58.545,52.17766666666667,54.187,32.900999999999996,57.1505,50.519,53.248,32.5,57.0515,49.934,-0.06399999999999995,-0.01649999999999996,0.099375,0.11388500000000001,0.0,210.375,210.41500000000002,207.19333333333333,207.19333333333333,0.0,0.0
13,0.0,0.0,0.0,1.0,1.0,0.0,0.0,1.0,0.0,100.0,1.0,1.1856,26.0,0.0,0.0,0.0,59.999996,0.0,26.0,26.0,26.0,26.0,0.06899999999999995,0.3063,0.054,295.486,-2.81365,-2.771,-1.5957,-1.5567,-232.31,216.0,190.728,0.0,0.0,0.0,0.0,0.026799999999999935,-5.498166666666667,-5.498166666666667,-0.3801,-0.04633333333333334,0.018111111111110967,1.155,67.343,0.025500000000000078,-0.02945,-0.7919999999999998,100.0,1.0,1.0,207.62,0.0,0.0,0.0,0.0,0.0,0.0,0.0,8800.2,0.0,55.0,5.0,242.40666666666667,1.0,0.0,0.0,0.0,0.0,0.0,1.0,0.0,0.657,0.657,0.0,0.0,1.0,55.0,616.79921,10000.0,85.000001,85.000001,85.000001,85.000001,395.0,0.0,0.0,0.0,1.0,166.665,60.211,60.211,46.738,46.738,34.0,-17.482,23.740000000000002,-28.063333333333333,33.5975,0.0,1781.721,-1.0350000000000001,100.0,21.92,21.8185,43.533,43.843,0.0,0.0,100.0,0.0,0.0,0.0,0.0,2479.75,2606.5,4238.875,4436.9,307.24833333333333,306.59125,314.4385,313.88875,21.8761,20.4936,21.871,21.4344,314.999998,314.999998,324.999988,324.999988,99.56078571428571,99.50625,99.56375714285714,99.54634285714286,0.13100000000000023,0.05149999999999988,-0.0658333333333333,0.15016666666666678,-0.045000000000001705,-0.07166666666666544,1.475,1.4576666666666667,37.724999999999994,29.085,37.694,34.965,56.357,33.695,58.59,52.247,54.165,32.932,57.193,50.58566666666667,53.225,32.5295,57.0905,49.99933333333333,-0.13,0.04249999999999998,0.10823500000000001,0.10407500000000001,0.0,210.845,210.905,207.62,207.62,0.0,0.0
14,0.0,0.0,0.0,1.0,1.0,0.0,0.0,1.0,0.0,100.0,1.0,1.1856,26.0,0.0,0.0,0.0,59.999996,0.0,26.0,26.0,26.0,26.0,0.0795555555555556,0.2942,-0.010575000000000001,295.807,-2.8143,-2.7149,-1.6378,-1.5284,-229.07999999999998,215.97750000000002,190.708125,0.0,0.0,0.0,0.0,0.028699999999999948,-5.498166666666667,-5.498166666666667,-0.38930000000000003,-0.149,0.04655555555555568,1.359,67.482,0.03869999999999996,-0.04098333333333333,-1.057999999999999,100.0,1.0,1.0,208.13,0.0,0.0,0.0,0.0,0.0,0.0,0.0,8821.9,0.0,55.0,5.0,242.90666666666667,0.0,0.0,0.0,0.0,0.0,0.0,1.0,0.0,0.7049999999999983,0.7049999999999983,0.0,0.0,0.0,55.0,616.79921,10000.0,85.000001,85.000001,85.000001,85.000001,395.0,0.0,0.0,0.0,1.0,333.33500000000004,60.394,60.394,46.997,46.997,34.0,-16.226,24.102,-26.516666666666666,32.3575,0.0,1781.672,-1.1549999999999994,100.0,21.759,21.831,43.469,43.999,0.0,0.0,100.0,0.0,0.0,0.0,0.0,2355.625,2666.0,4056.125,4293.2,307.60633333333334,306.42975,314.93175,314.245,21.8845,20.4978,21.8806,21.443,314.999998,314.999998,324.999988,324.999988,99.5608,99.50625,99.56388571428572,99.54647142857142,0.1392500000000001,0.05624999999999991,-0.05799999999999994,0.16166666666666685,-0.04333333333332945,-0.06666666666666998,1.5293333333333334,1.4883333333333333,37.778,29.111,37.754000000000005,35.019,56.336,33.725,58.6285,52.307,54.146,32.9595,57.229,50.64333333333333,53.206,32.556,57.1235,50.05566666666667,-0.13549999999999995,0.04599999999999993,0.109865,0.10465500000000001,0.0,211.26999999999998,211.34,208.13,208.13,0.0,0.0
15,0.0,0.0,0.0,1.0,1.0,0.0,0.0,1.0,0.0,100.0,1.0,1.1856,26.0,0.0,0.0,0.0,59.999996,0.0,26.0,26.0,26.0,26.0,0.10688888888888903,0.3037000000000001,-0.0006000000000000001,295.837,-2.78775,-2.6758,-1.63535,-1.4727000000000001,-225.82999999999998,215.95749999999998,190.687875,0.0,0.0,0.0,0.0,0.03056666666666652,-5.498166666666667,-5.498166666666667,-0.381,0.3516666666666667,0.07455555555555571,1.219,67.622,0.05679999999999996,-0.021766666666666667,-1.2220000000000004,100.0,1.0,1.0,208.54666666666668,0.0,0.0,0.0,0.0,0.0,0.0,0.0,8839.6,0.0,55.0,5.0,243.40666666666667,1.0,0.0,0.0,0.0,0.0,0.0,1.0,0.0,0.7530000000000001,0.7530000000000001,0.0,0.0,1.0,55.0,616.79921,10000.0,85.000001,85.000001,85.000001,85.000001,395.0,0.0,0.0,0.0,1.0,166.665,60.593,60.593,47.119,47.119,34.0,-14.846,24.024,-24.946666666666665,34.417500000000004,0.0,1781.626,-1.1549999999999994,100.0,21.727,21.8495,43.191,44.047,0.0,0.0,100.0,0.0,0.0,0.0,0.0,2242.5,2649.1,4045.625,4444.5,307.90366666666665,306.46675,314.9695,313.91575,21.8928,20.502,21.8902,21.4516,314.999998,314.999998,324.999988,324.999988,99.56081428571429,99.50625,99.56401428571428,99.54661428571428,0.15074999999999994,0.06725000000000003,-0.03083333333333338,0.18833333333333324,-0.03333333333333144,-0.07000000000000028,1.5390000000000001,1.4736666666666665,37.83,29.1375,37.814,35.0725,56.315,33.756,58.6655,52.367,54.126000000000005,32.9885,57.263,50.701,53.186,32.5835,57.155,50.11233333333333,-0.13749999999999996,0.046499999999999986,0.10898500000000001,0.11507500000000001,0.0,211.715,211.79000000000002,208.54666666666668,208.54666666666668,0.0,0.0
16,0.0,0.0,0.0,1.0,1.0,0.0,0.0,1.0,0.0,100.0,1.0,1.1856,26.0,0.0,0.0,0.0,59.999996,0.0,26.0,26.0,26.0,26.0,0.11522222222222211,0.2934000000000001,-0.006475000000000001,295.807,-2.8862,-2.6787,-1.6099999999999999,-1.5295,-222.18,215.9375,190.6645,0.0,0.0,0.0,0.0,0.03269999999999995,-5.498166666666667,-5.498166666666667,-0.40040000000000003,-0.7106666666666667,0.06677777777777782,0.18699999999999994,67.779,0.07160000000000011,-0.0349,-1.3020000000000005,100.0,1.0,1.0,209.0233333333333,0.0,0.0,0.0,0.0,0.0,0.0,0.0,8859.7,0.0,55.0,5.0,243.97333333333336,0.0,0.0,0.0,0.0,0.0,0.0,1.0,0.0,0.8069999999999986,0.8069999999999986,0.0,0.0,0.0,55.0,616.79921,10000.0,85.000001,85.000001,85.000001,85.000001,395.0,0.0,0.0,0.0,1.0,166.665,60.501,60.501,46.768,46.768,34.0,-16.252,25.194,-23.933333333333337,33.9925,0.0,1781.572,-1.049999999999999,100.0,21.315,21.9535,43.446,44.274,0.0,0.0,100.0,0.0,0.0,0.0,0.0,2366.125,2739.9,4012.5,4245.9,307.726,306.21325,315.037,314.2895,21.9019,20.5068,21.9011,21.4613,314.999998,314.999998,324.999988,324.999988,99.56084285714286,99.50626666666666,99.56417142857143,99.54677142857143,0.15149999999999997,0.07325000000000026,-0.02200000000000002,0.19900000000000007,-0.04333333333332945,-0.051666666666669414,1.5376666666666665,1.4903333333333333,37.887,29.1675,37.882,35.1335,56.289,33.7915,58.71,52.434666666666665,54.101,33.0215,57.3045,50.766333333333336,53.161,32.6155,57.193,50.17666666666666,-0.122,0.03700000000000003,0.11030500000000001,0.10365500000000001,0.0,212.15,212.265,209.0233333333333,209.0233333333333,0.0,0.0
17,0.0,0.0,0.0,1.0,1.0,0.0,0.0,1.0,0.0,100.0,1.0,1.1856,26.0,0.0,0.0,0.0,59.999996,0.0,26.0,26.0,26.0,26.0,0.11344444444444446,0.3094000000000001,-0.042800000000000005,295.532,-2.84645,-2.6599,-1.6491,-1.4935,-218.92000000000002,215.9225,190.64325,0.0,0.0,0.0,0.0,0.034599999999999964,-5.498166666666667,-5.498166666666667,-0.38980000000000004,0.5726666666666667,0.04455555555555568,0.603,67.916,0.07830000000000004,-0.016783333333333334,-1.1639999999999997,100.0,1.0,1.0,209.42666666666668,0.0,0.0,0.0,0.0,0.0,0.0,0.0,8876.8,0.0,55.0,5.0,244.46666666666667,1.0,0.0,0.0,0.0,0.0,0.0,1.0,0.0,0.8550000000000004,0.8550000000000004,0.0,0.0,1.0,55.0,616.79921,10000.0,85.000001,85.000001,85.000001,85.000001,395.0,0.0,0.0,0.0,1.0,333.33500000000004,60.318,60.318,46.768,46.768,34.0,-15.873999999999999,23.46,-25.456666666666663,34.712500000000006,0.0,1781.522,-1.1050000000000004,100.0,21.805,22.2635,43.231,44.269999999999996,0.0,0.0,100.0,0.0,0.0,0.0,0.0,2406.75,2566.1,4253.875,4356.7,307.518,306.72325,314.524,314.1425,21.9103,20.5112,21.9107,21.4699,314.999998,314.999998,324.999988,324.999988,99.56084285714286,99.50626666666666,99.5643,99.5469,0.16774999999999984,0.08050000000000024,-0.009166666666666656,0.20550000000000002,-0.03499999999999659,-0.06666666666666998,1.5443333333333333,1.488,37.939,29.195,37.942,35.187,56.269999999999996,33.825,58.747,52.49433333333333,54.083,33.0525,57.339,50.82366666666667,53.141999999999996,32.644999999999996,57.2245,50.23266666666667,-0.13,0.04149999999999998,0.09737000000000001,0.10917,0.0,212.63,212.72500000000002,209.42666666666668,209.42666666666668,0.0,0.0
18,0.0,0.0,0.0,1.0,1.0,0.0,0.0,1.0,0.0,100.0,1.0,1.1856,26.0,0.0,0.0,0.0,59.999996,0.0,26.0,26.0,26.0,26.0,0.14644444444444438,0.29370000000000007,-0.0234,295.425,-2.8834,-2.6285,-1.667,-1.435,-215.45,215.91,190.620875,0.0,0.0,0.0,0.0,0.036599999999999966,-5.498166666666667,-5.498166666666667,-0.39830000000000004,-0.5213333333333334,0.06988888888888889,-0.14100000000000001,68.063,0.07750000000000012,-0.03105,-1.2199999999999998,100.0,1.0,1.0,209.86666666666667,0.0,0.0,0.0,0.0,0.0,0.0,0.0,8895.5,0.0,55.0,5.0,244.99666666666667,0.0,0.0,0.0,0.0,0.0,0.0,1.0,0.0,0.9059999999999988,0.9059999999999988,0.0,0.0,0.0,55.0,616.79921,10000.0,85.000001,85.000001,85.000001,85.000001,395.0,0.0,0.0,0.0,1.0,166.665,60.181,60.181,46.494,46.494,34.0,-16.22,25.592,-25.61,32.7,0.0,1781.472,-1.4900000000000002,100.0,21.399,22.2385,43.492000000000004,44.760999999999996,0.0,0.0,100.0,0.0,0.0,0.0,0.0,2501.0,2712.4,4147.5,4288.9,307.464,306.18025,314.8055,314.226,21.919,20.5158,21.921,21.4792,314.999998,314.999998,324.999988,324.999988,99.56085714285715,99.50628333333333,99.56444285714285,99.54705714285714,0.17974999999999985,0.10050000000000026,-0.021166666666666556,0.1928333333333332,-0.054999999999999716,-0.060000000000002274,1.5283333333333333,1.491,37.994,29.2235,38.006,35.245,56.248000000000005,33.86,58.789,52.56,54.063,33.0845,57.378,50.887,53.121,32.676,57.2605,50.294666666666664,-0.15400000000000003,0.06599999999999995,0.10756500000000001,0.10405,0.0,213.055,213.14,209.86666666666667,209.86666666666667,0.0,0.0
19,0.0,0.0,0.0,1.0,1.0,0.0,0.0,1.0,0.0,100.0,1.0,1.1856,26.0,0.0,0.0,0.0,59.999996,0.0,26.0,26.0,26.0,26.0,0.15744444444444428,0.3075000000000001,0.026975000000000002,295.013,-2.8564,-2.6166,-1.6833,-1.4173,-212.18,215.9025,190.599625,0.0,0.0,0.0,0.0,0.03849999999999998,-5.498166666666667,-5.498166666666667,-0.3899,0.8553333333333334,0.08055555555555571,-0.369,68.199,0.08540000000000014,-0.0193,-1.5539999999999994,100.0,1.0,1.0,210.29333333333335,0.0,0.0,0.0,0.0,0.0,0.0,0.0,8913.6,0.0,55.0,5.0,245.48666666666668,1.0,0.0,0.0,0.0,0.0,0.0,1.0,0.0,0.9540000000000006,0.9540000000000006,0.0,0.0,1.0,55.0,616.79921,10000.0,85.000001,85.000001,85.000001,85.000001,395.0,0.0,0.0,0.0,1.0,333.33500000000004,59.57,59.57,46.478,46.478,34.0,-15.975999999999999,26.63,-26.176666666666662,34.807500000000005,0.0,1781.423,-1.75,100.0,21.853,22.701999999999998,43.229,44.771,0.0,0.0,100.0,0.0,0.0,0.0,0.0,2557.0,2740.5,4247.625,4454.7,307.18066666666664,305.9885,314.6285,313.896,21.9273,20.5203,21.9306,21.4879,314.999998,314.999998,324.999988,324.999988,99.56088571428572,99.5063,99.56458571428571,99.5472,0.1967500000000002,0.1200000000000001,-0.014666666666666606,0.20900000000000007,-0.03999999999999915,-0.07666666666666799,1.5273333333333334,1.4836666666666667,38.046,29.2515,38.066,35.2995,56.230999999999995,33.8965,58.825,52.620333333333335,54.046,33.1185,57.411500000000004,50.945,53.104,32.7085,57.291,50.352000000000004,-0.1775,0.08799999999999997,0.11198500000000002,0.10333500000000001,0.0,213.49,213.60000000000002,210.29333333333335,210.29333333333335,0.0,0.0
20,0.0,0.0,0.0,1.0,1.0,0.0,0.0,1.0,0.0,100.0,1.0,1.1856,26.0,0.0,0.0,0.0,59.999996,0.0,26.0,26.0,26.0,26.0,0.183888888888889,0.29590000000000005,0.061375000000000006,295.288,-2.90975,-2.677,-1.61805,-1.4191,-208.7,215.9,190.57725,0.0,0.0,0.0,0.0,0.04053333333333331,-5.498166666666667,-5.498166666666667,-0.3886,-1.173,0.09255555555555572,0.592,68.34700000000001,0.1008,-0.02435,-2.007999999999999,100.0,1.0,1.0,210.5966666666667,0.0,0.0,0.0,0.0,0.0,0.0,0.0,8926.5,0.0,55.0,5.0,246.01999999999998,0.0,0.0,0.0,0.0,0.0,0.0,0.0,0.0,1.004999999999999,1.004999999999999,0.0,0.0,0.0,55.0,616.79921,10000.0,85.000001,85.000001,85.000001,85.000001,395.0,0.0,0.0,0.0,1.0,166.665,60.775999999999996,60.775999999999996,45.638999999999996,45.638999999999996,34.0,-12.881999999999998,26.305999999999997,-23.71,37.935,0.0,1781.373,-1.6850000000000005,100.0,21.342,22.264499999999998,43.822,45.152,0.0,0.0,100.0,0.0,0.0,0.0,0.0,2163.625,2681.2,4202.5,4601.8,308.364,306.39275,314.50275,313.494,21.9358,20.5249,21.941,21.4973,314.999998,314.999998,324.999988,324.999988,99.5609,99.50631666666666,99.56472857142857,99.54734285714285,0.21625000000000005,0.12849999999999984,0.015833333333333366,0.2310000000000001,-0.03833333333332689,-0.054999999999999716,1.4706666666666668,1.4083333333333332,38.099000000000004,29.2805,38.131,35.3585,56.208,33.934,58.8685,52.688,54.025,33.153,57.452,51.010333333333335,53.082,32.7415,57.3285,50.416,-0.17999999999999994,0.08950000000000002,0.11536500000000001,0.09668500000000001,0.0,213.875,214.035,210.5966666666667,210.5966666666667,0.0,0.0
21,0.0,0.0,0.0,1.0,1.0,0.0,0.0,1.0,0.0,100.0,1.0,1.1856,26.0,0.0,0.0,0.0,59.999996,0.0,26.0,26.0,26.0,26.0,0.14822222222222226,0.2845,-0.06292500000000001,295.7,-2.8247,-2.7295,-1.67635,-1.4963,-205.42000000000002,215.9,190.555625,0.0,0.0,0.0,0.0,0.04243333333333332,-5.498166666666667,-5.498166666666667,-0.4186,0.4216666666666667,0.06966666666666677,-0.040999999999999925,68.47800000000001,0.11610000000000009,-0.03648333333333333,-1.4639999999999995,100.0,1.0,1.0,211.2866666666667,0.0,0.0,0.0,0.0,0.0,0.0,0.0,8955.6,0.0,55.0,5.0,246.49,1.0,0.0,0.0,0.0,0.0,0.0,0.0,0.0,1.0530000000000008,1.0530000000000008,0.0,0.0,1.0,55.0,616.79921,10000.0,85.000001,85.000001,85.000001,85.000001,395.0,0.0,0.0,0.0,1.0,333.33500000000004,60.074,60.074,47.241,47.241,34.0,-16.112,24.951999999999998,-21.199999999999996,34.64,0.0,1781.323,-0.22000000000000064,100.0,21.676000000000002,22.438,43.150999999999996,44.725,0.0,0.0,100.0,0.0,0.0,0.0,0.0,2369.875,2696.8,3960.375,4132.6,307.56266666666664,306.24775,315.297,314.67175,21.9439,20.5294,21.9504,21.5059,314.999998,314.999998,324.999988,324.999988,99.56091428571429,99.50631666666666,99.56487142857142,99.54748571428571,0.14924999999999988,0.06475000000000009,0.03600000000000003,0.25016666666666687,-0.054999999999999716,-0.07333333333333059,1.595,1.539,38.149,29.308500000000002,38.19,35.412,56.188,33.969,58.9025,52.74633333333333,54.006,33.1855,57.4835,51.06666666666666,53.063,32.7725,57.357,50.471333333333334,-0.07799999999999996,-0.012499999999999956,0.10004,0.11514,0.0,214.35000000000002,214.46,211.2866666666667,211.2866666666667,0.0,0.0
22,0.0,0.0,0.0,1.0,1.0,0.0,0.0,1.0,0.0,100.0,1.0,1.1856,26.0,0.0,0.0,0.0,59.999996,0.0,26.0,26.0,26.0,26.0,0.12611111111111106,0.2795000000000001,0.028975,295.166,-2.801,-2.7378,-1.6559,-1.5474,-201.92000000000002,215.905,190.531875,0.0,0.0,0.0,0.0,0.04446666666666654,-5.498166666666667,-5.498166666666667,-0.3935,0.20666666666666667,0.05888888888888877,-0.784,68.625,0.09800000000000009,-0.009983333333333334,-0.20399999999999885,100.0,1.0,1.0,211.51333333333332,0.0,0.0,0.0,0.0,0.0,0.0,0.0,8965.2,0.0,55.0,5.0,247.01999999999998,0.0,0.0,0.0,0.0,0.0,0.0,0.0,0.0,1.1039999999999992,1.1039999999999992,0.0,0.0,0.0,55.0,616.79921,10000.0,85.000001,85.000001,85.000001,85.000001,395.0,0.0,0.0,0.0,1.0,166.665,60.226,60.226,46.021,46.021,34.0,-17.886,21.232,-27.339999999999996,34.9725,0.0,1781.274,0.4350000000000005,100.0,21.639,22.5725,43.524,44.941,0.0,0.0,100.0,0.0,0.0,0.0,0.0,2392.625,2522.5,4343.75,4369.4,307.62966666666665,306.56075,314.362,313.981,21.9526,20.534,21.9608,21.5152,314.999998,314.999998,324.999988,324.999988,99.56092857142858,99.50633333333333,99.56501428571428,99.54764285714286,0.08975,-0.00649999999999995,-0.023333333333333317,0.18633333333333324,-0.046666666666666856,-0.051666666666669414,1.4536666666666667,1.4643333333333333,38.203,29.338,38.254999999999995,35.47,56.164,34.001999999999995,58.945,52.81166666666667,53.983999999999995,33.2155,57.5235,51.129333333333335,53.04,32.8015,57.3935,50.533,-0.013000000000000012,-0.08099999999999996,0.10616,0.09929,0.0,214.84,214.87,211.51333333333332,211.51333333333332,0.0,0.0
23,0.0,0.0,0.0,1.0,1.0,0.0,0.0,1.0,0.0,100.0,1.0,1.1856,26.0,0.0,0.0,0.0,59.999996,0.0,26.0,26.0,26.0,26.0,0.0367777777777778,0.2634000000000001,-0.006575,295.151,-2.80365,-2.7192,-1.5627,-1.5877,-198.42000000000002,215.91,190.508375,0.0,0.0,0.0,0.0,0.046499999999999986,-5.498166666666667,-5.498166666666667,-0.4116,-0.3823333333333333,0.03322222222222204,0.009000000000000008,68.767,0.052000000000000046,-0.03591666666666667,0.6739999999999995,100.0,1.0,1.0,212.03,0.0,0.0,0.0,0.0,0.0,0.0,0.0,8987.1,0.0,55.0,5.0,247.53333333333336,1.0,0.0,0.0,0.0,0.0,0.0,0.0,0.0,1.1550000000000011,1.1550000000000011,0.0,0.0,1.0,55.0,616.79921,10000.0,85.000001,85.000001,85.000001,85.000001,395.0,0.0,0.0,0.0,1.0,166.665,59.738,59.738,46.844,46.844,34.0,-21.38,20.724,-26.023333333333333,31.400000000000002,0.0,1781.224,0.7800000000000011,100.0,22.089,22.251,44.04,44.96,0.0,0.0,100.0,0.0,0.0,0.0,0.0,2634.875,2628.2,4036.0,4140.4,306.88533333333334,306.53675,314.93425,314.5525,21.961199999999998,20.5387,21.9711,21.5245,314.999998,314.999998,324.999988,324.999988,99.56094285714286,99.50633333333333,99.56515714285715,99.54778571428571,0.05250000000000021,-0.037250000000000005,-0.06566666666666665,0.15183333333333326,-0.054999999999999716,-0.036666666666668846,1.4833333333333334,1.4976666666666667,38.257999999999996,29.366500000000002,38.32,35.5285,56.138,34.033500000000004,58.986000000000004,52.876,53.959,33.245,57.5615,51.19133333333333,53.016,32.83,57.4285,50.593666666666664,0.018000000000000016,-0.11099999999999999,0.10496000000000001,0.10859500000000001,0.0,215.315,215.235,212.03,212.03,0.0,0.0
24,0.0,0.0,0.0,1.0,1.0,0.0,0.0,1.0,0.0,100.0,1.0,1.1856,26.0,0.0,0.0,0.0,59.999996,0.0,26.0,26.0,26.0,26.0,-0.0484444444444444,0.28980000000000006,-0.103325,295.456,-2.7984999999999998,-2.7594,-1.58025,-1.554,-195.11,215.91750000000002,190.485875,0.0,0.0,0.0,0.0,0.04843333333333333,-5.498166666666667,-5.498166666666667,-0.4131,-0.42333333333333334,0.01288888888888895,0.471,68.902,0.0016000000000000458,-0.01951666666666667,1.0660000000000007,100.0,1.0,1.0,212.38333333333333,0.0,0.0,0.0,0.0,0.0,0.0,0.0,9002.2,0.0,55.0,5.0,248.01666666666665,0.0,0.0,0.0,0.0,0.0,0.0,0.0,0.0,1.2029999999999994,1.2029999999999994,0.0,0.0,0.0,55.0,616.79921,10000.0,85.000001,85.000001,85.000001,85.000001,395.0,0.0,0.0,0.0,1.0,333.33500000000004,60.913,60.913,45.959,45.959,34.0,-19.86,17.492,-32.833333333333336,28.192500000000003,0.0,1781.174,0.8599999999999994,100.0,22.037,21.839,44.249,44.603,0.0,0.0,100.0,0.0,0.0,0.0,0.0,2311.375,2369.4,4422.875,4196.7,307.78,307.35325,314.02475,314.513,21.9694,20.5428,21.9809,21.5331,314.999998,314.999998,324.999988,324.999988,99.56094285714286,99.50633333333333,99.56528571428571,99.54792857142857,0.0024999999999999467,-0.07400000000000007,-0.12583333333333335,0.09183333333333321,-0.05666666666667197,-0.03499999999999659,1.458,1.5013333333333332,38.309,29.3925,38.381,35.582,56.111999999999995,34.062,59.0255,52.933,53.935,33.271,57.598,51.24666666666667,52.991,32.855000000000004,57.462,50.647666666666666,0.026999999999999913,-0.11250000000000004,0.10893000000000001,0.10968000000000001,0.0,215.745,215.64499999999998,212.38333333333333,212.38333333333333,0.0,0.0
25,0.0,0.0,0.0,1.0,1.0,0.0,0.0,1.0,0.0,100.0,1.0,1.1856,26.0,0.0,0.0,0.0,59.999996,0.0,26.0,26.0,26.0,26.0,-0.05366666666666664,0.27849999999999997,-0.0395,295.456,-2.8437,-2.7426,-1.5753,-1.5775000000000001,-191.59,215.925,190.460625,0.0,0.0,0.0,0.0,0.05046666666666655,-5.498166666666667,-5.498166666666667,-0.44670000000000004,-0.07866666666666668,-0.009777777777777885,-1.5619999999999998,69.043,-0.04249999999999998,-0.02695,1.3059999999999992,100.0,1.0,1.0,212.93666666666667,0.0,0.0,0.0,0.0,0.0,0.0,0.0,9025.6,0.0,55.0,5.0,248.52333333333334,1.0,0.0,0.0,0.0,0.0,0.0,0.0,0.0,1.2540000000000013,1.2540000000000013,0.0,0.0,1.0,55.0,616.79921,10000.0,85.000001,85.000001,85.000001,85.000001,395.0,0.0,0.0,0.0,1.0,166.665,60.059,60.059,46.753,46.753,34.0,-25.195999999999998,17.948,-31.726666666666663,24.7875,0.0,1781.123,0.9299999999999997,100.0,21.898,21.9175,44.21,44.143,0.0,0.0,100.0,0.0,0.0,0.0,0.0,2732.25,2565.9,4124.375,4035.2,306.83866666666665,306.612,314.88525,314.8995,21.978,20.5473,21.9912,21.5422,314.999998,314.999998,324.999988,324.999988,99.56094285714286,99.50633333333333,99.56544285714286,99.54808571428572,-0.03149999999999986,-0.11224999999999996,-0.16716666666666657,0.048833333333333284,-0.05833333333333002,-0.041666666666671404,1.5213333333333334,1.5626666666666666,38.363,29.4205,38.445,35.6385,56.084,34.0945,59.0655,52.99133333333333,53.909,33.301,57.635999999999996,51.30266666666667,52.965,32.884,57.497,50.702333333333335,0.030999999999999917,-0.11699999999999999,0.10547500000000001,0.10522000000000001,0.0,216.18,216.055,212.93666666666667,212.93666666666667,0.0,0.0
26,0.0,0.0,0.0,1.0,1.0,0.0,0.0,1.0,0.0,100.0,1.0,1.1856,26.0,0.0,0.0,0.0,59.999996,0.0,26.0,26.0,26.0,26.0,-0.12711111111111106,0.29390000000000005,0.070525,294.281,-2.75125,-2.859,-1.5918,-1.6004,-188.07,215.9275,190.43475,0.0,0.0,0.0,0.0,0.05253333333333332,-5.498166666666667,-5.498166666666667,-0.4048,0.8663333333333334,-0.058555555555555916,0.11499999999999999,69.186,-0.07399999999999995,0.005183333333333334,1.362,100.0,1.0,1.0,213.14333333333332,0.0,0.0,0.0,0.0,0.0,0.0,0.0,9034.3,0.0,55.0,5.0,249.04000000000002,0.0,0.0,0.0,0.0,0.0,0.0,0.0,0.0,1.3049999999999997,1.3049999999999997,0.0,0.0,0.0,55.0,616.79921,10000.0,85.000001,85.000001,85.000001,85.000001,395.0,0.0,0.0,0.0,1.0,166.665,59.479,59.479,45.074,45.074,34.0,-24.444,17.432,-38.833333333333336,27.552500000000002,0.0,1781.072,0.7800000000000011,100.0,23.11,22.177,45.059,44.141999999999996,0.0,0.0,100.0,0.0,0.0,0.0,0.0,2656.625,2468.9,4692.0,4511.7,306.7076666666667,306.92475,313.49,313.7955,21.987099999999998,20.5519,22.0017,21.5514,314.999998,314.999998,324.999988,324.999988,99.56094285714286,99.50635,99.5656,99.54822857142857,-0.037250000000000005,-0.12874999999999992,-0.17966666666666664,0.02183333333333337,-0.03499999999999659,-0.060000000000002274,1.3953333333333333,1.4503333333333335,38.419,29.4495,38.510999999999996,35.6965,56.062,34.131,59.111000000000004,53.053,53.888,33.3345,57.6785,51.361666666666665,52.944,32.9155,57.536500000000004,50.75966666666667,0.01550000000000007,-0.10749999999999993,0.09995000000000001,0.10580500000000001,0.0,216.66500000000002,216.555,213.14333333333332,213.14333333333332,0.0,0.0
27,0.0,0.0,0.0,1.0,1.0,0.0,0.0,1.0,0.0,100.0,1.0,1.1856,26.0,0.0,0.0,0.0,59.999996,0.0,26.0,26.0,26.0,26.0,-0.11744444444444446,0.26980000000000004,-0.023,294.846,-2.71435,-2.8336,-1.573,-1.6793,-184.54,215.93,190.41025,0.0,0.0,0.0,0.0,0.05456666666666654,-5.498166666666667,-5.498166666666667,-0.43260000000000004,-1.1500000000000001,-0.06788888888888867,-0.5010000000000001,69.327,-0.08509999999999995,-0.04591666666666667,1.1820000000000004,100.0,1.0,1.0,213.65666666666667,0.0,0.0,0.0,0.0,0.0,0.0,0.0,9056.1,0.0,55.0,5.0,249.54666666666668,1.0,0.0,0.0,0.0,0.0,0.0,0.0,0.0,1.355999999999998,1.355999999999998,0.0,0.0,1.0,55.0,616.79921,10000.0,85.000001,85.000001,85.000001,85.000001,395.0,0.0,0.0,0.0,1.0,166.665,59.952,59.952,45.653999999999996,45.653999999999996,34.0,-24.756,16.11,-36.553333333333335,24.175,0.0,1781.021,0.6699999999999999,100.0,22.66,21.956,45.556,44.632999999999996,0.0,0.0,100.0,0.0,0.0,0.0,0.0,2686.75,2375.3,4345.0,4033.0,306.809,307.17575,314.29075,314.7645,21.9959,20.5562,22.0124,21.5608,314.999998,314.999998,324.999988,324.999988,99.56095714285715,99.50636666666666,99.56574285714285,99.54837142857143,-0.05325000000000002,-0.14225,-0.21050000000000002,0.0016666666666667052,-0.05666666666667197,-0.036666666666668846,1.449,1.4929999999999999,38.474000000000004,29.476,38.577,35.754999999999995,56.038,34.164,59.159,53.114666666666665,53.864999999999995,33.3645,57.7235,51.421,52.921,32.9445,57.5785,50.81733333333333,0.008000000000000007,-0.09650000000000003,0.10805500000000001,0.103035,0.0,217.03,216.925,213.65666666666667,213.65666666666667,0.0,0.0
28,0.0,0.0,0.0,1.0,1.0,0.0,0.0,1.0,0.0,100.0,1.0,1.1856,26.0,0.0,0.0,0.0,59.999996,0.0,26.0,26.0,26.0,26.0,-0.119,0.27500000000000013,-0.0475,295.181,-2.7449500000000002,-2.8128,-1.5279500000000001,-1.6357,-181.20999999999998,215.9275,190.3865,0.0,0.0,0.0,0.0,0.056533333333333324,-5.498166666666667,-5.498166666666667,-0.43860000000000005,0.6973333333333334,-0.06800000000000006,-0.635,69.455,-0.09109999999999996,-0.020883333333333334,1.1620000000000008,100.0,1.0,1.0,214.19,0.0,0.0,0.0,0.0,0.0,0.0,0.0,9078.7,0.0,55.0,5.0,250.01,0.0,0.0,0.0,0.0,0.0,0.0,0.0,0.0,1.404,1.404,0.0,0.0,0.0,55.0,616.79921,10000.0,85.000001,85.000001,85.000001,85.000001,395.0,0.0,0.0,0.0,1.0,166.665,59.982,59.982,46.631,46.631,34.0,-25.762,15.992,-33.913333333333334,24.064999999999998,0.0,1780.975,0.5449999999999999,100.0,22.714,21.8975,44.874,43.99,0.0,0.0,100.0,0.0,0.0,0.0,0.0,2743.625,2341.8,4202.0,4113.4,306.66133333333335,307.24325,314.69275,314.72225,22.0042,20.5604,22.022,21.5692,314.999998,314.999998,324.999988,324.999988,99.56095714285715,99.50638333333333,99.56588571428571,99.54851428571429,-0.05874999999999986,-0.13424999999999998,-0.2058333333333333,0.007500000000000062,-0.06666666666666998,-0.046666666666666856,1.5006666666666666,1.5526666666666666,38.527,29.502499999999998,38.637,35.8075,56.016999999999996,34.1965,59.196,53.168,53.846000000000004,33.3945,57.757999999999996,51.472,52.900999999999996,32.973,57.61,50.867,-0.0020000000000000018,-0.08600000000000008,0.10521000000000001,0.10918000000000001,0.0,217.495,217.385,214.19,214.19,0.0,0.0
29,0.0,0.0,0.0,1.0,1.0,0.0,0.0,1.0,0.0,100.0,1.0,1.1856,26.0,0.0,0.0,0.0,59.999996,0.0,26.0,26.0,26.0,26.0,-0.133,0.2670000000000001,0.004625000000000001,294.724,-2.67745,-2.8828,-1.55605,-1.6236000000000002,-177.66,215.9225,190.36,0.0,0.0,0.0,0.0,0.058566666666666545,-5.498166666666667,-5.498166666666667,-0.4374,-0.7443333333333334,-0.07022222222222219,0.75,69.598,-0.08989999999999998,-0.011816666666666668,0.8020000000000014,100.0,1.0,1.0,214.42666666666668,0.0,0.0,0.0,0.0,0.0,0.0,0.0,9088.8,0.0,55.0,5.0,250.52333333333334,1.0,0.0,0.0,0.0,0.0,0.0,0.0,0.0,1.4549999999999983,1.4549999999999983,0.0,0.0,1.0,55.0,616.79921,10000.0,85.000001,85.000001,85.000001,85.000001,395.0,0.0,0.0,0.0,1.0,166.665,60.028,60.028,45.379999999999995,45.379999999999995,34.0,-23.598,18.36,-37.05,26.8425,0.0,1780.922,0.3650000000000002,100.0,22.556,21.5075,45.434,44.187,0.0,0.0,100.0,0.0,0.0,0.0,0.0,2639.375,2512.0,4432.5,4312.5,306.792,306.81,313.97175,314.215,22.0129,20.5647,22.0325,21.5785,314.999998,314.999998,324.999988,324.999988,99.56097142857143,99.5064,99.56604285714286,99.54865714285714,-0.03424999999999989,-0.11575000000000002,-0.20133333333333336,0.027666666666666728,-0.036666666666668846,-0.05666666666667197,1.4186666666666667,1.452,38.581,29.529,38.703,35.866,55.991,34.228,59.2425,53.22966666666667,53.821,33.424,57.8015,51.531,52.876000000000005,33.001,57.6505,50.92466666666667,-0.014499999999999957,-0.07000000000000006,0.10906,0.11548000000000001,0.0,217.865,217.8,214.42666666666668,214.42666666666668,0.0,0.0
30,0.0,0.0,0.0,1.0,1.0,0.0,0.0,1.0,0.0,100.0,1.0,1.1856,26.0,0.0,0.0,0.0,59.999996,0.0,26.0,26.0,26.0,26.0,-0.12655555555555553,0.2843,0.050825,294.266,-2.7396,-2.7621,-1.5005000000000002,-1.6720000000000002,-174.32,215.91500000000002,190.335,0.0,0.0,0.0,0.0,0.06053333333333333,-5.498166666666667,-5.498166666666667,-0.43920000000000003,0.7733333333333334,-0.06566666666666654,0.687,69.727,-0.08449999999999991,-0.018250000000000002,0.7140000000000004,100.0,1.0,1.0,214.88333333333333,0.0,0.0,0.0,0.0,0.0,0.0,0.0,9108.1,0.0,55.0,5.0,250.99,0.0,0.0,0.0,0.0,0.0,0.0,1.0,0.0,1.5030000000000001,1.5030000000000001,0.0,0.0,0.0,55.0,616.79921,10000.0,85.000001,85.000001,85.000001,85.000001,395.0,0.0,0.0,0.0,1.0,166.665,59.006,59.006,45.837,45.837,34.0,-25.282,17.914,-34.553333333333335,27.747500000000002,0.0,1780.875,0.14499999999999957,100.0,23.34,22.2635,45.242000000000004,44.238,0.0,0.0,100.0,0.0,0.0,0.0,0.0,2804.375,2539.8,4372.25,4329.9,306.2633333333333,306.739,314.2215,314.116,22.0214,20.569,22.0423,21.5872,314.999998,314.999998,324.999988,324.999988,99.56097142857143,99.50641666666667,99.56618571428571,99.54878571428571,-0.018000000000000016,-0.10999999999999988,-0.1868333333333334,0.02833333333333332,-0.03999999999999915,-0.05666666666667197,1.4466666666666668,1.4706666666666666,38.634,29.5565,38.763999999999996,35.92,55.97,34.2615,59.2815,53.285666666666664,53.802,33.454499999999996,57.838499999999996,51.584666666666664,52.857,33.0305,57.6845,50.97666666666667,-0.038000000000000034,-0.06099999999999994,0.10516500000000001,0.10933000000000001,0.0,218.29500000000002,218.25,214.88333333333333,214.88333333333333,0.0,0.0
31,0.0,0.0,0.0,1.0,1.0,0.0,0.0,1.0,0.0,100.0,1.0,1.1856,26.0,0.0,0.0,0.0,59.999996,0.0,26.0,26.0,26.0,26.0,-0.09499999999999997,0.28070000000000017,0.007175,294.342,-2.8109,-2.8371,-1.5881500000000002,-1.5678,-170.76,215.905,190.30925,0.0,0.0,0.0,0.0,0.06259999999999999,-5.498166666666667,-5.498166666666667,-0.42150000000000004,-0.5543333333333333,-0.05900000000000016,-0.738,69.867,-0.06829999999999992,-0.016333333333333335,0.386000000000001,100.0,1.0,1.0,215.20666666666668,0.0,0.0,0.0,0.0,0.0,0.0,0.0,9121.8,0.0,55.0,5.0,251.49333333333334,1.0,0.0,0.0,0.0,0.0,0.0,1.0,0.0,1.5539999999999985,1.5539999999999985,0.0,0.0,1.0,55.0,616.79921,10000.0,85.000001,85.000001,85.000001,85.000001,395.0,0.0,0.0,0.0,1.0,166.665,59.891,59.891,44.51,44.51,34.0,-22.990000000000002,17.476,-37.92333333333333,26.1675,0.0,1780.823,0.05000000000000071,100.0,22.847,22.3965,45.643,44.949,0.0,0.0,100.0,0.0,0.0,0.0,0.0,2604.5,2363.0,4657.875,4211.5,307.20166666666665,307.12775,313.58825,314.3525,22.0301,20.5735,22.0529,21.5967,314.999998,314.999998,324.999988,324.999988,99.56097142857143,99.50641666666667,99.56634285714286,99.54894285714286,-0.011249999999999982,-0.09899999999999998,-0.1725,0.040166666666666684,-0.05333333333332746,-0.04833333333333201,1.4163333333333332,1.4386666666666668,38.688,29.5845,38.831,35.979,55.944,34.2945,59.329,53.348,53.778,33.485,57.882999999999996,51.644666666666666,52.832,33.0595,57.726,51.035333333333334,-0.045499999999999985,-0.04899999999999993,0.10167000000000001,0.111585,0.0,218.69,218.655,215.20666666666668,215.20666666666668,0.0,0.0
32,0.0,0.0,0.0,1.0,1.0,0.0,0.0,1.0,0.0,100.0,1.0,1.1856,26.0,0.0,0.0,0.0,59.999996,0.0,26.0,26.0,26.0,26.0,-0.07311111111111102,0.27859999999999996,-0.027,294.586,-2.75535,-2.8331,-1.6219999999999999,-1.5649000000000002,-166.98000000000002,215.89249999999998,190.282125,0.0,0.0,0.0,0.0,0.06479999999999997,-5.498166666666667,-5.498166666666667,-0.4429,0.13466666666666666,-0.07299999999999995,-0.933,70.01,-0.0484,-0.02761666666666667,0.2400000000000002,100.0,1.0,1.0,215.79333333333335,0.0,0.0,0.0,0.0,0.0,0.0,0.0,9146.8,0.0,55.0,5.0,252.00666666666666,0.0,0.0,0.0,0.0,0.0,0.0,1.0,0.0,1.6080000000000005,1.6080000000000005,0.0,0.0,0.0,55.0,616.79921,10000.0,85.000001,85.000001,85.000001,85.000001,395.0,0.0,0.0,0.0,1.0,166.665,59.601,59.601,45.715,45.715,34.0,-23.674,18.262,-34.730000000000004,26.82,0.0,1780.771,0.009999999999999787,100.0,22.756,22.4405,45.21,44.694,0.0,0.0,100.0,0.0,0.0,0.0,0.0,2742.25,2423.2,4379.875,4255.8,306.69,306.996,314.354,314.44475,22.0393,20.5784,22.0639,21.6064,314.999998,314.999998,324.999988,324.999988,99.56097142857143,99.50643333333333,99.5665,99.5491,0.003249999999999975,-0.08775,-0.16500000000000004,0.05566666666666675,-0.03833333333332689,-0.06666666666666998,1.5003333333333333,1.5013333333333332,38.745999999999995,29.615000000000002,38.899,36.04,55.917,34.33,59.3725,53.41,53.751999999999995,33.5175,57.924,51.704,52.806,33.0905,57.7635,51.093333333333334,-0.050999999999999934,-0.04800000000000004,0.10692000000000002,0.10234000000000001,0.0,219.125,219.11,215.79333333333335,215.79333333333335,0.0,0.0
33,0.0,0.0,0.0,1.0,1.0,0.0,0.0,1.0,0.0,100.0,1.0,1.1856,26.0,0.0,0.0,0.0,59.999996,0.0,26.0,26.0,26.0,26.0,-0.047666666666666635,0.2821,-0.059275,294.754,-2.7613,-2.831,-1.5809000000000002,-1.6455000000000002,-163.82999999999998,215.8775,190.2585,0.0,0.0,0.0,0.0,0.06663333333333332,-5.498166666666667,-5.498166666666667,-0.4445,-0.2996666666666667,-0.0654444444444442,1.2530000000000001,70.132,-0.036599999999999966,-0.010983333333333333,0.20000000000000107,100.0,1.0,1.0,216.07666666666665,0.0,0.0,0.0,0.0,0.0,0.0,0.0,9158.7,0.0,55.0,5.0,252.44666666666666,1.0,0.0,0.0,0.0,0.0,0.0,1.0,0.0,1.6529999999999987,1.6529999999999987,0.0,0.0,1.0,55.0,616.79921,10000.0,85.000001,85.000001,85.000001,85.000001,395.0,0.0,0.0,0.0,1.0,166.665,60.242,60.242,45.501999999999995,45.501999999999995,34.0,-20.747999999999998,18.604,-33.41,30.0875,0.0,1780.724,-0.11500000000000021,100.0,22.692,22.0345,45.266,44.668,0.0,0.0,100.0,0.0,0.0,0.0,0.0,2489.375,2409.0,4394.0,4360.7,307.32366666666667,307.20375,314.19675,314.15125,22.0469,20.5822,22.0731,21.6146,314.999998,314.999998,324.999988,324.999988,99.56097142857143,99.50643333333333,99.56662857142857,99.54922857142857,0.021500000000000075,-0.06624999999999992,-0.14200000000000002,0.07499999999999996,-0.02833333333332888,-0.051666666666669414,1.4606666666666666,1.4696666666666665,38.793,29.639,38.957,36.091499999999996,55.893,34.356,59.4095,53.46333333333333,53.730000000000004,33.5415,57.959,51.75533333333333,52.784,33.113,57.795500000000004,51.143,-0.04849999999999999,-0.04200000000000004,0.10080000000000001,0.11095500000000001,0.0,219.5,219.47,216.07666666666665,216.07666666666665,0.0,0.0
34,0.0,0.0,0.0,1.0,1.0,0.0,0.0,1.0,0.0,100.0,1.0,1.1856,26.0,0.0,0.0,0.0,59.999996,0.0,26.0,26.0,26.0,26.0,-0.03433333333333333,0.2650000000000001,-0.06625,295.013,-2.78405,-2.7791,-1.6215000000000002,-1.6,-160.25,215.8625,190.230625,0.0,0.0,0.0,0.0,0.06869999999999998,-5.498166666666667,-5.498166666666667,-0.47440000000000004,-0.7736666666666666,-0.03055555555555589,-0.08499999999999996,70.268,-0.028299999999999992,-0.020116666666666668,0.17799999999999905,100.0,1.0,1.0,216.54333333333335,0.0,0.0,0.0,0.0,0.0,0.0,0.0,9178.4,0.0,55.0,5.0,252.93666666666667,0.0,0.0,0.0,0.0,0.0,0.0,1.0,0.0,1.7040000000000006,1.7040000000000006,0.0,0.0,0.0,55.0,616.79921,10000.0,85.000001,85.000001,85.000001,85.000001,395.0,0.0,0.0,0.0,1.0,166.665,60.364,60.364,46.387,46.387,34.0,-21.462,18.57,-31.923333333333336,28.302500000000002,0.0,1780.673,-0.24499999999999922,100.0,22.212,21.821,44.941,44.873000000000005,0.0,0.0,100.0,0.0,0.0,0.0,0.0,2596.625,2382.5,4209.375,4252.7,306.97,307.211,314.69275,314.3115,22.0554,20.5866,22.0834,21.624,314.999998,314.999998,324.999988,324.999988,99.56098571428572,99.50645,99.56678571428571,99.54938571428572,0.038000000000000256,-0.05125000000000002,-0.13749999999999996,0.06933333333333325,-0.06333333333333258,-0.051666666666669414,1.4713333333333334,1.4883333333333333,38.846000000000004,29.6665,39.021,36.15,55.866,34.3845,59.449,53.524,53.705,33.568,57.9955,51.81366666666666,52.759,33.1385,57.829499999999996,51.199666666666666,-0.06499999999999995,-0.023500000000000076,0.11005000000000001,0.109475,0.0,219.91,219.89,216.54333333333335,216.54333333333335,0.0,0.0
35,0.0,0.0,0.0,1.0,1.0,0.0,0.0,1.0,0.0,100.0,1.0,1.1856,26.0,0.0,0.0,0.0,59.999996,0.0,26.0,26.0,26.0,26.0,-0.021444444444444488,0.27170000000000005,-0.060000000000000005,295.09,-2.83465,-2.7509,-1.6087,-1.6133000000000002,-156.66,215.845,190.20075,0.0,0.0,0.0,0.0,0.07079999999999997,-5.498166666666667,-5.498166666666667,-0.5129,-0.381,-0.03744444444444417,-0.02400000000000002,70.403,-0.017799999999999927,-0.021533333333333335,-0.1479999999999997,100.0,1.0,1.0,217.03333333333333,0.0,0.0,0.0,0.0,0.0,0.0,0.0,9199.3,0.0,55.0,5.0,253.42000000000002,1.0,0.0,0.0,0.0,0.0,0.0,1.0,0.0,1.754999999999999,1.754999999999999,0.0,0.0,1.0,55.0,616.79921,10000.0,85.000001,85.000001,85.000001,85.000001,395.0,0.0,0.0,0.0,1.0,166.665,60.104,60.104,45.853,45.853,34.0,-21.044,21.915999999999997,-29.983333333333334,28.689999999999998,0.0,1780.623,-0.26500000000000057,100.0,22.036,21.9155,44.853,44.437,0.0,0.0,100.0,0.0,0.0,0.0,0.0,2571.75,2716.0,4145.125,4061.3,307.18733333333336,306.28725,314.73275,314.838,22.0637,20.5912,22.0936,21.6332,314.999998,314.999998,324.999988,324.999988,99.56098571428572,99.50645,99.56694285714286,99.54952857142857,0.04875000000000007,-0.03325,-0.1153333333333334,0.10716666666666685,-0.041666666666671404,-0.054999999999999716,1.5186666666666666,1.5110000000000001,38.897999999999996,29.695,39.085,36.207,55.838,34.415,59.488,53.58133333333333,53.678,33.5955,58.032,51.86866666666667,52.732,33.165,57.8625,51.25333333333333,-0.0665,-0.02300000000000013,0.11162500000000002,0.10695,0.0,220.32,220.32,217.03333333333336,217.03333333333333,0.0,0.0
