,ABS Active,ABS Enabled,AID Allow Tire Blankets,AID Auto Blip,AID Auto Clutch,AID Auto Shift,AID Fuel Rate,AID Ideal Line,AID Mech Damage,AID Stability,AID Tire Wear Rate,Air Density,Air Temp,Ballast,Best Lap Delta,Best Lap Time,Brake Bias,Brake Pos,Brake Temp FL,Brake Temp FR,Brake Temp RL,Brake Temp RR,CG Accel Lateral,CG Accel Longitudinal,CG Accel Vertical,CG Height,Camber FL,Camber FR,Camber RL,Camber RR,Car Coord X,Car Coord Y,Car Coord Z,Car Damage Front,Car Damage Left,Car Damage Rear,Car Damage Right,Car Pos Norm,Caster FL,Caster FR,Chassis Pitch Angle,Chassis Pitch Rate,Chassis Roll Angle,Chassis Roll Rate,Chassis Velocity X,Chassis Velocity Y,Chassis Velocity Z,Chassis Yaw Rate,Clutch Pos,DRS Active,DRS Available,Drive Train Speed,ERS Heat Charging,ERS Is Charging,ERS Max Energy,ERS Power Level,ERS Recovery Level,Engine Brake Setting,Engine Limiter,Engine RPM,Flags,Fuel Level,Gear,Ground Speed,HR Sample Clock,In Pit,KERS Charge,KERS Deployed Energy,KERS Input,KERS Max Energy,LR Sample Clock,Lap Invalidated,Lap Time,Lap Time2,Last Lap Time,Last Sector Time,MR Sample Clock,Max Fuel,Max Power,Max RPM,Max Sus Travel FL,Max Sus Travel FR,Max Sus Travel RL,Max Sus Travel RR,Max Torque,Max Turbo Boost,Num Tires Off Track,Penalties Enabled,Position,Raw Data Sample Rate,Ride Height FL,Ride Height FR,Ride Height RL,Ride Height RR,Road Temp,Self Align Torque FL,Self Align Torque FR,Self Align Torque RL,Self Align Torque RR,Session Lap Count,Session Time Left,Steering Angle,Surface Grip,Suspension Travel FL,Suspension Travel FR,Suspension Travel RL,Suspension Travel RR,TC Active,TC Enabled,Throttle Pos,Tire Dirt Level FL,Tire Dirt Level FR,Tire Dirt Level RL,Tire Dirt Level RR,Tire Load FL,Tire Load FR,Tire Load RL,Tire Load RR,Tire Loaded Radius FL,Tire Loaded Radius FR,Tire Loaded Radius RL,Tire Loaded Radius RR,Tire Pressure FL,Tire Pressure FR,Tire Pressure RL,Tire Pressure RR,Tire Radius FL,Tire Radius FR,Tire Radius RL,Tire Radius RR,Tire Rubber Grip FL,Tire Rubber Grip FR,Tire Rubber Grip RL,Tire Rubber Grip RR,Tire Slip Angle FL,Tire Slip Angle FR,Tire Slip Angle RL,Tire Slip Angle RR,Tire Slip Ratio FL,Tire Slip Ratio FR,Tire Slip Ratio RL,Tire Slip Ratio RR,Tire Temp Core FL,Tire Temp Core FR,Tire Temp Core RL,Tire Temp Core RR,Tire Temp Inner FL,Tire Temp Inner FR,Tire Temp Inner RL,Tire Temp Inner RR,Tire Temp Middle FL,Tire Temp Middle FR,Tire Temp Middle RL,Tire Temp Middle RR,Tire Temp Outer FL,Tire Temp Outer FR,Tire Temp Outer RL,Tire Temp Outer RR,Toe In FL,Toe In FR,Toe In RL,Toe In RR,Turbo Boost,Wheel Angular Speed FL,Wheel Angular Speed FR,Wheel Angular Speed RL,Wheel Angular Speed RR,Wind Direction,Wind Speed
0,0.0,0.0,0.0,1.0,1.0,0.0,0.0,1.0,0.0,100.0,1.0,1.1856,26.0,0.0,0.0,0.0,59.99999,0.0,26.0,26.0,26.0,26.0,-0.03337499999999993,-0.40069999999999995,0.1529666666666667,289.505,-2.7239,-2.51525,-1.5707,-1.4917500000000001,-275.66,215.42000000000002,190.98375,0.0,0.0,0.0,0.0,0.0015999999999999348,-5.498166666666667,-5.498166666666667,-0.7391000000000001,0.294,0.016111111111110965,0.08499999999999996,65.233,-0.021299999999999986,-0.41175,0.03200000000000092,100.0,1.0,1.0,198.31333333333333,0.0,0.0,0.0,0.0,0.0,0.0,0.0,9640.4,0.0,55.0,0.0,234.88333333333333,0.0,0.0,0.0,0.0,0.0,0.0,0.0,0.0,0.0030000000000001137,0.0030000000000001137,0.0,0.0,0.0,55.0,616.79921,10000.0,85.0,85.0,85.0,85.0,395.0,0.0,0.0,0.0,1.0,20.0,41.763,41.763,49.759,49.759,34.0,-36.415,37.614,-30.044999999999998,27.5075,0.0,1783.649,0.06500000000000128,100.0,33.128,33.641,40.19,40.09,0.0,0.0,0.0,0.0,0.0,0.0,0.0,4306.625,5144.5,3704.625,3817.8,301.742,298.763,315.8876666666667,315.35475,21.8592,20.5914,21.8858,21.355,314.99999,314.99999,324.99998,324.99998,99.56095714285715,99.50841666666666,99.57335714285715,99.5481,0.062249999999999917,-0.09450000000000003,-0.13049999999999995,0.08233333333333337,0.00833333333333286,-0.01833333333333087,-0.00633333333333308,0.015499999999999847,37.620000000000005,29.6965,37.786,34.469,57.292,35.7055,61.85,52.9035,55.242000000000004,34.82,60.4245,51.1595,54.476,34.379,60.438,50.53,-0.10266666666666668,-0.11100000000000021,0.09585,0.0936,0.0,204.435,204.425,198.31333333333333,198.31333333333333,0.0,0.0
1,0.0,0.0,0.0,1.0,1.0,0.0,0.0,1.0,0.0,100.0,1.0,1.1856,26.0,0.0,0.0,0.0,59.999996,0.0,26.0,26.0,26.0,26.0,-0.04612499999999997,0.2913000000000001,0.3116333333333334,288.269,-2.6147,-2.57425,-1.6145,-1.354,-272.13,215.425,190.9625,0.0,0.0,0.0,0.0,0.003666666666666596,-5.498166666666667,-5.498166666666667,-0.6561,-0.8995,-0.024222222222222367,-0.762,65.269,-0.01639999999999997,-0.3919,0.45399999999999974,100.0,1.0,1.0,200.96,0.0,0.0,0.0,0.0,0.0,0.0,0.0,8518.0,0.0,55.0,5.0,234.94333333333333,1.0,0.0,0.0,0.0,0.0,0.0,0.0,0.0,0.05699999999999861,0.05699999999999861,0.0,0.0,1.0,55.0,616.79921,10000.0,85.000001,85.000001,85.000001,85.000001,395.0,0.0,0.0,0.0,1.0,166.665,44.968,44.968,47.867,47.867,34.0,-26.555,21.756,-37.62,34.2225,0.0,1783.597,0.129999999999999,100.0,34.403,34.448,41.751,43.133,0.0,0.0,100.0,0.0,0.0,0.0,0.0,3538.5,3162.2,4727.25,5308.700000000001,304.0775,304.65866666666665,313.2416666666667,311.259,21.8709,20.5982,21.8978,21.365,314.999998,314.999998,324.999988,324.999988,99.56097142857143,99.50843333333333,99.57348571428571,99.54821428571428,0.08699999999999997,-0.10524999999999995,-0.1346666666666666,0.07899999999999996,-0.046666666666666856,-0.02499999999999858,1.2716666666666665,1.2839999999999998,37.693,29.738999999999997,37.861000000000004,34.5315,57.289,35.759,61.868,52.951,55.239000000000004,34.8695,60.4405,51.2055,54.471000000000004,34.427,60.451,50.5755,-0.10733333333333328,-0.11900000000000022,0.103315,0.10923000000000001,0.0,204.54000000000002,204.48000000000002,200.96,200.96,0.0,0.0
2,0.0,0.0,0.0,1.0,1.0,0.0,0.0,1.0,0.0,100.0,1.0,1.1856,26.0,0.0,0.0,0.0,59.999996,0.0,26.0,26.0,26.0,26.0,-0.06174999999999997,0.2662,-0.09363333333333335,290.39,-2.5931,-2.54275,-1.5795,-1.49675,-269.0,215.4275,190.945375,0.0,0.0,0.0,0.0,0.005466666666666509,-5.498166666666667,-5.498166666666667,-0.7257,0.47900000000000004,0.005444444444444363,1.5340000000000003,65.383,-0.016199999999999992,-0.446325,0.5520000000000005,100.0,1.0,1.0,202.27666666666667,0.0,0.0,0.0,0.0,0.0,0.0,0.0,8573.8,0.0,55.0,5.0,235.35666666666668,0.0,0.0,0.0,0.0,0.0,0.0,0.0,0.0,0.10500000000000043,0.10500000000000043,0.0,0.0,0.0,55.0,616.79921,10000.0,85.000001,85.000001,85.000001,85.000001,395.0,0.0,0.0,0.0,1.0,333.33500000000004,43.991,43.991,50.964,50.964,34.0,-30.39,23.842,-24.6925,19.305,0.0,1783.547,0.365000000000002,100.0,34.388,34.105000000000004,41.399,41.71,0.0,0.0,100.0,0.0,0.0,0.0,0.0,3836.0,3642.6,3509.125,3361.8,303.185,303.04966666666667,316.314,316.559,21.8811,20.604,21.9081,21.3732,314.999998,314.999998,324.999988,324.999988,99.56098571428572,99.50845,99.57361428571429,99.54832857142857,0.0605,-0.13424999999999998,-0.15533333333333332,0.07750000000000012,-0.04833333333333201,-0.051666666666669414,1.7723333333333333,1.7974999999999999,37.757,29.775,37.925,34.582499999999996,57.284,35.803,61.893,52.9925,55.233999999999995,34.9105,60.463499999999996,51.246,54.465,34.466,60.471000000000004,50.615,-0.09599999999999986,-0.14150000000000018,0.10510000000000001,0.10377000000000002,0.0,204.875,204.825,202.27666666666667,202.27666666666667,0.0,0.0
3,0.0,0.0,0.0,1.0,1.0,0.0,0.0,1.0,0.0,100.0,1.0,1.1856,26.0,0.0,0.0,0.0,59.999996,0.0,26.0,26.0,26.0,26.0,-0.061124999999999985,0.2762,0.13923333333333332,289.658,-2.6083,-2.582375,-1.5550000000000002,-1.466,-265.66,215.43,190.925125,0.0,0.0,0.0,0.0,0.007433333333333292,-5.498166666666667,-5.498166666666667,-0.6601,0.2095,0.018111111111110967,-1.579,65.526,-0.024899999999999922,-0.36560000000000004,0.6179999999999994,100.0,1.0,1.0,202.10333333333332,0.0,0.0,0.0,0.0,0.0,0.0,0.0,8566.5,0.0,55.0,5.0,235.87,1.0,0.0,0.0,0.0,0.0,0.0,0.0,0.0,0.1559999999999988,0.1559999999999988,0.0,0.0,1.0,55.0,616.79921,10000.0,85.000001,85.000001,85.000001,85.000001,395.0,0.0,0.0,0.0,1.0,166.665,45.181,45.181,48.278999999999996,48.278999999999996,34.0,-26.8325,24.002000000000002,-32.53,27.509999999999998,0.0,1783.498,0.48499999999999943,100.0,33.941,33.753,41.496,41.771,0.0,0.0,100.0,0.0,0.0,0.0,0.0,3444.875,3556.2,4384.125,4283.9,304.457,303.4816666666667,314.18033333333335,314.1355,21.8916,20.6103,21.9191,21.3824,314.999998,314.999998,324.999988,324.999988,99.56098571428572,99.50846666666666,99.57374285714286,99.54847142857143,0.06099999999999994,-0.124,-0.1366666666666666,0.08633333333333337,-0.011666666666670267,-0.046666666666666856,1.4703333333333335,1.468,37.822,29.8145,37.994,34.64,57.274,35.8535,61.923,53.054,55.224000000000004,34.957,60.491,51.305,54.454,34.5105,60.4955,50.673500000000004,-0.07299999999999995,-0.15249999999999986,0.09535500000000001,0.10479000000000001,0.0,205.31,205.29000000000002,202.10333333333332,202.10333333333332,0.0,0.0
4,0.0,0.0,0.0,1.0,1.0,0.0,0.0,1.0,0.0,100.0,1.0,1.1856,26.0,0.0,0.0,0.0,59.999996,0.0,26.0,26.0,26.0,26.0,-0.071125,0.2614000000000001,-0.06116666666666667,290.039,-2.5939,-2.651625,-1.4949,-1.5778750000000001,-262.51,215.4325,190.907125,0.0,0.0,0.0,0.0,0.009266666666666534,-5.498166666666667,-5.498166666666667,-0.685,-0.649,-0.031444444444444386,0.496,65.65,-0.03379999999999994,-0.41165,0.8940000000000001,100.0,1.0,1.0,202.67000000000002,0.0,0.0,0.0,0.0,0.0,0.0,0.0,8590.5,0.0,55.0,5.0,236.31666666666666,0.0,0.0,0.0,0.0,0.0,0.0,0.0,0.0,0.20400000000000063,0.20400000000000063,0.0,0.0,0.0,55.0,616.79921,10000.0,85.000001,85.000001,85.000001,85.000001,395.0,0.0,0.0,0.0,1.0,166.665,45.028999999999996,45.028999999999996,49.377,49.377,34.0,-29.259999999999998,23.945999999999998,-28.697499999999998,24.2325,0.0,1783.45,0.5399999999999991,100.0,34.024,33.382,42.243,41.743,0.0,0.0,100.0,0.0,0.0,0.0,0.0,3663.75,3505.8,3978.75,3859.7,303.612,303.6893333333333,315.1453333333333,315.26775,21.901699999999998,20.6161,21.9297,21.391,314.999998,314.999998,324.999988,324.999988,99.561,99.50848333333333,99.57388571428571,99.5486,0.05449999999999999,-0.13124999999999998,-0.15566666666666662,0.06983333333333319,-0.04333333333332945,-0.03833333333332689,1.5623333333333334,1.6219999999999999,37.885999999999996,29.8505,38.061,34.694,57.268,35.8985,61.954499999999996,53.105000000000004,55.217,34.9985,60.519999999999996,51.354,54.445,34.5505,60.5215,50.722,-0.07233333333333314,-0.15549999999999997,0.104245,0.10358500000000001,0.0,205.675,205.60000000000002,202.67000000000002,202.67000000000002,0.0,0.0
5,0.0,0.0,0.0,1.0,1.0,0.0,0.0,1.0,0.0,100.0,1.0,1.1856,26.0,0.0,0.0,0.0,59.999996,0.0,26.0,26.0,26.0,26.0,-0.077125,0.25849999999999995,-0.0253,290.436,-2.5749,-2.597875,-1.5474999999999999,-1.5578750000000001,-259.16,215.4325,190.8875,0.0,0.0,0.0,0.0,0.011199999999999988,-5.498166666666667,-5.498166666666667,-0.6920000000000001,0.3875,-0.01822222222222214,-0.31999999999999995,65.781,-0.05119999999999991,-0.40075,0.9359999999999999,100.0,1.0,1.0,203.19,0.0,0.0,0.0,0.0,0.0,0.0,0.0,8612.5,0.0,55.0,5.0,236.7866666666667,1.0,0.0,0.0,0.0,0.0,0.0,0.0,0.0,0.254999999999999,0.254999999999999,0.0,0.0,1.0,55.0,616.79921,10000.0,85.000001,85.000001,85.000001,85.000001,395.0,0.0,0.0,0.0,1.0,166.665,45.334,45.334,49.835,49.835,34.0,-29.4625,22.862000000000002,-29.5,23.009999999999998,0.0,1783.398,0.129999999999999,100.0,33.632,33.314,41.83,41.302,0.0,0.0,100.0,0.0,0.0,0.0,0.0,3683.75,3467.5,3851.75,3866.5,303.695,303.6653333333333,315.53266666666667,315.273,21.912399999999998,20.6223,21.9406,21.4,314.999998,314.999998,324.999988,324.999988,99.561,99.5085,99.57401428571428,99.54874285714286,0.04699999999999993,-0.13849999999999996,-0.18933333333333335,0.05016666666666669,-0.04999999999999716,-0.030000000000001137,1.6019999999999999,1.6404999999999998,37.953,29.889499999999998,38.129000000000005,34.75,57.26,35.9475,61.9825,53.158,55.21,35.0435,60.545500000000004,51.4055,54.437,34.5935,60.5445,50.772,-0.08999999999999986,-0.1259999999999999,0.10884500000000001,0.10787500000000001,0.0,206.135,206.01999999999998,203.19,203.19,0.0,0.0
6,0.0,0.0,0.0,1.0,1.0,0.0,0.0,1.0,0.0,100.0,1.0,1.1856,26.0,0.0,0.0,0.0,59.999996,0.0,26.0,26.0,26.0,26.0,-0.09299999999999997,0.2673000000000001,0.06546666666666666,290.237,-2.6062000000000003,-2.673,-1.4938,-1.543625,-256.0,215.43,190.86825,0.0,0.0,0.0,0.0,0.013033333333333341,-5.498166666666667,-5.498166666666667,-0.6822,-0.2985,-0.03711111111111132,-0.8160000000000001,65.90899999999999,-0.054400000000000004,-0.37870000000000004,0.7679999999999998,100.0,1.0,1.0,203.39333333333332,0.0,0.0,0.0,0.0,0.0,0.0,0.0,8621.2,0.0,55.0,5.0,237.24666666666667,0.0,0.0,0.0,0.0,0.0,0.0,0.0,0.0,0.3030000000000008,0.3030000000000008,0.0,0.0,0.0,55.0,616.79921,10000.0,85.000001,85.000001,85.000001,85.000001,395.0,0.0,0.0,0.0,1.0,166.665,45.67,45.67,49.254999999999995,49.254999999999995,34.0,-30.9425,22.396,-31.66,23.700000000000003,0.0,1783.351,0.2950000000000017,100.0,33.37,33.017,41.942,41.414,0.0,0.0,100.0,0.0,0.0,0.0,0.0,3760.0,3364.8,4163.625,3981.7,303.565,304.0246666666667,314.7506666666667,314.9485,21.9224,20.6281,21.951,21.4086,314.999998,314.999998,324.999988,324.999988,99.56101428571428,99.50851666666667,99.57415714285715,99.54887142857143,0.03699999999999992,-0.14774999999999994,-0.1811666666666666,0.04383333333333317,-0.05666666666667197,-0.036666666666668846,1.5373333333333332,1.5594999999999999,38.015,29.9255,38.194,34.804,57.251999999999995,35.992,62.0115,53.2115,55.201,35.0845,60.5725,51.4565,54.427,34.632999999999996,60.5685,50.8225,-0.08599999999999985,-0.12849999999999984,0.10697000000000001,0.101955,0.0,206.51,206.42000000000002,203.39333333333332,203.39333333333332,0.0,0.0
7,0.0,0.0,0.0,1.0,1.0,0.0,0.0,1.0,0.0,100.0,1.0,1.1856,26.0,0.0,0.0,0.0,59.999996,0.0,26.0,26.0,26.0,26.0,-0.06787500000000002,0.25250000000000017,6.666666666666667e-05,290.085,-2.5473,-2.674625,-1.5439,-1.591625,-252.63,215.425,190.847625,0.0,0.0,0.0,0.0,0.014999999999999902,-5.498166666666667,-5.498166666666667,-0.6880000000000001,0.156,-0.026222222222222147,1.057,66.03999999999999,-0.06109999999999993,-0.393225,0.5960000000000001,100.0,1.0,1.0,203.85666666666668,0.0,0.0,0.0,0.0,0.0,0.0,0.0,8640.7,0.0,55.0,5.0,237.72,1.0,0.0,0.0,0.0,0.0,0.0,0.0,0.0,0.3539999999999992,0.3539999999999992,0.0,0.0,1.0,55.0,616.79921,10000.0,85.000001,85.000001,85.000001,85.000001,395.0,0.0,0.0,0.0,1.0,166.665,45.197,45.197,49.286,49.286,34.0,-27.919999999999998,25.746,-30.5875,24.6175,0.0,1783.299,-0.1750000000000007,100.0,33.897,33.043,42.104,41.373000000000005,0.0,0.0,100.0,0.0,0.0,0.0,0.0,3640.0,3574.8,4034.625,3978.2,303.664,303.452,315.046,315.00125,21.9332,20.6343,21.9621,21.4178,314.999998,314.999998,324.999988,324.999988,99.56101428571428,99.50853333333333,99.5743,99.54901428571429,0.06699999999999995,-0.11249999999999993,-0.17016666666666658,0.05233333333333334,-0.03333333333333144,-0.04999999999999716,1.5463333333333333,1.5775000000000001,38.083,29.9645,38.263,34.861,57.245000000000005,36.041,62.0415,53.266999999999996,55.195,35.129999999999995,60.6,51.51,54.42,34.676,60.593,50.8745,-0.12033333333333318,-0.10099999999999998,0.09853500000000001,0.10255500000000001,0.0,206.905,206.85500000000002,203.85666666666668,203.85666666666668,0.0,0.0
8,0.0,0.0,0.0,1.0,1.0,0.0,0.0,1.0,0.0,100.0,1.0,1.1856,26.0,0.0,0.0,0.0,59.999996,0.0,26.0,26.0,26.0,26.0,-0.03749999999999998,0.2510000000000001,-0.025366666666666666,290.237,-2.5935,-2.61275,-1.5537,-1.590375,-249.26,215.41750000000002,190.827375,0.0,0.0,0.0,0.0,0.016966666666666574,-5.498166666666667,-5.498166666666667,-0.6883,-0.10350000000000001,-0.024555555555555664,-1.153,66.17099999999999,-0.05459999999999998,-0.397075,0.2820000000000009,100.0,1.0,1.0,204.26999999999998,0.0,0.0,0.0,0.0,0.0,0.0,0.0,8658.3,0.0,55.0,5.0,238.19,0.0,0.0,0.0,0.0,0.0,0.0,0.0,0.0,0.40500000000000114,0.40500000000000114,0.0,0.0,0.0,55.0,616.79921,10000.0,85.000001,85.000001,85.000001,85.000001,395.0,0.0,0.0,0.0,1.0,166.665,45.456,45.456,49.149,49.149,34.0,-28.6125,24.894,-30.645,24.3925,0.0,1783.248,-0.28000000000000114,100.0,33.424,33.2,42.087,41.596000000000004,0.0,0.0,100.0,0.0,0.0,0.0,0.0,3682.5,3507.3,4026.625,3893.3,303.7635,303.504,315.16,315.11525,21.9439,20.6406,21.9731,21.427,314.999998,314.999998,324.999988,324.999988,99.56102857142857,99.50855,99.57444285714286,99.54914285714285,0.06574999999999998,-0.10849999999999993,-0.17499999999999993,0.05833333333333335,-0.054999999999999716,-0.03499999999999659,1.5646666666666667,1.5749999999999997,38.149,30.003999999999998,38.332,34.9185,57.238,36.089,62.0715,53.323,55.188,35.174,60.628,51.564,54.411,34.7185,60.6175,50.9275,-0.1273333333333333,-0.08450000000000024,0.10912500000000001,0.10374000000000001,0.0,207.305,207.25,204.26999999999998,204.26999999999998,0.0,0.0
9,0.0,0.0,0.0,1.0,1.0,0.0,0.0,1.0,0.0,100.0,1.0,1.1856,26.0,0.0,0.0,0.0,59.999996,0.0,26.0,26.0,26.0,26.0,-0.03200000000000003,0.25260000000000016,0.009833333333333333,290.146,-2.5903,-2.6313750000000002,-1.5389,-1.54725,-245.88,215.41,190.80675,0.0,0.0,0.0,0.0,0.018933333333333358,-5.498166666666667,-5.498166666666667,-0.6859000000000001,0.171,-0.03055555555555589,0.813,66.301,-0.04039999999999999,-0.38732500000000003,-0.02799999999999958,100.0,1.0,1.0,204.65333333333334,0.0,0.0,0.0,0.0,0.0,0.0,0.0,8674.6,0.0,55.0,5.0,238.66,1.0,0.0,0.0,0.0,0.0,0.0,0.0,0.0,0.4559999999999995,0.4559999999999995,0.0,0.0,1.0,55.0,616.79921,10000.0,85.000001,85.000001,85.000001,85.000001,395.0,0.0,0.0,0.0,1.0,166.665,45.303,45.303,49.408,49.408,34.0,-27.54,26.734,-28.69,26.7725,0.0,1783.197,-0.34999999999999787,100.0,33.64,32.919,42.034,41.394999999999996,0.0,0.0,100.0,0.0,0.0,0.0,0.0,3663.625,3628.1,3961.25,4074.1000000000004,303.6325,303.3433333333333,315.229,314.80175,21.9546,20.6469,21.984099999999998,21.4361,314.999998,314.999998,324.999988,324.999988,99.56104285714285,99.50856666666667,99.57457142857143,99.54928571428572,0.08650000000000002,-0.09199999999999997,-0.1476666666666666,0.09216666666666673,-0.02833333333332888,-0.04333333333332945,1.5653333333333332,1.5684999999999998,38.216,30.0435,38.400999999999996,34.9755,57.233000000000004,36.135999999999996,62.101,53.378,55.182,35.2175,60.6555,51.617,54.403999999999996,34.76,60.641999999999996,50.9795,-0.1353333333333333,-0.08150000000000013,0.10855500000000001,0.11376000000000001,0.0,207.69,207.67000000000002,204.65333333333334,204.65333333333334,0.0,0.0
10,0.0,0.0,0.0,1.0,1.0,0.0,0.0,1.0,0.0,100.0,1.0,1.1856,26.0,0.0,0.0,0.0,59.999996,0.0,26.0,26.0,26.0,26.0,-0.009000000000000008,0.25970000000000004,-0.002666666666666667,290.039,-2.5993,-2.606875,-1.5539,-1.5342500000000001,-242.5,215.4,190.786125,0.0,0.0,0.0,0.0,0.02089999999999992,-5.498166666666667,-5.498166666666667,-0.6816,-0.226,-0.011777777777777665,-0.10399999999999998,66.432,-0.0230999999999999,-0.386475,-0.20399999999999974,100.0,1.0,1.0,204.98000000000002,0.0,0.0,0.0,0.0,0.0,0.0,0.0,8688.4,0.0,55.0,5.0,239.13333333333333,0.0,0.0,0.0,0.0,0.0,0.0,1.0,0.0,0.5069999999999979,0.5069999999999979,0.0,0.0,0.0,55.0,616.79921,10000.0,85.000001,85.000001,85.000001,85.000001,395.0,0.0,0.0,0.0,1.0,166.665,45.532,45.532,49.132999999999996,49.132999999999996,34.0,-27.375,25.852,-29.5475,27.567500000000003,0.0,1783.147,-0.375,100.0,33.447,33.052,42.024,41.795,0.0,0.0,100.0,0.0,0.0,0.0,0.0,3681.375,3505.4,4089.0,4127.6,303.763,303.549,314.963,314.5815,21.9652,20.6532,21.9951,21.4453,314.999998,314.999998,324.999988,324.999988,99.56104285714285,99.50856666666667,99.57472857142857,99.54942857142858,0.09050000000000002,-0.08724999999999994,-0.13749999999999996,0.09683333333333333,-0.046666666666666856,-0.054999999999999716,1.544,1.5234999999999999,38.283,30.0825,38.47,35.033500000000004,57.227000000000004,36.182,62.1315,53.435,55.177,35.26,60.683,51.672,54.397,34.8005,60.6665,51.033500000000004,-0.1433333333333333,-0.06999999999999984,0.104715,0.11342,0.0,208.095,208.10000000000002,204.98000000000002,204.98000000000002,0.0,0.0
11,0.0,0.0,0.0,1.0,1.0,0.0,0.0,1.0,0.0,100.0,1.0,1.1856,26.0,0.0,0.0,0.0,59.999996,0.0,26.0,26.0,26.0,26.0,0.007749999999999924,0.25,-0.04516666666666667,290.375,-2.6269,-2.6018749999999997,-1.5614,-1.5073750000000001,-239.31,215.39249999999998,190.766625,0.0,0.0,0.0,0.0,0.022599999999999953,-5.498166666666667,-5.498166666666667,-0.7023,-0.3745,0.017444444444444374,-0.18099999999999994,66.553,-0.009599999999999942,-0.39995,-0.24600000000000044,100.0,1.0,1.0,205.44666666666666,0.0,0.0,0.0,0.0,0.0,0.0,0.0,8708.2,0.0,55.0,5.0,239.56666666666666,1.0,0.0,0.0,0.0,0.0,0.0,1.0,0.0,0.5549999999999997,0.5549999999999997,0.0,0.0,1.0,55.0,616.79921,10000.0,85.000001,85.000001,85.000001,85.000001,395.0,0.0,0.0,0.0,1.0,333.33500000000004,45.578,45.578,49.622,49.622,34.0,-27.495,26.497999999999998,-26.825,26.4325,0.0,1783.097,-0.504999999999999,100.0,33.15,33.024,41.803,41.783,0.0,0.0,100.0,0.0,0.0,0.0,0.0,3674.5,3586.4,3869.25,3974.5,303.802,303.313,315.4886666666667,314.9845,21.9752,20.6592,22.0054,21.454,314.999998,314.999998,324.999988,324.999988,99.56107142857142,99.50858333333333,99.57487142857143,99.54957142857143,0.09275000000000011,-0.08675,-0.12216666666666665,0.11233333333333317,-0.04333333333332945,-0.05666666666667197,1.591,1.5935000000000001,38.345,30.119999999999997,38.534,35.0875,57.222,36.228,62.158500000000004,53.4905,55.171,35.3025,60.7085,51.726,54.39,34.841499999999996,60.6885,51.0865,-0.1373333333333333,-0.07750000000000012,0.10362500000000001,0.10723,0.0,208.45,208.45,205.44666666666666,205.44666666666666,0.0,0.0
12,0.0,0.0,0.0,1.0,1.0,0.0,0.0,1.0,0.0,100.0,1.0,1.1856,26.0,0.0,0.0,0.0,59.999996,0.0,26.0,26.0,26.0,26.0,0.00537500000000013,0.26550000000000007,0.0032,290.1,-2.6282,-2.587875,-1.5613000000000001,-1.5206250000000001,-236.11,215.385,190.74625,0.0,0.0,0.0,0.0,0.025466666666666526,-5.498166666666667,-5.498166666666667,-0.6971,0.3895,0.018888888888888955,-0.5740000000000001,66.674,0.0036000000000000476,-0.38320000000000004,-0.3420000000000005,100.0,1.0,1.0,205.78333333333333,0.0,0.0,0.0,0.0,0.0,0.0,0.0,8722.4,0.0,55.0,5.0,240.00333333333333,0.0,0.0,0.0,0.0,0.0,0.0,1.0,0.0,0.602999999999998,0.602999999999998,0.0,0.0,0.0,55.0,616.79921,10000.0,85.000001,85.000001,85.000001,85.000001,395.0,0.0,0.0,0.0,1.0,166.665,45.257999999999996,45.257999999999996,49.225,49.225,34.0,-27.87,26.716,-27.69,27.8675,0.0,1783.051,-0.375,100.0,33.272,33.361,41.567,41.741,0.0,0.0,100.0,0.0,0.0,0.0,0.0,3686.875,3631.1,4042.125,4061.2,303.748,303.15233333333333,315.11533333333335,314.80975,21.9851,20.6653,22.0156,21.4626,314.999998,314.999998,324.999988,324.999988,99.56108571428571,99.5086,99.57498571428572,99.5497,0.0887500000000001,-0.08750000000000002,-0.10983333333333334,0.12183333333333324,-0.030000000000001137,-0.054999999999999716,1.5773333333333333,1.5655000000000001,38.407,30.158,38.598,35.1415,57.218,36.269,62.183,53.539500000000004,55.167,35.3405,60.7305,51.772999999999996,54.385,34.8775,60.708,51.1325,-0.1273333333333333,-0.08999999999999986,0.10549000000000001,0.10818000000000001,0.0,208.825,208.86,205.78333333333333,205.78333333333333,0.0,0.0
13,0.0,0.0,0.0,1.0,1.0,0.0,0.0,1.0,0.0,100.0,1.0,1.1856,26.0,0.0,0.0,0.0,59.999996,0.0,26.0,26.0,26.0,26.0,0.04200000000000004,0.2509000000000001,0.02673333333333333,289.703,-2.6083,-2.60675,-1.5539,-1.531375,-232.71,215.3775,190.72475,0.0,0.0,0.0,0.0,0.026599999999999957,-5.498166666666667,-5.498166666666667,-0.6909000000000001,-0.2085,0.016000000000000014,1.116,66.803,0.009100000000000108,-0.3891,-0.37600000000000033,100.0,1.0,1.0,206.09,0.0,0.0,0.0,0.0,0.0,0.0,0.0,8735.4,0.0,55.0,5.0,240.46666666666667,1.0,0.0,0.0,0.0,0.0,0.0,1.0,0.0,0.6539999999999999,0.6539999999999999,0.0,0.0,1.0,55.0,616.79921,10000.0,85.000001,85.000001,85.000001,85.000001,395.0,0.0,0.0,0.0,1.0,166.665,45.059,45.059,48.828,48.828,34.0,-24.447499999999998,29.682000000000002,-27.29,30.265,0.0,1783.0,-0.5449999999999982,100.0,33.656,33.381,42.011,42.073,0.0,0.0,100.0,0.0,0.0,0.0,0.0,3607.125,3697.5,4062.25,4215.8,303.802,303.12966666666665,314.942,314.468,21.9957,20.6718,22.026699999999998,21.472,314.999998,314.999998,324.999988,324.999988,99.5611,99.5086,99.57512857142856,99.54984285714286,0.14000000000000012,-0.04149999999999998,-0.09283333333333332,0.13650000000000007,-0.03166666666666629,-0.041666666666671404,1.5233333333333334,1.509,38.473,30.1985,38.667,35.1995,57.214,36.3155,62.213,53.5975,55.163,35.3835,60.7585,51.829,54.379000000000005,34.919,60.7325,51.1875,-0.15333333333333332,-0.06400000000000006,0.10514000000000001,0.10460000000000001,0.0,209.21,209.235,206.09,206.09,0.0,0.0
14,0.0,0.0,0.0,1.0,1.0,0.0,0.0,1.0,0.0,100.0,1.0,1.1856,26.0,0.0,0.0,0.0,59.999996,0.0,26.0,26.0,26.0,26.0,0.044624999999999915,0.2450000000000001,-0.015766666666666665,289.825,-2.6051,-2.614625,-1.5630000000000002,-1.527375,-229.3,215.37,190.7035,0.0,0.0,0.0,0.0,0.028566666666666518,-5.498166666666667,-5.498166666666667,-0.7051000000000001,-0.0775,0.024666666666666615,-0.40800000000000003,66.929,0.015900000000000025,-0.40555,-0.36799999999999944,100.0,1.0,1.0,206.56666666666666,0.0,0.0,0.0,0.0,0.0,0.0,0.0,8755.7,0.0,55.0,5.0,240.92333333333335,0.0,0.0,0.0,0.0,0.0,0.0,1.0,0.0,0.7049999999999983,0.7049999999999983,0.0,0.0,0.0,55.0,616.79921,10000.0,85.000001,85.000001,85.000001,85.000001,395.0,0.0,0.0,0.0,1.0,166.665,44.907,44.907,49.164,49.164,34.0,-25.912499999999998,28.092,-26.5475,27.845,0.0,1782.949,-0.4250000000000007,100.0,33.629,33.813,41.926,42.295,0.0,0.0,100.0,0.0,0.0,0.0,0.0,3693.125,3608.7,3941.625,3998.6000000000004,303.733,303.16866666666664,315.32933333333335,314.932,22.0062,20.6783,22.0376,21.4812,314.999998,314.999998,324.999988,324.999988,99.56111428571428,99.50861666666667,99.57527142857143,99.54998571428571,0.12125000000000008,-0.06399999999999995,-0.10216666666666663,0.12983333333333325,-0.03499999999999659,-0.03999999999999915,1.5793333333333333,1.5745,38.539,30.238999999999997,38.735,35.2575,57.211,36.362,62.2405,53.6535,55.159,35.4265,60.783500000000004,51.882999999999996,54.373999999999995,34.96,60.754999999999995,51.2405,-0.1413333333333333,-0.08349999999999991,0.10677500000000001,0.10882000000000001,0.0,209.60000000000002,209.62,206.56666666666666,206.56666666666666,0.0,0.0
15,0.0,0.0,0.0,1.0,1.0,0.0,0.0,1.0,0.0,100.0,1.0,1.1856,26.0,0.0,0.0,0.0,59.999996,0.0,26.0,26.0,26.0,26.0,0.03937499999999994,0.24370000000000003,0.0007333333333333333,289.688,-2.6125,-2.595875,-1.5511,-1.548,-225.88,215.3625,190.681875,0.0,0.0,0.0,0.0,0.03056666666666652,-5.498166666666667,-5.498166666666667,-0.6995,0.241,0.03555555555555556,0.798,67.056,0.021200000000000108,-0.39380000000000004,-0.46200000000000063,100.0,1.0,1.0,206.91666666666669,0.0,0.0,0.0,0.0,0.0,0.0,0.0,8770.5,0.0,55.0,5.0,241.38,1.0,0.0,0.0,0.0,0.0,0.0,1.0,0.0,0.7560000000000002,0.7560000000000002,0.0,0.0,1.0,55.0,616.79921,10000.0,85.000001,85.000001,85.000001,85.000001,395.0,0.0,0.0,0.0,1.0,166.665,44.891,44.891,48.965,48.965,34.0,-24.5275,28.972,-25.982499999999998,29.965,0.0,1782.897,-0.3299999999999983,100.0,33.819,33.737,41.893,42.264,0.0,0.0,100.0,0.0,0.0,0.0,0.0,3554.0,3704.8,3975.125,4130.7,303.954,303.03866666666664,315.20033333333333,314.65125,22.0167,20.6848,22.0485,21.4905,314.999998,314.999998,324.999988,324.999988,99.56112857142857,99.50863333333334,99.57541428571429,99.55012857142857,0.13200000000000012,-0.056499999999999995,-0.08466666666666656,0.14216666666666677,-0.041666666666671404,-0.045000000000001705,1.551,1.5379999999999998,38.604,30.28,38.803,35.3155,57.208,36.408500000000004,62.268,53.710499999999996,55.156,35.4695,60.809,51.938,54.369,35.0015,60.777,51.2945,-0.1363333333333332,-0.08749999999999991,0.10983000000000001,0.09864,0.0,210.015,210.01999999999998,206.91666666666669,206.91666666666669,0.0,0.0
16,0.0,0.0,0.0,1.0,1.0,0.0,0.0,1.0,0.0,100.0,1.0,1.1856,26.0,0.0,0.0,0.0,59.999996,0.0,26.0,26.0,26.0,26.0,0.04787500000000011,0.24250000000000016,-0.0004,289.551,-2.6607000000000003,-2.536125,-1.5311,-1.543875,-222.46,215.35750000000002,190.660125,0.0,0.0,0.0,0.0,0.0325333333333333,-5.498166666666667,-5.498166666666667,-0.7076,-0.42,0.025111111111111084,-1.106,67.182,0.02740000000000009,-0.4042,-0.2560000000000002,100.0,1.0,1.0,207.28333333333333,0.0,0.0,0.0,0.0,0.0,0.0,0.0,8786.0,0.0,55.0,5.0,241.83333333333334,0.0,0.0,0.0,0.0,0.0,0.0,1.0,0.0,0.8069999999999986,0.8069999999999986,0.0,0.0,0.0,55.0,616.79921,10000.0,85.000001,85.000001,85.000001,85.000001,395.0,0.0,0.0,0.0,1.0,166.665,44.662,44.662,48.66,48.66,34.0,-27.3375,28.32,-26.3675,29.21,0.0,1782.846,-0.21000000000000085,100.0,33.518,33.95,42.025,42.519,0.0,0.0,100.0,0.0,0.0,0.0,0.0,3755.875,3710.9,4041.5,3988.9,303.611,302.893,315.08666666666664,314.8885,22.0271,20.6914,22.0595,21.4998,314.999998,314.999998,324.999988,324.999988,99.56115714285714,99.50863333333334,99.57555714285714,99.55027142857143,0.11575000000000002,-0.05974999999999997,-0.08799999999999997,0.14966666666666684,-0.05833333333333002,-0.03166666666666629,1.5466666666666666,1.5350000000000001,38.669,30.3215,38.872,35.374,57.203,36.455,62.297,53.766999999999996,55.150999999999996,35.5125,60.835499999999996,51.9925,54.361999999999995,35.042500000000004,60.8005,51.3485,-0.12366666666666681,-0.0950000000000002,0.109365,0.11647,0.0,210.385,210.39,207.28333333333333,207.28333333333333,0.0,0.0
17,0.0,0.0,0.0,1.0,1.0,0.0,0.0,1.0,0.0,100.0,1.0,1.1856,26.0,0.0,0.0,0.0,59.999996,0.0,26.0,26.0,26.0,26.0,0.025500000000000078,0.26239999999999997,0.022433333333333336,289.322,-2.6719,-2.521875,-1.5765,-1.504625,-219.03,215.35250000000002,190.638125,0.0,0.0,0.0,0.0,0.034533333333333305,-5.498166666666667,-5.498166666666667,-0.7084,0.122,0.007222222222222241,0.399,67.30799999999999,0.023400000000000087,-0.3995,-0.2160000000000002,100.0,1.0,1.0,207.64666666666668,0.0,0.0,0.0,0.0,0.0,0.0,0.0,8801.3,0.0,55.0,5.0,242.28666666666666,1.0,0.0,0.0,0.0,0.0,0.0,1.0,0.0,0.8580000000000005,0.8580000000000005,0.0,0.0,1.0,55.0,616.79921,10000.0,85.000001,85.000001,85.000001,85.000001,395.0,0.0,0.0,0.0,1.0,166.665,44.418,44.418,48.553,48.553,34.0,-26.4025,29.1,-27.71,29.7475,0.0,1782.795,-0.16999999999999815,100.0,33.935,33.897,42.032,42.293,0.0,0.0,100.0,0.0,0.0,0.0,0.0,3715.875,3819.5,4132.0,4164.2,303.5415,302.748,314.84933333333333,314.6055,22.0376,20.698,22.0704,21.509,314.999998,314.999998,324.999988,324.999988,99.56117142857143,99.50865,99.5757,99.55041428571428,0.133,-0.055749999999999966,-0.08583333333333332,0.14383333333333326,-0.036666666666668846,-0.061666666666667425,1.53,1.5305,38.735,30.362499999999997,38.94,35.4315,57.2,36.501999999999995,62.325,53.8225,55.147999999999996,35.556,60.861,52.0465,54.357,35.0845,60.8225,51.400999999999996,-0.1256666666666666,-0.10000000000000009,0.10951000000000001,0.105645,0.0,210.79000000000002,210.815,207.64666666666668,207.64666666666668,0.0,0.0
18,0.0,0.0,0.0,1.0,1.0,0.0,0.0,1.0,0.0,100.0,1.0,1.1856,26.0,0.0,0.0,0.0,59.999996,0.0,26.0,26.0,26.0,26.0,0.017625000000000002,0.23670000000000013,0.02806666666666667,289.23,-2.5705999999999998,-2.659,-1.5267,-1.472875,-215.79,215.35,190.61725,0.0,0.0,0.0,0.0,0.03639999999999999,-5.498166666666667,-5.498166666666667,-0.7172000000000001,-0.3705,0.0040000000000000036,0.9219999999999999,67.425,0.020000000000000018,-0.406525,-0.18799999999999972,100.0,1.0,1.0,207.97333333333333,0.0,0.0,0.0,0.0,0.0,0.0,0.0,8815.2,0.0,55.0,5.0,242.71,0.0,0.0,0.0,0.0,0.0,0.0,1.0,0.0,0.9059999999999988,0.9059999999999988,0.0,0.0,0.0,55.0,616.79921,10000.0,85.000001,85.000001,85.000001,85.000001,395.0,0.0,0.0,0.0,1.0,166.665,44.388,44.388,48.462,48.462,34.0,-25.285,30.492,-27.107499999999998,29.745,0.0,1782.748,-0.16999999999999815,100.0,33.959,33.808,42.227000000000004,42.41,0.0,0.0,100.0,0.0,0.0,0.0,0.0,3679.375,3812.6,4058.75,4224.7,303.5965,302.636,314.921,314.477,22.0474,20.7042,22.0807,21.5178,314.999998,314.999998,324.999988,324.999988,99.56118571428571,99.50865,99.57582857142857,99.55055714285714,0.12749999999999995,-0.06174999999999997,-0.09499999999999997,0.14200000000000013,-0.036666666666668846,-0.045000000000001705,1.5173333333333332,1.5270000000000001,38.796,30.401,39.004999999999995,35.4865,57.196,36.545500000000004,62.352000000000004,53.8755,55.144,35.596000000000004,60.885999999999996,52.0975,54.352000000000004,35.1225,60.8445,51.451499999999996,-0.1286666666666667,-0.09699999999999998,0.10422500000000001,0.1097,0.0,211.155,211.155,207.97333333333333,207.97333333333333,0.0,0.0
19,0.0,0.0,0.0,1.0,1.0,0.0,0.0,1.0,0.0,100.0,1.0,1.1856,26.0,0.0,0.0,0.0,59.999996,0.0,26.0,26.0,26.0,26.0,0.02487499999999998,0.26649999999999996,0.07136666666666666,288.895,-2.5518,-2.620375,-1.5272000000000001,-1.4565000000000001,-212.55,215.3475,190.595875,0.0,0.0,0.0,0.0,0.0383,-5.498166666666667,-5.498166666666667,-0.7154,0.5935,0.015111111111111075,0.8069999999999999,67.542,0.014100000000000001,-0.40395000000000003,-0.0860000000000003,100.0,1.0,1.0,208.34,0.0,0.0,0.0,0.0,0.0,0.0,0.0,8830.8,0.0,55.0,5.0,243.13,1.0,0.0,0.0,0.0,0.0,0.0,1.0,0.0,0.9540000000000006,0.9540000000000006,0.0,0.0,1.0,55.0,616.79921,10000.0,85.000001,85.000001,85.000001,85.000001,395.0,0.0,0.0,0.0,1.0,166.665,43.777,43.777,48.644999999999996,48.644999999999996,34.0,-26.4,29.823999999999998,-26.857499999999998,30.587500000000002,0.0,1782.699,-0.10999999999999943,100.0,34.527,34.299,42.129,42.406,0.0,0.0,100.0,0.0,0.0,0.0,0.0,3722.5,3824.7,4050.5,4372.6,303.421,302.552,315.02,314.16375,22.057299999999998,20.7105,22.091,21.5266,314.999998,314.999998,324.999988,324.999988,99.56121428571429,99.50866666666667,99.57597142857144,99.55068571428572,0.11075000000000013,-0.06874999999999998,-0.09333333333333338,0.13949999999999996,-0.041666666666671404,-0.04999999999999716,1.5166666666666666,1.5234999999999999,38.858000000000004,30.4405,39.069,35.541,57.194,36.591,62.376999999999995,53.928,55.141,35.6385,60.909,52.1485,54.348,35.1635,60.8645,51.5015,-0.12233333333333318,-0.10850000000000026,0.101915,0.11156500000000001,0.0,211.535,211.53,208.34,208.34,0.0,0.0
20,0.0,0.0,0.0,1.0,1.0,0.0,0.0,1.0,0.0,100.0,1.0,1.1856,26.0,0.0,0.0,0.0,59.999996,0.0,26.0,26.0,26.0,26.0,0.02300000000000013,0.24009999999999998,0.007033333333333333,289.078,-2.6313,-2.57375,-1.5107,-1.57925,-208.89999999999998,215.345,190.572375,0.0,0.0,0.0,0.0,0.04043333333333332,-5.498166666666667,-5.498166666666667,-0.7116,-0.713,0.0129999999999999,0.5760000000000001,67.673,0.007500000000000062,-0.409675,-0.043999999999999595,100.0,1.0,1.0,208.70333333333332,0.0,0.0,0.0,0.0,0.0,0.0,0.0,8846.1,0.0,55.0,5.0,243.60333333333335,0.0,0.0,0.0,0.0,0.0,0.0,0.0,0.0,1.0079999999999991,1.0079999999999991,0.0,0.0,0.0,55.0,616.79921,10000.0,85.000001,85.000001,85.000001,85.000001,395.0,0.0,0.0,0.0,1.0,166.665,44.479,44.479,48.172,48.172,34.0,-25.7525,27.964,-27.4875,30.052500000000002,0.0,1782.646,-0.1750000000000007,100.0,34.221000000000004,34.093,42.711,42.891999999999996,0.0,0.0,100.0,0.0,0.0,0.0,0.0,3623.5,3714.0,4060.25,4128.5,303.825,303.078,314.93733333333336,314.587,22.0683,20.7174,22.1027,21.5366,314.999998,314.999998,324.999988,324.999988,99.56122857142857,99.50868333333334,99.57611428571428,99.55084285714285,0.12250000000000005,-0.07125000000000004,-0.10533333333333339,0.12916666666666687,-0.030000000000001137,-0.045000000000001705,1.5006666666666666,1.4925000000000002,38.927,30.484,39.141999999999996,35.6035,57.189,36.641,62.408500000000004,53.9895,55.135999999999996,35.6845,60.9385,52.207499999999996,54.341,35.207499999999996,60.8905,51.5595,-0.1279999999999999,-0.10150000000000015,0.10996500000000001,0.10973000000000001,0.0,211.91500000000002,211.91500000000002,208.70333333333332,208.70333333333332,0.0,0.0
21,0.0,0.0,0.0,1.0,1.0,0.0,0.0,1.0,0.0,100.0,1.0,1.1856,26.0,0.0,0.0,0.0,59.999996,0.0,26.0,26.0,26.0,26.0,-0.00024999999999997247,0.24540000000000006,-0.06676666666666667,289.444,-2.6327,-2.5435,-1.5614,-1.5326250000000001,-205.64999999999998,215.3425,190.551125,0.0,0.0,0.0,0.0,0.042300000000000004,-5.498166666666667,-5.498166666666667,-0.7335,-0.152,0.00533333333333319,0.569,67.787,0.0039000000000000146,-0.413875,-0.0779999999999994,100.0,1.0,1.0,209.21,0.0,0.0,0.0,0.0,0.0,0.0,0.0,8867.6,0.0,55.0,5.0,244.01,1.0,0.0,0.0,0.0,0.0,0.0,0.0,0.0,1.056000000000001,1.056000000000001,0.0,0.0,1.0,55.0,616.79921,10000.0,85.000001,85.000001,85.000001,85.000001,395.0,0.0,0.0,0.0,1.0,166.665,44.449,44.449,48.981,48.981,34.0,-26.915,27.772,-27.2975,27.2325,0.0,1782.598,-0.2049999999999983,100.0,34.225,33.955,42.371,42.539,0.0,0.0,100.0,0.0,0.0,0.0,0.0,3704.0,3734.6,3938.375,3962.5,303.589,303.0706666666667,315.3233333333333,315.0945,22.0781,20.7236,22.1129,21.5452,314.999998,314.999998,324.999988,324.999988,99.56124285714286,99.50868333333334,99.57625714285714,99.55097142857143,0.11375000000000002,-0.07074999999999998,-0.11699999999999999,0.1233333333333333,-0.023333333333326323,-0.06666666666666998,1.575,1.5795,38.988,30.5225,39.206,35.6575,57.185,36.6855,62.433,54.039500000000004,55.132,35.7255,60.960499999999996,52.256,54.336,35.247,60.9095,51.607,-0.125,-0.0990000000000002,0.11607,0.100135,0.0,212.265,212.265,209.21,209.21,0.0,0.0
22,0.0,0.0,0.0,1.0,1.0,0.0,0.0,1.0,0.0,100.0,1.0,1.1856,26.0,0.0,0.0,0.0,59.999996,0.0,26.0,26.0,26.0,26.0,0.006250000000000089,0.25639999999999996,-0.03086666666666667,289.169,-2.5808,-2.580375,-1.5878,-1.51825,-202.39,215.34,190.529,0.0,0.0,0.0,0.0,0.044199999999999906,-5.498166666666667,-5.498166666666667,-0.7214,0.264,0.010222222222222133,1.0870000000000002,67.903,0.0014000000000000679,-0.391475,-0.137999999999999,100.0,1.0,1.0,209.45,0.0,0.0,0.0,0.0,0.0,0.0,0.0,8877.8,0.0,55.0,5.0,244.43,0.0,0.0,0.0,0.0,0.0,0.0,0.0,0.0,1.1039999999999992,1.1039999999999992,0.0,0.0,0.0,55.0,616.79921,10000.0,85.000001,85.000001,85.000001,85.000001,395.0,0.0,0.0,0.0,1.0,333.33500000000004,44.51,44.51,48.248,48.248,34.0,-24.685,27.82,-29.025,29.3225,0.0,1782.548,-0.2699999999999996,100.0,34.374,34.1,42.393,42.447,0.0,0.0,100.0,0.0,0.0,0.0,0.0,3561.5,3712.8,4159.375,4213.9,303.949,303.079,314.799,314.55425,22.0879,20.7298,22.1232,21.5539,314.999998,314.999998,324.999988,324.999988,99.56125714285714,99.5087,99.5764,99.55111428571429,0.12400000000000011,-0.07550000000000001,-0.10483333333333333,0.12433333333333318,-0.04333333333332945,-0.05333333333332746,1.546,1.5274999999999999,39.05,30.561500000000002,39.269999999999996,35.712,57.182,36.7305,62.4595,54.091499999999996,55.129000000000005,35.7675,60.985,52.306,54.331,35.287,60.931,51.656,-0.1396666666666666,-0.09600000000000009,0.107175,0.105325,0.0,212.655,212.64499999999998,209.45,209.45,0.0,0.0
23,0.0,0.0,0.0,1.0,1.0,0.0,0.0,1.0,0.0,100.0,1.0,1.1856,26.0,0.0,0.0,0.0,59.999996,0.0,26.0,26.0,26.0,26.0,-0.008124999999999938,0.23530000000000006,-0.002266666666666667,288.91,-2.6633,-2.580625,-1.6301,-1.526,-198.72,215.3375,190.50425,0.0,0.0,0.0,0.0,0.04633333333333334,-5.498166666666667,-5.498166666666667,-0.7333000000000001,-0.3345,0.009777777777777885,0.506,68.032,0.0043999999999999595,-0.412275,-0.1739999999999995,100.0,1.0,1.0,209.87,0.0,0.0,0.0,0.0,0.0,0.0,0.0,8895.6,0.0,55.0,5.0,244.89333333333335,1.0,0.0,0.0,0.0,0.0,0.0,0.0,0.0,1.1580000000000013,1.1580000000000013,0.0,0.0,1.0,55.0,616.79921,10000.0,85.000001,85.000001,85.000001,85.000001,395.0,0.0,0.0,0.0,1.0,166.665,43.884,43.884,48.569,48.569,34.0,-27.7975,28.808,-28.705,28.905,0.0,1782.496,-0.259999999999998,100.0,34.491,34.266,42.608000000000004,42.756,0.0,0.0,100.0,0.0,0.0,0.0,0.0,3832.5,3782.9,4061.25,4103.5,303.269,302.873,315.0806666666667,314.79075,22.099,20.7369,22.134900000000002,21.5639,314.999998,314.999998,324.999988,324.999988,99.56128571428572,99.50871666666667,99.57654285714285,99.55127142857143,0.123,-0.0685,-0.10433333333333339,0.13183333333333325,-0.046666666666666856,-0.04999999999999716,1.542,1.5324999999999998,39.119,30.6055,39.343,35.7745,57.179,36.7815,62.49,54.1515,55.125,35.814499999999995,61.013,52.3645,54.325,35.332,60.9555,51.713,-0.1413333333333333,-0.09350000000000014,0.10339500000000001,0.10529000000000001,0.0,213.015,213.03,209.87,209.87,0.0,0.0
24,0.0,0.0,0.0,1.0,1.0,0.0,0.0,1.0,0.0,100.0,1.0,1.1856,26.0,0.0,0.0,0.0,59.999996,0.0,26.0,26.0,26.0,26.0,-0.0024999999999999467,0.2492000000000001,-0.038033333333333336,289.154,-2.5949999999999998,-2.58175,-1.6261999999999999,-1.5315,-195.45999999999998,215.3375,190.482,0.0,0.0,0.0,0.0,0.04823333333333335,-5.498166666666667,-5.498166666666667,-0.7458,-0.2795,0.01644444444444426,1.036,68.145,0.00990000000000002,-0.41415,-0.24399999999999977,100.0,1.0,1.0,210.21333333333334,0.0,0.0,0.0,0.0,0.0,0.0,0.0,8910.2,0.0,55.0,5.0,245.30333333333334,0.0,0.0,0.0,0.0,0.0,0.0,0.0,0.0,1.2059999999999995,1.2059999999999995,0.0,0.0,0.0,55.0,616.79921,10000.0,85.000001,85.000001,85.000001,85.000001,395.0,0.0,0.0,0.0,1.0,166.665,44.464,44.464,48.416,48.416,34.0,-25.18,27.676000000000002,-29.4925,29.105,0.0,1782.448,-0.23000000000000043,100.0,34.502,34.076,42.538,42.692,0.0,0.0,100.0,0.0,0.0,0.0,0.0,3594.125,3689.0,4163.25,4100.7,303.859,303.18666666666667,314.84433333333334,314.7845,22.1088,20.7431,22.1451,21.5727,314.999998,314.999998,324.999988,324.999988,99.5613,99.50873333333334,99.57667142857143,99.5514,0.12274999999999991,-0.07399999999999995,-0.10433333333333339,0.1343333333333332,-0.03999999999999915,-0.054999999999999716,1.55,1.533,39.18,30.6445,39.407,35.829,57.176,36.8255,62.5155,54.203,55.122,35.855000000000004,61.036500000000004,52.414,54.321,35.371,60.976,51.762,-0.1313333333333333,-0.09949999999999992,0.11128,0.11173500000000001,0.0,213.385,213.39499999999998,210.21333333333334,210.21333333333334,0.0,0.0
25,0.0,0.0,0.0,1.0,1.0,0.0,0.0,1.0,0.0,100.0,1.0,1.1856,26.0,0.0,0.0,0.0,59.999996,0.0,26.0,26.0,26.0,26.0,0.025374999999999925,0.2370000000000001,-0.033433333333333336,289.154,-2.6671,-2.5545,-1.5653000000000001,-1.5173750000000001,-191.98000000000002,215.335,190.45725,0.0,0.0,0.0,0.0,0.05026666666666657,-5.498166666666667,-5.498166666666667,-0.765,-0.17,0.024555555555555664,-0.736,68.265,0.011200000000000099,-0.41247500000000004,-0.13600000000000012,100.0,1.0,1.0,210.62666666666667,0.0,0.0,0.0,0.0,0.0,0.0,0.0,8927.7,0.0,55.0,5.0,245.73333333333335,1.0,0.0,0.0,0.0,0.0,0.0,0.0,0.0,1.256999999999998,1.256999999999998,0.0,0.0,1.0,55.0,616.79921,10000.0,85.000001,85.000001,85.000001,85.000001,395.0,0.0,0.0,0.0,1.0,166.665,44.037,44.037,48.721000000000004,48.721000000000004,34.0,-28.107499999999998,28.304,-27.2275,27.877499999999998,0.0,1782.395,-0.259999999999998,100.0,34.073,34.324,42.323,42.591,0.0,0.0,100.0,0.0,0.0,0.0,0.0,3866.625,3800.4,3959.75,4026.0,303.377,302.69033333333334,315.3276666666667,314.9145,22.1191,20.7498,22.156,21.5819,314.999998,314.999998,324.999988,324.999988,99.56131428571429,99.50873333333334,99.57681428571429,99.55154285714286,0.11949999999999994,-0.07774999999999999,-0.11083333333333334,0.12766666666666682,-0.051666666666669414,-0.04333333333332945,1.5633333333333332,1.5670000000000002,39.244,30.686,39.474999999999994,35.887,57.171,36.873,62.542,54.257,55.117000000000004,35.8995,61.061,52.466499999999996,54.314,35.4135,60.997,51.813,-0.1419999999999999,-0.0990000000000002,0.108755,0.10878000000000002,0.0,213.75,213.755,210.62666666666667,210.62666666666667,0.0,0.0
26,0.0,0.0,0.0,1.0,1.0,0.0,0.0,1.0,0.0,100.0,1.0,1.1856,26.0,0.0,0.0,0.0,59.999996,0.0,26.0,26.0,26.0,26.0,0.028124999999999956,0.24550000000000005,0.05036666666666667,288.315,-2.5993,-2.632,-1.6056,-1.52175,-188.7,215.335,190.433375,0.0,0.0,0.0,0.0,0.052166666666666583,-5.498166666666667,-5.498166666666667,-0.7433000000000001,0.6645,0.012444444444444258,-0.94,68.38,0.010000000000000009,-0.395025,-0.18399999999999928,100.0,1.0,1.0,210.82999999999998,0.0,0.0,0.0,0.0,0.0,0.0,0.0,8936.4,0.0,55.0,5.0,246.14333333333335,0.0,0.0,0.0,0.0,0.0,0.0,0.0,0.0,1.3049999999999997,1.3049999999999997,0.0,0.0,0.0,55.0,616.79921,10000.0,85.000001,85.000001,85.000001,85.000001,395.0,0.0,0.0,0.0,1.0,166.665,43.365,43.365,47.867,47.867,34.0,-27.0925,28.742,-31.315,30.575,0.0,1782.347,-0.3099999999999987,100.0,34.836,34.92,42.382,42.801,0.0,0.0,100.0,0.0,0.0,0.0,0.0,3882.75,3701.2,4392.5,4307.3,303.1875,302.83733333333333,314.39033333333333,314.238,22.129,20.7562,22.1662,21.5908,314.999998,314.999998,324.999988,324.999988,99.56132857142858,99.50875,99.57695714285714,99.55168571428571,0.12775000000000003,-0.07374999999999998,-0.10433333333333339,0.12583333333333324,-0.03833333333332689,-0.045000000000001705,1.4923333333333333,1.4859999999999998,39.306,30.7265,39.539,35.942499999999995,57.171,36.9195,62.5685,54.31,55.116,35.942499999999995,61.085,52.5175,54.312,35.454499999999996,61.0185,51.863,-0.1476666666666666,-0.08850000000000025,0.105535,0.10981,0.0,214.115,214.13,210.82999999999998,210.82999999999998,0.0,0.0
27,0.0,0.0,0.0,1.0,1.0,0.0,0.0,1.0,0.0,100.0,1.0,1.1856,26.0,0.0,0.0,0.0,59.999996,0.0,26.0,26.0,26.0,26.0,0.030874999999999986,0.22970000000000002,0.009933333333333334,288.406,-2.6198,-2.56725,-1.5791,-1.598125,-185.41,215.335,190.41025,0.0,0.0,0.0,0.0,0.054066666666666596,-5.498166666666667,-5.498166666666667,-0.7525000000000001,-0.8455,0.021333333333333204,-0.608,68.492,0.011900000000000022,-0.42475,-0.2060000000000004,100.0,1.0,1.0,211.17333333333335,0.0,0.0,0.0,0.0,0.0,0.0,0.0,8950.8,0.0,55.0,5.0,246.55333333333334,1.0,0.0,0.0,0.0,0.0,0.0,0.0,0.0,1.352999999999998,1.352999999999998,0.0,0.0,1.0,55.0,616.79921,10000.0,85.000001,85.000001,85.000001,85.000001,395.0,0.0,0.0,0.0,1.0,333.33500000000004,43.671,43.671,47.638,47.638,34.0,-26.935,28.37,-29.195,30.325,0.0,1782.3,-0.28999999999999915,100.0,34.689,34.861000000000004,43.062,43.452,0.0,0.0,100.0,0.0,0.0,0.0,0.0,3771.625,3752.8,4164.25,4106.9,303.563,302.8446666666667,314.81266666666664,314.585,22.1387,20.7625,22.1766,21.5998,314.999998,314.999998,324.999988,324.999988,99.56134285714286,99.50876666666667,99.5771,99.55182857142857,0.1180000000000001,-0.07174999999999998,-0.10499999999999998,0.1303333333333332,-0.015000000000000568,-0.02833333333332888,1.4923333333333333,1.4895,39.367000000000004,30.766,39.604,35.9985,57.168,36.964,62.597,54.3645,55.113,35.9835,61.1115,52.570499999999996,54.307,35.494,61.0415,51.915,-0.1339999999999999,-0.09250000000000025,0.10093,0.113045,0.0,214.425,214.42000000000002,211.17333333333335,211.17333333333335,0.0,0.0
28,0.0,0.0,0.0,1.0,1.0,0.0,0.0,1.0,0.0,100.0,1.0,1.1856,26.0,0.0,0.0,0.0,59.999996,0.0,26.0,26.0,26.0,26.0,0.031749999999999945,0.23840000000000017,-0.056100000000000004,288.773,-2.6336,-2.565375,-1.6235,-1.5405,-181.70999999999998,215.335,190.383875,0.0,0.0,0.0,0.0,0.05623333333333336,-5.498166666666667,-5.498166666666667,-0.7703,0.387,0.011222222222222022,-1.023,68.61500000000001,0.011900000000000022,-0.420225,-0.20199999999999996,100.0,1.0,1.0,211.73333333333335,0.0,0.0,0.0,0.0,0.0,0.0,0.0,8974.6,0.0,55.0,5.0,246.99333333333334,0.0,0.0,0.0,0.0,0.0,0.0,0.0,0.0,1.407,1.407,0.0,0.0,0.0,55.0,616.79921,10000.0,85.000001,85.000001,85.000001,85.000001,395.0,0.0,0.0,0.0,1.0,166.665,43.533,43.533,48.691,48.691,34.0,-27.335,28.451999999999998,-27.5275,28.0125,0.0,1782.246,-0.36499999999999844,100.0,34.708,34.918,42.577,43.001,0.0,0.0,100.0,0.0,0.0,0.0,0.0,3861.625,3711.8,3957.125,4008.7,303.2955,302.88366666666667,315.4266666666667,314.9695,22.1497,20.7697,22.188,21.6096,314.999998,314.999998,324.999988,324.999988,99.56137142857143,99.50876666666667,99.57724285714286,99.55198571428572,0.12725000000000009,-0.0655,-0.10516666666666663,0.12783333333333324,-0.041666666666671404,-0.03999999999999915,1.575,1.5745,39.436,30.811,39.675,36.06,57.165,37.0155,62.6225,54.420500000000004,55.11,36.031,61.1355,52.6245,54.303,35.539500000000004,61.0615,51.968,-0.1443333333333332,-0.08800000000000008,0.10372,0.10993000000000001,0.0,214.845,214.845,211.73333333333335,211.73333333333335,0.0,0.0
29,0.0,0.0,0.0,1.0,1.0,0.0,0.0,1.0,0.0,100.0,1.0,1.1856,26.0,0.0,0.0,0.0,59.999996,0.0,26.0,26.0,26.0,26.0,0.028000000000000025,0.23650000000000015,0.0246,288.422,-2.5761000000000003,-2.62325,-1.5603,-1.5415,-178.41,215.3375,190.3595,0.0,0.0,0.0,0.0,0.05813333333333337,-5.498166666666667,-5.498166666666667,-0.7635000000000001,-0.418,0.0016666666666667052,-0.753,68.729,0.015300000000000091,-0.40495000000000003,-0.28000000000000025,100.0,1.0,1.0,211.88,0.0,0.0,0.0,0.0,0.0,0.0,0.0,8980.8,0.0,55.0,5.0,247.40333333333334,1.0,0.0,0.0,0.0,0.0,0.0,0.0,0.0,1.4549999999999983,1.4549999999999983,0.0,0.0,1.0,55.0,616.79921,10000.0,85.000001,85.000001,85.000001,85.000001,395.0,0.0,0.0,0.0,1.0,166.665,43.823,43.823,47.379,47.379,34.0,-25.9775,28.762,-30.15,30.3125,0.0,1782.198,-0.379999999999999,100.0,34.49,34.762,42.885,43.198,0.0,0.0,100.0,0.0,0.0,0.0,0.0,3751.125,3699.2,4296.25,4201.5,303.5955,302.84833333333336,314.50933333333336,314.44775,22.159399999999998,20.776,22.1983,21.6185,314.999998,314.999998,324.999988,324.999988,99.56138571428572,99.50878333333333,99.57738571428571,99.55211428571428,0.12400000000000011,-0.07150000000000001,-0.10583333333333333,0.13149999999999995,-0.03833333333332689,-0.04833333333333201,1.4793333333333334,1.4914999999999998,39.495999999999995,30.85,39.739000000000004,36.1155,57.162,37.059,62.6505,54.4735,55.107,36.0715,61.161,52.6755,54.298,35.5785,61.0845,52.0175,-0.14466666666666672,-0.08700000000000019,0.112335,0.10917500000000001,0.0,215.18,215.195,211.88,211.88,0.0,0.0
30,0.0,0.0,0.0,1.0,1.0,0.0,0.0,1.0,0.0,100.0,1.0,1.1856,26.0,0.0,0.0,0.0,59.999996,0.0,26.0,26.0,26.0,26.0,0.049250000000000016,0.23280000000000012,-0.02816666666666667,288.239,-2.6778,-2.631875,-1.54,-1.587375,-175.11,215.34,190.334875,0.0,0.0,0.0,0.0,0.0600666666666666,-5.498166666666667,-5.498166666666667,-0.7804,0.097,0.005444444444444363,-0.55,68.838,0.017400000000000082,-0.42250000000000004,-0.30600000000000005,100.0,1.0,1.0,212.32333333333332,0.0,0.0,0.0,0.0,0.0,0.0,0.0,8999.7,0.0,55.0,5.0,247.79666666666668,0.0,0.0,0.0,0.0,0.0,0.0,1.0,0.0,1.5030000000000001,1.5030000000000001,0.0,0.0,0.0,55.0,616.79921,10000.0,85.000001,85.000001,85.000001,85.000001,395.0,0.0,0.0,0.0,1.0,333.33500000000004,42.953,42.953,48.416,48.416,34.0,-28.8525,30.226,-26.435,30.4375,0.0,1782.149,-0.379999999999999,100.0,35.007,35.086,42.766999999999996,43.236000000000004,0.0,0.0,100.0,0.0,0.0,0.0,0.0,4030.875,3851.5,4008.0,4115.4,302.9145,302.6236666666667,315.219,314.59375,22.1692,20.7825,22.2084,21.627299999999998,314.999998,314.999998,324.999988,324.999988,99.5614,99.50878333333333,99.57752857142857,99.55225714285714,0.13274999999999992,-0.06625000000000003,-0.09066666666666656,0.13683333333333336,-0.046666666666666856,-0.03999999999999915,1.5343333333333333,1.5194999999999999,39.558,30.8905,39.803,36.170500000000004,57.161,37.1045,62.675,54.525,55.105999999999995,36.114,61.1835,52.7255,54.295,35.619,61.1035,52.0665,-0.1523333333333332,-0.08550000000000013,0.10260000000000001,0.10958000000000001,0.0,215.525,215.53,212.32333333333332,212.32333333333332,0.0,0.0
31,0.0,0.0,0.0,1.0,1.0,0.0,0.0,1.0,0.0,100.0,1.0,1.1856,26.0,0.0,0.0,0.0,59.999996,0.0,26.0,26.0,26.0,26.0,0.024250000000000105,0.26039999999999996,0.06233333333333334,287.567,-2.6823,-2.592625,-1.6628,-1.5995000000000001,-171.6,215.3425,190.308875,0.0,0.0,0.0,0.0,0.06209999999999993,-5.498166666666667,-5.498166666666667,-0.7517,0.2455,0.016111111111110965,1.0180000000000002,68.957,0.02080000000000015,-0.4053,-0.41000000000000014,100.0,1.0,1.0,212.51666666666665,0.0,0.0,0.0,0.0,0.0,0.0,0.0,9007.8,0.0,55.0,5.0,248.22333333333336,1.0,0.0,0.0,0.0,0.0,0.0,1.0,0.0,1.5539999999999985,1.5539999999999985,0.0,0.0,1.0,55.0,616.79921,10000.0,85.000001,85.000001,85.000001,85.000001,395.0,0.0,0.0,0.0,1.0,333.33500000000004,42.938,42.938,46.738,46.738,34.0,-26.29,29.887999999999998,-32.057500000000005,34.682500000000005,0.0,1782.098,-0.370000000000001,100.0,35.496,35.439,43.24,43.518,0.0,0.0,100.0,0.0,0.0,0.0,0.0,3708.5,3830.0,4461.75,4497.1,303.52,302.69533333333334,314.158,313.92875,22.1796,20.7895,22.2194,21.6368,314.999998,314.999998,324.999988,324.999988,99.56142857142858,99.5088,99.57767142857143,99.55241428571429,0.139,-0.0605,-0.08783333333333332,0.15116666666666667,-0.03166666666666629,-0.046666666666666856,1.4756666666666667,1.4745,39.623000000000005,30.933999999999997,39.870999999999995,36.230000000000004,57.161,37.157,62.706,54.586,55.105000000000004,36.1625,61.2125,52.7845,54.292,35.6655,61.129,52.1245,-0.14466666666666672,-0.09200000000000008,0.10379500000000001,0.11002,0.0,215.89,215.91,212.51666666666665,212.51666666666665,0.0,0.0
32,0.0,0.0,0.0,1.0,1.0,0.0,0.0,1.0,0.0,100.0,1.0,1.1856,26.0,0.0,0.0,0.0,59.999996,0.0,26.0,26.0,26.0,26.0,0.026250000000000107,0.22540000000000004,-0.0585,288.071,-2.6445,-2.57575,-1.6516000000000002,-1.529375,-167.87,215.3475,190.282375,0.0,0.0,0.0,0.0,0.06426666666666658,-5.498166666666667,-5.498166666666667,-0.7721,-0.291,0.003555555555555534,0.22199999999999998,69.077,0.02629999999999999,-0.43367500000000003,-0.4579999999999993,100.0,1.0,1.0,213.05333333333334,0.0,0.0,0.0,0.0,0.0,0.0,0.0,9030.5,0.0,55.0,5.0,248.66,0.0,0.0,0.0,0.0,0.0,0.0,1.0,0.0,1.6080000000000005,1.6080000000000005,0.0,0.0,0.0,55.0,616.79921,10000.0,85.000001,85.000001,85.000001,85.000001,395.0,0.0,0.0,0.0,1.0,166.665,42.999,42.999,47.577,47.577,34.0,-25.1875,29.817999999999998,-27.1825,29.965,0.0,1782.045,-0.35999999999999943,100.0,35.357,35.432,43.43,43.731,0.0,0.0,100.0,0.0,0.0,0.0,0.0,3712.375,3831.0,4028.375,4085.3,303.5585,302.68833333333333,315.202,314.866,22.1905,20.7968,22.2309,21.6469,314.999998,314.999998,324.999988,324.999988,99.56145714285714,99.50881666666666,99.57782857142857,99.55255714285714,0.15050000000000008,-0.058499999999999996,-0.07533333333333336,0.15483333333333338,-0.02833333333332888,-0.04833333333333201,1.5636666666666668,1.532,39.69,30.98,39.943,36.293,57.16,37.206,62.733000000000004,54.641,55.102999999999994,36.207499999999996,61.237,52.838,54.289,35.7085,61.15,52.1765,-0.15366666666666662,-0.09600000000000009,0.09809000000000001,0.109545,0.0,216.235,216.28,213.05333333333334,213.05333333333334,0.0,0.0
33,0.0,0.0,0.0,1.0,1.0,0.0,0.0,1.0,0.0,100.0,1.0,1.1856,26.0,0.0,0.0,0.0,59.999996,0.0,26.0,26.0,26.0,26.0,0.04212499999999997,0.22720000000000007,-0.0728,288.3,-2.6372,-2.6016250000000003,-1.6118999999999999,-1.56725,-164.55,215.35250000000002,190.257875,0.0,0.0,0.0,0.0,0.06619999999999993,-5.498166666666667,-5.498166666666667,-0.7818,-0.1445,-0.004555555555555646,0.7969999999999999,69.186,0.029100000000000126,-0.42185,-0.45399999999999974,100.0,1.0,1.0,213.38333333333333,0.0,0.0,0.0,0.0,0.0,0.0,0.0,9044.6,0.0,55.0,5.0,249.05,1.0,0.0,0.0,0.0,0.0,0.0,1.0,0.0,1.6559999999999988,1.6559999999999988,0.0,0.0,1.0,55.0,616.79921,10000.0,85.000001,85.000001,85.000001,85.000001,395.0,0.0,0.0,0.0,1.0,166.665,43.442,43.442,47.714,47.714,34.0,-24.97,30.078,-27.165,30.44,0.0,1781.998,-0.35999999999999943,100.0,35.181,35.165,43.188,43.514,0.0,0.0,100.0,0.0,0.0,0.0,0.0,3658.5,3794.6,4065.875,4089.0,303.7955,302.849,315.08933333333334,314.81575,22.2001,20.8032,22.241,21.6557,314.999998,314.999998,324.999988,324.999988,99.56147142857142,99.50881666666666,99.57797142857143,99.5527,0.14400000000000013,-0.051999999999999935,-0.0771666666666666,0.15183333333333326,-0.030000000000001137,-0.03999999999999915,1.5443333333333333,1.5255,39.751000000000005,31.0195,40.007,36.348,57.158,37.2495,62.757,54.692,55.102000000000004,36.248,61.259,52.887,54.285,35.7475,61.169,52.2245,-0.14966666666666661,-0.09299999999999997,0.10631000000000002,0.10651500000000001,0.0,216.57999999999998,216.62,213.38333333333333,213.38333333333333,0.0,0.0
34,0.0,0.0,0.0,1.0,1.0,0.0,0.0,1.0,0.0,100.0,1.0,1.1856,26.0,0.0,0.0,0.0,59.999996,0.0,26.0,26.0,26.0,26.0,0.04525000000000001,0.2330000000000001,-0.05723333333333334,288.406,-2.6630000000000003,-2.515375,-1.6338,-1.557,-161.01999999999998,215.35750000000002,190.2305,0.0,0.0,0.0,0.0,0.06826666666666659,-5.498166666666667,-5.498166666666667,-0.8002,-0.755,0.013111111111111073,-0.43899999999999995,69.30199999999999,0.03180000000000005,-0.419125,-0.3439999999999994,100.0,1.0,1.0,213.69333333333333,0.0,0.0,0.0,0.0,0.0,0.0,0.0,9057.6,0.0,55.0,5.0,249.46666666666667,0.0,0.0,0.0,0.0,0.0,0.0,1.0,0.0,1.7070000000000007,1.7070000000000007,0.0,0.0,0.0,55.0,616.79921,10000.0,85.000001,85.000001,85.000001,85.000001,395.0,0.0,0.0,0.0,1.0,166.665,43.701,43.701,48.172,48.172,34.0,-26.57,27.823999999999998,-27.825,30.315,0.0,1781.945,-0.33500000000000085,100.0,34.757,34.956,42.979,43.665,0.0,0.0,100.0,0.0,0.0,0.0,0.0,3809.875,3666.7,4051.875,4150.6,303.5605,303.13366666666667,315.17533333333336,314.56625,22.2102,20.8099,22.2518,21.6651,314.999998,314.999998,324.999988,324.999988,99.5615,99.50883333333333,99.57811428571429,99.55284285714286,0.13824999999999998,-0.05725000000000002,-0.08783333333333332,0.13749999999999996,-0.03999999999999915,-0.04333333333332945,1.5416666666666667,1.5175,39.814,31.061500000000002,40.074,36.407,57.156,37.295,62.783,54.747,55.099000000000004,36.2905,61.2825,52.9405,54.281,35.788,61.189,52.277,-0.14500000000000002,-0.08700000000000019,0.10593500000000002,0.10437,0.0,216.94,216.95499999999998,213.69333333333333,213.69333333333333,0.0,0.0
35,0.0,0.0,0.0,1.0,1.0,0.0,0.0,1.0,0.0,100.0,1.0,1.1856,26.0,0.0,0.0,0.0,59.999996,0.0,26.0,26.0,26.0,26.0,0.02675000000000005,0.22670000000000012,-0.06536666666666667,288.528,-2.6371,-2.505,-1.545,-1.489125,-157.48000000000002,215.365,190.2015,0.0,0.0,0.0,0.0,0.07029999999999992,-5.498166666666667,-5.498166666666667,-0.8427,-0.6245,0.010666666666666602,-0.06399999999999995,69.41499999999999,0.03479999999999994,-0.432825,-0.45399999999999974,100.0,1.0,1.0,214.11,0.0,0.0,0.0,0.0,0.0,0.0,0.0,9075.4,0.0,55.0,5.0,249.87666666666667,1.0,0.0,0.0,0.0,0.0,0.0,1.0,0.0,1.7579999999999991,1.7579999999999991,0.0,0.0,1.0,55.0,616.79921,10000.0,85.000001,85.000001,85.000001,85.000001,395.0,0.0,0.0,0.0,1.0,166.665,43.549,43.549,47.836,47.836,34.0,-25.37,30.076,-25.0575,29.142500000000002,0.0,1781.895,-0.19500000000000028,100.0,34.573,34.951,42.854,43.236000000000004,0.0,0.0,100.0,0.0,0.0,0.0,0.0,3690.875,3978.6000000000004,3963.375,4012.2,303.769,302.273,315.2323333333333,315.03125,22.2203,20.8167,22.2625,21.6744,314.999998,314.999998,324.999988,324.999988,99.56151428571428,99.50885,99.57825714285714,99.553,0.14000000000000012,-0.0615,-0.0685,0.16199999999999992,-0.045000000000001705,-0.05333333333332746,1.5713333333333332,1.541,39.876999999999995,31.1045,40.141,36.4655,57.150999999999996,37.3425,62.8075,54.7995,55.094,36.334,61.305,52.991,54.275,35.83,61.2085,52.326499999999996,-0.135,-0.10099999999999998,0.107005,0.11077000000000001,0.0,217.275,217.325,214.11,214.11,0.0,0.0
36,0.0,0.0,0.0,1.0,1.0,0.0,0.0,1.0,0.0,100.0,1.0,1.1856,26.0,0.0,0.0,0.0,59.999996,0.0,26.0,26.0,26.0,26.0,0.032625000000000126,0.2248000000000001,-0.0057,287.994,-2.6908000000000003,-2.5535,-1.5826,-1.51475,-154.14999999999998,215.375,190.172625,0.0,0.0,0.0,0.0,0.07223333333333337,-5.498166666666667,-5.498166666666667,-0.8343,0.379,-0.029444444444444606,-0.242,69.524,0.03069999999999995,-0.40587500000000004,-0.23599999999999977,100.0,1.0,1.0,214.31666666666666,0.0,0.0,0.0,0.0,0.0,0.0,0.0,9084.1,0.0,55.0,5.0,250.26333333333332,0.0,0.0,0.0,0.0,0.0,0.0,1.0,0.0,1.806000000000001,1.806000000000001,0.0,0.0,0.0,55.0,616.79921,10000.0,85.000001,85.000001,85.000001,85.000001,395.0,0.0,0.0,0.0,1.0,166.665,43.198,43.198,47.638,47.638,34.0,-26.4225,29.528,-28.68,32.56,0.0,1781.847,-0.17999999999999972,100.0,35.18,35.243,42.792,43.16,0.0,0.0,100.0,0.0,0.0,0.0,0.0,3797.5,3828.9,4269.5,4355.0,303.47,302.70933333333335,314.64566666666667,314.21875,22.2299,20.8233,22.2726,21.6832,314.999998,314.999998,324.999988,324.999988,99.56154285714285,99.50885,99.57838571428572,99.55314285714286,0.14775000000000005,-0.05874999999999997,-0.08016666666666661,0.1581666666666668,-0.021666666666668277,-0.05666666666667197,1.5076666666666667,1.491,39.937,31.146,40.204,36.5205,57.15,37.3885,62.8315,54.8505,55.093,36.376999999999995,61.3275,53.0405,54.272,35.871,61.2275,52.3745,-0.137,-0.1030000000000002,0.10813500000000001,0.10433500000000001,0.0,217.66500000000002,217.695,214.31666666666666,214.31666666666666,0.0,0.0
