,ABS Active,ABS Enabled,AID Allow Tire Blankets,AID Auto Blip,AID Auto Clutch,AID Auto Shift,AID Fuel Rate,AID Ideal Line,AID Mech Damage,AID Stability,AID Tire Wear Rate,Air Density,Air Temp,Ballast,Best Lap Delta,Best Lap Time,Brake Bias,Brake Pos,Brake Temp FL,Brake Temp FR,Brake Temp RL,Brake Temp RR,CG Accel Lateral,CG Accel Longitudinal,CG Accel Vertical,CG Height,Camber FL,Camber FR,Camber RL,Camber RR,Car Coord X,Car Coord Y,Car Coord Z,Car Damage Front,Car Damage Left,Car Damage Rear,Car Damage Right,Car Pos Norm,Caster FL,Caster FR,Chassis Pitch Angle,Chassis Pitch Rate,Chassis Roll Angle,Chassis Roll Rate,Chassis Velocity X,Chassis Velocity Y,Chassis Velocity Z,Chassis Yaw Rate,Clutch Pos,DRS Active,DRS Available,Drive Train Speed,ERS Heat Charging,ERS Is Charging,ERS Max Energy,ERS Power Level,ERS Recovery Level,Engine Brake Setting,Engine Limiter,Engine RPM,Flags,Fuel Level,Gear,Ground Speed,HR Sample Clock,In Pit,KERS Charge,KERS Deployed Energy,KERS Input,KERS Max Energy,LR Sample Clock,Lap Invalidated,Lap Time,Lap Time2,Last Lap Time,Last Sector Time,MR Sample Clock,Max Fuel,Max Power,Max RPM,Max Sus Travel FL,Max Sus Travel FR,Max Sus Travel RL,Max Sus Travel RR,Max Torque,Max Turbo Boost,Num Tires Off Track,Penalties Enabled,Position,Raw Data Sample Rate,Ride Height FL,Ride Height FR,Ride Height RL,Ride Height RR,Road Temp,Self Align Torque FL,Self Align Torque FR,Self Align Torque RL,Self Align Torque RR,Session Lap Count,Session Time Left,Steering Angle,Surface Grip,Suspension Travel FL,Suspension Travel FR,Suspension Travel RL,Suspension Travel RR,TC Active,TC Enabled,Throttle Pos,Tire Dirt Level FL,Tire Dirt Level FR,Tire Dirt Level RL,Tire Dirt Level RR,Tire Load FL,Tire Load FR,Tire Load RL,Tire Load RR,Tire Loaded Radius FL,Tire Loaded Radius FR,Tire Loaded Radius RL,Tire Loaded Radius RR,Tire Pressure FL,Tire Pressure FR,Tire Pressure RL,Tire Pressure RR,Tire Radius FL,Tire Radius FR,Tire Radius RL,Tire Radius RR,Tire Rubber Grip FL,Tire Rubber Grip FR,Tire Rubber Grip RL,Tire Rubber Grip RR,Tire Slip Angle FL,Tire Slip Angle FR,Tire Slip Angle RL,Tire Slip Angle RR,Tire Slip Ratio FL,Tire Slip Ratio FR,Tire Slip Ratio RL,Tire Slip Ratio RR,Tire Temp Core FL,Tire Temp Core FR,Tire Temp Core RL,Tire Temp Core RR,Tire Temp Inner FL,Tire Temp Inner FR,Tire Temp Inner RL,Tire Temp Inner RR,Tire Temp Middle FL,Tire Temp Middle FR,Tire Temp Middle RL,Tire Temp Middle RR,Tire Temp Outer FL,Tire Temp Outer FR,Tire Temp Outer RL,Tire Temp Outer RR,Toe In FL,Toe In FR,Toe In RL,Toe In RR,Turbo Boost,Wheel Angular Speed FL,Wheel Angular Speed FR,Wheel Angular Speed RL,Wheel Angular Speed RR,Wind Direction,Wind Speed
0,0.0,0.0,0.0,1.0,1.0,0.0,0.0,1.0,0.0,100.0,1.0,1.1856,26.0,0.0,0.0,0.0,59.99999,0.0,26.0,26.0,26.0,26.0,-0.07137499999999997,-0.3722,0.1081,290.253,-2.6381,-2.5575555555555556,-1.5213999999999999,-1.5436,-275.77,216.3375,190.984375,0.0,0.0,0.0,0.0,0.0015333333333333334,-5.498166666666667,-5.498166666666667,-0.7421,-0.18266666666666667,0.0013333333333331865,-1.049,65.27799999999999,-0.02762500000000001,-0.42205000000000004,1.0499999999999998,100.0,1.0,1.0,198.45,0.0,0.0,0.0,0.0,0.0,0.0,0.0,9774.1,0.0,55.0,0.0,235.04666666666668,0.0,0.0,0.0,0.0,0.0,0.0,0.0,0.0,0.0030000000000001137,0.0030000000000001137,0.0,0.0,0.0,55.0,616.79921,10000.0,85.0,85.0,85.0,85.0,395.0,0.0,0.0,0.0,1.0,20.0,43.274,43.274,50.812,50.812,34.0,-33.32666666666667,28.869999999999997,-31.3825,26.118000000000002,0.0,1783.686,0.7100000000000009,100.0,33.903999999999996,33.415,40.081,40.32,0.0,0.0,0.0,0.0,0.0,0.0,0.0,3989.5714285714284,4315.2,3817.875,3722.6,302.8675,301.143,315.656,315.551,21.886,20.6211,21.968333333333334,21.3851,314.99999,314.99999,324.99998,324.99998,99.56178571428572,99.5091,99.5791,99.54987142857142,0.0405000000000002,-0.1359999999999999,-0.1479999999999999,0.05624999999999991,-0.0033333333333303017,0.026666666666670835,-0.020333333333333314,0.02200000000000002,37.787,29.881999999999998,38.302,34.657,57.655,36.1625,63.7585,53.6575,55.611000000000004,35.246,62.2935,51.8715,54.866,34.7935,62.338,51.229,-0.05699999999999994,-0.16449999999999987,0.08834,0.09533000000000001,0.0,204.655,204.535,198.4766666666667,198.42333333333335,0.0,0.0
1,0.0,0.0,0.0,1.0,1.0,0.0,0.0,1.0,0.0,100.0,1.0,1.1856,26.0,0.0,0.0,0.0,59.999996,0.0,26.0,26.0,26.0,26.0,-0.12024999999999997,0.2451000000000001,0.08616666666666667,289.062,-2.5445,-2.6527777777777777,-1.5171999999999999,-1.5289000000000001,-272.44,216.33249999999998,190.964,0.0,0.0,0.0,0.0,0.0034666666666666665,-5.498166666666667,-5.498166666666667,-0.7085,0.6543333333333334,-0.04888888888888854,-0.07400000000000007,65.242,-0.041749999999999954,-0.43255000000000005,1.3079999999999998,100.0,1.0,1.0,201.22,0.0,0.0,0.0,0.0,0.0,0.0,0.0,8529.0,0.0,55.0,5.0,234.85000000000002,1.0,0.0,0.0,0.0,0.0,0.0,0.0,0.0,0.053999999999998494,0.053999999999998494,0.0,0.0,1.0,55.0,616.79921,10000.0,85.000001,85.000001,85.000001,85.000001,395.0,0.0,0.0,0.0,1.0,166.665,43.106,43.106,49.744,49.744,34.0,-31.633333333333333,23.137999999999998,-32.38,27.78,0.0,1783.634,0.8350000000000009,100.0,35.563,34.702,41.632,40.503,0.0,0.0,100.0,0.0,0.0,0.0,0.0,3863.4285714285716,3564.5,4158.0,4535.4,302.888,303.4236666666667,314.793,313.67725,21.897333333333332,20.628,21.979888888888887,21.3943,314.999998,314.999998,324.999988,324.999988,99.56178571428572,99.50913333333334,99.57918571428571,99.54994285714285,0.03725000000000023,-0.15799999999999992,-0.17900000000000005,0.045250000000000234,-0.03166666666666629,-0.04833333333333201,1.4116666666666666,1.484,37.858000000000004,29.924500000000002,38.373999999999995,34.7145,57.652,36.219,63.7565,53.68,55.608000000000004,35.2985,62.2905,51.8935,54.861000000000004,34.844,62.332499999999996,51.251,-0.05400000000000005,-0.18199999999999994,0.10530500000000001,0.108545,0.0,204.47500000000002,204.37,201.22,201.22,0.0,0.0
2,0.0,0.0,0.0,1.0,1.0,0.0,0.0,1.0,0.0,100.0,1.0,1.1856,26.0,0.0,0.0,0.0,59.999996,0.0,26.0,26.0,26.0,26.0,-0.12975000000000003,0.25439999999999996,0.041133333333333334,289.871,-2.5039,-2.690666666666667,-1.4813,-1.5996000000000001,-269.11,216.325,190.9455,0.0,0.0,0.0,0.0,0.0054,-5.498166666666667,-5.498166666666667,-0.7193,-0.18566666666666667,-0.03866666666666685,1.9815,65.37100000000001,-0.062249999999999917,-0.45322500000000004,1.5779999999999994,100.0,1.0,1.0,201.95666666666668,0.0,0.0,0.0,0.0,0.0,0.0,0.0,8560.2,0.0,55.0,5.0,235.31333333333333,0.0,0.0,0.0,0.0,0.0,0.0,0.0,0.0,0.10500000000000043,0.10500000000000043,0.0,0.0,0.0,55.0,616.79921,10000.0,85.000001,85.000001,85.000001,85.000001,395.0,0.0,0.0,0.0,1.0,333.33500000000004,43.472,43.472,50.705,50.705,34.0,-33.07,21.974,-29.6525,21.216,0.0,1783.581,0.6999999999999993,100.0,35.433,34.298,41.903,40.826,0.0,0.0,100.0,0.0,0.0,0.0,0.0,3993.8571428571427,3450.7,3836.25,3687.3,302.712,303.874,315.48125,315.75525,21.908555555555555,20.6341,21.991555555555557,21.4036,314.999998,314.999998,324.999988,324.999988,99.5618,99.50915,99.57932857142858,99.55008571428571,0.020500000000000185,-0.17066666666666674,-0.20950000000000002,0.028999999999999915,-0.051666666666669414,-0.06499999999999773,1.601,1.6435,37.928,29.963,38.447,34.7725,57.646,36.269999999999996,63.783,53.7355,55.602000000000004,35.3455,62.314499999999995,51.9475,54.852999999999994,34.8885,62.3535,51.3035,-0.06400000000000006,-0.16700000000000026,0.100235,0.11490500000000001,0.0,204.875,204.735,201.95666666666668,201.95666666666668,0.0,0.0
3,0.0,0.0,0.0,1.0,1.0,0.0,0.0,1.0,0.0,100.0,1.0,1.1856,26.0,0.0,0.0,0.0,59.999996,0.0,26.0,26.0,26.0,26.0,-0.13837500000000003,0.2816000000000001,-0.04536666666666667,289.78,-2.6393,-2.574111111111111,-1.514,-1.5696,-265.97,216.3125,190.92725,0.0,0.0,0.0,0.0,0.007233333333333333,-5.498166666666667,-5.498166666666667,-0.6988000000000001,0.394,0.003444444444444361,-0.6425000000000001,65.498,-0.07899999999999996,-0.41297500000000004,1.3200000000000003,100.0,1.0,1.0,202.19333333333333,0.0,0.0,0.0,0.0,0.0,0.0,0.0,8570.2,0.0,55.0,5.0,235.76999999999998,1.0,0.0,0.0,0.0,0.0,0.0,0.0,0.0,0.1529999999999987,0.1529999999999987,0.0,0.0,1.0,55.0,616.79921,10000.0,85.000001,85.000001,85.000001,85.000001,395.0,0.0,0.0,0.0,1.0,333.33500000000004,44.128,44.128,49.362,49.362,34.0,-30.55666666666667,21.256,-33.6475,23.276,0.0,1783.534,0.504999999999999,100.0,35.049,34.354,41.535,40.818,0.0,0.0,100.0,0.0,0.0,0.0,0.0,3560.142857142857,3510.8,4156.125,4047.5,303.9715,303.50033333333334,314.8195,314.834,21.918777777777777,20.6401,22.002222222222223,21.4123,314.999998,314.999998,324.999988,324.999988,99.5618,99.50916666666667,99.57945714285714,99.55021428571429,0.0182500000000001,-0.17199999999999993,-0.21550000000000002,0.02200000000000024,-0.04333333333332945,-0.03999999999999915,1.5153333333333334,1.579,37.992000000000004,30.000500000000002,38.513999999999996,34.827,57.637,36.315,63.8025,53.783500000000004,55.593,35.3875,62.332499999999996,51.994,54.844,34.929,62.369,51.349000000000004,-0.07299999999999995,-0.1575000000000002,0.10412,0.11370000000000001,0.0,205.275,205.135,202.19333333333333,202.19333333333333,0.0,0.0
4,0.0,0.0,0.0,1.0,1.0,0.0,0.0,1.0,0.0,100.0,1.0,1.1856,26.0,0.0,0.0,0.0,59.999996,0.0,26.0,26.0,26.0,26.0,-0.14174999999999993,0.22930000000000006,0.006500000000000001,289.856,-2.5666,-2.6322222222222225,-1.5230000000000001,-1.5814000000000001,-262.43,216.2975,190.906375,0.0,0.0,0.0,0.0,0.009300000000000001,-5.498166666666667,-5.498166666666667,-0.7273000000000001,-0.502,-0.07155555555555582,-1.771,65.636,-0.08362500000000006,-0.443025,1.1820000000000004,100.0,1.0,1.0,202.69,0.0,0.0,0.0,0.0,0.0,0.0,0.0,8591.3,0.0,55.0,5.0,236.26999999999998,0.0,0.0,0.0,0.0,0.0,0.0,0.0,0.0,0.20700000000000074,0.20700000000000074,0.0,0.0,0.0,55.0,616.79921,10000.0,85.000001,85.000001,85.000001,85.000001,395.0,0.0,0.0,0.0,1.0,166.665,43.762,43.762,49.667,49.667,34.0,-33.07666666666667,22.294,-32.9675,20.814,0.0,1783.481,0.38500000000000156,100.0,34.809,34.107,41.888999999999996,40.769999999999996,0.0,0.0,100.0,0.0,0.0,0.0,0.0,3955.1428571428573,3565.9,4081.375,3641.9,302.971,303.32366666666667,314.96375,315.78675,21.930222222222223,20.6469,22.014444444444443,21.4221,314.999998,314.999998,324.999988,324.999988,99.5618,99.5092,99.5796,99.55035714285714,0.024249999999999883,-0.17199999999999993,-0.21724999999999994,0.028000000000000025,-0.03499999999999659,-0.036666666666668846,1.5623333333333334,1.6185,38.064,30.043,38.591,34.888,57.626999999999995,36.3695,63.831,53.838499999999996,55.583,35.4375,62.359,52.0465,54.832,34.977000000000004,62.3915,51.400999999999996,-0.08650000000000002,-0.1499999999999999,0.109825,0.10727,0.0,205.655,205.585,202.69,202.69,0.0,0.0
5,0.0,0.0,0.0,1.0,1.0,0.0,0.0,1.0,0.0,100.0,1.0,1.1856,26.0,0.0,0.0,0.0,59.999996,0.0,26.0,26.0,26.0,26.0,-0.124,0.26770000000000005,-0.03106666666666667,289.993,-2.5815,-2.697,-1.5061,-1.5699,-259.28,216.28,190.8875,0.0,0.0,0.0,0.0,0.011133333333333334,-5.498166666666667,-5.498166666666667,-0.7164,0.394,-0.07488888888888878,-0.29600000000000004,65.76,-0.08387499999999992,-0.4232,1.0119999999999996,100.0,1.0,1.0,203.03,0.0,0.0,0.0,0.0,0.0,0.0,0.0,8605.7,0.0,55.0,5.0,236.71333333333334,1.0,0.0,0.0,0.0,0.0,0.0,0.0,0.0,0.254999999999999,0.254999999999999,0.0,0.0,1.0,55.0,616.79921,10000.0,85.000001,85.000001,85.000001,85.000001,395.0,0.0,0.0,0.0,1.0,166.665,44.342,44.342,49.957,49.957,34.0,-31.78333333333333,22.157999999999998,-32.83,22.312,0.0,1783.434,0.14499999999999957,100.0,34.819,33.911,41.769999999999996,40.575,0.0,0.0,100.0,0.0,0.0,0.0,0.0,3830.5714285714284,3404.2,4084.875,3950.5,303.314,303.8353333333333,315.0315,315.047,21.940666666666665,20.6529,22.025222222222222,21.4307,314.999998,314.999998,324.999988,324.999988,99.56181428571429,99.50921666666666,99.57974285714286,99.55048571428571,0.029749999999999943,-0.16500000000000004,-0.22150000000000003,0.01725000000000021,-0.041666666666671404,-0.03333333333333144,1.5686666666666667,1.609,38.129000000000005,30.0805,38.658,34.941500000000005,57.620999999999995,36.417,63.855000000000004,53.885999999999996,55.577,35.4815,62.381,52.0925,54.825,35.0185,62.411,51.445499999999996,-0.10749999999999993,-0.12950000000000017,0.109475,0.113045,0.0,206.075,205.96,203.03,203.03,0.0,0.0
6,0.0,0.0,0.0,1.0,1.0,0.0,0.0,1.0,0.0,100.0,1.0,1.1856,26.0,0.0,0.0,0.0,59.999996,0.0,26.0,26.0,26.0,26.0,-0.10212500000000002,0.2532000000000001,0.0004,289.856,-2.5443,-2.637777777777778,-1.5497,-1.607,-255.92,216.2575,190.867125,0.0,0.0,0.0,0.0,0.013066666666666666,-5.498166666666667,-5.498166666666667,-0.7132000000000001,0.10400000000000001,-0.05466666666666642,0.915,65.891,-0.07499999999999996,-0.422725,0.6480000000000006,100.0,1.0,1.0,203.44333333333333,0.0,0.0,0.0,0.0,0.0,0.0,0.0,8623.2,0.0,55.0,5.0,237.18333333333334,0.0,0.0,0.0,0.0,0.0,0.0,0.0,0.0,0.30600000000000094,0.30600000000000094,0.0,0.0,0.0,55.0,616.79921,10000.0,85.000001,85.000001,85.000001,85.000001,395.0,0.0,0.0,0.0,1.0,166.665,44.037,44.037,49.881,49.881,34.0,-29.66,25.036,-31.1625,23.858,0.0,1783.382,-0.019999999999999574,100.0,34.811,33.731,41.909,40.769999999999996,0.0,0.0,100.0,0.0,0.0,0.0,0.0,3791.8571428571427,3673.2,3951.625,3925.6000000000004,303.2305,303.186,315.28375,315.14675,21.951666666666668,20.6592,22.036666666666665,21.44,314.999998,314.999998,324.999988,324.999988,99.56181428571429,99.50923333333333,99.57988571428571,99.55061428571429,0.05900000000000016,-0.1333333333333333,-0.19874999999999998,0.04225000000000012,-0.03833333333332689,-0.04833333333333201,1.5623333333333334,1.5945,38.198,30.1205,38.729,35.0,57.614000000000004,36.466499999999996,63.879999999999995,53.94,55.57,35.527,62.4035,52.1445,54.817,35.0625,62.4305,51.4965,-0.12250000000000005,-0.10749999999999993,0.10435000000000001,0.103345,0.0,206.435,206.38,203.44333333333333,203.44333333333333,0.0,0.0
7,0.0,0.0,0.0,1.0,1.0,0.0,0.0,1.0,0.0,100.0,1.0,1.1856,26.0,0.0,0.0,0.0,59.999996,0.0,26.0,26.0,26.0,26.0,-0.07624999999999993,0.252,0.0217,289.566,-2.6106,-2.621888888888889,-1.5116,-1.5514000000000001,-252.56,216.235,190.846875,0.0,0.0,0.0,0.0,0.015033333333333334,-5.498166666666667,-5.498166666666667,-0.7135,-0.043666666666666666,-0.04366666666666674,-0.18900000000000006,66.021,-0.05712499999999987,-0.4264,0.3680000000000003,100.0,1.0,1.0,203.77666666666667,0.0,0.0,0.0,0.0,0.0,0.0,0.0,8637.4,0.0,55.0,5.0,237.65333333333334,1.0,0.0,0.0,0.0,0.0,0.0,0.0,0.0,0.3569999999999993,0.3569999999999993,0.0,0.0,1.0,55.0,616.79921,10000.0,85.000001,85.000001,85.000001,85.000001,395.0,0.0,0.0,0.0,1.0,166.665,43.777,43.777,49.82,49.82,34.0,-31.66333333333333,24.868,-30.805,25.072000000000003,0.0,1783.331,-0.245000000000001,100.0,34.648,33.872,41.837,41.093,0.0,0.0,100.0,0.0,0.0,0.0,0.0,4015.5714285714284,3634.4,4044.875,4005.9,302.764,303.14633333333336,315.064,314.89525,21.962666666666667,20.6657,22.048222222222222,21.4493,314.999998,314.999998,324.999988,324.999988,99.56182857142858,99.50925,99.58001428571428,99.55077142857142,0.06974999999999998,-0.1303333333333332,-0.18049999999999988,0.06450000000000022,-0.03499999999999659,-0.03166666666666629,1.5366666666666666,1.5525,38.266,30.1605,38.801,35.058,57.608999999999995,36.5155,63.905,53.994,55.565,35.572,62.4265,52.196,54.81,35.1055,62.45,51.5475,-0.137,-0.09850000000000003,0.108365,0.11286000000000002,0.0,206.82999999999998,206.8,203.77666666666667,203.77666666666667,0.0,0.0
8,0.0,0.0,0.0,1.0,1.0,0.0,0.0,1.0,0.0,100.0,1.0,1.1856,26.0,0.0,0.0,0.0,59.999996,0.0,26.0,26.0,26.0,26.0,-0.055499999999999994,0.25860000000000016,-0.025833333333333333,289.764,-2.5954,-2.6064444444444446,-1.4954,-1.5345,-249.39,216.21,190.827625,0.0,0.0,0.0,0.0,0.016900000000000002,-5.498166666666667,-5.498166666666667,-0.7135,-0.363,-0.02477777777777801,-0.4424999999999999,66.144,-0.04237500000000005,-0.41910000000000003,0.016000000000000014,100.0,1.0,1.0,204.09,0.0,0.0,0.0,0.0,0.0,0.0,0.0,8650.6,0.0,55.0,5.0,238.0966666666667,0.0,0.0,0.0,0.0,0.0,0.0,0.0,0.0,0.40500000000000114,0.40500000000000114,0.0,0.0,0.0,55.0,616.79921,10000.0,85.000001,85.000001,85.000001,85.000001,395.0,0.0,0.0,0.0,1.0,166.665,44.586,44.586,48.935,48.935,34.0,-27.616666666666664,25.652,-30.705,26.046,0.0,1783.284,-0.41499999999999915,100.0,34.356,33.919,41.827,41.232,0.0,0.0,100.0,0.0,0.0,0.0,0.0,3641.8571428571427,3571.7,4199.125,4075.6000000000004,303.857,303.338,314.691,314.736,21.97277777777778,20.6718,22.058888888888887,21.4581,314.999998,314.999998,324.999988,324.999988,99.56184285714286,99.50928333333333,99.58015714285715,99.5509,0.07925000000000004,-0.10266666666666668,-0.15500000000000003,0.0767500000000001,-0.04999999999999716,-0.04999999999999716,1.5386666666666666,1.5354999999999999,38.33,30.1985,38.867999999999995,35.113,57.602999999999994,36.56,63.928,54.044,55.558,35.6135,62.447,52.245,54.802,35.144999999999996,62.468,51.595,-0.1479999999999999,-0.08250000000000002,0.103785,0.10655500000000001,0.0,207.20499999999998,207.195,204.09,204.09,0.0,0.0
9,0.0,0.0,0.0,1.0,1.0,0.0,0.0,1.0,0.0,100.0,1.0,1.1856,26.0,0.0,0.0,0.0,59.999996,0.0,26.0,26.0,26.0,26.0,-0.018625000000000003,0.26449999999999996,-0.021433333333333335,289.581,-2.5961,-2.610888888888889,-1.5392000000000001,-1.5386,-246.21,216.185,190.808,0.0,0.0,0.0,0.0,0.018733333333333334,-5.498166666666667,-5.498166666666667,-0.7275,0.4266666666666667,-0.027555555555555777,-0.5125,66.262,-0.023125000000000062,-0.42907500000000004,-0.15799999999999992,100.0,1.0,1.0,204.61333333333334,0.0,0.0,0.0,0.0,0.0,0.0,0.0,8672.8,0.0,55.0,5.0,238.5233333333333,1.0,0.0,0.0,0.0,0.0,0.0,0.0,0.0,0.4529999999999994,0.4529999999999994,0.0,0.0,1.0,55.0,616.79921,10000.0,85.000001,85.000001,85.000001,85.000001,395.0,0.0,0.0,0.0,1.0,333.33500000000004,43.35,43.35,50.156,50.156,34.0,-29.919999999999998,27.552,-27.1525,25.412,0.0,1783.234,-0.48499999999999943,100.0,34.701,34.364,41.545,41.236000000000004,0.0,0.0,100.0,0.0,0.0,0.0,0.0,4037.8571428571427,3703.4,3888.5,3904.5,302.704,302.8876666666667,315.48975,315.184,21.983,20.678,22.069555555555556,21.4668,314.999998,314.999998,324.999988,324.999988,99.56185714285715,99.50928333333333,99.58028571428571,99.55102857142857,0.09949999999999992,-0.08933333333333326,-0.13375000000000004,0.09650000000000025,-0.046666666666666856,-0.05666666666667197,1.6096666666666666,1.6125,38.394,30.237499999999997,38.935,35.167500000000004,57.599000000000004,36.606,63.948,54.093,55.555,35.6555,62.4655,52.292,54.797,35.1855,62.4835,51.641,-0.15149999999999997,-0.07900000000000018,0.10661000000000001,0.10608500000000001,0.0,207.565,207.59,204.61333333333334,204.61333333333334,0.0,0.0
10,0.0,0.0,0.0,1.0,1.0,0.0,0.0,1.0,0.0,100.0,1.0,1.1856,26.0,0.0,0.0,0.0,59.999996,0.0,26.0,26.0,26.0,26.0,0.008124999999999938,0.2632000000000001,0.04423333333333333,289.246,-2.5627,-2.595888888888889,-1.5855000000000001,-1.5205,-242.82,216.1575,190.78725,0.0,0.0,0.0,0.0,0.0207,-5.498166666666667,-5.498166666666667,-0.6980000000000001,-0.166,0.013222222222222024,1.866,66.394,-0.00275000000000003,-0.412225,-0.5519999999999996,100.0,1.0,1.0,204.7866666666667,0.0,0.0,0.0,0.0,0.0,0.0,0.0,8680.2,0.0,55.0,5.0,238.99666666666667,0.0,0.0,0.0,0.0,0.0,0.0,1.0,0.0,0.5040000000000013,0.5040000000000013,0.0,0.0,0.0,55.0,616.79921,10000.0,85.000001,85.000001,85.000001,85.000001,395.0,0.0,0.0,0.0,1.0,333.33500000000004,44.159,44.159,48.737,48.737,34.0,-24.023333333333333,28.08,-29.6375,30.368000000000002,0.0,1783.184,-0.5500000000000007,100.0,34.917,34.264,41.921,41.809,0.0,0.0,100.0,0.0,0.0,0.0,0.0,3532.4285714285716,3656.2,4216.75,4293.3,303.98,303.2463333333333,314.615,314.24975,21.99388888888889,20.6846,22.081,21.4763,314.999998,314.999998,324.999988,324.999988,99.56187142857142,99.5093,99.58042857142857,99.55117142857142,0.12824999999999998,-0.06366666666666676,-0.10349999999999993,0.12575000000000003,-0.03166666666666629,-0.03999999999999915,1.5033333333333334,1.4825,38.462,30.2785,39.007,35.2265,57.598,36.6525,63.973,54.1495,55.553,35.698499999999996,62.4885,52.3465,54.793,35.2265,62.503,51.695,-0.16049999999999986,-0.07250000000000023,0.10103000000000001,0.114445,0.0,207.945,207.985,204.7866666666667,204.7866666666667,0.0,0.0
11,0.0,0.0,0.0,1.0,1.0,0.0,0.0,1.0,0.0,100.0,1.0,1.1856,26.0,0.0,0.0,0.0,59.999996,0.0,26.0,26.0,26.0,26.0,0.050124999999999975,0.23930000000000007,-0.0838,289.81,-2.6194,-2.547555555555556,-1.5514000000000001,-1.5054,-239.44,216.13,190.766875,0.0,0.0,0.0,0.0,0.022600000000000002,-5.498166666666667,-5.498166666666667,-0.7432000000000001,-0.522,0.04022222222222216,-0.585,66.517,0.017625000000000224,-0.452,-0.5939999999999999,100.0,1.0,1.0,205.46,0.0,0.0,0.0,0.0,0.0,0.0,0.0,8708.7,0.0,55.0,5.0,239.44,1.0,0.0,0.0,0.0,0.0,0.0,1.0,0.0,0.5549999999999997,0.5549999999999997,0.0,0.0,1.0,55.0,616.79921,10000.0,85.000001,85.000001,85.000001,85.000001,395.0,0.0,0.0,0.0,1.0,166.665,43.655,43.655,50.201,50.201,34.0,-26.006666666666664,29.106,-23.0775,26.438000000000002,0.0,1783.133,-0.5599999999999987,100.0,34.434,34.598,41.589,41.937,0.0,0.0,100.0,0.0,0.0,0.0,0.0,3782.285714285714,3782.2,3608.875,3784.8,303.4845,302.65933333333334,316.13025,315.443,22.004555555555555,20.6912,22.092333333333332,21.485599999999998,314.999998,314.999998,324.999988,324.999988,99.56188571428571,99.5093,99.58057142857143,99.55131428571428,0.1352500000000001,-0.05933333333333324,-0.09299999999999997,0.14825,-0.03999999999999915,-0.03999999999999915,1.6513333333333333,1.623,38.528,30.32,39.077,35.2855,57.593,36.699,63.9935,54.2025,55.548,35.7415,62.507,52.397999999999996,54.786,35.2675,62.518,51.7455,-0.16100000000000003,-0.07200000000000006,0.10783000000000001,0.107435,0.0,208.3,208.34,205.46,205.46,0.0,0.0
12,0.0,0.0,0.0,1.0,1.0,0.0,0.0,1.0,0.0,100.0,1.0,1.1856,26.0,0.0,0.0,0.0,59.999996,0.0,26.0,26.0,26.0,26.0,0.05512500000000009,0.2634000000000001,0.017233333333333337,289.444,-2.6708,-2.542222222222222,-1.5451000000000001,-1.5084,-236.24,216.10500000000002,190.746375,0.0,0.0,0.0,0.0,0.024466666666666668,-5.498166666666667,-5.498166666666667,-0.7302000000000001,0.3423333333333333,0.022333333333333316,-0.9809999999999999,66.639,0.0338750000000001,-0.41715,-0.6299999999999999,100.0,1.0,1.0,205.64333333333332,0.0,0.0,0.0,0.0,0.0,0.0,0.0,8716.5,0.0,55.0,5.0,239.87666666666667,0.0,0.0,0.0,0.0,0.0,0.0,1.0,0.0,0.602999999999998,0.602999999999998,0.0,0.0,0.0,55.0,616.79921,10000.0,85.000001,85.000001,85.000001,85.000001,395.0,0.0,0.0,0.0,1.0,166.665,43.854,43.854,49.072,49.072,34.0,-26.3,29.842,-26.425,29.636,0.0,1783.086,-0.5850000000000009,100.0,34.265,34.706,41.318,41.732,0.0,0.0,100.0,0.0,0.0,0.0,0.0,3781.285714285714,3746.0,4147.0,4058.8,303.537,302.78766666666667,314.90475,314.7975,22.014555555555557,20.6976,22.102888888888888,21.4944,314.999998,314.999998,324.999988,324.999988,99.56191428571428,99.50931666666666,99.5807,99.55144285714286,0.14000000000000012,-0.038000000000000034,-0.07200000000000006,0.15799999999999992,-0.046666666666666856,-0.03333333333333144,1.5666666666666667,1.5375,38.591,30.36,39.143,35.34,57.59,36.7425,64.014,54.2525,55.545,35.782,62.5255,52.446,54.782,35.3065,62.533500000000004,51.792500000000004,-0.15999999999999992,-0.0674999999999999,0.10401500000000001,0.10875000000000001,0.0,208.71,208.765,205.64333333333332,205.64333333333332,0.0,0.0
13,0.0,0.0,0.0,1.0,1.0,0.0,0.0,1.0,0.0,100.0,1.0,1.1856,26.0,0.0,0.0,0.0,59.999996,0.0,26.0,26.0,26.0,26.0,0.0747500000000001,0.24819999999999998,0.02646666666666667,288.971,-2.6502,-2.545111111111111,-1.6200999999999999,-1.49,-232.64,216.07999999999998,190.7235,0.0,0.0,0.0,0.0,0.026633333333333332,-5.498166666666667,-5.498166666666667,-0.7224,-0.057,0.029555555555555557,-0.6114999999999999,66.773,0.040750000000000064,-0.423925,-0.7739999999999996,100.0,1.0,1.0,205.98666666666668,0.0,0.0,0.0,0.0,0.0,0.0,0.0,8731.1,0.0,55.0,5.0,240.36333333333334,1.0,0.0,0.0,0.0,0.0,0.0,1.0,0.0,0.657,0.657,0.0,0.0,1.0,55.0,616.79921,10000.0,85.000001,85.000001,85.000001,85.000001,395.0,0.0,0.0,0.0,1.0,166.665,43.32,43.32,48.996,48.996,34.0,-24.993333333333336,30.378,-27.0875,30.990000000000002,0.0,1783.032,-0.745000000000001,100.0,34.631,34.974000000000004,41.533,42.254,0.0,0.0,100.0,0.0,0.0,0.0,0.0,3826.285714285714,3783.2,4121.75,4210.5,303.361,302.658,314.9585,314.39375,22.02588888888889,20.7048,22.115,21.5044,314.999998,314.999998,324.999988,324.999988,99.56192857142857,99.50931666666666,99.58084285714285,99.5516,0.16575000000000006,-0.035666666666666735,-0.06574999999999998,0.15900000000000025,-0.03999999999999915,-0.03999999999999915,1.5353333333333334,1.504,38.662,30.405,39.219,35.403,57.59,36.7915,64.039,54.312,55.544,35.827,62.548,52.5035,54.778999999999996,35.35,62.5525,51.849000000000004,-0.17849999999999988,-0.06050000000000022,0.10325000000000001,0.10106000000000001,0.0,209.11,209.16500000000002,205.98666666666668,205.98666666666668,0.0,0.0
14,0.0,0.0,0.0,1.0,1.0,0.0,0.0,1.0,0.0,100.0,1.0,1.1856,26.0,0.0,0.0,0.0,59.999996,0.0,26.0,26.0,26.0,26.0,0.07837500000000008,0.24650000000000016,-0.017966666666666666,289.139,-2.6359,-2.5155555555555558,-1.6205,-1.484,-229.23,216.0575,190.702375,0.0,0.0,0.0,0.0,0.0286,-5.498166666666667,-5.498166666666667,-0.7339,-0.188,0.05311111111111111,1.4170000000000003,66.897,0.05512499999999987,-0.44205,-1.0539999999999998,100.0,1.0,1.0,206.45,0.0,0.0,0.0,0.0,0.0,0.0,0.0,8750.7,0.0,55.0,5.0,240.81,0.0,0.0,0.0,0.0,0.0,0.0,1.0,0.0,0.7079999999999984,0.7079999999999984,0.0,0.0,0.0,55.0,616.79921,10000.0,85.000001,85.000001,85.000001,85.000001,395.0,0.0,0.0,0.0,1.0,166.665,43.335,43.335,49.24,49.24,34.0,-22.91,32.158,-24.145,31.164,0.0,1782.981,-0.7850000000000001,100.0,34.857,34.9,41.635,42.358000000000004,0.0,0.0,100.0,0.0,0.0,0.0,0.0,3642.5714285714284,3925.1,3901.0,4110.5,303.705,302.43666666666667,315.40725,314.736,22.036555555555555,20.7116,22.126333333333335,21.5139,314.999998,314.999998,324.999988,324.999988,99.56195714285714,99.50933333333333,99.58098571428572,99.55172857142857,0.17925000000000013,-0.016000000000000014,-0.04349999999999987,0.1884999999999999,-0.01833333333333087,-0.061666666666667425,1.5906666666666667,1.548,38.729,30.447,39.289,35.462,57.591,36.837,64.0605,54.367,55.544,35.869,62.567499999999995,52.557,54.777,35.39,62.569,51.9015,-0.17900000000000005,-0.06450000000000022,0.10525000000000001,0.104495,0.0,209.47,209.57,206.45,206.45,0.0,0.0
15,0.0,0.0,0.0,1.0,1.0,0.0,0.0,1.0,0.0,100.0,1.0,1.1856,26.0,0.0,0.0,0.0,59.999996,0.0,26.0,26.0,26.0,26.0,0.10050000000000003,0.2530000000000001,-0.0043,289.124,-2.6133,-2.468888888888889,-1.6225,-1.4448,-226.01,216.0375,190.68225,0.0,0.0,0.0,0.0,0.03046666666666667,-5.498166666666667,-5.498166666666667,-0.7276,0.36633333333333334,0.08777777777777773,1.5545,67.014,0.06674999999999986,-0.42752500000000004,-1.1119999999999997,100.0,1.0,1.0,206.82,0.0,0.0,0.0,0.0,0.0,0.0,0.0,8766.4,0.0,55.0,5.0,241.23000000000002,1.0,0.0,0.0,0.0,0.0,0.0,1.0,0.0,0.7560000000000002,0.7560000000000002,0.0,0.0,1.0,55.0,616.79921,10000.0,85.000001,85.000001,85.000001,85.000001,395.0,0.0,0.0,0.0,1.0,166.665,43.365,43.365,49.376999999999995,49.376999999999995,34.0,-21.283333333333335,32.032,-23.7,33.052,0.0,1782.932,-0.8099999999999987,100.0,34.948,35.06,41.427,42.38,0.0,0.0,100.0,0.0,0.0,0.0,0.0,3539.0,3910.5,3851.375,4270.3,303.958,302.4746666666667,315.53775,314.39225,22.046666666666667,20.718,22.13688888888889,21.5228,314.999998,314.999998,324.999988,324.999988,99.56198571428571,99.50933333333333,99.58111428571429,99.55187142857143,0.19200000000000017,-0.006000000000000005,-0.04049999999999998,0.20800000000000018,-0.03833333333332689,-0.05333333333332746,1.5786666666666667,1.5465,38.791,30.487499999999997,39.355000000000004,35.5175,57.592,36.879999999999995,64.0795,54.419,55.545,35.909,62.5845,52.607,54.775999999999996,35.4285,62.582499999999996,51.951,-0.18049999999999988,-0.059499999999999886,0.10568000000000001,0.11358000000000001,0.0,209.86,209.945,206.82,206.82,0.0,0.0
16,0.0,0.0,0.0,1.0,1.0,0.0,0.0,1.0,0.0,100.0,1.0,1.1856,26.0,0.0,0.0,0.0,59.999996,0.0,26.0,26.0,26.0,26.0,0.11962500000000009,0.2470000000000001,-0.018766666666666668,289.139,-2.6697,-2.5011111111111113,-1.5669,-1.4676,-222.79,216.0225,190.66175,0.0,0.0,0.0,0.0,0.03233333333333333,-5.498166666666667,-5.498166666666667,-0.7419,-0.882,0.07844444444444432,0.3290000000000002,67.132,0.07474999999999987,-0.438325,-1.1880000000000002,100.0,1.0,1.0,207.13666666666666,0.0,0.0,0.0,0.0,0.0,0.0,0.0,8779.7,0.0,55.0,5.0,241.65333333333334,0.0,0.0,0.0,0.0,0.0,0.0,1.0,0.0,0.8039999999999985,0.8039999999999985,0.0,0.0,0.0,55.0,616.79921,10000.0,85.000001,85.000001,85.000001,85.000001,395.0,0.0,0.0,0.0,1.0,333.33500000000004,43.564,43.564,48.644999999999996,48.644999999999996,34.0,-21.96,32.97,-22.9675,32.257999999999996,0.0,1782.883,-0.7650000000000006,100.0,34.458,35.150999999999996,41.716,42.569,0.0,0.0,100.0,0.0,0.0,0.0,0.0,3550.857142857143,3950.9,3917.375,4078.0,304.1035,302.347,315.304,314.79875,22.056333333333335,20.7244,22.147555555555556,21.5318,314.999998,314.999998,324.999988,324.999988,99.56201428571428,99.50933333333333,99.58125714285714,99.55201428571428,0.18999999999999995,-0.0029999999999998916,-0.02774999999999994,0.21750000000000025,-0.04333333333332945,-0.03999999999999915,1.5656666666666665,1.517,38.852000000000004,30.5275,39.422,35.573499999999996,57.589,36.9225,64.101,54.4715,55.542,35.948499999999996,62.604,52.658,54.771,35.466499999999996,62.599000000000004,52.001,-0.17500000000000004,-0.058499999999999996,0.10913500000000001,0.110145,0.0,210.18,210.26,207.13666666666666,207.13666666666666,0.0,0.0
17,0.0,0.0,0.0,1.0,1.0,0.0,0.0,1.0,0.0,100.0,1.0,1.1856,26.0,0.0,0.0,0.0,59.999996,0.0,26.0,26.0,26.0,26.0,0.1392500000000001,0.2521,-0.02613333333333333,289.001,-2.5836,-2.552,-1.5891000000000002,-1.4887000000000001,-219.37,216.0075,190.6395,0.0,0.0,0.0,0.0,0.034333333333333334,-5.498166666666667,-5.498166666666667,-0.7433000000000001,0.6486666666666666,0.04933333333333323,-0.923,67.254,0.07825000000000015,-0.43135,-1.1280000000000001,100.0,1.0,1.0,207.57666666666665,0.0,0.0,0.0,0.0,0.0,0.0,0.0,8798.4,0.0,55.0,5.0,242.09,1.0,0.0,0.0,0.0,0.0,0.0,1.0,0.0,0.8550000000000004,0.8550000000000004,0.0,0.0,1.0,55.0,616.79921,10000.0,85.000001,85.000001,85.000001,85.000001,395.0,0.0,0.0,0.0,1.0,166.665,43.106,43.106,49.301,49.301,34.0,-21.543333333333333,31.486,-23.755,31.65,0.0,1782.834,-0.8150000000000013,100.0,34.927,35.68,41.26,42.537,0.0,0.0,100.0,0.0,0.0,0.0,0.0,3732.285714285714,3708.7,4010.0,4060.4,303.6075,302.81266666666664,315.2635,314.82075,22.067,20.7314,22.158666666666665,21.5411,314.999998,314.999998,324.999988,324.999988,99.56204285714286,99.50933333333333,99.58138571428572,99.55215714285714,0.20100000000000007,-0.004666666666666597,-0.030000000000000027,0.20524999999999993,-0.04833333333333201,-0.046666666666666856,1.5886666666666667,1.5514999999999999,38.919,30.5715,39.492000000000004,35.632,57.592,36.9695,64.12,54.5255,55.543,35.9925,62.6215,52.71,54.771,35.5085,62.6125,52.0525,-0.18249999999999988,-0.05650000000000022,0.10387,0.10512500000000001,0.0,210.62,210.68,207.57666666666665,207.57666666666665,0.0,0.0
18,0.0,0.0,0.0,1.0,1.0,0.0,0.0,1.0,0.0,100.0,1.0,1.1856,26.0,0.0,0.0,0.0,59.999996,0.0,26.0,26.0,26.0,26.0,0.15250000000000008,0.23550000000000004,-0.07746666666666667,289.032,-2.6973000000000003,-2.542888888888889,-1.5627,-1.5062,-216.14,215.995,190.6185,0.0,0.0,0.0,0.0,0.0362,-5.498166666666667,-5.498166666666667,-0.7428,-0.6463333333333334,0.07244444444444431,0.01750000000000007,67.37100000000001,0.08050000000000024,-0.43885,-1.178,100.0,1.0,1.0,207.86,0.0,0.0,0.0,0.0,0.0,0.0,0.0,8810.4,0.0,55.0,5.0,242.51666666666665,0.0,0.0,0.0,0.0,0.0,0.0,1.0,0.0,0.9029999999999987,0.9029999999999987,0.0,0.0,0.0,55.0,616.79921,10000.0,85.000001,85.000001,85.000001,85.000001,395.0,0.0,0.0,0.0,1.0,333.33500000000004,43.503,43.503,48.996,48.996,34.0,-22.103333333333335,31.788,-22.502499999999998,32.13,0.0,1782.784,-0.9800000000000004,100.0,34.71,35.483000000000004,41.724000000000004,43.044,0.0,0.0,100.0,0.0,0.0,0.0,0.0,3635.285714285714,3714.9,3889.875,4046.8,304.042,302.867,315.45775,314.756,22.076888888888888,20.7378,22.169444444444444,21.5502,314.999998,314.999998,324.999988,324.999988,99.56207142857143,99.50933333333333,99.58152857142858,99.5523,0.20100000000000007,0.003666666666666707,-0.025249999999999995,0.20650000000000013,-0.03833333333332689,-0.03333333333333144,1.567,1.5175,38.980999999999995,30.6115,39.559,35.6885,57.593,37.0115,64.1425,54.579,55.544,36.0315,62.6415,52.7625,54.769999999999996,35.546,62.6295,52.1035,-0.19300000000000006,-0.04600000000000026,0.10308500000000001,0.10528000000000001,0.0,210.93,211.01999999999998,207.86,207.86,0.0,0.0
19,0.0,0.0,0.0,1.0,1.0,0.0,0.0,1.0,0.0,100.0,1.0,1.1856,26.0,0.0,0.0,0.0,59.999996,0.0,26.0,26.0,26.0,26.0,0.14225,0.23660000000000014,-0.010133333333333333,288.651,-2.6695,-2.4233333333333333,-1.6611,-1.3883,-212.7,215.9875,190.59625,0.0,0.0,0.0,0.0,0.038200000000000005,-5.498166666666667,-5.498166666666667,-0.7489,0.7053333333333334,0.08755555555555561,0.8900000000000001,67.49000000000001,0.09050000000000002,-0.43905,-1.584,100.0,1.0,1.0,208.3466666666667,0.0,0.0,0.0,0.0,0.0,0.0,0.0,8831.1,0.0,55.0,5.0,242.94333333333333,1.0,0.0,0.0,0.0,0.0,0.0,1.0,0.0,0.9540000000000006,0.9540000000000006,0.0,0.0,1.0,55.0,616.79921,10000.0,85.000001,85.000001,85.000001,85.000001,395.0,0.0,0.0,0.0,1.0,166.665,42.297,42.297,49.393,49.393,34.0,-21.296666666666663,34.75,-22.505,31.314,0.0,1782.735,-1.25,100.0,35.308,35.8,41.413,42.82,0.0,0.0,100.0,0.0,0.0,0.0,0.0,3783.0,4067.1000000000004,3853.625,4094.6000000000004,303.317,302.00266666666664,315.659,314.91125,22.087555555555554,20.745,22.180555555555557,21.5596,314.999998,314.999998,324.999988,324.999988,99.5621,99.50935,99.58167142857143,99.55244285714285,0.2320000000000002,0.025333333333333208,-0.011749999999999927,0.22624999999999984,-0.021666666666668277,-0.05666666666667197,1.633,1.577,39.047,30.656,39.628,35.7475,57.597,37.06,64.1605,54.6335,55.547,36.076499999999996,62.658,52.815,54.771,35.589,62.6425,52.1555,-0.21350000000000002,-0.02950000000000008,0.10905000000000001,0.10877500000000001,0.0,211.31,211.435,208.3466666666667,208.3466666666667,0.0,0.0
20,0.0,0.0,0.0,1.0,1.0,0.0,0.0,1.0,0.0,100.0,1.0,1.1856,26.0,0.0,0.0,0.0,59.999996,0.0,26.0,26.0,26.0,26.0,0.17687500000000012,0.23460000000000014,-0.03913333333333333,288.559,-2.6701,-2.468,-1.65,-1.3891,-209.25,215.985,190.574,0.0,0.0,0.0,0.0,0.0402,-5.498166666666667,-5.498166666666667,-0.7371000000000001,-0.6383333333333334,0.09933333333333327,-0.3945000000000001,67.616,0.10725000000000007,-0.432975,-1.83,100.0,1.0,1.0,208.49333333333334,0.0,0.0,0.0,0.0,0.0,0.0,0.0,8837.2,0.0,55.0,5.0,243.39333333333335,0.0,0.0,0.0,0.0,0.0,0.0,0.0,0.0,1.004999999999999,1.004999999999999,0.0,0.0,0.0,55.0,616.79921,10000.0,85.000001,85.000001,85.000001,85.000001,395.0,0.0,0.0,0.0,1.0,333.33500000000004,43.457,43.457,47.729,47.729,34.0,-19.36,32.653999999999996,-24.1475,35.054,0.0,1782.681,-0.884999999999998,100.0,34.741,35.888999999999996,41.813,43.389,0.0,0.0,100.0,0.0,0.0,0.0,0.0,3423.4285714285716,3819.1,4202.75,4297.8,304.533,302.561,314.75675,314.23725,22.098,20.7519,22.192,21.5693,314.999998,314.999998,324.999988,324.999988,99.56214285714286,99.50935,99.58181428571429,99.5526,0.22224999999999984,0.016666666666666607,0.010250000000000092,0.24449999999999994,-0.03166666666666629,-0.026666666666670835,1.5293333333333332,1.456,39.111999999999995,30.6995,39.7,35.808,57.598,37.1105,64.1865,54.695499999999996,55.548,36.123,62.681,52.875,54.769,35.634,62.662,52.215,-0.1984999999999999,-0.04150000000000009,0.10561000000000001,0.10758000000000001,0.0,211.66,211.79500000000002,208.49333333333334,208.49333333333334,0.0,0.0
21,0.0,0.0,0.0,1.0,1.0,0.0,0.0,1.0,0.0,100.0,1.0,1.1856,26.0,0.0,0.0,0.0,59.999996,0.0,26.0,26.0,26.0,26.0,0.1356250000000001,0.22960000000000003,-0.0546,288.849,-2.6386000000000003,-2.5265555555555554,-1.6573,-1.4683000000000002,-205.8,215.985,190.551375,0.0,0.0,0.0,0.0,0.04223333333333333,-5.498166666666667,-5.498166666666667,-0.7748,0.24666666666666667,0.0735555555555556,-0.30600000000000005,67.731,0.11712500000000015,-0.45905,-1.088,100.0,1.0,1.0,209.16,0.0,0.0,0.0,0.0,0.0,0.0,0.0,8865.5,0.0,55.0,5.0,243.81333333333333,1.0,0.0,0.0,0.0,0.0,0.0,0.0,0.0,1.056000000000001,1.056000000000001,0.0,0.0,1.0,55.0,616.79921,10000.0,85.000001,85.000001,85.000001,85.000001,395.0,0.0,0.0,0.0,1.0,166.665,42.388999999999996,42.388999999999996,49.728,49.728,34.0,-23.516666666666666,33.344,-19.955,31.712000000000003,0.0,1782.633,0.05000000000000071,100.0,35.148,35.870000000000005,41.372,43.034,0.0,0.0,100.0,0.0,0.0,0.0,0.0,3749.4285714285716,4038.8,3700.375,3893.8,303.396,301.99033333333335,316.026,315.2785,22.108444444444444,20.759,22.203,21.5787,314.999998,314.999998,324.999988,324.999988,99.56215714285715,99.50936666666666,99.58194285714286,99.55274285714286,0.18374999999999986,-0.020000000000000018,0.018000000000000238,0.25375000000000014,-0.02833333333332888,-0.051666666666669414,1.6516666666666666,1.6135,39.178,30.744,39.769,35.867,57.599000000000004,37.1555,64.2025,54.7455,55.547,36.164500000000004,62.695499999999996,52.924,54.766999999999996,35.674,62.673,52.2625,-0.12349999999999994,-0.12150000000000016,0.10291000000000002,0.10837000000000001,0.0,212.05,212.14499999999998,209.16,209.16,0.0,0.0
22,0.0,0.0,0.0,1.0,1.0,0.0,0.0,1.0,0.0,100.0,1.0,1.1856,26.0,0.0,0.0,0.0,59.999996,0.0,26.0,26.0,26.0,26.0,0.08237500000000009,0.24490000000000012,0.07316666666666667,288.04,-2.6751,-2.494222222222222,-1.5764,-1.5321,-202.55,215.9875,190.529125,0.0,0.0,0.0,0.0,0.0441,-5.498166666666667,-5.498166666666667,-0.7495,0.19066666666666665,0.05499999999999994,0.8955000000000002,67.849,0.09562500000000007,-0.430475,0.07000000000000028,100.0,1.0,1.0,209.21,0.0,0.0,0.0,0.0,0.0,0.0,0.0,8867.7,0.0,55.0,5.0,244.23666666666668,0.0,0.0,0.0,0.0,0.0,0.0,0.0,0.0,1.1039999999999992,1.1039999999999992,0.0,0.0,0.0,55.0,616.79921,10000.0,85.000001,85.000001,85.000001,85.000001,395.0,0.0,0.0,0.0,1.0,333.33500000000004,42.313,42.313,48.096000000000004,48.096000000000004,34.0,-27.12,30.404,-24.945,34.832,0.0,1782.584,0.7199999999999989,100.0,35.422,35.756,41.939,43.025,0.0,0.0,100.0,0.0,0.0,0.0,0.0,3792.714285714286,4043.3,4176.125,4297.8,303.3405,302.089,314.71375,314.286,22.118444444444442,20.7656,22.21366666666667,21.5876,314.999998,314.999998,324.999988,324.999988,99.56218571428572,99.50936666666666,99.58208571428571,99.55288571428571,0.13275000000000015,-0.062000000000000055,-0.022750000000000048,0.20524999999999993,-0.046666666666666856,-0.04333333333332945,1.5003333333333333,1.48,39.239999999999995,30.785,39.836,35.9225,57.598,37.201,64.225,54.798,55.546,36.207,62.716,52.9745,54.763999999999996,35.7145,62.69,52.3125,-0.06000000000000005,-0.17399999999999993,0.10403000000000001,0.10708000000000001,0.0,212.48000000000002,212.47,209.21,209.21,0.0,0.0
23,0.0,0.0,0.0,1.0,1.0,0.0,0.0,1.0,0.0,100.0,1.0,1.1856,26.0,0.0,0.0,0.0,59.999996,0.0,26.0,26.0,26.0,26.0,0.019000000000000128,0.23440000000000016,0.025033333333333335,288.086,-2.5943,-2.5614444444444446,-1.5323,-1.5701,-198.88,215.995,190.5045,0.0,0.0,0.0,0.0,0.046233333333333335,-5.498166666666667,-5.498166666666667,-0.7658,-0.5753333333333334,0.02588888888888885,-0.07250000000000001,67.975,0.040750000000000064,-0.457475,0.9239999999999995,100.0,1.0,1.0,209.64333333333332,0.0,0.0,0.0,0.0,0.0,0.0,0.0,8886.1,0.0,55.0,5.0,244.69,1.0,0.0,0.0,0.0,0.0,0.0,0.0,0.0,1.1580000000000013,1.1580000000000013,0.0,0.0,1.0,55.0,616.79921,10000.0,85.000001,85.000001,85.000001,85.000001,395.0,0.0,0.0,0.0,1.0,166.665,42.236,42.236,48.507999999999996,48.507999999999996,34.0,-29.123333333333335,27.978,-26.564999999999998,30.432000000000002,0.0,1782.53,0.7899999999999991,100.0,35.611,35.739000000000004,42.417,43.127,0.0,0.0,100.0,0.0,0.0,0.0,0.0,3928.714285714286,3897.7,4034.625,4094.8,302.9815,302.466,315.01175,314.67575,22.129666666666665,20.773,22.22577777777778,21.5977,314.999998,314.999998,324.999988,324.999988,99.5622,99.50938333333333,99.58224285714286,99.55304285714286,0.09975000000000023,-0.09866666666666668,-0.08424999999999994,0.14774999999999983,-0.04333333333332945,-0.05666666666667197,1.4986666666666668,1.532,39.31,30.831,39.911,35.986,57.594,37.254,64.2485,54.856,55.541,36.2565,62.737,53.031,54.757999999999996,35.762,62.708,52.368,-0.057499999999999885,-0.1825000000000001,0.10022500000000001,0.10951500000000002,0.0,212.87,212.815,209.64333333333332,209.64333333333332,0.0,0.0
24,0.0,0.0,0.0,1.0,1.0,0.0,0.0,1.0,0.0,100.0,1.0,1.1856,26.0,0.0,0.0,0.0,59.999996,0.0,26.0,26.0,26.0,26.0,-0.03974999999999995,0.24860000000000015,-0.0111,288.467,-2.5837,-2.579888888888889,-1.5426,-1.5611000000000002,-195.82,216.0,190.483875,0.0,0.0,0.0,0.0,0.04803333333333333,-5.498166666666667,-5.498166666666667,-0.767,-0.09566666666666668,0.008444444444444255,-0.8360000000000001,68.07900000000001,-0.010499999999999954,-0.4435,1.322000000000001,100.0,1.0,1.0,210.00333333333333,0.0,0.0,0.0,0.0,0.0,0.0,0.0,8901.3,0.0,55.0,5.0,245.06666666666666,0.0,0.0,0.0,0.0,0.0,0.0,0.0,0.0,1.2029999999999994,1.2029999999999994,0.0,0.0,0.0,55.0,616.79921,10000.0,85.000001,85.000001,85.000001,85.000001,395.0,0.0,0.0,0.0,1.0,333.33500000000004,42.862,42.862,48.66,48.66,34.0,-29.78,23.927999999999997,-31.005,26.378,0.0,1782.485,0.6950000000000003,100.0,35.693,35.588,42.312,42.836,0.0,0.0,100.0,0.0,0.0,0.0,0.0,3828.4285714285716,3594.1,4231.625,3998.4,303.313,303.26866666666666,314.7875,314.942,22.139,20.779,22.235666666666667,21.606,314.999998,314.999998,324.999988,324.999988,99.56221428571429,99.5094,99.58235714285715,99.55315714285715,0.06974999999999998,-0.135,-0.14375000000000004,0.08824999999999994,-0.041666666666671404,-0.04999999999999716,1.5246666666666666,1.559,39.369,30.868499999999997,39.973,36.0375,57.59,37.2985,64.267,54.9015,55.538,36.2975,62.754,53.075,54.753,35.8015,62.7215,52.411,-0.06800000000000006,-0.1775000000000002,0.10341,0.11410000000000001,0.0,213.25,213.13,210.00333333333333,210.00333333333333,0.0,0.0
25,0.0,0.0,0.0,1.0,1.0,0.0,0.0,1.0,0.0,100.0,1.0,1.1856,26.0,0.0,0.0,0.0,59.999996,0.0,26.0,26.0,26.0,26.0,-0.08050000000000002,0.22660000000000013,-0.0327,288.605,-2.5595,-2.596222222222222,-1.5379,-1.5679,-192.14,216.005,190.45775,0.0,0.0,0.0,0.0,0.05016666666666667,-5.498166666666667,-5.498166666666667,-0.8062,-0.43533333333333335,-0.008888888888888946,-1.3624999999999998,68.203,-0.05249999999999999,-0.460125,1.4000000000000004,100.0,1.0,1.0,210.5,0.0,0.0,0.0,0.0,0.0,0.0,0.0,8922.3,0.0,55.0,5.0,245.51333333333332,1.0,0.0,0.0,0.0,0.0,0.0,0.0,0.0,1.256999999999998,1.256999999999998,0.0,0.0,1.0,55.0,616.79921,10000.0,85.000001,85.000001,85.000001,85.000001,395.0,0.0,0.0,0.0,1.0,166.665,42.358000000000004,42.358000000000004,49.025999999999996,49.025999999999996,34.0,-32.599999999999994,24.688,-30.2925,22.708,0.0,1782.431,0.5749999999999993,100.0,35.571,35.431,42.54,42.329,0.0,0.0,100.0,0.0,0.0,0.0,0.0,4016.5714285714284,3842.8,3915.125,3792.2,302.832,302.49833333333333,315.45275,315.49775,22.150222222222222,20.7861,22.247666666666667,21.6158,314.999998,314.999998,324.999988,324.999988,99.56222857142858,99.50941666666667,99.58251428571428,99.55331428571428,0.04400000000000004,-0.15866666666666673,-0.18999999999999995,0.04875000000000007,-0.03166666666666629,-0.030000000000001137,1.5633333333333332,1.6155,39.439,30.913,40.048,36.099000000000004,57.582,37.353,64.2905,54.954,55.528999999999996,36.3475,62.7755,53.126,54.742999999999995,35.8495,62.74,52.461,-0.07650000000000001,-0.16749999999999998,0.110835,0.108715,0.0,213.60000000000002,213.48000000000002,210.5,210.5,0.0,0.0
26,0.0,0.0,0.0,1.0,1.0,0.0,0.0,1.0,0.0,100.0,1.0,1.1856,26.0,0.0,0.0,0.0,59.999996,0.0,26.0,26.0,26.0,26.0,-0.11362499999999998,0.24239999999999995,0.0572,287.491,-2.5372,-2.6005555555555557,-1.4856,-1.6123,-188.86,216.005,190.4335,0.0,0.0,0.0,0.0,0.052066666666666664,-5.498166666666667,-5.498166666666667,-0.7769,0.9926666666666667,-0.055888888888888655,-1.1600000000000001,68.316,-0.07624999999999993,-0.43062500000000004,1.388,100.0,1.0,1.0,210.65666666666667,0.0,0.0,0.0,0.0,0.0,0.0,0.0,8928.9,0.0,55.0,5.0,245.92000000000002,0.0,0.0,0.0,0.0,0.0,0.0,0.0,0.0,1.3049999999999997,1.3049999999999997,0.0,0.0,0.0,55.0,616.79921,10000.0,85.000001,85.000001,85.000001,85.000001,395.0,0.0,0.0,0.0,1.0,333.33500000000004,41.428,41.428,47.958,47.958,34.0,-34.49333333333333,23.490000000000002,-35.8925,25.724,0.0,1782.382,0.4200000000000017,100.0,36.668,35.937,42.888,42.214,0.0,0.0,100.0,0.0,0.0,0.0,0.0,4203.142857142857,3784.1,4420.5,4167.5,302.258,302.7176666666667,314.274,314.56325,22.160444444444444,20.7927,22.258333333333333,21.6246,314.999998,314.999998,324.999988,324.999988,99.56222857142858,99.50945,99.58265714285714,99.55345714285714,0.03774999999999995,-0.17266666666666675,-0.20950000000000002,0.033250000000000224,-0.046666666666666856,-0.046666666666666856,1.4626666666666668,1.5055,39.503,30.9545,40.114000000000004,36.153999999999996,57.579,37.4055,64.314,55.0015,55.527,36.3965,62.797,53.172,54.738,35.896,62.757999999999996,52.506,-0.08699999999999997,-0.16049999999999986,0.10303000000000001,0.114945,0.0,214.015,213.89,210.65666666666667,210.65666666666667,0.0,0.0
27,0.0,0.0,0.0,1.0,1.0,0.0,0.0,1.0,0.0,100.0,1.0,1.1856,26.0,0.0,0.0,0.0,59.999996,0.0,26.0,26.0,26.0,26.0,-0.13737500000000002,0.23250000000000015,0.011633333333333334,287.521,-2.5584,-2.6274444444444445,-1.5324,-1.5962,-185.37,216.005,190.409,0.0,0.0,0.0,0.0,0.0541,-5.498166666666667,-5.498166666666667,-0.7818,-1.1473333333333333,-0.06400000000000006,0.7415000000000003,68.435,-0.08474999999999988,-0.462025,1.0499999999999998,100.0,1.0,1.0,210.97,0.0,0.0,0.0,0.0,0.0,0.0,0.0,8942.3,0.0,55.0,5.0,246.34666666666666,1.0,0.0,0.0,0.0,0.0,0.0,0.0,0.0,1.355999999999998,1.355999999999998,0.0,0.0,1.0,55.0,616.79921,10000.0,85.000001,85.000001,85.000001,85.000001,395.0,0.0,0.0,0.0,1.0,166.665,42.007,42.007,47.485,47.485,34.0,-32.5,23.844,-33.9275,25.21,0.0,1782.333,0.2950000000000017,100.0,36.609,35.54,44.093,42.778,0.0,0.0,100.0,0.0,0.0,0.0,0.0,3985.5714285714284,3764.7,4198.875,4147.9,302.772,302.97266666666667,314.634,314.648,22.17111111111111,20.799500000000002,22.26988888888889,21.6343,314.999998,314.999998,324.999988,324.999988,99.56224285714286,99.50946666666667,99.58281428571429,99.5536,0.0442499999999999,-0.16633333333333322,-0.19724999999999993,0.03125,-0.046666666666666856,-0.03499999999999659,1.478,1.504,39.57,30.996499999999997,40.187,36.214,57.573,37.4585,64.3425,55.056,55.519999999999996,36.445499999999996,62.823499999999996,53.2245,54.730000000000004,35.943,62.781,52.557,-0.10549999999999993,-0.14650000000000007,0.10458500000000001,0.11076000000000001,0.0,214.305,214.2,210.97,210.97,0.0,0.0
28,0.0,0.0,0.0,1.0,1.0,0.0,0.0,1.0,0.0,100.0,1.0,1.1856,26.0,0.0,0.0,0.0,59.999996,0.0,26.0,26.0,26.0,26.0,-0.13924999999999998,0.23609999999999998,-0.0475,287.994,-2.5,-2.6448888888888886,-1.5521,-1.6003,-182.09,216.0,190.38575,0.0,0.0,0.0,0.0,0.056,-5.498166666666667,-5.498166666666667,-0.8055,0.444,-0.06566666666666654,0.7335000000000003,68.541,-0.08737499999999998,-0.464625,0.9000000000000004,100.0,1.0,1.0,211.54666666666668,0.0,0.0,0.0,0.0,0.0,0.0,0.0,8966.6,0.0,55.0,5.0,246.72666666666666,0.0,0.0,0.0,0.0,0.0,0.0,0.0,0.0,1.404,1.404,0.0,0.0,0.0,55.0,616.79921,10000.0,85.000001,85.000001,85.000001,85.000001,395.0,0.0,0.0,0.0,1.0,333.33500000000004,41.763,41.763,48.629999999999995,48.629999999999995,34.0,-31.956666666666667,24.908,-32.2275,23.008,0.0,1782.283,0.120000000000001,100.0,36.817,35.598,43.384,42.286,0.0,0.0,100.0,0.0,0.0,0.0,0.0,4015.1428571428573,3815.3,4028.125,3882.7,302.6285,302.76666666666665,315.217,315.3845,22.181333333333335,20.8059,22.280333333333335,21.643,314.999998,314.999998,324.999988,324.999988,99.56224285714286,99.5095,99.58294285714285,99.55372857142856,0.04700000000000015,-0.15900000000000003,-0.20625000000000004,0.035250000000000004,-0.046666666666666856,-0.045000000000001705,1.5756666666666668,1.619,39.632999999999996,31.037,40.251999999999995,36.2685,57.569,37.509,64.361,55.101,55.516,36.492,62.8405,53.268,54.725,35.9875,62.795,52.5995,-0.11999999999999988,-0.13750000000000018,0.10506000000000001,0.11259500000000001,0.0,214.655,214.585,211.54666666666668,211.54666666666668,0.0,0.0
29,0.0,0.0,0.0,1.0,1.0,0.0,0.0,1.0,0.0,100.0,1.0,1.1856,26.0,0.0,0.0,0.0,59.999996,0.0,26.0,26.0,26.0,26.0,-0.11124999999999996,0.2319,-0.0507,287.918,-2.55,-2.5605555555555557,-1.5492,-1.6092000000000002,-178.59,215.9925,190.35975,0.0,0.0,0.0,0.0,0.05803333333333334,-5.498166666666667,-5.498166666666667,-0.7924,-0.595,-0.06111111111111134,-0.728,68.661,-0.0774999999999999,-0.43705,0.6840000000000002,100.0,1.0,1.0,211.67000000000002,0.0,0.0,0.0,0.0,0.0,0.0,0.0,8972.0,0.0,55.0,5.0,247.16,1.0,0.0,0.0,0.0,0.0,0.0,0.0,0.0,1.4549999999999983,1.4549999999999983,0.0,0.0,1.0,55.0,616.79921,10000.0,85.000001,85.000001,85.000001,85.000001,395.0,0.0,0.0,0.0,1.0,333.33500000000004,42.632999999999996,42.632999999999996,47.684,47.684,34.0,-31.586666666666666,22.772,-35.8575,25.664,0.0,1782.232,0.03500000000000014,100.0,36.239000000000004,35.426,43.504,42.527,0.0,0.0,100.0,0.0,0.0,0.0,0.0,3929.5714285714284,3642.3,4341.25,4135.5,303.2,303.308,314.4975,314.59,22.19188888888889,20.8126,22.291666666666668,21.6525,314.999998,314.999998,324.999988,324.999988,99.56225714285715,99.50951666666667,99.58308571428572,99.55388571428571,0.04375000000000018,-0.1563333333333332,-0.20750000000000002,0.035499999999999865,-0.041666666666671404,-0.02499999999999858,1.4656666666666665,1.499,39.7,31.079,40.323,36.328,57.562,37.56,64.3865,55.1535,55.51,36.539500000000004,62.864,53.3185,54.717,36.0325,62.815,52.6485,-0.12250000000000005,-0.121,0.11022000000000001,0.10561000000000001,0.0,215.01999999999998,214.93,211.67000000000002,211.67000000000002,0.0,0.0
30,0.0,0.0,0.0,1.0,1.0,0.0,0.0,1.0,0.0,100.0,1.0,1.1856,26.0,0.0,0.0,0.0,59.999996,0.0,26.0,26.0,26.0,26.0,-0.07687500000000003,0.22799999999999998,0.022266666666666667,287.415,-2.4629,-2.694,-1.5590000000000002,-1.5296,-175.29,215.98250000000002,190.335125,0.0,0.0,0.0,0.0,0.05996666666666667,-5.498166666666667,-5.498166666666667,-0.8115,0.5313333333333334,-0.0555555555555558,-0.2769999999999999,68.766,-0.06274999999999986,-0.460975,0.4580000000000002,100.0,1.0,1.0,212.18333333333334,0.0,0.0,0.0,0.0,0.0,0.0,0.0,8993.7,0.0,55.0,5.0,247.54000000000002,0.0,0.0,0.0,0.0,0.0,0.0,1.0,0.0,1.5030000000000001,1.5030000000000001,0.0,0.0,0.0,55.0,616.79921,10000.0,85.000001,85.000001,85.000001,85.000001,395.0,0.0,0.0,0.0,1.0,333.33500000000004,40.741,40.741,48.34,48.34,34.0,-32.14,28.434,-31.9125,23.792,0.0,1782.183,-0.015000000000000568,100.0,36.921,36.068,43.294,42.412,0.0,0.0,100.0,0.0,0.0,0.0,0.0,4241.285714285715,4080.4,4069.25,3985.1000000000004,302.081,301.9116666666667,315.20375,315.15775,22.202111111111112,20.8192,22.302222222222223,21.6613,314.999998,314.999998,324.999988,324.999988,99.56227142857144,99.50955,99.58324285714286,99.55402857142857,0.06700000000000017,-0.14533333333333331,-0.19074999999999998,0.052750000000000075,-0.054999999999999716,-0.03999999999999915,1.5653333333333332,1.589,39.763,31.119999999999997,40.388999999999996,36.382999999999996,57.56,37.615,64.408,55.2035,55.507,36.59,62.8835,53.367,54.713,36.081,62.8315,52.696,-0.13250000000000006,-0.1259999999999999,0.10608500000000001,0.107795,0.0,215.35500000000002,215.285,212.18333333333334,212.18333333333334,0.0,0.0
31,0.0,0.0,0.0,1.0,1.0,0.0,0.0,1.0,0.0,100.0,1.0,1.1856,26.0,0.0,0.0,0.0,59.999996,0.0,26.0,26.0,26.0,26.0,-0.058374999999999955,0.2178,0.022033333333333335,287.109,-2.5539,-2.623333333333333,-1.5791,-1.524,-171.57,215.97,190.307875,0.0,0.0,0.0,0.0,0.06213333333333334,-5.498166666666667,-5.498166666666667,-0.7811,-0.227,-0.040888888888888975,-0.7994999999999999,68.892,-0.04412499999999997,-0.446575,0.2919999999999998,100.0,1.0,1.0,212.30666666666667,0.0,0.0,0.0,0.0,0.0,0.0,0.0,8998.9,0.0,55.0,5.0,247.99,1.0,0.0,0.0,0.0,0.0,0.0,1.0,0.0,1.5569999999999986,1.5569999999999986,0.0,0.0,1.0,55.0,616.79921,10000.0,85.000001,85.000001,85.000001,85.000001,395.0,0.0,0.0,0.0,1.0,166.665,41.702,41.702,46.967,46.967,34.0,-29.743333333333332,25.576,-34.415,27.586,0.0,1782.131,-0.0799999999999983,100.0,36.853,36.397,43.842,43.26,0.0,0.0,100.0,0.0,0.0,0.0,0.0,3890.0,3766.6,4368.375,4276.9,303.233,302.8353333333333,314.514,314.18175,22.213444444444445,20.8266,22.31422222222222,21.6715,314.999998,314.999998,324.999988,324.999988,99.56228571428571,99.50956666666667,99.5834,99.55417142857142,0.07275000000000009,-0.1376666666666666,-0.16649999999999987,0.06850000000000023,-0.041666666666671404,-0.03166666666666629,1.4323333333333332,1.451,39.834,31.1665,40.464,36.447,57.558,37.668,64.434,55.2585,55.504999999999995,36.638999999999996,62.9075,53.42,54.709,36.128,62.852000000000004,52.7475,-0.13050000000000006,-0.12300000000000022,0.10646000000000001,0.10490000000000001,0.0,215.715,215.68,212.30666666666667,212.30666666666667,0.0,0.0
32,0.0,0.0,0.0,1.0,1.0,0.0,0.0,1.0,0.0,100.0,1.0,1.1856,26.0,0.0,0.0,0.0,59.999996,0.0,26.0,26.0,26.0,26.0,-0.04874999999999996,0.22510000000000008,-0.057866666666666663,287.46,-2.5724,-2.588111111111111,-1.5419,-1.6332,-168.06,215.95749999999998,190.282625,0.0,0.0,0.0,0.0,0.06416666666666666,-5.498166666666667,-5.498166666666667,-0.8087000000000001,-0.183,-0.058555555555555916,-0.026000000000000023,69.002,-0.03287499999999999,-0.47192500000000004,0.19399999999999995,100.0,1.0,1.0,212.89,0.0,0.0,0.0,0.0,0.0,0.0,0.0,9023.6,0.0,55.0,5.0,248.39,0.0,0.0,0.0,0.0,0.0,0.0,1.0,0.0,1.6080000000000005,1.6080000000000005,0.0,0.0,0.0,55.0,616.79921,10000.0,85.000001,85.000001,85.000001,85.000001,395.0,0.0,0.0,0.0,1.0,166.665,41.29,41.29,47.928,47.928,34.0,-29.13,28.148,-28.5675,26.964,0.0,1782.081,-0.19500000000000028,100.0,36.854,36.373,43.75,43.104,0.0,0.0,100.0,0.0,0.0,0.0,0.0,3989.1428571428573,3927.0,3947.125,3997.3,302.814,302.44866666666667,315.4045,315.098,22.224,20.8337,22.325444444444443,21.681,314.999998,314.999998,324.999988,324.999988,99.5623,99.50958333333334,99.58354285714286,99.55431428571428,0.10475000000000012,-0.10533333333333328,-0.1459999999999999,0.08550000000000013,-0.03166666666666629,-0.04999999999999716,1.5646666666666667,1.5765,39.9,31.2105,40.534,36.506,57.554,37.7205,64.4555,55.3085,55.501000000000005,36.6875,62.927,53.4685,54.703,36.1745,62.868,52.795,-0.14250000000000007,-0.11299999999999999,0.11098000000000001,0.10305500000000001,0.0,216.03,216.01,212.89,212.89,0.0,0.0
33,0.0,0.0,0.0,1.0,1.0,0.0,0.0,1.0,0.0,100.0,1.0,1.1856,26.0,0.0,0.0,0.0,59.999996,0.0,26.0,26.0,26.0,26.0,-0.033625000000000016,0.23019999999999996,-0.018633333333333335,287.415,-2.5139,-2.610888888888889,-1.5709,-1.5809,-164.74,215.9425,190.258125,0.0,0.0,0.0,0.0,0.0661,-5.498166666666667,-5.498166666666667,-0.8062,-0.07200000000000001,-0.0602222222222224,1.2814999999999999,69.111,-0.02574999999999994,-0.45385000000000003,0.07200000000000006,100.0,1.0,1.0,213.11,0.0,0.0,0.0,0.0,0.0,0.0,0.0,9033.0,0.0,55.0,5.0,248.78,1.0,0.0,0.0,0.0,0.0,0.0,1.0,0.0,1.6559999999999988,1.6559999999999988,0.0,0.0,1.0,55.0,616.79921,10000.0,85.000001,85.000001,85.000001,85.000001,395.0,0.0,0.0,0.0,1.0,166.665,41.672,41.672,47.867,47.867,34.0,-27.54,27.605999999999998,-30.985,28.450000000000003,0.0,1782.032,-0.25,100.0,36.818,36.036,43.524,43.042,0.0,0.0,100.0,0.0,0.0,0.0,0.0,3919.1428571428573,3825.5,4180.875,4177.4,302.8855,302.778,314.85025,314.65225,22.234111111111112,20.8402,22.336,21.6899,314.999998,314.999998,324.999988,324.999988,99.56231428571428,99.5096,99.58368571428572,99.55445714285715,0.1120000000000001,-0.10466666666666669,-0.14074999999999993,0.09474999999999989,-0.03499999999999659,-0.045000000000001705,1.5156666666666667,1.523,39.963,31.250999999999998,40.599999999999994,36.562,57.553,37.766999999999996,64.476,55.357,55.5,36.7305,62.946,53.5155,54.7,36.2155,62.8835,52.8405,-0.15049999999999986,-0.1080000000000001,0.10543000000000001,0.10709500000000001,0.0,216.39,216.375,213.11,213.11,0.0,0.0
34,0.0,0.0,0.0,1.0,1.0,0.0,0.0,1.0,0.0,100.0,1.0,1.1856,26.0,0.0,0.0,0.0,59.999996,0.0,26.0,26.0,26.0,26.0,-0.016000000000000014,0.2250000000000001,-0.038533333333333336,287.811,-2.5657,-2.642666666666667,-1.5479,-1.5626,-161.42000000000002,215.9275,190.23275,0.0,0.0,0.0,0.0,0.06803333333333333,-5.498166666666667,-5.498166666666667,-0.8284,-0.6666666666666666,-0.02933333333333321,1.307,69.217,-0.01287499999999997,-0.46187500000000004,-0.0860000000000003,100.0,1.0,1.0,213.44666666666666,0.0,0.0,0.0,0.0,0.0,0.0,0.0,9047.3,0.0,55.0,5.0,249.16333333333336,0.0,0.0,0.0,0.0,0.0,0.0,1.0,0.0,1.7040000000000006,1.7040000000000006,0.0,0.0,0.0,55.0,616.79921,10000.0,85.000001,85.000001,85.000001,85.000001,395.0,0.0,0.0,0.0,1.0,333.33500000000004,42.236,42.236,48.126,48.126,34.0,-26.81,28.198,-28.235,29.424,0.0,1781.983,-0.25,100.0,36.432,35.854,43.403,43.091,0.0,0.0,100.0,0.0,0.0,0.0,0.0,3783.285714285714,3766.8,4005.625,4174.0,303.353,302.88166666666666,315.16675,314.6465,22.24388888888889,20.8467,22.346444444444444,21.698900000000002,314.999998,314.999998,324.999988,324.999988,99.56232857142857,99.50961666666667,99.58381428571428,99.5546,0.11549999999999994,-0.09333333333333327,-0.12175000000000002,0.11775000000000002,-0.023333333333326323,-0.04999999999999716,1.537,1.5145,40.025,31.2915,40.665,36.618,57.55,37.813,64.49549999999999,55.406,55.497,36.7735,62.964,53.5625,54.696,36.2565,62.8985,52.8865,-0.1459999999999999,-0.10899999999999999,0.099915,0.11655000000000001,0.0,216.675,216.69,213.44666666666666,213.44666666666666,0.0,0.0
35,0.0,0.0,0.0,1.0,1.0,0.0,0.0,1.0,0.0,100.0,1.0,1.1856,26.0,0.0,0.0,0.0,59.999996,0.0,26.0,26.0,26.0,26.0,0.002375000000000016,0.21819999999999995,-0.1607,288.269,-2.665,-2.515111111111111,-1.6331,-1.6046,-157.89,215.9125,190.204,0.0,0.0,0.0,0.0,0.07006666666666667,-5.498166666666667,-5.498166666666667,-0.873,-0.8256666666666667,-0.018000000000000238,-0.8085,69.32900000000001,-0.002375000000000016,-0.468525,-0.08800000000000008,100.0,1.0,1.0,213.9,0.0,0.0,0.0,0.0,0.0,0.0,0.0,9066.5,0.0,55.0,5.0,249.56666666666666,1.0,0.0,0.0,0.0,0.0,0.0,1.0,0.0,1.754999999999999,1.754999999999999,0.0,0.0,1.0,55.0,616.79921,10000.0,85.000001,85.000001,85.000001,85.000001,395.0,0.0,0.0,0.0,1.0,166.665,42.328,42.328,48.507999999999996,48.507999999999996,34.0,-27.72,28.104,-28.435,26.894,0.0,1781.934,-0.23499999999999943,100.0,35.938,35.863,42.839,42.933,0.0,0.0,100.0,0.0,0.0,0.0,0.0,3786.4285714285716,3879.9,3951.625,3798.1,303.5165,302.46166666666664,315.508,315.43475,22.25422222222222,20.8536,22.357444444444443,21.7083,314.999998,314.999998,324.999988,324.999988,99.56234285714285,99.50963333333333,99.58395714285714,99.55472857142857,0.11750000000000016,-0.08633333333333315,-0.12324999999999986,0.12300000000000022,-0.030000000000001137,-0.03333333333333144,1.5886666666666667,1.5845,40.089,31.3345,40.733999999999995,36.6765,57.546,37.8605,64.5135,55.456,55.492000000000004,36.817499999999995,62.980000000000004,53.6115,54.69,36.298500000000004,62.911,52.934,-0.14250000000000007,-0.10250000000000004,0.10509,0.11155500000000002,0.0,217.005,217.015,213.9,213.9,0.0,0.0
