,ABS Active,ABS Enabled,AID Allow Tire Blankets,AID Auto Blip,AID Auto Clutch,AID Auto Shift,AID Fuel Rate,AID Ideal Line,AID Mech Damage,AID Stability,AID Tire Wear Rate,Air Density,Air Temp,Ballast,Best Lap Delta,Best Lap Time,Brake Bias,Brake Pos,Brake Temp FL,Brake Temp FR,Brake Temp RL,Brake Temp RR,CG Accel Lateral,CG Accel Longitudinal,CG Accel Vertical,CG Height,Camber FL,Camber FR,Camber RL,Camber RR,Car Coord X,Car Coord Y,Car Coord Z,Car Damage Front,Car Damage Left,Car Damage Rear,Car Damage Right,Car Pos Norm,Caster FL,Caster FR,Chassis Pitch Angle,Chassis Pitch Rate,Chassis Roll Angle,Chassis Roll Rate,Chassis Velocity X,Chassis Velocity Y,Chassis Velocity Z,Chassis Yaw Rate,Clutch Pos,DRS Active,DRS Available,Drive Train Speed,ERS Heat Charging,ERS Is Charging,ERS Max Energy,ERS Power Level,ERS Recovery Level,Engine Brake Setting,Engine Limiter,Engine RPM,Flags,Fuel Level,Gear,Ground Speed,HR Sample Clock,In Pit,KERS Charge,KERS Deployed Energy,KERS Input,KERS Max Energy,LR Sample Clock,Lap Invalidated,Lap Time,Lap Time2,Last Lap Time,Last Sector Time,MR Sample Clock,Max Fuel,Max Power,Max RPM,Max Sus Travel FL,Max Sus Travel FR,Max Sus Travel RL,Max Sus Travel RR,Max Torque,Max Turbo Boost,Num Tires Off Track,Penalties Enabled,Position,Raw Data Sample Rate,Ride Height FL,Ride Height FR,Ride Height RL,Ride Height RR,Road Temp,Self Align Torque FL,Self Align Torque FR,Self Align Torque RL,Self Align Torque RR,Session Lap Count,Session Time Left,Steering Angle,Surface Grip,Suspension Travel FL,Suspension Travel FR,Suspension Travel RL,Suspension Travel RR,TC Active,TC Enabled,Throttle Pos,Tire Dirt Level FL,Tire Dirt Level FR,Tire Dirt Level RL,Tire Dirt Level RR,Tire Load FL,Tire Load FR,Tire Load RL,Tire Load RR,Tire Loaded Radius FL,Tire Loaded Radius FR,Tire Loaded Radius RL,Tire Loaded Radius RR,Tire Pressure FL,Tire Pressure FR,Tire Pressure RL,Tire Pressure RR,Tire Radius FL,Tire Radius FR,Tire Radius RL,Tire Radius RR,Tire Rubber Grip FL,Tire Rubber Grip FR,Tire Rubber Grip RL,Tire Rubber Grip RR,Tire Slip Angle FL,Tire Slip Angle FR,Tire Slip Angle RL,Tire Slip Angle RR,Tire Slip Ratio FL,Tire Slip Ratio FR,Tire Slip Ratio RL,Tire Slip Ratio RR,Tire Temp Core FL,Tire Temp Core FR,Tire Temp Core RL,Tire Temp Core RR,Tire Temp Inner FL,Tire Temp Inner FR,Tire Temp Inner RL,Tire Temp Inner RR,Tire Temp Middle FL,Tire Temp Middle FR,Tire Temp Middle RL,Tire Temp Middle RR,Tire Temp Outer FL,Tire Temp Outer FR,Tire Temp Outer RL,Tire Temp Outer RR,Toe In FL,Toe In FR,Toe In RL,Toe In RR,Turbo Boost,Wheel Angular Speed FL,Wheel Angular Speed FR,Wheel Angular Speed RL,Wheel Angular Speed RR,Wind Direction,Wind Speed
0,0.0,0.0,0.0,1.0,1.0,0.0,0.0,1.0,0.0,100.0,1.0,1.1856,26.0,0.0,0.0,0.0,59.99999,0.0,26.0,26.0,26.0,26.0,-0.07699999999999996,-0.3375,-0.009850000000000001,296.31,-2.79575,-2.7367,-1.5284,-1.5683,-275.52,216.255,190.989,0.0,0.0,0.0,0.0,0.0016666666666665941,-5.498166666666667,-5.498166666666667,-0.44430000000000003,0.17533333333333334,-0.008375000000000021,-0.776,65.34,-0.03469999999999995,-0.08615,0.9220000000000006,100.0,1.0,1.0,198.62333333333333,0.0,0.0,0.0,0.0,0.0,0.0,0.0,9478.5,0.0,55.0,0.0,235.26,0.0,0.0,0.0,0.0,0.0,0.0,0.0,0.0,0.006000000000000227,0.006000000000000227,0.0,0.0,0.0,55.0,616.79921,10000.0,85.0,85.0,85.0,85.0,395.0,0.0,0.0,0.0,1.0,20.0,58.09,58.09,49.164,49.164,34.0,-26.732,24.817999999999998,-31.793333333333333,25.7325,0.0,1783.3733333333334,0.8350000000000009,100.0,22.227,21.7785,41.502,41.503,0.0,0.0,0.0,0.0,0.0,0.0,0.0,2893.125,3298.6,3853.5,3693.6,306.007,304.284,315.46875,315.6245,21.72125,20.4302,21.712555555555554,21.2988,314.99999,314.99999,324.99998,324.99998,99.55841428571429,99.50591666666666,99.55921428571429,99.54301428571429,-0.026249999999999885,-0.09266666666666667,-0.14833333333333332,0.04783333333333317,-0.00999999999999801,-0.03499999999999659,-0.0034999999999998366,-0.0010000000000000009,36.757999999999996,28.688499999999998,36.703,34.117999999999995,55.792,33.1885,57.0665,50.7565,53.650999999999996,32.4685,55.7315,49.1815,52.751000000000005,32.0875,55.6535,48.638,0.018000000000000016,-0.11099999999999999,0.09469000000000001,0.09630000000000001,0.0,204.85000000000002,204.735,198.62333333333333,198.62333333333333,0.0,0.0
1,0.0,0.0,0.0,1.0,1.0,0.0,0.0,1.0,0.0,100.0,1.0,1.1856,26.0,0.0,0.0,0.0,59.999996,0.0,26.0,26.0,26.0,26.0,-0.10088888888888892,0.3267,0.007875,295.288,-2.69825,-2.8384,-1.5323,-1.5201,-271.99,216.25,190.96775,0.0,0.0,0.0,0.0,0.0037333333333333663,-5.498166666666667,-5.498166666666667,-0.3558,0.3473333333333333,-0.058374999999999844,-0.548,65.471,-0.052099999999999924,-0.04461666666666667,1.2960000000000012,100.0,1.0,1.0,201.74333333333334,0.0,0.0,0.0,0.0,0.0,0.0,0.0,8551.2,0.0,55.0,5.0,235.66333333333333,1.0,0.0,0.0,0.0,0.0,0.0,0.0,0.0,0.05999999999999872,0.05999999999999872,0.0,0.0,1.0,55.0,616.79921,10000.0,85.000001,85.000001,85.000001,85.000001,395.0,0.0,0.0,0.0,1.0,166.665,60.181,60.181,46.89,46.89,34.0,-21.368,14.464000000000002,-36.626666666666665,30.59,0.0,1783.3177777777778,0.9199999999999999,100.0,23.006,22.298000000000002,43.386,42.616,0.0,0.0,100.0,0.0,0.0,0.0,0.0,2417.0,2113.3,4562.5,4927.5,307.36033333333336,308.06325,313.60725,312.46275,21.73125,20.4348,21.723333333333333,21.3082,314.999998,314.999998,324.999988,324.999988,99.55841428571429,99.50593333333333,99.55935714285714,99.54314285714285,-0.03349999999999986,-0.12366666666666681,-0.17466666666666664,0.03733333333333322,-0.03499999999999659,-0.041666666666671404,1.3439999999999999,1.408,36.82,28.718,36.771,34.177,55.771,33.2275,57.114,50.8215,53.631,32.504,55.775999999999996,49.244,52.730999999999995,32.1215,55.695499999999996,48.699,0.025500000000000078,-0.11450000000000005,0.10514000000000001,0.11429,0.0,205.16,205.075,201.74333333333334,201.74333333333334,0.0,0.0
2,0.0,0.0,0.0,1.0,1.0,0.0,0.0,1.0,0.0,100.0,1.0,1.1856,26.0,0.0,0.0,0.0,59.999996,0.0,26.0,26.0,26.0,26.0,-0.1456666666666666,0.2994000000000001,-0.1637,296.402,-2.6818,-2.8721,-1.50235,-1.6221999999999999,-268.84,216.2425,190.9505,0.0,0.0,0.0,0.0,0.005566666666666609,-5.498166666666667,-5.498166666666667,-0.3996,-0.32,-0.04662500000000014,2.526,65.612,-0.06619999999999993,-0.08661666666666666,1.4420000000000002,100.0,1.0,1.0,202.66,0.0,0.0,0.0,0.0,0.0,0.0,0.0,8590.0,0.0,55.0,5.0,236.17333333333335,0.0,0.0,0.0,0.0,0.0,0.0,0.0,0.0,0.10800000000000054,0.10800000000000054,0.0,0.0,0.0,55.0,616.79921,10000.0,85.000001,85.000001,85.000001,85.000001,395.0,0.0,0.0,0.0,1.0,333.33500000000004,59.647,59.647,49.025999999999996,49.025999999999996,34.0,-24.774,16.0,-29.356666666666666,21.305,0.0,1783.27,0.9150000000000009,100.0,22.965,21.6995,43.562,42.399,0.0,0.0,100.0,0.0,0.0,0.0,0.0,2710.625,2340.4,3793.125,3744.8,306.45166666666665,307.446,315.4825,315.60375,21.739875,20.4384,21.732888888888887,21.3164,314.999998,314.999998,324.999988,324.999988,99.55842857142858,99.50595,99.55948571428571,99.54327142857143,-0.04600000000000004,-0.1376666666666666,-0.20766666666666667,0.017833333333333368,-0.03833333333332689,-0.07000000000000028,1.6059999999999999,1.6550000000000002,36.875,28.740000000000002,36.831,34.227000000000004,55.751000000000005,33.2545,57.158,50.8785,53.613,32.528999999999996,55.817,49.298,52.712,32.144999999999996,55.734,48.751999999999995,0.020499999999999963,-0.119,0.107145,0.1111,0.0,205.565,205.44,202.66,202.66,0.0,0.0
3,0.0,0.0,0.0,1.0,1.0,0.0,0.0,1.0,0.0,100.0,1.0,1.1856,26.0,0.0,0.0,0.0,59.999996,0.0,26.0,26.0,26.0,26.0,-0.13577777777777778,0.3210000000000002,0.041175,296.066,-2.81215,-2.7640000000000002,-1.52665,-1.5997,-265.49,216.23000000000002,190.93075,0.0,0.0,0.0,0.0,0.007533333333333392,-5.498166666666667,-5.498166666666667,-0.36710000000000004,0.404,-0.005875000000000075,-0.17700000000000005,65.771,-0.07979999999999998,-0.032,1.154,100.0,1.0,1.0,202.89666666666668,0.0,0.0,0.0,0.0,0.0,0.0,0.0,8600.0,0.0,55.0,5.0,236.74,1.0,0.0,0.0,0.0,0.0,0.0,0.0,0.0,0.15899999999999892,0.15899999999999892,0.0,0.0,1.0,55.0,616.79921,10000.0,85.000001,85.000001,85.000001,85.000001,395.0,0.0,0.0,0.0,1.0,166.665,60.501,60.501,47.073,47.073,34.0,-21.472,15.515999999999998,-34.89,25.355,0.0,1783.2211111111112,0.8100000000000005,100.0,22.519,21.705,43.278,42.378,0.0,0.0,100.0,0.0,0.0,0.0,0.0,2319.75,2369.7,4335.125,4300.8,307.7393333333333,307.283,314.2105,314.17925,21.748874999999998,20.4426,21.74277777777778,21.325,314.999998,314.999998,324.999988,324.999988,99.55842857142858,99.50596666666667,99.55962857142858,99.54341428571429,-0.05224999999999991,-0.1399999999999999,-0.19699999999999995,0.01550000000000007,-0.04999999999999716,-0.06666666666666998,1.471,1.5165000000000002,36.931,28.7665,36.891999999999996,34.281,55.727999999999994,33.289,57.2025,50.9435,53.591,32.561,55.859,49.3605,52.691,32.176,55.7735,48.813,0.01200000000000001,-0.1080000000000001,0.10936000000000001,0.10282000000000001,0.0,206.10000000000002,205.995,202.89666666666668,202.89666666666668,0.0,0.0
4,0.0,0.0,0.0,1.0,1.0,0.0,0.0,1.0,0.0,100.0,1.0,1.1856,26.0,0.0,0.0,0.0,59.999996,0.0,26.0,26.0,26.0,26.0,-0.14922222222222215,0.29090000000000016,-0.007425,296.204,-2.74205,-2.8213,-1.54105,-1.6094,-262.33,216.2175,190.91225,0.0,0.0,0.0,0.0,0.009366666666666523,-5.498166666666667,-5.498166666666667,-0.3917,-0.8376666666666667,-0.07537500000000019,-0.7550000000000001,65.917,-0.08109999999999995,-0.06198333333333334,1.0999999999999996,100.0,1.0,1.0,203.41,0.0,0.0,0.0,0.0,0.0,0.0,0.0,8621.7,0.0,55.0,5.0,237.26999999999998,0.0,0.0,0.0,0.0,0.0,0.0,0.0,0.0,0.20700000000000074,0.20700000000000074,0.0,0.0,0.0,55.0,616.79921,10000.0,85.000001,85.000001,85.000001,85.000001,395.0,0.0,0.0,0.0,1.0,166.665,60.211,60.211,47.424,47.424,34.0,-24.65,16.358,-33.55,22.2025,0.0,1783.1722222222222,0.8000000000000007,100.0,22.337,21.334,43.784,42.477000000000004,0.0,0.0,100.0,0.0,0.0,0.0,0.0,2637.875,2440.2,4203.25,3834.3,306.861,307.1225,314.46125,315.26925,21.75725,20.4465,21.752333333333333,21.3333,314.999998,314.999998,324.999988,324.999988,99.55842857142858,99.50596666666667,99.55977142857142,99.54354285714285,-0.06099999999999994,-0.1413333333333333,-0.19299999999999995,0.017833333333333368,-0.046666666666666856,-0.06333333333333258,1.5095,1.5655000000000001,36.983000000000004,28.7905,36.952,34.333,55.706,33.320499999999996,57.249,51.003,53.57,32.59,55.9025,49.417500000000004,52.669,32.2035,55.814499999999995,48.8685,0.022499999999999964,-0.10899999999999999,0.10666500000000001,0.099775,0.0,206.48000000000002,206.405,203.41,203.41,0.0,0.0
5,0.0,0.0,0.0,1.0,1.0,0.0,0.0,1.0,0.0,100.0,1.0,1.1856,26.0,0.0,0.0,0.0,59.999996,0.0,26.0,26.0,26.0,26.0,-0.1293333333333333,0.3096000000000001,-0.0128,296.295,-2.7526,-2.8475,-1.5226000000000002,-1.6009,-258.77,216.1975,190.89075,0.0,0.0,0.0,0.0,0.011433333333333295,-5.498166666666667,-5.498166666666667,-0.3839,0.3953333333333333,-0.07987499999999992,1.153,66.081,-0.08589999999999998,-0.0407,1.0660000000000007,100.0,1.0,1.0,203.88,0.0,0.0,0.0,0.0,0.0,0.0,0.0,8641.8,0.0,55.0,5.0,237.85666666666668,1.0,0.0,0.0,0.0,0.0,0.0,0.0,0.0,0.26099999999999923,0.26099999999999923,0.0,0.0,1.0,55.0,616.79921,10000.0,85.000001,85.000001,85.000001,85.000001,395.0,0.0,0.0,0.0,1.0,166.665,60.669,60.669,47.729,47.729,34.0,-23.284,16.114,-34.153333333333336,24.0225,0.0,1783.1177777777777,0.33500000000000085,100.0,22.38,21.104,43.608000000000004,42.146,0.0,0.0,100.0,0.0,0.0,0.0,0.0,2547.875,2311.5,4241.25,4173.1,307.018,307.53875,314.46575,314.527,21.767,20.4508,21.762999999999998,21.3424,314.999998,314.999998,324.999988,324.999988,99.55844285714285,99.50598333333333,99.55991428571429,99.5437,-0.040999999999999925,-0.121,-0.2031666666666666,0.009500000000000064,-0.026666666666670835,-0.04333333333332945,1.4855,1.5430000000000001,37.043,28.8175,37.019,34.39,55.684,33.355000000000004,57.299,51.067499999999995,53.55,32.621,55.9495,49.479,52.649,32.2335,55.8585,48.9285,-0.010000000000000009,-0.07850000000000001,0.10442000000000001,0.10460000000000001,0.0,207.025,206.925,203.88,203.88,0.0,0.0
6,0.0,0.0,0.0,1.0,1.0,0.0,0.0,1.0,0.0,100.0,1.0,1.1856,26.0,0.0,0.0,0.0,59.999996,0.0,26.0,26.0,26.0,26.0,-0.11844444444444446,0.3186,0.008150000000000001,296.265,-2.7222,-2.8813,-1.56445,-1.5971000000000002,-255.59,216.1775,190.871625,0.0,0.0,0.0,0.0,0.013266666666666538,-5.498166666666667,-5.498166666666667,-0.37570000000000003,0.20666666666666667,-0.06274999999999986,0.869,66.226,-0.08360000000000001,-0.034966666666666674,0.7279999999999998,100.0,1.0,1.0,204.31666666666666,0.0,0.0,0.0,0.0,0.0,0.0,0.0,8660.3,0.0,55.0,5.0,238.38,0.0,0.0,0.0,0.0,0.0,0.0,0.0,0.0,0.30900000000000105,0.30900000000000105,0.0,0.0,0.0,55.0,616.79921,10000.0,85.000001,85.000001,85.000001,85.000001,395.0,0.0,0.0,0.0,1.0,166.665,60.699,60.699,47.516,47.516,34.0,-22.234,17.706,-33.593333333333334,24.3325,0.0,1783.07,0.10999999999999943,100.0,22.089,21.0165,43.650999999999996,42.373000000000005,0.0,0.0,100.0,0.0,0.0,0.0,0.0,2519.125,2394.6,4197.625,4157.7,307.0563333333333,307.2105,314.564,314.56375,21.7755,20.4547,21.772444444444446,21.3507,314.999998,314.999998,324.999988,324.999988,99.55844285714285,99.50598333333333,99.56005714285715,99.54382857142858,-0.021749999999999936,-0.10099999999999998,-0.19166666666666665,0.019000000000000128,-0.051666666666669414,-0.06833333333332803,1.514,1.5505,37.097,28.842,37.078,34.442,55.663,33.385,57.3435,51.1285,53.53,32.649,55.991,49.537,52.629000000000005,32.26,55.8975,48.9855,-0.027000000000000024,-0.050999999999999934,0.104275,0.10869500000000001,0.0,207.45499999999998,207.4,204.31666666666666,204.31666666666666,0.0,0.0
7,0.0,0.0,0.0,1.0,1.0,0.0,0.0,1.0,0.0,100.0,1.0,1.1856,26.0,0.0,0.0,0.0,59.999996,0.0,26.0,26.0,26.0,26.0,-0.08399999999999996,0.3005,0.045375000000000006,296.051,-2.6927,-2.8095,-1.5213999999999999,-1.6413,-252.41,216.155,190.8525,0.0,0.0,0.0,0.0,0.015133333333333332,-5.498166666666667,-5.498166666666667,-0.3783,0.011,-0.05425000000000013,1.084,66.37,-0.0726,-0.04293333333333333,0.44399999999999906,100.0,1.0,1.0,204.75,0.0,0.0,0.0,0.0,0.0,0.0,0.0,8678.6,0.0,55.0,5.0,238.9,1.0,0.0,0.0,0.0,0.0,0.0,0.0,0.0,0.3569999999999993,0.3569999999999993,0.0,0.0,1.0,55.0,616.79921,10000.0,85.000001,85.000001,85.000001,85.000001,395.0,0.0,0.0,0.0,1.0,166.665,60.349000000000004,60.349000000000004,47.638,47.638,34.0,-22.490000000000002,18.974,-31.846666666666664,26.5225,0.0,1783.0222222222221,-0.14000000000000057,100.0,22.139,20.982,43.729,42.633,0.0,0.0,100.0,0.0,0.0,0.0,0.0,2637.375,2497.2,4134.75,4158.2,306.6813333333333,306.941,314.6635,314.49575,21.784,20.4586,21.782,21.359,314.999998,314.999998,324.999988,324.999988,99.55844285714285,99.506,99.56018571428571,99.54395714285714,0.0015000000000000568,-0.07200000000000006,-0.17599999999999993,0.04383333333333317,-0.03833333333332689,-0.061666666666667425,1.484,1.512,37.15,28.866,37.137,34.494,55.641999999999996,33.414,57.3875,51.189499999999995,53.51,32.676,56.0325,49.5955,52.608999999999995,32.2855,55.936,49.042500000000004,-0.05049999999999999,-0.03049999999999997,0.10637500000000001,0.11132500000000001,0.0,207.88,207.845,204.75,204.75,0.0,0.0
8,0.0,0.0,0.0,1.0,1.0,0.0,0.0,1.0,0.0,100.0,1.0,1.1856,26.0,0.0,0.0,0.0,59.999996,0.0,26.0,26.0,26.0,26.0,-0.04777777777777781,0.31089999999999995,-0.041675000000000004,296.31,-2.7786,-2.8125999999999998,-1.5070999999999999,-1.5910000000000002,-249.01999999999998,216.13,190.832,0.0,0.0,0.0,0.0,0.017100000000000004,-5.498166666666667,-5.498166666666667,-0.3793,-0.4836666666666667,-0.03937500000000016,-0.516,66.523,-0.0532999999999999,-0.033933333333333336,-0.009999999999999787,100.0,1.0,1.0,205.15333333333334,0.0,0.0,0.0,0.0,0.0,0.0,0.0,8695.7,0.0,55.0,5.0,239.45333333333332,0.0,0.0,0.0,0.0,0.0,0.0,0.0,0.0,0.40800000000000125,0.40800000000000125,0.0,0.0,0.0,55.0,616.79921,10000.0,85.000001,85.000001,85.000001,85.000001,395.0,0.0,0.0,0.0,1.0,166.665,61.218,61.218,46.967,46.967,34.0,-20.48,18.064,-32.086666666666666,26.3075,0.0,1782.97,-0.3049999999999997,100.0,21.618,21.091,43.674,42.851,0.0,0.0,100.0,0.0,0.0,0.0,0.0,2413.125,2341.4,4261.125,4178.0,307.588,307.2675,314.39625,314.36525,21.792875,20.462699999999998,21.79211111111111,21.3678,314.999998,314.999998,324.999988,324.999988,99.55844285714285,99.50601666666667,99.56032857142857,99.5441,0.0034999999999998366,-0.06333333333333324,-0.16366666666666663,0.0475000000000001,-0.03999999999999915,-0.03833333333332689,1.4925,1.4975,37.206,28.892,37.2,34.549,55.616,33.444,57.4345,51.253,53.486000000000004,32.703,56.076499999999996,49.6565,52.584,32.3115,55.9775,49.102000000000004,-0.05699999999999994,-0.013500000000000068,0.11150000000000002,0.10341,0.0,208.34,208.32,205.15333333333334,205.15333333333334,0.0,0.0
9,0.0,0.0,0.0,1.0,1.0,0.0,0.0,1.0,0.0,100.0,1.0,1.1856,26.0,0.0,0.0,0.0,59.999996,0.0,26.0,26.0,26.0,26.0,-0.016555555555555546,0.2985,-0.011000000000000001,296.005,-2.76325,-2.8189,-1.56175,-1.5739,-245.82999999999998,216.10500000000002,190.812125,0.0,0.0,0.0,0.0,0.018966666666666576,-5.498166666666667,-5.498166666666667,-0.385,0.6483333333333334,-0.04237499999999983,-0.3480000000000001,66.664,-0.032099999999999906,-0.03401666666666667,-0.05600000000000005,100.0,1.0,1.0,205.71333333333334,0.0,0.0,0.0,0.0,0.0,0.0,0.0,8719.5,0.0,55.0,5.0,239.96,1.0,0.0,0.0,0.0,0.0,0.0,0.0,0.0,0.4559999999999995,0.4559999999999995,0.0,0.0,1.0,55.0,616.79921,10000.0,85.000001,85.000001,85.000001,85.000001,395.0,0.0,0.0,0.0,1.0,166.665,60.013,60.013,47.989,47.989,34.0,-23.201999999999998,19.65,-29.95,27.15,0.0,1782.9244444444444,-0.47499999999999964,100.0,22.045,21.471,43.348,42.833,0.0,0.0,100.0,0.0,0.0,0.0,0.0,2813.5,2434.0,4108.5,4105.4,306.3876666666667,306.9225,314.8575,314.6435,21.801375,20.4668,21.801444444444446,21.3761,314.999998,314.999998,324.999988,324.999988,99.55845714285714,99.50601666666667,99.56047142857143,99.54422857142858,0.03699999999999992,-0.04233333333333311,-0.1416666666666666,0.08466666666666667,-0.05666666666667197,-0.046666666666666856,1.5495,1.5455,37.259,28.9175,37.259,34.601,55.595,33.4735,57.4755,51.312,53.467,32.7305,56.115,49.7125,52.564,32.3375,56.013,49.1575,-0.07850000000000001,-0.010000000000000009,0.107615,0.11300500000000001,0.0,208.8,208.78,205.71333333333334,205.71333333333334,0.0,0.0
10,0.0,0.0,0.0,1.0,1.0,0.0,0.0,1.0,0.0,100.0,1.0,1.1856,26.0,0.0,0.0,0.0,59.999996,0.0,26.0,26.0,26.0,26.0,0.00855555555555565,0.2955000000000001,0.056025000000000005,295.883,-2.73835,-2.8044000000000002,-1.54175,-1.5518,-242.42000000000002,216.0775,190.7915,0.0,0.0,0.0,0.0,0.02093333333333336,-5.498166666666667,-5.498166666666667,-0.36060000000000003,-0.506,0.0021249999999999325,1.752,66.819,-0.012499999999999956,-0.021583333333333336,-0.46999999999999975,100.0,1.0,1.0,205.98666666666668,0.0,0.0,0.0,0.0,0.0,0.0,0.0,8731.0,0.0,55.0,5.0,240.51333333333332,0.0,0.0,0.0,0.0,0.0,0.0,1.0,0.0,0.5069999999999979,0.5069999999999979,0.0,0.0,0.0,55.0,616.79921,10000.0,85.000001,85.000001,85.000001,85.000001,395.0,0.0,0.0,0.0,1.0,166.665,61.142,61.142,46.463,46.463,34.0,-17.048000000000002,20.002000000000002,-30.933333333333334,30.990000000000002,0.0,1782.871111111111,-0.6400000000000006,100.0,21.937,21.242,43.869,43.483000000000004,0.0,0.0,100.0,0.0,0.0,0.0,0.0,2250.625,2404.7,4334.125,4416.6,307.906,307.24925,314.15,313.89075,21.81025,20.471,21.811555555555557,21.3851,314.999998,314.999998,324.999988,324.999988,99.55845714285714,99.50601666666667,99.56061428571428,99.54437142857142,0.06625000000000014,-0.0086666666666666,-0.11599999999999999,0.10533333333333328,-0.03166666666666629,-0.046666666666666856,1.4565000000000001,1.4300000000000002,37.314,28.944,37.322,34.657,55.573,33.5025,57.5235,51.3795,53.445,32.757,56.16,49.7775,52.543,32.363,56.0555,49.2205,-0.09050000000000002,0.010499999999999954,0.10769000000000001,0.106925,0.0,209.25,209.26,205.98666666666668,205.98666666666668,0.0,0.0
11,0.0,0.0,0.0,1.0,1.0,0.0,0.0,1.0,0.0,100.0,1.0,1.1856,26.0,0.0,0.0,0.0,59.999996,0.0,26.0,26.0,26.0,26.0,0.05566666666666675,0.29080000000000017,-0.105925,296.432,-2.78955,-2.7751,-1.599,-1.5478,-239.01,216.05,190.77075,0.0,0.0,0.0,0.0,0.022599999999999953,-5.498166666666667,-5.498166666666667,-0.4021,-0.176,0.02574999999999994,-0.5880000000000001,66.965,0.006599999999999939,-0.05053333333333333,-0.5479999999999992,100.0,1.0,1.0,206.73000000000002,0.0,0.0,0.0,0.0,0.0,0.0,0.0,8762.5,0.0,55.0,5.0,241.04333333333335,1.0,0.0,0.0,0.0,0.0,0.0,1.0,0.0,0.5579999999999998,0.5579999999999998,0.0,0.0,1.0,55.0,616.79921,10000.0,85.000001,85.000001,85.000001,85.000001,395.0,0.0,0.0,0.0,1.0,333.33500000000004,60.547,60.547,48.08,48.08,34.0,-19.246,21.372,-25.436666666666667,27.3375,0.0,1782.82,-0.5999999999999996,100.0,21.561,21.6185,43.272,43.484,0.0,0.0,100.0,0.0,0.0,0.0,0.0,2511.875,2512.4,3820.25,3948.5,307.3023333333333,306.691,315.57025,315.021,21.819,20.4754,21.821444444444445,21.394,314.999998,314.999998,324.999988,324.999988,99.55845714285714,99.50601666666667,99.56075714285714,99.54451428571429,0.07500000000000018,-0.0016666666666667052,-0.09366666666666656,0.12349999999999994,-0.045000000000001705,-0.04833333333333201,1.603,1.58,37.369,28.971,37.384,34.712,55.549,33.5325,57.565,51.442499999999995,53.423,32.7845,56.199,49.838,52.519999999999996,32.3895,56.091499999999996,49.28,-0.09499999999999997,0.0014999999999999458,0.10554500000000001,0.111655,0.0,209.675,209.72,206.73000000000002,206.73000000000002,0.0,0.0
12,0.0,0.0,0.0,1.0,1.0,0.0,0.0,1.0,0.0,100.0,1.0,1.1856,26.0,0.0,0.0,0.0,59.999996,0.0,26.0,26.0,26.0,26.0,0.045666666666666744,0.29490000000000016,0.030475000000000002,295.868,-2.84795,-2.7675,-1.5646,-1.5683,-235.79,216.025,190.750125,0.0,0.0,0.0,0.0,0.025466666666666526,-5.498166666666667,-5.498166666666667,-0.3865,0.3066666666666667,0.014499999999999957,-0.8680000000000001,67.10900000000001,0.02310000000000012,-0.019333333333333334,-0.6720000000000006,100.0,1.0,1.0,206.96,0.0,0.0,0.0,0.0,0.0,0.0,0.0,8772.2,0.0,55.0,5.0,241.56,0.0,0.0,0.0,0.0,0.0,0.0,1.0,0.0,0.6059999999999981,0.6059999999999981,0.0,0.0,0.0,55.0,616.79921,10000.0,85.000001,85.000001,85.000001,85.000001,395.0,0.0,0.0,0.0,1.0,333.33500000000004,60.532,60.532,46.783,46.783,34.0,-20.275999999999996,20.84,-28.93,32.0225,0.0,1782.7722222222221,-0.1999999999999993,100.0,21.411,21.788,43.171,43.439,0.0,0.0,100.0,0.0,0.0,0.0,0.0,2556.0,2521.9,4324.375,4268.1,307.2316666666667,306.68125,314.34475,314.2225,21.82725,20.4796,21.83088888888889,21.4023,314.999998,314.999998,324.999988,324.999988,99.55848571428571,99.50603333333333,99.56088571428572,99.54464285714286,0.06625000000000014,-0.018999999999999906,-0.08216666666666661,0.14600000000000013,-0.04999999999999716,-0.036666666666668846,1.496,1.472,37.42,28.997,37.443,34.763999999999996,55.528,33.562,57.6075,51.503,53.403,32.8115,56.2385,49.896,52.5,32.4155,56.1285,49.3365,-0.06999999999999995,-0.021500000000000075,0.11116500000000001,0.1092,0.0,210.135,210.175,206.96,206.96,0.0,0.0
13,0.0,0.0,0.0,1.0,1.0,0.0,0.0,1.0,0.0,100.0,1.0,1.1856,26.0,0.0,0.0,0.0,59.999996,0.0,26.0,26.0,26.0,26.0,0.07344444444444442,0.3023,0.055825,295.486,-2.8134,-2.7767,-1.59515,-1.5619,-232.37,216.0,190.728375,0.0,0.0,0.0,0.0,0.026766666666666605,-5.498166666666667,-5.498166666666667,-0.3789,-0.049666666666666665,0.015625,1.133,67.259,0.028299999999999992,-0.026933333333333333,-0.7599999999999998,100.0,1.0,1.0,207.36,0.0,0.0,0.0,0.0,0.0,0.0,0.0,8789.2,0.0,55.0,5.0,242.10000000000002,1.0,0.0,0.0,0.0,0.0,0.0,1.0,0.0,0.657,0.657,0.0,0.0,1.0,55.0,616.79921,10000.0,85.000001,85.000001,85.000001,85.000001,395.0,0.0,0.0,0.0,1.0,333.33500000000004,60.257,60.257,46.707,46.707,34.0,-17.310000000000002,23.742,-28.17,33.22,0.0,1782.72,-1.0,100.0,21.87,21.7645,43.565,43.844,0.0,0.0,100.0,0.0,0.0,0.0,0.0,2489.375,2599.9,4251.25,4431.5,307.20733333333334,306.6115,314.39775,313.89375,21.836,20.484,21.841,21.4113,314.999998,314.999998,324.999988,324.999988,99.55848571428571,99.50603333333333,99.56102857142857,99.54478571428571,0.1382500000000002,0.05333333333333368,-0.0668333333333333,0.14349999999999996,-0.030000000000001137,-0.06833333333332803,1.4825,1.4645000000000001,37.474999999999994,29.025,37.506,34.821,55.507,33.594,57.653,51.570499999999996,53.384,32.841,56.2815,49.960499999999996,52.480000000000004,32.4435,56.168,49.4,-0.13249999999999995,0.038000000000000034,0.108825,0.10777,0.0,210.585,210.64499999999998,207.36,207.36,0.0,0.0
14,0.0,0.0,0.0,1.0,1.0,0.0,0.0,1.0,0.0,100.0,1.0,1.1856,26.0,0.0,0.0,0.0,59.999996,0.0,26.0,26.0,26.0,26.0,0.08966666666666678,0.29180000000000006,-0.009375,295.792,-2.8143,-2.7091000000000003,-1.6087500000000001,-1.5255,-228.73,215.975,190.706,0.0,0.0,0.0,0.0,0.028899999999999926,-5.498166666666667,-5.498166666666667,-0.38780000000000003,-0.06633333333333333,0.050249999999999906,1.238,67.41499999999999,0.04190000000000005,-0.03793333333333333,-1.0779999999999994,100.0,1.0,1.0,207.93666666666667,0.0,0.0,0.0,0.0,0.0,0.0,0.0,8813.6,0.0,55.0,5.0,242.66333333333336,0.0,0.0,0.0,0.0,0.0,0.0,1.0,0.0,0.7109999999999985,0.7109999999999985,0.0,0.0,0.0,55.0,616.79921,10000.0,85.000001,85.000001,85.000001,85.000001,395.0,0.0,0.0,0.0,1.0,166.665,60.455,60.455,46.936,46.936,34.0,-15.962,24.444000000000003,-25.36,33.042500000000004,0.0,1782.6666666666667,-1.1199999999999992,100.0,21.668,21.832,43.464,44.067,0.0,0.0,100.0,0.0,0.0,0.0,0.0,2329.25,2692.5,4023.375,4313.1,307.6716666666667,306.3265,314.982,314.188,21.84525,20.4887,21.851555555555557,21.4209,314.999998,314.999998,324.999988,324.999988,99.5585,99.50603333333333,99.56118571428571,99.54494285714286,0.14075000000000015,0.05866666666666642,-0.04849999999999999,0.17133333333333334,-0.03833333333332689,-0.046666666666666856,1.5375,1.4805000000000001,37.533,29.054499999999997,37.572,34.881,55.486000000000004,33.628,57.6995,51.64,53.364000000000004,32.8725,56.3245,50.0275,52.46,32.474000000000004,56.208,49.4655,-0.13349999999999995,0.04249999999999998,0.10956,0.110725,0.0,211.055,211.135,207.93666666666667,207.93666666666667,0.0,0.0
15,0.0,0.0,0.0,1.0,1.0,0.0,0.0,1.0,0.0,100.0,1.0,1.1856,26.0,0.0,0.0,0.0,59.999996,0.0,26.0,26.0,26.0,26.0,0.1136666666666668,0.2986,0.015550000000000001,295.776,-2.8263,-2.6704,-1.6333000000000002,-1.4707,-225.49,215.95499999999998,190.685625,0.0,0.0,0.0,0.0,0.03076666666666661,-5.498166666666667,-5.498166666666667,-0.3768,0.23633333333333334,0.07712499999999989,0.7030000000000001,67.554,0.059900000000000064,-0.0158,-1.2679999999999998,100.0,1.0,1.0,208.32999999999998,0.0,0.0,0.0,0.0,0.0,0.0,0.0,8830.3,0.0,55.0,5.0,243.16333333333336,1.0,0.0,0.0,0.0,0.0,0.0,1.0,0.0,0.7590000000000003,0.7590000000000003,0.0,0.0,1.0,55.0,616.79921,10000.0,85.000001,85.000001,85.000001,85.000001,395.0,0.0,0.0,0.0,1.0,166.665,60.715,60.715,46.906,46.906,34.0,-14.706,24.195999999999998,-24.833333333333336,34.705,0.0,1782.618888888889,-1.1099999999999994,100.0,21.611,21.8565,43.241,44.201,0.0,0.0,100.0,0.0,0.0,0.0,0.0,2212.5,2658.8,4045.625,4506.2,308.06,306.42475,314.95875,313.737,21.8535,20.493,21.860888888888887,21.4294,314.999998,314.999998,324.999988,324.999988,99.55851428571428,99.50605,99.56131428571429,99.54508571428572,0.15300000000000002,0.07033333333333358,-0.027666666666666617,0.18283333333333318,-0.03499999999999659,-0.07833333333332604,1.52,1.4655,37.584,29.081,37.629999999999995,34.934,55.467,33.6595,57.739,51.7025,53.346000000000004,32.9015,56.3615,50.088,52.441,32.5015,56.242,49.5245,-0.132,0.04249999999999998,0.106825,0.10337500000000001,0.0,211.49,211.60500000000002,208.32999999999998,208.32999999999998,0.0,0.0
16,0.0,0.0,0.0,1.0,1.0,0.0,0.0,1.0,0.0,100.0,1.0,1.1856,26.0,0.0,0.0,0.0,59.999996,0.0,26.0,26.0,26.0,26.0,0.12088888888888905,0.2921,-0.008425,295.792,-2.88715,-2.678,-1.60965,-1.472,-222.24,215.9375,190.664875,0.0,0.0,0.0,0.0,0.03266666666666651,-5.498166666666667,-5.498166666666667,-0.3977,-0.722,0.06637499999999985,0.27,67.693,0.07240000000000002,-0.03211666666666667,-1.2879999999999994,100.0,1.0,1.0,208.76333333333332,0.0,0.0,0.0,0.0,0.0,0.0,0.0,8848.7,0.0,55.0,5.0,243.66666666666666,0.0,0.0,0.0,0.0,0.0,0.0,1.0,0.0,0.8069999999999986,0.8069999999999986,0.0,0.0,0.0,55.0,616.79921,10000.0,85.000001,85.000001,85.000001,85.000001,395.0,0.0,0.0,0.0,1.0,333.33500000000004,60.593,60.593,46.692,46.692,34.0,-16.169999999999998,25.146,-23.666666666666664,33.99,0.0,1782.5711111111111,-1.0299999999999994,100.0,21.273,21.908,43.51,44.32,0.0,0.0,100.0,0.0,0.0,0.0,0.0,2350.875,2724.3,4022.875,4285.0,307.76166666666666,306.26475,314.9965,314.24775,21.861375,20.4972,21.870333333333335,21.4379,314.999998,314.999998,324.999988,324.999988,99.55852857142857,99.50605,99.56145714285714,99.54521428571428,0.1499999999999999,0.07799999999999985,-0.015166666666666662,0.20799999999999996,-0.051666666666669414,-0.05333333333332746,1.535,1.479,37.632999999999996,29.1075,37.689,34.986999999999995,55.446,33.6915,57.782,51.7645,53.325,32.931,56.4015,50.147,52.421,32.53,56.278999999999996,49.583,-0.121,0.03749999999999998,0.10550500000000002,0.11615500000000001,0.0,211.905,211.97500000000002,208.76333333333332,208.76333333333332,0.0,0.0
17,0.0,0.0,0.0,1.0,1.0,0.0,0.0,1.0,0.0,100.0,1.0,1.1856,26.0,0.0,0.0,0.0,59.999996,0.0,26.0,26.0,26.0,26.0,0.10988888888888892,0.2962,-0.012025000000000001,295.38,-2.84755,-2.6628,-1.6492499999999999,-1.4934,-218.59,215.9225,190.641,0.0,0.0,0.0,0.0,0.03479999999999994,-5.498166666666667,-5.498166666666667,-0.385,0.466,0.045499999999999874,0.752,67.849,0.07760000000000011,-0.012066666666666668,-1.137999999999999,100.0,1.0,1.0,209.18333333333334,0.0,0.0,0.0,0.0,0.0,0.0,0.0,8866.5,0.0,55.0,5.0,244.22333333333336,1.0,0.0,0.0,0.0,0.0,0.0,1.0,0.0,0.8610000000000007,0.8610000000000007,0.0,0.0,1.0,55.0,616.79921,10000.0,85.000001,85.000001,85.000001,85.000001,395.0,0.0,0.0,0.0,1.0,166.665,60.303,60.303,46.402,46.402,34.0,-16.042,23.85,-26.683333333333337,35.49,0.0,1782.5177777777778,-1.1850000000000005,100.0,21.751,22.1765,43.326,44.331,0.0,0.0,100.0,0.0,0.0,0.0,0.0,2409.75,2598.4,4358.875,4454.6,307.4916666666667,306.636,314.269,313.903,21.8705,20.5021,21.880777777777777,21.447400000000002,314.999998,314.999998,324.999988,324.999988,99.55854285714285,99.50605,99.5616,99.54538571428571,0.16349999999999998,0.08166666666666655,-0.014333333333333309,0.19933333333333336,-0.05333333333332746,-0.04333333333332945,1.495,1.452,37.69,29.1385,37.754999999999995,35.046,55.426,33.729,57.827,51.834,53.307,32.966,56.4435,50.214,52.402,32.5635,56.318,49.6485,-0.12949999999999995,0.04049999999999998,0.104605,0.10767000000000002,0.0,212.43,212.49,209.18333333333334,209.18333333333334,0.0,0.0
18,0.0,0.0,0.0,1.0,1.0,0.0,0.0,1.0,0.0,100.0,1.0,1.1856,26.0,0.0,0.0,0.0,59.999996,0.0,26.0,26.0,26.0,26.0,0.12444444444444436,0.2921,-0.00855,295.364,-2.88125,-2.6343,-1.6654499999999999,-1.4383,-215.32,215.91,190.62,0.0,0.0,0.0,0.0,0.036666666666666514,-5.498166666666667,-5.498166666666667,-0.3971,-0.46066666666666667,0.06962500000000005,1.1320000000000001,67.986,0.07669999999999999,-0.029133333333333334,-1.2379999999999995,100.0,1.0,1.0,209.63666666666666,0.0,0.0,0.0,0.0,0.0,0.0,0.0,8885.7,0.0,55.0,5.0,244.72,0.0,0.0,0.0,0.0,0.0,0.0,1.0,0.0,0.9089999999999989,0.9089999999999989,0.0,0.0,0.0,55.0,616.79921,10000.0,85.000001,85.000001,85.000001,85.000001,395.0,0.0,0.0,0.0,1.0,166.665,60.15,60.15,46.402,46.402,34.0,-15.844000000000001,26.342,-25.083333333333336,33.545,0.0,1782.47,-1.1549999999999994,100.0,21.515,22.075,43.634,44.719,0.0,0.0,100.0,0.0,0.0,0.0,0.0,2425.875,2817.7,4110.375,4339.0,307.499,306.01725,314.8255,314.15425,21.878375,20.5064,21.890333333333334,21.456,314.999998,314.999998,324.999988,324.999988,99.55855714285714,99.50606666666667,99.56174285714286,99.54551428571429,0.17874999999999996,0.0943333333333336,-0.015166666666666662,0.20016666666666683,-0.051666666666669414,-0.05666666666667197,1.5215,1.4845000000000002,37.739999999999995,29.165,37.814,35.1,55.408,33.7615,57.869,51.8975,53.29,32.9955,56.4825,50.275,52.384,32.592,56.3545,49.7085,-0.14200000000000002,0.05049999999999999,0.10898500000000001,0.10579000000000001,0.0,212.82,212.89499999999998,209.63666666666666,209.63666666666666,0.0,0.0
19,0.0,0.0,0.0,1.0,1.0,0.0,0.0,1.0,0.0,100.0,1.0,1.1856,26.0,0.0,0.0,0.0,59.999996,0.0,26.0,26.0,26.0,26.0,0.10022222222222221,0.30100000000000016,0.042525,294.907,-2.84965,-2.6222,-1.67585,-1.427,-212.06,215.9025,190.59875,0.0,0.0,0.0,0.0,0.03856666666666653,-5.498166666666667,-5.498166666666667,-0.3861,0.87,0.07237499999999986,0.5309999999999999,68.122,0.08519999999999994,-0.01575,-1.0939999999999994,100.0,1.0,1.0,210.03,0.0,0.0,0.0,0.0,0.0,0.0,0.0,8902.5,0.0,55.0,5.0,245.20666666666665,1.0,0.0,0.0,0.0,0.0,0.0,1.0,0.0,0.9570000000000007,0.9570000000000007,0.0,0.0,1.0,55.0,616.79921,10000.0,85.000001,85.000001,85.000001,85.000001,395.0,0.0,0.0,0.0,1.0,166.665,59.555,59.555,46.219,46.219,34.0,-17.862000000000002,24.68,-25.990000000000002,35.587500000000006,0.0,1782.4222222222222,-0.3699999999999992,100.0,22.035,22.5045,43.435,44.684,0.0,0.0,100.0,0.0,0.0,0.0,0.0,2469.875,2809.2,4271.125,4543.5,307.2613333333333,305.93225,314.49625,313.718,21.886499999999998,20.5109,21.899555555555555,21.4645,314.999998,314.999998,324.999988,324.999988,99.55857142857143,99.50606666666667,99.56187142857142,99.54565714285714,0.12550000000000017,0.046666666666666856,-0.0076666666666665995,0.2058333333333333,-0.03333333333333144,-0.07333333333333059,1.5115,1.4735,37.791,29.192999999999998,37.872,35.153,55.39,33.796,57.908,51.96,53.272999999999996,33.0275,56.519,50.335,52.367000000000004,32.6225,56.388,49.7675,-0.07799999999999996,-0.006000000000000005,0.111085,0.10611000000000001,0.0,213.26999999999998,213.36,210.03,210.03,0.0,0.0
20,0.0,0.0,0.0,1.0,1.0,0.0,0.0,1.0,0.0,100.0,1.0,1.1856,26.0,0.0,0.0,0.0,59.999996,0.0,26.0,26.0,26.0,26.0,0.08411111111111103,0.29080000000000017,-0.0143,295.258,-2.8889,-2.6972,-1.5881,-1.5655999999999999,-208.57999999999998,215.8975,190.576375,0.0,0.0,0.0,0.0,0.04059999999999997,-5.498166666666667,-5.498166666666667,-0.3879,-1.0933333333333333,0.05212499999999998,-1.25,68.269,0.07669999999999999,-0.0252,-0.2999999999999998,100.0,1.0,1.0,210.38666666666666,0.0,0.0,0.0,0.0,0.0,0.0,0.0,8917.5,0.0,55.0,5.0,245.74,0.0,0.0,0.0,0.0,0.0,0.0,0.0,0.0,1.0079999999999991,1.0079999999999991,0.0,0.0,0.0,55.0,616.79921,10000.0,85.000001,85.000001,85.000001,85.000001,395.0,0.0,0.0,0.0,1.0,333.33500000000004,60.775999999999996,60.775999999999996,45.593,45.593,34.0,-18.064,20.554000000000002,-27.173333333333332,34.6625,0.0,1782.37,0.2550000000000008,100.0,21.391,22.2605,44.095,45.134,0.0,0.0,100.0,0.0,0.0,0.0,0.0,2339.25,2483.2,4316.25,4339.9,307.925,306.82575,314.30875,313.91275,21.894875,20.5154,21.909777777777776,21.4737,314.999998,314.999998,324.999988,324.999988,99.55858571428571,99.50608333333334,99.56202857142857,99.54581428571429,0.0807500000000001,-0.0016666666666667052,-0.03933333333333333,0.17533333333333334,-0.06666666666666998,-0.04833333333333201,1.443,1.4380000000000002,37.843,29.221,37.936,35.211,55.366,33.826499999999996,57.955,52.028,53.25,33.0555,56.563,50.4005,52.343,32.6495,56.429,49.8315,-0.029000000000000026,-0.05600000000000005,0.11141000000000001,0.105645,0.0,213.715,213.735,210.38666666666666,210.38666666666666,0.0,0.0
21,0.0,0.0,0.0,1.0,1.0,0.0,0.0,1.0,0.0,100.0,1.0,1.1856,26.0,0.0,0.0,0.0,59.999996,0.0,26.0,26.0,26.0,26.0,0.04222222222222216,0.2948000000000002,-0.062875,295.654,-2.77915,-2.7738,-1.6346500000000002,-1.5416,-205.3,215.89249999999998,190.55475,0.0,0.0,0.0,0.0,0.04249999999999998,-5.498166666666667,-5.498166666666667,-0.4118,0.47300000000000003,0.015625,-1.346,68.401,0.044300000000000006,-0.027033333333333333,0.4399999999999995,100.0,1.0,1.0,211.03333333333333,0.0,0.0,0.0,0.0,0.0,0.0,0.0,8944.9,0.0,55.0,5.0,246.21,1.0,0.0,0.0,0.0,0.0,0.0,0.0,0.0,1.056000000000001,1.056000000000001,0.0,0.0,1.0,55.0,616.79921,10000.0,85.000001,85.000001,85.000001,85.000001,395.0,0.0,0.0,0.0,1.0,333.33500000000004,60.303,60.303,47.012,47.012,34.0,-20.386,20.032,-28.229999999999997,29.259999999999998,0.0,1782.3211111111111,0.5150000000000006,100.0,21.772,22.1855,43.638,44.488,0.0,0.0,100.0,0.0,0.0,0.0,0.0,2544.5,2461.5,4127.25,4054.4,307.19933333333336,306.81825,314.90525,314.82925,21.902875,20.5197,21.91911111111111,21.482,314.999998,314.999998,324.999988,324.999988,99.5586,99.50608333333334,99.56215714285715,99.54595714285715,0.04875000000000007,-0.03066666666666662,-0.08599999999999997,0.14533333333333331,-0.061666666666667425,-0.03833333333332689,1.5495,1.5659999999999998,37.893,29.247999999999998,37.994,35.263,55.344,33.8565,57.9925,52.086,53.230000000000004,33.083,56.598,50.4565,52.322,32.676,56.461,49.885999999999996,-0.0004999999999999449,-0.08150000000000013,0.11305000000000001,0.11482500000000001,0.0,214.195,214.125,211.03333333333333,211.03333333333333,0.0,0.0
22,0.0,0.0,0.0,1.0,1.0,0.0,0.0,1.0,0.0,100.0,1.0,1.1856,26.0,0.0,0.0,0.0,59.999996,0.0,26.0,26.0,26.0,26.0,-0.015555555555555545,0.29790000000000005,0.0111,295.166,-2.74025,-2.8019,-1.60945,-1.5501,-201.6,215.89,190.529625,0.0,0.0,0.0,0.0,0.04466666666666652,-5.498166666666667,-5.498166666666667,-0.3889,0.05566666666666666,0.0003750000000000142,-0.8680000000000001,68.556,0.001000000000000112,-0.0039833333333333335,0.8140000000000001,100.0,1.0,1.0,211.29333333333335,0.0,0.0,0.0,0.0,0.0,0.0,0.0,8955.9,0.0,55.0,5.0,246.76999999999998,0.0,0.0,0.0,0.0,0.0,0.0,0.0,0.0,1.1099999999999994,1.1099999999999994,0.0,0.0,0.0,55.0,616.79921,10000.0,85.000001,85.000001,85.000001,85.000001,395.0,0.0,0.0,0.0,1.0,166.665,60.547,60.547,45.792,45.792,34.0,-19.978,18.215999999999998,-33.35333333333334,29.16,0.0,1782.2688888888888,0.48499999999999943,100.0,21.921,22.0615,44.286,44.591,0.0,0.0,100.0,0.0,0.0,0.0,0.0,2438.625,2361.6,4420.25,4370.7,307.496,307.10025,314.1525,314.03,21.912,20.5244,21.92988888888889,21.4916,314.999998,314.999998,324.999988,324.999988,99.5586,99.50608333333334,99.56231428571428,99.5461,0.022499999999999964,-0.06699999999999995,-0.1296666666666666,0.08233333333333337,-0.07000000000000028,-0.04833333333333201,1.436,1.4765000000000001,37.95,29.2775,38.062,35.323,55.319,33.8895,58.042,52.155,53.206,33.1135,56.6445,50.5225,52.298,32.7055,56.5045,49.951,-0.0024999999999999467,-0.08150000000000013,0.10863500000000001,0.10186500000000001,0.0,214.68,214.595,211.29333333333335,211.29333333333335,0.0,0.0
23,0.0,0.0,0.0,1.0,1.0,0.0,0.0,1.0,0.0,100.0,1.0,1.1856,26.0,0.0,0.0,0.0,59.999996,0.0,26.0,26.0,26.0,26.0,-0.044777777777777805,0.2753000000000001,-0.049600000000000005,295.151,-2.75325,-2.7715,-1.5225,-1.6301999999999999,-198.31,215.8875,190.507625,0.0,0.0,0.0,0.0,0.046566666666666534,-5.498166666666667,-5.498166666666667,-0.40700000000000003,-0.252,-0.018375000000000252,-0.9410000000000001,68.689,-0.025999999999999912,-0.030600000000000002,0.9480000000000004,100.0,1.0,1.0,211.80333333333334,0.0,0.0,0.0,0.0,0.0,0.0,0.0,8977.5,0.0,55.0,5.0,247.25,1.0,0.0,0.0,0.0,0.0,0.0,0.0,0.0,1.1580000000000013,1.1580000000000013,0.0,0.0,1.0,55.0,616.79921,10000.0,85.000001,85.000001,85.000001,85.000001,395.0,0.0,0.0,0.0,1.0,166.665,59.814,59.814,46.799,46.799,34.0,-23.964,17.814,-30.113333333333333,26.4175,0.0,1782.2211111111112,0.5500000000000007,100.0,22.271,21.9985,44.599000000000004,44.647999999999996,0.0,0.0,100.0,0.0,0.0,0.0,0.0,2775.875,2423.3,4102.375,4032.1000000000004,306.4796666666667,306.9845,314.83175,314.75525,21.920125,20.5286,21.939444444444444,21.5002,314.999998,314.999998,324.999988,324.999988,99.5586,99.50608333333334,99.56244285714286,99.54624285714286,0.00649999999999995,-0.08833333333333315,-0.14816666666666656,0.061166666666666814,-0.041666666666671404,-0.06333333333333258,1.49,1.5220000000000002,38.001000000000005,29.304000000000002,38.122,35.376,55.296,33.92,58.085,52.2155,53.185,33.1415,56.6845,50.5805,52.277,32.732,56.5415,50.0075,-0.005499999999999949,-0.08699999999999997,0.10095000000000001,0.10314000000000001,0.0,215.065,214.995,211.80333333333334,211.80333333333334,0.0,0.0
24,0.0,0.0,0.0,1.0,1.0,0.0,0.0,1.0,0.0,100.0,1.0,1.1856,26.0,0.0,0.0,0.0,59.999996,0.0,26.0,26.0,26.0,26.0,-0.07722222222222219,0.2916000000000001,-0.028825,295.425,-2.7625,-2.7969,-1.55545,-1.5815000000000001,-195.01,215.8825,190.485125,0.0,0.0,0.0,0.0,0.04849999999999999,-5.498166666666667,-5.498166666666667,-0.41000000000000003,-0.429,-0.020750000000000046,-0.18799999999999994,68.824,-0.04359999999999997,-0.014166666666666666,0.8760000000000012,100.0,1.0,1.0,212.14,0.0,0.0,0.0,0.0,0.0,0.0,0.0,8991.9,0.0,55.0,5.0,247.73333333333335,0.0,0.0,0.0,0.0,0.0,0.0,0.0,0.0,1.2059999999999995,1.2059999999999995,0.0,0.0,0.0,55.0,616.79921,10000.0,85.000001,85.000001,85.000001,85.000001,395.0,0.0,0.0,0.0,1.0,333.33500000000004,60.989,60.989,45.807,45.807,34.0,-21.21,16.028,-34.46,26.605,0.0,1782.1722222222222,0.47499999999999964,100.0,22.072,21.5995,44.701,44.372,0.0,0.0,100.0,0.0,0.0,0.0,0.0,2430.75,2256.4,4467.375,4175.1,307.54066666666665,307.587,313.98375,314.5175,21.92825,20.5327,21.948999999999998,21.5087,314.999998,314.999998,324.999988,324.999988,99.5586,99.5061,99.56258571428572,99.54638571428572,-0.016249999999999876,-0.10333333333333328,-0.15649999999999997,0.05683333333333329,-0.046666666666666856,-0.06666666666666998,1.4595,1.495,38.052,29.329,38.181,35.429,55.272999999999996,33.949,58.128,52.274,53.163,33.1685,56.725,50.637,52.254999999999995,32.7575,56.579,50.0625,-0.0020000000000000018,-0.08699999999999997,0.10507000000000001,0.111515,0.0,215.49,215.42000000000002,212.14,212.14,0.0,0.0
25,0.0,0.0,0.0,1.0,1.0,0.0,0.0,1.0,0.0,100.0,1.0,1.1856,26.0,0.0,0.0,0.0,59.999996,0.0,26.0,26.0,26.0,26.0,-0.07799999999999996,0.2794000000000001,-0.0442,295.303,-2.81925,-2.7666,-1.5604,-1.592,-191.29,215.875,190.458375,0.0,0.0,0.0,0.0,0.05066666666666653,-5.498166666666667,-5.498166666666667,-0.4423,0.11333333333333333,-0.028999999999999915,-1.295,68.97200000000001,-0.055299999999999905,-0.020716666666666668,0.8559999999999999,100.0,1.0,1.0,212.7266666666667,0.0,0.0,0.0,0.0,0.0,0.0,0.0,9016.7,0.0,55.0,5.0,248.26999999999998,1.0,0.0,0.0,0.0,0.0,0.0,0.0,0.0,1.259999999999998,1.259999999999998,0.0,0.0,1.0,55.0,616.79921,10000.0,85.000001,85.000001,85.000001,85.000001,395.0,0.0,0.0,0.0,1.0,166.665,59.86,59.86,46.646,46.646,34.0,-25.736,18.657999999999998,-31.596666666666664,25.28,0.0,1782.12,0.40000000000000036,100.0,22.046,21.78,44.503,43.958,0.0,0.0,100.0,0.0,0.0,0.0,0.0,2814.75,2568.4,4122.25,4062.8,306.5226666666667,306.58525,314.87425,314.78225,21.93725,20.5373,21.959555555555557,21.5181,314.999998,314.999998,324.999988,324.999988,99.5586,99.50611666666667,99.56274285714285,99.54652857142857,-0.02400000000000002,-0.09766666666666679,-0.1688333333333334,0.04849999999999999,-0.07166666666666544,-0.045000000000001705,1.5205,1.5474999999999999,38.108000000000004,29.3585,38.247,35.488,55.245999999999995,33.984,58.1735,52.338,53.138,33.2005,56.7675,50.698499999999996,52.230000000000004,32.7885,56.6185,50.1225,-0.010000000000000009,-0.07299999999999995,0.10423,0.10952500000000001,0.0,215.96,215.875,212.7266666666667,212.7266666666667,0.0,0.0
26,0.0,0.0,0.0,1.0,1.0,0.0,0.0,1.0,0.0,100.0,1.0,1.1856,26.0,0.0,0.0,0.0,59.999996,0.0,26.0,26.0,26.0,26.0,-0.08111111111111102,0.30010000000000003,0.073475,294.235,-2.7608,-2.8522,-1.6022500000000002,-1.592,-187.97,215.865,190.434125,0.0,0.0,0.0,0.0,0.05259999999999998,-5.498166666666667,-5.498166666666667,-0.4011,0.747,-0.05262499999999992,-0.9120000000000001,69.107,-0.060699999999999976,0.007966666666666667,0.7260000000000009,100.0,1.0,1.0,212.89,0.0,0.0,0.0,0.0,0.0,0.0,0.0,9023.6,0.0,55.0,5.0,248.75666666666666,0.0,0.0,0.0,0.0,0.0,0.0,0.0,0.0,1.3079999999999998,1.3079999999999998,0.0,0.0,0.0,55.0,616.79921,10000.0,85.000001,85.000001,85.000001,85.000001,395.0,0.0,0.0,0.0,1.0,333.33500000000004,59.601,59.601,44.937,44.937,34.0,-23.906,17.477999999999998,-39.3,28.1625,0.0,1782.07,0.20500000000000007,100.0,22.868,22.2945,45.08,44.331,0.0,0.0,100.0,0.0,0.0,0.0,0.0,2726.875,2358.3,4743.0,4513.9,306.6673333333333,307.097,313.41875,313.6785,21.945625,20.5416,21.96922222222222,21.526699999999998,314.999998,314.999998,324.999988,324.999988,99.55861428571428,99.50611666666667,99.5629,99.54667142857143,-0.005749999999999922,-0.10199999999999987,-0.1785,0.03133333333333321,-0.05666666666667197,-0.05333333333332746,1.3975,1.4365,38.16,29.384999999999998,38.308,35.542,55.226,34.0165,58.219,52.399,53.119,33.2305,56.8105,50.757,52.211,32.817,56.658500000000004,50.1795,-0.03049999999999997,-0.06400000000000006,0.11226000000000001,0.10468000000000001,0.0,216.405,216.325,212.89,212.89,0.0,0.0
27,0.0,0.0,0.0,1.0,1.0,0.0,0.0,1.0,0.0,100.0,1.0,1.1856,26.0,0.0,0.0,0.0,59.999996,0.0,26.0,26.0,26.0,26.0,-0.061999999999999944,0.25429999999999997,-0.023925000000000002,294.754,-2.7333,-2.8142,-1.59505,-1.6593,-184.64999999999998,215.85500000000002,190.411125,0.0,0.0,0.0,0.0,0.05449999999999999,-5.498166666666667,-5.498166666666667,-0.4313,-1.157,-0.04249999999999998,-0.42700000000000005,69.239,-0.05479999999999996,-0.04116666666666667,0.47799999999999976,100.0,1.0,1.0,213.38,0.0,0.0,0.0,0.0,0.0,0.0,0.0,9044.5,0.0,55.0,5.0,249.23333333333335,1.0,0.0,0.0,0.0,0.0,0.0,0.0,0.0,1.355999999999998,1.355999999999998,0.0,0.0,1.0,55.0,616.79921,10000.0,85.000001,85.000001,85.000001,85.000001,395.0,0.0,0.0,0.0,1.0,333.33500000000004,60.013,60.013,45.456,45.456,34.0,-22.694000000000003,18.07,-34.44,27.21,0.0,1782.0211111111112,0.09999999999999964,100.0,22.483,22.0335,45.501,44.884,0.0,0.0,100.0,0.0,0.0,0.0,0.0,2625.875,2423.4,4322.125,4107.3,306.98266666666666,307.013,314.32675,314.5565,21.95375,20.5458,21.979,21.5354,314.999998,314.999998,324.999988,324.999988,99.55861428571428,99.50613333333334,99.56304285714286,99.54682857142858,-0.006750000000000034,-0.08866666666666667,-0.1698333333333334,0.051166666666666805,-0.054999999999999716,-0.04333333333332945,1.4569999999999999,1.4545,38.211,29.411,38.369,35.596000000000004,55.201,34.048,58.268,52.463499999999996,53.096000000000004,33.2595,56.857,50.8185,52.187,32.845,56.701499999999996,50.2395,-0.039000000000000035,-0.04899999999999993,0.10651500000000001,0.10944000000000001,0.0,216.74,216.68,213.38,213.38,0.0,0.0
28,0.0,0.0,0.0,1.0,1.0,0.0,0.0,1.0,0.0,100.0,1.0,1.1856,26.0,0.0,0.0,0.0,59.999996,0.0,26.0,26.0,26.0,26.0,-0.062444444444444414,0.2814000000000001,-0.060825000000000004,295.135,-2.75725,-2.8013,-1.55085,-1.6131,-181.12,215.8425,190.385875,0.0,0.0,0.0,0.0,0.05656666666666654,-5.498166666666667,-5.498166666666667,-0.4344,0.7376666666666667,-0.03925000000000001,0.746,69.376,-0.04799999999999993,-0.014833333333333336,0.34999999999999964,100.0,1.0,1.0,213.95,0.0,0.0,0.0,0.0,0.0,0.0,0.0,9068.5,0.0,55.0,5.0,249.72333333333336,0.0,0.0,0.0,0.0,0.0,0.0,0.0,0.0,1.407,1.407,0.0,0.0,0.0,55.0,616.79921,10000.0,85.000001,85.000001,85.000001,85.000001,395.0,0.0,0.0,0.0,1.0,333.33500000000004,60.013,60.013,46.539,46.539,34.0,-21.964,18.89,-30.22,27.735,0.0,1781.9711111111112,-0.009999999999999787,100.0,22.632,21.87,44.819,44.254000000000005,0.0,0.0,100.0,0.0,0.0,0.0,0.0,2579.125,2491.4,4107.125,4207.0,306.95666666666665,306.95775,314.8655,314.52875,21.962375,20.5502,21.989,21.5443,314.999998,314.999998,324.999988,324.999988,99.55861428571428,99.50615,99.56318571428571,99.54697142857142,0.013250000000000206,-0.07333333333333325,-0.1446666666666666,0.06916666666666682,-0.026666666666670835,-0.06333333333333258,1.517,1.5295,38.265,29.439,38.431,35.652,55.18,34.0785,58.3065,52.519999999999996,53.075,33.2875,56.893,50.8725,52.166,32.8715,56.735,50.292,-0.04399999999999993,-0.046499999999999986,0.09928500000000001,0.110825,0.0,217.19,217.17000000000002,213.95,213.95,0.0,0.0
29,0.0,0.0,0.0,1.0,1.0,0.0,0.0,1.0,0.0,100.0,1.0,1.1856,26.0,0.0,0.0,0.0,59.999996,0.0,26.0,26.0,26.0,26.0,-0.03411111111111109,0.2752000000000001,0.057075,294.693,-2.7151,-2.8431,-1.55335,-1.5937000000000001,-177.57999999999998,215.8275,190.359375,0.0,0.0,0.0,0.0,0.058633333333333315,-5.498166666666667,-5.498166666666667,-0.4343,-0.7186666666666667,-0.03849999999999998,-0.6560000000000001,69.518,-0.039899999999999936,-0.0073,0.21000000000000085,100.0,1.0,1.0,214.17000000000002,0.0,0.0,0.0,0.0,0.0,0.0,0.0,9077.9,0.0,55.0,5.0,250.23666666666668,1.0,0.0,0.0,0.0,0.0,0.0,0.0,0.0,1.4579999999999984,1.4579999999999984,0.0,0.0,1.0,55.0,616.79921,10000.0,85.000001,85.000001,85.000001,85.000001,395.0,0.0,0.0,0.0,1.0,166.665,60.15,60.15,45.288,45.288,34.0,-21.915999999999997,19.212,-33.623333333333335,28.3975,0.0,1781.921111111111,-0.14000000000000057,100.0,22.14,21.8905,45.163,44.738,0.0,0.0,100.0,0.0,0.0,0.0,0.0,2641.625,2442.0,4429.375,4312.7,306.981,306.8605,314.0685,314.12825,21.97075,20.5546,21.999222222222222,21.5535,314.999998,314.999998,324.999988,324.999988,99.55862857142857,99.50615,99.56334285714286,99.54711428571429,0.015750000000000153,-0.06733333333333325,-0.1446666666666666,0.06133333333333324,-0.06666666666666998,-0.051666666666669414,1.4295,1.447,38.317,29.4665,38.495000000000005,35.709,55.153999999999996,34.1085,58.3545,52.5845,53.051,33.315,56.9375,50.9345,52.141999999999996,32.897999999999996,56.777,50.352000000000004,-0.05349999999999999,-0.03249999999999997,0.09886500000000001,0.10389000000000001,0.0,217.61,217.57,214.17000000000002,214.17000000000002,0.0,0.0
30,0.0,0.0,0.0,1.0,1.0,0.0,0.0,1.0,0.0,100.0,1.0,1.1856,26.0,0.0,0.0,0.0,59.999996,0.0,26.0,26.0,26.0,26.0,-0.03544444444444439,0.27100000000000013,0.056125,294.25,-2.7714,-2.7313,-1.53305,-1.6463,-174.03,215.8125,190.33275,0.0,0.0,0.0,0.0,0.060699999999999976,-5.498166666666667,-5.498166666666667,-0.4323,0.869,-0.03312500000000007,0.84,69.655,-0.030200000000000005,-0.010683333333333333,0.0779999999999994,100.0,1.0,1.0,214.68666666666667,0.0,0.0,0.0,0.0,0.0,0.0,0.0,9099.7,0.0,55.0,5.0,250.73000000000002,0.0,0.0,0.0,0.0,0.0,0.0,1.0,0.0,1.5090000000000003,1.5090000000000003,0.0,0.0,0.0,55.0,616.79921,10000.0,85.000001,85.000001,85.000001,85.000001,395.0,0.0,0.0,0.0,1.0,166.665,59.021,59.021,45.775999999999996,45.775999999999996,34.0,-22.512,20.244,-30.976666666666663,29.887500000000003,0.0,1781.87,-0.27500000000000036,100.0,23.175,22.5055,45.11,44.753,0.0,0.0,100.0,0.0,0.0,0.0,0.0,2739.0,2579.9,4297.25,4272.4,306.46633333333335,306.60575,314.3935,314.27275,21.979375,20.5593,22.009333333333334,21.5626,314.999998,314.999998,324.999988,324.999988,99.55862857142857,99.50615,99.56348571428572,99.54725714285715,0.04600000000000026,-0.044333333333333114,-0.127,0.08333333333333326,-0.04333333333332945,-0.06666666666666998,1.47,1.471,38.370999999999995,29.4955,38.558,35.766,55.132999999999996,34.1425,58.3975,52.647,53.032,33.3465,56.978,50.994,52.122,32.928,56.814,50.4105,-0.07199999999999995,-0.030000000000000027,0.10565000000000001,0.10821000000000001,0.0,218.065,218.04500000000002,214.68666666666667,214.68666666666667,0.0,0.0
31,0.0,0.0,0.0,1.0,1.0,0.0,0.0,1.0,0.0,100.0,1.0,1.1856,26.0,0.0,0.0,0.0,59.999996,0.0,26.0,26.0,26.0,26.0,-0.03700000000000003,0.28059999999999996,0.025825,294.144,-2.84085,-2.7098,-1.5816,-1.5394,-170.68,215.79500000000002,190.308625,0.0,0.0,0.0,0.0,0.06263333333333332,-5.498166666666667,-5.498166666666667,-0.4177,-0.6636666666666666,-0.02200000000000024,0.733,69.787,-0.016999999999999904,-0.01345,-0.20999999999999996,100.0,1.0,1.0,214.95333333333332,0.0,0.0,0.0,0.0,0.0,0.0,0.0,9111.1,0.0,55.0,5.0,251.20333333333335,1.0,0.0,0.0,0.0,0.0,0.0,1.0,0.0,1.5569999999999986,1.5569999999999986,0.0,0.0,1.0,55.0,616.79921,10000.0,85.000001,85.000001,85.000001,85.000001,395.0,0.0,0.0,0.0,1.0,333.33500000000004,59.723,59.723,44.327,44.327,34.0,-20.054000000000002,20.904,-33.26,30.5225,0.0,1781.82,-0.3849999999999998,100.0,22.732,22.458,45.672,45.349000000000004,0.0,0.0,100.0,0.0,0.0,0.0,0.0,2496.875,2650.1,4487.75,4364.3,307.344,306.626,313.82325,314.03725,21.98725,20.5636,22.019111111111112,21.5714,314.999998,314.999998,324.999988,324.999988,99.55862857142857,99.50615,99.56362857142857,99.5474,0.05975000000000019,-0.03066666666666662,-0.1183333333333334,0.10450000000000004,-0.041666666666671404,-0.04333333333332945,1.4275,1.4170000000000003,38.42,29.5225,38.620000000000005,35.821,55.111000000000004,34.172,58.443,52.7095,53.010999999999996,33.3735,57.021,51.0545,52.101,32.954,56.854,50.4695,-0.07599999999999996,-0.01649999999999996,0.11069500000000002,0.11451000000000001,0.0,218.42000000000002,218.425,214.95333333333332,214.95333333333332,0.0,0.0
32,0.0,0.0,0.0,1.0,1.0,0.0,0.0,1.0,0.0,100.0,1.0,1.1856,26.0,0.0,0.0,0.0,59.999996,0.0,26.0,26.0,26.0,26.0,-0.012222222222222134,0.27690000000000015,-0.0543,294.54,-2.7519,-2.8134,-1.64785,-1.5418,-166.91,215.7775,190.281625,0.0,0.0,0.0,0.0,0.0648333333333333,-5.498166666666667,-5.498166666666667,-0.4395,0.03166666666666667,-0.04212499999999997,0.29699999999999993,69.93,-0.0034999999999999476,-0.02613333333333333,-0.23599999999999977,100.0,1.0,1.0,215.51999999999998,0.0,0.0,0.0,0.0,0.0,0.0,0.0,9135.1,0.0,55.0,5.0,251.71666666666667,0.0,0.0,0.0,0.0,0.0,0.0,1.0,0.0,1.6110000000000007,1.6110000000000007,0.0,0.0,0.0,55.0,616.79921,10000.0,85.000001,85.000001,85.000001,85.000001,395.0,0.0,0.0,0.0,1.0,166.665,59.784,59.784,45.501999999999995,45.501999999999995,34.0,-19.67,20.932000000000002,-31.576666666666664,31.0825,0.0,1781.7688888888888,-0.40499999999999936,100.0,22.649,22.457,45.16,45.013999999999996,0.0,0.0,100.0,0.0,0.0,0.0,0.0,2529.75,2519.0,4334.625,4385.0,307.07733333333334,306.83275,314.38975,314.145,21.996125,20.5685,22.029888888888888,21.5811,314.999998,314.999998,324.999988,324.999988,99.55864285714286,99.50616666666667,99.56378571428571,99.54755714285714,0.06800000000000006,-0.021666666666666723,-0.10549999999999993,0.11966666666666681,-0.036666666666668846,-0.06333333333333258,1.494,1.484,38.476,29.5535,38.686,35.882,55.087,34.2055,58.4885,52.7755,52.988,33.4045,57.0635,51.1175,52.078,32.9835,56.8935,50.531,-0.07550000000000001,-0.01750000000000007,0.10519500000000001,0.113125,0.0,218.87,218.88,215.51999999999998,215.51999999999998,0.0,0.0
33,0.0,0.0,0.0,1.0,1.0,0.0,0.0,1.0,0.0,100.0,1.0,1.1856,26.0,0.0,0.0,0.0,59.999996,0.0,26.0,26.0,26.0,26.0,0.012111111111111184,0.2764,-0.0603,294.754,-2.79375,-2.7981,-1.5816,-1.6228,-163.55,215.7625,190.2565,0.0,0.0,0.0,0.0,0.06676666666666653,-5.498166666666667,-5.498166666666667,-0.44420000000000004,-0.24866666666666667,-0.03337499999999993,1.314,70.059,0.0052000000000000934,-0.007,-0.242,100.0,1.0,1.0,215.88,0.0,0.0,0.0,0.0,0.0,0.0,0.0,9150.4,0.0,55.0,5.0,252.18333333333334,1.0,0.0,0.0,0.0,0.0,0.0,1.0,0.0,1.658999999999999,1.658999999999999,0.0,0.0,1.0,55.0,616.79921,10000.0,85.000001,85.000001,85.000001,85.000001,395.0,0.0,0.0,0.0,1.0,166.665,60.257,60.257,45.638999999999996,45.638999999999996,34.0,-18.948,20.345999999999997,-29.873333333333335,32.24,0.0,1781.7188888888888,-0.46499999999999986,100.0,22.417,22.2215,45.111000000000004,45.001000000000005,0.0,0.0,100.0,0.0,0.0,0.0,0.0,2470.625,2437.7,4253.375,4385.9,307.359,307.11625,314.46175,314.079,22.003875,20.5727,22.03933333333333,21.5897,314.999998,314.999998,324.999988,324.999988,99.55864285714286,99.50616666666667,99.56392857142858,99.5477,0.07925000000000004,-0.010333333333333306,-0.09983333333333333,0.11633333333333318,-0.05333333333332746,-0.04333333333332945,1.475,1.4735,38.525,29.579,38.745999999999995,35.936,55.065,34.2315,58.5295,52.8345,52.968,33.4285,57.1015,51.1745,52.058,33.0065,56.9285,50.5865,-0.07950000000000002,-0.00550000000000006,0.106435,0.1063,0.0,219.28,219.26,215.88,215.88,0.0,0.0
34,0.0,0.0,0.0,1.0,1.0,0.0,0.0,1.0,0.0,100.0,1.0,1.1856,26.0,0.0,0.0,0.0,59.999996,0.0,26.0,26.0,26.0,26.0,0.025666666666666726,0.2704,-0.059550000000000006,294.983,-2.83435,-2.7149,-1.655,-1.5732,-159.97,215.745,190.228375,0.0,0.0,0.0,0.0,0.06886666666666652,-5.498166666666667,-5.498166666666667,-0.47390000000000004,-0.8776666666666666,0.0003750000000000142,-0.16900000000000004,70.195,0.01110000000000011,-0.015533333333333335,-0.2400000000000002,100.0,1.0,1.0,216.31333333333333,0.0,0.0,0.0,0.0,0.0,0.0,0.0,9168.7,0.0,55.0,5.0,252.67333333333335,0.0,0.0,0.0,0.0,0.0,0.0,1.0,0.0,1.7100000000000009,1.7100000000000009,0.0,0.0,0.0,55.0,616.79921,10000.0,85.000001,85.000001,85.000001,85.000001,395.0,0.0,0.0,0.0,1.0,166.665,60.455,60.455,46.036,46.036,34.0,-19.282,20.037999999999997,-29.88,31.2,0.0,1781.67,-0.504999999999999,100.0,21.958,22.026,44.841,45.214,0.0,0.0,100.0,0.0,0.0,0.0,0.0,2485.875,2428.0,4200.0,4290.7,307.34066666666666,307.00275,314.71225,314.19425,22.012125,20.5771,22.049333333333333,21.599,314.999998,314.999998,324.999988,324.999988,99.55865714285714,99.50616666666667,99.56407142857142,99.54785714285714,0.0807500000000001,-0.005666666666666709,-0.09350000000000003,0.12316666666666687,-0.04833333333333201,-0.05333333333332746,1.4945,1.479,38.576,29.6065,38.809,35.994,55.042,34.2595,58.570499999999996,52.899,52.946,33.454,57.1405,51.2365,52.036,33.031,56.964,50.647,-0.08350000000000002,-0.006000000000000005,0.10279500000000001,0.11157500000000001,0.0,219.66,219.685,216.31333333333333,216.31333333333333,0.0,0.0
35,0.0,0.0,0.0,1.0,1.0,0.0,0.0,1.0,0.0,100.0,1.0,1.1856,26.0,0.0,0.0,0.0,59.999996,0.0,26.0,26.0,26.0,26.0,0.02488888888888896,0.2639,-0.024,294.968,-2.8116,-2.7221,-1.6292,-1.5332,-156.6,215.73000000000002,190.200125,0.0,0.0,0.0,0.0,0.0708333333333333,-5.498166666666667,-5.498166666666667,-0.5106,-0.221,-0.015625,-1.149,70.321,0.020499999999999963,-0.021033333333333334,-0.4220000000000006,100.0,1.0,1.0,216.7733333333333,0.0,0.0,0.0,0.0,0.0,0.0,0.0,9188.2,0.0,55.0,5.0,253.12666666666667,1.0,0.0,0.0,0.0,0.0,0.0,1.0,0.0,1.7579999999999991,1.7579999999999991,0.0,0.0,1.0,55.0,616.79921,10000.0,85.000001,85.000001,85.000001,85.000001,395.0,0.0,0.0,0.0,1.0,166.665,60.028,60.028,45.653999999999996,45.653999999999996,34.0,-19.67,22.701999999999998,-28.9,29.075000000000003,0.0,1781.621111111111,-0.42499999999999893,100.0,21.724,22.3155,44.687,44.819,0.0,0.0,100.0,0.0,0.0,0.0,0.0,2581.375,2675.9,4165.75,4085.9,307.14866666666666,306.231,314.73775,314.75125,22.019750000000002,20.5815,22.058777777777777,21.6075,314.999998,314.999998,324.999988,324.999988,99.55865714285714,99.50616666666667,99.56421428571429,99.548,0.08700000000000019,0.0003333333333332966,-0.08750000000000002,0.13083333333333336,-0.061666666666667425,-0.05333333333332746,1.5155,1.5060000000000002,38.623999999999995,29.634,38.867000000000004,36.047,55.019,34.2885,58.609,52.956,52.925,33.481,57.1765,51.291,52.013999999999996,33.0565,56.997,50.7,-0.08099999999999996,-0.00649999999999995,0.10532000000000001,0.10382500000000001,0.0,220.065,220.07999999999998,216.77333333333334,216.7733333333333,0.0,0.0
36,0.0,0.0,0.0,1.0,1.0,0.0,0.0,1.0,0.0,100.0,1.0,1.1856,26.0,0.0,0.0,0.0,59.999996,0.0,26.0,26.0,26.0,26.0,0.02722222222222226,0.27070000000000016,0.029525000000000003,294.189,-2.74065,-2.7593,-1.5823,-1.5722,-153.22,215.7175,190.170625,0.0,0.0,0.0,0.0,0.07279999999999998,-5.498166666666667,-5.498166666666667,-0.4868,0.35433333333333333,-0.05337499999999995,-1.362,70.45,0.025700000000000056,0.015883333333333336,-0.22799999999999976,100.0,1.0,1.0,216.97333333333333,0.0,0.0,0.0,0.0,0.0,0.0,0.0,9196.7,0.0,55.0,5.0,253.59,0.0,0.0,0.0,0.0,0.0,0.0,1.0,0.0,1.806000000000001,1.806000000000001,0.0,0.0,0.0,55.0,616.79921,10000.0,85.000001,85.000001,85.000001,85.000001,395.0,0.0,0.0,0.0,1.0,333.33500000000004,59.86,59.86,45.105000000000004,45.105000000000004,34.0,-19.805999999999997,20.912,-32.13666666666666,34.1575,0.0,1781.5711111111111,-0.29999999999999893,100.0,22.189,22.411,44.809,45.144000000000005,0.0,0.0,100.0,0.0,0.0,0.0,0.0,2614.0,2486.2,4557.75,4574.1,306.853,306.818,313.8475,313.55575,22.027625,20.5859,22.068333333333335,21.6162,314.999998,314.999998,324.999988,324.999988,99.55867142857143,99.50616666666667,99.56435714285715,99.54812857142858,0.08325000000000005,-0.00533333333333319,-0.09133333333333338,0.12650000000000006,-0.041666666666671404,-0.04999999999999716,1.4100000000000001,1.4100000000000001,38.673,29.662,38.927,36.101,54.998999999999995,34.318,58.65,53.0165,52.906,33.5085,57.2145,51.349000000000004,51.994,33.083,57.032,50.757,-0.06699999999999995,-0.020499999999999963,0.10837500000000001,0.10075,0.0,220.485,220.51,216.97333333333336,216.97333333333333,0.0,0.0
