,ABS Active,ABS Enabled,AID Allow Tire Blankets,AID Auto Blip,AID Auto Clutch,AID Auto Shift,AID Fuel Rate,AID Ideal Line,AID Mech Damage,AID Stability,AID Tire Wear Rate,Air Density,Air Temp,Ballast,Best Lap Delta,Best Lap Time,Brake Bias,Brake Pos,Brake Temp FL,Brake Temp FR,Brake Temp RL,Brake Temp RR,CG Accel Lateral,CG Accel Longitudinal,CG Accel Vertical,CG Height,Camber FL,Camber FR,Camber RL,Camber RR,Car Coord X,Car Coord Y,Car Coord Z,Car Damage Front,Car Damage Left,Car Damage Rear,Car Damage Right,Car Pos Norm,Caster FL,Caster FR,Chassis Pitch Angle,Chassis Pitch Rate,Chassis Roll Angle,Chassis Roll Rate,Chassis Velocity X,Chassis Velocity Y,Chassis Velocity Z,Chassis Yaw Rate,Clutch Pos,DRS Active,DRS Available,Drive Train Speed,ERS Heat Charging,ERS Is Charging,ERS Max Energy,ERS Power Level,ERS Recovery Level,Engine Brake Setting,Engine Limiter,Engine RPM,Flags,Fuel Level,Gear,Ground Speed,HR Sample Clock,In Pit,KERS Charge,KERS Deployed Energy,KERS Input,KERS Max Energy,LR Sample Clock,Lap Invalidated,Lap Time,Lap Time2,Last Lap Time,Last Sector Time,MR Sample Clock,Max Fuel,Max Power,Max RPM,Max Sus Travel FL,Max Sus Travel FR,Max Sus Travel RL,Max Sus Travel RR,Max Torque,Max Turbo Boost,Num Tires Off Track,Penalties Enabled,Position,Raw Data Sample Rate,Ride Height FL,Ride Height FR,Ride Height RL,Ride Height RR,Road Temp,Self Align Torque FL,Self Align Torque FR,Self Align Torque RL,Self Align Torque RR,Session Lap Count,Session Time Left,Steering Angle,Surface Grip,Suspension Travel FL,Suspension Travel FR,Suspension Travel RL,Suspension Travel RR,TC Active,TC Enabled,Throttle Pos,Tire Dirt Level FL,Tire Dirt Level FR,Tire Dirt Level RL,Tire Dirt Level RR,Tire Load FL,Tire Load FR,Tire Load RL,Tire Load RR,Tire Loaded Radius FL,Tire Loaded Radius FR,Tire Loaded Radius RL,Tire Loaded Radius RR,Tire Pressure FL,Tire Pressure FR,Tire Pressure RL,Tire Pressure RR,Tire Radius FL,Tire Radius FR,Tire Radius RL,Tire Radius RR,Tire Rubber Grip FL,Tire Rubber Grip FR,Tire Rubber Grip RL,Tire Rubber Grip RR,Tire Slip Angle FL,Tire Slip Angle FR,Tire Slip Angle RL,Tire Slip Angle RR,Tire Slip Ratio FL,Tire Slip Ratio FR,Tire Slip Ratio RL,Tire Slip Ratio RR,Tire Temp Core FL,Tire Temp Core FR,Tire Temp Core RL,Tire Temp Core RR,Tire Temp Inner FL,Tire Temp Inner FR,Tire Temp Inner RL,Tire Temp Inner RR,Tire Temp Middle FL,Tire Temp Middle FR,Tire Temp Middle RL,Tire Temp Middle RR,Tire Temp Outer FL,Tire Temp Outer FR,Tire Temp Outer RL,Tire Temp Outer RR,Toe In FL,Toe In FR,Toe In RL,Toe In RR,Turbo Boost,Wheel Angular Speed FL,Wheel Angular Speed FR,Wheel Angular Speed RL,Wheel Angular Speed RR,Wind Direction,Wind Speed
0,0.0,0.0,0.0,1.0,1.0,0.0,0.0,1.0,0.0,100.0,1.0,1.1856,26.0,0.0,0.0,0.0,59.99999,0.0,26.0,26.0,26.0,26.0,-0.04888888888888887,0.05459999999999998,0.1583,294.678,-2.7895,-2.5061,-1.53755,-1.521,-275.57,215.745,190.988125,0.0,0.0,0.0,0.0,0.0016333333333333332,-5.498166666666667,-5.498166666666667,-0.5147,1.7665,-0.0067777777777777715,-0.5049999999999999,65.301,-0.03499999999999992,-0.16236,0.402000000000001,100.0,1.0,1.0,201.31,0.0,0.0,0.0,0.0,0.0,0.0,0.0,8532.8,0.0,55.0,5.0,235.06333333333333,0.0,0.0,0.0,0.0,0.0,0.0,0.0,0.0,0.006000000000000227,0.006000000000000227,0.0,0.0,0.0,55.0,616.79921,10000.0,85.0,85.0,85.0,85.0,395.0,0.0,0.0,0.0,1.0,20.0,53.818,53.818,49.103,49.103,34.0,-32.3,26.755,-28.256666666666664,24.37,0.0,1783.472,0.6050000000000004,100.0,24.194,24.7715,40.921,40.68,0.0,0.0,100.0,0.0,0.0,0.0,0.0,3432.0,3883.1000000000004,3790.3333333333335,3761.8,304.34833333333336,302.1075,315.66725,315.531,21.7556,20.4636,21.7252,21.3108,314.99999,314.99999,324.99998,324.99998,99.55958571428572,99.50655,99.56045714285715,99.54378571428572,-0.018000000000000016,-0.10833333333333317,-0.14900000000000002,0.07816666666666672,-0.03166666666666629,-0.060000000000002274,1.2479999999999998,1.2534999999999998,36.973,28.897333333333336,36.782,34.192499999999995,56.295,33.728,57.4885,51.0625,54.138999999999996,32.959,56.1435,49.46633333333333,53.24,32.5505,56.072,48.912333333333336,-0.019499999999999962,-0.10699999999999998,0.10446000000000001,0.11222000000000001,0.0,204.625,204.61,201.31,201.31,0.0,0.0
1,0.0,0.0,0.0,1.0,1.0,0.0,0.0,1.0,0.0,100.0,1.0,1.1856,26.0,0.0,0.0,0.0,59.999996,0.0,26.0,26.0,26.0,26.0,-0.0975555555555555,0.3304,0.17420000000000002,293.945,-2.7114,-2.7309,-1.5749,-1.3813,-272.04,215.7475,190.967125,0.0,0.0,0.0,0.0,0.0037,-5.498166666666667,-5.498166666666667,-0.3775,-0.948,-0.03711111111111132,-0.915,65.468,-0.03959999999999997,-0.07552,0.8600000000000003,100.0,1.0,1.0,201.56666666666666,0.0,0.0,0.0,0.0,0.0,0.0,0.0,8543.6,0.0,55.0,5.0,235.65,1.0,0.0,0.0,0.0,0.0,0.0,0.0,0.0,0.05999999999999872,0.05999999999999872,0.0,0.0,1.0,55.0,616.79921,10000.0,85.000001,85.000001,85.000001,85.000001,395.0,0.0,0.0,0.0,1.0,166.665,58.777,58.777,46.295,46.295,34.0,-19.2275,13.515,-39.25333333333333,31.07,0.0,1783.419,0.5300000000000011,100.0,24.588,24.137999999999998,43.254,44.244,0.0,0.0,100.0,0.0,0.0,0.0,0.0,2316.125,2010.1,4835.333333333333,5174.8,307.8036666666667,308.3855,312.924,311.70475,21.7656,20.4683,21.7363,21.3206,314.999998,314.999998,324.999988,324.999988,99.55958571428572,99.50656666666667,99.56061428571428,99.54394285714285,0.0017499999999999183,-0.10599999999999987,-0.15566666666666662,0.046499999999999986,-0.054999999999999716,-0.013333333333328312,1.2685,1.311,37.035,28.926666666666666,36.852000000000004,34.2535,56.272,33.763999999999996,57.543,51.138,54.117000000000004,32.9925,56.1945,49.538666666666664,53.218,32.583,56.1205,48.983333333333334,-0.014499999999999957,-0.10050000000000003,0.10211500000000001,0.10807000000000001,0.0,205.16,205.055,201.56666666666666,201.56666666666666,0.0,0.0
2,0.0,0.0,0.0,1.0,1.0,0.0,0.0,1.0,0.0,100.0,1.0,1.1856,26.0,0.0,0.0,0.0,59.999996,0.0,26.0,26.0,26.0,26.0,-0.10799999999999998,0.28800000000000003,-0.023950000000000003,295.486,-2.6769,-2.7211,-1.53225,-1.5437,-268.89,215.745,190.949625,0.0,0.0,0.0,0.0,0.005533333333333334,-5.498166666666667,-5.498166666666667,-0.4657,-0.22049999999999992,-0.026333333333333098,1.7229999999999999,65.602,-0.04239999999999999,-0.14688,1.0839999999999996,100.0,1.0,1.0,202.82,0.0,0.0,0.0,0.0,0.0,0.0,0.0,8596.8,0.0,55.0,5.0,236.13666666666666,0.0,0.0,0.0,0.0,0.0,0.0,0.0,0.0,0.10800000000000054,0.10800000000000054,0.0,0.0,0.0,55.0,616.79921,10000.0,85.000001,85.000001,85.000001,85.000001,395.0,0.0,0.0,0.0,1.0,166.665,56.824,56.824,49.576,49.576,34.0,-27.45,17.84,-26.513333333333335,19.2075,0.0,1783.37,0.7800000000000011,100.0,24.592,23.835,43.063,42.644999999999996,0.0,0.0,100.0,0.0,0.0,0.0,0.0,3027.625,2634.4,3631.1111111111113,3392.5,305.6596666666667,306.395,315.9375,316.442,21.7746,20.4724,21.7458,21.3284,314.999998,314.999998,324.999988,324.999988,99.5596,99.50658333333334,99.56072857142857,99.54407142857143,-0.03349999999999986,-0.1253333333333333,-0.1798333333333334,0.05249999999999999,-0.0833333333333286,-0.060000000000002274,1.7065000000000001,1.7425,37.091,28.952333333333335,36.911,34.303,56.251999999999995,33.795,57.583,51.187,54.099000000000004,33.021,56.232,49.58566666666667,53.199,32.61,56.155,49.029333333333334,0.001000000000000112,-0.11749999999999994,0.10670500000000001,0.11012000000000001,0.0,205.54000000000002,205.41500000000002,202.82,202.82,0.0,0.0
3,0.0,0.0,0.0,1.0,1.0,0.0,0.0,1.0,0.0,100.0,1.0,1.1856,26.0,0.0,0.0,0.0,59.999996,0.0,26.0,26.0,26.0,26.0,-0.09933333333333338,0.2933000000000001,0.040175,294.739,-2.7013,-2.7459,-1.5211000000000001,-1.5851000000000002,-265.54,215.7425,190.929625,0.0,0.0,0.0,0.0,0.007500000000000001,-5.498166666666667,-5.498166666666667,-0.4051,0.8260000000000001,-0.00633333333333308,-1.533,65.76,-0.0595,-0.07854,0.9820000000000002,100.0,1.0,1.0,202.81,0.0,0.0,0.0,0.0,0.0,0.0,0.0,8596.3,0.0,55.0,5.0,236.70333333333332,1.0,0.0,0.0,0.0,0.0,0.0,0.0,0.0,0.15899999999999892,0.15899999999999892,0.0,0.0,1.0,55.0,616.79921,10000.0,85.000001,85.000001,85.000001,85.000001,395.0,0.0,0.0,0.0,1.0,166.665,57.877,57.877,46.783,46.783,34.0,-22.8475,16.846666666666668,-35.29,26.6825,0.0,1783.32,0.8450000000000006,100.0,24.371,23.9605,43.001,42.653,0.0,0.0,100.0,0.0,0.0,0.0,0.0,2576.375,2495.3,4526.333333333333,4288.7,307.0516666666667,306.703,313.8155,314.2115,21.7839,20.477,21.7558,21.3373,314.999998,314.999998,324.999988,324.999988,99.5596,99.50658333333334,99.56087142857143,99.54421428571429,-0.03374999999999995,-0.1313333333333333,-0.17149999999999999,0.04166666666666674,-0.04833333333333201,-0.05666666666667197,1.4425,1.4715,37.149,28.981333333333332,36.974000000000004,34.358000000000004,56.230000000000004,33.833,57.6275,51.2535,54.078,33.056,56.2735,49.64933333333333,53.178,32.6435,56.194,49.09166666666667,0.0050000000000001155,-0.1200000000000001,0.10333,0.10436500000000001,0.0,206.085,205.98000000000002,202.81,202.81,0.0,0.0
4,0.0,0.0,0.0,1.0,1.0,0.0,0.0,1.0,0.0,100.0,1.0,1.1856,26.0,0.0,0.0,0.0,59.999996,0.0,26.0,26.0,26.0,26.0,-0.11611111111111105,0.2902,-0.023325000000000002,295.044,-2.7252,-2.8175,-1.466,-1.6185,-262.38,215.7375,190.911375,0.0,0.0,0.0,0.0,0.009333333333333334,-5.498166666666667,-5.498166666666667,-0.42800000000000005,-0.9700000000000002,-0.06377777777777771,-1.0999999999999999,65.90299999999999,-0.0693999999999999,-0.11064000000000002,1.2859999999999996,100.0,1.0,1.0,203.36,0.0,0.0,0.0,0.0,0.0,0.0,0.0,8619.6,0.0,55.0,5.0,237.22,0.0,0.0,0.0,0.0,0.0,0.0,0.0,0.0,0.20700000000000074,0.20700000000000074,0.0,0.0,0.0,55.0,616.79921,10000.0,85.000001,85.000001,85.000001,85.000001,395.0,0.0,0.0,0.0,1.0,333.33500000000004,57.846000000000004,57.846000000000004,47.546,47.546,34.0,-25.335,16.445,-33.15,22.865000000000002,0.0,1783.27,0.870000000000001,100.0,24.306,23.53,43.708,42.843,0.0,0.0,100.0,0.0,0.0,0.0,0.0,2789.0,2438.8,4237.777777777777,3882.0,306.4653333333333,307.0015,314.4915,315.14775,21.7926,20.4811,21.7655,21.3456,314.999998,314.999998,324.999988,324.999988,99.5596,99.5066,99.56101428571428,99.54434285714285,-0.03774999999999995,-0.1419999999999999,-0.2001666666666666,0.021666666666666723,-0.054999999999999716,-0.045000000000001705,1.4865,1.562,37.204,29.006999999999998,37.035,34.41,56.209,33.865,57.673,51.3125,54.058,33.085499999999996,56.316,49.705666666666666,53.158,32.672,56.234,49.14666666666667,0.01100000000000012,-0.12450000000000006,0.10895500000000001,0.09874500000000001,0.0,206.445,206.335,203.36,203.36,0.0,0.0
5,0.0,0.0,0.0,1.0,1.0,0.0,0.0,1.0,0.0,100.0,1.0,1.1856,26.0,0.0,0.0,0.0,59.999996,0.0,26.0,26.0,26.0,26.0,-0.1464444444444445,0.32310000000000016,-0.0451,295.197,-2.7409,-2.785,-1.5117500000000001,-1.6219000000000001,-259.02,215.72750000000002,190.891375,0.0,0.0,0.0,0.0,0.011300000000000001,-5.498166666666667,-5.498166666666667,-0.44270000000000004,0.5209999999999999,-0.06033333333333335,0.762,66.05199999999999,-0.08239999999999992,-0.10862000000000001,1.2420000000000009,100.0,1.0,1.0,203.91,0.0,0.0,0.0,0.0,0.0,0.0,0.0,8642.9,0.0,55.0,5.0,237.75666666666666,1.0,0.0,0.0,0.0,0.0,0.0,0.0,0.0,0.2579999999999991,0.2579999999999991,0.0,0.0,1.0,55.0,616.79921,10000.0,85.000001,85.000001,85.000001,85.000001,395.0,0.0,0.0,0.0,1.0,166.665,57.663,57.663,48.233000000000004,48.233000000000004,34.0,-25.997500000000002,17.505,-32.19333333333333,22.7325,0.0,1783.221,0.46000000000000085,100.0,24.468,23.4075,43.427,42.158,0.0,0.0,100.0,0.0,0.0,0.0,0.0,2800.125,2564.6,4050.0,4003.9,306.2416666666667,306.68625,314.95375,314.9535,21.8021,20.4856,21.7756,21.3542,314.999998,314.999998,324.999988,324.999988,99.55961428571429,99.5066,99.56115714285714,99.54448571428571,-0.041749999999999954,-0.1306666666666667,-0.21050000000000002,0.00550000000000006,-0.051666666666669414,-0.06333333333333258,1.5474999999999999,1.5945,37.263,29.035,37.097,34.463499999999996,56.19,33.9005,57.717,51.371,54.039,33.118,56.3575,49.76166666666667,53.138999999999996,32.703,56.2725,49.20166666666667,-0.0050000000000000044,-0.09850000000000003,0.11205000000000001,0.10086500000000001,0.0,206.96,206.85000000000002,203.91,203.91,0.0,0.0
6,0.0,0.0,0.0,1.0,1.0,0.0,0.0,1.0,0.0,100.0,1.0,1.1856,26.0,0.0,0.0,0.0,59.999996,0.0,26.0,26.0,26.0,26.0,-0.131,0.3207,0.00405,295.074,-2.6952,-2.8431,-1.5632000000000001,-1.5857,-255.84,215.715,190.872125,0.0,0.0,0.0,0.0,0.013133333333333335,-5.498166666666667,-5.498166666666667,-0.42250000000000004,0.06299999999999994,-0.062444444444444525,0.7370000000000001,66.197,-0.08439999999999992,-0.0873,0.9139999999999997,100.0,1.0,1.0,204.19,0.0,0.0,0.0,0.0,0.0,0.0,0.0,8654.8,0.0,55.0,5.0,238.27666666666667,0.0,0.0,0.0,0.0,0.0,0.0,0.0,0.0,0.30600000000000094,0.30600000000000094,0.0,0.0,0.0,55.0,616.79921,10000.0,85.000001,85.000001,85.000001,85.000001,395.0,0.0,0.0,0.0,1.0,333.33500000000004,58.273,58.273,47.394,47.394,34.0,-24.310000000000002,17.35333333333333,-35.20666666666666,24.9125,0.0,1783.172,0.5,100.0,24.089,23.049500000000002,43.581,42.289,0.0,0.0,100.0,0.0,0.0,0.0,0.0,2705.125,2489.2,4332.0,4209.6,306.5083333333333,306.92175,314.21575,314.42925,21.8109,20.4898,21.7852,21.3625,314.999998,314.999998,324.999988,324.999988,99.55961428571429,99.50661666666667,99.5613,99.54461428571429,-0.03149999999999986,-0.1293333333333333,-0.1925,0.022499999999999964,-0.051666666666669414,-0.04999999999999716,1.467,1.506,37.318,29.061,37.158,34.5155,56.17,33.9325,57.760999999999996,51.431,54.021,33.1475,56.399,49.81933333333333,53.12,32.731,56.311,49.257999999999996,-0.016000000000000014,-0.08899999999999997,0.10110000000000001,0.10788500000000001,0.0,207.385,207.315,204.19,204.19,0.0,0.0
7,0.0,0.0,0.0,1.0,1.0,0.0,0.0,1.0,0.0,100.0,1.0,1.1856,26.0,0.0,0.0,0.0,59.999996,0.0,26.0,26.0,26.0,26.0,-0.09111111111111103,0.3098000000000001,-0.008325,295.197,-2.6669,-2.8411,-1.52055,-1.6326,-252.46,215.7,190.85175,0.0,0.0,0.0,0.0,0.0151,-5.498166666666667,-5.498166666666667,-0.4279,0.1399999999999999,-0.056888888888888545,-0.43999999999999995,66.346,-0.08349999999999991,-0.09934,0.8399999999999999,100.0,1.0,1.0,204.73000000000002,0.0,0.0,0.0,0.0,0.0,0.0,0.0,8677.8,0.0,55.0,5.0,238.81333333333333,1.0,0.0,0.0,0.0,0.0,0.0,0.0,0.0,0.3569999999999993,0.3569999999999993,0.0,0.0,1.0,55.0,616.79921,10000.0,85.000001,85.000001,85.000001,85.000001,395.0,0.0,0.0,0.0,1.0,333.33500000000004,58.075,58.075,47.852000000000004,47.852000000000004,34.0,-24.8325,18.1,-32.85666666666667,23.315,0.0,1783.12,0.08999999999999986,100.0,23.971,23.157,43.549,42.534,0.0,0.0,100.0,0.0,0.0,0.0,0.0,2846.875,2470.3,4145.111111111111,3998.5,306.255,306.7755,314.7245,314.84675,21.8204,20.4943,21.7954,21.3714,314.999998,314.999998,324.999988,324.999988,99.55961428571429,99.50663333333333,99.56142857142858,99.54474285714285,-0.017249999999999988,-0.10833333333333317,-0.1998333333333333,0.009166666666666545,-0.05666666666667197,-0.04999999999999716,1.5185,1.558,37.376999999999995,29.089333333333336,37.221000000000004,34.571,56.15,33.967,57.8065,51.4935,54.001999999999995,33.1795,56.441,49.879,53.101,32.7615,56.351,49.31633333333333,-0.04949999999999999,-0.058499999999999996,0.10229,0.10734,0.0,207.845,207.765,204.73000000000002,204.73000000000002,0.0,0.0
8,0.0,0.0,0.0,1.0,1.0,0.0,0.0,1.0,0.0,100.0,1.0,1.1856,26.0,0.0,0.0,0.0,59.999996,0.0,26.0,26.0,26.0,26.0,-0.06488888888888888,0.2902,-0.044175,295.395,-2.7446,-2.7799,-1.49715,-1.6269,-248.88,215.6825,190.830125,0.0,0.0,0.0,0.0,0.017166666666666667,-5.498166666666667,-5.498166666666667,-0.42850000000000005,-0.25,-0.0477777777777777,-0.863,66.505,-0.06999999999999995,-0.09256,0.4220000000000006,100.0,1.0,1.0,205.2,0.0,0.0,0.0,0.0,0.0,0.0,0.0,8697.6,0.0,55.0,5.0,239.38666666666666,0.0,0.0,0.0,0.0,0.0,0.0,0.0,0.0,0.4109999999999978,0.4109999999999978,0.0,0.0,0.0,55.0,616.79921,10000.0,85.000001,85.000001,85.000001,85.000001,395.0,0.0,0.0,0.0,1.0,166.665,58.563,58.563,47.607,47.607,34.0,-23.7625,18.655,-31.11,24.9875,0.0,1783.068,-0.054999999999999716,100.0,23.526,22.986,43.539,42.589,0.0,0.0,100.0,0.0,0.0,0.0,0.0,2723.375,2531.1,4106.666666666667,4017.9,306.71866666666665,306.643,314.8075,314.792,21.8302,20.499,21.8062,21.3807,314.999998,314.999998,324.999988,324.999988,99.55961428571429,99.50665,99.56158571428571,99.54488571428571,-0.009749999999999925,-0.09199999999999986,-0.1785,0.037833333333333385,-0.06499999999999773,-0.04333333333332945,1.5244999999999997,1.52,37.439,29.119,37.288,34.6295,56.125,34.0025,57.854,51.56,53.979,33.212,56.486,49.94266666666667,53.078,32.792500000000004,56.3925,49.37833333333333,-0.05449999999999999,-0.04299999999999993,0.10412,0.10743000000000001,0.0,208.305,208.255,205.2,205.2,0.0,0.0
9,0.0,0.0,0.0,1.0,1.0,0.0,0.0,1.0,0.0,100.0,1.0,1.1856,26.0,0.0,0.0,0.0,59.999996,0.0,26.0,26.0,26.0,26.0,-0.040000000000000036,0.3066,-0.004175,295.074,-2.6704,-2.7892,-1.5491000000000001,-1.5794000000000001,-245.68,215.6625,190.810375,0.0,0.0,0.0,0.0,0.019033333333333336,-5.498166666666667,-5.498166666666667,-0.4244,0.38050000000000006,-0.05255555555555569,-0.4630000000000001,66.645,-0.055199999999999916,-0.08348,0.22599999999999998,100.0,1.0,1.0,205.61333333333334,0.0,0.0,0.0,0.0,0.0,0.0,0.0,8715.2,0.0,55.0,5.0,239.89,1.0,0.0,0.0,0.0,0.0,0.0,0.0,0.0,0.45899999999999963,0.45899999999999963,0.0,0.0,1.0,55.0,616.79921,10000.0,85.000001,85.000001,85.000001,85.000001,395.0,0.0,0.0,0.0,1.0,166.665,58.044,58.044,47.791,47.791,34.0,-23.8625,19.61,-31.57,26.11,0.0,1783.02,-0.25,100.0,23.783,23.114,43.397999999999996,42.647,0.0,0.0,100.0,0.0,0.0,0.0,0.0,2874.125,2557.5,4189.0,4136.3,306.191,306.5575,314.691,314.55375,21.839,20.5034,21.8157,21.389,314.999998,314.999998,324.999988,324.999988,99.55962857142858,99.50666666666666,99.56172857142857,99.54502857142857,0.016249999999999876,-0.07299999999999995,-0.16133333333333333,0.05750000000000011,-0.036666666666668846,-0.05666666666667197,1.5274999999999999,1.5375,37.494,29.146,37.348,34.6815,56.105000000000004,34.034,57.896,51.618,53.96,33.241,56.525,49.998333333333335,53.058,32.820499999999996,56.429,49.43266666666666,-0.07399999999999995,-0.030999999999999917,0.10350500000000001,0.109075,0.0,208.73000000000002,208.72,205.61333333333334,205.61333333333334,0.0,0.0
10,0.0,0.0,0.0,1.0,1.0,0.0,0.0,1.0,0.0,100.0,1.0,1.1856,26.0,0.0,0.0,0.0,59.999996,0.0,26.0,26.0,26.0,26.0,-0.031444444444444386,0.30720000000000014,0.01705,295.09,-2.7323,-2.7624,-1.5183499999999999,-1.5591,-242.28,215.64249999999998,190.78975,0.0,0.0,0.0,0.0,0.021033333333333334,-5.498166666666667,-5.498166666666667,-0.4169,-0.38500000000000023,-0.01766666666666694,1.5990000000000002,66.795,-0.03699999999999992,-0.08354,-0.13399999999999945,100.0,1.0,1.0,205.97,0.0,0.0,0.0,0.0,0.0,0.0,0.0,8730.3,0.0,55.0,5.0,240.43,0.0,0.0,0.0,0.0,0.0,0.0,1.0,0.0,0.509999999999998,0.509999999999998,0.0,0.0,0.0,55.0,616.79921,10000.0,85.000001,85.000001,85.000001,85.000001,395.0,0.0,0.0,0.0,1.0,166.665,58.609,58.609,47.287,47.287,34.0,-20.71,20.523333333333333,-30.263333333333335,28.6825,0.0,1782.968,-0.3699999999999992,100.0,23.703,22.8805,43.665,42.957,0.0,0.0,100.0,0.0,0.0,0.0,0.0,2569.375,2623.9,4171.444444444444,4343.7,306.946,306.579,314.59225,314.10375,21.848300000000002,20.5079,21.8259,21.3981,314.999998,314.999998,324.999988,324.999988,99.55962857142858,99.50666666666666,99.56187142857142,99.54517142857142,0.041749999999999954,-0.04933333333333323,-0.14100000000000001,0.07899999999999996,-0.04999999999999716,-0.041666666666671404,1.504,1.5055,37.552,29.174333333333333,37.412,34.738,56.084,34.066,57.9415,51.683,53.94,33.269999999999996,56.568,50.06033333333333,53.038,32.8485,56.469,49.49366666666667,-0.08050000000000002,-0.020499999999999963,0.1087,0.10049000000000001,0.0,209.18,209.185,205.97,205.97,0.0,0.0
11,0.0,0.0,0.0,1.0,1.0,0.0,0.0,1.0,0.0,100.0,1.0,1.1856,26.0,0.0,0.0,0.0,59.999996,0.0,26.0,26.0,26.0,26.0,-0.02011111111111108,0.2985,-0.0492,295.517,-2.7409,-2.7591,-1.5708,-1.5329000000000002,-239.07,215.6225,190.77025,0.0,0.0,0.0,0.0,0.022600000000000002,-5.498166666666667,-5.498166666666667,-0.4409,-0.16049999999999986,0.004444444444444251,0.8770000000000002,66.931,-0.01979999999999993,-0.09606,-0.30600000000000005,100.0,1.0,1.0,206.56666666666666,0.0,0.0,0.0,0.0,0.0,0.0,0.0,8755.6,0.0,55.0,5.0,240.92000000000002,1.0,0.0,0.0,0.0,0.0,0.0,1.0,0.0,0.5579999999999998,0.5579999999999998,0.0,0.0,1.0,55.0,616.79921,10000.0,85.000001,85.000001,85.000001,85.000001,395.0,0.0,0.0,0.0,1.0,166.665,58.548,58.548,48.111000000000004,48.111000000000004,34.0,-20.625,21.875,-27.68,27.245,0.0,1782.921,-0.6749999999999989,100.0,23.394,22.924,43.272,42.906,0.0,0.0,100.0,0.0,0.0,0.0,0.0,2616.0,2708.5,3914.5555555555557,4090.1000000000004,306.816,306.29625,315.2835,314.74875,21.8568,20.5122,21.8353,21.4064,314.999998,314.999998,324.999988,324.999988,99.55962857142858,99.50666666666666,99.562,99.5453,0.05874999999999986,-0.03299999999999992,-0.1273333333333333,0.10149999999999992,-0.060000000000002274,-0.05833333333333002,1.5699999999999998,1.551,37.605000000000004,29.201333333333334,37.471000000000004,34.79,56.063,34.096000000000004,57.9805,51.7415,53.92,33.298,56.604,50.11633333333333,53.018,32.875,56.5025,49.54833333333333,-0.08899999999999997,-0.01200000000000001,0.11502500000000002,0.10611000000000001,0.0,209.595,209.60000000000002,206.56666666666666,206.56666666666666,0.0,0.0
12,0.0,0.0,0.0,1.0,1.0,0.0,0.0,1.0,0.0,100.0,1.0,1.1856,26.0,0.0,0.0,0.0,59.999996,0.0,26.0,26.0,26.0,26.0,-0.00911111111111107,0.2996000000000001,0.001025,295.074,-2.7706,-2.7536,-1.5514000000000001,-1.5513,-235.85,215.6,190.749625,0.0,0.0,0.0,0.0,0.025466666666666665,-5.498166666666667,-5.498166666666667,-0.4308,0.39349999999999996,0.005777777777777882,0.8580000000000001,67.071,-9.999999999998899e-05,-0.0737,-0.41000000000000014,100.0,1.0,1.0,206.88333333333333,0.0,0.0,0.0,0.0,0.0,0.0,0.0,8769.0,0.0,55.0,5.0,241.42333333333335,0.0,0.0,0.0,0.0,0.0,0.0,1.0,0.0,0.6059999999999981,0.6059999999999981,0.0,0.0,0.0,55.0,616.79921,10000.0,85.000001,85.000001,85.000001,85.000001,395.0,0.0,0.0,0.0,1.0,166.665,58.304,58.304,47.318,47.318,34.0,-21.3125,22.071666666666665,-28.473333333333333,29.925,0.0,1782.873,-0.4350000000000005,100.0,23.427,23.161,43.165,42.941,0.0,0.0,100.0,0.0,0.0,0.0,0.0,2631.0,2759.0,4177.0,4276.8,306.761,306.11925,314.636,314.315,21.8654,20.5167,21.8448,21.4148,314.999998,314.999998,324.999988,324.999988,99.55964285714286,99.50666666666666,99.56214285714286,99.54544285714286,0.04999999999999982,-0.04066666666666663,-0.09999999999999998,0.11549999999999994,-0.051666666666669414,-0.060000000000002274,1.525,1.508,37.659,29.229333333333333,37.53,34.8425,56.043,34.1265,58.0205,51.8005,53.902,33.326,56.641999999999996,50.173,52.998999999999995,32.9015,56.538,49.60366666666667,-0.07350000000000001,-0.03600000000000003,0.10770500000000001,0.10458,0.0,210.05,210.06,206.88333333333333,206.88333333333333,0.0,0.0
13,0.0,0.0,0.0,1.0,1.0,0.0,0.0,1.0,0.0,100.0,1.0,1.1856,26.0,0.0,0.0,0.0,59.999996,0.0,26.0,26.0,26.0,26.0,0.04033333333333333,0.2882,0.024725,294.754,-2.7535,-2.7548,-1.5848,-1.5563,-232.43,215.57999999999998,190.728,0.0,0.0,0.0,0.0,0.02673333333333333,-5.498166666666667,-5.498166666666667,-0.4247,-0.2124999999999999,0.004111111111110954,-0.42600000000000016,67.218,0.009400000000000075,-0.08080000000000001,-0.33399999999999963,100.0,1.0,1.0,207.26333333333332,0.0,0.0,0.0,0.0,0.0,0.0,0.0,8785.1,0.0,55.0,5.0,241.95333333333335,1.0,0.0,0.0,0.0,0.0,0.0,1.0,0.0,0.657,0.657,0.0,0.0,1.0,55.0,616.79921,10000.0,85.000001,85.000001,85.000001,85.000001,395.0,0.0,0.0,0.0,1.0,333.33500000000004,58.150999999999996,58.150999999999996,47.073,47.073,34.0,-20.86,22.273333333333333,-29.916666666666664,30.7925,0.0,1782.82,-0.5299999999999994,100.0,23.463,23.482,43.374,43.525,0.0,0.0,100.0,0.0,0.0,0.0,0.0,2744.375,2627.1,4263.111111111111,4310.1,306.5996666666667,306.33975,314.461,314.10925,21.8745,20.5214,21.855,21.4239,314.999998,314.999998,324.999988,324.999988,99.55964285714286,99.50668333333333,99.56228571428571,99.54558571428572,0.08174999999999999,-0.004999999999999893,-0.10183333333333333,0.1186666666666667,-0.041666666666671404,-0.06499999999999773,1.48,1.4705,37.715,29.259,37.594,34.8995,56.022999999999996,34.158500000000004,58.0655,51.866,53.882999999999996,33.3555,56.684,50.23566666666667,52.980000000000004,32.93,56.577,49.665333333333336,-0.09399999999999997,-0.00550000000000006,0.10997000000000001,0.107825,0.0,210.49,210.51,207.26333333333332,207.26333333333332,0.0,0.0
14,0.0,0.0,0.0,1.0,1.0,0.0,0.0,1.0,0.0,100.0,1.0,1.1856,26.0,0.0,0.0,0.0,59.999996,0.0,26.0,26.0,26.0,26.0,0.04255555555555568,0.29170000000000007,-0.026025,294.952,-2.7653,-2.7668,-1.58105,-1.5479,-229.0,215.5575,190.70675,0.0,0.0,0.0,0.0,0.028733333333333333,-5.498166666666667,-5.498166666666667,-0.4368,-0.01849999999999996,0.024333333333333318,1.0659999999999998,67.362,0.017200000000000104,-0.09308,-0.5220000000000002,100.0,1.0,1.0,207.8,0.0,0.0,0.0,0.0,0.0,0.0,0.0,8807.9,0.0,55.0,5.0,242.47333333333336,0.0,0.0,0.0,0.0,0.0,0.0,1.0,0.0,0.7079999999999984,0.7079999999999984,0.0,0.0,0.0,55.0,616.79921,10000.0,85.000001,85.000001,85.000001,85.000001,395.0,0.0,0.0,0.0,1.0,166.665,58.136,58.136,47.394,47.394,34.0,-19.04,23.576666666666668,-26.403333333333336,30.3475,0.0,1782.771,-0.5800000000000001,100.0,23.593,23.48,43.396,43.55,0.0,0.0,100.0,0.0,0.0,0.0,0.0,2579.375,2749.2,4016.8888888888887,4215.2,306.91133333333335,306.0875,315.015,314.4345,21.883499999999998,20.5262,21.865099999999998,21.4329,314.999998,314.999998,324.999988,324.999988,99.55965714285715,99.50668333333333,99.56242857142857,99.54572857142857,0.10124999999999984,-0.0003333333333332966,-0.07783333333333331,0.13416666666666677,-0.03499999999999659,-0.060000000000002274,1.5390000000000001,1.5195,37.772,29.288666666666664,37.657,34.9555,56.003,34.191,58.108000000000004,51.9295,53.864000000000004,33.3855,56.7235,50.297,52.96,32.9585,56.613,49.725,-0.10299999999999998,-0.008499999999999952,0.10475000000000001,0.10355500000000001,0.0,210.93,210.945,207.8,207.8,0.0,0.0
15,0.0,0.0,0.0,1.0,1.0,0.0,0.0,1.0,0.0,100.0,1.0,1.1856,26.0,0.0,0.0,0.0,59.999996,0.0,26.0,26.0,26.0,26.0,0.05711111111111111,0.2881,0.002925,294.83,-2.7641999999999998,-2.7367,-1.5956000000000001,-1.5609000000000002,-225.76,215.54000000000002,190.68625,0.0,0.0,0.0,0.0,0.030633333333333332,-5.498166666666667,-5.498166666666667,-0.42810000000000004,0.26150000000000007,0.040000000000000036,0.778,67.499,0.024900000000000144,-0.07716,-0.5860000000000003,100.0,1.0,1.0,208.17666666666668,0.0,0.0,0.0,0.0,0.0,0.0,0.0,8823.8,0.0,55.0,5.0,242.96666666666667,1.0,0.0,0.0,0.0,0.0,0.0,1.0,0.0,0.7560000000000002,0.7560000000000002,0.0,0.0,1.0,55.0,616.79921,10000.0,85.000001,85.000001,85.000001,85.000001,395.0,0.0,0.0,0.0,1.0,166.665,58.182,58.182,47.15,47.15,34.0,-18.5875,23.333333333333332,-26.73,32.28,0.0,1782.723,-0.47499999999999964,100.0,23.608,23.5825,43.297,43.689,0.0,0.0,100.0,0.0,0.0,0.0,0.0,2516.125,2734.0,4093.777777777778,4331.9,307.1016666666667,306.1245,314.83975,314.12275,21.892,20.5307,21.8746,21.4414,314.999998,314.999998,324.999988,324.999988,99.55965714285715,99.50668333333333,99.56255714285714,99.54587142857143,0.09825000000000017,0.0030000000000001137,-0.06633333333333336,0.14483333333333337,-0.04333333333332945,-0.06499999999999773,1.5099999999999998,1.4945,37.825,29.317,37.716,35.0085,55.985,34.221000000000004,58.147,51.99,53.847,33.4135,56.76,50.355333333333334,52.943,32.9855,56.647,49.782333333333334,-0.09150000000000003,-0.012499999999999956,0.101985,0.10580500000000001,0.0,211.35000000000002,211.4,208.17666666666668,208.17666666666668,0.0,0.0
16,0.0,0.0,0.0,1.0,1.0,0.0,0.0,1.0,0.0,100.0,1.0,1.1856,26.0,0.0,0.0,0.0,59.999996,0.0,26.0,26.0,26.0,26.0,0.059111111111111114,0.27259999999999995,-0.008375,294.678,-2.8304,-2.6802,-1.5751,-1.5593,-222.31,215.51999999999998,190.66425,0.0,0.0,0.0,0.0,0.032633333333333334,-5.498166666666667,-5.498166666666667,-0.4398,-0.4630000000000001,0.02833333333333332,-1.133,67.644,0.029900000000000038,-0.08872000000000001,-0.3979999999999997,100.0,1.0,1.0,208.60333333333335,0.0,0.0,0.0,0.0,0.0,0.0,0.0,8842.0,0.0,55.0,5.0,243.49,0.0,0.0,0.0,0.0,0.0,0.0,1.0,0.0,0.8069999999999986,0.8069999999999986,0.0,0.0,0.0,55.0,616.79921,10000.0,85.000001,85.000001,85.000001,85.000001,395.0,0.0,0.0,0.0,1.0,333.33500000000004,57.938,57.938,46.844,46.844,34.0,-21.2625,23.196666666666665,-27.396666666666665,30.6575,0.0,1782.67,-0.40499999999999936,100.0,23.213,23.7935,43.477000000000004,43.977000000000004,0.0,0.0,100.0,0.0,0.0,0.0,0.0,2758.375,2753.7,4141.888888888889,4136.6,306.63433333333336,305.94775,314.77075,314.49625,21.9009,20.5355,21.8848,21.4504,314.999998,314.999998,324.999988,324.999988,99.55967142857143,99.50668333333333,99.5627,99.54601428571429,0.0887500000000001,0.0013333333333331865,-0.07833333333333337,0.14533333333333331,-0.03499999999999659,-0.054999999999999716,1.5114999999999998,1.5030000000000001,37.881,29.347,37.78,35.065,55.964,34.2535,58.1905,52.0545,53.827,33.443,56.801,50.417,52.922,33.013999999999996,56.685,49.842666666666666,-0.08750000000000002,-0.013000000000000123,0.10829000000000001,0.10518500000000001,0.0,211.785,211.815,208.60333333333335,208.60333333333335,0.0,0.0
17,0.0,0.0,0.0,1.0,1.0,0.0,0.0,1.0,0.0,100.0,1.0,1.1856,26.0,0.0,0.0,0.0,59.999996,0.0,26.0,26.0,26.0,26.0,0.04266666666666685,0.2862,0.0286,294.373,-2.6971,-2.6666,-1.5199500000000001,-1.5246,-218.66,215.5025,190.64075,0.0,0.0,0.0,0.0,0.03473333333333333,-5.498166666666667,-5.498166666666667,-0.4343,0.22350000000000003,0.003555555555555534,-0.956,67.79599999999999,0.027800000000000047,-0.07716,-0.266,100.0,1.0,1.0,209.0233333333333,0.0,0.0,0.0,0.0,0.0,0.0,0.0,8859.7,0.0,55.0,5.0,244.03666666666666,1.0,0.0,0.0,0.0,0.0,0.0,1.0,0.0,0.8610000000000007,0.8610000000000007,0.0,0.0,1.0,55.0,616.79921,10000.0,85.000001,85.000001,85.000001,85.000001,395.0,0.0,0.0,0.0,1.0,166.665,57.785,57.785,46.509,46.509,34.0,-20.33,22.288333333333334,-28.52,31.305,0.0,1782.617,-0.35999999999999943,100.0,23.58,23.9015,43.431,43.899,0.0,0.0,100.0,0.0,0.0,0.0,0.0,2748.25,2706.2,4384.777777777777,4310.3,306.52,306.09025,314.18225,314.16575,21.9105,20.5407,21.8955,21.46,314.999998,314.999998,324.999988,324.999988,99.55968571428572,99.50668333333333,99.56285714285714,99.54617142857143,0.08800000000000008,-0.008999999999999897,-0.07633333333333336,0.13749999999999996,-0.04999999999999716,-0.046666666666666856,1.488,1.4755,37.94,29.379333333333335,37.847,35.1245,55.943,34.2885,58.2355,52.1215,53.807,33.4755,56.8425,50.48133333333333,52.902,33.045,56.7235,49.906,-0.08150000000000002,-0.028999999999999915,0.10543500000000001,0.10667000000000001,0.0,212.28,212.305,209.0233333333333,209.0233333333333,0.0,0.0
18,0.0,0.0,0.0,1.0,1.0,0.0,0.0,1.0,0.0,100.0,1.0,1.1856,26.0,0.0,0.0,0.0,59.999996,0.0,26.0,26.0,26.0,26.0,0.01866666666666661,0.29200000000000004,0.0238,294.312,-2.7148,-2.6616,-1.60925,-1.4874,-215.6,215.4875,190.621,0.0,0.0,0.0,0.0,0.036533333333333334,-5.498166666666667,-5.498166666666667,-0.4446,-0.3679999999999999,0.010222222222222133,0.923,67.923,0.024800000000000155,-0.08678,-0.3120000000000003,100.0,1.0,1.0,209.40333333333334,0.0,0.0,0.0,0.0,0.0,0.0,0.0,8875.9,0.0,55.0,5.0,244.49333333333334,0.0,0.0,0.0,0.0,0.0,0.0,1.0,0.0,0.9059999999999988,0.9059999999999988,0.0,0.0,0.0,55.0,616.79921,10000.0,85.000001,85.000001,85.000001,85.000001,395.0,0.0,0.0,0.0,1.0,166.665,57.693,57.693,46.524,46.524,34.0,-19.7175,24.251666666666665,-29.4,30.765,0.0,1782.573,-0.379999999999999,100.0,23.671,23.6245,43.717,43.967,0.0,0.0,100.0,0.0,0.0,0.0,0.0,2673.25,2924.5,4246.888888888889,4362.4,306.6186666666667,305.6555,314.479,314.09775,21.9184,20.5449,21.9045,21.468,314.999998,314.999998,324.999988,324.999988,99.55968571428572,99.50668333333333,99.56298571428572,99.5463,0.0950000000000002,-0.0040000000000000036,-0.08750000000000002,0.131,-0.045000000000001705,-0.046666666666666856,1.4859999999999998,1.4775,37.989999999999995,29.40533333333333,37.903,35.175,55.925,34.316,58.274,52.178,53.79,33.501,56.8785,50.536,52.884,33.07,56.757,49.95933333333333,-0.07750000000000001,-0.028000000000000025,0.11297000000000001,0.10215500000000001,0.0,212.655,212.66,209.40333333333334,209.40333333333334,0.0,0.0
19,0.0,0.0,0.0,1.0,1.0,0.0,0.0,1.0,0.0,100.0,1.0,1.1856,26.0,0.0,0.0,0.0,59.999996,0.0,26.0,26.0,26.0,26.0,0.04655555555555568,0.29300000000000015,0.054400000000000004,294.113,-2.7196,-2.7583,-1.544,-1.6071,-212.13,215.4725,190.598375,0.0,0.0,0.0,0.0,0.038533333333333336,-5.498166666666667,-5.498166666666667,-0.43670000000000003,0.6285000000000001,0.01633333333333331,-0.7599999999999998,68.065,0.021300000000000097,-0.07882000000000002,-0.20199999999999996,100.0,1.0,1.0,209.84,0.0,0.0,0.0,0.0,0.0,0.0,0.0,8894.4,0.0,55.0,5.0,245.00333333333333,1.0,0.0,0.0,0.0,0.0,0.0,1.0,0.0,0.9570000000000007,0.9570000000000007,0.0,0.0,1.0,55.0,616.79921,10000.0,85.000001,85.000001,85.000001,85.000001,395.0,0.0,0.0,0.0,1.0,333.33500000000004,57.403999999999996,57.403999999999996,46.707,46.707,34.0,-20.79,22.386666666666667,-28.71,32.085,0.0,1782.52,-0.3349999999999991,100.0,23.987,24.2035,43.503,44.126999999999995,0.0,0.0,100.0,0.0,0.0,0.0,0.0,2756.75,2683.3,4267.111111111111,4357.0,306.5176666666667,306.02975,314.48725,313.9235,21.9275,20.5498,21.9146,21.477,314.999998,314.999998,324.999988,324.999988,99.55971428571429,99.50668333333333,99.56312857142858,99.54644285714286,0.08174999999999999,-0.024333333333333318,-0.08866666666666656,0.11749999999999994,-0.05666666666667197,-0.046666666666666856,1.4655,1.46,38.047,29.436,37.966,35.2315,55.906,34.35,58.315,52.2415,53.772999999999996,33.532,56.917,50.597,52.866,33.0995,56.792500000000004,50.019,-0.08250000000000002,-0.030000000000000027,0.105285,0.099985,0.0,213.135,213.13,209.84,209.84,0.0,0.0
20,0.0,0.0,0.0,1.0,1.0,0.0,0.0,1.0,0.0,100.0,1.0,1.1856,26.0,0.0,0.0,0.0,59.999996,0.0,26.0,26.0,26.0,26.0,0.04033333333333333,0.2593000000000001,-0.015675,294.418,-2.7902,-2.7001,-1.5507,-1.5917,-208.45,215.45749999999998,190.574625,0.0,0.0,0.0,0.0,0.04066666666666667,-5.498166666666667,-5.498166666666667,-0.4404,-0.835,0.016000000000000014,-0.9169999999999998,68.215,0.01990000000000003,-0.08816,-0.18799999999999972,100.0,1.0,1.0,210.31,0.0,0.0,0.0,0.0,0.0,0.0,0.0,8914.3,0.0,55.0,5.0,245.54666666666668,0.0,0.0,0.0,0.0,0.0,0.0,0.0,0.0,1.0109999999999992,1.0109999999999992,0.0,0.0,0.0,55.0,616.79921,10000.0,85.000001,85.000001,85.000001,85.000001,395.0,0.0,0.0,0.0,1.0,166.665,58.028999999999996,58.028999999999996,46.463,46.463,34.0,-20.6825,21.71,-28.423333333333336,30.34,0.0,1782.468,-0.29499999999999993,100.0,23.537,23.896,44.037,44.513000000000005,0.0,0.0,100.0,0.0,0.0,0.0,0.0,2702.0,2647.7,4191.888888888889,4112.6,306.7993333333333,306.29475,314.631,314.52475,21.9369,20.5548,21.9255,21.4867,314.999998,314.999998,324.999988,324.999988,99.55971428571429,99.5067,99.56328571428571,99.5466,0.08274999999999988,-0.01633333333333331,-0.09283333333333332,0.1286666666666667,-0.051666666666669414,-0.04999999999999716,1.4775,1.454,38.105000000000004,29.467666666666666,38.034,35.292,55.882999999999996,34.3835,58.362,52.3105,53.751000000000005,33.563,56.9615,50.663,52.844,33.1295,56.8335,50.083666666666666,-0.07850000000000001,-0.02849999999999997,0.11156500000000001,0.105825,0.0,213.56,213.57,210.31,210.31,0.0,0.0
21,0.0,0.0,0.0,1.0,1.0,0.0,0.0,1.0,0.0,100.0,1.0,1.1856,26.0,0.0,0.0,0.0,59.999996,0.0,26.0,26.0,26.0,26.0,0.0387777777777778,0.2844,-0.03855,294.617,-2.7901,-2.7147,-1.59795,-1.5362,-205.18,215.4425,190.553125,0.0,0.0,0.0,0.0,0.0426,-5.498166666666667,-5.498166666666667,-0.4575,0.12050000000000005,0.006000000000000005,-0.6509999999999998,68.346,0.019100000000000117,-0.08452000000000001,-0.1899999999999995,100.0,1.0,1.0,210.82,0.0,0.0,0.0,0.0,0.0,0.0,0.0,8935.9,0.0,55.0,5.0,246.01666666666665,1.0,0.0,0.0,0.0,0.0,0.0,0.0,0.0,1.059000000000001,1.059000000000001,0.0,0.0,1.0,55.0,616.79921,10000.0,85.000001,85.000001,85.000001,85.000001,395.0,0.0,0.0,0.0,1.0,166.665,57.877,57.877,47.089,47.089,34.0,-21.7,22.136666666666667,-28.166666666666664,28.6825,0.0,1782.42,-0.3049999999999997,100.0,23.596,23.7905,43.646,44.091,0.0,0.0,100.0,0.0,0.0,0.0,0.0,2790.875,2689.1,4137.111111111111,4095.5,306.5156666666667,306.1945,314.8335,314.7265,21.9453,20.5594,21.9349,21.4951,314.999998,314.999998,324.999988,324.999988,99.55972857142856,99.5067,99.56341428571429,99.54674285714286,0.07774999999999999,-0.0173333333333332,-0.09083333333333332,0.12549999999999994,-0.03833333333332689,-0.05666666666667197,1.5415,1.5394999999999999,38.158,29.496333333333332,38.093,35.3445,55.864000000000004,34.414,58.4,52.3675,53.733000000000004,33.591,56.9965,50.718,52.826,33.156,56.866,50.13733333333333,-0.07899999999999996,-0.033500000000000085,0.107605,0.10750000000000001,0.0,213.98000000000002,213.995,210.82,210.82,0.0,0.0
22,0.0,0.0,0.0,1.0,1.0,0.0,0.0,1.0,0.0,100.0,1.0,1.1856,26.0,0.0,0.0,0.0,59.999996,0.0,26.0,26.0,26.0,26.0,0.030000000000000027,0.2922,-0.0047,294.296,-2.8341,-2.6811,-1.61715,-1.5311,-201.89,215.43,190.530875,0.0,0.0,0.0,0.0,0.044500000000000005,-5.498166666666667,-5.498166666666667,-0.44120000000000004,0.121,0.01344444444444437,-0.5390000000000001,68.481,0.01540000000000008,-0.06094,-0.16799999999999926,100.0,1.0,1.0,211.07666666666665,0.0,0.0,0.0,0.0,0.0,0.0,0.0,8946.8,0.0,55.0,5.0,246.5,0.0,0.0,0.0,0.0,0.0,0.0,0.0,0.0,1.1069999999999993,1.1069999999999993,0.0,0.0,0.0,55.0,616.79921,10000.0,85.000001,85.000001,85.000001,85.000001,395.0,0.0,0.0,0.0,1.0,166.665,58.121,58.121,46.265,46.265,34.0,-20.9675,21.553333333333335,-31.526666666666667,30.95,0.0,1782.371,-0.4450000000000003,100.0,23.605,23.8515,43.76,44.173,0.0,0.0,100.0,0.0,0.0,0.0,0.0,2697.5,2639.7,4392.555555555556,4398.8,306.873,306.3695,314.23275,313.973,21.9537,20.564,21.944499999999998,21.5037,314.999998,314.999998,324.999988,324.999988,99.55974285714285,99.5067,99.56355714285715,99.54687142857144,0.08124999999999982,-0.0129999999999999,-0.10266666666666657,0.11533333333333329,-0.04999999999999716,-0.04833333333333201,1.4725000000000001,1.4735,38.21,29.52466666666667,38.153,35.397999999999996,55.845,34.444,58.441,52.4275,53.715,33.6195,57.035,50.775666666666666,52.807,33.183,56.9015,50.193666666666665,-0.08850000000000002,-0.019000000000000128,0.10958000000000001,0.10980000000000001,0.0,214.39499999999998,214.41,211.07666666666665,211.07666666666665,0.0,0.0
23,0.0,0.0,0.0,1.0,1.0,0.0,0.0,1.0,0.0,100.0,1.0,1.1856,26.0,0.0,0.0,0.0,59.999996,0.0,26.0,26.0,26.0,26.0,0.008888888888888946,0.278,0.0023250000000000002,294.113,-2.7289,-2.7272,-1.65565,-1.51,-198.39999999999998,215.42000000000002,190.507375,0.0,0.0,0.0,0.0,0.046533333333333336,-5.498166666666667,-5.498166666666667,-0.45530000000000004,-0.23099999999999987,0.014888888888888951,0.4910000000000001,68.619,0.012900000000000134,-0.08270000000000001,-0.2679999999999998,100.0,1.0,1.0,211.57333333333332,0.0,0.0,0.0,0.0,0.0,0.0,0.0,8967.8,0.0,55.0,5.0,247.0,1.0,0.0,0.0,0.0,0.0,0.0,0.0,0.0,1.1580000000000013,1.1580000000000013,0.0,0.0,1.0,55.0,616.79921,10000.0,85.000001,85.000001,85.000001,85.000001,395.0,0.0,0.0,0.0,1.0,333.33500000000004,57.495,57.495,46.677,46.677,34.0,-20.6675,23.325,-29.57,30.195,0.0,1782.319,-0.45500000000000007,100.0,23.942,23.8395,44.058,44.384,0.0,0.0,100.0,0.0,0.0,0.0,0.0,2771.25,2795.4,4216.333333333333,4257.6,306.317,305.996,314.63475,314.3755,21.9626,20.5689,21.9547,21.5128,314.999998,314.999998,324.999988,324.999988,99.55974285714285,99.50671666666666,99.5637,99.54701428571428,0.09600000000000009,-0.010999999999999899,-0.08566666666666656,0.13283333333333336,-0.03166666666666629,-0.06666666666666998,1.5,1.5045,38.266,29.555666666666667,38.217,35.455,55.826,34.477000000000004,58.4835,52.492,53.696,33.6495,57.075,50.83733333333333,52.788,33.2125,56.938,50.254333333333335,-0.09250000000000003,-0.024499999999999966,0.10695,0.108685,0.0,214.805,214.835,211.57333333333332,211.57333333333332,0.0,0.0
24,0.0,0.0,0.0,1.0,1.0,0.0,0.0,1.0,0.0,100.0,1.0,1.1856,26.0,0.0,0.0,0.0,59.999996,0.0,26.0,26.0,26.0,26.0,0.011888888888888838,0.28180000000000005,-0.049550000000000004,294.434,-2.7521,-2.7261,-1.56385,-1.5425,-195.1,215.4075,190.484875,0.0,0.0,0.0,0.0,0.048433333333333335,-5.498166666666667,-5.498166666666667,-0.46580000000000005,-0.38850000000000007,0.020999999999999908,1.157,68.751,0.014599999999999946,-0.0806,-0.33399999999999963,100.0,1.0,1.0,211.95,0.0,0.0,0.0,0.0,0.0,0.0,0.0,8983.7,0.0,55.0,5.0,247.47333333333336,0.0,0.0,0.0,0.0,0.0,0.0,0.0,0.0,1.2059999999999995,1.2059999999999995,0.0,0.0,0.0,55.0,616.79921,10000.0,85.000001,85.000001,85.000001,85.000001,395.0,0.0,0.0,0.0,1.0,166.665,58.289,58.289,46.402,46.402,34.0,-18.8825,22.081666666666667,-28.433333333333334,30.837500000000002,0.0,1782.273,-0.4599999999999991,100.0,23.825,23.6335,44.067,44.345,0.0,0.0,100.0,0.0,0.0,0.0,0.0,2527.875,2670.2,4241.777777777777,4263.8,307.088,306.4155,314.43125,314.35375,21.9708,20.5734,21.9643,21.5214,314.999998,314.999998,324.999988,324.999988,99.55975714285714,99.50671666666666,99.56382857142857,99.54715714285715,0.09050000000000002,-0.010666666666666602,-0.08116666666666661,0.1326666666666667,-0.03333333333333144,-0.04833333333333201,1.5,1.4755,38.318,29.583666666666666,38.277,35.5085,55.806,34.5065,58.5235,52.551,53.678,33.6765,57.112,50.894,52.769999999999996,33.238,56.9725,50.309666666666665,-0.08550000000000002,-0.020000000000000018,0.103355,0.11265000000000001,0.0,215.22500000000002,215.23000000000002,211.95,211.95,0.0,0.0
25,0.0,0.0,0.0,1.0,1.0,0.0,0.0,1.0,0.0,100.0,1.0,1.1856,26.0,0.0,0.0,0.0,59.999996,0.0,26.0,26.0,26.0,26.0,0.04200000000000004,0.28200000000000003,-0.023625,294.266,-2.8214,-2.6993,-1.6089,-1.5357,-191.59,215.3975,190.459625,0.0,0.0,0.0,0.0,0.050466666666666674,-5.498166666666667,-5.498166666666667,-0.48500000000000004,0.012499999999999956,0.028111111111110976,-0.8599999999999999,68.889,0.017800000000000038,-0.07784,-0.36799999999999944,100.0,1.0,1.0,212.43666666666667,0.0,0.0,0.0,0.0,0.0,0.0,0.0,9004.4,0.0,55.0,5.0,247.97,1.0,0.0,0.0,0.0,0.0,0.0,0.0,0.0,1.256999999999998,1.256999999999998,0.0,0.0,1.0,55.0,616.79921,10000.0,85.000001,85.000001,85.000001,85.000001,395.0,0.0,0.0,0.0,1.0,333.33500000000004,57.465,57.465,46.799,46.799,34.0,-22.662499999999998,23.846666666666668,-27.98,29.775000000000002,0.0,1782.219,-0.4399999999999995,100.0,23.564,23.9635,43.805,44.263000000000005,0.0,0.0,100.0,0.0,0.0,0.0,0.0,2881.0,2844.0,4104.777777777777,4192.7,306.315,305.70425,314.94,314.482,21.9795,20.5783,21.9744,21.5304,314.999998,314.999998,324.999988,324.999988,99.55977142857142,99.50671666666666,99.56398571428572,99.54731428571428,0.07925000000000004,-0.009333333333333194,-0.08933333333333338,0.1286666666666667,-0.06666666666666998,-0.03833333333332689,1.537,1.5234999999999999,38.372,29.614333333333335,38.34,35.565,55.785,34.5385,58.564,52.612,53.658,33.7065,57.15,50.953,52.748999999999995,33.266999999999996,57.0075,50.367333333333335,-0.08750000000000002,-0.019000000000000128,0.10929000000000001,0.103595,0.0,215.655,215.66,212.43666666666667,212.43666666666667,0.0,0.0
26,0.0,0.0,0.0,1.0,1.0,0.0,0.0,1.0,0.0,100.0,1.0,1.1856,26.0,0.0,0.0,0.0,59.999996,0.0,26.0,26.0,26.0,26.0,0.033777777777777906,0.2921,0.07795,293.442,-2.7473,-2.7845,-1.56905,-1.5463,-188.07,215.3875,190.434125,0.0,0.0,0.0,0.0,0.05253333333333334,-5.498166666666667,-5.498166666666667,-0.4551,0.47150000000000003,0.017111111111111077,0.8069999999999999,69.029,0.021300000000000097,-0.057420000000000006,-0.4119999999999999,100.0,1.0,1.0,212.65666666666667,0.0,0.0,0.0,0.0,0.0,0.0,0.0,9013.8,0.0,55.0,5.0,248.47666666666666,0.0,0.0,0.0,0.0,0.0,0.0,0.0,0.0,1.3079999999999998,1.3079999999999998,0.0,0.0,0.0,55.0,616.79921,10000.0,85.000001,85.000001,85.000001,85.000001,395.0,0.0,0.0,0.0,1.0,166.665,57.358,57.358,45.563,45.563,34.0,-19.78,23.23,-30.626666666666665,34.760000000000005,0.0,1782.17,-0.42499999999999893,100.0,24.396,24.2345,44.283,44.548,0.0,0.0,100.0,0.0,0.0,0.0,0.0,2692.875,2715.3,4507.444444444444,4617.1,306.5966666666667,306.18525,313.82175,313.50025,21.9885,20.5833,21.9846,21.5396,314.999998,314.999998,324.999988,324.999988,99.55977142857142,99.50671666666666,99.56412857142857,99.54745714285714,0.10450000000000026,-0.006000000000000005,-0.07483333333333331,0.14000000000000012,-0.03999999999999915,-0.045000000000001705,1.419,1.4144999999999999,38.428,29.645666666666664,38.403999999999996,35.6225,55.766999999999996,34.573,58.608000000000004,52.6775,53.641999999999996,33.738,57.191,51.01566666666667,52.732,33.297,57.045500000000004,50.428666666666665,-0.09750000000000003,-0.02849999999999997,0.10820500000000001,0.10918000000000001,0.0,216.10000000000002,216.125,212.65666666666667,212.65666666666667,0.0,0.0
27,0.0,0.0,0.0,1.0,1.0,0.0,0.0,1.0,0.0,100.0,1.0,1.1856,26.0,0.0,0.0,0.0,59.999996,0.0,26.0,26.0,26.0,26.0,0.04133333333333322,0.26580000000000004,-0.04295,293.884,-2.8213,-2.7198,-1.6299000000000001,-1.6184,-184.76,215.3775,190.411,0.0,0.0,0.0,0.0,0.05446666666666666,-5.498166666666667,-5.498166666666667,-0.47440000000000004,-0.8450000000000002,0.024666666666666615,0.7800000000000002,69.158,0.021200000000000108,-0.09136000000000001,-0.3719999999999999,100.0,1.0,1.0,213.17000000000002,0.0,0.0,0.0,0.0,0.0,0.0,0.0,9035.6,0.0,55.0,5.0,248.94,1.0,0.0,0.0,0.0,0.0,0.0,0.0,0.0,1.355999999999998,1.355999999999998,0.0,0.0,1.0,55.0,616.79921,10000.0,85.000001,85.000001,85.000001,85.000001,395.0,0.0,0.0,0.0,1.0,333.33500000000004,57.647999999999996,57.647999999999996,45.67,45.67,34.0,-19.3275,23.831666666666667,-28.883333333333333,31.997500000000002,0.0,1782.12,-0.4399999999999995,100.0,24.087,24.16,44.782,44.983000000000004,0.0,0.0,100.0,0.0,0.0,0.0,0.0,2579.5,2819.0,4187.888888888889,4173.3,307.0323333333333,305.93375,314.65025,314.4995,21.9967,20.588,21.9944,21.5483,314.999998,314.999998,324.999988,324.999988,99.55978571428571,99.50671666666666,99.56427142857143,99.54758571428572,0.10250000000000004,-0.0016666666666667052,-0.08216666666666661,0.14749999999999996,-0.021666666666668277,-0.061666666666667425,1.4994999999999998,1.475,38.479,29.674666666666667,38.465,35.677,55.748000000000005,34.6035,58.6495,52.738,53.623999999999995,33.7665,57.230000000000004,51.074,52.713,33.324,57.0815,50.48566666666667,-0.09099999999999997,-0.01849999999999996,0.1102,0.11317500000000001,0.0,216.44,216.49,213.17000000000002,213.17000000000002,0.0,0.0
28,0.0,0.0,0.0,1.0,1.0,0.0,0.0,1.0,0.0,100.0,1.0,1.1856,26.0,0.0,0.0,0.0,59.999996,0.0,26.0,26.0,26.0,26.0,0.055333333333333234,0.2834000000000001,-0.059575,294.037,-2.7535,-2.7117,-1.6430500000000001,-1.5727,-181.23000000000002,215.37,190.385625,0.0,0.0,0.0,0.0,0.0565,-5.498166666666667,-5.498166666666667,-0.4823,0.5245,0.009444444444444366,-1.003,69.292,0.0242,-0.07378,-0.3639999999999999,100.0,1.0,1.0,213.68333333333334,0.0,0.0,0.0,0.0,0.0,0.0,0.0,9057.2,0.0,55.0,5.0,249.42333333333335,0.0,0.0,0.0,0.0,0.0,0.0,0.0,0.0,1.407,1.407,0.0,0.0,0.0,55.0,616.79921,10000.0,85.000001,85.000001,85.000001,85.000001,395.0,0.0,0.0,0.0,1.0,333.33500000000004,57.525999999999996,57.525999999999996,46.402,46.402,34.0,-20.34,22.60333333333333,-28.83,30.517500000000002,0.0,1782.07,-0.4900000000000002,100.0,24.013,24.3115,44.174,44.688,0.0,0.0,100.0,0.0,0.0,0.0,0.0,2746.25,2683.3,4192.666666666667,4173.0,306.6123333333333,306.1535,314.77775,314.53425,22.0055,20.593,22.0044,21.5574,314.999998,314.999998,324.999988,324.999988,99.5598,99.50673333333333,99.56442857142856,99.54774285714285,0.09799999999999986,-0.004666666666666597,-0.08350000000000002,0.13549999999999995,-0.041666666666671404,-0.051666666666669414,1.5379999999999998,1.5175,38.534,29.706,38.527,35.7335,55.729,34.6365,58.6885,52.799,53.605000000000004,33.797,57.2665,51.132333333333335,52.694,33.3535,57.1145,50.54266666666666,-0.09550000000000003,-0.019500000000000073,0.105325,0.10598,0.0,216.905,216.925,213.68333333333334,213.68333333333334,0.0,0.0
29,0.0,0.0,0.0,1.0,1.0,0.0,0.0,1.0,0.0,100.0,1.0,1.1856,26.0,0.0,0.0,0.0,59.999996,0.0,26.0,26.0,26.0,26.0,0.04422222222222216,0.2631000000000001,-0.015975,293.854,-2.7292,-2.7779,-1.5863,-1.5563,-177.69,215.3625,190.359375,0.0,0.0,0.0,0.0,0.05856666666666666,-5.498166666666667,-5.498166666666667,-0.4824,-0.633,0.008000000000000007,0.8200000000000003,69.431,0.0242,-0.06704,-0.4579999999999993,100.0,1.0,1.0,213.93666666666667,0.0,0.0,0.0,0.0,0.0,0.0,0.0,9068.0,0.0,55.0,5.0,249.92333333333335,1.0,0.0,0.0,0.0,0.0,0.0,0.0,0.0,1.4579999999999984,1.4579999999999984,0.0,0.0,1.0,55.0,616.79921,10000.0,85.000001,85.000001,85.000001,85.000001,395.0,0.0,0.0,0.0,1.0,333.33500000000004,57.999,57.999,45.624,45.624,34.0,-18.555,23.618333333333332,-28.88,33.24,0.0,1782.019,-0.5649999999999995,100.0,23.852,23.953,44.682,44.868,0.0,0.0,100.0,0.0,0.0,0.0,0.0,2546.25,2714.6,4238.222222222223,4426.9,307.06266666666664,306.224,314.4545,313.9345,22.0141,20.5978,22.0147,21.5666,314.999998,314.999998,324.999988,324.999988,99.5598,99.50673333333333,99.56457142857143,99.5479,0.09949999999999992,0.008000000000000007,-0.08066666666666666,0.14200000000000013,-0.03499999999999659,-0.05666666666667197,1.4615,1.4409999999999998,38.588,29.736333333333334,38.592,35.7915,55.708,34.668,58.7325,52.8635,53.585,33.826,57.3075,51.19433333333333,52.674,33.3815,57.1525,50.603,-0.08850000000000002,-0.011500000000000066,0.10906500000000001,0.106825,0.0,217.32,217.34,213.93666666666667,213.93666666666667,0.0,0.0
30,0.0,0.0,0.0,1.0,1.0,0.0,0.0,1.0,0.0,100.0,1.0,1.1856,26.0,0.0,0.0,0.0,59.999996,0.0,26.0,26.0,26.0,26.0,0.059111111111111114,0.2681,-0.00045000000000000004,293.213,-2.7942,-2.7047,-1.65595,-1.4733,-174.14,215.35750000000002,190.332875,0.0,0.0,0.0,0.0,0.06063333333333334,-5.498166666666667,-5.498166666666667,-0.4853,0.8605,0.006666666666666599,-0.30600000000000005,69.564,0.026599999999999957,-0.07118,-0.45399999999999974,100.0,1.0,1.0,214.45333333333332,0.0,0.0,0.0,0.0,0.0,0.0,0.0,9089.9,0.0,55.0,5.0,250.40333333333334,0.0,0.0,0.0,0.0,0.0,0.0,1.0,0.0,1.5090000000000003,1.5090000000000003,0.0,0.0,0.0,55.0,616.79921,10000.0,85.000001,85.000001,85.000001,85.000001,395.0,0.0,0.0,0.0,1.0,166.665,56.213,56.213,45.975,45.975,34.0,-22.315,24.578333333333333,-29.9,29.6075,0.0,1781.969,-0.5449999999999999,100.0,24.659,24.7665,44.36,44.902,0.0,0.0,100.0,0.0,0.0,0.0,0.0,2947.375,2890.1,4311.888888888889,4259.7,305.90933333333334,305.37475,314.56275,314.48675,22.0231,20.603,22.0248,21.5758,314.999998,314.999998,324.999988,324.999988,99.55982857142857,99.50673333333333,99.56471428571429,99.54805714285715,0.10475000000000012,-0.009333333333333194,-0.07983333333333331,0.1323333333333332,-0.04833333333333201,-0.05333333333332746,1.501,1.492,38.644,29.768666666666668,38.655,35.8485,55.692,34.703,58.772999999999996,52.9255,53.57,33.8585,57.345,51.254,52.658,33.4125,57.187,50.66133333333333,-0.10549999999999993,-0.019000000000000128,0.10649000000000002,0.10107500000000001,0.0,217.745,217.775,214.45333333333332,214.45333333333332,0.0,0.0
31,0.0,0.0,0.0,1.0,1.0,0.0,0.0,1.0,0.0,100.0,1.0,1.1856,26.0,0.0,0.0,0.0,59.999996,0.0,26.0,26.0,26.0,26.0,0.06566666666666676,0.2816000000000001,0.069275,292.77,-2.8426,-2.681,-1.6612,-1.5459,-170.8,215.35500000000002,190.3085,0.0,0.0,0.0,0.0,0.06256666666666666,-5.498166666666667,-5.498166666666667,-0.46440000000000003,-0.3610000000000002,0.018888888888888955,-0.6000000000000001,69.694,0.027300000000000102,-0.07100000000000001,-0.3779999999999992,100.0,1.0,1.0,214.63,0.0,0.0,0.0,0.0,0.0,0.0,0.0,9097.4,0.0,55.0,5.0,250.87,1.0,0.0,0.0,0.0,0.0,0.0,1.0,0.0,1.5569999999999986,1.5569999999999986,0.0,0.0,1.0,55.0,616.79921,10000.0,85.000001,85.000001,85.000001,85.000001,395.0,0.0,0.0,0.0,1.0,166.665,56.885,56.885,44.464,44.464,34.0,-21.035,23.765,-31.80666666666667,34.7025,0.0,1781.922,-0.5849999999999991,100.0,24.431,24.8405,45.099000000000004,45.562,0.0,0.0,100.0,0.0,0.0,0.0,0.0,2778.875,2841.9,4509.111111111111,4580.1,306.63233333333335,305.76125,313.86,313.4025,22.0313,20.6077,22.0346,21.584699999999998,314.999998,314.999998,324.999988,324.999988,99.55982857142857,99.50673333333333,99.56485714285714,99.54818571428571,0.1027499999999999,-0.005666666666666709,-0.06966666666666665,0.1383333333333332,-0.05666666666667197,-0.03499999999999659,1.4114999999999998,1.3995,38.696,29.798333333333332,38.716,35.903999999999996,55.674,34.7345,58.816,52.989,53.554,33.8875,57.3855,51.315,52.641,33.4405,57.2245,50.721000000000004,-0.10399999999999998,-0.02100000000000013,0.09967500000000001,0.11106,0.0,218.155,218.155,214.63,214.63,0.0,0.0
32,0.0,0.0,0.0,1.0,1.0,0.0,0.0,1.0,0.0,100.0,1.0,1.1856,26.0,0.0,0.0,0.0,59.999996,0.0,26.0,26.0,26.0,26.0,0.04966666666666675,0.2683,-0.046325000000000005,293.503,-2.7602,-2.7469,-1.59695,-1.5568,-167.24,215.35250000000002,190.28325,0.0,0.0,0.0,0.0,0.06463333333333333,-5.498166666666667,-5.498166666666667,-0.4872,-0.31899999999999995,-0.004111111111110954,0.18700000000000028,69.826,0.02950000000000008,-0.09156,-0.5679999999999996,100.0,1.0,1.0,215.20666666666668,0.0,0.0,0.0,0.0,0.0,0.0,0.0,9121.8,0.0,55.0,5.0,251.34333333333336,0.0,0.0,0.0,0.0,0.0,0.0,1.0,0.0,1.6080000000000005,1.6080000000000005,0.0,0.0,0.0,55.0,616.79921,10000.0,85.000001,85.000001,85.000001,85.000001,395.0,0.0,0.0,0.0,1.0,166.665,57.312,57.312,45.685,45.685,34.0,-19.0075,23.758333333333333,-27.15,33.445,0.0,1781.871,-0.5949999999999989,100.0,24.434,24.5555,44.97,45.188,0.0,0.0,100.0,0.0,0.0,0.0,0.0,2638.625,2745.6,4156.222222222223,4385.1,306.77866666666665,306.13675,314.68825,314.12075,22.04,20.6128,22.0447,21.5939,314.999998,314.999998,324.999988,324.999988,99.55984285714285,99.50675,99.565,99.54834285714286,0.11624999999999996,0.009666666666666934,-0.06233333333333335,0.15766666666666684,-0.045000000000001705,-0.03999999999999915,1.5084999999999997,1.4765000000000001,38.75,29.83,38.778999999999996,35.962,55.655,34.768,58.8565,53.052,53.536,33.9185,57.4235,51.37566666666667,52.622,33.47,57.259,50.78033333333333,-0.10150000000000003,-0.013500000000000068,0.10329,0.11106,0.0,218.54000000000002,218.57,215.20666666666668,215.20666666666668,0.0,0.0
33,0.0,0.0,0.0,1.0,1.0,0.0,0.0,1.0,0.0,100.0,1.0,1.1856,26.0,0.0,0.0,0.0,59.999996,0.0,26.0,26.0,26.0,26.0,0.06566666666666676,0.26270000000000016,-0.053325000000000004,293.869,-2.7765,-2.7583,-1.60235,-1.5925,-163.68,215.35,190.25675,0.0,0.0,0.0,0.0,0.06670000000000001,-5.498166666666667,-5.498166666666667,-0.496,-0.1735000000000002,-0.006888888888889166,-0.0129999999999999,69.959,0.031200000000000117,-0.0697,-0.4639999999999995,100.0,1.0,1.0,215.64333333333332,0.0,0.0,0.0,0.0,0.0,0.0,0.0,9140.3,0.0,55.0,5.0,251.82333333333332,1.0,0.0,0.0,0.0,0.0,0.0,1.0,0.0,1.658999999999999,1.658999999999999,0.0,0.0,1.0,55.0,616.79921,10000.0,85.000001,85.000001,85.000001,85.000001,395.0,0.0,0.0,0.0,1.0,166.665,57.709,57.709,46.158,46.158,34.0,-19.93,22.051666666666666,-27.936666666666664,31.9775,0.0,1781.82,-0.5899999999999999,100.0,24.071,24.3325,44.592,44.998000000000005,0.0,0.0,100.0,0.0,0.0,0.0,0.0,2723.875,2589.9,4189.333333333333,4247.1,306.725,306.481,314.72525,314.37375,22.0487,20.6177,22.0548,21.6031,314.999998,314.999998,324.999988,324.999988,99.55985714285714,99.50675,99.56515714285715,99.54848571428572,0.1080000000000001,-0.002666666666666595,-0.0731666666666666,0.14183333333333326,-0.051666666666669414,-0.04833333333333201,1.5074999999999998,1.4795,38.804,29.860333333333333,38.842,36.019,55.635999999999996,34.799,58.8965,53.113,53.518,33.947,57.461,51.434333333333335,52.604,33.497,57.2935,50.83733333333333,-0.10849999999999993,-0.013000000000000123,0.098985,0.11227000000000001,0.0,218.96,218.97,215.64333333333332,215.64333333333332,0.0,0.0
34,0.0,0.0,0.0,1.0,1.0,0.0,0.0,1.0,0.0,100.0,1.0,1.1856,26.0,0.0,0.0,0.0,59.999996,0.0,26.0,26.0,26.0,26.0,0.0685555555555557,0.2683,-0.06330000000000001,294.037,-2.7409,-2.735,-1.6393,-1.5306000000000002,-160.32,215.35,190.230375,0.0,0.0,0.0,0.0,0.06866666666666667,-5.498166666666667,-5.498166666666667,-0.5185000000000001,-0.8759999999999999,0.0173333333333332,-0.34499999999999975,70.08500000000001,0.03320000000000012,-0.07204,-0.4479999999999995,100.0,1.0,1.0,215.97333333333333,0.0,0.0,0.0,0.0,0.0,0.0,0.0,9154.4,0.0,55.0,5.0,252.27666666666664,0.0,0.0,0.0,0.0,0.0,0.0,1.0,0.0,1.7070000000000007,1.7070000000000007,0.0,0.0,0.0,55.0,616.79921,10000.0,85.000001,85.000001,85.000001,85.000001,395.0,0.0,0.0,0.0,1.0,333.33500000000004,58.197,58.197,46.158,46.158,34.0,-18.419999999999998,21.47833333333333,-29.076666666666664,31.7525,0.0,1781.77,-0.5999999999999996,100.0,23.725,24.0595,44.451,45.131,0.0,0.0,100.0,0.0,0.0,0.0,0.0,2595.375,2543.6,4228.666666666667,4310.9,307.0566666666667,306.568,314.6425,314.22975,22.0567,20.6222,22.0643,21.6118,314.999998,314.999998,324.999988,324.999988,99.55987142857143,99.50675,99.56528571428571,99.54864285714285,0.11350000000000016,-0.003666666666666707,-0.07733333333333337,0.14349999999999996,-0.04999999999999716,-0.05333333333332746,1.4885000000000002,1.479,38.855000000000004,29.888666666666666,38.902,36.074,55.617000000000004,34.8275,58.9345,53.173500000000004,53.5,33.9735,57.496,51.492333333333335,52.585,33.5225,57.3255,50.894,-0.10299999999999998,-0.01200000000000001,0.10799500000000001,0.11528500000000001,0.0,219.335,219.345,215.97333333333336,215.97333333333333,0.0,0.0
35,0.0,0.0,0.0,1.0,1.0,0.0,0.0,1.0,0.0,100.0,1.0,1.1856,26.0,0.0,0.0,0.0,59.999996,0.0,26.0,26.0,26.0,26.0,0.0407777777777778,0.25370000000000004,-0.103825,294.022,-2.8686,-2.7195,-1.55165,-1.5878999999999999,-156.74,215.35250000000002,190.200625,0.0,0.0,0.0,0.0,0.07073333333333334,-5.498166666666667,-5.498166666666667,-0.5572,-0.12199999999999989,0.0020000000000000018,-0.07699999999999996,70.215,0.036799999999999944,-0.07987999999999999,-0.5659999999999998,100.0,1.0,1.0,216.49333333333334,0.0,0.0,0.0,0.0,0.0,0.0,0.0,9176.4,0.0,55.0,5.0,252.74666666666667,1.0,0.0,0.0,0.0,0.0,0.0,1.0,0.0,1.7579999999999991,1.7579999999999991,0.0,0.0,1.0,55.0,616.79921,10000.0,85.000001,85.000001,85.000001,85.000001,395.0,0.0,0.0,0.0,1.0,166.665,57.51,57.51,46.036,46.036,34.0,-20.5325,25.415,-25.71,31.16,0.0,1781.72,-0.3849999999999998,100.0,23.74,24.2255,44.322,44.668,0.0,0.0,100.0,0.0,0.0,0.0,0.0,2660.5,2946.2,4116.666666666667,4095.9,306.7583333333333,305.535,314.9085,314.8615,22.0652,20.627299999999998,22.0743,21.6209,314.999998,314.999998,324.999988,324.999988,99.55987142857143,99.50675,99.56544285714286,99.54878571428571,0.10099999999999998,0.005666666666666931,-0.057666666666666644,0.16116666666666668,-0.05333333333332746,-0.045000000000001705,1.54,1.521,38.907,29.920666666666666,38.964,36.1305,55.595,34.861,58.9735,53.2325,53.479,34.0045,57.5325,51.54933333333334,52.564,33.5525,57.3585,50.949666666666666,-0.08150000000000002,-0.025500000000000078,0.10308,0.10833000000000001,0.0,219.745,219.76999999999998,216.49333333333334,216.49333333333334,0.0,0.0
