,ABS Active,ABS Enabled,AID Allow Tire Blankets,AID Auto Blip,AID Auto Clutch,AID Auto Shift,AID Fuel Rate,AID Ideal Line,AID Mech Damage,AID Stability,AID Tire Wear Rate,Air Density,Air Temp,Ballast,Best Lap Delta,Best Lap Time,Brake Bias,Brake Pos,Brake Temp FL,Brake Temp FR,Brake Temp RL,Brake Temp RR,CG Accel Lateral,CG Accel Longitudinal,CG Accel Vertical,CG Height,Camber FL,Camber FR,Camber RL,Camber RR,Car Coord X,Car Coord Y,Car Coord Z,Car Damage Front,Car Damage Left,Car Damage Rear,Car Damage Right,Car Pos Norm,Caster FL,Caster FR,Chassis Pitch Angle,Chassis Pitch Rate,Chassis Roll Angle,Chassis Roll Rate,Chassis Velocity X,Chassis Velocity Y,Chassis Velocity Z,Chassis Yaw Rate,Clutch Pos,DRS Active,DRS Available,Drive Train Speed,ERS Heat Charging,ERS Is Charging,ERS Max Energy,ERS Power Level,ERS Recovery Level,Engine Brake Setting,Engine Limiter,Engine RPM,Flags,Fuel Level,Gear,Ground Speed,HR Sample Clock,In Pit,KERS Charge,KERS Deployed Energy,KERS Input,KERS Max Energy,LR Sample Clock,Lap Invalidated,Lap Time,Lap Time2,Last Lap Time,Last Sector Time,MR Sample Clock,Max Fuel,Max Power,Max RPM,Max Sus Travel FL,Max Sus Travel FR,Max Sus Travel RL,Max Sus Travel RR,Max Torque,Max Turbo Boost,Num Tires Off Track,Penalties Enabled,Position,Raw Data Sample Rate,Ride Height FL,Ride Height FR,Ride Height RL,Ride Height RR,Road Temp,Self Align Torque FL,Self Align Torque FR,Self Align Torque RL,Self Align Torque RR,Session Lap Count,Session Time Left,Steering Angle,Surface Grip,Suspension Travel FL,Suspension Travel FR,Suspension Travel RL,Suspension Travel RR,TC Active,TC Enabled,Throttle Pos,Tire Dirt Level FL,Tire Dirt Level FR,Tire Dirt Level RL,Tire Dirt Level RR,Tire Load FL,Tire Load FR,Tire Load RL,Tire Load RR,Tire Loaded Radius FL,Tire Loaded Radius FR,Tire Loaded Radius RL,Tire Loaded Radius RR,Tire Pressure FL,Tire Pressure FR,Tire Pressure RL,Tire Pressure RR,Tire Radius FL,Tire Radius FR,Tire Radius RL,Tire Radius RR,Tire Rubber Grip FL,Tire Rubber Grip FR,Tire Rubber Grip RL,Tire Rubber Grip RR,Tire Slip Angle FL,Tire Slip Angle FR,Tire Slip Angle RL,Tire Slip Angle RR,Tire Slip Ratio FL,Tire Slip Ratio FR,Tire Slip Ratio RL,Tire Slip Ratio RR,Tire Temp Core FL,Tire Temp Core FR,Tire Temp Core RL,Tire Temp Core RR,Tire Temp Inner FL,Tire Temp Inner FR,Tire Temp Inner RL,Tire Temp Inner RR,Tire Temp Middle FL,Tire Temp Middle FR,Tire Temp Middle RL,Tire Temp Middle RR,Tire Temp Outer FL,Tire Temp Outer FR,Tire Temp Outer RL,Tire Temp Outer RR,Toe In FL,Toe In FR,Toe In RL,Toe In RR,Turbo Boost,Wheel Angular Speed FL,Wheel Angular Speed FR,Wheel Angular Speed RL,Wheel Angular Speed RR,Wind Direction,Wind Speed
0,0.0,0.0,0.0,1.0,1.0,0.0,0.0,1.0,0.0,100.0,1.0,1.1856,26.0,0.0,0.0,0.0,59.99999,0.0,26.0,26.0,26.0,26.0,-0.0315,0.2679,0.0742,292.709,-2.796,-2.6074444444444445,-1.5737,-1.5087,-275.72,215.39499999999998,190.98725,0.0,0.0,0.0,0.0,0.0015666666666666051,-5.498166666666667,-5.498166666666667,-0.5601,2.252,0.008777777777777773,-0.09600000000000009,65.525,-0.0235,-0.219025,-0.11399999999999988,100.0,1.0,1.0,202.33333333333331,0.0,0.0,0.0,0.0,0.0,0.0,0.0,8576.1,0.0,55.0,5.0,235.85666666666668,0.0,0.0,0.0,0.0,0.0,0.0,0.0,0.0,0.0030000000000001137,0.0030000000000001137,0.0,0.0,0.0,55.0,616.79921,10000.0,85.0,85.0,85.0,85.0,395.0,0.0,0.0,0.0,1.0,20.0,50.476,50.476,48.400999999999996,48.400999999999996,34.0,-28.88,33.06,-28.763333333333335,26.045,0.0,1783.632,0.07000000000000028,100.0,27.737000000000002,27.627,40.908,40.834,0.0,0.0,100.0,0.0,0.0,0.0,0.0,3325.0,4308.9,4029.75,4073.6000000000004,304.5795,301.4626666666667,315.06175,314.71175,21.7444,20.5213,21.7809,21.3078,314.99999,314.99999,324.99998,324.99998,99.55728571428571,99.50748333333334,99.56601428571429,99.54507142857143,0.03699999999999992,-0.07266666666666666,-0.12933333333333336,0.08733333333333333,-0.04999999999999716,-0.05333333333332746,1.5514999999999999,1.5564999999999998,36.902,29.258,37.129999999999995,34.1735,55.744,34.5865,59.346000000000004,51.5905,53.705,33.7875,57.9595,49.949,52.897,33.3855,57.92,49.373666666666665,-0.07000000000000006,-0.08050000000000024,0.10544,0.10271000000000001,0.0,205.325,205.31,202.33333333333331,202.33333333333331,0.0,0.0
1,0.0,0.0,0.0,1.0,1.0,0.0,0.0,1.0,0.0,100.0,1.0,1.1856,26.0,0.0,0.0,0.0,59.999996,0.0,26.0,26.0,26.0,26.0,-0.05025,0.3176000000000001,0.141325,291.351,-2.6313,-2.701666666666667,-1.6246,-1.5565,-272.37,215.4025,190.966875,0.0,0.0,0.0,0.0,0.0034999999999999476,-5.498166666666667,-5.498166666666667,-0.44120000000000004,-0.6739999999999999,-0.05011111111111122,-0.3360000000000001,65.682,-0.017,-0.11962500000000001,0.5060000000000002,100.0,1.0,1.0,202.27666666666667,0.0,0.0,0.0,0.0,0.0,0.0,0.0,8573.7,0.0,55.0,5.0,236.42333333333335,1.0,0.0,0.0,0.0,0.0,0.0,0.0,0.0,0.053999999999998494,0.053999999999998494,0.0,0.0,1.0,55.0,616.79921,10000.0,85.000001,85.000001,85.000001,85.000001,395.0,0.0,0.0,0.0,1.0,166.665,54.321,54.321,45.334,45.334,34.0,-21.66,16.594,-36.07333333333334,37.3975,0.0,1783.581,0.3049999999999997,100.0,27.676,27.336,44.624,45.007999999999996,0.0,0.0,100.0,0.0,0.0,0.0,0.0,2787.4285714285716,2387.3,4628.375,5361.9,306.4315,307.21233333333333,313.3825,311.6385,21.7539,20.5264,21.7918,21.317,314.999998,314.999998,324.999988,324.999988,99.55728571428571,99.5075,99.56617142857142,99.54521428571428,0.0442499999999999,-0.09866666666666668,-0.12566666666666668,0.07666666666666667,-0.03833333333332689,-0.051666666666669414,1.3264999999999998,1.355,36.962,29.289666666666665,37.199,34.2315,55.727999999999994,34.624,59.3915,51.6595,53.69,33.822,58.001999999999995,50.015,52.881,33.4185,57.9595,49.438,-0.05349999999999988,-0.1030000000000002,0.10683000000000001,0.10218500000000001,0.0,205.8,205.775,202.27666666666667,202.27666666666667,0.0,0.0
2,0.0,0.0,0.0,1.0,1.0,0.0,0.0,1.0,0.0,100.0,1.0,1.1856,26.0,0.0,0.0,0.0,59.999996,0.0,26.0,26.0,26.0,26.0,-0.065625,0.26670000000000016,-0.018475000000000002,292.313,-2.6597,-2.6542222222222223,-1.5927,-1.5425,-268.82,215.4075,190.94625,0.0,0.0,0.0,0.0,0.005566666666666609,-5.498166666666667,-5.498166666666667,-0.5391,0.372,-0.013111111111111295,1.741,65.83,-0.0213,-0.22635000000000002,0.6639999999999997,100.0,1.0,1.0,203.46,0.0,0.0,0.0,0.0,0.0,0.0,0.0,8623.9,0.0,55.0,5.0,236.96,0.0,0.0,0.0,0.0,0.0,0.0,0.0,0.0,0.10800000000000054,0.10800000000000054,0.0,0.0,0.0,55.0,616.79921,10000.0,85.000001,85.000001,85.000001,85.000001,395.0,0.0,0.0,0.0,1.0,166.665,51.498,51.498,48.096000000000004,48.096000000000004,34.0,-29.355,22.684,-27.803333333333335,21.645,0.0,1783.526,0.41499999999999915,100.0,28.334,27.697,43.894,43.596000000000004,0.0,0.0,100.0,0.0,0.0,0.0,0.0,3420.857142857143,3187.4,3751.25,3620.3,304.394,304.4723333333333,315.69575,315.895,21.764499999999998,20.5318,21.8028,21.3261,314.999998,314.999998,324.999988,324.999988,99.5573,99.5075,99.56631428571428,99.54535714285714,0.016000000000000014,-0.1076666666666668,-0.16466666666666666,0.06883333333333333,-0.05666666666667197,-0.060000000000002274,1.6574999999999998,1.6905000000000001,37.028,29.323999999999998,37.268,34.2885,55.716,34.665,59.4295,51.7155,53.678,33.86,58.037,50.069,52.867999999999995,33.454499999999996,57.9915,49.491,-0.04600000000000004,-0.11100000000000021,0.112875,0.10402000000000002,0.0,206.23000000000002,206.18,203.46,203.46,0.0,0.0
3,0.0,0.0,0.0,1.0,1.0,0.0,0.0,1.0,0.0,100.0,1.0,1.1856,26.0,0.0,0.0,0.0,59.999996,0.0,26.0,26.0,26.0,26.0,-0.06825,0.3053000000000001,0.14427500000000001,291.916,-2.6897,-2.667,-1.5867,-1.4979,-265.86,215.4125,190.928625,0.0,0.0,0.0,0.0,0.007299999999999973,-5.498166666666667,-5.498166666666667,-0.4839,0.5215,0.01922222222222203,-1.2440000000000002,65.967,-0.031,-0.175825,0.6120000000000001,100.0,1.0,1.0,203.45333333333332,0.0,0.0,0.0,0.0,0.0,0.0,0.0,8623.6,0.0,55.0,5.0,237.45,1.0,0.0,0.0,0.0,0.0,0.0,0.0,0.0,0.1529999999999987,0.1529999999999987,0.0,0.0,1.0,55.0,616.79921,10000.0,85.000001,85.000001,85.000001,85.000001,395.0,0.0,0.0,0.0,1.0,333.33500000000004,52.826,52.826,46.021,46.021,34.0,-23.4675,21.326,-33.16,27.43,0.0,1783.48,0.5300000000000011,100.0,28.165,27.874,43.829,44.109,0.0,0.0,100.0,0.0,0.0,0.0,0.0,2842.285714285714,3033.4,4343.125,4289.2,306.231,305.11833333333334,314.23,314.0785,21.7731,20.5366,21.8121,21.3342,314.999998,314.999998,324.999988,324.999988,99.5573,99.50751666666666,99.56644285714286,99.54548571428572,0.02400000000000002,-0.10866666666666669,-0.14616666666666667,0.07583333333333334,-0.04333333333332945,-0.04833333333333201,1.4615,1.4754999999999998,37.082,29.354,37.326,34.338499999999996,55.702,34.703,59.463499999999996,51.774,53.664,33.894999999999996,58.0685,50.1255,52.854,33.488,58.0205,49.54633333333334,-0.03649999999999998,-0.11399999999999988,0.11256000000000001,0.10712,0.0,206.685,206.63,203.45333333333332,203.45333333333332,0.0,0.0
4,0.0,0.0,0.0,1.0,1.0,0.0,0.0,1.0,0.0,100.0,1.0,1.1856,26.0,0.0,0.0,0.0,59.999996,0.0,26.0,26.0,26.0,26.0,-0.08125,0.2973000000000001,-0.071425,292.45,-2.6693,-2.7332222222222224,-1.51535,-1.6094,-262.49,215.41500000000002,190.909375,0.0,0.0,0.0,0.0,0.009266666666666534,-5.498166666666667,-5.498166666666667,-0.5058,-0.9259999999999999,-0.04144444444444417,-0.4119999999999999,66.113,-0.039400000000000004,-0.203525,0.9459999999999997,100.0,1.0,1.0,204.04000000000002,0.0,0.0,0.0,0.0,0.0,0.0,0.0,8648.5,0.0,55.0,5.0,237.9766666666667,0.0,0.0,0.0,0.0,0.0,0.0,0.0,0.0,0.20400000000000063,0.20400000000000063,0.0,0.0,0.0,55.0,616.79921,10000.0,85.000001,85.000001,85.000001,85.000001,395.0,0.0,0.0,0.0,1.0,333.33500000000004,52.856,52.856,47.211,47.211,34.0,-26.02,19.418,-30.376666666666665,24.552500000000002,0.0,1783.43,0.6050000000000004,100.0,28.201999999999998,27.641,44.29,43.65,0.0,0.0,100.0,0.0,0.0,0.0,0.0,3053.142857142857,2799.1,4078.875,3920.4,305.5375,305.905,314.90475,315.073,21.7827,20.5417,21.8228,21.3431,314.999998,314.999998,324.999988,324.999988,99.55731428571428,99.50753333333333,99.56658571428571,99.54562857142857,0.009250000000000203,-0.1213333333333333,-0.1655,0.0545,-0.054999999999999716,-0.06333333333333258,1.5335,1.5779999999999998,37.141999999999996,29.385666666666665,37.391999999999996,34.3945,55.685,34.7415,59.504,51.8345,53.649,33.9305,58.1065,50.183,52.838,33.522,58.055,49.602666666666664,-0.02400000000000002,-0.1280000000000001,0.10729000000000001,0.10108500000000001,0.0,207.095,207.015,204.04000000000002,204.04000000000002,0.0,0.0
5,0.0,0.0,0.0,1.0,1.0,0.0,0.0,1.0,0.0,100.0,1.0,1.1856,26.0,0.0,0.0,0.0,59.999996,0.0,26.0,26.0,26.0,26.0,-0.080125,0.28,0.099425,292.694,-2.6364,-2.694,-1.55485,-1.5935,-259.11,215.41500000000002,190.8895,0.0,0.0,0.0,0.0,0.011233333333333317,-5.498166666666667,-5.498166666666667,-0.5364,-0.025500000000000078,-0.03100000000000014,0.381,66.258,-0.058,-0.22212500000000002,1.0020000000000007,100.0,1.0,1.0,204.59333333333333,0.0,0.0,0.0,0.0,0.0,0.0,0.0,8672.0,0.0,55.0,5.0,238.49666666666667,1.0,0.0,0.0,0.0,0.0,0.0,0.0,0.0,0.254999999999999,0.254999999999999,0.0,0.0,1.0,55.0,616.79921,10000.0,85.000001,85.000001,85.000001,85.000001,395.0,0.0,0.0,0.0,1.0,333.33500000000004,52.292,52.292,48.096000000000004,48.096000000000004,34.0,-27.025,21.168,-30.093333333333334,23.47,0.0,1783.379,0.254999999999999,100.0,28.2,27.672,43.589,42.743,0.0,0.0,100.0,0.0,0.0,0.0,0.0,3221.285714285714,3037.0,3911.75,3924.2,305.0695,305.1786666666667,315.32175,315.12325,21.7926,20.5469,21.833199999999998,21.3519,314.999998,314.999998,324.999988,324.999988,99.55731428571428,99.50755,99.56672857142857,99.54575714285714,0.016750000000000043,-0.11733333333333329,-0.1865,0.04016666666666666,-0.046666666666666856,-0.0833333333333286,1.5905,1.6155,37.204,29.418333333333333,37.458,34.449,55.672,34.7815,59.541,51.891999999999996,53.635999999999996,33.9675,58.1405,50.238,52.824,33.557,58.0865,49.656666666666666,-0.05899999999999994,-0.09450000000000003,0.10224000000000001,0.11192,0.0,207.595,207.505,204.59333333333333,204.59333333333333,0.0,0.0
6,0.0,0.0,0.0,1.0,1.0,0.0,0.0,1.0,0.0,100.0,1.0,1.1856,26.0,0.0,0.0,0.0,59.999996,0.0,26.0,26.0,26.0,26.0,-0.09025,0.3136000000000001,0.07075000000000001,292.694,-2.6784,-2.7558888888888893,-1.5087000000000002,-1.5678999999999998,-255.93,215.4125,190.87025,0.0,0.0,0.0,0.0,0.01306666666666656,-5.498166666666667,-5.498166666666667,-0.5246000000000001,-0.121,-0.040888888888888975,-0.42799999999999994,66.398,-0.0644,-0.20315,0.8000000000000007,100.0,1.0,1.0,204.87666666666667,0.0,0.0,0.0,0.0,0.0,0.0,0.0,8683.9,0.0,55.0,5.0,239.0,0.0,0.0,0.0,0.0,0.0,0.0,0.0,0.0,0.3030000000000008,0.3030000000000008,0.0,0.0,0.0,55.0,616.79921,10000.0,85.000001,85.000001,85.000001,85.000001,395.0,0.0,0.0,0.0,1.0,333.33500000000004,52.872,52.872,47.699,47.699,34.0,-27.064999999999998,19.654,-31.203333333333333,24.5,0.0,1783.331,0.40000000000000213,100.0,28.071,27.496,43.553,42.746,0.0,0.0,100.0,0.0,0.0,0.0,0.0,3141.857142857143,2834.8,4144.125,4074.0,305.351,305.76466666666664,314.7215,314.72075,21.8017,20.5518,21.8432,21.3603,314.999998,314.999998,324.999988,324.999988,99.55731428571428,99.50756666666666,99.56685714285715,99.5459,0.004999999999999893,-0.1286666666666667,-0.1705,0.04033333333333334,-0.051666666666669414,-0.045000000000001705,1.5299999999999998,1.5539999999999998,37.260999999999996,29.448666666666668,37.519999999999996,34.501999999999995,55.657,34.819,59.577,51.95,53.622,34.001999999999995,58.1745,50.294,52.81,33.59,58.1175,49.711333333333336,-0.05349999999999988,-0.10400000000000009,0.09606500000000001,0.10271000000000001,0.0,208.01,207.94,204.87666666666667,204.87666666666667,0.0,0.0
7,0.0,0.0,0.0,1.0,1.0,0.0,0.0,1.0,0.0,100.0,1.0,1.1856,26.0,0.0,0.0,0.0,59.999996,0.0,26.0,26.0,26.0,26.0,-0.085,0.29890000000000017,0.12560000000000002,292.664,-2.678,-2.760666666666667,-1.55655,-1.6169,-252.34,215.4075,190.8485,0.0,0.0,0.0,0.0,0.01516666666666655,-5.498166666666667,-5.498166666666667,-0.5254,-0.062000000000000055,-0.03588888888888908,0.394,66.551,-0.06910000000000001,-0.203875,0.6440000000000001,100.0,1.0,1.0,205.37666666666667,0.0,0.0,0.0,0.0,0.0,0.0,0.0,8705.2,0.0,55.0,5.0,239.55666666666667,1.0,0.0,0.0,0.0,0.0,0.0,0.0,0.0,0.3569999999999993,0.3569999999999993,0.0,0.0,1.0,55.0,616.79921,10000.0,85.000001,85.000001,85.000001,85.000001,395.0,0.0,0.0,0.0,1.0,166.665,52.704,52.704,47.684,47.684,34.0,-26.7925,21.305999999999997,-32.89333333333333,23.9075,0.0,1783.278,-0.14000000000000057,100.0,28.084,27.453,43.602000000000004,42.766999999999996,0.0,0.0,100.0,0.0,0.0,0.0,0.0,3198.714285714286,2920.4,4150.875,3979.8,305.174,305.52666666666664,314.74125,314.94075,21.8121,20.5573,21.8544,21.3697,314.999998,314.999998,324.999988,324.999988,99.55731428571428,99.50758333333333,99.56701428571428,99.54604285714285,0.025250000000000217,-0.10466666666666669,-0.19216666666666665,0.029166666666666667,-0.036666666666668846,-0.046666666666666856,1.5430000000000001,1.5604999999999998,37.326,29.483333333333334,37.59,34.561,55.643,34.861,59.6185,52.0135,53.608000000000004,34.0405,58.213,50.3545,52.795,33.626999999999995,58.153,49.77066666666666,-0.08450000000000002,-0.06950000000000012,0.10527500000000001,0.10279500000000001,0.0,208.47,208.405,205.37666666666667,205.37666666666667,0.0,0.0
8,0.0,0.0,0.0,1.0,1.0,0.0,0.0,1.0,0.0,100.0,1.0,1.1856,26.0,0.0,0.0,0.0,59.999996,0.0,26.0,26.0,26.0,26.0,-0.043000000000000003,0.2852000000000001,-0.148725,292.694,-2.6854,-2.695555555555556,-1.56895,-1.6129,-248.94,215.4025,190.827875,0.0,0.0,0.0,0.0,0.017133333333333334,-5.498166666666667,-5.498166666666667,-0.5277000000000001,0.10150000000000003,-0.027555555555555777,-0.573,66.696,-0.060500000000000005,-0.21075000000000002,0.21600000000000108,100.0,1.0,1.0,205.83333333333331,0.0,0.0,0.0,0.0,0.0,0.0,0.0,8724.5,0.0,55.0,5.0,240.07666666666665,0.0,0.0,0.0,0.0,0.0,0.0,0.0,0.0,0.40800000000000125,0.40800000000000125,0.0,0.0,0.0,55.0,616.79921,10000.0,85.000001,85.000001,85.000001,85.000001,395.0,0.0,0.0,0.0,1.0,166.665,52.795,52.795,47.409,47.409,34.0,-24.5125,22.024,-31.25,24.887500000000003,0.0,1783.226,-0.21999999999999886,100.0,28.049,27.593,43.603,43.007,0.0,0.0,100.0,0.0,0.0,0.0,0.0,3016.5714285714284,2979.3,4088.125,3958.9,305.6385,305.19666666666666,314.90075,314.99275,21.8218,20.5626,21.8649,21.3787,314.999998,314.999998,324.999988,324.999988,99.55731428571428,99.50758333333333,99.56715714285714,99.54618571428571,0.04200000000000026,-0.08966666666666678,-0.16783333333333333,0.054,-0.045000000000001705,-0.03999999999999915,1.544,1.5739999999999998,37.385999999999996,29.516666666666666,37.656,34.617,55.629000000000005,34.900999999999996,59.6565,52.0745,53.594,34.077,58.2485,50.413,52.78,33.662,58.1855,49.827666666666666,-0.09749999999999992,-0.05650000000000022,0.10695500000000001,0.109365,0.0,208.905,208.865,205.83333333333331,205.83333333333331,0.0,0.0
9,0.0,0.0,0.0,1.0,1.0,0.0,0.0,1.0,0.0,100.0,1.0,1.1856,26.0,0.0,0.0,0.0,59.999996,0.0,26.0,26.0,26.0,26.0,-0.03875,0.28970000000000007,-0.1559,292.496,-2.6611,-2.7172222222222224,-1.55135,-1.5766,-245.74,215.39499999999998,190.80825,0.0,0.0,0.0,0.0,0.018999999999999906,-5.498166666666667,-5.498166666666667,-0.524,0.405,-0.04244444444444451,-0.08699999999999997,66.832,-0.043300000000000005,-0.20572500000000002,0.009999999999999787,100.0,1.0,1.0,206.22333333333333,0.0,0.0,0.0,0.0,0.0,0.0,0.0,8741.0,0.0,55.0,5.0,240.56666666666666,1.0,0.0,0.0,0.0,0.0,0.0,0.0,0.0,0.4559999999999995,0.4559999999999995,0.0,0.0,1.0,55.0,616.79921,10000.0,85.000001,85.000001,85.000001,85.000001,395.0,0.0,0.0,0.0,1.0,166.665,52.521,52.521,47.607,47.607,34.0,-25.115,22.656,-30.346666666666664,26.6875,0.0,1783.18,-0.259999999999998,100.0,28.165,27.537,43.607,43.009,0.0,0.0,100.0,0.0,0.0,0.0,0.0,3137.285714285714,2974.4,4102.125,4084.4,305.218,305.23333333333335,314.87775,314.7095,21.8308,20.5677,21.8749,21.3872,314.999998,314.999998,324.999988,324.999988,99.55732857142857,99.50758333333333,99.56728571428572,99.54631428571429,0.05149999999999988,-0.07699999999999996,-0.15233333333333335,0.079,-0.04833333333333201,-0.03333333333333144,1.549,1.5535,37.443,29.548000000000002,37.718,34.67,55.616,34.938,59.693,52.131,53.583,34.111,58.2825,50.4675,52.768,33.6945,58.216499999999996,49.88066666666667,-0.09999999999999987,-0.04999999999999982,0.108505,0.114655,0.0,209.325,209.3,206.22333333333333,206.22333333333333,0.0,0.0
10,0.0,0.0,0.0,1.0,1.0,0.0,0.0,1.0,0.0,100.0,1.0,1.1856,26.0,0.0,0.0,0.0,59.999996,0.0,26.0,26.0,26.0,26.0,-0.0195,0.29300000000000015,-0.133525,292.557,-2.674,-2.693777777777778,-1.57095,-1.5586,-242.51999999999998,215.3875,190.78875,0.0,0.0,0.0,0.0,0.02086666666666659,-5.498166666666667,-5.498166666666667,-0.515,0.0625,-0.014000000000000234,0.888,66.968,-0.028300000000000002,-0.197275,-0.13200000000000056,100.0,1.0,1.0,206.58666666666667,0.0,0.0,0.0,0.0,0.0,0.0,0.0,8756.4,0.0,55.0,5.0,241.05666666666667,0.0,0.0,0.0,0.0,0.0,0.0,1.0,0.0,0.5040000000000013,0.5040000000000013,0.0,0.0,0.0,55.0,616.79921,10000.0,85.000001,85.000001,85.000001,85.000001,395.0,0.0,0.0,0.0,1.0,166.665,53.07,53.07,47.379,47.379,34.0,-22.9325,22.352,-30.173333333333336,27.585,0.0,1783.132,-0.3949999999999996,100.0,27.951999999999998,27.359,43.693,43.316,0.0,0.0,100.0,0.0,0.0,0.0,0.0,2974.285714285714,2926.6,4112.25,4205.6,305.699,305.4236666666667,314.8245,314.41225,21.8399,20.5726,21.884900000000002,21.395699999999998,314.999998,314.999998,324.999988,324.999988,99.55734285714286,99.5076,99.56742857142856,99.54644285714286,0.07100000000000017,-0.06800000000000006,-0.13883333333333334,0.08116666666666668,-0.02833333333332888,-0.03833333333332689,1.524,1.536,37.498999999999995,29.579,37.78,34.723,55.605000000000004,34.9735,59.7295,52.1885,53.572,34.144,58.3165,50.5225,52.756,33.7255,58.248,49.935,-0.11399999999999988,-0.04349999999999987,0.107505,0.10404000000000001,0.0,209.715,209.73000000000002,206.58666666666667,206.58666666666667,0.0,0.0
11,0.0,0.0,0.0,1.0,1.0,0.0,0.0,1.0,0.0,100.0,1.0,1.1856,26.0,0.0,0.0,0.0,59.999996,0.0,26.0,26.0,26.0,26.0,0.0045000000000000005,0.2841,0.06715,292.755,-2.6957,-2.691777777777778,-1.57645,-1.5349,-239.11,215.38,190.76775,0.0,0.0,0.0,0.0,0.022599999999999953,-5.498166666666667,-5.498166666666667,-0.5387000000000001,-0.637,0.008777777777777773,0.33299999999999996,67.11,-0.012100000000000001,-0.20665,-0.3520000000000003,100.0,1.0,1.0,207.0966666666667,0.0,0.0,0.0,0.0,0.0,0.0,0.0,8778.1,0.0,55.0,5.0,241.56666666666666,1.0,0.0,0.0,0.0,0.0,0.0,1.0,0.0,0.5549999999999997,0.5549999999999997,0.0,0.0,1.0,55.0,616.79921,10000.0,85.000001,85.000001,85.000001,85.000001,395.0,0.0,0.0,0.0,1.0,333.33500000000004,52.872,52.872,47.821,47.821,34.0,-23.2175,24.866,-27.15,27.740000000000002,0.0,1783.08,-0.384999999999998,100.0,27.793,27.282,43.453,43.345,0.0,0.0,100.0,0.0,0.0,0.0,0.0,3032.0,3140.7,3948.5,4066.0,305.676,304.927,315.22725,314.76875,21.8493,20.578,21.8954,21.4047,314.999998,314.999998,324.999988,324.999988,99.55734285714286,99.50761666666666,99.56757142857143,99.5466,0.07699999999999996,-0.048666666666666636,-0.1085,0.1135,-0.05666666666667197,-0.05833333333333002,1.5665,1.5455,37.558,29.612333333333332,37.846000000000004,34.7795,55.591,35.010999999999996,59.7655,52.249,53.558,34.1785,58.35,50.5805,52.741,33.7585,58.2785,49.99166666666667,-0.10799999999999987,-0.040000000000000036,0.10435000000000001,0.10953,0.0,210.135,210.18,207.0966666666667,207.0966666666667,0.0,0.0
12,0.0,0.0,0.0,1.0,1.0,0.0,0.0,1.0,0.0,100.0,1.0,1.1856,26.0,0.0,0.0,0.0,59.999996,0.0,26.0,26.0,26.0,26.0,0.016375,0.28669999999999995,-0.15385000000000001,292.358,-2.6915,-2.679222222222222,-1.57285,-1.5511,-235.68,215.3725,190.745875,0.0,0.0,0.0,0.0,0.025466666666666526,-5.498166666666667,-5.498166666666667,-0.5358,0.679,0.010555555555555651,0.17499999999999993,67.253,0.005200000000000001,-0.202875,-0.36799999999999944,100.0,1.0,1.0,207.49333333333334,0.0,0.0,0.0,0.0,0.0,0.0,0.0,8794.8,0.0,55.0,5.0,242.07999999999998,0.0,0.0,0.0,0.0,0.0,0.0,1.0,0.0,0.6059999999999981,0.6059999999999981,0.0,0.0,0.0,55.0,616.79921,10000.0,85.000001,85.000001,85.000001,85.000001,395.0,0.0,0.0,0.0,1.0,166.665,52.414,52.414,47.363,47.363,34.0,-23.3525,24.724,-28.446666666666665,29.552500000000002,0.0,1783.029,-0.3200000000000003,100.0,27.977,27.86,43.261,43.226,0.0,0.0,100.0,0.0,0.0,0.0,0.0,3052.857142857143,3121.3,4114.125,4189.8,305.453,304.76466666666664,314.853,314.486,21.8588,20.5835,21.9058,21.4137,314.999998,314.999998,324.999988,324.999988,99.55735714285714,99.50761666666666,99.56771428571429,99.54674285714286,0.08225000000000016,-0.05166666666666675,-0.1055,0.1235,-0.03333333333333144,-0.051666666666669414,1.5339999999999998,1.533,37.617000000000004,29.647,37.912,34.835499999999996,55.579,35.0505,59.802,52.309,53.547,34.2145,58.384,50.638,52.729,33.7935,58.3095,50.048,-0.09799999999999986,-0.05549999999999988,0.11055000000000001,0.104965,0.0,210.585,210.65,207.49333333333334,207.49333333333334,0.0,0.0
13,0.0,0.0,0.0,1.0,1.0,0.0,0.0,1.0,0.0,100.0,1.0,1.1856,26.0,0.0,0.0,0.0,59.999996,0.0,26.0,26.0,26.0,26.0,0.03875,0.27380000000000004,-0.14297500000000002,292.191,-2.6901,-2.6864444444444446,-1.5766,-1.5554000000000001,-232.45,215.365,190.725625,0.0,0.0,0.0,0.0,0.026733333333333387,-5.498166666666667,-5.498166666666667,-0.5191,0.19999999999999996,0.01388888888888884,0.44899999999999995,67.387,0.0085,-0.194075,-0.3099999999999996,100.0,1.0,1.0,207.84333333333333,0.0,0.0,0.0,0.0,0.0,0.0,0.0,8809.7,0.0,55.0,5.0,242.56333333333333,1.0,0.0,0.0,0.0,0.0,0.0,1.0,0.0,0.6539999999999999,0.6539999999999999,0.0,0.0,1.0,55.0,616.79921,10000.0,85.000001,85.000001,85.000001,85.000001,395.0,0.0,0.0,0.0,1.0,333.33500000000004,52.78,52.78,46.936,46.936,34.0,-21.2925,24.698,-28.503333333333334,30.645,0.0,1782.98,-0.3299999999999983,100.0,27.887,27.822,43.755,43.874,0.0,0.0,100.0,0.0,0.0,0.0,0.0,2982.5714285714284,2999.7,4129.75,4268.4,305.6735,305.169,314.78525,314.2655,21.8677,20.5887,21.9159,21.4223,314.999998,314.999998,324.999988,324.999988,99.55737142857143,99.50761666666666,99.56784285714286,99.54687142857144,0.1160000000000001,-0.02499999999999991,-0.10033333333333333,0.12616666666666668,-0.03166666666666629,-0.036666666666668846,1.5124999999999997,1.4935,37.673,29.679333333333332,37.974000000000004,34.8895,55.569,35.0865,59.838499999999996,52.368,53.537,34.248,58.417500000000004,50.695,52.718,33.825,58.34,50.10366666666667,-0.12199999999999989,-0.03500000000000014,0.10512500000000001,0.11203,0.0,211.01,211.035,207.84333333333333,207.84333333333333,0.0,0.0
14,0.0,0.0,0.0,1.0,1.0,0.0,0.0,1.0,0.0,100.0,1.0,1.1856,26.0,0.0,0.0,0.0,59.999996,0.0,26.0,26.0,26.0,26.0,0.03625,0.2856000000000001,0.1315,292.343,-2.6851,-2.703888888888889,-1.5836000000000001,-1.5543,-229.01,215.35750000000002,190.704125,0.0,0.0,0.0,0.0,0.02873333333333339,-5.498166666666667,-5.498166666666667,-0.5312,-0.37050000000000005,0.02344444444444438,0.17599999999999993,67.527,0.0122,-0.20092500000000002,-0.3379999999999992,100.0,1.0,1.0,208.34,0.0,0.0,0.0,0.0,0.0,0.0,0.0,8830.8,0.0,55.0,5.0,243.07,0.0,0.0,0.0,0.0,0.0,0.0,1.0,0.0,0.7049999999999983,0.7049999999999983,0.0,0.0,0.0,55.0,616.79921,10000.0,85.000001,85.000001,85.000001,85.000001,395.0,0.0,0.0,0.0,1.0,333.33500000000004,52.719,52.719,47.226,47.226,34.0,-22.482499999999998,25.66,-26.9,29.22,0.0,1782.929,-0.46999999999999886,100.0,27.667,27.663,43.706,43.998000000000005,0.0,0.0,100.0,0.0,0.0,0.0,0.0,3080.4285714285716,3126.3,4005.875,4111.1,305.559,304.90233333333333,315.096,314.653,21.8772,20.5942,21.9264,21.4314,314.999998,314.999998,324.999988,324.999988,99.55738571428572,99.50763333333333,99.568,99.54701428571428,0.10175000000000001,-0.03133333333333321,-0.0905,0.12833333333333335,-0.06833333333332803,-0.05333333333332746,1.553,1.5305,37.732,29.71333333333333,38.04,34.946,55.557,35.124,59.8745,52.4295,53.525,34.2825,58.451499999999996,50.754,52.706,33.8585,58.3705,50.16133333333333,-0.11250000000000004,-0.04400000000000004,0.09832,0.10986000000000001,0.0,211.45499999999998,211.465,208.34,208.34,0.0,0.0
15,0.0,0.0,0.0,1.0,1.0,0.0,0.0,1.0,0.0,100.0,1.0,1.1856,26.0,0.0,0.0,0.0,59.999996,0.0,26.0,26.0,26.0,26.0,0.047375,0.2812000000000001,0.15295,292.343,-2.6723,-2.6862222222222223,-1.5678,-1.5748,-225.76,215.35250000000002,190.68375,0.0,0.0,0.0,0.0,0.0306333333333334,-5.498166666666667,-5.498166666666667,-0.5283,0.04499999999999993,0.028888888888888964,0.09699999999999998,67.65899999999999,0.0148,-0.19642500000000002,-0.3779999999999992,100.0,1.0,1.0,208.73000000000002,0.0,0.0,0.0,0.0,0.0,0.0,0.0,8847.3,0.0,55.0,5.0,243.54333333333335,1.0,0.0,0.0,0.0,0.0,0.0,1.0,0.0,0.7530000000000001,0.7530000000000001,0.0,0.0,1.0,55.0,616.79921,10000.0,85.000001,85.000001,85.000001,85.000001,395.0,0.0,0.0,0.0,1.0,333.33500000000004,52.689,52.689,47.272,47.272,34.0,-22.415,25.427999999999997,-27.013333333333335,29.7075,0.0,1782.88,-0.3949999999999996,100.0,27.701999999999998,27.752,43.511,43.927,0.0,0.0,100.0,0.0,0.0,0.0,0.0,3076.714285714286,3119.0,4051.75,4113.0,305.5505,304.894,314.99675,314.63075,21.8861,20.5994,21.9363,21.4399,314.999998,314.999998,324.999988,324.999988,99.5574,99.50763333333333,99.56814285714286,99.54715714285715,0.10050000000000026,-0.032333333333333325,-0.08883333333333333,0.131,-0.045000000000001705,-0.06499999999999773,1.5425,1.5270000000000001,37.788,29.746000000000002,38.102000000000004,34.9995,55.546,35.162,59.9105,52.4905,53.515,34.317499999999995,58.4845,50.813,52.694,33.891999999999996,58.400999999999996,50.219,-0.11050000000000004,-0.047499999999999876,0.10315500000000001,0.11052000000000001,0.0,211.87,211.89499999999998,208.73000000000002,208.73000000000002,0.0,0.0
16,0.0,0.0,0.0,1.0,1.0,0.0,0.0,1.0,0.0,100.0,1.0,1.1856,26.0,0.0,0.0,0.0,59.999996,0.0,26.0,26.0,26.0,26.0,0.0485,0.27,-0.15095,292.191,-2.7369,-2.627888888888889,-1.5479500000000002,-1.5718,-222.31,215.345,190.66175,0.0,0.0,0.0,0.0,0.0326333333333334,-5.498166666666667,-5.498166666666667,-0.5344,-0.1140000000000001,0.021333333333333204,-0.4810000000000001,67.799,0.014100000000000001,-0.20205,-0.2579999999999991,100.0,1.0,1.0,209.14666666666668,0.0,0.0,0.0,0.0,0.0,0.0,0.0,8865.0,0.0,55.0,5.0,244.05,0.0,0.0,0.0,0.0,0.0,0.0,1.0,0.0,0.8039999999999985,0.8039999999999985,0.0,0.0,0.0,55.0,616.79921,10000.0,85.000001,85.000001,85.000001,85.000001,395.0,0.0,0.0,0.0,1.0,166.665,52.49,52.49,46.906,46.906,34.0,-22.7775,25.07,-26.933333333333334,29.3575,0.0,1782.831,-0.33500000000000085,100.0,27.726,27.934,43.743,44.078,0.0,0.0,100.0,0.0,0.0,0.0,0.0,3065.714285714286,3133.6,4061.125,4055.4,305.526,304.7323333333333,314.97375,314.76,21.8955,20.6049,21.9469,21.4491,314.999998,314.999998,324.999988,324.999988,99.5574,99.50765,99.56827142857144,99.5473,0.10524999999999984,-0.03533333333333322,-0.08983333333333333,0.13483333333333333,-0.03833333333332689,-0.03333333333333144,1.5284999999999997,1.532,37.847,29.780666666666665,38.168,35.0565,55.534,35.198,59.945499999999996,52.548500000000004,53.503,34.3505,58.516999999999996,50.8685,52.682,33.923500000000004,58.4305,50.273666666666664,-0.10299999999999998,-0.05250000000000021,0.104525,0.10912000000000001,0.0,212.285,212.29000000000002,209.14666666666668,209.14666666666668,0.0,0.0
17,0.0,0.0,0.0,1.0,1.0,0.0,0.0,1.0,0.0,100.0,1.0,1.1856,26.0,0.0,0.0,0.0,59.999996,0.0,26.0,26.0,26.0,26.0,0.012875000000000001,0.2876000000000001,0.195075,291.855,-2.6604,-2.617888888888889,-1.56265,-1.5362,-218.85,215.3425,190.6395,0.0,0.0,0.0,0.0,0.034633333333333294,-5.498166666666667,-5.498166666666667,-0.533,-0.02750000000000008,-0.004666666666666597,-0.30699999999999994,67.939,0.014100000000000001,-0.19587500000000002,-0.17999999999999972,100.0,1.0,1.0,209.51333333333332,0.0,0.0,0.0,0.0,0.0,0.0,0.0,8880.5,0.0,55.0,5.0,244.55,1.0,0.0,0.0,0.0,0.0,0.0,1.0,0.0,0.8550000000000004,0.8550000000000004,0.0,0.0,1.0,55.0,616.79921,10000.0,85.000001,85.000001,85.000001,85.000001,395.0,0.0,0.0,0.0,1.0,333.33500000000004,52.216,52.216,46.555,46.555,34.0,-23.384999999999998,25.656,-28.433333333333334,29.965,0.0,1782.778,-0.26500000000000057,100.0,27.86,27.91,43.874,44.049,0.0,0.0,100.0,0.0,0.0,0.0,0.0,3164.142857142857,3232.3,4196.625,4210.1,305.229,304.587,314.61525,314.44625,21.905,20.610500000000002,21.9574,21.458199999999998,314.999998,314.999998,324.999988,324.999988,99.55741428571429,99.50765,99.56842857142857,99.54745714285714,0.09474999999999989,-0.03633333333333311,-0.09116666666666667,0.12933333333333336,-0.02833333333332888,-0.09166666666666856,1.5095,1.5055,37.906,29.815666666666665,38.233999999999995,35.1135,55.522,35.239,59.9845,52.613,53.492000000000004,34.3885,58.5535,50.9305,52.669,33.9595,58.463499999999996,50.334666666666664,-0.09599999999999986,-0.05900000000000016,0.106995,0.10726500000000001,0.0,212.72,212.76,209.51333333333332,209.51333333333332,0.0,0.0
18,0.0,0.0,0.0,1.0,1.0,0.0,0.0,1.0,0.0,100.0,1.0,1.1856,26.0,0.0,0.0,0.0,59.999996,0.0,26.0,26.0,26.0,26.0,0.034875,0.27770000000000006,0.198375,291.824,-2.6517,-2.748555555555556,-1.54555,-1.5016,-215.57999999999998,215.3375,190.618375,0.0,0.0,0.0,0.0,0.03653333333333331,-5.498166666666667,-5.498166666666667,-0.5433,-0.5365,-0.0025555555555558662,0.251,68.069,0.012100000000000001,-0.201325,-0.14200000000000035,100.0,1.0,1.0,209.90333333333334,0.0,0.0,0.0,0.0,0.0,0.0,0.0,8897.1,0.0,55.0,5.0,245.02333333333334,0.0,0.0,0.0,0.0,0.0,0.0,1.0,0.0,0.9029999999999987,0.9029999999999987,0.0,0.0,0.0,55.0,616.79921,10000.0,85.000001,85.000001,85.000001,85.000001,395.0,0.0,0.0,0.0,1.0,333.33500000000004,52.307,52.307,46.677,46.677,34.0,-23.7025,26.116,-27.47,29.845,0.0,1782.731,-0.254999999999999,100.0,27.859,27.908,44.063,44.222,0.0,0.0,100.0,0.0,0.0,0.0,0.0,3176.714285714286,3171.5,4100.0,4265.9,305.2665,304.703,314.822,314.2865,21.913899999999998,20.6156,21.9674,21.4668,314.999998,314.999998,324.999988,324.999988,99.55742857142857,99.50765,99.56855714285714,99.54757142857143,0.08650000000000002,-0.04266666666666663,-0.09083333333333334,0.12483333333333334,-0.05333333333332746,-0.054999999999999716,1.5005000000000002,1.4849999999999999,37.962,29.847666666666665,38.296,35.167500000000004,55.512,35.2715,60.016999999999996,52.667,53.482,34.4185,58.584,50.9825,52.658,33.9885,58.491,50.385333333333335,-0.09499999999999997,-0.052999999999999936,0.098915,0.10715000000000001,0.0,213.135,213.13,209.90333333333334,209.90333333333334,0.0,0.0
19,0.0,0.0,0.0,1.0,1.0,0.0,0.0,1.0,0.0,100.0,1.0,1.1856,26.0,0.0,0.0,0.0,59.999996,0.0,26.0,26.0,26.0,26.0,0.030375,0.2722,0.18165,291.779,-2.6369,-2.7056666666666667,-1.55145,-1.6167,-211.89999999999998,215.335,190.594375,0.0,0.0,0.0,0.0,0.038666666666666516,-5.498166666666667,-5.498166666666667,-0.5352,0.378,0.012777777777777777,-0.0030000000000001137,68.214,0.0076,-0.193775,-0.09200000000000053,100.0,1.0,1.0,210.39666666666668,0.0,0.0,0.0,0.0,0.0,0.0,0.0,8917.9,0.0,55.0,5.0,245.54333333333335,1.0,0.0,0.0,0.0,0.0,0.0,1.0,0.0,0.9570000000000007,0.9570000000000007,0.0,0.0,1.0,55.0,616.79921,10000.0,85.000001,85.000001,85.000001,85.000001,395.0,0.0,0.0,0.0,1.0,166.665,52.094,52.094,46.906,46.906,34.0,-23.19,24.884,-28.273333333333333,30.125,0.0,1782.678,-0.17999999999999972,100.0,28.279,28.251,43.857,44.35,0.0,0.0,100.0,0.0,0.0,0.0,0.0,3131.0,3109.7,4100.625,4159.8,305.3795,304.876,314.8885,314.47725,21.9241,20.6216,21.9785,21.476399999999998,314.999998,314.999998,324.999988,324.999988,99.55744285714286,99.50766666666667,99.56871428571428,99.54772857142858,0.08674999999999988,-0.04933333333333323,-0.10683333333333334,0.116,-0.046666666666666856,-0.051666666666669414,1.5070000000000001,1.5025,38.025999999999996,29.885333333333335,38.366,35.2275,55.501000000000005,35.3135,60.0545,52.7315,53.471000000000004,34.457,58.618,51.0445,52.647,34.0255,58.5225,50.446333333333335,-0.09299999999999997,-0.06300000000000017,0.10867500000000001,0.10434,0.0,213.60500000000002,213.60000000000002,210.39666666666668,210.39666666666668,0.0,0.0
20,0.0,0.0,0.0,1.0,1.0,0.0,0.0,1.0,0.0,100.0,1.0,1.1856,26.0,0.0,0.0,0.0,59.999996,0.0,26.0,26.0,26.0,26.0,0.023125,0.2630000000000001,0.085175,291.718,-2.7007,-2.647111111111111,-1.5349,-1.6061,-208.62,215.33249999999998,190.573125,0.0,0.0,0.0,0.0,0.04056666666666653,-5.498166666666667,-5.498166666666667,-0.5358,-0.815,0.009333333333333194,-0.16599999999999993,68.344,0.0054,-0.196725,-0.047999999999999154,100.0,1.0,1.0,210.76666666666665,0.0,0.0,0.0,0.0,0.0,0.0,0.0,8933.6,0.0,55.0,5.0,246.01,0.0,0.0,0.0,0.0,0.0,0.0,0.0,0.0,1.004999999999999,1.004999999999999,0.0,0.0,0.0,55.0,616.79921,10000.0,85.000001,85.000001,85.000001,85.000001,395.0,0.0,0.0,0.0,1.0,166.665,52.399,52.399,46.295,46.295,34.0,-23.085,24.146,-28.183333333333334,29.745,0.0,1782.631,-0.14999999999999858,100.0,28.137,28.137,44.567,44.816,0.0,0.0,100.0,0.0,0.0,0.0,0.0,3062.4285714285716,3095.1,4089.875,4067.1000000000004,305.631,305.036,314.88125,314.69875,21.9329,20.6268,21.9885,21.4851,314.999998,314.999998,324.999988,324.999988,99.55745714285715,99.50766666666667,99.56884285714285,99.54787142857143,0.08775000000000022,-0.04800000000000004,-0.11033333333333332,0.12766666666666668,-0.04333333333332945,-0.051666666666669414,1.5074999999999998,1.5034999999999998,38.081,29.917666666666666,38.428,35.282,55.489000000000004,35.349000000000004,60.0905,52.79,53.459,34.49,58.652,51.101,52.634,34.057,58.553,50.501333333333335,-0.09599999999999986,-0.0625,0.10934500000000001,0.107895,0.0,213.97,213.965,210.76666666666665,210.76666666666665,0.0,0.0
21,0.0,0.0,0.0,1.0,1.0,0.0,0.0,1.0,0.0,100.0,1.0,1.1856,26.0,0.0,0.0,0.0,59.999996,0.0,26.0,26.0,26.0,26.0,0.01,0.2714000000000001,0.11760000000000001,291.779,-2.7128,-2.63,-1.58115,-1.5488,-205.34,215.32999999999998,190.551375,0.0,0.0,0.0,0.0,0.04249999999999998,-5.498166666666667,-5.498166666666667,-0.5608000000000001,-0.4105000000000001,-0.0016666666666669272,-0.04899999999999993,68.471,0.0038,-0.20865,-0.03000000000000025,100.0,1.0,1.0,211.21666666666667,0.0,0.0,0.0,0.0,0.0,0.0,0.0,8952.6,0.0,55.0,5.0,246.47,1.0,0.0,0.0,0.0,0.0,0.0,0.0,0.0,1.0530000000000008,1.0530000000000008,0.0,0.0,1.0,55.0,616.79921,10000.0,85.000001,85.000001,85.000001,85.000001,395.0,0.0,0.0,0.0,1.0,166.665,51.91,51.91,46.89,46.89,34.0,-25.0025,25.082,-28.483333333333334,28.085,0.0,1782.582,-0.17999999999999972,100.0,28.191,28.089,44.176,44.305,0.0,0.0,100.0,0.0,0.0,0.0,0.0,3271.5714285714284,3200.1,4064.0,4057.6000000000004,305.0435,304.75266666666664,314.99375,314.82575,21.9418,20.632,21.9984,21.4936,314.999998,314.999998,324.999988,324.999988,99.55747142857143,99.50768333333333,99.56897142857143,99.54801428571429,0.08800000000000008,-0.04400000000000004,-0.112,0.11733333333333333,-0.061666666666667425,-0.054999999999999716,1.5394999999999999,1.5455,38.135999999999996,29.950333333333333,38.489999999999995,35.335499999999996,55.477999999999994,35.3855,60.1235,52.846000000000004,53.449,34.5235,58.6825,51.1545,52.622,34.089,58.5805,50.553666666666665,-0.09399999999999986,-0.06300000000000017,0.11306500000000001,0.107105,0.0,214.38,214.375,211.21666666666667,211.21666666666667,0.0,0.0
22,0.0,0.0,0.0,1.0,1.0,0.0,0.0,1.0,0.0,100.0,1.0,1.1856,26.0,0.0,0.0,0.0,59.999996,0.0,26.0,26.0,26.0,26.0,0.009375,0.2812000000000001,-0.144325,291.58,-2.7528,-2.660555555555556,-1.61155,-1.5438,-201.85,215.3275,190.527875,0.0,0.0,0.0,0.0,0.044533333333333314,-5.498166666666667,-5.498166666666667,-0.5474,0.402,0.007111111111111068,0.19799999999999995,68.608,0.00030000000000000003,-0.193075,-0.07399999999999984,100.0,1.0,1.0,211.54333333333335,0.0,0.0,0.0,0.0,0.0,0.0,0.0,8966.5,0.0,55.0,5.0,246.96333333333334,0.0,0.0,0.0,0.0,0.0,0.0,0.0,0.0,1.1039999999999992,1.1039999999999992,0.0,0.0,0.0,55.0,616.79921,10000.0,85.000001,85.000001,85.000001,85.000001,395.0,0.0,0.0,0.0,1.0,333.33500000000004,52.185,52.185,46.31,46.31,34.0,-23.575,24.228,-30.24,30.515,0.0,1782.529,-0.3000000000000007,100.0,28.409,28.308,44.203,44.278,0.0,0.0,100.0,0.0,0.0,0.0,0.0,3078.4285714285716,3076.3,4244.375,4318.2,305.522,304.97266666666667,314.57475,314.208,21.9512,20.6377,22.0089,21.5028,314.999998,314.999998,324.999988,324.999988,99.55748571428572,99.50768333333333,99.56912857142858,99.54815714285715,0.09250000000000025,-0.048666666666666636,-0.10566666666666667,0.11900000000000001,-0.02833333333332888,-0.04999999999999716,1.509,1.4929999999999999,38.195,29.985333333333333,38.556,35.3925,55.467,35.4245,60.1605,52.9065,53.438,34.5595,58.717,51.2125,52.611000000000004,34.1235,58.6115,50.61066666666667,-0.10399999999999987,-0.05750000000000011,0.104995,0.10955000000000001,0.0,214.805,214.82,211.54333333333335,211.54333333333335,0.0,0.0
23,0.0,0.0,0.0,1.0,1.0,0.0,0.0,1.0,0.0,100.0,1.0,1.1856,26.0,0.0,0.0,0.0,59.999996,0.0,26.0,26.0,26.0,26.0,0.004875,0.28200000000000003,0.15737500000000001,291.367,-2.6543,-2.689,-1.65015,-1.5559,-198.34,215.3275,190.50425,0.0,0.0,0.0,0.0,0.046566666666666534,-5.498166666666667,-5.498166666666667,-0.5513,-0.33950000000000014,0.0029999999999998916,-0.08000000000000007,68.744,0.0016,-0.19445,-0.14399999999999924,100.0,1.0,1.0,211.96333333333334,0.0,0.0,0.0,0.0,0.0,0.0,0.0,8984.4,0.0,55.0,5.0,247.45,1.0,0.0,0.0,0.0,0.0,0.0,0.0,0.0,1.1550000000000011,1.1550000000000011,0.0,0.0,1.0,55.0,616.79921,10000.0,85.000001,85.000001,85.000001,85.000001,395.0,0.0,0.0,0.0,1.0,166.665,51.926,51.926,46.265,46.265,34.0,-24.425,24.772,-30.806666666666665,29.965,0.0,1782.48,-0.259999999999998,100.0,28.32,28.177,44.507,44.65,0.0,0.0,100.0,0.0,0.0,0.0,0.0,3251.5714285714284,3126.6,4271.125,4213.0,305.0275,304.9053333333333,314.5505,314.45925,21.9605,20.6433,22.0195,21.512,314.999998,314.999998,324.999988,324.999988,99.55748571428572,99.50768333333333,99.56927142857143,99.5483,0.08650000000000002,-0.05033333333333312,-0.10350000000000001,0.123,-0.03833333333332689,-0.05833333333333002,1.5190000000000001,1.5,38.253,30.020333333333333,38.622,35.45,55.455,35.463499999999996,60.197,52.968,53.427,34.5955,58.751,51.2715,52.598,34.158,58.6425,50.66833333333334,-0.10450000000000004,-0.05799999999999983,0.10254,0.1136,0.0,215.215,215.22,211.96333333333334,211.96333333333334,0.0,0.0
24,0.0,0.0,0.0,1.0,1.0,0.0,0.0,1.0,0.0,100.0,1.0,1.1856,26.0,0.0,0.0,0.0,59.999996,0.0,26.0,26.0,26.0,26.0,0.010875000000000001,0.2721,0.102525,291.702,-2.6848,-2.6657777777777776,-1.5642,-1.573,-195.04,215.325,190.481625,0.0,0.0,0.0,0.0,0.04846666666666655,-5.498166666666667,-5.498166666666667,-0.5693,-0.7105000000000001,0.015444444444444372,0.486,68.87,0.0044,-0.203575,-0.15399999999999991,100.0,1.0,1.0,212.36,0.0,0.0,0.0,0.0,0.0,0.0,0.0,9001.2,0.0,55.0,5.0,247.90666666666667,0.0,0.0,0.0,0.0,0.0,0.0,0.0,0.0,1.2029999999999994,1.2029999999999994,0.0,0.0,0.0,55.0,616.79921,10000.0,85.000001,85.000001,85.000001,85.000001,395.0,0.0,0.0,0.0,1.0,333.33500000000004,52.429,52.429,46.31,46.31,34.0,-22.9575,24.194,-29.15,29.6025,0.0,1782.431,-0.28000000000000114,100.0,28.2,28.082,44.486000000000004,44.597,0.0,0.0,100.0,0.0,0.0,0.0,0.0,3056.714285714286,3083.0,4141.375,4151.9,305.6315,305.081,314.74375,314.56,21.9692,20.6484,22.0295,21.520699999999998,314.999998,314.999998,324.999988,324.999988,99.5575,99.5077,99.56941428571429,99.54844285714286,0.08700000000000019,-0.048666666666666636,-0.112,0.11966666666666667,-0.07000000000000028,-0.04833333333333201,1.508,1.4994999999999998,38.308,30.052666666666667,38.684,35.504,55.444,35.4985,60.231,53.0245,53.416,34.6275,58.7825,51.326499999999996,52.587,34.1885,58.671,50.721666666666664,-0.09999999999999987,-0.053999999999999826,0.11053500000000001,0.112115,0.0,215.61,215.595,212.36,212.36,0.0,0.0
25,0.0,0.0,0.0,1.0,1.0,0.0,0.0,1.0,0.0,100.0,1.0,1.1856,26.0,0.0,0.0,0.0,59.999996,0.0,26.0,26.0,26.0,26.0,0.014875000000000001,0.2733000000000001,-0.170125,291.565,-2.7397,-2.6445555555555558,-1.59955,-1.5669,-191.51999999999998,215.325,190.4565,0.0,0.0,0.0,0.0,0.05053333333333332,-5.498166666666667,-5.498166666666667,-0.5920000000000001,0.1965,0.018444444444444263,-0.41100000000000003,69.004,0.0055000000000000005,-0.211375,-0.20000000000000018,100.0,1.0,1.0,212.82666666666665,0.0,0.0,0.0,0.0,0.0,0.0,0.0,9021.0,0.0,55.0,5.0,248.38666666666666,1.0,0.0,0.0,0.0,0.0,0.0,0.0,0.0,1.2540000000000013,1.2540000000000013,0.0,0.0,1.0,55.0,616.79921,10000.0,85.000001,85.000001,85.000001,85.000001,395.0,0.0,0.0,0.0,1.0,166.665,51.498,51.498,46.875,46.875,34.0,-24.96,26.16,-27.88,29.009999999999998,0.0,1782.381,-0.3099999999999987,100.0,28.389,28.436,44.019,44.213,0.0,0.0,100.0,0.0,0.0,0.0,0.0,3261.5714285714284,3266.4,4054.25,4116.5,304.9795,304.3546666666667,315.0695,314.673,21.9784,20.6541,22.0399,21.5298,314.999998,314.999998,324.999988,324.999988,99.55751428571429,99.5077,99.56955714285715,99.54858571428572,0.09600000000000009,-0.04200000000000004,-0.099,0.1205,-0.01833333333333087,-0.04999999999999716,1.5554999999999999,1.5505,38.364999999999995,30.08833333333333,38.748999999999995,35.561,55.432,35.5375,60.265,53.0835,53.403999999999996,34.664,58.814,51.382999999999996,52.574,34.223,58.6995,50.77733333333333,-0.10650000000000004,-0.053999999999999826,0.10457500000000002,0.09954,0.0,216.0,216.01999999999998,212.82666666666665,212.82666666666665,0.0,0.0
26,0.0,0.0,0.0,1.0,1.0,0.0,0.0,1.0,0.0,100.0,1.0,1.1856,26.0,0.0,0.0,0.0,59.999996,0.0,26.0,26.0,26.0,26.0,0.015875,0.26780000000000004,-0.11797500000000001,290.833,-2.7038,-2.6546666666666665,-1.5660500000000002,-1.571,-187.79,215.3225,190.4295,0.0,0.0,0.0,0.0,0.05269999999999997,-5.498166666666667,-5.498166666666667,-0.5581,0.6355,0.00855555555555565,0.391,69.147,0.0098,-0.18560000000000001,-0.21200000000000063,100.0,1.0,1.0,213.10333333333335,0.0,0.0,0.0,0.0,0.0,0.0,0.0,9032.7,0.0,55.0,5.0,248.9,0.0,0.0,0.0,0.0,0.0,0.0,0.0,0.0,1.3079999999999998,1.3079999999999998,0.0,0.0,0.0,55.0,616.79921,10000.0,85.000001,85.000001,85.000001,85.000001,395.0,0.0,0.0,0.0,1.0,166.665,51.59,51.59,45.7,45.7,34.0,-23.3875,23.84,-30.386666666666663,32.175,0.0,1782.328,-0.29499999999999815,100.0,28.957,28.771,44.707,44.864000000000004,0.0,0.0,100.0,0.0,0.0,0.0,0.0,3153.714285714286,3058.1,4363.0,4396.4,305.2305,305.06166666666667,314.2705,313.95025,21.9884,20.6602,22.051099999999998,21.5396,314.999998,314.999998,324.999988,324.999988,99.55752857142858,99.5077,99.56971428571428,99.54874285714286,0.10400000000000009,-0.05233333333333312,-0.09633333333333333,0.12433333333333334,-0.03999999999999915,-0.030000000000001137,1.4535,1.4579999999999997,38.428,30.126333333333335,38.819,35.6225,55.422,35.58,60.305,53.149,53.394999999999996,34.703,58.8515,51.446,52.564,34.260999999999996,58.7335,50.83866666666667,-0.11149999999999993,-0.06349999999999989,0.10644500000000001,0.10762000000000001,0.0,216.47500000000002,216.49,213.10333333333335,213.10333333333335,0.0,0.0
27,0.0,0.0,0.0,1.0,1.0,0.0,0.0,1.0,0.0,100.0,1.0,1.1856,26.0,0.0,0.0,0.0,59.999996,0.0,26.0,26.0,26.0,26.0,0.019375,0.25750000000000006,0.053475,291.092,-2.7499000000000002,-2.666666666666667,-1.6295000000000002,-1.5527,-184.68,215.3225,190.407625,0.0,0.0,0.0,0.0,0.05449999999999999,-5.498166666666667,-5.498166666666667,-0.5747,-1.0305,0.018777777777777782,0.10899999999999999,69.263,0.0112,-0.20550000000000002,-0.25399999999999956,100.0,1.0,1.0,213.52666666666667,0.0,0.0,0.0,0.0,0.0,0.0,0.0,9050.6,0.0,55.0,5.0,249.32,1.0,0.0,0.0,0.0,0.0,0.0,0.0,0.0,1.352999999999998,1.352999999999998,0.0,0.0,1.0,55.0,616.79921,10000.0,85.000001,85.000001,85.000001,85.000001,395.0,0.0,0.0,0.0,1.0,333.33500000000004,51.849000000000004,51.849000000000004,45.471000000000004,45.471000000000004,34.0,-23.1325,25.1,-30.063333333333333,29.86,0.0,1782.281,-0.3000000000000007,100.0,28.612000000000002,28.642,45.124,45.21,0.0,0.0,100.0,0.0,0.0,0.0,0.0,3065.0,3186.7,4193.875,4176.8,305.6825,304.7373333333333,314.704,314.5815,21.9965,20.6652,22.0605,21.5478,314.999998,314.999998,324.999988,324.999988,99.55752857142858,99.50771666666667,99.56984285714286,99.54887142857143,0.09675000000000011,-0.05066666666666664,-0.1045,0.127,-0.03999999999999915,-0.05333333333332746,1.499,1.4925000000000002,38.477999999999994,30.157333333333334,38.878,35.674,55.412,35.614,60.338,53.2035,53.385,34.7345,58.882,51.4985,52.553,34.2905,58.7615,50.89,-0.10349999999999993,-0.06000000000000005,0.10633000000000001,0.107035,0.0,216.8,216.81,213.52666666666667,213.52666666666667,0.0,0.0
28,0.0,0.0,0.0,1.0,1.0,0.0,0.0,1.0,0.0,100.0,1.0,1.1856,26.0,0.0,0.0,0.0,59.999996,0.0,26.0,26.0,26.0,26.0,0.03175,0.24609999999999999,-0.192475,291.26,-2.6743,-2.6528888888888886,-1.63625,-1.5802,-181.14,215.325,190.38225,0.0,0.0,0.0,0.0,0.05656666666666654,-5.498166666666667,-5.498166666666667,-0.5941000000000001,0.5295,0.0021111111111109526,-0.34299999999999997,69.394,0.0129,-0.21565,-0.26200000000000045,100.0,1.0,1.0,214.02666666666667,0.0,0.0,0.0,0.0,0.0,0.0,0.0,9071.8,0.0,55.0,5.0,249.79000000000002,0.0,0.0,0.0,0.0,0.0,0.0,0.0,0.0,1.404,1.404,0.0,0.0,0.0,55.0,616.79921,10000.0,85.000001,85.000001,85.000001,85.000001,395.0,0.0,0.0,0.0,1.0,166.665,51.422,51.422,46.432,46.432,34.0,-22.8475,25.448,-29.003333333333334,29.7875,0.0,1782.232,-0.35999999999999943,100.0,28.9,28.891,44.409,44.656,0.0,0.0,100.0,0.0,0.0,0.0,0.0,3137.0,3146.6,4138.375,4105.9,305.2325,304.682,314.9085,314.726,22.0058,20.6709,22.0709,21.557,314.999998,314.999998,324.999988,324.999988,99.55754285714286,99.50771666666667,99.56998571428572,99.54902857142856,0.10824999999999996,-0.03600000000000003,-0.097,0.13233333333333336,-0.026666666666670835,-0.023333333333326323,1.544,1.5244999999999997,38.536,30.193333333333335,38.943,35.731,55.402,35.653999999999996,60.3715,53.262,53.375,34.771,58.913,51.555,52.542,34.326,58.789500000000004,50.94533333333334,-0.11399999999999988,-0.053999999999999826,0.10711000000000001,0.10362,0.0,217.22500000000002,217.22500000000002,214.02666666666667,214.02666666666667,0.0,0.0
29,0.0,0.0,0.0,1.0,1.0,0.0,0.0,1.0,0.0,100.0,1.0,1.1856,26.0,0.0,0.0,0.0,59.999996,0.0,26.0,26.0,26.0,26.0,0.04675,0.2714000000000001,0.04685,291.29,-2.6521,-2.714,-1.57985,-1.5613,-177.6,215.325,190.356125,0.0,0.0,0.0,0.0,0.058599999999999985,-5.498166666666667,-5.498166666666667,-0.5933,-0.6360000000000001,-0.0006666666666665932,0.06399999999999995,69.527,0.013800000000000002,-0.19842500000000002,-0.3420000000000005,100.0,1.0,1.0,214.31666666666666,0.0,0.0,0.0,0.0,0.0,0.0,0.0,9084.0,0.0,55.0,5.0,250.26999999999998,1.0,0.0,0.0,0.0,0.0,0.0,0.0,0.0,1.4549999999999983,1.4549999999999983,0.0,0.0,1.0,55.0,616.79921,10000.0,85.000001,85.000001,85.000001,85.000001,395.0,0.0,0.0,0.0,1.0,166.665,52.124,52.124,45.944,45.944,34.0,-21.419999999999998,24.802,-28.676666666666666,30.965,0.0,1782.181,-0.41499999999999915,100.0,28.609,28.631,44.8,44.914,0.0,0.0,100.0,0.0,0.0,0.0,0.0,3002.0,3036.7,4145.0,4266.1,305.8205,305.15,314.76725,314.293,22.015,20.6765,22.0815,21.5662,314.999998,314.999998,324.999988,324.999988,99.55755714285715,99.50773333333333,99.57014285714286,99.54917142857143,0.10550000000000015,-0.03633333333333311,-0.09766666666666668,0.12816666666666665,-0.04999999999999716,-0.06833333333332803,1.501,1.4865,38.593,30.22833333333333,39.009,35.789,55.39,35.6915,60.408500000000004,53.323,53.364000000000004,34.806,58.9475,51.6135,52.528999999999996,34.359,58.820499999999996,51.00233333333333,-0.11299999999999999,-0.05250000000000021,0.10938500000000001,0.10162500000000001,0.0,217.635,217.64499999999998,214.31666666666666,214.31666666666666,0.0,0.0
30,0.0,0.0,0.0,1.0,1.0,0.0,0.0,1.0,0.0,100.0,1.0,1.1856,26.0,0.0,0.0,0.0,59.999996,0.0,26.0,26.0,26.0,26.0,0.055,0.2591000000000001,0.157975,290.512,-2.6285,-2.719777777777778,-1.6475,-1.6162999999999998,-174.26,215.3275,190.331,0.0,0.0,0.0,0.0,0.060566666666666547,-5.498166666666667,-5.498166666666667,-0.5964,0.563,0.0016666666666667052,0.27,69.648,0.0166,-0.20225,-0.2939999999999996,100.0,1.0,1.0,214.76999999999998,0.0,0.0,0.0,0.0,0.0,0.0,0.0,9103.4,0.0,55.0,5.0,250.70666666666665,0.0,0.0,0.0,0.0,0.0,0.0,1.0,0.0,1.5030000000000001,1.5030000000000001,0.0,0.0,0.0,55.0,616.79921,10000.0,85.000001,85.000001,85.000001,85.000001,395.0,0.0,0.0,0.0,1.0,333.33500000000004,50.156,50.156,46.173,46.173,34.0,-25.1525,28.814,-29.576666666666664,30.4025,0.0,1782.131,-0.3999999999999986,100.0,29.26,29.113,44.516,44.933,0.0,0.0,100.0,0.0,0.0,0.0,0.0,3503.714285714286,3470.8,4222.5,4078.4,304.3755,303.81166666666667,314.801,314.74375,22.0239,20.6821,22.0913,21.5749,314.999998,314.999998,324.999988,324.999988,99.55758571428571,99.50773333333333,99.57028571428572,99.54931428571429,0.10924999999999985,-0.04033333333333311,-0.093,0.13733333333333334,-0.05666666666667197,-0.06499999999999773,1.5364999999999998,1.517,38.649,30.262999999999998,39.071,35.843,55.382999999999996,35.730000000000004,60.441,53.379,53.358000000000004,34.841499999999996,58.9775,51.667500000000004,52.522,34.393,58.8475,51.055,-0.11850000000000005,-0.053999999999999826,0.11147000000000001,0.11033000000000001,0.0,218.04000000000002,218.05,214.76999999999998,214.76999999999998,0.0,0.0
31,0.0,0.0,0.0,1.0,1.0,0.0,0.0,1.0,0.0,100.0,1.0,1.1856,26.0,0.0,0.0,0.0,59.999996,0.0,26.0,26.0,26.0,26.0,0.029875000000000002,0.26070000000000015,-0.0488,289.978,-2.7671,-2.620222222222222,-1.6617000000000002,-1.5554000000000001,-170.7,215.32999999999998,190.305125,0.0,0.0,0.0,0.0,0.06263333333333332,-5.498166666666667,-5.498166666666667,-0.5699000000000001,-0.11650000000000005,0.015666666666666718,-0.15900000000000003,69.782,0.0161,-0.20147500000000002,-0.31599999999999984,100.0,1.0,1.0,214.95333333333332,0.0,0.0,0.0,0.0,0.0,0.0,0.0,9111.2,0.0,55.0,5.0,251.18666666666667,1.0,0.0,0.0,0.0,0.0,0.0,1.0,0.0,1.5539999999999985,1.5539999999999985,0.0,0.0,1.0,55.0,616.79921,10000.0,85.000001,85.000001,85.000001,85.000001,395.0,0.0,0.0,0.0,1.0,333.33500000000004,50.888,50.888,44.403,44.403,34.0,-22.96,26.451999999999998,-31.663333333333334,33.307500000000005,0.0,1782.081,-0.495000000000001,100.0,29.325,29.432000000000002,45.512,45.769999999999996,0.0,0.0,100.0,0.0,0.0,0.0,0.0,3118.0,3276.9,4386.5,4482.5,305.437,304.38233333333335,314.17425,313.686,22.0332,20.688,22.102,21.5844,314.999998,314.999998,324.999988,324.999988,99.55758571428571,99.50773333333333,99.57042857142856,99.54947142857142,0.11825000000000019,-0.03133333333333321,-0.08700000000000001,0.1295,-0.03166666666666629,-0.03499999999999659,1.436,1.4165,38.708,30.299666666666667,39.137,35.9025,55.373999999999995,35.7705,60.480000000000004,53.444,53.349000000000004,34.8785,59.013999999999996,51.7295,52.512,34.4285,58.8805,51.11566666666667,-0.12549999999999994,-0.044500000000000206,0.10432500000000001,0.10904000000000001,0.0,218.405,218.44,214.95333333333332,214.95333333333332,0.0,0.0
32,0.0,0.0,0.0,1.0,1.0,0.0,0.0,1.0,0.0,100.0,1.0,1.1856,26.0,0.0,0.0,0.0,59.999996,0.0,26.0,26.0,26.0,26.0,0.045875,0.2744,0.079375,290.787,-2.6828,-2.6878888888888888,-1.5894,-1.6401,-167.14,215.335,190.279875,0.0,0.0,0.0,0.0,0.06469999999999998,-5.498166666666667,-5.498166666666667,-0.6001000000000001,-0.768,-0.015222222222222026,-0.3660000000000001,69.90899999999999,0.0207,-0.227575,-0.4500000000000002,100.0,1.0,1.0,215.50333333333333,0.0,0.0,0.0,0.0,0.0,0.0,0.0,9134.4,0.0,55.0,5.0,251.64666666666665,0.0,0.0,0.0,0.0,0.0,0.0,1.0,0.0,1.6050000000000004,1.6050000000000004,0.0,0.0,0.0,55.0,616.79921,10000.0,85.000001,85.000001,85.000001,85.000001,395.0,0.0,0.0,0.0,1.0,166.665,51.193,51.193,45.868,45.868,34.0,-22.875,25.886,-27.9,32.44,0.0,1782.031,-0.4250000000000007,100.0,29.205,29.197,45.095,45.24,0.0,0.0,100.0,0.0,0.0,0.0,0.0,3167.0,3158.7,4117.0,4217.0,305.3245,304.81966666666665,314.83525,314.37675,22.0425,20.6937,22.1125,21.5937,314.999998,314.999998,324.999988,324.999988,99.55761428571428,99.50775,99.57058571428571,99.54962857142857,0.1107499999999999,-0.03133333333333321,-0.08483333333333333,0.14283333333333334,-0.060000000000002274,-0.03999999999999915,1.508,1.4925000000000002,38.765,30.336,39.203,35.961,55.364000000000004,35.8095,60.515,53.504,53.339,34.914500000000004,59.0465,51.7875,52.5,34.463,58.91,51.172,-0.11250000000000004,-0.05549999999999988,0.10966500000000001,0.10387,0.0,218.79500000000002,218.81,215.50333333333333,215.50333333333333,0.0,0.0
33,0.0,0.0,0.0,1.0,1.0,0.0,0.0,1.0,0.0,100.0,1.0,1.1856,26.0,0.0,0.0,0.0,59.999996,0.0,26.0,26.0,26.0,26.0,0.040375,0.2538,0.0216,291.153,-2.7157,-2.6927777777777777,-1.5963500000000002,-1.5974,-163.78,215.34,190.254875,0.0,0.0,0.0,0.0,0.06663333333333332,-5.498166666666667,-5.498166666666667,-0.6165,-0.264,-0.011333333333333417,0.512,70.029,0.024900000000000002,-0.21760000000000002,-0.40200000000000014,100.0,1.0,1.0,215.93,0.0,0.0,0.0,0.0,0.0,0.0,0.0,9152.5,0.0,55.0,5.0,252.07999999999998,1.0,0.0,0.0,0.0,0.0,0.0,1.0,0.0,1.6529999999999987,1.6529999999999987,0.0,0.0,1.0,55.0,616.79921,10000.0,85.000001,85.000001,85.000001,85.000001,395.0,0.0,0.0,0.0,1.0,166.665,51.346000000000004,51.346000000000004,46.524,46.524,34.0,-22.732499999999998,25.348,-27.656666666666666,30.9,0.0,1781.983,-0.4250000000000007,100.0,29.165,29.084,44.633,44.794,0.0,0.0,100.0,0.0,0.0,0.0,0.0,3156.714285714286,3110.0,4061.625,4156.6,305.3925,304.9506666666667,315.04,314.6275,22.0512,20.6991,22.1223,21.6023,314.999998,314.999998,324.999988,324.999988,99.55761428571428,99.50775,99.57072857142857,99.54975714285715,0.11825000000000019,-0.03499999999999992,-0.092,0.14,-0.05333333333332746,-0.04333333333332945,1.5459999999999998,1.5139999999999998,38.82,30.369333333333334,39.263999999999996,36.0145,55.354,35.8445,60.547,53.558,53.329,34.947,59.076,51.8395,52.489999999999995,34.494,58.936,51.223,-0.12399999999999989,-0.05549999999999988,0.112475,0.11009500000000001,0.0,219.185,219.2,215.93,215.93,0.0,0.0
34,0.0,0.0,0.0,1.0,1.0,0.0,0.0,1.0,0.0,100.0,1.0,1.1856,26.0,0.0,0.0,0.0,59.999996,0.0,26.0,26.0,26.0,26.0,0.049375,0.26160000000000005,-0.12112500000000001,291.245,-2.6544,-2.6684444444444444,-1.6320999999999999,-1.5375,-160.20999999999998,215.3475,190.22675,0.0,0.0,0.0,0.0,0.06873333333333331,-5.498166666666667,-5.498166666666667,-0.64,-0.9155,0.012555555555555653,0.34199999999999997,70.15899999999999,0.0279,-0.21465,-0.3860000000000001,100.0,1.0,1.0,216.25666666666666,0.0,0.0,0.0,0.0,0.0,0.0,0.0,9166.4,0.0,55.0,5.0,252.54666666666668,0.0,0.0,0.0,0.0,0.0,0.0,1.0,0.0,1.7040000000000006,1.7040000000000006,0.0,0.0,0.0,55.0,616.79921,10000.0,85.000001,85.000001,85.000001,85.000001,395.0,0.0,0.0,0.0,1.0,333.33500000000004,51.819,51.819,46.463,46.463,34.0,-20.94,23.878,-28.623333333333335,31.3125,0.0,1781.93,-0.39000000000000057,100.0,29.049,29.049,44.457,45.009,0.0,0.0,100.0,0.0,0.0,0.0,0.0,2972.857142857143,2960.8,4152.5,4243.7,305.8905,305.31233333333336,314.83525,314.453,22.060299999999998,20.7046,22.1327,21.6116,314.999998,314.999998,324.999988,324.999988,99.55764285714285,99.50775,99.57087142857142,99.54991428571428,0.11275000000000013,-0.03433333333333333,-0.08466666666666667,0.14833333333333334,-0.046666666666666856,-0.046666666666666856,1.5225,1.5015,38.876999999999995,30.404,39.329,36.073,55.342,35.8805,60.581,53.6185,53.318,34.980000000000004,59.1075,51.897999999999996,52.477999999999994,34.525999999999996,58.9645,51.28,-0.11399999999999988,-0.05149999999999988,0.10827,0.11403,0.0,219.56,219.565,216.25666666666666,216.25666666666666,0.0,0.0
35,0.0,0.0,0.0,1.0,1.0,0.0,0.0,1.0,0.0,100.0,1.0,1.1856,26.0,0.0,0.0,0.0,59.999996,0.0,26.0,26.0,26.0,26.0,0.051500000000000004,0.2550000000000001,0.0287,290.955,-2.7873,-2.646333333333333,-1.54555,-1.5904,-156.63,215.35500000000002,190.196625,0.0,0.0,0.0,0.0,0.07079999999999997,-5.498166666666667,-5.498166666666667,-0.6844,-0.28600000000000003,-0.004666666666666597,-0.748,70.285,0.028,-0.232825,-0.3620000000000001,100.0,1.0,1.0,216.7266666666667,0.0,0.0,0.0,0.0,0.0,0.0,0.0,9186.3,0.0,55.0,5.0,253.00333333333333,1.0,0.0,0.0,0.0,0.0,0.0,1.0,0.0,1.754999999999999,1.754999999999999,0.0,0.0,1.0,55.0,616.79921,10000.0,85.000001,85.000001,85.000001,85.000001,395.0,0.0,0.0,0.0,1.0,166.665,50.629,50.629,46.249,46.249,34.0,-23.785,27.740000000000002,-26.346666666666664,30.47,0.0,1781.88,-0.23000000000000043,100.0,29.105,29.437,44.284,44.511,0.0,0.0,100.0,0.0,0.0,0.0,0.0,3197.857142857143,3449.3,4095.625,4057.9,305.228,303.9293333333333,315.01075,314.93325,22.0693,20.7106,22.1431,21.6208,314.999998,314.999998,324.999988,324.999988,99.55764285714285,99.50776666666667,99.57101428571428,99.55005714285714,0.11949999999999994,-0.04233333333333311,-0.0765,0.15383333333333335,-0.026666666666670835,-0.04999999999999716,1.5575,1.528,38.933,30.441,39.394,36.129999999999995,55.33,35.921,60.614,53.6755,53.306,35.0175,59.1385,51.9525,52.465,34.5615,58.992,51.333333333333336,-0.11099999999999999,-0.07350000000000012,0.10864000000000001,0.10592000000000001,0.0,219.95,219.965,216.72666666666666,216.7266666666667,0.0,0.0
36,0.0,0.0,0.0,1.0,1.0,0.0,0.0,1.0,0.0,100.0,1.0,1.1856,26.0,0.0,0.0,0.0,59.999996,0.0,26.0,26.0,26.0,26.0,0.04475,0.27100000000000013,0.17045000000000002,290.421,-2.6342,-2.711555555555556,-1.6548,-1.6088,-153.25,215.3625,190.1675,0.0,0.0,0.0,0.0,0.07276666666666654,-5.498166666666667,-5.498166666666667,-0.6604,0.3035,-0.04922222222222228,-0.506,70.407,0.0233,-0.201025,-0.1459999999999999,100.0,1.0,1.0,216.94,0.0,0.0,0.0,0.0,0.0,0.0,0.0,9195.3,0.0,55.0,5.0,253.44,0.0,0.0,0.0,0.0,0.0,0.0,1.0,0.0,1.8030000000000008,1.8030000000000008,0.0,0.0,0.0,55.0,616.79921,10000.0,85.000001,85.000001,85.000001,85.000001,395.0,0.0,0.0,0.0,1.0,166.665,51.025,51.025,45.638999999999996,45.638999999999996,34.0,-22.315,24.92,-31.036666666666665,33.1,0.0,1781.832,-0.19000000000000128,100.0,29.416,29.434,44.788,45.057,0.0,0.0,100.0,0.0,0.0,0.0,0.0,3169.857142857143,3086.6,4365.125,4367.9,305.192,304.93066666666664,314.306,314.10575,22.078,20.7161,22.153,21.6296,314.999998,314.999998,324.999988,324.999988,99.55767142857142,99.50776666666667,99.57115714285715,99.55021428571429,0.11699999999999999,-0.04699999999999993,-0.08516666666666667,0.137,-0.04333333333332945,-0.03833333333332689,1.4714999999999998,1.4649999999999999,38.988,30.475666666666665,39.456,36.185,55.322,35.959,60.6475,53.7325,53.299,35.0525,59.17,52.0075,52.456,34.595,59.0205,51.387,-0.10650000000000004,-0.0714999999999999,0.10715500000000001,0.105855,0.0,220.37,220.375,216.94,216.94,0.0,0.0
