,ABS Active,ABS Enabled,AID Allow Tire Blankets,AID Auto Blip,AID Auto Clutch,AID Auto Shift,AID Fuel Rate,AID Ideal Line,AID Mech Damage,AID Stability,AID Tire Wear Rate,Air Density,Air Temp,Ballast,Best Lap Delta,Best Lap Time,Brake Bias,Brake Pos,Brake Temp FL,Brake Temp FR,Brake Temp RL,Brake Temp RR,CG Accel Lateral,CG Accel Longitudinal,CG Accel Vertical,CG Height,Camber FL,Camber FR,Camber RL,Camber RR,Car Coord X,Car Coord Y,Car Coord Z,Car Damage Front,Car Damage Left,Car Damage Rear,Car Damage Right,Car Pos Norm,Caster FL,Caster FR,Chassis Pitch Angle,Chassis Pitch Rate,Chassis Roll Angle,Chassis Roll Rate,Chassis Velocity X,Chassis Velocity Y,Chassis Velocity Z,Chassis Yaw Rate,Clutch Pos,DRS Active,DRS Available,Drive Train Speed,ERS Heat Charging,ERS Is Charging,ERS Max Energy,ERS Power Level,ERS Recovery Level,Engine Brake Setting,Engine Limiter,Engine RPM,Flags,Fuel Level,Gear,Ground Speed,HR Sample Clock,In Pit,KERS Charge,KERS Deployed Energy,KERS Input,KERS Max Energy,LR Sample Clock,Lap Invalidated,Lap Time,Lap Time2,Last Lap Time,Last Sector Time,MR Sample Clock,Max Fuel,Max Power,Max RPM,Max Sus Travel FL,Max Sus Travel FR,Max Sus Travel RL,Max Sus Travel RR,Max Torque,Max Turbo Boost,Num Tires Off Track,Penalties Enabled,Position,Raw Data Sample Rate,Ride Height FL,Ride Height FR,Ride Height RL,Ride Height RR,Road Temp,Self Align Torque FL,Self Align Torque FR,Self Align Torque RL,Self Align Torque RR,Session Lap Count,Session Time Left,Steering Angle,Surface Grip,Suspension Travel FL,Suspension Travel FR,Suspension Travel RL,Suspension Travel RR,TC Active,TC Enabled,Throttle Pos,Tire Dirt Level FL,Tire Dirt Level FR,Tire Dirt Level RL,Tire Dirt Level RR,Tire Load FL,Tire Load FR,Tire Load RL,Tire Load RR,Tire Loaded Radius FL,Tire Loaded Radius FR,Tire Loaded Radius RL,Tire Loaded Radius RR,Tire Pressure FL,Tire Pressure FR,Tire Pressure RL,Tire Pressure RR,Tire Radius FL,Tire Radius FR,Tire Radius RL,Tire Radius RR,Tire Rubber Grip FL,Tire Rubber Grip FR,Tire Rubber Grip RL,Tire Rubber Grip RR,Tire Slip Angle FL,Tire Slip Angle FR,Tire Slip Angle RL,Tire Slip Angle RR,Tire Slip Ratio FL,Tire Slip Ratio FR,Tire Slip Ratio RL,Tire Slip Ratio RR,Tire Temp Core FL,Tire Temp Core FR,Tire Temp Core RL,Tire Temp Core RR,Tire Temp Inner FL,Tire Temp Inner FR,Tire Temp Inner RL,Tire Temp Inner RR,Tire Temp Middle FL,Tire Temp Middle FR,Tire Temp Middle RL,Tire Temp Middle RR,Tire Temp Outer FL,Tire Temp Outer FR,Tire Temp Outer RL,Tire Temp Outer RR,Toe In FL,Toe In FR,Toe In RL,Toe In RR,Turbo Boost,Wheel Angular Speed FL,Wheel Angular Speed FR,Wheel Angular Speed RL,Wheel Angular Speed RR,Wind Direction,Wind Speed
0,0.0,0.0,0.0,1.0,1.0,0.0,0.0,1.0,0.0,100.0,1.0,1.1856,26.0,0.0,0.0,0.0,59.99999,0.0,26.0,26.0,26.0,26.0,-0.012499999999999956,0.3025,0.22213333333333335,292.618,-2.7927,-2.458222222222222,-1.5686,-1.517,-275.49,215.5025,190.986,0.0,0.0,0.0,0.0,0.0017000000000000001,-5.498166666666667,-5.498166666666667,-0.5541,1.7786666666666668,-0.00044444444444424747,-1.1029999999999998,65.533,-0.0281,-0.21277500000000002,0.10200000000000031,100.0,1.0,1.0,202.35666666666668,0.0,0.0,0.0,0.0,0.0,0.0,0.0,8577.1,0.0,55.0,5.0,235.89,0.0,0.0,0.0,0.0,0.0,0.0,0.0,0.0,0.006000000000000227,0.006000000000000227,0.0,0.0,0.0,55.0,616.79921,10000.0,85.0,85.0,85.0,85.0,395.0,0.0,0.0,0.0,1.0,20.0,50.262,50.262,47.958,47.958,34.0,-30.035,29.74,-28.556666666666665,25.525,0.0,1783.597,0.1750000000000007,100.0,27.443,27.765,41.039,40.870000000000005,0.0,0.0,100.0,0.0,0.0,0.0,0.0,3400.4285714285716,4222.2,4019.285714285714,3989.7,304.5185,301.02525,315.09166666666664,314.9095,21.7567,20.5205,21.7768,21.3107,314.99999,314.99999,324.99998,324.99998,99.55795714285715,99.50743333333334,99.56578571428571,99.54512857142858,0.02300000000000013,-0.09475,-0.1306666666666666,0.08883333333333332,-0.05333333333332746,-0.045000000000001705,1.5775000000000001,1.579,36.979,29.253333333333334,37.105000000000004,34.1915,55.976,34.574,59.269999999999996,51.631,53.917,33.7645,57.882999999999996,49.981,53.098,33.3515,57.841,49.397999999999996,-0.06099999999999994,-0.09200000000000008,0.1005,0.11286000000000002,0.0,205.32,205.31,202.35666666666668,202.35666666666668,0.0,0.0
1,0.0,0.0,0.0,1.0,1.0,0.0,0.0,1.0,0.0,100.0,1.0,1.1856,26.0,0.0,0.0,0.0,59.999996,0.0,26.0,26.0,26.0,26.0,-0.07062499999999994,0.28869999999999996,0.19933333333333333,291.626,-2.683,-2.704111111111111,-1.62295,-1.4827,-271.95,215.515,190.9645,0.0,0.0,0.0,0.0,0.0037666666666666664,-5.498166666666667,-5.498166666666667,-0.4616,-1.6473333333333333,-0.05366666666666653,-0.8980000000000001,65.69800000000001,-0.028,-0.15605,0.6239999999999997,100.0,1.0,1.0,202.42000000000002,0.0,0.0,0.0,0.0,0.0,0.0,0.0,8579.8,0.0,55.0,5.0,236.48333333333335,1.0,0.0,0.0,0.0,0.0,0.0,0.0,0.0,0.05999999999999872,0.05999999999999872,0.0,0.0,1.0,55.0,616.79921,10000.0,85.000001,85.000001,85.000001,85.000001,395.0,0.0,0.0,0.0,1.0,166.665,54.123,54.123,46.066,46.066,34.0,-23.1775,17.094,-35.239999999999995,28.5425,0.0,1783.543,0.375,100.0,27.711,27.14,44.607,45.831,0.0,0.0,100.0,0.0,0.0,0.0,0.0,2863.714285714286,2459.9,4470.714285714285,4452.8,306.1575,306.983,313.8086666666667,313.023,21.767,20.5258,21.7884,21.3205,314.999998,314.999998,324.999988,324.999988,99.55797142857143,99.50745,99.56592857142857,99.54528571428571,0.03575000000000017,-0.10224999999999995,-0.1383333333333333,0.057333333333333236,-0.030000000000001137,-0.046666666666666856,1.3265,1.377,37.044,29.28633333333333,37.177,34.2535,55.959,34.6125,59.318,51.7035,53.900999999999996,33.8,57.928,50.0505,53.081,33.3855,57.8825,49.46633333333333,-0.047499999999999876,-0.10050000000000026,0.10238000000000001,0.11117,0.0,205.82,205.79500000000002,202.42000000000002,202.42000000000002,0.0,0.0
2,0.0,0.0,0.0,1.0,1.0,0.0,0.0,1.0,0.0,100.0,1.0,1.1856,26.0,0.0,0.0,0.0,59.999996,0.0,26.0,26.0,26.0,26.0,-0.07824999999999993,0.27190000000000003,-0.030500000000000003,292.603,-2.6635999999999997,-2.6542222222222223,-1.5910000000000002,-1.5391,-268.79,215.525,190.94625,0.0,0.0,0.0,0.0,0.0056,-5.498166666666667,-5.498166666666667,-0.5324,0.368,-0.005555555555555536,1.5469999999999997,65.82900000000001,-0.0302,-0.22285000000000002,0.8020000000000005,100.0,1.0,1.0,203.45,0.0,0.0,0.0,0.0,0.0,0.0,0.0,8623.5,0.0,55.0,5.0,236.95666666666668,0.0,0.0,0.0,0.0,0.0,0.0,0.0,0.0,0.10800000000000054,0.10800000000000054,0.0,0.0,0.0,55.0,616.79921,10000.0,85.000001,85.000001,85.000001,85.000001,395.0,0.0,0.0,0.0,1.0,333.33500000000004,51.894999999999996,51.894999999999996,48.34,48.34,34.0,-28.935000000000002,21.284,-28.396666666666665,21.095,0.0,1783.492,0.5500000000000007,100.0,28.197,27.527,43.707,43.391,0.0,0.0,100.0,0.0,0.0,0.0,0.0,3368.285714285714,3090.8,3756.0,3616.0,304.577,304.793,315.681,315.89525,21.7764,20.5307,21.798099999999998,21.3285,314.999998,314.999998,324.999988,324.999988,99.55798571428572,99.50745,99.56607142857143,99.54541428571429,0.014000000000000234,-0.121,-0.1775,0.05600000000000005,-0.046666666666666856,-0.07000000000000028,1.6560000000000001,1.6720000000000002,37.102999999999994,29.317,37.238,34.3035,55.946,34.6525,59.354,51.7545,53.888999999999996,33.837,57.9615,50.0995,53.068,33.421,57.9135,49.51433333333333,-0.04149999999999987,-0.11100000000000021,0.10935500000000001,0.10916000000000001,0.0,206.235,206.19,203.45,203.45,0.0,0.0
3,0.0,0.0,0.0,1.0,1.0,0.0,0.0,1.0,0.0,100.0,1.0,1.1856,26.0,0.0,0.0,0.0,59.999996,0.0,26.0,26.0,26.0,26.0,-0.08262499999999995,0.2902,0.10743333333333333,292.206,-2.6744,-2.6882222222222225,-1.56635,-1.5124,-265.43,215.5325,190.926375,0.0,0.0,0.0,0.0,0.007566666666666668,-5.498166666666667,-5.498166666666667,-0.4857,0.109,0.0,-1.501,65.983,-0.0444,-0.179475,0.7800000000000002,100.0,1.0,1.0,203.55,0.0,0.0,0.0,0.0,0.0,0.0,0.0,8627.7,0.0,55.0,5.0,237.50666666666666,1.0,0.0,0.0,0.0,0.0,0.0,0.0,0.0,0.15899999999999892,0.15899999999999892,0.0,0.0,1.0,55.0,616.79921,10000.0,85.000001,85.000001,85.000001,85.000001,395.0,0.0,0.0,0.0,1.0,166.665,52.948,52.948,46.356,46.356,34.0,-24.8425,20.458,-33.31666666666666,25.595,0.0,1783.443,0.6999999999999993,100.0,27.997,27.615000000000002,43.852000000000004,43.724000000000004,0.0,0.0,100.0,0.0,0.0,0.0,0.0,2946.857142857143,2969.5,4324.571428571428,4110.9,305.9245,305.331,314.274,314.5345,21.7861,20.5361,21.8087,21.3376,314.999998,314.999998,324.999988,324.999988,99.55798571428572,99.50746666666667,99.5662,99.54554285714286,0.011249999999999982,-0.12124999999999997,-0.15766666666666662,0.0661666666666667,-0.060000000000002274,-0.026666666666670835,1.459,1.5135,37.163,29.350666666666665,37.304,34.36,55.93,34.6935,59.391,51.8165,53.873000000000005,33.8745,57.996,50.1595,53.052,33.457,57.945,49.57266666666666,-0.02849999999999997,-0.1299999999999999,0.111435,0.10301500000000001,0.0,206.765,206.655,203.55,203.55,0.0,0.0
4,0.0,0.0,0.0,1.0,1.0,0.0,0.0,1.0,0.0,100.0,1.0,1.1856,26.0,0.0,0.0,0.0,59.999996,0.0,26.0,26.0,26.0,26.0,-0.10250000000000004,0.29679999999999995,-0.0751,292.679,-2.6444,-2.749888888888889,-1.4971,-1.6173000000000002,-262.06,215.5375,190.907125,0.0,0.0,0.0,0.0,0.0095,-5.498166666666667,-5.498166666666667,-0.5139,-0.8483333333333334,-0.054777777777777814,-0.15600000000000014,66.13,-0.0558,-0.20980000000000001,1.1340000000000003,100.0,1.0,1.0,204.09333333333333,0.0,0.0,0.0,0.0,0.0,0.0,0.0,8650.7,0.0,55.0,5.0,238.04000000000002,0.0,0.0,0.0,0.0,0.0,0.0,0.0,0.0,0.21000000000000085,0.21000000000000085,0.0,0.0,0.0,55.0,616.79921,10000.0,85.000001,85.000001,85.000001,85.000001,395.0,0.0,0.0,0.0,1.0,166.665,52.917,52.917,47.424,47.424,34.0,-26.665,19.125999999999998,-31.483333333333334,23.3525,0.0,1783.392,0.6900000000000013,100.0,28.108,27.432,44.086,43.163,0.0,0.0,100.0,0.0,0.0,0.0,0.0,3103.857142857143,2809.1,4118.714285714285,3884.1000000000004,305.368,305.8735,314.7966666666667,315.1785,21.7958,20.5411,21.8193,21.3465,314.999998,314.999998,324.999988,324.999988,99.55798571428572,99.50748333333334,99.56634285714286,99.54568571428571,0.0012500000000001954,-0.13475000000000004,-0.18599999999999994,0.035666666666666735,-0.03833333333332689,-0.054999999999999716,1.5434999999999999,1.6045,37.224000000000004,29.381999999999998,37.370999999999995,34.416,55.914,34.732,59.4315,51.876,53.858000000000004,33.9105,58.034,50.216,53.036,33.491,57.980000000000004,49.62833333333333,-0.023499999999999854,-0.1299999999999999,0.10432500000000001,0.10438000000000001,0.0,207.135,207.05,204.09333333333333,204.09333333333333,0.0,0.0
5,0.0,0.0,0.0,1.0,1.0,0.0,0.0,1.0,0.0,100.0,1.0,1.1856,26.0,0.0,0.0,0.0,59.999996,0.0,26.0,26.0,26.0,26.0,-0.104375,0.2923,-0.10346666666666668,292.847,-2.6644,-2.6982222222222223,-1.548,-1.5939,-258.88,215.54000000000002,190.88825,0.0,0.0,0.0,0.0,0.011366666666666667,-5.498166666666667,-5.498166666666667,-0.5363,0.2573333333333333,-0.034777777777777796,0.8319999999999999,66.266,-0.07390000000000001,-0.221175,1.1579999999999995,100.0,1.0,1.0,204.61333333333334,0.0,0.0,0.0,0.0,0.0,0.0,0.0,8672.8,0.0,55.0,5.0,238.52666666666667,1.0,0.0,0.0,0.0,0.0,0.0,0.0,0.0,0.2579999999999991,0.2579999999999991,0.0,0.0,1.0,55.0,616.79921,10000.0,85.000001,85.000001,85.000001,85.000001,395.0,0.0,0.0,0.0,1.0,333.33500000000004,52.46,52.46,48.294,48.294,34.0,-26.9125,20.336,-30.883333333333333,23.122500000000002,0.0,1783.344,0.3249999999999993,100.0,28.276,27.642,43.436,42.476,0.0,0.0,100.0,0.0,0.0,0.0,0.0,3122.5714285714284,2965.5,3917.4285714285716,3968.1000000000004,305.1915,305.36075,315.306,315.03125,21.8052,20.546,21.8291,21.3548,314.999998,314.999998,324.999988,324.999988,99.558,99.5075,99.56648571428572,99.54582857142857,0.008249999999999869,-0.12524999999999997,-0.20299999999999996,0.028000000000000025,-0.03999999999999915,-0.046666666666666856,1.576,1.63,37.282,29.412666666666667,37.432,34.4675,55.900999999999996,34.769999999999996,59.467,51.9305,53.845,33.945499999999996,58.0665,50.2685,53.022,33.5245,58.01,49.67933333333333,-0.04899999999999993,-0.10150000000000015,0.11098000000000001,0.11445000000000001,0.0,207.595,207.51,204.61333333333334,204.61333333333334,0.0,0.0
6,0.0,0.0,0.0,1.0,1.0,0.0,0.0,1.0,0.0,100.0,1.0,1.1856,26.0,0.0,0.0,0.0,59.999996,0.0,26.0,26.0,26.0,26.0,-0.11187499999999995,0.2905,0.07336666666666666,292.648,-2.7055,-2.7586666666666666,-1.5045000000000002,-1.5973000000000002,-255.5,215.54250000000002,190.867625,0.0,0.0,0.0,0.0,0.013333333333333334,-5.498166666666667,-5.498166666666667,-0.5275000000000001,-0.223,-0.04499999999999993,-0.387,66.414,-0.0785,-0.20372500000000002,0.9340000000000002,100.0,1.0,1.0,204.92000000000002,0.0,0.0,0.0,0.0,0.0,0.0,0.0,8685.8,0.0,55.0,5.0,239.06,0.0,0.0,0.0,0.0,0.0,0.0,0.0,0.0,0.30900000000000105,0.30900000000000105,0.0,0.0,0.0,55.0,616.79921,10000.0,85.000001,85.000001,85.000001,85.000001,395.0,0.0,0.0,0.0,1.0,166.665,52.734,52.734,47.76,47.76,34.0,-28.494999999999997,18.656,-32.82666666666667,24.197499999999998,0.0,1783.294,0.20500000000000185,100.0,28.084,27.64,43.556,42.686,0.0,0.0,100.0,0.0,0.0,0.0,0.0,3222.5714285714284,2793.7,4155.428571428572,4062.9,305.152,305.871,314.69,314.7205,21.815,20.551099999999998,21.8397,21.3638,314.999998,314.999998,324.999988,324.999988,99.558,99.50751666666666,99.56662857142857,99.54595714285715,-0.0044999999999999485,-0.14725,-0.20033333333333336,0.02833333333333332,-0.051666666666669414,-0.04333333333332945,1.516,1.5625,37.343,29.444666666666667,37.498000000000005,34.5235,55.885,34.81,59.506,51.992,53.83,33.982,58.1035,50.3275,53.007,33.5595,58.0435,49.737,-0.05400000000000005,-0.10450000000000026,0.107185,0.10759500000000001,0.0,208.055,207.97500000000002,204.92000000000002,204.92000000000002,0.0,0.0
7,0.0,0.0,0.0,1.0,1.0,0.0,0.0,1.0,0.0,100.0,1.0,1.1856,26.0,0.0,0.0,0.0,59.999996,0.0,26.0,26.0,26.0,26.0,-0.08524999999999994,0.2884,0.13026666666666667,292.557,-2.6159,-2.761888888888889,-1.58635,-1.6214,-252.31,215.54000000000002,190.848125,0.0,0.0,0.0,0.0,0.0152,-5.498166666666667,-5.498166666666667,-0.5284,-0.0013333333333333333,-0.04055555555555568,0.24099999999999966,66.55,-0.0814,-0.208125,0.7620000000000005,100.0,1.0,1.0,205.38,0.0,0.0,0.0,0.0,0.0,0.0,0.0,8705.3,0.0,55.0,5.0,239.55333333333334,1.0,0.0,0.0,0.0,0.0,0.0,0.0,0.0,0.3569999999999993,0.3569999999999993,0.0,0.0,1.0,55.0,616.79921,10000.0,85.000001,85.000001,85.000001,85.000001,395.0,0.0,0.0,0.0,1.0,333.33500000000004,52.475,52.475,47.623,47.623,34.0,-26.28,21.146,-34.016666666666666,23.92,0.0,1783.243,-0.0799999999999983,100.0,28.265,27.646,43.619,42.769999999999996,0.0,0.0,100.0,0.0,0.0,0.0,0.0,3194.285714285714,2919.2,4158.428571428572,3985.1000000000004,305.1445,305.51175,314.72633333333334,314.92575,21.8243,20.5561,21.8496,21.3722,314.999998,314.999998,324.999988,324.999988,99.558,99.50753333333333,99.56677142857143,99.54608571428571,0.024249999999999883,-0.10975000000000001,-0.20233333333333337,0.02733333333333321,-0.07333333333333059,-0.04833333333333201,1.5085000000000002,1.5575,37.402,29.47533333333333,37.56,34.576499999999996,55.872,34.848,59.543,52.048500000000004,53.818,34.016999999999996,58.1375,50.3815,52.994,33.593,58.0755,49.79,-0.08299999999999996,-0.07050000000000001,0.10949500000000001,0.113335,0.0,208.49,208.39499999999998,205.38,205.38,0.0,0.0
8,0.0,0.0,0.0,1.0,1.0,0.0,0.0,1.0,0.0,100.0,1.0,1.1856,26.0,0.0,0.0,0.0,59.999996,0.0,26.0,26.0,26.0,26.0,-0.07350000000000001,0.28800000000000003,-0.1279,292.648,-2.6875,-2.702111111111111,-1.5578500000000002,-1.6197,-248.91,215.535,190.827625,0.0,0.0,0.0,0.0,0.017166666666666667,-5.498166666666667,-5.498166666666667,-0.532,-0.027,-0.034777777777777796,-0.5680000000000001,66.695,-0.06810000000000001,-0.21582500000000002,0.32399999999999984,100.0,1.0,1.0,205.82999999999998,0.0,0.0,0.0,0.0,0.0,0.0,0.0,8724.4,0.0,55.0,5.0,240.07333333333332,0.0,0.0,0.0,0.0,0.0,0.0,0.0,0.0,0.40800000000000125,0.40800000000000125,0.0,0.0,0.0,55.0,616.79921,10000.0,85.000001,85.000001,85.000001,85.000001,395.0,0.0,0.0,0.0,1.0,166.665,52.628,52.628,47.485,47.485,34.0,-25.372500000000002,21.067999999999998,-31.503333333333334,24.58,0.0,1783.194,-0.10999999999999943,100.0,28.232,27.707,43.701,42.952,0.0,0.0,100.0,0.0,0.0,0.0,0.0,3048.142857142857,2966.9,4057.285714285714,3956.0,305.5775,305.25775,314.977,314.99275,21.834,20.5613,21.8601,21.3812,314.999998,314.999998,324.999988,324.999988,99.558,99.50753333333333,99.56691428571429,99.54622857142857,0.028000000000000025,-0.11124999999999996,-0.18233333333333335,0.04633333333333334,-0.045000000000001705,-0.03333333333333144,1.5474999999999999,1.576,37.463,29.508333333333333,37.626000000000005,34.6325,55.857,34.888,59.582,52.109,53.803,34.054,58.174,50.44,52.979,33.628,58.109,49.847,-0.08999999999999986,-0.07450000000000001,0.10976000000000001,0.10217000000000001,0.0,208.905,208.85500000000002,205.82999999999998,205.82999999999998,0.0,0.0
9,0.0,0.0,0.0,1.0,1.0,0.0,0.0,1.0,0.0,100.0,1.0,1.1856,26.0,0.0,0.0,0.0,59.999996,0.0,26.0,26.0,26.0,26.0,-0.05225000000000002,0.28290000000000015,-0.14550000000000002,292.435,-2.6052,-2.718,-1.554,-1.5814,-245.7,215.53,190.808,0.0,0.0,0.0,0.0,0.019033333333333336,-5.498166666666667,-5.498166666666667,-0.5273,0.4956666666666667,-0.046111111111111214,0.19899999999999984,66.831,-0.052700000000000004,-0.20900000000000002,0.1379999999999999,100.0,1.0,1.0,206.22333333333333,0.0,0.0,0.0,0.0,0.0,0.0,0.0,8741.0,0.0,55.0,5.0,240.56333333333333,1.0,0.0,0.0,0.0,0.0,0.0,0.0,0.0,0.4559999999999995,0.4559999999999995,0.0,0.0,1.0,55.0,616.79921,10000.0,85.000001,85.000001,85.000001,85.000001,395.0,0.0,0.0,0.0,1.0,166.665,52.338,52.338,47.714,47.714,34.0,-25.560000000000002,22.078,-30.743333333333336,26.197499999999998,0.0,1783.147,-0.21999999999999886,100.0,28.35,27.679000000000002,43.632,42.903,0.0,0.0,100.0,0.0,0.0,0.0,0.0,3168.285714285714,2964.8,4096.285714285715,4082.1000000000004,305.1115,305.27925,314.90766666666667,314.72475,21.8433,20.5663,21.87,21.3896,314.999998,314.999998,324.999988,324.999988,99.558,99.50755,99.56704285714285,99.54635714285715,0.0365000000000002,-0.08899999999999997,-0.16133333333333333,0.0688333333333333,-0.04333333333332945,-0.03333333333333144,1.549,1.5554999999999999,37.519999999999996,29.539666666666665,37.688,34.6855,55.844,34.9255,59.6185,52.165,53.791,34.088,58.208,50.4935,52.966,33.661,58.14,49.89966666666667,-0.09099999999999997,-0.052000000000000046,0.100055,0.10911000000000001,0.0,209.32,209.29500000000002,206.22333333333333,206.22333333333333,0.0,0.0
10,0.0,0.0,0.0,1.0,1.0,0.0,0.0,1.0,0.0,100.0,1.0,1.1856,26.0,0.0,0.0,0.0,59.999996,0.0,26.0,26.0,26.0,26.0,-0.030000000000000027,0.29490000000000016,0.09340000000000001,292.48,-2.6782,-2.69,-1.52725,-1.5567,-242.29,215.5225,190.78725,0.0,0.0,0.0,0.0,0.021,-5.498166666666667,-5.498166666666667,-0.5172,-0.3203333333333333,-0.01100000000000012,0.8529999999999998,66.976,-0.0373,-0.19717500000000002,-0.03200000000000003,100.0,1.0,1.0,206.60333333333335,0.0,0.0,0.0,0.0,0.0,0.0,0.0,8757.1,0.0,55.0,5.0,241.08333333333334,0.0,0.0,0.0,0.0,0.0,0.0,1.0,0.0,0.5069999999999979,0.5069999999999979,0.0,0.0,0.0,55.0,616.79921,10000.0,85.000001,85.000001,85.000001,85.000001,395.0,0.0,0.0,0.0,1.0,333.33500000000004,52.948,52.948,47.318,47.318,34.0,-23.805,22.176000000000002,-29.73,27.505000000000003,0.0,1783.093,-0.3299999999999983,100.0,28.006,27.434,43.777,43.388,0.0,0.0,100.0,0.0,0.0,0.0,0.0,3010.142857142857,2987.6,4096.857142857143,4215.6,305.714,305.36275,314.8546666666667,314.3815,21.853,20.5716,21.8806,21.398699999999998,314.999998,314.999998,324.999988,324.999988,99.55801428571428,99.50756666666666,99.56718571428571,99.54651428571428,0.05500000000000016,-0.08174999999999999,-0.14416666666666667,0.07666666666666666,-0.051666666666669414,-0.06666666666666998,1.522,1.5125,37.581,29.572666666666667,37.754000000000005,34.742,55.831,34.963499999999996,59.6575,52.2265,53.778,34.1235,58.2445,50.5525,52.952,33.6945,58.1735,49.95733333333334,-0.10499999999999998,-0.052999999999999936,0.10045000000000001,0.10822000000000001,0.0,209.755,209.75,206.60333333333335,206.60333333333335,0.0,0.0
11,0.0,0.0,0.0,1.0,1.0,0.0,0.0,1.0,0.0,100.0,1.0,1.1856,26.0,0.0,0.0,0.0,59.999996,0.0,26.0,26.0,26.0,26.0,-0.004124999999999934,0.28590000000000004,0.07696666666666667,292.633,-2.6718,-2.694111111111111,-1.5742,-1.5399,-238.67000000000002,215.515,190.764875,0.0,0.0,0.0,0.0,0.022600000000000002,-5.498166666666667,-5.498166666666667,-0.5445,-0.49933333333333335,0.0023333333333332984,-0.020000000000000018,67.126,-0.0213,-0.21200000000000002,-0.2939999999999996,100.0,1.0,1.0,207.15333333333334,0.0,0.0,0.0,0.0,0.0,0.0,0.0,8780.5,0.0,55.0,5.0,241.62333333333333,1.0,0.0,0.0,0.0,0.0,0.0,1.0,0.0,0.5609999999999999,0.5609999999999999,0.0,0.0,1.0,55.0,616.79921,10000.0,85.000001,85.000001,85.000001,85.000001,395.0,0.0,0.0,0.0,1.0,166.665,52.582,52.582,47.836,47.836,34.0,-23.61,24.804,-28.283333333333335,26.93,0.0,1783.04,-0.384999999999998,100.0,27.961,27.461,43.39,43.253,0.0,0.0,100.0,0.0,0.0,0.0,0.0,3088.142857142857,3159.9,3984.1428571428573,4040.0,305.522,304.84975,315.17966666666666,314.81375,21.863,20.5773,21.8917,21.4083,314.999998,314.999998,324.999988,324.999988,99.55802857142857,99.50756666666666,99.56734285714286,99.54665714285714,0.07450000000000001,-0.05525000000000002,-0.1273333333333333,0.10050000000000003,-0.04333333333332945,-0.054999999999999716,1.566,1.5565,37.644,29.608,37.823,34.8015,55.815,35.004,59.696,52.2905,53.763,34.1605,58.2805,50.6135,52.936,33.7305,58.206,50.01733333333333,-0.10799999999999987,-0.0495000000000001,0.10585000000000001,0.103095,0.0,210.19,210.215,207.15333333333334,207.15333333333334,0.0,0.0
12,0.0,0.0,0.0,1.0,1.0,0.0,0.0,1.0,0.0,100.0,1.0,1.1856,26.0,0.0,0.0,0.0,59.999996,0.0,26.0,26.0,26.0,26.0,0.007624999999999993,0.28,-0.15156666666666668,292.313,-2.699,-2.687777777777778,-1.5487000000000002,-1.5614,-235.65,215.51,190.745625,0.0,0.0,0.0,0.0,0.025466666666666665,-5.498166666666667,-5.498166666666667,-0.538,0.6956666666666667,0.0014444444444443594,0.1900000000000004,67.252,-0.0057,-0.20620000000000002,-0.22799999999999976,100.0,1.0,1.0,207.4766666666667,0.0,0.0,0.0,0.0,0.0,0.0,0.0,8794.2,0.0,55.0,5.0,242.07666666666665,0.0,0.0,0.0,0.0,0.0,0.0,1.0,0.0,0.6059999999999981,0.6059999999999981,0.0,0.0,0.0,55.0,616.79921,10000.0,85.000001,85.000001,85.000001,85.000001,395.0,0.0,0.0,0.0,1.0,166.665,52.277,52.277,47.333,47.333,34.0,-23.9975,24.466,-28.323333333333334,29.0075,0.0,1782.996,-0.28999999999999915,100.0,28.137,27.915,43.349000000000004,43.157,0.0,0.0,100.0,0.0,0.0,0.0,0.0,3079.0,3106.1,4132.0,4174.0,305.3765,304.81075,314.80733333333336,314.532,21.8716,20.5822,21.9009,21.4162,314.999998,314.999998,324.999988,324.999988,99.55802857142857,99.50758333333333,99.56747142857142,99.54678571428572,0.07425000000000015,-0.05625000000000002,-0.10749999999999993,0.1140000000000001,-0.03999999999999915,-0.045000000000001705,1.544,1.5434999999999999,37.697,29.638666666666666,37.881,34.851,55.804,35.039,59.729,52.343,53.753,34.193,58.3115,50.664,52.925,33.760999999999996,58.2345,50.06666666666666,-0.09499999999999997,-0.05650000000000022,0.10399000000000001,0.11195000000000001,0.0,210.60000000000002,210.63,207.4766666666667,207.4766666666667,0.0,0.0
13,0.0,0.0,0.0,1.0,1.0,0.0,0.0,1.0,0.0,100.0,1.0,1.1856,26.0,0.0,0.0,0.0,59.999996,0.0,26.0,26.0,26.0,26.0,0.027875000000000094,0.2844,-0.13513333333333333,292.145,-2.6858,-2.690444444444444,-1.5912000000000002,-1.5626,-232.01,215.5,190.722875,0.0,0.0,0.0,0.0,0.027,-5.498166666666667,-5.498166666666667,-0.5211,0.085,0.007555555555555538,0.3440000000000003,67.403,-0.0017000000000000001,-0.1973,-0.2779999999999996,100.0,1.0,1.0,207.88666666666666,0.0,0.0,0.0,0.0,0.0,0.0,0.0,8811.5,0.0,55.0,5.0,242.62,1.0,0.0,0.0,0.0,0.0,0.0,1.0,0.0,0.6600000000000001,0.6600000000000001,0.0,0.0,1.0,55.0,616.79921,10000.0,85.000001,85.000001,85.000001,85.000001,395.0,0.0,0.0,0.0,1.0,166.665,52.673,52.673,46.936,46.936,34.0,-22.072499999999998,24.404,-28.83,30.26,0.0,1782.94,-0.375,100.0,28.016,27.866,43.836,43.893,0.0,0.0,100.0,0.0,0.0,0.0,0.0,2988.857142857143,3001.6,4111.142857142857,4273.2,305.6725,305.16825,314.83,314.24925,21.8817,20.5879,21.9121,21.4259,314.999998,314.999998,324.999988,324.999988,99.55804285714285,99.50758333333333,99.56761428571428,99.54694285714285,0.09750000000000014,-0.03374999999999995,-0.10749999999999993,0.11650000000000005,-0.04333333333332945,-0.046666666666666856,1.5314999999999999,1.4969999999999999,37.760999999999996,29.674666666666667,37.951,34.912,55.791,35.079499999999996,59.772,52.409,53.741,34.2305,58.349000000000004,50.7315,52.911,33.799,58.269,50.132666666666665,-0.11250000000000004,-0.040000000000000036,0.10386000000000001,0.10733000000000001,0.0,211.07999999999998,211.095,207.88666666666666,207.88666666666666,0.0,0.0
14,0.0,0.0,0.0,1.0,1.0,0.0,0.0,1.0,0.0,100.0,1.0,1.1856,26.0,0.0,0.0,0.0,59.999996,0.0,26.0,26.0,26.0,26.0,0.02825000000000011,0.27659999999999996,0.1233,292.343,-2.7034,-2.708222222222222,-1.5816,-1.556,-228.57,215.4925,190.701375,0.0,0.0,0.0,0.0,0.029,-5.498166666666667,-5.498166666666667,-0.5337000000000001,-0.33366666666666667,0.019888888888888845,0.1479999999999997,67.542,0.0053,-0.203025,-0.3379999999999992,100.0,1.0,1.0,208.39333333333332,0.0,0.0,0.0,0.0,0.0,0.0,0.0,8833.0,0.0,55.0,5.0,243.12333333333333,0.0,0.0,0.0,0.0,0.0,0.0,1.0,0.0,0.7109999999999985,0.7109999999999985,0.0,0.0,0.0,55.0,616.79921,10000.0,85.000001,85.000001,85.000001,85.000001,395.0,0.0,0.0,0.0,1.0,166.665,52.673,52.673,47.287,47.287,34.0,-22.7675,25.046,-27.266666666666666,29.0225,0.0,1782.891,-0.4250000000000007,100.0,27.804,27.709,43.730000000000004,43.935,0.0,0.0,100.0,0.0,0.0,0.0,0.0,3065.714285714286,3117.1,3999.8571428571427,4101.5,305.6035,304.93175,315.14033333333333,314.63725,21.8912,20.5934,21.9226,21.435,314.999998,314.999998,324.999988,324.999988,99.55805714285714,99.50758333333333,99.56775714285715,99.54708571428571,0.09624999999999995,-0.044749999999999956,-0.09983333333333333,0.12566666666666682,-0.054999999999999716,-0.054999999999999716,1.5470000000000002,1.5474999999999999,37.82,29.709,38.016,34.969,55.778999999999996,35.1175,59.8065,52.47,53.727999999999994,34.2655,58.382999999999996,50.786500000000004,52.897999999999996,33.8305,58.3,50.18633333333334,-0.11399999999999988,-0.05049999999999999,0.104495,0.110005,0.0,211.5,211.51999999999998,208.39333333333332,208.39333333333332,0.0,0.0
15,0.0,0.0,0.0,1.0,1.0,0.0,0.0,1.0,0.0,100.0,1.0,1.1856,26.0,0.0,0.0,0.0,59.999996,0.0,26.0,26.0,26.0,26.0,0.03025000000000011,0.27859999999999996,-0.17773333333333333,292.343,-2.6895,-2.684,-1.588,-1.5741,-225.53,215.4875,190.68225,0.0,0.0,0.0,0.0,0.03076666666666667,-5.498166666666667,-5.498166666666667,-0.5284,0.40066666666666667,0.02822222222222215,-0.07600000000000007,67.667,0.010700000000000001,-0.199025,-0.34999999999999964,100.0,1.0,1.0,208.75,0.0,0.0,0.0,0.0,0.0,0.0,0.0,8848.2,0.0,55.0,5.0,243.57,1.0,0.0,0.0,0.0,0.0,0.0,1.0,0.0,0.7560000000000002,0.7560000000000002,0.0,0.0,1.0,55.0,616.79921,10000.0,85.000001,85.000001,85.000001,85.000001,395.0,0.0,0.0,0.0,1.0,166.665,52.719,52.719,47.256,47.256,34.0,-21.875,24.444,-27.86,29.7375,0.0,1782.846,-0.33500000000000085,100.0,27.914,27.92,43.51,43.897999999999996,0.0,0.0,100.0,0.0,0.0,0.0,0.0,2961.714285714286,3003.5,4056.0,4138.6,305.748,305.0765,314.996,314.56925,21.8996,20.5983,21.9319,21.443,314.999998,314.999998,324.999988,324.999988,99.55807142857142,99.5076,99.56788571428571,99.54721428571429,0.09799999999999986,-0.03474999999999995,-0.10016666666666663,0.1283333333333332,-0.02833333333332888,-0.030000000000001137,1.5445,1.5375,37.872,29.739333333333335,38.074,35.019,55.769,35.1515,59.838499999999996,52.524,53.719,34.2965,58.4125,50.838499999999996,52.888,33.8605,58.327,50.23733333333333,-0.10450000000000004,-0.04700000000000015,0.110075,0.10846000000000001,0.0,211.88,211.89,208.75,208.75,0.0,0.0
16,0.0,0.0,0.0,1.0,1.0,0.0,0.0,1.0,0.0,100.0,1.0,1.1856,26.0,0.0,0.0,0.0,59.999996,0.0,26.0,26.0,26.0,26.0,0.02950000000000008,0.2650000000000001,-0.16013333333333332,292.13,-2.7454,-2.635888888888889,-1.5855000000000001,-1.5755,-221.87,215.48250000000002,190.658875,0.0,0.0,0.0,0.0,0.03286666666666667,-5.498166666666667,-5.498166666666667,-0.5397000000000001,-0.077,0.014222222222222136,-0.508,67.814,0.013600000000000001,-0.2069,-0.20399999999999974,100.0,1.0,1.0,209.21,0.0,0.0,0.0,0.0,0.0,0.0,0.0,8867.7,0.0,55.0,5.0,244.10333333333335,0.0,0.0,0.0,0.0,0.0,0.0,1.0,0.0,0.8099999999999987,0.8099999999999987,0.0,0.0,0.0,55.0,616.79921,10000.0,85.000001,85.000001,85.000001,85.000001,395.0,0.0,0.0,0.0,1.0,166.665,52.231,52.231,47.043,47.043,34.0,-24.0475,25.168,-27.43,29.259999999999998,0.0,1782.792,-0.245000000000001,100.0,27.875,27.988,43.769999999999996,43.957,0.0,0.0,100.0,0.0,0.0,0.0,0.0,3153.714285714286,3166.3,4039.714285714286,4036.5,305.2955,304.65475,315.03333333333336,314.83475,21.9095,20.6042,21.943,21.4527,314.999998,314.999998,324.999988,324.999988,99.55808571428571,99.5076,99.56804285714286,99.54735714285714,0.0950000000000002,-0.04125000000000001,-0.09416666666666662,0.13600000000000012,-0.03833333333332689,-0.045000000000001705,1.5390000000000001,1.5310000000000001,37.935,29.776333333333334,38.144,35.079499999999996,55.754000000000005,35.192,59.878,52.588499999999996,53.705,34.334,58.4495,50.9005,52.873000000000005,33.8965,58.3605,50.298,-0.09650000000000003,-0.06000000000000005,0.10826500000000001,0.10808000000000001,0.0,212.32999999999998,212.345,209.21,209.21,0.0,0.0
17,0.0,0.0,0.0,1.0,1.0,0.0,0.0,1.0,0.0,100.0,1.0,1.1856,26.0,0.0,0.0,0.0,59.999996,0.0,26.0,26.0,26.0,26.0,0.017875000000000085,0.28310000000000013,-0.12763333333333332,291.824,-2.6177,-2.616777777777778,-1.51235,-1.5381,-218.61,215.47750000000002,190.638,0.0,0.0,0.0,0.0,0.03476666666666667,-5.498166666666667,-5.498166666666667,-0.5343,0.3803333333333333,-0.0058888888888888324,-0.06599999999999984,67.946,0.013300000000000001,-0.2008,-0.1459999999999999,100.0,1.0,1.0,209.52666666666667,0.0,0.0,0.0,0.0,0.0,0.0,0.0,8881.1,0.0,55.0,5.0,244.57666666666665,1.0,0.0,0.0,0.0,0.0,0.0,1.0,0.0,0.8580000000000005,0.8580000000000005,0.0,0.0,1.0,55.0,616.79921,10000.0,85.000001,85.000001,85.000001,85.000001,395.0,0.0,0.0,0.0,1.0,333.33500000000004,52.246,52.246,46.555,46.555,34.0,-22.72,24.514,-28.046666666666663,30.4075,0.0,1782.743,-0.16000000000000014,100.0,28.113,28.052,43.874,43.957,0.0,0.0,100.0,0.0,0.0,0.0,0.0,3081.0,3116.8,4233.142857142857,4243.7,305.3195,304.784,314.5233333333333,314.3695,21.9185,20.6095,21.9529,21.4613,314.999998,314.999998,324.999988,324.999988,99.55808571428571,99.50761666666666,99.56817142857143,99.5475,0.08899999999999997,-0.04249999999999998,-0.09266666666666656,0.13166666666666682,-0.046666666666666856,-0.026666666666670835,1.5190000000000001,1.5035,37.991,29.808999999999997,38.206,35.132999999999996,55.744,35.2285,59.9135,52.6455,53.695,34.368,58.4825,50.9555,52.861999999999995,33.929,58.3905,50.352000000000004,-0.09250000000000003,-0.06400000000000006,0.10355500000000001,0.10723,0.0,212.78,212.755,209.52666666666667,209.52666666666667,0.0,0.0
18,0.0,0.0,0.0,1.0,1.0,0.0,0.0,1.0,0.0,100.0,1.0,1.1856,26.0,0.0,0.0,0.0,59.999996,0.0,26.0,26.0,26.0,26.0,0.03374999999999995,0.27090000000000014,-0.12786666666666668,291.84,-2.6447,-2.738888888888889,-1.51285,-1.4959,-215.35,215.4725,190.616875,0.0,0.0,0.0,0.0,0.03666666666666667,-5.498166666666667,-5.498166666666667,-0.5445,-0.16333333333333336,0.002777777777777768,0.20699999999999985,68.077,0.0047,-0.2076,-0.047999999999999154,100.0,1.0,1.0,209.93,0.0,0.0,0.0,0.0,0.0,0.0,0.0,8898.2,0.0,55.0,5.0,245.04666666666668,0.0,0.0,0.0,0.0,0.0,0.0,1.0,0.0,0.9059999999999988,0.9059999999999988,0.0,0.0,0.0,55.0,616.79921,10000.0,85.000001,85.000001,85.000001,85.000001,395.0,0.0,0.0,0.0,1.0,166.665,52.261,52.261,46.707,46.707,34.0,-22.8275,25.334,-27.53,29.505000000000003,0.0,1782.696,-0.21999999999999886,100.0,28.04,28.081,43.979,44.156,0.0,0.0,100.0,0.0,0.0,0.0,0.0,3076.714285714286,3099.8,4096.0,4269.7,305.4035,304.74775,314.837,314.286,21.9274,20.6146,21.9628,21.4699,314.999998,314.999998,324.999988,324.999988,99.5581,99.50761666666666,99.56831428571428,99.54764285714286,0.08950000000000014,-0.04799999999999993,-0.10133333333333339,0.121,-0.01833333333333087,-0.023333333333326323,1.4965,1.5015,38.046,29.84133333333333,38.268,35.187,55.730999999999995,35.263999999999996,59.948,52.7035,53.683,34.4005,58.5145,51.010999999999996,52.849000000000004,33.96,58.42,50.406666666666666,-0.10050000000000003,-0.05600000000000005,0.10644500000000001,0.11129000000000001,0.0,213.12,213.135,209.93,209.93,0.0,0.0
19,0.0,0.0,0.0,1.0,1.0,0.0,0.0,1.0,0.0,100.0,1.0,1.1856,26.0,0.0,0.0,0.0,59.999996,0.0,26.0,26.0,26.0,26.0,0.03037500000000004,0.27880000000000016,0.19583333333333333,291.672,-2.6494999999999997,-2.705,-1.5390000000000001,-1.6183,-211.87,215.47,190.594125,0.0,0.0,0.0,0.0,0.038700000000000005,-5.498166666666667,-5.498166666666667,-0.5356000000000001,0.4076666666666667,0.010888888888888948,-0.07600000000000007,68.214,-0.0023,-0.19525,0.0420000000000007,100.0,1.0,1.0,210.36666666666667,0.0,0.0,0.0,0.0,0.0,0.0,0.0,8916.7,0.0,55.0,5.0,245.54333333333335,1.0,0.0,0.0,0.0,0.0,0.0,1.0,0.0,0.9570000000000007,0.9570000000000007,0.0,0.0,1.0,55.0,616.79921,10000.0,85.000001,85.000001,85.000001,85.000001,395.0,0.0,0.0,0.0,1.0,333.33500000000004,51.956,51.956,46.799,46.799,34.0,-23.915,24.782,-28.82,30.685,0.0,1782.643,-0.1999999999999993,100.0,28.343,28.303,43.868,44.289,0.0,0.0,100.0,0.0,0.0,0.0,0.0,3160.5714285714284,3114.6,4141.428571428572,4214.9,305.2875,304.846,314.782,314.32525,21.937,20.6203,21.973300000000002,21.4791,314.999998,314.999998,324.999988,324.999988,99.55811428571428,99.50761666666666,99.56845714285714,99.54778571428571,0.07900000000000018,-0.05325000000000002,-0.11266666666666658,0.11633333333333318,-0.04333333333332945,-0.05833333333333002,1.49,1.4969999999999999,38.105999999999995,29.876666666666665,38.333,35.244,55.72,35.304,59.9835,52.7645,53.672,34.4375,58.5475,51.0695,52.838,33.9955,58.45,50.464,-0.09199999999999986,-0.06199999999999983,0.10806,0.11237000000000001,0.0,213.61,213.595,210.36666666666667,210.36666666666667,0.0,0.0
20,0.0,0.0,0.0,1.0,1.0,0.0,0.0,1.0,0.0,100.0,1.0,1.1856,26.0,0.0,0.0,0.0,59.999996,0.0,26.0,26.0,26.0,26.0,0.00275000000000003,0.26970000000000005,-0.13090000000000002,291.748,-2.7084,-2.6485555555555558,-1.54355,-1.6078999999999999,-208.39,215.465,190.5715,0.0,0.0,0.0,0.0,0.0407,-5.498166666666667,-5.498166666666667,-0.5409,-0.7296666666666667,0.005444444444444363,-0.30299999999999994,68.351,-0.0059,-0.20475000000000002,0.02600000000000069,100.0,1.0,1.0,210.78333333333333,0.0,0.0,0.0,0.0,0.0,0.0,0.0,8934.3,0.0,55.0,5.0,246.03666666666666,0.0,0.0,0.0,0.0,0.0,0.0,0.0,0.0,1.0079999999999991,1.0079999999999991,0.0,0.0,0.0,55.0,616.79921,10000.0,85.000001,85.000001,85.000001,85.000001,395.0,0.0,0.0,0.0,1.0,333.33500000000004,52.322,52.322,46.356,46.356,34.0,-23.175,23.174,-28.673333333333336,28.0475,0.0,1782.593,-0.21499999999999986,100.0,28.283,28.283,44.55,44.68,0.0,0.0,100.0,0.0,0.0,0.0,0.0,3024.714285714286,3026.1,4079.8571428571427,4030.7,305.661,305.1425,314.89633333333336,314.78975,21.9464,20.625799999999998,21.984,21.4883,314.999998,314.999998,324.999988,324.999988,99.55811428571428,99.50763333333333,99.5686,99.54792857142857,0.08174999999999999,-0.05999999999999994,-0.12,0.10116666666666685,-0.03499999999999659,-0.04833333333333201,1.5194999999999999,1.526,38.165,29.911,38.4,35.302,55.706,35.341499999999996,60.022,52.826,53.658,34.4725,58.5835,51.129,52.823,34.0285,58.4825,50.522,-0.10149999999999992,-0.06550000000000011,0.10821000000000001,0.10228000000000001,0.0,213.98000000000002,213.97500000000002,210.78333333333333,210.78333333333333,0.0,0.0
21,0.0,0.0,0.0,1.0,1.0,0.0,0.0,1.0,0.0,100.0,1.0,1.1856,26.0,0.0,0.0,0.0,59.999996,0.0,26.0,26.0,26.0,26.0,-0.003249999999999975,0.25890000000000013,-0.16713333333333333,291.779,-2.7029,-2.6630000000000003,-1.58805,-1.55,-205.1,215.4625,190.54975,0.0,0.0,0.0,0.0,0.042633333333333336,-5.498166666666667,-5.498166666666667,-0.5631,0.161,-0.006222222222222129,0.07500000000000018,68.479,-0.0046,-0.214475,-0.07200000000000006,100.0,1.0,1.0,211.23666666666668,0.0,0.0,0.0,0.0,0.0,0.0,0.0,8953.5,0.0,55.0,5.0,246.49333333333334,1.0,0.0,0.0,0.0,0.0,0.0,0.0,0.0,1.056000000000001,1.056000000000001,0.0,0.0,1.0,55.0,616.79921,10000.0,85.000001,85.000001,85.000001,85.000001,395.0,0.0,0.0,0.0,1.0,333.33500000000004,51.849000000000004,51.849000000000004,46.967,46.967,34.0,-24.799999999999997,24.478,-28.8,28.23,0.0,1782.545,-0.21499999999999986,100.0,28.455,28.3,44.088,44.123000000000005,0.0,0.0,100.0,0.0,0.0,0.0,0.0,3188.285714285714,3120.4,4087.285714285714,4079.9,305.1185,304.8435,314.94733333333335,314.7945,21.9553,20.631,21.9938,21.4968,314.999998,314.999998,324.999988,324.999988,99.55814285714285,99.50763333333333,99.56874285714285,99.54807142857143,0.07874999999999988,-0.05249999999999999,-0.11483333333333334,0.11699999999999999,-0.030000000000001137,-0.03166666666666629,1.5615,1.548,38.221000000000004,29.943666666666665,38.461,35.3555,55.695,35.3785,60.055,52.881,53.647999999999996,34.506,58.6145,51.182,52.811,34.061,58.5105,50.57366666666667,-0.09399999999999986,-0.05699999999999994,0.11087000000000001,0.10964000000000002,0.0,214.39,214.39,211.23666666666668,211.23666666666668,0.0,0.0
22,0.0,0.0,0.0,1.0,1.0,0.0,0.0,1.0,0.0,100.0,1.0,1.1856,26.0,0.0,0.0,0.0,59.999996,0.0,26.0,26.0,26.0,26.0,-0.002375000000000016,0.2885,0.12490000000000001,291.565,-2.7632,-2.629777777777778,-1.6095000000000002,-1.5465,-201.61,215.45749999999998,190.52625,0.0,0.0,0.0,0.0,0.044666666666666674,-5.498166666666667,-5.498166666666667,-0.5473,0.01966666666666667,0.003444444444444361,0.19899999999999984,68.616,-0.003,-0.189525,-0.09200000000000053,100.0,1.0,1.0,211.54000000000002,0.0,0.0,0.0,0.0,0.0,0.0,0.0,8966.4,0.0,55.0,5.0,246.99,0.0,0.0,0.0,0.0,0.0,0.0,0.0,0.0,1.1069999999999993,1.1069999999999993,0.0,0.0,0.0,55.0,616.79921,10000.0,85.000001,85.000001,85.000001,85.000001,395.0,0.0,0.0,0.0,1.0,333.33500000000004,52.17,52.17,46.31,46.31,34.0,-24.3875,24.183999999999997,-30.41,30.11,0.0,1782.494,-0.254999999999999,100.0,28.343,28.175,44.236000000000004,44.233000000000004,0.0,0.0,100.0,0.0,0.0,0.0,0.0,3137.142857142857,3139.7,4247.571428571428,4344.7,305.476,304.927,314.5593333333333,314.13175,21.9648,20.6366,22.0043,21.5061,314.999998,314.999998,324.999988,324.999988,99.55814285714285,99.50765,99.56888571428571,99.54821428571428,0.0847500000000001,-0.05249999999999999,-0.10716666666666663,0.10716666666666685,-0.05333333333332746,-0.045000000000001705,1.4895,1.501,38.28,29.979,38.527,35.413,55.683,35.418,60.0925,52.942,53.637,34.542500000000004,58.6495,51.2405,52.799,34.096000000000004,58.542500000000004,50.63133333333333,-0.10199999999999987,-0.06000000000000005,0.10368000000000001,0.108715,0.0,214.85000000000002,214.825,211.54000000000002,211.54000000000002,0.0,0.0
23,0.0,0.0,0.0,1.0,1.0,0.0,0.0,1.0,0.0,100.0,1.0,1.1856,26.0,0.0,0.0,0.0,59.999996,0.0,26.0,26.0,26.0,26.0,-0.005249999999999977,0.28,0.16746666666666668,291.428,-2.6499,-2.695888888888889,-1.64675,-1.5262,-197.89999999999998,215.45499999999998,190.50125,0.0,0.0,0.0,0.0,0.04683333333333333,-5.498166666666667,-5.498166666666667,-0.5564,-0.385,-0.0009999999999998899,0.0129999999999999,68.758,0.0025,-0.200375,-0.15399999999999991,100.0,1.0,1.0,211.99666666666667,0.0,0.0,0.0,0.0,0.0,0.0,0.0,8985.8,0.0,55.0,5.0,247.50333333333333,1.0,0.0,0.0,0.0,0.0,0.0,0.0,0.0,1.1610000000000014,1.1610000000000014,0.0,0.0,1.0,55.0,616.79921,10000.0,85.000001,85.000001,85.000001,85.000001,395.0,0.0,0.0,0.0,1.0,166.665,51.956,51.956,46.31,46.31,34.0,-24.502499999999998,24.606,-31.266666666666666,28.83,0.0,1782.44,-0.21499999999999986,100.0,28.403,28.148,44.464,44.5,0.0,0.0,100.0,0.0,0.0,0.0,0.0,3227.0,3123.2,4280.285714285715,4220.1,305.103,304.91975,314.51933333333335,314.44325,21.9748,20.6426,22.0155,21.5159,314.999998,314.999998,324.999988,324.999988,99.55815714285714,99.50765,99.56904285714286,99.54837142857143,0.07925000000000004,-0.05499999999999994,-0.1103333333333334,0.10866666666666669,-0.041666666666671404,-0.05666666666667197,1.5075,1.509,38.342,30.016,38.597,35.474000000000004,55.67,35.459,60.1315,53.0065,53.623999999999995,34.5805,58.686,51.3025,52.786,34.1325,58.5755,50.692,-0.09650000000000003,-0.06349999999999989,0.10688,0.107645,0.0,215.26,215.26,211.99666666666667,211.99666666666667,0.0,0.0
24,0.0,0.0,0.0,1.0,1.0,0.0,0.0,1.0,0.0,100.0,1.0,1.1856,26.0,0.0,0.0,0.0,59.999996,0.0,26.0,26.0,26.0,26.0,0.01200000000000001,0.26980000000000004,0.06813333333333334,291.84,-2.7027,-2.687555555555556,-1.55985,-1.5753,-194.59,215.45,190.478625,0.0,0.0,0.0,0.0,0.04873333333333334,-5.498166666666667,-5.498166666666667,-0.5745,-0.7293333333333334,0.013777777777777889,0.569,68.885,0.0045000000000000005,-0.20655,-0.1299999999999999,100.0,1.0,1.0,212.41666666666669,0.0,0.0,0.0,0.0,0.0,0.0,0.0,9003.5,0.0,55.0,5.0,247.96,0.0,0.0,0.0,0.0,0.0,0.0,0.0,0.0,1.2089999999999996,1.2089999999999996,0.0,0.0,0.0,55.0,616.79921,10000.0,85.000001,85.000001,85.000001,85.000001,395.0,0.0,0.0,0.0,1.0,166.665,52.475,52.475,46.57,46.57,34.0,-22.8625,23.997999999999998,-28.083333333333336,29.697499999999998,0.0,1782.393,-0.21499999999999986,100.0,28.272,28.058,44.394,44.411,0.0,0.0,100.0,0.0,0.0,0.0,0.0,3034.4285714285716,3080.8,4091.714285714286,4138.4,305.736,305.06525,314.88,314.6045,21.9836,20.6478,22.0254,21.5245,314.999998,314.999998,324.999988,324.999988,99.55817142857143,99.50766666666667,99.56918571428571,99.54851428571429,0.08775000000000022,-0.058250000000000024,-0.10233333333333339,0.12416666666666676,-0.03333333333333144,-0.05666666666667197,1.524,1.51,38.397,30.048333333333332,38.659,35.528,55.658,35.494,60.1655,53.063,53.613,34.613,58.7175,51.357,52.772999999999996,34.163,58.604,50.745,-0.09850000000000003,-0.06550000000000011,0.10059000000000001,0.107965,0.0,215.635,215.655,212.41666666666669,212.41666666666669,0.0,0.0
25,0.0,0.0,0.0,1.0,1.0,0.0,0.0,1.0,0.0,100.0,1.0,1.1856,26.0,0.0,0.0,0.0,59.999996,0.0,26.0,26.0,26.0,26.0,0.013000000000000123,0.2764,0.1355,291.534,-2.6758,-2.649222222222222,-1.5963,-1.5685,-191.28,215.4475,190.45475,0.0,0.0,0.0,0.0,0.05066666666666667,-5.498166666666667,-5.498166666666667,-0.5952000000000001,-0.07133333333333333,0.015111111111111075,-0.46899999999999986,69.01,0.0058000000000000005,-0.20922500000000002,-0.13999999999999968,100.0,1.0,1.0,212.85666666666668,0.0,0.0,0.0,0.0,0.0,0.0,0.0,9022.2,0.0,55.0,5.0,248.41,1.0,0.0,0.0,0.0,0.0,0.0,0.0,0.0,1.256999999999998,1.256999999999998,0.0,0.0,1.0,55.0,616.79921,10000.0,85.000001,85.000001,85.000001,85.000001,395.0,0.0,0.0,0.0,1.0,333.33500000000004,51.315,51.315,46.951,46.951,34.0,-24.91,26.418,-28.396666666666665,28.700000000000003,0.0,1782.344,-0.254999999999999,100.0,28.365000000000002,28.359,43.968,44.097,0.0,0.0,100.0,0.0,0.0,0.0,0.0,3342.714285714286,3363.6,4057.1428571428573,4114.0,304.7985,304.2015,315.069,314.6725,21.9924,20.6531,22.0351,21.5331,314.999998,314.999998,324.999988,324.999988,99.55817142857143,99.50768333333333,99.56931428571428,99.54864285714285,0.09699999999999998,-0.05325000000000002,-0.10883333333333334,0.1140000000000001,-0.05833333333333002,-0.04833333333333201,1.5430000000000001,1.546,38.452,30.082,38.72,35.582,55.646,35.5315,60.1975,53.1185,53.601,34.6475,58.747,51.4105,52.760999999999996,34.1965,58.631,50.797,-0.10699999999999998,-0.0674999999999999,0.10694500000000001,0.10054500000000001,0.0,216.035,216.04500000000002,212.85666666666668,212.85666666666668,0.0,0.0
26,0.0,0.0,0.0,1.0,1.0,0.0,0.0,1.0,0.0,100.0,1.0,1.1856,26.0,0.0,0.0,0.0,59.999996,0.0,26.0,26.0,26.0,26.0,0.017749999999999932,0.2653000000000001,-0.10453333333333333,290.787,-2.699,-2.6546666666666665,-1.5629,-1.5741,-187.76,215.445,190.42925,0.0,0.0,0.0,0.0,0.052700000000000004,-5.498166666666667,-5.498166666666667,-0.5597,0.666,0.004444444444444251,0.3120000000000003,69.146,0.0079,-0.18785000000000002,-0.14399999999999924,100.0,1.0,1.0,213.08333333333331,0.0,0.0,0.0,0.0,0.0,0.0,0.0,9031.9,0.0,55.0,5.0,248.89666666666665,0.0,0.0,0.0,0.0,0.0,0.0,0.0,0.0,1.3079999999999998,1.3079999999999998,0.0,0.0,0.0,55.0,616.79921,10000.0,85.000001,85.000001,85.000001,85.000001,395.0,0.0,0.0,0.0,1.0,333.33500000000004,51.514,51.514,45.653999999999996,45.653999999999996,34.0,-24.0975,24.014,-31.14,32.18,0.0,1782.293,-0.28999999999999915,100.0,29.06,28.846,44.683,44.771,0.0,0.0,100.0,0.0,0.0,0.0,0.0,3167.0,3048.3,4417.571428571428,4415.1,305.1995,305.09225,314.1333333333333,313.90475,22.0019,20.6589,22.0457,21.5424,314.999998,314.999998,324.999988,324.999988,99.55818571428571,99.50768333333333,99.56947142857143,99.54878571428571,0.08975,-0.04599999999999993,-0.10216666666666663,0.11966666666666681,-0.02499999999999858,-0.026666666666670835,1.451,1.4465,38.512,30.118000000000002,38.786,35.6405,55.637,35.572,60.236,53.18,53.592,34.685,58.783,51.4695,52.751000000000005,34.232,58.6635,50.855000000000004,-0.09850000000000003,-0.058499999999999996,0.107825,0.10791500000000001,0.0,216.48000000000002,216.48000000000002,213.08333333333331,213.08333333333331,0.0,0.0
27,0.0,0.0,0.0,1.0,1.0,0.0,0.0,1.0,0.0,100.0,1.0,1.1856,26.0,0.0,0.0,0.0,59.999996,0.0,26.0,26.0,26.0,26.0,0.025500000000000078,0.2661,0.04576666666666667,291.122,-2.7425,-2.671222222222222,-1.624,-1.557,-184.23000000000002,215.4425,190.4045,0.0,0.0,0.0,0.0,0.054766666666666665,-5.498166666666667,-5.498166666666667,-0.5831000000000001,-1.0963333333333334,0.013333333333333197,0.14400000000000013,69.278,0.0066,-0.21415,-0.18599999999999994,100.0,1.0,1.0,213.59,0.0,0.0,0.0,0.0,0.0,0.0,0.0,9053.3,0.0,55.0,5.0,249.37333333333333,1.0,0.0,0.0,0.0,0.0,0.0,0.0,0.0,1.3589999999999982,1.3589999999999982,0.0,0.0,1.0,55.0,616.79921,10000.0,85.000001,85.000001,85.000001,85.000001,395.0,0.0,0.0,0.0,1.0,166.665,51.712,51.712,45.807,45.807,34.0,-23.455,25.68,-28.363333333333333,30.275,0.0,1782.244,-0.33500000000000085,100.0,28.731,28.677,45.09,45.099000000000004,0.0,0.0,100.0,0.0,0.0,0.0,0.0,3108.285714285714,3191.5,4071.5714285714284,4162.8,305.5895,304.7365,314.9033333333333,314.581,22.0111,20.6645,22.0563,21.5518,314.999998,314.999998,324.999988,324.999988,99.5582,99.50768333333333,99.56961428571428,99.54894285714286,0.09575000000000022,-0.03874999999999995,-0.09150000000000003,0.1363333333333332,-0.046666666666666856,-0.04999999999999716,1.509,1.502,38.569,30.153333333333336,38.852000000000004,35.699,55.623999999999995,35.6105,60.274,53.2415,53.58,34.7205,58.818,51.5285,52.736999999999995,34.266,58.695499999999996,50.91266666666667,-0.10549999999999993,-0.053999999999999826,0.09677000000000001,0.11263500000000001,0.0,216.845,216.845,213.59,213.59,0.0,0.0
28,0.0,0.0,0.0,1.0,1.0,0.0,0.0,1.0,0.0,100.0,1.0,1.1856,26.0,0.0,0.0,0.0,59.999996,0.0,26.0,26.0,26.0,26.0,0.024499999999999966,0.2601,-0.19696666666666668,291.199,-2.669,-2.656888888888889,-1.6301,-1.5870000000000002,-180.7,215.4425,190.378875,0.0,0.0,0.0,0.0,0.0568,-5.498166666666667,-5.498166666666667,-0.5938,0.644,-0.0032222222222220154,-0.2559999999999998,69.408,0.0076,-0.2124,-0.25399999999999956,100.0,1.0,1.0,214.04333333333335,0.0,0.0,0.0,0.0,0.0,0.0,0.0,9072.5,0.0,55.0,5.0,249.84333333333336,0.0,0.0,0.0,0.0,0.0,0.0,0.0,0.0,1.4100000000000001,1.4100000000000001,0.0,0.0,0.0,55.0,616.79921,10000.0,85.000001,85.000001,85.000001,85.000001,395.0,0.0,0.0,0.0,1.0,166.665,51.483,51.483,46.204,46.204,34.0,-22.662499999999998,24.808,-30.093333333333334,30.185,0.0,1782.193,-0.370000000000001,100.0,28.988,28.923000000000002,44.389,44.586,0.0,0.0,100.0,0.0,0.0,0.0,0.0,3075.5714285714284,3113.6,4255.142857142857,4156.6,305.385,304.75775,314.6476666666667,314.63325,22.0205,20.6703,22.0667,21.561,314.999998,314.999998,324.999988,324.999988,99.55821428571429,99.50768333333333,99.56975714285714,99.54908571428571,0.10024999999999995,-0.04574999999999996,-0.10066666666666657,0.1306666666666667,-0.03833333333332689,-0.03499999999999659,1.5394999999999999,1.528,38.628,30.189666666666668,38.917,35.756,55.613,35.6505,60.3075,53.3,53.57,34.7575,58.8495,51.585,52.726,34.3015,58.7235,50.967666666666666,-0.11099999999999999,-0.0495000000000001,0.10895,0.11317500000000001,0.0,217.28,217.29500000000002,214.04333333333335,214.04333333333335,0.0,0.0
29,0.0,0.0,0.0,1.0,1.0,0.0,0.0,1.0,0.0,100.0,1.0,1.1856,26.0,0.0,0.0,0.0,59.999996,0.0,26.0,26.0,26.0,26.0,0.03887499999999999,0.25770000000000004,-0.14436666666666667,291.275,-2.7423,-2.7156666666666665,-1.61375,-1.5636999999999999,-177.36,215.44,190.35425,0.0,0.0,0.0,0.0,0.05876666666666667,-5.498166666666667,-5.498166666666667,-0.5961000000000001,-0.48533333333333334,-0.003666666666666707,-0.1379999999999999,69.533,0.0088,-0.20372500000000002,-0.25399999999999956,100.0,1.0,1.0,214.34333333333333,0.0,0.0,0.0,0.0,0.0,0.0,0.0,9085.2,0.0,55.0,5.0,250.29333333333335,1.0,0.0,0.0,0.0,0.0,0.0,0.0,0.0,1.4579999999999984,1.4579999999999984,0.0,0.0,1.0,55.0,616.79921,10000.0,85.000001,85.000001,85.000001,85.000001,395.0,0.0,0.0,0.0,1.0,333.33500000000004,52.002,52.002,46.126999999999995,46.126999999999995,34.0,-23.1625,23.788,-28.8,30.7625,0.0,1782.142,-0.41000000000000014,100.0,28.737000000000002,28.712,44.793,44.894,0.0,0.0,100.0,0.0,0.0,0.0,0.0,3094.285714285714,2975.6,4141.142857142857,4244.4,305.665,305.21025,314.842,314.3535,22.0291,20.6756,22.0766,21.5697,314.999998,314.999998,324.999988,324.999988,99.55822857142857,99.5077,99.56991428571429,99.54922857142857,0.0990000000000002,-0.05149999999999999,-0.09433333333333338,0.1280000000000001,-0.046666666666666856,-0.030000000000001137,1.512,1.4905,38.682,30.222666666666665,38.979,35.811,55.601,35.686,60.343,53.357,53.558,34.79,58.8825,51.64,52.714,34.333,58.7535,51.02133333333333,-0.10949999999999993,-0.05549999999999988,0.099455,0.10999500000000001,0.0,217.65,217.655,214.34333333333333,214.34333333333333,0.0,0.0
30,0.0,0.0,0.0,1.0,1.0,0.0,0.0,1.0,0.0,100.0,1.0,1.1856,26.0,0.0,0.0,0.0,59.999996,0.0,26.0,26.0,26.0,26.0,0.02462500000000012,0.2553000000000001,-0.08753333333333334,290.558,-2.7173,-2.646333333333333,-1.64845,-1.4819,-174.01999999999998,215.44,190.32925,0.0,0.0,0.0,0.0,0.060700000000000004,-5.498166666666667,-5.498166666666667,-0.5920000000000001,1.079,0.00044444444444424747,0.2649999999999997,69.656,0.0109,-0.20422500000000002,-0.3360000000000003,100.0,1.0,1.0,214.76,0.0,0.0,0.0,0.0,0.0,0.0,0.0,9102.9,0.0,55.0,5.0,250.73333333333335,0.0,0.0,0.0,0.0,0.0,0.0,1.0,0.0,1.5060000000000002,1.5060000000000002,0.0,0.0,0.0,55.0,616.79921,10000.0,85.000001,85.000001,85.000001,85.000001,395.0,0.0,0.0,0.0,1.0,333.33500000000004,50.385,50.385,46.004999999999995,46.004999999999995,34.0,-24.915,26.796,-30.283333333333335,28.9575,0.0,1782.094,-0.41000000000000014,100.0,29.434,29.348,44.528,44.869,0.0,0.0,100.0,0.0,0.0,0.0,0.0,3302.4285714285716,3282.1,4286.428571428572,4229.6,304.698,304.16375,314.6326666666667,314.6025,22.0381,20.6812,22.0865,21.5785,314.999998,314.999998,324.999988,324.999988,99.55824285714286,99.5077,99.57004285714285,99.54937142857143,0.10475000000000012,-0.036250000000000004,-0.09416666666666662,0.12549999999999994,-0.03499999999999659,-0.054999999999999716,1.5245,1.5135,38.738,30.257666666666665,39.04,35.8655,55.594,35.7275,60.378,53.417,53.551,34.8285,58.915,51.6975,52.705,34.3695,58.783,51.077666666666666,-0.11499999999999999,-0.044500000000000206,0.104715,0.103105,0.0,218.04000000000002,218.065,214.76,214.76,0.0,0.0
31,0.0,0.0,0.0,1.0,1.0,0.0,0.0,1.0,0.0,100.0,1.0,1.1856,26.0,0.0,0.0,0.0,59.999996,0.0,26.0,26.0,26.0,26.0,0.030124999999999957,0.2583,0.184,290.176,-2.7609,-2.6317777777777778,-1.65385,-1.5124,-170.45999999999998,215.4425,190.3035,0.0,0.0,0.0,0.0,0.06276666666666667,-5.498166666666667,-5.498166666666667,-0.5736,-0.5666666666666667,0.006999999999999895,-0.21700000000000008,69.788,0.0167,-0.203325,-0.3899999999999997,100.0,1.0,1.0,215.01333333333332,0.0,0.0,0.0,0.0,0.0,0.0,0.0,9113.7,0.0,55.0,5.0,251.21,1.0,0.0,0.0,0.0,0.0,0.0,1.0,0.0,1.5569999999999986,1.5569999999999986,0.0,0.0,1.0,55.0,616.79921,10000.0,85.000001,85.000001,85.000001,85.000001,395.0,0.0,0.0,0.0,1.0,333.33500000000004,50.858000000000004,50.858000000000004,44.724000000000004,44.724000000000004,34.0,-23.725,27.052,-30.906666666666666,31.635,0.0,1782.044,-0.41000000000000014,100.0,29.174,29.255,45.451,45.661,0.0,0.0,100.0,0.0,0.0,0.0,0.0,3214.142857142857,3378.9,4312.857142857143,4362.7,305.269,304.22975,314.35633333333334,314.00575,22.0474,20.6871,22.0972,21.588,314.999998,314.999998,324.999988,324.999988,99.55825714285714,99.5077,99.57018571428571,99.54952857142857,0.11575000000000024,-0.037250000000000005,-0.08716666666666661,0.13200000000000012,-0.04999999999999716,-0.041666666666671404,1.4355,1.433,38.796,30.294333333333334,39.107,35.925,55.584,35.7655,60.415,53.4775,53.541,34.8635,58.9495,51.7555,52.694,34.403,58.814,51.13433333333333,-0.11949999999999994,-0.05600000000000005,0.10679500000000001,0.10111500000000001,0.0,218.435,218.44,215.01333333333332,215.01333333333332,0.0,0.0
32,0.0,0.0,0.0,1.0,1.0,0.0,0.0,1.0,0.0,100.0,1.0,1.1856,26.0,0.0,0.0,0.0,59.999996,0.0,26.0,26.0,26.0,26.0,0.04112500000000008,0.24150000000000005,-0.1474666666666667,290.848,-2.6783,-2.694,-1.58375,-1.6440000000000001,-166.89999999999998,215.4425,190.278,0.0,0.0,0.0,0.0,0.06483333333333334,-5.498166666666667,-5.498166666666667,-0.6004,-0.3826666666666667,-0.019777777777777672,-0.2629999999999999,69.916,0.0233,-0.22855,-0.37600000000000033,100.0,1.0,1.0,215.5233333333333,0.0,0.0,0.0,0.0,0.0,0.0,0.0,9135.3,0.0,55.0,5.0,251.67000000000002,0.0,0.0,0.0,0.0,0.0,0.0,1.0,0.0,1.6080000000000005,1.6080000000000005,0.0,0.0,0.0,55.0,616.79921,10000.0,85.000001,85.000001,85.000001,85.000001,395.0,0.0,0.0,0.0,1.0,333.33500000000004,51.285,51.285,46.004999999999995,46.004999999999995,34.0,-22.34,25.008,-27.763333333333335,32.2275,0.0,1781.993,-0.34499999999999886,100.0,29.221,29.237000000000002,45.028,45.186,0.0,0.0,100.0,0.0,0.0,0.0,0.0,3105.714285714286,3085.3,4098.857142857143,4215.8,305.3845,304.926,314.896,314.3915,22.0567,20.6929,22.107599999999998,21.5973,314.999998,314.999998,324.999988,324.999988,99.55827142857143,99.50771666666667,99.57034285714286,99.54967142857143,0.11375000000000002,-0.04074999999999995,-0.08799999999999997,0.139,-0.04833333333333201,-0.03499999999999659,1.5194999999999999,1.5015,38.854,30.330333333333336,39.173,35.983000000000004,55.573,35.804,60.45,53.537,53.53,34.8995,58.982,51.813,52.682,34.437,58.8435,51.190333333333335,-0.11199999999999988,-0.05699999999999994,0.10594500000000001,0.10904000000000001,0.0,218.82999999999998,218.825,215.5233333333333,215.5233333333333,0.0,0.0
33,0.0,0.0,0.0,1.0,1.0,0.0,0.0,1.0,0.0,100.0,1.0,1.1856,26.0,0.0,0.0,0.0,59.999996,0.0,26.0,26.0,26.0,26.0,0.03974999999999995,0.2633000000000001,0.023833333333333335,291.199,-2.7032,-2.645777777777778,-1.5998999999999999,-1.592,-163.32999999999998,215.445,190.251375,0.0,0.0,0.0,0.0,0.0669,-5.498166666666667,-5.498166666666667,-0.6144000000000001,-0.29033333333333333,-0.007888888888889056,0.532,70.044,0.021500000000000002,-0.21115,-0.25200000000000067,100.0,1.0,1.0,215.96333333333334,0.0,0.0,0.0,0.0,0.0,0.0,0.0,9154.0,0.0,55.0,5.0,252.13333333333333,1.0,0.0,0.0,0.0,0.0,0.0,1.0,0.0,1.658999999999999,1.658999999999999,0.0,0.0,1.0,55.0,616.79921,10000.0,85.000001,85.000001,85.000001,85.000001,395.0,0.0,0.0,0.0,1.0,166.665,51.483,51.483,46.539,46.539,34.0,-22.7575,25.022,-27.566666666666663,30.86,0.0,1781.944,-0.41000000000000014,100.0,29.023,29.016,44.57,44.849000000000004,0.0,0.0,100.0,0.0,0.0,0.0,0.0,3134.4285714285716,3120.2,4038.8571428571427,4180.8,305.438,304.9645,315.0706666666667,314.521,22.0659,20.6986,22.118,21.6065,314.999998,314.999998,324.999988,324.999988,99.55828571428572,99.50771666666667,99.57048571428571,99.54982857142858,0.11149999999999993,-0.03374999999999995,-0.09066666666666656,0.13483333333333336,-0.04833333333333201,-0.06499999999999773,1.5255,1.516,38.912,30.366,39.238,36.041,55.562,35.841499999999996,60.484,53.595,53.519999999999996,34.934,59.0135,51.869,52.671,34.47,58.8715,51.245,-0.11450000000000005,-0.05149999999999988,0.105575,0.10855500000000001,0.0,219.22500000000002,219.265,215.96333333333334,215.96333333333334,0.0,0.0
34,0.0,0.0,0.0,1.0,1.0,0.0,0.0,1.0,0.0,100.0,1.0,1.1856,26.0,0.0,0.0,0.0,59.999996,0.0,26.0,26.0,26.0,26.0,0.03950000000000009,0.25540000000000007,-0.03456666666666667,291.275,-2.655,-2.6773333333333333,-1.6308,-1.5373999999999999,-159.97,215.4475,190.22475,0.0,0.0,0.0,0.0,0.06886666666666666,-5.498166666666667,-5.498166666666667,-0.6415000000000001,-1.052,0.010777777777777775,0.274,70.166,0.0217,-0.214625,-0.3179999999999996,100.0,1.0,1.0,216.27666666666667,0.0,0.0,0.0,0.0,0.0,0.0,0.0,9167.2,0.0,55.0,5.0,252.57,0.0,0.0,0.0,0.0,0.0,0.0,1.0,0.0,1.7070000000000007,1.7070000000000007,0.0,0.0,0.0,55.0,616.79921,10000.0,85.000001,85.000001,85.000001,85.000001,395.0,0.0,0.0,0.0,1.0,333.33500000000004,51.804,51.804,46.494,46.494,34.0,-21.509999999999998,25.022,-28.919999999999998,30.78,0.0,1781.894,-0.384999999999998,100.0,28.887999999999998,28.862000000000002,44.464,45.022999999999996,0.0,0.0,100.0,0.0,0.0,0.0,0.0,3044.5714285714284,3073.6,4145.285714285715,4211.1,305.7225,305.1715,314.8503333333333,314.484,22.0744,20.7038,22.1278,21.6153,314.999998,314.999998,324.999988,324.999988,99.5583,99.50773333333333,99.57062857142857,99.54997142857142,0.11224999999999996,-0.02849999999999997,-0.09116666666666662,0.1413333333333333,-0.04333333333332945,-0.04999999999999716,1.5110000000000001,1.49,38.965,30.399,39.299,36.096000000000004,55.55,35.8755,60.516,53.652,53.509,34.965,59.0435,51.924,52.659,34.5,58.8985,51.29866666666666,-0.11949999999999994,-0.052000000000000046,0.109075,0.10878000000000002,0.0,219.585,219.60000000000002,216.27666666666664,216.27666666666667,0.0,0.0
35,0.0,0.0,0.0,1.0,1.0,0.0,0.0,1.0,0.0,100.0,1.0,1.1856,26.0,0.0,0.0,0.0,59.999996,0.0,26.0,26.0,26.0,26.0,0.05887500000000001,0.24629999999999996,-0.11793333333333333,291.046,-2.7786,-2.6562222222222225,-1.6223,-1.5969,-156.39,215.4525,190.194625,0.0,0.0,0.0,0.0,0.07093333333333333,-5.498166666666667,-5.498166666666667,-0.683,-0.08233333333333333,-0.014777777777777779,-1.15,70.292,0.026500000000000003,-0.2311,-0.33999999999999986,100.0,1.0,1.0,216.74333333333334,0.0,0.0,0.0,0.0,0.0,0.0,0.0,9187.0,0.0,55.0,5.0,253.02666666666664,1.0,0.0,0.0,0.0,0.0,0.0,1.0,0.0,1.7579999999999991,1.7579999999999991,0.0,0.0,1.0,55.0,616.79921,10000.0,85.000001,85.000001,85.000001,85.000001,395.0,0.0,0.0,0.0,1.0,333.33500000000004,50.873,50.873,46.158,46.158,34.0,-23.9925,27.296,-27.919999999999998,30.642500000000002,0.0,1781.842,-0.17999999999999972,100.0,29.0,29.402,44.278999999999996,44.389,0.0,0.0,100.0,0.0,0.0,0.0,0.0,3163.142857142857,3348.5,4100.857142857143,4103.8,305.3345,304.081,314.906,314.811,22.0834,20.7098,22.1382,21.6245,314.999998,314.999998,324.999988,324.999988,99.55831428571429,99.50773333333333,99.57077142857143,99.55011428571429,0.10625000000000018,-0.038000000000000034,-0.08250000000000002,0.14650000000000007,-0.054999999999999716,-0.04333333333332945,1.545,1.526,39.022,30.436,39.364,36.153,55.536,35.9155,60.5515,53.7115,53.495999999999995,35.004999999999995,59.076499999999996,51.981,52.644999999999996,34.5385,58.928,51.35466666666667,-0.10149999999999992,-0.0674999999999999,0.10834500000000001,0.10514000000000001,0.0,219.995,220.0,216.74333333333334,216.74333333333334,0.0,0.0
