,ABS Active,ABS Enabled,AID Allow Tire Blankets,AID Auto Blip,AID Auto Clutch,AID Auto Shift,AID Fuel Rate,AID Ideal Line,AID Mech Damage,AID Stability,AID Tire Wear Rate,Air Density,Air Temp,Ballast,Best Lap Delta,Best Lap Time,Brake Bias,Brake Pos,Brake Temp FL,Brake Temp FR,Brake Temp RL,Brake Temp RR,CG Accel Lateral,CG Accel Longitudinal,CG Accel Vertical,CG Height,Camber FL,Camber FR,Camber RL,Camber RR,Car Coord X,Car Coord Y,Car Coord Z,Car Damage Front,Car Damage Left,Car Damage Rear,Car Damage Right,Car Pos Norm,Caster FL,Caster FR,Chassis Pitch Angle,Chassis Pitch Rate,Chassis Roll Angle,Chassis Roll Rate,Chassis Velocity X,Chassis Velocity Y,Chassis Velocity Z,Chassis Yaw Rate,Clutch Pos,DRS Active,DRS Available,Drive Train Speed,ERS Heat Charging,ERS Is Charging,ERS Max Energy,ERS Power Level,ERS Recovery Level,Engine Brake Setting,Engine Limiter,Engine RPM,Flags,Fuel Level,Gear,Ground Speed,HR Sample Clock,In Pit,KERS Charge,KERS Deployed Energy,KERS Input,KERS Max Energy,LR Sample Clock,Lap Invalidated,Lap Time,Lap Time2,Last Lap Time,Last Sector Time,MR Sample Clock,Max Fuel,Max Power,Max RPM,Max Sus Travel FL,Max Sus Travel FR,Max Sus Travel RL,Max Sus Travel RR,Max Torque,Max Turbo Boost,Num Tires Off Track,Penalties Enabled,Position,Raw Data Sample Rate,Ride Height FL,Ride Height FR,Ride Height RL,Ride Height RR,Road Temp,Self Align Torque FL,Self Align Torque FR,Self Align Torque RL,Self Align Torque RR,Session Lap Count,Session Time Left,Steering Angle,Surface Grip,Suspension Travel FL,Suspension Travel FR,Suspension Travel RL,Suspension Travel RR,TC Active,TC Enabled,Throttle Pos,Tire Dirt Level FL,Tire Dirt Level FR,Tire Dirt Level RL,Tire Dirt Level RR,Tire Load FL,Tire Load FR,Tire Load RL,Tire Load RR,Tire Loaded Radius FL,Tire Loaded Radius FR,Tire Loaded Radius RL,Tire Loaded Radius RR,Tire Pressure FL,Tire Pressure FR,Tire Pressure RL,Tire Pressure RR,Tire Radius FL,Tire Radius FR,Tire Radius RL,Tire Radius RR,Tire Rubber Grip FL,Tire Rubber Grip FR,Tire Rubber Grip RL,Tire Rubber Grip RR,Tire Slip Angle FL,Tire Slip Angle FR,Tire Slip Angle RL,Tire Slip Angle RR,Tire Slip Ratio FL,Tire Slip Ratio FR,Tire Slip Ratio RL,Tire Slip Ratio RR,Tire Temp Core FL,Tire Temp Core FR,Tire Temp Core RL,Tire Temp Core RR,Tire Temp Inner FL,Tire Temp Inner FR,Tire Temp Inner RL,Tire Temp Inner RR,Tire Temp Middle FL,Tire Temp Middle FR,Tire Temp Middle RL,Tire Temp Middle RR,Tire Temp Outer FL,Tire Temp Outer FR,Tire Temp Outer RL,Tire Temp Outer RR,Toe In FL,Toe In FR,Toe In RL,Toe In RR,Turbo Boost,Wheel Angular Speed FL,Wheel Angular Speed FR,Wheel Angular Speed RL,Wheel Angular Speed RR,Wind Direction,Wind Speed
0,0.0,1.0,0.0,1.0,1.0,0.0,0.0,1.0,0.0,100.0,1.0,1.1856,26.0,0.0,0.0,0.0,59.99999,0.0,26.0,26.0,26.0,26.0,-0.0848888888888889,0.3125,0.056760000000000005,293.976,-2.71565,-2.4813333333333336,-1.50925,-1.5354,-275.69,216.085,190.98775,0.0,0.0,0.0,0.0,0.0015666666666666051,-5.498166666666667,-5.498166666666667,-0.5465,1.7125000000000001,-0.009500000000000064,-0.30900000000000016,65.513,-0.0448,-0.21000000000000002,0.9079999999999995,100.0,1.0,1.0,202.25666666666666,0.0,0.0,0.0,0.0,0.0,0.0,0.0,8572.9,0.0,55.0,5.0,235.81666666666666,0.0,0.0,0.0,0.0,0.0,0.0,0.0,0.0,0.0030000000000001137,0.0030000000000001137,0.0,0.0,0.0,55.0,616.79921,10000.0,85.0,85.0,85.0,85.0,395.0,0.0,0.0,0.0,1.0,20.0,52.658,52.658,49.454,49.454,34.0,-26.92,22.119999999999997,-29.993333333333336,25.03,0.0,1782.639,0.8300000000000018,100.0,27.422,26.767,40.516,40.191,0.0,1.0,100.0,0.0,0.0,0.0,0.0,3009.4285714285716,3506.1,4108.875,4086.9,305.6325,303.621,314.8335,314.6675,21.772,20.5151,21.7364,21.282,314.99999,314.99999,324.99998,324.99998,99.55872857142857,99.50715,99.5638,99.54401428571428,-0.013500000000000068,-0.1303333333333332,-0.158,0.059833333333333336,-0.04333333333332945,-0.04833333333333201,1.5635,1.5805,37.075,29.219666666666665,36.852999999999994,34.0125,56.223,34.476,58.6195,51.2435,54.141999999999996,33.6495,57.2645,49.62,53.312,33.2145,57.2345,49.0515,-0.008000000000000007,-0.13500000000000023,0.10702,0.11261000000000002,0.0,205.305,205.22,202.25666666666666,202.25666666666666,0.0,0.0
1,0.0,1.0,0.0,1.0,1.0,0.0,0.0,1.0,0.0,100.0,1.0,1.1856,26.0,0.0,0.0,0.0,59.999996,0.0,26.0,26.0,26.0,26.0,-0.14255555555555555,0.31700000000000017,0.18986,293.137,-2.6381,-2.8151111111111113,-1.5104000000000002,-1.3835,-272.34,216.10500000000002,190.967625,0.0,0.0,0.0,0.0,0.0035333333333333883,-5.498166666666667,-5.498166666666667,-0.49000000000000005,-0.9225,-0.07187499999999991,-1.1440000000000001,65.668,-0.0621,-0.1877,1.6159999999999997,100.0,1.0,1.0,202.38333333333333,0.0,0.0,0.0,0.0,0.0,0.0,0.0,8578.3,0.0,55.0,5.0,236.37333333333333,1.0,0.0,0.0,0.0,0.0,0.0,0.0,0.0,0.053999999999998494,0.053999999999998494,0.0,0.0,1.0,55.0,616.79921,10000.0,85.000001,85.000001,85.000001,85.000001,395.0,0.0,0.0,0.0,1.0,166.665,53.986,53.986,48.294,48.294,34.0,-28.7025,16.444,-35.81333333333333,25.6225,0.0,1782.59,1.2899999999999991,100.0,27.383,26.715,42.75,41.682,0.0,1.0,100.0,0.0,0.0,0.0,0.0,3130.142857142857,2558.1,4419.75,4712.7,305.3655,306.73975,313.976,313.046,21.7819,20.5202,21.7472,21.2911,314.999998,314.999998,324.999988,324.999988,99.55872857142857,99.50716666666666,99.56395714285715,99.54415714285715,-0.04600000000000004,-0.16633333333333322,-0.195,0.0245,-0.030000000000001137,-0.036666666666668846,1.3915,1.45,37.137,29.251333333333335,36.92,34.0695,56.207,34.5175,58.667,51.311,54.128,33.6875,57.309,49.6845,53.297,33.251,57.2765,49.115,0.028500000000000192,-0.17249999999999988,0.10738500000000001,0.11026000000000001,0.0,205.74,205.64,202.38333333333333,202.38333333333333,0.0,0.0
2,0.0,1.0,0.0,1.0,1.0,0.0,0.0,1.0,0.0,100.0,1.0,1.1856,26.0,0.0,0.0,0.0,59.999996,0.0,26.0,26.0,26.0,26.0,-0.1874444444444444,0.2852000000000001,-0.10396,293.93,-2.57675,-2.807444444444444,-1.47855,-1.6604,-268.99,216.1225,190.94875,0.0,0.0,0.0,0.0,0.005466666666666509,-5.498166666666667,-5.498166666666667,-0.5555,0.0985,-0.07037499999999985,2.713,65.80799999999999,-0.0917,-0.256025,2.2060000000000013,100.0,1.0,1.0,203.41666666666669,0.0,0.0,0.0,0.0,0.0,0.0,0.0,8622.1,0.0,55.0,5.0,236.88,0.0,0.0,0.0,0.0,0.0,0.0,0.0,0.0,0.10500000000000043,0.10500000000000043,0.0,0.0,0.0,55.0,616.79921,10000.0,85.000001,85.000001,85.000001,85.000001,395.0,0.0,0.0,0.0,1.0,166.665,52.521,52.521,50.507,50.507,34.0,-32.1725,18.174,-29.943333333333335,18.5275,0.0,1782.539,1.3399999999999999,100.0,28.439,26.667,42.611000000000004,41.014,0.0,1.0,100.0,0.0,0.0,0.0,0.0,3378.285714285714,2923.8,3722.25,3537.6,304.379,305.6175,315.6815,316.16875,21.7921,20.5251,21.7576,21.2997,314.999998,314.999998,324.999988,324.999988,99.55874285714286,99.5072,99.5641,99.54428571428572,-0.06874999999999987,-0.18999999999999995,-0.24716666666666667,-0.01666666666666667,-0.054999999999999716,-0.0049999999999954525,1.641,1.732,37.201,29.282,36.985,34.123,56.198,34.558,58.7065,51.367,54.119,33.7245,57.3465,49.7385,53.287,33.287,57.311,49.167500000000004,0.02950000000000008,-0.18100000000000005,0.10657000000000001,0.11459000000000001,0.0,206.24,206.015,203.41666666666669,203.41666666666669,0.0,0.0
3,0.0,1.0,0.0,1.0,1.0,0.0,0.0,1.0,0.0,100.0,1.0,1.1856,26.0,0.0,0.0,0.0,59.999996,0.0,26.0,26.0,26.0,26.0,-0.20166666666666666,0.31679999999999997,-0.01282,293.365,-2.703,-2.713,-1.48365,-1.6014,-265.63,216.135,190.928875,0.0,0.0,0.0,0.0,0.007433333333333292,-5.498166666666667,-5.498166666666667,-0.5066,0.507,-0.04087500000000022,-1.4720000000000004,65.961,-0.1236,-0.19640000000000002,1.9979999999999993,100.0,1.0,1.0,203.4766666666667,0.0,0.0,0.0,0.0,0.0,0.0,0.0,8624.6,0.0,55.0,5.0,237.43,1.0,0.0,0.0,0.0,0.0,0.0,0.0,0.0,0.1559999999999988,0.1559999999999988,0.0,0.0,1.0,55.0,616.79921,10000.0,85.000001,85.000001,85.000001,85.000001,395.0,0.0,0.0,0.0,1.0,166.665,53.482,53.482,48.065,48.065,34.0,-29.560000000000002,15.328,-38.58,21.7425,0.0,1782.488,1.245000000000001,100.0,27.97,26.915,42.584,41.202,0.0,1.0,100.0,0.0,0.0,0.0,0.0,3010.285714285714,2729.5,4436.75,4188.5,305.667,305.944,314.031,314.3965,21.802,20.5302,21.768,21.3086,314.999998,314.999998,324.999988,324.999988,99.55875714285715,99.50721666666666,99.56424285714286,99.54442857142857,-0.08549999999999991,-0.21399999999999997,-0.2606666666666667,-0.0365,-0.03833333333332689,-0.03166666666666629,1.4749999999999999,1.529,37.263,29.314,37.05,34.1785,56.185,34.603,58.7485,51.4315,54.105999999999995,33.766,57.3855,49.8,53.274,33.326499999999996,57.3475,49.228,0.018000000000000238,-0.16700000000000026,0.10587,0.10930500000000001,0.0,206.72500000000002,206.55,203.4766666666667,203.4766666666667,0.0,0.0
4,0.0,1.0,0.0,1.0,1.0,0.0,0.0,1.0,0.0,100.0,1.0,1.1856,26.0,0.0,0.0,0.0,59.999996,0.0,26.0,26.0,26.0,26.0,-0.23299999999999998,0.28310000000000013,-0.05612000000000001,293.64,-2.62525,-2.826111111111111,-1.49305,-1.6285,-262.26,216.14249999999998,190.90925,0.0,0.0,0.0,0.0,0.009399999999999964,-5.498166666666667,-5.498166666666667,-0.5412,-0.858,-0.113375,-0.4330000000000003,66.107,-0.1366,-0.238125,2.08,100.0,1.0,1.0,204.07999999999998,0.0,0.0,0.0,0.0,0.0,0.0,0.0,8650.2,0.0,55.0,5.0,237.95666666666668,0.0,0.0,0.0,0.0,0.0,0.0,0.0,0.0,0.20700000000000074,0.20700000000000074,0.0,0.0,0.0,55.0,616.79921,10000.0,85.000001,85.000001,85.000001,85.000001,395.0,0.0,0.0,0.0,1.0,166.665,53.146,53.146,48.737,48.737,34.0,-32.4825,17.215999999999998,-35.53666666666666,18.32,0.0,1782.436,1.245000000000001,100.0,27.91,26.393,43.248000000000005,41.133,0.0,1.0,100.0,0.0,0.0,0.0,0.0,3298.142857142857,2901.1,4121.125,3660.2,304.773,305.6465,314.66175,315.71375,21.811799999999998,20.5352,21.7786,21.3174,314.999998,314.999998,324.999988,324.999988,99.55875714285715,99.50723333333333,99.56438571428572,99.54457142857143,-0.09125000000000005,-0.21466666666666678,-0.2658333333333333,-0.041666666666666664,-0.06333333333333258,-0.05666666666667197,1.5465,1.613,37.324,29.345,37.116,34.2335,56.173,34.6465,58.794,51.4915,54.095,33.806,57.4285,49.8575,53.260999999999996,33.3645,57.3875,49.284,0.020500000000000185,-0.17649999999999988,0.10200500000000001,0.105895,0.0,207.14,206.96,204.07999999999998,204.07999999999998,0.0,0.0
5,0.0,1.0,0.0,1.0,1.0,0.0,0.0,1.0,0.0,100.0,1.0,1.1856,26.0,0.0,0.0,0.0,59.999996,0.0,26.0,26.0,26.0,26.0,-0.2198888888888889,0.30580000000000007,-0.029339999999999998,293.793,-2.63265,-2.7984444444444443,-1.47505,-1.6601,-259.09,216.14499999999998,190.89025,0.0,0.0,0.0,0.0,0.011233333333333317,-5.498166666666667,-5.498166666666667,-0.536,0.431,-0.11799999999999988,0.9329999999999998,66.245,-0.1507,-0.214375,1.966000000000001,100.0,1.0,1.0,204.48333333333335,0.0,0.0,0.0,0.0,0.0,0.0,0.0,8667.2,0.0,55.0,5.0,238.45,1.0,0.0,0.0,0.0,0.0,0.0,0.0,0.0,0.254999999999999,0.254999999999999,0.0,0.0,1.0,55.0,616.79921,10000.0,85.000001,85.000001,85.000001,85.000001,395.0,0.0,0.0,0.0,1.0,333.33500000000004,53.589,53.589,49.149,49.149,34.0,-30.505,16.605999999999998,-35.95,19.877499999999998,0.0,1782.388,0.8049999999999997,100.0,28.092,26.254,42.95,40.66,0.0,1.0,100.0,0.0,0.0,0.0,0.0,3168.4285714285716,2753.3,4146.5,4019.0,305.115,306.126,314.728,314.91125,21.8213,20.5399,21.7884,21.325499999999998,314.999998,314.999998,324.999988,324.999988,99.55877142857143,99.50726666666667,99.56452857142857,99.5447,-0.07525000000000004,-0.19766666666666666,-0.2781666666666667,-0.0605,-0.036666666666668846,-0.06333333333333258,1.546,1.621,37.382999999999996,29.374333333333333,37.177,34.284,56.165,34.687,58.8345,51.546,54.086,33.8435,57.466,49.9095,53.251999999999995,33.4,57.4225,49.335,-0.016000000000000014,-0.133,0.102315,0.10665500000000001,0.0,207.57999999999998,207.41500000000002,204.48333333333335,204.48333333333335,0.0,0.0
6,0.0,1.0,0.0,1.0,1.0,0.0,0.0,1.0,0.0,100.0,1.0,1.1856,26.0,0.0,0.0,0.0,59.999996,0.0,26.0,26.0,26.0,26.0,-0.22466666666666657,0.2955000000000001,0.0015800000000000002,293.579,-2.5904,-2.8422222222222224,-1.5093,-1.6225,-255.9,216.14249999999998,190.870875,0.0,0.0,0.0,0.0,0.0131,-5.498166666666667,-5.498166666666667,-0.5297000000000001,0.099,-0.10912500000000014,0.7909999999999999,66.383,-0.15330000000000002,-0.210625,1.6260000000000012,100.0,1.0,1.0,204.86666666666667,0.0,0.0,0.0,0.0,0.0,0.0,0.0,8683.5,0.0,55.0,5.0,238.95,0.0,0.0,0.0,0.0,0.0,0.0,0.0,0.0,0.3030000000000008,0.3030000000000008,0.0,0.0,0.0,55.0,616.79921,10000.0,85.000001,85.000001,85.000001,85.000001,395.0,0.0,0.0,0.0,1.0,166.665,53.299,53.299,48.813,48.813,34.0,-30.564999999999998,18.032,-36.61666666666666,19.552500000000002,0.0,1782.341,0.6649999999999991,100.0,28.007,26.245,43.083,40.89,0.0,1.0,100.0,0.0,0.0,0.0,0.0,3217.857142857143,2879.8,4162.0,3990.5,304.955,305.675,314.66,314.9805,21.8307,20.5446,21.7983,21.3338,314.999998,314.999998,324.999988,324.999988,99.55878571428572,99.50728333333333,99.56465714285714,99.54484285714285,-0.07200000000000006,-0.19533333333333314,-0.2753333333333333,-0.05583333333333334,-0.051666666666669414,-0.04999999999999716,1.519,1.586,37.442,29.403666666666666,37.239000000000004,34.3365,56.155,34.7275,58.876,51.6045,54.077,33.8805,57.504999999999995,49.9655,53.242000000000004,33.4355,57.459,49.3895,-0.026499999999999968,-0.12049999999999983,0.106605,0.09990500000000001,0.0,207.985,207.85500000000002,204.86666666666667,204.86666666666667,0.0,0.0
7,0.0,1.0,0.0,1.0,1.0,0.0,0.0,1.0,0.0,100.0,1.0,1.1856,26.0,0.0,0.0,0.0,59.999996,0.0,26.0,26.0,26.0,26.0,-0.17455555555555557,0.28280000000000016,0.02574,293.304,-2.5641,-2.7698888888888886,-1.4684,-1.6653,-252.51,216.135,190.850375,0.0,0.0,0.0,0.0,0.015066666666666562,-5.498166666666667,-5.498166666666667,-0.5349,-0.069,-0.10112500000000013,-0.2330000000000001,66.52799999999999,-0.1381,-0.22332500000000002,1.2360000000000007,100.0,1.0,1.0,205.29333333333335,0.0,0.0,0.0,0.0,0.0,0.0,0.0,8701.6,0.0,55.0,5.0,239.47333333333333,1.0,0.0,0.0,0.0,0.0,0.0,0.0,0.0,0.3539999999999992,0.3539999999999992,0.0,0.0,1.0,55.0,616.79921,10000.0,85.000001,85.000001,85.000001,85.000001,395.0,0.0,0.0,0.0,1.0,333.33500000000004,52.902,52.902,48.935,48.935,34.0,-30.88,18.436,-35.333333333333336,20.675,0.0,1782.288,0.21999999999999886,100.0,28.05,26.490000000000002,43.079,41.214,0.0,1.0,100.0,0.0,0.0,0.0,0.0,3393.142857142857,2870.7,4152.25,3964.4,304.535,305.57325,314.6985,314.897,21.8407,20.549599999999998,21.808799999999998,21.3427,314.999998,314.999998,324.999988,324.999988,99.55878571428572,99.5073,99.56481428571429,99.54497142857143,-0.04475000000000007,-0.17166666666666663,-0.2603333333333333,-0.04683333333333334,-0.051666666666669414,-0.03333333333333144,1.5005,1.5565,37.504999999999995,29.435333333333332,37.305,34.391999999999996,56.144,34.769,58.92,51.666,54.067,33.9185,57.5465,50.0245,53.230999999999995,33.472,57.4975,49.447,-0.0645,-0.09149999999999991,0.10182500000000001,0.10953,0.0,208.41500000000002,208.31,205.29333333333335,205.29333333333335,0.0,0.0
8,0.0,1.0,0.0,1.0,1.0,0.0,0.0,1.0,0.0,100.0,1.0,1.1856,26.0,0.0,0.0,0.0,59.999996,0.0,26.0,26.0,26.0,26.0,-0.13355555555555554,0.30380000000000007,0.02426,293.549,-2.6471,-2.7778888888888886,-1.4549,-1.615,-249.12,216.1225,190.82975,0.0,0.0,0.0,0.0,0.017033333333333345,-5.498166666666667,-5.498166666666667,-0.5356000000000001,-0.5095000000000001,-0.078125,0.931,66.675,-0.1163,-0.21482500000000002,0.6300000000000008,100.0,1.0,1.0,205.67333333333335,0.0,0.0,0.0,0.0,0.0,0.0,0.0,8717.7,0.0,55.0,5.0,240.0,0.0,0.0,0.0,0.0,0.0,0.0,0.0,0.0,0.40500000000000114,0.40500000000000114,0.0,0.0,0.0,55.0,616.79921,10000.0,85.000001,85.000001,85.000001,85.000001,395.0,0.0,0.0,0.0,1.0,333.33500000000004,53.741,53.741,48.248,48.248,34.0,-26.645,19.826,-33.45666666666666,23.265,0.0,1782.238,0.03500000000000014,100.0,27.743,26.347,43.153,41.233000000000004,0.0,1.0,100.0,0.0,0.0,0.0,0.0,3011.0,2910.8,4168.625,4133.4,305.64,305.6415,314.5535,314.553,21.8505,20.5547,21.8193,21.3516,314.999998,314.999998,324.999988,324.999988,99.5588,99.50731666666667,99.56495714285714,99.54511428571429,-0.01949999999999985,-0.1413333333333333,-0.221,-0.004833333333333333,-0.030000000000001137,-0.07000000000000028,1.518,1.544,37.566,29.467,37.370000000000005,34.4475,56.129000000000005,34.81,58.963,51.727000000000004,54.052,33.956,57.5865,50.083,53.215,33.507999999999996,57.5345,49.504,-0.0754999999999999,-0.0754999999999999,0.10441500000000001,0.10686000000000001,0.0,208.835,208.79000000000002,205.67333333333335,205.67333333333335,0.0,0.0
9,0.0,1.0,0.0,1.0,1.0,0.0,0.0,1.0,0.0,100.0,1.0,1.1856,26.0,0.0,0.0,0.0,59.999996,0.0,26.0,26.0,26.0,26.0,-0.10755555555555552,0.2844,0.03332,293.259,-2.6374,-2.777,-1.5141499999999999,-1.5935000000000001,-245.91,216.10750000000002,190.809875,0.0,0.0,0.0,0.0,0.018899999999999917,-5.498166666666667,-5.498166666666667,-0.5427000000000001,0.5755,-0.07712500000000011,0.8620000000000001,66.80799999999999,-0.0937,-0.21652500000000002,0.4499999999999993,100.0,1.0,1.0,206.21333333333334,0.0,0.0,0.0,0.0,0.0,0.0,0.0,8740.7,0.0,55.0,5.0,240.48000000000002,1.0,0.0,0.0,0.0,0.0,0.0,0.0,0.0,0.4529999999999994,0.4529999999999994,0.0,0.0,1.0,55.0,616.79921,10000.0,85.000001,85.000001,85.000001,85.000001,395.0,0.0,0.0,0.0,1.0,333.33500000000004,52.536,52.536,49.24,49.24,34.0,-28.869999999999997,21.908,-31.099999999999998,23.675,0.0,1782.189,-0.14999999999999858,100.0,28.189,26.797,42.796,41.29,0.0,1.0,100.0,0.0,0.0,0.0,0.0,3360.285714285714,3007.2,4006.25,4035.4,304.562,305.2815,315.0765,314.87775,21.8599,20.5596,21.829,21.3599,314.999998,314.999998,324.999988,324.999988,99.5588,99.50733333333334,99.5651,99.54524285714285,0.010499999999999954,-0.11099999999999999,-0.19766666666666666,0.02666666666666667,-0.03999999999999915,-0.05833333333333002,1.5705,1.5855,37.623999999999995,29.497666666666667,37.431,34.4995,56.116,34.849000000000004,58.9995,51.783,54.04,33.992,57.621,50.1365,53.202,33.542,57.5665,49.5565,-0.08949999999999991,-0.05600000000000005,0.10169500000000001,0.10683000000000001,0.0,209.275,209.22,206.21333333333334,206.21333333333334,0.0,0.0
10,0.0,1.0,0.0,1.0,1.0,0.0,0.0,1.0,0.0,100.0,1.0,1.1856,26.0,0.0,0.0,0.0,59.999996,0.0,26.0,26.0,26.0,26.0,-0.06855555555555548,0.28600000000000003,-0.00062,293.045,-2.61775,-2.7512222222222222,-1.4965,-1.5703,-242.5,216.0875,190.789125,0.0,0.0,0.0,0.0,0.02089999999999992,-5.498166666666667,-5.498166666666667,-0.5206000000000001,-0.35100000000000003,-0.030124999999999957,0.4169999999999998,66.955,-0.0654,-0.20652500000000001,0.013999999999999346,100.0,1.0,1.0,206.44666666666666,0.0,0.0,0.0,0.0,0.0,0.0,0.0,8750.6,0.0,55.0,5.0,241.00666666666666,0.0,0.0,0.0,0.0,0.0,0.0,1.0,0.0,0.5040000000000013,0.5040000000000013,0.0,0.0,0.0,55.0,616.79921,10000.0,85.000001,85.000001,85.000001,85.000001,395.0,0.0,0.0,0.0,1.0,333.33500000000004,53.513,53.513,47.729,47.729,34.0,-24.0125,20.338,-33.739999999999995,25.8825,0.0,1782.137,-0.34999999999999787,100.0,27.947,26.989,43.103,42.168,0.0,1.0,100.0,0.0,0.0,0.0,0.0,2979.285714285714,2785.9,4355.25,4229.9,305.807,305.822,314.20175,314.26275,21.8697,20.564799999999998,21.8396,21.369,314.999998,314.999998,324.999988,324.999988,99.55881428571429,99.50735,99.56524285714286,99.5454,0.03000000000000025,-0.10233333333333317,-0.17966666666666667,0.03716666666666667,-0.04333333333332945,-0.03999999999999915,1.4749999999999999,1.4789999999999999,37.686,29.53,37.497,34.556,56.099999999999994,34.8895,59.046,51.851,54.025,34.0295,57.664,50.202,53.187,33.578,57.6065,49.6205,-0.10599999999999987,-0.045500000000000096,0.10904000000000001,0.09917000000000001,0.0,209.71,209.68,206.44666666666666,206.44666666666666,0.0,0.0
11,0.0,1.0,0.0,1.0,1.0,0.0,0.0,1.0,0.0,100.0,1.0,1.1856,26.0,0.0,0.0,0.0,59.999996,0.0,26.0,26.0,26.0,26.0,-0.008444444444444477,0.2762,-0.09638,293.533,-2.671,-2.7224444444444442,-1.5572,-1.5533000000000001,-238.88,216.0675,190.767125,0.0,0.0,0.0,0.0,0.022599999999999953,-5.498166666666667,-5.498166666666667,-0.5611,-0.113,-0.004375000000000018,-0.5990000000000002,67.102,-0.036000000000000004,-0.23550000000000001,-0.1739999999999995,100.0,1.0,1.0,207.21,0.0,0.0,0.0,0.0,0.0,0.0,0.0,8782.8,0.0,55.0,5.0,241.54000000000002,1.0,0.0,0.0,0.0,0.0,0.0,1.0,0.0,0.5579999999999998,0.5579999999999998,0.0,0.0,1.0,55.0,616.79921,10000.0,85.000001,85.000001,85.000001,85.000001,395.0,0.0,0.0,0.0,1.0,166.665,52.856,52.856,49.271,49.271,34.0,-24.9325,23.41,-26.490000000000002,24.45,0.0,1782.085,-0.4349999999999987,100.0,27.662,27.272,42.603,42.124,0.0,1.0,100.0,0.0,0.0,0.0,0.0,3161.714285714286,3025.4,3767.875,3846.5,305.3255,305.04975,315.71325,315.27075,21.8799,20.5704,21.8505,21.3784,314.999998,314.999998,324.999988,324.999988,99.55881428571429,99.50736666666667,99.56538571428571,99.54554285714286,0.058499999999999996,-0.07133333333333325,-0.14,0.0815,-0.05333333333332746,-0.03999999999999915,1.6315,1.6135,37.748999999999995,29.564999999999998,37.565,34.615,56.084,34.929,59.082499999999996,51.911,54.01,34.0655,57.698,50.2595,53.171,33.6125,57.638,49.677,-0.10949999999999993,-0.044500000000000206,0.10405500000000001,0.10404000000000001,0.0,210.115,210.14,207.21,207.21,0.0,0.0
12,0.0,1.0,0.0,1.0,1.0,0.0,0.0,1.0,0.0,100.0,1.0,1.1856,26.0,0.0,0.0,0.0,59.999996,0.0,26.0,26.0,26.0,26.0,-0.007888888888888945,0.2896000000000001,0.0122,293.015,-2.7253,-2.7175555555555557,-1.5234,-1.55,-235.86,216.0475,190.747625,0.0,0.0,0.0,0.0,0.025466666666666526,-5.498166666666667,-5.498166666666667,-0.5467000000000001,0.2965,-0.010375000000000245,0.754,67.23,-0.015300000000000001,-0.20735,-0.41600000000000037,100.0,1.0,1.0,207.38333333333333,0.0,0.0,0.0,0.0,0.0,0.0,0.0,8790.2,0.0,55.0,5.0,242.0,0.0,0.0,0.0,0.0,0.0,0.0,1.0,0.0,0.602999999999998,0.602999999999998,0.0,0.0,0.0,55.0,616.79921,10000.0,85.000001,85.000001,85.000001,85.000001,395.0,0.0,0.0,0.0,1.0,333.33500000000004,52.872,52.872,48.004,48.004,34.0,-23.585,25.53,-28.303333333333335,28.9775,0.0,1782.039,-0.5249999999999986,100.0,27.672,27.307,42.595,42.06,0.0,1.0,100.0,0.0,0.0,0.0,0.0,3077.714285714286,3138.5,4186.75,4205.8,305.438,304.9035,314.611,314.458,21.8884,20.5752,21.8596,21.3863,314.999998,314.999998,324.999988,324.999988,99.55882857142858,99.50736666666667,99.56551428571429,99.54565714285714,0.08775000000000022,-0.03833333333333311,-0.10350000000000001,0.10866666666666668,-0.026666666666670835,-0.04833333333333201,1.5385,1.505,37.802,29.595,37.623000000000005,34.664,56.072,34.963,59.118,51.965,53.998000000000005,34.097,57.7315,50.3115,53.158,33.6425,57.6685,49.728,-0.11650000000000005,-0.034499999999999975,0.10284000000000001,0.101745,0.0,210.54000000000002,210.57,207.38333333333333,207.38333333333333,0.0,0.0
13,0.0,1.0,0.0,1.0,1.0,0.0,0.0,1.0,0.0,100.0,1.0,1.1856,26.0,0.0,0.0,0.0,59.999996,0.0,26.0,26.0,26.0,26.0,0.035555555555555785,0.2861,0.052500000000000005,292.603,-2.7081,-2.7043333333333335,-1.5662,-1.5641,-232.23,216.0275,190.724625,0.0,0.0,0.0,0.0,0.026866666666666594,-5.498166666666667,-5.498166666666667,-0.5392,-0.079,-0.002000000000000224,1.19,67.381,0.0024000000000000002,-0.21530000000000002,-0.6099999999999994,100.0,1.0,1.0,207.79333333333335,0.0,0.0,0.0,0.0,0.0,0.0,0.0,8807.5,0.0,55.0,5.0,242.54333333333335,1.0,0.0,0.0,0.0,0.0,0.0,1.0,0.0,0.657,0.657,0.0,0.0,1.0,55.0,616.79921,10000.0,85.000001,85.000001,85.000001,85.000001,395.0,0.0,0.0,0.0,1.0,166.665,52.536,52.536,47.974000000000004,47.974000000000004,34.0,-22.43,26.387999999999998,-27.843333333333334,31.4775,0.0,1781.986,-0.7249999999999979,100.0,27.975,27.554000000000002,42.802,42.661,0.0,1.0,100.0,0.0,0.0,0.0,0.0,3101.857142857143,3139.0,4155.25,4333.2,305.338,304.89475,314.64875,314.12925,21.898699999999998,20.581,21.8707,21.3959,314.999998,314.999998,324.999988,324.999988,99.55884285714286,99.50736666666667,99.56567142857143,99.54582857142857,0.11649999999999983,-0.015333333333333199,-0.08516666666666667,0.12866666666666665,-0.03499999999999659,-0.04833333333333201,1.5145,1.4795,37.867000000000004,29.631,37.692,34.7245,56.06,35.003,59.1605,52.033500000000004,53.986000000000004,34.134,57.771,50.3765,53.146,33.678,57.705,49.792,-0.1419999999999999,-0.016999999999999904,0.10078500000000001,0.10235000000000001,0.0,210.985,211.025,207.79333333333335,207.79333333333335,0.0,0.0
14,0.0,1.0,0.0,1.0,1.0,0.0,0.0,1.0,0.0,100.0,1.0,1.1856,26.0,0.0,0.0,0.0,59.999996,0.0,26.0,26.0,26.0,26.0,0.05122222222222228,0.28090000000000015,-0.003920000000000001,292.816,-2.71335,-2.6406666666666667,-1.6127500000000001,-1.5297,-228.99,216.0075,190.704625,0.0,0.0,0.0,0.0,0.02873333333333339,-5.498166666666667,-5.498166666666667,-0.5481,-0.11800000000000001,0.03249999999999997,1.4729999999999999,67.513,0.019,-0.2265,-0.8360000000000003,100.0,1.0,1.0,208.2733333333333,0.0,0.0,0.0,0.0,0.0,0.0,0.0,8828.0,0.0,55.0,5.0,243.01666666666665,0.0,0.0,0.0,0.0,0.0,0.0,1.0,0.0,0.7049999999999983,0.7049999999999983,0.0,0.0,0.0,55.0,616.79921,10000.0,85.000001,85.000001,85.000001,85.000001,395.0,0.0,0.0,0.0,1.0,166.665,52.643,52.643,48.126,48.126,34.0,-20.7525,27.284,-26.450000000000003,30.685000000000002,0.0,1781.939,-0.9050000000000011,100.0,27.854,27.651,42.731,42.91,0.0,1.0,100.0,0.0,0.0,0.0,0.0,2967.142857142857,3219.3,3990.875,4217.5,305.7275,304.65775,315.0965,314.42525,21.9077,20.5861,21.8805,21.4045,314.999998,314.999998,324.999988,324.999988,99.55885714285715,99.50736666666667,99.5658,99.54595714285715,0.1312500000000001,0.0013333333333331865,-0.07566666666666667,0.14666666666666667,-0.04333333333332945,-0.04999999999999716,1.5505,1.53,37.923,29.663,37.753,34.778,56.049,35.0375,59.1965,52.0925,53.976,34.166,57.8045,50.4335,53.135,33.709,57.7355,49.8475,-0.1479999999999999,-0.008500000000000174,0.1039,0.10379500000000001,0.0,211.385,211.43,208.2733333333333,208.2733333333333,0.0,0.0
15,0.0,1.0,0.0,1.0,1.0,0.0,0.0,1.0,0.0,100.0,1.0,1.1856,26.0,0.0,0.0,0.0,59.999996,0.0,26.0,26.0,26.0,26.0,0.06000000000000005,0.2784,0.0112,292.831,-2.69165,-2.5949999999999998,-1.6134,-1.4689,-225.74,215.99,190.68425,0.0,0.0,0.0,0.0,0.0306333333333334,-5.498166666666667,-5.498166666666667,-0.5405,0.28600000000000003,0.06412499999999999,1.022,67.645,0.0386,-0.21045,-0.9539999999999997,100.0,1.0,1.0,208.68,0.0,0.0,0.0,0.0,0.0,0.0,0.0,8845.1,0.0,55.0,5.0,243.49,1.0,0.0,0.0,0.0,0.0,0.0,1.0,0.0,0.7530000000000001,0.7530000000000001,0.0,0.0,1.0,55.0,616.79921,10000.0,85.000001,85.000001,85.000001,85.000001,395.0,0.0,0.0,0.0,1.0,333.33500000000004,52.78,52.78,48.233000000000004,48.233000000000004,34.0,-19.6275,26.496000000000002,-25.416666666666664,32.254999999999995,0.0,1781.889,-0.7049999999999983,100.0,27.851,27.759,42.444,43.004,0.0,1.0,100.0,0.0,0.0,0.0,0.0,2838.714285714286,3198.4,3954.75,4375.3,306.086,304.7105,315.19575,314.06575,21.9166,20.5913,21.8902,21.4131,314.999998,314.999998,324.999988,324.999988,99.55887142857142,99.50738333333334,99.56594285714286,99.54608571428571,0.12950000000000017,-0.0033333333333331883,-0.060333333333333336,0.16466666666666666,-0.02499999999999858,-0.04333333333332945,1.5454999999999999,1.507,37.979,29.695333333333334,37.813,34.8315,56.039,35.073,59.231,52.1525,53.967,34.199,57.8365,50.4915,53.123999999999995,33.7405,57.7645,49.9045,-0.13250000000000006,-0.022499999999999964,0.106285,0.103775,0.0,211.805,211.85500000000002,208.68,208.68,0.0,0.0
16,0.0,1.0,0.0,1.0,1.0,0.0,0.0,1.0,0.0,100.0,1.0,1.1856,26.0,0.0,0.0,0.0,59.999996,0.0,26.0,26.0,26.0,26.0,0.08266666666666667,0.26239999999999997,-0.05474,292.847,-2.7851,-2.629777777777778,-1.57985,-1.4729,-222.29,215.975,190.66225,0.0,0.0,0.0,0.0,0.0326333333333334,-5.498166666666667,-5.498166666666667,-0.561,-0.7145,0.044499999999999984,-1.109,67.785,0.0528,-0.22610000000000002,-0.7179999999999991,100.0,1.0,1.0,209.10666666666668,0.0,0.0,0.0,0.0,0.0,0.0,0.0,8863.2,0.0,55.0,5.0,243.99666666666667,0.0,0.0,0.0,0.0,0.0,0.0,1.0,0.0,0.8039999999999985,0.8039999999999985,0.0,0.0,0.0,55.0,616.79921,10000.0,85.000001,85.000001,85.000001,85.000001,395.0,0.0,0.0,0.0,1.0,333.33500000000004,52.75,52.75,47.913,47.913,34.0,-22.505,25.852,-24.89333333333333,30.2425,0.0,1781.838,-0.25,100.0,27.394,28.005,42.650999999999996,43.211,0.0,1.0,100.0,0.0,0.0,0.0,0.0,3043.857142857143,3133.1,3999.875,4105.4,305.787,304.73375,315.12675,314.63775,21.9259,20.5968,21.9006,21.4222,314.999998,314.999998,324.999988,324.999988,99.55888571428571,99.50738333333334,99.56608571428572,99.54622857142857,0.11249999999999982,-0.016666666666666607,-0.05333333333333334,0.1705,-0.03833333333332689,-0.05333333333332746,1.5534999999999999,1.532,38.037,29.73,37.879000000000005,34.8885,56.024,35.1105,59.2705,52.2155,53.952,34.234,57.8735,50.552,53.108999999999995,33.774,57.7985,49.964,-0.10250000000000004,-0.052999999999999936,0.10812500000000001,0.10410000000000001,0.0,212.20499999999998,212.265,209.10666666666668,209.10666666666668,0.0,0.0
17,0.0,1.0,0.0,1.0,1.0,0.0,0.0,1.0,0.0,100.0,1.0,1.1856,26.0,0.0,0.0,0.0,59.999996,0.0,26.0,26.0,26.0,26.0,0.04222222222222216,0.27590000000000003,-0.040060000000000005,292.542,-2.73405,-2.592111111111111,-1.6131,-1.502,-218.82999999999998,215.96,190.639625,0.0,0.0,0.0,0.0,0.034633333333333294,-5.498166666666667,-5.498166666666667,-0.5516,0.5475,0.01912500000000006,0.544,67.924,0.0497,-0.20785,-0.3700000000000001,100.0,1.0,1.0,209.50666666666666,0.0,0.0,0.0,0.0,0.0,0.0,0.0,8880.3,0.0,55.0,5.0,244.49333333333334,1.0,0.0,0.0,0.0,0.0,0.0,1.0,0.0,0.8550000000000004,0.8550000000000004,0.0,0.0,1.0,55.0,616.79921,10000.0,85.000001,85.000001,85.000001,85.000001,395.0,0.0,0.0,0.0,1.0,111.11,52.429,52.429,47.913,47.913,34.0,-22.1825,24.774,-27.700000000000003,32.185,0.0,1781.789,-0.14000000000000057,100.0,28.069,28.121000000000002,42.525,43.046,0.0,1.0,100.0,0.0,0.0,0.0,0.0,3044.714285714286,3093.2,4226.25,4263.1,305.564,305.0445,314.62875,314.385,21.9355,20.6024,21.910899999999998,21.4312,314.999998,314.999998,324.999988,324.999988,99.5589,99.50738333333334,99.56622857142857,99.54638571428572,0.11575000000000024,-0.020000000000000018,-0.06466666666666668,0.17466666666666666,-0.03499999999999659,-0.04999999999999716,1.54,1.5085,38.097,29.765333333333334,37.943,34.945,56.013999999999996,35.1495,59.3075,52.2775,53.942,34.269999999999996,57.9075,50.6115,53.098,33.8085,57.829499999999996,50.0225,-0.09199999999999986,-0.06599999999999984,0.11330000000000001,0.11094000000000001,0.0,212.675,212.72500000000002,209.50666666666666,209.50666666666666,0.0,0.0
18,0.0,1.0,0.0,1.0,1.0,0.0,0.0,1.0,0.0,100.0,1.0,1.1856,26.0,0.0,0.0,0.0,59.999996,0.0,26.0,26.0,26.0,26.0,0.03444444444444428,0.27980000000000005,-0.006520000000000001,292.419,-2.76595,-2.5692222222222223,-1.6243,-1.4525000000000001,-215.36,215.945,190.61725,0.0,0.0,0.0,0.0,0.036666666666666514,-5.498166666666667,-5.498166666666667,-0.5611,-0.489,0.03374999999999995,-0.4630000000000001,68.062,0.0354,-0.22395,-0.02799999999999958,100.0,1.0,1.0,209.93333333333334,0.0,0.0,0.0,0.0,0.0,0.0,0.0,8898.4,0.0,55.0,5.0,244.99666666666667,0.0,0.0,0.0,0.0,0.0,0.0,1.0,0.0,0.9059999999999988,0.9059999999999988,0.0,0.0,0.0,55.0,616.79921,10000.0,85.000001,85.000001,85.000001,85.000001,395.0,0.0,0.0,0.0,1.0,166.665,52.246,52.246,47.653,47.653,34.0,-24.39,25.362000000000002,-28.253333333333334,28.835,0.0,1781.738,-0.129999999999999,100.0,27.694,28.073999999999998,42.853,43.47,0.0,1.0,100.0,0.0,0.0,0.0,0.0,3191.714285714286,3222.2,4120.25,4148.8,305.357,304.54825,314.88025,314.56025,21.945,20.6079,21.9214,21.4404,314.999998,314.999998,324.999988,324.999988,99.5589,99.5074,99.56637142857143,99.54652857142857,0.0950000000000002,-0.032333333333333325,-0.08866666666666667,0.14216666666666666,-0.046666666666666856,-0.045000000000001705,1.5434999999999999,1.539,38.156,29.799666666666667,38.009,35.0025,56.001000000000005,35.1875,59.3475,52.341499999999996,53.93,34.3045,57.9445,50.673500000000004,53.084,33.842,57.8635,50.083,-0.08450000000000002,-0.0665,0.11123500000000001,0.11081500000000001,0.0,213.10000000000002,213.10000000000002,209.93333333333334,209.93333333333334,0.0,0.0
19,0.0,1.0,0.0,1.0,1.0,0.0,0.0,1.0,0.0,100.0,1.0,1.1856,26.0,0.0,0.0,0.0,59.999996,0.0,26.0,26.0,26.0,26.0,0.018000000000000016,0.29910000000000014,0.03846,291.992,-2.7211,-2.5731111111111113,-1.6252,-1.4499,-212.09,215.935,190.596,0.0,0.0,0.0,0.0,0.03856666666666653,-5.498166666666667,-5.498166666666667,-0.5519000000000001,0.844,0.027249999999999996,-0.8260000000000001,68.191,0.0253,-0.21250000000000002,-0.009999999999999787,100.0,1.0,1.0,210.32666666666665,0.0,0.0,0.0,0.0,0.0,0.0,0.0,8915.0,0.0,55.0,5.0,245.46,1.0,0.0,0.0,0.0,0.0,0.0,1.0,0.0,0.9540000000000006,0.9540000000000006,0.0,0.0,1.0,55.0,616.79921,10000.0,85.000001,85.000001,85.000001,85.000001,395.0,0.0,0.0,0.0,1.0,166.665,51.650999999999996,51.650999999999996,47.607,47.607,34.0,-24.6225,25.305999999999997,-29.723333333333333,29.145,0.0,1781.689,-0.054999999999999716,100.0,28.311,28.456,42.736000000000004,43.352000000000004,0.0,1.0,100.0,0.0,0.0,0.0,0.0,3255.857142857143,3203.6,4257.375,4299.8,305.044,304.509,314.6125,314.2615,21.9541,20.6133,21.9311,21.448900000000002,314.999998,314.999998,324.999988,324.999988,99.55892857142857,99.5074,99.5665,99.54667142857143,0.09650000000000025,-0.03299999999999992,-0.0955,0.125,-0.07333333333333059,-0.041666666666671404,1.535,1.522,38.213,29.833,38.069,35.056,55.991,35.225,59.382,52.4,53.92,34.3395,57.977000000000004,50.7295,53.074,33.8755,57.8925,50.138,-0.08850000000000002,-0.0674999999999999,0.11051000000000001,0.10422500000000001,0.0,213.54500000000002,213.535,210.32666666666665,210.32666666666665,0.0,0.0
20,0.0,1.0,0.0,1.0,1.0,0.0,0.0,1.0,0.0,100.0,1.0,1.1856,26.0,0.0,0.0,0.0,59.999996,0.0,26.0,26.0,26.0,26.0,0.014111111111111185,0.268,0.03726,292.297,-2.7565,-2.650777777777778,-1.54305,-1.5801,-208.61,215.9225,190.573625,0.0,0.0,0.0,0.0,0.04059999999999997,-5.498166666666667,-5.498166666666667,-0.5525,-1.1345,0.01949999999999985,0.3129999999999997,68.331,0.015700000000000002,-0.219775,0.0,100.0,1.0,1.0,210.62333333333333,0.0,0.0,0.0,0.0,0.0,0.0,0.0,8927.6,0.0,55.0,5.0,245.96333333333334,0.0,0.0,0.0,0.0,0.0,0.0,0.0,0.0,1.004999999999999,1.004999999999999,0.0,0.0,0.0,55.0,616.79921,10000.0,85.000001,85.000001,85.000001,85.000001,395.0,0.0,0.0,0.0,1.0,333.33500000000004,52.872,52.872,46.844,46.844,34.0,-22.5325,24.346,-28.363333333333333,31.8325,0.0,1781.637,0.03500000000000014,100.0,27.883,27.873,43.548,43.609,0.0,1.0,100.0,0.0,0.0,0.0,0.0,2922.714285714286,3118.9,4193.25,4304.3,306.0285,305.00625,314.533,314.0755,21.9635,20.6188,21.9417,21.458199999999998,314.999998,314.999998,324.999988,324.999988,99.55892857142857,99.5074,99.56665714285714,99.54682857142858,0.08375000000000021,-0.047666666666666746,-0.09083333333333334,0.1305,-0.04999999999999716,-0.046666666666666856,1.476,1.4689999999999999,38.272,29.867333333333335,38.135999999999996,35.1135,55.976,35.263,59.424,52.464,53.906,34.375,58.016,50.7915,53.058,33.9095,57.929,50.199,-0.0734999999999999,-0.08150000000000013,0.10904000000000001,0.10353000000000001,0.0,213.925,213.925,210.62333333333333,210.62333333333333,0.0,0.0
21,0.0,1.0,0.0,1.0,1.0,0.0,0.0,1.0,0.0,100.0,1.0,1.1856,26.0,0.0,0.0,0.0,59.999996,0.0,26.0,26.0,26.0,26.0,-0.011888888888888949,0.27380000000000004,-0.06822,292.679,-2.65795,-2.7191111111111113,-1.5986,-1.5486,-205.32999999999998,215.91,190.552,0.0,0.0,0.0,0.0,0.04249999999999998,-5.498166666666667,-5.498166666666667,-0.5761000000000001,0.445,-0.009500000000000064,0.1509999999999998,68.455,0.0041,-0.224925,0.15600000000000058,100.0,1.0,1.0,211.2733333333333,0.0,0.0,0.0,0.0,0.0,0.0,0.0,8955.1,0.0,55.0,5.0,246.41,1.0,0.0,0.0,0.0,0.0,0.0,0.0,0.0,1.0530000000000008,1.0530000000000008,0.0,0.0,1.0,55.0,616.79921,10000.0,85.000001,85.000001,85.000001,85.000001,395.0,0.0,0.0,0.0,1.0,333.33500000000004,52.292,52.292,48.325,48.325,34.0,-23.505,24.916,-27.560000000000002,27.0675,0.0,1781.588,-0.015000000000000568,100.0,28.252,27.932,42.968,43.113,0.0,1.0,100.0,0.0,0.0,0.0,0.0,3091.714285714286,3120.9,3988.875,3971.3,305.3495,304.9075,315.22075,315.0685,21.9724,20.624,21.9514,21.4666,314.999998,314.999998,324.999988,324.999988,99.55894285714285,99.5074,99.5668,99.54697142857142,0.0807500000000001,-0.052000000000000046,-0.10833333333333334,0.11666666666666667,-0.045000000000001705,-0.054999999999999716,1.5965,1.5939999999999999,38.328,29.9,38.196,35.166,55.963,35.303,59.4585,52.5225,53.894,34.411500000000004,58.0485,50.8475,53.045,33.9445,57.958,50.2535,-0.0794999999999999,-0.07750000000000012,0.10658500000000001,0.10260000000000001,0.0,214.35500000000002,214.325,211.2733333333333,211.2733333333333,0.0,0.0
22,0.0,1.0,0.0,1.0,1.0,0.0,0.0,1.0,0.0,100.0,1.0,1.1856,26.0,0.0,0.0,0.0,59.999996,0.0,26.0,26.0,26.0,26.0,-0.008555555555555538,0.27,0.00164,292.175,-2.6384499999999997,-2.724555555555556,-1.59555,-1.5373,-201.63,215.8975,190.52675,0.0,0.0,0.0,0.0,0.0446333333333333,-5.498166666666667,-5.498166666666667,-0.5557,0.0115,0.0022499999999998632,1.134,68.602,-0.0057,-0.2033,0.11800000000000033,100.0,1.0,1.0,211.5,0.0,0.0,0.0,0.0,0.0,0.0,0.0,8964.6,0.0,55.0,5.0,246.94,0.0,0.0,0.0,0.0,0.0,0.0,0.0,0.0,1.1069999999999993,1.1069999999999993,0.0,0.0,0.0,55.0,616.79921,10000.0,85.000001,85.000001,85.000001,85.000001,395.0,0.0,0.0,0.0,1.0,166.665,52.49,52.49,47.073,47.073,34.0,-22.0475,24.177999999999997,-30.536666666666665,30.465,0.0,1781.537,-0.11499999999999844,100.0,28.329,27.995,43.475,43.341,0.0,1.0,100.0,0.0,0.0,0.0,0.0,2925.285714285714,3079.1,4209.625,4369.9,305.814,305.02175,314.591,314.1175,21.9825,20.6299,21.9626,21.4763,314.999998,314.999998,324.999988,324.999988,99.55895714285714,99.50741666666667,99.56694285714286,99.54711428571429,0.07750000000000012,-0.06233333333333313,-0.11750000000000001,0.11316666666666668,-0.03833333333332689,-0.04999999999999716,1.478,1.4909999999999999,38.391,29.936666666666667,38.266,35.2265,55.95,35.342,59.5,52.585499999999996,53.881,34.4475,58.087,50.908,53.032,33.979,57.9935,50.313,-0.08199999999999985,-0.07399999999999984,0.11498000000000001,0.11209000000000001,0.0,214.82,214.76999999999998,211.5,211.5,0.0,0.0
23,0.0,1.0,0.0,1.0,1.0,0.0,0.0,1.0,0.0,100.0,1.0,1.1856,26.0,0.0,0.0,0.0,59.999996,0.0,26.0,26.0,26.0,26.0,-0.009444444444444478,0.2511000000000001,-0.00126,292.099,-2.6689,-2.675111111111111,-1.52045,-1.6035,-198.32999999999998,215.8875,190.50475,0.0,0.0,0.0,0.0,0.046566666666666534,-5.498166666666667,-5.498166666666667,-0.5748,-0.3145,-0.003375000000000128,0.5619999999999998,68.72800000000001,-0.008400000000000001,-0.23065000000000002,0.15200000000000102,100.0,1.0,1.0,211.98666666666668,0.0,0.0,0.0,0.0,0.0,0.0,0.0,8985.4,0.0,55.0,5.0,247.39666666666665,1.0,0.0,0.0,0.0,0.0,0.0,0.0,0.0,1.1550000000000011,1.1550000000000011,0.0,0.0,1.0,55.0,616.79921,10000.0,85.000001,85.000001,85.000001,85.000001,395.0,0.0,0.0,0.0,1.0,166.665,51.727000000000004,51.727000000000004,48.08,48.08,34.0,-25.2,24.458,-26.636666666666663,28.225,0.0,1781.488,-0.09499999999999886,100.0,28.563,28.094,43.593,43.572,0.0,1.0,100.0,0.0,0.0,0.0,0.0,3267.4285714285716,3159.4,3916.25,4039.7,304.8295,304.845,315.24025,314.7975,21.9914,20.6351,21.9724,21.4849,314.999998,314.999998,324.999988,324.999988,99.55895714285714,99.50743333333334,99.56708571428571,99.54724285714286,0.08024999999999993,-0.06066666666666665,-0.11183333333333333,0.1055,-0.05333333333332746,-0.03833333333332689,1.5225,1.5294999999999999,38.447,29.969666666666665,38.328,35.2805,55.938,35.3795,59.536,52.6445,53.870000000000005,34.4825,58.121,50.9645,53.019,34.0125,58.0245,50.3685,-0.08299999999999996,-0.07750000000000012,0.10331000000000001,0.10559,0.0,215.19,215.135,211.98666666666668,211.98666666666668,0.0,0.0
24,0.0,1.0,0.0,1.0,1.0,0.0,0.0,1.0,0.0,100.0,1.0,1.1856,26.0,0.0,0.0,0.0,59.999996,0.0,26.0,26.0,26.0,26.0,-0.02022222222222214,0.28080000000000016,-0.05706000000000001,292.374,-2.69205,-2.6863333333333332,-1.56315,-1.5463,-195.03,215.875,190.48225,0.0,0.0,0.0,0.0,0.04846666666666655,-5.498166666666667,-5.498166666666667,-0.5790000000000001,-0.5335,0.005374999999999908,1.107,68.856,-0.0071,-0.217225,0.023999999999999133,100.0,1.0,1.0,212.30333333333334,0.0,0.0,0.0,0.0,0.0,0.0,0.0,8998.7,0.0,55.0,5.0,247.85333333333335,0.0,0.0,0.0,0.0,0.0,0.0,0.0,0.0,1.2029999999999994,1.2029999999999994,0.0,0.0,0.0,55.0,616.79921,10000.0,85.000001,85.000001,85.000001,85.000001,395.0,0.0,0.0,0.0,1.0,166.665,52.856,52.856,47.15,47.15,34.0,-22.22,23.2,-30.053333333333335,28.685,0.0,1781.441,-0.14000000000000057,100.0,28.315,27.821,43.55,43.435,0.0,1.0,100.0,0.0,0.0,0.0,0.0,2916.857142857143,3000.4,4261.875,4163.8,305.937,305.372,314.423,314.59075,22.0003,20.6402,21.9823,21.4935,314.999998,314.999998,324.999988,324.999988,99.55897142857143,99.50743333333334,99.56722857142857,99.54738571428571,0.08024999999999993,-0.057666666666666755,-0.11033333333333332,0.10983333333333332,-0.03999999999999915,-0.06833333333332803,1.516,1.5055,38.501999999999995,30.001333333333335,38.388999999999996,35.334,55.925,35.415,59.573,52.701499999999996,53.857,34.515,58.155,51.0195,53.006,34.044,58.0555,50.422,-0.08599999999999985,-0.06599999999999984,0.10062000000000001,0.10846000000000001,0.0,215.565,215.55,212.30333333333334,212.30333333333334,0.0,0.0
25,0.0,1.0,0.0,1.0,1.0,0.0,0.0,1.0,0.0,100.0,1.0,1.1856,26.0,0.0,0.0,0.0,59.999996,0.0,26.0,26.0,26.0,26.0,0.006222222222222129,0.26660000000000017,-0.0716,292.313,-2.75995,-2.6421111111111113,-1.58075,-1.5487000000000002,-191.51,215.8625,190.457,0.0,0.0,0.0,0.0,0.05053333333333332,-5.498166666666667,-5.498166666666667,-0.6123000000000001,-0.0635,0.007749999999999924,-0.992,68.988,-0.0076,-0.22605,0.02200000000000024,100.0,1.0,1.0,212.84,0.0,0.0,0.0,0.0,0.0,0.0,0.0,9021.6,0.0,55.0,5.0,248.32999999999998,1.0,0.0,0.0,0.0,0.0,0.0,0.0,0.0,1.2540000000000013,1.2540000000000013,0.0,0.0,1.0,55.0,616.79921,10000.0,85.000001,85.000001,85.000001,85.000001,395.0,0.0,0.0,0.0,1.0,333.33500000000004,51.849000000000004,51.849000000000004,47.958,47.958,34.0,-26.072499999999998,25.067999999999998,-27.64,26.9425,0.0,1781.388,-0.17999999999999972,100.0,28.164,28.235,43.219,43.249,0.0,1.0,100.0,0.0,0.0,0.0,0.0,3289.5714285714284,3220.9,3952.125,4022.8,305.103,304.5235,315.299,314.9165,22.0096,20.6458,21.9926,21.5025,314.999998,314.999998,324.999988,324.999988,99.55898571428571,99.50745,99.56737142857143,99.54754285714286,0.07600000000000007,-0.05566666666666675,-0.11850000000000001,0.10316666666666667,-0.04999999999999716,-0.03166666666666629,1.577,1.5805,38.56,30.03633333333333,38.454,35.3905,55.91,35.454499999999996,59.609,52.7605,53.842,34.552,58.1885,51.076499999999996,52.989999999999995,34.079,58.0865,50.4775,-0.09549999999999992,-0.06349999999999989,0.10708500000000001,0.10284000000000001,0.0,215.98000000000002,215.95,212.84,212.84,0.0,0.0
26,0.0,1.0,0.0,1.0,1.0,0.0,0.0,1.0,0.0,100.0,1.0,1.1856,26.0,0.0,0.0,0.0,59.999996,0.0,26.0,26.0,26.0,26.0,-0.01822222222222214,0.27259999999999995,0.08002000000000001,291.10699999999997,-2.7064,-2.7214444444444443,-1.6242,-1.5434999999999999,-187.99,215.85,190.431125,0.0,0.0,0.0,0.0,0.05256666666666654,-5.498166666666667,-5.498166666666667,-0.5723,0.7695,-0.008000000000000007,0.774,69.125,-0.005,-0.19717500000000002,-0.03200000000000003,100.0,1.0,1.0,213.0,0.0,0.0,0.0,0.0,0.0,0.0,0.0,9028.3,0.0,55.0,5.0,248.82,0.0,0.0,0.0,0.0,0.0,0.0,0.0,0.0,1.3049999999999997,1.3049999999999997,0.0,0.0,0.0,55.0,616.79921,10000.0,85.000001,85.000001,85.000001,85.000001,395.0,0.0,0.0,0.0,1.0,166.665,51.331,51.331,46.204,46.204,34.0,-24.155,25.186,-33.75666666666666,32.057500000000005,0.0,1781.338,-0.245000000000001,100.0,29.142,28.747,43.764,43.61,0.0,1.0,100.0,0.0,0.0,0.0,0.0,3157.285714285714,3157.7,4531.625,4532.2,305.171,304.745,313.8745,313.72225,22.019199999999998,20.6516,22.0031,21.5117,314.999998,314.999998,324.999988,324.999988,99.559,99.50745,99.56751428571428,99.54768571428572,0.08975,-0.05600000000000005,-0.11333333333333333,0.11066666666666668,-0.023333333333326323,-0.045000000000001705,1.429,1.447,38.620000000000005,30.072666666666667,38.519,35.448,55.9,35.4965,59.6495,52.823499999999996,53.833,34.5905,58.2265,51.137,52.980000000000004,34.116,58.121,50.537,-0.10250000000000004,-0.06499999999999995,0.10500000000000001,0.10662500000000001,0.0,216.43,216.42000000000002,213.0,213.0,0.0,0.0
27,0.0,1.0,0.0,1.0,1.0,0.0,0.0,1.0,0.0,100.0,1.0,1.1856,26.0,0.0,0.0,0.0,59.999996,0.0,26.0,26.0,26.0,26.0,0.0013333333333334085,0.24419999999999997,-0.013840000000000002,291.534,-2.67675,-2.6852222222222224,-1.6167500000000001,-1.6146,-184.67000000000002,215.8375,190.408,0.0,0.0,0.0,0.0,0.05449999999999999,-5.498166666666667,-5.498166666666667,-0.5957,-1.0575,-0.0045000000000001705,0.6949999999999998,69.249,-0.0018000000000000002,-0.24230000000000002,-0.15200000000000014,100.0,1.0,1.0,213.4766666666667,0.0,0.0,0.0,0.0,0.0,0.0,0.0,9048.5,0.0,55.0,5.0,249.26999999999998,1.0,0.0,0.0,0.0,0.0,0.0,0.0,0.0,1.352999999999998,1.352999999999998,0.0,0.0,1.0,55.0,616.79921,10000.0,85.000001,85.000001,85.000001,85.000001,395.0,0.0,0.0,0.0,1.0,166.665,51.743,51.743,46.57,46.57,34.0,-22.62,25.433999999999997,-29.293333333333333,29.98,0.0,1781.289,-0.28000000000000114,100.0,28.795,28.529,44.431,44.263000000000005,0.0,1.0,100.0,0.0,0.0,0.0,0.0,3052.285714285714,3197.9,4097.75,4131.4,305.5015,304.73825,314.82825,314.56975,22.028,20.6569,22.0131,21.5205,314.999998,314.999998,324.999988,324.999988,99.559,99.50745,99.56765714285714,99.54781428571428,0.09724999999999984,-0.04800000000000004,-0.1065,0.11750000000000001,-0.036666666666668846,-0.04999999999999716,1.4955,1.4905,38.675,30.105666666666664,38.582,35.503,55.887,35.533,59.6885,52.8835,53.821,34.6245,58.263,51.1945,52.967,34.1485,58.1545,50.5935,-0.10999999999999988,-0.05699999999999994,0.10372,0.108505,0.0,216.76,216.745,213.4766666666667,213.4766666666667,0.0,0.0
28,0.0,1.0,0.0,1.0,1.0,0.0,0.0,1.0,0.0,100.0,1.0,1.1856,26.0,0.0,0.0,0.0,59.999996,0.0,26.0,26.0,26.0,26.0,0.005333333333333412,0.24819999999999998,-0.04984,291.87,-2.66325,-2.671777777777778,-1.5911,-1.5774,-180.93,215.825,190.381125,0.0,0.0,0.0,0.0,0.05666666666666653,-5.498166666666667,-5.498166666666667,-0.6003000000000001,0.6990000000000001,-0.010000000000000231,0.81,69.386,0.0043,-0.2144,-0.1979999999999995,100.0,1.0,1.0,214.01999999999998,0.0,0.0,0.0,0.0,0.0,0.0,0.0,9071.5,0.0,55.0,5.0,249.76333333333332,0.0,0.0,0.0,0.0,0.0,0.0,0.0,0.0,1.407,1.407,0.0,0.0,0.0,55.0,616.79921,10000.0,85.000001,85.000001,85.000001,85.000001,395.0,0.0,0.0,0.0,1.0,166.665,51.757999999999996,51.757999999999996,47.47,47.47,34.0,-22.7125,25.240000000000002,-28.223333333333333,29.5775,0.0,1781.236,-0.28000000000000114,100.0,28.833,28.413,43.641999999999996,43.678,0.0,1.0,100.0,0.0,0.0,0.0,0.0,3085.142857142857,3159.5,4103.875,4158.6,305.325,304.8505,314.99925,314.61925,22.038,20.6629,22.024,21.53,314.999998,314.999998,324.999988,324.999988,99.55901428571428,99.50746666666667,99.56781428571429,99.54797142857143,0.10099999999999998,-0.04166666666666674,-0.10116666666666667,0.12116666666666667,-0.046666666666666856,-0.045000000000001705,1.5525,1.5275,38.738,30.143,38.65,35.5625,55.875,35.575,59.7255,52.945499999999996,53.809,34.663,58.297,51.254,52.954,34.1855,58.185,50.6515,-0.10650000000000004,-0.053999999999999826,0.1044,0.10086,0.0,217.24,217.22500000000002,214.01999999999998,214.01999999999998,0.0,0.0
29,0.0,1.0,0.0,1.0,1.0,0.0,0.0,1.0,0.0,100.0,1.0,1.1856,26.0,0.0,0.0,0.0,59.999996,0.0,26.0,26.0,26.0,26.0,0.03055555555555567,0.25280000000000014,0.024200000000000003,291.611,-2.6604,-2.7145555555555556,-1.5706,-1.5519,-177.38,215.8125,190.35475,0.0,0.0,0.0,0.0,0.058733333333333304,-5.498166666666667,-5.498166666666667,-0.6065,-0.7305,-0.003249999999999975,-0.6459999999999999,69.521,0.0095,-0.21805000000000002,-0.18599999999999994,100.0,1.0,1.0,214.26666666666665,0.0,0.0,0.0,0.0,0.0,0.0,0.0,9082.0,0.0,55.0,5.0,250.25,1.0,0.0,0.0,0.0,0.0,0.0,0.0,0.0,1.4579999999999984,1.4579999999999984,0.0,0.0,1.0,55.0,616.79921,10000.0,85.000001,85.000001,85.000001,85.000001,395.0,0.0,0.0,0.0,1.0,166.665,51.926,51.926,46.692,46.692,34.0,-23.6025,25.119999999999997,-29.206666666666663,30.5025,0.0,1781.186,-0.29499999999999815,100.0,28.289,28.496000000000002,43.955,44.118,0.0,1.0,100.0,0.0,0.0,0.0,0.0,3201.142857142857,3086.2,4198.125,4242.9,305.287,304.815,314.6465,314.29425,22.0472,20.6684,22.0345,21.5393,314.999998,314.999998,324.999988,324.999988,99.55904285714286,99.50748333333334,99.56795714285714,99.54812857142858,0.09474999999999989,-0.045333333333333226,-0.10033333333333333,0.124,-0.05666666666667197,-0.04833333333333201,1.4735,1.4735,38.795,30.177666666666667,38.716,35.6205,55.861000000000004,35.613,59.766,53.0085,53.796,34.698,58.3345,51.3145,52.94,34.219,58.2195,50.710499999999996,-0.10549999999999993,-0.052999999999999936,0.10493000000000001,0.10994500000000001,0.0,217.61,217.60500000000002,214.26666666666665,214.26666666666665,0.0,0.0
30,0.0,1.0,0.0,1.0,1.0,0.0,0.0,1.0,0.0,100.0,1.0,1.1856,26.0,0.0,0.0,0.0,59.999996,0.0,26.0,26.0,26.0,26.0,0.016666666666666607,0.26070000000000015,0.06592,291.077,-2.71125,-2.606,-1.5449000000000002,-1.6075,-174.25,215.8,190.331375,0.0,0.0,0.0,0.0,0.060566666666666547,-5.498166666666667,-5.498166666666667,-0.6056,0.74,-0.004624999999999879,0.46999999999999975,69.635,0.0122,-0.219725,-0.23399999999999999,100.0,1.0,1.0,214.69,0.0,0.0,0.0,0.0,0.0,0.0,0.0,9099.9,0.0,55.0,5.0,250.66,0.0,0.0,0.0,0.0,0.0,0.0,1.0,0.0,1.5030000000000001,1.5030000000000001,0.0,0.0,0.0,55.0,616.79921,10000.0,85.000001,85.000001,85.000001,85.000001,395.0,0.0,0.0,0.0,1.0,166.665,50.69,50.69,46.997,46.997,34.0,-24.665,25.918,-28.48,31.84,0.0,1781.14,-0.3299999999999983,100.0,29.265,29.059,43.802,43.984,0.0,1.0,100.0,0.0,0.0,0.0,0.0,3321.5714285714284,3273.6,4168.0,4256.3,304.6985,304.39375,314.72925,314.30325,22.0557,20.6737,22.043599999999998,21.5474,314.999998,314.999998,324.999988,324.999988,99.55904285714286,99.50748333333334,99.56808571428571,99.54825714285714,0.11100000000000021,-0.03966666666666674,-0.10033333333333333,0.13333333333333336,-0.03999999999999915,-0.04833333333333201,1.4989999999999999,1.4769999999999999,38.848,30.210333333333335,38.772999999999996,35.6715,55.852999999999994,35.65,59.7975,53.0625,53.788,34.7325,58.364,51.3665,52.931,34.251999999999995,58.246,50.7615,-0.11499999999999999,-0.05650000000000022,0.10743000000000001,0.10916000000000001,0.0,217.97,218.005,214.69,214.69,0.0,0.0
31,0.0,1.0,0.0,1.0,1.0,0.0,0.0,1.0,0.0,100.0,1.0,1.1856,26.0,0.0,0.0,0.0,59.999996,0.0,26.0,26.0,26.0,26.0,0.013111111111111073,0.26160000000000005,0.00152,290.955,-2.7765,-2.585111111111111,-1.5906,-1.5061,-170.7,215.79000000000002,190.305625,0.0,0.0,0.0,0.0,0.06263333333333332,-5.498166666666667,-5.498166666666667,-0.5902000000000001,-0.542,-0.0006249999999998757,-0.766,69.767,0.014400000000000001,-0.22115,-0.23399999999999999,100.0,1.0,1.0,214.96333333333334,0.0,0.0,0.0,0.0,0.0,0.0,0.0,9111.5,0.0,55.0,5.0,251.13666666666666,1.0,0.0,0.0,0.0,0.0,0.0,1.0,0.0,1.5539999999999985,1.5539999999999985,0.0,0.0,1.0,55.0,616.79921,10000.0,85.000001,85.000001,85.000001,85.000001,395.0,0.0,0.0,0.0,1.0,166.665,51.361000000000004,51.361000000000004,45.593,45.593,34.0,-23.965,25.024,-30.849999999999998,29.7325,0.0,1781.089,-0.35999999999999943,100.0,28.87,29.175,44.397999999999996,44.731,0.0,1.0,100.0,0.0,0.0,0.0,0.0,3173.4285714285716,3210.6,4400.75,4195.7,305.453,304.6435,314.1435,314.37275,22.065,20.6794,22.0543,21.5568,314.999998,314.999998,324.999988,324.999988,99.55905714285714,99.50748333333334,99.56824285714286,99.54841428571429,0.10375000000000023,-0.04066666666666663,-0.092,0.1265,-0.01666666666666572,-0.051666666666669414,1.4605,1.455,38.906,30.246333333333332,38.839,35.730000000000004,55.842,35.689499999999995,59.839,53.1265,53.777,34.769,58.403,51.4285,52.919,34.2875,58.282,50.822,-0.11450000000000005,-0.052000000000000046,0.10014,0.11003,0.0,218.35000000000002,218.38,214.96333333333334,214.96333333333334,0.0,0.0
32,0.0,1.0,0.0,1.0,1.0,0.0,0.0,1.0,0.0,100.0,1.0,1.1856,26.0,0.0,0.0,0.0,59.999996,0.0,26.0,26.0,26.0,26.0,0.007333333333333414,0.2670000000000001,-0.04118,291.229,-2.7079,-2.695222222222222,-1.6532,-1.5151,-167.14,215.78,190.28,0.0,0.0,0.0,0.0,0.06469999999999998,-5.498166666666667,-5.498166666666667,-0.6063000000000001,0.07,-0.023249999999999993,0.1160000000000001,69.894,0.016900000000000002,-0.2278,-0.3099999999999996,100.0,1.0,1.0,215.48000000000002,0.0,0.0,0.0,0.0,0.0,0.0,0.0,9133.5,0.0,55.0,5.0,251.59,0.0,0.0,0.0,0.0,0.0,0.0,1.0,0.0,1.6050000000000004,1.6050000000000004,0.0,0.0,0.0,55.0,616.79921,10000.0,85.000001,85.000001,85.000001,85.000001,395.0,0.0,0.0,0.0,1.0,166.665,51.331,51.331,46.57,46.57,34.0,-23.1875,26.198,-29.256666666666664,30.71,0.0,1781.038,-0.34499999999999886,100.0,28.982,28.984,44.197,44.391999999999996,0.0,1.0,100.0,0.0,0.0,0.0,0.0,3168.714285714286,3194.3,4207.5,4275.9,305.217,304.7135,314.72625,314.42025,22.0744,20.685200000000002,22.0646,21.566,314.999998,314.999998,324.999988,324.999988,99.55907142857143,99.5075,99.56838571428571,99.54855714285715,0.11275000000000013,-0.033333333333333215,-0.0855,0.14150000000000001,-0.01833333333333087,-0.05333333333332746,1.5434999999999999,1.5245,38.965,30.282666666666664,38.903999999999996,35.7875,55.831,35.730000000000004,59.8755,53.1865,53.766999999999996,34.8065,58.4365,51.4865,52.907,34.323,58.3125,50.8785,-0.10749999999999993,-0.05900000000000016,0.10247500000000001,0.10497000000000001,0.0,218.75,218.785,215.48000000000002,215.48000000000002,0.0,0.0
33,0.0,1.0,0.0,1.0,1.0,0.0,0.0,1.0,0.0,100.0,1.0,1.1856,26.0,0.0,0.0,0.0,59.999996,0.0,26.0,26.0,26.0,26.0,0.013555555555555543,0.2703,-0.051620000000000006,291.428,-2.71105,-2.6935555555555557,-1.5788,-1.5983,-163.78,215.76999999999998,190.254875,0.0,0.0,0.0,0.0,0.06663333333333332,-5.498166666666667,-5.498166666666667,-0.6128,-0.361,-0.02312499999999984,1.214,70.016,0.016300000000000002,-0.21732500000000002,-0.2320000000000002,100.0,1.0,1.0,215.80666666666667,0.0,0.0,0.0,0.0,0.0,0.0,0.0,9147.2,0.0,55.0,5.0,252.03333333333336,1.0,0.0,0.0,0.0,0.0,0.0,1.0,0.0,1.6529999999999987,1.6529999999999987,0.0,0.0,1.0,55.0,616.79921,10000.0,85.000001,85.000001,85.000001,85.000001,395.0,0.0,0.0,0.0,1.0,333.33500000000004,51.819,51.819,46.539,46.539,34.0,-22.6175,25.486,-29.183333333333334,31.6,0.0,1780.989,-0.375,100.0,28.833,28.658,44.179,44.368,0.0,1.0,100.0,0.0,0.0,0.0,0.0,3067.285714285714,3120.5,4200.625,4271.7,305.561,304.9515,314.615,314.355,22.083199999999998,20.6905,22.0744,21.5747,314.999998,314.999998,324.999988,324.999988,99.55908571428571,99.5075,99.56852857142857,99.5487,0.10550000000000015,-0.03299999999999992,-0.099,0.13316666666666666,-0.04999999999999716,-0.03999999999999915,1.51,1.5055,39.019999999999996,30.315666666666665,38.965,35.842,55.819,35.7645,59.911,53.244,53.756,34.838499999999996,58.47,51.5415,52.894999999999996,34.354,58.3425,50.9325,-0.10699999999999998,-0.052000000000000046,0.11461,0.10844500000000001,0.0,219.14499999999998,219.14,215.80666666666667,215.80666666666667,0.0,0.0
34,0.0,1.0,0.0,1.0,1.0,0.0,0.0,1.0,0.0,100.0,1.0,1.1856,26.0,0.0,0.0,0.0,59.999996,0.0,26.0,26.0,26.0,26.0,0.018000000000000016,0.24580000000000002,-0.04528,291.794,-2.74335,-2.618666666666667,-1.6477,-1.5572,-159.99,215.76,190.225375,0.0,0.0,0.0,0.0,0.0688333333333333,-5.498166666666667,-5.498166666666667,-0.6425000000000001,-0.712,0.008874999999999966,0.9819999999999998,70.152,0.0173,-0.22360000000000002,-0.23799999999999955,100.0,1.0,1.0,216.26666666666665,0.0,0.0,0.0,0.0,0.0,0.0,0.0,9166.8,0.0,55.0,5.0,252.51999999999998,0.0,0.0,0.0,0.0,0.0,0.0,1.0,0.0,1.7070000000000007,1.7070000000000007,0.0,0.0,0.0,55.0,616.79921,10000.0,85.000001,85.000001,85.000001,85.000001,395.0,0.0,0.0,0.0,1.0,166.665,52.185,52.185,47.226,47.226,34.0,-21.7625,24.978,-28.413333333333334,30.945,0.0,1780.936,-0.33500000000000085,100.0,28.531,28.292,43.912,44.368,0.0,1.0,100.0,0.0,0.0,0.0,0.0,2972.5714285714284,3125.5,4064.25,4214.5,305.6795,304.93,315.0185,314.45475,22.0929,20.6964,22.0854,21.5845,314.999998,314.999998,324.999988,324.999988,99.5591,99.5075,99.56868571428572,99.54887142857143,0.11825000000000019,-0.030333333333333323,-0.0905,0.13933333333333334,-0.02833333333332888,-0.051666666666669414,1.519,1.498,39.081,30.352333333333334,39.034,35.903,55.806,35.8035,59.948499999999996,53.309,53.742999999999995,34.8745,58.5045,51.604,52.882,34.3885,58.374,50.9935,-0.11349999999999993,-0.053999999999999826,0.10514000000000001,0.10995500000000001,0.0,219.535,219.56,216.26666666666665,216.26666666666665,0.0,0.0
35,0.0,1.0,0.0,1.0,1.0,0.0,0.0,1.0,0.0,100.0,1.0,1.1856,26.0,0.0,0.0,0.0,59.999996,0.0,26.0,26.0,26.0,26.0,0.016666666666666607,0.24940000000000007,-0.058960000000000005,291.794,-2.7157999999999998,-2.627222222222222,-1.61785,-1.5204,-156.62,215.75,190.19725,0.0,0.0,0.0,0.0,0.07079999999999997,-5.498166666666667,-5.498166666666667,-0.6821,-0.47900000000000004,-0.011375000000000135,-0.15500000000000025,70.271,0.0211,-0.23,-0.30799999999999894,100.0,1.0,1.0,216.69333333333333,0.0,0.0,0.0,0.0,0.0,0.0,0.0,9184.8,0.0,55.0,5.0,252.95,1.0,0.0,0.0,0.0,0.0,0.0,1.0,0.0,1.754999999999999,1.754999999999999,0.0,0.0,1.0,55.0,616.79921,10000.0,85.000001,85.000001,85.000001,85.000001,395.0,0.0,0.0,0.0,1.0,333.33500000000004,51.666,51.666,46.89,46.89,34.0,-23.1275,27.308,-26.933333333333337,28.755,0.0,1780.887,-0.22499999999999787,100.0,28.368,28.55,43.778999999999996,43.882,0.0,1.0,100.0,0.0,0.0,0.0,0.0,3100.5714285714284,3385.8,4024.25,3988.4,305.4575,304.15875,315.0295,315.01275,22.101399999999998,20.7018,22.0951,21.5931,314.999998,314.999998,324.999988,324.999988,99.55911428571429,99.5075,99.56882857142857,99.549,0.10175000000000001,-0.033666666666666734,-0.0755,0.148,-0.04833333333333201,-0.04999999999999716,1.5454999999999999,1.53,39.132999999999996,30.386333333333333,39.094,35.9565,55.792,35.84,59.982,53.363,53.730000000000004,34.908500000000004,58.536,51.656,52.867000000000004,34.421,58.402,51.0445,-0.09650000000000003,-0.06150000000000011,0.10519500000000001,0.11166000000000001,0.0,219.91500000000002,219.93,216.69333333333333,216.69333333333333,0.0,0.0
36,0.0,1.0,0.0,1.0,1.0,0.0,0.0,1.0,0.0,100.0,1.0,1.1856,26.0,0.0,0.0,0.0,59.999996,0.0,26.0,26.0,26.0,26.0,0.008888888888888946,0.2630000000000001,0.06142000000000001,290.848,-2.7592,-2.6688888888888886,-1.56525,-1.5614,-153.25,215.7425,190.1675,0.0,0.0,0.0,0.0,0.07276666666666654,-5.498166666666667,-5.498166666666667,-0.6651,0.3035,-0.05187499999999989,0.1379999999999999,70.394,0.0211,-0.20140000000000002,-0.10599999999999987,100.0,1.0,1.0,216.86,0.0,0.0,0.0,0.0,0.0,0.0,0.0,9192.0,0.0,55.0,5.0,253.39,0.0,0.0,0.0,0.0,0.0,0.0,1.0,0.0,1.8030000000000008,1.8030000000000008,0.0,0.0,0.0,55.0,616.79921,10000.0,85.000001,85.000001,85.000001,85.000001,395.0,0.0,0.0,0.0,1.0,166.665,51.117,51.117,46.31,46.31,34.0,-24.97,26.174,-30.236666666666665,34.0025,0.0,1780.84,-0.14000000000000057,100.0,29.023,28.858,43.964,44.069,0.0,1.0,100.0,0.0,0.0,0.0,0.0,3289.142857142857,3247.8,4405.125,4528.0,304.9445,304.60875,314.15475,313.75625,22.1101,20.7074,22.1048,21.6018,314.999998,314.999998,324.999988,324.999988,99.55912857142857,99.50751666666666,99.56897142857143,99.54914285714285,0.10575000000000001,-0.03866666666666663,-0.0855,0.13933333333333334,-0.03999999999999915,-0.051666666666669414,1.437,1.443,39.188,30.421,39.155,36.0115,55.782,35.8785,60.0175,53.420500000000004,53.72,34.944,58.569,51.7115,52.855999999999995,34.455,58.432,51.0985,-0.09650000000000003,-0.07350000000000012,0.10828000000000002,0.10368500000000001,0.0,220.32,220.34,216.86,216.86,0.0,0.0
