,ABS Active,ABS Enabled,AID Allow Tire Blankets,AID Auto Blip,AID Auto Clutch,AID Auto Shift,AID Fuel Rate,AID Ideal Line,AID Mech Damage,AID Stability,AID Tire Wear Rate,Air Density,Air Temp,Ballast,Best Lap Delta,Best Lap Time,Brake Bias,Brake Pos,Brake Temp FL,Brake Temp FR,Brake Temp RL,Brake Temp RR,CG Accel Lateral,CG Accel Longitudinal,CG Accel Vertical,CG Height,Camber FL,Camber FR,Camber RL,Camber RR,Car Coord X,Car Coord Y,Car Coord Z,Car Damage Front,Car Damage Left,Car Damage Rear,Car Damage Right,Car Pos Norm,Caster FL,Caster FR,Chassis Pitch Angle,Chassis Pitch Rate,Chassis Roll Angle,Chassis Roll Rate,Chassis Velocity X,Chassis Velocity Y,Chassis Velocity Z,Chassis Yaw Rate,Clutch Pos,DRS Active,DRS Available,Drive Train Speed,ERS Heat Charging,ERS Is Charging,ERS Max Energy,ERS Power Level,ERS Recovery Level,Engine Brake Setting,Engine Limiter,Engine RPM,Flags,Fuel Level,Gear,Ground Speed,HR Sample Clock,In Pit,KERS Charge,KERS Deployed Energy,KERS Input,KERS Max Energy,LR Sample Clock,Lap Invalidated,Lap Time,Lap Time2,Last Lap Time,Last Sector Time,MR Sample Clock,Max Fuel,Max Power,Max RPM,Max Sus Travel FL,Max Sus Travel FR,Max Sus Travel RL,Max Sus Travel RR,Max Torque,Max Turbo Boost,Num Tires Off Track,Penalties Enabled,Position,Raw Data Sample Rate,Ride Height FL,Ride Height FR,Ride Height RL,Ride Height RR,Road Temp,Self Align Torque FL,Self Align Torque FR,Self Align Torque RL,Self Align Torque RR,Session Lap Count,Session Time Left,Steering Angle,Surface Grip,Suspension Travel FL,Suspension Travel FR,Suspension Travel RL,Suspension Travel RR,TC Active,TC Enabled,Throttle Pos,Tire Dirt Level FL,Tire Dirt Level FR,Tire Dirt Level RL,Tire Dirt Level RR,Tire Load FL,Tire Load FR,Tire Load RL,Tire Load RR,Tire Loaded Radius FL,Tire Loaded Radius FR,Tire Loaded Radius RL,Tire Loaded Radius RR,Tire Pressure FL,Tire Pressure FR,Tire Pressure RL,Tire Pressure RR,Tire Radius FL,Tire Radius FR,Tire Radius RL,Tire Radius RR,Tire Rubber Grip FL,Tire Rubber Grip FR,Tire Rubber Grip RL,Tire Rubber Grip RR,Tire Slip Angle FL,Tire Slip Angle FR,Tire Slip Angle RL,Tire Slip Angle RR,Tire Slip Ratio FL,Tire Slip Ratio FR,Tire Slip Ratio RL,Tire Slip Ratio RR,Tire Temp Core FL,Tire Temp Core FR,Tire Temp Core RL,Tire Temp Core RR,Tire Temp Inner FL,Tire Temp Inner FR,Tire Temp Inner RL,Tire Temp Inner RR,Tire Temp Middle FL,Tire Temp Middle FR,Tire Temp Middle RL,Tire Temp Middle RR,Tire Temp Outer FL,Tire Temp Outer FR,Tire Temp Outer RL,Tire Temp Outer RR,Toe In FL,Toe In FR,Toe In RL,Toe In RR,Turbo Boost,Wheel Angular Speed FL,Wheel Angular Speed FR,Wheel Angular Speed RL,Wheel Angular Speed RR,Wind Direction,Wind Speed
0,0.0,1.0,0.0,1.0,1.0,0.0,0.0,1.0,0.0,100.0,1.0,1.1856,26.0,0.0,0.0,0.0,59.99999,0.0,26.0,26.0,26.0,26.0,-0.05249999999999999,0.31130000000000013,0.17297500000000002,293.564,-2.74365,-2.484,-1.52665,-1.5168,-275.66,215.76,190.9875,0.0,0.0,0.0,0.0,0.0015999999999999348,-5.498166666666667,-5.498166666666667,-0.5515,1.5663333333333334,-0.01200000000000001,-1.1600000000000001,65.532,-0.0332,-0.21327500000000002,0.35800000000000054,100.0,1.0,1.0,202.32333333333332,0.0,0.0,0.0,0.0,0.0,0.0,0.0,8575.7,0.0,55.0,5.0,235.88666666666666,0.0,0.0,0.0,0.0,0.0,0.0,0.0,0.0,0.0030000000000001137,0.0030000000000001137,0.0,0.0,0.0,55.0,616.79921,10000.0,85.0,85.0,85.0,85.0,395.0,0.0,0.0,0.0,1.0,20.0,51.712,51.712,48.92,48.92,34.0,-29.2125,26.576,-29.71,25.045,0.0,1783.579,0.5850000000000009,100.0,26.993,26.797,40.445,40.212,0.0,1.0,100.0,0.0,0.0,0.0,0.0,3290.142857142857,3936.3,4120.375,4028.9,304.8995,302.09366666666665,314.848,314.7575,21.7705,20.5118,21.7369,21.2803,314.99999,314.99999,324.99998,324.99998,99.55868571428572,99.50715,99.56404285714285,99.54401428571428,0.0040000000000000036,-0.11199999999999988,-0.14716666666666656,0.07116666666666682,-0.07166666666666544,-0.060000000000002274,1.567,1.561,37.065,29.198999999999998,36.855999999999995,34.001999999999995,56.221000000000004,34.432,58.694,51.25,54.144,33.6175,57.3395,49.624,53.316,33.192,57.3115,49.0525,-0.04299999999999993,-0.11649999999999983,0.10408,0.10729000000000001,0.0,205.35000000000002,205.305,202.32333333333332,202.32333333333332,0.0,0.0
1,0.0,1.0,0.0,1.0,1.0,0.0,0.0,1.0,0.0,100.0,1.0,1.1856,26.0,0.0,0.0,0.0,59.999996,0.0,26.0,26.0,26.0,26.0,-0.09937499999999999,0.32730000000000015,0.2456,292.801,-2.65515,-2.708,-1.54695,-1.3797000000000001,-272.12,215.7625,190.966375,0.0,0.0,0.0,0.0,0.003666666666666596,-5.498166666666667,-5.498166666666667,-0.4844,-1.7726666666666664,-0.053777777777777924,-0.5800000000000001,65.69800000000001,-0.037200000000000004,-0.1895,0.9720000000000013,100.0,1.0,1.0,202.32666666666665,0.0,0.0,0.0,0.0,0.0,0.0,0.0,8575.9,0.0,55.0,5.0,236.48333333333335,1.0,0.0,0.0,0.0,0.0,0.0,0.0,0.0,0.05699999999999861,0.05699999999999861,0.0,0.0,1.0,55.0,616.79921,10000.0,85.000001,85.000001,85.000001,85.000001,395.0,0.0,0.0,0.0,1.0,166.665,54.352000000000004,54.352000000000004,47.943,47.943,34.0,-25.0675,16.862,-36.873333333333335,30.2,0.0,1783.523,0.5700000000000003,100.0,27.224,26.793,42.43,42.772,0.0,1.0,100.0,0.0,0.0,0.0,0.0,2971.4285714285716,2474.9,4619.125,5005.1,305.8675,306.9223333333333,313.45825,312.14725,21.7808,20.5171,21.7485,21.2901,314.999998,314.999998,324.999988,324.999988,99.5587,99.50716666666666,99.5642,99.54418571428572,0.007000000000000117,-0.11399999999999988,-0.16300000000000003,0.05566666666666675,-0.036666666666668846,-0.02833333333332888,1.3225,1.3585000000000003,37.129999999999995,29.232,36.928,34.063,56.203,34.4725,58.745,51.324,54.126000000000005,33.655,57.3875,49.695,53.298,33.2285,57.3565,49.122,-0.028000000000000025,-0.11350000000000016,0.106395,0.11585000000000001,0.0,205.815,205.755,202.32666666666665,202.32666666666665,0.0,0.0
2,0.0,1.0,0.0,1.0,1.0,0.0,0.0,1.0,0.0,100.0,1.0,1.1856,26.0,0.0,0.0,0.0,59.999996,0.0,26.0,26.0,26.0,26.0,-0.10687499999999994,0.2875000000000001,-0.101325,294.113,-2.63095,-2.6686666666666667,-1.5213,-1.5234,-268.96,215.7625,190.94875,0.0,0.0,0.0,0.0,0.005499999999999949,-5.498166666666667,-5.498166666666667,-0.5672,0.3956666666666666,-0.023333333333333428,1.3980000000000001,65.826,-0.0473,-0.264525,1.2300000000000004,100.0,1.0,1.0,203.58333333333331,0.0,0.0,0.0,0.0,0.0,0.0,0.0,8629.1,0.0,55.0,5.0,236.94333333333333,0.0,0.0,0.0,0.0,0.0,0.0,0.0,0.0,0.10500000000000043,0.10500000000000043,0.0,0.0,0.0,55.0,616.79921,10000.0,85.000001,85.000001,85.000001,85.000001,395.0,0.0,0.0,0.0,1.0,333.33500000000004,52.429,52.429,50.827,50.827,34.0,-29.8525,20.164,-26.45,18.4075,0.0,1783.475,0.6700000000000017,100.0,27.933,27.097,41.929,41.458,0.0,1.0,100.0,0.0,0.0,0.0,0.0,3371.857142857143,2989.4,3570.875,3384.9,304.562,305.1136666666667,316.1205,316.45725,21.7903,20.5219,21.7581,21.298000000000002,314.999998,314.999998,324.999988,324.999988,99.55871428571429,99.50718333333333,99.56432857142858,99.5443,-0.012249999999999872,-0.1313333333333333,-0.19733333333333336,0.042166666666666686,-0.021666666666668277,-0.023333333333326323,1.7269999999999999,1.7785000000000002,37.19,29.262333333333334,36.988,34.1125,56.19,34.5105,58.778999999999996,51.3725,54.114000000000004,33.69,57.419,49.7415,53.285,33.262,57.3855,49.168,-0.026000000000000023,-0.121,0.108935,0.11091500000000001,0.0,206.20499999999998,206.125,203.58333333333331,203.58333333333331,0.0,0.0
3,0.0,1.0,0.0,1.0,1.0,0.0,0.0,1.0,0.0,100.0,1.0,1.1856,26.0,0.0,0.0,0.0,59.999996,0.0,26.0,26.0,26.0,26.0,-0.12,0.3125,0.122925,293.335,-2.6435,-2.7087777777777777,-1.5025,-1.5812,-265.6,215.76,190.9285,0.0,0.0,0.0,0.0,0.0074666666666665105,-5.498166666666667,-5.498166666666667,-0.5023,0.3866666666666666,-0.0129999999999999,-0.823,65.982,-0.0604,-0.1874,0.9060000000000006,100.0,1.0,1.0,203.50333333333333,0.0,0.0,0.0,0.0,0.0,0.0,0.0,8625.8,0.0,55.0,5.0,237.50333333333333,1.0,0.0,0.0,0.0,0.0,0.0,0.0,0.0,0.1559999999999988,0.1559999999999988,0.0,0.0,1.0,55.0,616.79921,10000.0,85.000001,85.000001,85.000001,85.000001,395.0,0.0,0.0,0.0,1.0,166.665,53.528,53.528,47.882,47.882,34.0,-25.4575,19.412,-34.56333333333333,26.1475,0.0,1783.425,0.7750000000000021,100.0,27.672,26.997,42.19,41.603,0.0,1.0,100.0,0.0,0.0,0.0,0.0,2939.5714285714284,2915.3,4447.5,4243.5,305.9245,305.56,313.939,314.33525,21.8001,20.5272,21.7686,21.307,314.999998,314.999998,324.999988,324.999988,99.55871428571429,99.5072,99.56447142857142,99.54445714285714,-0.012249999999999872,-0.139,-0.1755,0.040999999999999925,-0.041666666666671404,-0.021666666666668277,1.4515,1.4865,37.251000000000005,29.295,37.053,34.1685,56.172,34.5535,58.82,51.4385,54.098,33.7295,57.457499999999996,49.805,53.268,33.2995,57.421,49.2305,-0.0129999999999999,-0.13350000000000017,0.10502500000000001,0.10161500000000001,0.0,206.745,206.655,203.50333333333333,203.50333333333333,0.0,0.0
4,0.0,1.0,0.0,1.0,1.0,0.0,0.0,1.0,0.0,100.0,1.0,1.1856,26.0,0.0,0.0,0.0,59.999996,0.0,26.0,26.0,26.0,26.0,-0.107375,0.27249999999999996,-0.008175,293.594,-2.64905,-2.773,-1.45115,-1.5853000000000002,-262.23,215.7525,190.909125,0.0,0.0,0.0,0.0,0.009399999999999964,-5.498166666666667,-5.498166666666667,-0.5325,-0.7953333333333332,-0.06511111111111134,-1.1030000000000002,66.127,-0.07100000000000001,-0.23335,1.3740000000000006,100.0,1.0,1.0,204.11333333333334,0.0,0.0,0.0,0.0,0.0,0.0,0.0,8651.6,0.0,55.0,5.0,238.03,0.0,0.0,0.0,0.0,0.0,0.0,0.0,0.0,0.20700000000000074,0.20700000000000074,0.0,0.0,0.0,55.0,616.79921,10000.0,85.000001,85.000001,85.000001,85.000001,395.0,0.0,0.0,0.0,1.0,166.665,53.314,53.314,48.766999999999996,48.766999999999996,34.0,-29.244999999999997,19.037999999999997,-31.98,21.755000000000003,0.0,1783.375,0.7199999999999989,100.0,27.476,26.756,42.766999999999996,41.762,0.0,1.0,100.0,0.0,0.0,0.0,0.0,3255.5714285714284,2841.0,4149.125,3796.7,305.0325,305.64433333333335,314.736,315.3165,21.8099,20.5323,21.7792,21.3158,314.999998,314.999998,324.999988,324.999988,99.55871428571429,99.50721666666666,99.56461428571428,99.5446,-0.02574999999999994,-0.15166666666666662,-0.20033333333333336,0.01983333333333337,-0.054999999999999716,-0.046666666666666856,1.509,1.5685000000000002,37.312,29.326666666666668,37.120000000000005,34.224000000000004,56.157,34.594,58.8635,51.4995,54.083,33.766999999999996,57.498,49.8635,53.251999999999995,33.335499999999996,57.459,49.2875,-0.01550000000000007,-0.13050000000000006,0.107175,0.109155,0.0,207.16500000000002,207.05,204.11333333333334,204.11333333333334,0.0,0.0
5,0.0,1.0,0.0,1.0,1.0,0.0,0.0,1.0,0.0,100.0,1.0,1.1856,26.0,0.0,0.0,0.0,59.999996,0.0,26.0,26.0,26.0,26.0,-0.11875000000000002,0.2956000000000001,-0.044625000000000005,293.869,-2.69915,-2.7333333333333334,-1.50155,-1.6058,-259.05,215.745,190.89025,0.0,0.0,0.0,0.0,0.011266666666666536,-5.498166666666667,-5.498166666666667,-0.537,0.44133333333333336,-0.05788888888888888,-0.5110000000000001,66.264,-0.08610000000000001,-0.22045,1.2960000000000012,100.0,1.0,1.0,204.59333333333333,0.0,0.0,0.0,0.0,0.0,0.0,0.0,8671.9,0.0,55.0,5.0,238.5233333333333,1.0,0.0,0.0,0.0,0.0,0.0,0.0,0.0,0.254999999999999,0.254999999999999,0.0,0.0,1.0,55.0,616.79921,10000.0,85.000001,85.000001,85.000001,85.000001,395.0,0.0,0.0,0.0,1.0,333.33500000000004,53.467,53.467,49.347,49.347,34.0,-29.1675,19.018,-31.39,21.975,0.0,1783.325,0.490000000000002,100.0,27.496,26.645,42.403999999999996,41.28,0.0,1.0,100.0,0.0,0.0,0.0,0.0,3220.285714285714,2837.5,4018.5,3909.5,305.1305,305.65066666666667,315.07725,315.123,21.8193,20.5371,21.788899999999998,21.323999999999998,314.999998,314.999998,324.999988,324.999988,99.55871428571429,99.50723333333333,99.56475714285715,99.54472857142858,-0.021499999999999853,-0.14300000000000002,-0.20833333333333337,0.0086666666666666,-0.08166666666667055,-0.03333333333333144,1.5935,1.6235,37.370000000000005,29.356666666666666,37.181,34.275,56.141999999999996,34.635,58.903,51.558,54.069,33.8045,57.535,49.9195,53.236999999999995,33.3715,57.493,49.3425,-0.034499999999999975,-0.10999999999999988,0.10254,0.108295,0.0,207.635,207.495,204.59333333333333,204.59333333333333,0.0,0.0
6,0.0,1.0,0.0,1.0,1.0,0.0,0.0,1.0,0.0,100.0,1.0,1.1856,26.0,0.0,0.0,0.0,59.999996,0.0,26.0,26.0,26.0,26.0,-0.123,0.2977000000000001,0.0212,293.594,-2.64495,-2.7938888888888886,-1.5504,-1.5755,-255.87,215.735,190.87075,0.0,0.0,0.0,0.0,0.0131,-5.498166666666667,-5.498166666666667,-0.5238,-0.05066666666666686,-0.06722222222222207,-0.833,66.404,-0.0911,-0.20105,1.0099999999999998,100.0,1.0,1.0,204.86,0.0,0.0,0.0,0.0,0.0,0.0,0.0,8683.3,0.0,55.0,5.0,239.02666666666667,0.0,0.0,0.0,0.0,0.0,0.0,0.0,0.0,0.3030000000000008,0.3030000000000008,0.0,0.0,0.0,55.0,616.79921,10000.0,85.000001,85.000001,85.000001,85.000001,395.0,0.0,0.0,0.0,1.0,333.33500000000004,53.711,53.711,48.522999999999996,48.522999999999996,34.0,-28.497500000000002,18.907999999999998,-35.54,23.0475,0.0,1783.278,0.240000000000002,100.0,27.303,26.522,42.559,41.465,0.0,1.0,100.0,0.0,0.0,0.0,0.0,3206.857142857143,2769.0,4329.375,4049.6000000000004,305.198,305.85633333333334,314.32425,314.73625,21.8285,20.5419,21.7988,21.3324,314.999998,314.999998,324.999988,324.999988,99.55871428571429,99.50725,99.56488571428571,99.54485714285714,-0.020999999999999908,-0.14533333333333331,-0.20999999999999996,0.012833333333333474,-0.045000000000001705,-0.05333333333332746,1.5125,1.5495,37.428,29.386666666666667,37.242999999999995,34.3275,56.128,34.670500000000004,58.9405,51.613,54.055,33.837,57.57,49.9725,53.223,33.4025,57.5255,49.394,-0.04949999999999988,-0.09200000000000008,0.09877000000000001,0.11272000000000001,0.0,208.025,207.94,204.86,204.86,0.0,0.0
7,0.0,1.0,0.0,1.0,1.0,0.0,0.0,1.0,0.0,100.0,1.0,1.1856,26.0,0.0,0.0,0.0,59.999996,0.0,26.0,26.0,26.0,26.0,-0.10350000000000004,0.28459999999999996,0.00035,293.472,-2.607,-2.790222222222222,-1.51045,-1.6203,-252.48,215.72,190.85025,0.0,0.0,0.0,0.0,0.015066666666666562,-5.498166666666667,-5.498166666666667,-0.5346000000000001,0.04499999999999993,-0.05322222222222228,1.044,66.548,-0.0857,-0.219775,0.6859999999999999,100.0,1.0,1.0,205.38333333333333,0.0,0.0,0.0,0.0,0.0,0.0,0.0,8705.5,0.0,55.0,5.0,239.54666666666668,1.0,0.0,0.0,0.0,0.0,0.0,0.0,0.0,0.3539999999999992,0.3539999999999992,0.0,0.0,1.0,55.0,616.79921,10000.0,85.000001,85.000001,85.000001,85.000001,395.0,0.0,0.0,0.0,1.0,166.665,53.131,53.131,48.888999999999996,48.888999999999996,34.0,-26.165,21.561999999999998,-31.686666666666664,23.775,0.0,1783.229,-0.05999999999999872,100.0,27.862000000000002,26.69,42.749,41.577,0.0,1.0,100.0,0.0,0.0,0.0,0.0,3126.142857142857,2964.2,4032.0,3997.1000000000004,305.2055,305.39,314.94075,314.91025,21.8385,20.547,21.8093,21.3413,314.999998,314.999998,324.999988,324.999988,99.55872857142857,99.50726666666667,99.56502857142857,99.54498571428572,0.014250000000000096,-0.1136666666666668,-0.2005,0.02400000000000002,-0.06499999999999773,-0.061666666666667425,1.5385,1.5625,37.489999999999995,29.419,37.308,34.382999999999996,56.113,34.711,58.982,51.6745,54.041,33.8745,57.6085,50.031,53.209,33.4385,57.5615,49.451499999999996,-0.08050000000000002,-0.07299999999999995,0.10355500000000001,0.10859500000000001,0.0,208.47500000000002,208.39499999999998,205.38333333333333,205.38333333333333,0.0,0.0
8,0.0,1.0,0.0,1.0,1.0,0.0,0.0,1.0,0.0,100.0,1.0,1.1856,26.0,0.0,0.0,0.0,59.999996,0.0,26.0,26.0,26.0,26.0,-0.06325000000000003,0.2876000000000001,-0.013900000000000001,293.472,-2.6926,-2.7185555555555556,-1.49045,-1.6112000000000002,-249.07999999999998,215.7025,190.8295,0.0,0.0,0.0,0.0,0.017066666666666563,-5.498166666666667,-5.498166666666667,-0.5372,-0.30366666666666675,-0.04244444444444451,-0.837,66.694,-0.068,-0.219725,0.35800000000000054,100.0,1.0,1.0,205.79666666666668,0.0,0.0,0.0,0.0,0.0,0.0,0.0,8722.9,0.0,55.0,5.0,240.06666666666666,0.0,0.0,0.0,0.0,0.0,0.0,0.0,0.0,0.40500000000000114,0.40500000000000114,0.0,0.0,0.0,55.0,616.79921,10000.0,85.000001,85.000001,85.000001,85.000001,395.0,0.0,0.0,0.0,1.0,333.33500000000004,53.391,53.391,48.416,48.416,34.0,-26.482499999999998,21.025999999999996,-31.103333333333335,24.7375,0.0,1783.175,-0.11499999999999844,100.0,27.404,26.957,42.758,41.88,0.0,1.0,100.0,0.0,0.0,0.0,0.0,3124.0,2926.3,4081.125,3989.0,305.456,305.38,314.872,314.841,21.8482,20.5522,21.8198,21.3502,314.999998,314.999998,324.999988,324.999988,99.55872857142857,99.50726666666667,99.56517142857143,99.54512857142858,0.016999999999999904,-0.10733333333333328,-0.18566666666666665,0.04366666666666674,-0.04833333333333201,-0.030000000000001137,1.536,1.5505,37.551,29.451333333333334,37.373999999999995,34.4385,56.097,34.751,59.022999999999996,51.7365,54.025999999999996,33.911,57.647,50.0905,53.192,33.473,57.597,49.5095,-0.08850000000000002,-0.06300000000000017,0.10647000000000001,0.11591000000000001,0.0,208.9,208.845,205.79666666666668,205.79666666666668,0.0,0.0
9,0.0,1.0,0.0,1.0,1.0,0.0,0.0,1.0,0.0,100.0,1.0,1.1856,26.0,0.0,0.0,0.0,59.999996,0.0,26.0,26.0,26.0,26.0,-0.04162500000000002,0.2893000000000001,-0.011475,293.228,-2.61925,-2.725,-1.54485,-1.5625,-245.88,215.685,190.80975,0.0,0.0,0.0,0.0,0.018933333333333358,-5.498166666666667,-5.498166666666667,-0.5353,0.346,-0.046222222222222165,-0.5070000000000001,66.82900000000001,-0.053200000000000004,-0.21307500000000001,0.1899999999999995,100.0,1.0,1.0,206.23000000000002,0.0,0.0,0.0,0.0,0.0,0.0,0.0,8741.3,0.0,55.0,5.0,240.55666666666667,1.0,0.0,0.0,0.0,0.0,0.0,0.0,0.0,0.4529999999999994,0.4529999999999994,0.0,0.0,1.0,55.0,616.79921,10000.0,85.000001,85.000001,85.000001,85.000001,395.0,0.0,0.0,0.0,1.0,333.33500000000004,52.856,52.856,48.782,48.782,34.0,-26.13,22.067999999999998,-30.363333333333333,25.345,0.0,1783.128,-0.34499999999999886,100.0,27.727,27.122,42.606,41.911,0.0,1.0,100.0,0.0,0.0,0.0,0.0,3259.4285714285716,2946.2,4074.875,4063.9,305.005,305.31,314.939,314.72475,21.8575,20.5572,21.8296,21.3586,314.999998,314.999998,324.999988,324.999988,99.55872857142857,99.50728333333333,99.56531428571428,99.54527142857143,0.04125000000000023,-0.08733333333333326,-0.16000000000000003,0.05933333333333324,-0.051666666666669414,-0.04833333333333201,1.5474999999999999,1.5565000000000002,37.61,29.482333333333333,37.435,34.491,56.084,34.788,59.0605,51.7935,54.013,33.945499999999996,57.6815,50.1455,53.179,33.506,57.629,49.5635,-0.09899999999999998,-0.04999999999999982,0.09719000000000001,0.11191500000000001,0.0,209.31,209.3,206.23000000000002,206.23000000000002,0.0,0.0
10,0.0,1.0,0.0,1.0,1.0,0.0,0.0,1.0,0.0,100.0,1.0,1.1856,26.0,0.0,0.0,0.0,59.999996,0.0,26.0,26.0,26.0,26.0,-0.025249999999999995,0.2944,0.01815,293.121,-2.67455,-2.7053333333333334,-1.5089000000000001,-1.5484,-242.47,215.6625,190.789,0.0,0.0,0.0,0.0,0.02089999999999992,-5.498166666666667,-5.498166666666667,-0.526,-0.3500000000000001,-0.016111111111110965,1.7429999999999999,66.974,-0.0347,-0.21050000000000002,-0.16600000000000037,100.0,1.0,1.0,206.57666666666665,0.0,0.0,0.0,0.0,0.0,0.0,0.0,8756.0,0.0,55.0,5.0,241.07666666666665,0.0,0.0,0.0,0.0,0.0,0.0,1.0,0.0,0.5040000000000013,0.5040000000000013,0.0,0.0,0.0,55.0,616.79921,10000.0,85.000001,85.000001,85.000001,85.000001,395.0,0.0,0.0,0.0,1.0,166.665,53.36,53.36,48.172,48.172,34.0,-22.87,23.208,-29.423333333333336,28.685,0.0,1783.079,-0.3999999999999986,100.0,27.762,26.937,42.905,42.24,0.0,1.0,100.0,0.0,0.0,0.0,0.0,2963.857142857143,2996.2,4127.75,4272.2,305.729,305.3933333333333,314.70275,314.27525,21.8673,20.5624,21.8402,21.3676,314.999998,314.999998,324.999988,324.999988,99.55872857142857,99.5073,99.56545714285714,99.54541428571429,0.07074999999999987,-0.05899999999999994,-0.13483333333333336,0.09233333333333338,-0.04833333333333201,-0.04333333333332945,1.506,1.495,37.671,29.515,37.501000000000005,34.5475,56.069,34.826,59.1015,51.857,54.0,33.980000000000004,57.7205,50.2065,53.165,33.539500000000004,57.664500000000004,49.623,-0.10749999999999993,-0.04200000000000026,0.10431000000000001,0.11064,0.0,209.75,209.72500000000002,206.57666666666665,206.57666666666665,0.0,0.0
11,0.0,1.0,0.0,1.0,1.0,0.0,0.0,1.0,0.0,100.0,1.0,1.1856,26.0,0.0,0.0,0.0,59.999996,0.0,26.0,26.0,26.0,26.0,0.008499999999999952,0.2744,-0.06345,293.503,-2.69125,-2.6884444444444444,-1.56775,-1.5190000000000001,-239.05,215.64249999999998,190.768125,0.0,0.0,0.0,0.0,0.022599999999999953,-5.498166666666667,-5.498166666666667,-0.5522,-0.21100000000000008,0.008444444444444255,-0.401,67.11500000000001,-0.0155,-0.22710000000000002,-0.2920000000000007,100.0,1.0,1.0,207.17000000000002,0.0,0.0,0.0,0.0,0.0,0.0,0.0,8781.1,0.0,55.0,5.0,241.58333333333334,1.0,0.0,0.0,0.0,0.0,0.0,1.0,0.0,0.5549999999999997,0.5549999999999997,0.0,0.0,1.0,55.0,616.79921,10000.0,85.000001,85.000001,85.000001,85.000001,395.0,0.0,0.0,0.0,1.0,166.665,53.177,53.177,48.95,48.95,34.0,-24.25,23.478,-27.383333333333333,25.8975,0.0,1783.026,-0.3949999999999996,100.0,27.315,27.204,42.454,42.347,0.0,1.0,100.0,0.0,0.0,0.0,0.0,3116.285714285714,3018.3,3882.0,3980.6000000000004,305.477,305.10966666666667,315.409,314.95075,21.8769,20.5677,21.8505,21.3766,314.999998,314.999998,324.999988,324.999988,99.55874285714286,99.5073,99.5656,99.54554285714286,0.06850000000000023,-0.06000000000000005,-0.13049999999999995,0.09650000000000003,-0.06833333333332803,-0.05333333333332746,1.5855,1.5755,37.730999999999995,29.548333333333332,37.566,34.6035,56.055,34.864,59.1385,51.9185,53.986000000000004,34.015,57.754999999999995,50.2655,53.15,33.573,57.696,49.681,-0.10599999999999987,-0.0405000000000002,0.10892,0.10912000000000001,0.0,210.19,210.18,207.17000000000002,207.17000000000002,0.0,0.0
12,0.0,1.0,0.0,1.0,1.0,0.0,0.0,1.0,0.0,100.0,1.0,1.1856,26.0,0.0,0.0,0.0,59.999996,0.0,26.0,26.0,26.0,26.0,0.01475000000000004,0.3044,0.0049,293.091,-2.7218,-2.6831111111111112,-1.54675,-1.5385,-235.82,215.6225,190.7475,0.0,0.0,0.0,0.0,0.025466666666666526,-5.498166666666667,-5.498166666666667,-0.5424,0.3716666666666666,0.007777777777777883,-0.6060000000000001,67.25,0.0009000000000000001,-0.20515,-0.32399999999999984,100.0,1.0,1.0,207.46666666666667,0.0,0.0,0.0,0.0,0.0,0.0,0.0,8793.7,0.0,55.0,5.0,242.07333333333332,0.0,0.0,0.0,0.0,0.0,0.0,1.0,0.0,0.602999999999998,0.602999999999998,0.0,0.0,0.0,55.0,616.79921,10000.0,85.000001,85.000001,85.000001,85.000001,395.0,0.0,0.0,0.0,1.0,166.665,52.963,52.963,48.187,48.187,34.0,-25.1275,23.86,-27.946666666666665,28.802500000000002,0.0,1782.979,-0.04499999999999815,100.0,27.363,27.449,42.325,42.370000000000005,0.0,1.0,100.0,0.0,0.0,0.0,0.0,3123.4285714285716,3060.3,4165.875,4154.0,305.4375,304.964,314.7465,314.53225,21.886,20.5728,21.8603,21.384999999999998,314.999998,314.999998,324.999988,324.999988,99.55875714285715,99.50731666666667,99.56572857142856,99.54568571428571,0.05675000000000008,-0.05933333333333324,-0.09750000000000003,0.11783333333333323,-0.05333333333332746,-0.060000000000002274,1.557,1.5354999999999999,37.787,29.580333333333336,37.626999999999995,34.656,56.043,34.9,59.175,51.9765,53.974000000000004,34.0485,57.7885,50.321,53.137,33.605000000000004,57.7275,49.7355,-0.08549999999999991,-0.06300000000000017,0.09934000000000001,0.10645500000000001,0.0,210.61,210.615,207.46666666666667,207.46666666666667,0.0,0.0
13,0.0,1.0,0.0,1.0,1.0,0.0,0.0,1.0,0.0,100.0,1.0,1.1856,26.0,0.0,0.0,0.0,59.999996,0.0,26.0,26.0,26.0,26.0,0.04262499999999991,0.28100000000000014,0.017775,292.77,-2.6941,-2.6924444444444444,-1.5789,-1.5434999999999999,-232.19,215.6,190.724625,0.0,0.0,0.0,0.0,0.026899999999999924,-5.498166666666667,-5.498166666666667,-0.5375,-0.2576666666666667,0.007333333333333192,-0.44100000000000006,67.401,0.009300000000000001,-0.21402500000000002,-0.387999999999999,100.0,1.0,1.0,207.86,0.0,0.0,0.0,0.0,0.0,0.0,0.0,8810.5,0.0,55.0,5.0,242.61333333333334,1.0,0.0,0.0,0.0,0.0,0.0,1.0,0.0,0.657,0.657,0.0,0.0,1.0,55.0,616.79921,10000.0,85.000001,85.000001,85.000001,85.000001,395.0,0.0,0.0,0.0,1.0,166.665,52.78,52.78,48.019,48.019,34.0,-23.0175,25.036,-28.466666666666665,30.105,0.0,1782.926,-0.5300000000000011,100.0,27.58,27.626,42.635,42.871,0.0,1.0,100.0,0.0,0.0,0.0,0.0,3132.4285714285716,3031.4,4165.75,4247.7,305.4135,305.04633333333334,314.7085,314.25,21.8961,20.5786,21.8714,21.3947,314.999998,314.999998,324.999988,324.999988,99.55877142857143,99.50731666666667,99.56588571428571,99.54584285714286,0.10175000000000001,-0.026000000000000023,-0.09350000000000003,0.1213333333333333,-0.04333333333332945,-0.03999999999999915,1.5045,1.4929999999999999,37.851,29.616333333333333,37.696,34.716499999999996,56.03,34.9405,59.218,52.045,53.961,34.085499999999996,57.8285,50.3865,53.123999999999995,33.6405,57.763999999999996,49.8,-0.12549999999999994,-0.03100000000000014,0.10144,0.10587500000000001,0.0,211.055,211.075,207.86,207.86,0.0,0.0
14,0.0,1.0,0.0,1.0,1.0,0.0,0.0,1.0,0.0,100.0,1.0,1.1856,26.0,0.0,0.0,0.0,59.999996,0.0,26.0,26.0,26.0,26.0,0.055625000000000036,0.28049999999999997,-0.018375000000000002,292.999,-2.71325,-2.698888888888889,-1.5761,-1.5356,-228.95,215.58249999999998,190.7045,0.0,0.0,0.0,0.0,0.028766666666666607,-5.498166666666667,-5.498166666666667,-0.5502,-0.09899999999999998,0.02488888888888896,-0.3540000000000001,67.532,0.0204,-0.226975,-0.48799999999999955,100.0,1.0,1.0,208.36333333333334,0.0,0.0,0.0,0.0,0.0,0.0,0.0,8831.8,0.0,55.0,5.0,243.08666666666664,0.0,0.0,0.0,0.0,0.0,0.0,1.0,0.0,0.7049999999999983,0.7049999999999983,0.0,0.0,0.0,55.0,616.79921,10000.0,85.000001,85.000001,85.000001,85.000001,395.0,0.0,0.0,0.0,1.0,166.665,52.765,52.765,48.34,48.34,34.0,-22.7775,25.317999999999998,-26.68,29.175,0.0,1782.878,-0.5150000000000006,100.0,27.55,27.765,42.535,42.874,0.0,1.0,100.0,0.0,0.0,0.0,0.0,3087.0,3051.7,3991.875,4099.6,305.558,304.93266666666665,315.14125,314.63725,21.9051,20.5837,21.8812,21.4032,314.999998,314.999998,324.999988,324.999988,99.55878571428572,99.50731666666667,99.56601428571429,99.54597142857143,0.10199999999999987,-0.026999999999999913,-0.09150000000000003,0.13483333333333336,-0.041666666666671404,-0.05333333333332746,1.5545,1.5460000000000003,37.907,29.648333333333333,37.757999999999996,34.769999999999996,56.018,34.976,59.2535,52.1035,53.951,34.1185,57.8615,50.443,53.111999999999995,33.672,57.794,49.8555,-0.11650000000000005,-0.03699999999999992,0.10425500000000001,0.11184000000000001,0.0,211.46,211.48000000000002,208.36333333333334,208.36333333333334,0.0,0.0
15,0.0,1.0,0.0,1.0,1.0,0.0,0.0,1.0,0.0,100.0,1.0,1.1856,26.0,0.0,0.0,0.0,59.999996,0.0,26.0,26.0,26.0,26.0,0.06337499999999996,0.2763,-0.01855,292.908,-2.71135,-2.668333333333333,-1.5885500000000001,-1.5472000000000001,-225.7,215.565,190.684,0.0,0.0,0.0,0.0,0.03066666666666651,-5.498166666666667,-5.498166666666667,-0.5426,0.21433333333333338,0.040111111111110986,-0.7390000000000001,67.66499999999999,0.028200000000000003,-0.21235,-0.49799999999999933,100.0,1.0,1.0,208.73666666666668,0.0,0.0,0.0,0.0,0.0,0.0,0.0,8847.6,0.0,55.0,5.0,243.56333333333333,1.0,0.0,0.0,0.0,0.0,0.0,1.0,0.0,0.7530000000000001,0.7530000000000001,0.0,0.0,1.0,55.0,616.79921,10000.0,85.000001,85.000001,85.000001,85.000001,395.0,0.0,0.0,0.0,1.0,333.33500000000004,52.811,52.811,48.187,48.187,34.0,-22.0875,24.944,-27.053333333333335,30.59,0.0,1782.828,-0.40500000000000114,100.0,27.559,27.872,42.376,42.994,0.0,1.0,100.0,0.0,0.0,0.0,0.0,3028.5714285714284,3033.7,4060.75,4190.9,305.7335,304.9696666666667,314.9965,314.37125,21.9141,20.5889,21.891,21.4117,314.999998,314.999998,324.999988,324.999988,99.55878571428572,99.50731666666667,99.56614285714285,99.54611428571428,0.10625000000000018,-0.026000000000000023,-0.08266666666666656,0.14050000000000007,-0.061666666666667425,-0.046666666666666856,1.5265,1.5234999999999999,37.963,29.680666666666667,37.819,34.823499999999996,56.007,35.0115,59.2885,52.163,53.94,34.1515,57.894,50.5005,53.1,33.704,57.823499999999996,49.911500000000004,-0.10949999999999993,-0.040999999999999925,0.10563000000000002,0.10716500000000001,0.0,211.885,211.905,208.73666666666668,208.73666666666668,0.0,0.0
16,0.0,1.0,0.0,1.0,1.0,0.0,0.0,1.0,0.0,100.0,1.0,1.1856,26.0,0.0,0.0,0.0,59.999996,0.0,26.0,26.0,26.0,26.0,0.052750000000000075,0.2704,-0.01235,292.786,-2.7695,-2.6182222222222222,-1.5647,-1.5464,-222.04,215.54500000000002,190.66075,0.0,0.0,0.0,0.0,0.03276666666666661,-5.498166666666667,-5.498166666666667,-0.5562,-0.3906666666666667,0.028888888888888964,-1.12,67.812,0.0329,-0.22510000000000002,-0.38200000000000056,100.0,1.0,1.0,209.19333333333333,0.0,0.0,0.0,0.0,0.0,0.0,0.0,8867.0,0.0,55.0,5.0,244.09666666666666,0.0,0.0,0.0,0.0,0.0,0.0,1.0,0.0,0.8069999999999986,0.8069999999999986,0.0,0.0,0.0,55.0,616.79921,10000.0,85.000001,85.000001,85.000001,85.000001,395.0,0.0,0.0,0.0,1.0,166.665,52.505,52.505,48.004,48.004,34.0,-23.8075,25.914,-26.703333333333333,29.2575,0.0,1782.775,-0.34499999999999886,100.0,27.378,27.912,42.581,43.127,0.0,1.0,100.0,0.0,0.0,0.0,0.0,3198.857142857143,3180.2,4042.25,4033.4,305.3265,304.6093333333333,315.00375,314.77425,21.924,20.5948,21.9021,21.4214,314.999998,314.999998,324.999988,324.999988,99.5588,99.50731666666667,99.5663,99.54627142857143,0.11025000000000018,-0.022666666666666613,-0.08483333333333332,0.14266666666666672,-0.05833333333333002,-0.05333333333332746,1.539,1.5285000000000002,38.025,29.717333333333336,37.888,34.8835,55.992999999999995,35.052,59.33,52.2295,53.926,34.189,57.9325,50.5645,53.085,33.7395,57.859,49.9745,-0.10749999999999993,-0.051000000000000156,0.10935,0.10527,0.0,212.32999999999998,212.335,209.19333333333333,209.19333333333333,0.0,0.0
17,0.0,1.0,0.0,1.0,1.0,0.0,0.0,1.0,0.0,100.0,1.0,1.1856,26.0,0.0,0.0,0.0,59.999996,0.0,26.0,26.0,26.0,26.0,0.043749999999999956,0.28659999999999997,0.030475000000000002,292.45,-2.7318,-2.602888888888889,-1.6059999999999999,-1.5093,-218.79,215.53,190.639625,0.0,0.0,0.0,0.0,0.03466666666666651,-5.498166666666667,-5.498166666666667,-0.5497000000000001,0.252,0.006999999999999895,-0.978,67.944,0.0324,-0.21230000000000002,-0.28799999999999937,100.0,1.0,1.0,209.52666666666667,0.0,0.0,0.0,0.0,0.0,0.0,0.0,8881.1,0.0,55.0,5.0,244.57,1.0,0.0,0.0,0.0,0.0,0.0,1.0,0.0,0.8550000000000004,0.8550000000000004,0.0,0.0,1.0,55.0,616.79921,10000.0,85.000001,85.000001,85.000001,85.000001,395.0,0.0,0.0,0.0,1.0,166.665,52.353,52.353,47.638,47.638,34.0,-23.8625,25.073999999999998,-29.036666666666665,30.245,0.0,1782.727,-0.259999999999998,100.0,27.72,28.029,42.555,43.112,0.0,1.0,100.0,0.0,0.0,0.0,0.0,3214.4285714285716,3114.9,4329.75,4214.8,305.2115,304.784,314.42975,314.39975,21.933,20.6,21.9119,21.4299,314.999998,314.999998,324.999988,324.999988,99.55882857142858,99.50733333333334,99.56644285714286,99.5464,0.10625000000000018,-0.025666666666666726,-0.07633333333333336,0.14116666666666666,-0.054999999999999716,-0.026666666666670835,1.53,1.512,38.081,29.750333333333334,37.949,34.937,55.982,35.088499999999996,59.366,52.288,53.916,34.2225,57.966,50.6205,53.074,33.772,57.8895,50.0295,-0.09699999999999998,-0.059499999999999886,0.10651000000000001,0.10469,0.0,212.76,212.75,209.52666666666667,209.52666666666667,0.0,0.0
18,0.0,1.0,0.0,1.0,1.0,0.0,0.0,1.0,0.0,100.0,1.0,1.1856,26.0,0.0,0.0,0.0,59.999996,0.0,26.0,26.0,26.0,26.0,0.03299999999999992,0.28300000000000014,0.038400000000000004,292.343,-2.6631,-2.590777777777778,-1.51165,-1.4699,-215.51999999999998,215.515,190.6185,0.0,0.0,0.0,0.0,0.036566666666666525,-5.498166666666667,-5.498166666666667,-0.5594,-0.3606666666666667,0.01388888888888884,-0.4730000000000001,68.074,0.0256,-0.2238,-0.19200000000000017,100.0,1.0,1.0,209.91333333333333,0.0,0.0,0.0,0.0,0.0,0.0,0.0,8897.5,0.0,55.0,5.0,245.04000000000002,0.0,0.0,0.0,0.0,0.0,0.0,1.0,0.0,0.9029999999999987,0.9029999999999987,0.0,0.0,0.0,55.0,616.79921,10000.0,85.000001,85.000001,85.000001,85.000001,395.0,0.0,0.0,0.0,1.0,166.665,52.261,52.261,47.516,47.516,34.0,-22.77,26.11,-27.536666666666665,29.7775,0.0,1782.679,-0.3000000000000007,100.0,27.672,27.954,42.774,43.268,0.0,1.0,100.0,0.0,0.0,0.0,0.0,3162.5714285714284,3247.2,4187.25,4249.2,305.2965,304.44033333333334,314.62325,314.286,21.942,20.6052,21.9218,21.4385,314.999998,314.999998,324.999988,324.999988,99.55884285714286,99.50733333333334,99.56657142857142,99.54654285714285,0.10775000000000023,-0.026000000000000023,-0.08883333333333332,0.13566666666666682,-0.03999999999999915,-0.03999999999999915,1.502,1.504,38.137,29.782666666666664,38.010999999999996,34.991,55.97,35.124,59.403,52.3475,53.903999999999996,34.2555,58.0005,50.678,53.062,33.8035,57.921,50.086,-0.10450000000000004,-0.052000000000000046,0.10794000000000001,0.11013500000000001,0.0,213.15,213.135,209.91333333333333,209.91333333333333,0.0,0.0
19,0.0,1.0,0.0,1.0,1.0,0.0,0.0,1.0,0.0,100.0,1.0,1.1856,26.0,0.0,0.0,0.0,59.999996,0.0,26.0,26.0,26.0,26.0,0.05312500000000009,0.28469999999999995,0.042575,292.175,-2.6589,-2.700111111111111,-1.5324,-1.5957,-212.05,215.5,190.595875,0.0,0.0,0.0,0.0,0.03859999999999997,-5.498166666666667,-5.498166666666667,-0.5513,0.632,0.020888888888888957,0.765,68.212,0.020200000000000003,-0.21485,-0.2599999999999998,100.0,1.0,1.0,210.35000000000002,0.0,0.0,0.0,0.0,0.0,0.0,0.0,8915.9,0.0,55.0,5.0,245.53333333333336,1.0,0.0,0.0,0.0,0.0,0.0,1.0,0.0,0.9540000000000006,0.9540000000000006,0.0,0.0,1.0,55.0,616.79921,10000.0,85.000001,85.000001,85.000001,85.000001,395.0,0.0,0.0,0.0,1.0,166.665,52.016999999999996,52.016999999999996,47.729,47.729,34.0,-21.6425,26.2,-27.086666666666666,32.82,0.0,1782.628,-0.26500000000000057,100.0,28.326999999999998,28.224,42.757,43.229,0.0,1.0,100.0,0.0,0.0,0.0,0.0,3048.5714285714284,3170.3,4137.625,4347.0,305.4405,304.6623333333333,314.7365,314.03525,21.9516,20.6109,21.9322,21.4476,314.999998,314.999998,324.999988,324.999988,99.55884285714286,99.50733333333334,99.56671428571428,99.54668571428572,0.1160000000000001,-0.030999999999999917,-0.08250000000000002,0.14050000000000007,-0.03999999999999915,-0.05333333333332746,1.509,1.484,38.197,29.817666666666668,38.076,35.048,55.96,35.1635,59.439499999999995,52.41,53.894,34.292,58.0345,50.738,53.05,33.838499999999996,57.952,50.144999999999996,-0.11050000000000004,-0.06050000000000022,0.10222,0.11342500000000001,0.0,213.59,213.61,210.35000000000002,210.35000000000002,0.0,0.0
20,0.0,1.0,0.0,1.0,1.0,0.0,0.0,1.0,0.0,100.0,1.0,1.1856,26.0,0.0,0.0,0.0,59.999996,0.0,26.0,26.0,26.0,26.0,0.029125000000000068,0.26350000000000007,-0.00945,292.389,-2.7327500000000002,-2.647555555555556,-1.5442,-1.5792000000000002,-208.56,215.4875,190.573375,0.0,0.0,0.0,0.0,0.04059999999999997,-5.498166666666667,-5.498166666666667,-0.5546,-0.8293333333333333,0.020000000000000018,-0.9630000000000001,68.349,0.0172,-0.22465000000000002,-0.09600000000000009,100.0,1.0,1.0,210.74333333333334,0.0,0.0,0.0,0.0,0.0,0.0,0.0,8932.6,0.0,55.0,5.0,246.03,0.0,0.0,0.0,0.0,0.0,0.0,0.0,0.0,1.004999999999999,1.004999999999999,0.0,0.0,0.0,55.0,616.79921,10000.0,85.000001,85.000001,85.000001,85.000001,395.0,0.0,0.0,0.0,1.0,333.33500000000004,52.597,52.597,47.363,47.363,34.0,-23.56,24.192,-28.163333333333334,30.01,0.0,1782.576,-0.25,100.0,27.706,28.098,43.232,43.752,0.0,1.0,100.0,0.0,0.0,0.0,0.0,3106.5714285714284,3049.9,4142.5,4089.7,305.5545,304.99,314.75975,314.56175,21.961,20.6163,21.9428,21.4569,314.999998,314.999998,324.999988,324.999988,99.55885714285715,99.50735,99.56685714285715,99.54684285714286,0.09149999999999991,-0.04233333333333311,-0.09950000000000003,0.13250000000000006,-0.04833333333333201,-0.03166666666666629,1.5025,1.4855,38.256,29.852333333333334,38.141999999999996,35.1055,55.946,35.201499999999996,59.480000000000004,52.474000000000004,53.881,34.327,58.0725,50.7995,53.036,33.872,57.987,50.205,-0.09299999999999997,-0.06300000000000017,0.10691500000000001,0.11908,0.0,213.99,213.965,210.74333333333334,210.74333333333334,0.0,0.0
21,0.0,1.0,0.0,1.0,1.0,0.0,0.0,1.0,0.0,100.0,1.0,1.1856,26.0,0.0,0.0,0.0,59.999996,0.0,26.0,26.0,26.0,26.0,0.031625000000000014,0.2832000000000001,-0.036125000000000004,292.603,-2.72615,-2.654888888888889,-1.5866500000000001,-1.5373,-205.28,215.475,190.55175,0.0,0.0,0.0,0.0,0.04253333333333331,-5.498166666666667,-5.498166666666667,-0.5729000000000001,0.08199999999999996,0.005222222222222239,-0.774,68.476,0.014100000000000001,-0.22235000000000002,-0.1479999999999997,100.0,1.0,1.0,211.25666666666666,0.0,0.0,0.0,0.0,0.0,0.0,0.0,8954.3,0.0,55.0,5.0,246.48333333333335,1.0,0.0,0.0,0.0,0.0,0.0,0.0,0.0,1.0530000000000008,1.0530000000000008,0.0,0.0,1.0,55.0,616.79921,10000.0,85.000001,85.000001,85.000001,85.000001,395.0,0.0,0.0,0.0,1.0,333.33500000000004,52.414,52.414,48.019,48.019,34.0,-24.224999999999998,24.834,-27.093333333333334,27.89,0.0,1782.527,-0.3099999999999987,100.0,27.839,28.006999999999998,42.903999999999996,43.34,0.0,1.0,100.0,0.0,0.0,0.0,0.0,3205.4285714285716,3080.9,4074.75,4007.7,305.2565,304.9506666666667,314.99275,314.91625,21.9699,20.6216,21.9525,21.4653,314.999998,314.999998,324.999988,324.999988,99.55887142857142,99.50735,99.567,99.54697142857142,0.0950000000000002,-0.033666666666666734,-0.08666666666666656,0.12583333333333324,-0.04999999999999716,-0.046666666666666856,1.591,1.561,38.312,29.884999999999998,38.203,35.158500000000004,55.934,35.2375,59.513999999999996,52.53,53.869,34.3605,58.104,50.8535,53.024,33.903999999999996,58.0155,50.257999999999996,-0.10299999999999998,-0.052000000000000046,0.09657500000000001,0.10862500000000001,0.0,214.4,214.39,211.25666666666666,211.25666666666666,0.0,0.0
22,0.0,1.0,0.0,1.0,1.0,0.0,0.0,1.0,0.0,100.0,1.0,1.1856,26.0,0.0,0.0,0.0,59.999996,0.0,26.0,26.0,26.0,26.0,0.02300000000000013,0.28090000000000015,0.016175000000000002,292.053,-2.786,-2.6173333333333333,-1.6099,-1.5211000000000001,-201.57999999999998,215.46,190.526625,0.0,0.0,0.0,0.0,0.04466666666666652,-5.498166666666667,-5.498166666666667,-0.558,-0.04633333333333334,0.01577777777777789,-0.55,68.622,0.0114,-0.20185,-0.20399999999999974,100.0,1.0,1.0,211.53333333333333,0.0,0.0,0.0,0.0,0.0,0.0,0.0,8966.1,0.0,55.0,5.0,247.01,0.0,0.0,0.0,0.0,0.0,0.0,0.0,0.0,1.1069999999999993,1.1069999999999993,0.0,0.0,0.0,55.0,616.79921,10000.0,85.000001,85.000001,85.000001,85.000001,395.0,0.0,0.0,0.0,1.0,166.665,52.338,52.338,47.073,47.073,34.0,-24.41,24.618,-30.453333333333333,31.17,0.0,1782.475,-0.41999999999999815,100.0,27.934,28.166,43.125,43.552,0.0,1.0,100.0,0.0,0.0,0.0,0.0,3174.857142857143,3098.3,4322.5,4366.6,305.43,304.896,314.407,314.025,21.98,20.6275,21.9636,21.4751,314.999998,314.999998,324.999988,324.999988,99.55888571428571,99.50735,99.56715714285714,99.54712857142857,0.09549999999999992,-0.03499999999999992,-0.09716666666666662,0.1263333333333332,-0.045000000000001705,-0.045000000000001705,1.4885,1.4705,38.375,29.921666666666667,38.272999999999996,35.219,55.921,35.2785,59.5555,52.5965,53.857,34.397999999999996,58.143,50.917500000000004,53.010999999999996,33.9405,58.051,50.320499999999996,-0.11399999999999988,-0.04300000000000015,0.10218,0.10753000000000001,0.0,214.84,214.85000000000002,211.53333333333333,211.53333333333333,0.0,0.0
23,0.0,1.0,0.0,1.0,1.0,0.0,0.0,1.0,0.0,100.0,1.0,1.1856,26.0,0.0,0.0,0.0,59.999996,0.0,26.0,26.0,26.0,26.0,0.02675000000000005,0.27560000000000007,0.00032500000000000004,291.992,-2.6685499999999998,-2.679333333333333,-1.6456,-1.5,-197.87,215.4475,190.501625,0.0,0.0,0.0,0.0,0.04683333333333339,-5.498166666666667,-5.498166666666667,-0.5740000000000001,-0.17166666666666686,0.011888888888888838,-0.7310000000000001,68.764,0.0171,-0.22675,-0.3020000000000005,100.0,1.0,1.0,212.03,0.0,0.0,0.0,0.0,0.0,0.0,0.0,8987.2,0.0,55.0,5.0,247.52333333333334,1.0,0.0,0.0,0.0,0.0,0.0,0.0,0.0,1.1610000000000014,1.1610000000000014,0.0,0.0,1.0,55.0,616.79921,10000.0,85.000001,85.000001,85.000001,85.000001,395.0,0.0,0.0,0.0,1.0,111.11,52.032,52.032,47.333,47.333,34.0,-23.57,24.798000000000002,-30.383333333333333,29.267500000000002,0.0,1782.422,-0.370000000000001,100.0,28.222,28.336,43.298,43.733000000000004,0.0,1.0,100.0,0.0,0.0,0.0,0.0,3206.4285714285716,3059.9,4271.125,4184.4,305.164,304.919,314.5645,314.4885,21.99,20.6334,21.9747,21.4848,314.999998,314.999998,324.999988,324.999988,99.5589,99.50736666666667,99.56731428571429,99.54728571428572,0.10000000000000009,-0.03833333333333311,-0.09733333333333338,0.12883333333333336,-0.060000000000002274,-0.030000000000001137,1.5155,1.5065,38.438,29.959,38.342,35.28,55.909,35.32,59.5965,52.663,53.845,34.4365,58.1805,50.9815,52.998000000000005,33.977000000000004,58.085499999999996,50.382999999999996,-0.10799999999999987,-0.04700000000000015,0.109295,0.10553000000000001,0.0,215.28,215.26999999999998,212.03,212.03,0.0,0.0
24,0.0,1.0,0.0,1.0,1.0,0.0,0.0,1.0,0.0,100.0,1.0,1.1856,26.0,0.0,0.0,0.0,59.999996,0.0,26.0,26.0,26.0,26.0,0.036375000000000046,0.27300000000000013,-0.02275,292.389,-2.69455,-2.658777777777778,-1.5554000000000001,-1.5561,-194.98000000000002,215.44,190.481875,0.0,0.0,0.0,0.0,0.04849999999999999,-5.498166666666667,-5.498166666666667,-0.5834,-0.3383333333333334,0.02055555555555566,-0.16300000000000003,68.875,0.0206,-0.22112500000000002,-0.2999999999999998,100.0,1.0,1.0,212.38,0.0,0.0,0.0,0.0,0.0,0.0,0.0,9002.1,0.0,55.0,5.0,247.92000000000002,0.0,0.0,0.0,0.0,0.0,0.0,0.0,0.0,1.2029999999999994,1.2029999999999994,0.0,0.0,0.0,55.0,616.79921,10000.0,85.000001,85.000001,85.000001,85.000001,395.0,0.0,0.0,0.0,1.0,166.665,52.734,52.734,47.363,47.363,34.0,-22.18,23.934,-28.53,29.935,0.0,1782.379,-0.3249999999999993,100.0,27.986,28.054000000000002,43.227000000000004,43.639,0.0,1.0,100.0,0.0,0.0,0.0,0.0,3028.4285714285716,2999.1,4210.75,4140.0,305.7375,305.187,314.60575,314.55925,21.997700000000002,20.637999999999998,21.9833,21.4923,314.999998,314.999998,324.999988,324.999988,99.55891428571428,99.50736666666667,99.56742857142856,99.54741428571428,0.10150000000000015,-0.03866666666666663,-0.09399999999999997,0.133,-0.030000000000001137,-0.04333333333332945,1.5215,1.5065,38.486000000000004,29.987333333333332,38.396,35.327,55.897999999999996,35.35,59.626999999999995,52.713499999999996,53.835,34.4645,58.2095,51.03,52.986999999999995,34.004,58.1115,50.4305,-0.10799999999999987,-0.053999999999999826,0.109435,0.10839000000000001,0.0,215.60500000000002,215.62,212.38,212.38,0.0,0.0
25,0.0,1.0,0.0,1.0,1.0,0.0,0.0,1.0,0.0,100.0,1.0,1.1856,26.0,0.0,0.0,0.0,59.999996,0.0,26.0,26.0,26.0,26.0,0.02462500000000012,0.26239999999999997,-0.02305,292.16,-2.75595,-2.639555555555556,-1.5995,-1.5234,-191.45999999999998,215.4275,190.456625,0.0,0.0,0.0,0.0,0.05056666666666654,-5.498166666666667,-5.498166666666667,-0.6023000000000001,0.03933333333333333,0.03066666666666662,0.20799999999999996,69.007,0.0223,-0.218675,-0.3520000000000003,100.0,1.0,1.0,212.85000000000002,0.0,0.0,0.0,0.0,0.0,0.0,0.0,9022.0,0.0,55.0,5.0,248.4,1.0,0.0,0.0,0.0,0.0,0.0,0.0,0.0,1.2540000000000013,1.2540000000000013,0.0,0.0,1.0,55.0,616.79921,10000.0,85.000001,85.000001,85.000001,85.000001,395.0,0.0,0.0,0.0,1.0,166.665,51.804,51.804,47.76,47.76,34.0,-24.384999999999998,27.532,-26.743333333333336,29.8825,0.0,1782.327,-0.36499999999999844,100.0,28.044,28.122,43.101,43.391,0.0,1.0,100.0,0.0,0.0,0.0,0.0,3219.285714285714,3361.2,3992.125,4183.3,305.1175,304.217,315.176,314.55,22.0071,20.6436,21.9936,21.5015,314.999998,314.999998,324.999988,324.999988,99.55892857142857,99.50736666666667,99.56758571428571,99.54755714285714,0.10375000000000023,-0.025666666666666726,-0.08583333333333332,0.13916666666666666,-0.045000000000001705,-0.060000000000002274,1.5554999999999999,1.5445000000000002,38.544,30.022666666666666,38.46,35.384,55.885,35.388999999999996,59.663,52.774,53.823,34.5005,58.2425,51.088,52.973,34.0385,58.141999999999996,50.4875,-0.10450000000000004,-0.0495000000000001,0.11056500000000001,0.106715,0.0,216.015,216.04500000000002,212.85000000000002,212.85000000000002,0.0,0.0
26,0.0,1.0,0.0,1.0,1.0,0.0,0.0,1.0,0.0,100.0,1.0,1.1856,26.0,0.0,0.0,0.0,59.999996,0.0,26.0,26.0,26.0,26.0,0.04312500000000008,0.2712000000000001,0.075325,291.275,-2.71155,-2.6486666666666667,-1.56025,-1.5522,-187.73000000000002,215.41750000000002,190.4295,0.0,0.0,0.0,0.0,0.0527333333333333,-5.498166666666667,-5.498166666666667,-0.5728,0.23766666666666658,0.017222222222222028,1.036,69.152,0.0234,-0.2023,-0.3420000000000005,100.0,1.0,1.0,213.07666666666665,0.0,0.0,0.0,0.0,0.0,0.0,0.0,9031.5,0.0,55.0,5.0,248.91666666666666,0.0,0.0,0.0,0.0,0.0,0.0,0.0,0.0,1.3079999999999998,1.3079999999999998,0.0,0.0,0.0,55.0,616.79921,10000.0,85.000001,85.000001,85.000001,85.000001,395.0,0.0,0.0,0.0,1.0,166.665,51.59,51.59,46.478,46.478,34.0,-23.0075,26.14,-29.833333333333336,34.485,0.0,1782.274,-0.39000000000000057,100.0,28.847,28.595,43.665,43.902,0.0,1.0,100.0,0.0,0.0,0.0,0.0,3147.857142857143,3195.7,4418.5,4509.5,305.2605,304.81766666666664,314.07275,313.6915,22.0172,20.6497,22.0048,21.5113,314.999998,314.999998,324.999988,324.999988,99.55894285714285,99.50738333333334,99.56772857142857,99.54771428571429,0.11299999999999999,-0.020999999999999908,-0.07883333333333331,0.1503333333333332,-0.026666666666670835,-0.051666666666669414,1.4489999999999998,1.424,38.607,30.060666666666666,38.53,35.445499999999996,55.875,35.4315,59.7055,52.841499999999996,53.813,34.54,58.282,51.1535,52.962,34.076,58.178,50.5515,-0.10749999999999993,-0.04850000000000021,0.10685000000000001,0.11055000000000001,0.0,216.49,216.505,213.07666666666665,213.07666666666665,0.0,0.0
27,0.0,1.0,0.0,1.0,1.0,0.0,0.0,1.0,0.0,100.0,1.0,1.1856,26.0,0.0,0.0,0.0,59.999996,0.0,26.0,26.0,26.0,26.0,0.054750000000000076,0.24780000000000002,-0.0426,291.779,-2.76295,-2.657,-1.6219999999999999,-1.5319,-184.62,215.41,190.407875,0.0,0.0,0.0,0.0,0.05453333333333332,-5.498166666666667,-5.498166666666667,-0.5959,-0.855,0.024666666666666615,-0.6020000000000001,69.267,0.023100000000000002,-0.23827500000000001,-0.3200000000000003,100.0,1.0,1.0,213.56333333333333,0.0,0.0,0.0,0.0,0.0,0.0,0.0,9052.2,0.0,55.0,5.0,249.33666666666664,1.0,0.0,0.0,0.0,0.0,0.0,0.0,0.0,1.352999999999998,1.352999999999998,0.0,0.0,1.0,55.0,616.79921,10000.0,85.000001,85.000001,85.000001,85.000001,395.0,0.0,0.0,0.0,1.0,333.33500000000004,51.894999999999996,51.894999999999996,46.646,46.646,34.0,-23.1025,25.54,-29.076666666666664,29.45,0.0,1782.228,-0.40500000000000114,100.0,28.306,28.732,43.914,44.296,0.0,1.0,100.0,0.0,0.0,0.0,0.0,3128.0,3137.1,4154.125,4084.2,305.5605,304.7063333333333,314.81025,314.749,22.0253,20.6547,22.0141,21.5195,314.999998,314.999998,324.999988,324.999988,99.55895714285714,99.50738333333334,99.56785714285714,99.54784285714285,0.1120000000000001,-0.03266666666666662,-0.09633333333333338,0.1403333333333332,-0.046666666666666856,-0.041666666666671404,1.5125,1.5015,38.658,30.092,38.588,35.497,55.864000000000004,35.4655,59.7405,52.8975,53.802,34.5715,58.314499999999995,51.207,52.951,34.106,58.207499999999996,50.604,-0.11549999999999994,-0.04800000000000004,0.110935,0.11510000000000001,0.0,216.81,216.815,213.56333333333333,213.56333333333333,0.0,0.0
28,0.0,1.0,0.0,1.0,1.0,0.0,0.0,1.0,0.0,100.0,1.0,1.1856,26.0,0.0,0.0,0.0,59.999996,0.0,26.0,26.0,26.0,26.0,0.04125000000000001,0.2662,-0.038675,291.946,-2.6874000000000002,-2.650555555555556,-1.6327500000000001,-1.5608,-181.07999999999998,215.4025,190.3825,0.0,0.0,0.0,0.0,0.056599999999999984,-5.498166666666667,-5.498166666666667,-0.6017,0.5666666666666667,0.012666666666666604,0.362,69.397,0.0238,-0.2174,-0.4039999999999999,100.0,1.0,1.0,214.05,0.0,0.0,0.0,0.0,0.0,0.0,0.0,9072.8,0.0,55.0,5.0,249.80333333333334,0.0,0.0,0.0,0.0,0.0,0.0,0.0,0.0,1.404,1.404,0.0,0.0,0.0,55.0,616.79921,10000.0,85.000001,85.000001,85.000001,85.000001,395.0,0.0,0.0,0.0,1.0,166.665,51.849000000000004,51.849000000000004,47.348,47.348,34.0,-21.595,26.556,-27.476666666666663,30.642500000000002,0.0,1782.179,-0.4450000000000003,100.0,28.562,28.535,43.416,43.803,0.0,1.0,100.0,0.0,0.0,0.0,0.0,3053.0,3211.4,4093.0,4147.3,305.492,304.6666666666667,314.984,314.649,22.0347,20.6604,22.0244,21.5286,314.999998,314.999998,324.999988,324.999988,99.55897142857143,99.50738333333334,99.56801428571428,99.548,0.12349999999999994,-0.01866666666666661,-0.07699999999999996,0.14949999999999997,-0.045000000000001705,-0.04999999999999716,1.5635,1.5390000000000001,38.717,30.127666666666666,38.652,35.554,55.854,35.504999999999995,59.7745,52.957,53.792,34.6075,58.3465,51.2645,52.939,34.141,58.236,50.66,-0.11399999999999988,-0.04499999999999993,0.10824,0.10874,0.0,217.25,217.255,214.05,214.05,0.0,0.0
29,0.0,1.0,0.0,1.0,1.0,0.0,0.0,1.0,0.0,100.0,1.0,1.1856,26.0,0.0,0.0,0.0,59.999996,0.0,26.0,26.0,26.0,26.0,0.049250000000000016,0.2499,-0.02125,291.779,-2.7601,-2.576888888888889,-1.6120999999999999,-1.544,-177.32999999999998,215.39499999999998,190.3545,0.0,0.0,0.0,0.0,0.05876666666666652,-5.498166666666667,-5.498166666666667,-0.606,-0.7286666666666668,0.009444444444444366,0.775,69.539,0.0257,-0.21545,-0.4679999999999991,100.0,1.0,1.0,214.33666666666667,0.0,0.0,0.0,0.0,0.0,0.0,0.0,9085.0,0.0,55.0,5.0,250.31333333333333,1.0,0.0,0.0,0.0,0.0,0.0,0.0,0.0,1.4579999999999984,1.4579999999999984,0.0,0.0,1.0,55.0,616.79921,10000.0,85.000001,85.000001,85.000001,85.000001,395.0,0.0,0.0,0.0,1.0,166.665,52.17,52.17,46.921,46.921,34.0,-22.875,25.93,-28.106666666666666,32.44,0.0,1782.124,-0.504999999999999,100.0,28.222,28.256999999999998,43.83,44.087,0.0,1.0,100.0,0.0,0.0,0.0,0.0,3136.714285714286,3244.3,4128.375,4322.1,305.4815,304.82533333333333,314.79625,314.18575,22.0444,20.6664,22.0355,21.5385,314.999998,314.999998,324.999988,324.999988,99.55898571428571,99.5074,99.56817142857143,99.54815714285715,0.11975000000000025,-0.016999999999999904,-0.08133333333333337,0.15166666666666684,-0.03499999999999659,-0.04999999999999716,1.504,1.4775,38.778,30.165,38.722,35.6155,55.84,35.5445,59.8165,53.024,53.778999999999996,34.6445,58.3855,51.3285,52.926,34.1765,58.272,50.723,-0.11699999999999999,-0.04349999999999987,0.10824500000000001,0.111475,0.0,217.655,217.67000000000002,214.33666666666667,214.33666666666667,0.0,0.0
30,0.0,1.0,0.0,1.0,1.0,0.0,0.0,1.0,0.0,100.0,1.0,1.1856,26.0,0.0,0.0,0.0,59.999996,0.0,26.0,26.0,26.0,26.0,0.07587499999999991,0.24860000000000015,0.001025,291.183,-2.73775,-2.638888888888889,-1.6491,-1.5935000000000001,-174.2,215.39249999999998,190.33125,0.0,0.0,0.0,0.0,0.06059999999999999,-5.498166666666667,-5.498166666666667,-0.607,0.7966666666666666,0.010777777777777775,-0.357,69.652,0.027100000000000003,-0.2185,-0.42600000000000016,100.0,1.0,1.0,214.8,0.0,0.0,0.0,0.0,0.0,0.0,0.0,9104.6,0.0,55.0,5.0,250.72,0.0,0.0,0.0,0.0,0.0,0.0,1.0,0.0,1.5030000000000001,1.5030000000000001,0.0,0.0,0.0,55.0,616.79921,10000.0,85.000001,85.000001,85.000001,85.000001,395.0,0.0,0.0,0.0,1.0,166.665,50.491,50.491,47.119,47.119,34.0,-24.7075,27.42,-28.936666666666664,30.0225,0.0,1782.08,-0.495000000000001,100.0,28.984,29.13,43.473,44.125,0.0,1.0,100.0,0.0,0.0,0.0,0.0,3385.4285714285716,3342.9,4193.75,4060.7,304.576,303.935,314.87675,314.74325,22.0528,20.6716,22.0446,21.546599999999998,314.999998,314.999998,324.999988,324.999988,99.559,99.5074,99.5683,99.54828571428571,0.12550000000000017,-0.03400000000000003,-0.08450000000000002,0.1383333333333332,-0.036666666666668846,-0.04833333333333201,1.521,1.5175,38.83,30.197666666666667,38.778999999999996,35.6665,55.834,35.581,59.848,53.0775,53.772999999999996,34.678,58.414500000000004,51.379999999999995,52.918,34.2085,58.298,50.7735,-0.13050000000000006,-0.04899999999999993,0.10702,0.11265000000000001,0.0,218.025,218.055,214.8,214.8,0.0,0.0
31,0.0,1.0,0.0,1.0,1.0,0.0,0.0,1.0,0.0,100.0,1.0,1.1856,26.0,0.0,0.0,0.0,59.999996,0.0,26.0,26.0,26.0,26.0,0.04562500000000003,0.24419999999999997,0.060450000000000004,290.726,-2.71265,-2.6146666666666665,-1.6529,-1.5346000000000002,-170.43,215.3875,190.303875,0.0,0.0,0.0,0.0,0.06276666666666653,-5.498166666666667,-5.498166666666667,-0.5871000000000001,-0.3973333333333333,0.020777777777777784,-0.732,69.792,0.031900000000000005,-0.22057500000000002,-0.4320000000000004,100.0,1.0,1.0,215.03,0.0,0.0,0.0,0.0,0.0,0.0,0.0,9114.3,0.0,55.0,5.0,251.22666666666666,1.0,0.0,0.0,0.0,0.0,0.0,1.0,0.0,1.5569999999999986,1.5569999999999986,0.0,0.0,1.0,55.0,616.79921,10000.0,85.000001,85.000001,85.000001,85.000001,395.0,0.0,0.0,0.0,1.0,166.665,50.980000000000004,50.980000000000004,45.593,45.593,34.0,-22.855,27.036,-30.45,32.535,0.0,1782.026,-0.504999999999999,100.0,28.83,29.33,44.272,44.931,0.0,1.0,100.0,0.0,0.0,0.0,0.0,3179.5714285714284,3324.2,4345.5,4333.0,305.2705,304.214,314.29525,314.0055,22.0627,20.6778,22.0559,21.5567,314.999998,314.999998,324.999988,324.999988,99.55901428571428,99.5074,99.56845714285714,99.54844285714286,0.12075000000000014,-0.027666666666666728,-0.07550000000000001,0.14466666666666672,-0.06499999999999773,-0.051666666666669414,1.44,1.42,38.891999999999996,30.236333333333334,38.849000000000004,35.729,55.823,35.6235,59.8915,53.147,53.762,34.7175,58.4555,51.447,52.906,34.246,58.335,50.838499999999996,-0.11749999999999994,-0.047499999999999876,0.09796500000000001,0.10822500000000002,0.0,218.47,218.47500000000002,215.03,215.03,0.0,0.0
32,0.0,1.0,0.0,1.0,1.0,0.0,0.0,1.0,0.0,100.0,1.0,1.1856,26.0,0.0,0.0,0.0,59.999996,0.0,26.0,26.0,26.0,26.0,0.07075000000000009,0.26290000000000013,-0.0154,291.29,-2.7107,-2.667888888888889,-1.597,-1.6138,-167.07999999999998,215.385,190.279875,0.0,0.0,0.0,0.0,0.06473333333333331,-5.498166666666667,-5.498166666666667,-0.6056,-0.30666666666666687,0.0033333333333331883,-0.9730000000000001,69.912,0.034300000000000004,-0.23190000000000002,-0.45399999999999974,100.0,1.0,1.0,215.52666666666667,0.0,0.0,0.0,0.0,0.0,0.0,0.0,9135.4,0.0,55.0,5.0,251.66,0.0,0.0,0.0,0.0,0.0,0.0,1.0,0.0,1.6050000000000004,1.6050000000000004,0.0,0.0,0.0,55.0,616.79921,10000.0,85.000001,85.000001,85.000001,85.000001,395.0,0.0,0.0,0.0,1.0,333.33500000000004,51.544,51.544,46.555,46.555,34.0,-22.25,25.654,-27.396666666666665,32.635000000000005,0.0,1781.975,-0.5,100.0,28.655,29.157,44.093,44.772000000000006,0.0,1.0,100.0,0.0,0.0,0.0,0.0,3155.285714285714,3106.9,4129.875,4237.8,305.4005,304.819,314.83475,314.3,22.0714,20.6832,22.0657,21.5654,314.999998,314.999998,324.999988,324.999988,99.55904285714286,99.5074,99.5686,99.54858571428572,0.1280000000000001,-0.025333333333333208,-0.07350000000000001,0.15000000000000013,-0.04333333333332945,-0.051666666666669414,1.5205,1.4965000000000002,38.946,30.270333333333333,38.911,35.783500000000004,55.813,35.66,59.9255,53.204,53.751999999999995,34.7515,58.487,51.502,52.894999999999996,34.278999999999996,58.3635,50.893,-0.12199999999999989,-0.04499999999999993,0.100455,0.10798500000000001,0.0,218.805,218.85500000000002,215.52666666666667,215.52666666666667,0.0,0.0
33,0.0,1.0,0.0,1.0,1.0,0.0,0.0,1.0,0.0,100.0,1.0,1.1856,26.0,0.0,0.0,0.0,59.999996,0.0,26.0,26.0,26.0,26.0,0.04675000000000007,0.2581,-0.075725,291.626,-2.7206,-2.643111111111111,-1.6017000000000001,-1.5787,-163.51,215.385,190.25325,0.0,0.0,0.0,0.0,0.06679999999999997,-5.498166666666667,-5.498166666666667,-0.6149,-0.17500000000000004,0.0038888888888888307,0.959,70.041,0.0344,-0.215425,-0.48599999999999977,100.0,1.0,1.0,215.93666666666667,0.0,0.0,0.0,0.0,0.0,0.0,0.0,9152.8,0.0,55.0,5.0,252.12333333333333,1.0,0.0,0.0,0.0,0.0,0.0,1.0,0.0,1.6559999999999988,1.6559999999999988,0.0,0.0,1.0,55.0,616.79921,10000.0,85.000001,85.000001,85.000001,85.000001,395.0,0.0,0.0,0.0,1.0,166.665,51.894999999999996,51.894999999999996,46.982,46.982,34.0,-21.5525,26.195999999999998,-27.126666666666665,31.82,0.0,1781.925,-0.5350000000000001,100.0,28.636,28.724,43.941,44.44,0.0,1.0,100.0,0.0,0.0,0.0,0.0,3051.4285714285716,3149.0,4056.375,4235.4,305.56,304.94866666666667,314.9795,314.44425,22.0807,20.6889,22.076,21.5746,314.999998,314.999998,324.999988,324.999988,99.55905714285714,99.5074,99.56874285714285,99.54874285714286,0.13050000000000006,-0.008999999999999897,-0.07766666666666666,0.14916666666666667,-0.041666666666671404,-0.05833333333333002,1.522,1.5135,39.004000000000005,30.305666666666667,38.975,35.841499999999996,55.801,35.6975,59.9615,53.2645,53.742000000000004,34.786,58.5205,51.5605,52.882999999999996,34.312,58.3935,50.9495,-0.123,-0.03500000000000014,0.11234000000000001,0.10690500000000001,0.0,219.215,219.245,215.93666666666667,215.93666666666667,0.0,0.0
34,0.0,1.0,0.0,1.0,1.0,0.0,0.0,1.0,0.0,100.0,1.0,1.1856,26.0,0.0,0.0,0.0,59.999996,0.0,26.0,26.0,26.0,26.0,0.049875000000000114,0.2601,-0.08705,291.855,-2.67155,-2.6702222222222223,-1.6307,-1.5203,-160.14999999999998,215.385,190.226875,0.0,0.0,0.0,0.0,0.06876666666666653,-5.498166666666667,-5.498166666666667,-0.6401,-0.8483333333333334,0.020999999999999908,0.895,70.162,0.038200000000000005,-0.21995,-0.5520000000000005,100.0,1.0,1.0,216.26666666666665,0.0,0.0,0.0,0.0,0.0,0.0,0.0,9166.8,0.0,55.0,5.0,252.56,0.0,0.0,0.0,0.0,0.0,0.0,1.0,0.0,1.7040000000000006,1.7040000000000006,0.0,0.0,0.0,55.0,616.79921,10000.0,85.000001,85.000001,85.000001,85.000001,395.0,0.0,0.0,0.0,1.0,333.33500000000004,52.444,52.444,47.073,47.073,34.0,-20.2375,25.240000000000002,-27.546666666666663,31.71,0.0,1781.877,-0.5199999999999996,100.0,28.342,28.383,43.83,44.447,0.0,1.0,100.0,0.0,0.0,0.0,0.0,2959.714285714286,3031.0,4113.125,4270.2,305.86,305.174,314.88075,314.362,22.089199999999998,20.6942,22.0858,21.5834,314.999998,314.999998,324.999988,324.999988,99.55905714285714,99.50741666666667,99.56888571428571,99.54888571428572,0.13275000000000015,-0.014666666666666606,-0.07033333333333336,0.15683333333333338,-0.04833333333333201,-0.03833333333332689,1.5255,1.5110000000000001,39.058,30.33866666666667,39.036,35.896,55.79,35.7315,59.9955,53.323,53.730999999999995,34.817,58.552,51.6165,52.870999999999995,34.342,58.422,51.0045,-0.12399999999999989,-0.04400000000000004,0.1058,0.10493000000000001,0.0,219.57,219.60000000000002,216.26666666666665,216.26666666666665,0.0,0.0
35,0.0,1.0,0.0,1.0,1.0,0.0,0.0,1.0,0.0,100.0,1.0,1.1856,26.0,0.0,0.0,0.0,59.999996,0.0,26.0,26.0,26.0,26.0,0.06087500000000001,0.26170000000000004,-0.08055000000000001,291.702,-2.80725,-2.6482222222222225,-1.5444499999999999,-1.5756000000000001,-156.35,215.385,190.195125,0.0,0.0,0.0,0.0,0.07096666666666651,-5.498166666666667,-5.498166666666667,-0.6779000000000001,-0.018000000000000016,0.004999999999999893,-0.09899999999999998,70.29599999999999,0.042800000000000005,-0.22455,-0.5139999999999993,100.0,1.0,1.0,216.76666666666665,0.0,0.0,0.0,0.0,0.0,0.0,0.0,9187.9,0.0,55.0,5.0,253.04000000000002,1.0,0.0,0.0,0.0,0.0,0.0,1.0,0.0,1.7579999999999991,1.7579999999999991,0.0,0.0,1.0,55.0,616.79921,10000.0,85.000001,85.000001,85.000001,85.000001,395.0,0.0,0.0,0.0,1.0,166.665,51.635999999999996,51.635999999999996,46.738,46.738,34.0,-22.77,28.656,-25.523333333333333,31.11,0.0,1781.824,-0.28999999999999915,100.0,28.236,28.804000000000002,43.568,43.993,0.0,1.0,100.0,0.0,0.0,0.0,0.0,3064.857142857143,3402.6,4095.25,4123.5,305.532,304.0806666666667,314.97925,314.77975,22.0988,20.7004,22.0967,21.593,314.999998,314.999998,324.999988,324.999988,99.55908571428571,99.50741666666667,99.56904285714286,99.54904285714285,0.12349999999999994,-0.013333333333333197,-0.06099999999999994,0.15983333333333327,-0.03499999999999659,-0.046666666666666856,1.562,1.536,39.117999999999995,30.377333333333333,39.104,35.9565,55.775999999999996,35.772999999999996,60.032,53.384,53.717,34.856,58.586,51.6755,52.857,34.379,58.453,51.062,-0.10549999999999993,-0.059499999999999886,0.10626500000000001,0.10483,0.0,220.0,220.025,216.76666666666665,216.76666666666665,0.0,0.0
