,ABS Active,ABS Enabled,AID Allow Tire Blankets,AID Auto Blip,AID Auto Clutch,AID Auto Shift,AID Fuel Rate,AID Ideal Line,AID Mech Damage,AID Stability,AID Tire Wear Rate,Air Density,Air Temp,Ballast,Best Lap Delta,Best Lap Time,Brake Bias,Brake Pos,Brake Temp FL,Brake Temp FR,Brake Temp RL,Brake Temp RR,CG Accel Lateral,CG Accel Longitudinal,CG Accel Vertical,CG Height,Camber FL,Camber FR,Camber RL,Camber RR,Car Coord X,Car Coord Y,Car Coord Z,Car Damage Front,Car Damage Left,Car Damage Rear,Car Damage Right,Car Pos Norm,Caster FL,Caster FR,Chassis Pitch Angle,Chassis Pitch Rate,Chassis Roll Angle,Chassis Roll Rate,Chassis Velocity X,Chassis Velocity Y,Chassis Velocity Z,Chassis Yaw Rate,Clutch Pos,DRS Active,DRS Available,Drive Train Speed,ERS Heat Charging,ERS Is Charging,ERS Max Energy,ERS Power Level,ERS Recovery Level,Engine Brake Setting,Engine Limiter,Engine RPM,Flags,Fuel Level,Gear,Ground Speed,HR Sample Clock,In Pit,KERS Charge,KERS Deployed Energy,KERS Input,KERS Max Energy,LR Sample Clock,Lap Invalidated,Lap Time,Lap Time2,Last Lap Time,Last Sector Time,MR Sample Clock,Max Fuel,Max Power,Max RPM,Max Sus Travel FL,Max Sus Travel FR,Max Sus Travel RL,Max Sus Travel RR,Max Torque,Max Turbo Boost,Num Tires Off Track,Penalties Enabled,Position,Raw Data Sample Rate,Ride Height FL,Ride Height FR,Ride Height RL,Ride Height RR,Road Temp,Self Align Torque FL,Self Align Torque FR,Self Align Torque RL,Self Align Torque RR,Session Lap Count,Session Time Left,Steering Angle,Surface Grip,Suspension Travel FL,Suspension Travel FR,Suspension Travel RL,Suspension Travel RR,TC Active,TC Enabled,Throttle Pos,Tire Dirt Level FL,Tire Dirt Level FR,Tire Dirt Level RL,Tire Dirt Level RR,Tire Load FL,Tire Load FR,Tire Load RL,Tire Load RR,Tire Loaded Radius FL,Tire Loaded Radius FR,Tire Loaded Radius RL,Tire Loaded Radius RR,Tire Pressure FL,Tire Pressure FR,Tire Pressure RL,Tire Pressure RR,Tire Radius FL,Tire Radius FR,Tire Radius RL,Tire Radius RR,Tire Rubber Grip FL,Tire Rubber Grip FR,Tire Rubber Grip RL,Tire Rubber Grip RR,Tire Slip Angle FL,Tire Slip Angle FR,Tire Slip Angle RL,Tire Slip Angle RR,Tire Slip Ratio FL,Tire Slip Ratio FR,Tire Slip Ratio RL,Tire Slip Ratio RR,Tire Temp Core FL,Tire Temp Core FR,Tire Temp Core RL,Tire Temp Core RR,Tire Temp Inner FL,Tire Temp Inner FR,Tire Temp Inner RL,Tire Temp Inner RR,Tire Temp Middle FL,Tire Temp Middle FR,Tire Temp Middle RL,Tire Temp Middle RR,Tire Temp Outer FL,Tire Temp Outer FR,Tire Temp Outer RL,Tire Temp Outer RR,Toe In FL,Toe In FR,Toe In RL,Toe In RR,Turbo Boost,Wheel Angular Speed FL,Wheel Angular Speed FR,Wheel Angular Speed RL,Wheel Angular Speed RR,Wind Direction,Wind Speed
0,0.0,1.0,0.0,1.0,1.0,0.0,0.0,1.0,0.0,100.0,1.0,1.1856,26.0,0.0,0.0,0.0,59.99999,0.0,26.0,26.0,26.0,26.0,-0.02344444444444449,0.30010000000000003,0.10097500000000001,293.243,-2.79365,-2.6194444444444445,-1.562,-1.5070999999999999,-275.76,215.4225,190.988,0.0,0.0,0.0,0.0,0.0015333333333333865,-5.498166666666667,-5.498166666666667,-0.5631,1.721,0.004555555555555646,0.278,65.53999999999999,-0.028200000000000003,-0.2217,-0.1039999999999992,100.0,1.0,1.0,202.34333333333333,0.0,0.0,0.0,0.0,0.0,0.0,0.0,8576.6,0.0,55.0,5.0,235.91333333333333,0.0,0.0,0.0,0.0,0.0,0.0,0.0,0.0,0.0030000000000001137,0.0030000000000001137,0.0,0.0,0.0,55.0,616.79921,10000.0,85.0,85.0,85.0,85.0,395.0,0.0,0.0,0.0,1.0,20.0,51.01,51.01,49.042,49.042,34.0,-28.96,32.23,-28.72,26.555,0.0,1783.706,0.18499999999999872,100.0,27.348,27.126,40.482,40.18,0.0,1.0,100.0,0.0,0.0,0.0,0.0,3338.285714285714,4237.5,4020.5555555555557,4139.0,304.579,301.7373333333333,315.04625,314.574,21.7857,20.5121,21.7381,21.2832,314.99999,314.99999,324.99998,324.99998,99.55965714285715,99.50715,99.56417142857143,99.54412857142857,0.03725000000000023,-0.07699999999999996,-0.13449999999999995,0.08800000000000008,-0.046666666666666856,-0.06714285714285495,1.5705,1.5505,37.161,29.200333333333333,36.863,34.019999999999996,56.559,34.501999999999995,58.7355,51.294,54.458,33.6625,57.379,49.6665,53.619,33.2145,57.351,49.095,-0.07299999999999995,-0.08550000000000013,0.10855000000000001,0.10769000000000001,0.0,205.335,205.32999999999998,202.34333333333333,202.34333333333333,0.0,0.0
1,0.0,1.0,0.0,1.0,1.0,0.0,0.0,1.0,0.0,100.0,1.0,1.1856,26.0,0.0,0.0,0.0,59.999996,0.0,26.0,26.0,26.0,26.0,-0.04366666666666663,0.3409,0.20275,292.221,-2.63905,-2.698666666666667,-1.5983,-1.5229,-272.42,215.4325,190.967875,0.0,0.0,0.0,0.0,0.0034999999999999476,-5.498166666666667,-5.498166666666667,-0.47150000000000003,-1.2960000000000003,-0.046333333333333115,-0.19999999999999996,65.699,-0.0187,-0.170325,0.49799999999999933,100.0,1.0,1.0,202.21333333333334,0.0,0.0,0.0,0.0,0.0,0.0,0.0,8571.1,0.0,55.0,5.0,236.48333333333335,1.0,0.0,0.0,0.0,0.0,0.0,0.0,0.0,0.053999999999998494,0.053999999999998494,0.0,0.0,1.0,55.0,616.79921,10000.0,85.000001,85.000001,85.000001,85.000001,395.0,0.0,0.0,0.0,1.0,166.665,54.184,54.184,46.936,46.936,34.0,-22.7375,17.03,-38.376666666666665,39.385000000000005,0.0,1783.655,0.35999999999999943,100.0,27.56,27.326,42.445,42.657,0.0,1.0,100.0,0.0,0.0,0.0,0.0,2858.285714285714,2446.9,4879.777777777777,5640.0,306.233,307.01366666666667,312.77325,310.98325,21.7956,20.5172,21.7491,21.2925,314.999998,314.999998,324.999988,324.999988,99.55967142857143,99.50716666666666,99.56432857142858,99.54428571428572,0.03500000000000014,-0.09966666666666679,-0.13,0.07916666666666683,-0.026666666666670835,-0.011428571428567125,1.2974999999999999,1.3135000000000001,37.222,29.232333333333333,36.932,34.078,56.542,34.541,58.785,51.3645,54.442,33.698,57.4255,49.734,53.602000000000004,33.2485,57.394,49.161,-0.04400000000000004,-0.10349999999999993,0.10600000000000001,0.10778000000000001,0.0,205.79500000000002,205.755,202.21333333333334,202.21333333333334,0.0,0.0
2,0.0,1.0,0.0,1.0,1.0,0.0,0.0,1.0,0.0,100.0,1.0,1.1856,26.0,0.0,0.0,0.0,59.999996,0.0,26.0,26.0,26.0,26.0,-0.07511111111111102,0.28300000000000014,0.03665,293.854,-2.66775,-2.650444444444444,-1.5711,-1.5123,-268.87,215.44,190.948,0.0,0.0,0.0,0.0,0.005566666666666609,-5.498166666666667,-5.498166666666667,-0.5817,0.6975,-0.005555555555555536,2.0700000000000003,65.84100000000001,-0.0251,-0.27255,0.7700000000000005,100.0,1.0,1.0,203.70666666666668,0.0,0.0,0.0,0.0,0.0,0.0,0.0,8634.3,0.0,55.0,5.0,236.99666666666667,0.0,0.0,0.0,0.0,0.0,0.0,0.0,0.0,0.10800000000000054,0.10800000000000054,0.0,0.0,0.0,55.0,616.79921,10000.0,85.000001,85.000001,85.000001,85.000001,395.0,0.0,0.0,0.0,1.0,166.665,51.757999999999996,51.757999999999996,50.751,50.751,34.0,-28.695,22.637999999999998,-24.9,19.645,0.0,1783.602,0.4349999999999987,100.0,28.187,27.509,41.747,41.601,0.0,1.0,100.0,0.0,0.0,0.0,0.0,3366.857142857143,3230.7,3502.1111111111113,3393.9,304.5615,304.4563333333333,316.30125,316.485,21.8063,20.5227,21.759900000000002,21.3015,314.999998,314.999998,324.999988,324.999988,99.55968571428572,99.50718333333333,99.56445714285714,99.54441428571428,0.020999999999999908,-0.11266666666666669,-0.16466666666666663,0.07750000000000012,-0.06333333333333258,-0.05857142857143316,1.764,1.796,37.289,29.266666666666666,37.0,34.134,56.527,34.583,58.822,51.419,54.427,33.737,57.46,49.786500000000004,53.587,33.286,57.4255,49.212666666666664,-0.047499999999999876,-0.11450000000000005,0.10908000000000001,0.11150000000000002,0.0,206.265,206.22500000000002,203.70666666666668,203.70666666666668,0.0,0.0
3,0.0,1.0,0.0,1.0,1.0,0.0,0.0,1.0,0.0,100.0,1.0,1.1856,26.0,0.0,0.0,0.0,59.999996,0.0,26.0,26.0,26.0,26.0,-0.053888888888888875,0.29800000000000004,0.047,292.969,-2.69205,-2.6723333333333334,-1.5565,-1.4732,-265.9,215.445,190.929875,0.0,0.0,0.0,0.0,0.0072666666666665325,-5.498166666666667,-5.498166666666667,-0.5011,0.875,0.013555555555555543,-1.962,65.981,-0.0391,-0.18495,0.7279999999999998,100.0,1.0,1.0,203.42666666666668,0.0,0.0,0.0,0.0,0.0,0.0,0.0,8622.6,0.0,55.0,5.0,237.5,1.0,0.0,0.0,0.0,0.0,0.0,0.0,0.0,0.1529999999999987,0.1529999999999987,0.0,0.0,1.0,55.0,616.79921,10000.0,85.000001,85.000001,85.000001,85.000001,395.0,0.0,0.0,0.0,1.0,333.33500000000004,53.329,53.329,47.501,47.501,34.0,-23.32,19.836,-34.769999999999996,28.3125,0.0,1783.555,0.5749999999999993,100.0,27.864,27.661,41.91,42.038,0.0,1.0,100.0,0.0,0.0,0.0,0.0,2801.142857142857,2874.0,4532.111111111111,4479.1,306.3975,305.468,313.803,313.60575,21.8149,20.5274,21.7691,21.3095,314.999998,314.999998,324.999988,324.999988,99.55968571428572,99.50718333333333,99.56458571428571,99.54454285714286,0.01650000000000018,-0.11833333333333318,-0.15066666666666662,0.07099999999999995,-0.03499999999999659,-0.027142857142855803,1.4315,1.45,37.343,29.296333333333333,37.057,34.184,56.510999999999996,34.62,58.858000000000004,51.480000000000004,54.412,33.7715,57.4935,49.845,53.57,33.319,57.4565,49.269999999999996,-0.03849999999999998,-0.12300000000000022,0.10418000000000001,0.11162500000000002,0.0,206.745,206.68,203.42666666666668,203.42666666666668,0.0,0.0
4,0.0,1.0,0.0,1.0,1.0,0.0,0.0,1.0,0.0,100.0,1.0,1.1856,26.0,0.0,0.0,0.0,59.999996,0.0,26.0,26.0,26.0,26.0,-0.1012222222222221,0.28900000000000015,-0.069325,293.35,-2.66705,-2.7462222222222223,-1.4899,-1.5927,-262.13,215.45,190.90825,0.0,0.0,0.0,0.0,0.009466666666666512,-5.498166666666667,-5.498166666666667,-0.5374,-0.8010000000000002,-0.042888888888888754,0.5150000000000001,66.143,-0.0504,-0.240575,1.0380000000000003,100.0,1.0,1.0,204.17666666666668,0.0,0.0,0.0,0.0,0.0,0.0,0.0,8654.3,0.0,55.0,5.0,238.08666666666667,0.0,0.0,0.0,0.0,0.0,0.0,0.0,0.0,0.21000000000000085,0.21000000000000085,0.0,0.0,0.0,55.0,616.79921,10000.0,85.000001,85.000001,85.000001,85.000001,395.0,0.0,0.0,0.0,1.0,111.11,52.872,52.872,48.782,48.782,34.0,-27.275,20.845999999999997,-29.463333333333335,23.77,0.0,1783.5,0.620000000000001,100.0,27.941,27.147,42.85,42.119,0.0,1.0,100.0,0.0,0.0,0.0,0.0,3128.285714285714,2972.3,4005.0,3841.7,305.245,305.4146666666667,315.02425,315.284,21.8259,20.5331,21.7811,21.3194,314.999998,314.999998,324.999988,324.999988,99.55968571428572,99.50721666666666,99.56475714285715,99.5447,-0.00024999999999986144,-0.12199999999999989,-0.1698333333333334,0.057333333333333236,-0.05333333333332746,-0.05571428571428072,1.5755,1.595,37.412,29.332,37.132,34.2465,56.491,34.664500000000004,58.907,51.5475,54.393,33.812,57.539,49.9095,53.551,33.358000000000004,57.4985,49.333666666666666,-0.022499999999999964,-0.12199999999999989,0.101315,0.11585000000000001,0.0,207.22,207.11,204.17666666666668,204.17666666666668,0.0,0.0
5,0.0,1.0,0.0,1.0,1.0,0.0,0.0,1.0,0.0,100.0,1.0,1.1856,26.0,0.0,0.0,0.0,59.999996,0.0,26.0,26.0,26.0,26.0,-0.1052222222222221,0.3036000000000001,-0.038625,293.625,-2.6416,-2.729888888888889,-1.5390000000000001,-1.5775000000000001,-258.96,215.4525,190.8895,0.0,0.0,0.0,0.0,0.011333333333333306,-5.498166666666667,-5.498166666666667,-0.5389,0.627,-0.03100000000000014,0.7109999999999999,66.279,-0.0689,-0.2248,0.976,100.0,1.0,1.0,204.65333333333334,0.0,0.0,0.0,0.0,0.0,0.0,0.0,8674.6,0.0,55.0,5.0,238.57666666666665,1.0,0.0,0.0,0.0,0.0,0.0,0.0,0.0,0.2579999999999991,0.2579999999999991,0.0,0.0,1.0,55.0,616.79921,10000.0,85.000001,85.000001,85.000001,85.000001,395.0,0.0,0.0,0.0,1.0,166.665,53.162,53.162,49.103,49.103,34.0,-25.865,20.826,-29.896666666666665,23.3325,0.0,1783.452,0.21499999999999986,100.0,27.858,27.012,42.467,41.579,0.0,1.0,100.0,0.0,0.0,0.0,0.0,3018.857142857143,2981.4,3934.1111111111113,3992.3,305.511,305.32966666666664,315.244,314.9845,21.8353,20.5381,21.7908,21.3276,314.999998,314.999998,324.999988,324.999988,99.55968571428572,99.50721666666666,99.56488571428571,99.54484285714285,0.0040000000000000036,-0.1226666666666667,-0.1818333333333334,0.032666666666666844,-0.051666666666669414,-0.07000000000000028,1.5899999999999999,1.617,37.47,29.363,37.192,34.2975,56.476,34.703,58.943,51.603,54.379000000000005,33.848,57.5725,49.963,53.536,33.391999999999996,57.5295,49.385666666666665,-0.04949999999999988,-0.09799999999999986,0.10110000000000001,0.11239,0.0,207.66500000000002,207.585,204.65333333333334,204.65333333333334,0.0,0.0
6,0.0,1.0,0.0,1.0,1.0,0.0,0.0,1.0,0.0,100.0,1.0,1.1856,26.0,0.0,0.0,0.0,59.999996,0.0,26.0,26.0,26.0,26.0,-0.09844444444444445,0.29800000000000004,0.042375,293.472,-2.67725,-2.776,-1.4866000000000001,-1.5654,-255.97,215.4525,190.87125,0.0,0.0,0.0,0.0,0.01306666666666656,-5.498166666666667,-5.498166666666667,-0.5268,-0.258,-0.053444444444444184,-1.061,66.411,-0.0714,-0.20450000000000002,0.862000000000001,100.0,1.0,1.0,204.87666666666667,0.0,0.0,0.0,0.0,0.0,0.0,0.0,8683.9,0.0,55.0,5.0,239.05333333333334,0.0,0.0,0.0,0.0,0.0,0.0,0.0,0.0,0.3030000000000008,0.3030000000000008,0.0,0.0,0.0,55.0,616.79921,10000.0,85.000001,85.000001,85.000001,85.000001,395.0,0.0,0.0,0.0,1.0,333.33500000000004,53.558,53.558,48.477000000000004,48.477000000000004,34.0,-28.64,19.094,-33.60333333333334,23.740000000000002,0.0,1783.406,0.34499999999999886,100.0,27.413,26.816,42.603,41.8,0.0,1.0,100.0,0.0,0.0,0.0,0.0,3195.5714285714284,2764.6,4276.555555555556,4047.6000000000004,305.274,305.90133333333335,314.41625,314.736,21.843899999999998,20.5425,21.8001,21.3355,314.999998,314.999998,324.999988,324.999988,99.55968571428572,99.50723333333333,99.56501428571428,99.54495714285714,-0.021499999999999853,-0.135,-0.1985,0.02950000000000008,-0.05666666666667197,-0.04571428571428271,1.5095,1.5585,37.524,29.390666666666668,37.251000000000005,34.347,56.46,34.7375,58.9805,51.658,54.364000000000004,33.8795,57.6075,50.016,53.521,33.4225,57.562,49.437333333333335,-0.038999999999999924,-0.10199999999999987,0.104315,0.10209000000000001,0.0,208.04500000000002,207.97500000000002,204.87666666666667,204.87666666666667,0.0,0.0
7,0.0,1.0,0.0,1.0,1.0,0.0,0.0,1.0,0.0,100.0,1.0,1.1856,26.0,0.0,0.0,0.0,59.999996,0.0,26.0,26.0,26.0,26.0,-0.07144444444444442,0.2985,-0.0066500000000000005,293.442,-2.67725,-2.773111111111111,-1.5401,-1.6099,-252.38,215.45,190.8495,0.0,0.0,0.0,0.0,0.015133333333333332,-5.498166666666667,-5.498166666666667,-0.534,0.14349999999999996,-0.043333333333333446,-0.22299999999999986,66.564,-0.0748,-0.2162,0.6840000000000002,100.0,1.0,1.0,205.44333333333333,0.0,0.0,0.0,0.0,0.0,0.0,0.0,8707.9,0.0,55.0,5.0,239.60000000000002,1.0,0.0,0.0,0.0,0.0,0.0,0.0,0.0,0.3569999999999993,0.3569999999999993,0.0,0.0,1.0,55.0,616.79921,10000.0,85.000001,85.000001,85.000001,85.000001,395.0,0.0,0.0,0.0,1.0,166.665,53.238,53.238,48.706,48.706,34.0,-27.2025,20.990000000000002,-33.333333333333336,23.11,0.0,1783.353,-0.08999999999999986,100.0,27.675,26.986,42.643,41.771,0.0,1.0,100.0,0.0,0.0,0.0,0.0,3200.714285714286,2843.9,4160.777777777777,3940.9,305.204,305.602,314.74,315.0005,21.8545,20.548,21.8112,21.3449,314.999998,314.999998,324.999988,324.999988,99.5597,99.50725,99.56515714285715,99.5451,0.015499999999999847,-0.10333333333333328,-0.20466666666666666,0.02100000000000013,-0.04999999999999716,-0.027142857142855803,1.539,1.573,37.59,29.425333333333334,37.32,34.406,56.444,34.78,59.0235,51.722,54.348,33.9185,57.647999999999996,50.077,53.504000000000005,33.46,57.5995,49.49733333333333,-0.08250000000000002,-0.05799999999999983,0.10585000000000001,0.10840000000000001,0.0,208.51999999999998,208.44,205.44333333333333,205.44333333333333,0.0,0.0
8,0.0,1.0,0.0,1.0,1.0,0.0,0.0,1.0,0.0,100.0,1.0,1.1856,26.0,0.0,0.0,0.0,59.999996,0.0,26.0,26.0,26.0,26.0,-0.06466666666666665,0.28700000000000014,-0.025625000000000002,293.488,-2.6643499999999998,-2.711444444444444,-1.5514999999999999,-1.6054,-248.98,215.445,190.828875,0.0,0.0,0.0,0.0,0.017133333333333334,-5.498166666666667,-5.498166666666667,-0.5363,-0.09600000000000009,-0.03200000000000003,0.29800000000000004,66.709,-0.0636,-0.218925,0.23000000000000043,100.0,1.0,1.0,205.87333333333333,0.0,0.0,0.0,0.0,0.0,0.0,0.0,8726.2,0.0,55.0,5.0,240.12333333333333,0.0,0.0,0.0,0.0,0.0,0.0,0.0,0.0,0.40800000000000125,0.40800000000000125,0.0,0.0,0.0,55.0,616.79921,10000.0,85.000001,85.000001,85.000001,85.000001,395.0,0.0,0.0,0.0,1.0,166.665,53.329,53.329,48.462,48.462,34.0,-24.525,22.33,-30.669999999999998,25.16,0.0,1783.302,-0.14999999999999858,100.0,27.56,26.919,42.722,41.857,0.0,1.0,100.0,0.0,0.0,0.0,0.0,3004.0,3037.7,4039.8888888888887,3996.2,305.623,305.1963333333333,314.961,314.91575,21.8643,20.5533,21.8217,21.3539,314.999998,314.999998,324.999988,324.999988,99.55971428571429,99.50726666666667,99.56531428571428,99.54524285714285,0.0365000000000002,-0.09266666666666667,-0.1688333333333334,0.05600000000000005,-0.02833333333332888,-0.06857142857143117,1.5434999999999999,1.567,37.652,29.458333333333336,37.385999999999996,34.462,56.427,34.82,59.064,51.7845,54.332,33.9555,57.6855,50.1365,53.486999999999995,33.4955,57.634,49.556,-0.08450000000000002,-0.06150000000000011,0.108285,0.10455,0.0,208.93,208.91,205.87333333333333,205.87333333333333,0.0,0.0
9,0.0,1.0,0.0,1.0,1.0,0.0,0.0,1.0,0.0,100.0,1.0,1.1856,26.0,0.0,0.0,0.0,59.999996,0.0,26.0,26.0,26.0,26.0,-0.03311111111111109,0.28910000000000013,-0.007725,293.274,-2.66945,-2.7233333333333336,-1.5164,-1.562,-245.98,215.44,190.8105,0.0,0.0,0.0,0.0,0.018866666666666587,-5.498166666666667,-5.498166666666667,-0.5346000000000001,0.15249999999999986,-0.04366666666666674,-0.623,66.836,-0.050300000000000004,-0.212675,0.16600000000000037,100.0,1.0,1.0,206.24333333333334,0.0,0.0,0.0,0.0,0.0,0.0,0.0,8741.9,0.0,55.0,5.0,240.58333333333331,1.0,0.0,0.0,0.0,0.0,0.0,0.0,0.0,0.4529999999999994,0.4529999999999994,0.0,0.0,1.0,55.0,616.79921,10000.0,85.000001,85.000001,85.000001,85.000001,395.0,0.0,0.0,0.0,1.0,333.33500000000004,53.04,53.04,48.66,48.66,34.0,-26.425,22.259999999999998,-30.169999999999998,25.295,0.0,1783.256,-0.26500000000000057,100.0,27.573,27.076999999999998,42.585,41.982,0.0,1.0,100.0,0.0,0.0,0.0,0.0,3224.714285714286,2948.9,4097.666666666667,4055.2,305.142,305.30966666666666,314.87775,314.74,21.873,20.558,21.831,21.3618,314.999998,314.999998,324.999988,324.999988,99.55971428571429,99.50726666666667,99.56544285714286,99.54537142857143,0.03725000000000023,-0.08266666666666667,-0.15816666666666657,0.05933333333333324,-0.07333333333333059,-0.044285714285713595,1.5345,1.552,37.706,29.487333333333332,37.443,34.510999999999996,56.414,34.8545,59.0995,51.8375,54.319,33.987,57.7185,50.188,53.474000000000004,33.525999999999996,57.664500000000004,49.606,-0.09450000000000003,-0.04850000000000021,0.10262,0.11286500000000001,0.0,209.36,209.315,206.24333333333334,206.24333333333334,0.0,0.0
10,0.0,1.0,0.0,1.0,1.0,0.0,0.0,1.0,0.0,100.0,1.0,1.1856,26.0,0.0,0.0,0.0,59.999996,0.0,26.0,26.0,26.0,26.0,-0.03533333333333333,0.29510000000000014,0.012125,293.182,-2.67165,-2.706777777777778,-1.5522,-1.5507,-242.56,215.4325,190.789625,0.0,0.0,0.0,0.0,0.02086666666666659,-5.498166666666667,-5.498166666666667,-0.5295,-0.1419999999999999,-0.01866666666666683,1.5790000000000002,66.981,-0.0354,-0.21065,-0.08799999999999919,100.0,1.0,1.0,206.60333333333335,0.0,0.0,0.0,0.0,0.0,0.0,0.0,8757.1,0.0,55.0,5.0,241.10333333333335,0.0,0.0,0.0,0.0,0.0,0.0,1.0,0.0,0.5040000000000013,0.5040000000000013,0.0,0.0,0.0,55.0,616.79921,10000.0,85.000001,85.000001,85.000001,85.000001,395.0,0.0,0.0,0.0,1.0,333.33500000000004,53.299,53.299,48.385999999999996,48.385999999999996,34.0,-23.645,23.11,-29.473333333333333,27.9425,0.0,1783.204,-0.36499999999999844,100.0,27.733,26.905,42.766999999999996,42.147,0.0,1.0,100.0,0.0,0.0,0.0,0.0,3001.714285714286,3022.2,4105.777777777777,4265.1,305.6065,305.286,314.77825,314.305,21.8829,20.563299999999998,21.8415,21.3708,314.999998,314.999998,324.999988,324.999988,99.55971428571429,99.50728333333333,99.56558571428572,99.54551428571429,0.060249999999999915,-0.06833333333333313,-0.13116666666666665,0.08150000000000013,-0.03166666666666629,-0.06714285714285495,1.5375,1.5235,37.768,29.520333333333333,37.509,34.567499999999995,56.397999999999996,34.8945,59.1425,51.903999999999996,54.304,34.0245,57.759,50.251999999999995,53.458,33.5615,57.702,49.66866666666667,-0.09899999999999998,-0.046499999999999986,0.09531,0.10321500000000002,0.0,209.765,209.78,206.60333333333335,206.60333333333335,0.0,0.0
11,0.0,1.0,0.0,1.0,1.0,0.0,0.0,1.0,0.0,100.0,1.0,1.1856,26.0,0.0,0.0,0.0,59.999996,0.0,26.0,26.0,26.0,26.0,-0.012666666666666604,0.2921,-0.03155,293.472,-2.68475,-2.6974444444444443,-1.5622,-1.5219,-238.94,215.425,190.767375,0.0,0.0,0.0,0.0,0.022599999999999953,-5.498166666666667,-5.498166666666667,-0.5503,-0.24299999999999988,0.0076666666666667105,0.8580000000000001,67.131,-0.0196,-0.22375,-0.30799999999999983,100.0,1.0,1.0,207.17666666666668,0.0,0.0,0.0,0.0,0.0,0.0,0.0,8781.5,0.0,55.0,5.0,241.64333333333335,1.0,0.0,0.0,0.0,0.0,0.0,1.0,0.0,0.5579999999999998,0.5579999999999998,0.0,0.0,1.0,55.0,616.79921,10000.0,85.000001,85.000001,85.000001,85.000001,395.0,0.0,0.0,0.0,1.0,166.665,53.253,53.253,48.843,48.843,34.0,-23.365,24.336,-27.186666666666664,26.82,0.0,1783.152,-0.8299999999999983,100.0,27.42,26.96,42.518,42.204,0.0,1.0,100.0,0.0,0.0,0.0,0.0,3007.0,3120.4,3893.3333333333335,4100.9,305.628,304.9716666666667,315.332,314.706,21.8932,20.5689,21.8525,21.3803,314.999998,314.999998,324.999988,324.999988,99.55972857142856,99.50728333333333,99.56572857142856,99.54565714285714,0.06999999999999984,-0.058333333333333126,-0.124,0.09616666666666673,-0.046666666666666856,-0.047142857142851824,1.5855,1.5715000000000001,37.832,29.555666666666667,37.578,34.626999999999995,56.382,34.9325,59.1805,51.966,54.289,34.059,57.794,50.311,53.442,33.595,57.734,49.72666666666667,-0.11149999999999993,-0.03600000000000003,0.10584500000000001,0.10135500000000001,0.0,210.23000000000002,210.21,207.17666666666668,207.17666666666668,0.0,0.0
12,0.0,1.0,0.0,1.0,1.0,0.0,0.0,1.0,0.0,100.0,1.0,1.1856,26.0,0.0,0.0,0.0,59.999996,0.0,26.0,26.0,26.0,26.0,-0.01244444444444448,0.28480000000000016,0.0023,293.137,-2.7237999999999998,-2.679666666666667,-1.5623,-1.5359,-235.92000000000002,215.41750000000002,190.748125,0.0,0.0,0.0,0.0,0.025466666666666526,-5.498166666666667,-5.498166666666667,-0.5436,0.39349999999999996,0.010222222222222133,-0.5860000000000001,67.257,-0.0008,-0.20672500000000002,-0.41000000000000014,100.0,1.0,1.0,207.50666666666666,0.0,0.0,0.0,0.0,0.0,0.0,0.0,8795.5,0.0,55.0,5.0,242.09333333333336,0.0,0.0,0.0,0.0,0.0,0.0,1.0,0.0,0.602999999999998,0.602999999999998,0.0,0.0,0.0,55.0,616.79921,10000.0,85.000001,85.000001,85.000001,85.000001,395.0,0.0,0.0,0.0,1.0,166.665,52.933,52.933,48.34,48.34,34.0,-26.595,21.787999999999997,-28.63,28.21,0.0,1783.107,0.8550000000000004,100.0,27.398,27.426000000000002,42.278,42.293,0.0,1.0,100.0,0.0,0.0,0.0,0.0,3120.857142857143,3065.4,4128.444444444444,4156.6,305.452,304.948,314.83725,314.5315,21.9018,20.5737,21.8617,21.3882,314.999998,314.999998,324.999988,324.999988,99.55974285714285,99.5073,99.56585714285714,99.54578571428571,0.021749999999999936,-0.10899999999999999,-0.11149999999999993,0.10683333333333334,-0.03333333333333144,-0.05571428571428072,1.5455,1.5355,37.885999999999996,29.58566666666667,37.635,34.6765,56.370000000000005,34.966,59.214,52.0195,54.278,34.0905,57.8255,50.363,53.43,33.625,57.7625,49.77733333333333,-0.04049999999999998,-0.11299999999999999,0.11327500000000001,0.10191000000000001,0.0,210.625,210.65,207.50666666666666,207.50666666666666,0.0,0.0
13,0.0,1.0,0.0,1.0,1.0,0.0,0.0,1.0,0.0,100.0,1.0,1.1856,26.0,0.0,0.0,0.0,59.999996,0.0,26.0,26.0,26.0,26.0,0.038555555555555676,0.2845,0.0241,292.801,-2.6835,-2.703888888888889,-1.5542,-1.5479,-232.48,215.41,190.7265,0.0,0.0,0.0,0.0,0.026699999999999946,-5.498166666666667,-5.498166666666667,-0.5377000000000001,-0.22100000000000009,0.006111111111110956,1.291,67.4,0.0037,-0.21335,-0.3700000000000001,100.0,1.0,1.0,207.86333333333334,0.0,0.0,0.0,0.0,0.0,0.0,0.0,8810.5,0.0,55.0,5.0,242.61,1.0,0.0,0.0,0.0,0.0,0.0,1.0,0.0,0.6539999999999999,0.6539999999999999,0.0,0.0,1.0,55.0,616.79921,10000.0,85.000001,85.000001,85.000001,85.000001,395.0,0.0,0.0,0.0,1.0,166.665,52.826,52.826,48.019,48.019,34.0,-21.7175,25.976,-28.316666666666663,30.29,0.0,1783.055,-0.3999999999999986,100.0,27.798000000000002,27.416,42.768,42.627,0.0,1.0,100.0,0.0,0.0,0.0,0.0,3031.285714285714,3109.3,4122.888888888889,4296.1,305.5355,305.001,314.7235,314.2345,21.9116,20.5792,21.8722,21.3974,314.999998,314.999998,324.999988,324.999988,99.55974285714285,99.5073,99.566,99.54594285714286,0.11474999999999991,-0.01766666666666672,-0.10233333333333339,0.11833333333333318,-0.03999999999999915,-0.047142857142851824,1.513,1.4945,37.947,29.619999999999997,37.701,34.7335,56.355999999999995,35.004999999999995,59.254999999999995,52.0835,54.265,34.1265,57.8635,50.424,53.416,33.6595,57.7975,49.837666666666664,-0.11949999999999994,-0.03049999999999997,0.11113500000000001,0.09938500000000001,0.0,211.06,211.06,207.86333333333334,207.86333333333334,0.0,0.0
14,0.0,1.0,0.0,1.0,1.0,0.0,0.0,1.0,0.0,100.0,1.0,1.1856,26.0,0.0,0.0,0.0,59.999996,0.0,26.0,26.0,26.0,26.0,0.03922222222222227,0.27590000000000003,-0.031125,293.045,-2.7089,-2.701777777777778,-1.5687,-1.5391,-229.04,215.405,190.705125,0.0,0.0,0.0,0.0,0.028699999999999948,-5.498166666666667,-5.498166666666667,-0.5509000000000001,-0.04899999999999993,0.021444444444444377,-0.41900000000000004,67.539,0.013000000000000001,-0.22660000000000002,-0.35999999999999943,100.0,1.0,1.0,208.39333333333332,0.0,0.0,0.0,0.0,0.0,0.0,0.0,8833.0,0.0,55.0,5.0,243.11333333333334,0.0,0.0,0.0,0.0,0.0,0.0,1.0,0.0,0.7049999999999983,0.7049999999999983,0.0,0.0,0.0,55.0,616.79921,10000.0,85.000001,85.000001,85.000001,85.000001,395.0,0.0,0.0,0.0,1.0,166.665,52.826,52.826,48.431,48.431,34.0,-23.56,24.404,-26.996666666666666,28.115000000000002,0.0,1783.003,-0.379999999999999,100.0,27.605,27.748,42.522999999999996,42.809,0.0,1.0,100.0,0.0,0.0,0.0,0.0,3093.5714285714284,3019.6,4000.6666666666665,4078.5,305.5425,305.03866666666664,315.1255,314.69775,21.9212,20.5847,21.8827,21.4064,314.999998,314.999998,324.999988,324.999988,99.55975714285714,99.5073,99.56614285714285,99.54608571428571,0.08450000000000024,-0.04266666666666663,-0.09833333333333338,0.11633333333333318,-0.045000000000001705,-0.047142857142851824,1.554,1.541,38.007999999999996,29.654333333333334,37.766999999999996,34.79,56.343,35.043,59.292500000000004,52.1455,54.251999999999995,34.161500000000004,57.8985,50.4835,53.402,33.693,57.829499999999996,49.896,-0.10699999999999998,-0.04600000000000026,0.10389500000000002,0.105895,0.0,211.485,211.51,208.39333333333332,208.39333333333332,0.0,0.0
15,0.0,1.0,0.0,1.0,1.0,0.0,0.0,1.0,0.0,100.0,1.0,1.1856,26.0,0.0,0.0,0.0,59.999996,0.0,26.0,26.0,26.0,26.0,0.0451111111111111,0.28200000000000003,-0.012875000000000001,292.923,-2.69575,-2.684,-1.5762,-1.5611000000000002,-225.8,215.3975,190.684625,0.0,0.0,0.0,0.0,0.03059999999999996,-5.498166666666667,-5.498166666666667,-0.5441,0.23150000000000004,0.026222222222222147,-0.8260000000000001,67.67099999999999,0.0218,-0.21350000000000002,-0.36599999999999966,100.0,1.0,1.0,208.76,0.0,0.0,0.0,0.0,0.0,0.0,0.0,8848.5,0.0,55.0,5.0,243.59,1.0,0.0,0.0,0.0,0.0,0.0,1.0,0.0,0.7530000000000001,0.7530000000000001,0.0,0.0,1.0,55.0,616.79921,10000.0,85.000001,85.000001,85.000001,85.000001,395.0,0.0,0.0,0.0,1.0,166.665,52.811,52.811,48.203,48.203,34.0,-22.9875,24.054000000000002,-27.536666666666665,29.767500000000002,0.0,1782.957,-0.23499999999999943,100.0,27.621,27.831,42.447,42.871,0.0,1.0,100.0,0.0,0.0,0.0,0.0,3080.0,3000.3,4106.111111111111,4133.4,305.58,305.0763333333333,314.88925,314.52325,21.9303,20.5899,21.8925,21.4149,314.999998,314.999998,324.999988,324.999988,99.55977142857142,99.50731666666667,99.56628571428571,99.54621428571429,0.09224999999999994,-0.04366666666666674,-0.08883333333333332,0.13149999999999995,-0.054999999999999716,-0.048571428571428044,1.5365,1.5305,38.065,29.686666666666667,37.828,34.8435,56.33,35.079,59.3285,52.204499999999996,54.239999999999995,34.195,57.9315,50.5405,53.388999999999996,33.725,57.86,49.95166666666667,-0.09699999999999998,-0.0535000000000001,0.10494500000000001,0.10765500000000001,0.0,211.91500000000002,211.91500000000002,208.76,208.76,0.0,0.0
16,0.0,1.0,0.0,1.0,1.0,0.0,0.0,1.0,0.0,100.0,1.0,1.1856,26.0,0.0,0.0,0.0,59.999996,0.0,26.0,26.0,26.0,26.0,0.04299999999999993,0.26660000000000017,-0.00125,292.74,-2.75785,-2.628,-1.5546,-1.5568,-222.14,215.39249999999998,190.66125,0.0,0.0,0.0,0.0,0.03273333333333339,-5.498166666666667,-5.498166666666667,-0.5532,-0.33599999999999985,0.02011111111111097,-0.9710000000000001,67.819,0.0196,-0.22407500000000002,-0.15399999999999991,100.0,1.0,1.0,209.19666666666666,0.0,0.0,0.0,0.0,0.0,0.0,0.0,8867.1,0.0,55.0,5.0,244.12333333333333,0.0,0.0,0.0,0.0,0.0,0.0,1.0,0.0,0.8069999999999986,0.8069999999999986,0.0,0.0,0.0,55.0,616.79921,10000.0,85.000001,85.000001,85.000001,85.000001,395.0,0.0,0.0,0.0,1.0,166.665,52.475,52.475,47.913,47.913,34.0,-24.325,25.252000000000002,-27.326666666666664,29.150000000000002,0.0,1782.902,-0.26500000000000057,100.0,27.505,27.901,42.681,43.068,0.0,1.0,100.0,0.0,0.0,0.0,0.0,3192.0,3140.5,4093.4444444444443,4032.1000000000004,305.296,304.7006666666667,314.89625,314.759,21.9404,20.5957,21.9036,21.424599999999998,314.999998,314.999998,324.999988,324.999988,99.55978571428571,99.50731666666667,99.56642857142857,99.54637142857143,0.09650000000000025,-0.032333333333333325,-0.09250000000000003,0.137,-0.04833333333333201,-0.04571428571428271,1.5434999999999999,1.5245,38.128,29.723333333333336,37.897,34.9035,56.315,35.1195,59.37,52.271,54.224999999999994,34.2325,57.9705,50.6045,53.373999999999995,33.760999999999996,57.8955,50.01433333333333,-0.09850000000000003,-0.05149999999999988,0.10477,0.111655,0.0,212.345,212.36,209.19666666666666,209.19666666666666,0.0,0.0
17,0.0,1.0,0.0,1.0,1.0,0.0,0.0,1.0,0.0,100.0,1.0,1.1856,26.0,0.0,0.0,0.0,59.999996,0.0,26.0,26.0,26.0,26.0,0.031777777777777905,0.27249999999999996,0.02995,292.48,-2.6236,-2.7184444444444447,-1.5028000000000001,-1.5197,-218.68,215.3875,190.639,0.0,0.0,0.0,0.0,0.034733333333333394,-5.498166666666667,-5.498166666666667,-0.5507000000000001,0.1815,0.0,0.30699999999999994,67.959,0.0151,-0.21702500000000002,-0.22200000000000042,100.0,1.0,1.0,209.59,0.0,0.0,0.0,0.0,0.0,0.0,0.0,8883.7,0.0,55.0,5.0,244.62333333333333,1.0,0.0,0.0,0.0,0.0,0.0,1.0,0.0,0.8580000000000005,0.8580000000000005,0.0,0.0,1.0,55.0,616.79921,10000.0,85.000001,85.000001,85.000001,85.000001,395.0,0.0,0.0,0.0,1.0,166.665,52.368,52.368,47.623,47.623,34.0,-22.2925,26.054000000000002,-27.28,30.675,0.0,1782.851,-0.16000000000000014,100.0,27.917,27.861,42.796,42.955,0.0,1.0,100.0,0.0,0.0,0.0,0.0,3050.142857142857,3164.8,4169.444444444444,4259.9,305.4415,304.648,314.6445,314.35325,21.95,20.6013,21.914,21.4337,314.999998,314.999998,324.999988,324.999988,99.5598,99.50731666666667,99.56658571428571,99.54651428571428,0.09375,-0.03766666666666674,-0.08916666666666662,0.13866666666666672,-0.03999999999999915,-0.03999999999999915,1.5070000000000001,1.4885,38.188,29.758333333333333,37.963,34.960499999999996,56.302,35.158500000000004,59.408,52.333,54.213,34.2685,58.0055,50.664,53.36,33.795500000000004,57.9275,50.073,-0.08949999999999991,-0.06550000000000011,0.10824,0.10548,0.0,212.78,212.79000000000002,209.59,209.59,0.0,0.0
18,0.0,1.0,0.0,1.0,1.0,0.0,0.0,1.0,0.0,100.0,1.0,1.1856,26.0,0.0,0.0,0.0,59.999996,0.0,26.0,26.0,26.0,26.0,0.02966666666666673,0.27070000000000016,0.036000000000000004,292.48,-2.6421,-2.751444444444444,-1.5308000000000002,-1.5909,-215.41,215.385,190.617875,0.0,0.0,0.0,0.0,0.036633333333333296,-5.498166666666667,-5.498166666666667,-0.56,-0.3340000000000001,-0.0023333333333335204,0.831,68.09,0.012700000000000001,-0.22465000000000002,-0.1639999999999997,100.0,1.0,1.0,209.96666666666667,0.0,0.0,0.0,0.0,0.0,0.0,0.0,8899.7,0.0,55.0,5.0,245.09333333333336,0.0,0.0,0.0,0.0,0.0,0.0,1.0,0.0,0.9059999999999988,0.9059999999999988,0.0,0.0,0.0,55.0,616.79921,10000.0,85.000001,85.000001,85.000001,85.000001,395.0,0.0,0.0,0.0,1.0,166.665,52.429,52.429,47.791,47.791,34.0,-22.6825,25.89,-27.48,31.3225,0.0,1782.803,-0.134999999999998,100.0,27.927,27.754,42.966,43.073,0.0,1.0,100.0,0.0,0.0,0.0,0.0,3073.5714285714284,3152.9,4079.1111111111113,4245.0,305.418,304.7323333333333,314.821,314.25675,21.959,20.6065,21.9239,21.4423,314.999998,314.999998,324.999988,324.999988,99.5598,99.50731666666667,99.56671428571428,99.54665714285714,0.09200000000000008,-0.04466666666666663,-0.09716666666666662,0.13116666666666688,-0.03333333333333144,-0.054285714285711606,1.4954999999999998,1.4925,38.244,29.790333333333333,38.024,35.013999999999996,56.289,35.194,59.445,52.3915,54.2,34.3015,58.04,50.7205,53.346000000000004,33.827,57.9595,50.12833333333333,-0.09199999999999986,-0.06349999999999989,0.107395,0.10552500000000001,0.0,213.175,213.185,209.96666666666667,209.96666666666667,0.0,0.0
19,0.0,1.0,0.0,1.0,1.0,0.0,0.0,1.0,0.0,100.0,1.0,1.1856,26.0,0.0,0.0,0.0,59.999996,0.0,26.0,26.0,26.0,26.0,0.03699999999999992,0.27170000000000005,0.0089,292.267,-2.6502,-2.706,-1.5342,-1.6069,-211.94,215.3825,190.595125,0.0,0.0,0.0,0.0,0.038666666666666516,-5.498166666666667,-5.498166666666667,-0.5518000000000001,0.5165,0.007777777777777883,-0.716,68.226,0.0058000000000000005,-0.215475,0.0420000000000007,100.0,1.0,1.0,210.40666666666667,0.0,0.0,0.0,0.0,0.0,0.0,0.0,8918.3,0.0,55.0,5.0,245.58666666666664,1.0,0.0,0.0,0.0,0.0,0.0,1.0,0.0,0.9570000000000007,0.9570000000000007,0.0,0.0,1.0,55.0,616.79921,10000.0,85.000001,85.000001,85.000001,85.000001,395.0,0.0,0.0,0.0,1.0,166.665,52.078,52.078,47.836,47.836,34.0,-23.91,23.787999999999997,-28.599999999999998,30.175,0.0,1782.752,-0.125,100.0,28.278,28.344,42.817,43.269,0.0,1.0,100.0,0.0,0.0,0.0,0.0,3158.714285714286,3016.1,4163.333333333333,4192.9,305.317,304.9823333333333,314.75075,314.3395,21.9687,20.612099999999998,21.9343,21.4514,314.999998,314.999998,324.999988,324.999988,99.55981428571428,99.50733333333334,99.56685714285715,99.5468,0.07850000000000001,-0.06033333333333313,-0.10799999999999998,0.11349999999999993,-0.03333333333333144,-0.04999999999999716,1.4994999999999998,1.5070000000000001,38.304,29.825666666666663,38.089,35.071,56.275999999999996,35.234,59.482,52.4535,54.188,34.338499999999996,58.0745,50.78,53.333,33.8625,57.991,50.18666666666667,-0.08799999999999986,-0.06800000000000006,0.103315,0.11358000000000001,0.0,213.635,213.635,210.40666666666667,210.40666666666667,0.0,0.0
20,0.0,1.0,0.0,1.0,1.0,0.0,0.0,1.0,0.0,100.0,1.0,1.1856,26.0,0.0,0.0,0.0,59.999996,0.0,26.0,26.0,26.0,26.0,0.011111111111111072,0.2619,-0.021325,292.374,-2.6988,-2.6526666666666667,-1.6059,-1.5918999999999999,-208.45,215.38,190.572625,0.0,0.0,0.0,0.0,0.04066666666666652,-5.498166666666667,-5.498166666666667,-0.5565,-0.7200000000000002,0.008000000000000007,0.536,68.364,0.0015,-0.227025,-0.016000000000000014,100.0,1.0,1.0,210.81333333333333,0.0,0.0,0.0,0.0,0.0,0.0,0.0,8935.7,0.0,55.0,5.0,246.08333333333334,0.0,0.0,0.0,0.0,0.0,0.0,0.0,0.0,1.0079999999999991,1.0079999999999991,0.0,0.0,0.0,55.0,616.79921,10000.0,85.000001,85.000001,85.000001,85.000001,395.0,0.0,0.0,0.0,1.0,166.665,52.444,52.444,47.424,47.424,34.0,-22.982499999999998,24.494,-29.223333333333333,28.825,0.0,1782.7,-0.16000000000000014,100.0,28.113,27.947,43.446,43.547,0.0,1.0,100.0,0.0,0.0,0.0,0.0,3028.4285714285716,3145.2,4117.111111111111,4074.6000000000004,305.5995,304.9123333333333,314.84775,314.6975,21.9781,20.6176,21.9449,21.4606,314.999998,314.999998,324.999988,324.999988,99.55982857142857,99.50735,99.567,99.54694285714285,0.08700000000000019,-0.05066666666666664,-0.10866666666666658,0.11349999999999993,-0.041666666666671404,-0.04571428571428271,1.51,1.5150000000000001,38.363,29.860333333333333,38.156,35.1285,56.260999999999996,35.2725,59.5225,52.516999999999996,54.174,34.374,58.1125,50.841,53.318,33.897,58.0255,50.24633333333333,-0.08850000000000002,-0.06850000000000023,0.10554500000000001,0.10545,0.0,214.025,214.035,210.81333333333333,210.81333333333333,0.0,0.0
21,0.0,1.0,0.0,1.0,1.0,0.0,0.0,1.0,0.0,100.0,1.0,1.1856,26.0,0.0,0.0,0.0,59.999996,0.0,26.0,26.0,26.0,26.0,-0.008888888888888946,0.2803,-0.0489,292.542,-2.7137000000000002,-2.669888888888889,-1.5647,-1.5349,-205.17000000000002,215.3775,190.551,0.0,0.0,0.0,0.0,0.04259999999999997,-5.498166666666667,-5.498166666666667,-0.5737,0.03349999999999986,-0.0013333333333331865,0.6270000000000002,68.49000000000001,-0.0024000000000000002,-0.22432500000000002,0.006000000000000227,100.0,1.0,1.0,211.3,0.0,0.0,0.0,0.0,0.0,0.0,0.0,8956.3,0.0,55.0,5.0,246.54000000000002,1.0,0.0,0.0,0.0,0.0,0.0,0.0,0.0,1.056000000000001,1.056000000000001,0.0,0.0,1.0,55.0,616.79921,10000.0,85.000001,85.000001,85.000001,85.000001,395.0,0.0,0.0,0.0,1.0,166.665,52.292,52.292,48.004,48.004,34.0,-24.38,25.298000000000002,-27.523333333333333,27.3775,0.0,1782.652,-0.21000000000000085,100.0,28.14,27.81,43.129,43.2,0.0,1.0,100.0,0.0,0.0,0.0,0.0,3131.4285714285716,3193.3,4020.777777777778,4052.1000000000004,305.301,304.7823333333333,315.068,314.86925,21.987099999999998,20.6229,21.9547,21.4691,314.999998,314.999998,324.999988,324.999988,99.55984285714285,99.50735,99.56714285714285,99.54708571428571,0.07900000000000018,-0.045333333333333226,-0.10699999999999998,0.11216666666666675,-0.03166666666666629,-0.06285714285714761,1.5725,1.5825,38.419,29.892666666666663,38.217,35.1815,56.248000000000005,35.309,59.557,52.573,54.161,34.408,58.144,50.894999999999996,53.305,33.9295,58.0545,50.299,-0.09149999999999991,-0.05699999999999994,0.10155,0.10844000000000001,0.0,214.435,214.435,211.3,211.3,0.0,0.0
22,0.0,1.0,0.0,1.0,1.0,0.0,0.0,1.0,0.0,100.0,1.0,1.1856,26.0,0.0,0.0,0.0,59.999996,0.0,26.0,26.0,26.0,26.0,-0.0023333333333332984,0.2845,0.024300000000000002,292.084,-2.7592499999999998,-2.662888888888889,-1.5977000000000001,-1.5339,-201.67000000000002,215.375,190.52725,0.0,0.0,0.0,0.0,0.0446333333333333,-5.498166666666667,-5.498166666666667,-0.5579000000000001,0.04400000000000004,0.0032222222222222374,-0.6279999999999999,68.628,-0.0037,-0.20065000000000002,-0.043999999999999595,100.0,1.0,1.0,211.56333333333333,0.0,0.0,0.0,0.0,0.0,0.0,0.0,8967.3,0.0,55.0,5.0,247.03333333333336,0.0,0.0,0.0,0.0,0.0,0.0,0.0,0.0,1.1069999999999993,1.1069999999999993,0.0,0.0,0.0,55.0,616.79921,10000.0,85.000001,85.000001,85.000001,85.000001,395.0,0.0,0.0,0.0,1.0,166.665,52.353,52.353,47.104,47.104,34.0,-25.4975,23.982,-31.873333333333335,29.815,0.0,1782.603,-0.3150000000000013,100.0,27.995,28.07,43.201,43.376,0.0,1.0,100.0,0.0,0.0,0.0,0.0,3208.857142857143,3069.0,4350.333333333333,4351.4,305.3225,304.987,314.3455,314.07025,21.9967,20.6284,21.9652,21.4782,314.999998,314.999998,324.999988,324.999988,99.55985714285714,99.50735,99.56728571428572,99.54722857142858,0.07224999999999993,-0.05366666666666675,-0.121,0.10183333333333322,-0.041666666666671404,-0.054285714285711606,1.476,1.48,38.479,29.927666666666667,38.283,35.2385,56.233999999999995,35.348,59.596000000000004,52.635,54.147999999999996,34.444,58.181,50.954499999999996,53.291,33.964,58.088,50.35733333333333,-0.09699999999999998,-0.05500000000000016,0.10646000000000001,0.10350500000000001,0.0,214.88,214.87,211.56333333333333,211.56333333333333,0.0,0.0
23,0.0,1.0,0.0,1.0,1.0,0.0,0.0,1.0,0.0,100.0,1.0,1.1856,26.0,0.0,0.0,0.0,59.999996,0.0,26.0,26.0,26.0,26.0,-0.004888888888888943,0.27180000000000004,0.023725,292.007,-2.6534,-2.690777777777778,-1.6349,-1.5102,-198.17000000000002,215.3725,190.50375,0.0,0.0,0.0,0.0,0.04666666666666652,-5.498166666666667,-5.498166666666667,-0.5727,-0.26400000000000023,0.004555555555555646,0.6930000000000001,68.763,0.0,-0.2248,-0.14399999999999924,100.0,1.0,1.0,212.03,0.0,0.0,0.0,0.0,0.0,0.0,0.0,8987.2,0.0,55.0,5.0,247.51666666666665,1.0,0.0,0.0,0.0,0.0,0.0,0.0,0.0,1.1580000000000013,1.1580000000000013,0.0,0.0,1.0,55.0,616.79921,10000.0,85.000001,85.000001,85.000001,85.000001,395.0,0.0,0.0,0.0,1.0,166.665,51.987,51.987,47.409,47.409,34.0,-23.5425,25.216,-30.593333333333334,29.7425,0.0,1782.552,-0.28999999999999915,100.0,28.433,28.070999999999998,43.489000000000004,43.506,0.0,1.0,100.0,0.0,0.0,0.0,0.0,3150.714285714286,3155.0,4205.0,4227.8,305.164,304.81266666666664,314.65625,314.44275,22.0063,20.6341,21.9757,21.4874,314.999998,314.999998,324.999988,324.999988,99.55985714285714,99.50736666666667,99.56744285714285,99.54738571428571,0.09149999999999991,-0.046333333333333115,-0.11283333333333334,0.13016666666666676,-0.030000000000001137,-0.07000000000000028,1.5110000000000001,1.5110000000000001,38.539,29.963,38.348,35.2965,56.221000000000004,35.3875,59.635,52.6975,54.135,34.4805,58.217,51.0145,53.277,33.999,58.121,50.416,-0.10250000000000004,-0.052999999999999936,0.11068000000000001,0.117595,0.0,215.265,215.285,212.03,212.03,0.0,0.0
24,0.0,1.0,0.0,1.0,1.0,0.0,0.0,1.0,0.0,100.0,1.0,1.1856,26.0,0.0,0.0,0.0,59.999996,0.0,26.0,26.0,26.0,26.0,0.017888888888888843,0.2764,-0.018875,292.389,-2.6841,-2.669888888888889,-1.5437,-1.5614,-195.07,215.37,190.4825,0.0,0.0,0.0,0.0,0.04846666666666655,-5.498166666666667,-5.498166666666667,-0.5845,-0.3210000000000002,0.010000000000000009,-0.28400000000000003,68.882,0.0024000000000000002,-0.22285000000000002,-0.13999999999999968,100.0,1.0,1.0,212.39666666666668,0.0,0.0,0.0,0.0,0.0,0.0,0.0,9002.7,0.0,55.0,5.0,247.94666666666666,0.0,0.0,0.0,0.0,0.0,0.0,0.0,0.0,1.2029999999999994,1.2029999999999994,0.0,0.0,0.0,55.0,616.79921,10000.0,85.000001,85.000001,85.000001,85.000001,395.0,0.0,0.0,0.0,1.0,333.33500000000004,52.673,52.673,47.409,47.409,34.0,-23.107499999999998,23.124000000000002,-29.52,28.5825,0.0,1782.505,-0.254999999999999,100.0,28.08,28.015,43.311,43.525,0.0,1.0,100.0,0.0,0.0,0.0,0.0,3072.4285714285716,2982.9,4219.666666666667,4115.2,305.615,305.23266666666666,314.59,314.62,22.0147,20.6389,21.9849,21.4955,314.999998,314.999998,324.999988,324.999988,99.55987142857143,99.50736666666667,99.56757142857143,99.54751428571429,0.08650000000000002,-0.057666666666666755,-0.11483333333333334,0.11016666666666675,-0.051666666666669414,-0.04999999999999716,1.527,1.5145,38.592,29.993333333333332,38.406,35.347,56.209,35.420500000000004,59.6685,52.751,54.123999999999995,34.510999999999996,58.248,51.066,53.265,34.0285,58.149,50.46666666666667,-0.10799999999999987,-0.059499999999999886,0.10340500000000001,0.109895,0.0,215.635,215.64499999999998,212.39666666666668,212.39666666666668,0.0,0.0
25,0.0,1.0,0.0,1.0,1.0,0.0,0.0,1.0,0.0,100.0,1.0,1.1856,26.0,0.0,0.0,0.0,59.999996,0.0,26.0,26.0,26.0,26.0,0.02400000000000002,0.2653000000000001,-0.0188,292.16,-2.684,-2.645666666666667,-1.5894,-1.554,-191.35,215.37,190.45575,0.0,0.0,0.0,0.0,0.05063333333333331,-5.498166666666667,-5.498166666666667,-0.6013000000000001,0.119,0.018111111111110967,-0.929,69.022,0.0046,-0.218675,-0.18200000000000038,100.0,1.0,1.0,212.88333333333333,0.0,0.0,0.0,0.0,0.0,0.0,0.0,9023.3,0.0,55.0,5.0,248.45333333333335,1.0,0.0,0.0,0.0,0.0,0.0,0.0,0.0,1.256999999999998,1.256999999999998,0.0,0.0,1.0,55.0,616.79921,10000.0,85.000001,85.000001,85.000001,85.000001,395.0,0.0,0.0,0.0,1.0,166.665,51.788,51.788,47.729,47.729,34.0,-25.1025,25.951999999999998,-28.11,28.925,0.0,1782.452,-0.2749999999999986,100.0,28.02,28.221,43.085,43.325,0.0,1.0,100.0,0.0,0.0,0.0,0.0,3294.714285714286,3249.7,4085.3333333333335,4116.6,304.935,304.399,315.00725,314.62625,22.0247,20.6449,21.9959,21.5051,314.999998,314.999998,324.999988,324.999988,99.55987142857143,99.50738333333334,99.56771428571429,99.54767142857143,0.08650000000000002,-0.043333333333333224,-0.10150000000000003,0.1206666666666667,-0.051666666666669414,-0.048571428571428044,1.5505,1.5395,38.653999999999996,30.030666666666665,38.474000000000004,35.407,56.194,35.4625,59.7065,52.8145,54.108999999999995,34.5495,58.283500000000004,51.1275,53.248999999999995,34.065,58.1815,50.526666666666664,-0.10299999999999998,-0.05149999999999988,0.10221000000000001,0.10551,0.0,216.07,216.085,212.88333333333333,212.88333333333333,0.0,0.0
26,0.0,1.0,0.0,1.0,1.0,0.0,0.0,1.0,0.0,100.0,1.0,1.1856,26.0,0.0,0.0,0.0,59.999996,0.0,26.0,26.0,26.0,26.0,0.02444444444444427,0.27490000000000014,0.0522,291.443,-2.7053,-2.729888888888889,-1.5502,-1.5587,-188.03,215.3675,190.43175,0.0,0.0,0.0,0.0,0.05256666666666654,-5.498166666666667,-5.498166666666667,-0.5746,0.40900000000000003,0.004111111111110954,-0.7010000000000001,69.15,0.0092,-0.2015,-0.16000000000000014,100.0,1.0,1.0,213.08333333333331,0.0,0.0,0.0,0.0,0.0,0.0,0.0,9031.9,0.0,55.0,5.0,248.91333333333336,0.0,0.0,0.0,0.0,0.0,0.0,0.0,0.0,1.3049999999999997,1.3049999999999997,0.0,0.0,0.0,55.0,616.79921,10000.0,85.000001,85.000001,85.000001,85.000001,395.0,0.0,0.0,0.0,1.0,166.665,51.757999999999996,51.757999999999996,46.646,46.646,34.0,-24.9225,23.817999999999998,-31.756666666666664,31.98,0.0,1782.405,-0.26500000000000057,100.0,28.639,28.62,43.478,43.727000000000004,0.0,1.0,100.0,0.0,0.0,0.0,0.0,3267.5714285714284,2990.3,4487.111111111111,4438.3,305.093,305.10966666666667,313.966,313.82775,22.0338,20.6503,22.0058,21.5139,314.999998,314.999998,324.999988,324.999988,99.55988571428571,99.50738333333334,99.56785714285714,99.5478,0.08775000000000022,-0.058333333333333126,-0.10533333333333339,0.1166666666666667,-0.04833333333333201,-0.054285714285711606,1.438,1.445,38.711,30.064333333333334,38.536,35.4615,56.183,35.5005,59.7445,52.874,54.099000000000004,34.5845,58.319,51.1845,53.238,34.099000000000004,58.214,50.58266666666667,-0.09949999999999992,-0.0625,0.106315,0.10315,0.0,216.5,216.515,213.08333333333331,213.08333333333331,0.0,0.0
27,0.0,1.0,0.0,1.0,1.0,0.0,0.0,1.0,0.0,100.0,1.0,1.1856,26.0,0.0,0.0,0.0,59.999996,0.0,26.0,26.0,26.0,26.0,0.031444444444444386,0.24490000000000012,-0.034275,291.824,-2.75395,-2.668333333333333,-1.6124,-1.5390000000000001,-184.70999999999998,215.3675,190.408625,0.0,0.0,0.0,0.0,0.05446666666666655,-5.498166666666667,-5.498166666666667,-0.5946,-0.8355000000000001,0.015333333333333199,-0.5740000000000001,69.274,0.0094,-0.23535,-0.137999999999999,100.0,1.0,1.0,213.58333333333331,0.0,0.0,0.0,0.0,0.0,0.0,0.0,9053.0,0.0,55.0,5.0,249.36,1.0,0.0,0.0,0.0,0.0,0.0,0.0,0.0,1.352999999999998,1.352999999999998,0.0,0.0,1.0,55.0,616.79921,10000.0,85.000001,85.000001,85.000001,85.000001,395.0,0.0,0.0,0.0,1.0,333.33500000000004,51.971000000000004,51.971000000000004,46.692,46.692,34.0,-24.2125,24.68,-29.936666666666664,28.45,0.0,1782.355,-0.3249999999999993,100.0,28.347,28.601,43.957,44.132000000000005,0.0,1.0,100.0,0.0,0.0,0.0,0.0,3145.5714285714284,3113.9,4175.777777777777,4079.1000000000004,305.5145,304.782,314.76425,314.76375,22.0427,20.6556,22.0158,21.5227,314.999998,314.999998,324.999988,324.999988,99.5599,99.5074,99.568,99.54794285714286,0.08800000000000008,-0.050000000000000044,-0.11083333333333334,0.11949999999999994,-0.046666666666666856,-0.034285714285715585,1.501,1.504,38.766999999999996,30.097666666666665,38.599000000000004,35.5165,56.171,35.537,59.782,52.933,54.087,34.6185,58.354,51.2415,53.225,34.1315,58.2455,50.638333333333335,-0.10199999999999987,-0.06050000000000022,0.11042500000000001,0.103885,0.0,216.835,216.835,213.58333333333331,213.58333333333331,0.0,0.0
28,0.0,1.0,0.0,1.0,1.0,0.0,0.0,1.0,0.0,100.0,1.0,1.1856,26.0,0.0,0.0,0.0,59.999996,0.0,26.0,26.0,26.0,26.0,0.03544444444444439,0.2763,-0.052325,291.901,-2.6801,-2.656111111111111,-1.6239,-1.5701,-180.95999999999998,215.3675,190.381625,0.0,0.0,0.0,0.0,0.05666666666666653,-5.498166666666667,-5.498166666666667,-0.6003000000000001,0.5549999999999999,0.0005555555555556424,-1.0619999999999998,69.412,0.010100000000000001,-0.2151,-0.2079999999999993,100.0,1.0,1.0,214.06666666666666,0.0,0.0,0.0,0.0,0.0,0.0,0.0,9073.6,0.0,55.0,5.0,249.85666666666668,0.0,0.0,0.0,0.0,0.0,0.0,0.0,0.0,1.407,1.407,0.0,0.0,0.0,55.0,616.79921,10000.0,85.000001,85.000001,85.000001,85.000001,395.0,0.0,0.0,0.0,1.0,166.665,51.879999999999995,51.879999999999995,47.195,47.195,34.0,-23.38,24.561999999999998,-29.653333333333336,29.0975,0.0,1782.301,-0.384999999999998,100.0,28.47,28.598,43.463,43.771,0.0,1.0,100.0,0.0,0.0,0.0,0.0,3170.285714285714,3091.6,4215.666666666667,4127.0,305.3385,304.849,314.76925,314.66325,22.0527,20.6617,22.026699999999998,21.5323,314.999998,314.999998,324.999988,324.999988,99.55991428571429,99.5074,99.56815714285715,99.5481,0.0990000000000002,-0.045666666666666744,-0.10250000000000004,0.11966666666666681,-0.04999999999999716,-0.05285714285714249,1.55,1.548,38.829,30.135666666666665,38.667,35.577,56.158,35.579,59.8185,52.996,54.074,34.6575,58.388,51.302,53.212,34.169,58.2765,50.69766666666666,-0.10749999999999993,-0.05449999999999999,0.10631000000000002,0.10511500000000001,0.0,217.29500000000002,217.305,214.06666666666666,214.06666666666666,0.0,0.0
29,0.0,1.0,0.0,1.0,1.0,0.0,0.0,1.0,0.0,100.0,1.0,1.1856,26.0,0.0,0.0,0.0,59.999996,0.0,26.0,26.0,26.0,26.0,0.04066666666666685,0.2522,-0.008025000000000001,291.809,-2.6597,-2.718,-1.5682,-1.5509,-177.63,215.3675,190.35675,0.0,0.0,0.0,0.0,0.058599999999999985,-5.498166666666667,-5.498166666666667,-0.6046,-0.665,-0.000888888888888939,-0.688,69.538,0.012,-0.21327500000000002,-0.2679999999999998,100.0,1.0,1.0,214.30666666666667,0.0,0.0,0.0,0.0,0.0,0.0,0.0,9083.6,0.0,55.0,5.0,250.31333333333333,1.0,0.0,0.0,0.0,0.0,0.0,0.0,0.0,1.4549999999999983,1.4549999999999983,0.0,0.0,1.0,55.0,616.79921,10000.0,85.000001,85.000001,85.000001,85.000001,395.0,0.0,0.0,0.0,1.0,333.33500000000004,52.353,52.353,46.677,46.677,34.0,-22.669999999999998,24.240000000000002,-29.026666666666664,30.1575,0.0,1782.253,-0.40500000000000114,100.0,28.142,28.41,43.856,44.064,0.0,1.0,100.0,0.0,0.0,0.0,0.0,3113.4285714285716,2994.3,4230.666666666667,4267.0,305.5755,305.1333333333333,314.56925,314.23225,22.0614,20.667,22.0366,21.5411,314.999998,314.999998,324.999988,324.999988,99.55994285714286,99.5074,99.5683,99.54824285714285,0.09799999999999986,-0.045333333333333226,-0.09233333333333338,0.11383333333333323,-0.03499999999999659,-0.028571428571432023,1.471,1.476,38.884,30.168666666666667,38.729,35.6315,56.144,35.6165,59.8585,53.059,54.061,34.692499999999995,58.4255,51.3625,53.197,34.2025,58.3105,50.75633333333333,-0.11149999999999993,-0.047499999999999876,0.10251500000000001,0.0999,0.0,217.65,217.67000000000002,214.30666666666667,214.30666666666667,0.0,0.0
30,0.0,1.0,0.0,1.0,1.0,0.0,0.0,1.0,0.0,100.0,1.0,1.1856,26.0,0.0,0.0,0.0,59.999996,0.0,26.0,26.0,26.0,26.0,0.06233333333333335,0.24860000000000015,-0.00905,291.199,-2.635,-2.720666666666667,-1.6404,-1.6009,-174.29,215.37,190.331875,0.0,0.0,0.0,0.0,0.06053333333333333,-5.498166666666667,-5.498166666666667,-0.608,0.6970000000000001,0.0013333333333331865,-0.3839999999999999,69.65899999999999,0.013900000000000001,-0.218925,-0.3279999999999994,100.0,1.0,1.0,214.82333333333332,0.0,0.0,0.0,0.0,0.0,0.0,0.0,9105.6,0.0,55.0,5.0,250.74666666666667,0.0,0.0,0.0,0.0,0.0,0.0,1.0,0.0,1.5030000000000001,1.5030000000000001,0.0,0.0,0.0,55.0,616.79921,10000.0,85.000001,85.000001,85.000001,85.000001,395.0,0.0,0.0,0.0,1.0,333.33500000000004,50.461,50.461,47.241,47.241,34.0,-25.5125,28.214,-28.956666666666663,29.635,0.0,1782.205,-0.40500000000000114,100.0,28.974,28.994,43.591,44.006,0.0,1.0,100.0,0.0,0.0,0.0,0.0,3497.142857142857,3377.2,4163.555555555556,4064.5,304.4055,303.9483333333333,314.95275,314.72775,22.0705,20.6726,22.0464,21.5497,314.999998,314.999998,324.999988,324.999988,99.55994285714286,99.5074,99.56844285714286,99.54837142857143,0.1030000000000002,-0.038000000000000034,-0.09233333333333338,0.12816666666666676,-0.06333333333333258,-0.047142857142851824,1.5245,1.5230000000000001,38.94,30.203666666666663,38.79,35.686,56.135999999999996,35.653,59.8895,53.112,54.054,34.726,58.454,51.4135,53.189,34.2345,58.337,50.806333333333335,-0.12149999999999994,-0.0495000000000001,0.09570500000000001,0.10879000000000001,0.0,218.075,218.07,214.82333333333332,214.82333333333332,0.0,0.0
31,0.0,1.0,0.0,1.0,1.0,0.0,0.0,1.0,0.0,100.0,1.0,1.1856,26.0,0.0,0.0,0.0,59.999996,0.0,26.0,26.0,26.0,26.0,0.03299999999999992,0.25350000000000006,0.07255,290.726,-2.77205,-2.6213333333333333,-1.6454,-1.5437,-170.51999999999998,215.3725,190.3045,0.0,0.0,0.0,0.0,0.06273333333333331,-5.498166666666667,-5.498166666666667,-0.5864,-0.39449999999999985,0.013333333333333197,-0.722,69.8,0.0184,-0.2194,-0.3039999999999994,100.0,1.0,1.0,215.04000000000002,0.0,0.0,0.0,0.0,0.0,0.0,0.0,9114.8,0.0,55.0,5.0,251.25333333333333,1.0,0.0,0.0,0.0,0.0,0.0,1.0,0.0,1.5569999999999986,1.5569999999999986,0.0,0.0,1.0,55.0,616.79921,10000.0,85.000001,85.000001,85.000001,85.000001,395.0,0.0,0.0,0.0,1.0,166.665,51.041,51.041,45.624,45.624,34.0,-24.705,26.406,-31.543333333333333,31.75,0.0,1782.153,-0.41999999999999815,100.0,28.878,29.256999999999998,44.384,44.823,0.0,1.0,100.0,0.0,0.0,0.0,0.0,3255.142857142857,3288.7,4357.555555555556,4352.3,305.1915,304.33566666666667,314.26425,313.95925,22.0804,20.6787,22.0576,21.5598,314.999998,314.999998,324.999988,324.999988,99.55995714285714,99.50741666666667,99.5686,99.54854285714286,0.10349999999999993,-0.03533333333333322,-0.09450000000000003,0.12516666666666687,-0.045000000000001705,-0.047142857142851824,1.4329999999999998,1.4225,39.003,30.242333333333335,38.86,35.7485,56.123999999999995,35.695499999999996,59.9335,53.181,54.042,34.7655,58.495,51.4795,53.176,34.2725,58.374,50.87133333333333,-0.11299999999999999,-0.0495000000000001,0.09954,0.10415500000000001,0.0,218.47500000000002,218.485,215.04000000000002,215.04000000000002,0.0,0.0
32,0.0,1.0,0.0,1.0,1.0,0.0,0.0,1.0,0.0,100.0,1.0,1.1856,26.0,0.0,0.0,0.0,59.999996,0.0,26.0,26.0,26.0,26.0,0.0387777777777778,0.27070000000000016,-0.012950000000000001,291.275,-2.7007,-2.680111111111111,-1.5882,-1.5488,-167.17000000000002,215.375,190.2805,0.0,0.0,0.0,0.0,0.06466666666666654,-5.498166666666667,-5.498166666666667,-0.6048,-0.3045,-0.0058888888888888324,-0.99,69.919,0.0211,-0.230975,-0.31599999999999984,100.0,1.0,1.0,215.54333333333335,0.0,0.0,0.0,0.0,0.0,0.0,0.0,9136.1,0.0,55.0,5.0,251.68333333333334,0.0,0.0,0.0,0.0,0.0,0.0,1.0,0.0,1.6050000000000004,1.6050000000000004,0.0,0.0,0.0,55.0,616.79921,10000.0,85.000001,85.000001,85.000001,85.000001,395.0,0.0,0.0,0.0,1.0,166.665,51.559,51.559,46.509,46.509,34.0,-23.224999999999998,25.368,-28.349999999999998,31.375,0.0,1782.105,-0.3999999999999986,100.0,28.723,29.057000000000002,44.231,44.644000000000005,0.0,1.0,100.0,0.0,0.0,0.0,0.0,3178.142857142857,3092.4,4137.666666666667,4289.6,305.339,304.86466666666666,314.80375,314.297,22.089199999999998,20.6842,22.0674,21.5685,314.999998,314.999998,324.999988,324.999988,99.55997142857143,99.50741666666667,99.56872857142857,99.54868571428571,0.10850000000000026,-0.03133333333333321,-0.09233333333333338,0.13866666666666672,-0.03833333333332689,-0.04571428571428271,1.518,1.5055,39.057,30.276333333333334,38.921,35.803,56.111999999999995,35.7325,59.9675,53.238,54.031,34.7995,58.5265,51.5345,53.163,34.3055,58.4025,50.925,-0.11499999999999999,-0.0495000000000001,0.10022,0.11131,0.0,218.825,218.85000000000002,215.54333333333335,215.54333333333335,0.0,0.0
33,0.0,1.0,0.0,1.0,1.0,0.0,0.0,1.0,0.0,100.0,1.0,1.1856,26.0,0.0,0.0,0.0,59.999996,0.0,26.0,26.0,26.0,26.0,0.05233333333333334,0.25150000000000006,-0.060775,291.58,-2.7262,-2.694888888888889,-1.5913,-1.5894,-163.81,215.3775,190.2555,0.0,0.0,0.0,0.0,0.06663333333333332,-5.498166666666667,-5.498166666666667,-0.614,-0.23249999999999993,-0.010444444444444478,-0.2569999999999999,70.03999999999999,0.02,-0.2159,-0.26399999999999935,100.0,1.0,1.0,215.93666666666667,0.0,0.0,0.0,0.0,0.0,0.0,0.0,9152.8,0.0,55.0,5.0,252.11666666666667,1.0,0.0,0.0,0.0,0.0,0.0,1.0,0.0,1.6529999999999987,1.6529999999999987,0.0,0.0,1.0,55.0,616.79921,10000.0,85.000001,85.000001,85.000001,85.000001,395.0,0.0,0.0,0.0,1.0,166.665,51.849000000000004,51.849000000000004,46.86,46.86,34.0,-23.2,24.458,-28.073333333333334,31.055,0.0,1782.057,-0.4499999999999993,100.0,28.609,28.809,44.013,44.391999999999996,0.0,1.0,100.0,0.0,0.0,0.0,0.0,3173.142857142857,3024.0,4150.555555555556,4175.5,305.4075,305.08733333333333,314.82625,314.53575,22.0979,20.6895,22.0772,21.5772,314.999998,314.999998,324.999988,324.999988,99.55998571428572,99.50743333333334,99.56887142857143,99.54882857142857,0.1120000000000001,-0.040999999999999925,-0.08583333333333332,0.13949999999999996,-0.060000000000002274,-0.048571428571428044,1.522,1.4985,39.111999999999995,30.309666666666665,38.982,35.8575,56.099999999999994,35.7675,60.0015,53.294,54.019,34.832,58.558,51.588499999999996,53.150999999999996,34.3365,58.431,50.977666666666664,-0.11450000000000005,-0.051000000000000156,0.09768500000000001,0.11667500000000001,0.0,219.22500000000002,219.22500000000002,215.93666666666667,215.93666666666667,0.0,0.0
34,0.0,1.0,0.0,1.0,1.0,0.0,0.0,1.0,0.0,100.0,1.0,1.1856,26.0,0.0,0.0,0.0,59.999996,0.0,26.0,26.0,26.0,26.0,0.035555555555555785,0.25250000000000017,-0.075075,291.794,-2.6605499999999997,-2.6786666666666665,-1.6247,-1.5306000000000002,-160.23000000000002,215.3825,190.2275,0.0,0.0,0.0,0.0,0.06869999999999998,-5.498166666666667,-5.498166666666667,-0.6397,-0.7985000000000002,0.012777777777777777,0.9449999999999998,70.169,0.02,-0.22,-0.34999999999999964,100.0,1.0,1.0,216.29000000000002,0.0,0.0,0.0,0.0,0.0,0.0,0.0,9167.8,0.0,55.0,5.0,252.58333333333334,0.0,0.0,0.0,0.0,0.0,0.0,1.0,0.0,1.7040000000000006,1.7040000000000006,0.0,0.0,0.0,55.0,616.79921,10000.0,85.000001,85.000001,85.000001,85.000001,395.0,0.0,0.0,0.0,1.0,333.33500000000004,52.368,52.368,47.043,47.043,34.0,-21.099999999999998,24.96,-28.413333333333334,30.775000000000002,0.0,1782.005,-0.48999999999999844,100.0,28.476,28.374,43.956,44.393,0.0,1.0,100.0,0.0,0.0,0.0,0.0,2980.5714285714284,3035.7,4114.111111111111,4262.5,305.7985,305.15866666666665,314.88025,314.42175,22.1071,20.6951,22.0876,21.5865,314.999998,314.999998,324.999988,324.999988,99.56,99.50743333333334,99.56902857142857,99.54898571428572,0.11425000000000018,-0.024666666666666615,-0.08783333333333332,0.13866666666666672,-0.03499999999999659,-0.0357142857142847,1.5165,1.5125,39.169,30.344666666666665,39.047,35.9155,56.087,35.804,60.0375,53.3555,54.007,34.866,58.591499999999996,51.647999999999996,53.138,34.369,58.461,51.035666666666664,-0.11499999999999999,-0.04400000000000004,0.10475500000000001,0.10754000000000001,0.0,219.59,219.60500000000002,216.29000000000002,216.29000000000002,0.0,0.0
35,0.0,1.0,0.0,1.0,1.0,0.0,0.0,1.0,0.0,100.0,1.0,1.1856,26.0,0.0,0.0,0.0,59.999996,0.0,26.0,26.0,26.0,26.0,0.03822222222222216,0.2551000000000001,-0.09330000000000001,291.702,-2.79585,-2.659777777777778,-1.5361,-1.586,-156.44,215.39,190.195875,0.0,0.0,0.0,0.0,0.07089999999999996,-5.498166666666667,-5.498166666666667,-0.6781,-0.06850000000000023,-0.005111111111111288,-0.139,70.303,0.0212,-0.22545,-0.3639999999999999,100.0,1.0,1.0,216.79333333333335,0.0,0.0,0.0,0.0,0.0,0.0,0.0,9189.0,0.0,55.0,5.0,253.06333333333333,1.0,0.0,0.0,0.0,0.0,0.0,1.0,0.0,1.7579999999999991,1.7579999999999991,0.0,0.0,1.0,55.0,616.79921,10000.0,85.000001,85.000001,85.000001,85.000001,395.0,0.0,0.0,0.0,1.0,166.665,51.62,51.62,46.738,46.738,34.0,-23.5025,27.857999999999997,-26.236666666666665,30.6725,0.0,1781.951,-0.28999999999999915,100.0,28.352,28.732,43.711,43.944,0.0,1.0,100.0,0.0,0.0,0.0,0.0,3089.0,3383.5,4101.555555555556,4079.3,305.471,304.14166666666665,314.9635,314.886,22.1167,20.7014,22.0985,21.5962,314.999998,314.999998,324.999988,324.999988,99.56001428571429,99.50743333333334,99.56917142857142,99.54914285714285,0.10899999999999999,-0.028999999999999915,-0.0761666666666666,0.15666666666666673,-0.046666666666666856,-0.057142857142849834,1.5645,1.537,39.230000000000004,30.383666666666667,39.116,35.976,56.072,35.846000000000004,60.074,53.4165,53.992000000000004,34.9045,58.626,51.7065,53.122,34.406,58.492,51.092666666666666,-0.10499999999999998,-0.06050000000000022,0.10816500000000001,0.112,0.0,220.01999999999998,220.035,216.79333333333335,216.79333333333335,0.0,0.0
