,ABS Active,ABS Enabled,AID Allow Tire Blankets,AID Auto Blip,AID Auto Clutch,AID Auto Shift,AID Fuel Rate,AID Ideal Line,AID Mech Damage,AID Stability,AID Tire Wear Rate,Air Density,Air Temp,Ballast,Best Lap Delta,Best Lap Time,Brake Bias,Brake Pos,Brake Temp FL,Brake Temp FR,Brake Temp RL,Brake Temp RR,CG Accel Lateral,CG Accel Longitudinal,CG Accel Vertical,CG Height,Camber FL,Camber FR,Camber RL,Camber RR,Car Coord X,Car Coord Y,Car Coord Z,Car Damage Front,Car Damage Left,Car Damage Rear,Car Damage Right,Car Pos Norm,Caster FL,Caster FR,Chassis Pitch Angle,Chassis Pitch Rate,Chassis Roll Angle,Chassis Roll Rate,Chassis Velocity X,Chassis Velocity Y,Chassis Velocity Z,Chassis Yaw Rate,Clutch Pos,DRS Active,DRS Available,Drive Train Speed,ERS Heat Charging,ERS Is Charging,ERS Max Energy,ERS Power Level,ERS Recovery Level,Engine Brake Setting,Engine Limiter,Engine RPM,Flags,Fuel Level,Gear,Ground Speed,HR Sample Clock,In Pit,KERS Charge,KERS Deployed Energy,KERS Input,KERS Max Energy,LR Sample Clock,Lap Invalidated,Lap Time,Lap Time2,Last Lap Time,Last Sector Time,MR Sample Clock,Max Fuel,Max Power,Max RPM,Max Sus Travel FL,Max Sus Travel FR,Max Sus Travel RL,Max Sus Travel RR,Max Torque,Max Turbo Boost,Num Tires Off Track,Penalties Enabled,Position,Raw Data Sample Rate,Ride Height FL,Ride Height FR,Ride Height RL,Ride Height RR,Road Temp,Self Align Torque FL,Self Align Torque FR,Self Align Torque RL,Self Align Torque RR,Session Lap Count,Session Time Left,Steering Angle,Surface Grip,Suspension Travel FL,Suspension Travel FR,Suspension Travel RL,Suspension Travel RR,TC Active,TC Enabled,Throttle Pos,Tire Dirt Level FL,Tire Dirt Level FR,Tire Dirt Level RL,Tire Dirt Level RR,Tire Load FL,Tire Load FR,Tire Load RL,Tire Load RR,Tire Loaded Radius FL,Tire Loaded Radius FR,Tire Loaded Radius RL,Tire Loaded Radius RR,Tire Pressure FL,Tire Pressure FR,Tire Pressure RL,Tire Pressure RR,Tire Radius FL,Tire Radius FR,Tire Radius RL,Tire Radius RR,Tire Rubber Grip FL,Tire Rubber Grip FR,Tire Rubber Grip RL,Tire Rubber Grip RR,Tire Slip Angle FL,Tire Slip Angle FR,Tire Slip Angle RL,Tire Slip Angle RR,Tire Slip Ratio FL,Tire Slip Ratio FR,Tire Slip Ratio RL,Tire Slip Ratio RR,Tire Temp Core FL,Tire Temp Core FR,Tire Temp Core RL,Tire Temp Core RR,Tire Temp Inner FL,Tire Temp Inner FR,Tire Temp Inner RL,Tire Temp Inner RR,Tire Temp Middle FL,Tire Temp Middle FR,Tire Temp Middle RL,Tire Temp Middle RR,Tire Temp Outer FL,Tire Temp Outer FR,Tire Temp Outer RL,Tire Temp Outer RR,Toe In FL,Toe In FR,Toe In RL,Toe In RR,Turbo Boost,Wheel Angular Speed FL,Wheel Angular Speed FR,Wheel Angular Speed RL,Wheel Angular Speed RR,Wind Direction,Wind Speed
0,0.0,1.0,0.0,1.0,1.0,0.0,0.0,1.0,0.0,100.0,1.0,1.1856,26.0,0.0,0.0,0.0,59.99999,0.0,26.0,26.0,26.0,26.0,-0.044444444444444446,0.30490000000000017,0.145075,293.823,-2.7248,-2.4815,-1.5308000000000002,-1.5329000000000002,-275.7,215.9325,190.987875,0.0,0.0,0.0,0.0,0.0015666666666666051,-5.498166666666667,-5.498166666666667,-0.5482,1.461,-0.008000000000000007,-0.7975,65.554,-0.0393,-0.21005000000000001,0.612000000000001,100.0,1.0,1.0,202.4,0.0,0.0,0.0,0.0,0.0,0.0,0.0,8579.1,0.0,55.0,5.0,235.96333333333334,0.0,0.0,0.0,0.0,0.0,0.0,0.0,0.0,0.0030000000000001137,0.0030000000000001137,0.0,0.0,0.0,55.0,616.79921,10000.0,85.0,85.0,85.0,85.0,395.0,0.0,0.0,0.0,1.0,20.0,52.307,52.307,49.254999999999995,49.254999999999995,34.0,-28.4525,24.478,-30.19,25.200000000000003,0.0,1783.662,0.7750000000000021,100.0,26.919,26.68,40.532,40.329,0.0,1.0,100.0,0.0,0.0,0.0,0.0,3215.4285714285716,3708.3,4068.3333333333335,4022.1000000000004,305.112,302.9015,314.923,314.787,21.7754,20.5138,21.7383,21.2776,314.99999,314.99999,324.99998,324.99998,99.55911428571429,99.50716666666666,99.56428571428572,99.54398571428571,0.00024999999999986144,-0.11599999999999988,-0.16133333333333336,0.0725,-0.05666666666667197,-0.06333333333333258,1.5430000000000001,1.576,37.097,29.211666666666666,36.864999999999995,33.9845,56.357,34.456,58.7855,51.256,54.275,33.638999999999996,57.4315,49.6285,53.448,33.212,57.408500000000004,49.056,-0.022499999999999964,-0.123,0.11099,0.11619000000000002,0.0,205.42000000000002,205.36,202.4,202.4,0.0,0.0
1,0.0,1.0,0.0,1.0,1.0,0.0,0.0,1.0,0.0,100.0,1.0,1.1856,26.0,0.0,0.0,0.0,59.999996,0.0,26.0,26.0,26.0,26.0,-0.10300000000000001,0.31089999999999995,0.264925,293.06,-2.65475,-2.8025,-1.5468000000000002,-1.3748,-272.16,215.9525,190.966625,0.0,0.0,0.0,0.0,0.0036333333333333773,-5.498166666666667,-5.498166666666667,-0.4854,-1.3425000000000002,-0.056888888888888545,-1.241,65.719,-0.0478,-0.1865,1.2020000000000008,100.0,1.0,1.0,202.47333333333333,0.0,0.0,0.0,0.0,0.0,0.0,0.0,8582.1,0.0,55.0,5.0,236.55666666666667,1.0,0.0,0.0,0.0,0.0,0.0,0.0,0.0,0.05699999999999861,0.05699999999999861,0.0,0.0,1.0,55.0,616.79921,10000.0,85.000001,85.000001,85.000001,85.000001,395.0,0.0,0.0,0.0,1.0,166.665,54.352,54.352,48.172,48.172,34.0,-26.81,16.98,-36.11333333333333,28.8525,0.0,1783.608,0.9000000000000021,100.0,27.143,26.651,42.614000000000004,42.208,0.0,1.0,100.0,0.0,0.0,0.0,0.0,3040.5714285714284,2531.0,4491.0,4910.5,305.6825,306.8435,313.852,312.48,21.785899999999998,20.5192,21.7498,21.2873,314.999998,314.999998,324.999988,324.999988,99.55911428571429,99.50718333333333,99.56445714285714,99.54415714285715,-0.020499999999999963,-0.14100000000000001,-0.17616666666666667,0.051000000000000004,-0.0016666666666651508,-0.046666666666666856,1.354,1.3965,37.162,29.244999999999997,36.936,34.045500000000004,56.339,34.499,58.835,51.329,54.257,33.6785,57.4785,49.698499999999996,53.43,33.25,57.452,49.1245,-0.0030000000000000027,-0.14100000000000001,0.10379000000000001,0.11382,0.0,205.89,205.805,202.47333333333333,202.47333333333333,0.0,0.0
2,0.0,1.0,0.0,1.0,1.0,0.0,0.0,1.0,0.0,100.0,1.0,1.1856,26.0,0.0,0.0,0.0,59.999996,0.0,26.0,26.0,26.0,26.0,-0.13466666666666666,0.2976000000000001,-0.1102,294.098,-2.59775,-2.78925,-1.4963,-1.6421000000000001,-269.0,215.9675,190.948875,0.0,0.0,0.0,0.0,0.005466666666666509,-5.498166666666667,-5.498166666666667,-0.5578000000000001,0.12449999999999994,-0.052777777777778034,1.537,65.849,-0.06760000000000001,-0.256975,1.6320000000000006,100.0,1.0,1.0,203.57666666666665,0.0,0.0,0.0,0.0,0.0,0.0,0.0,8628.9,0.0,55.0,5.0,237.02666666666667,0.0,0.0,0.0,0.0,0.0,0.0,0.0,0.0,0.10500000000000043,0.10500000000000043,0.0,0.0,0.0,55.0,616.79921,10000.0,85.000001,85.000001,85.000001,85.000001,395.0,0.0,0.0,0.0,1.0,333.33500000000004,52.628,52.628,50.644,50.644,34.0,-31.29,19.485999999999997,-28.296666666666663,19.009999999999998,0.0,1783.558,0.9550000000000018,100.0,28.019,26.698999999999998,42.312,41.25,0.0,1.0,100.0,0.0,0.0,0.0,0.0,3433.0,2920.0,3689.5555555555557,3433.9,304.377,305.47775,315.80025,316.425,21.7955,20.5239,21.7595,21.2954,314.999998,314.999998,324.999988,324.999988,99.55911428571429,99.5072,99.56458571428571,99.54427142857143,-0.03675000000000006,-0.15700000000000003,-0.21733333333333335,0.017,-0.06833333333332803,-0.05666666666667197,1.69,1.7405,37.222,29.27433333333333,36.997,34.096000000000004,56.327,34.536500000000004,58.8705,51.3795,54.245999999999995,33.713,57.510999999999996,49.7475,53.418,33.283,57.4825,49.1725,-0.0024999999999999467,-0.14300000000000002,0.10847000000000001,0.11672,0.0,206.34,206.2,203.57666666666665,203.57666666666665,0.0,0.0
3,0.0,1.0,0.0,1.0,1.0,0.0,0.0,1.0,0.0,100.0,1.0,1.1856,26.0,0.0,0.0,0.0,59.999996,0.0,26.0,26.0,26.0,26.0,-0.1418888888888889,0.32540000000000013,0.0886,293.365,-2.6311999999999998,-2.701375,-1.49535,-1.5885,-265.64,215.98250000000002,190.928875,0.0,0.0,0.0,0.0,0.007433333333333292,-5.498166666666667,-5.498166666666667,-0.5036,0.42999999999999994,-0.020444444444444265,-0.212,66.003,-0.08950000000000001,-0.19007500000000002,1.2920000000000007,100.0,1.0,1.0,203.59333333333333,0.0,0.0,0.0,0.0,0.0,0.0,0.0,8629.5,0.0,55.0,5.0,237.57999999999998,1.0,0.0,0.0,0.0,0.0,0.0,0.0,0.0,0.1559999999999988,0.1559999999999988,0.0,0.0,1.0,55.0,616.79921,10000.0,85.000001,85.000001,85.000001,85.000001,395.0,0.0,0.0,0.0,1.0,166.665,53.528,53.528,48.004,48.004,34.0,-26.662499999999998,18.12,-35.8,24.735,0.0,1783.509,0.9699999999999989,100.0,27.792,26.811,42.454,41.357,0.0,1.0,100.0,0.0,0.0,0.0,0.0,2966.714285714286,2887.9,4383.666666666667,4255.8,305.8165,305.636,314.0895,314.3025,21.8054,20.5291,21.77,21.3043,314.999998,314.999998,324.999988,324.999988,99.55911428571429,99.50721666666666,99.56472857142857,99.54441428571428,-0.03774999999999995,-0.16466666666666674,-0.214,0.0145,-0.060000000000002274,-0.05833333333333002,1.4833333333333334,1.5285,37.284,29.307000000000002,37.062,34.1515,56.311,34.5805,58.911500000000004,51.4445,54.230999999999995,33.753,57.5495,49.8095,53.402,33.3215,57.518,49.233000000000004,-0.0044999999999999485,-0.14149999999999996,0.11163000000000001,0.10894000000000001,0.0,206.82999999999998,206.715,203.59333333333333,203.59333333333333,0.0,0.0
4,0.0,1.0,0.0,1.0,1.0,0.0,0.0,1.0,0.0,100.0,1.0,1.1856,26.0,0.0,0.0,0.0,59.999996,0.0,26.0,26.0,26.0,26.0,-0.15466666666666665,0.29059999999999997,-0.0308,293.64,-2.6598,-2.794,-1.43645,-1.6024,-262.47,215.99,190.9105,0.0,0.0,0.0,0.0,0.009266666666666534,-5.498166666666667,-5.498166666666667,-0.5328,-0.9325000000000001,-0.08000000000000007,-0.3865,66.14,-0.09960000000000001,-0.23140000000000002,1.5979999999999999,100.0,1.0,1.0,204.13333333333333,0.0,0.0,0.0,0.0,0.0,0.0,0.0,8652.4,0.0,55.0,5.0,238.07666666666665,0.0,0.0,0.0,0.0,0.0,0.0,0.0,0.0,0.20400000000000063,0.20400000000000063,0.0,0.0,0.0,55.0,616.79921,10000.0,85.000001,85.000001,85.000001,85.000001,395.0,0.0,0.0,0.0,1.0,166.665,53.406,53.406,48.615,48.615,34.0,-30.045,18.89,-32.78333333333333,21.02,0.0,1783.46,1.0100000000000016,100.0,27.592,26.467,43.001,41.502,0.0,1.0,100.0,0.0,0.0,0.0,0.0,3196.285714285714,2922.4,4153.0,3784.2,305.092,305.583,314.659,315.392,21.8147,20.5338,21.78,21.3127,314.999998,314.999998,324.999988,324.999988,99.55912857142857,99.50723333333333,99.56487142857142,99.54454285714286,-0.05325000000000002,-0.17066666666666674,-0.21916666666666665,0.004666666666666667,-0.045000000000001705,-0.04833333333333201,1.5273333333333334,1.5965,37.342,29.336333333333336,37.125,34.204,56.297,34.6195,58.953,51.5025,54.217,33.789500000000004,57.588,49.8645,53.387,33.356,57.554,49.2875,0.008000000000000007,-0.15349999999999997,0.09994000000000001,0.1078,0.0,207.20499999999998,207.07999999999998,204.13333333333333,204.13333333333333,0.0,0.0
5,0.0,1.0,0.0,1.0,1.0,0.0,0.0,1.0,0.0,100.0,1.0,1.1856,26.0,0.0,0.0,0.0,59.999996,0.0,26.0,26.0,26.0,26.0,-0.15744444444444447,0.30300000000000016,-0.0217,293.854,-2.67075,-2.763125,-1.5029,-1.6323,-259.09,215.9975,190.890375,0.0,0.0,0.0,0.0,0.011233333333333317,-5.498166666666667,-5.498166666666667,-0.5372,0.357,-0.08866666666666667,-0.47400000000000003,66.286,-0.1149,-0.215675,1.5979999999999999,100.0,1.0,1.0,204.63666666666666,0.0,0.0,0.0,0.0,0.0,0.0,0.0,8673.8,0.0,55.0,5.0,238.5966666666667,1.0,0.0,0.0,0.0,0.0,0.0,0.0,0.0,0.254999999999999,0.254999999999999,0.0,0.0,1.0,55.0,616.79921,10000.0,85.000001,85.000001,85.000001,85.000001,395.0,0.0,0.0,0.0,1.0,166.665,53.558,53.558,49.254999999999995,49.254999999999995,34.0,-30.7225,17.308,-34.79666666666667,20.6175,0.0,1783.411,0.8099999999999987,100.0,27.662,26.512,42.607,41.061,0.0,1.0,100.0,0.0,0.0,0.0,0.0,3245.857142857143,2749.1,4116.111111111111,3926.9,305.0675,305.97,314.8625,315.07625,21.8247,20.538899999999998,21.7905,21.3213,314.999998,314.999998,324.999988,324.999988,99.55912857142857,99.50725,99.56501428571428,99.54468571428572,-0.05824999999999991,-0.17533333333333312,-0.2561666666666667,-0.028333333333333332,-0.07166666666666544,-0.011666666666670267,1.554,1.623,37.403999999999996,29.368000000000002,37.19,34.2585,56.284,34.661500000000004,58.9935,51.56,54.205,33.828,57.6265,49.9195,53.375,33.393,57.5895,49.341,-0.012499999999999956,-0.12450000000000006,0.10591,0.10559500000000001,0.0,207.71,207.53,204.63666666666666,204.63666666666666,0.0,0.0
6,0.0,1.0,0.0,1.0,1.0,0.0,0.0,1.0,0.0,100.0,1.0,1.1856,26.0,0.0,0.0,0.0,59.999996,0.0,26.0,26.0,26.0,26.0,-0.16755555555555554,0.28800000000000003,0.019200000000000002,293.488,-2.6205,-2.8135000000000003,-1.5303,-1.5948,-255.9,215.9975,190.870875,0.0,0.0,0.0,0.0,0.0131,-5.498166666666667,-5.498166666666667,-0.5268,0.07850000000000001,-0.08877777777777807,-0.8635,66.424,-0.11810000000000001,-0.2054,1.4000000000000004,100.0,1.0,1.0,204.96666666666667,0.0,0.0,0.0,0.0,0.0,0.0,0.0,8687.8,0.0,55.0,5.0,239.10000000000002,0.0,0.0,0.0,0.0,0.0,0.0,0.0,0.0,0.3030000000000008,0.3030000000000008,0.0,0.0,0.0,55.0,616.79921,10000.0,85.000001,85.000001,85.000001,85.000001,395.0,0.0,0.0,0.0,1.0,166.665,53.406,53.406,48.599000000000004,48.599000000000004,34.0,-30.515,17.804000000000002,-37.013333333333335,21.134999999999998,0.0,1783.362,0.5300000000000011,100.0,27.674,26.551000000000002,42.792,41.272999999999996,0.0,1.0,100.0,0.0,0.0,0.0,0.0,3265.714285714286,2783.8,4282.222222222223,3993.8,305.0135,305.79425,314.4445,314.88675,21.8341,20.5436,21.8004,21.3297,314.999998,314.999998,324.999988,324.999988,99.55914285714286,99.50726666666667,99.56514285714286,99.54481428571428,-0.05899999999999994,-0.18166666666666664,-0.252,-0.02066666666666667,-0.05333333333332746,-0.05666666666667197,1.4946666666666668,1.5675000000000001,37.463,29.397666666666666,37.253,34.311,56.272,34.701,59.034,51.6185,54.194,33.864,57.664,49.9755,53.361999999999995,33.4275,57.6245,49.396,-0.02949999999999997,-0.123,0.10453000000000001,0.11566000000000001,0.0,208.11,208.005,204.96666666666667,204.96666666666667,0.0,0.0
7,0.0,1.0,0.0,1.0,1.0,0.0,0.0,1.0,0.0,100.0,1.0,1.1856,26.0,0.0,0.0,0.0,59.999996,0.0,26.0,26.0,26.0,26.0,-0.13855555555555554,0.28,0.03135,293.304,-2.57995,-2.816125,-1.48665,-1.643,-252.51,215.995,190.850375,0.0,0.0,0.0,0.0,0.015066666666666562,-5.498166666666667,-5.498166666666667,-0.536,0.0020000000000000018,-0.0773333333333337,1.115,66.569,-0.11610000000000001,-0.22465000000000002,1.1460000000000008,100.0,1.0,1.0,205.43666666666667,0.0,0.0,0.0,0.0,0.0,0.0,0.0,8707.7,0.0,55.0,5.0,239.62,1.0,0.0,0.0,0.0,0.0,0.0,0.0,0.0,0.3539999999999992,0.3539999999999992,0.0,0.0,1.0,55.0,616.79921,10000.0,85.000001,85.000001,85.000001,85.000001,395.0,0.0,0.0,0.0,1.0,166.665,52.887,52.887,48.874,48.874,34.0,-28.4225,20.718,-33.36333333333333,22.4675,0.0,1783.312,0.19000000000000128,100.0,28.116,26.575,43.01,41.387,0.0,1.0,100.0,0.0,0.0,0.0,0.0,3237.4285714285716,2963.7,4064.6666666666665,4006.4,304.8525,305.358,314.848,314.87875,21.8441,20.5488,21.811,21.3386,314.999998,314.999998,324.999988,324.999988,99.55914285714286,99.5073,99.56528571428571,99.54495714285714,-0.01749999999999985,-0.14100000000000001,-0.23366666666666666,-0.0095,-0.046666666666666856,-0.026666666666670835,1.5283333333333333,1.557,37.525999999999996,29.429666666666666,37.319,34.3665,56.259,34.743,59.077,51.68,54.181,33.9025,57.704,50.0345,53.349000000000004,33.4645,57.661500000000004,49.4535,-0.05799999999999994,-0.09000000000000008,0.10133500000000001,0.112155,0.0,208.55,208.43,205.43666666666667,205.43666666666667,0.0,0.0
8,0.0,1.0,0.0,1.0,1.0,0.0,0.0,1.0,0.0,100.0,1.0,1.1856,26.0,0.0,0.0,0.0,59.999996,0.0,26.0,26.0,26.0,26.0,-0.10066666666666667,0.29090000000000016,-0.010150000000000001,293.488,-2.6684,-2.7439999999999998,-1.47055,-1.6334,-249.11,215.99,190.82975,0.0,0.0,0.0,0.0,0.017033333333333345,-5.498166666666667,-5.498166666666667,-0.5356000000000001,-0.4105000000000001,-0.06499999999999995,-0.7465,66.715,-0.10260000000000001,-0.21660000000000001,0.6420000000000003,100.0,1.0,1.0,205.82,0.0,0.0,0.0,0.0,0.0,0.0,0.0,8723.9,0.0,55.0,5.0,240.14666666666668,0.0,0.0,0.0,0.0,0.0,0.0,0.0,0.0,0.40500000000000114,0.40500000000000114,0.0,0.0,0.0,55.0,616.79921,10000.0,85.000001,85.000001,85.000001,85.000001,395.0,0.0,0.0,0.0,1.0,166.665,53.619,53.619,48.248,48.248,34.0,-27.0875,19.168,-33.65,24.025,0.0,1783.26,0.08000000000000185,100.0,27.539,26.701,42.978,41.596000000000004,0.0,1.0,100.0,0.0,0.0,0.0,0.0,3101.4285714285716,2846.2,4185.333333333333,4045.5,305.5155,305.65375,314.612,314.688,21.8539,20.5539,21.8215,21.3476,314.999998,314.999998,324.999988,324.999988,99.55915714285715,99.5073,99.56544285714286,99.5451,-0.008000000000000007,-0.14266666666666672,-0.21916666666666665,0.014333333333333335,-0.03499999999999659,-0.05333333333332746,1.506,1.5355,37.587,29.461666666666666,37.385,34.4225,56.242000000000004,34.783500000000004,59.119,51.741,54.166,33.94,57.7435,50.0935,53.332,33.5,57.698,49.510999999999996,-0.07750000000000001,-0.07699999999999996,0.107535,0.11507,0.0,208.96,208.91,205.82,205.82,0.0,0.0
9,0.0,1.0,0.0,1.0,1.0,0.0,0.0,1.0,0.0,100.0,1.0,1.1856,26.0,0.0,0.0,0.0,59.999996,0.0,26.0,26.0,26.0,26.0,-0.09333333333333332,0.2973000000000001,-0.019725,293.259,-2.58845,-2.7662500000000003,-1.52215,-1.5864,-245.91,215.98250000000002,190.809875,0.0,0.0,0.0,0.0,0.018899999999999917,-5.498166666666667,-5.498166666666667,-0.5389,0.52,-0.07144444444444442,-0.4365,66.849,-0.0847,-0.21482500000000002,0.5460000000000003,100.0,1.0,1.0,206.32999999999998,0.0,0.0,0.0,0.0,0.0,0.0,0.0,8745.6,0.0,55.0,5.0,240.62666666666667,1.0,0.0,0.0,0.0,0.0,0.0,0.0,0.0,0.4529999999999994,0.4529999999999994,0.0,0.0,1.0,55.0,616.79921,10000.0,85.000001,85.000001,85.000001,85.000001,395.0,0.0,0.0,0.0,1.0,333.33500000000004,52.658,52.658,49.103,49.103,34.0,-29.045,20.828,-32.343333333333334,23.35,0.0,1783.21,-0.09499999999999886,100.0,27.975,26.957,42.715,41.558,0.0,1.0,100.0,0.0,0.0,0.0,0.0,3386.857142857143,2902.3,4073.222222222222,3998.1000000000004,304.576,305.43125,314.95225,314.906,21.8633,20.5588,21.8313,21.3559,314.999998,314.999998,324.999988,324.999988,99.55915714285715,99.50731666666667,99.56557142857143,99.54522857142857,-0.0007500000000000284,-0.11833333333333318,-0.20716666666666667,0.025,-0.04833333333333201,-0.04333333333332945,1.548,1.5745,37.646,29.492666666666665,37.446,34.4745,56.229,34.822,59.1555,51.7975,54.153,33.9755,57.778,50.1475,53.319,33.534,57.730000000000004,49.5635,-0.08050000000000002,-0.06350000000000011,0.103425,0.11191500000000001,0.0,209.39,209.345,206.32999999999998,206.32999999999998,0.0,0.0
10,0.0,1.0,0.0,1.0,1.0,0.0,0.0,1.0,0.0,100.0,1.0,1.1856,26.0,0.0,0.0,0.0,59.999996,0.0,26.0,26.0,26.0,26.0,-0.059444444444444446,0.28370000000000006,-0.025050000000000003,293.152,-2.66105,-2.74575,-1.49825,-1.5604,-242.29,215.97,190.787875,0.0,0.0,0.0,0.0,0.020999999999999908,-5.498166666666667,-5.498166666666667,-0.5228,-0.5415000000000001,-0.032222222222222374,0.2605,67.004,-0.0618,-0.20980000000000001,0.16000000000000014,100.0,1.0,1.0,206.62,0.0,0.0,0.0,0.0,0.0,0.0,0.0,8757.9,0.0,55.0,5.0,241.18333333333334,0.0,0.0,0.0,0.0,0.0,0.0,1.0,0.0,0.5069999999999979,0.5069999999999979,0.0,0.0,0.0,55.0,616.79921,10000.0,85.000001,85.000001,85.000001,85.000001,395.0,0.0,0.0,0.0,1.0,166.665,53.528,53.528,47.928,47.928,34.0,-25.0425,20.16,-32.43666666666667,26.065,0.0,1783.158,-0.19000000000000128,100.0,27.787,26.943,43.074,42.19,0.0,1.0,100.0,0.0,0.0,0.0,0.0,3019.285714285714,2804.4,4274.888888888889,4198.0,305.7425,305.7735,314.412,314.35075,21.8737,20.5643,21.8426,21.3655,314.999998,314.999998,324.999988,324.999988,99.55915714285715,99.50733333333334,99.56572857142856,99.54538571428571,0.021749999999999936,-0.10933333333333328,-0.17116666666666666,0.049166666666666664,-0.05333333333332746,-0.04333333333332945,1.4966666666666666,1.497,37.711,29.526666666666664,37.516,34.5345,56.213,34.8635,59.201,51.865,54.137,34.0135,57.820499999999996,50.212,53.302,33.57,57.769,49.627,-0.09150000000000003,-0.06000000000000005,0.10128000000000001,0.10922000000000001,0.0,209.84,209.82,206.62,206.62,0.0,0.0
11,0.0,1.0,0.0,1.0,1.0,0.0,0.0,1.0,0.0,100.0,1.0,1.1856,26.0,0.0,0.0,0.0,59.999996,0.0,26.0,26.0,26.0,26.0,-0.05322222222222222,0.2774000000000001,-0.0656,293.564,-2.6704499999999998,-2.72925,-1.5539,-1.5303,-238.87,215.95749999999998,190.767125,0.0,0.0,0.0,0.0,0.022599999999999953,-5.498166666666667,-5.498166666666667,-0.5576,-0.02400000000000002,-0.004666666666666597,0.5345,67.142,-0.0436,-0.23087500000000002,0.006000000000000227,100.0,1.0,1.0,207.31666666666666,0.0,0.0,0.0,0.0,0.0,0.0,0.0,8787.3,0.0,55.0,5.0,241.68333333333334,1.0,0.0,0.0,0.0,0.0,0.0,1.0,0.0,0.5579999999999998,0.5579999999999998,0.0,0.0,1.0,55.0,616.79921,10000.0,85.000001,85.000001,85.000001,85.000001,395.0,0.0,0.0,0.0,1.0,166.665,53.04,53.04,49.21,49.21,34.0,-24.8925,23.355999999999998,-27.516666666666666,24.5775,0.0,1783.107,-0.5650000000000013,100.0,27.691,27.036,42.609,42.022,0.0,1.0,100.0,0.0,0.0,0.0,0.0,3065.714285714286,3088.6,3798.5555555555557,3928.9,305.444,305.0325,315.60425,315.146,21.8834,20.5696,21.852899999999998,21.3745,314.999998,314.999998,324.999988,324.999988,99.55917142857143,99.50735,99.56587142857143,99.54551428571429,0.04325000000000001,-0.08266666666666667,-0.154,0.07966666666666668,-0.046666666666666856,-0.05666666666667197,1.6033333333333335,1.6175,37.771,29.560000000000002,37.581,34.5905,56.196,34.903,59.2375,51.925,54.122,34.05,57.854,50.269999999999996,53.286,33.605000000000004,57.8,49.6835,-0.09599999999999997,-0.0535000000000001,0.110905,0.103025,0.0,210.26999999999998,210.26,207.31666666666666,207.31666666666666,0.0,0.0
12,0.0,1.0,0.0,1.0,1.0,0.0,0.0,1.0,0.0,100.0,1.0,1.1856,26.0,0.0,0.0,0.0,59.999996,0.0,26.0,26.0,26.0,26.0,-0.03844444444444444,0.2801,0.0199,293.076,-2.6966,-2.7155,-1.5257,-1.5817999999999999,-235.65,215.9425,190.746375,0.0,0.0,0.0,0.0,0.025466666666666526,-5.498166666666667,-5.498166666666667,-0.5439,0.271,-0.012333333333333307,0.666,67.279,-0.0234,-0.206125,-0.12399999999999967,100.0,1.0,1.0,207.5366666666667,0.0,0.0,0.0,0.0,0.0,0.0,0.0,8796.7,0.0,55.0,5.0,242.17333333333335,0.0,0.0,0.0,0.0,0.0,0.0,1.0,0.0,0.6059999999999981,0.6059999999999981,0.0,0.0,0.0,55.0,616.79921,10000.0,85.000001,85.000001,85.000001,85.000001,395.0,0.0,0.0,0.0,1.0,166.665,52.948,52.948,48.111,48.111,34.0,-26.4375,22.474,-29.463333333333335,28.7375,0.0,1783.059,0.5199999999999996,100.0,27.591,27.166,42.585,42.007,0.0,1.0,100.0,0.0,0.0,0.0,0.0,3083.4285714285716,3132.7,4175.666666666667,4198.5,305.3745,304.91625,314.6385,314.4705,21.8925,20.5747,21.8628,21.3829,314.999998,314.999998,324.999988,324.999988,99.55917142857143,99.50735,99.56601428571429,99.54565714285714,0.016750000000000043,-0.1096666666666668,-0.12433333333333334,0.098,-0.03833333333332689,-0.060000000000002274,1.508,1.5225,37.828,29.591666666666665,37.641999999999996,34.643,56.183,34.94,59.275,51.983000000000004,54.108000000000004,34.084,57.8895,50.3255,53.272,33.6375,57.832499999999996,49.738,-0.04849999999999999,-0.10699999999999998,0.102845,0.10772500000000002,0.0,210.69,210.72,207.5366666666667,207.5366666666667,0.0,0.0
13,0.0,1.0,0.0,1.0,1.0,0.0,0.0,1.0,0.0,100.0,1.0,1.1856,26.0,0.0,0.0,0.0,59.999996,0.0,26.0,26.0,26.0,26.0,-0.007555555555555556,0.28100000000000014,0.045200000000000004,292.694,-2.69235,-2.7215,-1.5504,-1.5774,-232.41,215.93,190.725875,0.0,0.0,0.0,0.0,0.026733333333333387,-5.498166666666667,-5.498166666666667,-0.5384,-0.10299999999999998,-0.018444444444444485,1.137,67.412,-0.0184,-0.21277500000000002,-0.10199999999999942,100.0,1.0,1.0,207.89666666666668,0.0,0.0,0.0,0.0,0.0,0.0,0.0,8812.0,0.0,55.0,5.0,242.65666666666667,1.0,0.0,0.0,0.0,0.0,0.0,1.0,0.0,0.6539999999999999,0.6539999999999999,0.0,0.0,1.0,55.0,616.79921,10000.0,85.000001,85.000001,85.000001,85.000001,395.0,0.0,0.0,0.0,1.0,333.33500000000004,52.643,52.643,48.004,48.004,34.0,-23.7575,25.092,-29.83,29.5075,0.0,1783.01,-0.34999999999999787,100.0,27.964,27.325,42.88,42.433,0.0,1.0,100.0,0.0,0.0,0.0,0.0,3143.857142857143,3092.2,4192.222222222223,4287.6,305.2135,305.046,314.555,314.24925,21.901699999999998,20.5797,21.872700000000002,21.3915,314.999998,314.999998,324.999988,324.999988,99.55918571428572,99.50736666666667,99.56614285714285,99.54578571428571,0.09125000000000005,-0.03933333333333322,-0.1205,0.09833333333333333,-0.036666666666668846,-0.06666666666666998,1.506,1.5075,37.885,29.623333333333335,37.705,34.697,56.17,34.9765,59.313,52.043,54.096000000000004,34.118,57.925,50.382999999999996,53.259,33.67,57.865,49.7945,-0.11399999999999999,-0.03600000000000003,0.108255,0.10319,0.0,211.10500000000002,211.115,207.89666666666668,207.89666666666668,0.0,0.0
14,0.0,1.0,0.0,1.0,1.0,0.0,0.0,1.0,0.0,100.0,1.0,1.1856,26.0,0.0,0.0,0.0,59.999996,0.0,26.0,26.0,26.0,26.0,0.0011111111111111111,0.2761,-0.012150000000000001,292.877,-2.69385,-2.717375,-1.5627499999999999,-1.5486,-228.76999999999998,215.91500000000002,190.703375,0.0,0.0,0.0,0.0,0.028866666666666596,-5.498166666666667,-5.498166666666667,-0.5493,-0.08000000000000007,0.014111111111110963,1.184,67.56,-0.0057,-0.2268,-0.26199999999999957,100.0,1.0,1.0,208.43,0.0,0.0,0.0,0.0,0.0,0.0,0.0,8834.6,0.0,55.0,5.0,243.19,0.0,0.0,0.0,0.0,0.0,0.0,1.0,0.0,0.7079999999999984,0.7079999999999984,0.0,0.0,0.0,55.0,616.79921,10000.0,85.000001,85.000001,85.000001,85.000001,395.0,0.0,0.0,0.0,1.0,166.665,52.658,52.658,48.203,48.203,34.0,-23.0025,25.468,-27.383333333333333,29.455000000000002,0.0,1782.957,-0.3200000000000003,100.0,27.898,27.522,42.796,42.653,0.0,1.0,100.0,0.0,0.0,0.0,0.0,2997.714285714286,3171.8,3976.4444444444443,4184.8,305.6325,304.7175,315.10925,314.4985,21.9119,20.5855,21.8838,21.4011,314.999998,314.999998,324.999988,324.999988,99.5592,99.50736666666667,99.5663,99.54594285714286,0.0794999999999999,-0.050000000000000044,-0.10916666666666668,0.12283333333333334,-0.030000000000001137,-0.05833333333333002,1.5446666666666666,1.5265,37.95,29.659333333333336,37.774,34.757,56.156,35.016999999999996,59.354,52.109,54.083,34.1555,57.9625,50.4465,53.245000000000005,33.706,57.8995,49.8565,-0.09799999999999998,-0.05400000000000005,0.10405,0.115445,0.0,211.54500000000002,211.56,208.43,208.43,0.0,0.0
15,0.0,1.0,0.0,1.0,1.0,0.0,0.0,1.0,0.0,100.0,1.0,1.1856,26.0,0.0,0.0,0.0,59.999996,0.0,26.0,26.0,26.0,26.0,0.018444444444444444,0.2842,-0.0329,292.831,-2.70045,-2.6187500000000004,-1.58345,-1.4951,-225.73,215.9025,190.684125,0.0,0.0,0.0,0.0,0.0306333333333334,-5.498166666666667,-5.498166666666667,-0.5408000000000001,0.264,0.03222222222222215,-0.5275,67.684,0.0037,-0.21105000000000002,-0.22799999999999976,100.0,1.0,1.0,208.79333333333335,0.0,0.0,0.0,0.0,0.0,0.0,0.0,8850.0,0.0,55.0,5.0,243.63333333333333,1.0,0.0,0.0,0.0,0.0,0.0,1.0,0.0,0.7530000000000001,0.7530000000000001,0.0,0.0,1.0,55.0,616.79921,10000.0,85.000001,85.000001,85.000001,85.000001,395.0,0.0,0.0,0.0,1.0,166.665,52.78,52.78,48.141,48.141,34.0,-23.02,23.537999999999997,-28.553333333333335,29.1275,0.0,1782.911,-0.28500000000000014,100.0,27.823,27.743,42.585,42.865,0.0,1.0,100.0,0.0,0.0,0.0,0.0,3010.5714285714284,3057.8,4059.222222222222,4272.9,305.7775,304.96775,314.99525,314.2315,21.9204,20.5903,21.893,21.4091,314.999998,314.999998,324.999988,324.999988,99.5592,99.50736666666667,99.56642857142857,99.54607142857142,0.07825000000000015,-0.05333333333333323,-0.11416666666666668,0.11466666666666668,-0.05333333333332746,-0.06666666666666998,1.5333333333333334,1.518,38.003,29.689333333333334,37.831,34.807,56.144,35.051,59.3865,52.164500000000004,54.072,34.187,57.993,50.4995,53.233000000000004,33.736000000000004,57.9275,49.909,-0.10150000000000003,-0.055500000000000105,0.10645,0.10859500000000001,0.0,211.965,211.985,208.79333333333335,208.79333333333335,0.0,0.0
16,0.0,1.0,0.0,1.0,1.0,0.0,0.0,1.0,0.0,100.0,1.0,1.1856,26.0,0.0,0.0,0.0,59.999996,0.0,26.0,26.0,26.0,26.0,0.009333333333333334,0.2621,-0.023200000000000002,292.831,-2.75535,-2.6342499999999998,-1.5578500000000002,-1.5554999999999999,-222.26999999999998,215.8875,190.662125,0.0,0.0,0.0,0.0,0.0326333333333334,-5.498166666666667,-5.498166666666667,-0.5585,-0.6520000000000001,0.02055555555555566,0.2225,67.824,0.0122,-0.22432500000000002,-0.3019999999999996,100.0,1.0,1.0,209.21333333333334,0.0,0.0,0.0,0.0,0.0,0.0,0.0,8867.8,0.0,55.0,5.0,244.14,0.0,0.0,0.0,0.0,0.0,0.0,1.0,0.0,0.8039999999999985,0.8039999999999985,0.0,0.0,0.0,55.0,616.79921,10000.0,85.000001,85.000001,85.000001,85.000001,395.0,0.0,0.0,0.0,1.0,333.33500000000004,52.75,52.75,47.867,47.867,34.0,-23.2275,25.224,-27.163333333333334,29.345,0.0,1782.86,-0.19000000000000128,100.0,27.573,27.61,42.96,42.899,0.0,1.0,100.0,0.0,0.0,0.0,0.0,3043.857142857143,3210.3,3999.1111111111113,4120.2,305.6165,304.716,315.06375,314.591,21.9299,20.5958,21.9035,21.4182,314.999998,314.999998,324.999988,324.999988,99.55921428571429,99.50738333333334,99.56657142857142,99.54621428571429,0.09399999999999986,-0.04299999999999993,-0.10083333333333333,0.1275,-0.054999999999999716,-0.05666666666667197,1.5303333333333335,1.5270000000000001,38.062,29.723333333333336,37.897,34.8635,56.129000000000005,35.0895,59.4265,52.2265,54.057,34.2225,58.0305,50.559,53.217,33.769999999999996,57.9615,49.9675,-0.09450000000000003,-0.06499999999999995,0.11277000000000001,0.09963000000000001,0.0,212.36,212.375,209.21333333333334,209.21333333333334,0.0,0.0
17,0.0,1.0,0.0,1.0,1.0,0.0,0.0,1.0,0.0,100.0,1.0,1.1856,26.0,0.0,0.0,0.0,59.999996,0.0,26.0,26.0,26.0,26.0,0.0021111111111111113,0.28580000000000005,-0.00245,292.465,-2.71125,-2.622,-1.5925500000000001,-1.5211000000000001,-218.61,215.8725,190.63825,0.0,0.0,0.0,0.0,0.03476666666666661,-5.498166666666667,-5.498166666666667,-0.5472,0.38549999999999995,-0.0024444444444444713,0.7305,67.971,0.0115,-0.20425000000000001,-0.09199999999999964,100.0,1.0,1.0,209.61333333333334,0.0,0.0,0.0,0.0,0.0,0.0,0.0,8884.8,0.0,55.0,5.0,244.67000000000002,1.0,0.0,0.0,0.0,0.0,0.0,1.0,0.0,0.8580000000000005,0.8580000000000005,0.0,0.0,1.0,55.0,616.79921,10000.0,85.000001,85.000001,85.000001,85.000001,395.0,0.0,0.0,0.0,1.0,166.665,52.49,52.49,47.653,47.653,34.0,-23.4275,24.122,-29.56,30.535,0.0,1782.806,-0.19500000000000028,100.0,28.079,27.803,42.824,42.874,0.0,1.0,100.0,0.0,0.0,0.0,0.0,3104.142857142857,3101.6,4305.222222222223,4302.2,305.3775,305.0425,314.413,314.276,21.9401,20.6016,21.9145,21.4278,314.999998,314.999998,324.999988,324.999988,99.55922857142858,99.50738333333334,99.56671428571428,99.54637142857143,0.09425000000000017,-0.04366666666666674,-0.0895,0.13,-0.03333333333333144,-0.06333333333333258,1.5096666666666667,1.4935,38.126000000000005,29.760333333333335,37.966,34.9235,56.116,35.131,59.466499999999996,52.2915,54.045,34.2605,58.067,50.622,53.204,33.807,57.9955,50.028999999999996,-0.08899999999999997,-0.06550000000000011,0.09784000000000001,0.11226000000000001,0.0,212.84,212.84,209.61333333333334,209.61333333333334,0.0,0.0
18,0.0,1.0,0.0,1.0,1.0,0.0,0.0,1.0,0.0,100.0,1.0,1.1856,26.0,0.0,0.0,0.0,59.999996,0.0,26.0,26.0,26.0,26.0,-0.006222222222222223,0.2714000000000001,-0.0076500000000000005,292.374,-2.73925,-2.597,-1.6046,-1.4727999999999999,-215.34,215.86,190.617125,0.0,0.0,0.0,0.0,0.036666666666666514,-5.498166666666667,-5.498166666666667,-0.5603,-0.45650000000000013,0.014222222222222136,0.9,68.101,0.0082,-0.2225,-0.13199999999999967,100.0,1.0,1.0,210.03,0.0,0.0,0.0,0.0,0.0,0.0,0.0,8902.4,0.0,55.0,5.0,245.13666666666666,0.0,0.0,0.0,0.0,0.0,0.0,1.0,0.0,0.9059999999999988,0.9059999999999988,0.0,0.0,0.0,55.0,616.79921,10000.0,85.000001,85.000001,85.000001,85.000001,395.0,0.0,0.0,0.0,1.0,166.665,52.216,52.216,47.623,47.623,34.0,-24.18,25.927999999999997,-28.656666666666666,28.835,0.0,1782.76,-0.21999999999999886,100.0,27.923000000000002,27.739,43.127,43.175,0.0,1.0,100.0,0.0,0.0,0.0,0.0,3152.0,3305.5,4106.111111111111,4210.3,305.2785,304.4545,314.848,314.46675,21.9491,20.6068,21.9244,21.4364,314.999998,314.999998,324.999988,324.999988,99.55922857142858,99.5074,99.56685714285715,99.54651428571428,0.09149999999999991,-0.03833333333333311,-0.10200000000000001,0.127,-0.04333333333332945,-0.04999999999999716,1.5376666666666665,1.5250000000000001,38.182,29.792333333333332,38.028,34.9775,56.102999999999994,35.167,59.5035,52.351,54.032,34.2935,58.102000000000004,50.679,53.191,33.838499999999996,58.027,50.085,-0.09950000000000003,-0.055500000000000105,0.11177000000000001,0.11094500000000002,0.0,213.22,213.21,210.03,210.03,0.0,0.0
19,0.0,1.0,0.0,1.0,1.0,0.0,0.0,1.0,0.0,100.0,1.0,1.1856,26.0,0.0,0.0,0.0,59.999996,0.0,26.0,26.0,26.0,26.0,-0.009222222222222222,0.29110000000000014,0.044775,291.931,-2.65275,-2.590875,-1.61475,-1.4608,-212.07,215.8475,190.595875,0.0,0.0,0.0,0.0,0.03856666666666653,-5.498166666666667,-5.498166666666667,-0.5503,0.8375,0.018444444444444263,0.7345,68.231,0.009000000000000001,-0.21122500000000002,-0.13399999999999945,100.0,1.0,1.0,210.41666666666669,0.0,0.0,0.0,0.0,0.0,0.0,0.0,8918.7,0.0,55.0,5.0,245.60000000000002,1.0,0.0,0.0,0.0,0.0,0.0,1.0,0.0,0.9540000000000006,0.9540000000000006,0.0,0.0,1.0,55.0,616.79921,10000.0,85.000001,85.000001,85.000001,85.000001,395.0,0.0,0.0,0.0,1.0,166.665,51.666,51.666,47.424,47.424,34.0,-23.47,25.578,-29.95,30.155,0.0,1782.711,-0.17999999999999972,100.0,28.528,28.212,42.995000000000005,43.165,0.0,1.0,100.0,0.0,0.0,0.0,0.0,3130.285714285714,3306.0,4234.666666666667,4403.9,305.1795,304.35475,314.5955,314.06125,21.958199999999998,20.612099999999998,21.9342,21.445,314.999998,314.999998,324.999988,324.999988,99.55925714285715,99.5074,99.567,99.54664285714286,0.08950000000000014,-0.04733333333333323,-0.10266666666666667,0.1255,-0.03499999999999659,-0.05833333333333002,1.5193333333333334,1.5115,38.239000000000004,29.826,38.089,35.031,56.093,35.205,59.5385,52.4095,54.022,34.329,58.134,50.735,53.18,33.8725,58.0565,50.14,-0.09699999999999998,-0.07000000000000006,0.11065000000000001,0.105565,0.0,213.65,213.65,210.41666666666669,210.41666666666669,0.0,0.0
20,0.0,1.0,0.0,1.0,1.0,0.0,0.0,1.0,0.0,100.0,1.0,1.1856,26.0,0.0,0.0,0.0,59.999996,0.0,26.0,26.0,26.0,26.0,0.02366666666666667,0.26550000000000007,-0.024925000000000003,292.313,-2.75175,-2.655125,-1.5388000000000002,-1.5859,-208.57999999999998,215.835,190.5735,0.0,0.0,0.0,0.0,0.04059999999999997,-5.498166666666667,-5.498166666666667,-0.5532,-1.0665,0.011666666666666714,-0.9735,68.369,0.0097,-0.22160000000000002,-0.040000000000000036,100.0,1.0,1.0,210.75666666666666,0.0,0.0,0.0,0.0,0.0,0.0,0.0,8933.2,0.0,55.0,5.0,246.10333333333335,0.0,0.0,0.0,0.0,0.0,0.0,0.0,0.0,1.004999999999999,1.004999999999999,0.0,0.0,0.0,55.0,616.79921,10000.0,85.000001,85.000001,85.000001,85.000001,395.0,0.0,0.0,0.0,1.0,333.33500000000004,52.78,52.78,46.936,46.936,34.0,-23.5575,23.35,-29.263333333333335,30.5325,0.0,1782.658,-0.11499999999999844,100.0,27.812,28.0,43.484,43.657,0.0,1.0,100.0,0.0,0.0,0.0,0.0,3033.0,3013.5,4238.0,4201.8,305.8125,305.126,314.51525,314.25625,21.9676,20.6176,21.9449,21.4542,314.999998,314.999998,324.999988,324.999988,99.55925714285715,99.5074,99.56714285714285,99.5468,0.07874999999999988,-0.05600000000000005,-0.10333333333333333,0.12,-0.036666666666668846,-0.04999999999999716,1.4663333333333333,1.4725,38.298,29.86,38.155,35.089,56.077,35.243,59.579499999999996,52.4735,54.007,34.364,58.173,50.797,53.164,33.906,58.092,50.2005,-0.08999999999999997,-0.06950000000000012,0.10652500000000001,0.10757000000000001,0.0,214.03,214.04500000000002,210.75666666666666,210.75666666666666,0.0,0.0
21,0.0,1.0,0.0,1.0,1.0,0.0,0.0,1.0,0.0,100.0,1.0,1.1856,26.0,0.0,0.0,0.0,59.999996,0.0,26.0,26.0,26.0,26.0,0.01955555555555556,0.2703,-0.067875,292.664,-2.71265,-2.713125,-1.6036000000000001,-1.5453000000000001,-205.3,215.8225,190.551875,0.0,0.0,0.0,0.0,0.04249999999999998,-5.498166666666667,-5.498166666666667,-0.5768,0.365,-0.006111111111111178,-0.968,68.494,0.005200000000000001,-0.2248,0.011999999999999567,100.0,1.0,1.0,211.36666666666667,0.0,0.0,0.0,0.0,0.0,0.0,0.0,8959.0,0.0,55.0,5.0,246.55,1.0,0.0,0.0,0.0,0.0,0.0,0.0,0.0,1.0530000000000008,1.0530000000000008,0.0,0.0,1.0,55.0,616.79921,10000.0,85.000001,85.000001,85.000001,85.000001,395.0,0.0,0.0,0.0,1.0,333.33500000000004,52.382999999999996,52.382999999999996,48.248,48.248,34.0,-24.6725,24.066,-28.403333333333336,26.78,0.0,1782.611,-0.1750000000000007,100.0,28.064,28.070999999999998,42.933,43.141999999999996,0.0,1.0,100.0,0.0,0.0,0.0,0.0,3205.0,3011.5,4040.1111111111113,3983.8,305.27,305.0725,315.1275,314.9905,21.9766,20.6229,21.9545,21.462699999999998,314.999998,314.999998,324.999988,324.999988,99.55927142857144,99.50741666666667,99.56727142857143,99.54694285714285,0.08174999999999999,-0.052000000000000046,-0.11516666666666667,0.1075,-0.045000000000001705,-0.05666666666667197,1.584,1.5835000000000001,38.354,29.893,38.216,35.1415,56.065,35.28,59.612,52.5285,53.995999999999995,34.3985,58.2025,50.85,53.152,33.939,58.119,50.2525,-0.09650000000000003,-0.05899999999999994,0.10825000000000001,0.09945000000000001,0.0,214.46,214.46,211.36666666666667,211.36666666666667,0.0,0.0
22,0.0,1.0,0.0,1.0,1.0,0.0,0.0,1.0,0.0,100.0,1.0,1.1856,26.0,0.0,0.0,0.0,59.999996,0.0,26.0,26.0,26.0,26.0,0.009555555555555555,0.27160000000000006,-0.005175,292.206,-2.6423,-2.7201250000000003,-1.5972,-1.5332,-201.8,215.81,190.528,0.0,0.0,0.0,0.0,0.044533333333333314,-5.498166666666667,-5.498166666666667,-0.5571,0.08550000000000002,0.005666666666666709,1.2790000000000001,68.633,0.0043,-0.20472500000000002,-0.07600000000000051,100.0,1.0,1.0,211.58333333333331,0.0,0.0,0.0,0.0,0.0,0.0,0.0,8968.3,0.0,55.0,5.0,247.05,0.0,0.0,0.0,0.0,0.0,0.0,0.0,0.0,1.1039999999999992,1.1039999999999992,0.0,0.0,0.0,55.0,616.79921,10000.0,85.000001,85.000001,85.000001,85.000001,395.0,0.0,0.0,0.0,1.0,333.33500000000004,52.49,52.49,47.165,47.165,34.0,-21.5175,24.848,-29.616666666666664,30.745,0.0,1782.56,-0.21499999999999986,100.0,28.294,28.006,43.336,43.26,0.0,1.0,100.0,0.0,0.0,0.0,0.0,2933.142857142857,3095.7,4215.888888888889,4365.8,305.7825,304.9585,314.57375,314.13075,21.9862,20.6284,21.9651,21.4718,314.999998,314.999998,324.999988,324.999988,99.55928571428572,99.50741666666667,99.56742857142856,99.54708571428571,0.09324999999999983,-0.04933333333333323,-0.10033333333333333,0.12,-0.02499999999999858,-0.060000000000002274,1.5003333333333333,1.4915,38.413,29.927666666666667,38.282,35.199,56.052,35.319,59.6525,52.591499999999996,53.983999999999995,34.4345,58.2405,50.9105,53.138,33.9735,58.1535,50.3115,-0.09450000000000003,-0.06550000000000011,0.10051500000000001,0.1121,0.0,214.875,214.885,211.58333333333331,211.58333333333331,0.0,0.0
23,0.0,1.0,0.0,1.0,1.0,0.0,0.0,1.0,0.0,100.0,1.0,1.1856,26.0,0.0,0.0,0.0,59.999996,0.0,26.0,26.0,26.0,26.0,-0.0012222222222222224,0.2611000000000001,-0.02135,292.206,-2.6784499999999998,-2.6656250000000004,-1.6508500000000002,-1.5066000000000002,-198.09,215.7975,190.50325,0.0,0.0,0.0,0.0,0.046699999999999964,-5.498166666666667,-5.498166666666667,-0.5766,-0.14400000000000013,0.006222222222222129,0.6295000000000001,68.774,0.0025,-0.23,-0.036000000000000476,100.0,1.0,1.0,212.15333333333334,0.0,0.0,0.0,0.0,0.0,0.0,0.0,8992.3,0.0,55.0,5.0,247.56,1.0,0.0,0.0,0.0,0.0,0.0,0.0,0.0,1.1580000000000013,1.1580000000000013,0.0,0.0,1.0,55.0,616.79921,10000.0,85.000001,85.000001,85.000001,85.000001,395.0,0.0,0.0,0.0,1.0,166.665,51.757999999999996,51.757999999999996,48.065,48.065,34.0,-24.4075,25.336,-28.606666666666666,28.07,0.0,1782.508,-0.245000000000001,100.0,28.509,28.12,43.369,43.494,0.0,1.0,100.0,0.0,0.0,0.0,0.0,3220.5714285714284,3188.0,4001.222222222222,4064.6000000000004,304.9795,304.7505,315.18825,314.868,21.9962,20.6344,21.9762,21.4816,314.999998,314.999998,324.999988,324.999988,99.55928571428572,99.50743333333334,99.56758571428571,99.54722857142858,0.09025000000000016,-0.04400000000000004,-0.1095,0.1295,-0.04999999999999716,-0.04999999999999716,1.553,1.553,38.477000000000004,29.965,38.351,35.26,56.039,35.361,59.692,52.6575,53.971000000000004,34.473,58.2775,50.974000000000004,53.123999999999995,34.0105,58.1875,50.374,-0.09799999999999998,-0.06350000000000011,0.102915,0.11629,0.0,215.31,215.29500000000002,212.15333333333334,212.15333333333334,0.0,0.0
24,0.0,1.0,0.0,1.0,1.0,0.0,0.0,1.0,0.0,100.0,1.0,1.1856,26.0,0.0,0.0,0.0,59.999996,0.0,26.0,26.0,26.0,26.0,0.0036666666666666666,0.27470000000000017,-0.034625,292.404,-2.7039,-2.671625,-1.56965,-1.5365,-194.99,215.785,190.482,0.0,0.0,0.0,0.0,0.04849999999999999,-5.498166666666667,-5.498166666666667,-0.5804,-0.3965000000000001,0.012777777777777777,-0.1345,68.894,0.0035,-0.218025,-0.07000000000000028,100.0,1.0,1.0,212.41333333333333,0.0,0.0,0.0,0.0,0.0,0.0,0.0,9003.4,0.0,55.0,5.0,247.99,0.0,0.0,0.0,0.0,0.0,0.0,0.0,0.0,1.2029999999999994,1.2029999999999994,0.0,0.0,0.0,55.0,616.79921,10000.0,85.000001,85.000001,85.000001,85.000001,395.0,0.0,0.0,0.0,1.0,333.33500000000004,52.856,52.856,47.211,47.211,34.0,-22.6875,22.915999999999997,-30.363333333333333,28.575,0.0,1782.461,-0.25,100.0,28.101,28.008,43.316,43.545,0.0,1.0,100.0,0.0,0.0,0.0,0.0,2993.4285714285716,2941.9,4304.444444444444,4141.3,305.843,305.38425,314.4055,314.5885,22.0045,20.6392,21.9854,21.4896,314.999998,314.999998,324.999988,324.999988,99.5593,99.50743333333334,99.56771428571429,99.54737142857142,0.08400000000000007,-0.05333333333333323,-0.11033333333333332,0.11233333333333333,-0.060000000000002274,-0.026666666666670835,1.5213333333333334,1.5050000000000001,38.528,29.994999999999997,38.409,35.3105,56.027,35.394,59.726,52.712,53.959,34.5035,58.309,51.0265,53.111999999999995,34.039500000000004,58.216,50.425,-0.09699999999999998,-0.0605,0.104385,0.10685000000000001,0.0,215.7,215.67000000000002,212.41333333333333,212.41333333333333,0.0,0.0
25,0.0,1.0,0.0,1.0,1.0,0.0,0.0,1.0,0.0,100.0,1.0,1.1856,26.0,0.0,0.0,0.0,59.999996,0.0,26.0,26.0,26.0,26.0,0.021,0.2693000000000001,-0.040350000000000004,292.221,-2.76905,-2.6327499999999997,-1.5844,-1.5413000000000001,-191.26999999999998,215.7725,190.45525,0.0,0.0,0.0,0.0,0.05066666666666653,-5.498166666666667,-5.498166666666667,-0.6092000000000001,0.08450000000000002,0.014666666666666606,-1.0575,69.03399999999999,0.0038,-0.22310000000000002,-0.0860000000000003,100.0,1.0,1.0,212.96666666666667,0.0,0.0,0.0,0.0,0.0,0.0,0.0,9026.9,0.0,55.0,5.0,248.49666666666667,1.0,0.0,0.0,0.0,0.0,0.0,0.0,0.0,1.256999999999998,1.256999999999998,0.0,0.0,1.0,55.0,616.79921,10000.0,85.000001,85.000001,85.000001,85.000001,395.0,0.0,0.0,0.0,1.0,166.665,51.712,51.712,47.958,47.958,34.0,-26.1525,25.944,-27.08,28.1375,0.0,1782.407,-0.2749999999999986,100.0,28.052,28.264,43.075,43.299,0.0,1.0,100.0,0.0,0.0,0.0,0.0,3348.5714285714284,3266.8,3978.222222222222,4046.8,304.902,304.35275,315.2355,314.808,22.014499999999998,20.6452,21.9964,21.499200000000002,314.999998,314.999998,324.999988,324.999988,99.55931428571428,99.50743333333334,99.56785714285714,99.54752857142857,0.08899999999999997,-0.044333333333333114,-0.10083333333333333,0.122,-0.054999999999999716,-0.04999999999999716,1.5686666666666667,1.5565,38.59,30.032333333333334,38.477000000000004,35.37,56.012,35.4355,59.7635,52.775,53.945,34.5415,58.3435,51.087,53.096000000000004,34.076499999999996,58.2475,50.485,-0.10399999999999998,-0.05800000000000005,0.10440500000000001,0.10646000000000001,0.0,216.125,216.12,212.96666666666667,212.96666666666667,0.0,0.0
26,0.0,1.0,0.0,1.0,1.0,0.0,0.0,1.0,0.0,100.0,1.0,1.1856,26.0,0.0,0.0,0.0,59.999996,0.0,26.0,26.0,26.0,26.0,-0.003777777777777778,0.27249999999999996,0.0839,291.138,-2.71825,-2.7121250000000003,-1.6334,-1.5366,-187.75,215.76,190.4295,0.0,0.0,0.0,0.0,0.05269999999999997,-5.498166666666667,-5.498166666666667,-0.5709000000000001,0.5145,0.0012222222222222356,0.7745,69.17,0.006500000000000001,-0.198625,-0.2160000000000002,100.0,1.0,1.0,213.10666666666668,0.0,0.0,0.0,0.0,0.0,0.0,0.0,9032.9,0.0,55.0,5.0,248.98333333333335,0.0,0.0,0.0,0.0,0.0,0.0,0.0,0.0,1.3079999999999998,1.3079999999999998,0.0,0.0,0.0,55.0,616.79921,10000.0,85.000001,85.000001,85.000001,85.000001,395.0,0.0,0.0,0.0,1.0,166.665,51.513999999999996,51.513999999999996,46.158,46.158,34.0,-23.3725,25.172,-33.07333333333333,33.565,0.0,1782.357,-0.3249999999999993,100.0,29.017,28.683,43.762,43.72,0.0,1.0,100.0,0.0,0.0,0.0,0.0,3132.285714285714,3128.9,4562.444444444444,4597.2,305.2605,304.864,313.79575,313.58175,22.0241,20.651,22.0069,21.508499999999998,314.999998,314.999998,324.999988,324.999988,99.55932857142857,99.50745,99.56801428571428,99.54767142857143,0.10475000000000012,-0.04733333333333323,-0.09433333333333332,0.12783333333333333,-0.030000000000001137,-0.051666666666669414,1.4313333333333333,1.4265,38.650999999999996,30.068666666666665,38.543,35.4285,56.001999999999995,35.4765,59.804,52.839,53.935,34.579499999999996,58.3815,51.1485,53.086,34.113,58.282,50.545,-0.10899999999999999,-0.05899999999999994,0.10944500000000001,0.10586500000000001,0.0,216.54500000000002,216.57999999999998,213.10666666666668,213.10666666666668,0.0,0.0
27,0.0,1.0,0.0,1.0,1.0,0.0,0.0,1.0,0.0,100.0,1.0,1.1856,26.0,0.0,0.0,0.0,59.999996,0.0,26.0,26.0,26.0,26.0,0.028555555555555556,0.24690000000000012,-0.029,291.656,-2.6884,-2.6731249999999998,-1.624,-1.6049,-184.63,215.75,190.407875,0.0,0.0,0.0,0.0,0.05453333333333332,-5.498166666666667,-5.498166666666667,-0.5963,-1.024,0.001777777777777878,-0.655,69.286,0.0092,-0.24125000000000002,-0.20000000000000018,100.0,1.0,1.0,213.5966666666667,0.0,0.0,0.0,0.0,0.0,0.0,0.0,9053.6,0.0,55.0,5.0,249.40333333333334,1.0,0.0,0.0,0.0,0.0,0.0,0.0,0.0,1.352999999999998,1.352999999999998,0.0,0.0,1.0,55.0,616.79921,10000.0,85.000001,85.000001,85.000001,85.000001,395.0,0.0,0.0,0.0,1.0,166.665,51.849000000000004,51.849000000000004,46.616,46.616,34.0,-23.1875,24.72,-29.506666666666664,29.52,0.0,1782.312,-0.3249999999999993,100.0,28.528,28.686,44.175,44.315,0.0,1.0,100.0,0.0,0.0,0.0,0.0,3130.142857142857,3097.2,4161.333333333333,4054.2,305.469,304.85775,314.74975,314.6895,22.0323,20.6559,22.0163,21.5168,314.999998,314.999998,324.999988,324.999988,99.55932857142857,99.50745,99.56814285714286,99.5478,0.09675000000000011,-0.04600000000000004,-0.10083333333333333,0.12216666666666667,-0.060000000000002274,-0.03499999999999659,1.5026666666666668,1.4865,38.702,30.099666666666664,38.602000000000004,35.480000000000004,55.989999999999995,35.5105,59.8395,52.894999999999996,53.924,34.6115,58.414500000000004,51.2025,53.074,34.143,58.3125,50.5975,-0.10949999999999993,-0.05600000000000005,0.107075,0.10803000000000001,0.0,216.89,216.86,213.5966666666667,213.5966666666667,0.0,0.0
28,0.0,1.0,0.0,1.0,1.0,0.0,0.0,1.0,0.0,100.0,1.0,1.1856,26.0,0.0,0.0,0.0,59.999996,0.0,26.0,26.0,26.0,26.0,0.02188888888888889,0.26239999999999997,-0.04485,291.901,-2.67105,-2.6736250000000004,-1.6189,-1.569,-181.09,215.74,190.382375,0.0,0.0,0.0,0.0,0.05656666666666654,-5.498166666666667,-5.498166666666667,-0.6035,0.6315,-0.0023333333333335204,0.6605,69.41499999999999,0.0132,-0.21925,-0.26399999999999935,100.0,1.0,1.0,214.12,0.0,0.0,0.0,0.0,0.0,0.0,0.0,9075.7,0.0,55.0,5.0,249.87,0.0,0.0,0.0,0.0,0.0,0.0,0.0,0.0,1.404,1.404,0.0,0.0,0.0,55.0,616.79921,10000.0,85.000001,85.000001,85.000001,85.000001,395.0,0.0,0.0,0.0,1.0,333.33500000000004,51.682,51.682,47.623,47.623,34.0,-22.662499999999998,25.918,-27.68,29.955000000000002,0.0,1782.26,-0.3200000000000003,100.0,28.787,28.474,43.553,43.702,0.0,1.0,100.0,0.0,0.0,0.0,0.0,3117.4285714285716,3187.0,4028.4444444444443,4160.7,305.277,304.742,315.1505,314.632,22.0418,20.6617,22.0266,21.5258,314.999998,314.999998,324.999988,324.999988,99.55935714285714,99.50746666666667,99.56828571428571,99.54795714285714,0.10875000000000012,-0.03299999999999992,-0.09516666666666668,0.13316666666666666,-0.04999999999999716,-0.04999999999999716,1.5606666666666666,1.551,38.760999999999996,30.135333333333335,38.666,35.536,55.979,35.55,59.8735,52.954,53.913,34.647999999999996,58.446,51.259,53.062,34.178,58.3405,50.653,-0.11049999999999993,-0.05449999999999999,0.106535,0.10937000000000001,0.0,217.325,217.325,214.12,214.12,0.0,0.0
29,0.0,1.0,0.0,1.0,1.0,0.0,0.0,1.0,0.0,100.0,1.0,1.1856,26.0,0.0,0.0,0.0,59.999996,0.0,26.0,26.0,26.0,26.0,0.03933333333333334,0.2491000000000001,0.02815,291.626,-2.6614,-2.7115,-1.57245,-1.5503,-177.55,215.73000000000002,190.356,0.0,0.0,0.0,0.0,0.058633333333333315,-5.498166666666667,-5.498166666666667,-0.6059,-0.6990000000000001,-0.000888888888888939,-0.6465,69.55,0.017400000000000002,-0.217725,-0.24600000000000044,100.0,1.0,1.0,214.35000000000002,0.0,0.0,0.0,0.0,0.0,0.0,0.0,9085.5,0.0,55.0,5.0,250.35333333333335,1.0,0.0,0.0,0.0,0.0,0.0,0.0,0.0,1.4549999999999983,1.4549999999999983,0.0,0.0,1.0,55.0,616.79921,10000.0,85.000001,85.000001,85.000001,85.000001,395.0,0.0,0.0,0.0,1.0,166.665,51.941,51.941,46.6,46.6,34.0,-23.2275,25.072000000000003,-29.419999999999998,31.07,0.0,1782.21,-0.3049999999999997,100.0,28.255,28.509999999999998,43.848,44.057,0.0,1.0,100.0,0.0,0.0,0.0,0.0,3182.5714285714284,3089.8,4241.555555555556,4265.5,305.346,304.798,314.538,314.2315,22.051,20.6673,22.0372,21.5351,314.999998,314.999998,324.999988,324.999988,99.55935714285714,99.50746666666667,99.56844285714286,99.5481,0.09975000000000023,-0.04699999999999993,-0.09633333333333333,0.13033333333333336,-0.041666666666671404,-0.04999999999999716,1.4673333333333334,1.4655,38.819,30.170333333333332,38.732,35.5945,55.965,35.588,59.9135,53.016999999999996,53.9,34.683,58.4835,51.3195,53.048,34.2115,58.3745,50.7125,-0.10599999999999998,-0.056499999999999995,0.10156000000000001,0.10747500000000001,0.0,217.69,217.69,214.35000000000002,214.35000000000002,0.0,0.0
30,0.0,1.0,0.0,1.0,1.0,0.0,0.0,1.0,0.0,100.0,1.0,1.1856,26.0,0.0,0.0,0.0,59.999996,0.0,26.0,26.0,26.0,26.0,0.029777777777777778,0.24150000000000005,0.013325,291.183,-2.7185,-2.59825,-1.5463,-1.6027,-174.20999999999998,215.72,190.331125,0.0,0.0,0.0,0.0,0.06059999999999999,-5.498166666666667,-5.498166666666667,-0.6064,0.7935,-0.001777777777777878,-0.7675000000000001,69.67099999999999,0.0171,-0.221475,-0.16999999999999993,100.0,1.0,1.0,214.81333333333333,0.0,0.0,0.0,0.0,0.0,0.0,0.0,9105.1,0.0,55.0,5.0,250.78666666666666,0.0,0.0,0.0,0.0,0.0,0.0,1.0,0.0,1.5030000000000001,1.5030000000000001,0.0,0.0,0.0,55.0,616.79921,10000.0,85.000001,85.000001,85.000001,85.000001,395.0,0.0,0.0,0.0,1.0,166.665,50.659,50.659,47.15,47.15,34.0,-25.4925,25.654,-28.286666666666665,30.505,0.0,1782.161,-0.36499999999999844,100.0,29.099,29.236,43.602000000000004,44.044,0.0,1.0,100.0,0.0,0.0,0.0,0.0,3404.285714285714,3195.9,4177.555555555556,4156.5,304.604,304.4525,314.77275,314.46875,22.06,20.6729,22.047,21.5438,314.999998,314.999998,324.999988,324.999988,99.55938571428571,99.50748333333334,99.56858571428572,99.54824285714285,0.10650000000000004,-0.032333333333333325,-0.09633333333333333,0.12516666666666668,-0.051666666666669414,-0.04999999999999716,1.4966666666666666,1.4895,38.875,30.205333333333336,38.794,35.6485,55.957,35.626999999999995,59.9465,53.0745,53.891999999999996,34.719,58.513999999999996,51.375,53.038,34.2465,58.4025,50.7665,-0.11699999999999999,-0.052999999999999936,0.10429500000000001,0.10377000000000002,0.0,218.11,218.125,214.81333333333333,214.81333333333333,0.0,0.0
31,0.0,1.0,0.0,1.0,1.0,0.0,0.0,1.0,0.0,100.0,1.0,1.1856,26.0,0.0,0.0,0.0,59.999996,0.0,26.0,26.0,26.0,26.0,0.010888888888888889,0.2561,0.038400000000000004,290.909,-2.77625,-2.5871250000000003,-1.5899,-1.5028000000000001,-170.64999999999998,215.71,190.30525,0.0,0.0,0.0,0.0,0.06266666666666654,-5.498166666666667,-5.498166666666667,-0.5899,-0.496,0.00377777777777788,0.5660000000000001,69.803,0.0204,-0.221175,-0.34799999999999986,100.0,1.0,1.0,215.08666666666667,0.0,0.0,0.0,0.0,0.0,0.0,0.0,9116.7,0.0,55.0,5.0,251.26333333333332,1.0,0.0,0.0,0.0,0.0,0.0,1.0,0.0,1.5539999999999985,1.5539999999999985,0.0,0.0,1.0,55.0,616.79921,10000.0,85.000001,85.000001,85.000001,85.000001,395.0,0.0,0.0,0.0,1.0,166.665,51.269999999999996,51.269999999999996,45.609,45.609,34.0,-23.1525,26.424,-29.413333333333334,31.2625,0.0,1782.111,-0.384999999999998,100.0,28.982,29.053,44.488,44.664,0.0,1.0,100.0,0.0,0.0,0.0,0.0,3114.714285714286,3331.4,4313.0,4277.0,305.466,304.4275,314.27875,314.2485,22.0694,20.6787,22.0577,21.5532,314.999998,314.999998,324.999988,324.999988,99.55938571428571,99.50748333333334,99.56872857142857,99.5484,0.11500000000000021,-0.030333333333333323,-0.07766666666666668,0.14266666666666666,-0.030000000000001137,-0.03999999999999915,1.4576666666666667,1.429,38.934,30.241666666666667,38.86,35.707499999999996,55.945,35.667,59.9875,53.1395,53.881,34.756,58.5525,51.4375,53.025999999999996,34.282,58.437,50.8275,-0.11199999999999999,-0.05750000000000011,0.10787000000000001,0.10607000000000001,0.0,218.47,218.485,215.08666666666667,215.08666666666667,0.0,0.0
32,0.0,1.0,0.0,1.0,1.0,0.0,0.0,1.0,0.0,100.0,1.0,1.1856,26.0,0.0,0.0,0.0,59.999996,0.0,26.0,26.0,26.0,26.0,0.020555555555555556,0.2692000000000001,-0.030600000000000002,291.122,-2.6795,-2.69925,-1.5722,-1.5148000000000001,-166.88,215.7025,190.278125,0.0,0.0,0.0,0.0,0.0648333333333333,-5.498166666666667,-5.498166666666667,-0.6053000000000001,-0.07550000000000012,-0.020777777777778006,0.334,69.939,0.0229,-0.22760000000000002,-0.3460000000000001,100.0,1.0,1.0,215.57,0.0,0.0,0.0,0.0,0.0,0.0,0.0,9137.3,0.0,55.0,5.0,251.75333333333333,0.0,0.0,0.0,0.0,0.0,0.0,1.0,0.0,1.6080000000000005,1.6080000000000005,0.0,0.0,0.0,55.0,616.79921,10000.0,85.000001,85.000001,85.000001,85.000001,395.0,0.0,0.0,0.0,1.0,166.665,51.407,51.407,46.371,46.371,34.0,-22.4225,26.177999999999997,-28.043333333333333,31.650000000000002,0.0,1782.055,-0.3550000000000004,100.0,28.978,28.996000000000002,44.302,44.525999999999996,0.0,1.0,100.0,0.0,0.0,0.0,0.0,3117.142857142857,3172.0,4188.111111111111,4375.2,305.322,304.772,314.63475,314.15925,22.0793,20.6848,22.0687,21.563,314.999998,314.999998,324.999988,324.999988,99.55941428571428,99.50748333333334,99.56888571428571,99.54855714285715,0.11525000000000007,-0.030000000000000027,-0.08166666666666668,0.14116666666666666,-0.03166666666666629,-0.05333333333332746,1.5186666666666666,1.508,38.995000000000005,30.28,38.929,35.7685,55.933,35.709,60.025999999999996,53.2035,53.869,34.795,58.588,51.4995,53.013,34.319,58.4695,50.888,-0.10699999999999998,-0.05950000000000011,0.102855,0.10541,0.0,218.9,218.91500000000002,215.57,215.57,0.0,0.0
33,0.0,1.0,0.0,1.0,1.0,0.0,0.0,1.0,0.0,100.0,1.0,1.1856,26.0,0.0,0.0,0.0,59.999996,0.0,26.0,26.0,26.0,26.0,0.03988888888888888,0.24839999999999995,-0.0223,291.428,-2.724,-2.68225,-1.58615,-1.5967,-163.73000000000002,215.695,190.254625,0.0,0.0,0.0,0.0,0.06666666666666654,-5.498166666666667,-5.498166666666667,-0.6143000000000001,-0.3454999999999999,-0.017555555555555546,-0.047,70.05199999999999,0.0207,-0.21782500000000002,-0.19200000000000017,100.0,1.0,1.0,215.93333333333334,0.0,0.0,0.0,0.0,0.0,0.0,0.0,9152.6,0.0,55.0,5.0,252.16,1.0,0.0,0.0,0.0,0.0,0.0,1.0,0.0,1.6529999999999987,1.6529999999999987,0.0,0.0,1.0,55.0,616.79921,10000.0,85.000001,85.000001,85.000001,85.000001,395.0,0.0,0.0,0.0,1.0,333.33500000000004,51.757999999999996,51.757999999999996,46.616,46.616,34.0,-23.3775,24.742,-29.099999999999998,31.395,0.0,1782.011,-0.384999999999998,100.0,28.65,28.874,44.081,44.477000000000004,0.0,1.0,100.0,0.0,0.0,0.0,0.0,3181.5714285714284,3047.4,4208.777777777777,4219.9,305.391,305.02575,314.67375,314.41375,22.0874,20.689799999999998,22.0779,21.5711,314.999998,314.999998,324.999988,324.999988,99.55941428571428,99.50748333333334,99.56902857142857,99.54868571428571,0.10899999999999999,-0.03633333333333311,-0.096,0.13566666666666666,-0.03833333333332689,-0.04999999999999716,1.5083333333333333,1.4935,39.046,30.311,38.986999999999995,35.8195,55.923,35.7415,60.0585,53.257,53.858999999999995,34.825,58.618,51.5505,53.001999999999995,34.348,58.4965,50.938,-0.11349999999999993,-0.0515000000000001,0.10705,0.11149,0.0,219.245,219.255,215.93333333333334,215.93333333333334,0.0,0.0
34,0.0,1.0,0.0,1.0,1.0,0.0,0.0,1.0,0.0,100.0,1.0,1.1856,26.0,0.0,0.0,0.0,59.999996,0.0,26.0,26.0,26.0,26.0,0.025555555555555557,0.25140000000000007,-0.05715,291.733,-2.6578,-2.68475,-1.6438000000000001,-1.557,-160.14999999999998,215.69,190.226625,0.0,0.0,0.0,0.0,0.06876666666666653,-5.498166666666667,-5.498166666666667,-0.6412,-0.7284999999999999,0.008999999999999897,0.8335,70.181,0.0217,-0.22337500000000002,-0.29600000000000026,100.0,1.0,1.0,216.33666666666667,0.0,0.0,0.0,0.0,0.0,0.0,0.0,9169.7,0.0,55.0,5.0,252.62333333333333,0.0,0.0,0.0,0.0,0.0,0.0,1.0,0.0,1.7040000000000006,1.7040000000000006,0.0,0.0,0.0,55.0,616.79921,10000.0,85.000001,85.000001,85.000001,85.000001,395.0,0.0,0.0,0.0,1.0,333.33500000000004,52.094,52.094,47.241,47.241,34.0,-21.9675,25.256,-28.486666666666665,30.4875,0.0,1781.959,-0.370000000000001,100.0,28.558,28.44,43.942,44.412,0.0,1.0,100.0,0.0,0.0,0.0,0.0,3070.285714285714,3098.1,4077.8888888888887,4224.1,305.508,305.09425,314.97125,314.42275,22.0966,20.6954,22.0883,21.5804,314.999998,314.999998,324.999988,324.999988,99.55944285714286,99.5075,99.56917142857142,99.54884285714286,0.11100000000000021,-0.02933333333333321,-0.0905,0.13033333333333336,-0.051666666666669414,-0.051666666666669414,1.5206666666666666,1.516,39.104,30.346,39.052,35.8775,55.91,35.7785,60.093,53.319,53.847,34.859,58.6505,51.61,52.989000000000004,34.3805,58.525999999999996,50.9965,-0.11099999999999999,-0.05499999999999994,0.107465,0.09847,0.0,219.63,219.64499999999998,216.33666666666664,216.33666666666667,0.0,0.0
35,0.0,1.0,0.0,1.0,1.0,0.0,0.0,1.0,0.0,100.0,1.0,1.1856,26.0,0.0,0.0,0.0,59.999996,0.0,26.0,26.0,26.0,26.0,0.014666666666666666,0.2490000000000001,-0.08665,291.718,-2.7162,-2.623,-1.6183,-1.5178,-156.36,215.6825,190.194875,0.0,0.0,0.0,0.0,0.07096666666666651,-5.498166666666667,-5.498166666666667,-0.6825,-0.22199999999999998,-0.009111111111111292,-0.0685,70.314,0.0262,-0.22867500000000002,-0.33000000000000007,100.0,1.0,1.0,216.83333333333331,0.0,0.0,0.0,0.0,0.0,0.0,0.0,9190.8,0.0,55.0,5.0,253.10666666666668,1.0,0.0,0.0,0.0,0.0,0.0,1.0,0.0,1.7579999999999991,1.7579999999999991,0.0,0.0,1.0,55.0,616.79921,10000.0,85.000001,85.000001,85.000001,85.000001,395.0,0.0,0.0,0.0,1.0,166.665,51.559,51.559,46.86,46.86,34.0,-22.8025,27.486,-26.806666666666665,28.54,0.0,1781.907,-0.19500000000000028,100.0,28.377,28.72,43.754,43.877,0.0,1.0,100.0,0.0,0.0,0.0,0.0,3090.142857142857,3408.4,3995.0,4029.2,305.455,304.07975,315.11825,314.9335,22.1062,20.7015,22.0992,21.59,314.999998,314.999998,324.999988,324.999988,99.55944285714286,99.5075,99.56932857142857,99.549,0.10850000000000026,-0.03400000000000003,-0.07816666666666668,0.13866666666666666,-0.041666666666671404,-0.05666666666667197,1.544,1.542,39.164,30.384333333333334,39.12,35.9375,55.894,35.82,60.129999999999995,53.3795,53.832,34.8975,58.685,51.6685,52.973,34.417500000000004,58.557,51.0535,-0.09699999999999998,-0.06699999999999995,0.10754500000000002,0.10115500000000001,0.0,220.055,220.075,216.83333333333334,216.83333333333331,0.0,0.0
36,0.0,1.0,0.0,1.0,1.0,0.0,0.0,1.0,0.0,100.0,1.0,1.1856,26.0,0.0,0.0,0.0,59.999996,0.0,26.0,26.0,26.0,26.0,0.039,0.2641,0.061825000000000005,291.0,-2.6389,-2.72425,-1.56475,-1.5796000000000001,-152.98,215.6775,190.165375,0.0,0.0,0.0,0.0,0.0729333333333333,-5.498166666666667,-5.498166666666667,-0.6633,0.19299999999999995,-0.052000000000000046,0.202,70.437,0.024900000000000002,-0.2028,-0.12199999999999989,100.0,1.0,1.0,216.98000000000002,0.0,0.0,0.0,0.0,0.0,0.0,0.0,9197.0,0.0,55.0,5.0,253.54666666666668,0.0,0.0,0.0,0.0,0.0,0.0,1.0,0.0,1.806000000000001,1.806000000000001,0.0,0.0,0.0,55.0,616.79921,10000.0,85.000001,85.000001,85.000001,85.000001,395.0,0.0,0.0,0.0,1.0,166.665,51.483000000000004,51.483000000000004,46.28,46.28,34.0,-21.79,25.954,-29.666666666666664,34.712500000000006,0.0,1781.86,-0.10999999999999943,100.0,28.992,28.835,43.962,44.150999999999996,0.0,1.0,100.0,0.0,0.0,0.0,0.0,3041.714285714286,3163.9,4385.333333333333,4549.8,305.3595,304.7305,314.198,313.70775,22.115,20.707,22.109099999999998,21.5988,314.999998,314.999998,324.999988,324.999988,99.55945714285714,99.5075,99.56947142857143,99.54914285714285,0.1120000000000001,-0.040999999999999925,-0.079,0.14316666666666666,-0.036666666666668846,-0.04999999999999716,1.4493333333333334,1.4375,39.219,30.419,39.182,35.9925,55.884,35.858000000000004,60.1655,53.438,53.822,34.9325,58.718,51.725,52.962,34.451499999999996,58.5865,51.1085,-0.08999999999999997,-0.07550000000000012,0.10273,0.11178500000000001,0.0,220.465,220.47500000000002,216.98000000000002,216.98000000000002,0.0,0.0
