,ABS Active,ABS Enabled,AID Allow Tire Blankets,AID Auto Blip,AID Auto Clutch,AID Auto Shift,AID Fuel Rate,AID Ideal Line,AID Mech Damage,AID Stability,AID Tire Wear Rate,Air Density,Air Temp,Ballast,Best Lap Delta,Best Lap Time,Brake Bias,Brake Pos,Brake Temp FL,Brake Temp FR,Brake Temp RL,Brake Temp RR,CG Accel Lateral,CG Accel Longitudinal,CG Accel Vertical,CG Height,Camber FL,Camber FR,Camber RL,Camber RR,Car Coord X,Car Coord Y,Car Coord Z,Car Damage Front,Car Damage Left,Car Damage Rear,Car Damage Right,Car Pos Norm,Caster FL,Caster FR,Chassis Pitch Angle,Chassis Pitch Rate,Chassis Roll Angle,Chassis Roll Rate,Chassis Velocity X,Chassis Velocity Y,Chassis Velocity Z,Chassis Yaw Rate,Clutch Pos,DRS Active,DRS Available,Drive Train Speed,ERS Heat Charging,ERS Is Charging,ERS Max Energy,ERS Power Level,ERS Recovery Level,Engine Brake Setting,Engine Limiter,Engine RPM,Flags,Fuel Level,Gear,Ground Speed,HR Sample Clock,In Pit,KERS Charge,KERS Deployed Energy,KERS Input,KERS Max Energy,LR Sample Clock,Lap Invalidated,Lap Time,Lap Time2,Last Lap Time,Last Sector Time,MR Sample Clock,Max Fuel,Max Power,Max RPM,Max Sus Travel FL,Max Sus Travel FR,Max Sus Travel RL,Max Sus Travel RR,Max Torque,Max Turbo Boost,Num Tires Off Track,Penalties Enabled,Position,Raw Data Sample Rate,Ride Height FL,Ride Height FR,Ride Height RL,Ride Height RR,Road Temp,Self Align Torque FL,Self Align Torque FR,Self Align Torque RL,Self Align Torque RR,Session Lap Count,Session Time Left,Steering Angle,Surface Grip,Suspension Travel FL,Suspension Travel FR,Suspension Travel RL,Suspension Travel RR,TC Active,TC Enabled,Throttle Pos,Tire Dirt Level FL,Tire Dirt Level FR,Tire Dirt Level RL,Tire Dirt Level RR,Tire Load FL,Tire Load FR,Tire Load RL,Tire Load RR,Tire Loaded Radius FL,Tire Loaded Radius FR,Tire Loaded Radius RL,Tire Loaded Radius RR,Tire Pressure FL,Tire Pressure FR,Tire Pressure RL,Tire Pressure RR,Tire Radius FL,Tire Radius FR,Tire Radius RL,Tire Radius RR,Tire Rubber Grip FL,Tire Rubber Grip FR,Tire Rubber Grip RL,Tire Rubber Grip RR,Tire Slip Angle FL,Tire Slip Angle FR,Tire Slip Angle RL,Tire Slip Angle RR,Tire Slip Ratio FL,Tire Slip Ratio FR,Tire Slip Ratio RL,Tire Slip Ratio RR,Tire Temp Core FL,Tire Temp Core FR,Tire Temp Core RL,Tire Temp Core RR,Tire Temp Inner FL,Tire Temp Inner FR,Tire Temp Inner RL,Tire Temp Inner RR,Tire Temp Middle FL,Tire Temp Middle FR,Tire Temp Middle RL,Tire Temp Middle RR,Tire Temp Outer FL,Tire Temp Outer FR,Tire Temp Outer RL,Tire Temp Outer RR,Toe In FL,Toe In FR,Toe In RL,Toe In RR,Turbo Boost,Wheel Angular Speed FL,Wheel Angular Speed FR,Wheel Angular Speed RL,Wheel Angular Speed RR,Wind Direction,Wind Speed
0,0.0,1.0,0.0,1.0,1.0,0.0,0.0,1.0,0.0,100.0,1.0,1.1856,26.0,0.0,0.0,0.0,59.99999,0.0,26.0,26.0,26.0,26.0,-0.1725,0.3005,0.07150000000000001,293.854,-2.6597,-2.7135555555555557,-1.4698,-1.6056,-275.56,216.245,190.98675,0.0,0.0,0.0,0.0,0.0016666666666665941,-5.498166666666667,-5.498166666666667,-0.5466,1.576,-0.06125000000000025,-0.5110000000000001,65.5,-0.11320000000000001,-0.2127,1.7479999999999993,100.0,1.0,1.0,202.23000000000002,0.0,0.0,0.0,0.0,0.0,0.0,0.0,8571.8,0.0,55.0,5.0,235.76999999999998,0.0,0.0,0.0,0.0,0.0,0.0,0.0,0.0,0.006000000000000227,0.006000000000000227,0.0,0.0,0.0,55.0,616.79921,10000.0,85.0,85.0,85.0,85.0,395.0,0.0,0.0,0.0,1.0,20.0,52.582,52.582,49.347,49.347,34.0,-29.555,20.07,-34.81,21.705,0.0,1783.619,1.1400000000000006,100.0,28.009,26.781,41.114000000000004,39.949,0.0,1.0,100.0,0.0,0.0,0.0,0.0,3098.4285714285716,3293.8,4218.111111111111,3976.7,305.373,304.352,314.5595,314.9275,21.759999999999998,20.509900000000002,21.7377,21.2774,314.99999,314.99999,324.99998,324.99998,99.55802857142857,99.50713333333333,99.56388571428572,99.54382857142858,-0.06866666666666665,-0.18966666666666665,-0.24066666666666667,-0.0075,-0.07166666666666544,-0.048571428571428044,1.5285,1.6006666666666667,37.0,29.186500000000002,36.86,33.9835,55.983000000000004,34.381,58.632,51.158,53.928,33.59,57.284,49.5385,53.114,33.1875,57.2605,48.970333333333336,0.01200000000000001,-0.16400000000000015,0.10214000000000001,0.11439,0.0,205.335,205.17000000000002,202.23000000000002,202.23000000000002,0.0,0.0
1,0.0,1.0,0.0,1.0,1.0,0.0,0.0,1.0,0.0,100.0,1.0,1.1856,26.0,0.0,0.0,0.0,59.999996,0.0,26.0,26.0,26.0,26.0,-0.19974999999999998,0.3265,0.1918,293.015,-2.58405,-2.8195555555555556,-1.4797,-1.5975000000000001,-272.22,216.2525,190.96675,0.0,0.0,0.0,0.0,0.0035999999999999366,-5.498166666666667,-5.498166666666667,-0.4973,-1.0194999999999999,-0.10587500000000016,-0.43100000000000005,65.656,-0.11950000000000001,-0.19787500000000002,1.950000000000001,100.0,1.0,1.0,202.35,0.0,0.0,0.0,0.0,0.0,0.0,0.0,8576.9,0.0,55.0,5.0,236.32999999999998,1.0,0.0,0.0,0.0,0.0,0.0,0.0,0.0,0.05699999999999861,0.05699999999999861,0.0,0.0,1.0,55.0,616.79921,10000.0,85.000001,85.000001,85.000001,85.000001,395.0,0.0,0.0,0.0,1.0,333.33500000000004,53.558,53.558,48.248,48.248,34.0,-30.8825,15.305999999999997,-39.56,25.2175,0.0,1783.568,1.1600000000000001,100.0,27.875,26.663,42.982,41.226,0.0,1.0,100.0,0.0,0.0,0.0,0.0,3234.857142857143,2586.8,4479.444444444444,4665.7,305.0605,306.63433333333336,313.809,313.19675,21.7699,20.5147,21.7485,21.2864,314.999998,314.999998,324.999988,324.999988,99.55805714285714,99.50715,99.56404285714285,99.54397142857142,-0.08333333333333326,-0.20599999999999996,-0.2591666666666667,-0.03216666666666666,-0.03833333333332689,-0.05857142857143316,1.384,1.4653333333333334,37.062,29.217,36.928,34.04,55.972,34.4235,58.6825,51.2245,53.918,33.629,57.3315,49.602000000000004,53.103,33.2245,57.3055,49.032333333333334,0.016999999999999904,-0.16300000000000026,0.10752500000000001,0.108965,0.0,205.72500000000002,205.595,202.35,202.35,0.0,0.0
2,0.0,1.0,0.0,1.0,1.0,0.0,0.0,1.0,0.0,100.0,1.0,1.1856,26.0,0.0,0.0,0.0,59.999996,0.0,26.0,26.0,26.0,26.0,-0.21687499999999993,0.29679999999999995,-0.09266,293.839,-2.56705,-2.8281111111111112,-1.4585,-1.6344,-268.86,216.2525,190.948,0.0,0.0,0.0,0.0,0.005566666666666609,-5.498166666666667,-5.498166666666667,-0.5565,0.23449999999999993,-0.07799999999999985,2.701,65.79599999999999,-0.13140000000000002,-0.26132500000000003,2.122,100.0,1.0,1.0,203.34666666666666,0.0,0.0,0.0,0.0,0.0,0.0,0.0,8619.1,0.0,55.0,5.0,236.84,0.0,0.0,0.0,0.0,0.0,0.0,0.0,0.0,0.10800000000000054,0.10800000000000054,0.0,0.0,0.0,55.0,616.79921,10000.0,85.000001,85.000001,85.000001,85.000001,395.0,0.0,0.0,0.0,1.0,166.665,52.353,52.353,50.507,50.507,34.0,-32.245,17.974,-30.759999999999998,17.29,0.0,1783.519,0.9800000000000004,100.0,28.707,26.688,42.731,40.772,0.0,1.0,100.0,0.0,0.0,0.0,0.0,3362.0,2952.3,3705.8888888888887,3639.5,304.411,305.512,315.7435,315.89525,21.7802,20.5196,21.7589,21.295,314.999998,314.999998,324.999988,324.999988,99.55805714285714,99.50718333333333,99.56418571428571,99.5441,-0.07600000000000007,-0.20499999999999996,-0.2758333333333333,-0.053,-0.05666666666667197,-0.06428571428571672,1.6335,1.73,37.126000000000005,29.247500000000002,36.992999999999995,34.094,55.965,34.4655,58.7225,51.2815,53.911,33.667500000000004,57.369,49.657,53.095,33.2615,57.34,49.086,-0.0009999999999998899,-0.15649999999999986,0.10422000000000001,0.10451,0.0,206.17000000000002,206.025,203.3466666666667,203.34666666666666,0.0,0.0
3,0.0,1.0,0.0,1.0,1.0,0.0,0.0,1.0,0.0,100.0,1.0,1.1856,26.0,0.0,0.0,0.0,59.999996,0.0,26.0,26.0,26.0,26.0,-0.20799999999999996,0.3076000000000001,-0.05404,293.488,-2.6856,-2.733,-1.4744000000000002,-1.6258,-265.51,216.25,190.92825,0.0,0.0,0.0,0.0,0.007499999999999951,-5.498166666666667,-5.498166666666667,-0.5089,0.358,-0.05187499999999989,-1.126,65.95,-0.1384,-0.1995,1.6180000000000003,100.0,1.0,1.0,203.43666666666667,0.0,0.0,0.0,0.0,0.0,0.0,0.0,8622.9,0.0,55.0,5.0,237.38666666666666,1.0,0.0,0.0,0.0,0.0,0.0,0.0,0.0,0.15899999999999892,0.15899999999999892,0.0,0.0,1.0,55.0,616.79921,10000.0,85.000001,85.000001,85.000001,85.000001,395.0,0.0,0.0,0.0,1.0,166.665,53.65,53.65,48.126,48.126,34.0,-27.685000000000002,15.541999999999998,-38.849999999999994,21.72,0.0,1783.467,0.7850000000000001,100.0,28.188,26.826999999999998,42.659,41.03,0.0,1.0,100.0,0.0,0.0,0.0,0.0,2908.285714285714,2687.9,4422.333333333333,4187.1,305.958,306.0973333333333,314.0625,314.3975,21.79,20.5247,21.7693,21.3038,314.999998,314.999998,324.999988,324.999988,99.55807142857142,99.5072,99.56432857142858,99.54424285714286,-0.06933333333333325,-0.20533333333333337,-0.26916666666666667,-0.043166666666666666,-0.046666666666666856,-0.04285714285714448,1.458,1.5313333333333334,37.187,29.279,37.058,34.149,55.953,34.51,58.7655,51.3455,53.899,33.708,57.4095,49.718,53.082,33.3,57.3775,49.146,-0.01550000000000007,-0.13600000000000012,0.10808000000000001,0.105285,0.0,206.655,206.53,203.43666666666667,203.43666666666667,0.0,0.0
4,0.0,1.0,0.0,1.0,1.0,0.0,0.0,1.0,0.0,100.0,1.0,1.1856,26.0,0.0,0.0,0.0,59.999996,0.0,26.0,26.0,26.0,26.0,-0.19862499999999994,0.27290000000000014,-0.00444,293.625,-2.625,-2.775555555555556,-1.4983,-1.6259000000000001,-262.34,216.24,190.909625,0.0,0.0,0.0,0.0,0.009366666666666523,-5.498166666666667,-5.498166666666667,-0.5471,-0.778,-0.11050000000000004,-1.44,66.086,-0.12860000000000002,-0.2401,1.482000000000001,100.0,1.0,1.0,204.02666666666667,0.0,0.0,0.0,0.0,0.0,0.0,0.0,8647.9,0.0,55.0,5.0,237.88333333333333,0.0,0.0,0.0,0.0,0.0,0.0,0.0,0.0,0.20700000000000074,0.20700000000000074,0.0,0.0,0.0,55.0,616.79921,10000.0,85.000001,85.000001,85.000001,85.000001,395.0,0.0,0.0,0.0,1.0,166.665,52.948,52.948,48.874,48.874,34.0,-31.8525,17.05,-35.03333333333333,18.745,0.0,1783.419,0.745000000000001,100.0,27.97,26.686,43.077,41.082,0.0,1.0,100.0,0.0,0.0,0.0,0.0,3353.4285714285716,2840.3,4119.222222222223,3650.4,304.775,305.64733333333334,314.75425,315.71475,21.7992,20.5294,21.7793,21.3121,314.999998,314.999998,324.999988,324.999988,99.55808571428571,99.50723333333333,99.56447142857142,99.54437142857142,-0.06833333333333313,-0.20199999999999996,-0.2583333333333333,-0.03116666666666667,-0.051666666666669414,-0.054285714285711606,1.5554999999999999,1.6096666666666666,37.245000000000005,29.308500000000002,37.120000000000005,34.2005,55.94,34.5505,58.808,51.4015,53.887,33.7455,57.4495,49.7715,53.069,33.335499999999996,57.415,49.19833333333334,-0.016999999999999904,-0.133,0.10533000000000001,0.10373500000000001,0.0,207.04000000000002,206.91500000000002,204.02666666666667,204.02666666666667,0.0,0.0
5,0.0,1.0,0.0,1.0,1.0,0.0,0.0,1.0,0.0,100.0,1.0,1.1856,26.0,0.0,0.0,0.0,59.999996,0.0,26.0,26.0,26.0,26.0,-0.16999999999999993,0.29900000000000015,-0.010920000000000001,293.594,-2.6478,-2.7874444444444446,-1.4889000000000001,-1.6052,-258.76,216.22750000000002,190.888,0.0,0.0,0.0,0.0,0.011433333333333295,-5.498166666666667,-5.498166666666667,-0.5358,0.381,-0.10562499999999986,-0.2520000000000002,66.242,-0.1232,-0.214625,1.3260000000000005,100.0,1.0,1.0,204.43333333333334,0.0,0.0,0.0,0.0,0.0,0.0,0.0,8665.2,0.0,55.0,5.0,238.44,1.0,0.0,0.0,0.0,0.0,0.0,0.0,0.0,0.26099999999999923,0.26099999999999923,0.0,0.0,1.0,55.0,616.79921,10000.0,85.000001,85.000001,85.000001,85.000001,395.0,0.0,0.0,0.0,1.0,166.665,53.391,53.391,48.935,48.935,34.0,-29.755,17.964000000000002,-35.61666666666666,20.585,0.0,1783.365,0.28500000000000014,100.0,27.977,26.619,42.789,40.917,0.0,1.0,100.0,0.0,0.0,0.0,0.0,3247.285714285714,2725.0,4235.888888888889,4044.8,305.055,306.0486666666667,314.56125,314.76,21.8098,20.5347,21.7903,21.3212,314.999998,314.999998,324.999988,324.999988,99.55808571428571,99.50723333333333,99.56461428571428,99.54451428571429,-0.03966666666666674,-0.15833333333333333,-0.2485,-0.03966666666666666,-0.04833333333333201,-0.03714285714285381,1.529,1.5783333333333334,37.311,29.342,37.189,34.2575,55.929,34.595,58.8525,51.4645,53.876000000000005,33.786500000000004,57.491,49.8315,53.057,33.3745,57.4535,49.257,-0.05699999999999994,-0.09149999999999991,0.10429500000000001,0.10016000000000001,0.0,207.555,207.435,204.43333333333334,204.43333333333334,0.0,0.0
6,0.0,1.0,0.0,1.0,1.0,0.0,0.0,1.0,0.0,100.0,1.0,1.1856,26.0,0.0,0.0,0.0,59.999996,0.0,26.0,26.0,26.0,26.0,-0.14400000000000002,0.3004,-0.00698,293.472,-2.61615,-2.8176666666666668,-1.5329000000000002,-1.6005,-255.57999999999998,216.21,190.86875,0.0,0.0,0.0,0.0,0.013266666666666538,-5.498166666666667,-5.498166666666667,-0.5315,0.05499999999999994,-0.08650000000000002,-0.43599999999999994,66.38,-0.10790000000000001,-0.21575,0.9139999999999997,100.0,1.0,1.0,204.86,0.0,0.0,0.0,0.0,0.0,0.0,0.0,8683.2,0.0,55.0,5.0,238.93666666666667,0.0,0.0,0.0,0.0,0.0,0.0,0.0,0.0,0.30900000000000105,0.30900000000000105,0.0,0.0,0.0,55.0,616.79921,10000.0,85.000001,85.000001,85.000001,85.000001,395.0,0.0,0.0,0.0,1.0,166.665,53.177,53.177,48.737,48.737,34.0,-28.805,18.89,-34.593333333333334,21.695,0.0,1783.318,0.1999999999999993,100.0,27.862000000000002,26.75,42.874,41.288,0.0,1.0,100.0,0.0,0.0,0.0,0.0,3232.857142857143,2812.7,4164.333333333333,3985.4,305.063,305.67466666666667,314.72125,314.904,21.819,20.5395,21.8002,21.3296,314.999998,314.999998,324.999988,324.999988,99.55808571428571,99.50726666666667,99.56475714285715,99.54465714285715,-0.02633333333333332,-0.16100000000000003,-0.2315,-0.010166666666666666,-0.07333333333333059,-0.054285714285711606,1.542,1.5716666666666668,37.369,29.372,37.251000000000005,34.31,55.916,34.634,58.8925,51.5235,53.864000000000004,33.822,57.5285,49.888,53.044,33.408500000000004,57.4885,49.312,-0.06299999999999994,-0.09149999999999991,0.10687,0.108755,0.0,207.965,207.88,204.86,204.86,0.0,0.0
7,0.0,1.0,0.0,1.0,1.0,0.0,0.0,1.0,0.0,100.0,1.0,1.1856,26.0,0.0,0.0,0.0,59.999996,0.0,26.0,26.0,26.0,26.0,-0.09050000000000002,0.28669999999999995,0.04454,293.289,-2.59305,-2.771,-1.4994,-1.6365,-252.19,216.1875,190.84825,0.0,0.0,0.0,0.0,0.01526666666666654,-5.498166666666667,-5.498166666666667,-0.5354,0.10849999999999993,-0.06412500000000021,1.267,66.525,-0.0868,-0.22465000000000002,0.4920000000000009,100.0,1.0,1.0,205.3,0.0,0.0,0.0,0.0,0.0,0.0,0.0,8701.9,0.0,55.0,5.0,239.46333333333334,1.0,0.0,0.0,0.0,0.0,0.0,0.0,0.0,0.35999999999999943,0.35999999999999943,0.0,0.0,1.0,55.0,616.79921,10000.0,85.000001,85.000001,85.000001,85.000001,395.0,0.0,0.0,0.0,1.0,166.665,52.856,52.856,48.888999999999996,48.888999999999996,34.0,-26.689999999999998,21.98,-30.86,24.985,0.0,1783.267,-0.14499999999999957,100.0,28.106,26.735,42.931,41.496,0.0,1.0,100.0,0.0,0.0,0.0,0.0,3175.714285714286,2987.2,4019.1111111111113,4062.5,304.993,305.284,314.97275,314.744,21.8289,20.5446,21.8106,21.3385,314.999998,314.999998,324.999988,324.999988,99.55808571428571,99.50728333333333,99.5649,99.54478571428571,0.01200000000000001,-0.10533333333333339,-0.18983333333333335,0.0335,-0.03333333333333144,-0.048571428571428044,1.546,1.5546666666666666,37.431,29.404,37.316,34.366,55.902,34.6745,58.934,51.585499999999996,53.851,33.859,57.567,49.948,53.03,33.444,57.5245,49.370333333333335,-0.08650000000000002,-0.05900000000000016,0.10207000000000001,0.10776500000000001,0.0,208.39,208.32999999999998,205.3,205.3,0.0,0.0
8,0.0,1.0,0.0,1.0,1.0,0.0,0.0,1.0,0.0,100.0,1.0,1.1856,26.0,0.0,0.0,0.0,59.999996,0.0,26.0,26.0,26.0,26.0,-0.057374999999999954,0.28510000000000013,-0.03338,293.503,-2.68515,-2.736222222222222,-1.4862,-1.5864,-248.79,216.1625,190.82775,0.0,0.0,0.0,0.0,0.017233333333333323,-5.498166666666667,-5.498166666666667,-0.5378000000000001,-0.563,-0.04762500000000003,-0.556,66.672,-0.0645,-0.21807500000000002,0.06799999999999962,100.0,1.0,1.0,205.68333333333334,0.0,0.0,0.0,0.0,0.0,0.0,0.0,8718.2,0.0,55.0,5.0,239.99,0.0,0.0,0.0,0.0,0.0,0.0,0.0,0.0,0.41100000000000136,0.41100000000000136,0.0,0.0,0.0,55.0,616.79921,10000.0,85.000001,85.000001,85.000001,85.000001,395.0,0.0,0.0,0.0,1.0,166.665,53.604,53.604,48.278999999999996,48.278999999999996,34.0,-24.9725,21.408,-31.419999999999998,25.485,0.0,1783.215,-0.3299999999999983,100.0,27.431,26.825,42.794,41.778999999999996,0.0,1.0,100.0,0.0,0.0,0.0,0.0,3054.857142857143,2895.2,4143.555555555556,4056.8,305.686,305.5036666666667,314.70625,314.66,21.8385,20.5498,21.820999999999998,21.3474,314.999998,314.999998,324.999988,324.999988,99.5581,99.5073,99.56505714285714,99.54494285714286,0.03500000000000014,-0.09433333333333338,-0.17966666666666667,0.05333333333333334,-0.05833333333333002,-0.05285714285714249,1.5165,1.5343333333333335,37.491,29.436,37.381,34.4215,55.885999999999996,34.713,58.975,51.647999999999996,53.835,33.8945,57.6055,50.0075,53.013999999999996,33.478,57.56,49.428666666666665,-0.10399999999999987,-0.045500000000000096,0.1057,0.108895,0.0,208.82,208.785,205.68333333333334,205.68333333333334,0.0,0.0
9,0.0,1.0,0.0,1.0,1.0,0.0,0.0,1.0,0.0,100.0,1.0,1.1856,26.0,0.0,0.0,0.0,59.999996,0.0,26.0,26.0,26.0,26.0,-0.04299999999999993,0.2794000000000001,0.03526000000000001,293.182,-2.6727499999999997,-2.7344444444444447,-1.5439,-1.5632000000000001,-245.79,216.14,190.809125,0.0,0.0,0.0,0.0,0.018966666666666576,-5.498166666666667,-5.498166666666667,-0.542,0.6595,-0.042874999999999996,0.8919999999999999,66.79599999999999,-0.0439,-0.21630000000000002,-0.09200000000000053,100.0,1.0,1.0,206.19,0.0,0.0,0.0,0.0,0.0,0.0,0.0,8739.7,0.0,55.0,5.0,240.44,1.0,0.0,0.0,0.0,0.0,0.0,0.0,0.0,0.4559999999999995,0.4559999999999995,0.0,0.0,1.0,55.0,616.79921,10000.0,85.000001,85.000001,85.000001,85.000001,395.0,0.0,0.0,0.0,1.0,166.665,52.444,52.444,49.225,49.225,34.0,-26.4375,24.119999999999997,-28.416666666666664,26.28,0.0,1783.17,-0.4549999999999983,100.0,28.029,27.081,42.512,41.689,0.0,1.0,100.0,0.0,0.0,0.0,0.0,3301.4285714285716,3079.4,3958.4444444444443,4077.4,304.7315,305.0373333333333,315.19925,314.7715,21.8472,20.5545,21.8301,21.3552,314.999998,314.999998,324.999988,324.999988,99.5581,99.5073,99.56517142857143,99.54505714285715,0.05866666666666642,-0.06399999999999995,-0.14200000000000002,0.07866666666666668,-0.05833333333333002,-0.06142857142857139,1.56,1.5696666666666665,37.545,29.4655,37.438,34.4705,55.875,34.748,59.0085,51.701,53.824,33.927,57.6365,50.0585,53.003,33.509,57.588499999999996,49.47866666666667,-0.11399999999999988,-0.04150000000000009,0.103955,0.10302000000000001,0.0,209.22500000000002,209.22,206.19,206.19,0.0,0.0
10,0.0,1.0,0.0,1.0,1.0,0.0,0.0,1.0,0.0,100.0,1.0,1.1856,26.0,0.0,0.0,0.0,59.999996,0.0,26.0,26.0,26.0,26.0,-0.002375000000000016,0.29080000000000017,0.05518,293.076,-2.69325,-2.716333333333333,-1.5307,-1.5394,-242.18,216.1125,190.787125,0.0,0.0,0.0,0.0,0.021066666666666567,-5.498166666666667,-5.498166666666667,-0.5204,-0.7075,0.002874999999999961,1.667,66.953,-0.017400000000000002,-0.20727500000000001,-0.4900000000000002,100.0,1.0,1.0,206.45333333333332,0.0,0.0,0.0,0.0,0.0,0.0,0.0,8750.8,0.0,55.0,5.0,241.0,0.0,0.0,0.0,0.0,0.0,0.0,1.0,0.0,0.509999999999998,0.509999999999998,0.0,0.0,0.0,55.0,616.79921,10000.0,85.000001,85.000001,85.000001,85.000001,395.0,0.0,0.0,0.0,1.0,166.665,53.574,53.574,47.714,47.714,34.0,-21.31,23.35,-29.59,29.7025,0.0,1783.117,-0.5850000000000009,100.0,27.748,27.019,42.955,42.489000000000004,0.0,1.0,100.0,0.0,0.0,0.0,0.0,2832.5714285714284,2968.2,4212.444444444444,4315.1,306.1885,305.4556666666667,314.47625,314.1405,21.8574,20.56,21.8413,21.3649,314.999998,314.999998,324.999988,324.999988,99.55811428571428,99.5073,99.56532857142857,99.54521428571428,0.08266666666666644,-0.051999999999999935,-0.1165,0.10466666666666667,-0.04333333333332945,-0.03142857142857025,1.4925,1.4716666666666667,37.608999999999995,29.5,37.507999999999996,34.5305,55.861000000000004,34.7875,59.0535,51.7705,53.811,33.963499999999996,57.6785,50.125,52.989000000000004,33.5435,57.626999999999995,49.54366666666667,-0.11949999999999994,-0.033500000000000085,0.10194,0.10809500000000001,0.0,209.655,209.675,206.45333333333332,206.45333333333332,0.0,0.0
11,0.0,1.0,0.0,1.0,1.0,0.0,0.0,1.0,0.0,100.0,1.0,1.1856,26.0,0.0,0.0,0.0,59.999996,0.0,26.0,26.0,26.0,26.0,0.04125000000000001,0.2722,-0.10016000000000001,293.533,-2.70555,-2.691222222222222,-1.5836000000000001,-1.5284,-238.76,216.085,190.766375,0.0,0.0,0.0,0.0,0.022599999999999953,-5.498166666666667,-5.498166666666667,-0.5615,-0.030999999999999917,0.024124999999999952,-0.7160000000000002,67.09100000000001,0.005,-0.23442500000000002,-0.5839999999999996,100.0,1.0,1.0,207.18666666666667,0.0,0.0,0.0,0.0,0.0,0.0,0.0,8781.8,0.0,55.0,5.0,241.49666666666667,1.0,0.0,0.0,0.0,0.0,0.0,1.0,0.0,0.5609999999999999,0.5609999999999999,0.0,0.0,1.0,55.0,616.79921,10000.0,85.000001,85.000001,85.000001,85.000001,395.0,0.0,0.0,0.0,1.0,166.665,52.856,52.856,49.286,49.286,34.0,-22.88,25.402,-24.703333333333333,26.295,0.0,1783.064,-0.6750000000000007,100.0,27.468,27.522,42.295,42.443,0.0,1.0,100.0,0.0,0.0,0.0,0.0,3107.0,3074.7,3751.8888888888887,3871.6,305.4935,304.88233333333335,315.78925,315.225,21.8669,20.5654,21.8515,21.3738,314.999998,314.999998,324.999988,324.999988,99.55812857142857,99.50731666666667,99.56547142857143,99.54535714285714,0.10166666666666657,-0.027666666666666617,-0.09916666666666667,0.12516666666666668,-0.04833333333333201,-0.03714285714285381,1.654,1.6266666666666665,37.668,29.534,37.572,34.586,55.847,34.8255,59.088499999999996,51.831,53.798,33.9985,57.7115,50.183,52.974000000000004,33.577,57.657,49.601,-0.12949999999999995,-0.02450000000000019,0.10437,0.11207500000000001,0.0,210.09,210.115,207.18666666666667,207.18666666666667,0.0,0.0
12,0.0,1.0,0.0,1.0,1.0,0.0,0.0,1.0,0.0,100.0,1.0,1.1856,26.0,0.0,0.0,0.0,59.999996,0.0,26.0,26.0,26.0,26.0,0.05174999999999996,0.2773000000000001,0.04102,292.892,-2.7553,-2.6851111111111114,-1.5516,-1.5288,-235.54,216.0625,190.7455,0.0,0.0,0.0,0.0,0.025466666666666526,-5.498166666666667,-5.498166666666667,-0.5448000000000001,0.27649999999999997,0.012249999999999872,-0.8029999999999999,67.22800000000001,0.022500000000000003,-0.2063,-0.6299999999999999,100.0,1.0,1.0,207.36666666666667,0.0,0.0,0.0,0.0,0.0,0.0,0.0,8789.5,0.0,55.0,5.0,241.99,0.0,0.0,0.0,0.0,0.0,0.0,1.0,0.0,0.6089999999999982,0.6089999999999982,0.0,0.0,0.0,55.0,616.79921,10000.0,85.000001,85.000001,85.000001,85.000001,395.0,0.0,0.0,0.0,1.0,166.665,52.75,52.75,47.882,47.882,34.0,-23.215,26.084000000000003,-28.06,30.517500000000002,0.0,1783.017,-0.6900000000000013,100.0,27.374,27.73,42.285,42.518,0.0,1.0,100.0,0.0,0.0,0.0,0.0,3146.0,3095.8,4253.777777777777,4186.6,305.4085,304.8426666666667,314.535,314.41275,21.8759,20.5706,21.8613,21.3822,314.999998,314.999998,324.999988,324.999988,99.55814285714285,99.50731666666667,99.5656,99.5455,0.11166666666666636,-0.014000000000000012,-0.08233333333333333,0.14316666666666666,-0.05666666666667197,-0.04285714285714448,1.524,1.4883333333333333,37.724000000000004,29.566499999999998,37.632999999999996,34.638999999999996,55.836,34.8615,59.1265,51.89,53.787,34.0315,57.7465,50.2395,52.963,33.609,57.689,49.656666666666666,-0.12749999999999995,-0.02300000000000013,0.09687000000000001,0.108535,0.0,210.53,210.555,207.36666666666667,207.36666666666667,0.0,0.0
13,0.0,1.0,0.0,1.0,1.0,0.0,0.0,1.0,0.0,100.0,1.0,1.1856,26.0,0.0,0.0,0.0,59.999996,0.0,26.0,26.0,26.0,26.0,0.06612499999999999,0.2835000000000001,0.036539999999999996,292.572,-2.7362,-2.6736666666666666,-1.5881,-1.5102,-232.31,216.0375,190.725125,0.0,0.0,0.0,0.0,0.026799999999999935,-5.498166666666667,-5.498166666666667,-0.5397000000000001,-0.09400000000000008,0.022499999999999964,-0.4750000000000001,67.362,0.032,-0.2157,-0.79,100.0,1.0,1.0,207.73000000000002,0.0,0.0,0.0,0.0,0.0,0.0,0.0,8804.9,0.0,55.0,5.0,242.47333333333336,1.0,0.0,0.0,0.0,0.0,0.0,1.0,0.0,0.657,0.657,0.0,0.0,1.0,55.0,616.79921,10000.0,85.000001,85.000001,85.000001,85.000001,395.0,0.0,0.0,0.0,1.0,333.33500000000004,52.49,52.49,47.913,47.913,34.0,-21.855,27.028,-27.763333333333335,31.17,0.0,1782.967,-0.875,100.0,27.661,27.919,42.481,43.038,0.0,1.0,100.0,0.0,0.0,0.0,0.0,3162.142857142857,3080.3,4203.111111111111,4287.6,305.3395,304.88033333333334,314.61925,314.14575,21.884900000000002,20.5758,21.8711,21.3908,314.999998,314.999998,324.999988,324.999988,99.55815714285714,99.50731666666667,99.56574285714285,99.54562857142857,0.1416666666666666,0.015333333333333421,-0.07333333333333333,0.14316666666666666,-0.061666666666667425,-0.03142857142857025,1.5225,1.4906666666666668,37.781,29.5985,37.694,34.692499999999995,55.826,34.8995,59.166,51.9555,53.777,34.0665,57.783,50.3025,52.952,33.6425,57.723,49.718333333333334,-0.14900000000000002,-0.0030000000000001137,0.10939000000000002,0.099595,0.0,210.93,210.965,207.73000000000002,207.73000000000002,0.0,0.0
14,0.0,1.0,0.0,1.0,1.0,0.0,0.0,1.0,0.0,100.0,1.0,1.1856,26.0,0.0,0.0,0.0,59.999996,0.0,26.0,26.0,26.0,26.0,0.08037500000000009,0.28290000000000015,-0.01022,292.801,-2.7335,-2.620888888888889,-1.596,-1.5129000000000001,-228.87,216.015,190.703875,0.0,0.0,0.0,0.0,0.028799999999999937,-5.498166666666667,-5.498166666666667,-0.5488000000000001,-0.09850000000000003,0.050124999999999975,1.307,67.502,0.048600000000000004,-0.228075,-1.0439999999999996,100.0,1.0,1.0,208.25,0.0,0.0,0.0,0.0,0.0,0.0,0.0,8826.9,0.0,55.0,5.0,242.97666666666666,0.0,0.0,0.0,0.0,0.0,0.0,1.0,0.0,0.7079999999999984,0.7079999999999984,0.0,0.0,0.0,55.0,616.79921,10000.0,85.000001,85.000001,85.000001,85.000001,395.0,0.0,0.0,0.0,1.0,111.11,52.597,52.597,48.111,48.111,34.0,-19.99,28.516,-24.663333333333334,31.7975,0.0,1782.919,-0.9549999999999983,100.0,27.715,27.837,42.527,43.15,0.0,1.0,100.0,0.0,0.0,0.0,0.0,2935.142857142857,3255.1,3953.6666666666665,4215.4,305.82,304.536,315.1585,314.4255,21.8944,20.5813,21.8815,21.3999,314.999998,314.999998,324.999988,324.999988,99.55817142857143,99.50731666666667,99.56588571428571,99.54577142857143,0.14733333333333354,0.025666666666666726,-0.051166666666666666,0.17316666666666666,-0.03999999999999915,-0.06428571428571672,1.5755,1.532,37.84,29.633,37.759,34.7495,55.817,34.9355,59.201499999999996,52.0155,53.769,34.0995,57.816,50.3605,52.942,33.674,57.753,49.775,-0.14749999999999996,-0.0009999999999998899,0.10484,0.102955,0.0,211.325,211.425,208.25,208.25,0.0,0.0
15,0.0,1.0,0.0,1.0,1.0,0.0,0.0,1.0,0.0,100.0,1.0,1.1856,26.0,0.0,0.0,0.0,59.999996,0.0,26.0,26.0,26.0,26.0,0.10662499999999997,0.2795000000000001,0.013240000000000002,292.831,-2.7106500000000002,-2.575222222222222,-1.6275,-1.4521,-225.63,215.995,190.6835,0.0,0.0,0.0,0.0,0.03069999999999995,-5.498166666666667,-5.498166666666667,-0.5393,0.26349999999999996,0.08450000000000002,1.1019999999999999,67.634,0.0627,-0.2083,-1.217999999999999,100.0,1.0,1.0,208.64333333333332,0.0,0.0,0.0,0.0,0.0,0.0,0.0,8843.6,0.0,55.0,5.0,243.45333333333335,1.0,0.0,0.0,0.0,0.0,0.0,1.0,0.0,0.7560000000000002,0.7560000000000002,0.0,0.0,1.0,55.0,616.79921,10000.0,85.000001,85.000001,85.000001,85.000001,395.0,0.0,0.0,0.0,1.0,333.33500000000004,52.841,52.841,48.157,48.157,34.0,-17.615,28.375999999999998,-23.863333333333337,34.495000000000005,0.0,1782.868,-0.9849999999999994,100.0,27.684,27.896,42.282,43.262,0.0,1.0,100.0,0.0,0.0,0.0,0.0,2779.285714285714,3240.7,3927.1111111111113,4405.7,306.27,304.5733333333333,315.2575,313.99025,21.9033,20.5865,21.8911,21.4085,314.999998,314.999998,324.999988,324.999988,99.55818571428571,99.50731666666667,99.56601428571429,99.54591428571429,0.17200000000000015,0.03533333333333322,-0.030833333333333334,0.20433333333333334,-0.03333333333333144,-0.04571428571428271,1.569,1.4953333333333334,37.896,29.666,37.82,34.803,55.809,34.972,59.236,52.076,53.76,34.1335,57.848,50.4185,52.932,33.7065,57.7815,49.83233333333334,-0.15349999999999997,-0.000500000000000167,0.10353000000000001,0.11341500000000002,0.0,211.76,211.835,208.64333333333332,208.64333333333332,0.0,0.0
16,0.0,1.0,0.0,1.0,1.0,0.0,0.0,1.0,0.0,100.0,1.0,1.1856,26.0,0.0,0.0,0.0,59.999996,0.0,26.0,26.0,26.0,26.0,0.13412500000000005,0.2791000000000001,-0.053860000000000005,292.831,-2.8056,-2.5815555555555556,-1.6,-1.4534,-222.17000000000002,215.97750000000002,190.6615,0.0,0.0,0.0,0.0,0.03269999999999995,-5.498166666666667,-5.498166666666667,-0.561,-0.7030000000000001,0.06674999999999986,-1.1670000000000003,67.774,0.0751,-0.22575,-1.1799999999999997,100.0,1.0,1.0,209.07333333333332,0.0,0.0,0.0,0.0,0.0,0.0,0.0,8861.8,0.0,55.0,5.0,243.95666666666665,0.0,0.0,0.0,0.0,0.0,0.0,1.0,0.0,0.8069999999999986,0.8069999999999986,0.0,0.0,0.0,55.0,616.79921,10000.0,85.000001,85.000001,85.000001,85.000001,395.0,0.0,0.0,0.0,1.0,166.665,52.704,52.704,47.897,47.897,34.0,-19.815,28.128,-23.58,31.9575,0.0,1782.819,-0.9100000000000001,100.0,27.206,28.133,42.444,43.449,0.0,1.0,100.0,0.0,0.0,0.0,0.0,3017.4285714285716,3204.6,3968.8888888888887,4139.7,305.8645,304.535,315.20375,314.54675,21.9125,20.5921,21.9016,21.4176,314.999998,314.999998,324.999988,324.999988,99.5582,99.50733333333334,99.56615714285714,99.54605714285714,0.17500000000000027,0.03200000000000003,-0.0275,0.2025,-0.04833333333333201,-0.028571428571432023,1.5695000000000001,1.5173333333333334,37.953,29.701,37.885,34.8595,55.796,35.0115,59.275,52.1395,53.748000000000005,34.17,57.8845,50.4805,52.919,33.742,57.815,49.89266666666666,-0.1499999999999999,-0.01200000000000001,0.10833000000000001,0.10755,0.0,212.14499999999998,212.235,209.07333333333332,209.07333333333332,0.0,0.0
17,0.0,1.0,0.0,1.0,1.0,0.0,0.0,1.0,0.0,100.0,1.0,1.1856,26.0,0.0,0.0,0.0,59.999996,0.0,26.0,26.0,26.0,26.0,0.11162500000000009,0.3005,-0.022080000000000002,292.465,-2.7598,-2.570222222222222,-1.6360999999999999,-1.4767000000000001,-218.71,215.9625,190.638875,0.0,0.0,0.0,0.0,0.03469999999999995,-5.498166666666667,-5.498166666666667,-0.5496,0.532,0.047374999999999945,0.8779999999999999,67.913,0.07980000000000001,-0.205775,-1.1479999999999997,100.0,1.0,1.0,209.45666666666668,0.0,0.0,0.0,0.0,0.0,0.0,0.0,8878.1,0.0,55.0,5.0,244.45666666666665,1.0,0.0,0.0,0.0,0.0,0.0,1.0,0.0,0.8580000000000005,0.8580000000000005,0.0,0.0,1.0,55.0,616.79921,10000.0,85.000001,85.000001,85.000001,85.000001,395.0,0.0,0.0,0.0,1.0,166.665,52.429,52.429,47.745,47.745,34.0,-18.8375,27.988,-25.206666666666663,34.44,0.0,1782.768,-1.004999999999999,100.0,27.86,28.282,42.323,43.338,0.0,1.0,100.0,0.0,0.0,0.0,0.0,2989.857142857143,3155.6,4223.777777777777,4330.2,305.7175,304.8616666666667,314.6295,314.21775,21.922,20.5978,21.9118,21.4266,314.999998,314.999998,324.999988,324.999988,99.55822857142857,99.50733333333334,99.5663,99.5462,0.18900000000000006,0.04866666666666686,-0.013666666666666666,0.2115,-0.026666666666670835,-0.048571428571428044,1.558,1.4973333333333334,38.012,29.7365,37.949,34.916,55.789,35.053,59.3115,52.203,53.741,34.2085,57.9185,50.541,52.911,33.7785,57.846000000000004,49.952666666666666,-0.15599999999999992,-0.006000000000000227,0.10801500000000001,0.11163000000000001,0.0,212.61,212.71,209.45666666666668,209.45666666666668,0.0,0.0
18,0.0,1.0,0.0,1.0,1.0,0.0,0.0,1.0,0.0,100.0,1.0,1.1856,26.0,0.0,0.0,0.0,59.999996,0.0,26.0,26.0,26.0,26.0,0.12312499999999993,0.28310000000000013,-0.00928,292.465,-2.79695,-2.538222222222222,-1.6586,-1.4202,-215.45,215.9525,190.617875,0.0,0.0,0.0,0.0,0.036599999999999966,-5.498166666666667,-5.498166666666667,-0.5602,-0.5345,0.07662499999999994,1.133,68.043,0.0794,-0.223175,-1.2720000000000002,100.0,1.0,1.0,209.88,0.0,0.0,0.0,0.0,0.0,0.0,0.0,8896.1,0.0,55.0,5.0,244.92666666666668,0.0,0.0,0.0,0.0,0.0,0.0,1.0,0.0,0.9059999999999988,0.9059999999999988,0.0,0.0,0.0,55.0,616.79921,10000.0,85.000001,85.000001,85.000001,85.000001,395.0,0.0,0.0,0.0,1.0,166.665,52.322,52.322,47.684,47.684,34.0,-18.884999999999998,30.784,-23.866666666666667,32.9825,0.0,1782.72,-1.1799999999999997,100.0,27.602,28.151,42.625,43.766999999999996,0.0,1.0,100.0,0.0,0.0,0.0,0.0,2977.714285714286,3384.0,3987.8888888888887,4239.3,305.8325,304.22833333333335,315.141,314.3935,21.9307,20.6031,21.9217,21.435299999999998,314.999998,314.999998,324.999988,324.999988,99.55825714285714,99.50735,99.56644285714286,99.54634285714286,0.19200000000000017,0.06766666666666676,-0.014,0.215,-0.03999999999999915,-0.057142857142849834,1.568,1.5123333333333333,38.067,29.7695,38.010999999999996,34.9705,55.78,35.091,59.3485,52.265,53.733000000000004,34.2435,57.9525,50.601,52.900999999999996,33.812,57.876999999999995,50.01133333333333,-0.16799999999999993,0.018000000000000016,0.10187,0.11271500000000001,0.0,212.98000000000002,213.07999999999998,209.88,209.88,0.0,0.0
19,0.0,1.0,0.0,1.0,1.0,0.0,0.0,1.0,0.0,100.0,1.0,1.1856,26.0,0.0,0.0,0.0,59.999996,0.0,26.0,26.0,26.0,26.0,0.11412500000000003,0.29390000000000005,0.04342,291.962,-2.7704,-2.523,-1.6675,-1.4071,-211.98000000000002,215.9425,190.59525,0.0,0.0,0.0,0.0,0.0386333333333333,-5.498166666666667,-5.498166666666667,-0.5505,0.8535,0.07600000000000007,-0.8730000000000002,68.18,0.08800000000000001,-0.21125000000000002,-1.1160000000000005,100.0,1.0,1.0,210.26999999999998,0.0,0.0,0.0,0.0,0.0,0.0,0.0,8912.6,0.0,55.0,5.0,245.42000000000002,1.0,0.0,0.0,0.0,0.0,0.0,1.0,0.0,0.9570000000000007,0.9570000000000007,0.0,0.0,1.0,55.0,616.79921,10000.0,85.000001,85.000001,85.000001,85.000001,395.0,0.0,0.0,0.0,1.0,166.665,51.650999999999996,51.650999999999996,47.501,47.501,34.0,-21.8,28.016,-25.939999999999998,33.78,0.0,1782.669,-0.3299999999999983,100.0,27.972,28.771,42.288,43.811,0.0,1.0,100.0,0.0,0.0,0.0,0.0,3150.285714285714,3300.6,4219.666666666667,4391.9,305.366,304.18833333333333,314.70525,314.0185,21.9402,20.609,21.9319,21.4444,314.999998,314.999998,324.999988,324.999988,99.55827142857143,99.50735,99.56658571428571,99.5465,0.14933333333333332,0.01766666666666672,-0.02,0.20483333333333334,-0.061666666666667425,-0.03285714285714647,1.546,1.4963333333333333,38.126000000000005,29.805999999999997,38.075,35.0275,55.774,35.1335,59.384,52.329499999999996,53.726,34.283,57.9855,50.663,52.893,33.85,57.9065,50.07266666666666,-0.11599999999999988,-0.04150000000000009,0.10975000000000001,0.10771000000000001,0.0,213.465,213.535,210.26999999999998,210.26999999999998,0.0,0.0
20,0.0,1.0,0.0,1.0,1.0,0.0,0.0,1.0,0.0,100.0,1.0,1.1856,26.0,0.0,0.0,0.0,59.999996,0.0,26.0,26.0,26.0,26.0,0.09450000000000003,0.27680000000000016,0.01644,292.328,-2.8019,-2.606111111111111,-1.577,-1.5463,-208.49,215.9375,190.572875,0.0,0.0,0.0,0.0,0.04066666666666652,-5.498166666666667,-5.498166666666667,-0.5542,-1.1815000000000002,0.061124999999999874,0.16500000000000004,68.32,0.0834,-0.22215000000000001,-0.5099999999999998,100.0,1.0,1.0,210.60000000000002,0.0,0.0,0.0,0.0,0.0,0.0,0.0,8926.6,0.0,55.0,5.0,245.92333333333335,0.0,0.0,0.0,0.0,0.0,0.0,0.0,0.0,1.0079999999999991,1.0079999999999991,0.0,0.0,0.0,55.0,616.79921,10000.0,85.000001,85.000001,85.000001,85.000001,395.0,0.0,0.0,0.0,1.0,333.33500000000004,52.841,52.841,46.921,46.921,34.0,-20.61,26.11,-24.446666666666665,34.82,0.0,1782.617,0.15500000000000114,100.0,27.558,28.173000000000002,43.11,44.087,0.0,1.0,100.0,0.0,0.0,0.0,0.0,2859.5714285714284,3194.9,4138.222222222223,4277.4,306.213,304.74766666666665,314.67075,314.13725,21.9493,20.6146,21.9425,21.4537,314.999998,314.999998,324.999988,324.999988,99.55828571428572,99.50735,99.56672857142857,99.54664285714286,0.1280000000000001,-0.013666666666666605,-0.018000000000000002,0.20083333333333334,-0.05333333333332746,-0.04285714285714448,1.488,1.4733333333333334,38.183,29.841,38.141,35.085499999999996,55.76,35.1715,59.4255,52.3955,53.713,34.318,58.0235,50.7265,52.879000000000005,33.884,57.942,50.135,-0.0694999999999999,-0.08950000000000014,0.10258,0.11212000000000001,0.0,213.865,213.885,210.60000000000002,210.60000000000002,0.0,0.0
21,0.0,1.0,0.0,1.0,1.0,0.0,0.0,1.0,0.0,100.0,1.0,1.1856,26.0,0.0,0.0,0.0,59.999996,0.0,26.0,26.0,26.0,26.0,0.03887499999999999,0.27459999999999996,-0.07400000000000001,292.679,-2.69895,-2.680555555555556,-1.6275,-1.5201,-205.20999999999998,215.935,190.55125,0.0,0.0,0.0,0.0,0.04256666666666653,-5.498166666666667,-5.498166666666667,-0.5769000000000001,0.49,0.0286249999999999,-0.1160000000000001,68.444,0.0536,-0.22360000000000002,0.11799999999999944,100.0,1.0,1.0,211.23666666666668,0.0,0.0,0.0,0.0,0.0,0.0,0.0,8953.6,0.0,55.0,5.0,246.37,1.0,0.0,0.0,0.0,0.0,0.0,0.0,0.0,1.056000000000001,1.056000000000001,0.0,0.0,1.0,55.0,616.79921,10000.0,85.000001,85.000001,85.000001,85.000001,395.0,0.0,0.0,0.0,1.0,166.665,52.307,52.307,48.233000000000004,48.233000000000004,34.0,-22.197499999999998,25.652,-26.053333333333335,29.6525,0.0,1782.569,0.27500000000000213,100.0,27.99,28.207,42.557,43.461,0.0,1.0,100.0,0.0,0.0,0.0,0.0,3012.142857142857,3169.0,3988.5555555555557,4012.0,305.594,304.74,315.2215,314.9625,21.958199999999998,20.6199,21.9521,21.4621,314.999998,314.999998,324.999988,324.999988,99.5583,99.50736666666667,99.56685714285715,99.54678571428572,0.1033333333333335,-0.037666666666666626,-0.06833333333333333,0.17133333333333334,-0.01833333333333087,-0.06428571428571672,1.5765,1.6023333333333334,38.239000000000004,29.874499999999998,38.201,35.138,55.748999999999995,35.209,59.457,52.451499999999996,53.702,34.3525,58.053,50.7805,52.867999999999995,33.917,57.968,50.188,-0.056499999999999995,-0.10599999999999987,0.1086,0.105815,0.0,214.305,214.31,211.23666666666668,211.23666666666668,0.0,0.0
22,0.0,1.0,0.0,1.0,1.0,0.0,0.0,1.0,0.0,100.0,1.0,1.1856,26.0,0.0,0.0,0.0,59.999996,0.0,26.0,26.0,26.0,26.0,0.0040000000000000036,0.27249999999999996,-0.015580000000000002,292.191,-2.65775,-2.7056666666666667,-1.6066,-1.5269,-201.51,215.935,190.526,0.0,0.0,0.0,0.0,0.04469999999999996,-5.498166666666667,-5.498166666666667,-0.5566,-0.038000000000000034,0.01587499999999986,0.7050000000000001,68.59100000000001,0.0195,-0.20497500000000002,0.4500000000000002,100.0,1.0,1.0,211.46666666666667,0.0,0.0,0.0,0.0,0.0,0.0,0.0,8963.4,0.0,55.0,5.0,246.9,0.0,0.0,0.0,0.0,0.0,0.0,0.0,0.0,1.1099999999999994,1.1099999999999994,0.0,0.0,0.0,55.0,616.79921,10000.0,85.000001,85.000001,85.000001,85.000001,395.0,0.0,0.0,0.0,1.0,166.665,52.536,52.536,47.104,47.104,34.0,-22.0625,24.061999999999998,-29.919999999999998,30.89,0.0,1782.517,0.35999999999999943,100.0,28.185,28.124,43.251,43.572,0.0,1.0,100.0,0.0,0.0,0.0,0.0,2901.714285714286,3083.1,4224.0,4324.1,305.8915,305.00733333333335,314.561,314.16475,21.9682,20.625799999999998,21.9632,21.4718,314.999998,314.999998,324.999988,324.999988,99.55831428571429,99.50736666666667,99.56701428571428,99.54694285714285,0.07600000000000007,-0.061999999999999944,-0.10066666666666667,0.12983333333333336,-0.045000000000001705,-0.05285714285714249,1.478,1.4993333333333334,38.301,29.9115,38.269999999999996,35.198499999999996,55.736000000000004,35.251,59.5005,52.5185,53.689,34.3915,58.0935,50.8455,52.854,33.954,58.004999999999995,50.251333333333335,-0.04600000000000004,-0.10599999999999987,0.10560000000000001,0.11036000000000001,0.0,214.79000000000002,214.72500000000002,211.46666666666667,211.46666666666667,0.0,0.0
23,0.0,1.0,0.0,1.0,1.0,0.0,0.0,1.0,0.0,100.0,1.0,1.1856,26.0,0.0,0.0,0.0,59.999996,0.0,26.0,26.0,26.0,26.0,-0.019874999999999976,0.24490000000000012,-0.05298,292.175,-2.6762,-2.6662222222222223,-1.6453,-1.603,-198.01,215.9325,190.502625,0.0,0.0,0.0,0.0,0.04673333333333329,-5.498166666666667,-5.498166666666667,-0.5756,-0.06099999999999994,-0.0031249999999998224,-0.7589999999999999,68.724,-0.0088,-0.22987500000000002,0.734,100.0,1.0,1.0,212.02666666666667,0.0,0.0,0.0,0.0,0.0,0.0,0.0,8987.0,0.0,55.0,5.0,247.38,1.0,0.0,0.0,0.0,0.0,0.0,0.0,0.0,1.1610000000000014,1.1610000000000014,0.0,0.0,1.0,55.0,616.79921,10000.0,85.000001,85.000001,85.000001,85.000001,395.0,0.0,0.0,0.0,1.0,166.665,51.743,51.743,48.126,48.126,34.0,-27.2125,22.692,-30.786666666666665,26.085,0.0,1782.464,0.35999999999999943,100.0,28.477,28.285,43.365,43.678,0.0,1.0,100.0,0.0,0.0,0.0,0.0,3323.857142857143,3046.9,4044.3333333333335,3902.9,304.814,304.998,315.1455,315.10175,21.9777,20.6314,21.9737,21.4809,314.999998,314.999998,324.999988,324.999988,99.55831428571429,99.50738333333334,99.56715714285714,99.54708571428571,0.04499999999999993,-0.08233333333333337,-0.147,0.08616666666666667,-0.045000000000001705,-0.03999999999999915,1.5234999999999999,1.5523333333333333,38.36,29.9465,38.336,35.2555,55.723,35.2915,59.539,52.5805,53.677,34.429,58.1295,50.9045,52.841,33.99,58.038,50.309333333333335,-0.05149999999999988,-0.10199999999999987,0.11308000000000001,0.09965500000000001,0.0,215.185,215.11,212.02666666666667,212.02666666666667,0.0,0.0
24,0.0,1.0,0.0,1.0,1.0,0.0,0.0,1.0,0.0,100.0,1.0,1.1856,26.0,0.0,0.0,0.0,59.999996,0.0,26.0,26.0,26.0,26.0,-0.04762500000000003,0.2711000000000001,-0.02834,292.419,-2.6926,-2.6848888888888887,-1.5588000000000002,-1.5492,-194.70999999999998,215.93,190.48,0.0,0.0,0.0,0.0,0.048666666666666525,-5.498166666666667,-5.498166666666667,-0.5802,-0.579,-0.001374999999999904,-0.22199999999999998,68.85300000000001,-0.0262,-0.21675,0.6639999999999997,100.0,1.0,1.0,212.27666666666667,0.0,0.0,0.0,0.0,0.0,0.0,0.0,8997.7,0.0,55.0,5.0,247.84333333333336,0.0,0.0,0.0,0.0,0.0,0.0,0.0,0.0,1.2089999999999996,1.2089999999999996,0.0,0.0,0.0,55.0,616.79921,10000.0,85.000001,85.000001,85.000001,85.000001,395.0,0.0,0.0,0.0,1.0,166.665,52.948,52.948,47.104,47.104,34.0,-24.5875,20.906,-32.61,26.63,0.0,1782.417,0.3200000000000003,100.0,28.137999999999998,27.892,43.528,43.496,0.0,1.0,100.0,0.0,0.0,0.0,0.0,2991.285714285714,2908.6,4328.666666666667,4109.8,305.845,305.50966666666665,314.34725,314.6675,21.9864,20.636499999999998,21.9836,21.4895,314.999998,314.999998,324.999988,324.999988,99.55832857142858,99.5074,99.5673,99.54722857142858,0.034333333333333105,-0.09899999999999998,-0.1485,0.07783333333333332,-0.05333333333332746,-0.03142857142857025,1.4925,1.5230000000000001,38.415,29.978,38.397,35.309,55.709,35.3285,59.577,52.6375,53.663,34.463,58.165,50.9595,52.826,34.0225,58.070499999999996,50.36333333333333,-0.057499999999999885,-0.1030000000000002,0.10707000000000001,0.10884500000000001,0.0,215.59,215.505,212.27666666666667,212.27666666666667,0.0,0.0
25,0.0,1.0,0.0,1.0,1.0,0.0,0.0,1.0,0.0,100.0,1.0,1.1856,26.0,0.0,0.0,0.0,59.999996,0.0,26.0,26.0,26.0,26.0,-0.047875,0.26360000000000006,-0.05284,292.343,-2.7468,-2.657888888888889,-1.5632000000000001,-1.5655000000000001,-191.39999999999998,215.9275,190.456125,0.0,0.0,0.0,0.0,0.05059999999999998,-5.498166666666667,-5.498166666666667,-0.6114,0.02400000000000002,-0.010625000000000107,-1.323,68.977,-0.040100000000000004,-0.22462500000000002,0.718,100.0,1.0,1.0,212.82333333333332,0.0,0.0,0.0,0.0,0.0,0.0,0.0,9020.8,0.0,55.0,5.0,248.29000000000002,1.0,0.0,0.0,0.0,0.0,0.0,0.0,0.0,1.256999999999998,1.256999999999998,0.0,0.0,1.0,55.0,616.79921,10000.0,85.000001,85.000001,85.000001,85.000001,395.0,0.0,0.0,0.0,1.0,166.665,51.894999999999996,51.894999999999996,47.958,47.958,34.0,-28.740000000000002,23.104,-29.983333333333334,24.9425,0.0,1782.369,0.22500000000000142,100.0,28.145,28.075,43.321,43.121,0.0,1.0,100.0,0.0,0.0,0.0,0.0,3360.714285714286,3182.5,3990.777777777778,3964.0,304.8895,304.632,315.208,315.0245,21.9952,20.6418,21.9933,21.4979,314.999998,314.999998,324.999988,324.999988,99.55832857142858,99.5074,99.56744285714285,99.54735714285714,0.02933333333333321,-0.09666666666666657,-0.16316666666666665,0.06733333333333333,-0.054999999999999716,-0.05571428571428072,1.5575,1.589,38.47,30.011,38.458,35.362,55.694,35.368,59.611,52.692499999999995,53.649,34.499,58.1965,51.0125,52.811,34.0575,58.0995,50.415,-0.06099999999999994,-0.09399999999999986,0.10547000000000001,0.11067500000000001,0.0,215.97,215.9,212.82333333333332,212.82333333333332,0.0,0.0
26,0.0,1.0,0.0,1.0,1.0,0.0,0.0,1.0,0.0,100.0,1.0,1.1856,26.0,0.0,0.0,0.0,59.999996,0.0,26.0,26.0,26.0,26.0,-0.08150000000000002,0.27270000000000016,0.08472,291.183,-2.6757,-2.7543333333333333,-1.5987,-1.5706,-187.88,215.9225,190.430375,0.0,0.0,0.0,0.0,0.05263333333333331,-5.498166666666667,-5.498166666666667,-0.5681,0.6885,-0.04087500000000022,0.5840000000000001,69.114,-0.0485,-0.195,0.5420000000000007,100.0,1.0,1.0,212.96333333333334,0.0,0.0,0.0,0.0,0.0,0.0,0.0,9026.8,0.0,55.0,5.0,248.78,0.0,0.0,0.0,0.0,0.0,0.0,0.0,0.0,1.3079999999999998,1.3079999999999998,0.0,0.0,0.0,55.0,616.79921,10000.0,85.000001,85.000001,85.000001,85.000001,395.0,0.0,0.0,0.0,1.0,333.33500000000004,51.483000000000004,51.483000000000004,46.188,46.188,34.0,-26.002499999999998,23.308,-36.60333333333333,29.43,0.0,1782.316,0.03999999999999915,100.0,29.236,28.448999999999998,44.033,43.335,0.0,1.0,100.0,0.0,0.0,0.0,0.0,3197.857142857143,3081.4,4583.888888888889,4493.2,305.0495,304.99066666666664,313.753,313.8145,22.0049,20.6475,22.0038,21.5071,314.999998,314.999998,324.999988,324.999988,99.55832857142858,99.50741666666667,99.5676,99.54752857142857,0.049666666666666526,-0.09133333333333338,-0.16083333333333336,0.06433333333333333,-0.05666666666667197,-0.048571428571428044,1.428,1.4496666666666667,38.531,30.0465,38.524,35.4195,55.682,35.4135,59.6565,52.759,53.638,34.5415,58.239,51.076,52.798,34.0975,58.1385,50.477333333333334,-0.0794999999999999,-0.08199999999999985,0.11096,0.10496000000000001,0.0,216.435,216.35500000000002,212.96333333333334,212.96333333333334,0.0,0.0
27,0.0,1.0,0.0,1.0,1.0,0.0,0.0,1.0,0.0,100.0,1.0,1.1856,26.0,0.0,0.0,0.0,59.999996,0.0,26.0,26.0,26.0,26.0,-0.03937499999999994,0.2532000000000001,-0.04616000000000001,291.748,-2.6475,-2.718111111111111,-1.5892,-1.643,-184.35,215.91500000000002,190.405875,0.0,0.0,0.0,0.0,0.05469999999999997,-5.498166666666667,-5.498166666666667,-0.6004,-1.0165000000000002,-0.039750000000000174,-0.516,69.245,-0.046400000000000004,-0.244925,0.43599999999999994,100.0,1.0,1.0,213.5233333333333,0.0,0.0,0.0,0.0,0.0,0.0,0.0,9050.4,0.0,55.0,5.0,249.25666666666666,1.0,0.0,0.0,0.0,0.0,0.0,0.0,0.0,1.3589999999999982,1.3589999999999982,0.0,0.0,1.0,55.0,616.79921,10000.0,85.000001,85.000001,85.000001,85.000001,395.0,0.0,0.0,0.0,1.0,166.665,51.834,51.834,46.844,46.844,34.0,-26.195,22.299999999999997,-31.463333333333335,26.1975,0.0,1782.267,0.010000000000001563,100.0,28.75,28.363,44.571,43.935,0.0,1.0,100.0,0.0,0.0,0.0,0.0,3215.285714285714,3044.7,4067.5555555555557,3964.4,305.1965,305.02866666666665,314.90525,314.95,22.0143,20.653,22.014499999999998,21.5164,314.999998,314.999998,324.999988,324.999988,99.55834285714286,99.50743333333334,99.56774285714286,99.54765714285715,0.03733333333333322,-0.10199999999999998,-0.16366666666666665,0.06516666666666668,-0.04333333333332945,-0.04285714285714448,1.5085,1.5270000000000001,38.59,30.081,38.59,35.4775,55.668,35.452,59.695499999999996,52.817,53.623999999999995,34.577,58.2755,51.132,52.784,34.1315,58.172,50.531666666666666,-0.08050000000000002,-0.08099999999999996,0.10948500000000001,0.10613500000000001,0.0,216.76,216.71,213.5233333333333,213.5233333333333,0.0,0.0
28,0.0,1.0,0.0,1.0,1.0,0.0,0.0,1.0,0.0,100.0,1.0,1.1856,26.0,0.0,0.0,0.0,59.999996,0.0,26.0,26.0,26.0,26.0,-0.035250000000000004,0.2639,-0.054560000000000004,291.916,-2.67995,-2.6982222222222223,-1.5401,-1.5994000000000002,-181.01999999999998,215.9075,190.381875,0.0,0.0,0.0,0.0,0.05663333333333331,-5.498166666666667,-5.498166666666667,-0.6009,0.6475,-0.040000000000000036,-0.516,69.368,-0.042100000000000005,-0.215725,0.36799999999999944,100.0,1.0,1.0,213.96333333333334,0.0,0.0,0.0,0.0,0.0,0.0,0.0,9069.1,0.0,55.0,5.0,249.69666666666666,0.0,0.0,0.0,0.0,0.0,0.0,0.0,0.0,1.407,1.407,0.0,0.0,0.0,55.0,616.79921,10000.0,85.000001,85.000001,85.000001,85.000001,395.0,0.0,0.0,0.0,1.0,166.665,51.788,51.788,47.577,47.577,34.0,-26.689999999999998,22.275999999999996,-30.836666666666666,26.3975,0.0,1782.218,-0.10500000000000043,100.0,28.811,28.343,43.838,43.411,0.0,1.0,100.0,0.0,0.0,0.0,0.0,3301.285714285714,2992.5,4124.444444444444,4096.1,304.958,305.17266666666666,314.95525,314.712,22.0233,20.6582,22.0241,21.5248,314.999998,314.999998,324.999988,324.999988,99.55835714285715,99.50743333333334,99.56788571428571,99.5478,0.051000000000000156,-0.08833333333333337,-0.162,0.06416666666666668,-0.04833333333333201,-0.044285714285713595,1.5394999999999999,1.553,38.646,30.113999999999997,38.650999999999996,35.5305,55.656,35.491,59.7285,52.872,53.613,34.6125,58.3065,51.1845,52.772,34.1655,58.2,50.583,-0.09199999999999986,-0.06899999999999995,0.10502500000000001,0.10955500000000001,0.0,217.19,217.15,213.96333333333334,213.96333333333334,0.0,0.0
29,0.0,1.0,0.0,1.0,1.0,0.0,0.0,1.0,0.0,100.0,1.0,1.1856,26.0,0.0,0.0,0.0,59.999996,0.0,26.0,26.0,26.0,26.0,-0.03374999999999995,0.2603,0.015880000000000002,291.641,-2.62905,-2.7465555555555556,-1.5446,-1.5723,-177.26999999999998,215.8975,190.354,0.0,0.0,0.0,0.0,0.05879999999999996,-5.498166666666667,-5.498166666666667,-0.6083000000000001,-0.706,-0.03287500000000021,-0.6400000000000001,69.51,-0.0347,-0.21985000000000002,0.21799999999999997,100.0,1.0,1.0,214.25,0.0,0.0,0.0,0.0,0.0,0.0,0.0,9081.2,0.0,55.0,5.0,250.21,1.0,0.0,0.0,0.0,0.0,0.0,0.0,0.0,1.4609999999999985,1.4609999999999985,0.0,0.0,1.0,55.0,616.79921,10000.0,85.000001,85.000001,85.000001,85.000001,395.0,0.0,0.0,0.0,1.0,166.665,51.879999999999995,51.879999999999995,46.768,46.768,34.0,-25.815,23.067999999999998,-31.11,27.9075,0.0,1782.164,-0.16499999999999915,100.0,28.491,28.266,44.223,43.787,0.0,1.0,100.0,0.0,0.0,0.0,0.0,3276.5714285714284,3038.2,4197.888888888889,4183.4,305.0435,304.9683333333333,314.64675,314.44725,22.0331,20.6641,22.0353,21.5347,314.999998,314.999998,324.999988,324.999988,99.55835714285715,99.50745,99.56804285714286,99.54795714285714,0.05433333333333357,-0.09066666666666656,-0.1445,0.08033333333333333,-0.041666666666671404,-0.04571428571428271,1.4875,1.487,38.707,30.1505,38.721000000000004,35.591499999999996,55.64,35.533,59.772,52.938,53.598,34.6515,58.347,51.248,52.756,34.203,58.237,50.644999999999996,-0.09199999999999986,-0.06899999999999995,0.102635,0.11217500000000001,0.0,217.57,217.56,214.25,214.25,0.0,0.0
30,0.0,1.0,0.0,1.0,1.0,0.0,0.0,1.0,0.0,100.0,1.0,1.1856,26.0,0.0,0.0,0.0,59.999996,0.0,26.0,26.0,26.0,26.0,-0.03300000000000003,0.2642,0.06736,291.061,-2.6806,-2.6371111111111114,-1.5191,-1.6322,-174.14,215.8875,190.3305,0.0,0.0,0.0,0.0,0.06063333333333332,-5.498166666666667,-5.498166666666667,-0.603,0.7855,-0.03200000000000003,0.722,69.624,-0.030000000000000002,-0.21627500000000002,0.1200000000000001,100.0,1.0,1.0,214.64,0.0,0.0,0.0,0.0,0.0,0.0,0.0,9097.8,0.0,55.0,5.0,250.62,0.0,0.0,0.0,0.0,0.0,0.0,1.0,0.0,1.5060000000000002,1.5060000000000002,0.0,0.0,0.0,55.0,616.79921,10000.0,85.000001,85.000001,85.000001,85.000001,395.0,0.0,0.0,0.0,1.0,166.665,50.766,50.766,46.906,46.906,34.0,-25.9525,24.182000000000002,-30.506666666666664,29.765,0.0,1782.119,-0.2749999999999986,100.0,29.515,28.854,44.163,43.753,0.0,1.0,100.0,0.0,0.0,0.0,0.0,3352.5714285714284,3182.7,4221.555555555556,4252.0,304.607,304.7,314.59275,314.3195,22.0416,20.6692,22.0445,21.5428,314.999998,314.999998,324.999988,324.999988,99.55837142857143,99.50746666666667,99.56817142857143,99.54808571428572,0.08300000000000018,-0.06666666666666665,-0.135,0.0895,-0.041666666666671404,-0.04999999999999716,1.4769999999999999,1.4846666666666666,38.76,30.182499999999997,38.778,35.641999999999996,55.632,35.5715,59.8045,52.9915,53.59,34.687,58.376999999999995,51.2995,52.747,34.2365,58.2645,50.69533333333334,-0.10749999999999993,-0.06099999999999994,0.10805000000000001,0.105325,0.0,217.97,217.95499999999998,214.64,214.64,0.0,0.0
31,0.0,1.0,0.0,1.0,1.0,0.0,0.0,1.0,0.0,100.0,1.0,1.1856,26.0,0.0,0.0,0.0,59.999996,0.0,26.0,26.0,26.0,26.0,-0.03487499999999999,0.25870000000000015,-0.00038,290.939,-2.7514,-2.6117777777777778,-1.5686,-1.6254,-170.59,215.8775,190.30475,0.0,0.0,0.0,0.0,0.06269999999999998,-5.498166666666667,-5.498166666666667,-0.5901000000000001,-0.565,-0.024624999999999897,-0.6470000000000002,69.756,-0.016300000000000002,-0.2204,-0.09799999999999898,100.0,1.0,1.0,214.93666666666667,0.0,0.0,0.0,0.0,0.0,0.0,0.0,9110.4,0.0,55.0,5.0,251.09666666666666,1.0,0.0,0.0,0.0,0.0,0.0,1.0,0.0,1.5569999999999986,1.5569999999999986,0.0,0.0,1.0,55.0,616.79921,10000.0,85.000001,85.000001,85.000001,85.000001,395.0,0.0,0.0,0.0,1.0,166.665,51.391999999999996,51.391999999999996,45.516999999999996,45.516999999999996,34.0,-25.445,23.648,-32.513333333333335,29.935,0.0,1782.069,-0.23499999999999943,100.0,29.02,29.0,44.726,44.501999999999995,0.0,1.0,100.0,0.0,0.0,0.0,0.0,3215.857142857143,3173.7,4408.777777777777,4238.4,305.3165,304.766,314.12875,314.401,22.0509,20.6749,22.0551,21.5522,314.999998,314.999998,324.999988,324.999988,99.55838571428572,99.50746666666667,99.56832857142857,99.54824285714285,0.07366666666666655,-0.07033333333333336,-0.12583333333333332,0.09566666666666668,-0.03499999999999659,-0.03857142857143003,1.4565000000000001,1.4623333333333333,38.818,30.2185,38.845,35.701,55.620000000000005,35.612,59.847,53.055,53.579,34.7245,58.417,51.3605,52.735,34.2725,58.301,50.754999999999995,-0.10650000000000004,-0.06499999999999995,0.103675,0.10491,0.0,218.325,218.335,214.93666666666667,214.93666666666667,0.0,0.0
32,0.0,1.0,0.0,1.0,1.0,0.0,0.0,1.0,0.0,100.0,1.0,1.1856,26.0,0.0,0.0,0.0,59.999996,0.0,26.0,26.0,26.0,26.0,-0.003249999999999975,0.26449999999999996,-0.01642,291.153,-2.6548,-2.723111111111111,-1.6341,-1.5371000000000001,-166.82,215.865,190.277625,0.0,0.0,0.0,0.0,0.06486666666666652,-5.498166666666667,-5.498166666666667,-0.6061000000000001,0.10749999999999993,-0.0495000000000001,-0.9470000000000001,69.891,-0.0061,-0.22667500000000002,-0.06400000000000006,100.0,1.0,1.0,215.46,0.0,0.0,0.0,0.0,0.0,0.0,0.0,9132.6,0.0,55.0,5.0,251.57999999999998,0.0,0.0,0.0,0.0,0.0,0.0,1.0,0.0,1.6110000000000007,1.6110000000000007,0.0,0.0,0.0,55.0,616.79921,10000.0,85.000001,85.000001,85.000001,85.000001,395.0,0.0,0.0,0.0,1.0,166.665,51.331,51.331,46.387,46.387,34.0,-24.857499999999998,24.177999999999997,-31.653333333333336,29.6075,0.0,1782.015,-0.23499999999999943,100.0,29.011,28.982,44.369,44.284,0.0,1.0,100.0,0.0,0.0,0.0,0.0,3272.714285714286,3058.4,4314.333333333333,4271.3,305.004,304.958,314.498,314.375,22.0608,20.681,22.0661,21.5619,314.999998,314.999998,324.999988,324.999988,99.55838571428572,99.50748333333334,99.56848571428571,99.5484,0.08166666666666655,-0.06233333333333335,-0.11633333333333333,0.11316666666666668,-0.046666666666666856,-0.04142857142856826,1.5105,1.5116666666666667,38.879999999999995,30.2565,38.913,35.762,55.608000000000004,35.6555,59.885999999999996,53.1185,53.567,34.7645,58.453,51.4215,52.722,34.311,58.334,50.81466666666667,-0.10399999999999987,-0.06150000000000011,0.102425,0.104035,0.0,218.775,218.76,215.46,215.46,0.0,0.0
33,0.0,1.0,0.0,1.0,1.0,0.0,0.0,1.0,0.0,100.0,1.0,1.1856,26.0,0.0,0.0,0.0,59.999996,0.0,26.0,26.0,26.0,26.0,-0.004750000000000032,0.264,-0.04234,291.412,-2.69625,-2.7111111111111112,-1.5645,-1.6123,-163.67000000000002,215.85500000000002,190.254,0.0,0.0,0.0,0.0,0.06669999999999998,-5.498166666666667,-5.498166666666667,-0.6117,-0.39149999999999996,-0.03849999999999998,1.318,70.006,-0.0007,-0.21627500000000002,-0.09600000000000009,100.0,1.0,1.0,215.76333333333332,0.0,0.0,0.0,0.0,0.0,0.0,0.0,9145.5,0.0,55.0,5.0,251.99666666666667,1.0,0.0,0.0,0.0,0.0,0.0,1.0,0.0,1.6559999999999988,1.6559999999999988,0.0,0.0,1.0,55.0,616.79921,10000.0,85.000001,85.000001,85.000001,85.000001,395.0,0.0,0.0,0.0,1.0,166.665,51.879999999999995,51.879999999999995,46.509,46.509,34.0,-23.2975,24.294,-29.393333333333334,31.075,0.0,1781.969,-0.26500000000000057,100.0,28.928,28.566,44.394,44.230000000000004,0.0,1.0,100.0,0.0,0.0,0.0,0.0,3089.857142857143,3078.2,4213.111111111111,4294.4,305.4855,305.0896666666667,314.5855,314.29475,22.0689,20.6859,22.0754,21.5701,314.999998,314.999998,324.999988,324.999988,99.5584,99.50748333333334,99.56861428571429,99.54852857142858,0.09133333333333349,-0.05599999999999994,-0.10316666666666667,0.1145,-0.036666666666668846,-0.04571428571428271,1.491,1.4926666666666666,38.931,30.287,38.971000000000004,35.813,55.597,35.689,59.9195,53.1725,53.557,34.795500000000004,58.4845,51.4735,52.711,34.3405,58.3625,50.865,-0.10499999999999998,-0.059499999999999886,0.09947500000000001,0.10821000000000001,0.0,219.10500000000002,219.115,215.76333333333332,215.76333333333332,0.0,0.0
34,0.0,1.0,0.0,1.0,1.0,0.0,0.0,1.0,0.0,100.0,1.0,1.1856,26.0,0.0,0.0,0.0,59.999996,0.0,26.0,26.0,26.0,26.0,-0.005375000000000019,0.2570000000000001,-0.0636,291.855,-2.7274,-2.633888888888889,-1.6348,-1.5691000000000002,-159.89,215.8425,190.2245,0.0,0.0,0.0,0.0,0.06889999999999996,-5.498166666666667,-5.498166666666667,-0.6451,-0.7404999999999999,-0.0068749999999999645,0.841,70.141,0.0048000000000000004,-0.224725,-0.137999999999999,100.0,1.0,1.0,216.23666666666668,0.0,0.0,0.0,0.0,0.0,0.0,0.0,9165.5,0.0,55.0,5.0,252.48333333333335,0.0,0.0,0.0,0.0,0.0,0.0,1.0,0.0,1.7100000000000009,1.7100000000000009,0.0,0.0,0.0,55.0,616.79921,10000.0,85.000001,85.000001,85.000001,85.000001,395.0,0.0,0.0,0.0,1.0,166.665,52.246,52.246,47.256,47.256,34.0,-22.525,23.904,-28.923333333333336,29.1975,0.0,1781.916,-0.25,100.0,28.64,28.240000000000002,44.044,44.218,0.0,1.0,100.0,0.0,0.0,0.0,0.0,2975.857142857143,3069.5,4061.1111111111113,4178.1,305.68,305.099,315.034,314.5465,22.0786,20.6918,22.0863,21.5799,314.999998,314.999998,324.999988,324.999988,99.55841428571429,99.5075,99.56877142857142,99.54868571428571,0.09666666666666668,-0.04733333333333334,-0.10616666666666667,0.112,-0.03333333333333144,-0.05142857142856627,1.5335,1.533,38.991,30.323999999999998,39.039,35.874,55.584,35.7285,59.9565,53.237,53.544,34.832,58.519,51.536,52.697,34.3755,58.3935,50.926,-0.10599999999999987,-0.05600000000000005,0.10586500000000001,0.103455,0.0,219.51999999999998,219.515,216.23666666666668,216.23666666666668,0.0,0.0
35,0.0,1.0,0.0,1.0,1.0,0.0,0.0,1.0,0.0,100.0,1.0,1.1856,26.0,0.0,0.0,0.0,59.999996,0.0,26.0,26.0,26.0,26.0,-0.0034999999999999476,0.24819999999999998,-0.08104,291.763,-2.7033,-2.6384444444444446,-1.6082,-1.5886,-156.51999999999998,215.82999999999998,190.196125,0.0,0.0,0.0,0.0,0.07086666666666652,-5.498166666666667,-5.498166666666667,-0.6838000000000001,-0.361,-0.022375000000000256,0.06699999999999995,70.261,0.013600000000000001,-0.230725,-0.24600000000000044,100.0,1.0,1.0,216.67333333333335,0.0,0.0,0.0,0.0,0.0,0.0,0.0,9183.9,0.0,55.0,5.0,252.91333333333336,1.0,0.0,0.0,0.0,0.0,0.0,1.0,0.0,1.7579999999999991,1.7579999999999991,0.0,0.0,1.0,55.0,616.79921,10000.0,85.000001,85.000001,85.000001,85.000001,395.0,0.0,0.0,0.0,1.0,166.665,51.605000000000004,51.605000000000004,46.936,46.936,34.0,-23.822499999999998,26.708,-27.143333333333334,28.46,0.0,1781.869,-0.134999999999998,100.0,28.477,28.549,43.876,43.774,0.0,1.0,100.0,0.0,0.0,0.0,0.0,3131.714285714286,3376.7,4013.6666666666665,3962.4,305.336,304.19,315.0605,315.07425,22.0871,20.6972,22.096,21.5884,314.999998,314.999998,324.999988,324.999988,99.55842857142858,99.5075,99.56891428571429,99.54881428571429,0.0903333333333336,-0.04733333333333334,-0.08516666666666667,0.1285,-0.046666666666666856,-0.054285714285711606,1.5585,1.53,39.045,30.3575,39.1,35.9275,55.57,35.766,59.9905,53.291,53.531,34.8665,58.5505,51.5875,52.683,34.408500000000004,58.4215,50.97633333333333,-0.09499999999999997,-0.06899999999999995,0.10126,0.10249000000000001,0.0,219.89499999999998,219.89499999999998,216.67333333333335,216.67333333333335,0.0,0.0
36,0.0,1.0,0.0,1.0,1.0,0.0,0.0,1.0,0.0,100.0,1.0,1.1856,26.0,0.0,0.0,0.0,59.999996,0.0,26.0,26.0,26.0,26.0,0.006750000000000034,0.26270000000000016,0.0449,290.833,-2.6334,-2.726777777777778,-1.5601,-1.586,-152.93,215.82,190.164625,0.0,0.0,0.0,0.0,0.07296666666666651,-5.498166666666667,-5.498166666666667,-0.6635,0.256,-0.0638749999999999,-1.278,70.391,0.0161,-0.202375,0.020000000000000462,100.0,1.0,1.0,216.82666666666665,0.0,0.0,0.0,0.0,0.0,0.0,0.0,9190.5,0.0,55.0,5.0,253.38,0.0,0.0,0.0,0.0,0.0,0.0,1.0,0.0,1.809000000000001,1.809000000000001,0.0,0.0,0.0,55.0,616.79921,10000.0,85.000001,85.000001,85.000001,85.000001,395.0,0.0,0.0,0.0,1.0,166.665,51.346000000000004,51.346000000000004,46.112,46.112,34.0,-23.275,24.956,-31.716666666666665,33.3475,0.0,1781.817,-0.05999999999999872,100.0,28.997,29.009999999999998,43.999,44.199,0.0,1.0,100.0,0.0,0.0,0.0,0.0,3151.857142857143,3084.0,4475.777777777777,4518.0,305.149,304.779,314.049,313.6955,22.0964,20.7031,22.1064,21.5977,314.999998,314.999998,324.999988,324.999988,99.55842857142858,99.5075,99.56905714285715,99.54898571428572,0.0950000000000002,-0.053333333333333344,-0.10350000000000001,0.12033333333333333,-0.03833333333332689,-0.048571428571428044,1.4344999999999999,1.437,39.102999999999994,30.3945,39.165,35.9855,55.559,35.807,60.0285,53.353,53.521,34.9045,58.586,51.647,52.672,34.4445,58.454,51.034666666666666,-0.08949999999999991,-0.07299999999999995,0.11593,0.10433,0.0,220.315,220.325,216.82666666666665,216.82666666666665,0.0,0.0
