,ABS Active,ABS Enabled,AID Allow Tire Blankets,AID Auto Blip,AID Auto Clutch,AID Auto Shift,AID Fuel Rate,AID Ideal Line,AID Mech Damage,AID Stability,AID Tire Wear Rate,Air Density,Air Temp,Ballast,Best Lap Delta,Best Lap Time,Brake Bias,Brake Pos,Brake Temp FL,Brake Temp FR,Brake Temp RL,Brake Temp RR,CG Accel Lateral,CG Accel Longitudinal,CG Accel Vertical,CG Height,Camber FL,Camber FR,Camber RL,Camber RR,Car Coord X,Car Coord Y,Car Coord Z,Car Damage Front,Car Damage Left,Car Damage Rear,Car Damage Right,Car Pos Norm,Caster FL,Caster FR,Chassis Pitch Angle,Chassis Pitch Rate,Chassis Roll Angle,Chassis Roll Rate,Chassis Velocity X,Chassis Velocity Y,Chassis Velocity Z,Chassis Yaw Rate,Clutch Pos,DRS Active,DRS Available,Drive Train Speed,ERS Heat Charging,ERS Is Charging,ERS Max Energy,ERS Power Level,ERS Recovery Level,Engine Brake Setting,Engine Limiter,Engine RPM,Flags,Fuel Level,Gear,Ground Speed,HR Sample Clock,In Pit,KERS Charge,KERS Deployed Energy,KERS Input,KERS Max Energy,LR Sample Clock,Lap Invalidated,Lap Time,Lap Time2,Last Lap Time,Last Sector Time,MR Sample Clock,Max Fuel,Max Power,Max RPM,Max Sus Travel FL,Max Sus Travel FR,Max Sus Travel RL,Max Sus Travel RR,Max Torque,Max Turbo Boost,Num Tires Off Track,Penalties Enabled,Position,Raw Data Sample Rate,Ride Height FL,Ride Height FR,Ride Height RL,Ride Height RR,Road Temp,Self Align Torque FL,Self Align Torque FR,Self Align Torque RL,Self Align Torque RR,Session Lap Count,Session Time Left,Steering Angle,Surface Grip,Suspension Travel FL,Suspension Travel FR,Suspension Travel RL,Suspension Travel RR,TC Active,TC Enabled,Throttle Pos,Tire Dirt Level FL,Tire Dirt Level FR,Tire Dirt Level RL,Tire Dirt Level RR,Tire Load FL,Tire Load FR,Tire Load RL,Tire Load RR,Tire Loaded Radius FL,Tire Loaded Radius FR,Tire Loaded Radius RL,Tire Loaded Radius RR,Tire Pressure FL,Tire Pressure FR,Tire Pressure RL,Tire Pressure RR,Tire Radius FL,Tire Radius FR,Tire Radius RL,Tire Radius RR,Tire Rubber Grip FL,Tire Rubber Grip FR,Tire Rubber Grip RL,Tire Rubber Grip RR,Tire Slip Angle FL,Tire Slip Angle FR,Tire Slip Angle RL,Tire Slip Angle RR,Tire Slip Ratio FL,Tire Slip Ratio FR,Tire Slip Ratio RL,Tire Slip Ratio RR,Tire Temp Core FL,Tire Temp Core FR,Tire Temp Core RL,Tire Temp Core RR,Tire Temp Inner FL,Tire Temp Inner FR,Tire Temp Inner RL,Tire Temp Inner RR,Tire Temp Middle FL,Tire Temp Middle FR,Tire Temp Middle RL,Tire Temp Middle RR,Tire Temp Outer FL,Tire Temp Outer FR,Tire Temp Outer RL,Tire Temp Outer RR,Toe In FL,Toe In FR,Toe In RL,Toe In RR,Turbo Boost,Wheel Angular Speed FL,Wheel Angular Speed FR,Wheel Angular Speed RL,Wheel Angular Speed RR,Wind Direction,Wind Speed
0,0.0,1.0,0.0,1.0,1.0,0.0,0.0,1.0,0.0,100.0,1.0,1.1856,26.0,0.0,0.0,0.0,59.99999,0.0,26.0,26.0,26.0,26.0,-0.06188888888888888,0.2965,-0.00036666666666666667,294.083,-2.7286,-2.6492500000000003,-1.5230000000000001,-1.5512000000000001,-275.74,216.29250000000002,190.988,0.0,0.0,0.0,0.0,0.0015666666666666667,-5.498166666666667,-5.498166666666667,-0.5492,1.2586666666666668,-0.0022222222222221255,-1.2269999999999999,65.482,-0.0247,-0.21302500000000002,0.944,100.0,1.0,1.0,202.17666666666668,0.0,0.0,0.0,0.0,0.0,0.0,0.0,8569.5,0.0,55.0,5.0,235.70666666666668,0.0,0.0,0.0,0.0,0.0,0.0,0.0,0.0,0.0030000000000001137,0.0030000000000001137,0.0,0.0,0.0,55.0,616.79921,10000.0,85.0,85.0,85.0,85.0,395.0,0.0,0.0,0.0,1.0,20.0,52.872,52.872,49.698,49.698,34.0,-26.105,23.344,-30.383333333333333,25.08,0.0,1783.613,0.8000000000000007,100.0,27.358,26.987000000000002,40.369,40.575,0.0,1.0,100.0,0.0,0.0,0.0,0.0,2997.285714285714,3320.9,4128.375,3994.1000000000004,305.7565,304.18475,314.83525,314.82175,21.7754,20.5078,21.7305,21.2785,314.99999,314.99999,324.99998,324.99998,99.5588,99.507,99.56357142857142,99.54391428571428,0.0040000000000000036,-0.1123333333333334,-0.15766666666666665,0.07133333333333333,-0.054999999999999716,-0.041666666666671404,1.5346666666666666,1.6115,37.096000000000004,29.174,36.816,33.9905,56.221000000000004,34.3555,58.533500000000004,51.17,54.144999999999996,33.535,57.185,49.5505,53.319,33.1,57.1575,48.983000000000004,-0.009500000000000064,-0.133,0.11356000000000001,0.10333,0.0,205.22,205.13,202.17666666666668,202.17666666666668,0.0,0.0
1,0.0,1.0,0.0,1.0,1.0,0.0,0.0,1.0,0.0,100.0,1.0,1.1856,26.0,0.0,0.0,0.0,59.999996,0.0,26.0,26.0,26.0,26.0,-0.1143333333333334,0.30610000000000004,0.02616666666666667,293.076,-2.6535,-2.761875,-1.5239500000000001,-1.5461,-272.39,216.28750000000002,190.96775,0.0,0.0,0.0,0.0,0.0035,-5.498166666666667,-5.498166666666667,-0.497,-0.4306666666666667,-0.05033333333333356,0.2160000000000002,65.638,-0.0442,-0.19515000000000002,1.388,100.0,1.0,1.0,202.30666666666667,0.0,0.0,0.0,0.0,0.0,0.0,0.0,8575.0,0.0,55.0,5.0,236.26333333333332,1.0,0.0,0.0,0.0,0.0,0.0,0.0,0.0,0.053999999999998494,0.053999999999998494,0.0,0.0,1.0,55.0,616.79921,10000.0,85.000001,85.000001,85.000001,85.000001,395.0,0.0,0.0,0.0,1.0,166.665,53.543,53.543,48.325,48.325,34.0,-26.145,18.27,-35.04333333333334,29.465,0.0,1783.56,0.879999999999999,100.0,27.667,27.033,42.28,41.533,0.0,1.0,100.0,0.0,0.0,0.0,0.0,3029.5714285714284,2688.8,4448.375,4717.4,305.474,306.28375,313.88575,313.121,21.7853,20.5129,21.7413,21.2875,314.999998,314.999998,324.999988,324.999988,99.5588,99.50701666666667,99.56371428571428,99.54405714285714,0.0015000000000000568,-0.133,-0.17400000000000002,0.04416666666666667,-0.03833333333332689,-0.02833333333332888,1.415,1.4645000000000001,37.158,29.206,36.882999999999996,34.047,56.205,34.397,58.581,51.2355,54.129000000000005,33.573,57.2295,49.6135,53.302,33.1365,57.1995,49.0445,-0.0035000000000000586,-0.14300000000000024,0.104245,0.103925,0.0,205.66,205.54500000000002,202.30666666666667,202.30666666666667,0.0,0.0
2,0.0,1.0,0.0,1.0,1.0,0.0,0.0,1.0,0.0,100.0,1.0,1.1856,26.0,0.0,0.0,0.0,59.999996,0.0,26.0,26.0,26.0,26.0,-0.12011111111111106,0.2841,-0.04446666666666667,293.823,-2.6128,-2.7855,-1.49465,-1.601,-269.04,216.2775,190.949,0.0,0.0,0.0,0.0,0.0054666666666666665,-5.498166666666667,-5.498166666666667,-0.5546,-0.029666666666666668,-0.04155555555555557,1.388,65.78,-0.067,-0.262225,1.6039999999999992,100.0,1.0,1.0,203.26333333333332,0.0,0.0,0.0,0.0,0.0,0.0,0.0,8615.7,0.0,55.0,5.0,236.77666666666667,0.0,0.0,0.0,0.0,0.0,0.0,0.0,0.0,0.10500000000000043,0.10500000000000043,0.0,0.0,0.0,55.0,616.79921,10000.0,85.000001,85.000001,85.000001,85.000001,395.0,0.0,0.0,0.0,1.0,333.33500000000004,52.429,52.429,50.446,50.446,34.0,-30.560000000000002,20.146,-28.766666666666666,20.17,0.0,1783.509,0.7850000000000001,100.0,28.181,27.032,42.272999999999996,41.356,0.0,1.0,100.0,0.0,0.0,0.0,0.0,3397.5714285714284,2932.4,3730.625,3616.2,304.488,305.43625,315.684,315.91225,21.7954,20.5179,21.7517,21.2962,314.999998,314.999998,324.999988,324.999988,99.5588,99.50703333333334,99.56385714285715,99.54418571428572,-0.02574999999999994,-0.1423333333333333,-0.21516666666666667,0.022,-0.04999999999999716,-0.026666666666670835,1.646,1.7095,37.221000000000004,29.237000000000002,36.948,34.1015,56.192,34.4365,58.6205,51.2945,54.117000000000004,33.6095,57.2665,49.67,53.289,33.1715,57.2335,49.1,-0.01949999999999985,-0.13100000000000023,0.10415,0.10953,0.0,206.11,205.95499999999998,203.26333333333332,203.26333333333332,0.0,0.0
3,0.0,1.0,0.0,1.0,1.0,0.0,0.0,1.0,0.0,100.0,1.0,1.1856,26.0,0.0,0.0,0.0,59.999996,0.0,26.0,26.0,26.0,26.0,-0.13544444444444448,0.3035000000000001,-0.04376666666666667,293.579,-2.732,-2.68975,-1.50675,-1.5882,-265.88,216.26749999999998,190.9305,0.0,0.0,0.0,0.0,0.0073,-5.498166666666667,-5.498166666666667,-0.5103,0.709,-0.011111111111111072,-0.8999999999999999,65.923,-0.08410000000000001,-0.200125,1.2880000000000003,100.0,1.0,1.0,203.39333333333332,0.0,0.0,0.0,0.0,0.0,0.0,0.0,8621.2,0.0,55.0,5.0,237.29000000000002,1.0,0.0,0.0,0.0,0.0,0.0,0.0,0.0,0.1529999999999987,0.1529999999999987,0.0,0.0,1.0,55.0,616.79921,10000.0,85.000001,85.000001,85.000001,85.000001,395.0,0.0,0.0,0.0,1.0,166.665,53.604,53.604,48.34,48.34,34.0,-26.197499999999998,17.69,-35.41333333333333,23.927500000000002,0.0,1783.463,0.629999999999999,100.0,27.836,27.081,42.101,41.294,0.0,1.0,100.0,0.0,0.0,0.0,0.0,2880.857142857143,2761.8,4369.875,4179.8,306.0205,305.83875,314.20025,314.44375,21.8046,20.5228,21.7614,21.3045,314.999998,314.999998,324.999988,324.999988,99.55881428571429,99.50705,99.564,99.54431428571428,-0.026000000000000023,-0.15400000000000003,-0.20933333333333334,0.010666666666666666,-0.04999999999999716,-0.03333333333333144,1.4893333333333334,1.559,37.278999999999996,29.267333333333333,37.009,34.153,56.177,34.4765,58.659,51.354,54.102000000000004,33.6465,57.302,49.7275,53.274,33.207,57.2665,49.156,-0.026499999999999968,-0.12349999999999994,0.09837000000000001,0.11427500000000002,0.0,206.595,206.47500000000002,203.39333333333332,203.39333333333332,0.0,0.0
4,0.0,1.0,0.0,1.0,1.0,0.0,0.0,1.0,0.0,100.0,1.0,1.1856,26.0,0.0,0.0,0.0,59.999996,0.0,26.0,26.0,26.0,26.0,-0.15622222222222215,0.2935000000000001,-0.025566666666666668,293.686,-2.6672,-2.740125,-1.53205,-1.5935000000000001,-262.51,216.2525,190.91075,0.0,0.0,0.0,0.0,0.009233333333333333,-5.498166666666667,-5.498166666666667,-0.5435,-0.9296666666666666,-0.07144444444444442,-0.621,66.07,-0.0867,-0.23567500000000002,1.1260000000000012,100.0,1.0,1.0,203.96333333333334,0.0,0.0,0.0,0.0,0.0,0.0,0.0,8645.3,0.0,55.0,5.0,237.82333333333332,0.0,0.0,0.0,0.0,0.0,0.0,0.0,0.0,0.20400000000000063,0.20400000000000063,0.0,0.0,0.0,55.0,616.79921,10000.0,85.000001,85.000001,85.000001,85.000001,395.0,0.0,0.0,0.0,1.0,333.33500000000004,53.162,53.162,48.782,48.782,34.0,-28.6625,19.805999999999997,-32.586666666666666,21.48,0.0,1783.41,0.6000000000000014,100.0,27.669,26.681,42.764,41.422,0.0,1.0,100.0,0.0,0.0,0.0,0.0,3181.714285714286,2993.6,4063.25,3716.5,305.188,305.34325,314.81675,315.5635,21.8142,20.5278,21.772,21.313299999999998,314.999998,314.999998,324.999988,324.999988,99.55881428571429,99.50706666666666,99.56414285714285,99.54445714285714,-0.023749999999999938,-0.15033333333333332,-0.20716666666666667,0.026000000000000002,-0.054999999999999716,-0.05333333333332746,1.5483333333333333,1.583,37.339,29.299,37.075,34.208,56.159,34.518,58.7025,51.415,54.085,33.6845,57.343,49.786,53.256,33.2435,57.3045,49.213499999999996,-0.023499999999999854,-0.12349999999999994,0.10686500000000002,0.1097,0.0,206.98000000000002,206.865,203.96333333333334,203.96333333333334,0.0,0.0
5,0.0,1.0,0.0,1.0,1.0,0.0,0.0,1.0,0.0,100.0,1.0,1.1856,26.0,0.0,0.0,0.0,59.999996,0.0,26.0,26.0,26.0,26.0,-0.11711111111111105,0.3045,-0.0195,293.701,-2.6715,-2.764625,-1.50885,-1.5864,-259.14,216.235,190.890375,0.0,0.0,0.0,0.0,0.0112,-5.498166666666667,-5.498166666666667,-0.5372,0.43333333333333335,-0.08300000000000018,-0.34799999999999986,66.21600000000001,-0.09040000000000001,-0.21565,1.1219999999999999,100.0,1.0,1.0,204.38333333333333,0.0,0.0,0.0,0.0,0.0,0.0,0.0,8663.1,0.0,55.0,5.0,238.3466666666667,1.0,0.0,0.0,0.0,0.0,0.0,0.0,0.0,0.254999999999999,0.254999999999999,0.0,0.0,1.0,55.0,616.79921,10000.0,85.000001,85.000001,85.000001,85.000001,395.0,0.0,0.0,0.0,1.0,333.33500000000004,53.467,53.467,49.088,49.088,34.0,-28.244999999999997,18.759999999999998,-34.11,22.4525,0.0,1783.358,0.28000000000000114,100.0,27.735,26.756,42.443,41.139,0.0,1.0,100.0,0.0,0.0,0.0,0.0,3200.5714285714284,2752.4,4181.125,4017.6000000000004,305.209,305.95825,314.69975,314.83725,21.8243,20.5329,21.7823,21.3219,314.999998,314.999998,324.999988,324.999988,99.55881428571429,99.50708333333333,99.56428571428572,99.5446,-0.010999999999999899,-0.138,-0.22483333333333336,0.0061666666666666675,-0.05833333333333002,-0.045000000000001705,1.5323333333333333,1.596,37.402,29.330666666666666,37.14,34.262,56.144999999999996,34.559,58.7445,51.4735,54.072,33.7225,57.382,49.842,53.242000000000004,33.2795,57.3405,49.268,-0.05449999999999999,-0.09699999999999998,0.100195,0.10731,0.0,207.5,207.39,204.38333333333333,204.38333333333333,0.0,0.0
6,0.0,1.0,0.0,1.0,1.0,0.0,0.0,1.0,0.0,100.0,1.0,1.1856,26.0,0.0,0.0,0.0,59.999996,0.0,26.0,26.0,26.0,26.0,-0.12055555555555553,0.2922,0.0032,293.488,-2.6369,-2.799875,-1.5504,-1.5815000000000001,-255.76,216.215,190.869875,0.0,0.0,0.0,0.0,0.013166666666666667,-5.498166666666667,-5.498166666666667,-0.5309,0.11833333333333333,-0.06199999999999983,0.9199999999999999,66.363,-0.0845,-0.214425,0.6860000000000008,100.0,1.0,1.0,204.81333333333333,0.0,0.0,0.0,0.0,0.0,0.0,0.0,8681.3,0.0,55.0,5.0,238.87666666666667,0.0,0.0,0.0,0.0,0.0,0.0,0.0,0.0,0.30600000000000094,0.30600000000000094,0.0,0.0,0.0,55.0,616.79921,10000.0,85.000001,85.000001,85.000001,85.000001,395.0,0.0,0.0,0.0,1.0,166.665,53.177,53.177,48.766999999999996,48.766999999999996,34.0,-26.3525,21.442,-32.739999999999995,23.21,0.0,1783.31,-0.054999999999999716,100.0,27.806,26.688,42.701,41.438,0.0,1.0,100.0,0.0,0.0,0.0,0.0,3099.4285714285716,2975.7,4081.25,4044.3,305.2775,305.34,314.85975,314.844,21.8342,20.538,21.7928,21.3308,314.999998,314.999998,324.999988,324.999988,99.55882857142858,99.5071,99.56442857142856,99.54474285714285,0.010250000000000092,-0.1213333333333334,-0.20316666666666666,0.018333333333333333,-0.04999999999999716,-0.05666666666667197,1.5356666666666667,1.569,37.464,29.362666666666666,37.205,34.317499999999995,56.129999999999995,34.6,58.786500000000004,51.536500000000004,54.057,33.76,57.4215,49.902,53.227000000000004,33.315,57.376999999999995,49.327,-0.07650000000000001,-0.07850000000000001,0.11232,0.10051500000000001,0.0,207.905,207.82999999999998,204.81333333333333,204.81333333333333,0.0,0.0
7,0.0,1.0,0.0,1.0,1.0,0.0,0.0,1.0,0.0,100.0,1.0,1.1856,26.0,0.0,0.0,0.0,59.999996,0.0,26.0,26.0,26.0,26.0,-0.09033333333333338,0.2916000000000001,0.05026666666666667,293.213,-2.609,-2.7344999999999997,-1.5117500000000001,-1.5705,-252.57,216.1925,190.850625,0.0,0.0,0.0,0.0,0.015033333333333334,-5.498166666666667,-5.498166666666667,-0.5342,-0.036333333333333336,-0.050666666666666416,1.1799999999999997,66.501,-0.0674,-0.222225,0.3540000000000001,100.0,1.0,1.0,205.19333333333333,0.0,0.0,0.0,0.0,0.0,0.0,0.0,8697.4,0.0,55.0,5.0,239.37333333333333,1.0,0.0,0.0,0.0,0.0,0.0,0.0,0.0,0.3539999999999992,0.3539999999999992,0.0,0.0,1.0,55.0,616.79921,10000.0,85.000001,85.000001,85.000001,85.000001,395.0,0.0,0.0,0.0,1.0,166.665,52.826,52.826,48.843,48.843,34.0,-26.31,22.658,-30.94,25.325000000000003,0.0,1783.261,-0.19500000000000028,100.0,27.876,26.729,42.769999999999996,41.681,0.0,1.0,100.0,0.0,0.0,0.0,0.0,3225.285714285714,3054.7,4054.25,4128.7,304.8725,305.1625,314.868,314.623,21.8435,20.5429,21.8027,21.339199999999998,314.999998,314.999998,324.999988,324.999988,99.55882857142858,99.50711666666666,99.56457142857143,99.54487142857143,0.034250000000000114,-0.09233333333333338,-0.17966666666666667,0.0485,-0.045000000000001705,-0.051666666666669414,1.534,1.547,37.522,29.392666666666663,37.266999999999996,34.37,56.116,34.6375,58.826,51.5955,54.044,33.7945,57.458,49.9585,53.213,33.348,57.411,49.3825,-0.09450000000000003,-0.05799999999999983,0.11090000000000001,0.111115,0.0,208.31,208.255,205.19333333333333,205.19333333333333,0.0,0.0
8,0.0,1.0,0.0,1.0,1.0,0.0,0.0,1.0,0.0,100.0,1.0,1.1856,26.0,0.0,0.0,0.0,59.999996,0.0,26.0,26.0,26.0,26.0,-0.040888888888888864,0.2962,-0.0236,293.472,-2.6858,-2.714625,-1.4989,-1.5517,-249.18,216.16750000000002,190.830125,0.0,0.0,0.0,0.0,0.017,-5.498166666666667,-5.498166666666667,-0.5342,-0.4376666666666667,-0.03488888888888875,-0.532,66.647,-0.0482,-0.21400000000000002,-0.006000000000000227,100.0,1.0,1.0,205.59,0.0,0.0,0.0,0.0,0.0,0.0,0.0,8714.2,0.0,55.0,5.0,239.9,0.0,0.0,0.0,0.0,0.0,0.0,0.0,0.0,0.40500000000000114,0.40500000000000114,0.0,0.0,0.0,55.0,616.79921,10000.0,85.000001,85.000001,85.000001,85.000001,395.0,0.0,0.0,0.0,1.0,166.665,53.726,53.726,48.08,48.08,34.0,-23.8725,21.706,-31.52,26.4025,0.0,1783.211,-0.33999999999999986,100.0,27.366,26.866,42.653999999999996,41.885,0.0,1.0,100.0,0.0,0.0,0.0,0.0,2968.142857142857,2889.0,4216.125,4133.2,305.8865,305.505,314.52475,314.4935,21.8532,20.548,21.8131,21.3481,314.999998,314.999998,324.999988,324.999988,99.55882857142858,99.50713333333333,99.5647,99.545,0.04375000000000018,-0.08099999999999996,-0.16533333333333336,0.0685,-0.03499999999999659,-0.04333333333332945,1.5173333333333334,1.5175,37.582,29.424999999999997,37.332,34.4255,56.099000000000004,34.676,58.867,51.6575,54.028,33.83,57.4965,50.018,53.197,33.382,57.4465,49.4405,-0.09999999999999987,-0.04249999999999998,0.11188500000000001,0.10677500000000001,0.0,208.735,208.715,205.59,205.59,0.0,0.0
9,0.0,1.0,0.0,1.0,1.0,0.0,0.0,1.0,0.0,100.0,1.0,1.1856,26.0,0.0,0.0,0.0,59.999996,0.0,26.0,26.0,26.0,26.0,-0.03122222222222215,0.29720000000000013,0.03353333333333333,293.152,-2.6821,-2.725625,-1.5524,-1.5559,-245.76999999999998,216.14,190.809,0.0,0.0,0.0,0.0,0.018966666666666666,-5.498166666666667,-5.498166666666667,-0.5418000000000001,0.6523333333333334,-0.03388888888888886,0.9000000000000004,66.789,-0.027700000000000002,-0.2156,-0.14999999999999947,100.0,1.0,1.0,206.16333333333333,0.0,0.0,0.0,0.0,0.0,0.0,0.0,8738.6,0.0,55.0,5.0,240.41,1.0,0.0,0.0,0.0,0.0,0.0,0.0,0.0,0.4559999999999995,0.4559999999999995,0.0,0.0,1.0,55.0,616.79921,10000.0,85.000001,85.000001,85.000001,85.000001,395.0,0.0,0.0,0.0,1.0,166.665,52.414,52.414,49.194,49.194,34.0,-25.615,24.704,-27.9,27.175,0.0,1783.159,-0.5300000000000011,100.0,27.995,27.162,42.405,41.824,0.0,1.0,100.0,0.0,0.0,0.0,0.0,3284.0,3097.9,3967.875,4084.5,304.793,304.977,315.16925,314.75675,21.863,20.5533,21.8234,21.357,314.999998,314.999998,324.999988,324.999988,99.55884285714286,99.50713333333333,99.56485714285714,99.54515714285715,0.07500000000000018,-0.051999999999999935,-0.128,0.097,-0.051666666666669414,-0.07666666666666799,1.5706666666666667,1.566,37.644,29.458333333333336,37.396,34.481,56.086,34.7155,58.905,51.718,54.016,33.8665,57.532,50.076,53.183,33.417,57.479,49.4975,-0.11699999999999999,-0.03949999999999987,0.10469500000000001,0.10501500000000001,0.0,209.19,209.20499999999998,206.16333333333333,206.16333333333333,0.0,0.0
10,0.0,1.0,0.0,1.0,1.0,0.0,0.0,1.0,0.0,100.0,1.0,1.1856,26.0,0.0,0.0,0.0,59.999996,0.0,26.0,26.0,26.0,26.0,0.006555555555555648,0.2996000000000001,0.04996666666666667,292.953,-2.6568,-2.7105,-1.53355,-1.5362,-242.56,216.1125,190.789375,0.0,0.0,0.0,0.0,0.020833333333333336,-5.498166666666667,-5.498166666666667,-0.5192,-0.389,0.008777777777777773,1.8369999999999997,66.928,-0.0108,-0.205125,-0.5,100.0,1.0,1.0,206.37,0.0,0.0,0.0,0.0,0.0,0.0,0.0,8747.3,0.0,55.0,5.0,240.91,0.0,0.0,0.0,0.0,0.0,0.0,1.0,0.0,0.5040000000000013,0.5040000000000013,0.0,0.0,0.0,55.0,616.79921,10000.0,85.000001,85.000001,85.000001,85.000001,395.0,0.0,0.0,0.0,1.0,333.33500000000004,53.421,53.421,47.638,47.638,34.0,-20.447499999999998,23.852,-29.826666666666664,30.575,0.0,1783.109,-0.620000000000001,100.0,27.84,27.181,42.819,42.54,0.0,1.0,100.0,0.0,0.0,0.0,0.0,2826.857142857143,2972.4,4272.25,4351.0,306.1295,305.42675,314.31,314.05075,21.8721,20.5583,21.8334,21.3656,314.999998,314.999998,324.999988,324.999988,99.55884285714286,99.50713333333333,99.565,99.5453,0.09799999999999986,-0.03933333333333333,-0.1095,0.11483333333333333,-0.046666666666666856,-0.04333333333332945,1.4809999999999999,1.4605000000000001,37.701,29.489333333333335,37.459,34.535,56.074,34.751999999999995,58.948,51.783500000000004,54.004000000000005,33.9005,57.572,50.138999999999996,53.17,33.4495,57.516,49.559,-0.12199999999999989,-0.025500000000000078,0.10638,0.11278500000000001,0.0,209.595,209.61,206.37,206.37,0.0,0.0
11,0.0,1.0,0.0,1.0,1.0,0.0,0.0,1.0,0.0,100.0,1.0,1.1856,26.0,0.0,0.0,0.0,59.999996,0.0,26.0,26.0,26.0,26.0,0.051444444444444404,0.27970000000000006,-0.1017,293.503,-2.7085,-2.682375,-1.5523500000000001,-1.5239,-239.15,216.0875,190.76875,0.0,0.0,0.0,0.0,0.022600000000000002,-5.498166666666667,-5.498166666666667,-0.5616,-0.3153333333333333,0.03133333333333321,-0.637,67.066,0.008400000000000001,-0.2396,-0.5860000000000003,100.0,1.0,1.0,207.0966666666667,0.0,0.0,0.0,0.0,0.0,0.0,0.0,8778.1,0.0,55.0,5.0,241.41333333333336,1.0,0.0,0.0,0.0,0.0,0.0,1.0,0.0,0.5549999999999997,0.5549999999999997,0.0,0.0,1.0,55.0,616.79921,10000.0,85.000001,85.000001,85.000001,85.000001,395.0,0.0,0.0,0.0,1.0,111.11,52.811,52.811,49.271,49.271,34.0,-22.73,25.71,-23.61,26.325000000000003,0.0,1783.06,-0.629999999999999,100.0,27.474,27.561,42.332,42.597,0.0,1.0,100.0,0.0,0.0,0.0,0.0,3087.0,3090.3,3685.25,3859.4,305.5565,304.8385,315.86875,315.2275,21.8816,20.5637,21.8437,21.3745,314.999998,314.999998,324.999988,324.999988,99.55885714285715,99.50713333333333,99.56512857142857,99.54542857142857,0.10175000000000001,-0.021666666666666612,-0.09116666666666667,0.1275,-0.03833333333332689,-0.051666666666669414,1.638,1.6155,37.76,29.523,37.522999999999996,34.5905,56.06,34.788,58.9815,51.841499999999996,53.991,33.9335,57.603,50.1945,53.156,33.4815,57.5445,49.6135,-0.12549999999999994,-0.02200000000000024,0.10117000000000001,0.10437500000000001,0.0,209.995,210.035,207.0966666666667,207.0966666666667,0.0,0.0
12,0.0,1.0,0.0,1.0,1.0,0.0,0.0,1.0,0.0,100.0,1.0,1.1856,26.0,0.0,0.0,0.0,59.999996,0.0,26.0,26.0,26.0,26.0,0.033777777777777906,0.2875000000000001,0.016233333333333336,292.923,-2.7585,-2.68325,-1.55095,-1.5264,-235.72,216.06,190.74675,0.0,0.0,0.0,0.0,0.025466666666666665,-5.498166666666667,-5.498166666666667,-0.5461,0.3123333333333333,0.018888888888888955,0.6970000000000001,67.212,0.028800000000000003,-0.207125,-0.7620000000000005,100.0,1.0,1.0,207.33666666666667,0.0,0.0,0.0,0.0,0.0,0.0,0.0,8788.2,0.0,55.0,5.0,241.93333333333334,0.0,0.0,0.0,0.0,0.0,0.0,1.0,0.0,0.6059999999999981,0.6059999999999981,0.0,0.0,0.0,55.0,616.79921,10000.0,85.000001,85.000001,85.000001,85.000001,395.0,0.0,0.0,0.0,1.0,166.665,52.78,52.78,47.943,47.943,34.0,-22.6325,26.387999999999998,-26.75,31.54,0.0,1783.01,-0.4400000000000013,100.0,27.494,27.587,42.328,42.449,0.0,1.0,100.0,0.0,0.0,0.0,0.0,3032.4285714285716,3198.2,4165.625,4235.3,305.577,304.706,314.65775,314.383,21.8911,20.5691,21.854,21.3834,314.999998,314.999998,324.999988,324.999988,99.55887142857142,99.50715,99.56527142857144,99.54557142857144,0.10775000000000023,-0.024333333333333318,-0.06933333333333333,0.1585,-0.026666666666670835,-0.03499999999999659,1.5286666666666666,1.4965,37.819,29.557000000000002,37.588,34.6465,56.047,34.826,59.021,51.903,53.979,33.9685,57.64,50.254,53.143,33.515,57.5785,49.672,-0.11450000000000005,-0.04249999999999998,0.10690500000000001,0.10994500000000001,0.0,210.45499999999998,210.51999999999998,207.33666666666667,207.33666666666667,0.0,0.0
13,0.0,1.0,0.0,1.0,1.0,0.0,0.0,1.0,0.0,100.0,1.0,1.1856,26.0,0.0,0.0,0.0,59.999996,0.0,26.0,26.0,26.0,26.0,0.07544444444444443,0.28710000000000013,0.03656666666666667,292.572,-2.7398,-2.671875,-1.59035,-1.5067,-232.29,216.035,190.725,0.0,0.0,0.0,0.0,0.026833333333333334,-5.498166666666667,-5.498166666666667,-0.5386000000000001,-0.09,0.021666666666666723,-0.5190000000000001,67.354,0.037000000000000005,-0.214975,-0.7920000000000007,100.0,1.0,1.0,207.71,0.0,0.0,0.0,0.0,0.0,0.0,0.0,8804.1,0.0,55.0,5.0,242.44666666666666,1.0,0.0,0.0,0.0,0.0,0.0,1.0,0.0,0.657,0.657,0.0,0.0,1.0,55.0,616.79921,10000.0,85.000001,85.000001,85.000001,85.000001,395.0,0.0,0.0,0.0,1.0,166.665,52.521,52.521,47.913,47.913,34.0,-21.91,26.874,-27.603333333333335,31.485,0.0,1782.958,-0.8299999999999983,100.0,27.62,27.915,42.468,43.074,0.0,1.0,100.0,0.0,0.0,0.0,0.0,3154.5714285714284,3084.2,4195.875,4287.1,305.3705,304.86575,314.635,314.14625,21.9007,20.5746,21.8645,21.3926,314.999998,314.999998,324.999988,324.999988,99.55888571428571,99.50715,99.56541428571428,99.54571428571428,0.14000000000000012,0.010666666666666602,-0.06966666666666667,0.149,-0.04333333333332945,-0.03999999999999915,1.506,1.478,37.879000000000005,29.59133333333333,37.653,34.7035,56.037,34.8645,59.0615,51.9685,53.969,34.004,57.6775,50.317,53.132,33.5495,57.6125,49.7335,-0.14700000000000002,-0.008500000000000174,0.107355,0.10237500000000001,0.0,210.89499999999998,210.945,207.71,207.71,0.0,0.0
14,0.0,1.0,0.0,1.0,1.0,0.0,0.0,1.0,0.0,100.0,1.0,1.1856,26.0,0.0,0.0,0.0,59.999996,0.0,26.0,26.0,26.0,26.0,0.09111111111111114,0.28,-0.010833333333333334,292.816,-2.7337,-2.61975,-1.5964,-1.514,-228.85,216.0125,190.70375,0.0,0.0,0.0,0.0,0.028833333333333332,-5.498166666666667,-5.498166666666667,-0.5484,-0.11333333333333333,0.05122222222222206,1.3170000000000002,67.494,0.0499,-0.227725,-1.0420000000000007,100.0,1.0,1.0,208.23333333333335,0.0,0.0,0.0,0.0,0.0,0.0,0.0,8826.3,0.0,55.0,5.0,242.95,0.0,0.0,0.0,0.0,0.0,0.0,1.0,0.0,0.7079999999999984,0.7079999999999984,0.0,0.0,0.0,55.0,616.79921,10000.0,85.000001,85.000001,85.000001,85.000001,395.0,0.0,0.0,0.0,1.0,166.665,52.643,52.643,48.126,48.126,34.0,-19.7175,28.58,-24.436666666666664,32.21,0.0,1782.907,-0.9499999999999993,100.0,27.688,27.825,42.524,43.159,0.0,1.0,100.0,0.0,0.0,0.0,0.0,2932.142857142857,3254.6,3946.0,4214.6,305.8355,304.5365,315.17425,314.426,21.9102,20.5801,21.8749,21.4016,314.999998,314.999998,324.999988,324.999988,99.5589,99.50715,99.56555714285714,99.54587142857143,0.1535000000000002,0.027666666666666728,-0.04633333333333334,0.18066666666666667,-0.041666666666671404,-0.05333333333332746,1.556,1.527,37.939,29.625666666666667,37.718,34.76,56.027,34.9025,59.0995,52.0325,53.959,34.039500000000004,57.7125,50.3785,53.120999999999995,33.5835,57.644999999999996,49.794,-0.14500000000000002,-0.00550000000000006,0.108545,0.10925000000000001,0.0,211.325,211.385,208.23333333333335,208.23333333333335,0.0,0.0
15,0.0,1.0,0.0,1.0,1.0,0.0,0.0,1.0,0.0,100.0,1.0,1.1856,26.0,0.0,0.0,0.0,59.999996,0.0,26.0,26.0,26.0,26.0,0.11711111111111117,0.28690000000000015,0.013766666666666667,292.847,-2.7115,-2.57575,-1.625,-1.4524,-225.61,215.9925,190.6835,0.0,0.0,0.0,0.0,0.0307,-5.498166666666667,-5.498166666666667,-0.5392,0.2633333333333333,0.08288888888888879,1.008,67.626,0.0645,-0.208375,-1.2000000000000002,100.0,1.0,1.0,208.61,0.0,0.0,0.0,0.0,0.0,0.0,0.0,8842.2,0.0,55.0,5.0,243.42666666666668,1.0,0.0,0.0,0.0,0.0,0.0,1.0,0.0,0.7560000000000002,0.7560000000000002,0.0,0.0,1.0,55.0,616.79921,10000.0,85.000001,85.000001,85.000001,85.000001,395.0,0.0,0.0,0.0,1.0,166.665,52.856,52.856,48.141,48.141,34.0,-17.68,28.536,-24.003333333333334,33.78,0.0,1782.859,-0.9800000000000004,100.0,27.652,27.873,42.243,43.218,0.0,1.0,100.0,0.0,0.0,0.0,0.0,2785.5714285714284,3234.9,3945.0,4410.5,306.2555,304.5895,315.21225,313.9755,21.9192,20.5853,21.8845,21.4102,314.999998,314.999998,324.999988,324.999988,99.55892857142857,99.50715,99.56568571428572,99.546,0.17200000000000015,0.04066666666666685,-0.0315,0.19183333333333336,-0.011666666666670267,-0.07000000000000028,1.5636666666666668,1.5135,37.995000000000005,29.65833333333333,37.778,34.8135,56.018,34.939499999999995,59.134,52.093,53.95,34.073499999999996,57.7445,50.4365,53.111000000000004,33.616,57.674,49.8515,-0.15399999999999991,0.0015000000000000568,0.10412500000000001,0.11139,0.0,211.72,211.825,208.61,208.61,0.0,0.0
16,0.0,1.0,0.0,1.0,1.0,0.0,0.0,1.0,0.0,100.0,1.0,1.1856,26.0,0.0,0.0,0.0,59.999996,0.0,26.0,26.0,26.0,26.0,0.12222222222222223,0.2714000000000001,-0.057300000000000004,292.862,-2.8086,-2.580875,-1.6009,-1.4522,-222.16,215.975,190.661375,0.0,0.0,0.0,0.0,0.0327,-5.498166666666667,-5.498166666666667,-0.5614,-0.705,0.06811111111111101,-1.081,67.766,0.0767,-0.226275,-1.202,100.0,1.0,1.0,209.05,0.0,0.0,0.0,0.0,0.0,0.0,0.0,8860.8,0.0,55.0,5.0,243.93,0.0,0.0,0.0,0.0,0.0,0.0,1.0,0.0,0.8069999999999986,0.8069999999999986,0.0,0.0,0.0,55.0,616.79921,10000.0,85.000001,85.000001,85.000001,85.000001,395.0,0.0,0.0,0.0,1.0,166.665,52.704,52.704,47.958,47.958,34.0,-20.32,28.21,-23.58,31.6575,0.0,1782.807,-0.8949999999999996,100.0,27.188,28.13,42.419,43.437,0.0,1.0,100.0,0.0,0.0,0.0,0.0,3018.4285714285716,3209.9,3953.75,4140.7,305.865,304.5205,315.23475,314.54725,21.9283,20.5909,21.8949,21.4193,314.999998,314.999998,324.999988,324.999988,99.55894285714285,99.50716666666666,99.56582857142857,99.54614285714285,0.16425,0.03299999999999992,-0.029666666666666668,0.19733333333333336,-0.060000000000002274,-0.03833333333332689,1.5746666666666667,1.5245,38.052,29.693333333333335,37.843,34.8705,56.004999999999995,34.979,59.1735,52.157,53.937,34.1105,57.7815,50.498,53.098,33.6515,57.707499999999996,49.911500000000004,-0.14549999999999996,-0.008500000000000174,0.11311000000000002,0.104275,0.0,212.14,212.20499999999998,209.05,209.05,0.0,0.0
17,0.0,1.0,0.0,1.0,1.0,0.0,0.0,1.0,0.0,100.0,1.0,1.1856,26.0,0.0,0.0,0.0,59.999996,0.0,26.0,26.0,26.0,26.0,0.12511111111111117,0.29000000000000004,-0.009366666666666667,292.603,-2.7664,-2.564375,-1.6397,-1.476,-218.9,215.96,190.640125,0.0,0.0,0.0,0.0,0.0346,-5.498166666666667,-5.498166666666667,-0.5508000000000001,0.5426666666666666,0.046666666666666634,-0.6659999999999999,67.896,0.0796,-0.20600000000000002,-1.104,100.0,1.0,1.0,209.44,0.0,0.0,0.0,0.0,0.0,0.0,0.0,8877.4,0.0,55.0,5.0,244.4,1.0,0.0,0.0,0.0,0.0,0.0,1.0,0.0,0.8550000000000004,0.8550000000000004,0.0,0.0,1.0,55.0,616.79921,10000.0,85.000001,85.000001,85.000001,85.000001,395.0,0.0,0.0,0.0,1.0,166.665,52.49,52.49,47.943,47.943,34.0,-19.849999999999998,26.856,-25.956666666666663,32.78,0.0,1782.76,-0.9699999999999989,100.0,27.648,28.417,42.181,43.416,0.0,1.0,100.0,0.0,0.0,0.0,0.0,3087.285714285714,3056.4,4209.75,4218.8,305.6275,305.01525,314.73675,314.40175,21.9373,20.5963,21.9046,21.4278,314.999998,314.999998,324.999988,324.999988,99.55897142857143,99.50716666666666,99.56595714285714,99.54628571428572,0.17925000000000013,0.04200000000000004,-0.0305,0.19883333333333333,-0.06666666666666998,-0.04999999999999716,1.5586666666666666,1.5125,38.108000000000004,29.726666666666667,37.903999999999996,34.9235,55.998000000000005,35.0185,59.208,52.216,53.93,34.1465,57.813,50.555,53.089,33.686,57.7365,49.968,-0.15900000000000003,-0.00749999999999984,0.11202500000000001,0.10743000000000001,0.0,212.59,212.655,209.44,209.44,0.0,0.0
18,0.0,1.0,0.0,1.0,1.0,0.0,0.0,1.0,0.0,100.0,1.0,1.1856,26.0,0.0,0.0,0.0,59.999996,0.0,26.0,26.0,26.0,26.0,0.1260000000000001,0.2763,-0.0589,292.572,-2.8005,-2.536625,-1.6573,-1.4206,-215.64,215.95,190.619,0.0,0.0,0.0,0.0,0.036500000000000005,-5.498166666666667,-5.498166666666667,-0.5583,-0.5796666666666667,0.07288888888888878,-0.10199999999999987,68.027,0.0819,-0.22095,-1.2539999999999996,100.0,1.0,1.0,209.83333333333331,0.0,0.0,0.0,0.0,0.0,0.0,0.0,8894.0,0.0,55.0,5.0,244.87,0.0,0.0,0.0,0.0,0.0,0.0,1.0,0.0,0.9029999999999987,0.9029999999999987,0.0,0.0,0.0,55.0,616.79921,10000.0,85.000001,85.000001,85.000001,85.000001,395.0,0.0,0.0,0.0,1.0,333.33500000000004,52.505,52.505,47.745,47.745,34.0,-19.675,29.067999999999998,-24.476666666666663,31.7,0.0,1782.711,-1.1600000000000001,100.0,27.432,28.226,42.555,43.851,0.0,1.0,100.0,0.0,0.0,0.0,0.0,3039.142857142857,3241.8,4028.0,4172.0,305.818,304.50375,315.09625,314.5015,21.9461,20.6015,21.9144,21.4365,314.999998,314.999998,324.999988,324.999988,99.55898571428571,99.50718333333333,99.5661,99.54642857142858,0.18100000000000005,0.057666666666666755,-0.02066666666666667,0.20033333333333334,-0.04333333333332945,-0.03833333333332689,1.5493333333333332,1.512,38.163,29.759666666666668,37.965,34.978,55.989000000000004,35.056,59.245,52.278,53.922,34.1815,57.848,50.615,53.079,33.72,57.768,50.0265,-0.16549999999999998,0.016000000000000014,0.10683000000000001,0.10434500000000001,0.0,212.95499999999998,213.025,209.83333333333331,209.83333333333331,0.0,0.0
19,0.0,1.0,0.0,1.0,1.0,0.0,0.0,1.0,0.0,100.0,1.0,1.1856,26.0,0.0,0.0,0.0,59.999996,0.0,26.0,26.0,26.0,26.0,0.16822222222222227,0.2853000000000001,0.04276666666666667,291.946,-2.7195,-2.5233749999999997,-1.67395,-1.4019,-211.95999999999998,215.9425,190.595125,0.0,0.0,0.0,0.0,0.03863333333333333,-5.498166666666667,-5.498166666666667,-0.55,0.8293333333333334,0.08322222222222209,-0.508,68.173,0.09280000000000001,-0.21095,-1.5999999999999996,100.0,1.0,1.0,210.25666666666666,0.0,0.0,0.0,0.0,0.0,0.0,0.0,8912.0,0.0,55.0,5.0,245.39333333333335,1.0,0.0,0.0,0.0,0.0,0.0,1.0,0.0,0.9570000000000007,0.9570000000000007,0.0,0.0,1.0,55.0,616.79921,10000.0,85.000001,85.000001,85.000001,85.000001,395.0,0.0,0.0,0.0,1.0,166.665,51.666,51.666,47.485,47.485,34.0,-18.2575,30.862,-25.243333333333336,34.64,0.0,1782.658,-1.509999999999998,100.0,27.933,28.789,42.286,43.86,0.0,1.0,100.0,0.0,0.0,0.0,0.0,3108.285714285714,3321.3,4197.5,4416.5,305.4285,304.12775,314.7515,313.95775,21.9562,20.6077,21.9252,21.4462,314.999998,314.999998,324.999988,324.999988,99.55901428571428,99.50718333333333,99.56625714285714,99.54658571428571,0.21125000000000016,0.07866666666666666,-0.0085,0.21666666666666667,-0.04833333333333201,-0.05666666666667197,1.5510000000000002,1.484,38.226,29.798333333333332,38.033,35.0385,55.983000000000004,35.1035,59.283500000000004,52.3465,53.915,34.2255,57.8835,50.681,53.072,33.762,57.8005,50.091499999999996,-0.1944999999999999,0.034499999999999975,0.104785,0.10887500000000001,0.0,213.425,213.535,210.25666666666666,210.25666666666666,0.0,0.0
20,0.0,1.0,0.0,1.0,1.0,0.0,0.0,1.0,0.0,100.0,1.0,1.1856,26.0,0.0,0.0,0.0,59.999996,0.0,26.0,26.0,26.0,26.0,0.1954444444444443,0.272,-0.05103333333333333,292.282,-2.8242,-2.580875,-1.60715,-1.4038,-208.69,215.9375,190.574125,0.0,0.0,0.0,0.0,0.04053333333333333,-5.498166666666667,-5.498166666666667,-0.5512,-1.0346666666666668,0.09422222222222221,-0.512,68.304,0.1066,-0.21932500000000002,-1.9859999999999998,100.0,1.0,1.0,210.5366666666667,0.0,0.0,0.0,0.0,0.0,0.0,0.0,8923.9,0.0,55.0,5.0,245.86666666666667,0.0,0.0,0.0,0.0,0.0,0.0,0.0,0.0,1.004999999999999,1.004999999999999,0.0,0.0,0.0,55.0,616.79921,10000.0,85.000001,85.000001,85.000001,85.000001,395.0,0.0,0.0,0.0,1.0,333.33500000000004,52.902,52.902,46.768,46.768,34.0,-15.849999999999998,30.362,-23.033333333333335,36.565,0.0,1782.61,-1.7699999999999996,100.0,27.366,28.512999999999998,42.762,44.34,0.0,1.0,100.0,0.0,0.0,0.0,0.0,2780.142857142857,3159.3,4179.75,4428.0,306.5505,304.65575,314.641,313.83075,21.9647,20.613,21.9351,21.455,314.999998,314.999998,324.999988,324.999988,99.55904285714286,99.5072,99.56638571428572,99.54672857142857,0.23475000000000001,0.09766666666666679,0.018166666666666668,0.24333333333333335,-0.051666666666669414,-0.05666666666667197,1.5096666666666667,1.4455,38.28,29.831333333333333,38.094,35.0935,55.973,35.144,59.3225,52.4095,53.906,34.263,57.9195,50.742,53.061,33.798,57.833,50.1515,-0.21299999999999986,0.05449999999999999,0.10479000000000001,0.10724,0.0,213.76,213.91,210.5366666666667,210.5366666666667,0.0,0.0
21,0.0,1.0,0.0,1.0,1.0,0.0,0.0,1.0,0.0,100.0,1.0,1.1856,26.0,0.0,0.0,0.0,59.999996,0.0,26.0,26.0,26.0,26.0,0.20277777777777795,0.26660000000000017,-0.0746,292.648,-2.7525,-2.622,-1.67915,-1.4682,-205.39999999999998,215.94,190.5525,0.0,0.0,0.0,0.0,0.04246666666666667,-5.498166666666667,-5.498166666666667,-0.5810000000000001,0.41833333333333333,0.08411111111111103,-1.004,68.428,0.1262,-0.229525,-1.9500000000000002,100.0,1.0,1.0,211.20333333333332,0.0,0.0,0.0,0.0,0.0,0.0,0.0,8952.1,0.0,55.0,5.0,246.31333333333333,1.0,0.0,0.0,0.0,0.0,0.0,0.0,0.0,1.0530000000000008,1.0530000000000008,0.0,0.0,1.0,55.0,616.79921,10000.0,85.000001,85.000001,85.000001,85.000001,395.0,0.0,0.0,0.0,1.0,333.33500000000004,52.124,52.124,48.400999999999996,48.400999999999996,34.0,-18.9275,29.978,-20.636666666666663,33.31,0.0,1782.56,-0.8449999999999989,100.0,27.549,28.756,42.056,43.978,0.0,1.0,100.0,0.0,0.0,0.0,0.0,3036.0,3224.3,3865.5,4051.2,305.704,304.37325,315.558,314.826,21.9735,20.6185,21.9446,21.4635,314.999998,314.999998,324.999988,324.999988,99.55905714285714,99.50721666666666,99.56652857142858,99.54687142857144,0.19074999999999998,0.05899999999999994,0.032,0.2495,-0.03333333333333144,-0.061666666666667425,1.6393333333333335,1.5645,38.334,29.865666666666666,38.153999999999996,35.147,55.966,35.189499999999995,59.3555,52.472,53.899,34.3055,57.95,50.802,53.053,33.839,57.8605,50.210499999999996,-0.14949999999999997,-0.00649999999999995,0.10185000000000001,0.10275000000000001,0.0,214.17000000000002,214.325,211.20333333333332,211.20333333333332,0.0,0.0
22,0.0,1.0,0.0,1.0,1.0,0.0,0.0,1.0,0.0,100.0,1.0,1.1856,26.0,0.0,0.0,0.0,59.999996,0.0,26.0,26.0,26.0,26.0,0.1443333333333332,0.2744,0.009733333333333333,292.145,-2.7286,-2.631125,-1.6605,-1.4706000000000001,-201.7,215.945,190.527375,0.0,0.0,0.0,0.0,0.0446,-5.498166666666667,-5.498166666666667,-0.5571,0.08066666666666668,0.07688888888888878,-0.806,68.575,0.1274,-0.20670000000000002,-0.6219999999999999,100.0,1.0,1.0,211.41333333333333,0.0,0.0,0.0,0.0,0.0,0.0,0.0,8961.0,0.0,55.0,5.0,246.84333333333336,0.0,0.0,0.0,0.0,0.0,0.0,0.0,0.0,1.1069999999999993,1.1069999999999993,0.0,0.0,0.0,55.0,616.79921,10000.0,85.000001,85.000001,85.000001,85.000001,395.0,0.0,0.0,0.0,1.0,166.665,52.383,52.383,47.165,47.165,34.0,-20.705,25.936,-24.536666666666665,35.7225,0.0,1782.509,0.5199999999999996,100.0,27.662,28.787,42.474000000000004,44.215,0.0,1.0,100.0,0.0,0.0,0.0,0.0,2924.5714285714284,3122.8,4225.75,4343.2,306.0155,304.656,314.6385,314.0885,21.9834,20.6246,21.9556,21.473300000000002,314.999998,314.999998,324.999988,324.999988,99.55908571428571,99.50721666666666,99.56668571428571,99.54702857142857,0.12375000000000025,-0.01633333333333331,0.009166666666666667,0.22966666666666666,-0.051666666666669414,-0.04833333333333201,1.5056666666666667,1.4815,38.396,29.904,38.222,35.208,55.955,35.230000000000004,59.3955,52.5385,53.888,34.343,57.9875,50.866,53.041,33.875,57.894999999999996,50.2735,-0.044499999999999984,-0.11249999999999982,0.10881500000000001,0.10393500000000001,0.0,214.685,214.735,211.41333333333333,211.41333333333333,0.0,0.0
23,0.0,1.0,0.0,1.0,1.0,0.0,0.0,1.0,0.0,100.0,1.0,1.1856,26.0,0.0,0.0,0.0,59.999996,0.0,26.0,26.0,26.0,26.0,0.07966666666666677,0.24439999999999995,-0.028733333333333333,292.068,-2.7372,-2.606,-1.56615,-1.5589,-198.41,215.95499999999998,190.50525,0.0,0.0,0.0,0.0,0.0465,-5.498166666666667,-5.498166666666667,-0.5764,-0.3363333333333333,0.05022222222222217,-1.2999999999999998,68.701,0.08460000000000001,-0.23450000000000001,0.5739999999999998,100.0,1.0,1.0,211.89333333333332,0.0,0.0,0.0,0.0,0.0,0.0,0.0,8981.4,0.0,55.0,5.0,247.3,1.0,0.0,0.0,0.0,0.0,0.0,0.0,0.0,1.1550000000000011,1.1550000000000011,0.0,0.0,1.0,55.0,616.79921,10000.0,85.000001,85.000001,85.000001,85.000001,395.0,0.0,0.0,0.0,1.0,111.11,51.697,51.697,47.989,47.989,34.0,-25.48,24.222,-24.756666666666664,31.2475,0.0,1782.461,0.8900000000000006,100.0,28.022,28.709,42.834,44.302,0.0,1.0,100.0,0.0,0.0,0.0,0.0,3300.285714285714,3138.0,3989.75,4013.0,305.013,304.694,315.12025,314.78425,21.9922,20.63,21.9654,21.482,314.999998,314.999998,324.999988,324.999988,99.5591,99.50721666666666,99.56681428571429,99.54718571428572,0.08775000000000022,-0.05266666666666664,-0.05,0.181,-0.05333333333332746,-0.03499999999999659,1.4986666666666668,1.525,38.451,29.937666666666665,38.284,35.2625,55.943,35.268,59.4315,52.5995,53.876000000000005,34.378,58.0205,50.9245,53.028,33.908500000000004,57.925,50.331,-0.0129999999999999,-0.14800000000000013,0.107115,0.11040000000000001,0.0,215.085,215.05,211.89333333333332,211.89333333333332,0.0,0.0
24,0.0,1.0,0.0,1.0,1.0,0.0,0.0,1.0,0.0,100.0,1.0,1.1856,26.0,0.0,0.0,0.0,59.999996,0.0,26.0,26.0,26.0,26.0,-0.02444444444444449,0.2824,-0.10913333333333333,292.404,-2.7276,-2.6475,-1.58185,-1.5262,-194.89999999999998,215.965,190.481375,0.0,0.0,0.0,0.0,0.04856666666666667,-5.498166666666667,-5.498166666666667,-0.5793,-0.5553333333333333,0.030444444444444274,0.45399999999999974,68.837,0.0217,-0.21732500000000002,1.1799999999999997,100.0,1.0,1.0,212.23666666666668,0.0,0.0,0.0,0.0,0.0,0.0,0.0,8995.9,0.0,55.0,5.0,247.78666666666666,0.0,0.0,0.0,0.0,0.0,0.0,0.0,0.0,1.2059999999999995,1.2059999999999995,0.0,0.0,0.0,55.0,616.79921,10000.0,85.000001,85.000001,85.000001,85.000001,395.0,0.0,0.0,0.0,1.0,166.665,52.917,52.917,47.119,47.119,34.0,-23.3825,21.485999999999997,-30.29,28.1275,0.0,1782.41,0.9299999999999997,100.0,28.054,28.109,43.155,43.804,0.0,1.0,100.0,0.0,0.0,0.0,0.0,2874.285714285714,2989.6,4296.875,4128.0,306.0745,305.37375,314.333,314.66825,22.0015,20.6355,21.9757,21.491,314.999998,314.999998,324.999988,324.999988,99.5591,99.50723333333333,99.56695714285715,99.54732857142857,0.048249999999999904,-0.09033333333333338,-0.10250000000000001,0.1115,-0.03499999999999659,-0.054999999999999716,1.4943333333333333,1.5245,38.509,29.972,38.348,35.319,55.928,35.3075,59.4705,52.6605,53.861999999999995,34.414500000000004,58.0565,50.9835,53.013,33.944,57.958,50.3885,-0.0029999999999998916,-0.15549999999999997,0.10049500000000001,0.10747500000000001,0.0,215.54000000000002,215.45499999999998,212.23666666666668,212.23666666666668,0.0,0.0
25,0.0,1.0,0.0,1.0,1.0,0.0,0.0,1.0,0.0,100.0,1.0,1.1856,26.0,0.0,0.0,0.0,59.999996,0.0,26.0,26.0,26.0,26.0,-0.08444444444444443,0.2634000000000001,-0.08016666666666666,292.404,-2.7613,-2.645,-1.5708,-1.5559,-191.6,215.975,190.457625,0.0,0.0,0.0,0.0,0.050466666666666674,-5.498166666666667,-5.498166666666667,-0.6134000000000001,-0.13033333333333336,0.0031111111111110645,-0.6040000000000001,68.961,-0.034,-0.2283,1.4540000000000006,100.0,1.0,1.0,212.7733333333333,0.0,0.0,0.0,0.0,0.0,0.0,0.0,9018.7,0.0,55.0,5.0,248.23333333333335,1.0,0.0,0.0,0.0,0.0,0.0,0.0,0.0,1.2540000000000013,1.2540000000000013,0.0,0.0,1.0,55.0,616.79921,10000.0,85.000001,85.000001,85.000001,85.000001,395.0,0.0,0.0,0.0,1.0,166.665,52.032,52.032,47.943,47.943,34.0,-28.127499999999998,22.708,-30.076666666666664,24.622500000000002,0.0,1782.361,0.8949999999999996,100.0,28.207,28.064,43.209,43.275,0.0,1.0,100.0,0.0,0.0,0.0,0.0,3203.5714285714284,3265.9,3976.375,3959.5,305.2255,304.557,315.1935,315.101,22.0103,20.6408,21.9854,21.4995,314.999998,314.999998,324.999988,324.999988,99.55911428571429,99.50723333333333,99.5671,99.54745714285714,0.014499999999999957,-0.1133333333333334,-0.16333333333333336,0.06633333333333333,-0.04833333333333201,-0.04833333333333201,1.5473333333333334,1.5979999999999999,38.564,30.004666666666665,38.409,35.3715,55.911,35.347,59.504999999999995,52.7155,53.846000000000004,34.451499999999996,58.089,51.036500000000004,52.995999999999995,33.979,57.9875,50.4405,-0.006000000000000005,-0.14900000000000002,0.10674000000000002,0.10654500000000001,0.0,215.945,215.82,212.7733333333333,212.7733333333333,0.0,0.0
26,0.0,1.0,0.0,1.0,1.0,0.0,0.0,1.0,0.0,100.0,1.0,1.1856,26.0,0.0,0.0,0.0,59.999996,0.0,26.0,26.0,26.0,26.0,-0.12722222222222213,0.26780000000000004,0.05566666666666666,291.199,-2.6672,-2.76325,-1.58005,-1.5846,-188.07,215.98250000000002,190.43175,0.0,0.0,0.0,0.0,0.05253333333333334,-5.498166666666667,-5.498166666666667,-0.5723,0.8383333333333334,-0.05900000000000016,-1.484,69.09700000000001,-0.0751,-0.1963,1.5899999999999999,100.0,1.0,1.0,212.94333333333333,0.0,0.0,0.0,0.0,0.0,0.0,0.0,9025.9,0.0,55.0,5.0,248.72333333333336,0.0,0.0,0.0,0.0,0.0,0.0,0.0,0.0,1.3049999999999997,1.3049999999999997,0.0,0.0,0.0,55.0,616.79921,10000.0,85.000001,85.000001,85.000001,85.000001,395.0,0.0,0.0,0.0,1.0,333.33500000000004,51.346000000000004,51.346000000000004,46.295,46.295,34.0,-29.814999999999998,20.055999999999997,-39.68,25.427500000000002,0.0,1782.309,0.75,100.0,29.217,28.611,43.923,43.346000000000004,0.0,1.0,100.0,0.0,0.0,0.0,0.0,3359.142857142857,2971.4,4656.75,4317.6,304.76,305.114,313.662,314.181,22.0201,20.6464,21.996,21.5086,314.999998,314.999998,324.999988,324.999988,99.55911428571429,99.50726666666667,99.56725714285714,99.54761428571429,-0.007249999999999979,-0.15433333333333332,-0.20866666666666667,0.014666666666666666,-0.060000000000002274,-0.03499999999999659,1.4203333333333332,1.4809999999999999,38.625,30.040333333333333,38.475,35.4285,55.899,35.393,59.5485,52.7765,53.834,34.4935,58.1295,51.095,52.983000000000004,34.0195,58.0245,50.4975,-0.024499999999999966,-0.13949999999999996,0.10625000000000001,0.10735000000000001,0.0,216.42000000000002,216.26999999999998,212.94333333333333,212.94333333333333,0.0,0.0
27,0.0,1.0,0.0,1.0,1.0,0.0,0.0,1.0,0.0,100.0,1.0,1.1856,26.0,0.0,0.0,0.0,59.999996,0.0,26.0,26.0,26.0,26.0,-0.133,0.26280000000000014,-0.006233333333333334,291.519,-2.6144,-2.748125,-1.55795,-1.6745999999999999,-184.75,215.9875,190.408625,0.0,0.0,0.0,0.0,0.05446666666666666,-5.498166666666667,-5.498166666666667,-0.5948,-1.0913333333333333,-0.07455555555555549,-0.766,69.22200000000001,-0.0947,-0.24102500000000002,1.4420000000000002,100.0,1.0,1.0,213.38666666666666,0.0,0.0,0.0,0.0,0.0,0.0,0.0,9044.6,0.0,55.0,5.0,249.17666666666668,1.0,0.0,0.0,0.0,0.0,0.0,0.0,0.0,1.352999999999998,1.352999999999998,0.0,0.0,1.0,55.0,616.79921,10000.0,85.000001,85.000001,85.000001,85.000001,395.0,0.0,0.0,0.0,1.0,166.665,51.727000000000004,51.727000000000004,46.616,46.616,34.0,-29.7825,19.102,-35.94,24.0925,0.0,1782.261,0.6600000000000001,100.0,29.038,28.208,44.926,43.762,0.0,1.0,100.0,0.0,0.0,0.0,0.0,3329.285714285714,2955.5,4250.0,4024.5,304.831,305.3205,314.52475,314.7545,22.029,20.6515,22.0061,21.5173,314.999998,314.999998,324.999988,324.999988,99.55911428571429,99.50728333333333,99.5674,99.54775714285714,-0.024249999999999883,-0.16733333333333333,-0.2245,0.005,-0.06333333333333258,-0.03166666666666629,1.4773333333333334,1.5265,38.681,30.071666666666665,38.538,35.4835,55.884,35.4335,59.591,52.835,53.821,34.531,58.1695,51.150999999999996,52.969,34.055,58.0615,50.5525,-0.03049999999999997,-0.12950000000000017,0.10308,0.11035500000000001,0.0,216.735,216.61,213.38666666666666,213.38666666666666,0.0,0.0
28,0.0,1.0,0.0,1.0,1.0,0.0,0.0,1.0,0.0,100.0,1.0,1.1856,26.0,0.0,0.0,0.0,59.999996,0.0,26.0,26.0,26.0,26.0,-0.1416666666666666,0.2743,-0.044000000000000004,291.901,-2.636,-2.742,-1.5025,-1.6368,-181.01,215.99,190.38175,0.0,0.0,0.0,0.0,0.05663333333333334,-5.498166666666667,-5.498166666666667,-0.6005,0.654,-0.08233333333333359,-0.653,69.35900000000001,-0.1073,-0.215425,1.3200000000000003,100.0,1.0,1.0,213.93,0.0,0.0,0.0,0.0,0.0,0.0,0.0,9067.7,0.0,55.0,5.0,249.66666666666666,0.0,0.0,0.0,0.0,0.0,0.0,0.0,0.0,1.407,1.407,0.0,0.0,0.0,55.0,616.79921,10000.0,85.000001,85.000001,85.000001,85.000001,395.0,0.0,0.0,0.0,1.0,166.665,51.788,51.788,47.501,47.501,34.0,-30.545,18.842,-34.870000000000005,22.9225,0.0,1782.206,0.4400000000000013,100.0,29.125,28.064,44.214,43.057,0.0,1.0,100.0,0.0,0.0,0.0,0.0,3379.285714285714,2901.5,4210.875,4042.3,304.729,305.46375,314.74225,314.85,22.0392,20.6573,22.017,21.5268,314.999998,314.999998,324.999988,324.999988,99.55911428571429,99.5073,99.56755714285714,99.5479,-0.026000000000000023,-0.16300000000000003,-0.23566666666666666,-0.004333333333333333,-0.05833333333333002,-0.03166666666666629,1.5356666666666667,1.5695000000000001,38.745000000000005,30.108,38.605999999999995,35.542500000000004,55.870999999999995,35.480000000000004,59.6305,52.8955,53.808,34.574,58.2065,51.209,52.955,34.0965,58.0955,50.6085,-0.050999999999999934,-0.1120000000000001,0.101845,0.11298000000000001,0.0,217.22,217.07999999999998,213.93,213.93,0.0,0.0
29,0.0,1.0,0.0,1.0,1.0,0.0,0.0,1.0,0.0,100.0,1.0,1.1856,26.0,0.0,0.0,0.0,59.999996,0.0,26.0,26.0,26.0,26.0,-0.14900000000000002,0.24930000000000008,0.009366666666666667,291.534,-2.5758,-2.7984999999999998,-1.5376,-1.6162,-177.47,215.9875,190.355375,0.0,0.0,0.0,0.0,0.0587,-5.498166666666667,-5.498166666666667,-0.6071000000000001,-0.7010000000000001,-0.07866666666666644,0.6840000000000002,69.494,-0.1004,-0.2195,0.8660000000000005,100.0,1.0,1.0,214.19333333333333,0.0,0.0,0.0,0.0,0.0,0.0,0.0,9078.9,0.0,55.0,5.0,250.15333333333334,1.0,0.0,0.0,0.0,0.0,0.0,0.0,0.0,1.4579999999999984,1.4579999999999984,0.0,0.0,1.0,55.0,616.79921,10000.0,85.000001,85.000001,85.000001,85.000001,395.0,0.0,0.0,0.0,1.0,166.665,51.727000000000004,51.727000000000004,46.6,46.6,34.0,-28.674999999999997,21.198,-35.38666666666667,24.615000000000002,0.0,1782.157,0.33999999999999986,100.0,29.008,27.786,44.763,43.246,0.0,1.0,100.0,0.0,0.0,0.0,0.0,3294.5714285714284,3083.3,4253.0,4183.7,304.7995,304.955,314.419,314.52475,22.0486,20.6627,22.0276,21.536,314.999998,314.999998,324.999988,324.999988,99.55912857142857,99.50731666666667,99.56771428571429,99.54805714285715,-0.010999999999999899,-0.15133333333333332,-0.21383333333333335,0.009166666666666667,-0.06333333333333258,-0.04333333333332945,1.464,1.4855,38.804,30.141666666666666,38.672,35.6,55.855000000000004,35.5225,59.6745,52.9565,53.792,34.613,58.248,51.2675,52.939,34.1335,58.1335,50.666,-0.057499999999999885,-0.1030000000000002,0.11039000000000002,0.10551500000000001,0.0,217.575,217.47,214.19333333333333,214.19333333333333,0.0,0.0
30,0.0,1.0,0.0,1.0,1.0,0.0,0.0,1.0,0.0,100.0,1.0,1.1856,26.0,0.0,0.0,0.0,59.999996,0.0,26.0,26.0,26.0,26.0,-0.13555555555555554,0.2755000000000001,0.035633333333333336,291.046,-2.637,-2.6805000000000003,-1.4797500000000001,-1.6907,-174.34,215.98250000000002,190.332,0.0,0.0,0.0,0.0,0.060500000000000005,-5.498166666666667,-5.498166666666667,-0.6048,0.7743333333333334,-0.08088888888888857,-0.6509999999999998,69.608,-0.0887,-0.21855000000000002,0.8739999999999997,100.0,1.0,1.0,214.57666666666665,0.0,0.0,0.0,0.0,0.0,0.0,0.0,9095.2,0.0,55.0,5.0,250.56333333333333,0.0,0.0,0.0,0.0,0.0,0.0,1.0,0.0,1.5030000000000001,1.5030000000000001,0.0,0.0,0.0,55.0,616.79921,10000.0,85.000001,85.000001,85.000001,85.000001,395.0,0.0,0.0,0.0,1.0,166.665,50.888,50.888,46.86,46.86,34.0,-31.2125,19.768,-34.8,26.009999999999998,0.0,1782.113,0.23000000000000043,100.0,29.612000000000002,28.62,44.472,43.306,0.0,1.0,100.0,0.0,0.0,0.0,0.0,3535.285714285714,2992.4,4365.75,4217.9,304.226,305.1135,314.30375,314.305,22.0572,20.6677,22.0367,21.544,314.999998,314.999998,324.999988,324.999988,99.55912857142857,99.50733333333334,99.56784285714286,99.54818571428571,-0.00374999999999992,-0.14633333333333332,-0.203,0.0085,-0.041666666666671404,-0.061666666666667425,1.4773333333333334,1.5025,38.858000000000004,30.173000000000002,38.730000000000004,35.65,55.845,35.5625,59.7095,53.0085,53.783,34.65,58.2805,51.317499999999995,52.929,34.1695,58.1635,50.7145,-0.0694999999999999,-0.09650000000000025,0.10458500000000001,0.09708000000000001,0.0,217.935,217.9,214.57666666666665,214.57666666666665,0.0,0.0
31,0.0,1.0,0.0,1.0,1.0,0.0,0.0,1.0,0.0,100.0,1.0,1.1856,26.0,0.0,0.0,0.0,59.999996,0.0,26.0,26.0,26.0,26.0,-0.10288888888888892,0.2630000000000001,0.011833333333333333,291.077,-2.6365,-2.7563750000000002,-1.5721500000000002,-1.6597,-170.79,215.9725,190.306125,0.0,0.0,0.0,0.0,0.06256666666666666,-5.498166666666667,-5.498166666666667,-0.5887,-0.6163333333333334,-0.06266666666666643,0.7090000000000005,69.74000000000001,-0.0765,-0.218025,0.4939999999999998,100.0,1.0,1.0,214.89,0.0,0.0,0.0,0.0,0.0,0.0,0.0,9108.3,0.0,55.0,5.0,251.03666666666666,1.0,0.0,0.0,0.0,0.0,0.0,1.0,0.0,1.5539999999999985,1.5539999999999985,0.0,0.0,1.0,55.0,616.79921,10000.0,85.000001,85.000001,85.000001,85.000001,395.0,0.0,0.0,0.0,1.0,166.665,51.62,51.62,45.486,45.486,34.0,-25.5525,21.994,-35.79666666666667,28.177500000000002,0.0,1782.06,0.08500000000000085,100.0,29.409,28.534,45.193,43.899,0.0,1.0,100.0,0.0,0.0,0.0,0.0,3079.857142857143,3085.8,4415.0,4267.3,305.456,305.01425,314.08275,314.402,22.0667,20.6733,22.0474,21.5534,314.999998,314.999998,324.999988,324.999988,99.55912857142857,99.50735,99.568,99.54832857142857,0.02499999999999991,-0.123,-0.181,0.051666666666666666,-0.03833333333332689,-0.054999999999999716,1.4413333333333334,1.467,38.917,30.208,38.796,35.7085,55.83,35.606,59.7535,53.0715,53.769,34.6905,58.3215,51.378,52.914,34.207499999999996,58.201499999999996,50.7735,-0.0794999999999999,-0.08650000000000002,0.10628000000000001,0.109615,0.0,218.315,218.28,214.89,214.89,0.0,0.0
32,0.0,1.0,0.0,1.0,1.0,0.0,0.0,1.0,0.0,100.0,1.0,1.1856,26.0,0.0,0.0,0.0,59.999996,0.0,26.0,26.0,26.0,26.0,-0.10433333333333339,0.27180000000000004,-0.0502,291.275,-2.6388,-2.701375,-1.59595,-1.5707,-167.01999999999998,215.9625,190.279,0.0,0.0,0.0,0.0,0.06476666666666667,-5.498166666666667,-5.498166666666667,-0.6082000000000001,0.22466666666666665,-0.08844444444444433,0.2370000000000001,69.875,-0.0648,-0.22787500000000002,0.46999999999999975,100.0,1.0,1.0,215.46,0.0,0.0,0.0,0.0,0.0,0.0,0.0,9132.6,0.0,55.0,5.0,251.52333333333334,0.0,0.0,0.0,0.0,0.0,0.0,1.0,0.0,1.6080000000000005,1.6080000000000005,0.0,0.0,0.0,55.0,616.79921,10000.0,85.000001,85.000001,85.000001,85.000001,395.0,0.0,0.0,0.0,1.0,166.665,51.239,51.239,46.661,46.661,34.0,-27.1525,22.442,-33.586666666666666,25.9125,0.0,1782.007,-0.02499999999999858,100.0,29.436,28.57,44.724000000000004,43.71,0.0,1.0,100.0,0.0,0.0,0.0,0.0,3306.857142857143,3108.8,4255.375,4172.6,304.79,304.98975,314.61975,314.68,22.0767,20.6793,22.0584,21.563,314.999998,314.999998,324.999988,324.999988,99.55914285714286,99.50736666666667,99.56815714285715,99.54848571428572,0.03849999999999998,-0.10399999999999998,-0.17450000000000002,0.05433333333333334,-0.03833333333332689,-0.05333333333332746,1.5263333333333335,1.556,38.979,30.245333333333335,38.864999999999995,35.769,55.815,35.652,59.7935,53.1335,53.754999999999995,34.7325,58.3595,51.4375,52.899,34.2485,58.236,50.8315,-0.08250000000000002,-0.08199999999999985,0.10820500000000001,0.10781500000000001,0.0,218.735,218.70499999999998,215.46,215.46,0.0,0.0
33,0.0,1.0,0.0,1.0,1.0,0.0,0.0,1.0,0.0,100.0,1.0,1.1856,26.0,0.0,0.0,0.0,59.999996,0.0,26.0,26.0,26.0,26.0,-0.06611111111111112,0.2721,-0.022233333333333334,291.397,-2.6568,-2.73175,-1.5626,-1.5836999999999999,-163.87,215.95,190.2555,0.0,0.0,0.0,0.0,0.0666,-5.498166666666667,-5.498166666666667,-0.6097,-0.36233333333333334,-0.07922222222222208,0.13400000000000034,69.99000000000001,-0.0551,-0.21455000000000002,0.32200000000000095,100.0,1.0,1.0,215.70666666666668,0.0,0.0,0.0,0.0,0.0,0.0,0.0,9143.0,0.0,55.0,5.0,251.93666666666667,1.0,0.0,0.0,0.0,0.0,0.0,1.0,0.0,1.6529999999999987,1.6529999999999987,0.0,0.0,1.0,55.0,616.79921,10000.0,85.000001,85.000001,85.000001,85.000001,395.0,0.0,0.0,0.0,1.0,166.665,51.879999999999995,51.879999999999995,46.387,46.387,34.0,-26.1,21.554000000000002,-34.02666666666667,26.9125,0.0,1781.962,-0.16499999999999915,100.0,29.073,28.444,44.67,43.868,0.0,1.0,100.0,0.0,0.0,0.0,0.0,3224.285714285714,2948.9,4345.75,4246.8,305.257,305.38025,314.372,314.35675,22.085,20.6841,22.0676,21.5712,314.999998,314.999998,324.999988,324.999988,99.55914285714286,99.50738333333334,99.5683,99.54862857142857,0.04225000000000012,-0.10233333333333339,-0.17033333333333334,0.051833333333333335,-0.05833333333333002,-0.045000000000001705,1.4823333333333333,1.5030000000000001,39.031,30.275333333333336,38.923,35.82,55.802,35.6865,59.829,53.187,53.742999999999995,34.7645,58.3925,51.4885,52.885999999999996,34.2785,58.2665,50.881,-0.09799999999999986,-0.06499999999999995,0.10762500000000001,0.10422000000000001,0.0,219.10500000000002,219.05,215.70666666666668,215.70666666666668,0.0,0.0
34,0.0,1.0,0.0,1.0,1.0,0.0,0.0,1.0,0.0,100.0,1.0,1.1856,26.0,0.0,0.0,0.0,59.999996,0.0,26.0,26.0,26.0,26.0,-0.048666666666666636,0.25880000000000014,-0.06756666666666666,291.779,-2.6803,-2.6956249999999997,-1.60255,-1.5992000000000002,-160.09,215.935,190.226,0.0,0.0,0.0,0.0,0.0688,-5.498166666666667,-5.498166666666667,-0.644,-0.8143333333333334,-0.04222222222222216,-0.0009999999999998899,70.126,-0.0373,-0.22617500000000001,0.18599999999999994,100.0,1.0,1.0,216.19666666666666,0.0,0.0,0.0,0.0,0.0,0.0,0.0,9163.8,0.0,55.0,5.0,252.42666666666668,0.0,0.0,0.0,0.0,0.0,0.0,1.0,0.0,1.7070000000000007,1.7070000000000007,0.0,0.0,0.0,55.0,616.79921,10000.0,85.000001,85.000001,85.000001,85.000001,395.0,0.0,0.0,0.0,1.0,166.665,52.094,52.094,47.379,47.379,34.0,-25.665,21.746,-31.06,27.28,0.0,1781.908,-0.16499999999999915,100.0,28.745,28.192,44.343,43.972,0.0,1.0,100.0,0.0,0.0,0.0,0.0,3197.5714285714284,2956.2,4079.625,4117.4,305.162,305.37375,315.00475,314.624,22.0948,20.689799999999998,22.0786,21.581,314.999998,314.999998,324.999988,324.999988,99.55915714285715,99.5074,99.56845714285714,99.54877142857143,0.05675000000000008,-0.09099999999999997,-0.154,0.074,-0.046666666666666856,-0.045000000000001705,1.5230000000000001,1.526,39.093,30.311666666666667,38.991,35.881,55.787,35.7275,59.8675,53.251,53.727999999999994,34.8025,58.4285,51.55,52.870000000000005,34.315,58.2995,50.941,-0.09899999999999998,-0.06499999999999995,0.10390500000000001,0.111685,0.0,219.495,219.445,216.19666666666666,216.19666666666666,0.0,0.0
35,0.0,1.0,0.0,1.0,1.0,0.0,0.0,1.0,0.0,100.0,1.0,1.1856,26.0,0.0,0.0,0.0,59.999996,0.0,26.0,26.0,26.0,26.0,-0.029888888888888854,0.25540000000000007,-0.07033333333333334,291.748,-2.7349,-2.65925,-1.5749,-1.605,-156.72,215.91750000000002,190.197875,0.0,0.0,0.0,0.0,0.07076666666666667,-5.498166666666667,-5.498166666666667,-0.684,-0.454,-0.045222222222222275,-0.9379999999999997,70.245,-0.021500000000000002,-0.22992500000000002,-0.009999999999999787,100.0,1.0,1.0,216.61,0.0,0.0,0.0,0.0,0.0,0.0,0.0,9181.3,0.0,55.0,5.0,252.85666666666668,1.0,0.0,0.0,0.0,0.0,0.0,1.0,0.0,1.754999999999999,1.754999999999999,0.0,0.0,1.0,55.0,616.79921,10000.0,85.000001,85.000001,85.000001,85.000001,395.0,0.0,0.0,0.0,1.0,333.33500000000004,51.650999999999996,51.650999999999996,46.844,46.844,34.0,-26.482499999999998,24.598,-29.806666666666665,26.7675,0.0,1781.858,-0.14000000000000057,100.0,28.538,28.467,44.068,43.554,0.0,1.0,100.0,0.0,0.0,0.0,0.0,3251.0,3240.0,4100.25,3974.1000000000004,305.2285,304.4655,314.8935,315.014,22.1033,20.6952,22.0883,21.5895,314.999998,314.999998,324.999988,324.999988,99.55915714285715,99.5074,99.5686,99.54891428571429,0.054749999999999854,-0.07499999999999996,-0.13283333333333336,0.08866666666666667,-0.05666666666667197,-0.03833333333332689,1.5486666666666666,1.559,39.146,30.344666666666665,39.052,35.9345,55.771,35.765,59.902,53.3045,53.713,34.837,58.460499999999996,51.602000000000004,52.855000000000004,34.348,58.328,50.9915,-0.08799999999999986,-0.07100000000000017,0.110935,0.10168,0.0,219.84,219.835,216.61,216.61,0.0,0.0
36,0.0,1.0,0.0,1.0,1.0,0.0,0.0,1.0,0.0,100.0,1.0,1.1856,26.0,0.0,0.0,0.0,59.999996,0.0,26.0,26.0,26.0,26.0,-0.02688888888888885,0.26480000000000015,0.0558,290.756,-2.7332,-2.639625,-1.5441,-1.6002,-153.13,215.9025,190.16625,0.0,0.0,0.0,0.0,0.07283333333333335,-5.498166666666667,-5.498166666666667,-0.6641,0.29633333333333334,-0.07888888888888879,0.2240000000000002,70.375,-0.0114,-0.19985,0.07399999999999984,100.0,1.0,1.0,216.7866666666667,0.0,0.0,0.0,0.0,0.0,0.0,0.0,9188.7,0.0,55.0,5.0,253.32333333333332,0.0,0.0,0.0,0.0,0.0,0.0,1.0,0.0,1.806000000000001,1.806000000000001,0.0,0.0,0.0,55.0,616.79921,10000.0,85.000001,85.000001,85.000001,85.000001,395.0,0.0,0.0,0.0,1.0,166.665,51.132,51.132,46.112,46.112,34.0,-26.03,24.462,-32.11333333333333,33.4825,0.0,1781.81,-0.14000000000000057,100.0,29.216,28.725,44.275999999999996,43.856,0.0,1.0,100.0,0.0,0.0,0.0,0.0,3320.5714285714284,3210.6,4463.375,4568.3,304.8535,304.7475,314.0035,313.66575,22.1127,20.701,22.0987,21.5988,314.999998,314.999998,324.999988,324.999988,99.55917142857143,99.50741666666667,99.56874285714285,99.54907142857142,0.08349999999999991,-0.06299999999999994,-0.11516666666666667,0.11316666666666668,-0.036666666666668846,-0.051666666666669414,1.4386666666666668,1.4335,39.205,30.381333333333334,39.117,35.992,55.76,35.807,59.9405,53.3655,53.702,34.876,58.4965,51.6605,52.843,34.3855,58.361,51.0485,-0.09899999999999998,-0.07050000000000001,0.10830000000000001,0.10479500000000001,0.0,220.285,220.285,216.78666666666666,216.7866666666667,0.0,0.0
