,ABS Active,ABS Enabled,AID Allow Tire Blankets,AID Auto Blip,AID Auto Clutch,AID Auto Shift,AID Fuel Rate,AID Ideal Line,AID Mech Damage,AID Stability,AID Tire Wear Rate,Air Density,Air Temp,Ballast,Best Lap Delta,Best Lap Time,Brake Bias,Brake Pos,Brake Temp FL,Brake Temp FR,Brake Temp RL,Brake Temp RR,CG Accel Lateral,CG Accel Longitudinal,CG Accel Vertical,CG Height,Camber FL,Camber FR,Camber RL,Camber RR,Car Coord X,Car Coord Y,Car Coord Z,Car Damage Front,Car Damage Left,Car Damage Rear,Car Damage Right,Car Pos Norm,Caster FL,Caster FR,Chassis Pitch Angle,Chassis Pitch Rate,Chassis Roll Angle,Chassis Roll Rate,Chassis Velocity X,Chassis Velocity Y,Chassis Velocity Z,Chassis Yaw Rate,Clutch Pos,DRS Active,DRS Available,Drive Train Speed,ERS Heat Charging,ERS Is Charging,ERS Max Energy,ERS Power Level,ERS Recovery Level,Engine Brake Setting,Engine Limiter,Engine RPM,Flags,Fuel Level,Gear,Ground Speed,HR Sample Clock,In Pit,KERS Charge,KERS Deployed Energy,KERS Input,KERS Max Energy,LR Sample Clock,Lap Invalidated,Lap Time,Lap Time2,Last Lap Time,Last Sector Time,MR Sample Clock,Max Fuel,Max Power,Max RPM,Max Sus Travel FL,Max Sus Travel FR,Max Sus Travel RL,Max Sus Travel RR,Max Torque,Max Turbo Boost,Num Tires Off Track,Penalties Enabled,Position,Raw Data Sample Rate,Ride Height FL,Ride Height FR,Ride Height RL,Ride Height RR,Road Temp,Self Align Torque FL,Self Align Torque FR,Self Align Torque RL,Self Align Torque RR,Session Lap Count,Session Time Left,Steering Angle,Surface Grip,Suspension Travel FL,Suspension Travel FR,Suspension Travel RL,Suspension Travel RR,TC Active,TC Enabled,Throttle Pos,Tire Dirt Level FL,Tire Dirt Level FR,Tire Dirt Level RL,Tire Dirt Level RR,Tire Load FL,Tire Load FR,Tire Load RL,Tire Load RR,Tire Loaded Radius FL,Tire Loaded Radius FR,Tire Loaded Radius RL,Tire Loaded Radius RR,Tire Pressure FL,Tire Pressure FR,Tire Pressure RL,Tire Pressure RR,Tire Radius FL,Tire Radius FR,Tire Radius RL,Tire Radius RR,Tire Rubber Grip FL,Tire Rubber Grip FR,Tire Rubber Grip RL,Tire Rubber Grip RR,Tire Slip Angle FL,Tire Slip Angle FR,Tire Slip Angle RL,Tire Slip Angle RR,Tire Slip Ratio FL,Tire Slip Ratio FR,Tire Slip Ratio RL,Tire Slip Ratio RR,Tire Temp Core FL,Tire Temp Core FR,Tire Temp Core RL,Tire Temp Core RR,Tire Temp Inner FL,Tire Temp Inner FR,Tire Temp Inner RL,Tire Temp Inner RR,Tire Temp Middle FL,Tire Temp Middle FR,Tire Temp Middle RL,Tire Temp Middle RR,Tire Temp Outer FL,Tire Temp Outer FR,Tire Temp Outer RL,Tire Temp Outer RR,Toe In FL,Toe In FR,Toe In RL,Toe In RR,Turbo Boost,Wheel Angular Speed FL,Wheel Angular Speed FR,Wheel Angular Speed RL,Wheel Angular Speed RR,Wind Direction,Wind Speed
0,0.0,1.0,0.0,1.0,1.0,0.0,0.0,1.0,0.0,100.0,1.0,1.1856,26.0,0.0,0.0,0.0,59.99999,0.0,26.0,26.0,26.0,26.0,-0.051875000000000004,0.3165,0.1422,293.884,-2.7179,-2.4836666666666667,-1.5231,-1.5345,-275.67,215.95499999999998,190.987625,0.0,0.0,0.0,0.0,0.0016,-5.498166666666667,-5.498166666666667,-0.5562,1.3913333333333333,-0.015333333333333421,-1.1680000000000001,65.493,-0.0385,-0.2152,0.7060000000000013,100.0,1.0,1.0,202.22333333333333,0.0,0.0,0.0,0.0,0.0,0.0,0.0,8571.6,0.0,55.0,5.0,235.74333333333334,0.0,0.0,0.0,0.0,0.0,0.0,0.0,0.0,0.0030000000000001137,0.0030000000000001137,0.0,0.0,0.0,55.0,616.79921,10000.0,85.0,85.0,85.0,85.0,395.0,0.0,0.0,0.0,1.0,20.0,52.109,52.109,49.515,49.515,34.0,-29.1175,23.78,-29.626666666666665,24.2375,0.0,1783.742,0.7050000000000018,100.0,27.085,26.85,40.333,40.11,0.0,1.0,100.0,0.0,0.0,0.0,0.0,3254.5714285714284,3679.8,4076.375,3965.2,305.024,302.96633333333335,314.9415,314.9125,21.7813,20.5112,21.7263,21.2745,314.99999,314.99999,324.99998,324.99998,99.5592,99.50711666666666,99.56351428571429,99.54374285714286,-0.008249999999999869,-0.1256666666666666,-0.15433333333333332,0.0628333333333333,-0.05333333333332746,-0.05666666666667197,1.5715,1.604,37.132999999999996,29.195,36.789,33.9655,56.376000000000005,34.4365,58.5175,51.153999999999996,54.288,33.6025,57.171,49.5345,53.455,33.157,57.1455,48.96633333333333,-0.025499999999999856,-0.12449999999999983,0.09866000000000001,0.11289,0.0,205.24,205.155,202.22333333333333,202.22333333333333,0.0,0.0
1,0.0,1.0,0.0,1.0,1.0,0.0,0.0,1.0,0.0,100.0,1.0,1.1856,26.0,0.0,0.0,0.0,59.999996,0.0,26.0,26.0,26.0,26.0,-0.136625,0.3136000000000001,0.0285,293.015,-2.6481,-2.714444444444444,-1.5195,-1.3719000000000001,-272.33,215.95749999999998,190.9675,0.0,0.0,0.0,0.0,0.0035333333333333336,-5.498166666666667,-5.498166666666667,-0.48560000000000003,-0.717,-0.057111111111111335,-0.13000000000000012,65.648,-0.052000000000000005,-0.18607500000000002,1.216000000000001,100.0,1.0,1.0,202.25666666666666,0.0,0.0,0.0,0.0,0.0,0.0,0.0,8572.9,0.0,55.0,5.0,236.30333333333334,1.0,0.0,0.0,0.0,0.0,0.0,0.0,0.0,0.053999999999998494,0.053999999999998494,0.0,0.0,1.0,55.0,616.79921,10000.0,85.000001,85.000001,85.000001,85.000001,395.0,0.0,0.0,0.0,1.0,166.665,54.138,54.138,48.126,48.126,34.0,-25.08,16.53,-36.47,27.7825,0.0,1783.689,0.6849999999999987,100.0,27.465,26.865000000000002,42.421,41.881,0.0,1.0,100.0,0.0,0.0,0.0,0.0,2948.0,2487.8,4526.5,4947.6,305.7475,306.834,313.67375,312.408,21.7912,20.5163,21.737099999999998,21.2836,314.999998,314.999998,324.999988,324.999988,99.5592,99.50715,99.56367142857142,99.5439,0.006000000000000227,-0.1303333333333333,-0.17966666666666664,0.03299999999999992,-0.036666666666668846,-0.03333333333333144,1.3345,1.4013333333333333,37.195,29.226666666666667,36.857,34.0225,56.36,34.477000000000004,58.5655,51.2225,54.272,33.6395,57.216,49.6,53.438,33.193,57.188,49.03066666666666,-0.021499999999999853,-0.1259999999999999,0.11079000000000001,0.10429000000000001,0.0,205.70499999999998,205.595,202.25666666666666,202.25666666666666,0.0,0.0
2,0.0,1.0,0.0,1.0,1.0,0.0,0.0,1.0,0.0,100.0,1.0,1.1856,26.0,0.0,0.0,0.0,59.999996,0.0,26.0,26.0,26.0,26.0,-0.13837500000000003,0.3014000000000001,-0.09403333333333334,294.128,-2.6079,-2.7734444444444444,-1.505,-1.6254,-268.78,215.95749999999998,190.947625,0.0,0.0,0.0,0.0,0.0056,-5.498166666666667,-5.498166666666667,-0.5594,0.3246666666666667,-0.037555555555555564,2.585,65.797,-0.0641,-0.259425,1.4000000000000004,100.0,1.0,1.0,203.40333333333334,0.0,0.0,0.0,0.0,0.0,0.0,0.0,8621.5,0.0,55.0,5.0,236.84,0.0,0.0,0.0,0.0,0.0,0.0,0.0,0.0,0.10800000000000054,0.10800000000000054,0.0,0.0,0.0,55.0,616.79921,10000.0,85.000001,85.000001,85.000001,85.000001,395.0,0.0,0.0,0.0,1.0,111.11,52.567,52.567,50.766,50.766,34.0,-29.4175,20.68,-27.689999999999998,20.415,0.0,1783.636,0.7850000000000001,100.0,28.184,26.725,42.073,40.967,0.0,1.0,100.0,0.0,0.0,0.0,0.0,3279.5714285714284,3048.6,3640.625,3608.7,304.6855,305.22133333333335,315.9105,316.001,21.8019,20.5215,21.748,21.2927,314.999998,314.999998,324.999988,324.999988,99.55921428571429,99.50716666666666,99.56381428571429,99.54404285714286,-0.023749999999999938,-0.1456666666666666,-0.2101666666666666,0.025333333333333208,-0.046666666666666856,-0.06666666666666998,1.6775,1.7229999999999999,37.262,29.259666666666668,36.925,34.079499999999996,56.346000000000004,34.519,58.6065,51.2815,54.259,33.6785,57.2545,49.657,53.424,33.230000000000004,57.2235,49.086666666666666,-0.014499999999999957,-0.13649999999999984,0.11263500000000001,0.10902500000000001,0.0,206.16500000000002,206.05,203.40333333333334,203.40333333333334,0.0,0.0
3,0.0,1.0,0.0,1.0,1.0,0.0,0.0,1.0,0.0,100.0,1.0,1.1856,26.0,0.0,0.0,0.0,59.999996,0.0,26.0,26.0,26.0,26.0,-0.13287499999999997,0.2875000000000001,-0.0356,293.64,-2.6383,-2.7122222222222225,-1.4951,-1.5790000000000002,-265.82,215.95499999999998,190.930125,0.0,0.0,0.0,0.0,0.007333333333333333,-5.498166666666667,-5.498166666666667,-0.5116,0.7193333333333334,-0.019000000000000128,-1.3610000000000002,65.93299999999999,-0.0771,-0.200025,1.232000000000001,100.0,1.0,1.0,203.42333333333335,0.0,0.0,0.0,0.0,0.0,0.0,0.0,8622.4,0.0,55.0,5.0,237.32666666666665,1.0,0.0,0.0,0.0,0.0,0.0,0.0,0.0,0.1529999999999987,0.1529999999999987,0.0,0.0,1.0,55.0,616.79921,10000.0,85.000001,85.000001,85.000001,85.000001,395.0,0.0,0.0,0.0,1.0,166.665,53.574,53.574,48.400999999999996,48.400999999999996,34.0,-26.445,18.044,-35.49666666666667,23.805,0.0,1783.59,0.8500000000000014,100.0,27.748,27.049,41.953,41.178,0.0,1.0,100.0,0.0,0.0,0.0,0.0,2967.4285714285716,2802.8,4401.75,4139.9,305.8815,305.7153333333333,314.12375,314.55025,21.8106,20.5261,21.7571,21.3005,314.999998,314.999998,324.999988,324.999988,99.55921428571429,99.50718333333333,99.56394285714286,99.54415714285715,-0.03299999999999992,-0.15766666666666662,-0.20783333333333331,0.013000000000000123,-0.036666666666668846,-0.01999999999999602,1.4845000000000002,1.5113333333333334,37.316,29.288333333333334,36.982,34.1285,56.331,34.5575,58.643,51.339,54.245000000000005,33.713499999999996,57.2885,49.7125,53.409,33.2635,57.254999999999995,49.14066666666667,-0.016999999999999904,-0.13549999999999995,0.10712,0.10627500000000001,0.0,206.60500000000002,206.5,203.42333333333335,203.42333333333335,0.0,0.0
4,0.0,1.0,0.0,1.0,1.0,0.0,0.0,1.0,0.0,100.0,1.0,1.1856,26.0,0.0,0.0,0.0,59.999996,0.0,26.0,26.0,26.0,26.0,-0.13787499999999997,0.28770000000000007,-0.005533333333333334,293.73199999999997,-2.6633,-2.7862222222222224,-1.4354,-1.5931000000000002,-262.25,215.9475,190.909375,0.0,0.0,0.0,0.0,0.0094,-5.498166666666667,-5.498166666666667,-0.5393,-0.7713333333333334,-0.07844444444444454,-1.363,66.089,-0.0862,-0.235025,1.517999999999999,100.0,1.0,1.0,203.98666666666668,0.0,0.0,0.0,0.0,0.0,0.0,0.0,8646.3,0.0,55.0,5.0,237.89,0.0,0.0,0.0,0.0,0.0,0.0,0.0,0.0,0.20700000000000074,0.20700000000000074,0.0,0.0,0.0,55.0,616.79921,10000.0,85.000001,85.000001,85.000001,85.000001,395.0,0.0,0.0,0.0,1.0,166.665,53.284,53.284,48.859,48.859,34.0,-30.405,18.554000000000002,-32.833333333333336,20.7925,0.0,1783.536,0.8949999999999996,100.0,27.544,26.689,42.629,41.334,0.0,1.0,100.0,0.0,0.0,0.0,0.0,3287.0,2840.5,4195.875,3755.6,304.9885,305.64666666666665,314.616,315.44075,21.820999999999998,20.5314,21.7684,21.3099,314.999998,314.999998,324.999988,324.999988,99.55922857142858,99.5072,99.5641,99.54431428571428,-0.04349999999999987,-0.16633333333333333,-0.21466666666666656,0.006333333333333302,-0.041666666666671404,-0.021666666666668277,1.531,1.6013333333333333,37.381,29.321333333333335,37.052,34.187,56.313,34.601,58.69,51.403999999999996,54.227999999999994,33.754,57.332499999999996,49.7745,53.391999999999996,33.3025,57.296,49.20133333333334,-0.00649999999999995,-0.14550000000000018,0.102665,0.10179500000000001,0.0,207.025,206.91500000000002,203.98666666666668,203.98666666666668,0.0,0.0
5,0.0,1.0,0.0,1.0,1.0,0.0,0.0,1.0,0.0,100.0,1.0,1.1856,26.0,0.0,0.0,0.0,59.999996,0.0,26.0,26.0,26.0,26.0,-0.17299999999999993,0.29080000000000017,-0.026533333333333332,293.808,-2.6752,-2.7554444444444446,-1.5096,-1.6225,-258.88,215.9375,190.889125,0.0,0.0,0.0,0.0,0.011366666666666667,-5.498166666666667,-5.498166666666667,-0.5404,0.434,-0.07811111111111124,0.769,66.235,-0.10010000000000001,-0.21955000000000002,1.4440000000000008,100.0,1.0,1.0,204.46333333333334,0.0,0.0,0.0,0.0,0.0,0.0,0.0,8666.5,0.0,55.0,5.0,238.41333333333333,1.0,0.0,0.0,0.0,0.0,0.0,0.0,0.0,0.2579999999999991,0.2579999999999991,0.0,0.0,1.0,55.0,616.79921,10000.0,85.000001,85.000001,85.000001,85.000001,395.0,0.0,0.0,0.0,1.0,166.665,53.406,53.406,49.301,49.301,34.0,-28.810000000000002,19.076,-33.72333333333333,21.7725,0.0,1783.485,0.45500000000000185,100.0,27.826999999999998,26.522,42.448,40.908,0.0,1.0,100.0,0.0,0.0,0.0,0.0,3151.857142857143,2875.8,4099.125,4006.8,305.162,305.714,314.85075,314.92725,21.8309,20.5365,21.7787,21.3186,314.999998,314.999998,324.999988,324.999988,99.55922857142858,99.50721666666666,99.56424285714286,99.54444285714285,-0.028999999999999915,-0.14933333333333332,-0.23266666666666658,-0.012333333333333307,-0.01999999999999602,-0.07499999999999574,1.54,1.62,37.443,29.35333333333333,37.117000000000004,34.241,56.3,34.6425,58.731,51.4625,54.215,33.792500000000004,57.3705,49.8305,53.378,33.339,57.3315,49.25633333333333,-0.028000000000000025,-0.11549999999999994,0.10712500000000001,0.10496000000000001,0.0,207.51,207.42000000000002,204.46333333333334,204.46333333333334,0.0,0.0
6,0.0,1.0,0.0,1.0,1.0,0.0,0.0,1.0,0.0,100.0,1.0,1.1856,26.0,0.0,0.0,0.0,59.999996,0.0,26.0,26.0,26.0,26.0,-0.140625,0.2966,0.023966666666666667,293.549,-2.6303,-2.8024444444444443,-1.5413000000000001,-1.5824,-255.89,215.925,190.87075,0.0,0.0,0.0,0.0,0.0131,-5.498166666666667,-5.498166666666667,-0.5287000000000001,0.095,-0.07811111111111124,-0.6930000000000001,66.36500000000001,-0.1022,-0.20835,1.1440000000000001,100.0,1.0,1.0,204.7866666666667,0.0,0.0,0.0,0.0,0.0,0.0,0.0,8680.1,0.0,55.0,5.0,238.88333333333333,0.0,0.0,0.0,0.0,0.0,0.0,0.0,0.0,0.3030000000000008,0.3030000000000008,0.0,0.0,0.0,55.0,616.79921,10000.0,85.000001,85.000001,85.000001,85.000001,395.0,0.0,0.0,0.0,1.0,166.665,53.421,53.421,48.676,48.676,34.0,-29.0625,18.902,-35.92,22.17,0.0,1783.439,0.35999999999999943,100.0,27.613,26.654,42.627,41.261,0.0,1.0,100.0,0.0,0.0,0.0,0.0,3239.4285714285716,2797.9,4268.125,4036.9,305.0935,305.75166666666667,314.46325,314.7835,21.8397,20.541,21.788,21.3264,314.999998,314.999998,324.999988,324.999988,99.55922857142858,99.50723333333333,99.56437142857143,99.54457142857143,-0.029249999999999998,-0.15366666666666662,-0.23216666666666663,-0.003666666666666596,-0.05833333333333002,-0.041666666666671404,1.5150000000000001,1.5516666666666667,37.498000000000005,29.381333333333334,37.175,34.29,56.287,34.679,58.769,51.518,54.203,33.8255,57.4065,49.8835,53.364999999999995,33.371,57.3645,49.30833333333334,-0.04299999999999993,-0.10050000000000026,0.10912500000000001,0.10886000000000001,0.0,207.935,207.815,204.7866666666667,204.7866666666667,0.0,0.0
7,0.0,1.0,0.0,1.0,1.0,0.0,0.0,1.0,0.0,100.0,1.0,1.1856,26.0,0.0,0.0,0.0,59.999996,0.0,26.0,26.0,26.0,26.0,-0.10412500000000002,0.29500000000000015,0.006866666666666668,293.51800000000003,-2.6004,-2.7955555555555556,-1.4988000000000001,-1.6263,-252.3,215.9075,190.849125,0.0,0.0,0.0,0.0,0.0152,-5.498166666666667,-5.498166666666667,-0.5358,0.06466666666666668,-0.06655555555555548,-0.22999999999999998,66.518,-0.09390000000000001,-0.22437500000000002,0.9100000000000001,100.0,1.0,1.0,205.29333333333335,0.0,0.0,0.0,0.0,0.0,0.0,0.0,8701.6,0.0,55.0,5.0,239.44,1.0,0.0,0.0,0.0,0.0,0.0,0.0,0.0,0.3569999999999993,0.3569999999999993,0.0,0.0,1.0,55.0,616.79921,10000.0,85.000001,85.000001,85.000001,85.000001,395.0,0.0,0.0,0.0,1.0,111.11,53.116,53.116,49.042,49.042,34.0,-27.9775,19.884,-32.39,22.5225,0.0,1783.387,0.10500000000000043,100.0,27.814,26.773,42.698,41.468,0.0,1.0,100.0,0.0,0.0,0.0,0.0,3242.5714285714284,2851.5,4064.375,3944.3,304.994,305.55966666666666,314.912,314.973,21.8502,20.5464,21.799,21.3359,314.999998,314.999998,324.999988,324.999988,99.55922857142858,99.50725,99.56452857142857,99.54472857142858,-0.00649999999999995,-0.139,-0.21316666666666662,0.004166666666666652,-0.05333333333332746,-0.05666666666667197,1.532,1.5710000000000002,37.564,29.415333333333333,37.244,34.349000000000004,56.272,34.722,58.814,51.5835,54.188,33.8655,57.448,49.9465,53.35,33.409,57.4035,49.36966666666667,-0.06549999999999989,-0.08749999999999991,0.109325,0.113055,0.0,208.38,208.3,205.29333333333335,205.29333333333335,0.0,0.0
8,0.0,1.0,0.0,1.0,1.0,0.0,0.0,1.0,0.0,100.0,1.0,1.1856,26.0,0.0,0.0,0.0,59.999996,0.0,26.0,26.0,26.0,26.0,-0.08424999999999994,0.2948000000000002,0.019266666666666668,293.594,-2.6756,-2.7374444444444443,-1.4778,-1.6204,-248.91,215.8875,190.8285,0.0,0.0,0.0,0.0,0.017166666666666667,-5.498166666666667,-5.498166666666667,-0.5395,-0.4796666666666667,-0.05266666666666664,0.44299999999999995,66.66499999999999,-0.07740000000000001,-0.21865,0.35599999999999987,100.0,1.0,1.0,205.69333333333333,0.0,0.0,0.0,0.0,0.0,0.0,0.0,8718.6,0.0,55.0,5.0,239.96333333333334,0.0,0.0,0.0,0.0,0.0,0.0,0.0,0.0,0.40800000000000125,0.40800000000000125,0.0,0.0,0.0,55.0,616.79921,10000.0,85.000001,85.000001,85.000001,85.000001,395.0,0.0,0.0,0.0,1.0,166.665,53.528,53.528,48.538,48.538,34.0,-25.29,21.508,-30.446666666666665,25.052500000000002,0.0,1783.336,-0.04499999999999815,100.0,27.612000000000002,26.624,42.816,41.565,0.0,1.0,100.0,0.0,0.0,0.0,0.0,3021.714285714286,2998.2,4053.125,4037.5,305.671,305.3516666666667,314.87375,314.78175,21.86,20.5516,21.8095,21.3448,314.999998,314.999998,324.999988,324.999988,99.55924285714286,99.50726666666667,99.56467142857143,99.54487142857143,0.020999999999999908,-0.10899999999999999,-0.1798333333333334,0.042166666666666686,-0.03499999999999659,-0.054999999999999716,1.542,1.5553333333333335,37.625,29.447333333333333,37.309,34.4045,56.254000000000005,34.762,58.856,51.6455,54.171,33.902,57.4875,50.0055,53.332,33.444,57.44,49.42766666666667,-0.08349999999999991,-0.06599999999999984,0.10225000000000001,0.10496000000000001,0.0,208.79500000000002,208.755,205.69333333333333,205.69333333333333,0.0,0.0
9,0.0,1.0,0.0,1.0,1.0,0.0,0.0,1.0,0.0,100.0,1.0,1.1856,26.0,0.0,0.0,0.0,59.999996,0.0,26.0,26.0,26.0,26.0,-0.05425000000000002,0.28900000000000015,-0.013933333333333336,293.243,-2.6047,-2.7364444444444445,-1.5345,-1.5707,-245.91,215.8675,190.809875,0.0,0.0,0.0,0.0,0.0189,-5.498166666666667,-5.498166666666667,-0.54,0.48633333333333334,-0.056888888888888545,-0.32299999999999995,66.791,-0.061700000000000005,-0.215925,0.32200000000000095,100.0,1.0,1.0,206.14,0.0,0.0,0.0,0.0,0.0,0.0,0.0,8737.5,0.0,55.0,5.0,240.41666666666669,1.0,0.0,0.0,0.0,0.0,0.0,0.0,0.0,0.4529999999999994,0.4529999999999994,0.0,0.0,1.0,55.0,616.79921,10000.0,85.000001,85.000001,85.000001,85.000001,395.0,0.0,0.0,0.0,1.0,111.11,52.689,52.689,49.072,49.072,34.0,-27.1725,21.874000000000002,-31.176666666666666,24.705,0.0,1783.291,-0.2699999999999996,100.0,27.908,27.069,42.539,41.622,0.0,1.0,100.0,0.0,0.0,0.0,0.0,3327.285714285714,2945.2,4064.125,4052.6000000000004,304.7785,305.31233333333336,314.956,314.7725,21.8687,20.5562,21.8186,21.3526,314.999998,314.999998,324.999988,324.999988,99.55924285714286,99.50726666666667,99.56478571428572,99.54498571428572,0.03025000000000011,-0.09433333333333338,-0.18099999999999994,0.04733333333333323,-0.060000000000002274,-0.03999999999999915,1.546,1.5623333333333334,37.68,29.476333333333336,37.366,34.4535,56.242000000000004,34.7975,58.891,51.698499999999996,54.159,33.935,57.519999999999996,50.0565,53.32,33.4755,57.47,49.477333333333334,-0.09099999999999997,-0.052999999999999936,0.103455,0.10621000000000001,0.0,209.21,209.175,206.14,206.14,0.0,0.0
10,0.0,1.0,0.0,1.0,1.0,0.0,0.0,1.0,0.0,100.0,1.0,1.1856,26.0,0.0,0.0,0.0,59.999996,0.0,26.0,26.0,26.0,26.0,-0.04874999999999996,0.29500000000000015,0.03226666666666667,293.182,-2.6681,-2.7094444444444443,-1.5047000000000001,-1.5499,-242.5,215.8425,190.789125,0.0,0.0,0.0,0.0,0.020900000000000002,-5.498166666666667,-5.498166666666667,-0.5249,-0.4486666666666667,-0.021222222222222253,1.6219999999999999,66.937,-0.0419,-0.211425,-0.12199999999999989,100.0,1.0,1.0,206.42666666666668,0.0,0.0,0.0,0.0,0.0,0.0,0.0,8749.7,0.0,55.0,5.0,240.94333333333333,0.0,0.0,0.0,0.0,0.0,0.0,1.0,0.0,0.5040000000000013,0.5040000000000013,0.0,0.0,0.0,55.0,616.79921,10000.0,85.000001,85.000001,85.000001,85.000001,395.0,0.0,0.0,0.0,1.0,166.665,53.452,53.452,48.08,48.08,34.0,-22.955,22.184,-30.826666666666664,27.4375,0.0,1783.24,-0.36499999999999844,100.0,27.858,26.891,42.896,42.095,0.0,1.0,100.0,0.0,0.0,0.0,0.0,2936.0,2954.9,4196.75,4275.9,305.838,305.53266666666667,314.5225,314.24775,21.8785,20.5614,21.8292,21.3616,314.999998,314.999998,324.999988,324.999988,99.55925714285715,99.50728333333333,99.56494285714285,99.54512857142858,0.06050000000000022,-0.07599999999999996,-0.14983333333333337,0.06816666666666671,-0.041666666666671404,-0.04999999999999716,1.49,1.4963333333333333,37.741,29.509,37.432,34.5105,56.227000000000004,34.836,58.934,51.763,54.144999999999996,33.97,57.56,50.1185,53.305,33.509,57.507,49.538,-0.10850000000000004,-0.04899999999999993,0.10704500000000002,0.10271500000000001,0.0,209.64,209.63,206.42666666666668,206.42666666666668,0.0,0.0
11,0.0,1.0,0.0,1.0,1.0,0.0,0.0,1.0,0.0,100.0,1.0,1.1856,26.0,0.0,0.0,0.0,59.999996,0.0,26.0,26.0,26.0,26.0,0.0006250000000000977,0.2735000000000001,-0.09863333333333334,293.64,-2.6828,-2.693888888888889,-1.5615999999999999,-1.5202,-239.07999999999998,215.8175,190.768375,0.0,0.0,0.0,0.0,0.022600000000000002,-5.498166666666667,-5.498166666666667,-0.5587,-0.19,0.0033333333333331883,-0.2590000000000001,67.076,-0.0211,-0.23372500000000002,-0.21799999999999908,100.0,1.0,1.0,207.09,0.0,0.0,0.0,0.0,0.0,0.0,0.0,8777.7,0.0,55.0,5.0,241.44666666666666,1.0,0.0,0.0,0.0,0.0,0.0,1.0,0.0,0.5549999999999997,0.5549999999999997,0.0,0.0,1.0,55.0,616.79921,10000.0,85.000001,85.000001,85.000001,85.000001,395.0,0.0,0.0,0.0,1.0,166.665,53.101,53.101,49.271,49.271,34.0,-24.085,23.415999999999997,-26.456666666666663,25.064999999999998,0.0,1783.189,-0.46999999999999886,100.0,27.524,27.219,42.357,42.11,0.0,1.0,100.0,0.0,0.0,0.0,0.0,3103.0,3010.3,3824.375,3916.2,305.4945,305.1426666666667,315.5475,315.13525,21.8882,20.5668,21.8395,21.3706,314.999998,314.999998,324.999988,324.999988,99.55925714285715,99.5073,99.56508571428571,99.54527142857143,0.06875000000000009,-0.06066666666666665,-0.12583333333333335,0.09283333333333332,-0.041666666666671404,-0.03833333333332689,1.623,1.6066666666666667,37.801,29.542333333333332,37.497,34.566,56.211,34.874,58.971000000000004,51.824,54.131,34.0055,57.595,50.177,53.289,33.543,57.539,49.595333333333336,-0.10799999999999987,-0.04300000000000015,0.10663,0.10860500000000001,0.0,210.04500000000002,210.04500000000002,207.09,207.09,0.0,0.0
12,0.0,1.0,0.0,1.0,1.0,0.0,0.0,1.0,0.0,100.0,1.0,1.1856,26.0,0.0,0.0,0.0,59.999996,0.0,26.0,26.0,26.0,26.0,0.0030000000000001137,0.29890000000000017,0.015933333333333334,293.091,-2.7027,-2.698888888888889,-1.5337,-1.5463,-235.65,215.79250000000002,190.7465,0.0,0.0,0.0,0.0,0.025466666666666665,-5.498166666666667,-5.498166666666667,-0.5472,0.36633333333333334,-0.0005555555555556424,0.766,67.221,-0.0016,-0.208825,-0.347999999999999,100.0,1.0,1.0,207.37333333333333,0.0,0.0,0.0,0.0,0.0,0.0,0.0,8789.8,0.0,55.0,5.0,241.96666666666667,0.0,0.0,0.0,0.0,0.0,0.0,1.0,0.0,0.6059999999999981,0.6059999999999981,0.0,0.0,0.0,55.0,616.79921,10000.0,85.000001,85.000001,85.000001,85.000001,395.0,0.0,0.0,0.0,1.0,166.665,52.841,52.841,48.248,48.248,34.0,-23.23,25.378,-27.873333333333335,29.4925,0.0,1783.138,-0.3949999999999996,100.0,27.626,27.321,42.33,42.059,0.0,1.0,100.0,0.0,0.0,0.0,0.0,3060.4285714285716,3166.2,4159.875,4198.9,305.4545,304.81266666666664,314.68725,314.4885,21.8978,20.5722,21.849899999999998,21.3795,314.999998,314.999998,324.999988,324.999988,99.55927142857144,99.5073,99.56522857142858,99.54541428571429,0.0887500000000001,-0.044333333333333336,-0.09733333333333338,0.1226666666666667,-0.045000000000001705,-0.06333333333333258,1.541,1.5223333333333335,37.861000000000004,29.576333333333334,37.562,34.622,56.197,34.913,59.010999999999996,51.8855,54.117000000000004,34.0415,57.632,50.236000000000004,53.275,33.5775,57.573,49.653333333333336,-0.10349999999999993,-0.05049999999999999,0.10494500000000001,0.11056,0.0,210.51999999999998,210.54500000000002,207.37333333333333,207.37333333333333,0.0,0.0
13,0.0,1.0,0.0,1.0,1.0,0.0,0.0,1.0,0.0,100.0,1.0,1.1856,26.0,0.0,0.0,0.0,59.999996,0.0,26.0,26.0,26.0,26.0,0.03612499999999996,0.29180000000000006,0.025033333333333335,292.74,-2.6907,-2.6924444444444444,-1.5749,-1.544,-232.22,215.76749999999998,190.72475,0.0,0.0,0.0,0.0,0.02686666666666667,-5.498166666666667,-5.498166666666667,-0.5393,-0.155,0.003666666666666707,-0.3740000000000001,67.364,0.0064,-0.21677500000000002,-0.2939999999999996,100.0,1.0,1.0,207.74,0.0,0.0,0.0,0.0,0.0,0.0,0.0,8805.3,0.0,55.0,5.0,242.48000000000002,1.0,0.0,0.0,0.0,0.0,0.0,1.0,0.0,0.657,0.657,0.0,0.0,1.0,55.0,616.79921,10000.0,85.000001,85.000001,85.000001,85.000001,395.0,0.0,0.0,0.0,1.0,166.665,52.689,52.689,48.065,48.065,34.0,-23.555,24.836,-29.146666666666665,29.89,0.0,1783.086,-0.509999999999998,100.0,27.683,27.671,42.568,42.719,0.0,1.0,100.0,0.0,0.0,0.0,0.0,3155.142857142857,3032.6,4189.875,4274.1,305.3395,305.03366666666665,314.6345,314.19125,21.9075,20.5776,21.8604,21.3886,314.999998,314.999998,324.999988,324.999988,99.55928571428572,99.5073,99.56537142857142,99.54555714285715,0.09350000000000014,-0.03200000000000003,-0.10333333333333339,0.1136666666666668,-0.051666666666669414,-0.04999999999999716,1.505,1.499,37.922,29.610333333333333,37.626999999999995,34.679,56.185,34.951,59.0515,51.9505,54.105000000000004,34.076499999999996,57.67,50.298500000000004,53.262,33.611000000000004,57.608000000000004,49.714666666666666,-0.11450000000000005,-0.03500000000000014,0.10305,0.102745,0.0,210.945,210.95,207.74,207.74,0.0,0.0
14,0.0,1.0,0.0,1.0,1.0,0.0,0.0,1.0,0.0,100.0,1.0,1.1856,26.0,0.0,0.0,0.0,59.999996,0.0,26.0,26.0,26.0,26.0,0.024250000000000105,0.28269999999999995,-0.011666666666666667,292.999,-2.7061,-2.7023333333333333,-1.5741,-1.5365,-228.78,215.7425,190.7035,0.0,0.0,0.0,0.0,0.02886666666666667,-5.498166666666667,-5.498166666666667,-0.5508000000000001,-0.06733333333333333,0.026000000000000023,0.896,67.503,0.0158,-0.22875,-0.49600000000000044,100.0,1.0,1.0,208.2733333333333,0.0,0.0,0.0,0.0,0.0,0.0,0.0,8828.0,0.0,55.0,5.0,242.98333333333335,0.0,0.0,0.0,0.0,0.0,0.0,1.0,0.0,0.7079999999999984,0.7079999999999984,0.0,0.0,0.0,55.0,616.79921,10000.0,85.000001,85.000001,85.000001,85.000001,395.0,0.0,0.0,0.0,1.0,166.665,52.75,52.75,48.355000000000004,48.355000000000004,34.0,-21.6175,26.326,-26.306666666666665,29.6825,0.0,1783.035,-0.5449999999999982,100.0,27.759,27.659,42.565,42.775999999999996,0.0,1.0,100.0,0.0,0.0,0.0,0.0,2969.714285714286,3149.8,3956.5,4152.4,305.7275,304.7966666666667,315.1735,314.56275,21.9171,20.5831,21.8708,21.3977,314.999998,314.999998,324.999988,324.999988,99.5593,99.50731666666667,99.56551428571429,99.54571428571428,0.10950000000000015,-0.02100000000000002,-0.08816666666666662,0.1363333333333332,-0.026666666666670835,-0.051666666666669414,1.5455,1.5366666666666666,37.982,29.644333333333336,37.692,34.7355,56.172,34.9885,59.09,52.0135,54.093,34.1115,57.7055,50.359,53.248999999999995,33.6445,57.6405,49.774,-0.121,-0.03049999999999997,0.10586000000000001,0.10640500000000001,0.0,211.36,211.4,208.2733333333333,208.2733333333333,0.0,0.0
15,0.0,1.0,0.0,1.0,1.0,0.0,0.0,1.0,0.0,100.0,1.0,1.1856,26.0,0.0,0.0,0.0,59.999996,0.0,26.0,26.0,26.0,26.0,0.05249999999999999,0.2884,-0.032233333333333336,292.892,-2.7145,-2.665111111111111,-1.5936,-1.5413999999999999,-225.74,215.72,190.68425,0.0,0.0,0.0,0.0,0.030633333333333332,-5.498166666666667,-5.498166666666667,-0.5424,0.2576666666666667,0.04444444444444429,-0.518,67.627,0.0261,-0.212675,-0.516,100.0,1.0,1.0,208.61666666666667,0.0,0.0,0.0,0.0,0.0,0.0,0.0,8842.5,0.0,55.0,5.0,243.43,1.0,0.0,0.0,0.0,0.0,0.0,1.0,0.0,0.7530000000000001,0.7530000000000001,0.0,0.0,1.0,55.0,616.79921,10000.0,85.000001,85.000001,85.000001,85.000001,395.0,0.0,0.0,0.0,1.0,166.665,52.811,52.811,48.218,48.218,34.0,-21.68,25.154,-26.866666666666667,30.767500000000002,0.0,1782.989,-0.46000000000000085,100.0,27.648,27.858,42.345,42.965,0.0,1.0,100.0,0.0,0.0,0.0,0.0,2986.4285714285716,3052.6,4039.375,4246.8,305.8425,304.89566666666667,315.02925,314.23625,21.9256,20.5879,21.8799,21.4057,314.999998,314.999998,324.999988,324.999988,99.55931428571428,99.50731666666667,99.56564285714286,99.54582857142857,0.10850000000000026,-0.025000000000000022,-0.08133333333333337,0.1363333333333332,-0.036666666666668846,-0.05333333333332746,1.535,1.5230000000000001,38.035,29.674666666666667,37.748999999999995,34.786,56.161,35.022,59.1235,52.0695,54.083,34.141999999999996,57.7365,50.413,53.238,33.674,57.669,49.82666666666667,-0.11850000000000005,-0.03849999999999998,0.10908500000000002,0.09922,0.0,211.76,211.79500000000002,208.61666666666667,208.61666666666667,0.0,0.0
16,0.0,1.0,0.0,1.0,1.0,0.0,0.0,1.0,0.0,100.0,1.0,1.1856,26.0,0.0,0.0,0.0,59.999996,0.0,26.0,26.0,26.0,26.0,0.061875000000000124,0.26150000000000007,-0.020833333333333336,292.816,-2.7692,-2.6189999999999998,-1.5653000000000001,-1.5455999999999999,-222.09,215.695,190.661,0.0,0.0,0.0,0.0,0.03276666666666667,-5.498166666666667,-5.498166666666667,-0.5599000000000001,-0.5553333333333333,0.02877777777777779,-1.0859999999999999,67.776,0.0335,-0.226225,-0.3899999999999997,100.0,1.0,1.0,209.07333333333332,0.0,0.0,0.0,0.0,0.0,0.0,0.0,8861.9,0.0,55.0,5.0,243.96333333333334,0.0,0.0,0.0,0.0,0.0,0.0,1.0,0.0,0.8069999999999986,0.8069999999999986,0.0,0.0,0.0,55.0,616.79921,10000.0,85.000001,85.000001,85.000001,85.000001,395.0,0.0,0.0,0.0,1.0,111.11,52.505,52.505,48.035,48.035,34.0,-23.9675,25.856,-26.22,29.825000000000003,0.0,1782.937,-0.33999999999999986,100.0,27.401,27.898,42.579,43.057,0.0,1.0,100.0,0.0,0.0,0.0,0.0,3193.142857142857,3165.3,4036.75,4040.0,305.39,304.64233333333334,315.02075,314.74625,21.9355,20.5938,21.8909,21.415399999999998,314.999998,314.999998,324.999988,324.999988,99.55931428571428,99.50731666666667,99.5658,99.54598571428572,0.10424999999999995,-0.021333333333333315,-0.0771666666666666,0.15333333333333332,-0.03999999999999915,-0.051666666666669414,1.551,1.534,38.097,29.711333333333336,37.818,34.846000000000004,56.146,35.062,59.166,52.135999999999996,54.068,34.1795,57.775999999999996,50.4765,53.222,33.71,57.705,49.88933333333333,-0.10250000000000004,-0.04899999999999993,0.10722500000000001,0.110325,0.0,212.2,212.22500000000002,209.07333333333332,209.07333333333332,0.0,0.0
17,0.0,1.0,0.0,1.0,1.0,0.0,0.0,1.0,0.0,100.0,1.0,1.1856,26.0,0.0,0.0,0.0,59.999996,0.0,26.0,26.0,26.0,26.0,0.02499999999999991,0.2873000000000001,0.016666666666666666,292.419,-2.7272,-2.604111111111111,-1.6052,-1.5109,-218.63,215.675,190.6385,0.0,0.0,0.0,0.0,0.03476666666666667,-5.498166666666667,-5.498166666666667,-0.5498000000000001,0.321,0.009666666666666712,0.592,67.91499999999999,0.034300000000000004,-0.21085,-0.37600000000000033,100.0,1.0,1.0,209.43333333333334,0.0,0.0,0.0,0.0,0.0,0.0,0.0,8877.2,0.0,55.0,5.0,244.46666666666667,1.0,0.0,0.0,0.0,0.0,0.0,1.0,0.0,0.8580000000000005,0.8580000000000005,0.0,0.0,1.0,55.0,616.79921,10000.0,85.000001,85.000001,85.000001,85.000001,395.0,0.0,0.0,0.0,1.0,166.665,52.338,52.338,47.623,47.623,34.0,-22.9625,26.102,-28.65,31.73,0.0,1782.886,-0.3000000000000007,100.0,27.969,27.934,42.634,42.972,0.0,1.0,100.0,0.0,0.0,0.0,0.0,3102.4285714285716,3187.2,4294.875,4303.8,305.381,304.7556666666667,314.43175,314.249,21.9451,20.5994,21.9013,21.4244,314.999998,314.999998,324.999988,324.999988,99.55932857142857,99.50731666666667,99.56592857142857,99.54612857142857,0.1080000000000001,-0.01200000000000001,-0.07150000000000001,0.15516666666666667,-0.041666666666671404,-0.046666666666666856,1.5150000000000001,1.5046666666666666,38.157,29.746000000000002,37.882999999999996,34.9025,56.135,35.1005,59.204,52.198,54.057,34.215,57.8115,50.536500000000004,53.21,33.7445,57.738,49.94833333333334,-0.09899999999999998,-0.05149999999999988,0.11006500000000001,0.10680500000000001,0.0,212.66500000000002,212.66,209.43333333333334,209.43333333333334,0.0,0.0
18,0.0,1.0,0.0,1.0,1.0,0.0,0.0,1.0,0.0,100.0,1.0,1.1856,26.0,0.0,0.0,0.0,59.999996,0.0,26.0,26.0,26.0,26.0,0.015249999999999986,0.2863,0.020433333333333335,292.313,-2.6665,-2.5872222222222225,-1.6105,-1.4654,-215.36,215.655,190.617375,0.0,0.0,0.0,0.0,0.03666666666666667,-5.498166666666667,-5.498166666666667,-0.5621,-0.41733333333333333,0.022333333333333316,0.854,68.04599999999999,0.028300000000000002,-0.22642500000000002,-0.26200000000000045,100.0,1.0,1.0,209.83666666666667,0.0,0.0,0.0,0.0,0.0,0.0,0.0,8894.2,0.0,55.0,5.0,244.93666666666667,0.0,0.0,0.0,0.0,0.0,0.0,1.0,0.0,0.9059999999999988,0.9059999999999988,0.0,0.0,0.0,55.0,616.79921,10000.0,85.000001,85.000001,85.000001,85.000001,395.0,0.0,0.0,0.0,1.0,166.665,52.109,52.109,47.562,47.562,34.0,-22.115,27.305999999999997,-27.490000000000002,30.22,0.0,1782.837,-0.370000000000001,100.0,27.871,27.92,42.882,43.231,0.0,1.0,100.0,0.0,0.0,0.0,0.0,3093.142857142857,3357.5,4134.375,4264.4,305.3445,304.2746666666667,314.77525,314.31775,21.9541,20.6045,21.9111,21.433,314.999998,314.999998,324.999988,324.999988,99.55934285714285,99.50731666666667,99.56607142857143,99.54627142857143,0.11450000000000005,-0.016666666666666607,-0.07333333333333336,0.14600000000000013,-0.036666666666668846,-0.060000000000002274,1.5394999999999999,1.5203333333333333,38.213,29.778333333333336,37.944,34.9565,56.122,35.135999999999996,59.2415,52.257999999999996,54.045,34.2475,57.8465,50.5945,53.197,33.7755,57.769999999999996,50.004999999999995,-0.10399999999999987,-0.05149999999999988,0.10609500000000001,0.10413000000000001,0.0,213.04000000000002,213.06,209.83666666666667,209.83666666666667,0.0,0.0
19,0.0,1.0,0.0,1.0,1.0,0.0,0.0,1.0,0.0,100.0,1.0,1.1856,26.0,0.0,0.0,0.0,59.999996,0.0,26.0,26.0,26.0,26.0,0.03287499999999999,0.2863,0.0684,292.007,-2.6614,-2.6932222222222224,-1.5392000000000001,-1.4546000000000001,-212.09,215.6375,190.596125,0.0,0.0,0.0,0.0,0.03856666666666667,-5.498166666666667,-5.498166666666667,-0.5524,0.788,0.025666666666666726,0.613,68.175,0.0256,-0.21545,-0.33399999999999963,100.0,1.0,1.0,210.22333333333333,0.0,0.0,0.0,0.0,0.0,0.0,0.0,8910.6,0.0,55.0,5.0,245.4,1.0,0.0,0.0,0.0,0.0,0.0,1.0,0.0,0.9540000000000006,0.9540000000000006,0.0,0.0,1.0,55.0,616.79921,10000.0,85.000001,85.000001,85.000001,85.000001,395.0,0.0,0.0,0.0,1.0,166.665,51.819,51.819,47.577,47.577,34.0,-22.16,26.828,-27.586666666666666,31.8225,0.0,1782.788,-0.3200000000000003,100.0,28.397,28.326999999999998,42.756,43.209,0.0,1.0,100.0,0.0,0.0,0.0,0.0,3078.714285714286,3213.4,4177.5,4474.5,305.351,304.4816666666667,314.647,313.867,21.9631,20.6099,21.9208,21.4416,314.999998,314.999998,324.999988,324.999988,99.55935714285714,99.50733333333334,99.5662,99.54641428571429,0.11050000000000004,-0.025666666666666615,-0.08433333333333337,0.14500000000000002,-0.03333333333333144,-0.04333333333332945,1.5055,1.501,38.269999999999996,29.811666666666667,38.004999999999995,35.01,56.111999999999995,35.1735,59.2765,52.317499999999995,54.036,34.2825,57.879,50.6515,53.187,33.809,57.7995,50.061,-0.10099999999999998,-0.053999999999999826,0.11098000000000001,0.106145,0.0,213.47500000000002,213.48000000000002,210.22333333333333,210.22333333333333,0.0,0.0
20,0.0,1.0,0.0,1.0,1.0,0.0,0.0,1.0,0.0,100.0,1.0,1.1856,26.0,0.0,0.0,0.0,59.999996,0.0,26.0,26.0,26.0,26.0,0.04512500000000008,0.256,-0.029233333333333333,292.282,-2.7595,-2.6448888888888886,-1.5459,-1.5779,-208.61,215.6175,190.573625,0.0,0.0,0.0,0.0,0.040600000000000004,-5.498166666666667,-5.498166666666667,-0.5554,-0.9893333333333334,0.02055555555555566,-0.837,68.314,0.0227,-0.22585000000000002,-0.18399999999999928,100.0,1.0,1.0,210.61,0.0,0.0,0.0,0.0,0.0,0.0,0.0,8926.9,0.0,55.0,5.0,245.90333333333334,0.0,0.0,0.0,0.0,0.0,0.0,0.0,0.0,1.004999999999999,1.004999999999999,0.0,0.0,0.0,55.0,616.79921,10000.0,85.000001,85.000001,85.000001,85.000001,395.0,0.0,0.0,0.0,1.0,166.665,52.567,52.567,47.18,47.18,34.0,-22.822499999999998,24.478,-28.476666666666667,30.91,0.0,1782.739,-0.3000000000000007,100.0,27.849,28.186,43.298,43.748000000000005,0.0,1.0,100.0,0.0,0.0,0.0,0.0,3069.285714285714,3043.9,4174.75,4153.5,305.709,305.02233333333334,314.6555,314.3965,21.9725,20.6154,21.9314,21.4508,314.999998,314.999998,324.999988,324.999988,99.55937142857142,99.50733333333334,99.56635714285714,99.54655714285714,0.10550000000000015,-0.03300000000000003,-0.09799999999999998,0.13866666666666672,-0.036666666666668846,-0.03999999999999915,1.484,1.478,38.328,29.846,38.071,35.067499999999995,56.098,35.210499999999996,59.318,52.382,54.022,34.317,57.917500000000004,50.713499999999996,53.172,33.842,57.835,50.122,-0.10850000000000004,-0.052000000000000046,0.11291000000000001,0.10859500000000001,0.0,213.85000000000002,213.88,210.61,210.61,0.0,0.0
21,0.0,1.0,0.0,1.0,1.0,0.0,0.0,1.0,0.0,100.0,1.0,1.1856,26.0,0.0,0.0,0.0,59.999996,0.0,26.0,26.0,26.0,26.0,0.00924999999999998,0.2721,-0.06246666666666666,292.557,-2.7237,-2.652,-1.5871,-1.5346000000000002,-205.13,215.6,190.550625,0.0,0.0,0.0,0.0,0.0426,-5.498166666666667,-5.498166666666667,-0.5761000000000001,0.27466666666666667,0.009444444444444366,0.45099999999999996,68.447,0.0183,-0.2248,-0.22799999999999976,100.0,1.0,1.0,211.19333333333333,0.0,0.0,0.0,0.0,0.0,0.0,0.0,8951.7,0.0,55.0,5.0,246.38333333333333,1.0,0.0,0.0,0.0,0.0,0.0,0.0,0.0,1.056000000000001,1.056000000000001,0.0,0.0,1.0,55.0,616.79921,10000.0,85.000001,85.000001,85.000001,85.000001,395.0,0.0,0.0,0.0,1.0,166.665,52.246,52.246,48.05,48.05,34.0,-22.965,25.735999999999997,-26.93,28.905,0.0,1782.687,-0.34999999999999787,100.0,28.13,28.069,42.891,43.264,0.0,1.0,100.0,0.0,0.0,0.0,0.0,3100.0,3178.2,4033.875,4043.7,305.3955,304.7993333333333,315.055,314.872,21.982,20.6209,21.9416,21.4598,314.999998,314.999998,324.999988,324.999988,99.55938571428571,99.50733333333334,99.5665,99.5467,0.1070000000000002,-0.029000000000000026,-0.08733333333333337,0.14316666666666666,-0.03999999999999915,-0.045000000000001705,1.566,1.5706666666666667,38.387,29.881,38.135,35.1235,56.086,35.249,59.3535,52.4415,54.01,34.3525,57.9505,50.771,53.159,33.8765,57.865,50.178,-0.10299999999999998,-0.05250000000000021,0.10938,0.115985,0.0,214.29500000000002,214.315,211.19333333333333,211.19333333333333,0.0,0.0
22,0.0,1.0,0.0,1.0,1.0,0.0,0.0,1.0,0.0,100.0,1.0,1.1856,26.0,0.0,0.0,0.0,59.999996,0.0,26.0,26.0,26.0,26.0,0.034375000000000044,0.2771000000000001,-0.024766666666666666,292.191,-2.7866,-2.6143333333333336,-1.6118999999999999,-1.5205000000000002,-201.63,215.58249999999998,190.526875,0.0,0.0,0.0,0.0,0.04463333333333333,-5.498166666666667,-5.498166666666667,-0.5577,-0.012666666666666666,0.0173333333333332,-0.45799999999999996,68.586,0.0158,-0.202875,-0.22599999999999998,100.0,1.0,1.0,211.43666666666667,0.0,0.0,0.0,0.0,0.0,0.0,0.0,8962.0,0.0,55.0,5.0,246.88,0.0,0.0,0.0,0.0,0.0,0.0,0.0,0.0,1.1069999999999993,1.1069999999999993,0.0,0.0,0.0,55.0,616.79921,10000.0,85.000001,85.000001,85.000001,85.000001,395.0,0.0,0.0,0.0,1.0,166.665,52.536,52.536,47.15,47.15,34.0,-23.1725,24.54,-30.426666666666666,31.585,0.0,1782.636,-0.4400000000000013,100.0,28.003,28.207,43.069,43.512,0.0,1.0,100.0,0.0,0.0,0.0,0.0,3071.285714285714,3056.8,4302.5,4368.9,305.7225,305.05066666666664,314.4395,314.02725,21.9915,20.6265,21.9521,21.469,314.999998,314.999998,324.999988,324.999988,99.5594,99.50735,99.56664285714285,99.54685714285715,0.10325000000000006,-0.026000000000000023,-0.09850000000000003,0.1333333333333333,-0.04999999999999716,-0.054999999999999716,1.484,1.4613333333333334,38.447,29.915666666666667,38.2,35.181,56.073,35.2875,59.3935,52.5055,53.998000000000005,34.388,57.988,50.832499999999996,53.146,33.9105,57.899,50.238,-0.11050000000000004,-0.04400000000000004,0.10644500000000001,0.11304000000000002,0.0,214.72500000000002,214.745,211.43666666666667,211.43666666666667,0.0,0.0
23,0.0,1.0,0.0,1.0,1.0,0.0,0.0,1.0,0.0,100.0,1.0,1.1856,26.0,0.0,0.0,0.0,59.999996,0.0,26.0,26.0,26.0,26.0,0.03412499999999996,0.2751000000000001,-0.008466666666666667,292.099,-2.6578,-2.678,-1.6607,-1.4977,-197.92000000000002,215.565,190.502125,0.0,0.0,0.0,0.0,0.0468,-5.498166666666667,-5.498166666666667,-0.5751000000000001,-0.07633333333333334,0.013666666666666716,-0.4850000000000001,68.72800000000001,0.019100000000000002,-0.22710000000000002,-0.3279999999999994,100.0,1.0,1.0,211.95666666666668,0.0,0.0,0.0,0.0,0.0,0.0,0.0,8984.1,0.0,55.0,5.0,247.39333333333335,1.0,0.0,0.0,0.0,0.0,0.0,0.0,0.0,1.1610000000000014,1.1610000000000014,0.0,0.0,1.0,55.0,616.79921,10000.0,85.000001,85.000001,85.000001,85.000001,395.0,0.0,0.0,0.0,1.0,111.11,51.956,51.956,47.607,47.607,34.0,-23.362499999999997,25.394,-29.723333333333333,28.630000000000003,0.0,1782.583,-0.41000000000000014,100.0,28.235,28.301000000000002,43.204,43.65,0.0,1.0,100.0,0.0,0.0,0.0,0.0,3225.142857142857,3081.1,4184.5,4144.5,305.09,304.845,314.7645,314.612,22.0015,20.6325,21.9631,21.4787,314.999998,314.999998,324.999988,324.999988,99.55941428571428,99.50735,99.5668,99.547,0.10650000000000004,-0.02833333333333332,-0.09699999999999998,0.1266666666666667,-0.041666666666671404,-0.04833333333333201,1.5375,1.533,38.51,29.953,38.269999999999996,35.242,56.061,35.3285,59.4345,52.572,53.986000000000004,34.4265,58.025999999999996,50.8965,53.132999999999996,33.947,57.934,50.301,-0.11699999999999999,-0.04249999999999998,0.110185,0.10623500000000001,0.0,215.16500000000002,215.17000000000002,211.95666666666668,211.95666666666668,0.0,0.0
24,0.0,1.0,0.0,1.0,1.0,0.0,0.0,1.0,0.0,100.0,1.0,1.1856,26.0,0.0,0.0,0.0,59.999996,0.0,26.0,26.0,26.0,26.0,0.023374999999999924,0.26880000000000015,-0.04273333333333333,292.435,-2.7138999999999998,-2.6625555555555556,-1.5470000000000002,-1.5507,-194.82999999999998,215.55,190.480875,0.0,0.0,0.0,0.0,0.048600000000000004,-5.498166666666667,-5.498166666666667,-0.5843,-0.5046666666666667,0.026666666666666616,0.923,68.84700000000001,0.0247,-0.21995,-0.38399999999999945,100.0,1.0,1.0,212.28333333333333,0.0,0.0,0.0,0.0,0.0,0.0,0.0,8998.0,0.0,55.0,5.0,247.82333333333332,0.0,0.0,0.0,0.0,0.0,0.0,0.0,0.0,1.2059999999999995,1.2059999999999995,0.0,0.0,0.0,55.0,616.79921,10000.0,85.000001,85.000001,85.000001,85.000001,395.0,0.0,0.0,0.0,1.0,166.665,52.78,52.78,47.379,47.379,34.0,-21.2,24.91,-27.5,30.4375,0.0,1782.536,-0.34999999999999787,100.0,28.098,27.967,43.257,43.558,0.0,1.0,100.0,0.0,0.0,0.0,0.0,2904.0,3076.6,4143.625,4192.0,305.9835,305.11266666666666,314.69925,314.46975,22.0098,20.6373,21.9723,21.4868,314.999998,314.999998,324.999988,324.999988,99.55942857142857,99.50735,99.56692857142858,99.54712857142857,0.10725000000000007,-0.02833333333333332,-0.08516666666666661,0.1363333333333332,-0.026666666666670835,-0.05666666666667197,1.518,1.5023333333333333,38.561,29.983333333333334,38.327,35.292500000000004,56.049,35.361,59.4685,52.6265,53.974999999999994,34.4565,58.0575,50.949,53.120999999999995,33.976,57.9625,50.352333333333334,-0.10299999999999998,-0.04850000000000021,0.11053500000000001,0.10245000000000001,0.0,215.51,215.54500000000002,212.28333333333333,212.28333333333333,0.0,0.0
25,0.0,1.0,0.0,1.0,1.0,0.0,0.0,1.0,0.0,100.0,1.0,1.1856,26.0,0.0,0.0,0.0,59.999996,0.0,26.0,26.0,26.0,26.0,0.02499999999999991,0.2641,-0.019766666666666665,292.145,-2.7514,-2.6372222222222224,-1.5798,-1.5306000000000002,-191.51999999999998,215.5375,190.457,0.0,0.0,0.0,0.0,0.05053333333333333,-5.498166666666667,-5.498166666666667,-0.6068,-0.03233333333333334,0.03055555555555567,0.14900000000000002,68.97200000000001,0.024900000000000002,-0.22182500000000002,-0.347999999999999,100.0,1.0,1.0,212.74666666666667,0.0,0.0,0.0,0.0,0.0,0.0,0.0,9017.6,0.0,55.0,5.0,248.27333333333334,1.0,0.0,0.0,0.0,0.0,0.0,0.0,0.0,1.2540000000000013,1.2540000000000013,0.0,0.0,1.0,55.0,616.79921,10000.0,85.000001,85.000001,85.000001,85.000001,395.0,0.0,0.0,0.0,1.0,166.665,51.712,51.712,47.806,47.806,34.0,-24.095,27.982,-26.336666666666666,29.73,0.0,1782.49,-0.41499999999999915,100.0,28.141,28.207,43.036,43.435,0.0,1.0,100.0,0.0,0.0,0.0,0.0,3223.142857142857,3376.9,3988.25,4134.0,305.135,304.1736666666667,315.1635,314.659,22.0185,20.6426,21.982,21.4953,314.999998,314.999998,324.999988,324.999988,99.55944285714286,99.50736666666667,99.56705714285714,99.54728571428572,0.10950000000000015,-0.018333333333333313,-0.08216666666666661,0.1423333333333332,-0.045000000000001705,-0.04999999999999716,1.546,1.545,38.616,30.016333333333336,38.387,35.346000000000004,56.036,35.3975,59.5025,52.6835,53.962,34.49,58.0895,51.0035,53.108000000000004,34.0085,57.9915,50.406,-0.10699999999999998,-0.04499999999999993,0.1033,0.10294,0.0,215.905,215.91,212.74666666666667,212.74666666666667,0.0,0.0
26,0.0,1.0,0.0,1.0,1.0,0.0,0.0,1.0,0.0,100.0,1.0,1.1856,26.0,0.0,0.0,0.0,59.999996,0.0,26.0,26.0,26.0,26.0,0.04412499999999997,0.27360000000000007,0.06863333333333334,291.168,-2.6914,-2.71,-1.5644,-1.5148000000000001,-188.0,215.5225,190.43125,0.0,0.0,0.0,0.0,0.052566666666666664,-5.498166666666667,-5.498166666666667,-0.5747,0.555,0.019555555555555548,-0.671,69.108,0.025400000000000002,-0.20350000000000001,-0.33000000000000007,100.0,1.0,1.0,212.93666666666667,0.0,0.0,0.0,0.0,0.0,0.0,0.0,9025.6,0.0,55.0,5.0,248.76333333333332,0.0,0.0,0.0,0.0,0.0,0.0,0.0,0.0,1.3049999999999997,1.3049999999999997,0.0,0.0,0.0,55.0,616.79921,10000.0,85.000001,85.000001,85.000001,85.000001,395.0,0.0,0.0,0.0,1.0,166.665,51.468,51.468,46.295,46.295,34.0,-23.035,25.287999999999997,-31.023333333333333,32.947500000000005,0.0,1782.437,-0.4349999999999987,100.0,28.759,28.978,43.406,43.953,0.0,1.0,100.0,0.0,0.0,0.0,0.0,3220.857142857143,3060.1,4543.625,4513.8,305.1725,304.868,313.81625,313.6625,22.0281,20.6484,21.9925,21.5046,314.999998,314.999998,324.999988,324.999988,99.55945714285714,99.50736666666667,99.5672,99.54742857142857,0.11874999999999991,-0.03433333333333333,-0.08083333333333331,0.13316666666666666,-0.041666666666671404,-0.041666666666671404,1.4365,1.434,38.676,30.052666666666667,38.453,35.403999999999996,56.027,35.4385,59.543,52.7475,53.954,34.5275,58.126999999999995,51.0655,53.098,34.0445,58.025999999999996,50.46666666666667,-0.125,-0.046499999999999986,0.10021500000000001,0.10827500000000001,0.0,216.35500000000002,216.38,212.93666666666667,212.93666666666667,0.0,0.0
27,0.0,1.0,0.0,1.0,1.0,0.0,0.0,1.0,0.0,100.0,1.0,1.1856,26.0,0.0,0.0,0.0,59.999996,0.0,26.0,26.0,26.0,26.0,0.05862499999999993,0.2601,-0.037233333333333334,291.763,-2.7126,-2.6493333333333333,-1.6232,-1.6034000000000002,-184.68,215.51,190.40825,0.0,0.0,0.0,0.0,0.0545,-5.498166666666667,-5.498166666666667,-0.5964,-0.9426666666666667,0.024222222222222145,-0.631,69.232,0.026000000000000002,-0.2421,-0.38200000000000056,100.0,1.0,1.0,213.44333333333333,0.0,0.0,0.0,0.0,0.0,0.0,0.0,9047.1,0.0,55.0,5.0,249.21,1.0,0.0,0.0,0.0,0.0,0.0,0.0,0.0,1.352999999999998,1.352999999999998,0.0,0.0,1.0,55.0,616.79921,10000.0,85.000001,85.000001,85.000001,85.000001,395.0,0.0,0.0,0.0,1.0,166.665,51.894999999999996,51.894999999999996,46.692,46.692,34.0,-22.0575,25.676,-28.78666666666666,30.3725,0.0,1782.39,-0.4400000000000013,100.0,28.393,28.809,43.897999999999996,44.363,0.0,1.0,100.0,0.0,0.0,0.0,0.0,3060.714285714286,3132.1,4139.375,4054.3,305.6715,304.7386666666667,314.828,314.70775,22.0369,20.6538,22.0024,21.5134,314.999998,314.999998,324.999988,324.999988,99.55947142857143,99.50736666666667,99.56735714285715,99.54755714285714,0.11450000000000005,-0.026000000000000023,-0.09316666666666662,0.14183333333333326,-0.05666666666667197,-0.03833333333332689,1.5215,1.5026666666666668,38.730999999999995,30.086,38.515,35.459,56.015,35.4745,59.581,52.808,53.942,34.5615,58.1625,51.1235,53.085,34.076499999999996,58.0585,50.52333333333333,-0.11850000000000005,-0.04700000000000015,0.11560500000000001,0.10723,0.0,216.69,216.71,213.44333333333333,213.44333333333333,0.0,0.0
28,0.0,1.0,0.0,1.0,1.0,0.0,0.0,1.0,0.0,100.0,1.0,1.1856,26.0,0.0,0.0,0.0,59.999996,0.0,26.0,26.0,26.0,26.0,0.05387500000000012,0.27290000000000014,-0.04576666666666667,291.946,-2.6917999999999997,-2.6451111111111114,-1.634,-1.5583,-180.94,215.4975,190.381375,0.0,0.0,0.0,0.0,0.056666666666666664,-5.498166666666667,-5.498166666666667,-0.603,0.611,0.011333333333333195,-0.6040000000000001,69.37,0.0287,-0.217125,-0.3719999999999999,100.0,1.0,1.0,213.97,0.0,0.0,0.0,0.0,0.0,0.0,0.0,9069.4,0.0,55.0,5.0,249.70333333333335,0.0,0.0,0.0,0.0,0.0,0.0,0.0,0.0,1.407,1.407,0.0,0.0,0.0,55.0,616.79921,10000.0,85.000001,85.000001,85.000001,85.000001,395.0,0.0,0.0,0.0,1.0,166.665,51.819,51.819,47.363,47.363,34.0,-22.585,25.502000000000002,-28.663333333333334,30.165,0.0,1782.337,-0.4800000000000004,100.0,28.478,28.749,43.254,43.832,0.0,1.0,100.0,0.0,0.0,0.0,0.0,3127.4285714285716,3107.8,4163.0,4140.8,305.4025,304.821,314.878,314.65,22.0468,20.6598,22.0132,21.523,314.999998,314.999998,324.999988,324.999988,99.55948571428571,99.50736666666667,99.5675,99.54772857142858,0.11299999999999999,-0.023666666666666614,-0.08916666666666662,0.1413333333333333,-0.03999999999999915,-0.060000000000002274,1.5514999999999999,1.5356666666666667,38.793,30.123666666666665,38.583,35.5185,56.003,35.516,59.618,52.8705,53.931,34.5995,58.197,51.184,53.073,34.1135,58.0895,50.58233333333334,-0.11349999999999993,-0.044500000000000206,0.10713500000000001,0.10877,0.0,217.16500000000002,217.195,213.97,213.97,0.0,0.0
29,0.0,1.0,0.0,1.0,1.0,0.0,0.0,1.0,0.0,100.0,1.0,1.1856,26.0,0.0,0.0,0.0,59.999996,0.0,26.0,26.0,26.0,26.0,0.06350000000000011,0.26570000000000005,-0.0031000000000000003,291.733,-2.676,-2.700111111111111,-1.5835,-1.5365,-177.6,215.4875,190.3565,0.0,0.0,0.0,0.0,0.058600000000000006,-5.498166666666667,-5.498166666666667,-0.6063000000000001,-0.6863333333333334,0.011888888888888838,-0.72,69.497,0.0297,-0.21577500000000002,-0.4500000000000002,100.0,1.0,1.0,214.18666666666667,0.0,0.0,0.0,0.0,0.0,0.0,0.0,9078.6,0.0,55.0,5.0,250.16333333333336,1.0,0.0,0.0,0.0,0.0,0.0,0.0,0.0,1.4549999999999983,1.4549999999999983,0.0,0.0,1.0,55.0,616.79921,10000.0,85.000001,85.000001,85.000001,85.000001,395.0,0.0,0.0,0.0,1.0,166.665,52.139,52.139,46.722,46.722,34.0,-21.94,25.808,-29.026666666666664,31.435,0.0,1782.289,-0.5449999999999982,100.0,28.158,28.591,43.639,44.132999999999996,0.0,1.0,100.0,0.0,0.0,0.0,0.0,3105.857142857143,3072.6,4211.125,4293.0,305.5935,304.877,314.60225,314.17375,22.0555,20.6651,22.0231,21.5317,314.999998,314.999998,324.999988,324.999988,99.5595,99.50738333333334,99.56764285714286,99.54787142857143,0.11675000000000013,-0.021333333333333315,-0.09166666666666656,0.137,-0.030000000000001137,-0.03833333333332689,1.4775,1.4676666666666667,38.847,30.156666666666666,38.644,35.573499999999996,55.991,35.551,59.656,52.9305,53.919,34.632,58.2325,51.2415,53.06,34.1445,58.122,50.638666666666666,-0.119,-0.03699999999999992,0.111685,0.10184000000000001,0.0,217.51,217.53,214.18666666666667,214.18666666666667,0.0,0.0
30,0.0,1.0,0.0,1.0,1.0,0.0,0.0,1.0,0.0,100.0,1.0,1.1856,26.0,0.0,0.0,0.0,59.999996,0.0,26.0,26.0,26.0,26.0,0.082125,0.2471000000000001,0.014866666666666667,291.138,-2.6904,-2.588,-1.5567,-1.5929,-174.26,215.47750000000002,190.331625,0.0,0.0,0.0,0.0,0.060566666666666664,-5.498166666666667,-5.498166666666667,-0.6087,0.8053333333333333,0.009666666666666712,-0.3800000000000001,69.617,0.033100000000000004,-0.222675,-0.5020000000000007,100.0,1.0,1.0,214.69333333333333,0.0,0.0,0.0,0.0,0.0,0.0,0.0,9100.0,0.0,55.0,5.0,250.59666666666666,0.0,0.0,0.0,0.0,0.0,0.0,1.0,0.0,1.5030000000000001,1.5030000000000001,0.0,0.0,0.0,55.0,616.79921,10000.0,85.000001,85.000001,85.000001,85.000001,395.0,0.0,0.0,0.0,1.0,166.665,50.415,50.415,47.211,47.211,34.0,-24.3325,27.436,-26.64333333333333,31.06,0.0,1782.241,-0.48499999999999943,100.0,29.033,29.256999999999998,43.49,44.114000000000004,0.0,1.0,100.0,0.0,0.0,0.0,0.0,3390.857142857143,3321.1,4080.875,4112.6,304.548,304.013,314.98875,314.6085,22.0645,20.6707,22.0328,21.540399999999998,314.999998,314.999998,324.999988,324.999988,99.55951428571429,99.50738333333334,99.56778571428572,99.548,0.12449999999999983,-0.018000000000000016,-0.07850000000000001,0.14866666666666672,-0.041666666666671404,-0.03833333333332689,1.5195,1.5043333333333333,38.903,30.191666666666666,38.705,35.6275,55.983000000000004,35.59,59.69,52.9885,53.912,34.668,58.263999999999996,51.297,53.051,34.179,58.15,50.693333333333335,-0.1279999999999999,-0.04150000000000009,0.10362500000000001,0.10952500000000001,0.0,217.92000000000002,217.95499999999998,214.69333333333333,214.69333333333333,0.0,0.0
31,0.0,1.0,0.0,1.0,1.0,0.0,0.0,1.0,0.0,100.0,1.0,1.1856,26.0,0.0,0.0,0.0,59.999996,0.0,26.0,26.0,26.0,26.0,0.05725000000000002,0.24380000000000002,0.04106666666666667,290.787,-2.783,-2.6125555555555557,-1.6537000000000002,-1.4853,-170.5,215.47,190.30425,0.0,0.0,0.0,0.0,0.06273333333333334,-5.498166666666667,-5.498166666666667,-0.5881000000000001,-0.4806666666666667,0.021666666666666723,-0.7130000000000001,69.759,0.0357,-0.22257500000000002,-0.4339999999999993,100.0,1.0,1.0,214.92666666666668,0.0,0.0,0.0,0.0,0.0,0.0,0.0,9109.9,0.0,55.0,5.0,251.10333333333335,1.0,0.0,0.0,0.0,0.0,0.0,1.0,0.0,1.5569999999999986,1.5569999999999986,0.0,0.0,1.0,55.0,616.79921,10000.0,85.000001,85.000001,85.000001,85.000001,395.0,0.0,0.0,0.0,1.0,166.665,51.041,51.041,45.7,45.7,34.0,-23.487499999999997,27.386,-30.413333333333334,32.115,0.0,1782.186,-0.5150000000000006,100.0,28.811,29.334,44.211,44.891999999999996,0.0,1.0,100.0,0.0,0.0,0.0,0.0,3217.4285714285716,3307.4,4325.875,4335.9,305.3165,304.277,314.32775,314.0075,22.0744,20.6768,22.044,21.5504,314.999998,314.999998,324.999988,324.999988,99.55952857142857,99.50738333333334,99.56794285714285,99.54815714285715,0.125,-0.01533333333333331,-0.07766666666666666,0.15000000000000013,-0.051666666666669414,-0.026666666666670835,1.443,1.4173333333333333,38.965,30.23,38.775,35.69,55.972,35.632,59.734,53.058,53.900999999999996,34.707,58.305,51.364,53.039,34.216499999999996,58.1875,50.75866666666667,-0.12199999999999989,-0.0405000000000002,0.10642000000000001,0.10494500000000001,0.0,218.32999999999998,218.35500000000002,214.92666666666668,214.92666666666668,0.0,0.0
32,0.0,1.0,0.0,1.0,1.0,0.0,0.0,1.0,0.0,100.0,1.0,1.1856,26.0,0.0,0.0,0.0,59.999996,0.0,26.0,26.0,26.0,26.0,0.06687500000000002,0.26580000000000004,0.0005333333333333334,291.245,-2.7072,-2.671333333333333,-1.5942,-1.544,-167.14999999999998,215.465,190.280375,0.0,0.0,0.0,0.0,0.06470000000000001,-5.498166666666667,-5.498166666666667,-0.6085,-0.3383333333333333,-0.00044444444444424747,-0.7710000000000001,69.878,0.0419,-0.233325,-0.5479999999999992,100.0,1.0,1.0,215.44,0.0,0.0,0.0,0.0,0.0,0.0,0.0,9131.6,0.0,55.0,5.0,251.53333333333336,0.0,0.0,0.0,0.0,0.0,0.0,1.0,0.0,1.6050000000000004,1.6050000000000004,0.0,0.0,0.0,55.0,616.79921,10000.0,85.000001,85.000001,85.000001,85.000001,395.0,0.0,0.0,0.0,1.0,166.665,51.407,51.407,46.539,46.539,34.0,-22.32,25.997999999999998,-27.21333333333333,32.1125,0.0,1782.139,-0.4800000000000004,100.0,28.737000000000002,29.275,44.077,44.689,0.0,1.0,100.0,0.0,0.0,0.0,0.0,3180.0,3106.5,4134.875,4269.7,305.326,304.8516666666667,314.7905,314.36025,22.0831,20.6823,22.0537,21.5591,314.999998,314.999998,324.999988,324.999988,99.55954285714286,99.5074,99.56808571428571,99.54831428571428,0.1302500000000002,-0.016666666666666607,-0.0695,0.15700000000000003,-0.05333333333332746,-0.05333333333332746,1.5215,1.4946666666666668,39.019,30.264,38.836,35.7445,55.961,35.6685,59.7685,53.1155,53.89,34.741,58.337,51.4195,53.028,34.249,58.216499999999996,50.813,-0.121,-0.04800000000000004,0.10886000000000001,0.10694500000000001,0.0,218.71,218.745,215.44,215.44,0.0,0.0
33,0.0,1.0,0.0,1.0,1.0,0.0,0.0,1.0,0.0,100.0,1.0,1.1856,26.0,0.0,0.0,0.0,59.999996,0.0,26.0,26.0,26.0,26.0,0.06812499999999999,0.2712000000000001,-0.016066666666666667,291.412,-2.7413,-2.6737777777777776,-1.605,-1.5779,-163.79,215.46,190.255125,0.0,0.0,0.0,0.0,0.06663333333333334,-5.498166666666667,-5.498166666666667,-0.6183000000000001,-0.3113333333333333,0.004444444444444251,0.14100000000000001,69.999,0.0414,-0.21875,-0.43599999999999994,100.0,1.0,1.0,215.80333333333334,0.0,0.0,0.0,0.0,0.0,0.0,0.0,9147.0,0.0,55.0,5.0,251.97333333333336,1.0,0.0,0.0,0.0,0.0,0.0,1.0,0.0,1.6529999999999987,1.6529999999999987,0.0,0.0,1.0,55.0,616.79921,10000.0,85.000001,85.000001,85.000001,85.000001,395.0,0.0,0.0,0.0,1.0,166.665,51.575,51.575,46.768,46.768,34.0,-22.5,25.434,-27.79,32.4125,0.0,1782.09,-0.5199999999999996,100.0,28.672,29.206,43.902,44.522999999999996,0.0,1.0,100.0,0.0,0.0,0.0,0.0,3159.285714285714,3066.6,4126.75,4226.6,305.44,304.998,314.8595,314.4165,22.0918,20.6875,22.0635,21.5678,314.999998,314.999998,324.999988,324.999988,99.55955714285714,99.5074,99.56822857142858,99.54845714285715,0.12849999999999984,-0.02100000000000002,-0.07983333333333331,0.1605000000000001,-0.03999999999999915,-0.04999999999999716,1.5185,1.5033333333333334,39.074,30.297,38.897,35.7985,55.951,35.703,59.8025,53.173,53.881,34.772999999999996,58.3685,51.475,53.016999999999996,34.28,58.245,50.86666666666667,-0.125,-0.04700000000000015,0.10350500000000001,0.11535500000000001,0.0,219.075,219.125,215.80333333333334,215.80333333333334,0.0,0.0
34,0.0,1.0,0.0,1.0,1.0,0.0,0.0,1.0,0.0,100.0,1.0,1.1856,26.0,0.0,0.0,0.0,59.999996,0.0,26.0,26.0,26.0,26.0,0.06150000000000011,0.25950000000000006,-0.015700000000000002,291.55,-2.682,-2.654333333333333,-1.643,-1.5103,-160.01,215.45499999999998,190.225375,0.0,0.0,0.0,0.0,0.06883333333333334,-5.498166666666667,-5.498166666666667,-0.6492,-1.0383333333333333,0.03066666666666662,0.06999999999999995,70.136,0.0403,-0.22662500000000002,-0.476,100.0,1.0,1.0,216.19333333333333,0.0,0.0,0.0,0.0,0.0,0.0,0.0,9163.7,0.0,55.0,5.0,252.46333333333334,0.0,0.0,0.0,0.0,0.0,0.0,1.0,0.0,1.7070000000000007,1.7070000000000007,0.0,0.0,0.0,55.0,616.79921,10000.0,85.000001,85.000001,85.000001,85.000001,395.0,0.0,0.0,0.0,1.0,166.665,51.834,51.834,46.982,46.982,34.0,-21.15,25.375999999999998,-27.723333333333336,30.6925,0.0,1782.036,-0.5549999999999997,100.0,28.5,29.092,43.808,44.687,0.0,1.0,100.0,0.0,0.0,0.0,0.0,3093.142857142857,3070.2,4100.875,4247.5,305.6325,305.1426666666667,314.94325,314.36325,22.1015,20.6934,22.0744,21.5776,314.999998,314.999998,324.999988,324.999988,99.55957142857143,99.5074,99.56838571428571,99.54861428571428,0.13450000000000006,-0.014666666666666606,-0.07466666666666666,0.14183333333333326,-0.04833333333333201,-0.04333333333332945,1.541,1.5030000000000001,39.134,30.334,38.965,35.8605,55.939,35.741,59.84,53.24,53.869,34.808,58.4035,51.539,53.004000000000005,34.314,58.2765,50.92966666666666,-0.125,-0.038000000000000256,0.11098000000000001,0.10032500000000001,0.0,219.495,219.505,216.19333333333333,216.19333333333333,0.0,0.0
35,0.0,1.0,0.0,1.0,1.0,0.0,0.0,1.0,0.0,100.0,1.0,1.1856,26.0,0.0,0.0,0.0,59.999996,0.0,26.0,26.0,26.0,26.0,0.07325000000000004,0.2472000000000001,-0.2162,291.351,-2.8064999999999998,-2.6341111111111113,-1.6364,-1.5711,-156.43,215.4525,190.195375,0.0,0.0,0.0,0.0,0.07093333333333333,-5.498166666666667,-5.498166666666667,-0.6859000000000001,0.15333333333333335,0.0086666666666666,-0.857,70.263,0.0409,-0.23775000000000002,-0.484,100.0,1.0,1.0,216.66,0.0,0.0,0.0,0.0,0.0,0.0,0.0,9183.4,0.0,55.0,5.0,252.92000000000002,1.0,0.0,0.0,0.0,0.0,0.0,1.0,0.0,1.7579999999999991,1.7579999999999991,0.0,0.0,1.0,55.0,616.79921,10000.0,85.000001,85.000001,85.000001,85.000001,395.0,0.0,0.0,0.0,1.0,166.665,51.102,51.102,46.539,46.539,34.0,-22.595,28.226,-26.78666666666666,31.3475,0.0,1781.985,-0.40500000000000114,100.0,28.642,29.459,43.656,44.171,0.0,1.0,100.0,0.0,0.0,0.0,0.0,3085.285714285714,3355.8,4066.125,4130.7,305.489,304.052,314.96875,314.73625,22.110599999999998,20.6993,22.084600000000002,21.5868,314.999998,314.999998,324.999988,324.999988,99.5596,99.5074,99.56852857142857,99.54875714285714,0.13100000000000023,-0.014333333333333309,-0.0631666666666666,0.16283333333333339,-0.03833333333332689,-0.030000000000001137,1.5554999999999999,1.5253333333333334,39.191,30.370666666666665,39.028999999999996,35.917500000000004,55.926,35.7805,59.875,53.298500000000004,53.855999999999995,34.845,58.4355,51.596000000000004,52.991,34.349000000000004,58.3055,50.985,-0.11650000000000005,-0.052999999999999936,0.109575,0.107895,0.0,219.885,219.91,216.66,216.66,0.0,0.0
