,ABS Active,ABS Enabled,AID Allow Tire Blankets,AID Auto Blip,AID Auto Clutch,AID Auto Shift,AID Fuel Rate,AID Ideal Line,AID Mech Damage,AID Stability,AID Tire Wear Rate,Air Density,Air Temp,Ballast,Best Lap Delta,Best Lap Time,Brake Bias,Brake Pos,Brake Temp FL,Brake Temp FR,Brake Temp RL,Brake Temp RR,CG Accel Lateral,CG Accel Longitudinal,CG Accel Vertical,CG Height,Camber FL,Camber FR,Camber RL,Camber RR,Car Coord X,Car Coord Y,Car Coord Z,Car Damage Front,Car Damage Left,Car Damage Rear,Car Damage Right,Car Pos Norm,Caster FL,Caster FR,Chassis Pitch Angle,Chassis Pitch Rate,Chassis Roll Angle,Chassis Roll Rate,Chassis Velocity X,Chassis Velocity Y,Chassis Velocity Z,Chassis Yaw Rate,Clutch Pos,DRS Active,DRS Available,Drive Train Speed,ERS Heat Charging,ERS Is Charging,ERS Max Energy,ERS Power Level,ERS Recovery Level,Engine Brake Setting,Engine Limiter,Engine RPM,Flags,Fuel Level,Gear,Ground Speed,HR Sample Clock,In Pit,KERS Charge,KERS Deployed Energy,KERS Input,KERS Max Energy,LR Sample Clock,Lap Invalidated,Lap Time,Lap Time2,Last Lap Time,Last Sector Time,MR Sample Clock,Max Fuel,Max Power,Max RPM,Max Sus Travel FL,Max Sus Travel FR,Max Sus Travel RL,Max Sus Travel RR,Max Torque,Max Turbo Boost,Num Tires Off Track,Penalties Enabled,Position,Raw Data Sample Rate,Ride Height FL,Ride Height FR,Ride Height RL,Ride Height RR,Road Temp,Self Align Torque FL,Self Align Torque FR,Self Align Torque RL,Self Align Torque RR,Session Lap Count,Session Time Left,Steering Angle,Surface Grip,Suspension Travel FL,Suspension Travel FR,Suspension Travel RL,Suspension Travel RR,TC Active,TC Enabled,Throttle Pos,Tire Dirt Level FL,Tire Dirt Level FR,Tire Dirt Level RL,Tire Dirt Level RR,Tire Load FL,Tire Load FR,Tire Load RL,Tire Load RR,Tire Loaded Radius FL,Tire Loaded Radius FR,Tire Loaded Radius RL,Tire Loaded Radius RR,Tire Pressure FL,Tire Pressure FR,Tire Pressure RL,Tire Pressure RR,Tire Radius FL,Tire Radius FR,Tire Radius RL,Tire Radius RR,Tire Rubber Grip FL,Tire Rubber Grip FR,Tire Rubber Grip RL,Tire Rubber Grip RR,Tire Slip Angle FL,Tire Slip Angle FR,Tire Slip Angle RL,Tire Slip Angle RR,Tire Slip Ratio FL,Tire Slip Ratio FR,Tire Slip Ratio RL,Tire Slip Ratio RR,Tire Temp Core FL,Tire Temp Core FR,Tire Temp Core RL,Tire Temp Core RR,Tire Temp Inner FL,Tire Temp Inner FR,Tire Temp Inner RL,Tire Temp Inner RR,Tire Temp Middle FL,Tire Temp Middle FR,Tire Temp Middle RL,Tire Temp Middle RR,Tire Temp Outer FL,Tire Temp Outer FR,Tire Temp Outer RL,Tire Temp Outer RR,Toe In FL,Toe In FR,Toe In RL,Toe In RR,Turbo Boost,Wheel Angular Speed FL,Wheel Angular Speed FR,Wheel Angular Speed RL,Wheel Angular Speed RR,Wind Direction,Wind Speed
0,0.0,1.0,0.0,1.0,1.0,0.0,0.0,1.0,0.0,100.0,1.0,1.1856,26.0,0.0,0.0,0.0,59.99999,0.0,26.0,26.0,26.0,26.0,-0.07711111111111102,0.3002,0.051800000000000006,294.037,-2.7274,-2.6532222222222224,-1.5237,-1.5547,-275.78,216.29250000000002,190.988125,0.0,0.0,0.0,0.0,0.0015333333333333865,-5.498166666666667,-5.498166666666667,-0.5459,1.1755,-0.0037777777777776578,-1.2069999999999999,65.49600000000001,-0.0313,-0.21052500000000002,1.0060000000000002,100.0,1.0,1.0,202.24333333333334,0.0,0.0,0.0,0.0,0.0,0.0,0.0,8572.3,0.0,55.0,5.0,235.75333333333333,0.0,0.0,0.0,0.0,0.0,0.0,0.0,0.0,0.0030000000000001137,0.0030000000000001137,0.0,0.0,0.0,55.0,616.79921,10000.0,85.0,85.0,85.0,85.0,395.0,0.0,0.0,0.0,1.0,20.0,52.963,52.963,49.591,49.591,34.0,-26.6325,23.124,-29.853333333333335,24.4625,0.0,1783.489,0.8500000000000014,100.0,27.271,26.901,40.65,40.814,0.0,1.0,100.0,0.0,0.0,0.0,0.0,3024.285714285714,3316.7,4102.25,3967.0,305.6945,304.215,314.92575,314.88175,21.7805,20.5136,21.7438,21.2811,314.99999,314.99999,324.99998,324.99998,99.55907142857143,99.50723333333333,99.56418571428571,99.54401428571428,-0.003249999999999975,-0.11699999999999999,-0.1535,0.06066666666666667,-0.054999999999999716,-0.054999999999999716,1.5496666666666667,1.5935000000000001,37.128,29.21,36.899,34.007,56.336,34.4825,58.7365,51.218,54.247,33.643,57.3755,49.5935,53.412,33.195,57.341,49.02166666666667,-0.009500000000000064,-0.13249999999999984,0.10476,0.10420000000000001,0.0,205.28,205.155,202.24333333333334,202.24333333333334,0.0,0.0
1,0.0,1.0,0.0,1.0,1.0,0.0,0.0,1.0,0.0,100.0,1.0,1.1856,26.0,0.0,0.0,0.0,59.999996,0.0,26.0,26.0,26.0,26.0,-0.1233333333333334,0.30910000000000015,0.04745,293.06,-2.6549,-2.7625555555555557,-1.5278,-1.5467,-272.43,216.28750000000002,190.967875,0.0,0.0,0.0,0.0,0.003466666666666507,-5.498166666666667,-5.498166666666667,-0.49110000000000004,-0.2909999999999999,-0.04944444444444418,0.02300000000000002,65.652,-0.049100000000000005,-0.18715,1.3979999999999997,100.0,1.0,1.0,202.36,0.0,0.0,0.0,0.0,0.0,0.0,0.0,8577.3,0.0,55.0,5.0,236.31666666666666,1.0,0.0,0.0,0.0,0.0,0.0,0.0,0.0,0.053999999999998494,0.053999999999998494,0.0,0.0,1.0,55.0,616.79921,10000.0,85.000001,85.000001,85.000001,85.000001,395.0,0.0,0.0,0.0,1.0,166.665,53.696,53.696,48.157,48.157,34.0,-26.357499999999998,18.082,-35.519999999999996,29.4075,0.0,1783.438,0.8850000000000016,100.0,27.56,26.936,42.461,41.676,0.0,1.0,100.0,0.0,0.0,0.0,0.0,3020.857142857143,2680.7,4451.75,4714.7,305.503,306.298,313.9155,313.13525,21.790399999999998,20.5188,21.7546,21.2901,314.999998,314.999998,324.999988,324.999988,99.55908571428571,99.50726666666667,99.56432857142858,99.54415714285715,-0.00550000000000006,-0.13749999999999996,-0.17933333333333334,0.043500000000000004,-0.03166666666666629,-0.04833333333333201,1.387,1.4665,37.19,29.242333333333335,36.966,34.063,56.319,34.524,58.783500000000004,51.283500000000004,54.230999999999995,33.6815,57.419,49.656,53.396,33.2315,57.3825,49.083333333333336,-0.006999999999999895,-0.14400000000000013,0.10441500000000001,0.104065,0.0,205.715,205.61,202.36,202.36,0.0,0.0
2,0.0,1.0,0.0,1.0,1.0,0.0,0.0,1.0,0.0,100.0,1.0,1.1856,26.0,0.0,0.0,0.0,59.999996,0.0,26.0,26.0,26.0,26.0,-0.14511111111111108,0.28070000000000017,-0.061900000000000004,293.747,-2.6089,-2.792666666666667,-1.4907,-1.6107,-269.08,216.28,190.94925,0.0,0.0,0.0,0.0,0.005433333333333401,-5.498166666666667,-5.498166666666667,-0.5491,-0.08200000000000007,-0.048555555555555685,1.066,65.793,-0.0685,-0.25455,1.6140000000000008,100.0,1.0,1.0,203.32,0.0,0.0,0.0,0.0,0.0,0.0,0.0,8618.0,0.0,55.0,5.0,236.82666666666665,0.0,0.0,0.0,0.0,0.0,0.0,0.0,0.0,0.10500000000000043,0.10500000000000043,0.0,0.0,0.0,55.0,616.79921,10000.0,85.000001,85.000001,85.000001,85.000001,395.0,0.0,0.0,0.0,1.0,166.665,52.521,52.521,50.201,50.201,34.0,-31.1525,19.6,-29.703333333333333,19.52,0.0,1783.386,0.8099999999999987,100.0,28.137,26.904,42.479,41.638,0.0,1.0,100.0,0.0,0.0,0.0,0.0,3409.4285714285716,2908.1,3790.5,3542.9,304.457,305.49675,315.57625,316.06375,21.8005,20.523699999999998,21.765,21.2988,314.999998,314.999998,324.999988,324.999988,99.55908571428571,99.50726666666667,99.56447142857142,99.5443,-0.03699999999999992,-0.15300000000000002,-0.225,0.0145,-0.07666666666666799,-0.05666666666667197,1.6386666666666667,1.7005,37.253,29.273333333333333,37.031,34.1175,56.306,34.563,58.8225,51.3425,54.219,33.7175,57.456,49.7125,53.382,33.266,57.416,49.138666666666666,-0.008999999999999897,-0.13649999999999984,0.10367000000000001,0.11472500000000001,0.0,206.175,206.015,203.32,203.32,0.0,0.0
3,0.0,1.0,0.0,1.0,1.0,0.0,0.0,1.0,0.0,100.0,1.0,1.1856,26.0,0.0,0.0,0.0,59.999996,0.0,26.0,26.0,26.0,26.0,-0.14688888888888885,0.2977000000000001,0.056575,293.411,-2.7334,-2.692222222222222,-1.5139,-1.5922,-265.72,216.26749999999998,190.9295,0.0,0.0,0.0,0.0,0.007399999999999962,-5.498166666666667,-5.498166666666667,-0.5027,0.5415,-0.00633333333333308,0.5249999999999999,65.946,-0.0855,-0.19010000000000002,1.2439999999999998,100.0,1.0,1.0,203.44333333333333,0.0,0.0,0.0,0.0,0.0,0.0,0.0,8623.3,0.0,55.0,5.0,237.37333333333333,1.0,0.0,0.0,0.0,0.0,0.0,0.0,0.0,0.1559999999999988,0.1559999999999988,0.0,0.0,1.0,55.0,616.79921,10000.0,85.000001,85.000001,85.000001,85.000001,395.0,0.0,0.0,0.0,1.0,166.665,53.741,53.741,47.958,47.958,34.0,-25.88,18.712,-34.60333333333333,25.025,0.0,1783.334,0.615000000000002,100.0,27.71,26.844,42.592,41.567,0.0,1.0,100.0,0.0,0.0,0.0,0.0,2845.142857142857,2879.5,4291.375,4279.1,306.05,305.68525,314.306,314.27475,21.810299999999998,20.5289,21.7753,21.3076,314.999998,314.999998,324.999988,324.999988,99.55908571428571,99.5073,99.5646,99.54442857142857,-0.02400000000000002,-0.14600000000000002,-0.20466666666666666,0.018166666666666668,-0.041666666666671404,-0.06499999999999773,1.4993333333333332,1.5550000000000002,37.315,29.305666666666667,37.096000000000004,34.173,56.29,34.6055,58.8625,51.4055,54.203,33.7565,57.493,49.772999999999996,53.366,33.3035,57.4505,49.198,-0.026000000000000023,-0.1160000000000001,0.10634500000000001,0.11032000000000002,0.0,206.65,206.55,203.44333333333333,203.44333333333333,0.0,0.0
4,0.0,1.0,0.0,1.0,1.0,0.0,0.0,1.0,0.0,100.0,1.0,1.1856,26.0,0.0,0.0,0.0,59.999996,0.0,26.0,26.0,26.0,26.0,-0.13588888888888895,0.27760000000000007,-0.0052250000000000005,293.61,-2.6754,-2.739,-1.5402,-1.5924,-262.55,216.255,190.910875,0.0,0.0,0.0,0.0,0.009233333333333316,-5.498166666666667,-5.498166666666667,-0.5309,-0.873,-0.06622222222222218,-0.3820000000000001,66.084,-0.0876,-0.22337500000000002,1.1300000000000008,100.0,1.0,1.0,203.9766666666667,0.0,0.0,0.0,0.0,0.0,0.0,0.0,8645.8,0.0,55.0,5.0,237.87333333333333,0.0,0.0,0.0,0.0,0.0,0.0,0.0,0.0,0.20400000000000063,0.20400000000000063,0.0,0.0,0.0,55.0,616.79921,10000.0,85.000001,85.000001,85.000001,85.000001,395.0,0.0,0.0,0.0,1.0,166.665,53.436,53.436,48.355000000000004,48.355000000000004,34.0,-28.0975,20.192,-32.27666666666667,22.045,0.0,1783.287,0.5549999999999997,100.0,27.387,26.551000000000002,43.144999999999996,41.737,0.0,1.0,100.0,0.0,0.0,0.0,0.0,3149.0,2966.2,4044.75,3805.3,305.2485,305.43325,314.8315,315.39525,21.819499999999998,20.5337,21.7853,21.316,314.999998,314.999998,324.999988,324.999988,99.55908571428571,99.50731666666667,99.56474285714286,99.54455714285714,-0.01550000000000007,-0.13549999999999995,-0.20016666666666666,0.02783333333333333,-0.06833333333332803,-0.07166666666666544,1.5386666666666668,1.604,37.372,29.33566666666667,37.158,34.225,56.272999999999996,34.644,58.903,51.463499999999996,54.187,33.792,57.531,49.8285,53.349000000000004,33.3375,57.486,49.25233333333333,-0.02849999999999997,-0.11500000000000021,0.10448500000000001,0.10750000000000001,0.0,207.025,206.95499999999998,203.9766666666667,203.9766666666667,0.0,0.0
5,0.0,1.0,0.0,1.0,1.0,0.0,0.0,1.0,0.0,100.0,1.0,1.1856,26.0,0.0,0.0,0.0,59.999996,0.0,26.0,26.0,26.0,26.0,-0.13244444444444448,0.28800000000000003,-0.021975,293.686,-2.6753,-2.764777777777778,-1.5125000000000002,-1.5916000000000001,-259.18,216.2375,190.890625,0.0,0.0,0.0,0.0,0.011199999999999988,-5.498166666666667,-5.498166666666667,-0.5304,0.36049999999999993,-0.08488888888888857,-0.7110000000000001,66.23,-0.0917,-0.20625000000000002,1.1140000000000008,100.0,1.0,1.0,204.45333333333332,0.0,0.0,0.0,0.0,0.0,0.0,0.0,8666.1,0.0,55.0,5.0,238.39666666666668,1.0,0.0,0.0,0.0,0.0,0.0,0.0,0.0,0.254999999999999,0.254999999999999,0.0,0.0,1.0,55.0,616.79921,10000.0,85.000001,85.000001,85.000001,85.000001,395.0,0.0,0.0,0.0,1.0,166.665,53.65,53.65,48.888999999999996,48.888999999999996,34.0,-28.685000000000002,18.362000000000002,-34.00333333333333,22.505000000000003,0.0,1783.236,0.3099999999999987,100.0,27.565,26.624,42.695,41.477000000000004,0.0,1.0,100.0,0.0,0.0,0.0,0.0,3206.714285714286,2731.4,4187.0,3953.2,305.2085,306.01875,314.729,314.97325,21.8295,20.5388,21.7956,21.3247,314.999998,314.999998,324.999988,324.999988,99.5591,99.50731666666667,99.56488571428571,99.5447,-0.01949999999999985,-0.14449999999999996,-0.22233333333333336,0.013000000000000001,-0.061666666666667425,-0.051666666666669414,1.5403333333333333,1.5825,37.434,29.367333333333335,37.223,34.278999999999996,56.259,34.684,58.9435,51.5215,54.173,33.829,57.569,49.884,53.335,33.373,57.521,49.306666666666665,-0.050000000000000044,-0.09549999999999992,0.10676500000000001,0.11567500000000001,0.0,207.53,207.42000000000002,204.45333333333332,204.45333333333332,0.0,0.0
6,0.0,1.0,0.0,1.0,1.0,0.0,0.0,1.0,0.0,100.0,1.0,1.1856,26.0,0.0,0.0,0.0,59.999996,0.0,26.0,26.0,26.0,26.0,-0.1263333333333334,0.3062,0.010525000000000001,293.396,-2.642,-2.7414444444444444,-1.5565,-1.6264,-256.0,216.2175,190.871125,0.0,0.0,0.0,0.0,0.013033333333333341,-5.498166666666667,-5.498166666666667,-0.525,0.10099999999999998,-0.06466666666666665,-0.6679999999999999,66.369,-0.0854,-0.204075,0.7999999999999998,100.0,1.0,1.0,204.83333333333331,0.0,0.0,0.0,0.0,0.0,0.0,0.0,8682.1,0.0,55.0,5.0,238.89666666666668,0.0,0.0,0.0,0.0,0.0,0.0,0.0,0.0,0.3030000000000008,0.3030000000000008,0.0,0.0,0.0,55.0,616.79921,10000.0,85.000001,85.000001,85.000001,85.000001,395.0,0.0,0.0,0.0,1.0,166.665,53.253,53.253,48.569,48.569,34.0,-28.185000000000002,20.156,-33.68666666666667,22.880000000000003,0.0,1783.189,-0.00999999999999801,100.0,27.556,26.768,42.841,41.814,0.0,1.0,100.0,0.0,0.0,0.0,0.0,3229.857142857143,2890.9,4145.25,3944.4,305.109,305.4765,314.8135,314.95125,21.8389,20.5436,21.8055,21.333,314.999998,314.999998,324.999988,324.999988,99.5591,99.50733333333334,99.56502857142857,99.54484285714285,-0.008000000000000007,-0.127,-0.21333333333333335,0.010166666666666666,-0.05666666666667197,-0.04333333333332945,1.5546666666666669,1.5594999999999999,37.492999999999995,29.397333333333336,37.284,34.3315,56.244,34.722,58.9825,51.5805,54.159,33.8635,57.6055,49.9405,53.32,33.406,57.555,49.361666666666665,-0.0694999999999999,-0.07799999999999985,0.10407500000000001,0.10882000000000001,0.0,207.91500000000002,207.835,204.83333333333331,204.83333333333331,0.0,0.0
7,0.0,1.0,0.0,1.0,1.0,0.0,0.0,1.0,0.0,100.0,1.0,1.1856,26.0,0.0,0.0,0.0,59.999996,0.0,26.0,26.0,26.0,26.0,-0.08133333333333337,0.2945,0.031200000000000002,292.999,-2.6096,-2.733888888888889,-1.5179,-1.5732000000000002,-252.61,216.1925,190.850625,0.0,0.0,0.0,0.0,0.014999999999999902,-5.498166666666667,-5.498166666666667,-0.5286000000000001,-0.10899999999999999,-0.048666666666666636,1.3559999999999999,66.515,-0.0674,-0.2137,0.30799999999999983,100.0,1.0,1.0,205.23333333333335,0.0,0.0,0.0,0.0,0.0,0.0,0.0,8699.1,0.0,55.0,5.0,239.42333333333335,1.0,0.0,0.0,0.0,0.0,0.0,0.0,0.0,0.3539999999999992,0.3539999999999992,0.0,0.0,1.0,55.0,616.79921,10000.0,85.000001,85.000001,85.000001,85.000001,395.0,0.0,0.0,0.0,1.0,111.11,52.795,52.795,48.492,48.492,34.0,-26.335,22.966,-30.55,25.505000000000003,0.0,1783.138,-0.1999999999999993,100.0,27.864,26.742,43.098,42.016999999999996,0.0,1.0,100.0,0.0,0.0,0.0,0.0,3227.285714285714,3061.6,4044.375,4143.2,304.872,305.14625,314.867,314.607,21.8488,20.5488,21.8159,21.342,314.999998,314.999998,324.999988,324.999988,99.5591,99.50735,99.56515714285715,99.54497142857143,0.034250000000000114,-0.08624999999999994,-0.17116666666666666,0.049166666666666664,-0.045000000000001705,-0.06666666666666998,1.5346666666666668,1.5430000000000001,37.555,29.429666666666666,37.349999999999994,34.3875,56.229,34.7615,59.024,51.643,54.144999999999996,33.9,57.644,50.0005,53.305,33.441,57.5905,49.42033333333333,-0.09650000000000003,-0.052999999999999936,0.10625000000000001,0.10541500000000001,0.0,208.34,208.325,205.23333333333335,205.23333333333335,0.0,0.0
8,0.0,1.0,0.0,1.0,1.0,0.0,0.0,1.0,0.0,100.0,1.0,1.1856,26.0,0.0,0.0,0.0,59.999996,0.0,26.0,26.0,26.0,26.0,-0.039111111111111097,0.2781,-0.001825,293.259,-2.7025,-2.7143333333333333,-1.5067,-1.5768,-249.01,216.16500000000002,190.82875,0.0,0.0,0.0,0.0,0.017100000000000004,-5.498166666666667,-5.498166666666667,-0.5297000000000001,-0.4575,-0.02666666666666684,1.183,66.669,-0.0459,-0.209425,-0.05799999999999983,100.0,1.0,1.0,205.67000000000002,0.0,0.0,0.0,0.0,0.0,0.0,0.0,8717.5,0.0,55.0,5.0,239.98000000000002,0.0,0.0,0.0,0.0,0.0,0.0,0.0,0.0,0.40800000000000125,0.40800000000000125,0.0,0.0,0.0,55.0,616.79921,10000.0,85.000001,85.000001,85.000001,85.000001,395.0,0.0,0.0,0.0,1.0,166.665,53.665,53.665,47.806,47.806,34.0,-23.599999999999998,23.282,-29.193333333333335,27.665,0.0,1783.082,-0.3550000000000004,100.0,27.369,26.797,43.131,42.241,0.0,1.0,100.0,0.0,0.0,0.0,0.0,2930.5714285714284,3020.5,4088.75,4175.1,305.8545,305.28975,314.737,314.462,21.859,20.5543,21.826999999999998,21.351399999999998,314.999998,314.999998,324.999988,324.999988,99.55911428571429,99.50736666666667,99.56532857142857,99.54512857142858,0.04999999999999982,-0.06499999999999995,-0.1365,0.08033333333333333,-0.023333333333326323,-0.03333333333333144,1.5123333333333333,1.5095,37.619,29.464333333333336,37.419,34.4465,56.211,34.802,59.067,51.7085,54.128,33.9375,57.684,50.063,53.288,33.477000000000004,57.6275,49.482,-0.10050000000000003,-0.04150000000000009,0.10208500000000001,0.11678000000000001,0.0,208.78,208.785,205.67000000000002,205.67000000000002,0.0,0.0
9,0.0,1.0,0.0,1.0,1.0,0.0,0.0,1.0,0.0,100.0,1.0,1.1856,26.0,0.0,0.0,0.0,59.999996,0.0,26.0,26.0,26.0,26.0,-0.03600000000000003,0.28980000000000006,-0.0062250000000000005,293.06,-2.6926,-2.713111111111111,-1.5631,-1.5527,-246.01,216.14249999999998,190.81025,0.0,0.0,0.0,0.0,0.01883333333333337,-5.498166666666667,-5.498166666666667,-0.5359,0.507,-0.030666666666666842,-0.895,66.794,-0.029,-0.21000000000000002,-0.10599999999999987,100.0,1.0,1.0,206.17333333333335,0.0,0.0,0.0,0.0,0.0,0.0,0.0,8739.0,0.0,55.0,5.0,240.43,1.0,0.0,0.0,0.0,0.0,0.0,0.0,0.0,0.4529999999999994,0.4529999999999994,0.0,0.0,1.0,55.0,616.79921,10000.0,85.000001,85.000001,85.000001,85.000001,395.0,0.0,0.0,0.0,1.0,333.33500000000004,52.567,52.567,48.828,48.828,34.0,-26.412499999999998,23.782,-28.973333333333333,25.310000000000002,0.0,1783.037,-0.5150000000000006,100.0,27.69,27.345,42.579,42.356,0.0,1.0,100.0,0.0,0.0,0.0,0.0,3336.5714285714284,2992.4,4027.125,3985.3,304.808,305.129,315.12325,314.89375,21.8677,20.559,21.836100000000002,21.3592,314.999998,314.999998,324.999988,324.999988,99.55911428571429,99.50736666666667,99.56544285714286,99.54524285714285,0.06574999999999998,-0.05349999999999999,-0.1405,0.07366666666666667,-0.05333333333332746,-0.036666666666668846,1.584,1.5710000000000002,37.673,29.494,37.474999999999994,34.495,56.2,34.8365,59.0995,51.762,54.117000000000004,33.9695,57.7145,50.1145,53.275999999999996,33.507,57.6555,49.532333333333334,-0.11699999999999999,-0.033500000000000085,0.10316,0.10108,0.0,209.195,209.195,206.17333333333335,206.17333333333335,0.0,0.0
10,0.0,1.0,0.0,1.0,1.0,0.0,0.0,1.0,0.0,100.0,1.0,1.1856,26.0,0.0,0.0,0.0,59.999996,0.0,26.0,26.0,26.0,26.0,-0.00011111111111106187,0.2834000000000001,0.036675,292.801,-2.66,-2.7110000000000003,-1.5975000000000001,-1.5408000000000002,-242.6,216.115,190.7895,0.0,0.0,0.0,0.0,0.02083333333333337,-5.498166666666667,-5.498166666666667,-0.5121,-0.30099999999999993,0.007444444444444365,1.88,66.941,-0.006200000000000001,-0.19662500000000002,-0.5279999999999996,100.0,1.0,1.0,206.43,0.0,0.0,0.0,0.0,0.0,0.0,0.0,8749.8,0.0,55.0,5.0,240.95666666666665,0.0,0.0,0.0,0.0,0.0,0.0,1.0,0.0,0.5040000000000013,0.5040000000000013,0.0,0.0,0.0,55.0,616.79921,10000.0,85.000001,85.000001,85.000001,85.000001,395.0,0.0,0.0,0.0,1.0,166.665,53.421,53.421,47.333,47.333,34.0,-20.715,23.958,-30.69333333333333,30.580000000000002,0.0,1782.987,-0.5749999999999993,100.0,27.786,27.162,43.165,42.89,0.0,1.0,100.0,0.0,0.0,0.0,0.0,2843.857142857143,2978.0,4272.625,4331.6,306.067,305.4105,314.369,314.1105,21.8774,20.5643,21.8466,21.3683,314.999998,314.999998,324.999988,324.999988,99.55912857142857,99.50736666666667,99.56558571428572,99.5454,0.09600000000000009,-0.038000000000000034,-0.10983333333333332,0.11733333333333333,-0.01833333333333087,-0.051666666666669414,1.483,1.465,37.733999999999995,29.527,37.541,34.552,56.187,34.873,59.141,51.826499999999996,54.105000000000004,34.0035,57.7535,50.1765,53.263,33.54,57.691,49.593,-0.12650000000000006,-0.03000000000000025,0.10559500000000001,0.10859500000000001,0.0,209.64,209.66500000000002,206.43,206.43,0.0,0.0
11,0.0,1.0,0.0,1.0,1.0,0.0,0.0,1.0,0.0,100.0,1.0,1.1856,26.0,0.0,0.0,0.0,59.999996,0.0,26.0,26.0,26.0,26.0,0.030999999999999917,0.2693000000000001,-0.0824,293.32,-2.7157,-2.678777777777778,-1.5619,-1.5249000000000001,-239.18,216.0875,190.76875,0.0,0.0,0.0,0.0,0.022599999999999953,-5.498166666666667,-5.498166666666667,-0.5518000000000001,-0.33750000000000013,0.03511111111111109,-1.017,67.081,0.012700000000000001,-0.22917500000000002,-0.5479999999999992,100.0,1.0,1.0,207.13666666666666,0.0,0.0,0.0,0.0,0.0,0.0,0.0,8779.7,0.0,55.0,5.0,241.46,1.0,0.0,0.0,0.0,0.0,0.0,1.0,0.0,0.5549999999999997,0.5549999999999997,0.0,0.0,1.0,55.0,616.79921,10000.0,85.000001,85.000001,85.000001,85.000001,395.0,0.0,0.0,0.0,1.0,166.665,52.933,52.933,48.828,48.828,34.0,-22.875,25.064,-24.689999999999998,26.7725,0.0,1782.937,-0.5700000000000003,100.0,27.31,27.572,42.662,43.051,0.0,1.0,100.0,0.0,0.0,0.0,0.0,3088.4285714285716,3070.5,3730.375,3854.6000000000004,305.571,304.8985,315.80725,315.181,21.887,20.5697,21.8569,21.377299999999998,314.999998,314.999998,324.999988,324.999988,99.55914285714286,99.50738333333334,99.56572857142856,99.54552857142858,0.09975000000000023,-0.03225,-0.10483333333333333,0.13383333333333333,-0.03999999999999915,-0.04833333333333201,1.6233333333333333,1.5935000000000001,37.793,29.560666666666666,37.605000000000004,34.608000000000004,56.172,34.9105,59.177,51.888,54.091,34.038,57.786500000000004,50.236000000000004,53.248,33.573,57.7215,49.65133333333333,-0.12199999999999989,-0.03299999999999992,0.109725,0.11391500000000002,0.0,210.035,210.075,207.13666666666666,207.13666666666666,0.0,0.0
12,0.0,1.0,0.0,1.0,1.0,0.0,0.0,1.0,0.0,100.0,1.0,1.1856,26.0,0.0,0.0,0.0,59.999996,0.0,26.0,26.0,26.0,26.0,0.0407777777777778,0.2925,0.007925,292.862,-2.7653,-2.6786666666666665,-1.5594999999999999,-1.5274,-235.96,216.0625,190.748125,0.0,0.0,0.0,0.0,0.025466666666666526,-5.498166666666667,-5.498166666666667,-0.5408000000000001,0.247,0.018000000000000016,-1.1640000000000001,67.217,0.028800000000000003,-0.19990000000000002,-0.6459999999999999,100.0,1.0,1.0,207.35666666666668,0.0,0.0,0.0,0.0,0.0,0.0,0.0,8789.1,0.0,55.0,5.0,241.95,0.0,0.0,0.0,0.0,0.0,0.0,1.0,0.0,0.602999999999998,0.602999999999998,0.0,0.0,0.0,55.0,616.79921,10000.0,85.000001,85.000001,85.000001,85.000001,395.0,0.0,0.0,0.0,1.0,333.33500000000004,52.917,52.917,47.668,47.668,34.0,-23.525,25.240000000000002,-27.676666666666666,29.837500000000002,0.0,1782.887,-0.4349999999999987,100.0,27.237000000000002,27.713,42.531,42.908,0.0,1.0,100.0,0.0,0.0,0.0,0.0,3123.0,3077.1,4211.75,4124.3,305.5005,304.90425,314.65725,314.55025,21.8959,20.5749,21.8666,21.3857,314.999998,314.999998,324.999988,324.999988,99.55915714285715,99.50738333333334,99.56587142857143,99.54567142857142,0.10150000000000015,-0.028749999999999942,-0.08183333333333333,0.14350000000000002,-0.051666666666669414,-0.04833333333333201,1.549,1.521,37.849000000000004,29.593,37.666,34.6605,56.16,34.946,59.213,51.9465,54.079,34.070499999999996,57.82,50.292,53.235,33.6045,57.751999999999995,49.70633333333333,-0.11149999999999993,-0.0405000000000002,0.10685000000000001,0.10618000000000001,0.0,210.49,210.53,207.35666666666668,207.35666666666668,0.0,0.0
13,0.0,1.0,0.0,1.0,1.0,0.0,0.0,1.0,0.0,100.0,1.0,1.1856,26.0,0.0,0.0,0.0,59.999996,0.0,26.0,26.0,26.0,26.0,0.07622222222222219,0.2885,0.053575000000000005,292.358,-2.7377,-2.671666666666667,-1.6274000000000002,-1.512,-232.32,216.035,190.725,0.0,0.0,0.0,0.0,0.026799999999999935,-5.498166666666667,-5.498166666666667,-0.5319,-0.007500000000000062,0.020777777777777784,-0.488,67.368,0.037700000000000004,-0.204075,-0.7979999999999992,100.0,1.0,1.0,207.74666666666667,0.0,0.0,0.0,0.0,0.0,0.0,0.0,8805.6,0.0,55.0,5.0,242.49666666666667,1.0,0.0,0.0,0.0,0.0,0.0,1.0,0.0,0.657,0.657,0.0,0.0,1.0,55.0,616.79921,10000.0,85.000001,85.000001,85.000001,85.000001,395.0,0.0,0.0,0.0,1.0,166.665,52.505,52.505,47.516,47.516,34.0,-21.775,26.602,-28.263333333333335,31.6375,0.0,1782.835,-0.875,100.0,27.637,27.905,42.8,43.426,0.0,1.0,100.0,0.0,0.0,0.0,0.0,3155.4285714285716,3080.3,4237.25,4287.6,305.3695,304.88025,314.588,314.14525,21.9061,20.5807,21.8776,21.3954,314.999998,314.999998,324.999988,324.999988,99.55917142857143,99.50738333333334,99.56601428571429,99.54582857142857,0.14274999999999993,0.0044999999999999485,-0.06833333333333333,0.1515,-0.041666666666671404,-0.06499999999999773,1.5223333333333333,1.4915,37.913,29.629333333333335,37.735,34.721000000000004,56.15,34.986,59.254999999999995,52.0155,54.069,34.108000000000004,57.859,50.358000000000004,53.224000000000004,33.64,57.788,49.77133333333333,-0.1459999999999999,-0.010499999999999954,0.10255,0.10818000000000001,0.0,210.94,211.005,207.74666666666667,207.74666666666667,0.0,0.0
14,0.0,1.0,0.0,1.0,1.0,0.0,0.0,1.0,0.0,100.0,1.0,1.1856,26.0,0.0,0.0,0.0,59.999996,0.0,26.0,26.0,26.0,26.0,0.10255555555555573,0.2762,-0.033075,292.572,-2.7377,-2.615222222222222,-1.6054,-1.5146000000000002,-228.88,216.0125,190.70375,0.0,0.0,0.0,0.0,0.028799999999999937,-5.498166666666667,-5.498166666666667,-0.5416000000000001,-0.18700000000000006,0.056111111111111,1.588,67.508,0.0516,-0.21887500000000001,-1.1020000000000003,100.0,1.0,1.0,208.26666666666665,0.0,0.0,0.0,0.0,0.0,0.0,0.0,8827.6,0.0,55.0,5.0,242.99666666666667,0.0,0.0,0.0,0.0,0.0,0.0,1.0,0.0,0.7079999999999984,0.7079999999999984,0.0,0.0,0.0,55.0,616.79921,10000.0,85.000001,85.000001,85.000001,85.000001,395.0,0.0,0.0,0.0,1.0,166.665,52.597,52.597,47.714,47.714,34.0,-19.5425,28.726,-24.09,32.57,0.0,1782.784,-0.9400000000000013,100.0,27.725,27.88,42.927,43.591,0.0,1.0,100.0,0.0,0.0,0.0,0.0,2918.142857142857,3266.7,3924.75,4244.1,305.8805,304.50525,315.18875,314.3795,21.9156,20.586199999999998,21.887999999999998,21.4045,314.999998,314.999998,324.999988,324.999988,99.55918571428572,99.5074,99.56615714285714,99.54597142857143,0.15600000000000014,0.029249999999999998,-0.04,0.1825,-0.045000000000001705,-0.041666666666671404,1.5693333333333332,1.522,37.973,29.664,37.8,34.778,56.138999999999996,35.024,59.292500000000004,52.079499999999996,54.059,34.143,57.894,50.4195,53.213,33.674,57.8195,49.83166666666666,-0.1499999999999999,-0.0009999999999998899,0.10485000000000001,0.10333,0.0,211.365,211.41500000000002,208.26666666666665,208.26666666666665,0.0,0.0
15,0.0,1.0,0.0,1.0,1.0,0.0,0.0,1.0,0.0,100.0,1.0,1.1856,26.0,0.0,0.0,0.0,59.999996,0.0,26.0,26.0,26.0,26.0,0.10499999999999998,0.28180000000000005,0.015675,292.557,-2.7143,-2.568,-1.637,-1.457,-225.84,215.995,190.684625,0.0,0.0,0.0,0.0,0.03056666666666652,-5.498166666666667,-5.498166666666667,-0.5359,0.2935,0.08144444444444421,-0.399,67.631,0.06770000000000001,-0.20515,-1.1660000000000004,100.0,1.0,1.0,208.64333333333332,0.0,0.0,0.0,0.0,0.0,0.0,0.0,8843.6,0.0,55.0,5.0,243.44333333333333,1.0,0.0,0.0,0.0,0.0,0.0,1.0,0.0,0.7530000000000001,0.7530000000000001,0.0,0.0,1.0,55.0,616.79921,10000.0,85.000001,85.000001,85.000001,85.000001,395.0,0.0,0.0,0.0,1.0,166.665,52.643,52.643,47.836,47.836,34.0,-19.189999999999998,26.958,-25.439999999999998,32.105000000000004,0.0,1782.738,-0.9050000000000011,100.0,27.642,28.197,42.532,43.792,0.0,1.0,100.0,0.0,0.0,0.0,0.0,2944.142857142857,3128.4,4021.375,4279.2,305.9655,304.74175,315.13525,314.20375,21.924,20.5911,21.897100000000002,21.4125,314.999998,314.999998,324.999988,324.999988,99.5592,99.5074,99.56628571428571,99.5461,0.16025,0.024250000000000105,-0.04783333333333334,0.17933333333333334,-0.060000000000002274,-0.060000000000002274,1.562,1.5150000000000001,38.025,29.694666666666667,37.857,34.828,56.131,35.0585,59.325,52.1355,54.05,34.175,57.9235,50.4735,53.203,33.704499999999996,57.8465,49.885,-0.14949999999999997,-0.009500000000000064,0.10808500000000001,0.10583000000000001,0.0,211.755,211.82999999999998,208.64333333333332,208.64333333333332,0.0,0.0
16,0.0,1.0,0.0,1.0,1.0,0.0,0.0,1.0,0.0,100.0,1.0,1.1856,26.0,0.0,0.0,0.0,59.999996,0.0,26.0,26.0,26.0,26.0,0.13577777777777778,0.26780000000000004,-0.038,292.664,-2.8111,-2.6055555555555556,-1.6122,-1.4532,-222.39,215.975,190.662625,0.0,0.0,0.0,0.0,0.03256666666666652,-5.498166666666667,-5.498166666666667,-0.5503,-0.6380000000000001,0.07688888888888878,0.6519999999999999,67.771,0.0813,-0.215875,-1.2599999999999998,100.0,1.0,1.0,209.06,0.0,0.0,0.0,0.0,0.0,0.0,0.0,8861.4,0.0,55.0,5.0,243.95,0.0,0.0,0.0,0.0,0.0,0.0,1.0,0.0,0.8039999999999985,0.8039999999999985,0.0,0.0,0.0,55.0,616.79921,10000.0,85.000001,85.000001,85.000001,85.000001,395.0,0.0,0.0,0.0,1.0,166.665,52.856,52.856,47.379,47.379,34.0,-19.037499999999998,29.436,-22.976666666666663,33.5925,0.0,1782.687,-0.8449999999999989,100.0,27.194,28.003,42.957,43.762,0.0,1.0,100.0,0.0,0.0,0.0,0.0,2889.142857142857,3278.3,3896.125,4235.2,306.078,304.45925,315.2805,314.40975,21.9333,20.5968,21.9075,21.421599999999998,314.999998,314.999998,324.999988,324.999988,99.55922857142858,99.5074,99.56642857142857,99.54624285714286,0.17600000000000016,0.04475000000000007,-0.019,0.21816666666666668,-0.05333333333332746,-0.03999999999999915,1.5523333333333333,1.5005000000000002,38.083,29.729666666666667,37.922,34.885,56.117999999999995,35.098,59.3635,52.1995,54.038,34.2115,57.9595,50.5355,53.19,33.74,57.879,49.94566666666667,-0.1399999999999999,-0.009500000000000064,0.10981,0.11004000000000001,0.0,212.16500000000002,212.24,209.06,209.06,0.0,0.0
17,0.0,1.0,0.0,1.0,1.0,0.0,0.0,1.0,0.0,100.0,1.0,1.1856,26.0,0.0,0.0,0.0,59.999996,0.0,26.0,26.0,26.0,26.0,0.1206666666666667,0.2843,-0.042725,292.511,-2.7708,-2.5616666666666665,-1.6458,-1.4773,-218.93,215.96,190.64025,0.0,0.0,0.0,0.0,0.034599999999999964,-5.498166666666667,-5.498166666666667,-0.5439,0.4375,0.047666666666666746,-1.201,67.91,0.0824,-0.19905,-1.0779999999999994,100.0,1.0,1.0,209.48000000000002,0.0,0.0,0.0,0.0,0.0,0.0,0.0,8879.1,0.0,55.0,5.0,244.44666666666666,1.0,0.0,0.0,0.0,0.0,0.0,1.0,0.0,0.8550000000000004,0.8550000000000004,0.0,0.0,1.0,55.0,616.79921,10000.0,85.000001,85.000001,85.000001,85.000001,395.0,0.0,0.0,0.0,1.0,166.665,52.643,52.643,47.699,47.699,34.0,-20.2275,26.742,-25.73,32.2325,0.0,1782.636,-0.9100000000000001,100.0,27.549,28.325,42.44,43.802,0.0,1.0,100.0,0.0,0.0,0.0,0.0,3070.857142857143,3044.7,4203.25,4171.9,305.703,305.0295,314.752,314.47725,21.9428,20.6025,21.9178,21.4306,314.999998,314.999998,324.999988,324.999988,99.55925714285715,99.5074,99.56657142857142,99.5464,0.16825,0.04200000000000004,-0.025833333333333333,0.19616666666666666,-0.05333333333332746,-0.045000000000001705,1.5643333333333334,1.524,38.141999999999996,29.765333333333334,37.986000000000004,34.9415,56.108999999999995,35.138999999999996,59.399,52.263,54.03,34.2495,57.9925,50.5965,53.18,33.7765,57.909,50.00566666666667,-0.14749999999999996,-0.008000000000000007,0.107825,0.107575,0.0,212.615,212.70499999999998,209.48000000000002,209.48000000000002,0.0,0.0
18,0.0,1.0,0.0,1.0,1.0,0.0,0.0,1.0,0.0,100.0,1.0,1.1856,26.0,0.0,0.0,0.0,59.999996,0.0,26.0,26.0,26.0,26.0,0.1367777777777779,0.27470000000000017,-0.0244,292.328,-2.7945,-2.541777777777778,-1.6599,-1.4268,-215.45999999999998,215.95,190.61775,0.0,0.0,0.0,0.0,0.036599999999999966,-5.498166666666667,-5.498166666666667,-0.553,-0.46599999999999997,0.07433333333333314,1.573,68.049,0.0816,-0.21335,-1.2699999999999996,100.0,1.0,1.0,209.90666666666667,0.0,0.0,0.0,0.0,0.0,0.0,0.0,8897.2,0.0,55.0,5.0,244.94666666666666,0.0,0.0,0.0,0.0,0.0,0.0,1.0,0.0,0.9059999999999988,0.9059999999999988,0.0,0.0,0.0,55.0,616.79921,10000.0,85.000001,85.000001,85.000001,85.000001,395.0,0.0,0.0,0.0,1.0,166.665,52.429,52.429,47.379,47.379,34.0,-18.455,30.69,-24.123333333333335,33.4675,0.0,1782.584,-1.254999999999999,100.0,27.544,28.059,42.989000000000004,44.04,0.0,1.0,100.0,0.0,0.0,0.0,0.0,2980.285714285714,3372.1,3972.625,4266.4,305.801,304.25875,315.1405,314.37775,21.9522,20.6081,21.9282,21.439799999999998,314.999998,314.999998,324.999988,324.999988,99.55927142857144,99.50741666666667,99.56671428571428,99.54654285714285,0.20274999999999999,0.06750000000000012,-0.01916666666666667,0.21933333333333335,-0.03833333333332689,-0.046666666666666856,1.556,1.5135,38.201,29.800333333333334,38.051,34.999,56.099999999999994,35.1795,59.438,52.328,54.019999999999996,34.287,58.0285,50.659,53.17,33.8125,57.942,50.067,-0.17300000000000004,0.016999999999999904,0.10959500000000001,0.11117,0.0,213.01999999999998,213.07,209.90666666666667,209.90666666666667,0.0,0.0
19,0.0,1.0,0.0,1.0,1.0,0.0,0.0,1.0,0.0,100.0,1.0,1.1856,26.0,0.0,0.0,0.0,59.999996,0.0,26.0,26.0,26.0,26.0,0.1563333333333332,0.29110000000000014,0.00965,291.855,-2.7692,-2.5244444444444443,-1.6799,-1.4058000000000002,-212.19,215.9425,190.596375,0.0,0.0,0.0,0.0,0.03849999999999998,-5.498166666666667,-5.498166666666667,-0.5467000000000001,0.7424999999999999,0.08922222222222209,1.153,68.178,0.08850000000000001,-0.2044,-1.6179999999999994,100.0,1.0,1.0,210.29666666666668,0.0,0.0,0.0,0.0,0.0,0.0,0.0,8913.7,0.0,55.0,5.0,245.41,1.0,0.0,0.0,0.0,0.0,0.0,1.0,0.0,0.9540000000000006,0.9540000000000006,0.0,0.0,1.0,55.0,616.79921,10000.0,85.000001,85.000001,85.000001,85.000001,395.0,0.0,0.0,0.0,1.0,166.665,51.635999999999996,51.635999999999996,47.333,47.333,34.0,-17.805,31.772,-23.963333333333335,35.2725,0.0,1782.538,-1.5199999999999996,100.0,28.103,28.664,42.701,44.07,0.0,1.0,100.0,0.0,0.0,0.0,0.0,3028.0,3411.8,4060.875,4435.0,305.5645,304.03625,314.99475,314.018,21.961100000000002,20.613599999999998,21.9379,21.4484,314.999998,314.999998,324.999988,324.999988,99.55928571428572,99.50743333333334,99.56684285714286,99.54668571428572,0.2217500000000001,0.08250000000000002,-0.0003333333333333333,0.2295,-0.041666666666671404,-0.06666666666666998,1.5626666666666669,1.51,38.257,29.835,38.111999999999995,35.0525,56.094,35.221000000000004,59.4715,52.3885,54.013999999999996,34.3255,58.0595,50.7175,53.162,33.8495,57.97,50.12466666666667,-0.19700000000000006,0.03299999999999992,0.110865,0.10756,0.0,213.435,213.55,210.29666666666668,210.29666666666668,0.0,0.0
20,0.0,1.0,0.0,1.0,1.0,0.0,0.0,1.0,0.0,100.0,1.0,1.1856,26.0,0.0,0.0,0.0,59.999996,0.0,26.0,26.0,26.0,26.0,0.18377777777777782,0.2802,-0.017625000000000002,292.053,-2.8295,-2.5774444444444446,-1.6151,-1.4073,-208.70999999999998,215.9375,190.574,0.0,0.0,0.0,0.0,0.04053333333333331,-5.498166666666667,-5.498166666666667,-0.5455,-0.9390000000000001,0.09444444444444433,-0.768,68.31700000000001,0.1043,-0.211675,-1.992,100.0,1.0,1.0,210.57999999999998,0.0,0.0,0.0,0.0,0.0,0.0,0.0,8925.7,0.0,55.0,5.0,245.91333333333336,0.0,0.0,0.0,0.0,0.0,0.0,0.0,0.0,1.004999999999999,1.004999999999999,0.0,0.0,0.0,55.0,616.79921,10000.0,85.000001,85.000001,85.000001,85.000001,395.0,0.0,0.0,0.0,1.0,166.665,52.826,52.826,46.356,46.356,34.0,-16.52,30.378,-23.483333333333334,35.86,0.0,1782.487,-1.7850000000000001,100.0,27.267,28.606,43.133,44.75,0.0,1.0,100.0,0.0,0.0,0.0,0.0,2851.285714285714,3158.6,4190.125,4405.3,306.3815,304.6545,314.64025,313.87575,21.9703,20.6193,21.9484,21.4578,314.999998,314.999998,324.999988,324.999988,99.55931428571428,99.50743333333334,99.567,99.54684285714286,0.23024999999999984,0.09875000000000012,0.013000000000000001,0.233,-0.03833333333332689,-0.03333333333333144,1.5086666666666668,1.447,38.315,29.870333333333335,38.178,35.111,56.084,35.263999999999996,59.5115,52.4555,54.004999999999995,34.3655,58.097,50.7825,53.152,33.888,58.004,50.18833333333333,-0.21699999999999986,0.05549999999999988,0.10237500000000001,0.105885,0.0,213.815,213.95,210.57999999999998,210.57999999999998,0.0,0.0
21,0.0,1.0,0.0,1.0,1.0,0.0,0.0,1.0,0.0,100.0,1.0,1.1856,26.0,0.0,0.0,0.0,59.999996,0.0,26.0,26.0,26.0,26.0,0.2148888888888889,0.2843,-0.07667500000000001,292.465,-2.7549,-2.6195555555555554,-1.6905999999999999,-1.4687000000000001,-205.43,215.94,190.5525,0.0,0.0,0.0,0.0,0.04243333333333332,-5.498166666666667,-5.498166666666667,-0.5718,0.37249999999999994,0.09033333333333315,-1.1750000000000003,68.441,0.1233,-0.21930000000000002,-2.2380000000000004,100.0,1.0,1.0,211.24333333333334,0.0,0.0,0.0,0.0,0.0,0.0,0.0,8953.9,0.0,55.0,5.0,246.36,1.0,0.0,0.0,0.0,0.0,0.0,0.0,0.0,1.0530000000000008,1.0530000000000008,0.0,0.0,1.0,55.0,616.79921,10000.0,85.000001,85.000001,85.000001,85.000001,395.0,0.0,0.0,0.0,1.0,333.33500000000004,52.246,52.246,48.019,48.019,34.0,-16.2625,31.406,-21.07,33.595,0.0,1782.437,-1.25,100.0,27.5,28.810000000000002,42.361000000000004,44.44,0.0,1.0,100.0,0.0,0.0,0.0,0.0,2993.4285714285716,3205.6,3894.375,4045.1000000000004,305.841,304.433,315.54175,314.7945,21.9791,20.6248,21.9579,21.4663,314.999998,314.999998,324.999988,324.999988,99.55934285714285,99.50745,99.56712857142857,99.54698571428571,0.2450000000000001,0.09949999999999992,0.028333333333333332,0.25466666666666665,-0.05333333333332746,-0.05333333333332746,1.6460000000000001,1.56,38.369,29.905,38.236999999999995,35.164500000000004,56.078,35.3075,59.542,52.5145,53.998999999999995,34.406,58.125,50.839,53.144999999999996,33.927,58.028999999999996,50.244,-0.20100000000000007,0.038000000000000034,0.11282,0.10593000000000001,0.0,214.20499999999998,214.385,211.24333333333334,211.24333333333334,0.0,0.0
22,0.0,1.0,0.0,1.0,1.0,0.0,0.0,1.0,0.0,100.0,1.0,1.1856,26.0,0.0,0.0,0.0,59.999996,0.0,26.0,26.0,26.0,26.0,0.19633333333333325,0.26970000000000005,0.018325,291.824,-2.7374,-2.6214444444444442,-1.6806,-1.5135,-201.94,215.9475,190.528625,0.0,0.0,0.0,0.0,0.04446666666666654,-5.498166666666667,-5.498166666666667,-0.5527000000000001,0.15700000000000003,0.09699999999999998,1.095,68.58,0.1413,-0.20017500000000002,-1.4420000000000002,100.0,1.0,1.0,211.45,0.0,0.0,0.0,0.0,0.0,0.0,0.0,8962.6,0.0,55.0,5.0,246.86,0.0,0.0,0.0,0.0,0.0,0.0,0.0,0.0,1.1039999999999992,1.1039999999999992,0.0,0.0,0.0,55.0,616.79921,10000.0,85.000001,85.000001,85.000001,85.000001,395.0,0.0,0.0,0.0,1.0,333.33500000000004,52.078,52.078,46.814,46.814,34.0,-18.377499999999998,29.546,-22.12,38.735,0.0,1782.386,-0.054999999999999716,100.0,27.82,28.776,42.887,44.626999999999995,0.0,1.0,100.0,0.0,0.0,0.0,0.0,2834.5714285714284,3320.4,4076.25,4397.7,306.077,304.1975,314.9125,313.99775,21.9884,20.6306,21.9684,21.4756,314.999998,314.999998,324.999988,324.999988,99.55935714285714,99.50746666666667,99.56727142857143,99.54712857142857,0.17100000000000026,0.028750000000000053,0.0415,0.2655,-0.04999999999999716,-0.03999999999999915,1.5156666666666667,1.471,38.428,29.941333333333333,38.302,35.2225,56.069,35.3505,59.581,52.581,53.989999999999995,34.445499999999996,58.161,50.9035,53.134,33.965,58.062,50.307,-0.08749999999999991,-0.07100000000000017,0.11092500000000001,0.10741500000000001,0.0,214.66,214.76,211.45,211.45,0.0,0.0
23,0.0,1.0,0.0,1.0,1.0,0.0,0.0,1.0,0.0,100.0,1.0,1.1856,26.0,0.0,0.0,0.0,59.999996,0.0,26.0,26.0,26.0,26.0,0.11311111111111116,0.25849999999999995,-0.005725,291.84,-2.7493,-2.5906666666666665,-1.5861,-1.5502,-198.23000000000002,215.95749999999998,190.50375,0.0,0.0,0.0,0.0,0.046633333333333304,-5.498166666666667,-5.498166666666667,-0.5684,-0.24350000000000005,0.0694444444444442,0.371,68.72200000000001,0.11170000000000001,-0.222775,-0.05799999999999983,100.0,1.0,1.0,211.97333333333333,0.0,0.0,0.0,0.0,0.0,0.0,0.0,8984.8,0.0,55.0,5.0,247.37333333333333,1.0,0.0,0.0,0.0,0.0,0.0,0.0,0.0,1.1580000000000013,1.1580000000000013,0.0,0.0,1.0,55.0,616.79921,10000.0,85.000001,85.000001,85.000001,85.000001,395.0,0.0,0.0,0.0,1.0,166.665,51.650999999999996,51.650999999999996,47.668,47.668,34.0,-22.985,26.65,-21.896666666666665,33.1575,0.0,1782.334,0.8000000000000007,100.0,28.168,28.68,43.232,44.785,0.0,1.0,100.0,0.0,0.0,0.0,0.0,3123.5714285714284,3281.7,3861.0,4084.9,305.2725,304.4485,315.34725,314.72125,21.9983,20.6368,21.9794,21.4854,314.999998,314.999998,324.999988,324.999988,99.55938571428571,99.50746666666667,99.56742857142856,99.5473,0.11850000000000005,-0.018749999999999933,-0.006833333333333333,0.21333333333333335,-0.041666666666671404,-0.051666666666669414,1.5356666666666667,1.5390000000000001,38.489000000000004,29.979666666666667,38.370999999999995,35.283500000000004,56.057,35.393,59.6205,52.6505,53.977999999999994,34.485,58.1975,50.97,53.121,34.003,58.0945,50.373,-0.02499999999999991,-0.13600000000000012,0.10690000000000001,0.101525,0.0,215.135,215.135,211.97333333333333,211.97333333333333,0.0,0.0
24,0.0,1.0,0.0,1.0,1.0,0.0,0.0,1.0,0.0,100.0,1.0,1.1856,26.0,0.0,0.0,0.0,59.999996,0.0,26.0,26.0,26.0,26.0,0.019444444444444375,0.27900000000000014,-0.08245000000000001,292.099,-2.7355,-2.641222222222222,-1.6035,-1.5170000000000001,-195.13,215.97,190.48275,0.0,0.0,0.0,0.0,0.04843333333333333,-5.498166666666667,-5.498166666666667,-0.5703,-0.4525000000000001,0.04522222222222205,-1.2069999999999999,68.842,0.0626,-0.209875,0.8780000000000001,100.0,1.0,1.0,212.25666666666666,0.0,0.0,0.0,0.0,0.0,0.0,0.0,8996.7,0.0,55.0,5.0,247.80333333333334,0.0,0.0,0.0,0.0,0.0,0.0,0.0,0.0,1.2029999999999994,1.2029999999999994,0.0,0.0,0.0,55.0,616.79921,10000.0,85.000001,85.000001,85.000001,85.000001,395.0,0.0,0.0,0.0,1.0,166.665,52.811,52.811,46.661,46.661,34.0,-23.6175,21.772,-29.953333333333333,29.155,0.0,1782.288,1.0150000000000006,100.0,27.837,28.369,43.355000000000004,44.567,0.0,1.0,100.0,0.0,0.0,0.0,0.0,2974.5714285714284,2950.3,4399.5,4067.0,305.9375,305.297,314.27,314.71375,22.0065,20.6417,21.988599999999998,21.4934,314.999998,314.999998,324.999988,324.999988,99.5594,99.50748333333334,99.56755714285714,99.54742857142857,0.0625,-0.07924999999999993,-0.0795,0.14166666666666666,-0.03999999999999915,-0.041666666666671404,1.4923333333333333,1.528,38.541,30.010333333333335,38.429,35.334,56.043,35.427,59.653999999999996,52.705,53.965,34.5165,58.2285,51.022999999999996,53.107,34.033500000000004,58.123,50.42466666666667,-0.0024999999999999467,-0.15799999999999992,0.105605,0.102635,0.0,215.56,215.485,212.25666666666666,212.25666666666666,0.0,0.0
25,0.0,1.0,0.0,1.0,1.0,0.0,0.0,1.0,0.0,100.0,1.0,1.1856,26.0,0.0,0.0,0.0,59.999996,0.0,26.0,26.0,26.0,26.0,-0.03166666666666662,0.26150000000000007,-0.071325,292.313,-2.6901,-2.6754444444444445,-1.5865,-1.5496,-191.62,215.985,190.457625,0.0,0.0,0.0,0.0,0.05046666666666655,-5.498166666666667,-5.498166666666667,-0.6025,-0.11499999999999999,0.016666666666666607,-0.2410000000000001,68.974,-0.0034000000000000002,-0.21815,1.3580000000000005,100.0,1.0,1.0,212.81,0.0,0.0,0.0,0.0,0.0,0.0,0.0,9020.2,0.0,55.0,5.0,248.28,1.0,0.0,0.0,0.0,0.0,0.0,0.0,0.0,1.2540000000000013,1.2540000000000013,0.0,0.0,1.0,55.0,616.79921,10000.0,85.000001,85.000001,85.000001,85.000001,395.0,0.0,0.0,0.0,1.0,166.665,52.216,52.216,47.531,47.531,34.0,-26.044999999999998,22.86,-28.103333333333335,26.225,0.0,1782.236,1.0450000000000017,100.0,28.019,28.053,43.528999999999996,43.743,0.0,1.0,100.0,0.0,0.0,0.0,0.0,3087.714285714286,3227.1,3929.375,4005.1000000000004,305.4255,304.60275,315.26925,315.03925,22.0158,20.6473,21.999,21.5024,314.999998,314.999998,324.999988,324.999988,99.5594,99.50748333333334,99.5677,99.54757142857143,0.02574999999999994,-0.11124999999999996,-0.12566666666666668,0.09433333333333332,-0.051666666666669414,-0.04333333333332945,1.548,1.5935000000000001,38.599000000000004,30.045666666666666,38.494,35.39,56.025999999999996,35.4685,59.69,52.7645,53.949,34.555,58.262,51.08,53.09,34.07,58.1535,50.480333333333334,0.008999999999999897,-0.17149999999999999,0.10319500000000001,0.10443000000000001,0.0,215.97,215.875,212.81,212.81,0.0,0.0
26,0.0,1.0,0.0,1.0,1.0,0.0,0.0,1.0,0.0,100.0,1.0,1.1856,26.0,0.0,0.0,0.0,59.999996,0.0,26.0,26.0,26.0,26.0,-0.12544444444444447,0.2755000000000001,0.0945,291.031,-2.6717,-2.757111111111111,-1.5912000000000002,-1.5863,-187.89,215.9975,190.43025,0.0,0.0,0.0,0.0,0.05263333333333331,-5.498166666666667,-5.498166666666667,-0.5643,0.6865,-0.04911111111111133,0.07399999999999995,69.118,-0.061500000000000006,-0.185475,1.6180000000000003,100.0,1.0,1.0,212.99,0.0,0.0,0.0,0.0,0.0,0.0,0.0,9027.8,0.0,55.0,5.0,248.8,0.0,0.0,0.0,0.0,0.0,0.0,0.0,0.0,1.3079999999999998,1.3079999999999998,0.0,0.0,0.0,55.0,616.79921,10000.0,85.000001,85.000001,85.000001,85.000001,395.0,0.0,0.0,0.0,1.0,111.11,51.453,51.453,45.868,45.868,34.0,-28.4825,21.008,-38.230000000000004,27.185,0.0,1782.184,0.8399999999999999,100.0,29.257,28.423000000000002,44.366,43.723,0.0,1.0,100.0,0.0,0.0,0.0,0.0,3230.142857142857,3066.8,4613.75,4404.1,304.972,305.03675,313.69125,314.058,22.0261,20.6533,22.0102,21.5121,314.999998,314.999998,324.999988,324.999988,99.55941428571428,99.5075,99.56785714285714,99.54772857142858,-0.0007500000000000284,-0.14300000000000002,-0.18516666666666667,0.036000000000000004,-0.054999999999999716,-0.04833333333333201,1.417,1.484,38.663,30.083,38.564,35.4505,56.012,35.516,59.7345,52.829,53.935,34.5985,58.3035,51.141999999999996,53.075,34.112,58.1915,50.541,-0.010499999999999954,-0.14900000000000002,0.11097000000000001,0.10378000000000001,0.0,216.48000000000002,216.32999999999998,212.99,212.99,0.0,0.0
27,0.0,1.0,0.0,1.0,1.0,0.0,0.0,1.0,0.0,100.0,1.0,1.1856,26.0,0.0,0.0,0.0,59.999996,0.0,26.0,26.0,26.0,26.0,-0.15855555555555556,0.26470000000000016,-0.00485,291.29,-2.6214,-2.7432222222222222,-1.5655000000000001,-1.6758000000000002,-184.78,216.0075,190.4085,0.0,0.0,0.0,0.0,0.054433333333333334,-5.498166666666667,-5.498166666666667,-0.5882000000000001,-1.0605000000000002,-0.07022222222222219,-1.1909999999999998,69.235,-0.0891,-0.23290000000000002,1.6240000000000006,100.0,1.0,1.0,213.42000000000002,0.0,0.0,0.0,0.0,0.0,0.0,0.0,9046.1,0.0,55.0,5.0,249.22333333333336,1.0,0.0,0.0,0.0,0.0,0.0,0.0,0.0,1.352999999999998,1.352999999999998,0.0,0.0,1.0,55.0,616.79921,10000.0,85.000001,85.000001,85.000001,85.000001,395.0,0.0,0.0,0.0,1.0,166.665,51.697,51.697,46.249,46.249,34.0,-30.1375,18.86,-36.31666666666666,23.92,0.0,1782.138,0.7699999999999996,100.0,28.997,28.255,45.127,44.244,0.0,1.0,100.0,0.0,0.0,0.0,0.0,3331.0,2965.1,4311.625,3997.5,304.815,305.27425,314.41725,314.7845,22.0345,20.6581,22.0198,21.5203,314.999998,314.999998,324.999988,324.999988,99.55941428571428,99.50751666666666,99.568,99.54787142857143,-0.029749999999999943,-0.17425000000000002,-0.21783333333333335,0.0031666666666666666,-0.07666666666666799,-0.03166666666666629,1.469,1.5105,38.716,30.113,38.623000000000005,35.501999999999995,55.998000000000005,35.554,59.7735,52.8835,53.922,34.634,58.34,51.1945,53.062,34.1455,58.2255,50.592,-0.021499999999999853,-0.14449999999999985,0.10130000000000002,0.10771000000000001,0.0,216.8,216.635,213.42000000000002,213.42000000000002,0.0,0.0
28,0.0,1.0,0.0,1.0,1.0,0.0,0.0,1.0,0.0,100.0,1.0,1.1856,26.0,0.0,0.0,0.0,59.999996,0.0,26.0,26.0,26.0,26.0,-0.14088888888888884,0.2715000000000001,-0.0444,291.718,-2.6334,-2.741888888888889,-1.5068000000000001,-1.6419000000000001,-181.24,216.015,190.38325,0.0,0.0,0.0,0.0,0.056499999999999995,-5.498166666666667,-5.498166666666667,-0.5985,0.506,-0.07888888888888879,1.01,69.364,-0.1115,-0.21455000000000002,1.484,100.0,1.0,1.0,213.96,0.0,0.0,0.0,0.0,0.0,0.0,0.0,9069.0,0.0,55.0,5.0,249.68666666666667,0.0,0.0,0.0,0.0,0.0,0.0,0.0,0.0,1.404,1.404,0.0,0.0,0.0,55.0,616.79921,10000.0,85.000001,85.000001,85.000001,85.000001,395.0,0.0,0.0,0.0,1.0,166.665,51.697,51.697,47.226,47.226,34.0,-29.3975,19.216,-33.14666666666667,23.735,0.0,1782.086,0.5850000000000009,100.0,29.391,28.031,44.692,43.315,0.0,1.0,100.0,0.0,0.0,0.0,0.0,3266.142857142857,3008.3,4083.25,4093.4,304.881,305.34175,314.88075,314.849,22.0442,20.6636,22.0301,21.5292,314.999998,314.999998,324.999988,324.999988,99.55941428571428,99.50753333333333,99.56814285714286,99.548,-0.021499999999999853,-0.16849999999999998,-0.21783333333333335,0.006,-0.045000000000001705,-0.045000000000001705,1.5186666666666668,1.569,38.775999999999996,30.147333333333336,38.688,35.5575,55.985,35.598,59.8105,52.94,53.909,34.6745,58.375,51.2485,53.048,34.185,58.257,50.644666666666666,-0.03649999999999998,-0.13100000000000023,0.103535,0.11503000000000001,0.0,217.215,217.09,213.96,213.96,0.0,0.0
29,0.0,1.0,0.0,1.0,1.0,0.0,0.0,1.0,0.0,100.0,1.0,1.1856,26.0,0.0,0.0,0.0,59.999996,0.0,26.0,26.0,26.0,26.0,-0.1531111111111111,0.2579,0.037700000000000004,291.306,-2.5684,-2.804111111111111,-1.5352000000000001,-1.6287,-177.49,216.01749999999998,190.355375,0.0,0.0,0.0,0.0,0.058666666666666534,-5.498166666666667,-5.498166666666667,-0.6015,-0.5955000000000001,-0.08422222222222242,0.829,69.506,-0.11320000000000001,-0.21152500000000002,1.1300000000000008,100.0,1.0,1.0,214.24,0.0,0.0,0.0,0.0,0.0,0.0,0.0,9080.8,0.0,55.0,5.0,250.19666666666666,1.0,0.0,0.0,0.0,0.0,0.0,0.0,0.0,1.4579999999999984,1.4579999999999984,0.0,0.0,1.0,55.0,616.79921,10000.0,85.000001,85.000001,85.000001,85.000001,395.0,0.0,0.0,0.0,1.0,166.665,51.650999999999996,51.650999999999996,46.265,46.265,34.0,-29.5975,20.434,-36.056666666666665,24.41,0.0,1782.033,0.45500000000000185,100.0,29.065,27.806,45.188,43.489000000000004,0.0,1.0,100.0,0.0,0.0,0.0,0.0,3327.285714285714,3081.7,4252.5,4200.7,304.6915,304.96925,314.418,314.5085,22.0542,20.6693,22.0413,21.538899999999998,314.999998,314.999998,324.999988,324.999988,99.55941428571428,99.50756666666666,99.56831428571428,99.54815714285715,-0.025249999999999995,-0.16974999999999996,-0.22683333333333336,0.002,-0.045000000000001705,-0.03999999999999915,1.461,1.5095,38.839,30.183,38.757999999999996,35.6185,55.969,35.6435,59.8565,53.0045,53.894,34.716499999999996,58.418,51.31,53.032,34.225,58.2965,50.70466666666667,-0.04600000000000004,-0.11649999999999983,0.10795,0.10924,0.0,217.62,217.505,214.24,214.24,0.0,0.0
30,0.0,1.0,0.0,1.0,1.0,0.0,0.0,1.0,0.0,100.0,1.0,1.1856,26.0,0.0,0.0,0.0,59.999996,0.0,26.0,26.0,26.0,26.0,-0.1423333333333333,0.26839999999999997,0.06445000000000001,290.878,-2.6228,-2.693777777777778,-1.4735,-1.7044000000000001,-174.14999999999998,216.015,190.330375,0.0,0.0,0.0,0.0,0.06063333333333332,-5.498166666666667,-5.498166666666667,-0.5966,0.6605,-0.08777777777777773,1.036,69.628,-0.10550000000000001,-0.20935,1.016,100.0,1.0,1.0,214.62666666666667,0.0,0.0,0.0,0.0,0.0,0.0,0.0,9097.3,0.0,55.0,5.0,250.63666666666666,0.0,0.0,0.0,0.0,0.0,0.0,1.0,0.0,1.5060000000000002,1.5060000000000002,0.0,0.0,0.0,55.0,616.79921,10000.0,85.000001,85.000001,85.000001,85.000001,395.0,0.0,0.0,0.0,1.0,166.665,50.903,50.903,46.478,46.478,34.0,-30.322499999999998,19.676,-35.34,25.7425,0.0,1781.984,0.3099999999999987,100.0,29.956,28.451,45.056,43.51,0.0,1.0,100.0,0.0,0.0,0.0,0.0,3430.0,3038.9,4329.5,4248.0,304.3765,305.189,314.30275,314.3195,22.0634,20.674599999999998,22.0512,21.5475,314.999998,314.999998,324.999988,324.999988,99.55942857142857,99.50758333333333,99.56845714285714,99.5483,-0.005749999999999922,-0.15425,-0.21616666666666667,-0.0018333333333333333,-0.04333333333332945,-0.061666666666667425,1.4526666666666668,1.5075,38.896,30.21633333333333,38.82,35.672,55.958,35.6865,59.8935,53.06,53.884,34.756,58.453,51.3635,53.022,34.2625,58.329,50.75666666666667,-0.06299999999999994,-0.10749999999999993,0.10994500000000001,0.10770500000000001,0.0,218.025,217.94,214.62666666666667,214.62666666666667,0.0,0.0
31,0.0,1.0,0.0,1.0,1.0,0.0,0.0,1.0,0.0,100.0,1.0,1.1856,26.0,0.0,0.0,0.0,59.999996,0.0,26.0,26.0,26.0,26.0,-0.12588888888888894,0.24550000000000005,0.0275,290.863,-2.6226,-2.765,-1.5676,-1.6718000000000002,-170.81,216.01,190.306125,0.0,0.0,0.0,0.0,0.06256666666666655,-5.498166666666667,-5.498166666666667,-0.5854,-0.5405,-0.07188888888888867,1.044,69.752,-0.0908,-0.21450000000000002,0.6320000000000006,100.0,1.0,1.0,214.93,0.0,0.0,0.0,0.0,0.0,0.0,0.0,9110.2,0.0,55.0,5.0,251.08333333333334,1.0,0.0,0.0,0.0,0.0,0.0,1.0,0.0,1.5539999999999985,1.5539999999999985,0.0,0.0,1.0,55.0,616.79921,10000.0,85.000001,85.000001,85.000001,85.000001,395.0,0.0,0.0,0.0,1.0,166.665,51.483000000000004,51.483000000000004,45.197,45.197,34.0,-26.47,21.222,-36.64,27.6025,0.0,1781.937,0.21499999999999986,100.0,29.545,28.55,45.569,44.046,0.0,1.0,100.0,0.0,0.0,0.0,0.0,3114.285714285714,3080.7,4421.5,4287.6,305.333,305.029,314.06675,314.386,22.0723,20.6799,22.0613,21.5563,314.999998,314.999998,324.999988,324.999988,99.55942857142857,99.5076,99.5686,99.54844285714286,0.008999999999999897,-0.14200000000000002,-0.19683333333333336,0.035333333333333335,-0.036666666666668846,-0.04999999999999716,1.4436666666666669,1.461,38.952,30.249333333333333,38.882999999999996,35.727000000000004,55.944,35.728,59.9355,53.1185,53.870999999999995,34.7945,58.492,51.4195,53.007,34.2995,58.365,50.81133333333334,-0.07200000000000006,-0.10199999999999987,0.10801500000000001,0.10944000000000001,0.0,218.36,218.305,214.93,214.93,0.0,0.0
32,0.0,1.0,0.0,1.0,1.0,0.0,0.0,1.0,0.0,100.0,1.0,1.1856,26.0,0.0,0.0,0.0,59.999996,0.0,26.0,26.0,26.0,26.0,-0.11199999999999999,0.256,-0.056,291.183,-2.6484,-2.7056666666666667,-1.5932,-1.5784,-167.04,216.0025,190.279,0.0,0.0,0.0,0.0,0.06476666666666653,-5.498166666666667,-5.498166666666667,-0.6064,0.15749999999999997,-0.09322222222222232,0.5780000000000001,69.887,-0.0779,-0.225825,0.6220000000000008,100.0,1.0,1.0,215.50333333333333,0.0,0.0,0.0,0.0,0.0,0.0,0.0,9134.3,0.0,55.0,5.0,251.56666666666666,0.0,0.0,0.0,0.0,0.0,0.0,1.0,0.0,1.6080000000000005,1.6080000000000005,0.0,0.0,0.0,55.0,616.79921,10000.0,85.000001,85.000001,85.000001,85.000001,395.0,0.0,0.0,0.0,1.0,166.665,51.163,51.163,46.524,46.524,34.0,-28.127499999999998,21.708,-33.34,25.512500000000003,0.0,1781.883,0.08999999999999986,100.0,29.59,28.585,45.032,43.825,0.0,1.0,100.0,0.0,0.0,0.0,0.0,3301.5714285714284,3105.8,4196.125,4178.7,304.805,305.03475,314.71075,314.725,22.0824,20.6859,22.072400000000002,21.566,314.999998,314.999998,324.999988,324.999988,99.55942857142857,99.50761666666666,99.56875714285714,99.5486,0.0182500000000001,-0.12075000000000002,-0.17966666666666667,0.045,-0.046666666666666856,-0.054999999999999716,1.524,1.553,39.015,30.286666666666665,38.952,35.7875,55.928,35.7745,59.9755,53.18,53.855999999999995,34.8375,58.5295,51.4785,52.992000000000004,34.3405,58.3995,50.869,-0.07650000000000001,-0.09200000000000008,0.10833000000000001,0.112615,0.0,218.78,218.745,215.50333333333333,215.50333333333333,0.0,0.0
33,0.0,1.0,0.0,1.0,1.0,0.0,0.0,1.0,0.0,100.0,1.0,1.1856,26.0,0.0,0.0,0.0,59.999996,0.0,26.0,26.0,26.0,26.0,-0.08811111111111103,0.26639999999999997,-0.038925,291.29,-2.6412,-2.7622222222222224,-1.5545,-1.5961,-163.68,215.9925,190.253875,0.0,0.0,0.0,0.0,0.06669999999999998,-5.498166666666667,-5.498166666666667,-0.6069,-0.28,-0.08700000000000019,1.6880000000000002,70.01,-0.06620000000000001,-0.21085,0.41799999999999926,100.0,1.0,1.0,215.78,0.0,0.0,0.0,0.0,0.0,0.0,0.0,9146.1,0.0,55.0,5.0,252.01,1.0,0.0,0.0,0.0,0.0,0.0,1.0,0.0,1.6559999999999988,1.6559999999999988,0.0,0.0,1.0,55.0,616.79921,10000.0,85.000001,85.000001,85.000001,85.000001,395.0,0.0,0.0,0.0,1.0,166.665,51.879999999999995,51.879999999999995,46.188,46.188,34.0,-26.025,22.022,-33.56,27.3325,0.0,1781.836,-0.00999999999999801,100.0,29.296,28.154,45.079,43.915,0.0,1.0,100.0,0.0,0.0,0.0,0.0,3150.857142857143,3023.7,4297.5,4282.9,305.286,305.2885,314.401,314.37075,22.0913,20.691,22.0823,21.5747,314.999998,314.999998,324.999988,324.999988,99.55944285714286,99.50763333333333,99.56891428571429,99.54874285714286,0.03000000000000025,-0.10924999999999996,-0.16916666666666666,0.052833333333333336,-0.046666666666666856,-0.061666666666667425,1.4776666666666667,1.4929999999999999,39.071,30.319,39.013999999999996,35.842,55.914,35.812,60.013,53.236000000000004,53.843,34.872,58.565,51.5325,52.977999999999994,34.3735,58.4315,50.92133333333334,-0.08599999999999985,-0.07699999999999996,0.10356000000000001,0.10628000000000001,0.0,219.16500000000002,219.115,215.78,215.78,0.0,0.0
34,0.0,1.0,0.0,1.0,1.0,0.0,0.0,1.0,0.0,100.0,1.0,1.1856,26.0,0.0,0.0,0.0,59.999996,0.0,26.0,26.0,26.0,26.0,-0.07111111111111101,0.25570000000000004,-0.08535000000000001,291.656,-2.7156000000000002,-2.713111111111111,-1.5952000000000002,-1.6134000000000002,-160.32,215.98000000000002,190.22775,0.0,0.0,0.0,0.0,0.06866666666666654,-5.498166666666667,-5.498166666666667,-0.6337,-0.804,-0.05011111111111122,1.667,70.131,-0.0534,-0.21675,0.3100000000000005,100.0,1.0,1.0,216.2,0.0,0.0,0.0,0.0,0.0,0.0,0.0,9163.9,0.0,55.0,5.0,252.44333333333333,0.0,0.0,0.0,0.0,0.0,0.0,1.0,0.0,1.7040000000000006,1.7040000000000006,0.0,0.0,0.0,55.0,616.79921,10000.0,85.000001,85.000001,85.000001,85.000001,395.0,0.0,0.0,0.0,1.0,111.11,52.17,52.17,47.119,47.119,34.0,-26.2725,22.23,-30.756666666666668,28.017500000000002,0.0,1781.788,-0.03999999999999915,100.0,28.883,27.818,44.831,44.04,0.0,1.0,100.0,0.0,0.0,0.0,0.0,3155.4285714285716,3035.7,4024.125,4222.5,305.2055,305.34275,315.0505,314.471,22.1001,20.6962,22.0921,21.5834,314.999998,314.999998,324.999988,324.999988,99.55944285714286,99.50765,99.56905714285715,99.54887142857143,0.04349999999999987,-0.09375,-0.15633333333333335,0.07083333333333333,-0.04999999999999716,-0.04333333333332945,1.5146666666666668,1.5265,39.126000000000005,30.351,39.075,35.896,55.899,35.8485,60.0475,53.292500000000004,53.829,34.906,58.597,51.587,52.963,34.406,58.461,50.974000000000004,-0.08549999999999991,-0.07650000000000023,0.09887000000000001,0.11151000000000001,0.0,219.505,219.45,216.2,216.2,0.0,0.0
35,0.0,1.0,0.0,1.0,1.0,0.0,0.0,1.0,0.0,100.0,1.0,1.1856,26.0,0.0,0.0,0.0,59.999996,0.0,26.0,26.0,26.0,26.0,-0.07522222222222219,0.25570000000000004,-0.054950000000000006,291.794,-2.735,-2.668222222222222,-1.5714000000000001,-1.6152,-156.74,215.965,190.198,0.0,0.0,0.0,0.0,0.07073333333333331,-5.498166666666667,-5.498166666666667,-0.6757000000000001,-0.514,-0.05211111111111144,-1.3250000000000002,70.258,-0.0383,-0.22205,0.23799999999999955,100.0,1.0,1.0,216.65333333333334,0.0,0.0,0.0,0.0,0.0,0.0,0.0,9183.2,0.0,55.0,5.0,252.90333333333334,1.0,0.0,0.0,0.0,0.0,0.0,1.0,0.0,1.754999999999999,1.754999999999999,0.0,0.0,1.0,55.0,616.79921,10000.0,85.000001,85.000001,85.000001,85.000001,395.0,0.0,0.0,0.0,1.0,166.665,52.002,52.002,46.631,46.631,34.0,-27.505,23.646,-30.91333333333333,25.7875,0.0,1781.737,-0.06500000000000128,100.0,28.174,28.242,44.313,43.807,0.0,1.0,100.0,0.0,0.0,0.0,0.0,3301.142857142857,3195.2,4133.0,3921.0,305.1205,304.6025,314.847,315.0895,22.1093,20.7018,22.1024,21.5925,314.999998,314.999998,324.999988,324.999988,99.55944285714286,99.50766666666667,99.5692,99.54902857142856,0.04150000000000009,-0.08950000000000002,-0.15016666666666667,0.0725,-0.061666666666667425,-0.036666666666668846,1.544,1.5485,39.183,30.386333333333333,39.14,35.953,55.882,35.8885,60.0835,53.3495,53.812,34.943,58.6305,51.6415,52.946,34.4415,58.4915,51.02733333333333,-0.08450000000000002,-0.07450000000000001,0.10755500000000001,0.10482000000000001,0.0,219.9,219.85500000000002,216.65333333333334,216.65333333333334,0.0,0.0
36,0.0,1.0,0.0,1.0,1.0,0.0,0.0,1.0,0.0,100.0,1.0,1.1856,26.0,0.0,0.0,0.0,59.999996,0.0,26.0,26.0,26.0,26.0,-0.05644444444444441,0.27100000000000013,0.0509,290.833,-2.7285,-2.651666666666667,-1.537,-1.6099,-153.15,215.95,190.166375,0.0,0.0,0.0,0.0,0.0728333333333333,-5.498166666666667,-5.498166666666667,-0.6579,0.23399999999999999,-0.08855555555555572,0.016000000000000014,70.388,-0.0275,-0.188775,0.21399999999999952,100.0,1.0,1.0,216.82666666666665,0.0,0.0,0.0,0.0,0.0,0.0,0.0,9190.5,0.0,55.0,5.0,253.37,0.0,0.0,0.0,0.0,0.0,0.0,1.0,0.0,1.806000000000001,1.806000000000001,0.0,0.0,0.0,55.0,616.79921,10000.0,85.000001,85.000001,85.000001,85.000001,395.0,0.0,0.0,0.0,1.0,166.665,51.468,51.468,45.99,45.99,34.0,-26.8175,23.466,-31.97,32.315,0.0,1781.686,-0.05999999999999872,100.0,29.035,28.474,44.522999999999996,43.922,0.0,1.0,100.0,0.0,0.0,0.0,0.0,3315.857142857143,3159.4,4459.125,4533.4,304.883,304.93,314.018,313.7565,22.1187,20.7076,22.1128,21.6017,314.999998,314.999998,324.999988,324.999988,99.55945714285714,99.50768333333333,99.56935714285714,99.54917142857143,0.06424999999999992,-0.07750000000000001,-0.11533333333333333,0.09616666666666668,-0.03166666666666629,-0.03499999999999659,1.4433333333333334,1.4385,39.242000000000004,30.422666666666665,39.205,36.010999999999996,55.869,35.9305,60.1215,53.41,53.8,34.9815,58.666,51.6995,52.932,34.4785,58.5235,51.084,-0.08499999999999996,-0.07900000000000018,0.102495,0.11041000000000001,0.0,220.315,220.29000000000002,216.82666666666665,216.82666666666665,0.0,0.0
