,ABS Active,ABS Enabled,AID Allow Tire Blankets,AID Auto Blip,AID Auto Clutch,AID Auto Shift,AID Fuel Rate,AID Ideal Line,AID Mech Damage,AID Stability,AID Tire Wear Rate,Air Density,Air Temp,Ballast,Best Lap Delta,Best Lap Time,Brake Bias,Brake Pos,Brake Temp FL,Brake Temp FR,Brake Temp RL,Brake Temp RR,CG Accel Lateral,CG Accel Longitudinal,CG Accel Vertical,CG Height,Camber FL,Camber FR,Camber RL,Camber RR,Car Coord X,Car Coord Y,Car Coord Z,Car Damage Front,Car Damage Left,Car Damage Rear,Car Damage Right,Car Pos Norm,Caster FL,Caster FR,Chassis Pitch Angle,Chassis Pitch Rate,Chassis Roll Angle,Chassis Roll Rate,Chassis Velocity X,Chassis Velocity Y,Chassis Velocity Z,Chassis Yaw Rate,Clutch Pos,DRS Active,DRS Available,Drive Train Speed,ERS Heat Charging,ERS Is Charging,ERS Max Energy,ERS Power Level,ERS Recovery Level,Engine Brake Setting,Engine Limiter,Engine RPM,Flags,Fuel Level,Gear,Ground Speed,HR Sample Clock,In Pit,KERS Charge,KERS Deployed Energy,KERS Input,KERS Max Energy,LR Sample Clock,Lap Invalidated,Lap Time,Lap Time2,Last Lap Time,Last Sector Time,MR Sample Clock,Max Fuel,Max Power,Max RPM,Max Sus Travel FL,Max Sus Travel FR,Max Sus Travel RL,Max Sus Travel RR,Max Torque,Max Turbo Boost,Num Tires Off Track,Penalties Enabled,Position,Raw Data Sample Rate,Ride Height FL,Ride Height FR,Ride Height RL,Ride Height RR,Road Temp,Self Align Torque FL,Self Align Torque FR,Self Align Torque RL,Self Align Torque RR,Session Lap Count,Session Time Left,Steering Angle,Surface Grip,Suspension Travel FL,Suspension Travel FR,Suspension Travel RL,Suspension Travel RR,TC Active,TC Enabled,Throttle Pos,Tire Dirt Level FL,Tire Dirt Level FR,Tire Dirt Level RL,Tire Dirt Level RR,Tire Load FL,Tire Load FR,Tire Load RL,Tire Load RR,Tire Loaded Radius FL,Tire Loaded Radius FR,Tire Loaded Radius RL,Tire Loaded Radius RR,Tire Pressure FL,Tire Pressure FR,Tire Pressure RL,Tire Pressure RR,Tire Radius FL,Tire Radius FR,Tire Radius RL,Tire Radius RR,Tire Rubber Grip FL,Tire Rubber Grip FR,Tire Rubber Grip RL,Tire Rubber Grip RR,Tire Slip Angle FL,Tire Slip Angle FR,Tire Slip Angle RL,Tire Slip Angle RR,Tire Slip Ratio FL,Tire Slip Ratio FR,Tire Slip Ratio RL,Tire Slip Ratio RR,Tire Temp Core FL,Tire Temp Core FR,Tire Temp Core RL,Tire Temp Core RR,Tire Temp Inner FL,Tire Temp Inner FR,Tire Temp Inner RL,Tire Temp Inner RR,Tire Temp Middle FL,Tire Temp Middle FR,Tire Temp Middle RL,Tire Temp Middle RR,Tire Temp Outer FL,Tire Temp Outer FR,Tire Temp Outer RL,Tire Temp Outer RR,Toe In FL,Toe In FR,Toe In RL,Toe In RR,Turbo Boost,Wheel Angular Speed FL,Wheel Angular Speed FR,Wheel Angular Speed RL,Wheel Angular Speed RR,Wind Direction,Wind Speed
0,0.0,1.0,0.0,1.0,1.0,0.0,0.0,1.0,0.0,100.0,1.0,1.1856,26.0,0.0,0.0,0.0,59.99999,0.0,26.0,26.0,26.0,26.0,-0.06655555555555548,0.2921,0.005925000000000001,293.671,-2.7222,-2.65525,-1.5318,-1.5622,-275.52,216.2975,190.986375,0.0,0.0,0.0,0.0,0.0016666666666665941,-5.498166666666667,-5.498166666666667,-0.534,1.0150000000000001,-0.0037777777777776578,-0.42500000000000027,65.561,-0.031400000000000004,-0.2003,0.9220000000000006,100.0,1.0,1.0,202.44333333333333,0.0,0.0,0.0,0.0,0.0,0.0,0.0,8580.8,0.0,55.0,5.0,235.99,0.0,0.0,0.0,0.0,0.0,0.0,0.0,0.0,0.006000000000000227,0.006000000000000227,0.0,0.0,0.0,55.0,616.79921,10000.0,85.0,85.0,85.0,85.0,395.0,0.0,0.0,0.0,1.0,20.0,52.765,52.765,48.828,48.828,34.0,-26.0525,24.205,-29.47,25.0625,0.0,1783.656,0.7750000000000021,100.0,27.403,26.925,41.348,41.269,0.0,1.0,100.0,0.0,0.0,0.0,0.0,2982.285714285714,3426.1,4038.875,3962.0,305.767,303.95125,314.96775,314.95425,21.7659,20.511,21.7445,21.279,314.99999,314.99999,324.99998,324.99998,99.55835714285715,99.5071,99.56454285714285,99.54401428571428,0.0009999999999998899,-0.11149999999999993,-0.15300000000000002,0.0718333333333332,-0.05833333333333002,-0.04999999999999716,1.5656666666666665,1.5795000000000001,37.037,29.194,36.903,33.994,56.119,34.388,58.8685,51.263,54.053,33.594,57.5075,49.628,53.232,33.188,57.4795,49.0475,-0.01200000000000001,-0.13600000000000012,0.10735000000000001,0.10759,0.0,205.465,205.375,202.44333333333333,202.44333333333333,0.0,0.0
1,0.0,1.0,0.0,1.0,1.0,0.0,0.0,1.0,0.0,100.0,1.0,1.1856,26.0,0.0,0.0,0.0,59.999996,0.0,26.0,26.0,26.0,26.0,-0.10788888888888892,0.31210000000000004,0.2306,292.709,-2.6377,-2.768125,-1.5323,-1.5584,-272.18,216.29250000000002,190.966125,0.0,0.0,0.0,0.0,0.0036333333333333773,-5.498166666666667,-5.498166666666667,-0.48810000000000003,-0.5325000000000002,-0.057111111111111335,-1.2720000000000002,65.717,-0.0505,-0.182225,1.436,100.0,1.0,1.0,202.57999999999998,0.0,0.0,0.0,0.0,0.0,0.0,0.0,8586.6,0.0,55.0,5.0,236.54666666666668,1.0,0.0,0.0,0.0,0.0,0.0,0.0,0.0,0.05699999999999861,0.05699999999999861,0.0,0.0,1.0,55.0,616.79921,10000.0,85.000001,85.000001,85.000001,85.000001,395.0,0.0,0.0,0.0,1.0,166.665,53.543,53.543,47.729,47.729,34.0,-27.275,18.415,-35.120000000000005,29.1975,0.0,1783.604,0.8350000000000009,100.0,27.512,26.925,43.109,42.289,0.0,1.0,100.0,0.0,0.0,0.0,0.0,3148.4285714285716,2716.6,4393.5,4708.8,305.331,306.142,314.12475,313.1005,21.7758,20.5162,21.7552,21.2881,314.999998,314.999998,324.999988,324.999988,99.55837142857143,99.50713333333333,99.5647,99.54417142857143,-0.007500000000000062,-0.138,-0.18366666666666664,0.03616666666666668,-0.02499999999999858,-0.030000000000001137,1.3923333333333332,1.456,37.099000000000004,29.226,36.97,34.0505,56.104,34.4295,58.914,51.329,54.038,33.632,57.55,49.691,53.216,33.2245,57.519,49.11,-0.006999999999999895,-0.14349999999999996,0.10051500000000001,0.11087000000000001,0.0,205.925,205.765,202.57999999999998,202.57999999999998,0.0,0.0
2,0.0,1.0,0.0,1.0,1.0,0.0,0.0,1.0,0.0,100.0,1.0,1.1856,26.0,0.0,0.0,0.0,59.999996,0.0,26.0,26.0,26.0,26.0,-0.1443333333333333,0.2936000000000001,-0.04995,293.442,-2.6088,-2.7915,-1.5004,-1.6118000000000001,-268.62,216.2825,190.94625,0.0,0.0,0.0,0.0,0.005699999999999927,-5.498166666666667,-5.498166666666667,-0.5342,0.30699999999999994,-0.04588888888888887,0.9649999999999999,65.867,-0.0745,-0.23600000000000002,1.5879999999999992,100.0,1.0,1.0,203.51333333333332,0.0,0.0,0.0,0.0,0.0,0.0,0.0,8626.2,0.0,55.0,5.0,237.09,0.0,0.0,0.0,0.0,0.0,0.0,0.0,0.0,0.11100000000000065,0.11100000000000065,0.0,0.0,0.0,55.0,616.79921,10000.0,85.000001,85.000001,85.000001,85.000001,395.0,0.0,0.0,0.0,1.0,166.665,52.612,52.612,49.561,49.561,34.0,-30.045,19.595,-30.426666666666666,19.96,0.0,1783.551,0.7050000000000018,100.0,28.217,26.897,42.961,41.997,0.0,1.0,100.0,0.0,0.0,0.0,0.0,3325.0,2922.6,3818.75,3690.4,304.7115,305.41575,315.572,315.64775,21.7865,20.5215,21.7663,21.2973,314.999998,314.999998,324.999988,324.999988,99.55838571428572,99.50713333333333,99.56484285714286,99.54431428571428,-0.03249999999999997,-0.15649999999999997,-0.23416666666666663,0.0,-0.06499999999999773,-0.03333333333333144,1.6306666666666667,1.688,37.166,29.259,37.04,34.108000000000004,56.09,34.472,58.956,51.3905,54.025,33.671,57.589,49.75,53.203,33.2615,57.555,49.167500000000004,-0.01849999999999996,-0.13050000000000006,0.11112500000000002,0.10680500000000001,0.0,206.405,206.22500000000002,203.51333333333332,203.51333333333332,0.0,0.0
3,0.0,1.0,0.0,1.0,1.0,0.0,0.0,1.0,0.0,100.0,1.0,1.1856,26.0,0.0,0.0,0.0,59.999996,0.0,26.0,26.0,26.0,26.0,-0.13377777777777777,0.31210000000000004,0.03615,293.228,-2.7346,-2.693625,-1.5203,-1.5979,-265.65,216.2725,190.928875,0.0,0.0,0.0,0.0,0.007433333333333292,-5.498166666666667,-5.498166666666667,-0.4963,0.4139999999999999,-0.00633333333333308,0.7490000000000001,66.001,-0.08370000000000001,-0.1836,1.1440000000000001,100.0,1.0,1.0,203.63666666666666,0.0,0.0,0.0,0.0,0.0,0.0,0.0,8631.4,0.0,55.0,5.0,237.57333333333332,1.0,0.0,0.0,0.0,0.0,0.0,0.0,0.0,0.1559999999999988,0.1559999999999988,0.0,0.0,1.0,55.0,616.79921,10000.0,85.000001,85.000001,85.000001,85.000001,395.0,0.0,0.0,0.0,1.0,166.665,53.772,53.772,47.577,47.577,34.0,-25.5125,18.951666666666668,-33.946666666666665,25.4625,0.0,1783.505,0.6099999999999994,100.0,27.666,26.767,43.096000000000004,41.948,0.0,1.0,100.0,0.0,0.0,0.0,0.0,2844.142857142857,2899.0,4232.875,4275.3,306.0465,305.636,314.44,314.2865,21.795099999999998,20.526,21.7755,21.3051,314.999998,314.999998,324.999988,324.999988,99.55838571428572,99.50715,99.56497142857143,99.54442857142857,-0.014000000000000012,-0.14349999999999996,-0.20166666666666666,0.023333333333333428,-0.026666666666670835,-0.05333333333332746,1.5070000000000001,1.5255,37.22,29.287333333333336,37.097,34.157,56.076,34.509,58.9915,51.4465,54.010999999999996,33.7055,57.622,49.804,53.188,33.2945,57.585499999999996,49.2205,-0.027499999999999858,-0.11699999999999999,0.103845,0.109145,0.0,206.8,206.72,203.63666666666666,203.63666666666666,0.0,0.0
4,0.0,1.0,0.0,1.0,1.0,0.0,0.0,1.0,0.0,100.0,1.0,1.1856,26.0,0.0,0.0,0.0,59.999996,0.0,26.0,26.0,26.0,26.0,-0.1233333333333334,0.2650000000000001,0.0081,293.457,-2.6671,-2.747875,-1.5368,-1.604,-262.09,216.2575,190.908,0.0,0.0,0.0,0.0,0.009499999999999953,-5.498166666666667,-5.498166666666667,-0.5278,-0.6034999999999999,-0.07377777777777794,-0.03000000000000025,66.155,-0.08460000000000001,-0.21715,1.136000000000001,100.0,1.0,1.0,204.24333333333334,0.0,0.0,0.0,0.0,0.0,0.0,0.0,8657.1,0.0,55.0,5.0,238.13,0.0,0.0,0.0,0.0,0.0,0.0,0.0,0.0,0.21000000000000085,0.21000000000000085,0.0,0.0,0.0,55.0,616.79921,10000.0,85.000001,85.000001,85.000001,85.000001,395.0,0.0,0.0,0.0,1.0,166.665,53.329,53.329,48.278999999999996,48.278999999999996,34.0,-28.4775,20.538333333333334,-31.253333333333334,21.695,0.0,1783.452,0.5399999999999991,100.0,27.463,26.52,43.497,41.961,0.0,1.0,100.0,0.0,0.0,0.0,0.0,3199.285714285714,2966.1,3972.75,3775.1,305.0605,305.42925,315.02425,315.51175,21.8054,20.5314,21.7867,21.3145,314.999998,314.999998,324.999988,324.999988,99.55838571428572,99.50716666666666,99.56511428571429,99.54458571428572,-0.0129999999999999,-0.12924999999999998,-0.1988333333333333,0.024499999999999966,-0.04999999999999716,-0.07000000000000028,1.581,1.6305,37.284,29.320999999999998,37.167,34.2155,56.058,34.553,59.0355,51.510999999999996,53.994,33.746,57.6635,49.8655,53.171,33.333,57.624,49.281,-0.027499999999999858,-0.11249999999999982,0.10543500000000001,0.10759,0.0,207.26,207.16,204.24333333333334,204.24333333333334,0.0,0.0
5,0.0,1.0,0.0,1.0,1.0,0.0,0.0,1.0,0.0,100.0,1.0,1.1856,26.0,0.0,0.0,0.0,59.999996,0.0,26.0,26.0,26.0,26.0,-0.13511111111111107,0.2853000000000001,-0.006500000000000001,293.35,-2.6762,-2.768625,-1.5173999999999999,-1.594,-258.71,216.2375,190.8875,0.0,0.0,0.0,0.0,0.011466666666666514,-5.498166666666667,-5.498166666666667,-0.521,0.23649999999999993,-0.08400000000000007,-0.56,66.303,-0.0884,-0.19365000000000002,1.0660000000000007,100.0,1.0,1.0,204.62,0.0,0.0,0.0,0.0,0.0,0.0,0.0,8673.1,0.0,55.0,5.0,238.66,1.0,0.0,0.0,0.0,0.0,0.0,0.0,0.0,0.26099999999999923,0.26099999999999923,0.0,0.0,1.0,55.0,616.79921,10000.0,85.000001,85.000001,85.000001,85.000001,395.0,0.0,0.0,0.0,1.0,166.665,53.604,53.604,48.278999999999996,48.278999999999996,34.0,-28.5625,19.031666666666666,-34.370000000000005,22.622500000000002,0.0,1783.4,0.22500000000000142,100.0,27.539,26.549,43.17,41.916,0.0,1.0,100.0,0.0,0.0,0.0,0.0,3225.142857142857,2770.0,4239.5,4006.7,305.143,305.89225,314.588,314.8325,21.8153,20.5364,21.7972,21.3232,314.999998,314.999998,324.999988,324.999988,99.55838571428572,99.50718333333333,99.56527142857144,99.54472857142858,-0.011749999999999927,-0.13575000000000004,-0.21850000000000003,0.0071666666666665435,-0.05666666666667197,-0.030000000000001137,1.549,1.5775000000000001,37.346000000000004,29.352666666666664,37.232,34.269999999999996,56.044,34.593,59.076499999999996,51.570499999999996,53.980000000000004,33.7825,57.701499999999996,49.9225,53.156,33.368,57.659,49.336,-0.05499999999999994,-0.08550000000000013,0.10693000000000001,0.10813500000000001,0.0,207.745,207.625,204.62,204.62,0.0,0.0
6,0.0,1.0,0.0,1.0,1.0,0.0,0.0,1.0,0.0,100.0,1.0,1.1856,26.0,0.0,0.0,0.0,59.999996,0.0,26.0,26.0,26.0,26.0,-0.12277777777777776,0.2901,0.010775,293.06,-2.6447,-2.79225,-1.5661,-1.5892000000000002,-255.52,216.2175,190.868,0.0,0.0,0.0,0.0,0.013299999999999979,-5.498166666666667,-5.498166666666667,-0.517,0.15049999999999986,-0.061666666666666536,-0.6520000000000001,66.44,-0.083,-0.19505,0.7479999999999993,100.0,1.0,1.0,205.04333333333335,0.0,0.0,0.0,0.0,0.0,0.0,0.0,8691.1,0.0,55.0,5.0,239.15666666666667,0.0,0.0,0.0,0.0,0.0,0.0,0.0,0.0,0.30900000000000105,0.30900000000000105,0.0,0.0,0.0,55.0,616.79921,10000.0,85.000001,85.000001,85.000001,85.000001,395.0,0.0,0.0,0.0,1.0,166.665,53.223,53.223,47.943,47.943,34.0,-27.355,20.281666666666666,-34.153333333333336,23.052500000000002,0.0,1783.353,-0.10500000000000043,100.0,27.647,26.889,43.326,42.326,0.0,1.0,100.0,0.0,0.0,0.0,0.0,3180.0,2861.0,4178.25,4001.9,305.227,305.51825,314.73275,314.8395,21.8246,20.5413,21.8071,21.3316,314.999998,314.999998,324.999988,324.999988,99.55838571428572,99.5072,99.5654,99.54485714285714,0.0009999999999998899,-0.13,-0.21166666666666656,0.015666666666666718,-0.05333333333332746,-0.03833333333332689,1.537,1.554,37.403999999999996,29.383,37.294,34.3225,56.03,34.631,59.115,51.629,53.967,33.817499999999995,57.7375,49.9785,53.141999999999996,33.4015,57.692,49.391,-0.0814999999999999,-0.07799999999999985,0.10629000000000001,0.10408500000000001,0.0,208.14,208.065,205.04333333333335,205.04333333333335,0.0,0.0
7,0.0,1.0,0.0,1.0,1.0,0.0,0.0,1.0,0.0,100.0,1.0,1.1856,26.0,0.0,0.0,0.0,59.999996,0.0,26.0,26.0,26.0,26.0,-0.059222222222222176,0.28700000000000014,0.01105,292.786,-2.6113,-2.748875,-1.5282,-1.6322,-252.13,216.1925,190.8475,0.0,0.0,0.0,0.0,0.01529999999999998,-5.498166666666667,-5.498166666666667,-0.5211,0.00550000000000006,-0.045222222222222275,1.377,66.586,-0.0645,-0.20777500000000002,0.23399999999999999,100.0,1.0,1.0,205.48000000000002,0.0,0.0,0.0,0.0,0.0,0.0,0.0,8709.6,0.0,55.0,5.0,239.68,1.0,0.0,0.0,0.0,0.0,0.0,0.0,0.0,0.35999999999999943,0.35999999999999943,0.0,0.0,1.0,55.0,616.79921,10000.0,85.000001,85.000001,85.000001,85.000001,395.0,0.0,0.0,0.0,1.0,166.665,52.795,52.795,48.019,48.019,34.0,-25.1775,22.846666666666668,-29.986666666666665,26.14,0.0,1783.301,-0.22499999999999787,100.0,28.03,26.937,43.620000000000005,42.565,0.0,1.0,100.0,0.0,0.0,0.0,0.0,3134.4285714285716,3024.4,3978.0,4089.2,305.127,305.17325,315.03025,314.69475,21.8345,20.5465,21.8177,21.3406,314.999998,314.999998,324.999988,324.999988,99.5584,99.50721666666666,99.56554285714286,99.545,0.04150000000000009,-0.08699999999999997,-0.16933333333333334,0.05266666666666686,-0.02833333333332888,-0.04333333333332945,1.5333333333333332,1.543,37.466,29.415666666666667,37.36,34.3785,56.015,34.671,59.1555,51.6915,53.953,33.854,57.775,50.0385,53.128,33.436,57.727000000000004,49.45,-0.09450000000000003,-0.05449999999999999,0.10866,0.10848500000000001,0.0,208.56,208.53,205.48000000000002,205.48000000000002,0.0,0.0
8,0.0,1.0,0.0,1.0,1.0,0.0,0.0,1.0,0.0,100.0,1.0,1.1856,26.0,0.0,0.0,0.0,59.999996,0.0,26.0,26.0,26.0,26.0,-0.039000000000000035,0.2922,0.017650000000000002,292.999,-2.7068,-2.71375,-1.5152999999999999,-1.5819,-248.73,216.16750000000002,190.826875,0.0,0.0,0.0,0.0,0.01726666666666654,-5.498166666666667,-5.498166666666667,-0.5241,-0.5015000000000001,-0.029888888888888854,-0.8340000000000001,66.732,-0.042,-0.202025,-0.017999999999999794,100.0,1.0,1.0,205.88333333333333,0.0,0.0,0.0,0.0,0.0,0.0,0.0,8726.7,0.0,55.0,5.0,240.20333333333332,0.0,0.0,0.0,0.0,0.0,0.0,0.0,0.0,0.41100000000000136,0.41100000000000136,0.0,0.0,0.0,55.0,616.79921,10000.0,85.000001,85.000001,85.000001,85.000001,395.0,0.0,0.0,0.0,1.0,166.665,53.497,53.497,47.44,47.44,34.0,-25.065,22.18333333333333,-30.65,26.384999999999998,0.0,1783.25,-0.3150000000000013,100.0,27.22,27.03,43.47,42.897,0.0,1.0,100.0,0.0,0.0,0.0,0.0,3097.714285714286,2942.2,4130.375,4038.7,305.6065,305.347,314.77875,314.68675,21.8442,20.5517,21.8282,21.3495,314.999998,314.999998,324.999988,324.999988,99.5584,99.50723333333333,99.56568571428572,99.54512857142858,0.04574999999999996,-0.08050000000000002,-0.16100000000000003,0.07316666666666682,-0.04333333333332945,-0.045000000000001705,1.527,1.5185,37.525999999999996,29.448,37.426,34.4345,56.0,34.7095,59.196,51.753,53.938,33.8895,57.8125,50.0975,53.111999999999995,33.47,57.7615,49.5075,-0.10149999999999992,-0.044500000000000206,0.10827500000000001,0.11475500000000001,0.0,208.985,208.99,205.88333333333333,205.88333333333333,0.0,0.0
9,0.0,1.0,0.0,1.0,1.0,0.0,0.0,1.0,0.0,100.0,1.0,1.1856,26.0,0.0,0.0,0.0,59.999996,0.0,26.0,26.0,26.0,26.0,-0.010000000000000009,0.2836000000000001,-0.0063,292.679,-2.687,-2.71575,-1.5712000000000002,-1.5601,-245.73,216.14249999999998,190.80825,0.0,0.0,0.0,0.0,0.018999999999999906,-5.498166666666667,-5.498166666666667,-0.5253,0.589,-0.026555555555555888,1.1079999999999999,66.857,-0.0246,-0.19785,-0.2060000000000004,100.0,1.0,1.0,206.36333333333334,0.0,0.0,0.0,0.0,0.0,0.0,0.0,8747.0,0.0,55.0,5.0,240.65666666666667,1.0,0.0,0.0,0.0,0.0,0.0,0.0,0.0,0.4559999999999995,0.4559999999999995,0.0,0.0,1.0,55.0,616.79921,10000.0,85.000001,85.000001,85.000001,85.000001,395.0,0.0,0.0,0.0,1.0,166.665,52.414,52.414,48.325,48.325,34.0,-25.107499999999998,24.421666666666667,-27.583333333333336,27.7225,0.0,1783.206,-0.46499999999999986,100.0,28.014,27.284,43.265,42.735,0.0,1.0,100.0,0.0,0.0,0.0,0.0,3248.285714285714,3083.2,3922.5,4128.9,304.8955,305.03375,315.22625,314.67675,21.8528,20.5564,21.8373,21.3574,314.999998,314.999998,324.999988,324.999988,99.55841428571429,99.50723333333333,99.56581428571428,99.54525714285714,0.08000000000000007,-0.05325000000000002,-0.123,0.09899999999999998,-0.051666666666669414,-0.05833333333333002,1.573,1.552,37.58,29.477666666666664,37.483000000000004,34.4835,55.989000000000004,34.7445,59.228,51.807,53.928,33.9215,57.8425,50.1495,53.1,33.501,57.789,49.5585,-0.11399999999999988,-0.0405000000000002,0.10553000000000001,0.10318500000000001,0.0,209.4,209.39499999999998,206.36333333333334,206.36333333333334,0.0,0.0
10,0.0,1.0,0.0,1.0,1.0,0.0,0.0,1.0,0.0,100.0,1.0,1.1856,26.0,0.0,0.0,0.0,59.999996,0.0,26.0,26.0,26.0,26.0,0.006888888888888944,0.2975000000000001,-0.005875,292.511,-2.665,-2.696625,-1.548,-1.5453000000000001,-242.31,216.115,190.787375,0.0,0.0,0.0,0.0,0.020999999999999908,-5.498166666666667,-5.498166666666667,-0.5065000000000001,-0.512,0.007888888888888834,0.16000000000000014,67.004,-0.0055000000000000005,-0.192475,-0.4399999999999995,100.0,1.0,1.0,206.60666666666668,0.0,0.0,0.0,0.0,0.0,0.0,0.0,8757.3,0.0,55.0,5.0,241.18333333333334,0.0,0.0,0.0,0.0,0.0,0.0,1.0,0.0,0.5069999999999979,0.5069999999999979,0.0,0.0,0.0,55.0,616.79921,10000.0,85.000001,85.000001,85.000001,85.000001,395.0,0.0,0.0,0.0,1.0,166.665,53.375,53.375,46.799,46.799,34.0,-21.4575,22.846666666666668,-30.48,29.39,0.0,1783.155,-0.6050000000000004,100.0,27.679,27.401,43.603,43.592,0.0,1.0,100.0,0.0,0.0,0.0,0.0,2911.5714285714284,2881.2,4301.375,4229.2,306.0335,305.5135,314.35125,314.2445,21.8625,20.5617,21.8479,21.3665,314.999998,314.999998,324.999988,324.999988,99.55841428571429,99.50723333333333,99.56595714285714,99.54541428571429,0.08775000000000022,-0.04674999999999996,-0.11699999999999999,0.10816666666666674,-0.051666666666669414,-0.045000000000001705,1.4969999999999999,1.477,37.641,29.510333333333335,37.55,34.5405,55.976,34.781,59.269999999999996,51.872,53.916,33.9555,57.8815,50.212,53.087,33.533,57.825,49.6195,-0.12199999999999989,-0.027000000000000135,0.10504000000000001,0.111295,0.0,209.82999999999998,209.85000000000002,206.60666666666668,206.60666666666668,0.0,0.0
11,0.0,1.0,0.0,1.0,1.0,0.0,0.0,1.0,0.0,100.0,1.0,1.1856,26.0,0.0,0.0,0.0,59.999996,0.0,26.0,26.0,26.0,26.0,0.05833333333333335,0.2872000000000001,-0.106475,293.015,-2.7088,-2.6615,-1.5997,-1.5317,-238.49,216.085,190.764125,0.0,0.0,0.0,0.0,0.022599999999999953,-5.498166666666667,-5.498166666666667,-0.5455,0.133,0.035222222222222044,0.8660000000000001,67.15899999999999,0.0161,-0.214625,-0.694,100.0,1.0,1.0,207.37666666666667,0.0,0.0,0.0,0.0,0.0,0.0,0.0,8790.0,0.0,55.0,5.0,241.74333333333334,1.0,0.0,0.0,0.0,0.0,0.0,1.0,0.0,0.5640000000000001,0.5640000000000001,0.0,0.0,1.0,55.0,616.79921,10000.0,85.000001,85.000001,85.000001,85.000001,395.0,0.0,0.0,0.0,1.0,111.11,52.856,52.856,48.263999999999996,48.263999999999996,34.0,-21.25,26.395,-23.740000000000002,28.365000000000002,0.0,1783.099,-0.7949999999999982,100.0,27.616,27.55,43.132,43.244,0.0,1.0,100.0,0.0,0.0,0.0,0.0,2948.0,3162.3,3727.125,3993.1000000000004,305.7495,304.787,315.73975,315.038,21.8732,20.5677,21.8594,21.3765,314.999998,314.999998,324.999988,324.999988,99.55842857142858,99.50723333333333,99.56611428571429,99.54555714285715,0.11500000000000021,-0.012249999999999983,-0.0738333333333333,0.14866666666666672,-0.051666666666669414,-0.07499999999999574,1.645,1.6165,37.708,29.548333333333332,37.620999999999995,34.603,55.961,34.823499999999996,59.3085,51.9405,53.900999999999996,33.995,57.917500000000004,50.2775,53.072,33.571,57.8575,49.684,-0.127,-0.020999999999999908,0.10493000000000001,0.10483500000000001,0.0,210.29500000000002,210.345,207.37666666666667,207.37666666666667,0.0,0.0
12,0.0,1.0,0.0,1.0,1.0,0.0,0.0,1.0,0.0,100.0,1.0,1.1856,26.0,0.0,0.0,0.0,59.999996,0.0,26.0,26.0,26.0,26.0,0.054111111111111,0.29190000000000005,0.027475000000000003,292.404,-2.7617,-2.6765,-1.5681,-1.5365,-235.46,216.0625,190.744625,0.0,0.0,0.0,0.0,0.025466666666666526,-5.498166666666667,-5.498166666666667,-0.5308,0.2509999999999999,0.01766666666666672,-1.056,67.287,0.0302,-0.189525,-0.637999999999999,100.0,1.0,1.0,207.56,0.0,0.0,0.0,0.0,0.0,0.0,0.0,8797.6,0.0,55.0,5.0,242.20333333333335,0.0,0.0,0.0,0.0,0.0,0.0,1.0,0.0,0.6089999999999982,0.6089999999999982,0.0,0.0,0.0,55.0,616.79921,10000.0,85.000001,85.000001,85.000001,85.000001,395.0,0.0,0.0,0.0,1.0,166.665,52.643,52.643,47.012,47.012,34.0,-22.905,26.098333333333333,-28.18,30.6825,0.0,1783.053,-0.5749999999999993,100.0,27.388,27.847,43.085,43.491,0.0,1.0,100.0,0.0,0.0,0.0,0.0,3139.4285714285716,3105.4,4246.0,4153.9,305.4355,304.8085,314.577,314.47,21.8816,20.5726,21.8687,21.3844,314.999998,314.999998,324.999988,324.999988,99.55844285714285,99.50723333333333,99.56624285714285,99.54568571428571,0.11874999999999991,-0.014249999999999985,-0.08199999999999996,0.15083333333333337,-0.06333333333333258,-0.05666666666667197,1.5236666666666667,1.5030000000000001,37.76,29.578333333333333,37.679,34.653,55.95,34.857,59.3435,51.9955,53.891,34.0255,57.9495,50.3305,53.061,33.6005,57.887,49.736000000000004,-0.12199999999999989,-0.025500000000000078,0.10944500000000001,0.106995,0.0,210.70499999999998,210.755,207.56,207.56,0.0,0.0
13,0.0,1.0,0.0,1.0,1.0,0.0,0.0,1.0,0.0,100.0,1.0,1.1856,26.0,0.0,0.0,0.0,59.999996,0.0,26.0,26.0,26.0,26.0,0.07899999999999996,0.2754000000000001,0.037525,292.023,-2.7024,-2.673,-1.6029,-1.5209000000000001,-232.03,216.0375,190.722875,0.0,0.0,0.0,0.0,0.026966666666666583,-5.498166666666667,-5.498166666666667,-0.5243,-0.09750000000000014,0.02644444444444427,1.286,67.429,0.0375,-0.19875,-0.8839999999999995,100.0,1.0,1.0,207.94,0.0,0.0,0.0,0.0,0.0,0.0,0.0,8813.8,0.0,55.0,5.0,242.71666666666667,1.0,0.0,0.0,0.0,0.0,0.0,1.0,0.0,0.6600000000000001,0.6600000000000001,0.0,0.0,1.0,55.0,616.79921,10000.0,85.000001,85.000001,85.000001,85.000001,395.0,0.0,0.0,0.0,1.0,111.11,52.399,52.399,47.012,47.012,34.0,-20.27,28.048333333333332,-26.09,32.947500000000005,0.0,1783.002,-0.8550000000000004,100.0,27.897,27.856,43.486000000000004,43.923,0.0,1.0,100.0,0.0,0.0,0.0,0.0,3029.142857142857,3198.5,4105.875,4374.9,305.5185,304.6935,314.75275,314.035,21.8912,20.5781,21.8792,21.3936,314.999998,314.999998,324.999988,324.999988,99.55845714285714,99.50725,99.56638571428572,99.54584285714286,0.15200000000000014,0.016750000000000043,-0.04799999999999993,0.16083333333333338,-0.03166666666666629,-0.061666666666667425,1.5006666666666666,1.479,37.82,29.613,37.745000000000005,34.71,55.941,34.8955,59.382,52.061,53.882,34.061,57.986,50.3935,53.05,33.6345,57.92,49.7975,-0.14549999999999996,-0.012500000000000178,0.09585,0.10272,0.0,211.13,211.195,207.94,207.94,0.0,0.0
14,0.0,1.0,0.0,1.0,1.0,0.0,0.0,1.0,0.0,100.0,1.0,1.1856,26.0,0.0,0.0,0.0,59.999996,0.0,26.0,26.0,26.0,26.0,0.08899999999999997,0.274,0.015225,292.267,-2.7382,-2.667625,-1.6154000000000002,-1.5243,-228.57999999999998,216.015,190.7015,0.0,0.0,0.0,0.0,0.028966666666666585,-5.498166666666667,-5.498166666666667,-0.5352,-0.17100000000000026,0.05311111111111111,-0.641,67.569,0.051000000000000004,-0.21102500000000002,-0.992,100.0,1.0,1.0,208.46666666666667,0.0,0.0,0.0,0.0,0.0,0.0,0.0,8836.1,0.0,55.0,5.0,243.21666666666667,0.0,0.0,0.0,0.0,0.0,0.0,1.0,0.0,0.7109999999999985,0.7109999999999985,0.0,0.0,0.0,55.0,616.79921,10000.0,85.000001,85.000001,85.000001,85.000001,395.0,0.0,0.0,0.0,1.0,166.665,52.49,52.49,47.195,47.195,34.0,-20.375,27.78333333333333,-25.933333333333334,31.305,0.0,1782.951,-0.9649999999999999,100.0,27.576999999999998,28.164,43.242000000000004,44.259,0.0,1.0,100.0,0.0,0.0,0.0,0.0,3026.714285714286,3153.8,4027.625,4108.2,305.755,304.57875,315.1235,314.529,21.9007,20.5836,21.8896,21.4027,314.999998,314.999998,324.999988,324.999988,99.55848571428571,99.50725,99.56652857142858,99.54598571428572,0.1512500000000001,0.014250000000000096,-0.0628333333333333,0.17566666666666686,-0.051666666666669414,-0.046666666666666856,1.566,1.5395,37.879000000000005,29.647333333333336,37.81,34.766999999999996,55.931,34.9335,59.4195,52.1245,53.872,34.0965,58.0205,50.454499999999996,53.039,33.668,57.951,49.8575,-0.15799999999999992,-0.0040000000000000036,0.11430000000000001,0.11152500000000001,0.0,211.54500000000002,211.615,208.46666666666667,208.46666666666667,0.0,0.0
15,0.0,1.0,0.0,1.0,1.0,0.0,0.0,1.0,0.0,100.0,1.0,1.1856,26.0,0.0,0.0,0.0,59.999996,0.0,26.0,26.0,26.0,26.0,0.1233333333333333,0.2876000000000001,-0.0616,292.267,-2.7433,-2.5725,-1.6399,-1.464,-225.54,215.995,190.682375,0.0,0.0,0.0,0.0,0.03073333333333339,-5.498166666666667,-5.498166666666667,-0.5266000000000001,0.248,0.08611111111111103,1.311,67.69200000000001,0.06470000000000001,-0.19487500000000002,-1.2199999999999998,100.0,1.0,1.0,208.82,0.0,0.0,0.0,0.0,0.0,0.0,0.0,8851.1,0.0,55.0,5.0,243.66333333333336,1.0,0.0,0.0,0.0,0.0,0.0,1.0,0.0,0.7560000000000002,0.7560000000000002,0.0,0.0,1.0,55.0,616.79921,10000.0,85.000001,85.000001,85.000001,85.000001,395.0,0.0,0.0,0.0,1.0,166.665,52.673,52.673,47.241,47.241,34.0,-18.037499999999998,28.505,-23.656666666666666,34.182500000000005,0.0,1782.905,-0.9849999999999994,100.0,27.806,28.073999999999998,43.207,44.181,0.0,1.0,100.0,0.0,0.0,0.0,0.0,2788.4285714285716,3253.0,3885.0,4412.2,306.266,304.53975,315.31525,313.98675,21.909,20.5885,21.898699999999998,21.410800000000002,314.999998,314.999998,324.999988,324.999988,99.5585,99.50726666666667,99.56664285714285,99.54611428571428,0.16975000000000007,0.036250000000000115,-0.027666666666666617,0.19616666666666682,-0.023333333333326323,-0.07666666666666799,1.5566666666666666,1.5110000000000001,37.931,29.678333333333335,37.867000000000004,34.817499999999995,55.923,34.968,59.451,52.181,53.864000000000004,34.128,58.0495,50.509,53.03,33.698499999999996,57.9775,49.911500000000004,-0.14900000000000002,-0.002000000000000224,0.10459500000000001,0.10875000000000001,0.0,211.935,212.035,208.82,208.82,0.0,0.0
16,0.0,1.0,0.0,1.0,1.0,0.0,0.0,1.0,0.0,100.0,1.0,1.1856,26.0,0.0,0.0,0.0,59.999996,0.0,26.0,26.0,26.0,26.0,0.14455555555555577,0.2761,-0.0408,292.282,-2.8045,-2.58,-1.6136,-1.5230000000000001,-221.88,215.97750000000002,190.659125,0.0,0.0,0.0,0.0,0.0328666666666666,-5.498166666666667,-5.498166666666667,-0.5466,-0.5800000000000001,0.07266666666666666,0.508,67.84,0.0776,-0.21047500000000002,-1.202,100.0,1.0,1.0,209.29333333333335,0.0,0.0,0.0,0.0,0.0,0.0,0.0,8871.2,0.0,55.0,5.0,244.19666666666666,0.0,0.0,0.0,0.0,0.0,0.0,1.0,0.0,0.8099999999999987,0.8099999999999987,0.0,0.0,0.0,55.0,616.79921,10000.0,85.000001,85.000001,85.000001,85.000001,395.0,0.0,0.0,0.0,1.0,111.11,52.49,52.49,47.104,47.104,34.0,-19.787499999999998,29.861666666666665,-22.026666666666664,34.25,0.0,1782.853,-0.9100000000000001,100.0,27.321,28.089,43.418,44.262,0.0,1.0,100.0,0.0,0.0,0.0,0.0,3005.4285714285716,3348.1,3844.125,4190.7,305.753,304.28675,315.38325,314.48225,21.9188,20.5944,21.9098,21.4205,314.999998,314.999998,324.999988,324.999988,99.55851428571428,99.50726666666667,99.5668,99.54627142857143,0.1772499999999999,0.04425000000000012,-0.007499999999999951,0.22133333333333338,-0.03166666666666629,-0.05333333333332746,1.572,1.5115,37.992999999999995,29.715333333333334,37.936,34.878,55.91,35.0105,59.4915,52.2485,53.852000000000004,34.167500000000004,58.087,50.574,53.016999999999996,33.736000000000004,58.0115,49.9755,-0.1459999999999999,-0.010000000000000231,0.10052000000000001,0.114695,0.0,212.35500000000002,212.45,209.29333333333335,209.29333333333335,0.0,0.0
17,0.0,1.0,0.0,1.0,1.0,0.0,0.0,1.0,0.0,100.0,1.0,1.1856,26.0,0.0,0.0,0.0,59.999996,0.0,26.0,26.0,26.0,26.0,0.11388888888888893,0.2852000000000001,0.000825,291.916,-2.7683,-2.561125,-1.6524,-1.4855,-218.42000000000002,215.9625,190.636625,0.0,0.0,0.0,0.0,0.03489999999999993,-5.498166666666667,-5.498166666666667,-0.5334,0.3340000000000001,0.048555555555555685,-0.806,67.979,0.07930000000000001,-0.18757500000000002,-1.0839999999999996,100.0,1.0,1.0,209.63666666666666,0.0,0.0,0.0,0.0,0.0,0.0,0.0,8885.7,0.0,55.0,5.0,244.69666666666666,1.0,0.0,0.0,0.0,0.0,0.0,1.0,0.0,0.8610000000000007,0.8610000000000007,0.0,0.0,1.0,55.0,616.79921,10000.0,85.000001,85.000001,85.000001,85.000001,395.0,0.0,0.0,0.0,1.0,166.665,52.414,52.414,46.768,46.768,34.0,-20.025,27.27166666666667,-26.883333333333333,33.365,0.0,1782.801,-0.9849999999999994,100.0,27.64,28.347,43.087,44.394999999999996,0.0,1.0,100.0,0.0,0.0,0.0,0.0,3104.0,3107.3,4326.125,4282.9,305.576,304.82725,314.45825,314.21425,21.9283,20.6001,21.9202,21.4295,314.999998,314.999998,324.999988,324.999988,99.55854285714285,99.50726666666667,99.56694285714286,99.54641428571429,0.1785000000000001,0.03925000000000001,-0.025499999999999967,0.19399999999999995,-0.03833333333332689,-0.046666666666666856,1.5266666666666666,1.5015,38.052,29.750666666666667,38.001000000000005,34.9345,55.903,35.0515,59.528,52.312,53.844,34.2055,58.1205,50.635,53.007999999999996,33.7725,58.042,50.0355,-0.15900000000000003,-0.0015000000000000568,0.101925,0.106715,0.0,212.82999999999998,212.905,209.63666666666666,209.63666666666666,0.0,0.0
18,0.0,1.0,0.0,1.0,1.0,0.0,0.0,1.0,0.0,100.0,1.0,1.1856,26.0,0.0,0.0,0.0,59.999996,0.0,26.0,26.0,26.0,26.0,0.13688888888888884,0.2811000000000001,-0.019875,291.977,-2.7952,-2.5404999999999998,-1.6687,-1.4323000000000001,-215.36,215.9525,190.61675,0.0,0.0,0.0,0.0,0.036666666666666514,-5.498166666666667,-5.498166666666667,-0.5459,-0.48050000000000015,0.0758888888888889,1.461,68.101,0.0819,-0.205325,-1.3399999999999999,100.0,1.0,1.0,210.05666666666667,0.0,0.0,0.0,0.0,0.0,0.0,0.0,8903.6,0.0,55.0,5.0,245.13333333333333,0.0,0.0,0.0,0.0,0.0,0.0,1.0,0.0,0.9059999999999988,0.9059999999999988,0.0,0.0,0.0,55.0,616.79921,10000.0,85.000001,85.000001,85.000001,85.000001,395.0,0.0,0.0,0.0,1.0,166.665,52.261,52.261,46.814,46.814,34.0,-19.044999999999998,31.18,-23.953333333333333,33.5175,0.0,1782.755,-1.2100000000000009,100.0,27.579,28.175,43.498000000000005,44.566,0.0,1.0,100.0,0.0,0.0,0.0,0.0,3002.857142857143,3395.4,3972.25,4271.0,305.722,304.179,315.13725,314.3595,21.9365,20.6051,21.9294,21.4377,314.999998,314.999998,324.999988,324.999988,99.55855714285714,99.50728333333333,99.56707142857142,99.54655714285714,0.19300000000000006,0.07299999999999995,-0.014499999999999957,0.21816666666666684,-0.036666666666668846,-0.06666666666666998,1.57,1.5175,38.102999999999994,29.781666666666666,38.059,34.9855,55.894,35.0875,59.5615,52.3695,53.836,34.2385,58.1515,50.6905,52.998999999999995,33.8045,58.070499999999996,50.0895,-0.16799999999999993,0.01749999999999985,0.109505,0.108965,0.0,213.16500000000002,213.275,210.05666666666667,210.05666666666667,0.0,0.0
19,0.0,1.0,0.0,1.0,1.0,0.0,0.0,1.0,0.0,100.0,1.0,1.1856,26.0,0.0,0.0,0.0,59.999996,0.0,26.0,26.0,26.0,26.0,0.17311111111111122,0.2944,0.041600000000000005,291.397,-2.7168,-2.6327499999999997,-1.6075,-1.4131,-211.68,215.945,190.59275,0.0,0.0,0.0,0.0,0.038799999999999946,-5.498166666666667,-5.498166666666667,-0.5334,0.7209999999999999,0.08955555555555561,0.9979999999999998,68.247,0.0946,-0.194325,-1.766,100.0,1.0,1.0,210.43,0.0,0.0,0.0,0.0,0.0,0.0,0.0,8919.3,0.0,55.0,5.0,245.66,1.0,0.0,0.0,0.0,0.0,0.0,1.0,0.0,0.9600000000000009,0.9600000000000009,0.0,0.0,1.0,55.0,616.79921,10000.0,85.000001,85.000001,85.000001,85.000001,395.0,0.0,0.0,0.0,1.0,111.11,51.727000000000004,51.727000000000004,46.463,46.463,34.0,-16.86,31.95,-22.983333333333334,36.8575,0.0,1782.702,-1.5249999999999986,100.0,28.178,28.836,43.278,44.697,0.0,1.0,100.0,0.0,0.0,0.0,0.0,2943.142857142857,3300.0,4127.0,4574.8,305.7595,304.20175,314.73425,313.634,21.9466,20.6112,21.9404,21.447499999999998,314.999998,314.999998,324.999988,324.999988,99.55858571428571,99.5073,99.56722857142857,99.54671428571429,0.2200000000000002,0.08624999999999994,0.011833333333333362,0.2266666666666668,-0.03166666666666629,-0.07499999999999574,1.5346666666666666,1.466,38.166,29.820333333333334,38.126999999999995,35.0465,55.888,35.135,59.599000000000004,52.4385,53.83,34.2825,58.1865,50.757,52.992000000000004,33.8465,58.102000000000004,50.155,-0.1955,0.038000000000000034,0.10868000000000001,0.10186,0.0,213.64499999999998,213.775,210.43,210.43,0.0,0.0
20,0.0,1.0,0.0,1.0,1.0,0.0,0.0,1.0,0.0,100.0,1.0,1.1856,26.0,0.0,0.0,0.0,59.999996,0.0,26.0,26.0,26.0,26.0,0.21333333333333337,0.25839999999999996,-0.0011250000000000001,291.901,-2.829,-2.578125,-1.6202,-1.5253,-208.19,215.9425,190.570375,0.0,0.0,0.0,0.0,0.04083333333333339,-5.498166666666667,-5.498166666666667,-0.5465,-1.146,0.09455555555555573,-1.109,68.384,0.1107,-0.21225000000000002,-1.9799999999999995,100.0,1.0,1.0,210.85000000000002,0.0,0.0,0.0,0.0,0.0,0.0,0.0,8937.2,0.0,55.0,5.0,246.15666666666667,0.0,0.0,0.0,0.0,0.0,0.0,0.0,0.0,1.0109999999999992,1.0109999999999992,0.0,0.0,0.0,55.0,616.79921,10000.0,85.000001,85.000001,85.000001,85.000001,395.0,0.0,0.0,0.0,1.0,166.665,52.628,52.628,46.356,46.356,34.0,-16.8925,31.003333333333334,-22.369999999999997,36.3025,0.0,1782.651,-1.754999999999999,100.0,27.201,28.618000000000002,43.536,45.259,0.0,1.0,100.0,0.0,0.0,0.0,0.0,2952.142857142857,3203.4,4052.625,4207.2,306.103,304.5135,315.00175,314.269,21.9557,20.6169,21.9509,21.4568,314.999998,314.999998,324.999988,324.999988,99.55861428571428,99.5073,99.56737142857143,99.54685714285715,0.23675000000000024,0.10175000000000001,0.015666666666666718,0.24583333333333335,-0.04333333333332945,-0.051666666666669414,1.5343333333333333,1.4515,38.223,29.855666666666664,38.193,35.105000000000004,55.879000000000005,35.178,59.6385,52.5045,53.821,34.3225,58.223,50.821,52.980999999999995,33.885,58.135,50.218,-0.21599999999999997,0.05699999999999994,0.10901500000000001,0.10679000000000001,0.0,214.01,214.16,210.85000000000002,210.85000000000002,0.0,0.0
21,0.0,1.0,0.0,1.0,1.0,0.0,0.0,1.0,0.0,100.0,1.0,1.1856,26.0,0.0,0.0,0.0,59.999996,0.0,26.0,26.0,26.0,26.0,0.21988888888888902,0.28459999999999996,-0.074175,292.16,-2.8016,-2.622625,-1.6938,-1.4757,-205.11,215.9425,190.55,0.0,0.0,0.0,0.0,0.0426333333333333,-5.498166666666667,-5.498166666666667,-0.5633,0.4564999999999999,0.09188888888888891,0.8239999999999998,68.501,0.1305,-0.20635,-2.21,100.0,1.0,1.0,211.40333333333334,0.0,0.0,0.0,0.0,0.0,0.0,0.0,8960.6,0.0,55.0,5.0,246.57333333333332,1.0,0.0,0.0,0.0,0.0,0.0,0.0,0.0,1.056000000000001,1.056000000000001,0.0,0.0,1.0,55.0,616.79921,10000.0,85.000001,85.000001,85.000001,85.000001,395.0,0.0,0.0,0.0,1.0,166.665,52.246,52.246,47.394,47.394,34.0,-17.1675,31.255,-20.053333333333335,35.93,0.0,1782.605,-1.1099999999999994,100.0,27.753,28.716,42.965,44.702,0.0,1.0,100.0,0.0,0.0,0.0,0.0,2878.4285714285716,3294.1,3852.125,4193.6,306.0645,304.36875,315.49275,314.57775,21.9639,20.6221,21.9599,21.4648,314.999998,314.999998,324.999988,324.999988,99.55864285714286,99.50731666666667,99.5675,99.54698571428571,0.21850000000000014,0.07824999999999993,0.04899999999999993,0.2738333333333334,-0.01999999999999602,-0.06333333333333258,1.6276666666666666,1.5505,38.275,29.887999999999998,38.248999999999995,35.155,55.873999999999995,35.219,59.666,52.5595,53.816,34.36,58.2485,50.874,52.975,33.9215,58.158,50.269999999999996,-0.16949999999999998,0.010999999999999899,0.11274500000000001,0.10797500000000002,0.0,214.39,214.56,211.40333333333334,211.40333333333334,0.0,0.0
22,0.0,1.0,0.0,1.0,1.0,0.0,0.0,1.0,0.0,100.0,1.0,1.1856,26.0,0.0,0.0,0.0,59.999996,0.0,26.0,26.0,26.0,26.0,0.15799999999999992,0.258,0.0046500000000000005,291.595,-2.7383,-2.62025,-1.6797,-1.473,-201.61,215.95,190.526125,0.0,0.0,0.0,0.0,0.04466666666666652,-5.498166666666667,-5.498166666666667,-0.5464,0.02849999999999997,0.08633333333333315,-1.0869999999999997,68.639,0.137,-0.19265000000000002,-0.944,100.0,1.0,1.0,211.61333333333334,0.0,0.0,0.0,0.0,0.0,0.0,0.0,8969.5,0.0,55.0,5.0,247.07333333333332,0.0,0.0,0.0,0.0,0.0,0.0,0.0,0.0,1.1069999999999993,1.1069999999999993,0.0,0.0,0.0,55.0,616.79921,10000.0,85.000001,85.000001,85.000001,85.000001,395.0,0.0,0.0,0.0,1.0,166.665,52.2,52.2,46.295,46.295,34.0,-20.03,26.788333333333334,-23.839999999999996,36.082499999999996,0.0,1782.553,0.365000000000002,100.0,27.718,28.993000000000002,43.233000000000004,45.204,0.0,1.0,100.0,0.0,0.0,0.0,0.0,2919.857142857143,3152.9,4221.625,4333.4,306.0425,304.56,314.68025,314.08475,21.9732,20.6279,21.970399999999998,21.4742,314.999998,314.999998,324.999988,324.999988,99.55865714285714,99.50731666666667,99.56764285714286,99.54715714285715,0.14100000000000001,-0.0010000000000000009,0.025500000000000078,0.23533333333333317,-0.061666666666667425,-0.02499999999999858,1.5110000000000001,1.4625000000000001,38.333,29.924333333333333,38.315,35.213499999999996,55.864000000000004,35.2605,59.7055,52.6265,53.806,34.3985,58.285,50.938,52.964,33.9585,58.1905,50.333,-0.058499999999999996,-0.09850000000000003,0.10594,0.097835,0.0,214.875,214.93,211.61333333333334,211.61333333333334,0.0,0.0
23,0.0,1.0,0.0,1.0,1.0,0.0,0.0,1.0,0.0,100.0,1.0,1.1856,26.0,0.0,0.0,0.0,59.999996,0.0,26.0,26.0,26.0,26.0,0.06344444444444441,0.26180000000000003,-0.081175,291.641,-2.7377,-2.597625,-1.7040000000000002,-1.4784000000000002,-197.89999999999998,215.9625,190.50125,0.0,0.0,0.0,0.0,0.04679999999999995,-5.498166666666667,-5.498166666666667,-0.5634,-0.020000000000000018,0.052999999999999936,-1.7930000000000001,68.781,0.0915,-0.21577500000000002,0.5220000000000002,100.0,1.0,1.0,212.18333333333334,0.0,0.0,0.0,0.0,0.0,0.0,0.0,8993.6,0.0,55.0,5.0,247.58333333333334,1.0,0.0,0.0,0.0,0.0,0.0,0.0,0.0,1.1610000000000014,1.1610000000000014,0.0,0.0,1.0,55.0,616.79921,10000.0,85.000001,85.000001,85.000001,85.000001,395.0,0.0,0.0,0.0,1.0,111.11,51.575,51.575,47.241,47.241,34.0,-24.599999999999998,24.27166666666667,-26.976666666666663,29.34,0.0,1782.501,0.8399999999999999,100.0,28.242,28.89,43.486000000000004,45.169,0.0,1.0,100.0,0.0,0.0,0.0,0.0,3212.857142857143,3134.5,4081.125,3952.8,305.1775,304.689,315.1265,315.01975,21.9832,20.634,21.9815,21.484,314.999998,314.999998,324.999988,324.999988,99.55867142857143,99.50731666666667,99.5678,99.54731428571428,0.09224999999999994,-0.04949999999999999,-0.0528333333333334,0.1811666666666667,-0.05666666666667197,-0.041666666666671404,1.555,1.5725,38.394999999999996,29.962666666666664,38.384,35.2745,55.852000000000004,35.303,59.744,52.6945,53.794,34.438,58.320499999999996,51.004,52.951,33.996,58.223,50.3975,-0.01749999999999985,-0.14849999999999985,0.108935,0.10549000000000001,0.0,215.345,215.305,212.18333333333334,212.18333333333334,0.0,0.0
24,0.0,1.0,0.0,1.0,1.0,0.0,0.0,1.0,0.0,100.0,1.0,1.1856,26.0,0.0,0.0,0.0,59.999996,0.0,26.0,26.0,26.0,26.0,-0.004555555555555535,0.2731000000000001,0.0023250000000000002,291.87,-2.7289,-2.646375,-1.5977000000000001,-1.5331000000000001,-194.81,215.9725,190.480125,0.0,0.0,0.0,0.0,0.04859999999999998,-5.498166666666667,-5.498166666666667,-0.5669000000000001,-0.492,0.035777777777777686,0.919,68.901,0.0375,-0.20285,0.9939999999999998,100.0,1.0,1.0,212.43666666666667,0.0,0.0,0.0,0.0,0.0,0.0,0.0,9004.4,0.0,55.0,5.0,248.01333333333332,0.0,0.0,0.0,0.0,0.0,0.0,0.0,0.0,1.2059999999999995,1.2059999999999995,0.0,0.0,0.0,55.0,616.79921,10000.0,85.000001,85.000001,85.000001,85.000001,395.0,0.0,0.0,0.0,1.0,166.665,52.765,52.765,46.219,46.219,34.0,-23.195,22.636666666666667,-29.56,29.587500000000002,0.0,1782.455,0.9849999999999994,100.0,28.123,28.13,44.105000000000004,44.686,0.0,1.0,100.0,0.0,0.0,0.0,0.0,2870.285714285714,3071.1,4250.5,4173.0,306.055,305.1715,314.451,314.6185,21.9913,20.6389,21.9907,21.492,314.999998,314.999998,324.999988,324.999988,99.55868571428572,99.50733333333334,99.56792857142857,99.54744285714285,0.05325000000000024,-0.07774999999999999,-0.09266666666666656,0.13250000000000006,-0.023333333333326323,-0.03999999999999915,1.5023333333333333,1.5290000000000001,38.446,29.993000000000002,38.442,35.325,55.838,35.3375,59.778,52.749,53.781,34.47,58.352000000000004,51.0565,52.937,34.0265,58.2515,50.449,0.006000000000000227,-0.15399999999999991,0.11096,0.10431000000000001,0.0,215.735,215.64,212.43666666666667,212.43666666666667,0.0,0.0
25,0.0,1.0,0.0,1.0,1.0,0.0,0.0,1.0,0.0,100.0,1.0,1.1856,26.0,0.0,0.0,0.0,59.999996,0.0,26.0,26.0,26.0,26.0,-0.05899999999999994,0.2670000000000001,-0.026600000000000002,291.84,-2.7513,-2.6485000000000003,-1.5751,-1.5715000000000001,-191.07999999999998,215.985,190.453375,0.0,0.0,0.0,0.0,0.050766666666666516,-5.498166666666667,-5.498166666666667,-0.5941000000000001,0.22499999999999987,-0.002666666666666817,-0.347,69.041,-0.0267,-0.203825,1.4879999999999995,100.0,1.0,1.0,213.01,0.0,0.0,0.0,0.0,0.0,0.0,0.0,9028.7,0.0,55.0,5.0,248.51999999999998,1.0,0.0,0.0,0.0,0.0,0.0,0.0,0.0,1.259999999999998,1.259999999999998,0.0,0.0,1.0,55.0,616.79921,10000.0,85.000001,85.000001,85.000001,85.000001,395.0,0.0,0.0,0.0,1.0,111.11,51.788,51.788,47.15,47.15,34.0,-28.7725,22.543333333333333,-29.599999999999998,25.675,0.0,1782.402,1.004999999999999,100.0,28.322,28.113,44.051,43.966,0.0,1.0,100.0,0.0,0.0,0.0,0.0,3266.857142857143,3263.6,3971.0,4029.6000000000004,304.9915,304.53675,315.17375,314.97475,22.0013,20.6448,22.0017,21.5016,314.999998,314.999998,324.999988,324.999988,99.55868571428572,99.50735,99.56808571428571,99.54758571428572,0.014000000000000234,-0.118,-0.15200000000000002,0.07433333333333336,-0.03499999999999659,-0.04999999999999716,1.5436666666666667,1.6065,38.507999999999996,30.03,38.510999999999996,35.385,55.821,35.382999999999996,59.8155,52.8105,53.763999999999996,34.5115,58.387,51.116,52.919,34.0665,58.283,50.5075,-0.0015000000000000568,-0.16300000000000026,0.110185,0.10159000000000001,0.0,216.2,216.075,213.01,213.01,0.0,0.0
26,0.0,1.0,0.0,1.0,1.0,0.0,0.0,1.0,0.0,100.0,1.0,1.1856,26.0,0.0,0.0,0.0,59.999996,0.0,26.0,26.0,26.0,26.0,-0.12944444444444447,0.27659999999999996,0.042325,290.726,-2.668,-2.763375,-1.5923,-1.5995000000000001,-187.56,215.995,190.427625,0.0,0.0,0.0,0.0,0.0528333333333334,-5.498166666666667,-5.498166666666667,-0.5558000000000001,0.36450000000000005,-0.05900000000000016,-1.287,69.17699999999999,-0.0721,-0.180675,1.6240000000000006,100.0,1.0,1.0,213.13333333333333,0.0,0.0,0.0,0.0,0.0,0.0,0.0,9034.0,0.0,55.0,5.0,249.01,0.0,0.0,0.0,0.0,0.0,0.0,0.0,0.0,1.311,1.311,0.0,0.0,0.0,55.0,616.79921,10000.0,85.000001,85.000001,85.000001,85.000001,395.0,0.0,0.0,0.0,1.0,166.665,51.559,51.559,45.242,45.242,34.0,-29.18,19.26833333333333,-40.52333333333333,26.585,0.0,1782.35,0.865000000000002,100.0,29.154,28.535,44.911,44.29,0.0,1.0,100.0,0.0,0.0,0.0,0.0,3294.285714285714,2915.4,4732.75,4410.5,304.8785,305.3685,313.4595,313.9475,22.011,20.6504,22.0125,21.5108,314.999998,314.999998,324.999988,324.999988,99.5587,99.50736666666667,99.56824285714286,99.54774285714285,-0.005749999999999922,-0.16100000000000003,-0.2048333333333333,0.01866666666666661,-0.04833333333333201,-0.041666666666671404,1.4156666666666666,1.4725,38.569,30.064999999999998,38.578,35.442499999999995,55.808,35.428,59.8595,52.8725,53.751999999999995,34.5535,58.428,51.175,52.906,34.1065,58.321,50.5655,-0.020999999999999908,-0.1535000000000002,0.107935,0.10892,0.0,216.655,216.51,213.13333333333333,213.13333333333333,0.0,0.0
27,0.0,1.0,0.0,1.0,1.0,0.0,0.0,1.0,0.0,100.0,1.0,1.1856,26.0,0.0,0.0,0.0,59.999996,0.0,26.0,26.0,26.0,26.0,-0.16266666666666663,0.24780000000000002,-0.042675000000000005,291.367,-2.6201,-2.7415000000000003,-1.5702,-1.6777000000000002,-184.23000000000002,216.0025,190.4045,0.0,0.0,0.0,0.0,0.05476666666666652,-5.498166666666667,-5.498166666666667,-0.5914,-1.004,-0.07044444444444453,-1.2469999999999999,69.3,-0.0951,-0.23445000000000002,1.556000000000001,100.0,1.0,1.0,213.7,0.0,0.0,0.0,0.0,0.0,0.0,0.0,9058.0,0.0,55.0,5.0,249.45333333333335,1.0,0.0,0.0,0.0,0.0,0.0,0.0,0.0,1.3589999999999982,1.3589999999999982,0.0,0.0,1.0,55.0,616.79921,10000.0,85.000001,85.000001,85.000001,85.000001,395.0,0.0,0.0,0.0,1.0,166.665,51.697,51.697,46.295,46.295,34.0,-30.36,18.913333333333334,-35.44,22.009999999999998,0.0,1782.301,0.7100000000000009,100.0,29.009,28.295,45.346000000000004,44.476,0.0,1.0,100.0,0.0,0.0,0.0,0.0,3331.714285714286,2970.1,4148.875,3853.1,304.9315,305.22475,314.7795,315.1755,22.02,20.6555,22.0226,21.5195,314.999998,314.999998,324.999988,324.999988,99.5587,99.50738333333334,99.56838571428571,99.54788571428571,-0.038999999999999924,-0.17425000000000002,-0.23416666666666663,-0.01100000000000001,-0.05333333333332746,-0.041666666666671404,1.4966666666666666,1.559,38.625,30.097,38.641,35.497,55.794,35.4695,59.8995,52.929,53.739000000000004,34.591499999999996,58.466,51.2295,52.891999999999996,34.143,58.3555,50.618,-0.02299999999999991,-0.14150000000000018,0.10755500000000001,0.10407000000000001,0.0,216.99,216.845,213.7,213.7,0.0,0.0
28,0.0,1.0,0.0,1.0,1.0,0.0,0.0,1.0,0.0,100.0,1.0,1.1856,26.0,0.0,0.0,0.0,59.999996,0.0,26.0,26.0,26.0,26.0,-0.1587777777777778,0.25960000000000005,-0.061575000000000005,291.489,-2.6365,-2.7359999999999998,-1.5104000000000002,-1.647,-180.89999999999998,216.005,190.3805,0.0,0.0,0.0,0.0,0.05669999999999997,-5.498166666666667,-5.498166666666667,-0.5911000000000001,0.635,-0.08311111111111114,-1.1879999999999997,69.422,-0.10930000000000001,-0.20185,1.4900000000000002,100.0,1.0,1.0,214.13333333333333,0.0,0.0,0.0,0.0,0.0,0.0,0.0,9076.4,0.0,55.0,5.0,249.89333333333335,0.0,0.0,0.0,0.0,0.0,0.0,0.0,0.0,1.407,1.407,0.0,0.0,0.0,55.0,616.79921,10000.0,85.000001,85.000001,85.000001,85.000001,395.0,0.0,0.0,0.0,1.0,166.665,51.712,51.712,46.829,46.829,34.0,-30.182499999999997,18.248333333333335,-35.79,22.255000000000003,0.0,1782.255,0.5250000000000021,100.0,29.27,28.248,44.827,43.83,0.0,1.0,100.0,0.0,0.0,0.0,0.0,3335.857142857143,2879.4,4261.75,3973.4,304.7875,305.5065,314.677,314.968,22.029,20.6607,22.0324,21.5279,314.999998,314.999998,324.999988,324.999988,99.55871428571429,99.5074,99.56851428571429,99.54801428571429,-0.026000000000000023,-0.17325000000000002,-0.24283333333333335,-0.01100000000000001,-0.05833333333333002,-0.04833333333333201,1.5293333333333332,1.5835000000000001,38.681,30.128999999999998,38.702,35.5495,55.782,35.5115,59.9345,52.9825,53.727999999999994,34.629999999999995,58.4985,51.2805,52.879999999999995,34.1795,58.3855,50.668,-0.04499999999999993,-0.1299999999999999,0.10788500000000001,0.11139500000000001,0.0,217.41,217.26999999999998,214.13333333333333,214.13333333333333,0.0,0.0
29,0.0,1.0,0.0,1.0,1.0,0.0,0.0,1.0,0.0,100.0,1.0,1.1856,26.0,0.0,0.0,0.0,59.999996,0.0,26.0,26.0,26.0,26.0,-0.16122222222222216,0.2529000000000001,0.02775,291.168,-2.5765,-2.79275,-1.5459,-1.6259000000000001,-177.14999999999998,216.005,190.3525,0.0,0.0,0.0,0.0,0.05886666666666651,-5.498166666666667,-5.498166666666667,-0.5978,-0.5714999999999999,-0.08266666666666644,-0.9689999999999999,69.563,-0.10840000000000001,-0.20695000000000002,1.1440000000000001,100.0,1.0,1.0,214.42000000000002,0.0,0.0,0.0,0.0,0.0,0.0,0.0,9088.4,0.0,55.0,5.0,250.40333333333334,1.0,0.0,0.0,0.0,0.0,0.0,0.0,0.0,1.4609999999999985,1.4609999999999985,0.0,0.0,1.0,55.0,616.79921,10000.0,85.000001,85.000001,85.000001,85.000001,395.0,0.0,0.0,0.0,1.0,166.665,51.666,51.666,46.097,46.097,34.0,-30.29,19.35333333333333,-37.019999999999996,23.1075,0.0,1782.201,0.38500000000000156,100.0,28.986,28.078,45.316,44.082,0.0,1.0,100.0,0.0,0.0,0.0,0.0,3403.0,2945.9,4316.125,4107.3,304.6425,305.25575,314.4145,314.61175,22.039,20.6664,22.0437,21.5377,314.999998,314.999998,324.999988,324.999988,99.55871428571429,99.50743333333334,99.56868571428572,99.54817142857142,-0.027249999999999996,-0.17149999999999999,-0.23566666666666658,-0.01316666666666666,-0.046666666666666856,-0.04833333333333201,1.4696666666666665,1.491,38.744,30.164666666666665,38.772999999999996,35.6105,55.766999999999996,35.557,59.980000000000004,53.0465,53.713,34.672,58.541,51.342,52.864000000000004,34.2195,58.425,50.728,-0.05449999999999999,-0.1080000000000001,0.11264500000000001,0.10226500000000001,0.0,217.79000000000002,217.69,214.42000000000002,214.42000000000002,0.0,0.0
30,0.0,1.0,0.0,1.0,1.0,0.0,0.0,1.0,0.0,100.0,1.0,1.1856,26.0,0.0,0.0,0.0,59.999996,0.0,26.0,26.0,26.0,26.0,-0.12611111111111106,0.25350000000000006,0.027175,290.71,-2.6344,-2.778875,-1.487,-1.683,-173.81,216.0025,190.327625,0.0,0.0,0.0,0.0,0.060799999999999965,-5.498166666666667,-5.498166666666667,-0.5895,0.7070000000000001,-0.08044444444444432,-0.6720000000000002,69.685,-0.1,-0.202125,1.016,100.0,1.0,1.0,214.82666666666665,0.0,0.0,0.0,0.0,0.0,0.0,0.0,9105.7,0.0,55.0,5.0,250.84,0.0,0.0,0.0,0.0,0.0,0.0,1.0,0.0,1.5090000000000003,1.5090000000000003,0.0,0.0,0.0,55.0,616.79921,10000.0,85.000001,85.000001,85.000001,85.000001,395.0,0.0,0.0,0.0,1.0,166.665,50.751,50.751,46.204,46.204,34.0,-30.8275,20.35333333333333,-35.99666666666667,24.615000000000002,0.0,1782.153,0.19500000000000028,100.0,29.84,28.755,45.153,44.108000000000004,0.0,1.0,100.0,0.0,0.0,0.0,0.0,3505.857142857143,3029.9,4377.375,4066.1000000000004,304.3275,305.152,314.31425,314.68175,22.0482,20.6717,22.0536,21.5463,314.999998,314.999998,324.999988,324.999988,99.55871428571429,99.50745,99.56882857142857,99.54831428571428,-0.0029999999999998916,-0.15649999999999997,-0.22133333333333338,0.006166666666666654,-0.04833333333333201,-0.04333333333332945,1.47,1.5125,38.801,30.198,38.835,35.664500000000004,55.756,35.6,60.016999999999996,53.102000000000004,53.703,34.7115,58.5755,51.3955,52.854,34.2575,58.4565,50.78,-0.0714999999999999,-0.10250000000000004,0.10928,0.110755,0.0,218.20499999999998,218.11,214.82666666666665,214.82666666666665,0.0,0.0
31,0.0,1.0,0.0,1.0,1.0,0.0,0.0,1.0,0.0,100.0,1.0,1.1856,26.0,0.0,0.0,0.0,59.999996,0.0,26.0,26.0,26.0,26.0,-0.12444444444444447,0.2591000000000001,-0.002925,290.604,-2.7045,-2.6557500000000003,-1.5373,-1.6709,-170.45999999999998,215.995,190.303375,0.0,0.0,0.0,0.0,0.06276666666666653,-5.498166666666667,-5.498166666666667,-0.5844,-0.6600000000000001,-0.06911111111111135,-1.0259999999999998,69.809,-0.0821,-0.21450000000000002,0.6040000000000001,100.0,1.0,1.0,215.10000000000002,0.0,0.0,0.0,0.0,0.0,0.0,0.0,9117.3,0.0,55.0,5.0,251.28666666666666,1.0,0.0,0.0,0.0,0.0,0.0,1.0,0.0,1.5569999999999986,1.5569999999999986,0.0,0.0,1.0,55.0,616.79921,10000.0,85.000001,85.000001,85.000001,85.000001,395.0,0.0,0.0,0.0,1.0,166.665,51.285,51.285,45.028999999999996,45.028999999999996,34.0,-28.9025,20.063333333333333,-36.63333333333333,26.375,0.0,1782.106,0.15500000000000114,100.0,29.353,28.839,45.63,44.653999999999996,0.0,1.0,100.0,0.0,0.0,0.0,0.0,3323.285714285714,3086.6,4470.5,4208.9,305.0225,305.0535,314.0185,314.413,22.0571,20.677,22.0637,21.5551,314.999998,314.999998,324.999988,324.999988,99.55871428571429,99.50746666666667,99.56897142857143,99.54845714285715,0.008750000000000036,-0.14525,-0.19933333333333336,0.021333333333333426,-0.03166666666666629,-0.04833333333333201,1.46,1.473,38.857,30.231,38.897999999999996,35.7195,55.742000000000004,35.641999999999996,60.0585,53.161,53.69,34.75,58.6145,51.452,52.839,34.2945,58.4925,50.8345,-0.07699999999999996,-0.09549999999999992,0.10474000000000001,0.10988500000000001,0.0,218.51999999999998,218.47,215.10000000000002,215.10000000000002,0.0,0.0
32,0.0,1.0,0.0,1.0,1.0,0.0,0.0,1.0,0.0,100.0,1.0,1.1856,26.0,0.0,0.0,0.0,59.999996,0.0,26.0,26.0,26.0,26.0,-0.11299999999999999,0.27570000000000006,-0.026275,290.878,-2.6126,-2.6938750000000002,-1.6043,-1.5750000000000002,-166.69,215.98250000000002,190.27625,0.0,0.0,0.0,0.0,0.0649666666666665,-5.498166666666667,-5.498166666666667,-0.6004,0.22999999999999998,-0.08999999999999986,-1.2160000000000002,69.944,-0.0654,-0.21745,0.5739999999999998,100.0,1.0,1.0,215.63666666666666,0.0,0.0,0.0,0.0,0.0,0.0,0.0,9140.1,0.0,55.0,5.0,251.76999999999998,0.0,0.0,0.0,0.0,0.0,0.0,1.0,0.0,1.6110000000000007,1.6110000000000007,0.0,0.0,0.0,55.0,616.79921,10000.0,85.000001,85.000001,85.000001,85.000001,395.0,0.0,0.0,0.0,1.0,166.665,51.208,51.208,45.99,45.99,34.0,-27.6625,20.733333333333334,-35.486666666666665,25.377499999999998,0.0,1782.051,0.08999999999999986,100.0,29.423000000000002,28.831,45.147,44.435,0.0,1.0,100.0,0.0,0.0,0.0,0.0,3327.4285714285716,3005.1,4371.625,4150.7,304.8025,305.138,314.41825,314.60075,22.0672,20.683,22.0748,21.564799999999998,314.999998,314.999998,324.999988,324.999988,99.55871428571429,99.50748333333334,99.56914285714285,99.5486,0.02375000000000016,-0.12724999999999997,-0.18866666666666665,0.04249999999999998,-0.061666666666667425,-0.04333333333332945,1.5206666666666666,1.545,38.92,30.268666666666668,38.967,35.78,55.727000000000004,35.688,60.0985,53.222,53.676,34.793,58.652,51.5105,52.824,34.335,58.5265,50.891999999999996,-0.0754999999999999,-0.09250000000000025,0.11233000000000001,0.11109500000000001,0.0,218.98000000000002,218.91500000000002,215.63666666666666,215.63666666666666,0.0,0.0
33,0.0,1.0,0.0,1.0,1.0,0.0,0.0,1.0,0.0,100.0,1.0,1.1856,26.0,0.0,0.0,0.0,59.999996,0.0,26.0,26.0,26.0,26.0,-0.0818888888888889,0.26290000000000013,-0.0049,291.077,-2.6628,-2.7445,-1.5427,-1.6440000000000001,-163.32999999999998,215.97,190.251,0.0,0.0,0.0,0.0,0.06689999999999996,-5.498166666666667,-5.498166666666667,-0.6018,-0.37849999999999984,-0.07833333333333359,-0.347,70.066,-0.0555,-0.202,0.41600000000000037,100.0,1.0,1.0,215.94666666666666,0.0,0.0,0.0,0.0,0.0,0.0,0.0,9153.1,0.0,55.0,5.0,252.21333333333334,1.0,0.0,0.0,0.0,0.0,0.0,1.0,0.0,1.658999999999999,1.658999999999999,0.0,0.0,1.0,55.0,616.79921,10000.0,85.000001,85.000001,85.000001,85.000001,395.0,0.0,0.0,0.0,1.0,166.665,51.879999999999995,51.879999999999995,45.975,45.975,34.0,-26.7525,21.21,-33.64666666666666,27.1375,0.0,1782.002,-0.07499999999999929,100.0,29.029,28.401,45.228,44.593,0.0,1.0,100.0,0.0,0.0,0.0,0.0,3253.142857142857,2911.7,4301.5,4177.3,305.1465,305.42225,314.4605,314.42975,22.076,20.6881,22.084699999999998,21.5735,314.999998,314.999998,324.999988,324.999988,99.55872857142857,99.5075,99.56928571428571,99.54875714285714,0.035499999999999865,-0.10799999999999998,-0.17599999999999993,0.04733333333333323,-0.054999999999999716,-0.036666666666668846,1.4866666666666666,1.5,38.975,30.300666666666665,39.028999999999996,35.8345,55.713,35.7255,60.135,53.278,53.662,34.8275,58.686,51.5645,52.811,34.368,58.5575,50.9445,-0.09050000000000002,-0.06850000000000023,0.10773500000000001,0.110975,0.0,219.335,219.28,215.94666666666666,215.94666666666666,0.0,0.0
34,0.0,1.0,0.0,1.0,1.0,0.0,0.0,1.0,0.0,100.0,1.0,1.1856,26.0,0.0,0.0,0.0,59.999996,0.0,26.0,26.0,26.0,26.0,-0.07011111111111101,0.24330000000000007,-0.043225,291.504,-2.6805,-2.723875,-1.6114000000000002,-1.6073000000000002,-159.95999999999998,215.95749999999998,190.224625,0.0,0.0,0.0,0.0,0.06886666666666652,-5.498166666666667,-5.498166666666667,-0.632,-0.7749999999999999,-0.04211111111111121,-0.41999999999999993,70.186,-0.0419,-0.21065,0.2679999999999998,100.0,1.0,1.0,216.39333333333332,0.0,0.0,0.0,0.0,0.0,0.0,0.0,9172.1,0.0,55.0,5.0,252.64333333333335,0.0,0.0,0.0,0.0,0.0,0.0,1.0,0.0,1.7070000000000007,1.7070000000000007,0.0,0.0,0.0,55.0,616.79921,10000.0,85.000001,85.000001,85.000001,85.000001,395.0,0.0,0.0,0.0,1.0,166.665,52.246,52.246,46.692,46.692,34.0,-25.3925,21.80833333333333,-32.443333333333335,26.61,0.0,1781.953,-0.125,100.0,28.674,28.08,44.905,44.692,0.0,1.0,100.0,0.0,0.0,0.0,0.0,3152.142857142857,2937.0,4134.875,4068.4,305.311,305.32525,314.94,314.71175,22.084699999999998,20.6933,22.0944,21.5822,314.999998,314.999998,324.999988,324.999988,99.55872857142857,99.5075,99.56941428571429,99.54888571428572,0.05250000000000021,-0.09450000000000003,-0.16966666666666663,0.06516666666666682,-0.060000000000002274,-0.03999999999999915,1.5110000000000001,1.5175,39.028999999999996,30.332666666666668,39.09,35.888999999999996,55.699,35.762,60.169,53.3345,53.649,34.861000000000004,58.718,51.6185,52.796,34.4,58.5865,50.997,-0.09699999999999998,-0.06150000000000011,0.110365,0.108505,0.0,219.68,219.635,216.39333333333332,216.39333333333332,0.0,0.0
35,0.0,1.0,0.0,1.0,1.0,0.0,0.0,1.0,0.0,100.0,1.0,1.1856,26.0,0.0,0.0,0.0,59.999996,0.0,26.0,26.0,26.0,26.0,-0.03544444444444439,0.24730000000000008,-0.0639,291.489,-2.685,-2.67525,-1.5799,-1.6158000000000001,-156.17000000000002,215.94,190.19275,0.0,0.0,0.0,0.0,0.07106666666666661,-5.498166666666667,-5.498166666666667,-0.6705,-0.08999999999999986,-0.04899999999999993,-1.6210000000000004,70.32,-0.0261,-0.2101,0.13400000000000034,100.0,1.0,1.0,216.88666666666666,0.0,0.0,0.0,0.0,0.0,0.0,0.0,9193.0,0.0,55.0,5.0,253.12666666666667,1.0,0.0,0.0,0.0,0.0,0.0,1.0,0.0,1.7609999999999992,1.7609999999999992,0.0,0.0,1.0,55.0,616.79921,10000.0,85.000001,85.000001,85.000001,85.000001,395.0,0.0,0.0,0.0,1.0,166.665,51.62,51.62,46.417,46.417,34.0,-26.1825,24.671666666666667,-29.72,26.314999999999998,0.0,1781.901,-0.08999999999999986,100.0,28.323999999999998,28.544,44.56,44.263000000000005,0.0,1.0,100.0,0.0,0.0,0.0,0.0,3264.142857142857,3272.1,4043.125,3884.2,305.0725,304.354,315.1325,315.19175,22.0944,20.6993,22.1054,21.5918,314.999998,314.999998,324.999988,324.999988,99.55874285714286,99.50751666666666,99.56958571428571,99.54904285714285,0.05675000000000008,-0.08324999999999994,-0.1433333333333333,0.09116666666666684,-0.051666666666669414,-0.03999999999999915,1.5566666666666666,1.567,39.09,30.370666666666665,39.159,35.949,55.683,35.8055,60.206,53.394,53.632999999999996,34.900999999999996,58.7525,51.676,52.78,34.4385,58.6175,51.053,-0.09050000000000002,-0.06999999999999984,0.10891,0.11167,0.0,220.10000000000002,220.05,216.88666666666666,216.88666666666666,0.0,0.0
36,0.0,1.0,0.0,1.0,1.0,0.0,0.0,1.0,0.0,100.0,1.0,1.1856,26.0,0.0,0.0,0.0,59.999996,0.0,26.0,26.0,26.0,26.0,-0.03466666666666662,0.25639999999999996,0.0745,290.512,-2.6295,-2.6445,-1.55,-1.6109,-153.0,215.925,190.164875,0.0,0.0,0.0,0.0,0.07289999999999996,-5.498166666666667,-5.498166666666667,-0.6504,0.135,-0.0818888888888889,0.08499999999999996,70.436,-0.0177,-0.18182500000000001,0.09600000000000009,100.0,1.0,1.0,216.96333333333334,0.0,0.0,0.0,0.0,0.0,0.0,0.0,9196.3,0.0,55.0,5.0,253.54000000000002,0.0,0.0,0.0,0.0,0.0,0.0,1.0,0.0,1.806000000000001,1.806000000000001,0.0,0.0,0.0,55.0,616.79921,10000.0,85.000001,85.000001,85.000001,85.000001,395.0,0.0,0.0,0.0,1.0,166.665,51.361000000000004,51.361000000000004,45.547,45.547,34.0,-24.155,24.418333333333333,-32.70666666666666,32.510000000000005,0.0,1781.854,-0.120000000000001,100.0,29.08,28.584,44.916,44.509,0.0,1.0,100.0,0.0,0.0,0.0,0.0,3186.142857142857,3197.7,4458.5,4563.3,304.9015,304.805,314.0305,313.6775,22.1026,20.7044,22.1146,21.6001,314.999998,314.999998,324.999988,324.999988,99.55874285714286,99.50753333333333,99.56971428571428,99.54918571428571,0.08499999999999996,-0.061999999999999944,-0.12383333333333335,0.09483333333333333,-0.045000000000001705,-0.03833333333332689,1.4286666666666665,1.441,39.141,30.40233333333333,39.216,36.0005,55.672,35.842,60.24,53.448499999999996,53.623000000000005,34.9345,58.784,51.7285,52.769,34.4705,58.646,51.1045,-0.09299999999999997,-0.06950000000000012,0.10934,0.095265,0.0,220.48000000000002,220.445,216.96333333333334,216.96333333333334,0.0,0.0
