,ABS Active,ABS Enabled,AID Allow Tire Blankets,AID Auto Blip,AID Auto Clutch,AID Auto Shift,AID Fuel Rate,AID Ideal Line,AID Mech Damage,AID Stability,AID Tire Wear Rate,Air Density,Air Temp,Ballast,Best Lap Delta,Best Lap Time,Brake Bias,Brake Pos,Brake Temp FL,Brake Temp FR,Brake Temp RL,Brake Temp RR,CG Accel Lateral,CG Accel Longitudinal,CG Accel Vertical,CG Height,Camber FL,Camber FR,Camber RL,Camber RR,Car Coord X,Car Coord Y,Car Coord Z,Car Damage Front,Car Damage Left,Car Damage Rear,Car Damage Right,Car Pos Norm,Caster FL,Caster FR,Chassis Pitch Angle,Chassis Pitch Rate,Chassis Roll Angle,Chassis Roll Rate,Chassis Velocity X,Chassis Velocity Y,Chassis Velocity Z,Chassis Yaw Rate,Clutch Pos,DRS Active,DRS Available,Drive Train Speed,ERS Heat Charging,ERS Is Charging,ERS Max Energy,ERS Power Level,ERS Recovery Level,Engine Brake Setting,Engine Limiter,Engine RPM,Flags,Fuel Level,Gear,Ground Speed,HR Sample Clock,In Pit,KERS Charge,KERS Deployed Energy,KERS Input,KERS Max Energy,LR Sample Clock,Lap Invalidated,Lap Time,Lap Time2,Last Lap Time,Last Sector Time,MR Sample Clock,Max Fuel,Max Power,Max RPM,Max Sus Travel FL,Max Sus Travel FR,Max Sus Travel RL,Max Sus Travel RR,Max Torque,Max Turbo Boost,Num Tires Off Track,Penalties Enabled,Position,Raw Data Sample Rate,Ride Height FL,Ride Height FR,Ride Height RL,Ride Height RR,Road Temp,Self Align Torque FL,Self Align Torque FR,Self Align Torque RL,Self Align Torque RR,Session Lap Count,Session Time Left,Steering Angle,Surface Grip,Suspension Travel FL,Suspension Travel FR,Suspension Travel RL,Suspension Travel RR,TC Active,TC Enabled,Throttle Pos,Tire Dirt Level FL,Tire Dirt Level FR,Tire Dirt Level RL,Tire Dirt Level RR,Tire Load FL,Tire Load FR,Tire Load RL,Tire Load RR,Tire Loaded Radius FL,Tire Loaded Radius FR,Tire Loaded Radius RL,Tire Loaded Radius RR,Tire Pressure FL,Tire Pressure FR,Tire Pressure RL,Tire Pressure RR,Tire Radius FL,Tire Radius FR,Tire Radius RL,Tire Radius RR,Tire Rubber Grip FL,Tire Rubber Grip FR,Tire Rubber Grip RL,Tire Rubber Grip RR,Tire Slip Angle FL,Tire Slip Angle FR,Tire Slip Angle RL,Tire Slip Angle RR,Tire Slip Ratio FL,Tire Slip Ratio FR,Tire Slip Ratio RL,Tire Slip Ratio RR,Tire Temp Core FL,Tire Temp Core FR,Tire Temp Core RL,Tire Temp Core RR,Tire Temp Inner FL,Tire Temp Inner FR,Tire Temp Inner RL,Tire Temp Inner RR,Tire Temp Middle FL,Tire Temp Middle FR,Tire Temp Middle RL,Tire Temp Middle RR,Tire Temp Outer FL,Tire Temp Outer FR,Tire Temp Outer RL,Tire Temp Outer RR,Toe In FL,Toe In FR,Toe In RL,Toe In RR,Turbo Boost,Wheel Angular Speed FL,Wheel Angular Speed FR,Wheel Angular Speed RL,Wheel Angular Speed RR,Wind Direction,Wind Speed
0,0.0,1.0,0.0,1.0,1.0,0.0,0.0,1.0,0.0,100.0,1.0,1.1856,26.0,0.0,0.0,0.0,59.99999,0.0,26.0,26.0,26.0,26.0,-0.062444444444444414,0.2936000000000001,0.0038666666666666667,294.006,-2.7225,-2.650555555555556,-1.52125,-1.5537,-275.7,216.29000000000002,190.987625,0.0,0.0,0.0,0.0,0.0015666666666666667,-5.498166666666667,-5.498166666666667,-0.5492,1.3486666666666667,-0.004555555555555646,-1.142,65.54599999999999,-0.030000000000000002,-0.21445,0.9960000000000004,100.0,1.0,1.0,202.37333333333333,0.0,0.0,0.0,0.0,0.0,0.0,0.0,8577.9,0.0,55.0,5.0,235.93333333333334,0.0,0.0,0.0,0.0,0.0,0.0,0.0,0.0,0.0030000000000001137,0.0030000000000001137,0.0,0.0,0.0,55.0,616.79921,10000.0,85.0,85.0,85.0,85.0,395.0,0.0,0.0,0.0,1.0,20.0,52.765,52.765,49.591,49.591,34.0,-25.475,23.32,-30.523333333333333,24.995,0.0,1783.133,0.7750000000000021,100.0,27.63,27.097,40.487,40.611000000000004,0.0,1.0,100.0,0.0,0.0,0.0,0.0,2961.857142857143,3324.5,4131.625,3999.9,305.8745,304.16575,314.8313333333333,314.81775,21.789,20.5123,21.743,21.2852,314.99999,314.99999,324.99998,324.99998,99.5596,99.50716666666666,99.56431428571429,99.54421428571429,0.009500000000000064,-0.11399999999999988,-0.16183333333333338,0.06750000000000012,-0.05333333333332746,-0.04999999999999716,1.553,1.6015,37.181,29.2015,36.894,34.0325,56.537,34.4765,58.801,51.3275,54.436,33.6365,57.4435,49.696,53.597,33.189,57.4165,49.122,-0.01849999999999996,-0.1339999999999999,0.11114,0.1039,0.0,205.435,205.335,202.37333333333333,202.37333333333333,0.0,0.0
1,0.0,1.0,0.0,1.0,1.0,0.0,0.0,1.0,0.0,100.0,1.0,1.1856,26.0,0.0,0.0,0.0,59.999996,0.0,26.0,26.0,26.0,26.0,-0.10155555555555551,0.31190000000000007,0.22603333333333336,292.938,-2.6330999999999998,-2.768888888888889,-1.5255,-1.5527000000000002,-272.16,216.285,190.96625,0.0,0.0,0.0,0.0,0.003633333333333334,-5.498166666666667,-5.498166666666667,-0.5006,-0.7366666666666667,-0.05888888888888877,-1.077,65.709,-0.0492,-0.1966,1.404,100.0,1.0,1.0,202.55,0.0,0.0,0.0,0.0,0.0,0.0,0.0,8585.4,0.0,55.0,5.0,236.51999999999998,1.0,0.0,0.0,0.0,0.0,0.0,0.0,0.0,0.05699999999999861,0.05699999999999861,0.0,0.0,1.0,55.0,616.79921,10000.0,85.000001,85.000001,85.000001,85.000001,395.0,0.0,0.0,0.0,1.0,166.665,53.391,53.391,48.248,48.248,34.0,-27.575,18.445999999999998,-35.019999999999996,28.6675,0.0,1783.08,0.9200000000000017,100.0,27.628,27.054000000000002,42.682,41.785,0.0,1.0,100.0,0.0,0.0,0.0,0.0,3167.857142857143,2716.5,4359.375,4696.5,305.286,306.17275,314.1863333333333,313.1315,21.799599999999998,20.5177,21.7545,21.2948,314.999998,314.999998,324.999988,324.999988,99.55961428571429,99.5072,99.56447142857142,99.54437142857142,-0.010999999999999899,-0.13666666666666671,-0.1908333333333333,0.032333333333333325,-0.03499999999999659,-0.036666666666668846,1.4155,1.4805,37.247,29.235500000000002,36.965,34.0925,56.519,34.5195,58.8495,51.397,54.419,33.6765,57.489,49.763,53.579,33.2275,57.4595,49.188,-0.0004999999999999449,-0.14300000000000024,0.10673,0.10839000000000001,0.0,205.875,205.765,202.55,202.55,0.0,0.0
2,0.0,1.0,0.0,1.0,1.0,0.0,0.0,1.0,0.0,100.0,1.0,1.1856,26.0,0.0,0.0,0.0,59.999996,0.0,26.0,26.0,26.0,26.0,-0.127,0.28890000000000016,-0.024233333333333336,293.594,-2.5968999999999998,-2.7976666666666667,-1.4856500000000001,-1.6135000000000002,-269.0,216.2775,190.948625,0.0,0.0,0.0,0.0,0.0054666666666666665,-5.498166666666667,-5.498166666666667,-0.549,-0.036333333333333336,-0.05288888888888854,1.6760000000000002,65.842,-0.06860000000000001,-0.254875,1.5999999999999996,100.0,1.0,1.0,203.42666666666668,0.0,0.0,0.0,0.0,0.0,0.0,0.0,8622.5,0.0,55.0,5.0,237.00333333333333,0.0,0.0,0.0,0.0,0.0,0.0,0.0,0.0,0.10500000000000043,0.10500000000000043,0.0,0.0,0.0,55.0,616.79921,10000.0,85.000001,85.000001,85.000001,85.000001,395.0,0.0,0.0,0.0,1.0,166.665,52.353,52.353,50.049,50.049,34.0,-30.7925,19.887999999999998,-29.79,20.0375,0.0,1783.032,0.7950000000000017,100.0,28.342,27.052,42.649,41.451,0.0,1.0,100.0,0.0,0.0,0.0,0.0,3423.714285714286,2906.7,3793.0,3673.5,304.4085,305.5395,315.5283333333333,315.77175,21.8092,20.5224,21.7643,21.303,314.999998,314.999998,324.999988,324.999988,99.55961428571429,99.50721666666666,99.5646,99.54451428571429,-0.028249999999999886,-0.1456666666666666,-0.22366666666666657,0.005333333333333412,-0.0833333333333286,-0.041666666666671404,1.6125,1.6855,37.308,29.265,37.027,34.144,56.507,34.5565,58.8865,51.451499999999996,54.407,33.710499999999996,57.5235,49.815,53.567,33.26,57.4915,49.239,-0.010000000000000009,-0.1299999999999999,0.11207500000000001,0.10181000000000001,0.0,206.32,206.15,203.42666666666668,203.42666666666668,0.0,0.0
3,0.0,1.0,0.0,1.0,1.0,0.0,0.0,1.0,0.0,100.0,1.0,1.1856,26.0,0.0,0.0,0.0,59.999996,0.0,26.0,26.0,26.0,26.0,-0.14577777777777778,0.3025,-0.0499,293.411,-2.725,-2.6884444444444444,-1.5091999999999999,-1.5924,-265.84,216.26749999999998,190.930125,0.0,0.0,0.0,0.0,0.007333333333333333,-5.498166666666667,-5.498166666666667,-0.5103,0.6163333333333334,-0.01188888888888906,-0.8200000000000001,65.985,-0.0834,-0.20235,1.2799999999999994,100.0,1.0,1.0,203.59666666666666,0.0,0.0,0.0,0.0,0.0,0.0,0.0,8629.8,0.0,55.0,5.0,237.51666666666665,1.0,0.0,0.0,0.0,0.0,0.0,0.0,0.0,0.1529999999999987,0.1529999999999987,0.0,0.0,1.0,55.0,616.79921,10000.0,85.000001,85.000001,85.000001,85.000001,395.0,0.0,0.0,0.0,1.0,166.665,53.467,53.467,48.157,48.157,34.0,-26.259999999999998,17.77,-35.60666666666667,23.865000000000002,0.0,1782.983,0.6550000000000011,100.0,28.024,27.164,42.382,41.471000000000004,0.0,1.0,100.0,0.0,0.0,0.0,0.0,2870.5714285714284,2782.9,4344.25,4181.2,306.0475,305.7745,314.2726666666667,314.44,21.8185,20.5273,21.7741,21.3113,314.999998,314.999998,324.999988,324.999988,99.55962857142858,99.50723333333333,99.56474285714286,99.54464285714286,-0.031749999999999945,-0.15599999999999992,-0.21683333333333332,0.006666666666666599,-0.03499999999999659,-0.045000000000001705,1.484,1.5385,37.366,29.2955,37.088,34.196,56.491,34.5965,58.924,51.510999999999996,54.391999999999996,33.7475,57.5585,49.872,53.551,33.295500000000004,57.5235,49.295,-0.026999999999999913,-0.121,0.10056000000000001,0.10999500000000001,0.0,206.75,206.64,203.5966666666667,203.59666666666666,0.0,0.0
4,0.0,1.0,0.0,1.0,1.0,0.0,0.0,1.0,0.0,100.0,1.0,1.1856,26.0,0.0,0.0,0.0,59.999996,0.0,26.0,26.0,26.0,26.0,-0.1383333333333333,0.2853000000000001,-0.022000000000000002,293.594,-2.6593,-2.741888888888889,-1.5278,-1.6002,-262.27,216.2525,190.90925,0.0,0.0,0.0,0.0,0.0094,-5.498166666666667,-5.498166666666667,-0.5455,-0.675,-0.07944444444444443,-1.641,66.14,-0.0867,-0.23735,1.2200000000000006,100.0,1.0,1.0,204.19666666666666,0.0,0.0,0.0,0.0,0.0,0.0,0.0,8655.2,0.0,55.0,5.0,238.07666666666665,0.0,0.0,0.0,0.0,0.0,0.0,0.0,0.0,0.20700000000000074,0.20700000000000074,0.0,0.0,0.0,55.0,616.79921,10000.0,85.000001,85.000001,85.000001,85.000001,395.0,0.0,0.0,0.0,1.0,166.665,52.963,52.963,48.798,48.798,34.0,-29.9,18.9,-33.11666666666667,21.0175,0.0,1782.928,0.620000000000001,100.0,27.742,26.943,42.816,41.516999999999996,0.0,1.0,100.0,0.0,0.0,0.0,0.0,3299.0,2891.0,4087.0,3673.7,304.955,305.476,314.84233333333333,315.6655,21.8288,20.5327,21.7853,21.3207,314.999998,314.999998,324.999988,324.999988,99.55962857142858,99.50723333333333,99.5649,99.54478571428571,-0.02949999999999986,-0.15833333333333321,-0.21850000000000003,0.022166666666666668,-0.051666666666669414,-0.030000000000001137,1.563,1.6065,37.43,29.329,37.158,34.2545,56.471000000000004,34.6405,58.9695,51.5745,54.373999999999995,33.788,57.601,49.933,53.532,33.334,57.563,49.35433333333333,-0.02299999999999991,-0.12849999999999984,0.10748,0.11132,0.0,207.19,207.07,204.19666666666666,204.19666666666666,0.0,0.0
5,0.0,1.0,0.0,1.0,1.0,0.0,0.0,1.0,0.0,100.0,1.0,1.1856,26.0,0.0,0.0,0.0,59.999996,0.0,26.0,26.0,26.0,26.0,-0.13022222222222213,0.31689999999999996,-0.0097,293.594,-2.6713,-2.7655555555555558,-1.5103,-1.5876000000000001,-259.09,216.235,190.89,0.0,0.0,0.0,0.0,0.011233333333333333,-5.498166666666667,-5.498166666666667,-0.5361,0.4083333333333333,-0.08400000000000007,-0.30499999999999994,66.27799999999999,-0.09040000000000001,-0.2147,1.0920000000000005,100.0,1.0,1.0,204.57,0.0,0.0,0.0,0.0,0.0,0.0,0.0,8670.9,0.0,55.0,5.0,238.57,1.0,0.0,0.0,0.0,0.0,0.0,0.0,0.0,0.254999999999999,0.254999999999999,0.0,0.0,1.0,55.0,616.79921,10000.0,85.000001,85.000001,85.000001,85.000001,395.0,0.0,0.0,0.0,1.0,166.665,53.391,53.391,48.935,48.935,34.0,-28.4125,18.637999999999998,-34.14,22.505000000000003,0.0,1782.882,0.27500000000000213,100.0,27.838,26.814,42.578,41.261,0.0,1.0,100.0,0.0,0.0,0.0,0.0,3203.142857142857,2759.9,4197.0,4027.3,305.205,305.93925,314.66566666666665,314.8185,21.8383,20.5375,21.795099999999998,21.3289,314.999998,314.999998,324.999988,324.999988,99.55962857142858,99.50725,99.56502857142857,99.54491428571428,-0.014000000000000012,-0.14300000000000002,-0.22316666666666662,0.002666666666666595,-0.054999999999999716,-0.03333333333333144,1.5474999999999999,1.5514999999999999,37.489000000000004,29.3595,37.219,34.306,56.458,34.679,59.007999999999996,51.6295,54.361000000000004,33.823,57.637,49.9855,53.519,33.368,57.5965,49.406,-0.05349999999999988,-0.09100000000000019,0.11002500000000001,0.105925,0.0,207.675,207.555,204.57,204.57,0.0,0.0
6,0.0,1.0,0.0,1.0,1.0,0.0,0.0,1.0,0.0,100.0,1.0,1.1856,26.0,0.0,0.0,0.0,59.999996,0.0,26.0,26.0,26.0,26.0,-0.10922222222222211,0.28669999999999995,-0.0078000000000000005,293.411,-2.6393,-2.740111111111111,-1.5524,-1.5827,-255.91,216.215,190.870625,0.0,0.0,0.0,0.0,0.0131,-5.498166666666667,-5.498166666666667,-0.5311,0.07066666666666667,-0.06511111111111134,-0.44300000000000006,66.416,-0.0838,-0.215375,0.7919999999999998,100.0,1.0,1.0,204.97,0.0,0.0,0.0,0.0,0.0,0.0,0.0,8687.9,0.0,55.0,5.0,239.07,0.0,0.0,0.0,0.0,0.0,0.0,0.0,0.0,0.3030000000000008,0.3030000000000008,0.0,0.0,0.0,55.0,616.79921,10000.0,85.000001,85.000001,85.000001,85.000001,395.0,0.0,0.0,0.0,1.0,166.665,53.07,53.07,48.706,48.706,34.0,-27.935000000000002,20.254,-32.89666666666666,22.677500000000002,0.0,1782.834,0.120000000000001,100.0,27.737000000000002,26.918,42.716,41.629,0.0,1.0,100.0,0.0,0.0,0.0,0.0,3232.5714285714284,2892.5,4123.625,3972.8,305.106,305.47325,314.826,314.94775,21.8477,20.5423,21.805,21.3374,314.999998,314.999998,324.999988,324.999988,99.55962857142858,99.50726666666667,99.56515714285715,99.54505714285715,-0.0020000000000000018,-0.1246666666666667,-0.2011666666666666,0.01516666666666655,-0.04999999999999716,-0.03833333333332689,1.556,1.5594999999999999,37.548,29.389499999999998,37.281,34.3585,56.443,34.716499999999996,59.047,51.6885,54.346000000000004,33.858000000000004,57.6735,50.042,53.503,33.400999999999996,57.6305,49.461,-0.06549999999999989,-0.08099999999999996,0.10199000000000001,0.10595500000000001,0.0,208.055,207.985,204.97,204.97,0.0,0.0
7,0.0,1.0,0.0,1.0,1.0,0.0,0.0,1.0,0.0,100.0,1.0,1.1856,26.0,0.0,0.0,0.0,59.999996,0.0,26.0,26.0,26.0,26.0,-0.09388888888888891,0.27790000000000004,0.04783333333333333,293.121,-2.6093,-2.730777777777778,-1.5141,-1.5704,-252.52,216.1925,190.85025,0.0,0.0,0.0,0.0,0.015066666666666666,-5.498166666666667,-5.498166666666667,-0.534,-0.013333333333333334,-0.04922222222222228,1.1280000000000001,66.562,-0.0661,-0.22265000000000001,0.3420000000000005,100.0,1.0,1.0,205.38333333333333,0.0,0.0,0.0,0.0,0.0,0.0,0.0,8705.4,0.0,55.0,5.0,239.59333333333333,1.0,0.0,0.0,0.0,0.0,0.0,0.0,0.0,0.3539999999999992,0.3539999999999992,0.0,0.0,1.0,55.0,616.79921,10000.0,85.000001,85.000001,85.000001,85.000001,395.0,0.0,0.0,0.0,1.0,166.665,52.734,52.734,48.737,48.737,34.0,-26.185000000000002,22.572000000000003,-30.616666666666667,25.189999999999998,0.0,1782.782,-0.18499999999999872,100.0,27.958,26.809,42.859,41.765,0.0,1.0,100.0,0.0,0.0,0.0,0.0,3213.142857142857,3064.7,4046.875,4142.7,304.915,305.12825,314.8946666666667,314.58875,21.8577,20.5475,21.8155,21.3464,314.999998,314.999998,324.999988,324.999988,99.55964285714286,99.50728333333333,99.56531428571428,99.54518571428571,0.03474999999999984,-0.09599999999999986,-0.17333333333333334,0.043333333333333224,-0.06666666666666998,-0.060000000000002274,1.527,1.5385,37.61,29.422,37.347,34.414500000000004,56.427,34.7565,59.088,51.7505,54.331,33.8945,57.7115,50.1015,53.488,33.436,57.6655,49.519333333333336,-0.09499999999999997,-0.05900000000000016,0.10860500000000001,0.10076,0.0,208.51,208.45499999999998,205.38333333333333,205.38333333333333,0.0,0.0
8,0.0,1.0,0.0,1.0,1.0,0.0,0.0,1.0,0.0,100.0,1.0,1.1856,26.0,0.0,0.0,0.0,59.999996,0.0,26.0,26.0,26.0,26.0,-0.039000000000000035,0.28800000000000003,0.025466666666666665,293.472,-2.696,-2.7175555555555557,-1.4985,-1.5761,-248.92000000000002,216.16500000000002,190.828375,0.0,0.0,0.0,0.0,0.017166666666666667,-5.498166666666667,-5.498166666666667,-0.5361,-0.608,-0.03211111111111098,0.825,66.71600000000001,-0.0465,-0.21595,-0.03399999999999981,100.0,1.0,1.0,205.81,0.0,0.0,0.0,0.0,0.0,0.0,0.0,8723.6,0.0,55.0,5.0,240.15,0.0,0.0,0.0,0.0,0.0,0.0,0.0,0.0,0.40800000000000125,0.40800000000000125,0.0,0.0,0.0,55.0,616.79921,10000.0,85.000001,85.000001,85.000001,85.000001,395.0,0.0,0.0,0.0,1.0,166.665,53.635,53.635,48.157,48.157,34.0,-23.622500000000002,23.022,-29.426666666666662,27.54,0.0,1782.728,-0.3299999999999983,100.0,27.485,26.766,42.805,41.894,0.0,1.0,100.0,0.0,0.0,0.0,0.0,2940.4285714285716,3012.0,4097.5,4145.7,305.9275,305.3175,314.7343333333333,314.52025,21.868,20.553,21.8265,21.3559,314.999998,314.999998,324.999988,324.999988,99.55964285714286,99.5073,99.56547142857143,99.54532857142857,0.047250000000000014,-0.07033333333333314,-0.14283333333333337,0.0818333333333332,-0.041666666666671404,-0.051666666666669414,1.5195,1.5025,37.675,29.456,37.416,34.474000000000004,56.409,34.797,59.1305,51.8155,54.314,33.932,57.7515,50.164,53.47,33.472,57.7025,49.580666666666666,-0.09749999999999992,-0.04349999999999987,0.10256000000000001,0.11181,0.0,208.95,208.94,205.81,205.81,0.0,0.0
9,0.0,1.0,0.0,1.0,1.0,0.0,0.0,1.0,0.0,100.0,1.0,1.1856,26.0,0.0,0.0,0.0,59.999996,0.0,26.0,26.0,26.0,26.0,-0.017000000000000015,0.28510000000000013,-0.022833333333333334,293.182,-2.6885,-2.716555555555556,-1.5590000000000002,-1.5524,-245.91,216.14,190.809875,0.0,0.0,0.0,0.0,0.0189,-5.498166666666667,-5.498166666666667,-0.5428000000000001,0.5750000000000001,-0.032444444444444276,-0.43599999999999994,66.84100000000001,-0.0317,-0.217875,-0.06799999999999962,100.0,1.0,1.0,206.32666666666665,0.0,0.0,0.0,0.0,0.0,0.0,0.0,8745.4,0.0,55.0,5.0,240.5966666666667,1.0,0.0,0.0,0.0,0.0,0.0,0.0,0.0,0.4529999999999994,0.4529999999999994,0.0,0.0,1.0,55.0,616.79921,10000.0,85.000001,85.000001,85.000001,85.000001,395.0,0.0,0.0,0.0,1.0,333.33500000000004,52.475,52.475,49.21,49.21,34.0,-26.7725,23.746000000000002,-28.799999999999997,26.0825,0.0,1782.682,-0.4800000000000004,100.0,27.763,27.318,42.331,41.951,0.0,1.0,100.0,0.0,0.0,0.0,0.0,3365.285714285714,3013.8,3983.0,4022.1000000000004,304.7135,305.065,315.1813333333333,314.84525,21.8767,20.5577,21.8356,21.3637,314.999998,314.999998,324.999988,324.999988,99.55965714285715,99.5073,99.56558571428572,99.54545714285715,0.06349999999999989,-0.06000000000000005,-0.14400000000000002,0.08499999999999996,-0.05666666666667197,-0.05333333333332746,1.577,1.574,37.730000000000004,29.486,37.473,34.522999999999996,56.397,34.8315,59.1635,51.8685,54.303,33.964,57.782,50.215,53.458,33.503,57.730000000000004,49.63033333333333,-0.11399999999999988,-0.03600000000000003,0.10698,0.11255000000000001,0.0,209.36,209.35500000000002,206.32666666666665,206.32666666666665,0.0,0.0
10,0.0,1.0,0.0,1.0,1.0,0.0,0.0,1.0,0.0,100.0,1.0,1.1856,26.0,0.0,0.0,0.0,59.999996,0.0,26.0,26.0,26.0,26.0,0.011888888888888838,0.28510000000000013,-0.017333333333333336,293.03,-2.6667,-2.703888888888889,-1.5361500000000001,-1.5336,-242.3,216.11,190.787875,0.0,0.0,0.0,0.0,0.021,-5.498166666666667,-5.498166666666667,-0.5195000000000001,-0.52,0.007888888888888834,0.262,66.99600000000001,-0.010400000000000001,-0.20815,-0.47799999999999976,100.0,1.0,1.0,206.58333333333331,0.0,0.0,0.0,0.0,0.0,0.0,0.0,8756.4,0.0,55.0,5.0,241.15666666666667,0.0,0.0,0.0,0.0,0.0,0.0,1.0,0.0,0.5069999999999979,0.5069999999999979,0.0,0.0,0.0,55.0,616.79921,10000.0,85.000001,85.000001,85.000001,85.000001,395.0,0.0,0.0,0.0,1.0,166.665,53.543,53.543,47.684,47.684,34.0,-21.06,22.672,-30.35,29.485,0.0,1782.629,-0.629999999999999,100.0,27.644,27.314,42.756,42.708,0.0,1.0,100.0,0.0,0.0,0.0,0.0,2878.5714285714284,2868.1,4296.75,4252.3,306.1255,305.5595,314.3516666666667,314.19925,21.8871,20.563299999999998,21.8468,21.3734,314.999998,314.999998,324.999988,324.999988,99.55965714285715,99.50731666666667,99.56574285714285,99.54561428571428,0.09149999999999991,-0.04933333333333323,-0.118,0.10816666666666674,-0.051666666666669414,-0.036666666666668846,1.4945,1.4575,37.794,29.5205,37.543,34.584,56.382,34.8705,59.207499999999996,51.9375,54.289,34.0,57.823,50.281,53.443,33.537,57.768,49.69533333333334,-0.129,-0.026000000000000245,0.10329500000000001,0.11304000000000002,0.0,209.79500000000002,209.835,206.58333333333331,206.58333333333331,0.0,0.0
11,0.0,1.0,0.0,1.0,1.0,0.0,0.0,1.0,0.0,100.0,1.0,1.1856,26.0,0.0,0.0,0.0,59.999996,0.0,26.0,26.0,26.0,26.0,0.025666666666666726,0.2791000000000001,-0.0733,293.533,-2.7055,-2.6870000000000003,-1.5896,-1.5232,-238.88,216.085,190.767125,0.0,0.0,0.0,0.0,0.022600000000000002,-5.498166666666667,-5.498166666666667,-0.5613,-0.10233333333333333,0.03288888888888897,0.32399999999999995,67.135,0.009600000000000001,-0.235625,-0.6619999999999999,100.0,1.0,1.0,207.32,0.0,0.0,0.0,0.0,0.0,0.0,0.0,8787.5,0.0,55.0,5.0,241.65666666666667,1.0,0.0,0.0,0.0,0.0,0.0,1.0,0.0,0.5579999999999998,0.5579999999999998,0.0,0.0,1.0,55.0,616.79921,10000.0,85.000001,85.000001,85.000001,85.000001,395.0,0.0,0.0,0.0,1.0,166.665,52.841,52.841,49.286,49.286,34.0,-21.8425,26.348,-24.046666666666667,27.545,0.0,1782.578,-0.634999999999998,100.0,27.548000000000002,27.416,42.28,42.495000000000005,0.0,1.0,100.0,0.0,0.0,0.0,0.0,3002.714285714286,3180.4,3704.0,3894.2,305.659,304.72775,315.84833333333336,315.19225,21.8966,20.5687,21.8571,21.3824,314.999998,314.999998,324.999988,324.999988,99.55967142857143,99.50731666666667,99.56588571428571,99.54575714285714,0.10950000000000015,-0.02299999999999991,-0.08966666666666656,0.14949999999999997,-0.03833333333332689,-0.07833333333332604,1.6525,1.6255,37.854,29.554499999999997,37.607,34.64,56.367999999999995,34.908500000000004,59.2425,51.998,54.275,34.035,57.8555,50.339,53.428,33.571,57.7975,49.75233333333333,-0.12850000000000006,-0.03000000000000025,0.1073,0.11703000000000001,0.0,210.21,210.26,207.32,207.32,0.0,0.0
12,0.0,1.0,0.0,1.0,1.0,0.0,0.0,1.0,0.0,100.0,1.0,1.1856,26.0,0.0,0.0,0.0,59.999996,0.0,26.0,26.0,26.0,26.0,0.05699999999999994,0.29370000000000007,0.030633333333333332,292.953,-2.7652,-2.679555555555556,-1.5514000000000001,-1.5241,-235.85,216.06,190.7475,0.0,0.0,0.0,0.0,0.025466666666666665,-5.498166666666667,-5.498166666666667,-0.5448000000000001,0.3123333333333333,0.01866666666666661,-0.909,67.263,0.0256,-0.205675,-0.6479999999999997,100.0,1.0,1.0,207.48333333333335,0.0,0.0,0.0,0.0,0.0,0.0,0.0,8794.4,0.0,55.0,5.0,242.11666666666667,0.0,0.0,0.0,0.0,0.0,0.0,1.0,0.0,0.602999999999998,0.602999999999998,0.0,0.0,0.0,55.0,616.79921,10000.0,85.000001,85.000001,85.000001,85.000001,395.0,0.0,0.0,0.0,1.0,333.33500000000004,52.856,52.856,47.943,47.943,34.0,-23.16,26.09,-27.673333333333332,30.642500000000002,0.0,1782.532,-0.6999999999999993,100.0,27.295,27.703,42.212,42.538,0.0,1.0,100.0,0.0,0.0,0.0,0.0,3129.4285714285716,3091.6,4238.0,4173.4,305.4825,304.856,314.5783333333333,314.456,21.9051,20.5735,21.8663,21.3903,314.999998,314.999998,324.999988,324.999988,99.55968571428572,99.50731666666667,99.56601428571429,99.5459,0.11149999999999993,-0.011666666666666714,-0.07833333333333337,0.15133333333333332,-0.046666666666666856,-0.06333333333333258,1.5325,1.513,37.907,29.5845,37.664,34.689499999999995,56.355000000000004,34.944,59.2795,52.0565,54.263,34.068,57.89,50.394999999999996,53.415,33.6025,57.829,49.80766666666666,-0.1259999999999999,-0.023499999999999854,0.110865,0.11345500000000001,0.0,210.625,210.675,207.48333333333335,207.48333333333335,0.0,0.0
13,0.0,1.0,0.0,1.0,1.0,0.0,0.0,1.0,0.0,100.0,1.0,1.1856,26.0,0.0,0.0,0.0,59.999996,0.0,26.0,26.0,26.0,26.0,0.06600000000000006,0.28490000000000015,0.052833333333333336,292.542,-2.7332,-2.6786666666666665,-1.61925,-1.5105,-232.42000000000002,216.035,190.72575,0.0,0.0,0.0,0.0,0.02673333333333333,-5.498166666666667,-5.498166666666667,-0.5385,-0.059333333333333335,0.021666666666666723,1.046,67.405,0.0362,-0.2136,-0.9100000000000001,100.0,1.0,1.0,207.86333333333334,0.0,0.0,0.0,0.0,0.0,0.0,0.0,8810.5,0.0,55.0,5.0,242.63,1.0,0.0,0.0,0.0,0.0,0.0,1.0,0.0,0.6539999999999999,0.6539999999999999,0.0,0.0,1.0,55.0,616.79921,10000.0,85.000001,85.000001,85.000001,85.000001,395.0,0.0,0.0,0.0,1.0,166.665,52.49,52.49,47.867,47.867,34.0,-21.037499999999998,28.216,-27.32666666666666,32.495000000000005,0.0,1782.483,-0.8499999999999979,100.0,27.804,27.745,42.574,42.938,0.0,1.0,100.0,0.0,0.0,0.0,0.0,3060.857142857143,3184.8,4165.375,4360.0,305.474,304.7405,314.662,314.06675,21.9147,20.579,21.8768,21.3995,314.999998,314.999998,324.999988,324.999988,99.5597,99.50731666666667,99.56614285714285,99.54604285714285,0.1459999999999999,0.02300000000000013,-0.06099999999999994,0.15716666666666668,-0.045000000000001705,-0.051666666666669414,1.5175,1.4755,37.967,29.619,37.730000000000004,34.747,56.345,34.980000000000004,59.3165,52.1175,54.253,34.101,57.9245,50.454,53.403999999999996,33.6345,57.8605,49.865,-0.14549999999999996,-0.002000000000000224,0.10064500000000001,0.102205,0.0,211.05,211.115,207.86333333333334,207.86333333333334,0.0,0.0
14,0.0,1.0,0.0,1.0,1.0,0.0,0.0,1.0,0.0,100.0,1.0,1.1856,26.0,0.0,0.0,0.0,59.999996,0.0,26.0,26.0,26.0,26.0,0.09211111111111103,0.27649999999999997,-0.0061,292.786,-2.7302,-2.615,-1.5997,-1.5104000000000002,-228.78,216.01,190.70325,0.0,0.0,0.0,0.0,0.02886666666666667,-5.498166666666667,-5.498166666666667,-0.549,-0.10766666666666667,0.053888888888888875,1.279,67.553,0.050800000000000005,-0.22790000000000002,-1.0599999999999996,100.0,1.0,1.0,208.40666666666667,0.0,0.0,0.0,0.0,0.0,0.0,0.0,8833.6,0.0,55.0,5.0,243.16333333333336,0.0,0.0,0.0,0.0,0.0,0.0,1.0,0.0,0.7079999999999984,0.7079999999999984,0.0,0.0,0.0,55.0,616.79921,10000.0,85.000001,85.000001,85.000001,85.000001,395.0,0.0,0.0,0.0,1.0,111.11,52.567,52.567,48.08,48.08,34.0,-19.1525,28.6,-24.186666666666667,32.385000000000005,0.0,1782.429,-0.9600000000000009,100.0,27.728,27.894,42.55,43.211,0.0,1.0,100.0,0.0,0.0,0.0,0.0,2919.5714285714284,3270.2,3932.25,4223.8,305.878,304.487,315.21666666666664,314.4075,21.9249,20.5849,21.8878,21.4092,314.999998,314.999998,324.999988,324.999988,99.55972857142856,99.50731666666667,99.5663,99.54618571428571,0.16425,0.025333333333333208,-0.04249999999999998,0.1818333333333333,-0.03833333333332689,-0.04999999999999716,1.557,1.514,38.031,29.6555,37.799,34.8075,56.334,35.0205,59.356,52.185,54.242000000000004,34.1385,57.961,50.519,53.391999999999996,33.67,57.894,49.929,-0.1479999999999999,-0.002000000000000224,0.10239000000000001,0.10989000000000002,0.0,211.495,211.575,208.40666666666667,208.40666666666667,0.0,0.0
15,0.0,1.0,0.0,1.0,1.0,0.0,0.0,1.0,0.0,100.0,1.0,1.1856,26.0,0.0,0.0,0.0,59.999996,0.0,26.0,26.0,26.0,26.0,0.12200000000000011,0.28900000000000015,-0.04406666666666667,292.786,-2.7146,-2.5693333333333332,-1.63185,-1.4539,-225.73,215.9925,190.684125,0.0,0.0,0.0,0.0,0.030633333333333332,-5.498166666666667,-5.498166666666667,-0.5395,0.313,0.08044444444444432,-0.22199999999999998,67.67699999999999,0.0655,-0.20985,-1.1339999999999995,100.0,1.0,1.0,208.7733333333333,0.0,0.0,0.0,0.0,0.0,0.0,0.0,8849.1,0.0,55.0,5.0,243.60666666666668,1.0,0.0,0.0,0.0,0.0,0.0,1.0,0.0,0.7530000000000001,0.7530000000000001,0.0,0.0,1.0,55.0,616.79921,10000.0,85.000001,85.000001,85.000001,85.000001,395.0,0.0,0.0,0.0,1.0,166.665,52.765,52.765,48.111,48.111,34.0,-18.74,27.108,-25.15,32.917500000000004,0.0,1782.383,-0.9699999999999989,100.0,27.589,28.073999999999998,42.243,43.374,0.0,1.0,100.0,0.0,0.0,0.0,0.0,2899.857142857143,3134.5,3993.375,4332.0,306.0695,304.72325,315.16333333333336,314.09425,21.9333,20.5898,21.8969,21.4173,314.999998,314.999998,324.999988,324.999988,99.55974285714285,99.50733333333334,99.56642857142857,99.54631428571429,0.16374999999999984,0.026333333333333098,-0.04599999999999993,0.1871666666666667,-0.04999999999999716,-0.04333333333332945,1.554,1.521,38.083,29.686,37.855000000000004,34.858000000000004,56.324,35.0545,59.388,52.241,54.233000000000004,34.17,57.99,50.573,53.382,33.7005,57.920500000000004,49.982,-0.15749999999999997,0.0009999999999998899,0.10590500000000001,0.11171500000000001,0.0,211.9,211.97500000000002,208.7733333333333,208.7733333333333,0.0,0.0
16,0.0,1.0,0.0,1.0,1.0,0.0,0.0,1.0,0.0,100.0,1.0,1.1856,26.0,0.0,0.0,0.0,59.999996,0.0,26.0,26.0,26.0,26.0,0.13322222222222213,0.2744,-0.05413333333333334,292.786,-2.8066,-2.579888888888889,-1.60145,-1.5139,-222.07,215.9725,190.66075,0.0,0.0,0.0,0.0,0.03276666666666667,-5.498166666666667,-5.498166666666667,-0.5611,-0.686,0.06777777777777771,-1.0819999999999999,67.825,0.0779,-0.226275,-1.2279999999999998,100.0,1.0,1.0,209.24,0.0,0.0,0.0,0.0,0.0,0.0,0.0,8868.9,0.0,55.0,5.0,244.14,0.0,0.0,0.0,0.0,0.0,0.0,1.0,0.0,0.8069999999999986,0.8069999999999986,0.0,0.0,0.0,55.0,616.79921,10000.0,85.000001,85.000001,85.000001,85.000001,395.0,0.0,0.0,0.0,1.0,166.665,52.643,52.643,47.913,47.913,34.0,-20.357499999999998,28.774,-23.310000000000002,32.807500000000005,0.0,1782.33,-0.875,100.0,27.217,28.165,42.489000000000004,43.514,0.0,1.0,100.0,0.0,0.0,0.0,0.0,3056.857142857143,3231.0,3942.0,4104.2,305.8,304.4855,315.247,314.57525,21.9432,20.5957,21.907899999999998,21.427,314.999998,314.999998,324.999988,324.999988,99.55975714285714,99.50733333333334,99.56658571428571,99.54647142857142,0.16875000000000018,0.04266666666666685,-0.024833333333333374,0.20766666666666667,-0.06333333333333258,-0.01666666666666572,1.5675,1.511,38.144999999999996,29.723,37.925,34.9185,56.31,35.0965,59.4285,52.3085,54.219,34.209,58.028,50.638,53.367000000000004,33.7385,57.955,50.04566666666666,-0.14700000000000002,-0.004999999999999893,0.10953500000000001,0.10925000000000001,0.0,212.32,212.385,209.24,209.24,0.0,0.0
17,0.0,1.0,0.0,1.0,1.0,0.0,0.0,1.0,0.0,100.0,1.0,1.1856,26.0,0.0,0.0,0.0,59.999996,0.0,26.0,26.0,26.0,26.0,0.12088888888888905,0.2803,-3.3333333333333335e-05,292.526,-2.7695,-2.5605555555555557,-1.64215,-1.4747,-218.82,215.96,190.6395,0.0,0.0,0.0,0.0,0.03466666666666667,-5.498166666666667,-5.498166666666667,-0.5497000000000001,0.52,0.048555555555555685,-0.6910000000000001,67.955,0.0805,-0.2053,-1.1020000000000003,100.0,1.0,1.0,209.60333333333335,0.0,0.0,0.0,0.0,0.0,0.0,0.0,8884.4,0.0,55.0,5.0,244.60666666666668,1.0,0.0,0.0,0.0,0.0,0.0,1.0,0.0,0.8550000000000004,0.8550000000000004,0.0,0.0,1.0,55.0,616.79921,10000.0,85.000001,85.000001,85.000001,85.000001,395.0,0.0,0.0,0.0,1.0,166.665,52.49,52.49,47.852000000000004,47.852000000000004,34.0,-20.015,26.992,-26.14666666666666,33.05,0.0,1782.283,-0.9450000000000003,100.0,27.648,28.392,42.232,43.471000000000004,0.0,1.0,100.0,0.0,0.0,0.0,0.0,3090.142857142857,3084.2,4232.625,4261.1,305.6235,304.92,314.68766666666664,314.32175,21.9522,20.6011,21.9176,21.4355,314.999998,314.999998,324.999988,324.999988,99.55977142857142,99.50735,99.56671428571428,99.54661428571428,0.17675000000000018,0.039000000000000146,-0.02949999999999997,0.1971666666666667,-0.054999999999999716,-0.04333333333332945,1.549,1.511,38.201,29.7565,37.985,34.972,56.302,35.1355,59.4625,52.3675,54.212,34.245,58.0595,50.695,53.358000000000004,33.772999999999996,57.9835,50.102000000000004,-0.15300000000000002,-0.007000000000000117,0.105385,0.10434,0.0,212.765,212.84,209.60333333333335,209.60333333333335,0.0,0.0
18,0.0,1.0,0.0,1.0,1.0,0.0,0.0,1.0,0.0,100.0,1.0,1.1856,26.0,0.0,0.0,0.0,59.999996,0.0,26.0,26.0,26.0,26.0,0.1471111111111112,0.28090000000000015,0.0051333333333333335,292.313,-2.8012,-2.5324444444444443,-1.6590500000000001,-1.4187,-215.14,215.9475,190.615875,0.0,0.0,0.0,0.0,0.0368,-5.498166666666667,-5.498166666666667,-0.5614,-0.48433333333333334,0.0735555555555556,-0.347,68.102,0.0834,-0.22505,-1.2639999999999993,100.0,1.0,1.0,210.04666666666668,0.0,0.0,0.0,0.0,0.0,0.0,0.0,8903.1,0.0,55.0,5.0,245.13666666666666,0.0,0.0,0.0,0.0,0.0,0.0,1.0,0.0,0.9089999999999989,0.9089999999999989,0.0,0.0,0.0,55.0,616.79921,10000.0,85.000001,85.000001,85.000001,85.000001,395.0,0.0,0.0,0.0,1.0,111.11,52.094,52.094,47.562,47.562,34.0,-20.03,30.134,-24.86333333333333,32.4875,0.0,1782.228,-1.259999999999998,100.0,27.44,28.361,42.559,43.857,0.0,1.0,100.0,0.0,0.0,0.0,0.0,3141.714285714286,3343.0,4065.625,4220.6,305.5085,304.14825,315.0156666666667,314.375,21.9622,20.607,21.9287,21.4453,314.999998,314.999998,324.999988,324.999988,99.5598,99.50735,99.56685714285715,99.54677142857143,0.19099999999999984,0.05733333333333368,-0.022833333333333372,0.20616666666666683,-0.03999999999999915,-0.045000000000001705,1.557,1.5005,38.263999999999996,29.794,38.055,35.033,56.292,35.1785,59.5035,52.4365,54.201,34.285,58.0975,50.7615,53.347,33.811,58.018,50.16733333333333,-0.17500000000000004,0.01749999999999985,0.10368500000000001,0.111335,0.0,213.16500000000002,213.255,210.04666666666668,210.04666666666668,0.0,0.0
19,0.0,1.0,0.0,1.0,1.0,0.0,0.0,1.0,0.0,100.0,1.0,1.1856,26.0,0.0,0.0,0.0,59.999996,0.0,26.0,26.0,26.0,26.0,0.15200000000000014,0.2963,0.030433333333333333,291.992,-2.7694,-2.526,-1.67425,-1.4018000000000002,-212.07,215.94,190.595875,0.0,0.0,0.0,0.0,0.03856666666666667,-5.498166666666667,-5.498166666666667,-0.5518000000000001,0.8516666666666667,0.08733333333333326,1.0,68.22200000000001,0.09050000000000001,-0.212225,-1.6420000000000003,100.0,1.0,1.0,210.42000000000002,0.0,0.0,0.0,0.0,0.0,0.0,0.0,8918.9,0.0,55.0,5.0,245.57,1.0,0.0,0.0,0.0,0.0,0.0,1.0,0.0,0.9540000000000006,0.9540000000000006,0.0,0.0,1.0,55.0,616.79921,10000.0,85.000001,85.000001,85.000001,85.000001,395.0,0.0,0.0,0.0,1.0,166.665,51.636,51.636,47.592,47.592,34.0,-17.982499999999998,31.954,-23.91666666666667,35.1775,0.0,1782.182,-1.5350000000000001,100.0,28.102,28.656,42.35,43.76,0.0,1.0,100.0,0.0,0.0,0.0,0.0,3034.0,3421.6,4113.5,4444.7,305.5465,303.9875,314.90066666666667,313.96975,21.9706,20.6122,21.9378,21.4534,314.999998,314.999998,324.999988,324.999988,99.55982857142857,99.50736666666667,99.567,99.5469,0.21875,0.08366666666666678,0.005166666666666542,0.2246666666666668,-0.041666666666671404,-0.04999999999999716,1.5675,1.4925,38.316,29.826,38.111000000000004,35.0835,56.286,35.2175,59.534,52.493,54.195,34.321,58.126,50.816,53.34,33.846000000000004,58.0435,50.220666666666666,-0.19399999999999995,0.03200000000000003,0.10424000000000001,0.10721000000000001,0.0,213.575,213.685,210.42000000000002,210.42000000000002,0.0,0.0
20,0.0,1.0,0.0,1.0,1.0,0.0,0.0,1.0,0.0,100.0,1.0,1.1856,26.0,0.0,0.0,0.0,59.999996,0.0,26.0,26.0,26.0,26.0,0.2172222222222222,0.27070000000000016,0.038533333333333336,292.343,-2.8226,-2.583,-1.61055,-1.5152999999999999,-208.39,215.9375,190.572125,0.0,0.0,0.0,0.0,0.04073333333333334,-5.498166666666667,-5.498166666666667,-0.5571,-1.248,0.09733333333333327,0.5549999999999999,68.369,0.1053,-0.224475,-2.04,100.0,1.0,1.0,210.7733333333333,0.0,0.0,0.0,0.0,0.0,0.0,0.0,8933.9,0.0,55.0,5.0,246.10333333333335,0.0,0.0,0.0,0.0,0.0,0.0,0.0,0.0,1.0079999999999991,1.0079999999999991,0.0,0.0,0.0,55.0,616.79921,10000.0,85.000001,85.000001,85.000001,85.000001,395.0,0.0,0.0,0.0,1.0,166.665,52.75,52.75,47.028,47.028,34.0,-15.474999999999998,32.168,-22.11,37.7425,0.0,1782.129,-1.8150000000000013,100.0,27.406,28.381,42.826,44.308,0.0,1.0,100.0,0.0,0.0,0.0,0.0,2792.4285714285716,3294.4,4030.75,4336.9,306.44,304.438,314.927,314.04175,21.9804,20.6182,21.948999999999998,21.4633,314.999998,314.999998,324.999988,324.999988,99.55985714285714,99.50736666666667,99.56715714285714,99.54707142857143,0.24750000000000005,0.11166666666666636,0.01883333333333348,0.25150000000000006,-0.046666666666666856,-0.045000000000001705,1.52,1.438,38.376999999999995,29.863500000000002,38.181,35.1455,56.275,35.263,59.576499999999996,52.5635,54.185,34.3635,58.165,50.884,53.328,33.887,58.079499999999996,50.288,-0.21799999999999997,0.059499999999999886,0.10988,0.11036000000000001,0.0,213.96,214.11,210.7733333333333,210.7733333333333,0.0,0.0
21,0.0,1.0,0.0,1.0,1.0,0.0,0.0,1.0,0.0,100.0,1.0,1.1856,26.0,0.0,0.0,0.0,59.999996,0.0,26.0,26.0,26.0,26.0,0.22977777777777786,0.28080000000000016,-0.07943333333333334,292.603,-2.7516,-2.622,-1.68395,-1.4657,-205.31,215.94,190.55175,0.0,0.0,0.0,0.0,0.0425,-5.498166666666667,-5.498166666666667,-0.5799000000000001,0.4663333333333333,0.08944444444444422,-0.7270000000000001,68.485,0.125,-0.2278,-2.3120000000000003,100.0,1.0,1.0,211.36666666666667,0.0,0.0,0.0,0.0,0.0,0.0,0.0,8959.1,0.0,55.0,5.0,246.51999999999998,1.0,0.0,0.0,0.0,0.0,0.0,0.0,0.0,1.0530000000000008,1.0530000000000008,0.0,0.0,1.0,55.0,616.79921,10000.0,85.000001,85.000001,85.000001,85.000001,395.0,0.0,0.0,0.0,1.0,166.665,52.155,52.155,48.309,48.309,34.0,-16.89,31.506,-20.64666666666667,34.11,0.0,1782.083,-1.509999999999998,100.0,27.554,28.82,42.052,44.028999999999996,0.0,1.0,100.0,0.0,0.0,0.0,0.0,3008.857142857143,3222.9,3873.875,4080.3,305.7925,304.38475,315.53933333333333,314.7615,21.9887,20.6234,21.9579,21.4713,314.999998,314.999998,324.999988,324.999988,99.55987142857143,99.50738333333334,99.56727142857143,99.5472,0.23249999999999993,0.09666666666666668,0.033666666666666734,0.2613333333333332,-0.054999999999999716,-0.046666666666666856,1.645,1.5705,38.429,29.896,38.236999999999995,35.195499999999996,56.269999999999996,35.3045,59.6045,52.618,54.179,34.402,58.191,50.9365,53.321,33.923500000000004,58.1025,50.339666666666666,-0.20300000000000007,0.04349999999999987,0.109835,0.10379000000000001,0.0,214.35000000000002,214.505,211.36666666666667,211.36666666666667,0.0,0.0
22,0.0,1.0,0.0,1.0,1.0,0.0,0.0,1.0,0.0,100.0,1.0,1.1856,26.0,0.0,0.0,0.0,59.999996,0.0,26.0,26.0,26.0,26.0,0.18277777777777793,0.2724,-0.0021333333333333334,292.068,-2.7468,-2.6127777777777776,-1.6793,-1.4537,-201.6,215.9475,190.526625,0.0,0.0,0.0,0.0,0.044666666666666674,-5.498166666666667,-5.498166666666667,-0.5574,0.015666666666666666,0.09677777777777785,-0.812,68.632,0.1418,-0.2074,-1.2699999999999996,100.0,1.0,1.0,211.59,0.0,0.0,0.0,0.0,0.0,0.0,0.0,8968.5,0.0,55.0,5.0,247.04666666666668,0.0,0.0,0.0,0.0,0.0,0.0,0.0,0.0,1.1069999999999993,1.1069999999999993,0.0,0.0,0.0,55.0,616.79921,10000.0,85.000001,85.000001,85.000001,85.000001,395.0,0.0,0.0,0.0,1.0,166.665,52.338,52.338,47.058,47.058,34.0,-19.0925,27.088,-23.049999999999997,37.620000000000005,0.0,1782.028,0.125,100.0,27.586,28.945999999999998,42.433,44.449,0.0,1.0,100.0,0.0,0.0,0.0,0.0,2870.0,3163.6,4178.75,4396.8,306.196,304.53,314.757,313.94775,21.9986,20.6295,21.969,21.4812,314.999998,314.999998,324.999988,324.999988,99.5599,99.5074,99.56742857142856,99.54735714285714,0.15625,0.00533333333333319,0.03400000000000003,0.2576666666666667,-0.041666666666671404,-0.05333333333332746,1.525,1.4585,38.491,29.9345,38.306,35.2575,56.259,35.3495,59.646,52.689,54.169,34.4435,58.2295,51.004999999999995,53.31,33.964,58.1375,50.406666666666666,-0.08000000000000007,-0.08450000000000024,0.10153000000000001,0.10905000000000001,0.0,214.825,214.935,211.59,211.59,0.0,0.0
23,0.0,1.0,0.0,1.0,1.0,0.0,0.0,1.0,0.0,100.0,1.0,1.1856,26.0,0.0,0.0,0.0,59.999996,0.0,26.0,26.0,26.0,26.0,0.10555555555555562,0.25540000000000007,-0.0371,292.038,-2.7553,-2.585777777777778,-1.5811000000000002,-1.5445,-198.31,215.95749999999998,190.5045,0.0,0.0,0.0,0.0,0.04656666666666667,-5.498166666666667,-5.498166666666667,-0.5759000000000001,-0.2596666666666667,0.06733333333333325,-1.306,68.757,0.1105,-0.23365000000000002,0.10200000000000031,100.0,1.0,1.0,212.07666666666665,0.0,0.0,0.0,0.0,0.0,0.0,0.0,8989.1,0.0,55.0,5.0,247.5,1.0,0.0,0.0,0.0,0.0,0.0,0.0,0.0,1.1550000000000011,1.1550000000000011,0.0,0.0,1.0,55.0,616.79921,10000.0,85.000001,85.000001,85.000001,85.000001,395.0,0.0,0.0,0.0,1.0,166.665,51.62,51.62,47.989,47.989,34.0,-24.375,25.43,-22.906666666666666,32.245000000000005,0.0,1781.982,0.6999999999999993,100.0,27.986,28.865000000000002,42.716,44.54,0.0,1.0,100.0,0.0,0.0,0.0,0.0,3235.857142857143,3175.2,3958.875,4012.6000000000004,305.1025,304.56825,315.208,314.79575,22.0075,20.635,21.9788,21.4899,314.999998,314.999998,324.999988,324.999988,99.55991428571429,99.5074,99.56757142857143,99.5475,0.10625000000000018,-0.02833333333333332,-0.01649999999999996,0.20650000000000013,-0.03999999999999915,-0.04833333333333201,1.53,1.531,38.547,29.9685,38.367999999999995,35.312,56.247,35.387,59.681,52.75,54.157,34.4785,58.2615,51.064,53.297,33.9975,58.1665,50.464666666666666,-0.028000000000000025,-0.13549999999999995,0.10783000000000001,0.10619,0.0,215.25,215.255,212.07666666666665,212.07666666666665,0.0,0.0
24,0.0,1.0,0.0,1.0,1.0,0.0,0.0,1.0,0.0,100.0,1.0,1.1856,26.0,0.0,0.0,0.0,59.999996,0.0,26.0,26.0,26.0,26.0,0.017555555555555546,0.27459999999999996,0.010733333333333333,292.343,-2.7500999999999998,-2.624,-1.59915,-1.5110999999999999,-195.0,215.97,190.482,0.0,0.0,0.0,0.0,0.0485,-5.498166666666667,-5.498166666666667,-0.5779000000000001,-0.4656666666666667,0.0474444444444444,-0.587,68.885,0.0565,-0.215975,0.8979999999999997,100.0,1.0,1.0,212.38333333333333,0.0,0.0,0.0,0.0,0.0,0.0,0.0,9002.2,0.0,55.0,5.0,247.96,0.0,0.0,0.0,0.0,0.0,0.0,0.0,0.0,1.2029999999999994,1.2029999999999994,0.0,0.0,0.0,55.0,616.79921,10000.0,85.000001,85.000001,85.000001,85.000001,395.0,0.0,0.0,0.0,1.0,333.33500000000004,52.872,52.872,47.058,47.058,34.0,-23.7075,21.560000000000002,-29.436666666666667,29.595,0.0,1781.932,0.9600000000000009,100.0,27.848,28.389,42.957,44.117000000000004,0.0,1.0,100.0,0.0,0.0,0.0,0.0,2936.142857142857,2956.2,4347.875,4114.2,306.041,305.355,314.2993333333333,314.6655,22.0163,20.6402,21.9887,21.4985,314.999998,314.999998,324.999988,324.999988,99.55994285714286,99.5074,99.5677,99.54764285714286,0.05500000000000016,-0.08000000000000007,-0.07683333333333331,0.1443333333333332,-0.05333333333332746,-0.04333333333332945,1.4945,1.512,38.602000000000004,30.0015,38.429,35.3655,56.233000000000004,35.4235,59.716499999999996,52.808,54.144,34.5125,58.2945,51.1195,53.282,34.03,58.1965,50.519333333333336,0.0024999999999999467,-0.15949999999999998,0.10300500000000001,0.10361500000000001,0.0,215.7,215.615,212.38333333333333,212.38333333333333,0.0,0.0
25,0.0,1.0,0.0,1.0,1.0,0.0,0.0,1.0,0.0,100.0,1.0,1.1856,26.0,0.0,0.0,0.0,59.999996,0.0,26.0,26.0,26.0,26.0,-0.05811111111111111,0.2630000000000001,-0.07390000000000001,292.343,-2.777,-2.6277777777777778,-1.582,-1.5445,-191.49,215.985,190.45675,0.0,0.0,0.0,0.0,0.05053333333333333,-5.498166666666667,-5.498166666666667,-0.6133000000000001,-0.07133333333333333,0.0173333333333332,-0.7570000000000001,69.017,-0.0092,-0.22737500000000002,1.4100000000000001,100.0,1.0,1.0,212.93666666666667,0.0,0.0,0.0,0.0,0.0,0.0,0.0,9025.7,0.0,55.0,5.0,248.43666666666667,1.0,0.0,0.0,0.0,0.0,0.0,0.0,0.0,1.2540000000000013,1.2540000000000013,0.0,0.0,1.0,55.0,616.79921,10000.0,85.000001,85.000001,85.000001,85.000001,395.0,0.0,0.0,0.0,1.0,166.665,51.894999999999996,51.894999999999996,47.928,47.928,34.0,-27.869999999999997,23.346,-28.766666666666666,25.8275,0.0,1781.883,1.004999999999999,100.0,28.106,28.201,43.065,43.444,0.0,1.0,100.0,0.0,0.0,0.0,0.0,3211.4285714285716,3310.0,3971.25,3986.2,305.207,304.41625,315.22066666666666,315.03675,22.0256,20.6458,21.9991,21.5075,314.999998,314.999998,324.999988,324.999988,99.55994285714286,99.50741666666667,99.56784285714286,99.54778571428571,0.026000000000000245,-0.1036666666666668,-0.1353333333333333,0.08933333333333326,-0.04999999999999716,-0.046666666666666856,1.5565,1.591,38.66,30.0365,38.494,35.422,56.215,35.465,59.751999999999995,52.8665,54.126999999999995,34.551,58.3275,51.176,53.263999999999996,34.067,58.2265,50.574666666666666,0.0030000000000001137,-0.16000000000000014,0.10308,0.10869500000000001,0.0,216.125,215.99,212.93666666666667,212.93666666666667,0.0,0.0
26,0.0,1.0,0.0,1.0,1.0,0.0,0.0,1.0,0.0,100.0,1.0,1.1856,26.0,0.0,0.0,0.0,59.999996,0.0,26.0,26.0,26.0,26.0,-0.121,0.2865,0.05613333333333334,291.153,-2.6763,-2.7544444444444443,-1.5904500000000001,-1.5792000000000002,-187.95999999999998,215.9975,190.430875,0.0,0.0,0.0,0.0,0.0526,-5.498166666666667,-5.498166666666667,-0.5683,0.792,-0.050666666666666416,-1.593,69.153,-0.062400000000000004,-0.19535,1.6560000000000006,100.0,1.0,1.0,213.10333333333335,0.0,0.0,0.0,0.0,0.0,0.0,0.0,9032.7,0.0,55.0,5.0,248.92333333333335,0.0,0.0,0.0,0.0,0.0,0.0,0.0,0.0,1.3049999999999997,1.3049999999999997,0.0,0.0,0.0,55.0,616.79921,10000.0,85.000001,85.000001,85.000001,85.000001,395.0,0.0,0.0,0.0,1.0,166.665,51.361,51.361,46.158,46.158,34.0,-29.4575,20.086,-39.42,25.8525,0.0,1781.83,0.8449999999999989,100.0,29.158,28.679000000000002,43.973,43.527,0.0,1.0,100.0,0.0,0.0,0.0,0.0,3337.4285714285716,2970.8,4655.375,4341.9,304.8325,305.1265,313.65866666666665,314.11675,22.0354,20.6515,22.0097,21.5167,314.999998,314.999998,324.999988,324.999988,99.55994285714286,99.50743333333334,99.56801428571428,99.54794285714286,-0.0024999999999999467,-0.15133333333333332,-0.2011666666666666,0.020333333333333314,-0.046666666666666856,-0.054999999999999716,1.4184999999999999,1.4825,38.721000000000004,30.072,38.561,35.4795,56.2,35.5135,59.797,52.9315,54.113,34.5955,58.37,51.2385,53.25,34.1095,58.265,50.635666666666665,-0.01849999999999996,-0.1535000000000002,0.10983000000000001,0.09947,0.0,216.595,216.435,213.10333333333335,213.10333333333335,0.0,0.0
27,0.0,1.0,0.0,1.0,1.0,0.0,0.0,1.0,0.0,100.0,1.0,1.1856,26.0,0.0,0.0,0.0,59.999996,0.0,26.0,26.0,26.0,26.0,-0.12422222222222212,0.2582,-0.002466666666666667,291.534,-2.6163,-2.7478888888888893,-1.5596999999999999,-1.6749,-184.64,216.0075,190.40775,0.0,0.0,0.0,0.0,0.054533333333333336,-5.498166666666667,-5.498166666666667,-0.5949,-1.069,-0.07277777777777805,-0.8200000000000001,69.278,-0.0908,-0.24075000000000002,1.5860000000000003,100.0,1.0,1.0,213.56333333333333,0.0,0.0,0.0,0.0,0.0,0.0,0.0,9052.1,0.0,55.0,5.0,249.37333333333333,1.0,0.0,0.0,0.0,0.0,0.0,0.0,0.0,1.352999999999998,1.352999999999998,0.0,0.0,1.0,55.0,616.79921,10000.0,85.000001,85.000001,85.000001,85.000001,395.0,0.0,0.0,0.0,1.0,166.665,51.743,51.743,46.6,46.6,34.0,-29.8325,19.04,-35.730000000000004,24.0775,0.0,1781.783,0.7899999999999991,100.0,29.019,28.240000000000002,44.941,43.857,0.0,1.0,100.0,0.0,0.0,0.0,0.0,3323.285714285714,2957.0,4243.25,3994.1000000000004,304.8585,305.31725,314.552,314.8425,22.0444,20.6566,22.0199,21.5255,314.999998,314.999998,324.999988,324.999988,99.55994285714286,99.50745,99.56814285714286,99.54808571428572,-0.026249999999999885,-0.16900000000000004,-0.22083333333333333,0.009500000000000064,-0.06666666666666998,-0.03499999999999659,1.4709999999999999,1.5334999999999999,38.777,30.1035,38.623999999999995,35.5345,56.186,35.551,59.835499999999996,52.9855,54.099000000000004,34.629999999999995,58.406,51.2905,53.235,34.143,58.2985,50.686,-0.01949999999999985,-0.14150000000000018,0.10119,0.11153500000000001,0.0,216.91500000000002,216.775,213.56333333333333,213.56333333333333,0.0,0.0
28,0.0,1.0,0.0,1.0,1.0,0.0,0.0,1.0,0.0,100.0,1.0,1.1856,26.0,0.0,0.0,0.0,59.999996,0.0,26.0,26.0,26.0,26.0,-0.1486666666666666,0.2692000000000001,-0.041633333333333335,291.84,-2.6391,-2.740555555555556,-1.50235,-1.6399,-180.89999999999998,216.0125,190.380875,0.0,0.0,0.0,0.0,0.0567,-5.498166666666667,-5.498166666666667,-0.5985,0.653,-0.08277777777777784,-0.698,69.41499999999999,-0.113,-0.21185,1.5419999999999998,100.0,1.0,1.0,214.0966666666667,0.0,0.0,0.0,0.0,0.0,0.0,0.0,9074.8,0.0,55.0,5.0,249.86666666666667,0.0,0.0,0.0,0.0,0.0,0.0,0.0,0.0,1.407,1.407,0.0,0.0,0.0,55.0,616.79921,10000.0,85.000001,85.000001,85.000001,85.000001,395.0,0.0,0.0,0.0,1.0,166.665,51.834,51.834,47.363,47.363,34.0,-30.675,18.308,-35.25666666666666,22.61,0.0,1781.729,0.5749999999999993,100.0,29.158,28.076,44.314,43.150999999999996,0.0,1.0,100.0,0.0,0.0,0.0,0.0,3334.714285714286,2892.7,4240.625,4045.5,304.7875,305.4765,314.678,314.84675,22.0547,20.662399999999998,22.0309,21.535,314.999998,314.999998,324.999988,324.999988,99.55995714285714,99.50748333333334,99.5683,99.54822857142857,-0.03624999999999989,-0.17466666666666675,-0.23583333333333334,-0.012333333333333307,-0.05833333333333002,-0.04833333333333201,1.5175,1.558,38.842,30.139499999999998,38.693,35.5935,56.172,35.5975,59.8745,53.045500000000004,54.086,34.673,58.442499999999995,51.348,53.221000000000004,34.184,58.3315,50.742,-0.03299999999999992,-0.1299999999999999,0.10304500000000001,0.11323500000000002,0.0,217.4,217.245,214.0966666666667,214.0966666666667,0.0,0.0
29,0.0,1.0,0.0,1.0,1.0,0.0,0.0,1.0,0.0,100.0,1.0,1.1856,26.0,0.0,0.0,0.0,59.999996,0.0,26.0,26.0,26.0,26.0,-0.16388888888888886,0.26350000000000007,0.046933333333333334,291.428,-2.5731,-2.800777777777778,-1.5329000000000002,-1.6244,-177.56,216.015,190.356,0.0,0.0,0.0,0.0,0.05863333333333334,-5.498166666666667,-5.498166666666667,-0.6058,-0.7373333333333334,-0.08744444444444444,-0.7430000000000001,69.541,-0.1158,-0.216875,1.234,100.0,1.0,1.0,214.32333333333332,0.0,0.0,0.0,0.0,0.0,0.0,0.0,9084.4,0.0,55.0,5.0,250.32333333333332,1.0,0.0,0.0,0.0,0.0,0.0,0.0,0.0,1.4549999999999983,1.4549999999999983,0.0,0.0,1.0,55.0,616.79921,10000.0,85.000001,85.000001,85.000001,85.000001,395.0,0.0,0.0,0.0,1.0,166.665,51.650999999999996,51.650999999999996,46.478,46.478,34.0,-30.54,20.049999999999997,-37.43666666666667,23.34,0.0,1781.682,0.4299999999999997,100.0,28.902,27.896,44.765,43.333,0.0,1.0,100.0,0.0,0.0,0.0,0.0,3427.4285714285716,3014.3,4367.625,4127.0,304.5675,305.01325,314.233,314.583,22.0636,20.6674,22.041,21.5437,314.999998,314.999998,324.999988,324.999988,99.55995714285714,99.5075,99.56845714285714,99.54837142857143,-0.027499999999999858,-0.16999999999999993,-0.23383333333333334,-0.010333333333333306,-0.051666666666669414,-0.036666666666668846,1.4575,1.4955,38.897,30.1715,38.756,35.647999999999996,56.157,35.6375,59.916,53.1025,54.072,34.71,58.4815,51.4025,53.206,34.2195,58.3675,50.79533333333333,-0.052000000000000046,-0.10950000000000015,0.10147500000000001,0.108685,0.0,217.72,217.60000000000002,214.32333333333332,214.32333333333332,0.0,0.0
30,0.0,1.0,0.0,1.0,1.0,0.0,0.0,1.0,0.0,100.0,1.0,1.1856,26.0,0.0,0.0,0.0,59.999996,0.0,26.0,26.0,26.0,26.0,-0.14888888888888885,0.2722,0.043533333333333334,291.016,-2.6267,-2.6884444444444444,-1.4724,-1.6995,-174.22,216.015,190.331,0.0,0.0,0.0,0.0,0.060566666666666664,-5.498166666666667,-5.498166666666667,-0.6035,0.7826666666666666,-0.08877777777777807,-0.6480000000000001,69.663,-0.1075,-0.2184,1.097999999999999,100.0,1.0,1.0,214.74333333333334,0.0,0.0,0.0,0.0,0.0,0.0,0.0,9102.2,0.0,55.0,5.0,250.76,0.0,0.0,0.0,0.0,0.0,0.0,1.0,0.0,1.5030000000000001,1.5030000000000001,0.0,0.0,0.0,55.0,616.79921,10000.0,85.000001,85.000001,85.000001,85.000001,395.0,0.0,0.0,0.0,1.0,166.665,50.842,50.842,46.783,46.783,34.0,-31.525,18.805999999999997,-36.20333333333333,25.325000000000003,0.0,1781.634,0.3150000000000013,100.0,29.784,28.645,44.620000000000005,43.331,0.0,1.0,100.0,0.0,0.0,0.0,0.0,3536.285714285714,2948.1,4395.625,4188.2,304.222,305.263,314.23966666666666,314.37825,22.0729,20.6727,22.0509,21.5523,314.999998,314.999998,324.999988,324.999988,99.55995714285714,99.50751666666666,99.5686,99.54851428571429,-0.011749999999999927,-0.16266666666666674,-0.22416666666666663,-0.002666666666666595,-0.026666666666670835,-0.05333333333332746,1.4605,1.4989999999999999,38.956,30.2045,38.818,35.701499999999996,56.146,35.681,59.953,53.1575,54.061,34.75,58.516,51.4555,53.195,34.257999999999996,58.399,50.847,-0.0694999999999999,-0.1030000000000002,0.10010000000000001,0.11129000000000001,0.0,218.10500000000002,218.04500000000002,214.74333333333334,214.74333333333334,0.0,0.0
31,0.0,1.0,0.0,1.0,1.0,0.0,0.0,1.0,0.0,100.0,1.0,1.1856,26.0,0.0,0.0,0.0,59.999996,0.0,26.0,26.0,26.0,26.0,-0.12444444444444447,0.26370000000000005,-0.0055000000000000005,290.955,-2.6977,-2.6661111111111113,-1.5241,-1.6706,-170.45,216.01,190.30375,0.0,0.0,0.0,0.0,0.06276666666666667,-5.498166666666667,-5.498166666666667,-0.5929,-0.6863333333333334,-0.07766666666666655,-0.7870000000000001,69.80199999999999,-0.0907,-0.223975,0.6799999999999997,100.0,1.0,1.0,215.07666666666665,0.0,0.0,0.0,0.0,0.0,0.0,0.0,9116.3,0.0,55.0,5.0,251.26,1.0,0.0,0.0,0.0,0.0,0.0,1.0,0.0,1.5569999999999986,1.5569999999999986,0.0,0.0,1.0,55.0,616.79921,10000.0,85.000001,85.000001,85.000001,85.000001,395.0,0.0,0.0,0.0,1.0,166.665,51.407,51.407,45.609,45.609,34.0,-29.125,19.65,-36.32333333333334,26.87,0.0,1781.578,0.23499999999999943,100.0,29.411,28.682000000000002,45.209,43.922,0.0,1.0,100.0,0.0,0.0,0.0,0.0,3294.5714285714284,3059.3,4439.75,4239.4,305.084,305.1455,314.065,314.383,22.083,20.6786,22.0623,21.5622,314.999998,314.999998,324.999988,324.999988,99.55995714285714,99.50753333333333,99.56875714285714,99.54867142857142,-0.003249999999999975,-0.15266666666666673,-0.20166666666666666,0.026833333333333265,-0.05333333333332746,-0.02833333333332888,1.456,1.4675,39.019,30.241500000000002,38.888999999999996,35.7635,56.129000000000005,35.728,59.9995,53.223,54.046,34.7935,58.5595,51.5185,53.178,34.299,58.439499999999995,50.90833333333333,-0.06549999999999989,-0.10400000000000009,0.10709,0.11030500000000001,0.0,218.51,218.435,215.07666666666665,215.07666666666665,0.0,0.0
32,0.0,1.0,0.0,1.0,1.0,0.0,0.0,1.0,0.0,100.0,1.0,1.1856,26.0,0.0,0.0,0.0,59.999996,0.0,26.0,26.0,26.0,26.0,-0.1303333333333333,0.25470000000000015,-0.05333333333333334,291.214,-2.6414,-2.7137777777777776,-1.5841,-1.5816,-166.89,216.0,190.278,0.0,0.0,0.0,0.0,0.06483333333333334,-5.498166666666667,-5.498166666666667,-0.6102000000000001,0.248,-0.10011111111111148,0.385,69.928,-0.0766,-0.22967500000000002,0.6340000000000003,100.0,1.0,1.0,215.62,0.0,0.0,0.0,0.0,0.0,0.0,0.0,9139.4,0.0,55.0,5.0,251.71333333333334,0.0,0.0,0.0,0.0,0.0,0.0,1.0,0.0,1.6080000000000005,1.6080000000000005,0.0,0.0,0.0,55.0,616.79921,10000.0,85.000001,85.000001,85.000001,85.000001,395.0,0.0,0.0,0.0,1.0,111.11,51.178,51.178,46.661,46.661,34.0,-28.3425,21.34,-34.653333333333336,25.810000000000002,0.0,1781.53,0.129999999999999,100.0,29.611,28.576999999999998,44.841,43.596000000000004,0.0,1.0,100.0,0.0,0.0,0.0,0.0,3334.285714285714,3077.6,4275.75,4185.3,304.7105,305.0935,314.571,314.66175,22.0926,20.6843,22.0727,21.5713,314.999998,314.999998,324.999988,324.999988,99.55997142857143,99.50755,99.56891428571429,99.54881428571429,0.01924999999999999,-0.1263333333333332,-0.19299999999999995,0.04633333333333334,-0.045000000000001705,-0.045000000000001705,1.513,1.532,39.079,30.277,38.954,35.820499999999996,56.114000000000004,35.7715,60.037,53.2805,54.032,34.834,58.595,51.573499999999996,53.163,34.338,58.472,50.961666666666666,-0.07299999999999995,-0.0950000000000002,0.11313500000000001,0.10741,0.0,218.93,218.845,215.62,215.62,0.0,0.0
33,0.0,1.0,0.0,1.0,1.0,0.0,0.0,1.0,0.0,100.0,1.0,1.1856,26.0,0.0,0.0,0.0,59.999996,0.0,26.0,26.0,26.0,26.0,-0.09466666666666657,0.26680000000000015,-0.03116666666666667,291.367,-2.6455,-2.7603333333333335,-1.5253999999999999,-1.59,-163.53,215.99,190.252875,0.0,0.0,0.0,0.0,0.0668,-5.498166666666667,-5.498166666666667,-0.6122000000000001,-0.426,-0.08444444444444432,1.521,70.051,-0.06470000000000001,-0.21652500000000002,0.4060000000000006,100.0,1.0,1.0,215.88333333333333,0.0,0.0,0.0,0.0,0.0,0.0,0.0,9150.6,0.0,55.0,5.0,252.16,1.0,0.0,0.0,0.0,0.0,0.0,1.0,0.0,1.6559999999999988,1.6559999999999988,0.0,0.0,1.0,55.0,616.79921,10000.0,85.000001,85.000001,85.000001,85.000001,395.0,0.0,0.0,0.0,1.0,166.665,51.834,51.834,46.478,46.478,34.0,-25.869999999999997,21.828,-32.696666666666665,27.3925,0.0,1781.481,-0.015000000000000568,100.0,29.296,28.252,44.852000000000004,43.691,0.0,1.0,100.0,0.0,0.0,0.0,0.0,3158.142857142857,3007.2,4255.5,4308.7,305.2385,305.3315,314.4463333333333,314.27725,22.1015,20.6894,22.0826,21.58,314.999998,314.999998,324.999988,324.999988,99.55997142857143,99.50756666666666,99.56905714285715,99.54895714285715,0.03699999999999992,-0.11033333333333317,-0.16649999999999998,0.05016666666666669,-0.05333333333332746,-0.041666666666671404,1.4765,1.4845,39.135,30.308500000000002,39.016,35.875,56.099999999999994,35.809,60.0745,53.337,54.018,34.868,58.629999999999995,51.628,53.149,34.3705,58.504,51.01466666666667,-0.08650000000000002,-0.08050000000000024,0.10153000000000001,0.10874500000000001,0.0,219.285,219.23000000000002,215.88333333333333,215.88333333333333,0.0,0.0
34,0.0,1.0,0.0,1.0,1.0,0.0,0.0,1.0,0.0,100.0,1.0,1.1856,26.0,0.0,0.0,0.0,59.999996,0.0,26.0,26.0,26.0,26.0,-0.07977777777777784,0.25,-0.0553,291.763,-2.7171,-2.7092222222222224,-1.59195,-1.6084,-160.17000000000002,215.97750000000002,190.226625,0.0,0.0,0.0,0.0,0.06873333333333334,-5.498166666666667,-5.498166666666667,-0.6434000000000001,-0.7283333333333334,-0.05022222222222217,1.13,70.17099999999999,-0.0529,-0.22767500000000002,0.34999999999999964,100.0,1.0,1.0,216.33666666666667,0.0,0.0,0.0,0.0,0.0,0.0,0.0,9169.8,0.0,55.0,5.0,252.59,0.0,0.0,0.0,0.0,0.0,0.0,1.0,0.0,1.7040000000000006,1.7040000000000006,0.0,0.0,0.0,55.0,616.79921,10000.0,85.000001,85.000001,85.000001,85.000001,395.0,0.0,0.0,0.0,1.0,166.665,52.032,52.032,47.424,47.424,34.0,-26.189999999999998,22.082,-31.336666666666666,27.2725,0.0,1781.433,-0.06500000000000128,100.0,28.993,28.0,44.481,43.775,0.0,1.0,100.0,0.0,0.0,0.0,0.0,3163.0,3010.0,4049.5,4176.5,305.203,305.34025,315.04766666666666,314.545,22.1104,20.6945,22.0924,21.5887,314.999998,314.999998,324.999988,324.999988,99.55997142857143,99.50758333333333,99.5692,99.54908571428571,0.047250000000000014,-0.09333333333333327,-0.16516666666666657,0.06383333333333319,-0.04333333333332945,-0.041666666666671404,1.504,1.5235,39.19,30.341,39.077,35.9295,56.085,35.846000000000004,60.108000000000004,53.3935,54.003,34.9025,58.661500000000004,51.682,53.134,34.4035,58.5325,51.06733333333333,-0.08899999999999997,-0.07050000000000001,0.11241500000000001,0.10652500000000001,0.0,219.625,219.595,216.33666666666667,216.33666666666667,0.0,0.0
35,0.0,1.0,0.0,1.0,1.0,0.0,0.0,1.0,0.0,100.0,1.0,1.1856,26.0,0.0,0.0,0.0,59.999996,0.0,26.0,26.0,26.0,26.0,-0.04933333333333334,0.25649999999999995,-0.06306666666666666,291.779,-2.7218,-2.687222222222222,-1.56215,-1.6164,-156.57999999999998,215.9625,190.196625,0.0,0.0,0.0,0.0,0.07083333333333335,-5.498166666666667,-5.498166666666667,-0.6861,-0.4146666666666667,-0.05888888888888877,-0.958,70.298,-0.0378,-0.230325,0.19200000000000017,100.0,1.0,1.0,216.78333333333333,0.0,0.0,0.0,0.0,0.0,0.0,0.0,9188.7,0.0,55.0,5.0,253.04666666666668,1.0,0.0,0.0,0.0,0.0,0.0,1.0,0.0,1.754999999999999,1.754999999999999,0.0,0.0,1.0,55.0,616.79921,10000.0,85.000001,85.000001,85.000001,85.000001,395.0,0.0,0.0,0.0,1.0,166.665,51.575,51.575,46.997,46.997,34.0,-27.165,24.344,-29.743333333333332,26.115000000000002,0.0,1781.38,-0.07000000000000028,100.0,28.617,28.383,44.124,43.417,0.0,1.0,100.0,0.0,0.0,0.0,0.0,3306.714285714286,3245.3,4077.125,3930.4,305.072,304.4775,314.96633333333335,315.13275,22.1196,20.7002,22.1027,21.5978,314.999998,314.999998,324.999988,324.999988,99.55998571428572,99.50758333333333,99.56935714285714,99.54925714285714,0.04850000000000021,-0.08699999999999997,-0.14049999999999996,0.07933333333333326,-0.03499999999999659,-0.04333333333332945,1.561,1.5525,39.247,30.375999999999998,39.141999999999996,35.9865,56.066,35.8885,60.146,53.4525,53.986000000000004,34.942,58.6965,51.739,53.114999999999995,34.4415,58.564,51.123,-0.09199999999999986,-0.07299999999999995,0.10158500000000001,0.10744500000000001,0.0,220.01,219.985,216.78333333333333,216.78333333333333,0.0,0.0
36,0.0,1.0,0.0,1.0,1.0,0.0,0.0,1.0,0.0,100.0,1.0,1.1856,26.0,0.0,0.0,0.0,59.999996,0.0,26.0,26.0,26.0,26.0,-0.05322222222222217,0.26290000000000013,0.0507,290.833,-2.7308,-2.6444444444444444,-1.5378,-1.6059999999999999,-153.21,215.9475,190.166875,0.0,0.0,0.0,0.0,0.0728,-5.498166666666667,-5.498166666666667,-0.6651,0.394,-0.08933333333333371,-1.278,70.42,-0.031,-0.19917500000000002,0.33200000000000074,100.0,1.0,1.0,216.92333333333335,0.0,0.0,0.0,0.0,0.0,0.0,0.0,9194.6,0.0,55.0,5.0,253.48666666666668,0.0,0.0,0.0,0.0,0.0,0.0,1.0,0.0,1.8030000000000008,1.8030000000000008,0.0,0.0,0.0,55.0,616.79921,10000.0,85.000001,85.000001,85.000001,85.000001,395.0,0.0,0.0,0.0,1.0,166.665,51.254,51.254,46.158,46.158,34.0,-27.8975,22.508,-34.61333333333333,31.4125,0.0,1781.333,-0.09999999999999787,100.0,29.09,28.839,44.149,43.747,0.0,1.0,100.0,0.0,0.0,0.0,0.0,3408.0,3067.4,4564.625,4501.9,304.7745,305.01925,313.84833333333336,313.7545,22.1285,20.7056,22.1125,21.6065,314.999998,314.999998,324.999988,324.999988,99.55998571428572,99.5076,99.56948571428572,99.54938571428572,0.05575000000000019,-0.08533333333333326,-0.14516666666666667,0.08483333333333332,-0.045000000000001705,-0.03999999999999915,1.4235,1.4445,39.303,30.41,39.203,36.041,56.055,35.926,60.18,53.5065,53.974999999999994,34.9765,58.728,51.7905,53.104,34.4745,58.593,51.17333333333333,-0.08999999999999986,-0.07650000000000023,0.106685,0.11782500000000001,0.0,220.43,220.41,216.92333333333335,216.92333333333335,0.0,0.0
