,ABS Active,ABS Enabled,AID Allow Tire Blankets,AID Auto Blip,AID Auto Clutch,AID Auto Shift,AID Fuel Rate,AID Ideal Line,AID Mech Damage,AID Stability,AID Tire Wear Rate,Air Density,Air Temp,Ballast,Best Lap Delta,Best Lap Time,Brake Bias,Brake Pos,Brake Temp FL,Brake Temp FR,Brake Temp RL,Brake Temp RR,CG Accel Lateral,CG Accel Longitudinal,CG Accel Vertical,CG Height,Camber FL,Camber FR,Camber RL,Camber RR,Car Coord X,Car Coord Y,Car Coord Z,Car Damage Front,Car Damage Left,Car Damage Rear,Car Damage Right,Car Pos Norm,Caster FL,Caster FR,Chassis Pitch Angle,Chassis Pitch Rate,Chassis Roll Angle,Chassis Roll Rate,Chassis Velocity X,Chassis Velocity Y,Chassis Velocity Z,Chassis Yaw Rate,Clutch Pos,DRS Active,DRS Available,Drive Train Speed,ERS Heat Charging,ERS Is Charging,ERS Max Energy,ERS Power Level,ERS Recovery Level,Engine Brake Setting,Engine Limiter,Engine RPM,Flags,Fuel Level,Gear,Ground Speed,HR Sample Clock,In Pit,KERS Charge,KERS Deployed Energy,KERS Input,KERS Max Energy,LR Sample Clock,Lap Invalidated,Lap Time,Lap Time2,Last Lap Time,Last Sector Time,MR Sample Clock,Max Fuel,Max Power,Max RPM,Max Sus Travel FL,Max Sus Travel FR,Max Sus Travel RL,Max Sus Travel RR,Max Torque,Max Turbo Boost,Num Tires Off Track,Penalties Enabled,Position,Raw Data Sample Rate,Ride Height FL,Ride Height FR,Ride Height RL,Ride Height RR,Road Temp,Self Align Torque FL,Self Align Torque FR,Self Align Torque RL,Self Align Torque RR,Session Lap Count,Session Time Left,Steering Angle,Surface Grip,Suspension Travel FL,Suspension Travel FR,Suspension Travel RL,Suspension Travel RR,TC Active,TC Enabled,Throttle Pos,Tire Dirt Level FL,Tire Dirt Level FR,Tire Dirt Level RL,Tire Dirt Level RR,Tire Load FL,Tire Load FR,Tire Load RL,Tire Load RR,Tire Loaded Radius FL,Tire Loaded Radius FR,Tire Loaded Radius RL,Tire Loaded Radius RR,Tire Pressure FL,Tire Pressure FR,Tire Pressure RL,Tire Pressure RR,Tire Radius FL,Tire Radius FR,Tire Radius RL,Tire Radius RR,Tire Rubber Grip FL,Tire Rubber Grip FR,Tire Rubber Grip RL,Tire Rubber Grip RR,Tire Slip Angle FL,Tire Slip Angle FR,Tire Slip Angle RL,Tire Slip Angle RR,Tire Slip Ratio FL,Tire Slip Ratio FR,Tire Slip Ratio RL,Tire Slip Ratio RR,Tire Temp Core FL,Tire Temp Core FR,Tire Temp Core RL,Tire Temp Core RR,Tire Temp Inner FL,Tire Temp Inner FR,Tire Temp Inner RL,Tire Temp Inner RR,Tire Temp Middle FL,Tire Temp Middle FR,Tire Temp Middle RL,Tire Temp Middle RR,Tire Temp Outer FL,Tire Temp Outer FR,Tire Temp Outer RL,Tire Temp Outer RR,Toe In FL,Toe In FR,Toe In RL,Toe In RR,Turbo Boost,Wheel Angular Speed FL,Wheel Angular Speed FR,Wheel Angular Speed RL,Wheel Angular Speed RR,Wind Direction,Wind Speed
0,0.0,1.0,0.0,1.0,1.0,0.0,0.0,1.0,0.0,100.0,1.0,1.1856,26.0,0.0,0.0,0.0,59.99999,0.0,26.0,26.0,26.0,26.0,-0.05375,0.28700000000000014,0.0591,293.64,-2.7207,-2.632,-1.5283,-1.5276,-275.78,215.7375,190.98825,0.0,0.0,0.0,0.0,0.0015333333333333865,-5.498166666666667,-5.498166666666667,-0.5572,1.9195,-0.00655555555555587,-0.06499999999999995,65.499,-0.032399999999999984,-0.2172,0.2240000000000002,100.0,1.0,1.0,202.22,0.0,0.0,0.0,0.0,0.0,0.0,0.0,8571.3,0.0,55.0,5.0,235.76666666666665,0.0,0.0,0.0,0.0,0.0,0.0,0.0,0.0,0.0030000000000001137,0.0030000000000001137,0.0,0.0,0.0,55.0,616.79921,10000.0,85.0,85.0,85.0,85.0,395.0,0.0,0.0,0.0,1.0,20.0,51.804,51.804,49.24,49.24,34.0,-27.8975,29.766,-29.536666666666665,26.052500000000002,0.0,1783.747,0.45500000000000185,100.0,27.197,26.753,40.352000000000004,40.037,0.0,1.0,100.0,0.0,0.0,0.0,0.0,3191.5714285714284,4074.3,4078.222222222222,4115.9,304.978,302.31875,314.91125,314.6075,21.7654,20.5124,21.734,21.2778,314.99999,314.99999,324.99998,324.99998,99.55838571428572,99.50718333333333,99.56381428571429,99.54391428571428,0.0129999999999999,-0.09599999999999986,-0.14833333333333332,0.07733333333333325,-0.061666666666667425,-0.045000000000001705,1.5523333333333333,1.568,37.033,29.202666666666666,36.838,33.9865,56.099999999999994,34.44,58.617,51.194,54.034,33.626999999999995,57.2665,49.572,53.213,33.204499999999996,57.24,49.003,-0.04699999999999993,-0.10299999999999998,0.11251000000000001,0.1107,0.0,205.26,205.215,202.22,202.22,0.0,0.0
1,0.0,1.0,0.0,1.0,1.0,0.0,0.0,1.0,0.0,100.0,1.0,1.1856,26.0,0.0,0.0,0.0,59.999996,0.0,26.0,26.0,26.0,26.0,-0.109875,0.32710000000000017,0.092225,292.786,-2.6504,-2.7123749999999998,-1.5430000000000001,-1.3785,-272.24,215.74,190.967125,0.0,0.0,0.0,0.0,0.0035999999999999366,-5.498166666666667,-5.498166666666667,-0.48000000000000004,-1.557,-0.056111111111111445,-0.11799999999999988,65.666,-0.03269999999999995,-0.18632500000000002,0.8840000000000003,100.0,1.0,1.0,202.22,0.0,0.0,0.0,0.0,0.0,0.0,0.0,8571.3,0.0,55.0,5.0,236.36666666666667,1.0,0.0,0.0,0.0,0.0,0.0,0.0,0.0,0.05699999999999861,0.05699999999999861,0.0,0.0,1.0,55.0,616.79921,10000.0,85.000001,85.000001,85.000001,85.000001,395.0,0.0,0.0,0.0,1.0,166.665,54.397999999999996,54.397999999999996,47.821,47.821,34.0,-24.11,16.66,-37.11333333333333,30.7375,0.0,1783.692,0.5949999999999989,100.0,27.36,26.814,42.422,42.485,0.0,1.0,100.0,0.0,0.0,0.0,0.0,2877.857142857143,2455.2,4650.777777777777,5109.3,306.0225,306.9855,313.3535,311.8745,21.7757,20.5177,21.7455,21.2876,314.999998,314.999998,324.999988,324.999988,99.5584,99.5072,99.56398571428572,99.54407142857143,0.01100000000000012,-0.11633333333333318,-0.16133333333333333,0.051833333333333176,-0.041666666666671404,-0.03166666666666629,1.3113333333333332,1.347,37.098,29.236,36.91,34.0475,56.082,34.4815,58.669,51.2685,54.016999999999996,33.665,57.315,49.6435,53.195,33.241,57.2855,49.073,-0.02200000000000002,-0.1200000000000001,0.10959,0.10583500000000001,0.0,205.72,205.65,202.22,202.22,0.0,0.0
2,0.0,1.0,0.0,1.0,1.0,0.0,0.0,1.0,0.0,100.0,1.0,1.1856,26.0,0.0,0.0,0.0,59.999996,0.0,26.0,26.0,26.0,26.0,-0.093875,0.2824,-0.11242500000000001,294.189,-2.6311999999999998,-2.666875,-1.5239,-1.5187,-268.89,215.74,190.948375,0.0,0.0,0.0,0.0,0.00553333333333339,-5.498166666666667,-5.498166666666667,-0.5704,0.59,-0.020333333333333314,1.583,65.80199999999999,-0.044399999999999995,-0.265425,1.2139999999999995,100.0,1.0,1.0,203.5366666666667,0.0,0.0,0.0,0.0,0.0,0.0,0.0,8627.1,0.0,55.0,5.0,236.86,0.0,0.0,0.0,0.0,0.0,0.0,0.0,0.0,0.10800000000000054,0.10800000000000054,0.0,0.0,0.0,55.0,616.79921,10000.0,85.000001,85.000001,85.000001,85.000001,395.0,0.0,0.0,0.0,1.0,166.665,52.353,52.353,50.964,50.964,34.0,-29.595,20.262,-25.95,18.36,0.0,1783.642,0.6449999999999996,100.0,27.981,27.135,41.817,41.318,0.0,1.0,100.0,0.0,0.0,0.0,0.0,3358.0,3002.1,3537.777777777778,3384.1,304.594,305.07025,316.21325,316.4735,21.785800000000002,20.5229,21.7558,21.296,314.999998,314.999998,324.999988,324.999988,99.5584,99.50721666666666,99.56411428571428,99.5442,-0.00924999999999998,-0.1316666666666666,-0.1921666666666666,0.04266666666666685,-0.051666666666669414,-0.06333333333333258,1.7286666666666668,1.7773333333333334,37.161,29.268,36.974000000000004,34.1,56.069,34.5215,58.705,51.320499999999996,54.004000000000005,33.702,57.3485,49.693,53.182,33.275999999999996,57.3165,49.122,-0.024499999999999966,-0.12549999999999994,0.10678000000000001,0.11049,0.0,206.17000000000002,206.055,203.5366666666667,203.5366666666667,0.0,0.0
3,0.0,1.0,0.0,1.0,1.0,0.0,0.0,1.0,0.0,100.0,1.0,1.1856,26.0,0.0,0.0,0.0,59.999996,0.0,26.0,26.0,26.0,26.0,-0.107625,0.30210000000000004,-0.034925000000000005,293.32,-2.6539,-2.698625,-1.5069,-1.4906000000000001,-265.73,215.7375,190.92925,0.0,0.0,0.0,0.0,0.0073666666666665215,-5.498166666666667,-5.498166666666667,-0.5024000000000001,0.6025,-0.007777777777777661,-2.027,65.949,-0.06119999999999992,-0.18807500000000002,0.9979999999999993,100.0,1.0,1.0,203.40333333333334,0.0,0.0,0.0,0.0,0.0,0.0,0.0,8621.5,0.0,55.0,5.0,237.38666666666666,1.0,0.0,0.0,0.0,0.0,0.0,0.0,0.0,0.1559999999999988,0.1559999999999988,0.0,0.0,1.0,55.0,616.79921,10000.0,85.000001,85.000001,85.000001,85.000001,395.0,0.0,0.0,0.0,1.0,166.665,53.543,53.543,47.852000000000004,47.852000000000004,34.0,-25.435,18.702,-35.25666666666667,24.5075,0.0,1783.593,0.6750000000000007,100.0,27.605,27.242,41.983000000000004,41.713,0.0,1.0,100.0,0.0,0.0,0.0,0.0,2935.4285714285716,2816.1,4506.777777777777,4197.4,306.003,305.669,313.86475,314.27775,21.7949,20.5278,21.7656,21.3044,314.999998,314.999998,324.999988,324.999988,99.5584,99.50723333333333,99.56425714285714,99.54434285714285,-0.0129999999999999,-0.14066666666666672,-0.17799999999999994,0.03716666666666679,-0.05666666666667197,-0.03833333333332689,1.4436666666666667,1.479,37.218,29.299,37.035,34.153,56.052,34.5615,58.7435,51.3835,53.989000000000004,33.739,57.385,49.754,53.166,33.3115,57.35,49.1815,-0.023499999999999965,-0.1280000000000001,0.10061,0.10672500000000001,0.0,206.66500000000002,206.555,203.40333333333334,203.40333333333334,0.0,0.0
4,0.0,1.0,0.0,1.0,1.0,0.0,0.0,1.0,0.0,100.0,1.0,1.1856,26.0,0.0,0.0,0.0,59.999996,0.0,26.0,26.0,26.0,26.0,-0.122125,0.2771000000000001,-0.027375,293.579,-2.6784,-2.772625,-1.456,-1.6029,-262.36,215.73000000000002,190.90975,0.0,0.0,0.0,0.0,0.009333333333333305,-5.498166666666667,-5.498166666666667,-0.5321,-0.8935,-0.058222222222222175,0.15399999999999991,66.095,-0.07209999999999994,-0.233775,1.2720000000000002,100.0,1.0,1.0,204.01,0.0,0.0,0.0,0.0,0.0,0.0,0.0,8647.3,0.0,55.0,5.0,237.91333333333333,0.0,0.0,0.0,0.0,0.0,0.0,0.0,0.0,0.20700000000000074,0.20700000000000074,0.0,0.0,0.0,55.0,616.79921,10000.0,85.000001,85.000001,85.000001,85.000001,395.0,0.0,0.0,0.0,1.0,166.665,53.268,53.268,48.782,48.782,34.0,-28.122500000000002,20.107999999999997,-31.11,23.134999999999998,0.0,1783.542,0.6550000000000011,100.0,27.61,26.669,42.807,41.76,0.0,1.0,100.0,0.0,0.0,0.0,0.0,3157.285714285714,2947.9,4080.222222222222,3854.6,305.1865,305.50925,314.82925,315.2415,21.8047,20.5329,21.7762,21.313299999999998,314.999998,314.999998,324.999988,324.999988,99.5584,99.50725,99.5644,99.54448571428571,-0.012499999999999956,-0.14066666666666672,-0.19466666666666665,0.03849999999999998,-0.051666666666669414,-0.054999999999999716,1.536,1.5856666666666666,37.278999999999996,29.330666666666666,37.102000000000004,34.2085,56.036,34.602000000000004,58.7875,51.445,53.973,33.775999999999996,57.4255,49.813,53.15,33.347,57.388,49.239,-0.02300000000000002,-0.13000000000000012,0.10672500000000001,0.112795,0.0,207.05,206.95499999999998,204.01,204.01,0.0,0.0
5,0.0,1.0,0.0,1.0,1.0,0.0,0.0,1.0,0.0,100.0,1.0,1.1856,26.0,0.0,0.0,0.0,59.999996,0.0,26.0,26.0,26.0,26.0,-0.10975,0.29259999999999997,-0.03465,293.854,-2.7006,-2.73025,-1.5021,-1.6043,-258.98,215.7225,190.889875,0.0,0.0,0.0,0.0,0.011299999999999977,-5.498166666666667,-5.498166666666667,-0.5391,0.474,-0.05777777777777793,-0.536,66.24000000000001,-0.08619999999999994,-0.22105000000000002,1.282000000000001,100.0,1.0,1.0,204.5366666666667,0.0,0.0,0.0,0.0,0.0,0.0,0.0,8669.6,0.0,55.0,5.0,238.43666666666667,1.0,0.0,0.0,0.0,0.0,0.0,0.0,0.0,0.2579999999999991,0.2579999999999991,0.0,0.0,1.0,55.0,616.79921,10000.0,85.000001,85.000001,85.000001,85.000001,395.0,0.0,0.0,0.0,1.0,166.665,53.391,53.391,49.332,49.332,34.0,-28.895,19.418,-31.773333333333333,22.415,0.0,1783.492,0.3099999999999987,100.0,27.532,26.732,42.337,41.275999999999996,0.0,1.0,100.0,0.0,0.0,0.0,0.0,3214.142857142857,2833.2,4025.0,3915.5,305.147,305.6675,315.06325,315.109,21.8146,20.538,21.7866,21.322,314.999998,314.999998,324.999988,324.999988,99.55841428571429,99.50726666666667,99.56454285714285,99.54461428571429,-0.016000000000000014,-0.1316666666666666,-0.21316666666666662,0.01649999999999996,-0.05333333333332746,-0.041666666666671404,1.572,1.6143333333333334,37.341,29.362666666666666,37.166,34.2625,56.022,34.643,58.827,51.5035,53.96,33.814,57.4625,49.8685,53.135,33.382999999999996,57.422,49.294,-0.04399999999999993,-0.09800000000000009,0.105785,0.11065000000000001,0.0,207.535,207.43,204.5366666666667,204.5366666666667,0.0,0.0
6,0.0,1.0,0.0,1.0,1.0,0.0,0.0,1.0,0.0,100.0,1.0,1.1856,26.0,0.0,0.0,0.0,59.999996,0.0,26.0,26.0,26.0,26.0,-0.131125,0.3036000000000001,0.0032500000000000003,293.625,-2.6418,-2.7978750000000003,-1.5507,-1.5742,-256.0,215.7125,190.871625,0.0,0.0,0.0,0.0,0.013033333333333341,-5.498166666666667,-5.498166666666667,-0.5246000000000001,-0.033500000000000085,-0.06355555555555581,0.7050000000000001,66.372,-0.08749999999999991,-0.20172500000000002,0.8900000000000006,100.0,1.0,1.0,204.78333333333333,0.0,0.0,0.0,0.0,0.0,0.0,0.0,8680.0,0.0,55.0,5.0,238.91,0.0,0.0,0.0,0.0,0.0,0.0,0.0,0.0,0.3030000000000008,0.3030000000000008,0.0,0.0,0.0,55.0,616.79921,10000.0,85.000001,85.000001,85.000001,85.000001,395.0,0.0,0.0,0.0,1.0,166.665,53.711,53.711,48.553,48.553,34.0,-26.9775,20.122,-34.63666666666667,24.18,0.0,1783.447,0.365000000000002,100.0,27.494,26.367,42.625,41.355000000000004,0.0,1.0,100.0,0.0,0.0,0.0,0.0,3088.285714285714,2885.2,4251.555555555556,4102.3,305.3675,305.6905,314.4175,314.69225,21.8232,20.5425,21.7959,21.3298,314.999998,314.999998,324.999988,324.999988,99.55841428571429,99.50728333333333,99.56467142857143,99.54474285714285,-0.008499999999999952,-0.1336666666666666,-0.2028333333333333,0.028999999999999915,-0.03999999999999915,-0.060000000000002274,1.4956666666666667,1.5403333333333333,37.394999999999996,29.390666666666668,37.224000000000004,34.3115,56.007999999999996,34.6785,58.865,51.5585,53.946,33.8465,57.498,49.9215,53.120999999999995,33.414500000000004,57.455,49.3455,-0.044499999999999984,-0.10099999999999998,0.10471000000000001,0.10863,0.0,207.935,207.845,204.78333333333333,204.78333333333333,0.0,0.0
7,0.0,1.0,0.0,1.0,1.0,0.0,0.0,1.0,0.0,100.0,1.0,1.1856,26.0,0.0,0.0,0.0,59.999996,0.0,26.0,26.0,26.0,26.0,-0.0995,0.28590000000000004,-0.002425,293.51800000000003,-2.6089,-2.78925,-1.5104000000000002,-1.6189,-252.41,215.6975,190.84975,0.0,0.0,0.0,0.0,0.015133333333333332,-5.498166666666667,-5.498166666666667,-0.5346000000000001,0.07099999999999995,-0.051444444444444404,1.0699999999999998,66.525,-0.0837,-0.21937500000000001,0.7279999999999998,100.0,1.0,1.0,205.32333333333332,0.0,0.0,0.0,0.0,0.0,0.0,0.0,8702.9,0.0,55.0,5.0,239.46333333333334,1.0,0.0,0.0,0.0,0.0,0.0,0.0,0.0,0.3569999999999993,0.3569999999999993,0.0,0.0,1.0,55.0,616.79921,10000.0,85.000001,85.000001,85.000001,85.000001,395.0,0.0,0.0,0.0,1.0,166.665,53.192,53.192,48.935,48.935,34.0,-25.775,21.614,-31.516666666666666,23.7275,0.0,1783.393,-0.07499999999999929,100.0,27.842,26.685,42.71,41.566,0.0,1.0,100.0,0.0,0.0,0.0,0.0,3109.714285714286,2959.6,4026.222222222222,3992.2,305.2525,305.4065,314.957,314.92675,21.8337,20.548,21.807,21.339199999999998,314.999998,314.999998,324.999988,324.999988,99.55841428571429,99.5073,99.56481428571429,99.54488571428571,0.02024999999999988,-0.11133333333333328,-0.19899999999999995,0.024333333333333318,-0.046666666666666856,-0.051666666666669414,1.5443333333333333,1.5613333333333332,37.461,29.424666666666667,37.294,34.37,55.992999999999995,34.7215,58.908500000000004,51.624,53.932,33.885999999999996,57.539,49.984,53.105999999999995,33.452,57.493,49.4065,-0.07599999999999996,-0.07499999999999996,0.10429000000000001,0.10486000000000001,0.0,208.38,208.32,205.32333333333332,205.32333333333332,0.0,0.0
8,0.0,1.0,0.0,1.0,1.0,0.0,0.0,1.0,0.0,100.0,1.0,1.1856,26.0,0.0,0.0,0.0,59.999996,0.0,26.0,26.0,26.0,26.0,-0.081,0.27049999999999996,-0.0009750000000000001,293.503,-2.688,-2.721625,-1.4917,-1.6102,-249.22,215.6825,190.830375,0.0,0.0,0.0,0.0,0.016999999999999904,-5.498166666666667,-5.498166666666667,-0.537,-0.26,-0.039111111111111097,0.649,66.662,-0.06889999999999996,-0.219425,0.2920000000000007,100.0,1.0,1.0,205.7,0.0,0.0,0.0,0.0,0.0,0.0,0.0,8718.9,0.0,55.0,5.0,239.95333333333332,0.0,0.0,0.0,0.0,0.0,0.0,0.0,0.0,0.40500000000000114,0.40500000000000114,0.0,0.0,0.0,55.0,616.79921,10000.0,85.000001,85.000001,85.000001,85.000001,395.0,0.0,0.0,0.0,1.0,333.33500000000004,53.421,53.421,48.477000000000004,48.477000000000004,34.0,-25.169999999999998,21.926,-30.613333333333333,25.7075,0.0,1783.344,-0.120000000000001,100.0,27.555,26.772,42.79,41.746,0.0,1.0,100.0,0.0,0.0,0.0,0.0,3005.4285714285716,3019.8,4049.8888888888887,4058.8,305.6105,305.27525,314.90375,314.7515,21.8428,20.5529,21.8169,21.3476,314.999998,314.999998,324.999988,324.999988,99.55841428571429,99.5073,99.56495714285714,99.54501428571429,0.026000000000000245,-0.10033333333333316,-0.17866666666666664,0.05466666666666686,-0.04333333333332945,-0.05333333333332746,1.5206666666666666,1.5513333333333335,37.518,29.455333333333336,37.355999999999995,34.4225,55.977999999999994,34.7585,58.948,51.682,53.917,33.92,57.5755,50.04,53.091,33.485,57.5265,49.4615,-0.08450000000000002,-0.06750000000000012,0.10673,0.11056500000000001,0.0,208.79000000000002,208.765,205.7,205.7,0.0,0.0
9,0.0,1.0,0.0,1.0,1.0,0.0,0.0,1.0,0.0,100.0,1.0,1.1856,26.0,0.0,0.0,0.0,59.999996,0.0,26.0,26.0,26.0,26.0,-0.058125,0.28970000000000007,0.0166,293.274,-2.614,-2.731125,-1.5443,-1.5638,-246.01,215.66500000000002,190.810625,0.0,0.0,0.0,0.0,0.01883333333333337,-5.498166666666667,-5.498166666666667,-0.5357000000000001,0.33799999999999997,-0.04466666666666663,0.841,66.797,-0.05279999999999996,-0.21305000000000002,0.10799999999999965,100.0,1.0,1.0,206.14333333333332,0.0,0.0,0.0,0.0,0.0,0.0,0.0,8737.7,0.0,55.0,5.0,240.44,1.0,0.0,0.0,0.0,0.0,0.0,0.0,0.0,0.4529999999999994,0.4529999999999994,0.0,0.0,1.0,55.0,616.79921,10000.0,85.000001,85.000001,85.000001,85.000001,395.0,0.0,0.0,0.0,1.0,333.33500000000004,52.948,52.948,48.828,48.828,34.0,-25.169999999999998,23.024,-29.903333333333336,25.752499999999998,0.0,1783.296,-0.3099999999999987,100.0,27.817,26.919,42.641,41.763,0.0,1.0,100.0,0.0,0.0,0.0,0.0,3160.142857142857,3039.5,4035.4444444444443,4112.0,305.1285,305.2055,314.97125,314.68075,21.8521,20.5578,21.8267,21.3559,314.999998,314.999998,324.999988,324.999988,99.55842857142858,99.50731666666667,99.56508571428571,99.54515714285715,0.04574999999999996,-0.08000000000000007,-0.15649999999999997,0.0621666666666667,-0.046666666666666856,-0.05833333333333002,1.552,1.5573333333333332,37.575,29.486333333333334,37.417,34.4745,55.965,34.796,58.9855,51.7395,53.905,33.954499999999996,57.6105,50.0945,53.077,33.518,57.5585,49.515,-0.09899999999999998,-0.050000000000000044,0.110515,0.10325000000000001,0.0,209.22500000000002,209.20499999999998,206.14333333333332,206.14333333333332,0.0,0.0
10,0.0,1.0,0.0,1.0,1.0,0.0,0.0,1.0,0.0,100.0,1.0,1.1856,26.0,0.0,0.0,0.0,59.999996,0.0,26.0,26.0,26.0,26.0,-0.03125,0.2895000000000001,0.01725,293.198,-2.6746,-2.705125,-1.5091,-1.5469,-242.4,215.64499999999998,190.788625,0.0,0.0,0.0,0.0,0.02093333333333336,-5.498166666666667,-5.498166666666667,-0.5268,-0.36450000000000005,-0.015111111111111075,1.698,66.952,-0.03159999999999996,-0.2109,-0.15799999999999947,100.0,1.0,1.0,206.50666666666666,0.0,0.0,0.0,0.0,0.0,0.0,0.0,8753.0,0.0,55.0,5.0,240.99666666666667,0.0,0.0,0.0,0.0,0.0,0.0,1.0,0.0,0.5069999999999979,0.5069999999999979,0.0,0.0,0.0,55.0,616.79921,10000.0,85.000001,85.000001,85.000001,85.000001,395.0,0.0,0.0,0.0,1.0,166.665,53.375,53.375,48.233000000000004,48.233000000000004,34.0,-23.06,22.866,-29.323333333333334,28.1625,0.0,1783.243,-0.3999999999999986,100.0,27.707,26.898,42.841,42.206,0.0,1.0,100.0,0.0,0.0,0.0,0.0,2958.714285714286,3005.2,4115.555555555556,4265.7,305.746,305.364,314.73475,314.292,21.8624,20.5634,21.8378,21.3655,314.999998,314.999998,324.999988,324.999988,99.55842857142858,99.50731666666667,99.56524285714286,99.5453,0.06499999999999995,-0.06933333333333325,-0.135,0.08466666666666667,-0.045000000000001705,-0.036666666666668846,1.509,1.5016666666666667,37.64,29.521,37.486000000000004,34.5345,55.95,34.836,59.028999999999996,51.807,53.891,33.9915,57.6515,50.1595,53.063,33.553,57.5965,49.5785,-0.10399999999999998,-0.04899999999999993,0.10561500000000001,0.102925,0.0,209.675,209.66,206.50666666666666,206.50666666666666,0.0,0.0
11,0.0,1.0,0.0,1.0,1.0,0.0,0.0,1.0,0.0,100.0,1.0,1.1856,26.0,0.0,0.0,0.0,59.999996,0.0,26.0,26.0,26.0,26.0,-0.009625,0.26839999999999997,-0.048350000000000004,293.564,-2.6869,-2.6950000000000003,-1.5682,-1.5201,-239.18,215.625,190.769,0.0,0.0,0.0,0.0,0.022599999999999953,-5.498166666666667,-5.498166666666667,-0.5516,-0.21050000000000013,0.011111111111111072,0.9610000000000001,67.084,-0.015499999999999958,-0.226475,-0.32200000000000006,100.0,1.0,1.0,207.07999999999998,0.0,0.0,0.0,0.0,0.0,0.0,0.0,8777.4,0.0,55.0,5.0,241.47333333333333,1.0,0.0,0.0,0.0,0.0,0.0,1.0,0.0,0.5549999999999997,0.5549999999999997,0.0,0.0,1.0,55.0,616.79921,10000.0,85.000001,85.000001,85.000001,85.000001,395.0,0.0,0.0,0.0,1.0,166.665,53.253,53.253,48.996,48.996,34.0,-23.05,24.810000000000002,-26.54,27.2725,0.0,1783.195,-0.48999999999999844,100.0,27.451,27.012999999999998,42.503,42.255,0.0,1.0,100.0,0.0,0.0,0.0,0.0,3001.714285714286,3107.5,3844.5555555555557,4021.7,305.6315,305.02,315.45625,314.9065,21.8714,20.5684,21.8475,21.3739,314.999998,314.999998,324.999988,324.999988,99.55842857142858,99.50733333333334,99.56537142857142,99.54544285714286,0.07699999999999996,-0.043333333333333224,-0.1183333333333334,0.11949999999999994,-0.045000000000001705,-0.03833333333332689,1.592,1.579,37.696,29.552666666666667,37.547,34.587,55.937,34.872,59.064,51.8645,53.878,34.0245,57.684,50.215,53.049,33.5845,57.6265,49.632999999999996,-0.10599999999999998,-0.033500000000000085,0.10963,0.118065,0.0,210.075,210.07,207.07999999999998,207.07999999999998,0.0,0.0
12,0.0,1.0,0.0,1.0,1.0,0.0,0.0,1.0,0.0,100.0,1.0,1.1856,26.0,0.0,0.0,0.0,59.999996,0.0,26.0,26.0,26.0,26.0,0.006125,0.2915000000000001,0.000875,293.167,-2.714,-2.690875,-1.544,-1.5405,-235.96,215.60500000000002,190.748375,0.0,0.0,0.0,0.0,0.025466666666666526,-5.498166666666667,-5.498166666666667,-0.5432,0.37149999999999994,0.00822222222222213,0.788,67.219,0.0004999999999999449,-0.20535,-0.387999999999999,100.0,1.0,1.0,207.39,0.0,0.0,0.0,0.0,0.0,0.0,0.0,8790.5,0.0,55.0,5.0,241.95666666666665,0.0,0.0,0.0,0.0,0.0,0.0,1.0,0.0,0.602999999999998,0.602999999999998,0.0,0.0,0.0,55.0,616.79921,10000.0,85.000001,85.000001,85.000001,85.000001,395.0,0.0,0.0,0.0,1.0,333.33500000000004,53.024,53.024,48.294,48.294,34.0,-22.925,25.334000000000003,-27.693333333333335,29.09,0.0,1783.145,-0.46499999999999986,100.0,27.497,27.239,42.368,42.226,0.0,1.0,100.0,0.0,0.0,0.0,0.0,3027.0,3144.2,4110.222222222223,4178.6,305.5465,304.88925,314.809,314.54925,21.8805,20.5735,21.8573,21.3823,314.999998,314.999998,324.999988,324.999988,99.55844285714285,99.50733333333334,99.56551428571429,99.54557142857144,0.09149999999999991,-0.03866666666666663,-0.09950000000000003,0.12050000000000005,-0.054999999999999716,-0.051666666666669414,1.548,1.5323333333333333,37.753,29.584666666666664,37.608000000000004,34.6395,55.924,34.908,59.1005,51.923,53.866,34.058,57.718,50.271,53.036,33.6165,57.6575,49.688,-0.10250000000000004,-0.0475000000000001,0.10690500000000001,0.10253500000000002,0.0,210.505,210.525,207.39,207.39,0.0,0.0
13,0.0,1.0,0.0,1.0,1.0,0.0,0.0,1.0,0.0,100.0,1.0,1.1856,26.0,0.0,0.0,0.0,59.999996,0.0,26.0,26.0,26.0,26.0,0.04025,0.28970000000000007,0.027675,292.786,-2.6933,-2.692625,-1.5764,-1.5438,-232.53,215.585,190.72675,0.0,0.0,0.0,0.0,0.026699999999999946,-5.498166666666667,-5.498166666666667,-0.5371,-0.1995,0.006444444444444253,-0.355,67.362,0.012199999999999989,-0.21257500000000001,-0.3959999999999999,100.0,1.0,1.0,207.74333333333334,0.0,0.0,0.0,0.0,0.0,0.0,0.0,8805.5,0.0,55.0,5.0,242.47333333333336,1.0,0.0,0.0,0.0,0.0,0.0,1.0,0.0,0.6539999999999999,0.6539999999999999,0.0,0.0,1.0,55.0,616.79921,10000.0,85.000001,85.000001,85.000001,85.000001,395.0,0.0,0.0,0.0,1.0,166.665,52.78,52.78,48.004,48.004,34.0,-23.0475,25.073999999999998,-28.893333333333334,29.875,0.0,1783.096,-0.5700000000000003,100.0,27.575,27.606,42.608000000000004,42.784,0.0,1.0,100.0,0.0,0.0,0.0,0.0,3148.4285714285716,3021.4,4195.888888888889,4231.1,305.355,305.07925,314.6345,314.298,21.8901,20.579,21.8678,21.3914,314.999998,314.999998,324.999988,324.999988,99.55845714285714,99.50735,99.56565714285715,99.54571428571428,0.10400000000000009,-0.022666666666666613,-0.09799999999999998,0.11983333333333324,-0.061666666666667425,-0.03999999999999915,1.5106666666666668,1.4963333333333333,37.813,29.618666666666666,37.674,34.696,55.912,34.945499999999996,59.1415,51.987,53.855000000000004,34.0925,57.756,50.332499999999996,53.024,33.65,57.692499999999995,49.7485,-0.124,-0.02849999999999997,0.107615,0.11141500000000001,0.0,210.945,210.95,207.74333333333334,207.74333333333334,0.0,0.0
14,0.0,1.0,0.0,1.0,1.0,0.0,0.0,1.0,0.0,100.0,1.0,1.1856,26.0,0.0,0.0,0.0,59.999996,0.0,26.0,26.0,26.0,26.0,0.04175,0.27459999999999996,-0.016725,292.999,-2.7083,-2.7030000000000003,-1.5745,-1.5352999999999999,-229.09,215.565,190.705375,0.0,0.0,0.0,0.0,0.028666666666666507,-5.498166666666667,-5.498166666666667,-0.5496,-0.04849999999999999,0.02733333333333321,1.0390000000000001,67.501,0.021500000000000075,-0.226325,-0.5099999999999998,100.0,1.0,1.0,208.2733333333333,0.0,0.0,0.0,0.0,0.0,0.0,0.0,8827.9,0.0,55.0,5.0,242.97666666666666,0.0,0.0,0.0,0.0,0.0,0.0,1.0,0.0,0.7049999999999983,0.7049999999999983,0.0,0.0,0.0,55.0,616.79921,10000.0,85.000001,85.000001,85.000001,85.000001,395.0,0.0,0.0,0.0,1.0,333.33500000000004,52.765,52.765,48.325,48.325,34.0,-21.7975,26.646,-26.023333333333333,29.802500000000002,0.0,1783.043,-0.504999999999999,100.0,27.714,27.623,42.597,42.8,0.0,1.0,100.0,0.0,0.0,0.0,0.0,2975.142857142857,3150.8,3953.5555555555557,4146.5,305.6975,304.797,315.1735,314.59325,21.8996,20.5845,21.8782,21.4004,314.999998,314.999998,324.999988,324.999988,99.55847142857142,99.50735,99.5658,99.54585714285714,0.1067499999999999,-0.013666666666666716,-0.08333333333333337,0.1413333333333333,-0.03166666666666629,-0.061666666666667425,1.5553333333333335,1.5453333333333332,37.873000000000005,29.653,37.739000000000004,34.7525,55.900999999999996,34.9835,59.1795,52.05,53.843,34.1275,57.791,50.393,53.010999999999996,33.6835,57.7245,49.8075,-0.11199999999999999,-0.034499999999999975,0.109545,0.10837500000000001,0.0,211.35000000000002,211.4,208.2733333333333,208.2733333333333,0.0,0.0
15,0.0,1.0,0.0,1.0,1.0,0.0,0.0,1.0,0.0,100.0,1.0,1.1856,26.0,0.0,0.0,0.0,59.999996,0.0,26.0,26.0,26.0,26.0,0.061875,0.2821,-0.017400000000000002,292.923,-2.7115,-2.671125,-1.588,-1.5488,-225.64,215.5475,190.683625,0.0,0.0,0.0,0.0,0.03069999999999995,-5.498166666666667,-5.498166666666667,-0.5419,0.18399999999999994,0.038555555555555676,-0.8700000000000001,67.642,0.02960000000000007,-0.2114,-0.4500000000000002,100.0,1.0,1.0,208.66,0.0,0.0,0.0,0.0,0.0,0.0,0.0,8844.3,0.0,55.0,5.0,243.48333333333335,1.0,0.0,0.0,0.0,0.0,0.0,1.0,0.0,0.7560000000000002,0.7560000000000002,0.0,0.0,1.0,55.0,616.79921,10000.0,85.000001,85.000001,85.000001,85.000001,395.0,0.0,0.0,0.0,1.0,166.665,52.887,52.887,48.187,48.187,34.0,-22.245,24.875999999999998,-27.169999999999998,30.8475,0.0,1782.992,-0.4299999999999997,100.0,27.506,27.831,42.366,42.983000000000004,0.0,1.0,100.0,0.0,0.0,0.0,0.0,3035.5714285714284,3024.1,4073.0,4182.0,305.7195,305.0015,314.9675,314.388,21.9092,20.59,21.8886,21.4095,314.999998,314.999998,324.999988,324.999988,99.55848571428571,99.50735,99.56594285714286,99.54601428571429,0.10375000000000023,-0.026000000000000023,-0.08383333333333332,0.1463333333333332,-0.051666666666669414,-0.04999999999999716,1.5350000000000001,1.5163333333333333,37.932,29.687333333333335,37.803,34.8095,55.888999999999996,35.0215,59.217,52.1135,53.832,34.1625,57.826,50.454,52.998999999999995,33.717,57.7565,49.8675,-0.10999999999999999,-0.04049999999999998,0.10637,0.114015,0.0,211.815,211.845,208.66,208.66,0.0,0.0
16,0.0,1.0,0.0,1.0,1.0,0.0,0.0,1.0,0.0,100.0,1.0,1.1856,26.0,0.0,0.0,0.0,59.999996,0.0,26.0,26.0,26.0,26.0,0.045875,0.27570000000000006,0.0014,292.816,-2.7672,-2.622625,-1.5643,-1.5465,-222.19,215.53,190.661625,0.0,0.0,0.0,0.0,0.03269999999999995,-5.498166666666667,-5.498166666666667,-0.5548000000000001,-0.42900000000000005,0.031888888888888856,0.2869999999999999,67.782,0.03069999999999995,-0.22445,-0.38200000000000056,100.0,1.0,1.0,209.09,0.0,0.0,0.0,0.0,0.0,0.0,0.0,8862.5,0.0,55.0,5.0,243.99,0.0,0.0,0.0,0.0,0.0,0.0,1.0,0.0,0.8069999999999986,0.8069999999999986,0.0,0.0,0.0,55.0,616.79921,10000.0,85.000001,85.000001,85.000001,85.000001,395.0,0.0,0.0,0.0,1.0,166.665,52.567,52.567,47.943,47.943,34.0,-22.5525,26.992,-25.933333333333334,30.505,0.0,1782.943,-0.3999999999999986,100.0,27.502,27.743,42.697,43.027,0.0,1.0,100.0,0.0,0.0,0.0,0.0,3059.0,3253.6,4001.5555555555557,4108.0,305.5275,304.53525,315.051,314.63925,21.9185,20.5955,21.899,21.4186,314.999998,314.999998,324.999988,324.999988,99.5585,99.50735,99.56608571428572,99.54614285714285,0.11649999999999983,-0.010333333333333306,-0.07450000000000001,0.15583333333333327,-0.041666666666671404,-0.05666666666667197,1.5356666666666667,1.5306666666666666,37.991,29.722,37.869,34.866,55.876000000000005,35.059,59.2565,52.177,53.819,34.1975,57.863,50.515,52.985,33.7505,57.7905,49.9275,-0.10599999999999998,-0.04299999999999993,0.10861000000000001,0.10973000000000001,0.0,212.22500000000002,212.25,209.09,209.09,0.0,0.0
17,0.0,1.0,0.0,1.0,1.0,0.0,0.0,1.0,0.0,100.0,1.0,1.1856,26.0,0.0,0.0,0.0,59.999996,0.0,26.0,26.0,26.0,26.0,0.0345,0.29600000000000004,0.02785,292.45,-2.7304,-2.60325,-1.6052,-1.5112999999999999,-218.73,215.515,190.639375,0.0,0.0,0.0,0.0,0.03469999999999995,-5.498166666666667,-5.498166666666667,-0.5493,0.23099999999999998,0.006333333333333302,-1.028,67.92099999999999,0.028000000000000025,-0.21227500000000002,-0.2839999999999998,100.0,1.0,1.0,209.46333333333334,0.0,0.0,0.0,0.0,0.0,0.0,0.0,8878.4,0.0,55.0,5.0,244.49,1.0,0.0,0.0,0.0,0.0,0.0,1.0,0.0,0.8580000000000005,0.8580000000000005,0.0,0.0,1.0,55.0,616.79921,10000.0,85.000001,85.000001,85.000001,85.000001,395.0,0.0,0.0,0.0,1.0,166.665,52.368,52.368,47.607,47.607,34.0,-23.8475,25.066,-29.49,30.1675,0.0,1782.892,-0.3200000000000003,100.0,27.713,28.023,42.573,43.117000000000004,0.0,1.0,100.0,0.0,0.0,0.0,0.0,3209.0,3114.6,4334.0,4213.3,305.2285,304.786,314.416,314.401,21.928,20.6011,21.909399999999998,21.427599999999998,314.999998,314.999998,324.999988,324.999988,99.55851428571428,99.50736666666667,99.56622857142857,99.5463,0.10499999999999998,-0.02633333333333332,-0.08283333333333331,0.13916666666666666,-0.05666666666667197,-0.045000000000001705,1.514,1.5116666666666667,38.05,29.756666666666668,37.934,34.9225,55.864999999999995,35.0975,59.295,52.239,53.809,34.2335,57.8985,50.575,52.974000000000004,33.785,57.8225,49.9865,-0.10350000000000004,-0.04849999999999999,0.110515,0.10705500000000001,0.0,212.675,212.68,209.46333333333334,209.46333333333334,0.0,0.0
18,0.0,1.0,0.0,1.0,1.0,0.0,0.0,1.0,0.0,100.0,1.0,1.1856,26.0,0.0,0.0,0.0,59.999996,0.0,26.0,26.0,26.0,26.0,0.0235,0.27980000000000005,0.0218,292.389,-2.6558,-2.5995,-1.5998,-1.4733,-215.67000000000002,215.5,190.6195,0.0,0.0,0.0,0.0,0.03649999999999998,-5.498166666666667,-5.498166666666667,-0.5591,-0.38850000000000007,0.012666666666666604,0.9630000000000001,68.044,0.024599999999999955,-0.22157500000000002,-0.29600000000000026,100.0,1.0,1.0,209.82333333333332,0.0,0.0,0.0,0.0,0.0,0.0,0.0,8893.7,0.0,55.0,5.0,244.93,0.0,0.0,0.0,0.0,0.0,0.0,1.0,0.0,0.9029999999999987,0.9029999999999987,0.0,0.0,0.0,55.0,616.79921,10000.0,85.000001,85.000001,85.000001,85.000001,395.0,0.0,0.0,0.0,1.0,166.665,52.292,52.292,47.607,47.607,34.0,-22.15,26.884,-28.0,30.4325,0.0,1782.847,-0.3299999999999983,100.0,27.795,27.749,42.868,43.147,0.0,1.0,100.0,0.0,0.0,0.0,0.0,3095.714285714286,3316.8,4166.888888888889,4281.8,305.329,304.41175,314.68425,314.28775,21.9363,20.6059,21.918599999999998,21.4357,314.999998,314.999998,324.999988,324.999988,99.55852857142857,99.50736666666667,99.56635714285714,99.54642857142858,0.11175000000000024,-0.01966666666666672,-0.07933333333333337,0.14316666666666666,-0.03166666666666629,-0.041666666666671404,1.524,1.4969999999999999,38.102000000000004,29.787,37.991,34.973,55.854,35.1305,59.329499999999996,52.295,53.798,34.2635,57.931,50.6285,52.962,33.814,57.8525,50.039,-0.10099999999999998,-0.05049999999999999,0.10160000000000001,0.11142,0.0,213.035,213.05,209.82333333333332,209.82333333333332,0.0,0.0
19,0.0,1.0,0.0,1.0,1.0,0.0,0.0,1.0,0.0,100.0,1.0,1.1856,26.0,0.0,0.0,0.0,59.999996,0.0,26.0,26.0,26.0,26.0,0.03325,0.28080000000000016,0.08070000000000001,292.068,-2.6619,-2.694375,-1.5354999999999999,-1.595,-212.2,215.4875,190.59675,0.0,0.0,0.0,0.0,0.03849999999999998,-5.498166666666667,-5.498166666666667,-0.5513,0.624,0.02111111111111108,-0.7850000000000001,68.182,0.019000000000000128,-0.21652500000000002,-0.1720000000000006,100.0,1.0,1.0,210.25,0.0,0.0,0.0,0.0,0.0,0.0,0.0,8911.7,0.0,55.0,5.0,245.42666666666668,1.0,0.0,0.0,0.0,0.0,0.0,1.0,0.0,0.9540000000000006,0.9540000000000006,0.0,0.0,1.0,55.0,616.79921,10000.0,85.000001,85.000001,85.000001,85.000001,395.0,0.0,0.0,0.0,1.0,333.33500000000004,51.879999999999995,51.879999999999995,47.684,47.684,34.0,-23.2125,25.518,-28.503333333333334,31.775000000000002,0.0,1782.793,-0.3049999999999997,100.0,28.209,28.422,42.692,43.339,0.0,1.0,100.0,0.0,0.0,0.0,0.0,3182.285714285714,3113.5,4202.333333333333,4314.7,305.214,304.649,314.66225,314.022,21.9459,20.6116,21.929,21.4447,314.999998,314.999998,324.999988,324.999988,99.55854285714285,99.50736666666667,99.5665,99.54658571428571,0.10199999999999987,-0.03866666666666663,-0.09916666666666663,0.125,-0.045000000000001705,-0.05333333333332746,1.4896666666666667,1.492,38.162,29.822333333333333,38.056,35.0295,55.842,35.173,59.3685,52.3615,53.787,34.3025,57.967,50.693,52.95,33.8515,57.8855,50.102000000000004,-0.10250000000000004,-0.05400000000000005,0.10287,0.10975000000000001,0.0,213.47500000000002,213.515,210.25,210.25,0.0,0.0
20,0.0,1.0,0.0,1.0,1.0,0.0,0.0,1.0,0.0,100.0,1.0,1.1856,26.0,0.0,0.0,0.0,59.999996,0.0,26.0,26.0,26.0,26.0,0.030375,0.25980000000000003,-0.004275,292.297,-2.7516,-2.654,-1.541,-1.5816,-208.72,215.4725,190.57425,0.0,0.0,0.0,0.0,0.04053333333333331,-5.498166666666667,-5.498166666666667,-0.5536,-0.8335000000000001,0.019777777777777894,0.5860000000000001,68.32,0.014900000000000135,-0.22465000000000002,-0.18200000000000038,100.0,1.0,1.0,210.63,0.0,0.0,0.0,0.0,0.0,0.0,0.0,8927.9,0.0,55.0,5.0,245.92333333333335,0.0,0.0,0.0,0.0,0.0,0.0,0.0,0.0,1.004999999999999,1.004999999999999,0.0,0.0,0.0,55.0,616.79921,10000.0,85.000001,85.000001,85.000001,85.000001,395.0,0.0,0.0,0.0,1.0,333.33500000000004,52.536,52.536,47.241,47.241,34.0,-22.555,25.525999999999996,-27.419999999999998,30.9725,0.0,1782.745,-0.3000000000000007,100.0,27.967,28.001,43.397999999999996,43.687,0.0,1.0,100.0,0.0,0.0,0.0,0.0,3006.714285714286,3144.2,4109.222222222223,4189.1,305.6935,304.90025,314.7465,314.39625,21.9552,20.6171,21.9395,21.454,314.999998,314.999998,324.999988,324.999988,99.55854285714285,99.50736666666667,99.56664285714285,99.54672857142857,0.1030000000000002,-0.026999999999999913,-0.08783333333333332,0.13549999999999995,-0.02499999999999858,-0.060000000000002274,1.4883333333333333,1.482,38.22,29.856666666666666,38.122,35.0875,55.83,35.2085,59.407,52.422,53.775,34.335499999999996,58.003,50.751,52.937,33.882999999999996,57.919,50.159,-0.09650000000000003,-0.05600000000000005,0.11044000000000001,0.11076000000000001,0.0,213.875,213.905,210.63,210.63,0.0,0.0
21,0.0,1.0,0.0,1.0,1.0,0.0,0.0,1.0,0.0,100.0,1.0,1.1856,26.0,0.0,0.0,0.0,59.999996,0.0,26.0,26.0,26.0,26.0,0.007,0.25880000000000014,-0.074325,292.618,-2.723,-2.6574999999999998,-1.5867,-1.5382,-205.43,215.4625,190.55275,0.0,0.0,0.0,0.0,0.04243333333333332,-5.498166666666667,-5.498166666666667,-0.5735,0.03949999999999998,0.008111111111110958,0.478,68.445,0.013900000000000023,-0.22457500000000002,-0.26200000000000045,100.0,1.0,1.0,211.18666666666667,0.0,0.0,0.0,0.0,0.0,0.0,0.0,8951.4,0.0,55.0,5.0,246.37666666666667,1.0,0.0,0.0,0.0,0.0,0.0,0.0,0.0,1.0530000000000008,1.0530000000000008,0.0,0.0,1.0,55.0,616.79921,10000.0,85.000001,85.000001,85.000001,85.000001,395.0,0.0,0.0,0.0,1.0,333.33500000000004,52.399,52.399,48.019,48.019,34.0,-23.1825,25.497999999999998,-27.05,28.75,0.0,1782.696,-0.3099999999999987,100.0,28.019,27.905,43.024,43.3,0.0,1.0,100.0,0.0,0.0,0.0,0.0,3093.285714285714,3154.4,4008.4444444444443,4036.4,305.411,304.89125,315.10125,314.8875,21.9641,20.6223,21.9492,21.4625,314.999998,314.999998,324.999988,324.999988,99.55855714285714,99.50738333333334,99.56678571428571,99.54685714285715,0.10050000000000026,-0.030000000000000027,-0.09316666666666662,0.13800000000000012,-0.04333333333332945,-0.05666666666667197,1.5633333333333335,1.548,38.275999999999996,29.889333333333333,38.182,35.1405,55.818,35.2445,59.441,52.478,53.763999999999996,34.369,58.0345,50.805,52.925,33.914500000000004,57.9475,50.2115,-0.10250000000000004,-0.04899999999999993,0.10343500000000001,0.11157500000000001,0.0,214.29500000000002,214.31,211.18666666666667,211.18666666666667,0.0,0.0
22,0.0,1.0,0.0,1.0,1.0,0.0,0.0,1.0,0.0,100.0,1.0,1.1856,26.0,0.0,0.0,0.0,59.999996,0.0,26.0,26.0,26.0,26.0,0.029750000000000002,0.27300000000000013,-0.000625,292.221,-2.7832,-2.61925,-1.6063,-1.5219,-201.94,215.45,190.529,0.0,0.0,0.0,0.0,0.04446666666666654,-5.498166666666667,-5.498166666666667,-0.5577,0.10150000000000003,0.013666666666666716,-0.5150000000000001,68.584,0.013900000000000023,-0.20035,-0.21399999999999952,100.0,1.0,1.0,211.45,0.0,0.0,0.0,0.0,0.0,0.0,0.0,8962.5,0.0,55.0,5.0,246.87333333333333,0.0,0.0,0.0,0.0,0.0,0.0,0.0,0.0,1.1039999999999992,1.1039999999999992,0.0,0.0,0.0,55.0,616.79921,10000.0,85.000001,85.000001,85.000001,85.000001,395.0,0.0,0.0,0.0,1.0,166.665,52.536,52.536,47.134,47.134,34.0,-24.075,23.706,-30.54,30.7775,0.0,1782.646,-0.3550000000000004,100.0,27.924,28.174,43.072,43.473,0.0,1.0,100.0,0.0,0.0,0.0,0.0,3114.142857142857,3039.2,4317.444444444444,4318.5,305.6155,305.09625,314.424,314.164,21.9736,20.6279,21.959600000000002,21.4716,314.999998,314.999998,324.999988,324.999988,99.55857142857143,99.50738333333334,99.56692857142858,99.54701428571428,0.08950000000000014,-0.04366666666666674,-0.10116666666666663,0.12816666666666676,-0.041666666666671404,-0.041666666666671404,1.494,1.4833333333333334,38.335,29.924333333333333,38.248000000000005,35.1975,55.806,35.2825,59.4805,52.5405,53.753,34.403999999999996,58.0715,50.865,52.913,33.948499999999996,57.981,50.2705,-0.10649999999999993,-0.05249999999999999,0.10108,0.11034000000000001,0.0,214.715,214.74,211.45,211.45,0.0,0.0
23,0.0,1.0,0.0,1.0,1.0,0.0,0.0,1.0,0.0,100.0,1.0,1.1856,26.0,0.0,0.0,0.0,59.999996,0.0,26.0,26.0,26.0,26.0,0.02025,0.268,-0.018175,292.007,-2.6696999999999997,-2.679875,-1.6473,-1.4986000000000002,-198.23000000000002,215.4375,190.504125,0.0,0.0,0.0,0.0,0.046633333333333304,-5.498166666666667,-5.498166666666667,-0.5732,-0.18999999999999995,0.01288888888888895,-0.782,68.726,0.015300000000000091,-0.22562500000000002,-0.2160000000000002,100.0,1.0,1.0,211.94333333333333,0.0,0.0,0.0,0.0,0.0,0.0,0.0,8983.5,0.0,55.0,5.0,247.38333333333333,1.0,0.0,0.0,0.0,0.0,0.0,0.0,0.0,1.1580000000000013,1.1580000000000013,0.0,0.0,1.0,55.0,616.79921,10000.0,85.000001,85.000001,85.000001,85.000001,395.0,0.0,0.0,0.0,1.0,166.665,51.879999999999995,51.879999999999995,47.501,47.501,34.0,-23.8,25.164,-29.563333333333336,29.0225,0.0,1782.592,-0.34499999999999886,100.0,28.209,28.323,43.277,43.711,0.0,1.0,100.0,0.0,0.0,0.0,0.0,3244.142857142857,3090.8,4208.555555555556,4151.3,305.0135,304.8145,314.71875,314.5665,21.9836,20.6339,21.9707,21.4814,314.999998,314.999998,324.999988,324.999988,99.5586,99.5074,99.56708571428571,99.54717142857143,0.10349999999999993,-0.036666666666666625,-0.09316666666666662,0.131,-0.03999999999999915,-0.041666666666671404,1.532,1.5223333333333335,38.397999999999996,29.961666666666666,38.317,35.259,55.794,35.324,59.5215,52.6075,53.741,34.442499999999995,58.1095,50.9295,52.9,33.9855,58.0155,50.3335,-0.11099999999999999,-0.052000000000000046,0.10323,0.10434,0.0,215.15,215.16500000000002,211.94333333333333,211.94333333333333,0.0,0.0
24,0.0,1.0,0.0,1.0,1.0,0.0,0.0,1.0,0.0,100.0,1.0,1.1856,26.0,0.0,0.0,0.0,59.999996,0.0,26.0,26.0,26.0,26.0,0.009875,0.26580000000000004,-0.050825,292.358,-2.6882,-2.665375,-1.5523,-1.5335,-195.14,215.4275,190.483,0.0,0.0,0.0,0.0,0.04843333333333333,-5.498166666666667,-5.498166666666667,-0.5834,-0.3540000000000001,0.02055555555555566,1.161,68.845,0.017900000000000027,-0.222475,-0.29600000000000026,100.0,1.0,1.0,212.29333333333335,0.0,0.0,0.0,0.0,0.0,0.0,0.0,8998.3,0.0,55.0,5.0,247.81333333333333,0.0,0.0,0.0,0.0,0.0,0.0,0.0,0.0,1.2029999999999994,1.2029999999999994,0.0,0.0,0.0,55.0,616.79921,10000.0,85.000001,85.000001,85.000001,85.000001,395.0,0.0,0.0,0.0,1.0,166.665,52.658,52.658,47.333,47.333,34.0,-21.66,24.84,-27.64,29.885,0.0,1782.547,-0.36499999999999844,100.0,28.175,27.955,43.324,43.559,0.0,1.0,100.0,0.0,0.0,0.0,0.0,2953.0,3076.6,4181.333333333333,4182.5,305.785,305.11275,314.607,314.54525,21.9919,20.6387,21.9798,21.4895,314.999998,314.999998,324.999988,324.999988,99.5586,99.5074,99.5672,99.5473,0.10199999999999987,-0.03066666666666662,-0.08033333333333337,0.1346666666666667,-0.045000000000001705,-0.036666666666668846,1.5136666666666665,1.5196666666666667,38.449,29.991999999999997,38.373999999999995,35.309,55.783,35.357,59.5545,52.661500000000004,53.730999999999995,34.473,58.1405,50.9815,52.888999999999996,34.0145,58.044,50.385,-0.10150000000000003,-0.04699999999999993,0.09678500000000001,0.11088,0.0,215.535,215.51999999999998,212.29333333333335,212.29333333333335,0.0,0.0
25,0.0,1.0,0.0,1.0,1.0,0.0,0.0,1.0,0.0,100.0,1.0,1.1856,26.0,0.0,0.0,0.0,59.999996,0.0,26.0,26.0,26.0,26.0,0.025875000000000002,0.2691000000000001,-0.021,292.13,-2.7531,-2.637375,-1.5986,-1.5463,-191.41,215.41750000000002,190.45625,0.0,0.0,0.0,0.0,0.05056666666666654,-5.498166666666667,-5.498166666666667,-0.6025,0.08099999999999996,0.03155555555555556,0.2529999999999999,68.986,0.017900000000000027,-0.2189,-0.3720000000000008,100.0,1.0,1.0,212.78333333333333,0.0,0.0,0.0,0.0,0.0,0.0,0.0,9019.1,0.0,55.0,5.0,248.32333333333332,1.0,0.0,0.0,0.0,0.0,0.0,0.0,0.0,1.256999999999998,1.256999999999998,0.0,0.0,1.0,55.0,616.79921,10000.0,85.000001,85.000001,85.000001,85.000001,395.0,0.0,0.0,0.0,1.0,166.665,51.743,51.743,47.745,47.745,34.0,-24.095,27.817999999999998,-26.773333333333333,30.5975,0.0,1782.493,-0.3949999999999996,100.0,28.072,28.171,43.069,43.41,0.0,1.0,100.0,0.0,0.0,0.0,0.0,3226.857142857143,3364.8,4007.3333333333335,4171.6,305.088,304.203,315.14675,314.552,22.0017,20.6447,21.9907,21.4991,314.999998,314.999998,324.999988,324.999988,99.55861428571428,99.5074,99.56737142857143,99.54745714285714,0.11125000000000007,-0.01966666666666672,-0.08466666666666656,0.14749999999999996,-0.04999999999999716,-0.05833333333333002,1.5593333333333335,1.534,38.510999999999996,30.029333333333334,38.442,35.3695,55.769999999999996,35.397999999999996,59.593,52.726,53.717,34.5105,58.176,51.0435,52.873999999999995,34.051,58.076,50.445499999999996,-0.10849999999999993,-0.0495000000000001,0.11009000000000001,0.11008000000000001,0.0,215.97,215.97500000000002,212.78333333333333,212.78333333333333,0.0,0.0
26,0.0,1.0,0.0,1.0,1.0,0.0,0.0,1.0,0.0,100.0,1.0,1.1856,26.0,0.0,0.0,0.0,59.999996,0.0,26.0,26.0,26.0,26.0,0.031,0.2842,0.07867500000000001,291.321,-2.6836,-2.7225,-1.5588000000000002,-1.5344,-188.1,215.41,190.432125,0.0,0.0,0.0,0.0,0.05249999999999999,-5.498166666666667,-5.498166666666667,-0.5746,0.474,0.017222222222222028,0.7209999999999999,69.114,0.021200000000000108,-0.20145000000000002,-0.41000000000000014,100.0,1.0,1.0,212.97,0.0,0.0,0.0,0.0,0.0,0.0,0.0,9027.1,0.0,55.0,5.0,248.78333333333336,0.0,0.0,0.0,0.0,0.0,0.0,0.0,0.0,1.3049999999999997,1.3049999999999997,0.0,0.0,0.0,55.0,616.79921,10000.0,85.000001,85.000001,85.000001,85.000001,395.0,0.0,0.0,0.0,1.0,333.33500000000004,51.635999999999996,51.635999999999996,46.509,46.509,34.0,-22.435,26.212,-30.126666666666665,33.730000000000004,0.0,1782.444,-0.375,100.0,28.803,28.637999999999998,43.497,43.788,0.0,1.0,100.0,0.0,0.0,0.0,0.0,3124.4285714285716,3137.7,4445.555555555556,4529.6,305.279,304.83725,313.9835,313.7075,22.0107,20.6501,22.0006,21.5079,314.999998,314.999998,324.999988,324.999988,99.55862857142857,99.5074,99.5675,99.54758571428572,0.11675000000000013,-0.026666666666666616,-0.07999999999999996,0.1413333333333333,-0.04333333333332945,-0.04833333333333201,1.4503333333333333,1.436,38.567,30.063333333333333,38.504000000000005,35.424,55.760999999999996,35.4355,59.6305,52.786,53.709,34.545500000000004,58.211,51.1015,52.864999999999995,34.0845,58.1085,50.502,-0.11499999999999999,-0.052999999999999936,0.112365,0.10902,0.0,216.38,216.39,212.97,212.97,0.0,0.0
27,0.0,1.0,0.0,1.0,1.0,0.0,0.0,1.0,0.0,100.0,1.0,1.1856,26.0,0.0,0.0,0.0,59.999996,0.0,26.0,26.0,26.0,26.0,0.0445,0.26370000000000005,-0.04745,291.794,-2.7609,-2.6576250000000003,-1.6191,-1.5325,-184.57,215.4,190.4075,0.0,0.0,0.0,0.0,0.05456666666666654,-5.498166666666667,-5.498166666666667,-0.5965,-0.8255000000000001,0.023333333333333206,-0.5089999999999999,69.24600000000001,0.025700000000000056,-0.23847500000000002,-0.3279999999999994,100.0,1.0,1.0,213.50333333333333,0.0,0.0,0.0,0.0,0.0,0.0,0.0,9049.6,0.0,55.0,5.0,249.26,1.0,0.0,0.0,0.0,0.0,0.0,0.0,0.0,1.355999999999998,1.355999999999998,0.0,0.0,1.0,55.0,616.79921,10000.0,85.000001,85.000001,85.000001,85.000001,395.0,0.0,0.0,0.0,1.0,166.665,51.926,51.926,46.707,46.707,34.0,-23.275,25.355999999999998,-28.693333333333335,29.2975,0.0,1782.394,-0.35999999999999943,100.0,28.317,28.716,43.887,44.274,0.0,1.0,100.0,0.0,0.0,0.0,0.0,3127.714285714286,3127.5,4159.444444444444,4086.4,305.547,304.738,314.796,314.75,22.02,20.6558,22.0112,21.5172,314.999998,314.999998,324.999988,324.999988,99.55864285714286,99.50741666666667,99.56765714285714,99.54774285714285,0.10775000000000023,-0.03499999999999992,-0.08950000000000002,0.13716666666666666,-0.04333333333332945,-0.04999999999999716,1.5216666666666665,1.506,38.625,30.098666666666666,38.57,35.4825,55.75,35.4745,59.671,52.849000000000004,53.698,34.5815,58.2485,51.162,52.852999999999994,34.1185,58.1425,50.5615,-0.10849999999999993,-0.0535000000000001,0.10802,0.10663500000000001,0.0,216.735,216.765,213.50333333333333,213.50333333333333,0.0,0.0
28,0.0,1.0,0.0,1.0,1.0,0.0,0.0,1.0,0.0,100.0,1.0,1.1856,26.0,0.0,0.0,0.0,59.999996,0.0,26.0,26.0,26.0,26.0,0.03775,0.2573000000000001,-0.034975,291.946,-2.6931,-2.6455,-1.6343,-1.5584,-181.04,215.39499999999998,190.382125,0.0,0.0,0.0,0.0,0.05663333333333331,-5.498166666666667,-5.498166666666667,-0.6012000000000001,0.5635,0.015222222222222026,0.34799999999999986,69.376,0.025100000000000122,-0.216,-0.3979999999999997,100.0,1.0,1.0,213.98333333333335,0.0,0.0,0.0,0.0,0.0,0.0,0.0,9069.9,0.0,55.0,5.0,249.72666666666666,0.0,0.0,0.0,0.0,0.0,0.0,0.0,0.0,1.407,1.407,0.0,0.0,0.0,55.0,616.79921,10000.0,85.000001,85.000001,85.000001,85.000001,395.0,0.0,0.0,0.0,1.0,166.665,51.879999999999995,51.879999999999995,47.318,47.318,34.0,-21.5475,26.588,-27.746666666666666,30.81,0.0,1782.343,-0.4499999999999993,100.0,28.54,28.52,43.383,43.82,0.0,1.0,100.0,0.0,0.0,0.0,0.0,3038.4285714285716,3216.2,4119.777777777777,4152.9,305.5385,304.653,314.95425,314.635,22.0293,20.6615,22.0214,21.5263,314.999998,314.999998,324.999988,324.999988,99.55865714285714,99.50741666666667,99.5678,99.54788571428571,0.12300000000000022,-0.01766666666666672,-0.07766666666666666,0.15200000000000014,-0.03833333333332689,-0.06333333333333258,1.553,1.5350000000000001,38.683,30.134666666666668,38.634,35.539,55.739000000000004,35.5135,59.7055,52.909,53.687,34.618,58.2805,51.2195,52.841,34.1535,58.171,50.618,-0.11749999999999994,-0.0495000000000001,0.104535,0.109045,0.0,217.185,217.195,213.98333333333335,213.98333333333335,0.0,0.0
29,0.0,1.0,0.0,1.0,1.0,0.0,0.0,1.0,0.0,100.0,1.0,1.1856,26.0,0.0,0.0,0.0,59.999996,0.0,26.0,26.0,26.0,26.0,0.05375,0.2579,-0.015825000000000002,291.824,-2.7645,-2.70625,-1.5790000000000002,-1.5419,-177.49,215.3875,190.35575,0.0,0.0,0.0,0.0,0.058666666666666534,-5.498166666666667,-5.498166666666667,-0.6044,-0.712,0.008000000000000007,-0.851,69.511,0.025600000000000067,-0.2149,-0.39999999999999947,100.0,1.0,1.0,214.24,0.0,0.0,0.0,0.0,0.0,0.0,0.0,9080.9,0.0,55.0,5.0,250.21,1.0,0.0,0.0,0.0,0.0,0.0,0.0,0.0,1.4579999999999984,1.4579999999999984,0.0,0.0,1.0,55.0,616.79921,10000.0,85.000001,85.000001,85.000001,85.000001,395.0,0.0,0.0,0.0,1.0,166.665,52.292,52.292,46.814,46.814,34.0,-23.4675,25.014000000000003,-28.683333333333334,30.8275,0.0,1782.291,-0.48999999999999844,100.0,28.054,28.486,43.719,44.215,0.0,1.0,100.0,0.0,0.0,0.0,0.0,3178.0,3012.5,4194.111111111111,4264.2,305.56,305.05975,314.66225,314.23375,22.0385,20.6671,22.0319,21.5356,314.999998,314.999998,324.999988,324.999988,99.55867142857143,99.50741666666667,99.56794285714285,99.54804285714286,0.10975000000000001,-0.02833333333333332,-0.08933333333333338,0.1286666666666667,-0.045000000000001705,-0.05833333333333002,1.4776666666666667,1.4716666666666667,38.741,30.169666666666664,38.7,35.5975,55.726,35.551,59.7455,52.972,53.676,34.6525,58.318,51.2805,52.828,34.1865,58.2055,50.6775,-0.11949999999999994,-0.040999999999999925,0.10586000000000001,0.10080000000000001,0.0,217.565,217.57999999999998,214.24,214.24,0.0,0.0
30,0.0,1.0,0.0,1.0,1.0,0.0,0.0,1.0,0.0,100.0,1.0,1.1856,26.0,0.0,0.0,0.0,59.999996,0.0,26.0,26.0,26.0,26.0,0.065875,0.24690000000000012,0.0007250000000000001,291.199,-2.7371,-2.636875,-1.6479,-1.4584000000000001,-174.14999999999998,215.3825,190.330875,0.0,0.0,0.0,0.0,0.06063333333333332,-5.498166666666667,-5.498166666666667,-0.6073000000000001,0.8009999999999999,0.010888888888888948,-0.3450000000000002,69.632,0.028200000000000003,-0.219425,-0.45199999999999996,100.0,1.0,1.0,214.72,0.0,0.0,0.0,0.0,0.0,0.0,0.0,9101.2,0.0,55.0,5.0,250.64666666666665,0.0,0.0,0.0,0.0,0.0,0.0,1.0,0.0,1.5060000000000002,1.5060000000000002,0.0,0.0,0.0,55.0,616.79921,10000.0,85.000001,85.000001,85.000001,85.000001,395.0,0.0,0.0,0.0,1.0,166.665,50.491,50.491,47.073,47.073,34.0,-24.7025,27.78,-28.63,29.0625,0.0,1782.244,-0.4800000000000004,100.0,29.023,29.17,43.480000000000004,44.088,0.0,1.0,100.0,0.0,0.0,0.0,0.0,3375.142857142857,3328.3,4199.777777777777,4157.3,304.6085,303.982,314.8475,314.72575,22.0475,20.6727,22.0417,21.5443,314.999998,314.999998,324.999988,324.999988,99.5587,99.50743333333334,99.56808571428571,99.54818571428571,0.12375000000000025,-0.022666666666666613,-0.07866666666666666,0.14416666666666678,-0.061666666666667425,-0.04333333333332945,1.5323333333333333,1.509,38.797,30.204666666666668,38.76,35.6515,55.719,35.59,59.7795,53.0295,53.669,34.688,58.3495,51.335499999999996,52.82,34.221000000000004,58.2335,50.7315,-0.12549999999999994,-0.050999999999999934,0.09979500000000001,0.10592000000000001,0.0,217.97,217.97500000000002,214.72,214.72,0.0,0.0
31,0.0,1.0,0.0,1.0,1.0,0.0,0.0,1.0,0.0,100.0,1.0,1.1856,26.0,0.0,0.0,0.0,59.999996,0.0,26.0,26.0,26.0,26.0,0.04875,0.26070000000000015,0.06915,290.71,-2.7779,-2.6186249999999998,-1.6522999999999999,-1.5354999999999999,-170.6,215.38,190.305,0.0,0.0,0.0,0.0,0.06266666666666654,-5.498166666666667,-5.498166666666667,-0.5873,-0.3580000000000001,0.02288888888888896,0.8009999999999999,69.764,0.030000000000000027,-0.22062500000000002,-0.4820000000000002,100.0,1.0,1.0,214.92333333333335,0.0,0.0,0.0,0.0,0.0,0.0,0.0,9109.8,0.0,55.0,5.0,251.12666666666667,1.0,0.0,0.0,0.0,0.0,0.0,1.0,0.0,1.5569999999999986,1.5569999999999986,0.0,0.0,1.0,55.0,616.79921,10000.0,85.000001,85.000001,85.000001,85.000001,395.0,0.0,0.0,0.0,1.0,166.665,51.025,51.025,45.593,45.593,34.0,-22.535,28.136,-30.153333333333336,33.84,0.0,1782.192,-0.5500000000000007,100.0,29.008,29.154,44.342,44.74,0.0,1.0,100.0,0.0,0.0,0.0,0.0,3125.0,3400.1,4316.777777777777,4459.3,305.392,304.17,314.2665,313.7785,22.0568,20.6786,22.0523,21.5538,314.999998,314.999998,324.999988,324.999988,99.55871428571429,99.50743333333334,99.56824285714286,99.54832857142857,0.13249999999999984,-0.015333333333333199,-0.07233333333333336,0.14949999999999997,-0.03166666666666629,-0.05666666666667197,1.4396666666666667,1.4153333333333333,38.855000000000004,30.241,38.827,35.711,55.71,35.629999999999995,59.820499999999996,53.0955,53.659,34.7255,58.388,51.399,52.809,34.2565,58.269,50.7935,-0.12849999999999995,-0.043500000000000094,0.10927500000000001,0.10528000000000001,0.0,218.35500000000002,218.4,214.92333333333335,214.92333333333335,0.0,0.0
32,0.0,1.0,0.0,1.0,1.0,0.0,0.0,1.0,0.0,100.0,1.0,1.1856,26.0,0.0,0.0,0.0,59.999996,0.0,26.0,26.0,26.0,26.0,0.07037500000000001,0.26370000000000005,-0.0155,291.351,-2.7081,-2.674,-1.593,-1.6157,-167.04,215.3775,190.279625,0.0,0.0,0.0,0.0,0.06476666666666653,-5.498166666666667,-5.498166666666667,-0.6067,-0.31200000000000006,0.00044444444444424747,-0.9710000000000001,69.892,0.03390000000000004,-0.23325,-0.47999999999999954,100.0,1.0,1.0,215.47,0.0,0.0,0.0,0.0,0.0,0.0,0.0,9133.0,0.0,55.0,5.0,251.58333333333334,0.0,0.0,0.0,0.0,0.0,0.0,1.0,0.0,1.6080000000000005,1.6080000000000005,0.0,0.0,0.0,55.0,616.79921,10000.0,85.000001,85.000001,85.000001,85.000001,395.0,0.0,0.0,0.0,1.0,166.665,51.575,51.575,46.631,46.631,34.0,-22.335,25.886,-27.16,32.21,0.0,1782.141,-0.5,100.0,28.65,29.105,44.057,44.706,0.0,1.0,100.0,0.0,0.0,0.0,0.0,3155.714285714286,3101.6,4117.666666666667,4206.3,305.4015,304.83575,314.8665,314.3775,22.066,20.6844,22.0627,21.563,314.999998,314.999998,324.999988,324.999988,99.55872857142857,99.50743333333334,99.56838571428571,99.54848571428572,0.12550000000000017,-0.020000000000000018,-0.07099999999999995,0.14716666666666667,-0.03333333333333144,-0.051666666666669414,1.508,1.4976666666666667,38.912,30.27733333333333,38.891999999999996,35.769,55.699,35.669,59.8575,53.1565,53.649,34.7615,58.422,51.458,52.798,34.291,58.2995,50.8505,-0.12549999999999994,-0.04499999999999993,0.10203500000000001,0.10271000000000001,0.0,218.735,218.775,215.47,215.47,0.0,0.0
33,0.0,1.0,0.0,1.0,1.0,0.0,0.0,1.0,0.0,100.0,1.0,1.1856,26.0,0.0,0.0,0.0,59.999996,0.0,26.0,26.0,26.0,26.0,0.07225,0.25170000000000003,-0.054700000000000006,291.656,-2.7393,-2.684125,-1.5993,-1.5775000000000001,-163.68,215.3775,190.254625,0.0,0.0,0.0,0.0,0.06669999999999998,-5.498166666666667,-5.498166666666667,-0.6148,-0.21199999999999997,0.00044444444444424747,-0.274,70.013,0.03510000000000013,-0.21632500000000002,-0.45199999999999996,100.0,1.0,1.0,215.8466666666667,0.0,0.0,0.0,0.0,0.0,0.0,0.0,9148.9,0.0,55.0,5.0,252.01999999999998,1.0,0.0,0.0,0.0,0.0,0.0,1.0,0.0,1.6559999999999988,1.6559999999999988,0.0,0.0,1.0,55.0,616.79921,10000.0,85.000001,85.000001,85.000001,85.000001,395.0,0.0,0.0,0.0,1.0,166.665,51.91,51.91,46.982,46.982,34.0,-22.8,25.439999999999998,-27.726666666666663,31.345,0.0,1782.094,-0.509999999999998,100.0,28.457,28.795,43.793,44.419,0.0,1.0,100.0,0.0,0.0,0.0,0.0,3161.714285714286,3040.7,4139.333333333333,4185.8,305.4395,305.02775,314.8585,314.50725,22.0746,20.6897,22.072400000000002,21.5717,314.999998,314.999998,324.999988,324.999988,99.55874285714286,99.50743333333334,99.56852857142857,99.54862857142857,0.12150000000000016,-0.01866666666666661,-0.07883333333333331,0.14683333333333337,-0.03999999999999915,-0.046666666666666856,1.5196666666666667,1.5056666666666667,38.966,30.310666666666666,38.953,35.823,55.689,35.704,59.8915,53.213,53.638999999999996,34.794,58.454,51.5125,52.787,34.322,58.3285,50.903999999999996,-0.12149999999999994,-0.038999999999999924,0.11038500000000001,0.10850000000000001,0.0,219.115,219.155,215.8466666666667,215.8466666666667,0.0,0.0
34,0.0,1.0,0.0,1.0,1.0,0.0,0.0,1.0,0.0,100.0,1.0,1.1856,26.0,0.0,0.0,0.0,59.999996,0.0,26.0,26.0,26.0,26.0,0.07,0.2592000000000001,-0.069525,291.916,-2.6788,-2.670125,-1.6298,-1.5648,-160.32,215.3775,190.22825,0.0,0.0,0.0,0.0,0.06866666666666654,-5.498166666666667,-5.498166666666667,-0.6384000000000001,-0.8315000000000001,0.017444444444444374,-0.3460000000000001,70.134,0.03810000000000002,-0.22012500000000002,-0.476,100.0,1.0,1.0,216.19666666666666,0.0,0.0,0.0,0.0,0.0,0.0,0.0,9163.8,0.0,55.0,5.0,252.45666666666665,0.0,0.0,0.0,0.0,0.0,0.0,1.0,0.0,1.7040000000000006,1.7040000000000006,0.0,0.0,0.0,55.0,616.79921,10000.0,85.000001,85.000001,85.000001,85.000001,395.0,0.0,0.0,0.0,1.0,333.33500000000004,52.475,52.475,47.134,47.134,34.0,-20.95,24.58,-28.356666666666666,31.095,0.0,1782.044,-0.48999999999999844,100.0,28.155,28.445,43.685,44.459,0.0,1.0,100.0,0.0,0.0,0.0,0.0,3030.142857142857,2967.6,4151.444444444444,4162.9,305.726,305.20675,314.83675,314.51675,22.083199999999998,20.695,22.0822,21.5805,314.999998,314.999998,324.999988,324.999988,99.55875714285715,99.50745,99.56867142857143,99.54877142857143,0.12875000000000014,-0.020999999999999908,-0.08099999999999996,0.14700000000000002,-0.046666666666666856,-0.05333333333332746,1.5203333333333333,1.4943333333333333,39.019999999999996,30.343666666666664,39.013999999999996,35.878,55.678,35.738,59.9255,53.2715,53.628,34.8255,58.4855,51.5685,52.775,34.3525,58.357,50.959,-0.121,-0.04049999999999998,0.11295000000000001,0.10644500000000001,0.0,219.48000000000002,219.51,216.19666666666666,216.19666666666666,0.0,0.0
35,0.0,1.0,0.0,1.0,1.0,0.0,0.0,1.0,0.0,100.0,1.0,1.1856,26.0,0.0,0.0,0.0,59.999996,0.0,26.0,26.0,26.0,26.0,0.048125,0.25670000000000015,-0.1014,291.885,-2.81,-2.649,-1.5474,-1.5727,-156.74,215.38,190.1985,0.0,0.0,0.0,0.0,0.07073333333333331,-5.498166666666667,-5.498166666666667,-0.6771,-0.20250000000000012,0.007555555555555538,0.02499999999999991,70.261,0.040100000000000025,-0.225725,-0.48799999999999955,100.0,1.0,1.0,216.68,0.0,0.0,0.0,0.0,0.0,0.0,0.0,9184.3,0.0,55.0,5.0,252.91333333333336,1.0,0.0,0.0,0.0,0.0,0.0,1.0,0.0,1.754999999999999,1.754999999999999,0.0,0.0,1.0,55.0,616.79921,10000.0,85.000001,85.000001,85.000001,85.000001,395.0,0.0,0.0,0.0,1.0,166.665,51.788,51.788,46.936,46.936,34.0,-22.9325,28.658,-24.939999999999998,30.5775,0.0,1781.995,-0.3150000000000013,100.0,28.135,28.639,43.528999999999996,43.934,0.0,1.0,100.0,0.0,0.0,0.0,0.0,3066.4285714285716,3392.7,4039.6666666666665,4036.9,305.5345,304.12875,315.103,314.99525,22.0922,20.7008,22.0924,21.5896,314.999998,314.999998,324.999988,324.999988,99.55877142857143,99.50745,99.56881428571428,99.54891428571429,0.1200000000000001,-0.010666666666666602,-0.05816666666666659,0.16733333333333333,-0.01999999999999602,-0.060000000000002274,1.5793333333333335,1.5463333333333333,39.076,30.38,39.078,35.935,55.664,35.777,59.960499999999996,53.329499999999996,53.616,34.8615,58.518,51.6245,52.762,34.387,58.385999999999996,51.0135,-0.10549999999999993,-0.0535000000000001,0.102425,0.1091,0.0,219.875,219.92000000000002,216.68,216.68,0.0,0.0
36,0.0,1.0,0.0,1.0,1.0,0.0,0.0,1.0,0.0,100.0,1.0,1.1856,26.0,0.0,0.0,0.0,59.999996,0.0,26.0,26.0,26.0,26.0,0.0535,0.25229999999999997,0.0606,291.077,-2.6549,-2.709625,-1.6537000000000002,-1.5832000000000002,-153.35999999999999,215.3825,190.169125,0.0,0.0,0.0,0.0,0.07269999999999999,-5.498166666666667,-5.498166666666667,-0.6624,0.14900000000000002,-0.033777777777777906,0.07699999999999996,70.384,0.03520000000000012,-0.20315,-0.35599999999999987,100.0,1.0,1.0,216.83666666666667,0.0,0.0,0.0,0.0,0.0,0.0,0.0,9191.0,0.0,55.0,5.0,253.35333333333335,0.0,0.0,0.0,0.0,0.0,0.0,1.0,0.0,1.8030000000000008,1.8030000000000008,0.0,0.0,0.0,55.0,616.79921,10000.0,85.000001,85.000001,85.000001,85.000001,395.0,0.0,0.0,0.0,1.0,333.33500000000004,51.498,51.498,46.417,46.417,34.0,-21.58,26.792,-30.38,34.93,0.0,1781.946,-0.28999999999999915,100.0,28.823,28.807000000000002,43.751,44.214,0.0,1.0,100.0,0.0,0.0,0.0,0.0,3084.4285714285716,3177.5,4381.111111111111,4484.0,305.285,304.68825,314.2165,313.8485,22.1009,20.7063,22.1022,21.598399999999998,314.999998,314.999998,324.999988,324.999988,99.55878571428572,99.50745,99.56895714285714,99.54907142857142,0.12674999999999992,-0.021333333333333204,-0.0695,0.15566666666666684,-0.03999999999999915,-0.054999999999999716,1.4573333333333334,1.4313333333333333,39.131,30.414666666666665,39.138999999999996,35.99,55.655,35.814499999999995,59.9955,53.3885,53.607,34.896,58.5505,51.6815,52.751999999999995,34.42,58.4155,51.0695,-0.10749999999999993,-0.06000000000000005,0.10436000000000001,0.107285,0.0,220.29000000000002,220.305,216.83666666666667,216.83666666666667,0.0,0.0
