,ABS Active,ABS Enabled,AID Allow Tire Blankets,AID Auto Blip,AID Auto Clutch,AID Auto Shift,AID Fuel Rate,AID Ideal Line,AID Mech Damage,AID Stability,AID Tire Wear Rate,Air Density,Air Temp,Ballast,Best Lap Delta,Best Lap Time,Brake Bias,Brake Pos,Brake Temp FL,Brake Temp FR,Brake Temp RL,Brake Temp RR,CG Accel Lateral,CG Accel Longitudinal,CG Accel Vertical,CG Height,Camber FL,Camber FR,Camber RL,Camber RR,Car Coord X,Car Coord Y,Car Coord Z,Car Damage Front,Car Damage Left,Car Damage Rear,Car Damage Right,Car Pos Norm,Caster FL,Caster FR,Chassis Pitch Angle,Chassis Pitch Rate,Chassis Roll Angle,Chassis Roll Rate,Chassis Velocity X,Chassis Velocity Y,Chassis Velocity Z,Chassis Yaw Rate,Clutch Pos,DRS Active,DRS Available,Drive Train Speed,ERS Heat Charging,ERS Is Charging,ERS Max Energy,ERS Power Level,ERS Recovery Level,Engine Brake Setting,Engine Limiter,Engine RPM,Flags,Fuel Level,Gear,Ground Speed,HR Sample Clock,In Pit,KERS Charge,KERS Deployed Energy,KERS Input,KERS Max Energy,LR Sample Clock,Lap Invalidated,Lap Time,Lap Time2,Last Lap Time,Last Sector Time,MR Sample Clock,Max Fuel,Max Power,Max RPM,Max Sus Travel FL,Max Sus Travel FR,Max Sus Travel RL,Max Sus Travel RR,Max Torque,Max Turbo Boost,Num Tires Off Track,Penalties Enabled,Position,Raw Data Sample Rate,Ride Height FL,Ride Height FR,Ride Height RL,Ride Height RR,Road Temp,Self Align Torque FL,Self Align Torque FR,Self Align Torque RL,Self Align Torque RR,Session Lap Count,Session Time Left,Steering Angle,Surface Grip,Suspension Travel FL,Suspension Travel FR,Suspension Travel RL,Suspension Travel RR,TC Active,TC Enabled,Throttle Pos,Tire Dirt Level FL,Tire Dirt Level FR,Tire Dirt Level RL,Tire Dirt Level RR,Tire Load FL,Tire Load FR,Tire Load RL,Tire Load RR,Tire Loaded Radius FL,Tire Loaded Radius FR,Tire Loaded Radius RL,Tire Loaded Radius RR,Tire Pressure FL,Tire Pressure FR,Tire Pressure RL,Tire Pressure RR,Tire Radius FL,Tire Radius FR,Tire Radius RL,Tire Radius RR,Tire Rubber Grip FL,Tire Rubber Grip FR,Tire Rubber Grip RL,Tire Rubber Grip RR,Tire Slip Angle FL,Tire Slip Angle FR,Tire Slip Angle RL,Tire Slip Angle RR,Tire Slip Ratio FL,Tire Slip Ratio FR,Tire Slip Ratio RL,Tire Slip Ratio RR,Tire Temp Core FL,Tire Temp Core FR,Tire Temp Core RL,Tire Temp Core RR,Tire Temp Inner FL,Tire Temp Inner FR,Tire Temp Inner RL,Tire Temp Inner RR,Tire Temp Middle FL,Tire Temp Middle FR,Tire Temp Middle RL,Tire Temp Middle RR,Tire Temp Outer FL,Tire Temp Outer FR,Tire Temp Outer RL,Tire Temp Outer RR,Toe In FL,Toe In FR,Toe In RL,Toe In RR,Turbo Boost,Wheel Angular Speed FL,Wheel Angular Speed FR,Wheel Angular Speed RL,Wheel Angular Speed RR,Wind Direction,Wind Speed
0,0.0,1.0,0.0,1.0,1.0,0.0,0.0,1.0,0.0,100.0,1.0,1.1856,26.0,0.0,0.0,0.0,59.99999,0.0,26.0,26.0,26.0,26.0,-0.12637500000000002,0.30210000000000004,0.023100000000000002,292.587,-2.6946,-2.5055,-1.5245000000000002,-1.5935555555555556,-275.78,216.16,190.98675,0.0,0.0,0.0,0.0,0.0015333333333333334,-5.498166666666667,-5.498166666666667,-0.4995,1.4173333333333333,-0.034499999999999975,0.18999999999999995,65.494,-0.0736,-0.158525,1.8279999999999994,100.0,1.0,1.0,202.20333333333332,0.0,0.0,0.0,0.0,0.0,0.0,0.0,8570.6,0.0,55.0,5.0,235.74666666666667,0.0,0.0,0.0,0.0,0.0,0.0,0.0,0.0,0.0030000000000001137,0.0030000000000001137,0.0,0.0,0.0,55.0,616.79921,10000.0,85.0,85.0,85.0,85.0,395.0,0.0,0.0,0.0,1.0,20.0,52.811,52.811,46.936,46.936,34.0,-29.6475,18.398,-31.82666666666666,23.1825,0.0,1783.558,1.5150000000000006,100.0,27.439,26.679000000000002,43.656,42.781,0.0,1.0,100.0,0.0,0.0,0.0,0.0,3104.5,3321.6,4063.285714285714,4070.8,305.2825,304.24833333333333,314.89566666666667,314.76025,21.779625,20.5158,21.745666666666665,21.2837,314.99999,314.99999,324.99998,324.99998,99.55918571428572,99.5073,99.5644,99.54418571428572,-0.058499999999999996,-0.18374999999999997,-0.1958333333333333,0.013500000000000068,-0.05666666666667197,-0.03499999999999659,1.541,1.5990000000000002,37.122,29.224,36.911,34.0235,56.370000000000005,34.551,58.8165,51.2875,54.277,33.7065,57.4365,49.649,53.439,33.257999999999996,57.3855,49.065666666666665,0.04166666666666696,-0.18900000000000006,0.10058,0.10494,0.0,205.285,205.125,202.20333333333332,202.20333333333332,0.0,0.0
1,0.0,1.0,0.0,1.0,1.0,0.0,0.0,1.0,0.0,100.0,1.0,1.1856,26.0,0.0,0.0,0.0,59.999996,0.0,26.0,26.0,26.0,26.0,-0.21537499999999998,0.30520000000000014,0.2237,291.901,-2.6186,-2.835125,-1.5202,-1.6133333333333333,-272.44,216.1775,190.966875,0.0,0.0,0.0,0.0,0.0034666666666666665,-5.498166666666667,-5.498166666666667,-0.4471,-0.7653333333333334,-0.09287500000000026,-1.168,65.649,-0.1033,-0.141925,2.267999999999999,100.0,1.0,1.0,202.33666666666667,0.0,0.0,0.0,0.0,0.0,0.0,0.0,8576.2,0.0,55.0,5.0,236.30333333333334,1.0,0.0,0.0,0.0,0.0,0.0,0.0,0.0,0.053999999999998494,0.053999999999998494,0.0,0.0,1.0,55.0,616.79921,10000.0,85.000001,85.000001,85.000001,85.000001,395.0,0.0,0.0,0.0,1.0,333.33500000000004,53.925,53.925,45.882999999999996,45.882999999999996,34.0,-30.6475,14.681999999999999,-40.516666666666666,25.17,0.0,1783.505,1.5500000000000007,100.0,27.601,26.578,45.081,43.65,0.0,1.0,100.0,0.0,0.0,0.0,0.0,3173.333333333333,2533.8,4569.428571428572,4649.0,305.2285,306.772,313.672,313.24275,21.789625,20.5209,21.756555555555554,21.2927,314.999998,314.999998,324.999988,324.999988,99.5592,99.50733333333334,99.56455714285714,99.54432857142857,-0.08599999999999997,-0.21750000000000003,-0.2493333333333334,-0.03616666666666657,-0.03499999999999659,-0.036666666666668846,1.3715,1.4555000000000002,37.185,29.255499999999998,36.977999999999994,34.079499999999996,56.357,34.5945,58.8655,51.353,54.265,33.7465,57.4825,49.7115,53.426,33.2965,57.4285,49.127,0.04933333333333367,-0.19700000000000006,0.10854000000000001,0.10444500000000001,0.0,205.735,205.56,202.33666666666667,202.33666666666667,0.0,0.0
2,0.0,1.0,0.0,1.0,1.0,0.0,0.0,1.0,0.0,100.0,1.0,1.1856,26.0,0.0,0.0,0.0,59.999996,0.0,26.0,26.0,26.0,26.0,-0.20999999999999996,0.26580000000000004,-0.10455,292.953,-2.5449,-2.8436250000000003,-1.4803,-1.6846666666666668,-269.09,216.19,190.948375,0.0,0.0,0.0,0.0,0.005433333333333333,-5.498166666666667,-5.498166666666667,-0.5184,-0.13666666666666666,-0.10050000000000026,3.1100000000000003,65.789,-0.13240000000000002,-0.220525,2.5199999999999996,100.0,1.0,1.0,203.39666666666668,0.0,0.0,0.0,0.0,0.0,0.0,0.0,8621.3,0.0,55.0,5.0,236.81,0.0,0.0,0.0,0.0,0.0,0.0,0.0,0.0,0.10500000000000043,0.10500000000000043,0.0,0.0,0.0,55.0,616.79921,10000.0,85.000001,85.000001,85.000001,85.000001,395.0,0.0,0.0,0.0,1.0,166.665,52.658,52.658,48.584,48.584,34.0,-33.3475,16.77,-30.376666666666665,17.0425,0.0,1783.456,1.3249999999999993,100.0,28.614,26.241,45.139,42.762,0.0,1.0,100.0,0.0,0.0,0.0,0.0,3405.833333333333,2879.0,3604.857142857143,3503.5,304.2885,305.788,315.8496666666667,316.337,21.79975,20.5257,21.767,21.3014,314.999998,314.999998,324.999988,324.999988,99.55921428571429,99.50735,99.5647,99.54445714285714,-0.09450000000000003,-0.22399999999999998,-0.28400000000000003,-0.04933333333333334,-0.06833333333332803,-0.060000000000002274,1.668,1.7595,37.248999999999995,29.286,37.044,34.1335,56.349999999999994,34.635999999999996,58.9055,51.4095,54.257,33.785,57.5195,49.766,53.418,33.333,57.463499999999996,49.18033333333334,0.03299999999999992,-0.1865000000000001,0.11118000000000001,0.10379500000000001,0.0,206.195,205.95,203.39666666666668,203.39666666666668,0.0,0.0
3,0.0,1.0,0.0,1.0,1.0,0.0,0.0,1.0,0.0,100.0,1.0,1.1856,26.0,0.0,0.0,0.0,59.999996,0.0,26.0,26.0,26.0,26.0,-0.23112500000000002,0.3095000000000001,0.047150000000000004,292.465,-2.5897,-2.7516249999999998,-1.4876,-1.661888888888889,-265.93,216.195,190.92975,0.0,0.0,0.0,0.0,0.007266666666666668,-5.498166666666667,-5.498166666666667,-0.4685,0.8543333333333334,-0.05900000000000016,1.037,65.93299999999999,-0.1578,-0.145975,2.1159999999999997,100.0,1.0,1.0,203.44666666666666,0.0,0.0,0.0,0.0,0.0,0.0,0.0,8623.3,0.0,55.0,5.0,237.32666666666665,1.0,0.0,0.0,0.0,0.0,0.0,0.0,0.0,0.1529999999999987,0.1529999999999987,0.0,0.0,1.0,55.0,616.79921,10000.0,85.000001,85.000001,85.000001,85.000001,395.0,0.0,0.0,0.0,1.0,333.33500000000004,53.741,53.741,46.173,46.173,34.0,-29.1375,15.544,-39.026666666666664,20.947499999999998,0.0,1783.407,1.1099999999999994,100.0,28.034,26.435,44.914,42.772,0.0,1.0,100.0,0.0,0.0,0.0,0.0,3012.833333333333,2778.1,4349.142857142857,4210.5,305.5905,306.0226666666667,314.169,314.504,21.80925,20.5305,21.776666666666667,21.3095,314.999998,314.999998,324.999988,324.999988,99.55922857142858,99.50736666666667,99.56482857142858,99.5446,-0.09499999999999997,-0.21999999999999997,-0.28300000000000003,-0.0641666666666666,-0.051666666666669414,-0.061666666666667425,1.471,1.5695000000000001,37.308,29.3155,37.104,34.1845,56.34,34.678,58.945,51.468,54.248000000000005,33.823499999999996,57.5565,49.822,53.407,33.37,57.498,49.235,0.0086666666666666,-0.15500000000000025,0.10434500000000001,0.106255,0.0,206.66500000000002,206.47,203.44666666666666,203.44666666666666,0.0,0.0
4,0.0,1.0,0.0,1.0,1.0,0.0,0.0,1.0,0.0,100.0,1.0,1.1856,26.0,0.0,0.0,0.0,59.999996,0.0,26.0,26.0,26.0,26.0,-0.25612499999999994,0.29869999999999997,-0.03365,292.633,-2.6343,-2.78125,-1.528,-1.6552222222222222,-262.56,216.1975,190.91,0.0,0.0,0.0,0.0,0.009233333333333333,-5.498166666666667,-5.498166666666667,-0.4949,-1.0133333333333334,-0.11262499999999998,-2.434,66.08,-0.15660000000000002,-0.186525,2.0,100.0,1.0,1.0,203.97333333333333,0.0,0.0,0.0,0.0,0.0,0.0,0.0,8645.7,0.0,55.0,5.0,237.86333333333334,0.0,0.0,0.0,0.0,0.0,0.0,0.0,0.0,0.20400000000000063,0.20400000000000063,0.0,0.0,0.0,55.0,616.79921,10000.0,85.000001,85.000001,85.000001,85.000001,395.0,0.0,0.0,0.0,1.0,166.665,53.574,53.574,46.448,46.448,34.0,-33.53,15.287999999999998,-38.236666666666665,17.1575,0.0,1783.358,1.0700000000000003,100.0,27.433,26.294,45.277,43.367000000000004,0.0,1.0,100.0,0.0,0.0,0.0,0.0,3333.166666666667,2772.4,4228.571428571428,3614.8,304.8665,305.8466666666667,314.52666666666664,315.67025,21.819125,20.5354,21.787333333333333,21.3184,314.999998,314.999998,324.999988,324.999988,99.55924285714286,99.5074,99.56498571428571,99.54474285714285,-0.11199999999999999,-0.236,-0.29033333333333333,-0.0721666666666666,-0.04833333333333201,-0.05333333333332746,1.5215,1.6,37.369,29.3465,37.171,34.24,56.328,34.721000000000004,58.991,51.5305,54.236000000000004,33.8635,57.6,49.8815,53.394999999999996,33.408,57.5385,49.29266666666666,0.012666666666666604,-0.1575000000000002,0.10829000000000001,0.11284000000000001,0.0,207.04500000000002,206.87,203.97333333333333,203.97333333333333,0.0,0.0
5,0.0,1.0,0.0,1.0,1.0,0.0,0.0,1.0,0.0,100.0,1.0,1.1856,26.0,0.0,0.0,0.0,59.999996,0.0,26.0,26.0,26.0,26.0,-0.20187500000000003,0.31610000000000005,-0.07285,292.694,-2.6266,-2.81625,-1.5019,-1.6532222222222221,-259.19,216.1925,190.889625,0.0,0.0,0.0,0.0,0.0112,-5.498166666666667,-5.498166666666667,-0.4949,0.4533333333333333,-0.12162499999999987,1.504,66.226,-0.1587,-0.16015000000000001,1.7620000000000005,100.0,1.0,1.0,204.48000000000002,0.0,0.0,0.0,0.0,0.0,0.0,0.0,8667.1,0.0,55.0,5.0,238.38333333333333,1.0,0.0,0.0,0.0,0.0,0.0,0.0,0.0,0.254999999999999,0.254999999999999,0.0,0.0,1.0,55.0,616.79921,10000.0,85.000001,85.000001,85.000001,85.000001,395.0,0.0,0.0,0.0,1.0,333.33500000000004,53.741,53.741,47.012,47.012,34.0,-30.22,16.714,-35.21,20.200000000000003,0.0,1783.305,0.46000000000000085,100.0,28.04,26.057,45.339,42.852000000000004,0.0,1.0,100.0,0.0,0.0,0.0,0.0,3146.0,2761.9,4031.0,4000.3,305.178,306.157,314.942,315.03375,21.829250000000002,20.540399999999998,21.797777777777778,21.3269,314.999998,314.999998,324.999988,324.999988,99.55925714285715,99.50741666666667,99.56512857142857,99.54487142857143,-0.07550000000000001,-0.19899999999999995,-0.27849999999999997,-0.04833333333333334,-0.0833333333333286,-0.06666666666666998,1.548,1.6275,37.433,29.377499999999998,37.236000000000004,34.2935,56.318,34.7635,59.0325,51.5865,54.227000000000004,33.902,57.638999999999996,49.935,53.385,33.445,57.5745,49.345333333333336,-0.02200000000000002,-0.12199999999999989,0.10213000000000001,0.116455,0.0,207.54500000000002,207.38,204.48000000000002,204.48000000000002,0.0,0.0
6,0.0,1.0,0.0,1.0,1.0,0.0,0.0,1.0,0.0,100.0,1.0,1.1856,26.0,0.0,0.0,0.0,59.999996,0.0,26.0,26.0,26.0,26.0,-0.18325000000000002,0.28880000000000017,-0.00685,292.191,-2.5873,-2.793375,-1.5421,-1.654111111111111,-256.0,216.1825,190.87,0.0,0.0,0.0,0.0,0.013033333333333334,-5.498166666666667,-5.498166666666667,-0.48750000000000004,0.0016666666666666668,-0.10662500000000019,1.5070000000000001,66.36500000000001,-0.1494,-0.15955,1.33,100.0,1.0,1.0,204.79666666666668,0.0,0.0,0.0,0.0,0.0,0.0,0.0,8680.6,0.0,55.0,5.0,238.88666666666666,0.0,0.0,0.0,0.0,0.0,0.0,0.0,0.0,0.3030000000000008,0.3030000000000008,0.0,0.0,0.0,55.0,616.79921,10000.0,85.000001,85.000001,85.000001,85.000001,395.0,0.0,0.0,0.0,1.0,333.33500000000004,53.177,53.177,46.371,46.371,34.0,-29.91,18.278,-35.873333333333335,21.637500000000003,0.0,1783.256,0.3150000000000013,100.0,28.094,26.312,45.525999999999996,43.254,0.0,1.0,100.0,0.0,0.0,0.0,0.0,3210.666666666667,2909.2,4122.285714285715,4053.1000000000004,304.971,305.62966666666665,314.692,314.875,21.838625,20.5451,21.807666666666666,21.3353,314.999998,314.999998,324.999988,324.999988,99.55925714285715,99.50745,99.56527142857144,99.545,-0.058499999999999996,-0.18325000000000002,-0.25849999999999995,-0.03166666666666662,-0.041666666666671404,-0.04999999999999716,1.5314999999999999,1.5659999999999998,37.492000000000004,29.407,37.298,34.3455,56.307,34.803,59.074,51.6455,54.217,33.9385,57.678,49.991,53.373999999999995,33.4795,57.6105,49.4,-0.04133333333333322,-0.10400000000000009,0.10564000000000001,0.11399000000000001,0.0,207.92000000000002,207.8,204.79666666666668,204.79666666666668,0.0,0.0
7,0.0,1.0,0.0,1.0,1.0,0.0,0.0,1.0,0.0,100.0,1.0,1.1856,26.0,0.0,0.0,0.0,59.999996,0.0,26.0,26.0,26.0,26.0,-0.17899999999999994,0.2875000000000001,0.0663,291.885,-2.5755,-2.764125,-1.5139,-1.630888888888889,-252.62,216.16750000000002,190.8495,0.0,0.0,0.0,0.0,0.015000000000000001,-5.498166666666667,-5.498166666666667,-0.4969,-0.08833333333333333,-0.08762500000000006,-0.5609999999999999,66.511,-0.127,-0.17835,0.9459999999999997,100.0,1.0,1.0,205.25,0.0,0.0,0.0,0.0,0.0,0.0,0.0,8699.8,0.0,55.0,5.0,239.41,1.0,0.0,0.0,0.0,0.0,0.0,0.0,0.0,0.3539999999999992,0.3539999999999992,0.0,0.0,1.0,55.0,616.79921,10000.0,85.000001,85.000001,85.000001,85.000001,395.0,0.0,0.0,0.0,1.0,166.665,52.643,52.643,46.555,46.555,34.0,-30.195,18.994,-35.63666666666666,21.490000000000002,0.0,1783.208,-0.019999999999999574,100.0,28.145,26.799,45.338,43.84,0.0,1.0,100.0,0.0,0.0,0.0,0.0,3397.333333333333,2902.7,4170.285714285715,3962.2,304.5205,305.46733333333333,314.7296666666667,314.91175,21.84875,20.5502,21.81822222222222,21.3442,314.999998,314.999998,324.999988,324.999988,99.55927142857144,99.50746666666667,99.56541428571428,99.54515714285715,-0.026000000000000023,-0.16249999999999998,-0.255,-0.02100000000000002,-0.026666666666670835,-0.03166666666666629,1.5234999999999999,1.5619999999999998,37.555,29.439,37.364000000000004,34.400999999999996,56.295,34.8445,59.117,51.707,54.205,33.9765,57.718,50.05,53.361000000000004,33.516,57.647999999999996,49.45733333333334,-0.07966666666666677,-0.07350000000000012,0.10990000000000001,0.11184000000000001,0.0,208.335,208.265,205.25,205.25,0.0,0.0
8,0.0,1.0,0.0,1.0,1.0,0.0,0.0,1.0,0.0,100.0,1.0,1.1856,26.0,0.0,0.0,0.0,59.999996,0.0,26.0,26.0,26.0,26.0,-0.10224999999999995,0.29520000000000013,-0.0094,292.114,-2.6487,-2.75,-1.5018,-1.6104444444444443,-249.22,216.15,190.829,0.0,0.0,0.0,0.0,0.016966666666666668,-5.498166666666667,-5.498166666666667,-0.4928,-0.30433333333333334,-0.06099999999999994,1.517,66.657,-0.09820000000000001,-0.165525,0.30600000000000094,100.0,1.0,1.0,205.63,0.0,0.0,0.0,0.0,0.0,0.0,0.0,8715.8,0.0,55.0,5.0,239.93333333333334,0.0,0.0,0.0,0.0,0.0,0.0,0.0,0.0,0.40500000000000114,0.40500000000000114,0.0,0.0,0.0,55.0,616.79921,10000.0,85.000001,85.000001,85.000001,85.000001,395.0,0.0,0.0,0.0,1.0,166.665,53.619,53.619,45.67,45.67,34.0,-25.2225,20.518,-33.12,25.1125,0.0,1783.156,-0.21999999999999886,100.0,27.747,26.651,45.521,43.855000000000004,0.0,1.0,100.0,0.0,0.0,0.0,0.0,2971.333333333333,2928.0,4161.571428571428,4211.6,305.7025,305.596,314.569,314.4765,21.8585,20.5554,21.828666666666667,21.353,314.999998,314.999998,324.999988,324.999988,99.55927142857144,99.50748333333334,99.56555714285714,99.54528571428571,0.008499999999999952,-0.12124999999999997,-0.20299999999999996,0.022833333333333483,-0.04999999999999716,-0.04333333333332945,1.52,1.5390000000000001,37.616,29.471,37.429,34.4565,56.278,34.8845,59.158500000000004,51.768,54.189,34.0135,57.7565,50.1085,53.344,33.5515,57.6835,49.51433333333333,-0.08899999999999997,-0.06199999999999983,0.11345000000000001,0.11229000000000001,0.0,208.79500000000002,208.745,205.63,205.63,0.0,0.0
9,0.0,1.0,0.0,1.0,1.0,0.0,0.0,1.0,0.0,100.0,1.0,1.1856,26.0,0.0,0.0,0.0,59.999996,0.0,26.0,26.0,26.0,26.0,-0.04762500000000003,0.28800000000000003,-0.0346,291.885,-2.6554,-2.749,-1.5666,-1.6091111111111112,-246.01999999999998,216.1275,190.809125,0.0,0.0,0.0,0.0,0.018833333333333334,-5.498166666666667,-5.498166666666667,-0.4994,0.4403333333333333,-0.05624999999999991,1.412,66.791,-0.0721,-0.1665,0.10200000000000031,100.0,1.0,1.0,206.18666666666667,0.0,0.0,0.0,0.0,0.0,0.0,0.0,8739.5,0.0,55.0,5.0,240.41666666666669,1.0,0.0,0.0,0.0,0.0,0.0,0.0,0.0,0.4529999999999994,0.4529999999999994,0.0,0.0,1.0,55.0,616.79921,10000.0,85.000001,85.000001,85.000001,85.000001,395.0,0.0,0.0,0.0,1.0,166.665,52.521,52.521,46.738,46.738,34.0,-26.8175,22.59,-29.03666666666667,25.4725,0.0,1783.108,-0.379999999999999,100.0,28.158,27.044,45.308,44.015,0.0,1.0,100.0,0.0,0.0,0.0,0.0,3289.333333333333,3034.4,3865.8571428571427,4070.5,304.777,305.206,315.3213333333333,314.848,21.867874999999998,20.5604,21.838444444444445,21.3613,314.999998,314.999998,324.999988,324.999988,99.55928571428572,99.5075,99.5657,99.54541428571429,0.04425000000000012,-0.09399999999999997,-0.16516666666666657,0.05383333333333318,-0.04999999999999716,-0.060000000000002274,1.582,1.5830000000000002,37.674,29.502,37.489999999999995,34.5085,56.263999999999996,34.922,59.1945,51.8245,54.176,34.0485,57.79,50.1625,53.33,33.585,57.7145,49.567,-0.1036666666666668,-0.052999999999999936,0.10544500000000001,0.10697500000000001,0.0,209.21,209.185,206.18666666666667,206.18666666666667,0.0,0.0
10,0.0,1.0,0.0,1.0,1.0,0.0,0.0,1.0,0.0,100.0,1.0,1.1856,26.0,0.0,0.0,0.0,59.999996,0.0,26.0,26.0,26.0,26.0,-0.04849999999999999,0.28800000000000003,0.061000000000000006,291.55,-2.6292,-2.7356249999999998,-1.6003,-1.5935555555555556,-242.61,216.10500000000002,190.78825,0.0,0.0,0.0,0.0,0.020833333333333336,-5.498166666666667,-5.498166666666667,-0.47590000000000005,-0.3286666666666667,-0.02387499999999987,0.0030000000000001137,66.938,-0.0437,-0.155925,-0.19599999999999973,100.0,1.0,1.0,206.40666666666667,0.0,0.0,0.0,0.0,0.0,0.0,0.0,8748.8,0.0,55.0,5.0,240.94666666666666,0.0,0.0,0.0,0.0,0.0,0.0,1.0,0.0,0.5040000000000013,0.5040000000000013,0.0,0.0,0.0,55.0,616.79921,10000.0,85.000001,85.000001,85.000001,85.000001,395.0,0.0,0.0,0.0,1.0,166.665,53.268,53.268,45.166,45.166,34.0,-23.6,21.15,-35.03666666666666,28.2225,0.0,1783.057,-0.5199999999999996,100.0,27.932,27.283,45.4,44.853,0.0,1.0,100.0,0.0,0.0,0.0,0.0,3024.666666666667,2810.2,4442.571428571428,4236.9,305.717,305.73133333333334,314.0946666666667,314.21775,21.877625000000002,20.5656,21.849,21.3704,314.999998,314.999998,324.999988,324.999988,99.55928571428572,99.5075,99.56584285714285,99.54555714285715,0.05174999999999996,-0.08299999999999996,-0.16416666666666657,0.0718333333333332,-0.061666666666667425,-0.041666666666671404,1.4825,1.472,37.735,29.535,37.556,34.565,56.25,34.96,59.2365,51.888999999999996,54.163,34.0835,57.829499999999996,50.2245,53.317,33.618,57.7505,49.62766666666667,-0.11733333333333329,-0.03500000000000014,0.10911000000000001,0.10967,0.0,209.635,209.64,206.40666666666667,206.40666666666667,0.0,0.0
11,0.0,1.0,0.0,1.0,1.0,0.0,0.0,1.0,0.0,100.0,1.0,1.1856,26.0,0.0,0.0,0.0,59.999996,0.0,26.0,26.0,26.0,26.0,0.024375000000000036,0.2711000000000001,-0.113,292.252,-2.6872,-2.7005,-1.5712000000000002,-1.566111111111111,-239.19,216.08249999999998,190.76775,0.0,0.0,0.0,0.0,0.022600000000000002,-5.498166666666667,-5.498166666666667,-0.518,-0.3076666666666667,0.022499999999999964,1.6760000000000002,67.077,-0.015600000000000001,-0.191925,-0.49799999999999933,100.0,1.0,1.0,207.14333333333332,0.0,0.0,0.0,0.0,0.0,0.0,0.0,8780.0,0.0,55.0,5.0,241.45,1.0,0.0,0.0,0.0,0.0,0.0,1.0,0.0,0.5549999999999997,0.5549999999999997,0.0,0.0,1.0,55.0,616.79921,10000.0,85.000001,85.000001,85.000001,85.000001,395.0,0.0,0.0,0.0,1.0,166.665,52.872,52.872,46.89,46.89,34.0,-22.6225,25.046,-23.88666666666667,26.34,0.0,1783.006,-0.6649999999999991,100.0,27.741,27.364,45.057,44.737,0.0,1.0,100.0,0.0,0.0,0.0,0.0,2986.166666666667,3134.9,3582.285714285714,3930.4,305.6625,304.899,315.99,315.18075,21.88725,20.5709,21.859333333333332,21.3793,314.999998,314.999998,324.999988,324.999988,99.5593,99.5075,99.56598571428572,99.54571428571428,0.08450000000000002,-0.04599999999999993,-0.10733333333333339,0.10816666666666674,-0.03999999999999915,-0.061666666666667425,1.6395,1.6235,37.796,29.5685,37.620999999999995,34.621,56.235,34.998,59.2725,51.9495,54.147999999999996,34.1185,57.8625,50.2825,53.301,33.652,57.781,49.684666666666665,-0.11766666666666681,-0.03100000000000014,0.10353000000000001,0.10504500000000001,0.0,210.035,210.07,207.14333333333332,207.14333333333332,0.0,0.0
12,0.0,1.0,0.0,1.0,1.0,0.0,0.0,1.0,0.0,100.0,1.0,1.1856,26.0,0.0,0.0,0.0,59.999996,0.0,26.0,26.0,26.0,26.0,0.036375000000000046,0.28190000000000004,0.00935,291.763,-2.7522,-2.692875,-1.5786,-1.563777777777778,-235.97,216.06,190.747,0.0,0.0,0.0,0.0,0.025466666666666665,-5.498166666666667,-5.498166666666667,-0.503,0.3353333333333333,0.012375000000000025,0.7850000000000001,67.214,0.0077,-0.152525,-0.6699999999999999,100.0,1.0,1.0,207.37,0.0,0.0,0.0,0.0,0.0,0.0,0.0,8789.7,0.0,55.0,5.0,241.93666666666667,0.0,0.0,0.0,0.0,0.0,0.0,1.0,0.0,0.602999999999998,0.602999999999998,0.0,0.0,0.0,55.0,616.79921,10000.0,85.000001,85.000001,85.000001,85.000001,395.0,0.0,0.0,0.0,1.0,166.665,52.933,52.933,45.624,45.624,34.0,-22.4625,25.954,-27.673333333333332,31.225,0.0,1782.958,-0.6149999999999984,100.0,27.493,27.468,44.861000000000004,44.719,0.0,1.0,100.0,0.0,0.0,0.0,0.0,3010.5,3155.3,4100.285714285715,4225.6,305.653,304.8586666666667,314.7943333333333,314.4585,21.89625,20.5761,21.869,21.3877,314.999998,314.999998,324.999988,324.999988,99.5593,99.50751666666666,99.56611428571429,99.54584285714286,0.10575000000000001,-0.02674999999999994,-0.08983333333333332,0.14766666666666683,-0.021666666666668277,-0.04999999999999716,1.5415,1.5225,37.852000000000004,29.6005,37.681,34.673,56.222,35.033500000000004,59.308,52.007,54.135,34.150999999999996,57.896,50.3375,53.288,33.6835,57.8115,49.73866666666667,-0.11766666666666681,-0.034499999999999975,0.11163000000000001,0.11391500000000002,0.0,210.465,210.53,207.37,207.37,0.0,0.0
13,0.0,1.0,0.0,1.0,1.0,0.0,0.0,1.0,0.0,100.0,1.0,1.1856,26.0,0.0,0.0,0.0,59.999996,0.0,26.0,26.0,26.0,26.0,0.03374999999999995,0.29110000000000014,0.048650000000000006,291.214,-2.7268,-2.6845,-1.6437,-1.5507777777777778,-232.53,216.035,190.725125,0.0,0.0,0.0,0.0,0.02666666666666667,-5.498166666666667,-5.498166666666667,-0.49510000000000004,-0.07066666666666667,0.006999999999999895,-0.857,67.357,0.021,-0.15995,-0.6399999999999997,100.0,1.0,1.0,207.72333333333333,0.0,0.0,0.0,0.0,0.0,0.0,0.0,8804.6,0.0,55.0,5.0,242.45333333333335,1.0,0.0,0.0,0.0,0.0,0.0,1.0,0.0,0.6539999999999999,0.6539999999999999,0.0,0.0,1.0,55.0,616.79921,10000.0,85.000001,85.000001,85.000001,85.000001,395.0,0.0,0.0,0.0,1.0,333.33500000000004,52.475,52.475,45.425,45.425,34.0,-22.607499999999998,25.908,-30.04,31.01,0.0,1782.906,-0.8350000000000009,100.0,27.755,27.871,44.996,45.406,0.0,1.0,100.0,0.0,0.0,0.0,0.0,3182.166666666667,3051.0,4275.285714285715,4246.1,305.294,304.97266666666667,314.5276666666667,314.22225,21.906,20.5816,21.879555555555555,21.3968,314.999998,314.999998,324.999988,324.999988,99.55931428571428,99.50751666666666,99.56625714285714,99.54598571428572,0.12674999999999992,-0.007750000000000035,-0.09033333333333338,0.13549999999999995,-0.05833333333333002,-0.04833333333333201,1.501,1.4885000000000002,37.912,29.634999999999998,37.747,34.730000000000004,56.211,35.071,59.348,52.0715,54.123999999999995,34.186,57.933,50.3995,53.275999999999996,33.716499999999996,57.8455,49.79933333333334,-0.14466666666666672,-0.010499999999999954,0.10616500000000001,0.10582000000000001,0.0,210.91500000000002,210.945,207.72333333333333,207.72333333333333,0.0,0.0
14,0.0,1.0,0.0,1.0,1.0,0.0,0.0,1.0,0.0,100.0,1.0,1.1856,26.0,0.0,0.0,0.0,59.999996,0.0,26.0,26.0,26.0,26.0,0.055625000000000036,0.2872000000000001,0.010450000000000001,291.412,-2.7227,-2.62425,-1.621,-1.5547777777777778,-228.89,216.0125,190.702625,0.0,0.0,0.0,0.0,0.028800000000000003,-5.498166666666667,-5.498166666666667,-0.5091,-0.19366666666666665,0.03587499999999988,-0.739,67.505,0.0374,-0.180625,-0.8679999999999994,100.0,1.0,1.0,208.27666666666667,0.0,0.0,0.0,0.0,0.0,0.0,0.0,8828.1,0.0,55.0,5.0,242.99,0.0,0.0,0.0,0.0,0.0,0.0,1.0,0.0,0.7079999999999984,0.7079999999999984,0.0,0.0,0.0,55.0,616.79921,10000.0,85.000001,85.000001,85.000001,85.000001,395.0,0.0,0.0,0.0,1.0,166.665,52.414,52.414,45.715,45.715,34.0,-21.259999999999998,26.53,-26.46,29.7575,0.0,1782.854,-0.9499999999999993,100.0,27.82,28.128,45.045,45.632,0.0,1.0,100.0,0.0,0.0,0.0,0.0,3073.0,3128.2,4019.285714285714,4089.0,305.6215,304.75033333333334,315.1426666666667,314.593,21.916125,20.5874,21.890555555555554,21.4064,314.999998,314.999998,324.999988,324.999988,99.55932857142857,99.50751666666666,99.56641428571429,99.54614285714285,0.13600000000000012,0.0022500000000000853,-0.07299999999999995,0.14083333333333337,-0.06666666666666998,-0.06499999999999773,1.5625,1.544,37.976,29.6715,37.816,34.79,56.199,35.11,59.3875,52.138999999999996,54.114000000000004,34.222,57.9695,50.4645,53.263999999999996,33.7515,57.8785,49.86266666666667,-0.1463333333333332,-0.007000000000000117,0.10917500000000001,0.10208,0.0,211.38,211.4,208.27666666666667,208.27666666666667,0.0,0.0
15,0.0,1.0,0.0,1.0,1.0,0.0,0.0,1.0,0.0,100.0,1.0,1.1856,26.0,0.0,0.0,0.0,59.999996,0.0,26.0,26.0,26.0,26.0,0.08574999999999999,0.28800000000000003,0.0281,291.367,-2.6954000000000002,-2.584375,-1.6478000000000002,-1.497888888888889,-225.65,215.9925,190.68225,0.0,0.0,0.0,0.0,0.03066666666666667,-5.498166666666667,-5.498166666666667,-0.499,0.35633333333333334,0.06512499999999988,-0.866,67.637,0.0523,-0.15925,-1.0479999999999992,100.0,1.0,1.0,208.66666666666669,0.0,0.0,0.0,0.0,0.0,0.0,0.0,8844.6,0.0,55.0,5.0,243.46333333333334,1.0,0.0,0.0,0.0,0.0,0.0,1.0,0.0,0.7560000000000002,0.7560000000000002,0.0,0.0,1.0,55.0,616.79921,10000.0,85.000001,85.000001,85.000001,85.000001,395.0,0.0,0.0,0.0,1.0,166.665,52.567,52.567,45.638999999999996,45.638999999999996,34.0,-19.287499999999998,26.358,-26.28,32.1625,0.0,1782.805,-0.9800000000000004,100.0,27.799,28.219,44.871,45.675,0.0,1.0,100.0,0.0,0.0,0.0,0.0,2949.666666666667,3093.7,4013.1428571428573,4304.6,305.965,304.848,315.196,314.11175,21.925125,20.5926,21.900222222222222,21.415,314.999998,314.999998,324.999988,324.999988,99.55935714285714,99.50753333333333,99.56654285714286,99.54628571428572,0.15425,0.014499999999999957,-0.0625,0.1648333333333334,-0.04999999999999716,-0.04999999999999716,1.543,1.5230000000000001,38.032,29.704,37.876999999999995,34.8435,56.19,35.1455,59.420500000000004,52.199,54.105000000000004,34.254999999999995,58.0,50.5225,53.254000000000005,33.783,57.9065,49.919666666666664,-0.15566666666666662,0.0020000000000000018,0.108475,0.103035,0.0,211.775,211.845,208.66666666666669,208.66666666666669,0.0,0.0
16,0.0,1.0,0.0,1.0,1.0,0.0,0.0,1.0,0.0,100.0,1.0,1.1856,26.0,0.0,0.0,0.0,59.999996,0.0,26.0,26.0,26.0,26.0,0.09575,0.2855000000000001,-0.00965,291.473,-2.7944,-2.61475,-1.6279,-1.4934444444444444,-222.4,215.97750000000002,190.6615,0.0,0.0,0.0,0.0,0.03256666666666667,-5.498166666666667,-5.498166666666667,-0.5147,-0.7053333333333334,0.05824999999999991,-1.612,67.77,0.06620000000000001,-0.17572500000000002,-1.1239999999999997,100.0,1.0,1.0,209.0366666666667,0.0,0.0,0.0,0.0,0.0,0.0,0.0,8860.3,0.0,55.0,5.0,243.94333333333333,0.0,0.0,0.0,0.0,0.0,0.0,1.0,0.0,0.8039999999999985,0.8039999999999985,0.0,0.0,0.0,55.0,616.79921,10000.0,85.000001,85.000001,85.000001,85.000001,395.0,0.0,0.0,0.0,1.0,166.665,52.719,52.719,45.257999999999996,45.257999999999996,34.0,-20.73,27.372,-25.04333333333333,31.73,0.0,1782.757,-0.9050000000000011,100.0,27.263,28.216,45.095,45.843,0.0,1.0,100.0,0.0,0.0,0.0,0.0,3027.5,3136.9,4030.5714285714284,4118.8,305.8645,304.704,315.12833333333333,314.517,21.933875,20.5979,21.91011111111111,21.4236,314.999998,314.999998,324.999988,324.999988,99.55937142857142,99.50753333333333,99.56668571428571,99.54641428571429,0.15274999999999994,0.021749999999999936,-0.041166666666666574,0.1888333333333332,-0.04999999999999716,-0.03833333333332689,1.5615,1.5194999999999999,38.087,29.7365,37.938,34.8975,56.178,35.1815,59.457,52.26,54.093,34.288,58.034,50.5805,53.241,33.815,57.937,49.977000000000004,-0.14500000000000002,-0.008500000000000174,0.10476500000000001,0.10975000000000001,0.0,212.15,212.2,209.0366666666667,209.0366666666667,0.0,0.0
17,0.0,1.0,0.0,1.0,1.0,0.0,0.0,1.0,0.0,100.0,1.0,1.1856,26.0,0.0,0.0,0.0,59.999996,0.0,26.0,26.0,26.0,26.0,0.11562500000000009,0.2842,-0.029050000000000003,291.336,-2.7447,-2.58475,-1.6573,-1.5214444444444444,-218.94,215.9625,190.639125,0.0,0.0,0.0,0.0,0.03456666666666667,-5.498166666666667,-5.498166666666667,-0.509,0.53,0.03200000000000003,0.9040000000000001,67.908,0.0724,-0.15575,-1.064,100.0,1.0,1.0,209.50333333333333,0.0,0.0,0.0,0.0,0.0,0.0,0.0,8880.1,0.0,55.0,5.0,244.43666666666667,1.0,0.0,0.0,0.0,0.0,0.0,1.0,0.0,0.8550000000000004,0.8550000000000004,0.0,0.0,1.0,55.0,616.79921,10000.0,85.000001,85.000001,85.000001,85.000001,395.0,0.0,0.0,0.0,1.0,333.33500000000004,52.504999999999995,52.504999999999995,45.609,45.609,34.0,-19.4625,26.776,-24.116666666666667,33.92,0.0,1782.705,-0.5150000000000006,100.0,28.032,28.165,45.058,45.495000000000005,0.0,1.0,100.0,0.0,0.0,0.0,0.0,2977.666666666667,3125.5,4026.714285714286,4282.7,305.7635,305.01466666666664,315.02633333333335,314.3855,21.943375,20.6035,21.920333333333332,21.4326,314.999998,314.999998,324.999988,324.999988,99.55938571428571,99.50753333333333,99.56682857142857,99.54657142857143,0.16900000000000004,0.025249999999999995,-0.01316666666666666,0.20333333333333337,-0.054999999999999716,-0.04999999999999716,1.563,1.536,38.146,29.772,38.001999999999995,34.954,56.169,35.221000000000004,59.491,52.323,54.084,34.3245,58.065,50.6415,53.230999999999995,33.85,57.9655,50.03666666666666,-0.1296666666666666,-0.035499999999999865,0.10445000000000002,0.10051500000000001,0.0,212.63,212.695,209.50333333333333,209.50333333333333,0.0,0.0
18,0.0,1.0,0.0,1.0,1.0,0.0,0.0,1.0,0.0,100.0,1.0,1.1856,26.0,0.0,0.0,0.0,59.999996,0.0,26.0,26.0,26.0,26.0,0.0495000000000001,0.2753000000000001,-0.020200000000000003,291.168,-2.7745,-2.558875,-1.6627,-1.475111111111111,-215.47,215.95,190.616625,0.0,0.0,0.0,0.0,0.0366,-5.498166666666667,-5.498166666666667,-0.5197,-0.6316666666666666,0.041749999999999954,-0.937,68.047,0.0689,-0.175575,-0.492,100.0,1.0,1.0,209.88,0.0,0.0,0.0,0.0,0.0,0.0,0.0,8896.1,0.0,55.0,5.0,244.94333333333333,0.0,0.0,0.0,0.0,0.0,0.0,1.0,0.0,0.9059999999999988,0.9059999999999988,0.0,0.0,0.0,55.0,616.79921,10000.0,85.000001,85.000001,85.000001,85.000001,395.0,0.0,0.0,0.0,1.0,166.665,52.277,52.277,45.364,45.364,34.0,-22.9675,25.844,-26.82,30.225,0.0,1782.656,-0.21999999999999886,100.0,27.678,28.218,45.167,45.949,0.0,1.0,100.0,0.0,0.0,0.0,0.0,3158.833333333333,3202.4,4111.714285714285,4106.0,305.4655,304.61,314.973,314.57675,21.952875,20.6091,21.930888888888887,21.4419,314.999998,314.999998,324.999988,324.999988,99.55941428571428,99.50753333333333,99.56695714285715,99.54672857142857,0.12250000000000005,-0.014499999999999957,-0.053333333333333344,0.16783333333333328,-0.046666666666666856,-0.03166666666666629,1.538,1.5345,38.205,29.807000000000002,38.068,35.012,56.158,35.2575,59.53,52.3885,54.073,34.3585,58.1015,50.704,53.219,33.8825,57.9985,50.098333333333336,-0.09599999999999986,-0.06300000000000017,0.10648,0.105395,0.0,213.025,213.04500000000002,209.88,209.88,0.0,0.0
19,0.0,1.0,0.0,1.0,1.0,0.0,0.0,1.0,0.0,100.0,1.0,1.1856,26.0,0.0,0.0,0.0,59.999996,0.0,26.0,26.0,26.0,26.0,0.017249999999999988,0.2915000000000001,0.00385,290.756,-2.7314,-2.558125,-1.6669,-1.4692222222222222,-212.2,215.9425,190.595375,0.0,0.0,0.0,0.0,0.0385,-5.498166666666667,-5.498166666666667,-0.5162,0.808,0.03762500000000002,-1.4,68.176,0.0565,-0.1675,-0.16600000000000037,100.0,1.0,1.0,210.32,0.0,0.0,0.0,0.0,0.0,0.0,0.0,8914.7,0.0,55.0,5.0,245.40333333333334,1.0,0.0,0.0,0.0,0.0,0.0,1.0,0.0,0.9540000000000006,0.9540000000000006,0.0,0.0,1.0,55.0,616.79921,10000.0,85.000001,85.000001,85.000001,85.000001,395.0,0.0,0.0,0.0,1.0,166.665,51.468,51.468,45.471000000000004,45.471000000000004,34.0,-23.685000000000002,25.234,-28.42,29.7375,0.0,1782.608,-0.02499999999999858,100.0,28.395,28.71,44.953,45.771,0.0,1.0,100.0,0.0,0.0,0.0,0.0,3236.166666666667,3206.5,4196.714285714285,4204.7,305.121,304.495,314.84166666666664,314.42925,21.962,20.6145,21.940444444444445,21.450499999999998,314.999998,314.999998,324.999988,324.999988,99.55942857142857,99.50755,99.5671,99.54685714285715,0.11499999999999999,-0.03249999999999997,-0.0731666666666666,0.14716666666666667,-0.03333333333333144,-0.05333333333332746,1.559,1.5550000000000002,38.262,29.8405,38.128,35.0655,56.147999999999996,35.295,59.562,52.4475,54.064,34.3935,58.131,50.760999999999996,53.209,33.916,58.0255,50.154333333333334,-0.08766666666666678,-0.0754999999999999,0.112905,0.103065,0.0,213.48000000000002,213.48000000000002,210.32,210.32,0.0,0.0
20,0.0,1.0,0.0,1.0,1.0,0.0,0.0,1.0,0.0,100.0,1.0,1.1856,26.0,0.0,0.0,0.0,59.999996,0.0,26.0,26.0,26.0,26.0,0.04125000000000001,0.28080000000000016,0.033800000000000004,290.955,-2.7615,-2.6422499999999998,-1.5782,-1.4925555555555556,-208.72,215.9325,190.573,0.0,0.0,0.0,0.0,0.04053333333333333,-5.498166666666667,-5.498166666666667,-0.5145000000000001,-1.0576666666666668,0.028750000000000053,1.0510000000000002,68.316,0.037700000000000004,-0.17802500000000002,0.0039999999999995595,100.0,1.0,1.0,210.56666666666666,0.0,0.0,0.0,0.0,0.0,0.0,0.0,8925.1,0.0,55.0,5.0,245.91,0.0,0.0,0.0,0.0,0.0,0.0,0.0,0.0,1.004999999999999,1.004999999999999,0.0,0.0,0.0,55.0,616.79921,10000.0,85.000001,85.000001,85.000001,85.000001,395.0,0.0,0.0,0.0,1.0,333.33500000000004,52.658,52.658,44.479,44.479,34.0,-21.84,24.758,-27.81666666666667,33.0025,0.0,1782.556,0.16499999999999915,100.0,27.978,28.137,45.744,45.828,0.0,1.0,100.0,0.0,0.0,0.0,0.0,2907.166666666667,3135.1,4204.428571428572,4438.7,306.014,304.96133333333336,314.45733333333334,313.95225,21.971375000000002,20.62,21.95111111111111,21.4598,314.999998,314.999998,324.999988,324.999988,99.55944285714286,99.50755,99.56724285714286,99.547,0.10075000000000012,-0.040000000000000036,-0.0688333333333333,0.15749999999999997,-0.02499999999999858,-0.026666666666670835,1.4785,1.4565000000000001,38.321,29.875,38.195,35.1235,56.134,35.332499999999996,59.6035,52.513,54.05,34.428,58.1695,50.824,53.194,33.9495,58.0605,50.216,-0.06600000000000006,-0.08999999999999986,0.10648,0.105855,0.0,213.87,213.86,210.56666666666666,210.56666666666666,0.0,0.0
21,0.0,1.0,0.0,1.0,1.0,0.0,0.0,1.0,0.0,100.0,1.0,1.1856,26.0,0.0,0.0,0.0,59.999996,0.0,26.0,26.0,26.0,26.0,0.043625000000000025,0.26680000000000015,-0.0828,291.504,-2.662,-2.705625,-1.6360000000000001,-1.568,-205.44,215.925,190.551625,0.0,0.0,0.0,0.0,0.04243333333333334,-5.498166666666667,-5.498166666666667,-0.5449,0.381,0.0035000000000000586,0.706,68.44,0.0129,-0.18775,0.2679999999999989,100.0,1.0,1.0,211.26333333333332,0.0,0.0,0.0,0.0,0.0,0.0,0.0,8954.6,0.0,55.0,5.0,246.35666666666668,1.0,0.0,0.0,0.0,0.0,0.0,0.0,0.0,1.0530000000000008,1.0530000000000008,0.0,0.0,1.0,55.0,616.79921,10000.0,85.000001,85.000001,85.000001,85.000001,395.0,0.0,0.0,0.0,1.0,333.33500000000004,52.094,52.094,46.371,46.371,34.0,-22.75,24.794,-25.563333333333333,28.4875,0.0,1782.507,0.120000000000001,100.0,28.462,28.208,45.159,45.208,0.0,1.0,100.0,0.0,0.0,0.0,0.0,3053.5,3130.3,3811.714285714286,4008.4,305.458,304.893,315.5416666666667,315.069,21.980375,20.6253,21.96077777777778,21.4682,314.999998,314.999998,324.999988,324.999988,99.55944285714286,99.50756666666666,99.56737142857143,99.54714285714286,0.09175,-0.053749999999999964,-0.08483333333333332,0.13883333333333336,-0.051666666666669414,-0.046666666666666856,1.605,1.612,38.376999999999995,29.9085,38.254999999999995,35.1765,56.122,35.37,59.634,52.5685,54.038,34.4625,58.198499999999996,50.8775,53.182,33.9825,58.0865,50.268,-0.07233333333333314,-0.09850000000000003,0.10383500000000001,0.110085,0.0,214.29000000000002,214.275,211.26333333333332,211.26333333333332,0.0,0.0
22,0.0,1.0,0.0,1.0,1.0,0.0,0.0,1.0,0.0,100.0,1.0,1.1856,26.0,0.0,0.0,0.0,59.999996,0.0,26.0,26.0,26.0,26.0,0.006250000000000089,0.2621,0.011550000000000001,290.894,-2.6316,-2.721875,-1.6195,-1.5694444444444444,-201.74,215.91750000000002,190.52625,0.0,0.0,0.0,0.0,0.04456666666666667,-5.498166666666667,-5.498166666666667,-0.5209,0.12666666666666668,-0.0007500000000000284,1.5819999999999999,68.588,-0.008,-0.16045,0.3520000000000003,100.0,1.0,1.0,211.45666666666668,0.0,0.0,0.0,0.0,0.0,0.0,0.0,8962.8,0.0,55.0,5.0,246.88666666666666,0.0,0.0,0.0,0.0,0.0,0.0,0.0,0.0,1.1069999999999993,1.1069999999999993,0.0,0.0,0.0,55.0,616.79921,10000.0,85.000001,85.000001,85.000001,85.000001,395.0,0.0,0.0,0.0,1.0,166.665,52.2,52.2,44.952,44.952,34.0,-22.5,23.740000000000002,-31.126666666666665,30.8175,0.0,1782.455,0.06500000000000128,100.0,28.599,28.212,45.605000000000004,45.406,0.0,1.0,100.0,0.0,0.0,0.0,0.0,2956.5,3083.5,4208.285714285715,4383.3,305.7085,305.00733333333335,314.54633333333334,314.149,21.9905,20.6312,21.971888888888888,21.477899999999998,314.999998,314.999998,324.999988,324.999988,99.55945714285714,99.50756666666666,99.56752857142857,99.5473,0.07224999999999993,-0.07324999999999993,-0.12,0.11016666666666675,-0.046666666666666856,-0.046666666666666856,1.4665,1.4900000000000002,38.441,29.945,38.324,35.237,56.107,35.411500000000004,59.677,52.634,54.025,34.501,58.2385,50.9405,53.167,34.0195,58.1235,50.32966666666667,-0.07533333333333325,-0.08850000000000025,0.10512500000000001,0.1097,0.0,214.76999999999998,214.72500000000002,211.45666666666668,211.45666666666668,0.0,0.0
23,0.0,1.0,0.0,1.0,1.0,0.0,0.0,1.0,0.0,100.0,1.0,1.1856,26.0,0.0,0.0,0.0,59.999996,0.0,26.0,26.0,26.0,26.0,0.012250000000000094,0.2572000000000001,-0.01795,290.863,-2.664,-2.6732500000000003,-1.5462,-1.6331111111111112,-198.45,215.91,190.50425,0.0,0.0,0.0,0.0,0.0465,-5.498166666666667,-5.498166666666667,-0.5424,-0.49933333333333335,-0.0031249999999998224,1.2970000000000002,68.714,-0.0182,-0.194275,0.32200000000000095,100.0,1.0,1.0,211.91666666666669,0.0,0.0,0.0,0.0,0.0,0.0,0.0,8982.3,0.0,55.0,5.0,247.34666666666666,1.0,0.0,0.0,0.0,0.0,0.0,0.0,0.0,1.1550000000000011,1.1550000000000011,0.0,0.0,1.0,55.0,616.79921,10000.0,85.000001,85.000001,85.000001,85.000001,395.0,0.0,0.0,0.0,1.0,166.665,51.513999999999996,51.513999999999996,45.882999999999996,45.882999999999996,34.0,-25.785,24.096,-27.21666666666667,28.8525,0.0,1782.406,0.03999999999999915,100.0,28.783,28.292,45.778999999999996,45.539,0.0,1.0,100.0,0.0,0.0,0.0,0.0,3292.5,3165.2,3878.0,4129.2,304.8595,304.846,315.2266666666667,314.64625,21.9995,20.636499999999998,21.98177777777778,21.4866,314.999998,314.999998,324.999988,324.999988,99.55947142857143,99.50758333333333,99.56767142857143,99.54744285714285,0.06875000000000009,-0.06925000000000003,-0.1193333333333334,0.09616666666666673,-0.05666666666667197,-0.051666666666669414,1.508,1.521,38.497,29.978,38.385999999999996,35.2915,56.094,35.4495,59.714,52.693,54.012,34.536,58.2725,50.997,53.153999999999996,34.053,58.1545,50.385,-0.07633333333333314,-0.08599999999999985,0.10687500000000001,0.10311000000000001,0.0,215.15,215.10000000000002,211.91666666666669,211.91666666666669,0.0,0.0
24,0.0,1.0,0.0,1.0,1.0,0.0,0.0,1.0,0.0,100.0,1.0,1.1856,26.0,0.0,0.0,0.0,59.999996,0.0,26.0,26.0,26.0,26.0,-0.014375000000000027,0.2795000000000001,-0.039,291.183,-2.6782,-2.691,-1.5812,-1.5804444444444443,-195.14,215.9025,190.481875,0.0,0.0,0.0,0.0,0.048400000000000006,-5.498166666666667,-5.498166666666667,-0.5455,-0.23900000000000002,-0.0012500000000001954,1.6560000000000001,68.842,-0.0204,-0.17727500000000002,0.18599999999999994,100.0,1.0,1.0,212.28333333333333,0.0,0.0,0.0,0.0,0.0,0.0,0.0,8997.9,0.0,55.0,5.0,247.80333333333334,0.0,0.0,0.0,0.0,0.0,0.0,0.0,0.0,1.2029999999999994,1.2029999999999994,0.0,0.0,0.0,55.0,616.79921,10000.0,85.000001,85.000001,85.000001,85.000001,395.0,0.0,0.0,0.0,1.0,333.33500000000004,52.643,52.643,45.105000000000004,45.105000000000004,34.0,-22.99,22.426000000000002,-31.343333333333334,28.4925,0.0,1782.357,0.045000000000001705,100.0,28.616,27.962,45.745000000000005,45.389,0.0,1.0,100.0,0.0,0.0,0.0,0.0,2931.666666666667,3002.0,4261.428571428572,4180.8,305.8455,305.4033333333333,314.4676666666667,314.63675,22.008375,20.6416,21.991666666666667,21.4951,314.999998,314.999998,324.999988,324.999988,99.55947142857143,99.50758333333333,99.56781428571429,99.54757142857143,0.06299999999999994,-0.07724999999999993,-0.13049999999999995,0.09749999999999992,-0.021666666666668277,-0.060000000000002274,1.512,1.5175,38.553,30.009999999999998,38.448,35.3445,56.08,35.4855,59.749,52.749,53.998999999999995,34.57,58.3055,51.051,53.14,34.085499999999996,58.1845,50.438,-0.07299999999999995,-0.08050000000000024,0.11342,0.105535,0.0,215.525,215.515,212.28333333333333,212.28333333333333,0.0,0.0
25,0.0,1.0,0.0,1.0,1.0,0.0,0.0,1.0,0.0,100.0,1.0,1.1856,26.0,0.0,0.0,0.0,59.999996,0.0,26.0,26.0,26.0,26.0,-0.05312499999999998,0.2521,-0.056900000000000006,291.275,-2.7631,-2.640375,-1.6067,-1.5791111111111111,-191.63,215.89249999999998,190.45675,0.0,0.0,0.0,0.0,0.050466666666666674,-5.498166666666667,-5.498166666666667,-0.5717,-0.066,0.004249999999999865,-1.6400000000000001,68.974,-0.022600000000000002,-0.17950000000000002,0.3379999999999992,100.0,1.0,1.0,212.81,0.0,0.0,0.0,0.0,0.0,0.0,0.0,9020.2,0.0,55.0,5.0,248.28,1.0,0.0,0.0,0.0,0.0,0.0,0.0,0.0,1.2540000000000013,1.2540000000000013,0.0,0.0,1.0,55.0,616.79921,10000.0,85.000001,85.000001,85.000001,85.000001,395.0,0.0,0.0,0.0,1.0,166.665,52.094,52.094,45.775999999999996,45.775999999999996,34.0,-26.927500000000002,23.003999999999998,-29.97333333333333,25.3825,0.0,1782.308,-0.019999999999999574,100.0,28.076,28.241,45.32,45.491,0.0,1.0,100.0,0.0,0.0,0.0,0.0,3255.333333333333,3141.7,4026.1428571428573,3918.2,305.241,304.76866666666666,315.2083333333333,315.07,22.01775,20.6472,22.002,21.5042,314.999998,314.999998,324.999988,324.999988,99.55948571428571,99.5076,99.56795714285714,99.54772857142858,0.049250000000000016,-0.08699999999999997,-0.14716666666666656,0.0778333333333332,-0.054999999999999716,-0.05333333333332746,1.555,1.585,38.611000000000004,30.045,38.512,35.400999999999996,56.064,35.5255,59.786,52.8075,53.983999999999995,34.6065,58.3395,51.107,53.123999999999995,34.1205,58.2155,50.492666666666665,-0.08133333333333326,-0.08099999999999996,0.10791,0.10480500000000001,0.0,215.945,215.91500000000002,212.81,212.81,0.0,0.0
26,0.0,1.0,0.0,1.0,1.0,0.0,0.0,1.0,0.0,100.0,1.0,1.1856,26.0,0.0,0.0,0.0,59.999996,0.0,26.0,26.0,26.0,26.0,-0.045875,0.2792000000000001,0.08255,289.993,-2.701,-2.72275,-1.6429,-1.5765555555555557,-187.89999999999998,215.8825,190.429375,0.0,0.0,0.0,0.0,0.05263333333333334,-5.498166666666667,-5.498166666666667,-0.5364,0.4563333333333333,-0.02012500000000017,-1.112,69.119,-0.0227,-0.1552,0.27999999999999936,100.0,1.0,1.0,212.96333333333334,0.0,0.0,0.0,0.0,0.0,0.0,0.0,9026.7,0.0,55.0,5.0,248.8,0.0,0.0,0.0,0.0,0.0,0.0,0.0,0.0,1.3079999999999998,1.3079999999999998,0.0,0.0,0.0,55.0,616.79921,10000.0,85.000001,85.000001,85.000001,85.000001,395.0,0.0,0.0,0.0,1.0,166.665,51.3,51.3,44.159,44.159,34.0,-26.265,22.896,-35.973333333333336,30.4575,0.0,1782.254,-0.15500000000000114,100.0,29.046,28.893,45.708,45.726,0.0,1.0,100.0,0.0,0.0,0.0,0.0,3278.5,3022.0,4673.714285714285,4431.4,305.019,304.99,313.66133333333335,313.84475,22.028,20.6533,22.01311111111111,21.514,314.999998,314.999998,324.999988,324.999988,99.5595,99.50761666666666,99.56812857142857,99.54788571428571,0.0605,-0.08699999999999997,-0.128,0.08616666666666672,-0.05666666666667197,-0.04999999999999716,1.442,1.4475000000000002,38.675,30.083,38.582,35.4625,56.052,35.57,59.8285,52.8735,53.972,34.647999999999996,58.3795,51.171,53.111000000000004,34.16,58.251999999999995,50.55466666666666,-0.09233333333333316,-0.0714999999999999,0.097085,0.11359000000000001,0.0,216.425,216.39,212.96333333333334,212.96333333333334,0.0,0.0
27,0.0,1.0,0.0,1.0,1.0,0.0,0.0,1.0,0.0,100.0,1.0,1.1856,26.0,0.0,0.0,0.0,59.999996,0.0,26.0,26.0,26.0,26.0,0.005875000000000075,0.258,-0.01855,290.543,-2.6664,-2.69025,-1.6323,-1.6422222222222222,-184.79,215.8725,190.407875,0.0,0.0,0.0,0.0,0.05443333333333334,-5.498166666666667,-5.498166666666667,-0.5699000000000001,-1.2483333333333333,-0.010375000000000245,1.5230000000000001,69.235,-0.0205,-0.21755000000000002,0.0600000000000005,100.0,1.0,1.0,213.42000000000002,0.0,0.0,0.0,0.0,0.0,0.0,0.0,9046.1,0.0,55.0,5.0,249.22333333333336,1.0,0.0,0.0,0.0,0.0,0.0,0.0,0.0,1.352999999999998,1.352999999999998,0.0,0.0,1.0,55.0,616.79921,10000.0,85.000001,85.000001,85.000001,85.000001,395.0,0.0,0.0,0.0,1.0,166.665,51.513999999999996,51.513999999999996,44.983000000000004,44.983000000000004,34.0,-23.737499999999997,24.796,-29.490000000000002,29.5925,0.0,1782.209,-0.23000000000000043,100.0,29.024,28.598,46.207,45.797,0.0,1.0,100.0,0.0,0.0,0.0,0.0,3089.333333333333,3203.1,4034.714285714286,4184.1,305.365,304.724,314.87533333333334,314.49475,22.03625,20.6582,22.022666666666666,21.5223,314.999998,314.999998,324.999988,324.999988,99.5595,99.50761666666666,99.56825714285715,99.548,0.07725000000000004,-0.06499999999999995,-0.11349999999999993,0.09499999999999997,-0.03833333333332689,-0.05333333333332746,1.491,1.487,38.727000000000004,30.113999999999997,38.641,35.513999999999996,56.04,35.605000000000004,59.866,52.9295,53.96,34.6805,58.414,51.2245,53.098,34.1915,58.283500000000004,50.60733333333333,-0.09899999999999998,-0.06700000000000017,0.101985,0.108785,0.0,216.715,216.69,213.42000000000002,213.42000000000002,0.0,0.0
28,0.0,1.0,0.0,1.0,1.0,0.0,0.0,1.0,0.0,100.0,1.0,1.1856,26.0,0.0,0.0,0.0,59.999996,0.0,26.0,26.0,26.0,26.0,0.011249999999999982,0.26170000000000004,-0.08275,291.061,-2.6847000000000003,-2.6805000000000003,-1.5832000000000002,-1.601222222222222,-181.05,215.86,190.38125,0.0,0.0,0.0,0.0,0.056600000000000004,-5.498166666666667,-5.498166666666667,-0.5792,0.7903333333333334,-0.01200000000000001,1.4130000000000003,69.372,-0.0166,-0.185875,-0.05600000000000005,100.0,1.0,1.0,214.04666666666668,0.0,0.0,0.0,0.0,0.0,0.0,0.0,9072.7,0.0,55.0,5.0,249.71333333333334,0.0,0.0,0.0,0.0,0.0,0.0,0.0,0.0,1.407,1.407,0.0,0.0,0.0,55.0,616.79921,10000.0,85.000001,85.000001,85.000001,85.000001,395.0,0.0,0.0,0.0,1.0,166.665,51.559,51.559,46.158,46.158,34.0,-23.4525,24.622,-27.18,28.655,0.0,1782.155,-0.28500000000000014,100.0,29.11,28.603,45.370000000000005,45.187,0.0,1.0,100.0,0.0,0.0,0.0,0.0,3118.333333333333,3140.2,3894.0,4132.9,305.324,304.91266666666667,315.381,314.8015,22.04625,20.6642,22.033444444444445,21.5318,314.999998,314.999998,324.999988,324.999988,99.55951428571429,99.50763333333333,99.5684,99.54815714285715,0.09275000000000011,-0.05399999999999994,-0.11599999999999999,0.10883333333333334,-0.04833333333333201,-0.045000000000001705,1.5715,1.5819999999999999,38.789,30.1515,38.709,35.573499999999996,56.025999999999996,35.6475,59.900999999999996,52.99,53.948,34.7195,58.447,51.2825,53.084,34.229,58.313,50.663666666666664,-0.10799999999999987,-0.05650000000000022,0.10232000000000001,0.11346500000000001,0.0,217.195,217.18,214.04666666666668,214.04666666666668,0.0,0.0
29,0.0,1.0,0.0,1.0,1.0,0.0,0.0,1.0,0.0,100.0,1.0,1.1856,26.0,0.0,0.0,0.0,59.999996,0.0,26.0,26.0,26.0,26.0,0.006750000000000034,0.2683,0.06255000000000001,290.405,-2.6461,-2.7258750000000003,-1.5864,-1.5823333333333334,-177.70999999999998,215.8475,190.356125,0.0,0.0,0.0,0.0,0.05853333333333334,-5.498166666666667,-5.498166666666667,-0.5729000000000001,-0.5763333333333334,-0.011624999999999996,1.242,69.501,-0.0063,-0.17255,-0.20000000000000018,100.0,1.0,1.0,214.15666666666667,0.0,0.0,0.0,0.0,0.0,0.0,0.0,9077.3,0.0,55.0,5.0,250.17666666666668,1.0,0.0,0.0,0.0,0.0,0.0,0.0,0.0,1.4549999999999983,1.4549999999999983,0.0,0.0,1.0,55.0,616.79921,10000.0,85.000001,85.000001,85.000001,85.000001,395.0,0.0,0.0,0.0,1.0,333.33500000000004,51.727000000000004,51.727000000000004,44.464,44.464,34.0,-23.145,25.718,-31.023333333333333,31.8125,0.0,1782.104,-0.2699999999999996,100.0,28.58,28.363,45.848,45.614000000000004,0.0,1.0,100.0,0.0,0.0,0.0,0.0,3117.5,3222.4,4293.428571428572,4422.5,305.303,304.54133333333334,314.282,314.006,22.055,20.6695,22.043444444444443,21.5405,314.999998,314.999998,324.999988,324.999988,99.55952857142857,99.50763333333333,99.56855714285714,99.54831428571428,0.09200000000000008,-0.059250000000000025,-0.11066666666666658,0.1136666666666668,-0.021666666666668277,-0.05833333333333002,1.4705,1.4575,38.844,30.183999999999997,38.771,35.6285,56.012,35.686,59.942,53.0525,53.934,34.754999999999995,58.4855,51.3425,53.069,34.263,58.3485,50.72233333333333,-0.10433333333333317,-0.06099999999999994,0.1106,0.10644,0.0,217.54000000000002,217.555,214.15666666666667,214.15666666666667,0.0,0.0
30,0.0,1.0,0.0,1.0,1.0,0.0,0.0,1.0,0.0,100.0,1.0,1.1856,26.0,0.0,0.0,0.0,59.999996,0.0,26.0,26.0,26.0,26.0,0.02499999999999991,0.2590000000000001,0.051550000000000006,290.07,-2.7,-2.6115,-1.5604,-1.6374444444444445,-174.37,215.8375,190.33125,0.0,0.0,0.0,0.0,0.060500000000000005,-5.498166666666667,-5.498166666666667,-0.5790000000000001,0.522,-0.01112499999999983,0.964,69.622,-0.0002,-0.1898,-0.18799999999999972,100.0,1.0,1.0,214.64333333333332,0.0,0.0,0.0,0.0,0.0,0.0,0.0,9097.9,0.0,55.0,5.0,250.61,0.0,0.0,0.0,0.0,0.0,0.0,1.0,0.0,1.5030000000000001,1.5030000000000001,0.0,0.0,0.0,55.0,616.79921,10000.0,85.000001,85.000001,85.000001,85.000001,395.0,0.0,0.0,0.0,1.0,166.665,50.537,50.537,45.242,45.242,34.0,-25.002499999999998,25.382,-28.116666666666667,32.075,0.0,1782.058,-0.2749999999999986,100.0,29.464,29.169,45.732,45.620000000000005,0.0,1.0,100.0,0.0,0.0,0.0,0.0,3327.333333333333,3251.8,4115.142857142857,4307.9,304.6835,304.4413333333333,314.8063333333333,314.2125,22.064,20.675,22.05322222222222,21.5492,314.999998,314.999998,324.999988,324.999988,99.55952857142857,99.50765,99.56868571428572,99.54844285714286,0.10275000000000012,-0.04874999999999996,-0.09650000000000003,0.12400000000000011,-0.030000000000001137,-0.04833333333333201,1.5030000000000001,1.5,38.9,30.219,38.833,35.6825,56.003,35.723,59.9735,53.106,53.925,34.789500000000004,58.5145,51.3945,53.06,34.296,58.3745,50.772999999999996,-0.10666666666666669,-0.06599999999999984,0.100595,0.10962000000000001,0.0,217.94,217.94,214.64333333333332,214.64333333333332,0.0,0.0
31,0.0,1.0,0.0,1.0,1.0,0.0,0.0,1.0,0.0,100.0,1.0,1.1856,26.0,0.0,0.0,0.0,59.999996,0.0,26.0,26.0,26.0,26.0,-0.01737500000000003,0.25660000000000016,-0.0064,290.054,-2.7667,-2.689,-1.6411,-1.5332222222222223,-170.82,215.825,190.3055,0.0,0.0,0.0,0.0,0.06256666666666666,-5.498166666666667,-5.498166666666667,-0.5657,-0.6223333333333334,-0.01100000000000012,-1.4929999999999999,69.754,0.0061,-0.19325,-0.19200000000000017,100.0,1.0,1.0,214.91333333333333,0.0,0.0,0.0,0.0,0.0,0.0,0.0,9109.3,0.0,55.0,5.0,251.09,1.0,0.0,0.0,0.0,0.0,0.0,1.0,0.0,1.5539999999999985,1.5539999999999985,0.0,0.0,1.0,55.0,616.79921,10000.0,85.000001,85.000001,85.000001,85.000001,395.0,0.0,0.0,0.0,1.0,166.665,51.285,51.285,43.976,43.976,34.0,-24.705,24.144,-33.806666666666665,29.330000000000002,0.0,1782.007,-0.3249999999999993,100.0,29.043,29.357,45.992000000000004,46.222,0.0,1.0,100.0,0.0,0.0,0.0,0.0,3216.0,3067.8,4514.428571428572,4172.6,305.393,304.86033333333336,313.991,314.34325,22.073375,20.6808,22.06388888888889,21.5587,314.999998,314.999998,324.999988,324.999988,99.55955714285714,99.50765,99.56884285714285,99.5486,0.09200000000000008,-0.05974999999999997,-0.11499999999999999,0.1120000000000001,-0.04833333333333201,-0.046666666666666856,1.4489999999999998,1.44,38.959,30.255,38.899,35.7415,55.991,35.763,60.0145,53.17,53.914,34.826499999999996,58.553,51.4555,53.048,34.3315,58.41,50.833,-0.11233333333333317,-0.06000000000000005,0.10718000000000001,0.10814000000000001,0.0,218.325,218.345,214.91333333333333,214.91333333333333,0.0,0.0
32,0.0,1.0,0.0,1.0,1.0,0.0,0.0,1.0,0.0,100.0,1.0,1.1856,26.0,0.0,0.0,0.0,59.999996,0.0,26.0,26.0,26.0,26.0,0.04137499999999994,0.262,-0.067,290.466,-2.6928,-2.7018750000000002,-1.6656,-1.540888888888889,-167.26,215.815,190.28,0.0,0.0,0.0,0.0,0.06463333333333333,-5.498166666666667,-5.498166666666667,-0.5858,0.10433333333333333,-0.03137500000000015,0.8980000000000001,69.881,0.0103,-0.202125,-0.2839999999999998,100.0,1.0,1.0,215.5,0.0,0.0,0.0,0.0,0.0,0.0,0.0,9134.3,0.0,55.0,5.0,251.54333333333335,0.0,0.0,0.0,0.0,0.0,0.0,1.0,0.0,1.6050000000000004,1.6050000000000004,0.0,0.0,0.0,55.0,616.79921,10000.0,85.000001,85.000001,85.000001,85.000001,395.0,0.0,0.0,0.0,1.0,166.665,51.102000000000004,51.102000000000004,45.257999999999996,45.257999999999996,34.0,-22.8625,26.338,-28.296666666666667,30.16,0.0,1781.956,-0.3249999999999993,100.0,29.318,29.116,45.845,45.65,0.0,1.0,100.0,0.0,0.0,0.0,0.0,3165.0,3199.0,4059.714285714286,4246.2,305.218,304.7296666666667,314.98533333333336,314.603,22.08275,20.6866,22.07422222222222,21.5679,314.999998,314.999998,324.999988,324.999988,99.55955714285714,99.50766666666667,99.56898571428572,99.54874285714286,0.11650000000000005,-0.03149999999999997,-0.08716666666666661,0.13400000000000012,-0.04999999999999716,-0.06666666666666998,1.565,1.5474999999999999,39.016999999999996,30.2915,38.964,35.799,55.979,35.8035,60.05,53.2295,53.903,34.864,58.585499999999996,51.513,53.035,34.3675,58.439499999999995,50.888666666666666,-0.11333333333333329,-0.05750000000000011,0.11028500000000001,0.103025,0.0,218.73000000000002,218.745,215.5,215.5,0.0,0.0
33,0.0,1.0,0.0,1.0,1.0,0.0,0.0,1.0,0.0,100.0,1.0,1.1856,26.0,0.0,0.0,0.0,59.999996,0.0,26.0,26.0,26.0,26.0,-0.004249999999999976,0.27059999999999995,-0.03685,290.558,-2.7067,-2.6956249999999997,-1.5918,-1.6244444444444444,-163.69,215.8025,190.253375,0.0,0.0,0.0,0.0,0.06670000000000001,-5.498166666666667,-5.498166666666667,-0.5872,-0.263,-0.03412499999999996,-0.6950000000000001,70.012,0.014,-0.1849,-0.11799999999999944,100.0,1.0,1.0,215.79666666666668,0.0,0.0,0.0,0.0,0.0,0.0,0.0,9146.8,0.0,55.0,5.0,252.01666666666665,1.0,0.0,0.0,0.0,0.0,0.0,1.0,0.0,1.6559999999999988,1.6559999999999988,0.0,0.0,1.0,55.0,616.79921,10000.0,85.000001,85.000001,85.000001,85.000001,395.0,0.0,0.0,0.0,1.0,166.665,51.727000000000004,51.727000000000004,45.013,45.013,34.0,-23.9625,23.740000000000002,-30.456666666666663,30.34,0.0,1781.906,-0.28500000000000014,100.0,28.826999999999998,28.862000000000002,45.644,45.958,0.0,1.0,100.0,0.0,0.0,0.0,0.0,3194.666666666667,3001.0,4309.857142857143,4180.1,305.3785,305.13466666666665,314.493,314.44675,22.092,20.6922,22.084666666666667,21.5771,314.999998,314.999998,324.999988,324.999988,99.55957142857143,99.50766666666667,99.56914285714285,99.5489,0.09400000000000008,-0.05449999999999999,-0.10516666666666663,0.11299999999999999,-0.06499999999999773,-0.03166666666666629,1.5065,1.496,39.075,30.3265,39.028999999999996,35.857,55.967,35.841,60.0875,53.29,53.891,34.8985,58.6205,51.571,53.022999999999996,34.4005,58.471000000000004,50.94566666666667,-0.1056666666666668,-0.0625,0.10794000000000001,0.10393500000000001,0.0,219.15,219.13,215.79666666666668,215.79666666666668,0.0,0.0
34,0.0,1.0,0.0,1.0,1.0,0.0,0.0,1.0,0.0,100.0,1.0,1.1856,26.0,0.0,0.0,0.0,59.999996,0.0,26.0,26.0,26.0,26.0,-0.01837500000000003,0.24819999999999998,-0.043300000000000005,290.817,-2.6505,-2.620375,-1.6575000000000002,-1.5876666666666668,-160.32999999999998,215.79250000000002,190.227125,0.0,0.0,0.0,0.0,0.06866666666666667,-5.498166666666667,-5.498166666666667,-0.6127,-0.7673333333333334,-0.004125000000000156,-0.893,70.132,0.0151,-0.1905,-0.1039999999999992,100.0,1.0,1.0,216.2,0.0,0.0,0.0,0.0,0.0,0.0,0.0,9163.9,0.0,55.0,5.0,252.45,0.0,0.0,0.0,0.0,0.0,0.0,1.0,0.0,1.7040000000000006,1.7040000000000006,0.0,0.0,0.0,55.0,616.79921,10000.0,85.000001,85.000001,85.000001,85.000001,395.0,0.0,0.0,0.0,1.0,166.665,51.926,51.926,45.746,45.746,34.0,-23.34,23.112000000000002,-29.699999999999996,29.395,0.0,1781.857,-0.3000000000000007,100.0,28.565,28.496000000000002,45.539,46.021,0.0,1.0,100.0,0.0,0.0,0.0,0.0,3205.333333333333,3023.4,4126.0,4142.2,305.2665,305.14366666666666,314.989,314.50125,22.10075,20.6975,22.094444444444445,21.5859,314.999998,314.999998,324.999988,324.999988,99.55958571428572,99.50768333333333,99.56928571428571,99.54902857142856,0.10024999999999995,-0.056499999999999995,-0.10716666666666663,0.11283333333333334,-0.03833333333332689,-0.060000000000002274,1.5314999999999999,1.5340000000000003,39.129999999999995,30.3595,39.09,35.911500000000004,55.955,35.8755,60.12,53.348,53.879000000000005,34.9305,58.650999999999996,51.627,53.01,34.4315,58.4985,51.0,-0.11299999999999999,-0.06050000000000022,0.10595500000000001,0.108645,0.0,219.485,219.5,216.2,216.2,0.0,0.0
35,0.0,1.0,0.0,1.0,1.0,0.0,0.0,1.0,0.0,100.0,1.0,1.1856,26.0,0.0,0.0,0.0,59.999996,0.0,26.0,26.0,26.0,26.0,-0.010874999999999968,0.24409999999999998,-0.07125000000000001,290.894,-2.7129000000000003,-2.6315,-1.635,-1.5484444444444443,-156.54,215.7825,190.1955,0.0,0.0,0.0,0.0,0.07086666666666666,-5.498166666666667,-5.498166666666667,-0.6516000000000001,-0.225,-0.0208750000000002,-1.869,70.266,0.020200000000000003,-0.19087500000000002,-0.15200000000000014,100.0,1.0,1.0,216.7,0.0,0.0,0.0,0.0,0.0,0.0,0.0,9185.1,0.0,55.0,5.0,252.93333333333334,1.0,0.0,0.0,0.0,0.0,0.0,1.0,0.0,1.7579999999999991,1.7579999999999991,0.0,0.0,1.0,55.0,616.79921,10000.0,85.000001,85.000001,85.000001,85.000001,395.0,0.0,0.0,0.0,1.0,166.665,51.682,51.682,45.227000000000004,45.227000000000004,34.0,-24.09,25.83,-28.380000000000003,27.087500000000002,0.0,1781.803,-0.2049999999999983,100.0,28.214,28.772,45.39,45.614000000000004,0.0,1.0,100.0,0.0,0.0,0.0,0.0,3200.166666666667,3247.2,4107.714285714285,3885.7,305.2745,304.41833333333335,314.98333333333335,315.14975,22.110375,20.7036,22.105333333333334,21.5955,314.999998,314.999998,324.999988,324.999988,99.55961428571429,99.50768333333333,99.56942857142857,99.5492,0.09650000000000003,-0.04399999999999993,-0.09099999999999997,0.12250000000000005,-0.03999999999999915,-0.036666666666668846,1.558,1.549,39.19,30.3975,39.158,35.972,55.939,35.916,60.1565,53.408500000000004,53.864999999999995,34.9685,58.6845,51.6855,52.994,34.4675,58.5285,51.057,-0.09666666666666668,-0.06499999999999995,0.106895,0.10367000000000001,0.0,219.905,219.91,216.7,216.7,0.0,0.0
