,ABS Active,ABS Enabled,AID Allow Tire Blankets,AID Auto Blip,AID Auto Clutch,AID Auto Shift,AID Fuel Rate,AID Ideal Line,AID Mech Damage,AID Stability,AID Tire Wear Rate,Air Density,Air Temp,Ballast,Best Lap Delta,Best Lap Time,Brake Bias,Brake Pos,Brake Temp FL,Brake Temp FR,Brake Temp RL,Brake Temp RR,CG Accel Lateral,CG Accel Longitudinal,CG Accel Vertical,CG Height,Camber FL,Camber FR,Camber RL,Camber RR,Car Coord X,Car Coord Y,Car Coord Z,Car Damage Front,Car Damage Left,Car Damage Rear,Car Damage Right,Car Pos Norm,Caster FL,Caster FR,Chassis Pitch Angle,Chassis Pitch Rate,Chassis Roll Angle,Chassis Roll Rate,Chassis Velocity X,Chassis Velocity Y,Chassis Velocity Z,Chassis Yaw Rate,Clutch Pos,DRS Active,DRS Available,Drive Train Speed,ERS Heat Charging,ERS Is Charging,ERS Max Energy,ERS Power Level,ERS Recovery Level,Engine Brake Setting,Engine Limiter,Engine RPM,Flags,Fuel Level,Gear,Ground Speed,HR Sample Clock,In Pit,KERS Charge,KERS Deployed Energy,KERS Input,KERS Max Energy,LR Sample Clock,Lap Invalidated,Lap Time,Lap Time2,Last Lap Time,Last Sector Time,MR Sample Clock,Max Fuel,Max Power,Max RPM,Max Sus Travel FL,Max Sus Travel FR,Max Sus Travel RL,Max Sus Travel RR,Max Torque,Max Turbo Boost,Num Tires Off Track,Penalties Enabled,Position,Raw Data Sample Rate,Ride Height FL,Ride Height FR,Ride Height RL,Ride Height RR,Road Temp,Self Align Torque FL,Self Align Torque FR,Self Align Torque RL,Self Align Torque RR,Session Lap Count,Session Time Left,Steering Angle,Surface Grip,Suspension Travel FL,Suspension Travel FR,Suspension Travel RL,Suspension Travel RR,TC Active,TC Enabled,Throttle Pos,Tire Dirt Level FL,Tire Dirt Level FR,Tire Dirt Level RL,Tire Dirt Level RR,Tire Load FL,Tire Load FR,Tire Load RL,Tire Load RR,Tire Loaded Radius FL,Tire Loaded Radius FR,Tire Loaded Radius RL,Tire Loaded Radius RR,Tire Pressure FL,Tire Pressure FR,Tire Pressure RL,Tire Pressure RR,Tire Radius FL,Tire Radius FR,Tire Radius RL,Tire Radius RR,Tire Rubber Grip FL,Tire Rubber Grip FR,Tire Rubber Grip RL,Tire Rubber Grip RR,Tire Slip Angle FL,Tire Slip Angle FR,Tire Slip Angle RL,Tire Slip Angle RR,Tire Slip Ratio FL,Tire Slip Ratio FR,Tire Slip Ratio RL,Tire Slip Ratio RR,Tire Temp Core FL,Tire Temp Core FR,Tire Temp Core RL,Tire Temp Core RR,Tire Temp Inner FL,Tire Temp Inner FR,Tire Temp Inner RL,Tire Temp Inner RR,Tire Temp Middle FL,Tire Temp Middle FR,Tire Temp Middle RL,Tire Temp Middle RR,Tire Temp Outer FL,Tire Temp Outer FR,Tire Temp Outer RL,Tire Temp Outer RR,Toe In FL,Toe In FR,Toe In RL,Toe In RR,Turbo Boost,Wheel Angular Speed FL,Wheel Angular Speed FR,Wheel Angular Speed RL,Wheel Angular Speed RR,Wind Direction,Wind Speed
0,0.0,0.0,0.0,1.0,1.0,0.0,0.0,1.0,0.0,100.0,1.0,1.1856,26.0,0.0,0.0,0.0,55.0,0.0,26.0,26.0,26.0,26.0,-0.06525000000000003,0.30700000000000016,0.0787,293.808,-2.7204,-2.4772499999999997,-1.52975,-1.5342,-275.56,215.945,190.987,0.0,0.0,0.0,0.0,0.0016666666666665941,-5.498166666666667,-5.498166666666667,-0.5438000000000001,1.7195,-0.008249999999999869,-0.6720000000000002,65.58500000000001,-0.0403,-0.2086,0.6579999999999995,100.0,1.0,1.0,202.48333333333335,0.0,0.0,0.0,0.0,0.0,0.0,0.0,8582.6,0.0,55.0,5.0,236.07666666666665,0.0,0.0,0.0,0.0,0.0,0.0,0.0,0.0,0.006000000000000227,0.006000000000000227,0.0,0.0,0.0,55.0,616.79921,10000.0,85.0,85.0,85.0,85.0,395.0,0.0,0.0,0.0,1.0,20.0,52.322,52.322,49.088,49.088,34.0,-27.105,24.462,-29.85,25.17,0.0,1782.828,0.7300000000000004,100.0,27.2,26.854,40.586,40.292,0.0,0.0,100.0,0.0,0.0,0.0,0.0,3072.4285714285716,3673.2,4093.0,4046.2,305.43,303.0056666666667,314.89075,314.77,21.7789,20.5121,21.7882,21.3274,314.99999,314.99999,324.99998,324.99998,99.55918571428572,99.50708333333333,99.56645714285715,99.54598571428572,0.0,-0.11066666666666669,-0.15059999999999996,0.06780000000000008,-0.03999999999999915,-0.051666666666669414,1.545,1.5695000000000001,37.117999999999995,29.200666666666663,37.176,34.2965,56.391999999999996,34.419,59.510999999999996,51.9585,54.308,33.6005,58.125,50.294,53.480000000000004,33.172,58.093,49.709,-0.020499999999999963,-0.11850000000000005,0.10751000000000001,0.10629000000000001,0.0,205.53,205.48000000000002,202.48333333333335,202.48333333333335,0.0,0.0
1,0.0,0.0,0.0,1.0,1.0,0.0,0.0,1.0,0.0,100.0,1.0,1.1856,26.0,0.0,0.0,0.0,55.000001,0.0,26.0,26.0,26.0,26.0,-0.12287499999999996,0.3184,0.25366,293.045,-2.6459,-2.808875,-1.53485,-1.3784,-272.21,215.9625,190.966875,0.0,0.0,0.0,0.0,0.0035999999999999366,-5.498166666666667,-5.498166666666667,-0.48760000000000003,-1.3365,-0.06312499999999988,-0.7770000000000001,65.742,-0.0522,-0.18945,1.2639999999999993,100.0,1.0,1.0,202.49666666666667,0.0,0.0,0.0,0.0,0.0,0.0,0.0,8583.1,0.0,55.0,5.0,236.64,1.0,0.0,0.0,0.0,0.0,0.0,0.0,0.0,0.05699999999999861,0.05699999999999861,0.0,0.0,1.0,55.0,616.79921,10000.0,85.000001,85.000001,85.000001,85.000001,395.0,0.0,0.0,0.0,1.0,333.33500000000004,54.214,54.214,48.203,48.203,34.0,-26.8825,17.014000000000003,-36.93,28.486666666666668,0.0,1782.776,0.8000000000000007,100.0,27.234,26.708,42.362,41.978,0.0,0.0,100.0,0.0,0.0,0.0,0.0,3080.714285714286,2524.3,4607.0,4933.0,305.544,306.87266666666665,313.546,312.464,21.788899999999998,20.5171,21.7992,21.3368,314.999998,314.999998,324.999988,324.999988,99.55918571428572,99.5071,99.5666,99.54612857142857,-0.0129999999999999,-0.1396666666666666,-0.17179999999999995,0.04159999999999986,-0.045000000000001705,-0.046666666666666856,1.3463333333333334,1.3845,37.181,29.232,37.245000000000005,34.3545,56.373999999999995,34.459,59.5595,52.025,54.292,33.6395,58.170500000000004,50.3615,53.463,33.209,58.1335,49.7755,-0.008999999999999897,-0.13600000000000012,0.095515,0.116025,0.0,205.99,205.87,202.49666666666667,202.49666666666667,0.0,0.0
2,0.0,0.0,0.0,1.0,1.0,0.0,0.0,1.0,0.0,100.0,1.0,1.1856,26.0,0.0,0.0,0.0,55.000001,0.0,26.0,26.0,26.0,26.0,-0.11162499999999997,0.29869999999999997,-0.1027,294.174,-2.6227,-2.7675,-1.51075,-1.6189,-268.66,215.97750000000002,190.947,0.0,0.0,0.0,0.0,0.005666666666666598,-5.498166666666667,-5.498166666666667,-0.5605,0.7035,-0.03224999999999989,1.6119999999999999,65.889,-0.0741,-0.25672500000000004,1.5939999999999994,100.0,1.0,1.0,203.72333333333333,0.0,0.0,0.0,0.0,0.0,0.0,0.0,8635.1,0.0,55.0,5.0,237.17000000000002,0.0,0.0,0.0,0.0,0.0,0.0,0.0,0.0,0.11100000000000065,0.11100000000000065,0.0,0.0,0.0,55.0,616.79921,10000.0,85.000001,85.000001,85.000001,85.000001,395.0,0.0,0.0,0.0,1.0,166.665,52.597,52.597,50.888,50.888,34.0,-30.6925,19.756,-27.96666666666666,19.173333333333332,0.0,1782.723,0.8150000000000013,100.0,28.051000000000002,26.872,41.955,41.03,0.0,0.0,100.0,0.0,0.0,0.0,0.0,3346.857142857143,2982.6,3607.25,3580.3,304.634,305.231,316.05625,316.08575,21.7997,20.5225,21.810299999999998,21.3459,314.999998,314.999998,324.999988,324.999988,99.5592,99.50711666666666,99.56674285714286,99.54627142857143,-0.03849999999999998,-0.15866666666666673,-0.22639999999999993,0.006799999999999917,-0.054999999999999716,-0.05333333333332746,1.6973333333333334,1.7870000000000001,37.248000000000005,29.265666666666668,37.315,34.412,56.361999999999995,34.5025,59.594,52.08,54.278999999999996,33.6775,58.2025,50.4105,53.45,33.2455,58.165,49.823499999999996,-0.009500000000000064,-0.14000000000000012,0.10613,0.10204500000000001,0.0,206.445,206.32,203.72333333333333,203.72333333333333,0.0,0.0
3,0.0,0.0,0.0,1.0,1.0,0.0,0.0,1.0,0.0,100.0,1.0,1.1856,26.0,0.0,0.0,0.0,55.000001,0.0,26.0,26.0,26.0,26.0,-0.14837500000000003,0.2982,0.1023,293.472,-2.6335,-2.701625,-1.4928,-1.5870000000000002,-265.69,215.9875,190.92925,0.0,0.0,0.0,0.0,0.007399999999999962,-5.498166666666667,-5.498166666666667,-0.504,0.52,-0.021250000000000213,-0.3799999999999999,66.025,-0.08940000000000001,-0.1888,1.2539999999999996,100.0,1.0,1.0,203.65,0.0,0.0,0.0,0.0,0.0,0.0,0.0,8632.0,0.0,55.0,5.0,237.66,1.0,0.0,0.0,0.0,0.0,0.0,0.0,0.0,0.1559999999999988,0.1559999999999988,0.0,0.0,1.0,55.0,616.79921,10000.0,85.000001,85.000001,85.000001,85.000001,395.0,0.0,0.0,0.0,1.0,166.665,53.65,53.65,48.096000000000004,48.096000000000004,34.0,-26.6775,18.136,-35.95333333333333,24.256666666666668,0.0,1782.679,0.9550000000000018,100.0,27.756,26.811,42.288,41.243,0.0,0.0,100.0,0.0,0.0,0.0,0.0,2948.714285714286,2863.1,4422.125,4255.8,305.876,305.71066666666667,314.0275,314.33225,21.8083,20.5271,21.8197,21.3539,314.999998,314.999998,324.999988,324.999988,99.5592,99.50713333333333,99.56688571428572,99.5464,-0.04299999999999993,-0.15999999999999992,-0.20799999999999996,0.0050000000000001155,-0.07166666666666544,-0.03999999999999915,1.4563333333333333,1.5110000000000001,37.302,29.294,37.373000000000005,34.462,56.347,34.5405,59.6285,52.135999999999996,54.265,33.7125,58.235,50.464,53.435,33.278999999999996,58.1945,49.8765,-0.0044999999999999485,-0.13649999999999984,0.10731500000000001,0.104675,0.0,206.91,206.785,203.65,203.65,0.0,0.0
4,0.0,0.0,0.0,1.0,1.0,0.0,0.0,1.0,0.0,100.0,1.0,1.1856,26.0,0.0,0.0,0.0,55.000001,0.0,26.0,26.0,26.0,26.0,-0.15312499999999996,0.2914000000000001,0.00454,293.671,-2.6619,-2.79075,-1.43415,-1.5998,-262.32,215.995,190.909625,0.0,0.0,0.0,0.0,0.009366666666666523,-5.498166666666667,-5.498166666666667,-0.5368,-0.8740000000000001,-0.0831249999999999,-1.495,66.172,-0.09770000000000001,-0.23425,1.6320000000000014,100.0,1.0,1.0,204.23000000000002,0.0,0.0,0.0,0.0,0.0,0.0,0.0,8656.6,0.0,55.0,5.0,238.19,0.0,0.0,0.0,0.0,0.0,0.0,0.0,0.0,0.20700000000000074,0.20700000000000074,0.0,0.0,0.0,55.0,616.79921,10000.0,85.000001,85.000001,85.000001,85.000001,395.0,0.0,0.0,0.0,1.0,333.33500000000004,53.329,53.329,48.706,48.706,34.0,-31.6375,18.082,-34.24333333333334,20.21333333333333,0.0,1782.628,1.0,100.0,27.453,26.608,42.863,41.461,0.0,0.0,100.0,0.0,0.0,0.0,0.0,3322.285714285714,2836.3,4205.625,3727.2,304.8765,305.6573333333333,314.62675,315.51225,21.8181,20.5321,21.8305,21.3629,314.999998,314.999998,324.999988,324.999988,99.5592,99.50715,99.56701428571428,99.54652857142857,-0.06349999999999989,-0.17866666666666675,-0.24060000000000004,-0.005199999999999982,-0.03999999999999915,-0.04833333333333201,1.5236666666666667,1.5905,37.363,29.325333333333333,37.441,34.518,56.332,34.582499999999996,59.670500000000004,52.1945,54.25,33.751,58.274,50.5205,53.42,33.316,58.231,49.9315,0.0030000000000001137,-0.15100000000000025,0.11036000000000001,0.10917,0.0,207.285,207.16500000000002,204.23000000000002,204.23000000000002,0.0,0.0
5,0.0,0.0,0.0,1.0,1.0,0.0,0.0,1.0,0.0,100.0,1.0,1.1856,26.0,0.0,0.0,0.0,55.000001,0.0,26.0,26.0,26.0,26.0,-0.15737499999999993,0.3025,-0.013540000000000002,293.747,-2.6718,-2.761125,-1.50525,-1.6324,-258.74,215.9975,190.88825,0.0,0.0,0.0,0.0,0.011433333333333295,-5.498166666666667,-5.498166666666667,-0.5362,0.41300000000000003,-0.08787499999999993,-0.6240000000000001,66.326,-0.11230000000000001,-0.2142,1.5879999999999992,100.0,1.0,1.0,204.7266666666667,0.0,0.0,0.0,0.0,0.0,0.0,0.0,8677.6,0.0,55.0,5.0,238.74,1.0,0.0,0.0,0.0,0.0,0.0,0.0,0.0,0.26099999999999923,0.26099999999999923,0.0,0.0,1.0,55.0,616.79921,10000.0,85.000001,85.000001,85.000001,85.000001,395.0,0.0,0.0,0.0,1.0,166.665,53.497,53.497,49.118,49.118,34.0,-30.6425,17.354,-35.06333333333333,21.64666666666667,0.0,1782.575,0.620000000000001,100.0,27.697,26.535,42.596000000000004,41.067,0.0,0.0,100.0,0.0,0.0,0.0,0.0,3252.4285714285716,2768.5,4176.5,3974.7,305.0495,305.89166666666665,314.73875,314.96775,21.8287,20.537399999999998,21.8417,21.3722,314.999998,314.999998,324.999988,324.999988,99.55921428571429,99.50718333333333,99.56717142857143,99.54668571428572,-0.05424999999999991,-0.17766666666666664,-0.247,-0.015799999999999925,-0.05333333333332746,-0.03166666666666629,1.5426666666666666,1.6035,37.429,29.359,37.510999999999996,34.576499999999996,56.319,34.626999999999995,59.711,52.254,54.238,33.792,58.312,50.5775,53.406,33.355000000000004,58.266,49.987,-0.01749999999999985,-0.12650000000000006,0.10644500000000001,0.11037500000000001,0.0,207.82999999999998,207.65,204.7266666666667,204.7266666666667,0.0,0.0
6,0.0,0.0,0.0,1.0,1.0,0.0,0.0,1.0,0.0,100.0,1.0,1.1856,26.0,0.0,0.0,0.0,55.000001,0.0,26.0,26.0,26.0,26.0,-0.17137499999999994,0.2841,0.0079,293.503,-2.6144,-2.8206249999999997,-1.5304,-1.5967,-255.76,215.9975,190.869875,0.0,0.0,0.0,0.0,0.013166666666666549,-5.498166666666667,-5.498166666666667,-0.5264,0.04899999999999993,-0.08725000000000005,0.7799999999999998,66.455,-0.11620000000000001,-0.20565,1.3200000000000003,100.0,1.0,1.0,205.05,0.0,0.0,0.0,0.0,0.0,0.0,0.0,8691.3,0.0,55.0,5.0,239.21,0.0,0.0,0.0,0.0,0.0,0.0,0.0,0.0,0.30600000000000094,0.30600000000000094,0.0,0.0,0.0,55.0,616.79921,10000.0,85.000001,85.000001,85.000001,85.000001,395.0,0.0,0.0,0.0,1.0,166.665,53.436,53.436,48.569,48.569,34.0,-28.79,18.805999999999997,-35.3,22.303333333333335,0.0,1782.529,0.5300000000000011,100.0,27.857,26.387,42.953,41.197,0.0,0.0,100.0,0.0,0.0,0.0,0.0,3136.142857142857,2870.4,4224.125,4070.7,305.18,305.7013333333333,314.51925,314.79375,21.8375,20.5419,21.8511,21.3802,314.999998,314.999998,324.999988,324.999988,99.55921428571429,99.5072,99.5673,99.5468,-0.044499999999999984,-0.16966666666666663,-0.2277999999999999,-0.009000000000000008,-0.046666666666666856,-0.07000000000000028,1.5056666666666667,1.5385,37.483999999999995,29.387,37.57,34.626,56.307,34.664,59.747,52.307,54.226,33.826,58.3455,50.628,53.394,33.3875,58.297,50.036500000000004,-0.028999999999999915,-0.12049999999999983,0.09830000000000001,0.11323500000000002,0.0,208.2,208.09,205.05,205.05,0.0,0.0
7,0.0,0.0,0.0,1.0,1.0,0.0,0.0,1.0,0.0,100.0,1.0,1.1856,26.0,0.0,0.0,0.0,55.000001,0.0,26.0,26.0,26.0,26.0,-0.13012499999999994,0.2874000000000001,0.0152,293.365,-2.5874,-2.80975,-1.4913,-1.6411,-252.36,215.9925,190.849375,0.0,0.0,0.0,0.0,0.01516666666666655,-5.498166666666667,-5.498166666666667,-0.536,0.008000000000000007,-0.07750000000000012,-0.24400000000000022,66.6,-0.1134,-0.22455,1.1500000000000004,100.0,1.0,1.0,205.53333333333333,0.0,0.0,0.0,0.0,0.0,0.0,0.0,8711.8,0.0,55.0,5.0,239.73000000000002,1.0,0.0,0.0,0.0,0.0,0.0,0.0,0.0,0.3569999999999993,0.3569999999999993,0.0,0.0,1.0,55.0,616.79921,10000.0,85.000001,85.000001,85.000001,85.000001,395.0,0.0,0.0,0.0,1.0,333.33500000000004,52.933,52.933,48.935,48.935,34.0,-29.04,19.572000000000003,-34.269999999999996,21.906666666666666,0.0,1782.477,0.18499999999999872,100.0,27.958,26.749,42.929,41.497,0.0,0.0,100.0,0.0,0.0,0.0,0.0,3305.142857142857,2862.8,4097.125,3937.8,304.7905,305.52433333333335,314.86125,314.99875,21.8475,20.547,21.8618,21.3892,314.999998,314.999998,324.999988,324.999988,99.55922857142858,99.50721666666666,99.56745714285714,99.54694285714285,-0.018750000000000044,-0.1523333333333332,-0.246,-0.011199999999999988,-0.05333333333332746,-0.05833333333333002,1.5223333333333335,1.5805,37.547,29.419,37.635999999999996,34.6825,56.294,34.706,59.787,52.366,54.214,33.8645,58.382999999999996,50.6845,53.381,33.4245,58.3315,50.092,-0.0645,-0.08899999999999997,0.10974500000000001,0.10734,0.0,208.635,208.54500000000002,205.53333333333333,205.53333333333333,0.0,0.0
8,0.0,0.0,0.0,1.0,1.0,0.0,0.0,1.0,0.0,100.0,1.0,1.1856,26.0,0.0,0.0,0.0,55.000001,0.0,26.0,26.0,26.0,26.0,-0.10887499999999994,0.2872000000000001,0.010400000000000001,293.503,-2.6656,-2.747625,-1.4679,-1.6315,-248.96,215.985,190.82875,0.0,0.0,0.0,0.0,0.017133333333333334,-5.498166666666667,-5.498166666666667,-0.5372,-0.45199999999999996,-0.06237499999999985,0.7130000000000001,66.74600000000001,-0.0995,-0.21807500000000002,0.5880000000000001,100.0,1.0,1.0,205.91333333333333,0.0,0.0,0.0,0.0,0.0,0.0,0.0,8727.9,0.0,55.0,5.0,240.25666666666666,0.0,0.0,0.0,0.0,0.0,0.0,0.0,0.0,0.40800000000000125,0.40800000000000125,0.0,0.0,0.0,55.0,616.79921,10000.0,85.000001,85.000001,85.000001,85.000001,395.0,0.0,0.0,0.0,1.0,333.33500000000004,53.574,53.574,48.325,48.325,34.0,-26.2275,20.682000000000002,-31.806666666666665,24.863333333333333,0.0,1782.427,0.05999999999999872,100.0,27.669,26.542,43.066,41.519999999999996,0.0,0.0,100.0,0.0,0.0,0.0,0.0,3018.857142857143,2969.8,4098.75,4090.4,305.6055,305.4533333333333,314.76275,314.686,21.8573,20.5522,21.8725,21.3982,314.999998,314.999998,324.999988,324.999988,99.55922857142858,99.50723333333333,99.5676,99.54708571428571,-0.0024999999999999467,-0.1256666666666666,-0.1986,0.0262,-0.04333333333332945,-0.04833333333333201,1.5216666666666665,1.5310000000000001,37.608000000000004,29.451,37.703,34.739,56.277,34.7465,59.826499999999996,52.4255,54.198,33.902,58.42,50.7415,53.364000000000004,33.46,58.3655,50.1475,-0.0754999999999999,-0.0674999999999999,0.10021000000000001,0.11872,0.0,209.065,209.01,205.91333333333333,205.91333333333333,0.0,0.0
9,0.0,0.0,0.0,1.0,1.0,0.0,0.0,1.0,0.0,100.0,1.0,1.1856,26.0,0.0,0.0,0.0,55.000001,0.0,26.0,26.0,26.0,26.0,-0.09599999999999997,0.29290000000000016,0.038700000000000005,293.259,-2.5885,-2.7672499999999998,-1.5241500000000001,-1.5830000000000002,-245.75,215.975,190.809,0.0,0.0,0.0,0.0,0.018999999999999906,-5.498166666666667,-5.498166666666667,-0.5382,0.5854999999999999,-0.06599999999999984,0.8660000000000001,66.88,-0.0847,-0.21385,0.4460000000000006,100.0,1.0,1.0,206.41,0.0,0.0,0.0,0.0,0.0,0.0,0.0,8749.0,0.0,55.0,5.0,240.73666666666668,1.0,0.0,0.0,0.0,0.0,0.0,0.0,0.0,0.4559999999999995,0.4559999999999995,0.0,0.0,1.0,55.0,616.79921,10000.0,85.000001,85.000001,85.000001,85.000001,395.0,0.0,0.0,0.0,1.0,166.665,52.689,52.689,49.132999999999996,49.132999999999996,34.0,-27.295,21.964,-31.376666666666665,24.29,0.0,1782.38,-0.14999999999999858,100.0,28.105,26.823999999999998,42.754,41.501,0.0,0.0,100.0,0.0,0.0,0.0,0.0,3282.285714285714,3006.9,4030.25,4072.3,304.742,305.277,315.027,314.81275,21.8667,20.5571,21.8824,21.4067,314.999998,314.999998,324.999988,324.999988,99.55922857142858,99.50723333333333,99.56772857142857,99.54721428571429,0.01949999999999985,-0.1076666666666668,-0.19420000000000004,0.03479999999999994,-0.041666666666671404,-0.041666666666671404,1.556,1.567,37.667,29.482,37.765,34.7915,56.263999999999996,34.7855,59.861,52.4795,54.185,33.938,58.452,50.7935,53.35,33.494,58.3955,50.198499999999996,-0.08899999999999997,-0.06199999999999983,0.11045,0.10599000000000001,0.0,209.49,209.435,206.41,206.41,0.0,0.0
10,0.0,0.0,0.0,1.0,1.0,0.0,0.0,1.0,0.0,100.0,1.0,1.1856,26.0,0.0,0.0,0.0,55.000001,0.0,26.0,26.0,26.0,26.0,-0.05799999999999994,0.2884,-0.020900000000000002,293.182,-2.6614,-2.75,-1.4978500000000001,-1.5612,-242.34,215.9625,190.78825,0.0,0.0,0.0,0.0,0.020966666666666578,-5.498166666666667,-5.498166666666667,-0.522,-0.5015000000000001,-0.033250000000000224,0.278,67.025,-0.0604,-0.20872500000000002,0.1299999999999999,100.0,1.0,1.0,206.68,0.0,0.0,0.0,0.0,0.0,0.0,0.0,8760.5,0.0,55.0,5.0,241.26333333333332,0.0,0.0,0.0,0.0,0.0,0.0,1.0,0.0,0.5069999999999979,0.5069999999999979,0.0,0.0,0.0,55.0,616.79921,10000.0,85.000001,85.000001,85.000001,85.000001,395.0,0.0,0.0,0.0,1.0,333.33500000000004,53.589,53.589,47.974000000000004,47.974000000000004,34.0,-25.107499999999998,20.406,-32.18,26.203333333333333,0.0,1782.326,-0.21000000000000085,100.0,27.764,26.924,43.044,42.179,0.0,0.0,100.0,0.0,0.0,0.0,0.0,3019.5714285714284,2795.1,4290.625,4201.8,305.741,305.80266666666665,314.3955,314.36475,21.8766,20.5622,21.8931,21.4159,314.999998,314.999998,324.999988,324.999988,99.55922857142858,99.50725,99.56788571428571,99.54735714285714,0.02024999999999988,-0.10199999999999987,-0.16359999999999997,0.050000000000000044,-0.03833333333332689,-0.04999999999999716,1.496,1.486,37.729,29.514,37.832,34.849000000000004,56.248000000000005,34.824,59.902,52.5415,54.17,33.9735,58.4905,50.8525,53.335,33.5285,58.4305,50.256,-0.08999999999999986,-0.05600000000000005,0.09344500000000001,0.114,0.0,209.925,209.885,206.68,206.68,0.0,0.0
11,0.0,0.0,0.0,1.0,1.0,0.0,0.0,1.0,0.0,100.0,1.0,1.1856,26.0,0.0,0.0,0.0,55.000001,0.0,26.0,26.0,26.0,26.0,-0.052875000000000005,0.2763,-0.06326000000000001,293.579,-2.6734,-2.727125,-1.5546,-1.5307,-238.92000000000002,215.9475,190.767375,0.0,0.0,0.0,0.0,0.022599999999999953,-5.498166666666667,-5.498166666666667,-0.5577,-0.07000000000000006,-0.0040000000000000036,0.5640000000000001,67.164,-0.0398,-0.2313,-0.019999999999999574,100.0,1.0,1.0,207.37,0.0,0.0,0.0,0.0,0.0,0.0,0.0,8789.7,0.0,55.0,5.0,241.76333333333332,1.0,0.0,0.0,0.0,0.0,0.0,1.0,0.0,0.5579999999999998,0.5579999999999998,0.0,0.0,1.0,55.0,616.79921,10000.0,85.000001,85.000001,85.000001,85.000001,395.0,0.0,0.0,0.0,1.0,333.33500000000004,53.04,53.04,49.24,49.24,34.0,-24.905,23.536,-27.15,24.47,0.0,1782.275,-0.5350000000000001,100.0,27.68,27.041,42.634,42.047,0.0,0.0,100.0,0.0,0.0,0.0,0.0,3062.0,3085.7,3787.5,3925.1000000000004,305.458,305.04633333333334,315.64875,315.1755,21.8863,20.5676,21.9036,21.4249,314.999998,314.999998,324.999988,324.999988,99.55924285714286,99.50726666666667,99.56802857142857,99.54751428571429,0.04300000000000015,-0.07733333333333325,-0.14939999999999998,0.07720000000000016,-0.03999999999999915,-0.04999999999999716,1.6213333333333333,1.6105,37.79,29.547333333333334,37.897999999999996,34.9055,56.232,34.864,59.936,52.5995,54.153999999999996,34.01,58.522,50.908500000000004,53.318,33.5635,58.4595,50.3105,-0.09650000000000003,-0.05250000000000021,0.11027500000000001,0.103535,0.0,210.32999999999998,210.32,207.37,207.37,0.0,0.0
12,0.0,0.0,0.0,1.0,1.0,0.0,0.0,1.0,0.0,100.0,1.0,1.1856,26.0,0.0,0.0,0.0,55.000001,0.0,26.0,26.0,26.0,26.0,-0.03225,0.28710000000000013,0.021980000000000003,293.076,-2.6973,-2.715125,-1.52645,-1.5793,-235.69,215.9325,190.746625,0.0,0.0,0.0,0.0,0.025466666666666526,-5.498166666666667,-5.498166666666667,-0.5452,0.266,-0.011499999999999844,0.7149999999999999,67.3,-0.0212,-0.207425,-0.14399999999999924,100.0,1.0,1.0,207.60666666666668,0.0,0.0,0.0,0.0,0.0,0.0,0.0,8799.7,0.0,55.0,5.0,242.25333333333333,0.0,0.0,0.0,0.0,0.0,0.0,1.0,0.0,0.6059999999999981,0.6059999999999981,0.0,0.0,0.0,55.0,616.79921,10000.0,85.000001,85.000001,85.000001,85.000001,395.0,0.0,0.0,0.0,1.0,333.33500000000004,52.917,52.917,48.157,48.157,34.0,-25.855,23.274,-29.369999999999997,29.096666666666668,0.0,1782.227,0.38500000000000156,100.0,27.607,27.184,42.573,42.012,0.0,0.0,100.0,0.0,0.0,0.0,0.0,3089.5714285714284,3137.2,4172.25,4196.2,305.358,304.9,314.6675,314.4995,21.8955,20.5726,21.9135,21.4334,314.999998,314.999998,324.999988,324.999988,99.55925714285715,99.50726666666667,99.56815714285715,99.54764285714286,0.03224999999999989,-0.09133333333333327,-0.12339999999999995,0.1060000000000001,-0.03166666666666629,-0.060000000000002274,1.5136666666666665,1.5245,37.847,29.579,37.96,34.959,56.218,34.9005,59.971000000000004,52.655,54.141,34.044,58.555,50.962,53.304,33.596000000000004,58.4895,50.363,-0.06149999999999989,-0.08800000000000008,0.11080000000000001,0.10398500000000001,0.0,210.755,210.76999999999998,207.60666666666668,207.60666666666668,0.0,0.0
13,0.0,0.0,0.0,1.0,1.0,0.0,0.0,1.0,0.0,100.0,1.0,1.1856,26.0,0.0,0.0,0.0,55.000001,0.0,26.0,26.0,26.0,26.0,0.00550000000000006,0.2734000000000001,0.04388,292.694,-2.6635,-2.7199999999999998,-1.5575,-1.5670000000000002,-232.05,215.91500000000002,190.723625,0.0,0.0,0.0,0.0,0.026966666666666583,-5.498166666666667,-5.498166666666667,-0.5391,-0.123,-0.013374999999999915,1.199,67.451,-0.012100000000000001,-0.21557500000000002,-0.21799999999999908,100.0,1.0,1.0,208.00666666666666,0.0,0.0,0.0,0.0,0.0,0.0,0.0,8816.6,0.0,55.0,5.0,242.79333333333335,1.0,0.0,0.0,0.0,0.0,0.0,1.0,0.0,0.6600000000000001,0.6600000000000001,0.0,0.0,1.0,55.0,616.79921,10000.0,85.000001,85.000001,85.000001,85.000001,395.0,0.0,0.0,0.0,1.0,166.665,52.612,52.612,48.019,48.019,34.0,-23.19,25.066,-29.363333333333337,30.88,0.0,1782.176,-0.34499999999999886,100.0,27.997,27.411,42.891999999999996,42.553,0.0,0.0,100.0,0.0,0.0,0.0,0.0,3098.0,3105.4,4152.75,4311.3,305.3185,304.998,314.67525,314.2165,21.9059,20.5784,21.9248,21.4432,314.999998,314.999998,324.999988,324.999988,99.55925714285715,99.50728333333333,99.56831428571428,99.54778571428571,0.08975,-0.04299999999999993,-0.11539999999999995,0.12080000000000002,-0.045000000000001705,-0.04833333333333201,1.4943333333333333,1.484,37.912,29.615000000000002,38.03,35.019999999999996,56.204,34.942,60.0115,52.72,54.128,34.082,58.5925,51.0245,53.29,33.6325,58.524,50.4245,-0.10599999999999987,-0.04400000000000004,0.10553000000000001,0.11317,0.0,211.23000000000002,211.215,208.00666666666666,208.00666666666666,0.0,0.0
14,0.0,0.0,0.0,1.0,1.0,0.0,0.0,1.0,0.0,100.0,1.0,1.1856,26.0,0.0,0.0,0.0,55.000001,0.0,26.0,26.0,26.0,26.0,0.023125000000000062,0.2804,-0.0111,292.892,-2.7033,-2.70725,-1.5692,-1.5446,-228.61,215.9,190.70225,0.0,0.0,0.0,0.0,0.028966666666666585,-5.498166666666667,-5.498166666666667,-0.5497000000000001,-0.125,0.01587499999999986,-0.35599999999999987,67.59,-0.0031000000000000003,-0.22710000000000002,-0.21799999999999908,100.0,1.0,1.0,208.51666666666665,0.0,0.0,0.0,0.0,0.0,0.0,0.0,8838.2,0.0,55.0,5.0,243.29666666666668,0.0,0.0,0.0,0.0,0.0,0.0,1.0,0.0,0.7109999999999985,0.7109999999999985,0.0,0.0,0.0,55.0,616.79921,10000.0,85.000001,85.000001,85.000001,85.000001,395.0,0.0,0.0,0.0,1.0,166.665,52.673,52.673,48.218,48.218,34.0,-23.745,24.538,-28.1,28.423333333333332,0.0,1782.124,-0.36499999999999844,100.0,27.698,27.736,42.709,42.85,0.0,0.0,100.0,0.0,0.0,0.0,0.0,3096.285714285714,3064.6,4023.25,4125.3,305.5395,304.883,315.10725,314.58825,21.9155,20.5838,21.9354,21.4524,314.999998,314.999998,324.999988,324.999988,99.55927142857144,99.50728333333333,99.56845714285714,99.54792857142857,0.07925000000000004,-0.050999999999999934,-0.1167999999999999,0.11280000000000001,-0.06333333333333258,-0.04999999999999716,1.5506666666666666,1.5435,37.972,29.648666666666664,38.096000000000004,35.0775,56.191,34.9805,60.0475,52.7805,54.114999999999995,34.1175,58.6255,51.082499999999996,53.275999999999996,33.6665,58.554,50.481,-0.10499999999999998,-0.04999999999999982,0.108215,0.10954000000000001,0.0,211.66,211.66500000000002,208.51666666666665,208.51666666666665,0.0,0.0
15,0.0,0.0,0.0,1.0,1.0,0.0,0.0,1.0,0.0,100.0,1.0,1.1856,26.0,0.0,0.0,0.0,55.000001,0.0,26.0,26.0,26.0,26.0,0.03675000000000006,0.28469999999999995,-0.037360000000000004,292.847,-2.7031,-2.67525,-1.5871,-1.554,-225.36,215.885,190.681875,0.0,0.0,0.0,0.0,0.03083333333333338,-5.498166666666667,-5.498166666666667,-0.5399,0.17899999999999994,0.03424999999999989,-0.8839999999999999,67.72200000000001,0.0067,-0.20947500000000002,-0.266,100.0,1.0,1.0,208.89,0.0,0.0,0.0,0.0,0.0,0.0,0.0,8854.1,0.0,55.0,5.0,243.77333333333334,1.0,0.0,0.0,0.0,0.0,0.0,1.0,0.0,0.7590000000000003,0.7590000000000003,0.0,0.0,1.0,55.0,616.79921,10000.0,85.000001,85.000001,85.000001,85.000001,395.0,0.0,0.0,0.0,1.0,166.665,52.887,52.887,48.172,48.172,34.0,-22.425,24.002000000000002,-28.266666666666666,30.02,0.0,1782.077,-0.3150000000000013,100.0,27.745,27.793,42.546,42.982,0.0,0.0,100.0,0.0,0.0,0.0,0.0,2990.0,3014.0,4065.0,4245.0,305.8515,305.02733333333333,315.0085,314.246,21.924599999999998,20.5889,21.9453,21.461,314.999998,314.999998,324.999988,324.999988,99.55928571428572,99.5073,99.56858571428572,99.54807142857143,0.08850000000000025,-0.046333333333333115,-0.10620000000000007,0.119,-0.060000000000002274,-0.03499999999999659,1.5263333333333335,1.5305,38.028999999999996,29.680999999999997,38.158,35.1315,56.178,35.0165,60.08,52.8375,54.102999999999994,34.150999999999996,58.656,51.1375,53.263,33.698499999999996,58.5815,50.5355,-0.10349999999999993,-0.0495000000000001,0.10316,0.106505,0.0,212.07999999999998,212.07,208.89,208.89,0.0,0.0
16,0.0,0.0,0.0,1.0,1.0,0.0,0.0,1.0,0.0,100.0,1.0,1.1856,26.0,0.0,0.0,0.0,55.000001,0.0,26.0,26.0,26.0,26.0,0.023374999999999924,0.2672000000000001,-0.02096,292.801,-2.76,-2.62825,-1.5599500000000002,-1.5535999999999999,-222.11,215.87,190.661,0.0,0.0,0.0,0.0,0.03273333333333339,-5.498166666666667,-5.498166666666667,-0.5602,-0.611,0.020375000000000032,-1.1909999999999998,67.85300000000001,0.013800000000000002,-0.226075,-0.1899999999999995,100.0,1.0,1.0,209.30666666666667,0.0,0.0,0.0,0.0,0.0,0.0,0.0,8871.8,0.0,55.0,5.0,244.24666666666667,0.0,0.0,0.0,0.0,0.0,0.0,1.0,0.0,0.8069999999999986,0.8069999999999986,0.0,0.0,0.0,55.0,616.79921,10000.0,85.000001,85.000001,85.000001,85.000001,395.0,0.0,0.0,0.0,1.0,166.665,52.612,52.612,47.928,47.928,34.0,-24.87,24.562,-27.356666666666662,28.68,0.0,1782.028,-0.21000000000000085,100.0,27.437,27.811,42.861000000000004,43.011,0.0,0.0,100.0,0.0,0.0,0.0,0.0,3190.0,3131.4,4031.125,4056.4,305.4,304.75966666666665,315.077,314.711,21.9334,20.5941,21.9553,21.4697,314.999998,314.999998,324.999988,324.999988,99.55928571428572,99.5073,99.56872857142857,99.54821428571428,0.08099999999999996,-0.04600000000000004,-0.10220000000000007,0.125,-0.03833333333332689,-0.045000000000001705,1.5473333333333334,1.5405,38.084,29.713,38.221000000000004,35.1855,56.163,35.0525,60.1155,52.8935,54.089,34.1845,58.689,51.1915,53.248000000000005,33.7305,58.6115,50.588,-0.09549999999999992,-0.06150000000000011,0.104675,0.11098000000000001,0.0,212.45,212.45499999999998,209.30666666666667,209.30666666666667,0.0,0.0
17,0.0,0.0,0.0,1.0,1.0,0.0,0.0,1.0,0.0,100.0,1.0,1.1856,26.0,0.0,0.0,0.0,55.000001,0.0,26.0,26.0,26.0,26.0,-0.0017500000000000293,0.29600000000000004,-0.00318,292.48,-2.7108,-2.620875,-1.59335,-1.5223,-218.64,215.85500000000002,190.6385,0.0,0.0,0.0,0.0,0.03476666666666661,-5.498166666666667,-5.498166666666667,-0.5485,0.368,-0.003874999999999851,0.6160000000000001,67.993,0.0119,-0.20600000000000002,-0.1200000000000001,100.0,1.0,1.0,209.67333333333335,0.0,0.0,0.0,0.0,0.0,0.0,0.0,8887.2,0.0,55.0,5.0,244.74666666666667,1.0,0.0,0.0,0.0,0.0,0.0,1.0,0.0,0.8580000000000005,0.8580000000000005,0.0,0.0,1.0,55.0,616.79921,10000.0,85.000001,85.000001,85.000001,85.000001,395.0,0.0,0.0,0.0,1.0,166.665,52.475,52.475,47.684,47.684,34.0,-23.4675,24.332,-29.583333333333336,30.51,0.0,1781.977,-0.23999999999999844,100.0,28.085,27.825,42.807,42.859,0.0,0.0,100.0,0.0,0.0,0.0,0.0,3110.857142857143,3100.4,4309.125,4292.3,305.361,305.041,314.42675,314.32025,21.9431,20.5997,21.9659,21.4788,314.999998,314.999998,324.999988,324.999988,99.5593,99.50731666666667,99.56887142857143,99.54835714285714,0.09450000000000003,-0.038000000000000034,-0.09060000000000001,0.13259999999999983,-0.045000000000001705,-0.061666666666667425,1.528,1.5175,38.144,29.747999999999998,38.287,35.2425,56.150999999999996,35.092,60.1505,52.953,54.078,34.221000000000004,58.722,51.249,53.236000000000004,33.7655,58.641,50.644,-0.09699999999999998,-0.059499999999999886,0.10544500000000001,0.11053,0.0,212.91500000000002,212.91500000000002,209.67333333333335,209.67333333333335,0.0,0.0
18,0.0,0.0,0.0,1.0,1.0,0.0,0.0,1.0,0.0,100.0,1.0,1.1856,26.0,0.0,0.0,0.0,55.000001,0.0,26.0,26.0,26.0,26.0,-0.007000000000000006,0.28510000000000013,-0.00834,292.389,-2.7377,-2.599875,-1.605,-1.4727999999999999,-215.38,215.84,190.617375,0.0,0.0,0.0,0.0,0.036666666666666514,-5.498166666666667,-5.498166666666667,-0.5609000000000001,-0.44100000000000006,0.013500000000000068,0.9649999999999999,68.123,0.0086,-0.22332500000000002,-0.14399999999999924,100.0,1.0,1.0,210.09333333333333,0.0,0.0,0.0,0.0,0.0,0.0,0.0,8905.0,0.0,55.0,5.0,245.21333333333334,0.0,0.0,0.0,0.0,0.0,0.0,1.0,0.0,0.9059999999999988,0.9059999999999988,0.0,0.0,0.0,55.0,616.79921,10000.0,85.000001,85.000001,85.000001,85.000001,395.0,0.0,0.0,0.0,1.0,333.33500000000004,52.216,52.216,47.638,47.638,34.0,-23.9425,26.266,-29.116666666666667,28.51666666666667,0.0,1781.929,-0.2749999999999986,100.0,27.939,27.732,43.121,43.147,0.0,0.0,100.0,0.0,0.0,0.0,0.0,3147.714285714286,3305.3,4108.375,4214.9,305.2925,304.453,314.862,314.48075,21.951999999999998,20.6048,21.9759,21.4876,314.999998,314.999998,324.999988,324.999988,99.55931428571428,99.50731666666667,99.56901428571429,99.54848571428572,0.09575000000000022,-0.03133333333333321,-0.10960000000000003,0.12080000000000002,-0.03833333333332689,-0.051666666666669414,1.532,1.534,38.2,29.78,38.349000000000004,35.297,56.138999999999996,35.1275,60.1855,53.01,54.065,34.254,58.7545,51.304,53.223,33.797,58.671,50.698,-0.09949999999999992,-0.05799999999999983,0.11468500000000001,0.10006000000000001,0.0,213.285,213.29000000000002,210.09333333333333,210.09333333333333,0.0,0.0
19,0.0,0.0,0.0,1.0,1.0,0.0,0.0,1.0,0.0,100.0,1.0,1.1856,26.0,0.0,0.0,0.0,55.000001,0.0,26.0,26.0,26.0,26.0,0.01737499999999992,0.2905,0.06774,291.946,-2.654,-2.69925,-1.5338500000000002,-1.462,-211.69,215.825,190.593375,0.0,0.0,0.0,0.0,0.038799999999999946,-5.498166666666667,-5.498166666666667,-0.5466,0.7464999999999999,0.018874999999999975,0.694,68.269,0.0097,-0.21005000000000001,-0.18399999999999928,100.0,1.0,1.0,210.48000000000002,0.0,0.0,0.0,0.0,0.0,0.0,0.0,8921.4,0.0,55.0,5.0,245.73666666666668,1.0,0.0,0.0,0.0,0.0,0.0,1.0,0.0,0.9600000000000009,0.9600000000000009,0.0,0.0,1.0,55.0,616.79921,10000.0,85.000001,85.000001,85.000001,85.000001,395.0,0.0,0.0,0.0,1.0,166.665,51.91,51.91,47.379,47.379,34.0,-22.697499999999998,25.426000000000002,-28.806666666666665,31.863333333333337,0.0,1781.875,-0.21499999999999986,100.0,28.525,28.282,43.03,43.257,0.0,0.0,100.0,0.0,0.0,0.0,0.0,3056.4285714285716,3145.2,4216.375,4524.9,305.4215,304.7203333333333,314.56575,313.7705,21.9623,20.6108,21.987,21.4973,314.999998,314.999998,324.999988,324.999988,99.55932857142857,99.50731666666667,99.56915714285714,99.54864285714285,0.09224999999999994,-0.04400000000000004,-0.10020000000000007,0.13440000000000007,-0.03833333333332689,-0.05333333333332746,1.4816666666666667,1.4835,38.263999999999996,29.817333333333334,38.419,35.3585,56.126999999999995,35.170500000000004,60.2225,53.074,54.054,34.2935,58.7885,51.3655,53.21,33.835,58.702,50.759,-0.09399999999999986,-0.0625,0.11365000000000001,0.10927500000000001,0.0,213.775,213.775,210.48000000000002,210.48000000000002,0.0,0.0
20,0.0,0.0,0.0,1.0,1.0,0.0,0.0,1.0,0.0,100.0,1.0,1.1856,26.0,0.0,0.0,0.0,55.000001,0.0,26.0,26.0,26.0,26.0,0.020625000000000115,0.2643,0.02216,292.343,-2.7486,-2.659125,-1.5376,-1.5866,-208.41,215.8125,190.572375,0.0,0.0,0.0,0.0,0.04069999999999996,-5.498166666666667,-5.498166666666667,-0.5568000000000001,-1.1355,0.014874999999999972,0.48099999999999987,68.398,0.0105,-0.2252,-0.10200000000000031,100.0,1.0,1.0,210.86,0.0,0.0,0.0,0.0,0.0,0.0,0.0,8937.6,0.0,55.0,5.0,246.20666666666665,0.0,0.0,0.0,0.0,0.0,0.0,0.0,0.0,1.0079999999999991,1.0079999999999991,0.0,0.0,0.0,55.0,616.79921,10000.0,85.000001,85.000001,85.000001,85.000001,395.0,0.0,0.0,0.0,1.0,166.665,52.673,52.673,47.119,47.119,34.0,-22.919999999999998,24.706,-27.613333333333337,31.25,0.0,1781.828,-0.14499999999999957,100.0,27.945,27.873,43.595,43.6,0.0,0.0,100.0,0.0,0.0,0.0,0.0,2992.4285714285716,3142.0,4109.125,4194.0,305.7955,304.926,314.7575,314.39175,21.971,20.6159,21.9972,21.5061,314.999998,314.999998,324.999988,324.999988,99.55932857142857,99.50731666666667,99.5693,99.54878571428571,0.0887500000000001,-0.046333333333333115,-0.09120000000000006,0.1372,-0.03166666666666629,-0.04999999999999716,1.48,1.475,38.319,29.849666666666664,38.482,35.413,56.111999999999995,35.206,60.259,53.132,54.04,34.326499999999996,58.823,51.421,53.195,33.8665,58.733000000000004,50.813,-0.08650000000000002,-0.06599999999999984,0.105785,0.112765,0.0,214.115,214.125,210.86,210.86,0.0,0.0
21,0.0,0.0,0.0,1.0,1.0,0.0,0.0,1.0,0.0,100.0,1.0,1.1856,26.0,0.0,0.0,0.0,55.000001,0.0,26.0,26.0,26.0,26.0,0.01550000000000007,0.28080000000000016,-0.04984,292.557,-2.7154,-2.66325,-1.60445,-1.5447000000000002,-204.92000000000002,215.8,190.54925,0.0,0.0,0.0,0.0,0.0427333333333334,-5.498166666666667,-5.498166666666667,-0.5740000000000001,0.473,-0.004249999999999865,-0.8690000000000002,68.531,0.0057,-0.2194,-0.04999999999999982,100.0,1.0,1.0,211.44333333333333,0.0,0.0,0.0,0.0,0.0,0.0,0.0,8962.3,0.0,55.0,5.0,246.68333333333334,1.0,0.0,0.0,0.0,0.0,0.0,0.0,0.0,1.059000000000001,1.059000000000001,0.0,0.0,1.0,55.0,616.79921,10000.0,85.000001,85.000001,85.000001,85.000001,395.0,0.0,0.0,0.0,1.0,166.665,52.292,52.292,47.974000000000004,47.974000000000004,34.0,-24.595,24.310000000000002,-28.96333333333333,28.02,0.0,1781.776,-0.21000000000000085,100.0,28.045,28.078,42.916,43.195,0.0,0.0,100.0,0.0,0.0,0.0,0.0,3207.5714285714284,3073.5,4125.25,4025.6000000000004,305.2525,304.94666666666666,314.94275,314.9125,21.9806,20.6215,22.0076,21.5152,314.999998,314.999998,324.999988,324.999988,99.55934285714285,99.50733333333334,99.56944285714286,99.54892857142858,0.0847500000000001,-0.04733333333333323,-0.11039999999999994,0.12379999999999991,-0.04999999999999716,-0.04333333333332945,1.5743333333333334,1.561,38.379000000000005,29.884333333333334,38.547,35.47,56.099000000000004,35.2455,60.2915,53.1885,54.028,34.363,58.853,51.4755,53.182,33.9015,58.76,50.8665,-0.09399999999999986,-0.05900000000000016,0.10663500000000001,0.10877,0.0,214.585,214.575,211.44333333333333,211.44333333333333,0.0,0.0
22,0.0,0.0,0.0,1.0,1.0,0.0,0.0,1.0,0.0,100.0,1.0,1.1856,26.0,0.0,0.0,0.0,55.000001,0.0,26.0,26.0,26.0,26.0,0.019000000000000128,0.27980000000000005,-0.00118,292.252,-2.6535,-2.7112499999999997,-1.60135,-1.5298,-201.63,215.7875,190.526875,0.0,0.0,0.0,0.0,0.0446333333333333,-5.498166666666667,-5.498166666666667,-0.5572,-0.04049999999999998,0.006750000000000034,-0.5230000000000001,68.662,0.0047,-0.20467500000000002,-0.09200000000000053,100.0,1.0,1.0,211.66333333333333,0.0,0.0,0.0,0.0,0.0,0.0,0.0,8971.6,0.0,55.0,5.0,247.15333333333334,0.0,0.0,0.0,0.0,0.0,0.0,0.0,0.0,1.1069999999999993,1.1069999999999993,0.0,0.0,0.0,55.0,616.79921,10000.0,85.000001,85.000001,85.000001,85.000001,395.0,0.0,0.0,0.0,1.0,333.33500000000004,52.612,52.612,47.134,47.134,34.0,-22.395,23.63,-30.756666666666664,29.97,0.0,1781.728,-0.25,100.0,28.062,28.175,43.215,43.441,0.0,0.0,100.0,0.0,0.0,0.0,0.0,3000.5714285714284,2970.3,4293.625,4327.2,305.796,305.17033333333336,314.496,314.1445,21.9896,20.6267,22.0176,21.5239,314.999998,314.999998,324.999988,324.999988,99.55935714285714,99.50733333333334,99.56958571428571,99.54907142857142,0.08250000000000002,-0.05400000000000005,-0.10920000000000007,0.11060000000000003,-0.04999999999999716,-0.04333333333332945,1.4876666666666667,1.4985,38.435,29.917,38.61,35.5245,56.087,35.282,60.327,53.246,54.016,34.3965,58.885999999999996,51.531,53.17,33.934,58.7905,50.920500000000004,-0.09149999999999991,-0.05900000000000016,0.10288000000000001,0.10493000000000001,0.0,214.99,214.95499999999998,211.66333333333333,211.66333333333333,0.0,0.0
23,0.0,0.0,0.0,1.0,1.0,0.0,0.0,1.0,0.0,100.0,1.0,1.1856,26.0,0.0,0.0,0.0,55.000001,0.0,26.0,26.0,26.0,26.0,-0.011375000000000024,0.2521,-0.02336,292.191,-2.6791,-2.6645000000000003,-1.6514,-1.5066000000000002,-198.12,215.7725,190.503375,0.0,0.0,0.0,0.0,0.04666666666666652,-5.498166666666667,-5.498166666666667,-0.5772,-0.13749999999999996,0.007624999999999993,0.661,68.795,0.004,-0.230575,-0.05399999999999938,100.0,1.0,1.0,212.20666666666668,0.0,0.0,0.0,0.0,0.0,0.0,0.0,8994.7,0.0,55.0,5.0,247.63333333333333,1.0,0.0,0.0,0.0,0.0,0.0,0.0,0.0,1.1580000000000013,1.1580000000000013,0.0,0.0,1.0,55.0,616.79921,10000.0,85.000001,85.000001,85.000001,85.000001,395.0,0.0,0.0,0.0,1.0,333.33500000000004,51.743,51.743,48.08,48.08,34.0,-24.0925,25.456,-28.586666666666666,27.44666666666667,0.0,1781.676,-0.28500000000000014,100.0,28.509,28.14,43.352000000000004,43.525999999999996,0.0,0.0,100.0,0.0,0.0,0.0,0.0,3212.4285714285716,3193.6,4003.375,4062.1000000000004,304.9935,304.734,315.20225,314.89725,21.9992,20.6324,22.0282,21.5333,314.999998,314.999998,324.999988,324.999988,99.55937142857142,99.50735,99.56972857142857,99.54921428571429,0.09600000000000009,-0.04266666666666663,-0.10739999999999994,0.11759999999999993,-0.041666666666671404,-0.05833333333333002,1.5426666666666666,1.5545,38.495000000000005,29.952333333333335,38.676,35.583,56.075,35.322,60.3625,53.306,54.004000000000005,34.4335,58.919,51.589,53.157,33.969,58.82,50.977000000000004,-0.09999999999999987,-0.05900000000000016,0.10598,0.10051500000000001,0.0,215.37,215.37,212.20666666666668,212.20666666666668,0.0,0.0
24,0.0,0.0,0.0,1.0,1.0,0.0,0.0,1.0,0.0,100.0,1.0,1.1856,26.0,0.0,0.0,0.0,55.000001,0.0,26.0,26.0,26.0,26.0,0.011125000000000052,0.2753000000000001,-0.04334,292.404,-2.7047,-2.6715,-1.5729000000000002,-1.5346000000000002,-194.82,215.76,190.48075,0.0,0.0,0.0,0.0,0.04859999999999998,-5.498166666666667,-5.498166666666667,-0.5823,-0.5555000000000001,0.018124999999999947,1.16,68.923,0.0059,-0.218775,-0.14399999999999924,100.0,1.0,1.0,212.48333333333335,0.0,0.0,0.0,0.0,0.0,0.0,0.0,9006.4,0.0,55.0,5.0,248.09333333333336,0.0,0.0,0.0,0.0,0.0,0.0,0.0,0.0,1.2059999999999995,1.2059999999999995,0.0,0.0,0.0,55.0,616.79921,10000.0,85.000001,85.000001,85.000001,85.000001,395.0,0.0,0.0,0.0,1.0,333.33500000000004,52.856,52.856,47.211,47.211,34.0,-21.4625,24.172,-28.923333333333332,29.990000000000002,0.0,1781.628,-0.2749999999999986,100.0,28.17,27.871,43.383,43.481,0.0,0.0,100.0,0.0,0.0,0.0,0.0,2898.285714285714,3056.7,4232.125,4210.8,305.994,305.19966666666664,314.5265,314.4955,22.0081,20.6375,22.0381,21.542,314.999998,314.999998,324.999988,324.999988,99.55938571428571,99.50735,99.56985714285715,99.54935714285715,0.09799999999999986,-0.04299999999999993,-0.09120000000000006,0.12859999999999983,-0.03833333333332689,-0.04999999999999716,1.5110000000000001,1.4905,38.55,29.984333333333332,38.738,35.6375,56.061,35.357,60.3965,53.3615,53.991,34.466,58.9505,51.6425,53.143,34.0005,58.8485,51.0295,-0.10399999999999987,-0.06050000000000022,0.09624500000000001,0.108435,0.0,215.755,215.765,212.48333333333335,212.48333333333335,0.0,0.0
25,0.0,0.0,0.0,1.0,1.0,0.0,0.0,1.0,0.0,100.0,1.0,1.1856,26.0,0.0,0.0,0.0,55.000001,0.0,26.0,26.0,26.0,26.0,0.019625000000000004,0.2670000000000001,-0.0398,292.221,-2.7736,-2.630625,-1.58825,-1.5373999999999999,-191.3,215.7475,190.455375,0.0,0.0,0.0,0.0,0.05063333333333331,-5.498166666666667,-5.498166666666667,-0.6096,0.08950000000000002,0.01924999999999999,-1.0680000000000005,69.054,0.0059,-0.22395,-0.12799999999999923,100.0,1.0,1.0,213.0366666666667,0.0,0.0,0.0,0.0,0.0,0.0,0.0,9029.8,0.0,55.0,5.0,248.56666666666666,1.0,0.0,0.0,0.0,0.0,0.0,0.0,0.0,1.256999999999998,1.256999999999998,0.0,0.0,1.0,55.0,616.79921,10000.0,85.000001,85.000001,85.000001,85.000001,395.0,0.0,0.0,0.0,1.0,333.33500000000004,51.697,51.697,47.943,47.943,34.0,-26.0125,25.926000000000002,-27.479999999999997,28.19,0.0,1781.577,-0.3049999999999997,100.0,28.016,28.320999999999998,43.053,43.334,0.0,0.0,100.0,0.0,0.0,0.0,0.0,3338.5714285714284,3268.0,3968.875,4062.1000000000004,304.9315,304.351,315.28,314.79125,22.0175,20.6431,22.0485,21.551099999999998,314.999998,314.999998,324.999988,324.999988,99.55938571428571,99.50735,99.57001428571428,99.5495,0.09100000000000019,-0.044333333333333114,-0.10939999999999994,0.12080000000000002,-0.06333333333333258,-0.045000000000001705,1.5653333333333332,1.5545,38.608999999999995,30.019666666666666,38.803,35.6945,56.047,35.3965,60.429,53.419,53.977999999999994,34.5025,58.981,51.698,53.129000000000005,34.0355,58.876,51.084,-0.10299999999999998,-0.05650000000000022,0.11205500000000002,0.11488000000000001,0.0,216.195,216.19,213.0366666666667,213.0366666666667,0.0,0.0
26,0.0,0.0,0.0,1.0,1.0,0.0,0.0,1.0,0.0,100.0,1.0,1.1856,26.0,0.0,0.0,0.0,55.000001,0.0,26.0,26.0,26.0,26.0,0.015000000000000124,0.27080000000000015,0.06828,291.138,-2.7262,-2.70775,-1.5830000000000002,-1.5343,-187.57,215.735,190.42825,0.0,0.0,0.0,0.0,0.0528333333333334,-5.498166666666667,-5.498166666666667,-0.5700000000000001,0.34850000000000003,0.0021249999999999325,-0.5899999999999999,69.199,0.0099,-0.200125,-0.1899999999999995,100.0,1.0,1.0,213.17333333333335,0.0,0.0,0.0,0.0,0.0,0.0,0.0,9035.7,0.0,55.0,5.0,249.08666666666664,0.0,0.0,0.0,0.0,0.0,0.0,0.0,0.0,1.311,1.311,0.0,0.0,0.0,55.0,616.79921,10000.0,85.000001,85.000001,85.000001,85.000001,395.0,0.0,0.0,0.0,1.0,166.665,51.62,51.62,46.112,46.112,34.0,-23.69,24.172,-32.50666666666666,33.163333333333334,0.0,1781.524,-0.3299999999999983,100.0,28.815,28.826999999999998,43.737,43.958,0.0,0.0,100.0,0.0,0.0,0.0,0.0,3178.857142857143,3008.1,4578.125,4567.3,305.2295,305.0756666666667,313.76525,313.58075,22.0277,20.6493,22.0598,21.5611,314.999998,314.999998,324.999988,324.999988,99.55941428571428,99.50736666666667,99.57017142857143,99.54965714285714,0.10550000000000015,-0.04833333333333312,-0.09420000000000006,0.12220000000000009,-0.054999999999999716,-0.041666666666671404,1.4153333333333333,1.409,38.673,30.057666666666666,38.873999999999995,35.7565,56.037,35.439499999999995,60.47,53.4845,53.968,34.542,59.019,51.760999999999996,53.117000000000004,34.073499999999996,58.9105,51.1455,-0.11499999999999999,-0.05600000000000005,0.09929500000000001,0.10867500000000001,0.0,216.66500000000002,216.65,213.17333333333335,213.17333333333335,0.0,0.0
27,0.0,0.0,0.0,1.0,1.0,0.0,0.0,1.0,0.0,100.0,1.0,1.1856,26.0,0.0,0.0,0.0,55.000001,0.0,26.0,26.0,26.0,26.0,0.016124999999999945,0.2582,-0.04678,291.733,-2.6878,-2.6727499999999997,-1.62825,-1.6031,-184.45,215.725,190.406625,0.0,0.0,0.0,0.0,0.05463333333333331,-5.498166666666667,-5.498166666666667,-0.5989,-1.0234999999999999,0.007374999999999909,0.742,69.314,0.0118,-0.24297500000000002,-0.2579999999999991,100.0,1.0,1.0,213.71,0.0,0.0,0.0,0.0,0.0,0.0,0.0,9058.4,0.0,55.0,5.0,249.50333333333333,1.0,0.0,0.0,0.0,0.0,0.0,0.0,0.0,1.355999999999998,1.355999999999998,0.0,0.0,1.0,55.0,616.79921,10000.0,85.000001,85.000001,85.000001,85.000001,395.0,0.0,0.0,0.0,1.0,333.33500000000004,51.879999999999995,51.879999999999995,46.661,46.661,34.0,-21.9925,25.823999999999998,-27.659999999999997,29.873333333333335,0.0,1781.478,-0.3550000000000004,100.0,28.648,28.541,44.242000000000004,44.236000000000004,0.0,0.0,100.0,0.0,0.0,0.0,0.0,2997.142857142857,3214.6,4038.125,4061.0,305.681,304.688,314.932,314.77875,22.036,20.6542,22.0693,21.5694,314.999998,314.999998,324.999988,324.999988,99.55941428571428,99.50736666666667,99.5703,99.54978571428572,0.1027499999999999,-0.040000000000000036,-0.08139999999999992,0.13059999999999983,-0.046666666666666856,-0.03499999999999659,1.5190000000000001,1.487,38.724999999999994,30.089,38.933,35.809,56.025,35.474000000000004,60.503,53.538,53.956,34.574,59.0495,51.812,53.105000000000004,34.104,58.938,51.195499999999996,-0.10549999999999993,-0.05900000000000016,0.093975,0.10744500000000001,0.0,216.95499999999998,216.945,213.71,213.71,0.0,0.0
28,0.0,0.0,0.0,1.0,1.0,0.0,0.0,1.0,0.0,100.0,1.0,1.1856,26.0,0.0,0.0,0.0,55.000001,0.0,26.0,26.0,26.0,26.0,0.03974999999999995,0.25760000000000005,-0.06244,291.855,-2.676,-2.6595,-1.62175,-1.5423,-180.91,215.7125,190.381125,0.0,0.0,0.0,0.0,0.05669999999999997,-5.498166666666667,-5.498166666666667,-0.6019,0.655,-0.002874999999999961,-0.6800000000000002,69.444,0.0142,-0.215975,-0.21200000000000063,100.0,1.0,1.0,214.18333333333334,0.0,0.0,0.0,0.0,0.0,0.0,0.0,9078.4,0.0,55.0,5.0,249.97,0.0,0.0,0.0,0.0,0.0,0.0,0.0,0.0,1.407,1.407,0.0,0.0,0.0,55.0,616.79921,10000.0,85.000001,85.000001,85.000001,85.000001,395.0,0.0,0.0,0.0,1.0,166.665,51.727000000000004,51.727000000000004,47.409,47.409,34.0,-23.162499999999998,24.677999999999997,-28.96666666666666,29.223333333333333,0.0,1781.429,-0.379999999999999,100.0,28.619,28.673000000000002,43.486000000000004,43.831,0.0,0.0,100.0,0.0,0.0,0.0,0.0,3178.285714285714,3082.8,4151.625,4147.7,305.245,304.8926666666667,314.95,314.6455,22.0455,20.6599,22.0796,21.5785,314.999998,314.999998,324.999988,324.999988,99.55942857142857,99.50738333333334,99.57044285714285,99.54992857142857,0.10625000000000018,-0.04133333333333322,-0.10060000000000002,0.12640000000000007,-0.03166666666666629,-0.051666666666669414,1.5533333333333332,1.5485,38.784,30.124666666666666,38.997,35.866,56.013999999999996,35.513999999999996,60.5345,53.5945,53.945,34.6105,59.079,51.867,53.093,34.138999999999996,58.964,51.249,-0.11149999999999993,-0.05149999999999988,0.10588,0.10913500000000001,0.0,217.405,217.41500000000002,214.18333333333334,214.18333333333334,0.0,0.0
29,0.0,0.0,0.0,1.0,1.0,0.0,0.0,1.0,0.0,100.0,1.0,1.1856,26.0,0.0,0.0,0.0,55.000001,0.0,26.0,26.0,26.0,26.0,0.023500000000000076,0.26350000000000007,-0.0033799999999999998,291.672,-2.6602,-2.712875,-1.5746,-1.5479,-177.37,215.7025,190.354625,0.0,0.0,0.0,0.0,0.058733333333333304,-5.498166666666667,-5.498166666666667,-0.6074,-0.702,0.004124999999999934,0.8660000000000001,69.578,0.0187,-0.218725,-0.3779999999999992,100.0,1.0,1.0,214.43666666666667,0.0,0.0,0.0,0.0,0.0,0.0,0.0,9089.1,0.0,55.0,5.0,250.45333333333335,1.0,0.0,0.0,0.0,0.0,0.0,0.0,0.0,1.4579999999999984,1.4579999999999984,0.0,0.0,1.0,55.0,616.79921,10000.0,85.000001,85.000001,85.000001,85.000001,395.0,0.0,0.0,0.0,1.0,333.33500000000004,51.971000000000004,51.971000000000004,46.753,46.753,34.0,-22.09,26.14,-28.096666666666664,31.396666666666665,0.0,1781.376,-0.39000000000000057,100.0,28.432,28.381,43.954,44.053,0.0,0.0,100.0,0.0,0.0,0.0,0.0,3063.4285714285716,3174.1,4131.5,4318.8,305.512,304.73533333333336,314.74975,314.2145,22.0547,20.6655,22.0902,21.588,314.999998,314.999998,324.999988,324.999988,99.55944285714286,99.50738333333334,99.5706,99.55008571428571,0.10725000000000007,-0.03466666666666662,-0.08760000000000001,0.13179999999999992,-0.03333333333333144,-0.046666666666666856,1.4863333333333333,1.4795,38.842,30.159666666666666,39.064,35.925,56.0,35.5515,60.572,53.6555,53.932,34.6455,59.114,51.9255,53.079,34.173,58.996,51.3065,-0.10650000000000004,-0.05650000000000022,0.10923000000000001,0.105355,0.0,217.78,217.775,214.43666666666667,214.43666666666667,0.0,0.0
30,0.0,0.0,0.0,1.0,1.0,0.0,0.0,1.0,0.0,100.0,1.0,1.1856,26.0,0.0,0.0,0.0,55.000001,0.0,26.0,26.0,26.0,26.0,0.039875000000000105,0.2654000000000001,-0.01806,291.229,-2.6814999999999998,-2.5951250000000003,-1.64185,-1.6006,-173.81,215.6925,190.328125,0.0,0.0,0.0,0.0,0.060799999999999965,-5.498166666666667,-5.498166666666667,-0.6018,0.937,0.0006249999999998757,-0.569,69.706,0.0252,-0.215425,-0.2999999999999998,100.0,1.0,1.0,214.92666666666668,0.0,0.0,0.0,0.0,0.0,0.0,0.0,9110.0,0.0,55.0,5.0,250.91666666666666,0.0,0.0,0.0,0.0,0.0,0.0,1.0,0.0,1.5090000000000003,1.5090000000000003,0.0,0.0,0.0,55.0,616.79921,10000.0,85.000001,85.000001,85.000001,85.000001,395.0,0.0,0.0,0.0,1.0,166.665,50.812,50.812,46.951,46.951,34.0,-24.305,24.82,-30.71,30.03,0.0,1781.326,-0.33500000000000085,100.0,29.177,29.285,43.612,44.098,0.0,0.0,100.0,0.0,0.0,0.0,0.0,3317.285714285714,3137.6,4313.0,4086.6000000000004,304.8165,304.6333333333333,314.6145,314.69475,22.0642,20.6715,22.1007,21.5973,314.999998,314.999998,324.999988,324.999988,99.55945714285714,99.5074,99.57074285714286,99.55022857142858,0.10899999999999999,-0.03866666666666663,-0.10039999999999993,0.13080000000000003,-0.03999999999999915,-0.060000000000002274,1.52,1.5085,38.902,30.196666666666665,39.129000000000005,35.983000000000004,55.991,35.5935,60.6055,53.714,53.924,34.6845,59.144999999999996,51.982,53.069,34.21,59.024,51.3615,-0.11650000000000005,-0.05900000000000016,0.11351000000000001,0.10325500000000001,0.0,218.21,218.25,214.92666666666668,214.92666666666668,0.0,0.0
31,0.0,0.0,0.0,1.0,1.0,0.0,0.0,1.0,0.0,100.0,1.0,1.1856,26.0,0.0,0.0,0.0,55.000001,0.0,26.0,26.0,26.0,26.0,0.03512500000000007,0.24970000000000003,0.02146,290.863,-2.7678,-2.627125,-1.5944,-1.4999,-170.47,215.685,190.304,0.0,0.0,0.0,0.0,0.06276666666666653,-5.498166666666667,-5.498166666666667,-0.5913,-0.4650000000000001,0.005749999999999922,-0.8370000000000002,69.831,0.0296,-0.223225,-0.30600000000000005,100.0,1.0,1.0,215.17333333333335,0.0,0.0,0.0,0.0,0.0,0.0,0.0,9120.4,0.0,55.0,5.0,251.36666666666667,1.0,0.0,0.0,0.0,0.0,0.0,1.0,0.0,1.5569999999999986,1.5569999999999986,0.0,0.0,1.0,55.0,616.79921,10000.0,85.000001,85.000001,85.000001,85.000001,395.0,0.0,0.0,0.0,1.0,166.665,51.041,51.041,45.653999999999996,45.653999999999996,34.0,-24.38,26.408,-29.906666666666666,30.51,0.0,1781.279,-0.34499999999999886,100.0,28.839,29.286,44.372,44.826,0.0,0.0,100.0,0.0,0.0,0.0,0.0,3247.857142857143,3285.7,4329.875,4187.9,305.2355,304.34933333333333,314.35325,314.4145,22.073,20.6769,22.1108,21.6063,314.999998,314.999998,324.999988,324.999988,99.55947142857143,99.5074,99.57088571428571,99.55037142857142,0.10775000000000023,-0.035666666666666735,-0.08520000000000005,0.1434000000000002,-0.04999999999999716,-0.03166666666666629,1.4596666666666667,1.4465000000000001,38.956,30.230666666666664,39.193,36.039500000000004,55.980000000000004,35.631,60.641999999999996,53.772999999999996,53.913,34.7195,59.179,52.039,53.058,34.2435,59.055,51.417,-0.11199999999999988,-0.06150000000000011,0.10867500000000001,0.11329000000000002,0.0,218.57,218.565,215.17333333333335,215.17333333333335,0.0,0.0
32,0.0,0.0,0.0,1.0,1.0,0.0,0.0,1.0,0.0,100.0,1.0,1.1856,26.0,0.0,0.0,0.0,55.000001,0.0,26.0,26.0,26.0,26.0,0.05437500000000006,0.25550000000000006,0.01012,291.214,-2.6897,-2.690625,-1.57695,-1.6324,-166.69,215.675,190.27675,0.0,0.0,0.0,0.0,0.0649666666666665,-5.498166666666667,-5.498166666666667,-0.6066,-0.1885000000000001,-0.018749999999999822,-1.053,69.96600000000001,0.027100000000000003,-0.229025,-0.28000000000000025,100.0,1.0,1.0,215.65666666666667,0.0,0.0,0.0,0.0,0.0,0.0,0.0,9141.0,0.0,55.0,5.0,251.85000000000002,0.0,0.0,0.0,0.0,0.0,0.0,1.0,0.0,1.6110000000000007,1.6110000000000007,0.0,0.0,0.0,55.0,616.79921,10000.0,85.000001,85.000001,85.000001,85.000001,395.0,0.0,0.0,0.0,1.0,166.665,51.483000000000004,51.483000000000004,46.509,46.509,34.0,-22.7425,25.322,-28.189999999999998,32.769999999999996,0.0,1781.223,-0.35999999999999943,100.0,28.772,29.134999999999998,44.139,44.672,0.0,0.0,100.0,0.0,0.0,0.0,0.0,3174.285714285714,3085.6,4183.75,4269.1,305.3055,304.89233333333334,314.7255,314.2065,22.0828,20.6831,22.1219,21.6162,314.999998,314.999998,324.999988,324.999988,99.5595,99.5074,99.57104285714286,99.55054285714286,0.11724999999999985,-0.03299999999999992,-0.08399999999999996,0.1402000000000001,-0.03166666666666629,-0.054999999999999716,1.5023333333333333,1.4905,39.016999999999996,30.269,39.262,36.101,55.968,35.673,60.6775,53.835499999999996,53.902,34.757999999999996,59.212,52.099000000000004,53.045,34.2805,59.0845,51.476,-0.11450000000000005,-0.0535000000000001,0.10105000000000001,0.11354500000000001,0.0,218.98000000000002,219.005,215.65666666666667,215.65666666666667,0.0,0.0
33,0.0,0.0,0.0,1.0,1.0,0.0,0.0,1.0,0.0,100.0,1.0,1.1856,26.0,0.0,0.0,0.0,55.000001,0.0,26.0,26.0,26.0,26.0,0.026375000000000037,0.25270000000000015,-0.06334000000000001,291.473,-2.7234,-2.681625,-1.58935,-1.5932,-163.54,215.67000000000002,190.25325,0.0,0.0,0.0,0.0,0.06679999999999997,-5.498166666666667,-5.498166666666667,-0.616,-0.31099999999999994,-0.011375000000000135,1.17,70.07900000000001,0.023200000000000002,-0.21855000000000002,-0.2560000000000002,100.0,1.0,1.0,216.01999999999998,0.0,0.0,0.0,0.0,0.0,0.0,0.0,9156.2,0.0,55.0,5.0,252.26,1.0,0.0,0.0,0.0,0.0,0.0,1.0,0.0,1.6559999999999988,1.6559999999999988,0.0,0.0,1.0,55.0,616.79921,10000.0,85.000001,85.000001,85.000001,85.000001,395.0,0.0,0.0,0.0,1.0,333.33500000000004,51.772999999999996,51.772999999999996,46.768,46.768,34.0,-22.185,25.592,-27.939999999999998,31.93,0.0,1781.178,-0.3999999999999986,100.0,28.774,28.761,44.096000000000004,44.405,0.0,0.0,100.0,0.0,0.0,0.0,0.0,3087.4285714285716,3122.0,4119.75,4274.1,305.4965,304.9476666666667,314.8255,314.3665,22.0909,20.688,22.1312,21.6244,314.999998,314.999998,324.999988,324.999988,99.5595,99.5074,99.57117142857143,99.55067142857143,0.12250000000000005,-0.028000000000000025,-0.08479999999999999,0.13880000000000003,-0.045000000000001705,-0.04333333333332945,1.5063333333333333,1.4925,39.068,30.299999999999997,39.32,36.1525,55.958,35.706,60.707499999999996,53.887,53.891999999999996,34.7885,59.24,52.1485,53.034,34.3095,59.1095,51.524,-0.11399999999999988,-0.0535000000000001,0.105965,0.109155,0.0,219.32999999999998,219.345,216.01999999999998,216.01999999999998,0.0,0.0
34,0.0,0.0,0.0,1.0,1.0,0.0,0.0,1.0,0.0,100.0,1.0,1.1856,26.0,0.0,0.0,0.0,55.000001,0.0,26.0,26.0,26.0,26.0,0.033500000000000085,0.25680000000000014,-0.05704,291.733,-2.7502,-2.6782500000000002,-1.65335,-1.5532,-159.95999999999998,215.6625,190.225125,0.0,0.0,0.0,0.0,0.06886666666666652,-5.498166666666667,-5.498166666666667,-0.6444000000000001,-0.8525,0.012375000000000025,-0.1200000000000001,70.208,0.0217,-0.224225,-0.22999999999999954,100.0,1.0,1.0,216.42000000000002,0.0,0.0,0.0,0.0,0.0,0.0,0.0,9173.3,0.0,55.0,5.0,252.72,0.0,0.0,0.0,0.0,0.0,0.0,1.0,0.0,1.7070000000000007,1.7070000000000007,0.0,0.0,0.0,55.0,616.79921,10000.0,85.000001,85.000001,85.000001,85.000001,395.0,0.0,0.0,0.0,1.0,166.665,52.078,52.078,47.134,47.134,34.0,-22.8025,24.972,-29.259999999999998,30.173333333333336,0.0,1781.129,-0.41499999999999915,100.0,28.408,28.593,43.85,44.510000000000005,0.0,0.0,100.0,0.0,0.0,0.0,0.0,3082.4285714285716,3075.1,4122.75,4166.6,305.524,305.062,314.939,314.528,22.1001,20.6936,22.1416,21.6338,314.999998,314.999998,324.999988,324.999988,99.55952857142857,99.5074,99.57131428571428,99.55082857142857,0.11275000000000013,-0.03266666666666662,-0.09660000000000002,0.13240000000000007,-0.045000000000001705,-0.06333333333333258,1.5156666666666667,1.506,39.126000000000005,30.335,39.385,36.2115,55.945,35.7425,60.7405,53.9465,53.879000000000005,34.8225,59.2705,52.206,53.021,34.342,59.1365,51.58,-0.11399999999999988,-0.04800000000000004,0.10433,0.10763500000000001,0.0,219.70499999999998,219.745,216.42000000000002,216.42000000000002,0.0,0.0
35,0.0,0.0,0.0,1.0,1.0,0.0,0.0,1.0,0.0,100.0,1.0,1.1856,26.0,0.0,0.0,0.0,55.000001,0.0,26.0,26.0,26.0,26.0,0.024124999999999952,0.25140000000000007,-0.07494,291.672,-2.7187,-2.621875,-1.6203,-1.5185,-156.38,215.6575,190.195,0.0,0.0,0.0,0.0,0.0709333333333334,-5.498166666666667,-5.498166666666667,-0.6832,-0.20950000000000002,-0.0073750000000001315,-0.18300000000000027,70.334,0.0279,-0.22990000000000002,-0.41799999999999926,100.0,1.0,1.0,216.88666666666666,0.0,0.0,0.0,0.0,0.0,0.0,0.0,9193.0,0.0,55.0,5.0,253.17666666666668,1.0,0.0,0.0,0.0,0.0,0.0,1.0,0.0,1.7579999999999991,1.7579999999999991,0.0,0.0,1.0,55.0,616.79921,10000.0,85.000001,85.000001,85.000001,85.000001,395.0,0.0,0.0,0.0,1.0,333.33500000000004,51.468,51.468,46.783,46.783,34.0,-22.8525,27.753999999999998,-26.6,29.55,0.0,1781.077,-0.18499999999999872,100.0,28.432,28.801000000000002,43.784,43.947,0.0,0.0,100.0,0.0,0.0,0.0,0.0,3092.0,3417.4,3998.625,4038.4,305.4535,304.048,315.1325,314.9325,22.1092,20.6994,22.152,21.643,314.999998,314.999998,324.999988,324.999988,99.55952857142857,99.50741666666667,99.57147142857143,99.55097142857143,0.10824999999999996,-0.02966666666666673,-0.07399999999999995,0.1552,-0.03166666666666629,-0.06499999999999773,1.5603333333333333,1.5190000000000001,39.182,30.371333333333332,39.45,36.2685,55.931,35.782,60.772999999999996,54.0015,53.866,34.859,59.3005,52.259,53.006,34.3775,59.163,51.6325,-0.10299999999999998,-0.06400000000000006,0.10771000000000001,0.10419500000000001,0.0,220.10500000000002,220.14499999999998,216.88666666666666,216.88666666666666,0.0,0.0
