,ABS Active,ABS Enabled,AID Allow Tire Blankets,AID Auto Blip,AID Auto Clutch,AID Auto Shift,AID Fuel Rate,AID Ideal Line,AID Mech Damage,AID Stability,AID Tire Wear Rate,Air Density,Air Temp,Ballast,Best Lap Delta,Best Lap Time,Brake Bias,Brake Pos,Brake Temp FL,Brake Temp FR,Brake Temp RL,Brake Temp RR,CG Accel Lateral,CG Accel Longitudinal,CG Accel Vertical,CG Height,Camber FL,Camber FR,Camber RL,Camber RR,Car Coord X,Car Coord Y,Car Coord Z,Car Damage Front,Car Damage Left,Car Damage Rear,Car Damage Right,Car Pos Norm,Caster FL,Caster FR,Chassis Pitch Angle,Chassis Pitch Rate,Chassis Roll Angle,Chassis Roll Rate,Chassis Velocity X,Chassis Velocity Y,Chassis Velocity Z,Chassis Yaw Rate,Clutch Pos,DRS Active,DRS Available,Drive Train Speed,ERS Heat Charging,ERS Is Charging,ERS Max Energy,ERS Power Level,ERS Recovery Level,Engine Brake Setting,Engine Limiter,Engine RPM,Flags,Fuel Level,Gear,Ground Speed,HR Sample Clock,In Pit,KERS Charge,KERS Deployed Energy,KERS Input,KERS Max Energy,LR Sample Clock,Lap Invalidated,Lap Time,Lap Time2,Last Lap Time,Last Sector Time,MR Sample Clock,Max Fuel,Max Power,Max RPM,Max Sus Travel FL,Max Sus Travel FR,Max Sus Travel RL,Max Sus Travel RR,Max Torque,Max Turbo Boost,Num Tires Off Track,Penalties Enabled,Position,Raw Data Sample Rate,Ride Height FL,Ride Height FR,Ride Height RL,Ride Height RR,Road Temp,Self Align Torque FL,Self Align Torque FR,Self Align Torque RL,Self Align Torque RR,Session Lap Count,Session Time Left,Steering Angle,Surface Grip,Suspension Travel FL,Suspension Travel FR,Suspension Travel RL,Suspension Travel RR,TC Active,TC Enabled,Throttle Pos,Tire Dirt Level FL,Tire Dirt Level FR,Tire Dirt Level RL,Tire Dirt Level RR,Tire Load FL,Tire Load FR,Tire Load RL,Tire Load RR,Tire Loaded Radius FL,Tire Loaded Radius FR,Tire Loaded Radius RL,Tire Loaded Radius RR,Tire Pressure FL,Tire Pressure FR,Tire Pressure RL,Tire Pressure RR,Tire Radius FL,Tire Radius FR,Tire Radius RL,Tire Radius RR,Tire Rubber Grip FL,Tire Rubber Grip FR,Tire Rubber Grip RL,Tire Rubber Grip RR,Tire Slip Angle FL,Tire Slip Angle FR,Tire Slip Angle RL,Tire Slip Angle RR,Tire Slip Ratio FL,Tire Slip Ratio FR,Tire Slip Ratio RL,Tire Slip Ratio RR,Tire Temp Core FL,Tire Temp Core FR,Tire Temp Core RL,Tire Temp Core RR,Tire Temp Inner FL,Tire Temp Inner FR,Tire Temp Inner RL,Tire Temp Inner RR,Tire Temp Middle FL,Tire Temp Middle FR,Tire Temp Middle RL,Tire Temp Middle RR,Tire Temp Outer FL,Tire Temp Outer FR,Tire Temp Outer RL,Tire Temp Outer RR,Toe In FL,Toe In FR,Toe In RL,Toe In RR,Turbo Boost,Wheel Angular Speed FL,Wheel Angular Speed FR,Wheel Angular Speed RL,Wheel Angular Speed RR,Wind Direction,Wind Speed
0,0.0,0.0,0.0,1.0,1.0,0.0,0.0,1.0,0.0,100.0,1.0,1.1856,26.0,0.0,0.0,0.0,55.0,0.0,26.0,26.0,26.0,26.0,-0.03388888888888886,0.29520000000000013,0.0965,293.381,-2.7429,-2.6236,-1.5552000000000001,-1.5085000000000002,-275.74,215.60750000000002,190.987875,0.0,0.0,0.0,0.0,0.0015666666666666051,-5.498166666666667,-5.498166666666667,-0.5648000000000001,2.1755,-0.0016250000000002096,0.09999999999999964,65.49600000000001,-0.0337,-0.2268,0.08999999999999986,100.0,1.0,1.0,202.21,0.0,0.0,0.0,0.0,0.0,0.0,0.0,8571.0,0.0,55.0,5.0,235.75666666666666,0.0,0.0,0.0,0.0,0.0,0.0,0.0,0.0,0.0030000000000001137,0.0030000000000001137,0.0,0.0,0.0,55.0,616.79921,10000.0,85.0,85.0,85.0,85.0,395.0,0.0,0.0,0.0,1.0,20.0,51.147,51.147,49.164,49.164,34.0,-28.794999999999998,31.398,-29.64,26.155,0.0,1783.022,0.33999999999999986,100.0,27.469,27.189,40.292,39.953,0.0,0.0,100.0,0.0,0.0,0.0,0.0,3268.0,4191.5,4060.375,4156.2,304.7795,301.89125,314.97225,314.56125,21.7687,20.511,21.7788,21.322400000000002,314.99999,314.99999,324.99998,324.99998,99.55854285714285,99.50713333333333,99.56557142857143,99.54558571428572,0.014250000000000096,-0.08499999999999996,-0.14683333333333334,0.07816666666666668,-0.060000000000002274,-0.051666666666669414,1.5603333333333333,1.559,37.055,29.193666666666665,37.117000000000004,34.265,56.168,34.4135,59.1935,51.772,54.095,33.6,57.8165,50.121,53.269999999999996,33.1755,57.7815,49.54266666666666,-0.05400000000000005,-0.09549999999999992,0.11187000000000001,0.10527,0.0,205.24,205.235,202.21,202.21,0.0,0.0
1,0.0,0.0,0.0,1.0,1.0,0.0,0.0,1.0,0.0,100.0,1.0,1.1856,26.0,0.0,0.0,0.0,55.000001,0.0,26.0,26.0,26.0,26.0,-0.08711111111111103,0.3248,0.16705,292.542,-2.6468,-2.7093,-1.5434999999999999,-1.3852,-272.2,215.61,190.966875,0.0,0.0,0.0,0.0,0.0036333333333333773,-5.498166666666667,-5.498166666666667,-0.4803,-1.8970000000000002,-0.05512499999999987,-0.39700000000000024,65.664,-0.028900000000000002,-0.18860000000000002,0.7479999999999993,100.0,1.0,1.0,202.14666666666668,0.0,0.0,0.0,0.0,0.0,0.0,0.0,8568.3,0.0,55.0,5.0,236.36,1.0,0.0,0.0,0.0,0.0,0.0,0.0,0.0,0.05699999999999861,0.05699999999999861,0.0,0.0,1.0,55.0,616.79921,10000.0,85.000001,85.000001,85.000001,85.000001,395.0,0.0,0.0,0.0,1.0,166.665,54.306,54.306,47.638,47.638,34.0,-23.3425,16.668,-37.07,31.78,0.0,1782.968,0.495000000000001,100.0,27.558,27.017,42.43,42.969,0.0,0.0,100.0,0.0,0.0,0.0,0.0,2835.142857142857,2436.6,4723.625,5167.1,306.206,307.06225,313.187,311.69275,21.779,20.5163,21.790399999999998,21.3324,314.999998,314.999998,324.999988,324.999988,99.55854285714285,99.50715,99.56572857142856,99.54574285714286,0.017749999999999932,-0.1103333333333334,-0.1475,0.057,-0.04333333333332945,-0.054999999999999716,1.295,1.3379999999999999,37.119,29.226666666666667,37.19,34.327,56.149,34.4535,59.244,51.845,54.077,33.637,57.864,50.1915,53.251000000000005,33.211,57.8255,49.611666666666665,-0.035499999999999865,-0.11249999999999982,0.10466,0.10405,0.0,205.685,205.65,202.14666666666668,202.14666666666668,0.0,0.0
2,0.0,0.0,0.0,1.0,1.0,0.0,0.0,1.0,0.0,100.0,1.0,1.1856,26.0,0.0,0.0,0.0,55.000001,0.0,26.0,26.0,26.0,26.0,-0.0912222222222222,0.27649999999999997,-0.2286,294.006,-2.6262,-2.6638,-1.5224,-1.5213,-269.05,215.6125,190.949125,0.0,0.0,0.0,0.0,0.005433333333333401,-5.498166666666667,-5.498166666666667,-0.5795,0.552,-0.012500000000000178,2.0820000000000007,65.789,-0.035500000000000004,-0.280075,0.9620000000000006,100.0,1.0,1.0,203.53333333333333,0.0,0.0,0.0,0.0,0.0,0.0,0.0,8627.0,0.0,55.0,5.0,236.81333333333333,0.0,0.0,0.0,0.0,0.0,0.0,0.0,0.0,0.10500000000000043,0.10500000000000043,0.0,0.0,0.0,55.0,616.79921,10000.0,85.000001,85.000001,85.000001,85.000001,395.0,0.0,0.0,0.0,1.0,333.33500000000004,51.926,51.926,50.964,50.964,34.0,-28.63,21.712,-24.919999999999998,18.262500000000003,0.0,1782.919,0.5500000000000007,100.0,28.275,27.415,41.814,41.499,0.0,0.0,100.0,0.0,0.0,0.0,0.0,3319.714285714286,3107.8,3494.5,3343.5,304.5645,304.7345,316.32,316.61075,21.7885,20.5211,21.8001,21.3403,314.999998,314.999998,324.999988,324.999988,99.55854285714285,99.50716666666666,99.56587142857143,99.54587142857143,0.006750000000000256,-0.11666666666666659,-0.17933333333333334,0.047,-0.07833333333332604,-0.04999999999999716,1.7626666666666666,1.78,37.178,29.256999999999998,37.251000000000005,34.376999999999995,56.135999999999996,34.4945,59.278,51.8935,54.064,33.6745,57.894999999999996,50.238,53.238,33.247,57.8545,49.657,-0.035499999999999865,-0.11399999999999988,0.10559,0.10128000000000001,0.0,206.135,206.04000000000002,203.53333333333333,203.53333333333333,0.0,0.0
3,0.0,0.0,0.0,1.0,1.0,0.0,0.0,1.0,0.0,100.0,1.0,1.1856,26.0,0.0,0.0,0.0,55.000001,0.0,26.0,26.0,26.0,26.0,-0.0875555555555555,0.3114000000000001,0.10500000000000001,293.121,-2.6523,-2.6934,-1.5128,-1.4884,-265.69,215.6125,190.92875,0.0,0.0,0.0,0.0,0.007399999999999962,-5.498166666666667,-5.498166666666667,-0.5042,0.41400000000000003,-0.0026250000000000995,-1.4370000000000003,65.947,-0.0473,-0.18907500000000002,0.7599999999999998,100.0,1.0,1.0,203.35666666666668,0.0,0.0,0.0,0.0,0.0,0.0,0.0,8619.5,0.0,55.0,5.0,237.38,1.0,0.0,0.0,0.0,0.0,0.0,0.0,0.0,0.1559999999999988,0.1559999999999988,0.0,0.0,1.0,55.0,616.79921,10000.0,85.000001,85.000001,85.000001,85.000001,395.0,0.0,0.0,0.0,1.0,166.665,53.299,53.299,47.729,47.729,34.0,-24.3475,20.006,-33.84,26.4325,0.0,1782.87,0.6950000000000003,100.0,27.859,27.384,42.063,41.845,0.0,0.0,100.0,0.0,0.0,0.0,0.0,2892.714285714286,2921.6,4487.25,4292.0,306.11,305.5015,313.881,314.0805,21.7982,20.5264,21.8106,21.3493,314.999998,314.999998,324.999988,324.999988,99.55855714285714,99.50718333333333,99.56601428571429,99.54601428571429,0.004999999999999893,-0.1233333333333334,-0.15216666666666667,0.059166666666666666,-0.04999999999999716,-0.04999999999999716,1.4353333333333333,1.4635,37.239000000000004,29.29,37.316,34.433,56.119,34.5345,59.315,51.9555,54.048,33.7115,57.93,50.2975,53.221000000000004,33.2825,57.8865,49.715666666666664,-0.026499999999999968,-0.12700000000000022,0.101125,0.10716500000000001,0.0,206.64499999999998,206.55,203.35666666666668,203.35666666666668,0.0,0.0
4,0.0,0.0,0.0,1.0,1.0,0.0,0.0,1.0,0.0,100.0,1.0,1.1856,26.0,0.0,0.0,0.0,55.000001,0.0,26.0,26.0,26.0,26.0,-0.10711111111111105,0.27770000000000006,-0.050425000000000005,293.411,-2.6501,-2.7606,-1.4622,-1.6002,-262.52,215.61,190.9105,0.0,0.0,0.0,0.0,0.009233333333333316,-5.498166666666667,-5.498166666666667,-0.5333,-0.9215,-0.05237500000000006,0.2370000000000001,66.084,-0.0557,-0.2353,1.1579999999999995,100.0,1.0,1.0,203.95666666666668,0.0,0.0,0.0,0.0,0.0,0.0,0.0,8645.0,0.0,55.0,5.0,237.87333333333333,0.0,0.0,0.0,0.0,0.0,0.0,0.0,0.0,0.20400000000000063,0.20400000000000063,0.0,0.0,0.0,55.0,616.79921,10000.0,85.000001,85.000001,85.000001,85.000001,395.0,0.0,0.0,0.0,1.0,166.665,52.994,52.994,48.766999999999996,48.766999999999996,34.0,-27.357499999999998,19.988,-30.633333333333333,23.450000000000003,0.0,1782.822,0.745000000000001,100.0,27.907,27.02,42.829,41.984,0.0,0.0,100.0,0.0,0.0,0.0,0.0,3126.142857142857,2927.9,4069.0,3859.9,305.264,305.5555,314.876,315.2425,21.8074,20.5312,21.8207,21.3578,314.999998,314.999998,324.999988,324.999988,99.55855714285714,99.5072,99.56614285714285,99.54612857142857,-0.006999999999999895,-0.1376666666666666,-0.18516666666666667,0.04566666666666667,-0.045000000000001705,-0.04333333333332945,1.5326666666666666,1.5995,37.296,29.319666666666667,37.379000000000005,34.486,56.102999999999994,34.5725,59.355000000000004,52.0115,54.033,33.7465,57.967,50.351,53.205,33.316,57.921,49.768,-0.0129999999999999,-0.13350000000000017,0.11052000000000001,0.10255500000000001,0.0,207.01,206.91500000000002,203.95666666666668,203.95666666666668,0.0,0.0
5,0.0,0.0,0.0,1.0,1.0,0.0,0.0,1.0,0.0,100.0,1.0,1.1856,26.0,0.0,0.0,0.0,55.000001,0.0,26.0,26.0,26.0,26.0,-0.10099999999999998,0.29790000000000005,-0.041600000000000005,293.701,-2.6697,-2.7104,-1.5183,-1.5918,-259.14,215.60250000000002,190.890625,0.0,0.0,0.0,0.0,0.011199999999999988,-5.498166666666667,-5.498166666666667,-0.5432,0.5269999999999999,-0.04300000000000015,-0.40700000000000003,66.229,-0.0729,-0.22955,1.2020000000000008,100.0,1.0,1.0,204.50666666666666,0.0,0.0,0.0,0.0,0.0,0.0,0.0,8668.4,0.0,55.0,5.0,238.39333333333332,1.0,0.0,0.0,0.0,0.0,0.0,0.0,0.0,0.254999999999999,0.254999999999999,0.0,0.0,1.0,55.0,616.79921,10000.0,85.000001,85.000001,85.000001,85.000001,395.0,0.0,0.0,0.0,1.0,333.33500000000004,53.07,53.07,49.332,49.332,34.0,-28.2425,19.3,-30.95,22.225,0.0,1782.77,0.28000000000000114,100.0,27.729,27.065,42.397,41.487,0.0,0.0,100.0,0.0,0.0,0.0,0.0,3194.142857142857,2882.0,3957.125,3910.9,305.148,305.50025,315.247,315.14,21.8173,20.5363,21.8311,21.3665,314.999998,314.999998,324.999988,324.999988,99.55855714285714,99.50721666666666,99.56628571428571,99.54627142857143,-0.01024999999999987,-0.14,-0.20550000000000002,0.0185,-0.046666666666666856,-0.051666666666669414,1.575,1.6435,37.358000000000004,29.352333333333334,37.445,34.5405,56.089,34.6135,59.3925,52.068,54.019,33.7845,58.001999999999995,50.405,53.191,33.3525,57.953,49.821,-0.04200000000000004,-0.10349999999999993,0.10417000000000001,0.10644500000000001,0.0,207.485,207.4,204.50666666666666,204.50666666666666,0.0,0.0
6,0.0,0.0,0.0,1.0,1.0,0.0,0.0,1.0,0.0,100.0,1.0,1.1856,26.0,0.0,0.0,0.0,55.000001,0.0,26.0,26.0,26.0,26.0,-0.11822222222222212,0.28469999999999995,0.03015,293.488,-2.6529,-2.7822,-1.5144000000000002,-1.5678,-255.96,215.595,190.87125,0.0,0.0,0.0,0.0,0.01306666666666656,-5.498166666666667,-5.498166666666667,-0.5262,-0.127,-0.05887500000000001,-1.064,66.37,-0.07730000000000001,-0.20472500000000002,0.902000000000001,100.0,1.0,1.0,204.75666666666666,0.0,0.0,0.0,0.0,0.0,0.0,0.0,8678.9,0.0,55.0,5.0,238.9,0.0,0.0,0.0,0.0,0.0,0.0,0.0,0.0,0.3030000000000008,0.3030000000000008,0.0,0.0,0.0,55.0,616.79921,10000.0,85.000001,85.000001,85.000001,85.000001,395.0,0.0,0.0,0.0,1.0,333.33500000000004,53.589,53.589,48.416,48.416,34.0,-28.0575,19.176,-34.51,23.47,0.0,1782.722,0.370000000000001,100.0,27.417,26.766,42.589,41.676,0.0,0.0,100.0,0.0,0.0,0.0,0.0,3193.5714285714284,2766.2,4317.5,4047.9,305.261,305.87325,314.327,314.75375,21.8265,20.5411,21.8411,21.3749,314.999998,314.999998,324.999988,324.999988,99.55857142857143,99.50723333333333,99.56642857142857,99.54641428571429,-0.013249999999999984,-0.135,-0.2,0.021333333333333333,-0.04833333333333201,-0.036666666666668846,1.504,1.524,37.416,29.381999999999998,37.507,34.5935,56.073,34.650999999999996,59.4305,52.125,54.004000000000005,33.819,58.038,50.46,53.175,33.385,57.986,49.875,-0.04499999999999993,-0.10400000000000009,0.103275,0.10326,0.0,207.925,207.85000000000002,204.75666666666666,204.75666666666666,0.0,0.0
7,0.0,0.0,0.0,1.0,1.0,0.0,0.0,1.0,0.0,100.0,1.0,1.1856,26.0,0.0,0.0,0.0,55.000001,0.0,26.0,26.0,26.0,26.0,-0.0882222222222222,0.2803,-0.008700000000000001,293.503,-2.6114,-2.7846,-1.5118,-1.6179999999999999,-252.57,215.585,190.85075,0.0,0.0,0.0,0.0,0.015033333333333343,-5.498166666666667,-5.498166666666667,-0.5348,0.11749999999999994,-0.04862499999999992,1.1319999999999997,66.514,-0.0771,-0.219525,0.6960000000000006,100.0,1.0,1.0,205.28333333333333,0.0,0.0,0.0,0.0,0.0,0.0,0.0,8701.2,0.0,55.0,5.0,239.42000000000002,1.0,0.0,0.0,0.0,0.0,0.0,0.0,0.0,0.3539999999999992,0.3539999999999992,0.0,0.0,1.0,55.0,616.79921,10000.0,85.000001,85.000001,85.000001,85.000001,395.0,0.0,0.0,0.0,1.0,333.33500000000004,53.192,53.192,48.888999999999996,48.888999999999996,34.0,-25.6675,21.826,-31.009999999999998,23.942500000000003,0.0,1782.67,-0.03500000000000014,100.0,27.849,26.754,42.692,41.606,0.0,0.0,100.0,0.0,0.0,0.0,0.0,3095.142857142857,2955.6,4039.375,3994.1,305.2985,305.42275,314.9425,314.94275,21.8364,20.5463,21.8516,21.3839,314.999998,314.999998,324.999988,324.999988,99.55857142857143,99.50723333333333,99.56657142857142,99.54655714285714,0.020000000000000018,-0.10399999999999998,-0.1845,0.029,-0.03166666666666629,-0.054999999999999716,1.534,1.5735,37.477000000000004,29.41433333333333,37.573,34.649,56.058,34.694,59.472,52.1875,53.989999999999995,33.8585,58.076499999999996,50.519999999999996,53.159,33.423,58.0215,49.93366666666667,-0.07400000000000007,-0.06850000000000023,0.10160500000000001,0.104355,0.0,208.35500000000002,208.285,205.28333333333333,205.28333333333333,0.0,0.0
8,0.0,0.0,0.0,1.0,1.0,0.0,0.0,1.0,0.0,100.0,1.0,1.1856,26.0,0.0,0.0,0.0,55.000001,0.0,26.0,26.0,26.0,26.0,-0.056222222222222173,0.28790000000000004,-0.02205,293.549,-2.6991,-2.7098,-1.4962,-1.6052,-249.18,215.5725,190.830125,0.0,0.0,0.0,0.0,0.016999999999999904,-5.498166666666667,-5.498166666666667,-0.537,-0.23150000000000004,-0.03575000000000017,-0.9950000000000001,66.65899999999999,-0.06280000000000001,-0.219775,0.362000000000001,100.0,1.0,1.0,205.7,0.0,0.0,0.0,0.0,0.0,0.0,0.0,8718.9,0.0,55.0,5.0,239.94666666666666,0.0,0.0,0.0,0.0,0.0,0.0,0.0,0.0,0.40500000000000114,0.40500000000000114,0.0,0.0,0.0,55.0,616.79921,10000.0,85.000001,85.000001,85.000001,85.000001,395.0,0.0,0.0,0.0,1.0,333.33500000000004,53.391,53.391,48.553,48.553,34.0,-26.41,21.055999999999997,-30.113333333333333,24.9575,0.0,1782.621,-0.11499999999999844,100.0,27.337,26.974,42.622,41.867000000000004,0.0,0.0,100.0,0.0,0.0,0.0,0.0,3116.714285714286,2931.6,4058.125,3983.1,305.4735,305.3515,314.95,314.8735,21.8461,20.5515,21.862099999999998,21.3929,314.999998,314.999998,324.999988,324.999988,99.55857142857143,99.50725,99.5667,99.54668571428572,0.01849999999999996,-0.10633333333333339,-0.16966666666666666,0.049,-0.054999999999999716,-0.04333333333332945,1.5496666666666667,1.534,37.538,29.447,37.638,34.7055,56.043,34.7315,59.509,52.2445,53.974999999999994,33.893,58.111,50.575,53.144,33.456,58.0535,49.987,-0.07600000000000007,-0.06499999999999995,0.10394,0.10987000000000001,0.0,208.805,208.75,205.7,205.7,0.0,0.0
9,0.0,0.0,0.0,1.0,1.0,0.0,0.0,1.0,0.0,100.0,1.0,1.1856,26.0,0.0,0.0,0.0,55.000001,0.0,26.0,26.0,26.0,26.0,-0.04422222222222216,0.28800000000000003,0.013325,293.289,-2.6172,-2.7287,-1.5462,-1.5630000000000002,-245.76999999999998,215.5575,190.80925,0.0,0.0,0.0,0.0,0.018999999999999906,-5.498166666666667,-5.498166666666667,-0.5348,0.28700000000000003,-0.04200000000000026,0.8420000000000005,66.804,-0.0505,-0.212425,0.11200000000000099,100.0,1.0,1.0,206.14333333333332,0.0,0.0,0.0,0.0,0.0,0.0,0.0,8737.6,0.0,55.0,5.0,240.46333333333334,1.0,0.0,0.0,0.0,0.0,0.0,0.0,0.0,0.4559999999999995,0.4559999999999995,0.0,0.0,1.0,55.0,616.79921,10000.0,85.000001,85.000001,85.000001,85.000001,395.0,0.0,0.0,0.0,1.0,166.665,52.979,52.979,48.751999999999995,48.751999999999995,34.0,-24.645,23.485999999999997,-29.713333333333335,26.565,0.0,1782.57,-0.3299999999999983,100.0,27.779,26.935,42.622,41.825,0.0,0.0,100.0,0.0,0.0,0.0,0.0,3133.0,3048.9,4041.375,4130.8,305.2195,305.1745,314.97125,314.65025,21.8559,20.5568,21.8726,21.4018,314.999998,314.999998,324.999988,324.999988,99.55857142857143,99.50726666666667,99.56684285714286,99.54682857142858,0.05250000000000021,-0.07033333333333336,-0.15083333333333335,0.074,-0.02833333333332888,-0.06333333333333258,1.5496666666666667,1.548,37.599999999999994,29.48,37.704,34.7615,56.028,34.771,59.5475,52.3035,53.961,33.929,58.1465,50.6315,53.129999999999995,33.4905,58.086,50.04266666666666,-0.09999999999999987,-0.04800000000000004,0.10496000000000001,0.11192500000000001,0.0,209.235,209.22500000000002,206.14333333333332,206.14333333333332,0.0,0.0
10,0.0,0.0,0.0,1.0,1.0,0.0,0.0,1.0,0.0,100.0,1.0,1.1856,26.0,0.0,0.0,0.0,55.000001,0.0,26.0,26.0,26.0,26.0,-0.027666666666666617,0.29080000000000017,0.013525,293.198,-2.6728,-2.7077999999999998,-1.5072,-1.5483,-242.56,215.54250000000002,190.789625,0.0,0.0,0.0,0.0,0.02086666666666659,-5.498166666666667,-5.498166666666667,-0.5276000000000001,-0.21700000000000008,-0.016249999999999876,1.6560000000000006,66.94,-0.035300000000000005,-0.20995,-0.14200000000000035,100.0,1.0,1.0,206.48333333333335,0.0,0.0,0.0,0.0,0.0,0.0,0.0,8752.1,0.0,55.0,5.0,240.95333333333332,0.0,0.0,0.0,0.0,0.0,0.0,1.0,0.0,0.5040000000000013,0.5040000000000013,0.0,0.0,0.0,55.0,616.79921,10000.0,85.000001,85.000001,85.000001,85.000001,395.0,0.0,0.0,0.0,1.0,333.33500000000004,53.314,53.314,48.309,48.309,34.0,-23.09,23.29,-29.393333333333334,28.0475,0.0,1782.521,-0.3999999999999986,100.0,27.727,26.907,42.791,42.192,0.0,0.0,100.0,0.0,0.0,0.0,0.0,2981.4285714285716,3010.1,4115.0,4263.2,305.67,305.334,314.7655,314.32275,21.865099999999998,20.5617,21.8826,21.4104,314.999998,314.999998,324.999988,324.999988,99.55858571428571,99.50726666666667,99.56698571428572,99.54697142857142,0.06899999999999995,-0.06099999999999994,-0.137,0.08316666666666667,-0.04999999999999716,-0.051666666666669414,1.5056666666666667,1.5085,37.657,29.510666666666665,37.766,34.815,56.015,34.8065,59.5845,52.3615,53.949,33.962,58.181,50.687,53.117000000000004,33.522,58.1175,50.096666666666664,-0.11499999999999999,-0.04249999999999998,0.10579500000000001,0.107935,0.0,209.65,209.64499999999998,206.48333333333335,206.48333333333335,0.0,0.0
11,0.0,0.0,0.0,1.0,1.0,0.0,0.0,1.0,0.0,100.0,1.0,1.1856,26.0,0.0,0.0,0.0,55.000001,0.0,26.0,26.0,26.0,26.0,0.006888888888888944,0.2863,-0.0555,293.503,-2.6903,-2.6916,-1.5667,-1.5201,-239.15,215.5275,190.76875,0.0,0.0,0.0,0.0,0.022599999999999953,-5.498166666666667,-5.498166666666667,-0.5508000000000001,-0.30499999999999994,0.007249999999999979,-0.3899999999999997,67.081,-0.0178,-0.22575,-0.24799999999999933,100.0,1.0,1.0,207.04000000000002,0.0,0.0,0.0,0.0,0.0,0.0,0.0,8775.7,0.0,55.0,5.0,241.46333333333334,1.0,0.0,0.0,0.0,0.0,0.0,1.0,0.0,0.5549999999999997,0.5549999999999997,0.0,0.0,1.0,55.0,616.79921,10000.0,85.000001,85.000001,85.000001,85.000001,395.0,0.0,0.0,0.0,1.0,333.33500000000004,53.253,53.253,48.92,48.92,34.0,-24.384999999999998,23.334000000000003,-27.7,25.927500000000002,0.0,1782.47,-0.634999999999998,100.0,27.279,27.134,42.469,42.361000000000004,0.0,0.0,100.0,0.0,0.0,0.0,0.0,3112.714285714286,3014.1,3911.25,4001.3,305.494,305.127,315.35025,314.90725,21.8747,20.567,21.893,21.4194,314.999998,314.999998,324.999988,324.999988,99.5586,99.50728333333333,99.56712857142857,99.5471,0.06400000000000006,-0.06299999999999994,-0.13166666666666665,0.093,-0.041666666666671404,-0.051666666666669414,1.5856666666666666,1.5745,37.717,29.544,37.831,34.8715,56.001000000000005,34.8445,59.6205,52.4215,53.935,33.997,58.2145,50.7445,53.102000000000004,33.5555,58.1485,50.153333333333336,-0.11099999999999999,-0.03600000000000003,0.10709,0.10433,0.0,210.06,210.085,207.04000000000002,207.04000000000002,0.0,0.0
12,0.0,0.0,0.0,1.0,1.0,0.0,0.0,1.0,0.0,100.0,1.0,1.1856,26.0,0.0,0.0,0.0,55.000001,0.0,26.0,26.0,26.0,26.0,0.003555555555555534,0.29069999999999996,0.006350000000000001,293.152,-2.7207,-2.6832,-1.5465,-1.5373,-235.92000000000002,215.51,190.748125,0.0,0.0,0.0,0.0,0.025466666666666526,-5.498166666666667,-5.498166666666667,-0.5434,0.39549999999999996,0.00912500000000005,-0.5739999999999998,67.21600000000001,-0.0009000000000000001,-0.20625000000000002,-0.3639999999999999,100.0,1.0,1.0,207.38333333333333,0.0,0.0,0.0,0.0,0.0,0.0,0.0,8790.2,0.0,55.0,5.0,241.95,0.0,0.0,0.0,0.0,0.0,0.0,1.0,0.0,0.602999999999998,0.602999999999998,0.0,0.0,0.0,55.0,616.79921,10000.0,85.000001,85.000001,85.000001,85.000001,395.0,0.0,0.0,0.0,1.0,166.665,52.979,52.979,48.309,48.309,34.0,-24.595,23.68,-28.353333333333335,28.2975,0.0,1782.424,-0.4400000000000013,100.0,27.364,27.436,42.282,42.327,0.0,0.0,100.0,0.0,0.0,0.0,0.0,3122.714285714286,3055.1,4147.75,4144.4,305.44,304.98075,314.80925,314.57975,21.8838,20.5721,21.9028,21.4279,314.999998,314.999998,324.999988,324.999988,99.5586,99.50728333333333,99.56725714285714,99.54722857142858,0.06875000000000009,-0.06266666666666665,-0.10816666666666667,0.11,-0.045000000000001705,-0.04833333333333201,1.5546666666666666,1.5354999999999999,37.772999999999996,29.575666666666663,37.891999999999996,34.924,55.989000000000004,34.881,59.6545,52.4775,53.923,34.0305,58.2465,50.798500000000004,53.089,33.5875,58.1775,50.206,-0.09999999999999987,-0.05149999999999988,0.10913,0.10407500000000001,0.0,210.495,210.51999999999998,207.38333333333333,207.38333333333333,0.0,0.0
13,0.0,0.0,0.0,1.0,1.0,0.0,0.0,1.0,0.0,100.0,1.0,1.1856,26.0,0.0,0.0,0.0,55.000001,0.0,26.0,26.0,26.0,26.0,0.029111111111111088,0.2792000000000001,0.02665,292.816,-2.6903,-2.6974,-1.5782,-1.5424,-232.49,215.495,190.7265,0.0,0.0,0.0,0.0,0.026699999999999946,-5.498166666666667,-5.498166666666667,-0.5376000000000001,-0.21599999999999997,0.010874999999999968,1.1099999999999994,67.35900000000001,0.0102,-0.21302500000000002,-0.41799999999999926,100.0,1.0,1.0,207.73666666666668,0.0,0.0,0.0,0.0,0.0,0.0,0.0,8805.1,0.0,55.0,5.0,242.46666666666667,1.0,0.0,0.0,0.0,0.0,0.0,1.0,0.0,0.6539999999999999,0.6539999999999999,0.0,0.0,1.0,55.0,616.79921,10000.0,85.000001,85.000001,85.000001,85.000001,395.0,0.0,0.0,0.0,1.0,166.665,52.811,52.811,48.019,48.019,34.0,-21.95,25.988,-27.833333333333336,31.13,0.0,1782.373,-0.4800000000000004,100.0,27.74,27.451,42.72,42.697,0.0,0.0,100.0,0.0,0.0,0.0,0.0,3024.285714285714,3125.1,4117.625,4301.0,305.553,304.9425,314.75675,314.23725,21.8934,20.5776,21.9134,21.4371,314.999998,314.999998,324.999988,324.999988,99.55861428571428,99.5073,99.5674,99.54738571428571,0.10924999999999985,-0.020000000000000018,-0.08733333333333333,0.13366666666666666,-0.030000000000001137,-0.07000000000000028,1.5096666666666667,1.4809999999999999,37.833,29.609666666666666,37.959,34.9815,55.976,34.919,59.694,52.54,53.911,34.066,58.283,50.859,53.076,33.6215,58.211,50.265,-0.11599999999999988,-0.03400000000000025,0.10287500000000001,0.10682000000000001,0.0,210.925,210.95499999999998,207.73666666666668,207.73666666666668,0.0,0.0
14,0.0,0.0,0.0,1.0,1.0,0.0,0.0,1.0,0.0,100.0,1.0,1.1856,26.0,0.0,0.0,0.0,55.000001,0.0,26.0,26.0,26.0,26.0,0.05077777777777781,0.2874000000000001,-0.023950000000000003,293.015,-2.7093,-2.7012,-1.5728,-1.537,-229.05,215.48000000000002,190.705125,0.0,0.0,0.0,0.0,0.028699999999999948,-5.498166666666667,-5.498166666666667,-0.5506,-0.04699999999999993,0.023374999999999924,-0.34699999999999953,67.499,0.0166,-0.22675,-0.39999999999999947,100.0,1.0,1.0,208.26666666666665,0.0,0.0,0.0,0.0,0.0,0.0,0.0,8827.6,0.0,55.0,5.0,242.96666666666667,0.0,0.0,0.0,0.0,0.0,0.0,1.0,0.0,0.7049999999999983,0.7049999999999983,0.0,0.0,0.0,55.0,616.79921,10000.0,85.000001,85.000001,85.000001,85.000001,395.0,0.0,0.0,0.0,1.0,333.33500000000004,52.795,52.795,48.400999999999996,48.400999999999996,34.0,-22.7725,25.006,-26.72,29.36,0.0,1782.319,-0.509999999999998,100.0,27.557,27.775,42.525999999999996,42.870000000000005,0.0,0.0,100.0,0.0,0.0,0.0,0.0,3093.857142857143,3032.7,3999.0,4077.8,305.5295,304.9955,315.14325,314.7155,21.9029,20.583,21.9238,21.4462,314.999998,314.999998,324.999988,324.999988,99.55862857142857,99.5073,99.56755714285714,99.54752857142857,0.1027499999999999,-0.03066666666666662,-0.09183333333333334,0.14116666666666666,-0.03333333333333144,-0.04999999999999716,1.556,1.5394999999999999,37.893,29.644,38.024,35.0385,55.964,34.957,59.730000000000004,52.6005,53.9,34.101,58.3165,50.917,53.064,33.655,58.2415,50.32233333333333,-0.11599999999999988,-0.03750000000000009,0.10428000000000001,0.11315000000000001,0.0,211.345,211.375,208.26666666666665,208.26666666666665,0.0,0.0
15,0.0,0.0,0.0,1.0,1.0,0.0,0.0,1.0,0.0,100.0,1.0,1.1856,26.0,0.0,0.0,0.0,55.000001,0.0,26.0,26.0,26.0,26.0,0.057666666666666755,0.28259999999999996,-0.0146,292.923,-2.7066,-2.6738,-1.5836999999999999,-1.553,-225.81,215.465,190.68475,0.0,0.0,0.0,0.0,0.03059999999999996,-5.498166666666667,-5.498166666666667,-0.543,0.21999999999999997,0.035250000000000004,-0.8010000000000002,67.632,0.0229,-0.21265,-0.41000000000000014,100.0,1.0,1.0,208.63,0.0,0.0,0.0,0.0,0.0,0.0,0.0,8843.0,0.0,55.0,5.0,243.44666666666666,1.0,0.0,0.0,0.0,0.0,0.0,1.0,0.0,0.7530000000000001,0.7530000000000001,0.0,0.0,1.0,55.0,616.79921,10000.0,85.000001,85.000001,85.000001,85.000001,395.0,0.0,0.0,0.0,1.0,166.665,52.841,52.841,48.203,48.203,34.0,-22.5325,24.658,-27.15,30.4675,0.0,1782.272,-0.41499999999999915,100.0,27.542,27.853,42.379,42.969,0.0,0.0,100.0,0.0,0.0,0.0,0.0,3047.857142857143,3018.3,4086.125,4161.4,305.6745,305.0175,314.953,314.465,21.9119,20.5882,21.9336,21.4548,314.999998,314.999998,324.999988,324.999988,99.55864285714286,99.5073,99.56768571428572,99.54767142857143,0.09850000000000003,-0.031000000000000028,-0.08116666666666668,0.1405,-0.04999999999999716,-0.030000000000001137,1.517,1.51,37.95,29.676333333333332,38.085,35.0925,55.953,34.9925,59.7635,52.658500000000004,53.888999999999996,34.134,58.348,50.973,53.052,33.687,58.269999999999996,50.377,-0.10599999999999987,-0.040999999999999925,0.10314000000000001,0.113875,0.0,211.78,211.79000000000002,208.63,208.63,0.0,0.0
16,0.0,0.0,0.0,1.0,1.0,0.0,0.0,1.0,0.0,100.0,1.0,1.1856,26.0,0.0,0.0,0.0,55.000001,0.0,26.0,26.0,26.0,26.0,0.04222222222222216,0.2695000000000001,0.005725,292.77,-2.761,-2.6271,-1.561,-1.5511,-222.35,215.4525,190.662625,0.0,0.0,0.0,0.0,0.03259999999999996,-5.498166666666667,-5.498166666666667,-0.5533,-0.4590000000000001,0.028124999999999956,0.23399999999999999,67.772,0.025900000000000003,-0.22360000000000002,-0.42799999999999905,100.0,1.0,1.0,209.03333333333333,0.0,0.0,0.0,0.0,0.0,0.0,0.0,8860.1,0.0,55.0,5.0,243.95,0.0,0.0,0.0,0.0,0.0,0.0,1.0,0.0,0.8039999999999985,0.8039999999999985,0.0,0.0,0.0,55.0,616.79921,10000.0,85.000001,85.000001,85.000001,85.000001,395.0,0.0,0.0,0.0,1.0,166.665,52.597,52.597,47.897,47.897,34.0,-22.5425,26.740000000000002,-26.363333333333333,30.135,0.0,1782.222,-0.379999999999999,100.0,27.547,27.738,42.723,43.037,0.0,0.0,100.0,0.0,0.0,0.0,0.0,3060.5714285714284,3238.7,4036.25,4120.1,305.528,304.5815,314.97575,314.625,21.9213,20.5937,21.9442,21.4639,314.999998,314.999998,324.999988,324.999988,99.55865714285714,99.50731666666667,99.56782857142858,99.5478,0.11575000000000024,-0.013666666666666605,-0.0785,0.14366666666666666,-0.036666666666668846,-0.04833333333333201,1.5396666666666667,1.515,38.007999999999996,29.71066666666667,38.150999999999996,35.1495,55.939,35.031,59.8015,52.72,53.876000000000005,34.169,58.382999999999996,51.032,53.038,33.7205,58.302,50.435,-0.10850000000000004,-0.0495000000000001,0.11272000000000001,0.09931500000000001,0.0,212.195,212.215,209.03333333333333,209.03333333333333,0.0,0.0
17,0.0,0.0,0.0,1.0,1.0,0.0,0.0,1.0,0.0,100.0,1.0,1.1856,26.0,0.0,0.0,0.0,55.000001,0.0,26.0,26.0,26.0,26.0,0.03533333333333322,0.2761,0.02375,292.511,-2.7276,-2.6057,-1.6032000000000002,-1.512,-218.89,215.44,190.6405,0.0,0.0,0.0,0.0,0.034599999999999964,-5.498166666666667,-5.498166666666667,-0.5513,0.21099999999999997,0.0036249999999999893,-1.0380000000000003,67.911,0.028200000000000003,-0.21555000000000002,-0.31599999999999984,100.0,1.0,1.0,209.43666666666667,0.0,0.0,0.0,0.0,0.0,0.0,0.0,8877.2,0.0,55.0,5.0,244.45,1.0,0.0,0.0,0.0,0.0,0.0,1.0,0.0,0.8550000000000004,0.8550000000000004,0.0,0.0,1.0,55.0,616.79921,10000.0,85.000001,85.000001,85.000001,85.000001,395.0,0.0,0.0,0.0,1.0,166.665,52.353,52.353,47.745,47.745,34.0,-23.974999999999998,24.68,-29.25,29.6725,0.0,1782.171,-0.23999999999999844,100.0,27.701,28.001,42.572,43.033,0.0,0.0,100.0,0.0,0.0,0.0,0.0,3222.857142857143,3117.7,4291.0,4179.3,305.1835,304.771,314.53875,314.4785,21.9309,20.5993,21.9546,21.473,314.999998,314.999998,324.999988,324.999988,99.55867142857143,99.50731666666667,99.56797142857143,99.54795714285714,0.10424999999999995,-0.03700000000000003,-0.08483333333333333,0.13333333333333336,-0.05333333333332746,-0.03166666666666629,1.508,1.501,38.068,29.745666666666665,38.216,35.2065,55.928,35.0695,59.838,52.78,53.864999999999995,34.205,58.417,51.0895,53.025999999999996,33.754999999999995,58.332499999999996,50.49133333333333,-0.10650000000000004,-0.06000000000000005,0.10648,0.09898000000000001,0.0,212.64,212.65,209.43666666666667,209.43666666666667,0.0,0.0
18,0.0,0.0,0.0,1.0,1.0,0.0,0.0,1.0,0.0,100.0,1.0,1.1856,26.0,0.0,0.0,0.0,55.000001,0.0,26.0,26.0,26.0,26.0,0.03111111111111109,0.28280000000000016,0.036075,292.404,-2.6571,-2.7365,-1.5055,-1.4782,-215.63,215.43,190.61925,0.0,0.0,0.0,0.0,0.03649999999999998,-5.498166666666667,-5.498166666666667,-0.5601,-0.38050000000000006,0.00649999999999995,-0.492,68.042,0.024800000000000003,-0.223475,-0.17799999999999905,100.0,1.0,1.0,209.80666666666667,0.0,0.0,0.0,0.0,0.0,0.0,0.0,8892.9,0.0,55.0,5.0,244.92333333333335,0.0,0.0,0.0,0.0,0.0,0.0,1.0,0.0,0.9029999999999987,0.9029999999999987,0.0,0.0,0.0,55.0,616.79921,10000.0,85.000001,85.000001,85.000001,85.000001,395.0,0.0,0.0,0.0,1.0,166.665,52.322,52.322,47.623,47.623,34.0,-23.48,26.234,-27.973333333333333,29.7025,0.0,1782.124,-0.254999999999999,100.0,27.68,27.921,42.76,43.207,0.0,0.0,100.0,0.0,0.0,0.0,0.0,3176.285714285714,3148.8,4187.375,4237.4,305.2685,304.55175,314.64075,314.334,21.939799999999998,20.6044,21.9645,21.4817,314.999998,314.999998,324.999988,324.999988,99.55867142857143,99.50731666666667,99.56811428571429,99.5481,0.09275000000000011,-0.03833333333333333,-0.099,0.13366666666666666,-0.054999999999999716,-0.04333333333332945,1.505,1.5035,38.123999999999995,29.77766666666667,38.278,35.2605,55.916,35.105000000000004,59.873,52.8375,53.854,34.238,58.45,51.144999999999996,53.013999999999996,33.786500000000004,58.363,50.54566666666666,-0.09499999999999997,-0.058499999999999996,0.10946000000000002,0.11370500000000001,0.0,213.04000000000002,213.04000000000002,209.80666666666667,209.80666666666667,0.0,0.0
19,0.0,0.0,0.0,1.0,1.0,0.0,0.0,1.0,0.0,100.0,1.0,1.1856,26.0,0.0,0.0,0.0,55.000001,0.0,26.0,26.0,26.0,26.0,0.04699999999999993,0.2743,0.021525000000000002,292.252,-2.6587,-2.7002,-1.53,-1.5986,-211.95,215.42000000000002,190.59525,0.0,0.0,0.0,0.0,0.0386333333333333,-5.498166666666667,-5.498166666666667,-0.5523,0.5635,0.014999999999999902,-0.7969999999999997,68.187,0.0188,-0.21645,-0.12399999999999967,100.0,1.0,1.0,210.27666666666667,0.0,0.0,0.0,0.0,0.0,0.0,0.0,8912.8,0.0,55.0,5.0,245.44666666666666,1.0,0.0,0.0,0.0,0.0,0.0,1.0,0.0,0.9570000000000007,0.9570000000000007,0.0,0.0,1.0,55.0,616.79921,10000.0,85.000001,85.000001,85.000001,85.000001,395.0,0.0,0.0,0.0,1.0,166.665,52.063,52.063,47.852000000000004,47.852000000000004,34.0,-23.525,24.534,-27.796666666666663,30.580000000000002,0.0,1782.07,-0.21000000000000085,100.0,28.232,28.417,42.69,43.314,0.0,0.0,100.0,0.0,0.0,0.0,0.0,3143.714285714286,3032.5,4177.25,4221.8,305.3505,304.9235,314.738,314.281,21.9499,20.6104,21.9756,21.4914,314.999998,314.999998,324.999988,324.999988,99.5587,99.50731666666667,99.56825714285715,99.54824285714285,0.08625000000000016,-0.04466666666666663,-0.092,0.11683333333333333,-0.051666666666669414,-0.03999999999999915,1.5016666666666667,1.488,38.187,29.814999999999998,38.347,35.321,55.903999999999996,35.147,59.9105,52.9015,53.842,34.2765,58.4845,51.207,53.001000000000005,33.823499999999996,58.3945,50.60633333333333,-0.09199999999999986,-0.06300000000000017,0.10608000000000001,0.10156000000000001,0.0,213.525,213.51,210.27666666666667,210.27666666666667,0.0,0.0
20,0.0,0.0,0.0,1.0,1.0,0.0,0.0,1.0,0.0,100.0,1.0,1.1856,26.0,0.0,0.0,0.0,55.000001,0.0,26.0,26.0,26.0,26.0,0.0341111111111112,0.26480000000000015,-0.009850000000000001,292.358,-2.7276,-2.6519,-1.5389,-1.5823,-208.68,215.41,190.574125,0.0,0.0,0.0,0.0,0.04053333333333331,-5.498166666666667,-5.498166666666667,-0.5571,-0.7615000000000001,0.017749999999999932,-0.9239999999999995,68.31700000000001,0.0131,-0.226025,-0.0039999999999995595,100.0,1.0,1.0,210.63,0.0,0.0,0.0,0.0,0.0,0.0,0.0,8927.9,0.0,55.0,5.0,245.91666666666666,0.0,0.0,0.0,0.0,0.0,0.0,0.0,0.0,1.004999999999999,1.004999999999999,0.0,0.0,0.0,55.0,616.79921,10000.0,85.000001,85.000001,85.000001,85.000001,395.0,0.0,0.0,0.0,1.0,333.33500000000004,52.49,52.49,47.379,47.379,34.0,-23.6375,24.09,-27.833333333333336,29.4875,0.0,1782.019,-0.259999999999998,100.0,27.833,28.147,43.258,43.705,0.0,0.0,100.0,0.0,0.0,0.0,0.0,3109.4285714285716,3037.7,4148.75,4102.0,305.541,305.0225,314.76175,314.5485,21.9587,20.6156,21.985599999999998,21.5001,314.999998,314.999998,324.999988,324.999988,99.55871428571429,99.50731666666667,99.5684,99.5484,0.08924999999999983,-0.04299999999999993,-0.09316666666666668,0.11983333333333333,-0.023333333333326323,-0.03499999999999659,1.499,1.4969999999999999,38.242000000000004,29.84733333333333,38.41,35.3755,55.89,35.1855,59.949,52.963499999999996,53.829,34.312,58.5205,51.2665,52.986999999999995,33.8575,58.4275,50.665,-0.09349999999999992,-0.06400000000000006,0.09910000000000001,0.103095,0.0,213.87,213.875,210.63,210.63,0.0,0.0
21,0.0,0.0,0.0,1.0,1.0,0.0,0.0,1.0,0.0,100.0,1.0,1.1856,26.0,0.0,0.0,0.0,55.000001,0.0,26.0,26.0,26.0,26.0,0.028444444444444272,0.27680000000000016,-0.041125,292.648,-2.7237,-2.6582,-1.5716,-1.5389,-205.39,215.4025,190.552625,0.0,0.0,0.0,0.0,0.04246666666666654,-5.498166666666667,-5.498166666666667,-0.5744,-0.009000000000000119,0.005125000000000046,-0.6760000000000002,68.444,0.0076,-0.225975,-0.05399999999999938,100.0,1.0,1.0,211.16,0.0,0.0,0.0,0.0,0.0,0.0,0.0,8950.3,0.0,55.0,5.0,246.37,1.0,0.0,0.0,0.0,0.0,0.0,0.0,0.0,1.0530000000000008,1.0530000000000008,0.0,0.0,1.0,55.0,616.79921,10000.0,85.000001,85.000001,85.000001,85.000001,395.0,0.0,0.0,0.0,1.0,333.33500000000004,52.399,52.399,48.111,48.111,34.0,-24.419999999999998,24.348,-27.383333333333333,27.7925,0.0,1781.971,-0.3200000000000003,100.0,27.879,28.004,42.928,43.307,0.0,0.0,100.0,0.0,0.0,0.0,0.0,3208.857142857143,3068.0,4059.0,3993.5,305.243,304.99825,315.04075,314.96425,21.9676,20.6208,21.9953,21.5086,314.999998,314.999998,324.999988,324.999988,99.55871428571429,99.50733333333334,99.56854285714286,99.54852857142858,0.09100000000000019,-0.04299999999999993,-0.09683333333333333,0.12466666666666668,-0.03333333333333144,-0.045000000000001705,1.5646666666666667,1.5494999999999999,38.298,29.88,38.471000000000004,35.429,55.879000000000005,35.2215,59.9815,53.018,53.818,34.3455,58.5505,51.319,52.975,33.8895,58.454499999999996,50.716,-0.10399999999999987,-0.053999999999999826,0.10093500000000001,0.10916500000000001,0.0,214.28,214.285,211.16,211.16,0.0,0.0
22,0.0,0.0,0.0,1.0,1.0,0.0,0.0,1.0,0.0,100.0,1.0,1.1856,26.0,0.0,0.0,0.0,55.000001,0.0,26.0,26.0,26.0,26.0,0.015444444444444372,0.28890000000000016,-0.002925,292.221,-2.7629,-2.6256,-1.6035,-1.5242,-201.89999999999998,215.39249999999998,190.528875,0.0,0.0,0.0,0.0,0.044499999999999984,-5.498166666666667,-5.498166666666667,-0.559,0.11349999999999993,0.014375000000000027,1.1219999999999999,68.581,0.0056,-0.20117500000000002,-0.28000000000000025,100.0,1.0,1.0,211.43,0.0,0.0,0.0,0.0,0.0,0.0,0.0,8961.8,0.0,55.0,5.0,246.86333333333334,0.0,0.0,0.0,0.0,0.0,0.0,0.0,0.0,1.1039999999999992,1.1039999999999992,0.0,0.0,0.0,55.0,616.79921,10000.0,85.000001,85.000001,85.000001,85.000001,395.0,0.0,0.0,0.0,1.0,333.33500000000004,52.49,52.49,47.211,47.211,34.0,-22.7575,25.5,-29.783333333333335,31.19,0.0,1781.92,-0.3999999999999986,100.0,28.11,27.945,43.167,43.28,0.0,0.0,100.0,0.0,0.0,0.0,0.0,3028.142857142857,3175.8,4244.375,4397.0,305.6765,304.8675,314.531,314.07275,21.9771,20.6264,22.0058,21.5178,314.999998,314.999998,324.999988,324.999988,99.55872857142857,99.50733333333334,99.56868571428572,99.54867142857142,0.10375000000000023,-0.026666666666666616,-0.098,0.12566666666666668,-0.05833333333333002,-0.030000000000001137,1.506,1.4925,38.357,29.914666666666665,38.536,35.4865,55.867000000000004,35.257999999999996,60.0165,53.075,53.807,34.379,58.5835,51.374,52.963,33.922,58.4845,50.769666666666666,-0.11149999999999993,-0.04200000000000026,0.10921000000000002,0.10787500000000001,0.0,214.73000000000002,214.72500000000002,211.43,211.43,0.0,0.0
23,0.0,0.0,0.0,1.0,1.0,0.0,0.0,1.0,0.0,100.0,1.0,1.1856,26.0,0.0,0.0,0.0,55.000001,0.0,26.0,26.0,26.0,26.0,0.007000000000000117,0.26480000000000015,0.02155,292.023,-2.6607000000000003,-2.684,-1.6413,-1.5030000000000001,-198.19,215.385,190.503875,0.0,0.0,0.0,0.0,0.046633333333333304,-5.498166666666667,-5.498166666666667,-0.5740000000000001,-0.24249999999999994,0.010999999999999899,0.6150000000000002,68.724,0.0135,-0.2263,-0.3120000000000003,100.0,1.0,1.0,211.91666666666669,0.0,0.0,0.0,0.0,0.0,0.0,0.0,8982.3,0.0,55.0,5.0,247.38,1.0,0.0,0.0,0.0,0.0,0.0,0.0,0.0,1.1580000000000013,1.1580000000000013,0.0,0.0,1.0,55.0,616.79921,10000.0,85.000001,85.000001,85.000001,85.000001,395.0,0.0,0.0,0.0,1.0,166.665,51.926,51.926,47.455,47.455,34.0,-23.107499999999998,25.614,-29.576666666666664,30.1375,0.0,1781.868,-0.3049999999999997,100.0,28.371,28.141,43.383,43.586,0.0,0.0,100.0,0.0,0.0,0.0,0.0,3156.142857142857,3177.2,4193.375,4215.6,305.1365,304.73825,314.70425,314.491,21.987099999999998,20.6323,22.017,21.5277,314.999998,314.999998,324.999988,324.999988,99.55874285714286,99.50735,99.56882857142857,99.54882857142857,0.10375000000000023,-0.04033333333333333,-0.09433333333333332,0.14016666666666666,-0.054999999999999716,-0.02499999999999858,1.5190000000000001,1.4955,38.42,29.951999999999998,38.605999999999995,35.548,55.855000000000004,35.2995,60.056,53.1395,53.795,34.417500000000004,58.6205,51.436,52.95,33.959,58.5175,50.831,-0.10299999999999998,-0.06099999999999994,0.111445,0.11060500000000001,0.0,215.14499999999998,215.15,211.91666666666669,211.91666666666669,0.0,0.0
24,0.0,0.0,0.0,1.0,1.0,0.0,0.0,1.0,0.0,100.0,1.0,1.1856,26.0,0.0,0.0,0.0,55.000001,0.0,26.0,26.0,26.0,26.0,0.03111111111111109,0.2782,-0.049775,292.435,-2.6912000000000003,-2.6626,-1.5533000000000001,-1.5528,-194.89,215.3775,190.481375,0.0,0.0,0.0,0.0,0.048566666666666536,-5.498166666666667,-5.498166666666667,-0.5859,-0.38549999999999995,0.02224999999999988,1.221,68.851,0.015000000000000001,-0.22360000000000002,-0.274,100.0,1.0,1.0,212.30333333333334,0.0,0.0,0.0,0.0,0.0,0.0,0.0,8998.7,0.0,55.0,5.0,247.83666666666664,0.0,0.0,0.0,0.0,0.0,0.0,0.0,0.0,1.2059999999999995,1.2059999999999995,0.0,0.0,0.0,55.0,616.79921,10000.0,85.000001,85.000001,85.000001,85.000001,395.0,0.0,0.0,0.0,1.0,166.665,52.704,52.704,47.47,47.47,34.0,-21.377499999999998,25.088,-27.536666666666665,30.087500000000002,0.0,1781.821,-0.3200000000000003,100.0,28.134,27.909,43.32,43.518,0.0,0.0,100.0,0.0,0.0,0.0,0.0,2930.285714285714,3112.0,4106.5,4173.6,305.861,305.02075,314.80575,314.561,21.996,20.6375,22.0268,21.5363,314.999998,314.999998,324.999988,324.999988,99.55875714285715,99.50735,99.56897142857143,99.54897142857143,0.10475000000000012,-0.03166666666666662,-0.0905,0.1335,-0.030000000000001137,-0.03999999999999915,1.5273333333333334,1.516,38.474999999999994,29.984333333333332,38.668,35.602000000000004,55.843,35.335,60.09,53.195499999999996,53.784,34.4505,58.6515,51.49,52.938,33.99,58.546,50.88366666666667,-0.10499999999999998,-0.0535000000000001,0.10651500000000001,0.105425,0.0,215.53,215.54000000000002,212.30333333333334,212.30333333333334,0.0,0.0
25,0.0,0.0,0.0,1.0,1.0,0.0,0.0,1.0,0.0,100.0,1.0,1.1856,26.0,0.0,0.0,0.0,55.000001,0.0,26.0,26.0,26.0,26.0,0.024222222222222145,0.2643,-0.026425,292.252,-2.753,-2.6413,-1.5966,-1.5262,-191.57999999999998,215.37,190.457625,0.0,0.0,0.0,0.0,0.05049999999999999,-5.498166666666667,-5.498166666666667,-0.6017,0.0020000000000000018,0.025374999999999925,0.23600000000000065,68.977,0.016,-0.21905000000000002,-0.28799999999999937,100.0,1.0,1.0,212.74333333333334,0.0,0.0,0.0,0.0,0.0,0.0,0.0,9017.4,0.0,55.0,5.0,248.29000000000002,1.0,0.0,0.0,0.0,0.0,0.0,0.0,0.0,1.2540000000000013,1.2540000000000013,0.0,0.0,1.0,55.0,616.79921,10000.0,85.000001,85.000001,85.000001,85.000001,395.0,0.0,0.0,0.0,1.0,333.33500000000004,51.926,51.926,47.806,47.806,34.0,-24.23,27.049999999999997,-26.84,30.1525,0.0,1781.77,-0.3299999999999983,100.0,28.003,28.062,43.067,43.341,0.0,0.0,100.0,0.0,0.0,0.0,0.0,3208.142857142857,3334.8,4008.125,4170.6,305.1495,304.3105,315.14775,314.59775,22.0047,20.6428,22.0366,21.5449,314.999998,314.999998,324.999988,324.999988,99.55875714285715,99.50735,99.56911428571429,99.54911428571428,0.10424999999999995,-0.031000000000000028,-0.08583333333333333,0.14566666666666667,-0.04333333333332945,-0.04999999999999716,1.5556666666666668,1.544,38.528999999999996,30.017666666666663,38.727999999999994,35.6555,55.83,35.374,60.124,53.254,53.771,34.4865,58.6835,51.5465,52.924,34.0245,58.575,50.939,-0.10650000000000004,-0.053999999999999826,0.10387500000000001,0.11853000000000001,0.0,215.92000000000002,215.94,212.74333333333334,212.74333333333334,0.0,0.0
26,0.0,0.0,0.0,1.0,1.0,0.0,0.0,1.0,0.0,100.0,1.0,1.1856,26.0,0.0,0.0,0.0,55.000001,0.0,26.0,26.0,26.0,26.0,0.038555555555555676,0.26890000000000014,0.04735,291.473,-2.7167,-2.7231,-1.5575,-1.5495999999999999,-188.06,215.365,190.432,0.0,0.0,0.0,0.0,0.05253333333333332,-5.498166666666667,-5.498166666666667,-0.5751000000000001,0.40449999999999997,0.013125000000000053,-0.6339999999999995,69.112,0.0151,-0.202,-0.21399999999999952,100.0,1.0,1.0,212.97,0.0,0.0,0.0,0.0,0.0,0.0,0.0,9027.1,0.0,55.0,5.0,248.77666666666664,0.0,0.0,0.0,0.0,0.0,0.0,0.0,0.0,1.3049999999999997,1.3049999999999997,0.0,0.0,0.0,55.0,616.79921,10000.0,85.000001,85.000001,85.000001,85.000001,395.0,0.0,0.0,0.0,1.0,166.665,51.788,51.788,46.692,46.692,34.0,-24.1775,24.734,-31.083333333333336,32.615,0.0,1781.722,-0.3949999999999996,100.0,28.555,28.662,43.367000000000004,43.778999999999996,0.0,0.0,100.0,0.0,0.0,0.0,0.0,3244.5714285714284,3008.3,4465.375,4445.2,305.1565,305.051,314.0295,313.83025,22.0142,20.6486,22.0471,21.5542,314.999998,314.999998,324.999988,324.999988,99.55878571428572,99.50736666666667,99.56925714285714,99.54925714285714,0.10199999999999987,-0.03833333333333333,-0.09516666666666668,0.1275,-0.04999999999999716,-0.04333333333332945,1.4449999999999998,1.428,38.589,30.053666666666665,38.794,35.714,55.821,35.411500000000004,60.16,53.3125,53.762,34.5215,58.717,51.6025,52.915,34.058,58.6055,50.994,-0.11250000000000004,-0.052000000000000046,0.10119,0.11154000000000001,0.0,216.375,216.39,212.97,212.97,0.0,0.0
27,0.0,0.0,0.0,1.0,1.0,0.0,0.0,1.0,0.0,100.0,1.0,1.1856,26.0,0.0,0.0,0.0,55.000001,0.0,26.0,26.0,26.0,26.0,0.020888888888888957,0.25370000000000004,-0.055900000000000005,291.87,-2.7585,-2.6665,-1.6176,-1.5323,-184.53,215.36,190.407375,0.0,0.0,0.0,0.0,0.05459999999999998,-5.498166666666667,-5.498166666666667,-0.5972000000000001,-0.8025,0.023749999999999938,0.7140000000000004,69.244,0.0177,-0.23767500000000003,-0.36799999999999944,100.0,1.0,1.0,213.49666666666667,0.0,0.0,0.0,0.0,0.0,0.0,0.0,9049.4,0.0,55.0,5.0,249.25,1.0,0.0,0.0,0.0,0.0,0.0,0.0,0.0,1.355999999999998,1.355999999999998,0.0,0.0,1.0,55.0,616.79921,10000.0,85.000001,85.000001,85.000001,85.000001,395.0,0.0,0.0,0.0,1.0,166.665,51.987,51.987,46.799,46.799,34.0,-22.6575,26.278,-28.47,29.892500000000002,0.0,1781.669,-0.3999999999999986,100.0,28.413,28.466,43.925,44.076,0.0,0.0,100.0,0.0,0.0,0.0,0.0,3039.714285714286,3228.0,4109.875,4142.9,305.623,304.616,314.8725,314.689,22.0235,20.6542,22.0577,21.5636,314.999998,314.999998,324.999988,324.999988,99.55878571428572,99.50736666666667,99.5694,99.5494,0.10875000000000012,-0.03200000000000003,-0.09183333333333334,0.14066666666666666,-0.03833333333332689,-0.03999999999999915,1.5223333333333333,1.5075,38.647,30.089,38.861000000000004,35.7725,55.809,35.4505,60.198,53.3735,53.751000000000005,34.5575,58.7525,51.661500000000004,52.902,34.0925,58.6375,51.05133333333333,-0.11099999999999999,-0.05549999999999988,0.10741500000000001,0.10343000000000001,0.0,216.73000000000002,216.75,213.49666666666667,213.49666666666667,0.0,0.0
28,0.0,0.0,0.0,1.0,1.0,0.0,0.0,1.0,0.0,100.0,1.0,1.1856,26.0,0.0,0.0,0.0,55.000001,0.0,26.0,26.0,26.0,26.0,0.033222222222222264,0.2691000000000001,-0.039150000000000004,292.007,-2.6874000000000002,-2.6532999999999998,-1.6315,-1.5611000000000002,-181.20999999999998,215.35500000000002,190.3835,0.0,0.0,0.0,0.0,0.056499999999999995,-5.498166666666667,-5.498166666666667,-0.603,0.514,0.011125000000000052,0.4060000000000006,69.367,0.020300000000000002,-0.21915,-0.38399999999999945,100.0,1.0,1.0,213.95666666666668,0.0,0.0,0.0,0.0,0.0,0.0,0.0,9068.9,0.0,55.0,5.0,249.69333333333333,0.0,0.0,0.0,0.0,0.0,0.0,0.0,0.0,1.404,1.404,0.0,0.0,0.0,55.0,616.79921,10000.0,85.000001,85.000001,85.000001,85.000001,395.0,0.0,0.0,0.0,1.0,333.33500000000004,51.879999999999995,51.879999999999995,47.455,47.455,34.0,-21.9925,26.146,-27.593333333333334,30.505,0.0,1781.621,-0.4250000000000007,100.0,28.541,28.451,43.412,43.723,0.0,0.0,100.0,0.0,0.0,0.0,0.0,3067.4285714285716,3216.5,4079.375,4140.1,305.448,304.6535,315.0315,314.68125,22.0323,20.6596,22.0674,21.5722,314.999998,314.999998,324.999988,324.999988,99.5588,99.50736666666667,99.56954285714286,99.54954285714285,0.11724999999999985,-0.02966666666666662,-0.081,0.14833333333333334,-0.036666666666668846,-0.060000000000002274,1.5573333333333332,1.5454999999999999,38.702,30.122666666666667,38.921,35.826,55.798,35.4875,60.229,53.428,53.741,34.591499999999996,58.781,51.714,52.891,34.1255,58.6635,51.102666666666664,-0.10949999999999993,-0.051000000000000156,0.10244,0.110765,0.0,217.14,217.17000000000002,213.95666666666668,213.95666666666668,0.0,0.0
29,0.0,0.0,0.0,1.0,1.0,0.0,0.0,1.0,0.0,100.0,1.0,1.1856,26.0,0.0,0.0,0.0,55.000001,0.0,26.0,26.0,26.0,26.0,0.05311111111111111,0.25550000000000006,-0.00905,291.84,-2.668,-2.7104,-1.5765,-1.5433,-177.67000000000002,215.35000000000002,190.357125,0.0,0.0,0.0,0.0,0.058566666666666545,-5.498166666666667,-5.498166666666667,-0.6032000000000001,-0.645,0.004874999999999963,-0.8250000000000002,69.5,0.0211,-0.214175,-0.33999999999999986,100.0,1.0,1.0,214.2,0.0,0.0,0.0,0.0,0.0,0.0,0.0,9079.2,0.0,55.0,5.0,250.17666666666668,1.0,0.0,0.0,0.0,0.0,0.0,0.0,0.0,1.4549999999999983,1.4549999999999983,0.0,0.0,1.0,55.0,616.79921,10000.0,85.000001,85.000001,85.000001,85.000001,395.0,0.0,0.0,0.0,1.0,166.665,52.368,52.368,46.722,46.722,34.0,-22.09,24.98,-29.496666666666666,31.25,0.0,1781.572,-0.495000000000001,100.0,28.049,28.441,43.696,44.11,0.0,0.0,100.0,0.0,0.0,0.0,0.0,3095.142857142857,3013.8,4238.125,4278.2,305.624,305.05975,314.57125,314.21925,22.0415,20.6652,22.0779,21.5816,314.999998,314.999998,324.999988,324.999988,99.55882857142858,99.50738333333334,99.56968571428571,99.54968571428572,0.10950000000000015,-0.030333333333333323,-0.09833333333333333,0.13333333333333336,-0.04833333333333201,-0.061666666666667425,1.4796666666666667,1.4649999999999999,38.76,30.157666666666664,38.986999999999995,35.8845,55.786,35.5255,60.266999999999996,53.489,53.727999999999994,34.6265,58.817,51.772999999999996,52.876999999999995,34.159,58.695499999999996,51.160333333333334,-0.11699999999999999,-0.04249999999999998,0.11316000000000001,0.11521500000000001,0.0,217.535,217.575,214.2,214.2,0.0,0.0
30,0.0,0.0,0.0,1.0,1.0,0.0,0.0,1.0,0.0,100.0,1.0,1.1856,26.0,0.0,0.0,0.0,55.000001,0.0,26.0,26.0,26.0,26.0,0.06911111111111112,0.24670000000000014,-0.006975,291.29,-2.6418,-2.7161,-1.6438000000000001,-1.5954000000000002,-174.32999999999998,215.3475,190.33225,0.0,0.0,0.0,0.0,0.06053333333333333,-5.498166666666667,-5.498166666666667,-0.6094,0.681,0.007874999999999854,-0.3689999999999998,69.622,0.024300000000000002,-0.220275,-0.46999999999999975,100.0,1.0,1.0,214.70666666666668,0.0,0.0,0.0,0.0,0.0,0.0,0.0,9100.6,0.0,55.0,5.0,250.61333333333334,0.0,0.0,0.0,0.0,0.0,0.0,1.0,0.0,1.5030000000000001,1.5030000000000001,0.0,0.0,0.0,55.0,616.79921,10000.0,85.000001,85.000001,85.000001,85.000001,395.0,0.0,0.0,0.0,1.0,166.665,50.537,50.537,47.348,47.348,34.0,-24.55,28.8,-29.026666666666664,30.0475,0.0,1781.523,-0.46999999999999886,100.0,28.899,28.999,43.444,44.038,0.0,0.0,100.0,0.0,0.0,0.0,0.0,3463.5714285714284,3411.8,4150.75,4059.0,304.5,303.934,315.00075,314.7605,22.0505,20.6708,22.0876,21.5903,314.999998,314.999998,324.999988,324.999988,99.55884285714286,99.50738333333334,99.56982857142857,99.54982857142858,0.11775000000000002,-0.029000000000000026,-0.09516666666666668,0.13766666666666666,-0.054999999999999716,-0.05666666666667197,1.5273333333333334,1.511,38.816,30.192333333333334,39.048,35.939,55.778,35.564,60.299,53.5445,53.721000000000004,34.662,58.8465,51.826499999999996,52.869,34.193,58.7225,51.21233333333333,-0.12549999999999994,-0.04700000000000015,0.11489500000000001,0.10547000000000001,0.0,217.935,217.965,214.70666666666668,214.70666666666668,0.0,0.0
31,0.0,0.0,0.0,1.0,1.0,0.0,0.0,1.0,0.0,100.0,1.0,1.1856,26.0,0.0,0.0,0.0,55.000001,0.0,26.0,26.0,26.0,26.0,0.03744444444444439,0.26,0.066275,290.726,-2.7767,-2.6203,-1.6511,-1.5381,-170.76999999999998,215.3475,190.30625,0.0,0.0,0.0,0.0,0.06256666666666655,-5.498166666666667,-5.498166666666667,-0.5855,-0.31400000000000006,0.023249999999999993,1.0150000000000006,69.755,0.0303,-0.21645,-0.45999999999999996,100.0,1.0,1.0,214.87666666666667,0.0,0.0,0.0,0.0,0.0,0.0,0.0,9107.9,0.0,55.0,5.0,251.09333333333336,1.0,0.0,0.0,0.0,0.0,0.0,1.0,0.0,1.5539999999999985,1.5539999999999985,0.0,0.0,1.0,55.0,616.79921,10000.0,85.000001,85.000001,85.000001,85.000001,395.0,0.0,0.0,0.0,1.0,166.665,51.193,51.193,45.547,45.547,34.0,-22.7475,27.746000000000002,-30.526666666666664,34.6325,0.0,1781.471,-0.4499999999999993,100.0,28.961,29.068,44.343,44.688,0.0,0.0,100.0,0.0,0.0,0.0,0.0,3101.142857142857,3367.3,4361.0,4516.4,305.4535,304.29225,314.17575,313.642,22.0598,20.6766,22.098300000000002,21.5998,314.999998,314.999998,324.999988,324.999988,99.55885714285715,99.50738333333334,99.56998571428572,99.54998571428571,0.12325000000000008,-0.01633333333333331,-0.07133333333333333,0.15166666666666667,-0.03166666666666629,-0.054999999999999716,1.4256666666666666,1.4044999999999999,38.873999999999995,30.228666666666665,39.114000000000004,35.9985,55.768,35.604,60.339,53.608000000000004,53.711,34.699,58.8835,51.8875,52.858000000000004,34.2285,58.756,51.272333333333336,-0.11450000000000005,-0.04999999999999982,0.108715,0.10858500000000001,0.0,218.325,218.38,214.87666666666667,214.87666666666667,0.0,0.0
32,0.0,0.0,0.0,1.0,1.0,0.0,0.0,1.0,0.0,100.0,1.0,1.1856,26.0,0.0,0.0,0.0,55.000001,0.0,26.0,26.0,26.0,26.0,0.053888888888888875,0.2712000000000001,-0.0117,291.306,-2.7071,-2.6722,-1.5953,-1.541,-167.20999999999998,215.3475,190.280875,0.0,0.0,0.0,0.0,0.06466666666666654,-5.498166666666667,-5.498166666666667,-0.6056,-0.33750000000000013,0.0017499999999999183,-1.0329999999999995,69.882,0.032100000000000004,-0.23240000000000002,-0.44200000000000017,100.0,1.0,1.0,215.42333333333335,0.0,0.0,0.0,0.0,0.0,0.0,0.0,9131.0,0.0,55.0,5.0,251.55,0.0,0.0,0.0,0.0,0.0,0.0,1.0,0.0,1.6050000000000004,1.6050000000000004,0.0,0.0,0.0,55.0,616.79921,10000.0,85.000001,85.000001,85.000001,85.000001,395.0,0.0,0.0,0.0,1.0,166.665,51.544,51.544,46.539,46.539,34.0,-22.4425,25.808,-27.96,31.712500000000002,0.0,1781.422,-0.5,100.0,28.671,29.149,44.13,44.71,0.0,0.0,100.0,0.0,0.0,0.0,0.0,3164.5714285714284,3097.3,4137.125,4282.3,305.3715,304.85125,314.82125,314.33,22.0691,20.6824,22.1087,21.609099999999998,314.999998,314.999998,324.999988,324.999988,99.55887142857142,99.5074,99.57012857142857,99.55012857142857,0.12449999999999983,-0.020333333333333314,-0.08316666666666667,0.14783333333333334,-0.04833333333333201,-0.03333333333333144,1.5213333333333332,1.501,38.932,30.265,39.179,36.057,55.757,35.6435,60.3735,53.668,53.701,34.7355,58.916,51.945,52.846000000000004,34.2635,58.785,51.32833333333333,-0.12149999999999994,-0.04400000000000004,0.107855,0.10568000000000001,0.0,218.715,218.745,215.42333333333335,215.42333333333335,0.0,0.0
33,0.0,0.0,0.0,1.0,1.0,0.0,0.0,1.0,0.0,100.0,1.0,1.1856,26.0,0.0,0.0,0.0,55.000001,0.0,26.0,26.0,26.0,26.0,0.05899999999999994,0.25250000000000017,-0.055625,291.611,-2.7369,-2.6834,-1.6001,-1.5804,-163.85,215.35000000000002,190.255875,0.0,0.0,0.0,0.0,0.06659999999999999,-5.498166666666667,-5.498166666666667,-0.6157,-0.23199999999999998,-0.0016250000000002096,-0.16999999999999993,70.003,0.033600000000000005,-0.21775,-0.45199999999999996,100.0,1.0,1.0,215.83333333333331,0.0,0.0,0.0,0.0,0.0,0.0,0.0,9148.3,0.0,55.0,5.0,251.98666666666668,1.0,0.0,0.0,0.0,0.0,0.0,1.0,0.0,1.6529999999999987,1.6529999999999987,0.0,0.0,1.0,55.0,616.79921,10000.0,85.000001,85.000001,85.000001,85.000001,395.0,0.0,0.0,0.0,1.0,166.665,51.819,51.819,46.921,46.921,34.0,-22.7125,25.136,-28.23,31.165,0.0,1781.373,-0.48999999999999844,100.0,28.545,28.897,43.891999999999996,44.459,0.0,0.0,100.0,0.0,0.0,0.0,0.0,3158.714285714286,3039.6,4130.75,4159.2,305.44,305.04375,314.8895,314.599,22.0777,20.6877,22.1185,21.6178,314.999998,314.999998,324.999988,324.999988,99.55888571428571,99.5074,99.57027142857143,99.55027142857143,0.12274999999999991,-0.02533333333333332,-0.0895,0.1475,-0.04833333333333201,-0.04333333333332945,1.5213333333333332,1.508,38.986000000000004,30.298333333333332,39.239999999999995,36.111,55.747,35.678,60.406,53.7225,53.691,34.768,58.946,51.9975,52.835,34.2945,58.812,51.379666666666665,-0.123,-0.04349999999999987,0.11614500000000001,0.106325,0.0,219.095,219.115,215.83333333333331,215.83333333333331,0.0,0.0
34,0.0,0.0,0.0,1.0,1.0,0.0,0.0,1.0,0.0,100.0,1.0,1.1856,26.0,0.0,0.0,0.0,55.000001,0.0,26.0,26.0,26.0,26.0,0.06088888888888899,0.24360000000000004,-0.066675,291.824,-2.6728,-2.6669,-1.6319,-1.5202,-160.28,215.35250000000002,190.227875,0.0,0.0,0.0,0.0,0.06866666666666654,-5.498166666666667,-5.498166666666667,-0.6405000000000001,-0.7945,0.02287499999999998,0.9500000000000011,70.133,0.0364,-0.2212,-0.4639999999999995,100.0,1.0,1.0,216.17333333333335,0.0,0.0,0.0,0.0,0.0,0.0,0.0,9162.8,0.0,55.0,5.0,252.45,0.0,0.0,0.0,0.0,0.0,0.0,1.0,0.0,1.7040000000000006,1.7040000000000006,0.0,0.0,0.0,55.0,616.79921,10000.0,85.000001,85.000001,85.000001,85.000001,395.0,0.0,0.0,0.0,1.0,333.33500000000004,52.322,52.322,47.043,47.043,34.0,-20.6375,25.582,-27.653333333333336,32.1425,0.0,1781.32,-0.46499999999999986,100.0,28.414,28.471,43.822,44.453,0.0,0.0,100.0,0.0,0.0,0.0,0.0,2952.285714285714,3063.4,4107.125,4274.7,305.877,305.06925,314.91325,314.409,22.0868,20.6933,22.1289,21.6271,314.999998,314.999998,324.999988,324.999988,99.5589,99.5074,99.57041428571429,99.55042857142857,0.12225000000000019,-0.013333333333333308,-0.07183333333333333,0.16383333333333336,-0.021666666666668277,-0.051666666666669414,1.5106666666666666,1.4975,39.043,30.333333333333336,39.305,36.1695,55.735,35.7145,60.4405,53.783,53.679,34.8015,58.9775,52.056,52.823,34.326499999999996,58.8405,51.43666666666667,-0.11499999999999999,-0.04249999999999998,0.104465,0.11577000000000001,0.0,219.46,219.515,216.17333333333335,216.17333333333335,0.0,0.0
35,0.0,0.0,0.0,1.0,1.0,0.0,0.0,1.0,0.0,100.0,1.0,1.1856,26.0,0.0,0.0,0.0,55.000001,0.0,26.0,26.0,26.0,26.0,0.053888888888888875,0.25039999999999996,-0.08755,291.702,-2.8042,-2.6503,-1.5444,-1.5782,-156.49,215.35500000000002,190.19625,0.0,0.0,0.0,0.0,0.07089999999999996,-5.498166666666667,-5.498166666666667,-0.6786,-0.04849999999999999,0.0021249999999999325,-0.2599999999999998,70.266,0.0352,-0.227025,-0.42600000000000016,100.0,1.0,1.0,216.69,0.0,0.0,0.0,0.0,0.0,0.0,0.0,9184.6,0.0,55.0,5.0,252.93333333333334,1.0,0.0,0.0,0.0,0.0,0.0,1.0,0.0,1.7579999999999991,1.7579999999999991,0.0,0.0,1.0,55.0,616.79921,10000.0,85.000001,85.000001,85.000001,85.000001,395.0,0.0,0.0,0.0,1.0,166.665,51.59,51.59,46.814,46.814,34.0,-22.8025,28.564,-25.906666666666666,30.5825,0.0,1781.267,-0.33999999999999986,100.0,28.332,28.805,43.629,44.022000000000006,0.0,0.0,100.0,0.0,0.0,0.0,0.0,3086.0,3393.0,4078.625,4065.4,305.4735,304.113,315.042,314.934,22.0964,20.6995,22.1398,21.6368,314.999998,314.999998,324.999988,324.999988,99.55891428571428,99.5074,99.57057142857143,99.55058571428572,0.1259999999999999,-0.013333333333333308,-0.07033333333333333,0.15966666666666665,-0.04833333333333201,-0.04833333333333201,1.5523333333333333,1.5434999999999999,39.102999999999994,30.372,39.373999999999995,36.2305,55.721000000000004,35.7565,60.475,53.8425,53.666,34.8405,59.01,52.1135,52.808,34.364,58.869,51.493,-0.10949999999999993,-0.05250000000000021,0.10726000000000001,0.104895,0.0,219.91,219.93,216.69,216.69,0.0,0.0
36,0.0,0.0,0.0,1.0,1.0,0.0,0.0,1.0,0.0,100.0,1.0,1.1856,26.0,0.0,0.0,0.0,55.000001,0.0,26.0,26.0,26.0,26.0,0.0625555555555557,0.2650000000000001,0.044025,291.138,-2.6471,-2.7157,-1.6487,-1.5918999999999999,-153.10999999999999,215.36,190.167,0.0,0.0,0.0,0.0,0.0728333333333333,-5.498166666666667,-5.498166666666667,-0.6614,0.014499999999999957,-0.04012500000000019,0.3049999999999997,70.389,0.033,-0.2028,-0.3899999999999997,100.0,1.0,1.0,216.84,0.0,0.0,0.0,0.0,0.0,0.0,0.0,9191.0,0.0,55.0,5.0,253.37333333333333,0.0,0.0,0.0,0.0,0.0,0.0,1.0,0.0,1.806000000000001,1.806000000000001,0.0,0.0,0.0,55.0,616.79921,10000.0,85.000001,85.000001,85.000001,85.000001,395.0,0.0,0.0,0.0,1.0,166.665,51.772999999999996,51.772999999999996,46.295,46.295,34.0,-20.77,26.212,-30.376666666666665,34.8775,0.0,1781.221,-0.259999999999998,100.0,28.887999999999998,28.762,43.938,44.284,0.0,0.0,100.0,0.0,0.0,0.0,0.0,2993.0,3114.8,4385.625,4486.0,305.5905,304.9165,314.2165,313.8635,22.1051,20.705,22.1497,21.645699999999998,314.999998,314.999998,324.999988,324.999988,99.55892857142857,99.5074,99.57071428571429,99.55072857142858,0.12575000000000003,-0.02066666666666661,-0.0695,0.15283333333333335,-0.051666666666669414,-0.03833333333332689,1.4533333333333334,1.439,39.157,30.406333333333336,39.436,36.2855,55.712,35.793,60.5095,53.9,53.657,34.8745,59.042,52.1685,52.798,34.3965,58.897999999999996,51.547,-0.10899999999999999,-0.058499999999999996,0.10923000000000001,0.10652,0.0,220.305,220.32,216.84,216.84,0.0,0.0
