,ABS Active,ABS Enabled,AID Allow Tire Blankets,AID Auto Blip,AID Auto Clutch,AID Auto Shift,AID Fuel Rate,AID Ideal Line,AID Mech Damage,AID Stability,AID Tire Wear Rate,Air Density,Air Temp,Ballast,Best Lap Delta,Best Lap Time,Brake Bias,Brake Pos,Brake Temp FL,Brake Temp FR,Brake Temp RL,Brake Temp RR,CG Accel Lateral,CG Accel Longitudinal,CG Accel Vertical,CG Height,Camber FL,Camber FR,Camber RL,Camber RR,Car Coord X,Car Coord Y,Car Coord Z,Car Damage Front,Car Damage Left,Car Damage Rear,Car Damage Right,Car Pos Norm,Caster FL,Caster FR,Chassis Pitch Angle,Chassis Pitch Rate,Chassis Roll Angle,Chassis Roll Rate,Chassis Velocity X,Chassis Velocity Y,Chassis Velocity Z,Chassis Yaw Rate,Clutch Pos,DRS Active,DRS Available,Drive Train Speed,ERS Heat Charging,ERS Is Charging,ERS Max Energy,ERS Power Level,ERS Recovery Level,Engine Brake Setting,Engine Limiter,Engine RPM,Flags,Fuel Level,Gear,Ground Speed,HR Sample Clock,In Pit,KERS Charge,KERS Deployed Energy,KERS Input,KERS Max Energy,LR Sample Clock,Lap Invalidated,Lap Time,Lap Time2,Last Lap Time,Last Sector Time,MR Sample Clock,Max Fuel,Max Power,Max RPM,Max Sus Travel FL,Max Sus Travel FR,Max Sus Travel RL,Max Sus Travel RR,Max Torque,Max Turbo Boost,Num Tires Off Track,Penalties Enabled,Position,Raw Data Sample Rate,Ride Height FL,Ride Height FR,Ride Height RL,Ride Height RR,Road Temp,Self Align Torque FL,Self Align Torque FR,Self Align Torque RL,Self Align Torque RR,Session Lap Count,Session Time Left,Steering Angle,Surface Grip,Suspension Travel FL,Suspension Travel FR,Suspension Travel RL,Suspension Travel RR,TC Active,TC Enabled,Throttle Pos,Tire Dirt Level FL,Tire Dirt Level FR,Tire Dirt Level RL,Tire Dirt Level RR,Tire Load FL,Tire Load FR,Tire Load RL,Tire Load RR,Tire Loaded Radius FL,Tire Loaded Radius FR,Tire Loaded Radius RL,Tire Loaded Radius RR,Tire Pressure FL,Tire Pressure FR,Tire Pressure RL,Tire Pressure RR,Tire Radius FL,Tire Radius FR,Tire Radius RL,Tire Radius RR,Tire Rubber Grip FL,Tire Rubber Grip FR,Tire Rubber Grip RL,Tire Rubber Grip RR,Tire Slip Angle FL,Tire Slip Angle FR,Tire Slip Angle RL,Tire Slip Angle RR,Tire Slip Ratio FL,Tire Slip Ratio FR,Tire Slip Ratio RL,Tire Slip Ratio RR,Tire Temp Core FL,Tire Temp Core FR,Tire Temp Core RL,Tire Temp Core RR,Tire Temp Inner FL,Tire Temp Inner FR,Tire Temp Inner RL,Tire Temp Inner RR,Tire Temp Middle FL,Tire Temp Middle FR,Tire Temp Middle RL,Tire Temp Middle RR,Tire Temp Outer FL,Tire Temp Outer FR,Tire Temp Outer RL,Tire Temp Outer RR,Toe In FL,Toe In FR,Toe In RL,Toe In RR,Turbo Boost,Wheel Angular Speed FL,Wheel Angular Speed FR,Wheel Angular Speed RL,Wheel Angular Speed RR,Wind Direction,Wind Speed
0,0.0,0.0,0.0,1.0,1.0,0.0,0.0,1.0,0.0,100.0,1.0,1.1856,26.0,0.0,0.0,0.0,55.0,0.0,26.0,26.0,26.0,26.0,-0.06911111111111101,0.2962,0.066,293.793,-2.7227,-2.6466250000000002,-1.52405,-1.5525,-275.66,216.3,190.98725,0.0,0.0,0.0,0.0,0.0015999999999999348,-5.498166666666667,-5.498166666666667,-0.55,1.415,-0.00011111111111095084,-0.44699999999999995,65.516,-0.033100000000000004,-0.21632500000000002,0.9900000000000002,100.0,1.0,1.0,202.2733333333333,0.0,0.0,0.0,0.0,0.0,0.0,0.0,8573.6,0.0,55.0,5.0,235.82666666666665,0.0,0.0,0.0,0.0,0.0,0.0,0.0,0.0,0.0030000000000001137,0.0030000000000001137,0.0,0.0,0.0,55.0,616.79921,10000.0,85.0,85.0,85.0,85.0,395.0,0.0,0.0,0.0,1.0,20.0,52.505,52.505,49.376999999999995,49.376999999999995,34.0,-25.565,23.966,-29.88,25.6125,0.0,1782.863,0.7349999999999994,100.0,27.778,27.308,40.647,40.755,0.0,0.0,100.0,0.0,0.0,0.0,0.0,2962.75,3391.9,4114.666666666667,4036.1000000000004,305.81533333333334,304.0605,314.8335,314.7895,21.7611,20.5119,21.7825,21.3185,314.99999,314.99999,324.99998,324.99998,99.55785714285715,99.50713333333333,99.56578571428571,99.54544285714286,0.008999999999999897,-0.10899999999999999,-0.14916666666666667,0.074,-0.046666666666666856,-0.04571428571428271,1.547,1.5825,37.007,29.199333333333335,37.141,34.2405,55.932,34.3765,59.260999999999996,51.728,53.881,33.5805,57.8865,50.075,53.069,33.174,57.8565,49.49333333333333,-0.020499999999999963,-0.13000000000000012,0.09981000000000001,0.11642000000000001,0.0,205.325,205.25,202.2733333333333,202.2733333333333,0.0,0.0
1,0.0,0.0,0.0,1.0,1.0,0.0,0.0,1.0,0.0,100.0,1.0,1.1856,26.0,0.0,0.0,0.0,55.000001,0.0,26.0,26.0,26.0,26.0,-0.09944444444444445,0.3123,-0.007775000000000001,292.892,-2.6365,-2.762125,-1.5312000000000001,-1.5511,-272.12,216.29250000000002,190.966,0.0,0.0,0.0,0.0,0.003666666666666596,-5.498166666666667,-5.498166666666667,-0.5025000000000001,-0.782,-0.05166666666666675,-0.388,65.679,-0.0502,-0.205575,1.2960000000000003,100.0,1.0,1.0,202.47,0.0,0.0,0.0,0.0,0.0,0.0,0.0,8581.9,0.0,55.0,5.0,236.41666666666669,1.0,0.0,0.0,0.0,0.0,0.0,0.0,0.0,0.05699999999999861,0.05699999999999861,0.0,0.0,1.0,55.0,616.79921,10000.0,85.000001,85.000001,85.000001,85.000001,395.0,0.0,0.0,0.0,1.0,166.665,53.299,53.299,48.294,48.294,34.0,-26.21,18.735999999999997,-32.9,29.72,0.0,1782.808,0.875,100.0,27.81,27.206,42.829,41.913,0.0,0.0,100.0,0.0,0.0,0.0,0.0,3055.5,2732.1,4252.777777777777,4699.0,305.441,306.144,314.4015,313.1485,21.7715,20.5173,21.794,21.3282,314.999998,314.999998,324.999988,324.999988,99.55785714285715,99.50716666666666,99.56592857142857,99.5456,0.0009999999999998899,-0.1303333333333333,-0.16733333333333333,0.04883333333333334,-0.061666666666667425,-0.05142857142856627,1.4205,1.474,37.072,29.233,37.213,34.301,55.915,34.4195,59.3085,51.797,53.864999999999995,33.6205,57.9305,50.141,53.053,33.212,57.8975,49.558,-0.012499999999999956,-0.14000000000000012,0.103855,0.10898500000000001,0.0,205.79500000000002,205.695,202.47,202.47,0.0,0.0
2,0.0,0.0,0.0,1.0,1.0,0.0,0.0,1.0,0.0,100.0,1.0,1.1856,26.0,0.0,0.0,0.0,55.000001,0.0,26.0,26.0,26.0,26.0,-0.12577777777777777,0.2815000000000001,-0.010450000000000001,293.564,-2.6054,-2.78625,-1.4942,-1.6051000000000002,-268.77,216.285,190.94725,0.0,0.0,0.0,0.0,0.005599999999999938,-5.498166666666667,-5.498166666666667,-0.5505,0.21499999999999997,-0.04477777777777803,1.7530000000000001,65.821,-0.067,-0.25265,1.5700000000000003,100.0,1.0,1.0,203.38,0.0,0.0,0.0,0.0,0.0,0.0,0.0,8620.5,0.0,55.0,5.0,236.93,0.0,0.0,0.0,0.0,0.0,0.0,0.0,0.0,0.10800000000000054,0.10800000000000054,0.0,0.0,0.0,55.0,616.79921,10000.0,85.000001,85.000001,85.000001,85.000001,395.0,0.0,0.0,0.0,1.0,166.665,52.231,52.231,50.095,50.095,34.0,-30.3425,19.768,-29.44333333333333,20.7025,0.0,1782.757,0.7850000000000001,100.0,28.426000000000002,27.239,42.537,41.418,0.0,0.0,100.0,0.0,0.0,0.0,0.0,3375.5,2932.2,3762.3333333333335,3732.1000000000004,304.5466666666667,305.46475,315.636,315.6505,21.7816,20.5222,21.8045,21.3369,314.999998,314.999998,324.999988,324.999988,99.55787142857143,99.50718333333333,99.56607142857143,99.54572857142857,-0.02774999999999994,-0.15100000000000002,-0.2225,0.013000000000000001,-0.05666666666667197,-0.07571428571428385,1.629,1.6755,37.135,29.264,37.278,34.3555,55.903999999999996,34.4595,59.3455,51.853,53.854,33.6565,57.965,50.1945,53.041,33.24666666666667,57.929,49.61066666666667,-0.017000000000000015,-0.13650000000000007,0.11014000000000002,0.109435,0.0,206.25,206.11,203.38,203.38,0.0,0.0
3,0.0,0.0,0.0,1.0,1.0,0.0,0.0,1.0,0.0,100.0,1.0,1.1856,26.0,0.0,0.0,0.0,55.000001,0.0,26.0,26.0,26.0,26.0,-0.1383333333333333,0.29910000000000014,-0.039025000000000004,293.35,-2.7298,-2.6881250000000003,-1.51455,-1.5916000000000001,-265.6,216.2725,190.92875,0.0,0.0,0.0,0.0,0.0074666666666665105,-5.498166666666667,-5.498166666666667,-0.5101,0.40449999999999997,-0.010555555555555873,-0.996,65.965,-0.07880000000000001,-0.20292500000000002,1.2240000000000002,100.0,1.0,1.0,203.49666666666667,0.0,0.0,0.0,0.0,0.0,0.0,0.0,8625.5,0.0,55.0,5.0,237.44333333333333,1.0,0.0,0.0,0.0,0.0,0.0,0.0,0.0,0.1559999999999988,0.1559999999999988,0.0,0.0,1.0,55.0,616.79921,10000.0,85.000001,85.000001,85.000001,85.000001,395.0,0.0,0.0,0.0,1.0,166.665,53.467,53.467,48.05,48.05,34.0,-25.69,17.852,-35.78333333333333,24.695,0.0,1782.709,0.6600000000000001,100.0,28.006,27.197,42.438,41.561,0.0,0.0,100.0,0.0,0.0,0.0,0.0,2851.125,2789.6,4352.777777777777,4226.7,306.125,305.7605,314.25975,314.32,21.7907,20.5271,21.8144,21.3453,314.999998,314.999998,324.999988,324.999988,99.55787142857143,99.5072,99.5662,99.54585714285714,-0.021749999999999936,-0.15500000000000003,-0.21483333333333335,0.0145,-0.03166666666666629,-0.04285714285714448,1.4649999999999999,1.5195,37.192,29.294333333333334,37.34,34.408,55.888999999999996,34.4995,59.3825,51.911500000000004,53.84,33.694,57.9995,50.251,53.025999999999996,33.282333333333334,57.961,49.666,-0.02849999999999997,-0.12450000000000006,0.11009000000000001,0.11273000000000001,0.0,206.69,206.585,203.49666666666667,203.49666666666667,0.0,0.0
4,0.0,0.0,0.0,1.0,1.0,0.0,0.0,1.0,0.0,100.0,1.0,1.1856,26.0,0.0,0.0,0.0,55.000001,0.0,26.0,26.0,26.0,26.0,-0.1356666666666666,0.28900000000000015,-0.0291,293.594,-2.6632,-2.73775,-1.5289000000000001,-1.5972,-262.43,216.26,190.910125,0.0,0.0,0.0,0.0,0.009299999999999975,-5.498166666666667,-5.498166666666667,-0.5448000000000001,-0.7304999999999999,-0.07622222222222241,-1.77,66.102,-0.08220000000000001,-0.23845000000000002,1.1799999999999997,100.0,1.0,1.0,204.06666666666666,0.0,0.0,0.0,0.0,0.0,0.0,0.0,8649.6,0.0,55.0,5.0,237.94,0.0,0.0,0.0,0.0,0.0,0.0,0.0,0.0,0.20400000000000063,0.20400000000000063,0.0,0.0,0.0,55.0,616.79921,10000.0,85.000001,85.000001,85.000001,85.000001,395.0,0.0,0.0,0.0,1.0,333.33500000000004,53.009,53.009,48.737,48.737,34.0,-29.055,19.322,-32.7,20.6675,0.0,1782.659,0.5949999999999989,100.0,27.745,26.98,42.807,41.569,0.0,0.0,100.0,0.0,0.0,0.0,0.0,3256.375,2885.7,4104.555555555556,3680.3,305.064,305.493,314.81425,315.65275,21.7997,20.5319,21.8244,21.3536,314.999998,314.999998,324.999988,324.999988,99.55787142857143,99.50721666666666,99.56634285714286,99.54598571428572,-0.01924999999999999,-0.14600000000000002,-0.20583333333333334,0.015166666666666667,-0.04833333333333201,-0.03999999999999915,1.561,1.623,37.248000000000005,29.324333333333335,37.402,34.46,55.873000000000005,34.539,59.421,51.967,53.824,33.730000000000004,58.0355,50.3035,53.01,33.31666666666666,57.9945,49.717666666666666,-0.029000000000000026,-0.119,0.10716,0.10297500000000001,0.0,207.075,206.985,204.06666666666666,204.06666666666666,0.0,0.0
5,0.0,0.0,0.0,1.0,1.0,0.0,0.0,1.0,0.0,100.0,1.0,1.1856,26.0,0.0,0.0,0.0,55.000001,0.0,26.0,26.0,26.0,26.0,-0.13722222222222213,0.29520000000000013,-0.009875,293.61,-2.6695,-2.768125,-1.5101499999999999,-1.5863,-259.06,216.24,190.88975,0.0,0.0,0.0,0.0,0.011266666666666536,-5.498166666666667,-5.498166666666667,-0.536,0.43799999999999994,-0.07988888888888868,1.0859999999999999,66.249,-0.08410000000000001,-0.213925,0.984,100.0,1.0,1.0,204.45666666666668,0.0,0.0,0.0,0.0,0.0,0.0,0.0,8666.2,0.0,55.0,5.0,238.46666666666667,1.0,0.0,0.0,0.0,0.0,0.0,0.0,0.0,0.254999999999999,0.254999999999999,0.0,0.0,1.0,55.0,616.79921,10000.0,85.000001,85.000001,85.000001,85.000001,395.0,0.0,0.0,0.0,1.0,166.665,53.421,53.421,48.95,48.95,34.0,-27.0175,19.928,-32.74,23.442500000000003,0.0,1782.61,0.26000000000000156,100.0,27.991,26.689,42.657,41.153,0.0,0.0,100.0,0.0,0.0,0.0,0.0,3079.625,2846.4,4139.555555555556,4099.1,305.38966666666664,305.83425,314.75925,314.72875,21.8096,20.537,21.8349,21.3624,314.999998,314.999998,324.999988,324.999988,99.55788571428572,99.50723333333333,99.56648571428572,99.54611428571428,-0.005749999999999922,-0.1233333333333334,-0.20466666666666666,0.015,-0.03999999999999915,-0.03714285714285381,1.551,1.5775000000000001,37.31,29.356,37.468,34.5145,55.858999999999995,34.579499999999996,59.46,52.024,53.812,33.7675,58.0725,50.3585,52.995999999999995,33.352333333333334,58.028,49.77133333333333,-0.056499999999999995,-0.09200000000000008,0.10789000000000001,0.10827500000000001,0.0,207.585,207.47,204.45666666666668,204.45666666666668,0.0,0.0
6,0.0,0.0,0.0,1.0,1.0,0.0,0.0,1.0,0.0,100.0,1.0,1.1856,26.0,0.0,0.0,0.0,55.000001,0.0,26.0,26.0,26.0,26.0,-0.11855555555555553,0.2763,0.013025,293.411,-2.6365,-2.742375,-1.5547,-1.5838999999999999,-255.87,216.22,190.8705,0.0,0.0,0.0,0.0,0.0131,-5.498166666666667,-5.498166666666667,-0.532,0.09099999999999997,-0.06177777777777793,0.8680000000000001,66.387,-0.0805,-0.2162,0.7479999999999993,100.0,1.0,1.0,204.88333333333333,0.0,0.0,0.0,0.0,0.0,0.0,0.0,8684.2,0.0,55.0,5.0,238.96333333333334,0.0,0.0,0.0,0.0,0.0,0.0,0.0,0.0,0.3030000000000008,0.3030000000000008,0.0,0.0,0.0,55.0,616.79921,10000.0,85.000001,85.000001,85.000001,85.000001,395.0,0.0,0.0,0.0,1.0,166.665,53.024,53.024,48.737,48.737,34.0,-26.755,21.25,-32.46333333333333,23.85,0.0,1782.563,0.09499999999999886,100.0,27.91,26.786,42.807,41.522,0.0,0.0,100.0,0.0,0.0,0.0,0.0,3126.375,3003.2,4060.8888888888887,4038.8,305.229,305.30725,314.93475,314.87325,21.8188,20.5418,21.8448,21.3708,314.999998,314.999998,324.999988,324.999988,99.55788571428572,99.50723333333333,99.56661428571428,99.54625714285714,0.00550000000000006,-0.1183333333333334,-0.2,0.03066666666666667,-0.03333333333333144,-0.06142857142857139,1.5325,1.565,37.367000000000004,29.386333333333333,37.53,34.567499999999995,55.846000000000004,34.618,59.4975,52.0815,53.798,33.8025,58.107,50.4135,52.982,33.385999999999996,58.0605,49.82533333333333,-0.0635,-0.08099999999999996,0.112195,0.10413000000000001,0.0,207.985,207.925,204.88333333333333,204.88333333333333,0.0,0.0
7,0.0,0.0,0.0,1.0,1.0,0.0,0.0,1.0,0.0,100.0,1.0,1.1856,26.0,0.0,0.0,0.0,55.000001,0.0,26.0,26.0,26.0,26.0,-0.08344444444444443,0.2845,0.018875,293.137,-2.6108,-2.728625,-1.5149,-1.6248,-252.49,216.1975,190.85,0.0,0.0,0.0,0.0,0.015066666666666562,-5.498166666666667,-5.498166666666667,-0.5348,-0.030999999999999917,-0.052000000000000046,-0.14400000000000002,66.533,-0.0644,-0.224725,0.41999999999999993,100.0,1.0,1.0,205.29666666666668,0.0,0.0,0.0,0.0,0.0,0.0,0.0,8701.8,0.0,55.0,5.0,239.49,1.0,0.0,0.0,0.0,0.0,0.0,0.0,0.0,0.3539999999999992,0.3539999999999992,0.0,0.0,1.0,55.0,616.79921,10000.0,85.000001,85.000001,85.000001,85.000001,395.0,0.0,0.0,0.0,1.0,333.33500000000004,52.734,52.734,48.782,48.782,34.0,-27.009999999999998,21.966,-31.563333333333333,24.96,0.0,1782.511,-0.2049999999999983,100.0,27.86,26.998,42.749,41.866,0.0,0.0,100.0,0.0,0.0,0.0,0.0,3299.75,2964.4,4103.666666666667,4049.4,304.80966666666666,305.26725,314.8355,314.69825,21.8286,20.547,21.8554,21.3798,314.999998,314.999998,324.999988,324.999988,99.55788571428572,99.50725,99.56677142857143,99.5464,0.03000000000000025,-0.09466666666666657,-0.18266666666666667,0.034666666666666665,-0.04333333333332945,-0.04142857142856826,1.516,1.54,37.429,29.418666666666667,37.596000000000004,34.624,55.832,34.6575,59.537,52.141999999999996,53.785,33.839,58.144,50.4715,52.968,33.42066666666666,58.094,49.882,-0.08999999999999997,-0.05699999999999994,0.10423500000000001,0.10451500000000001,0.0,208.39499999999998,208.35500000000002,205.29666666666668,205.29666666666668,0.0,0.0
8,0.0,0.0,0.0,1.0,1.0,0.0,0.0,1.0,0.0,100.0,1.0,1.1856,26.0,0.0,0.0,0.0,55.000001,0.0,26.0,26.0,26.0,26.0,-0.03400000000000003,0.2933000000000001,-0.049175,293.457,-2.6985,-2.7102500000000003,-1.5021,-1.5724,-248.89,216.17000000000002,190.82825,0.0,0.0,0.0,0.0,0.017166666666666552,-5.498166666666667,-5.498166666666667,-0.5374,-0.5315000000000001,-0.03200000000000003,-0.508,66.688,-0.0448,-0.21782500000000002,-0.0039999999999995595,100.0,1.0,1.0,205.73333333333335,0.0,0.0,0.0,0.0,0.0,0.0,0.0,8720.3,0.0,55.0,5.0,240.04666666666668,0.0,0.0,0.0,0.0,0.0,0.0,0.0,0.0,0.40800000000000125,0.40800000000000125,0.0,0.0,0.0,55.0,616.79921,10000.0,85.000001,85.000001,85.000001,85.000001,395.0,0.0,0.0,0.0,1.0,166.665,53.574,53.574,48.187,48.187,34.0,-24.169999999999998,22.025999999999996,-30.57,26.69,0.0,1782.458,-0.33999999999999986,100.0,27.447,26.976,42.742000000000004,42.014,0.0,0.0,100.0,0.0,0.0,0.0,0.0,2985.5,2926.9,4131.444444444444,4084.0,305.88366666666667,305.4105,314.75125,314.6135,21.8387,20.5525,21.8665,21.3893,314.999998,314.999998,324.999988,324.999988,99.55788571428572,99.50726666666667,99.56691428571429,99.54654285714285,0.04150000000000009,-0.07999999999999996,-0.15933333333333335,0.07566666666666667,-0.03166666666666629,-0.030000000000001137,1.5025,1.5230000000000001,37.492000000000004,29.453,37.666,34.683,55.815,34.698,59.578,52.2055,53.769,33.8765,58.182,50.533,52.951,33.45666666666666,58.129,49.942,-0.09599999999999997,-0.046499999999999986,0.10850000000000001,0.110155,0.0,208.84,208.835,205.73333333333335,205.73333333333335,0.0,0.0
9,0.0,0.0,0.0,1.0,1.0,0.0,0.0,1.0,0.0,100.0,1.0,1.1856,26.0,0.0,0.0,0.0,55.000001,0.0,26.0,26.0,26.0,26.0,-0.008555555555555538,0.29869999999999997,-0.009250000000000001,293.076,-2.6242,-2.7193750000000003,-1.5535999999999999,-1.5556999999999999,-245.68,216.14249999999998,190.808375,0.0,0.0,0.0,0.0,0.019033333333333347,-5.498166666666667,-5.498166666666667,-0.5412,0.7010000000000001,-0.03533333333333344,-0.35,66.822,-0.0269,-0.21610000000000001,-0.10799999999999965,100.0,1.0,1.0,206.24,0.0,0.0,0.0,0.0,0.0,0.0,0.0,8741.8,0.0,55.0,5.0,240.52666666666667,1.0,0.0,0.0,0.0,0.0,0.0,0.0,0.0,0.4559999999999995,0.4559999999999995,0.0,0.0,1.0,55.0,616.79921,10000.0,85.000001,85.000001,85.000001,85.000001,395.0,0.0,0.0,0.0,1.0,166.665,52.353,52.353,49.149,49.149,34.0,-25.7,23.775999999999996,-28.606666666666666,26.5375,0.0,1782.408,-0.46999999999999886,100.0,27.921,27.38,42.370000000000005,41.972,0.0,0.0,100.0,0.0,0.0,0.0,0.0,3356.125,3002.3,4043.3333333333335,4059.1000000000004,304.65433333333334,305.09675,315.09025,314.78525,21.8479,20.5575,21.8763,21.3977,314.999998,314.999998,324.999988,324.999988,99.5579,99.50726666666667,99.56704285714285,99.54668571428572,0.07250000000000023,-0.05733333333333335,-0.131,0.08816666666666667,-0.04333333333332945,-0.05142857142856627,1.5685,1.581,37.549,29.484666666666666,37.727000000000004,34.736,55.804,34.7355,59.6115,52.260999999999996,53.757999999999996,33.911,58.213,50.586,52.94,33.489666666666665,58.1575,49.994,-0.11249999999999993,-0.03950000000000009,0.10199000000000001,0.10720500000000001,0.0,209.285,209.29000000000002,206.24,206.24,0.0,0.0
10,0.0,0.0,0.0,1.0,1.0,0.0,0.0,1.0,0.0,100.0,1.0,1.1856,26.0,0.0,0.0,0.0,55.000001,0.0,26.0,26.0,26.0,26.0,0.001000000000000112,0.29069999999999996,0.0012000000000000001,292.938,-2.6617,-2.699875,-1.536,-1.5359,-242.47,216.1175,190.788875,0.0,0.0,0.0,0.0,0.02089999999999992,-5.498166666666667,-5.498166666666667,-0.5182,-0.37349999999999994,0.006555555555555648,0.3560000000000001,66.96000000000001,-0.0091,-0.207625,-0.4560000000000004,100.0,1.0,1.0,206.46,0.0,0.0,0.0,0.0,0.0,0.0,0.0,8751.1,0.0,55.0,5.0,241.02666666666664,0.0,0.0,0.0,0.0,0.0,0.0,1.0,0.0,0.5040000000000013,0.5040000000000013,0.0,0.0,0.0,55.0,616.79921,10000.0,85.000001,85.000001,85.000001,85.000001,395.0,0.0,0.0,0.0,1.0,166.665,53.421,53.421,47.607,47.607,34.0,-21.25,22.951999999999998,-30.83,29.1875,0.0,1782.362,-0.625,100.0,27.733,27.373,42.783,42.723,0.0,0.0,100.0,0.0,0.0,0.0,0.0,2897.125,2869.5,4330.888888888889,4278.1,306.05133333333333,305.54625,314.27775,314.15575,21.857,20.5625,21.8863,21.4064,314.999998,314.999998,324.999988,324.999988,99.55791428571429,99.50728333333333,99.56718571428571,99.54681428571429,0.08975,-0.042333333333333334,-0.12,0.09883333333333333,-0.03333333333333144,-0.028571428571432023,1.4805000000000001,1.468,37.605999999999995,29.515666666666668,37.79,34.79,55.792,34.7705,59.6495,52.321,53.747,33.943,58.249,50.6435,52.928,33.519999999999996,58.19,50.050666666666665,-0.12649999999999995,-0.02499999999999991,0.10651000000000001,0.101235,0.0,209.68,209.715,206.46,206.46,0.0,0.0
11,0.0,0.0,0.0,1.0,1.0,0.0,0.0,1.0,0.0,100.0,1.0,1.1856,26.0,0.0,0.0,0.0,55.000001,0.0,26.0,26.0,26.0,26.0,0.029111111111111088,0.2650000000000001,-0.071075,293.51800000000003,-2.7062,-2.686875,-1.5900500000000002,-1.5248,-239.05,216.09,190.768125,0.0,0.0,0.0,0.0,0.022599999999999953,-5.498166666666667,-5.498166666666667,-0.5614,-0.24849999999999994,0.033333333333333215,0.3360000000000001,67.098,0.012,-0.23795000000000002,-0.6579999999999995,100.0,1.0,1.0,207.20666666666668,0.0,0.0,0.0,0.0,0.0,0.0,0.0,8782.7,0.0,55.0,5.0,241.52666666666664,1.0,0.0,0.0,0.0,0.0,0.0,1.0,0.0,0.5549999999999997,0.5549999999999997,0.0,0.0,1.0,55.0,616.79921,10000.0,85.000001,85.000001,85.000001,85.000001,395.0,0.0,0.0,0.0,1.0,166.665,52.826,52.826,49.286,49.286,34.0,-21.81,26.555999999999997,-23.95,26.98,0.0,1782.311,-0.6449999999999996,100.0,27.593,27.442,42.375,42.586,0.0,0.0,100.0,0.0,0.0,0.0,0.0,2996.875,3181.5,3681.777777777778,3876.0,305.676,304.72925,315.912,315.24075,21.8665,20.5679,21.8967,21.415399999999998,314.999998,314.999998,324.999988,324.999988,99.55792857142858,99.50728333333333,99.56732857142858,99.54695714285714,0.10875000000000012,-0.018333333333333313,-0.08816666666666667,0.13783333333333334,-0.023333333333326323,-0.05142857142856627,1.619,1.602,37.665,29.549333333333333,37.854,34.8465,55.778999999999996,34.8085,59.683,52.3805,53.733999999999995,33.978,58.28,50.701,52.914,33.553666666666665,58.2185,50.10666666666667,-0.124,-0.02400000000000002,0.10214000000000001,0.104955,0.0,210.10000000000002,210.15,207.20666666666668,207.20666666666668,0.0,0.0
12,0.0,0.0,0.0,1.0,1.0,0.0,0.0,1.0,0.0,100.0,1.0,1.1856,26.0,0.0,0.0,0.0,55.000001,0.0,26.0,26.0,26.0,26.0,0.058111111111111,0.28680000000000017,0.03925,292.877,-2.7611,-2.67925,-1.5557500000000002,-1.5249000000000001,-235.63,216.065,190.746125,0.0,0.0,0.0,0.0,0.025466666666666526,-5.498166666666667,-5.498166666666667,-0.5462,0.26949999999999996,0.01644444444444426,-0.847,67.244,0.029400000000000003,-0.20665,-0.6539999999999999,100.0,1.0,1.0,207.41333333333333,0.0,0.0,0.0,0.0,0.0,0.0,0.0,8791.5,0.0,55.0,5.0,242.04666666666668,0.0,0.0,0.0,0.0,0.0,0.0,1.0,0.0,0.6059999999999981,0.6059999999999981,0.0,0.0,0.0,55.0,616.79921,10000.0,85.000001,85.000001,85.000001,85.000001,395.0,0.0,0.0,0.0,1.0,166.665,52.734,52.734,47.913,47.913,34.0,-22.955,26.154,-27.60333333333333,30.85,0.0,1782.259,-0.6600000000000001,100.0,27.39,27.769,42.254,42.598,0.0,0.0,100.0,0.0,0.0,0.0,0.0,3137.0,3111.2,4243.666666666667,4172.9,305.453,304.79575,314.57975,314.47275,21.876,20.5734,21.9071,21.4244,314.999998,314.999998,324.999988,324.999988,99.55794285714286,99.5073,99.56747142857142,99.5471,0.11649999999999983,-0.014666666666666606,-0.07533333333333334,0.154,-0.041666666666671404,-0.04571428571428271,1.5385,1.498,37.724999999999994,29.583666666666666,37.92,34.9025,55.766999999999996,34.8465,59.7205,52.441,53.723,34.013,58.315,50.759,52.902,33.58733333333333,58.2505,50.163666666666664,-0.125,-0.028999999999999915,0.107435,0.11593,0.0,210.57,210.615,207.41333333333333,207.41333333333333,0.0,0.0
13,0.0,0.0,0.0,1.0,1.0,0.0,0.0,1.0,0.0,100.0,1.0,1.1856,26.0,0.0,0.0,0.0,55.000001,0.0,26.0,26.0,26.0,26.0,0.07744444444444443,0.2843,0.055375,292.526,-2.7346,-2.674125,-1.5901,-1.5096,-232.2,216.04000000000002,190.724375,0.0,0.0,0.0,0.0,0.026866666666666594,-5.498166666666667,-5.498166666666667,-0.5399,-0.08050000000000002,0.023777777777777898,1.077,67.386,0.039,-0.216725,-0.8760000000000003,100.0,1.0,1.0,207.8,0.0,0.0,0.0,0.0,0.0,0.0,0.0,8807.9,0.0,55.0,5.0,242.56,1.0,0.0,0.0,0.0,0.0,0.0,1.0,0.0,0.657,0.657,0.0,0.0,1.0,55.0,616.79921,10000.0,85.000001,85.000001,85.000001,85.000001,395.0,0.0,0.0,0.0,1.0,166.665,52.444,52.444,47.913,47.913,34.0,-20.9875,28.137999999999998,-26.63,32.955,0.0,1782.208,-0.8449999999999989,100.0,27.846,27.811,42.592,42.992000000000004,0.0,0.0,100.0,0.0,0.0,0.0,0.0,3060.75,3193.7,4138.333333333333,4364.2,305.4596666666667,304.71125,314.70975,314.06825,21.8856,20.5789,21.9177,21.4337,314.999998,314.999998,324.999988,324.999988,99.55795714285715,99.5073,99.56761428571428,99.54724285714286,0.1472500000000001,0.01966666666666672,-0.05733333333333334,0.16466666666666666,-0.030000000000001137,-0.06142857142857139,1.4994999999999998,1.4725,37.785,29.618333333333332,37.986000000000004,34.960499999999996,55.757999999999996,34.885,59.7585,52.5045,53.714,34.048500000000004,58.35,50.82,52.891,33.62133333333333,58.2825,50.22366666666667,-0.14349999999999996,-0.010000000000000009,0.10569500000000001,0.10529500000000001,0.0,210.985,211.065,207.8,207.8,0.0,0.0
14,0.0,0.0,0.0,1.0,1.0,0.0,0.0,1.0,0.0,100.0,1.0,1.1856,26.0,0.0,0.0,0.0,55.000001,0.0,26.0,26.0,26.0,26.0,0.10588888888888892,0.29110000000000014,-0.016975,292.786,-2.7376,-2.6105,-1.6015000000000001,-1.5093,-228.76,216.015,190.703125,0.0,0.0,0.0,0.0,0.028866666666666596,-5.498166666666667,-5.498166666666667,-0.5492,-0.14850000000000008,0.05277777777777781,-0.10999999999999999,67.526,0.049800000000000004,-0.2286,-0.9319999999999995,100.0,1.0,1.0,208.31666666666666,0.0,0.0,0.0,0.0,0.0,0.0,0.0,8829.7,0.0,55.0,5.0,243.06333333333333,0.0,0.0,0.0,0.0,0.0,0.0,1.0,0.0,0.7079999999999984,0.7079999999999984,0.0,0.0,0.0,55.0,616.79921,10000.0,85.000001,85.000001,85.000001,85.000001,395.0,0.0,0.0,0.0,1.0,166.665,52.582,52.582,48.096000000000004,48.096000000000004,34.0,-20.3375,27.598,-25.33,31.087500000000002,0.0,1782.157,-0.9699999999999989,100.0,27.568,28.043,42.449,43.309,0.0,0.0,100.0,0.0,0.0,0.0,0.0,3018.625,3177.8,3987.6666666666665,4172.3,305.75733333333335,304.59575,315.15725,314.47025,21.8951,20.5844,21.9281,21.4428,314.999998,314.999998,324.999988,324.999988,99.55797142857143,99.5073,99.56775714285715,99.5474,0.1512500000000001,0.019000000000000128,-0.058166666666666665,0.165,-0.03999999999999915,-0.05571428571428072,1.5585,1.528,37.844,29.65266666666667,38.051,35.0175,55.748000000000005,34.923,59.794,52.5665,53.705,34.084,58.382999999999996,50.879999999999995,52.881,33.65533333333333,58.3125,50.282333333333334,-0.15400000000000003,-0.0020000000000000018,0.107435,0.10559500000000001,0.0,211.42000000000002,211.47500000000002,208.31666666666666,208.31666666666666,0.0,0.0
15,0.0,0.0,0.0,1.0,1.0,0.0,0.0,1.0,0.0,100.0,1.0,1.1856,26.0,0.0,0.0,0.0,55.000001,0.0,26.0,26.0,26.0,26.0,0.10211111111111104,0.2901,0.01195,292.816,-2.7092,-2.576,-1.6299000000000001,-1.4544000000000001,-225.71,215.9975,190.684125,0.0,0.0,0.0,0.0,0.0306333333333334,-5.498166666666667,-5.498166666666667,-0.5402,0.30199999999999994,0.08211111111111102,1.045,67.649,0.0639,-0.20977500000000002,-1.2219999999999995,100.0,1.0,1.0,208.68333333333334,0.0,0.0,0.0,0.0,0.0,0.0,0.0,8845.3,0.0,55.0,5.0,243.51,1.0,0.0,0.0,0.0,0.0,0.0,1.0,0.0,0.7530000000000001,0.7530000000000001,0.0,0.0,1.0,55.0,616.79921,10000.0,85.000001,85.000001,85.000001,85.000001,395.0,0.0,0.0,0.0,1.0,333.33500000000004,52.765,52.765,48.157,48.157,34.0,-18.0475,28.234,-24.073333333333334,33.415,0.0,1782.11,-0.9699999999999989,100.0,27.73,27.912,42.3,43.266999999999996,0.0,0.0,100.0,0.0,0.0,0.0,0.0,2802.75,3231.3,3944.3333333333335,4383.4,306.1933333333333,304.603,315.2415,314.06575,21.9035,20.5893,21.9373,21.4509,314.999998,314.999998,324.999988,324.999988,99.55798571428572,99.5073,99.56788571428571,99.54752857142857,0.1655000000000002,0.03400000000000003,-0.03133333333333333,0.189,-0.04833333333333201,-0.05285714285714249,1.5594999999999999,1.51,37.897,29.683333333333334,38.108000000000004,35.068,55.741,34.958,59.8245,52.6215,53.697,34.116,58.411,50.933,52.872,33.686,58.3375,50.334666666666664,-0.15300000000000002,0.0004999999999999449,0.10523,0.10416500000000001,0.0,211.805,211.89499999999998,208.68333333333334,208.68333333333334,0.0,0.0
16,0.0,0.0,0.0,1.0,1.0,0.0,0.0,1.0,0.0,100.0,1.0,1.1856,26.0,0.0,0.0,0.0,55.000001,0.0,26.0,26.0,26.0,26.0,0.14933333333333332,0.27770000000000006,-0.05435,292.847,-2.8068,-2.60825,-1.60105,-1.4531,-222.26,215.98000000000002,190.662,0.0,0.0,0.0,0.0,0.03266666666666651,-5.498166666666667,-5.498166666666667,-0.5602,-0.706,0.06788888888888889,-0.982,67.789,0.0765,-0.22487500000000002,-1.2400000000000002,100.0,1.0,1.0,209.10666666666668,0.0,0.0,0.0,0.0,0.0,0.0,0.0,8863.2,0.0,55.0,5.0,244.01333333333332,0.0,0.0,0.0,0.0,0.0,0.0,1.0,0.0,0.8039999999999985,0.8039999999999985,0.0,0.0,0.0,55.0,616.79921,10000.0,85.000001,85.000001,85.000001,85.000001,395.0,0.0,0.0,0.0,1.0,333.33500000000004,52.75,52.75,47.852000000000004,47.852000000000004,34.0,-19.8325,28.566,-23.383333333333333,31.8775,0.0,1782.06,-0.8599999999999994,100.0,27.218,28.148,42.487,43.478,0.0,0.0,100.0,0.0,0.0,0.0,0.0,2996.625,3184.9,3976.6666666666665,4143.3,305.9243333333333,304.56525,315.203,314.56125,21.9126,20.5949,21.9478,21.4601,314.999998,314.999998,324.999988,324.999988,99.558,99.50731666666667,99.56802857142857,99.54767142857143,0.17125000000000012,0.04066666666666685,-0.021333333333333333,0.2015,-0.04333333333332945,-0.054285714285711606,1.559,1.5290000000000001,37.954,29.718,38.174,35.1255,55.727999999999994,34.9975,59.862,52.6835,53.685,34.1525,58.445499999999996,50.993,52.86,33.721333333333334,58.369,50.39333333333333,-0.15149999999999997,-0.0050000000000001155,0.10458,0.110725,0.0,212.21,212.29500000000002,209.10666666666668,209.10666666666668,0.0,0.0
17,0.0,0.0,0.0,1.0,1.0,0.0,0.0,1.0,0.0,100.0,1.0,1.1856,26.0,0.0,0.0,0.0,55.000001,0.0,26.0,26.0,26.0,26.0,0.11333333333333329,0.28400000000000003,-0.032175,292.511,-2.7656,-2.564625,-1.64025,-1.4767000000000001,-218.8,215.965,190.639375,0.0,0.0,0.0,0.0,0.03466666666666651,-5.498166666666667,-5.498166666666667,-0.5506,0.5465,0.05033333333333312,0.742,67.928,0.08220000000000001,-0.20672500000000002,-1.1819999999999995,100.0,1.0,1.0,209.51666666666665,0.0,0.0,0.0,0.0,0.0,0.0,0.0,8880.7,0.0,55.0,5.0,244.51,1.0,0.0,0.0,0.0,0.0,0.0,1.0,0.0,0.8550000000000004,0.8550000000000004,0.0,0.0,1.0,55.0,616.79921,10000.0,85.000001,85.000001,85.000001,85.000001,395.0,0.0,0.0,0.0,1.0,166.665,52.429,52.429,47.852000000000004,47.852000000000004,34.0,-19.2425,27.98,-24.98,34.54,0.0,1782.011,-0.9149999999999991,100.0,27.833,28.313,42.314,43.368,0.0,0.0,100.0,0.0,0.0,0.0,0.0,2987.0,3155.9,4184.888888888889,4321.2,305.732,304.8455,314.75025,314.26225,21.9221,20.6006,21.9581,21.4692,314.999998,314.999998,324.999988,324.999988,99.55802857142857,99.50731666666667,99.56815714285715,99.54781428571428,0.18025000000000002,0.04899999999999993,-0.013666666666666666,0.21616666666666667,-0.045000000000001705,-0.057142857142849834,1.556,1.5110000000000001,38.013,29.753666666666668,38.238,35.1825,55.721000000000004,35.039,59.896,52.7455,53.678,34.191,58.4775,51.052,52.851,33.757999999999996,58.3975,50.45166666666667,-0.15000000000000002,-0.008000000000000007,0.10577,0.11086000000000001,0.0,212.675,212.76,209.51666666666665,209.51666666666665,0.0,0.0
18,0.0,0.0,0.0,1.0,1.0,0.0,0.0,1.0,0.0,100.0,1.0,1.1856,26.0,0.0,0.0,0.0,55.000001,0.0,26.0,26.0,26.0,26.0,0.135,0.2753000000000001,-0.00745,292.389,-2.8016,-2.53275,-1.6585,-1.4185,-215.32999999999998,215.9525,190.617,0.0,0.0,0.0,0.0,0.036666666666666514,-5.498166666666667,-5.498166666666667,-0.561,-0.49649999999999994,0.07366666666666677,-0.277,68.06700000000001,0.0852,-0.22390000000000002,-1.226,100.0,1.0,1.0,209.94333333333333,0.0,0.0,0.0,0.0,0.0,0.0,0.0,8898.7,0.0,55.0,5.0,245.01,0.0,0.0,0.0,0.0,0.0,0.0,1.0,0.0,0.9059999999999988,0.9059999999999988,0.0,0.0,0.0,55.0,616.79921,10000.0,85.000001,85.000001,85.000001,85.000001,395.0,0.0,0.0,0.0,1.0,166.665,52.231,52.231,47.638,47.638,34.0,-20.24,29.738,-24.683333333333334,32.2625,0.0,1781.96,-1.1449999999999996,100.0,27.428,28.333,42.57,43.867000000000004,0.0,0.0,100.0,0.0,0.0,0.0,0.0,3115.5,3307.4,4046.6666666666665,4204.1,305.58666666666664,304.2725,315.0785,314.438,21.9313,20.6062,21.9686,21.4785,314.999998,314.999998,324.999988,324.999988,99.55805714285714,99.50731666666667,99.56831428571428,99.54797142857143,0.18175000000000008,0.05699999999999994,-0.023,0.20633333333333334,-0.045000000000001705,-0.04999999999999716,1.5655000000000001,1.518,38.071,29.789,38.304,35.241,55.713,35.079499999999996,59.933,52.809,53.67,34.2285,58.5115,51.114,52.841,33.794,58.4285,50.51233333333333,-0.16749999999999998,0.010499999999999954,0.102705,0.11090000000000001,0.0,213.07,213.155,209.94333333333333,209.94333333333333,0.0,0.0
19,0.0,0.0,0.0,1.0,1.0,0.0,0.0,1.0,0.0,100.0,1.0,1.1856,26.0,0.0,0.0,0.0,55.000001,0.0,26.0,26.0,26.0,26.0,0.1571111111111112,0.2842,0.055150000000000005,291.885,-2.7166,-2.638625,-1.6752,-1.4017,-211.86,215.945,190.594375,0.0,0.0,0.0,0.0,0.03869999999999996,-5.498166666666667,-5.498166666666667,-0.5487000000000001,0.8240000000000001,0.08722222222222209,0.972,68.20400000000001,0.09290000000000001,-0.2109,-1.694,100.0,1.0,1.0,210.32,0.0,0.0,0.0,0.0,0.0,0.0,0.0,8914.7,0.0,55.0,5.0,245.50333333333333,1.0,0.0,0.0,0.0,0.0,0.0,1.0,0.0,0.9570000000000007,0.9570000000000007,0.0,0.0,1.0,55.0,616.79921,10000.0,85.000001,85.000001,85.000001,85.000001,395.0,0.0,0.0,0.0,1.0,166.665,51.682,51.682,47.379,47.379,34.0,-16.8925,32.386,-24.656666666666666,36.435,0.0,1781.909,-1.5249999999999986,100.0,28.116,28.714,42.4,43.793,0.0,0.0,100.0,0.0,0.0,0.0,0.0,2977.375,3352.2,4171.0,4526.9,305.64,304.03625,314.7655,313.7735,21.9407,20.612,21.979,21.4878,314.999998,314.999998,324.999988,324.999988,99.55808571428571,99.50733333333334,99.56845714285714,99.54811428571429,0.22475000000000023,0.08133333333333326,0.0021666666666666666,0.23016666666666666,-0.03833333333332689,-0.054285714285711606,1.531,1.4655,38.129000000000005,29.825333333333333,38.369,35.2985,55.708,35.124,59.967,52.872,53.664,34.2695,58.543,51.1745,52.835,33.833333333333336,58.457,50.57233333333333,-0.1975,0.03200000000000003,0.11235,0.10678000000000001,0.0,213.51999999999998,213.63,210.32,210.32,0.0,0.0
20,0.0,0.0,0.0,1.0,1.0,0.0,0.0,1.0,0.0,100.0,1.0,1.1856,26.0,0.0,0.0,0.0,55.000001,0.0,26.0,26.0,26.0,26.0,0.21011111111111114,0.2832000000000001,0.050825,292.282,-2.8237,-2.58225,-1.6102500000000002,-1.5159,-208.57999999999998,215.9425,190.573375,0.0,0.0,0.0,0.0,0.04059999999999997,-5.498166666666667,-5.498166666666667,-0.5543,-1.2040000000000002,0.0968888888888888,0.5720000000000001,68.33500000000001,0.1081,-0.221025,-2.062,100.0,1.0,1.0,210.64333333333332,0.0,0.0,0.0,0.0,0.0,0.0,0.0,8928.4,0.0,55.0,5.0,245.97666666666666,0.0,0.0,0.0,0.0,0.0,0.0,0.0,0.0,1.004999999999999,1.004999999999999,0.0,0.0,0.0,55.0,616.79921,10000.0,85.000001,85.000001,85.000001,85.000001,395.0,0.0,0.0,0.0,1.0,166.665,52.795,52.795,46.86,46.86,34.0,-15.399999999999999,31.86,-22.303333333333335,38.4075,0.0,1781.861,-1.75,100.0,27.451999999999998,28.401,42.870000000000005,44.312,0.0,0.0,100.0,0.0,0.0,0.0,0.0,2757.0,3278.4,4077.5555555555557,4390.8,306.54833333333335,304.486,314.8375,313.87675,21.9491,20.6174,21.9889,21.4966,314.999998,314.999998,324.999988,324.999988,99.5581,99.50735,99.5686,99.54825714285714,0.24350000000000005,0.10866666666666669,0.021333333333333333,0.25233333333333335,-0.03499999999999659,-0.06142857142857139,1.5125,1.4455,38.182,29.858666666666664,38.431,35.354,55.699,35.164500000000004,60.0035,52.9335,53.656,34.307,58.577,51.234,52.825,33.86966666666667,58.4875,50.63033333333333,-0.21399999999999997,0.06299999999999994,0.11052000000000001,0.10379000000000001,0.0,213.85500000000002,214.01,210.64333333333332,210.64333333333332,0.0,0.0
21,0.0,0.0,0.0,1.0,1.0,0.0,0.0,1.0,0.0,100.0,1.0,1.1856,26.0,0.0,0.0,0.0,55.000001,0.0,26.0,26.0,26.0,26.0,0.197888888888889,0.26960000000000006,-0.056575,292.603,-2.747,-2.6235,-1.6802000000000001,-1.4697,-205.3,215.945,190.55175,0.0,0.0,0.0,0.0,0.04249999999999998,-5.498166666666667,-5.498166666666667,-0.5802,0.49249999999999994,0.08777777777777773,0.3380000000000001,68.458,0.1302,-0.22710000000000002,-2.2199999999999998,100.0,1.0,1.0,211.29000000000002,0.0,0.0,0.0,0.0,0.0,0.0,0.0,8955.8,0.0,55.0,5.0,246.42333333333335,1.0,0.0,0.0,0.0,0.0,0.0,0.0,0.0,1.0530000000000008,1.0530000000000008,0.0,0.0,1.0,55.0,616.79921,10000.0,85.000001,85.000001,85.000001,85.000001,395.0,0.0,0.0,0.0,1.0,166.665,52.155,52.155,48.325,48.325,34.0,-17.075,31.456,-20.05,35.4275,0.0,1781.812,-1.0,100.0,27.735,28.643,42.105000000000004,43.943,0.0,0.0,100.0,0.0,0.0,0.0,0.0,2909.375,3324.7,3874.4444444444443,4108.2,305.90066666666667,304.24925,315.52575,314.74775,21.9578,20.6229,21.9985,21.5052,314.999998,314.999998,324.999988,324.999988,99.55814285714285,99.50735,99.56872857142857,99.5484,0.21550000000000002,0.07400000000000007,0.046,0.2808333333333333,-0.026666666666670835,-0.06571428571428584,1.6415,1.544,38.236000000000004,29.893,38.491,35.4075,55.694,35.2085,60.032,52.99,53.650999999999996,34.3475,58.6035,51.2885,52.818,33.90833333333333,58.510999999999996,50.684333333333335,-0.16249999999999998,0.0030000000000000027,0.11155000000000001,0.11248000000000001,0.0,214.26,214.435,211.29000000000002,211.29000000000002,0.0,0.0
22,0.0,0.0,0.0,1.0,1.0,0.0,0.0,1.0,0.0,100.0,1.0,1.1856,26.0,0.0,0.0,0.0,55.000001,0.0,26.0,26.0,26.0,26.0,0.17655555555555558,0.27059999999999995,0.02125,292.068,-2.7389,-2.621,-1.67055,-1.4625,-201.8,215.95,190.527875,0.0,0.0,0.0,0.0,0.044533333333333314,-5.498166666666667,-5.498166666666667,-0.5578000000000001,0.11149999999999993,0.08644444444444432,-0.83,68.59700000000001,0.1381,-0.20827500000000002,-0.9260000000000002,100.0,1.0,1.0,211.48666666666668,0.0,0.0,0.0,0.0,0.0,0.0,0.0,8964.2,0.0,55.0,5.0,246.92333333333335,0.0,0.0,0.0,0.0,0.0,0.0,0.0,0.0,1.1039999999999992,1.1039999999999992,0.0,0.0,0.0,55.0,616.79921,10000.0,85.000001,85.000001,85.000001,85.000001,395.0,0.0,0.0,0.0,1.0,166.665,52.231,52.231,47.15,47.15,34.0,-19.8275,27.112000000000002,-24.49,36.5375,0.0,1781.762,0.38500000000000156,100.0,27.669,28.878,42.453,44.329,0.0,0.0,100.0,0.0,0.0,0.0,0.0,2926.875,3173.1,4207.666666666667,4349.2,305.999,304.4865,314.7135,314.0875,21.967,20.6287,22.009,21.514499999999998,314.999998,314.999998,324.999988,324.999988,99.55815714285714,99.50736666666667,99.56887142857143,99.54855714285715,0.14800000000000013,0.0013333333333334085,0.011333333333333334,0.24416666666666667,-0.03499999999999659,-0.03999999999999915,1.4875,1.461,38.294,29.929333333333332,38.556,35.466,55.685,35.25,60.07,53.0555,53.641999999999996,34.385999999999996,58.6385,51.3515,52.808,33.94533333333334,58.542500000000004,50.746,-0.0625,-0.10149999999999992,0.11081500000000001,0.103425,0.0,214.73000000000002,214.81,211.48666666666668,211.48666666666668,0.0,0.0
23,0.0,0.0,0.0,1.0,1.0,0.0,0.0,1.0,0.0,100.0,1.0,1.1856,26.0,0.0,0.0,0.0,55.000001,0.0,26.0,26.0,26.0,26.0,0.07844444444444432,0.25260000000000016,-0.01735,292.084,-2.7396,-2.602875,-1.5686,-1.5546,-198.3,215.9625,190.5045,0.0,0.0,0.0,0.0,0.046566666666666534,-5.498166666666667,-5.498166666666667,-0.5764,-0.31800000000000006,0.05744444444444441,0.03600000000000003,68.731,0.0979,-0.233875,0.32399999999999984,100.0,1.0,1.0,211.99333333333334,0.0,0.0,0.0,0.0,0.0,0.0,0.0,8985.7,0.0,55.0,5.0,247.40666666666667,1.0,0.0,0.0,0.0,0.0,0.0,0.0,0.0,1.1550000000000011,1.1550000000000011,0.0,0.0,1.0,55.0,616.79921,10000.0,85.000001,85.000001,85.000001,85.000001,395.0,0.0,0.0,0.0,1.0,166.665,51.635999999999996,51.635999999999996,48.05,48.05,34.0,-23.9225,25.828,-22.583333333333336,32.22,0.0,1781.71,0.8500000000000014,100.0,28.166,28.587,42.896,44.309,0.0,0.0,100.0,0.0,0.0,0.0,0.0,3163.875,3261.2,3903.777777777778,4041.5,305.1496666666667,304.50925,315.286,314.79725,21.9763,20.6344,22.0195,21.5239,314.999998,314.999998,324.999988,324.999988,99.55817142857143,99.50736666666667,99.56901428571429,99.5487,0.1027499999999999,-0.035666666666666624,-0.019,0.1995,-0.026666666666670835,-0.04999999999999716,1.5234999999999999,1.5350000000000001,38.352000000000004,29.965333333333334,38.622,35.524,55.673,35.29,60.1055,53.1185,53.629999999999995,34.423,58.671,51.4125,52.796,33.981,58.5725,50.806,-0.015499999999999958,-0.14800000000000013,0.10190500000000001,0.11142,0.0,215.16500000000002,215.16,211.99333333333334,211.99333333333334,0.0,0.0
24,0.0,0.0,0.0,1.0,1.0,0.0,0.0,1.0,0.0,100.0,1.0,1.1856,26.0,0.0,0.0,0.0,55.000001,0.0,26.0,26.0,26.0,26.0,0.003555555555555534,0.26900000000000013,-0.10705,292.374,-2.7359,-2.63875,-1.58945,-1.5195,-195.0,215.9725,190.482,0.0,0.0,0.0,0.0,0.04849999999999999,-5.498166666666667,-5.498166666666667,-0.5779000000000001,-0.5045,0.03922222222222205,0.5070000000000001,68.85900000000001,0.0386,-0.216725,1.0460000000000003,100.0,1.0,1.0,212.29666666666668,0.0,0.0,0.0,0.0,0.0,0.0,0.0,8998.5,0.0,55.0,5.0,247.86333333333334,0.0,0.0,0.0,0.0,0.0,0.0,0.0,0.0,1.2029999999999994,1.2029999999999994,0.0,0.0,0.0,55.0,616.79921,10000.0,85.000001,85.000001,85.000001,85.000001,395.0,0.0,0.0,0.0,1.0,166.665,52.902,52.902,47.089,47.089,34.0,-22.83,22.18,-29.44333333333333,29.3825,0.0,1781.663,0.9649999999999999,100.0,28.026,28.172,43.152,43.944,0.0,0.0,100.0,0.0,0.0,0.0,0.0,2860.5,3009.4,4286.444444444444,4142.3,306.10333333333335,305.31125,314.3775,314.65175,21.985,20.6396,22.0294,21.5325,314.999998,314.999998,324.999988,324.999988,99.55817142857143,99.50736666666667,99.56915714285714,99.54884285714286,0.06099999999999994,-0.07566666666666666,-0.08533333333333333,0.1355,-0.02499999999999858,-0.05571428571428072,1.4815,1.53,38.406,29.997666666666667,38.684,35.578,55.659,35.326499999999996,60.14,53.175,53.617000000000004,34.457,58.703,51.467,52.782,34.013333333333335,58.601,50.859,-0.0034999999999999476,-0.15050000000000008,0.10390500000000001,0.10906,0.0,215.615,215.535,212.29666666666668,212.29666666666668,0.0,0.0
25,0.0,0.0,0.0,1.0,1.0,0.0,0.0,1.0,0.0,100.0,1.0,1.1856,26.0,0.0,0.0,0.0,55.000001,0.0,26.0,26.0,26.0,26.0,-0.04299999999999993,0.26439999999999997,-0.042575,292.358,-2.7682,-2.635625,-1.5749,-1.5524,-191.48000000000002,215.985,190.45675,0.0,0.0,0.0,0.0,0.05053333333333332,-5.498166666666667,-5.498166666666667,-0.6134000000000001,-0.03950000000000009,0.004666666666666597,-1.925,68.991,-0.0236,-0.22775,1.5,100.0,1.0,1.0,212.86333333333334,0.0,0.0,0.0,0.0,0.0,0.0,0.0,9022.4,0.0,55.0,5.0,248.34,1.0,0.0,0.0,0.0,0.0,0.0,0.0,0.0,1.2540000000000013,1.2540000000000013,0.0,0.0,1.0,55.0,616.79921,10000.0,85.000001,85.000001,85.000001,85.000001,395.0,0.0,0.0,0.0,1.0,333.33500000000004,51.926,51.926,47.974000000000004,47.974000000000004,34.0,-29.4125,22.07,-30.453333333333333,24.385,0.0,1781.61,0.9750000000000014,100.0,28.034,28.267,43.071,43.384,0.0,0.0,100.0,0.0,0.0,0.0,0.0,3323.375,3187.8,4029.777777777778,3948.3,305.02566666666667,304.616,315.146,315.1145,21.9943,20.6452,22.0398,21.5415,314.999998,314.999998,324.999988,324.999988,99.55818571428571,99.50738333333334,99.5693,99.54898571428572,0.009500000000000064,-0.11599999999999999,-0.16133333333333336,0.063,-0.060000000000002274,-0.04571428571428271,1.5434999999999999,1.5945,38.465,30.032666666666664,38.748999999999995,35.6345,55.643,35.369,60.1745,53.2315,53.601,34.496,58.735,51.522,52.765,34.051,58.629999999999995,50.91266666666667,-0.0034999999999999476,-0.15250000000000008,0.10903000000000002,0.101095,0.0,216.04500000000002,215.91500000000002,212.86333333333334,212.86333333333334,0.0,0.0
26,0.0,0.0,0.0,1.0,1.0,0.0,0.0,1.0,0.0,100.0,1.0,1.1856,26.0,0.0,0.0,0.0,55.000001,0.0,26.0,26.0,26.0,26.0,-0.12911111111111107,0.2852000000000001,0.067025,291.199,-2.6645,-2.762375,-1.58185,-1.5848,-187.95999999999998,215.995,190.430875,0.0,0.0,0.0,0.0,0.05259999999999998,-5.498166666666667,-5.498166666666667,-0.5717,0.8029999999999999,-0.053999999999999826,0.09899999999999998,69.127,-0.0685,-0.19587500000000002,1.5520000000000005,100.0,1.0,1.0,213.01333333333332,0.0,0.0,0.0,0.0,0.0,0.0,0.0,9028.9,0.0,55.0,5.0,248.82999999999998,0.0,0.0,0.0,0.0,0.0,0.0,0.0,0.0,1.3049999999999997,1.3049999999999997,0.0,0.0,0.0,55.0,616.79921,10000.0,85.000001,85.000001,85.000001,85.000001,395.0,0.0,0.0,0.0,1.0,333.33500000000004,51.391999999999996,51.391999999999996,46.265,46.265,34.0,-28.439999999999998,20.974,-38.16,26.8175,0.0,1781.559,0.8249999999999993,100.0,29.342,28.455,44.045,43.293,0.0,0.0,100.0,0.0,0.0,0.0,0.0,3240.25,3064.1,4605.0,4400.4,304.92533333333336,305.036,313.72125,314.07275,22.0041,20.6509,22.0505,21.5507,314.999998,314.999998,324.999988,324.999988,99.55818571428571,99.5074,99.56945714285715,99.54914285714285,0.0012500000000001954,-0.1446666666666666,-0.18833333333333335,0.030833333333333334,-0.03999999999999915,-0.05142857142856627,1.4235,1.494,38.525,30.067999999999998,38.815,35.692,55.631,35.414500000000004,60.2155,53.291,53.59,34.538,58.7735,51.579,52.751999999999995,34.09133333333333,58.665,50.968333333333334,-0.019499999999999962,-0.14700000000000002,0.10504500000000001,0.11108000000000001,0.0,216.515,216.375,213.01333333333332,213.01333333333332,0.0,0.0
27,0.0,0.0,0.0,1.0,1.0,0.0,0.0,1.0,0.0,100.0,1.0,1.1856,26.0,0.0,0.0,0.0,55.000001,0.0,26.0,26.0,26.0,26.0,-0.1423333333333333,0.2558,-0.009850000000000001,291.565,-2.6137,-2.7501249999999997,-1.5575,-1.6745999999999999,-184.64,216.0025,190.40775,0.0,0.0,0.0,0.0,0.05453333333333332,-5.498166666666667,-5.498166666666667,-0.5977,-1.1145,-0.07033333333333358,0.542,69.251,-0.0921,-0.243375,1.4699999999999998,100.0,1.0,1.0,213.49,0.0,0.0,0.0,0.0,0.0,0.0,0.0,9049.1,0.0,55.0,5.0,249.28,1.0,0.0,0.0,0.0,0.0,0.0,0.0,0.0,1.352999999999998,1.352999999999998,0.0,0.0,1.0,55.0,616.79921,10000.0,85.000001,85.000001,85.000001,85.000001,395.0,0.0,0.0,0.0,1.0,333.33500000000004,51.727000000000004,51.727000000000004,46.707,46.707,34.0,-28.939999999999998,20.082,-34.54666666666667,24.985,0.0,1781.512,0.754999999999999,100.0,29.18,28.083,44.956,43.662,0.0,0.0,100.0,0.0,0.0,0.0,0.0,3220.125,3073.4,4174.666666666667,4044.9,304.9816666666667,305.15125,314.66025,314.79825,22.012999999999998,20.656,22.0606,21.5595,314.999998,314.999998,324.999988,324.999988,99.55818571428571,99.50741666666667,99.5696,99.54927142857143,-0.025499999999999856,-0.16133333333333333,-0.2095,0.020833333333333332,-0.03499999999999659,-0.05857142857143316,1.474,1.526,38.581,30.099666666666664,38.879000000000005,35.747,55.617000000000004,35.455,60.254999999999995,53.348,53.577,34.5755,58.811,51.632999999999996,52.739000000000004,34.126666666666665,58.6995,51.02133333333333,-0.017000000000000015,-0.13749999999999996,0.10951000000000001,0.116235,0.0,216.825,216.70499999999998,213.49,213.49,0.0,0.0
28,0.0,0.0,0.0,1.0,1.0,0.0,0.0,1.0,0.0,100.0,1.0,1.1856,26.0,0.0,0.0,0.0,55.000001,0.0,26.0,26.0,26.0,26.0,-0.14211111111111108,0.2654000000000001,-0.043825,291.885,-2.6361,-2.74025,-1.50285,-1.639,-181.1,216.005,190.382375,0.0,0.0,0.0,0.0,0.05656666666666654,-5.498166666666667,-5.498166666666667,-0.602,0.6745,-0.08333333333333348,-0.641,69.381,-0.11180000000000001,-0.21757500000000002,1.4960000000000004,100.0,1.0,1.0,214.0,0.0,0.0,0.0,0.0,0.0,0.0,0.0,9070.7,0.0,55.0,5.0,249.74666666666667,0.0,0.0,0.0,0.0,0.0,0.0,0.0,0.0,1.404,1.404,0.0,0.0,0.0,55.0,616.79921,10000.0,85.000001,85.000001,85.000001,85.000001,395.0,0.0,0.0,0.0,1.0,333.33500000000004,51.757999999999996,51.757999999999996,47.546,47.546,34.0,-30.57,18.476,-34.916666666666664,22.262500000000003,0.0,1781.461,0.45500000000000185,100.0,29.171,28.098,44.248000000000005,43.095,0.0,0.0,100.0,0.0,0.0,0.0,0.0,3386.625,2906.3,4172.222222222223,4037.8,304.697,305.44725,314.78825,314.90925,22.0227,20.6614,22.070999999999998,21.5685,314.999998,314.999998,324.999988,324.999988,99.55818571428571,99.50745,99.56974285714286,99.54942857142858,-0.02499999999999991,-0.17299999999999993,-0.23966666666666667,-0.0155,-0.05833333333333002,-0.04285714285714448,1.51,1.5855000000000001,38.641999999999996,30.134,38.944,35.803,55.605000000000004,35.4995,60.2905,53.4025,53.565,34.6165,58.844,51.686,52.726,34.166,58.7295,51.07266666666666,-0.04899999999999993,-0.11549999999999994,0.10690000000000001,0.10461500000000001,0.0,217.285,217.15,214.0,214.0,0.0,0.0
29,0.0,0.0,0.0,1.0,1.0,0.0,0.0,1.0,0.0,100.0,1.0,1.1856,26.0,0.0,0.0,0.0,55.000001,0.0,26.0,26.0,26.0,26.0,-0.15666666666666662,0.2599,0.0067,291.473,-2.5702,-2.802625,-1.5333,-1.6232,-177.56,216.005,190.356,0.0,0.0,0.0,0.0,0.058633333333333315,-5.498166666666667,-5.498166666666667,-0.6067,-0.7510000000000001,-0.08177777777777795,0.671,69.515,-0.1115,-0.218475,1.0679999999999996,100.0,1.0,1.0,214.24333333333334,0.0,0.0,0.0,0.0,0.0,0.0,0.0,9081.0,0.0,55.0,5.0,250.23000000000002,1.0,0.0,0.0,0.0,0.0,0.0,0.0,0.0,1.4549999999999983,1.4549999999999983,0.0,0.0,1.0,55.0,616.79921,10000.0,85.000001,85.000001,85.000001,85.000001,395.0,0.0,0.0,0.0,1.0,333.33500000000004,51.666,51.666,46.524,46.524,34.0,-29.1425,21.009999999999998,-35.4,24.52,0.0,1781.41,0.375,100.0,29.049,27.776,44.83,43.235,0.0,0.0,100.0,0.0,0.0,0.0,0.0,3304.25,3107.2,4280.444444444444,4193.6,304.752,304.893,314.372,314.5085,22.0321,20.6668,22.081699999999998,21.5777,314.999998,314.999998,324.999988,324.999988,99.5582,99.50746666666667,99.5699,99.54957142857143,-0.02024999999999988,-0.16100000000000003,-0.20916666666666667,0.0041666666666666675,-0.03833333333332689,-0.05571428571428072,1.4595,1.4885,38.7,30.167333333333332,39.01,35.861,55.59,35.542,60.332499999999996,53.462,53.551,34.6555,58.8835,51.743,52.711,34.20333333333333,58.766,51.12833333333333,-0.046499999999999986,-0.11149999999999993,0.096,0.10715000000000001,0.0,217.64,217.535,214.24333333333334,214.24333333333334,0.0,0.0
30,0.0,0.0,0.0,1.0,1.0,0.0,0.0,1.0,0.0,100.0,1.0,1.1856,26.0,0.0,0.0,0.0,55.000001,0.0,26.0,26.0,26.0,26.0,-0.14955555555555555,0.27270000000000016,0.05995,291.046,-2.6262,-2.690875,-1.47355,-1.6977,-174.22,216.0025,190.331,0.0,0.0,0.0,0.0,0.060566666666666547,-5.498166666666667,-5.498166666666667,-0.6038,0.7965,-0.08422222222222242,0.798,69.637,-0.10360000000000001,-0.218275,0.9120000000000008,100.0,1.0,1.0,214.66,0.0,0.0,0.0,0.0,0.0,0.0,0.0,9098.6,0.0,55.0,5.0,250.66666666666666,0.0,0.0,0.0,0.0,0.0,0.0,1.0,0.0,1.5030000000000001,1.5030000000000001,0.0,0.0,0.0,55.0,616.79921,10000.0,85.000001,85.000001,85.000001,85.000001,395.0,0.0,0.0,0.0,1.0,166.665,50.842,50.842,46.829,46.829,34.0,-29.939999999999998,20.427999999999997,-34.78666666666666,26.635,0.0,1781.362,0.19500000000000028,100.0,29.887,28.462,44.683,43.231,0.0,0.0,100.0,0.0,0.0,0.0,0.0,3440.625,3069.3,4328.111111111111,4249.0,304.33033333333333,305.06625,314.34775,314.31875,22.0413,20.6721,22.0916,21.5864,314.999998,314.999998,324.999988,324.999988,99.5582,99.50748333333334,99.57004285714285,99.54971428571429,0.00550000000000006,-0.1426666666666666,-0.20866666666666667,0.015166666666666667,-0.03833333333332689,-0.060000000000002274,1.4745,1.5010000000000001,38.757999999999996,30.200666666666663,39.072,35.915,55.58,35.585499999999996,60.3675,53.516,53.542,34.695499999999996,58.916,51.795,52.701,34.24166666666667,58.795500000000004,51.178666666666665,-0.07750000000000001,-0.09850000000000003,0.1077,0.108115,0.0,218.04500000000002,217.97,214.66,214.66,0.0,0.0
31,0.0,0.0,0.0,1.0,1.0,0.0,0.0,1.0,0.0,100.0,1.0,1.1856,26.0,0.0,0.0,0.0,55.000001,0.0,26.0,26.0,26.0,26.0,-0.10688888888888892,0.24780000000000002,-0.00115,291.031,-2.7027,-2.7590000000000003,-1.5683,-1.6668,-170.67000000000002,215.995,190.30525,0.0,0.0,0.0,0.0,0.06263333333333332,-5.498166666666667,-5.498166666666667,-0.5897,-0.6134999999999999,-0.07200000000000006,-0.753,69.769,-0.08660000000000001,-0.22032500000000002,0.5839999999999996,100.0,1.0,1.0,214.97,0.0,0.0,0.0,0.0,0.0,0.0,0.0,9111.8,0.0,55.0,5.0,251.14333333333335,1.0,0.0,0.0,0.0,0.0,0.0,1.0,0.0,1.5539999999999985,1.5539999999999985,0.0,0.0,1.0,55.0,616.79921,10000.0,85.000001,85.000001,85.000001,85.000001,395.0,0.0,0.0,0.0,1.0,333.33500000000004,51.544,51.544,45.501999999999995,45.501999999999995,34.0,-28.14,20.165999999999997,-37.586666666666666,27.0,0.0,1781.31,0.14499999999999957,100.0,29.383,28.695999999999998,45.186,43.979,0.0,0.0,100.0,0.0,0.0,0.0,0.0,3229.625,2959.0,4497.444444444444,4228.6,305.28433333333334,305.2415,314.00475,314.431,22.0506,20.6777,22.1024,21.5958,314.999998,314.999998,324.999988,324.999988,99.5582,99.5075,99.5702,99.54985714285715,0.004249999999999865,-0.14700000000000002,-0.20166666666666666,0.03216666666666666,-0.04833333333333201,-0.03999999999999915,1.4325,1.4735,38.817,30.235333333333333,39.14,35.9735,55.566,35.6295,60.41,53.576499999999996,53.528,34.736000000000004,58.956,51.853,52.686,34.28,58.832499999999996,51.23533333333333,-0.08299999999999996,-0.09650000000000003,0.10063000000000001,0.11617500000000001,0.0,218.41,218.345,214.97,214.97,0.0,0.0
32,0.0,0.0,0.0,1.0,1.0,0.0,0.0,1.0,0.0,100.0,1.0,1.1856,26.0,0.0,0.0,0.0,55.000001,0.0,26.0,26.0,26.0,26.0,-0.11922222222222212,0.26460000000000017,-0.052000000000000005,291.306,-2.6467,-2.708,-1.58965,-1.5755,-167.1,215.985,190.279625,0.0,0.0,0.0,0.0,0.06469999999999998,-5.498166666666667,-5.498166666666667,-0.6111,0.20650000000000002,-0.0945555555555555,0.21500000000000008,69.896,-0.07200000000000001,-0.23135,0.556,100.0,1.0,1.0,215.53333333333333,0.0,0.0,0.0,0.0,0.0,0.0,0.0,9135.7,0.0,55.0,5.0,251.59666666666666,0.0,0.0,0.0,0.0,0.0,0.0,1.0,0.0,1.6050000000000004,1.6050000000000004,0.0,0.0,0.0,55.0,616.79921,10000.0,85.000001,85.000001,85.000001,85.000001,395.0,0.0,0.0,0.0,1.0,333.33500000000004,51.147,51.147,46.783,46.783,34.0,-27.56,21.988,-32.94333333333333,25.5,0.0,1781.258,0.02500000000000213,100.0,29.541,28.622,44.804,43.667,0.0,0.0,100.0,0.0,0.0,0.0,0.0,3326.5,3096.9,4218.111111111111,4110.9,304.728,305.0345,314.7405,314.86175,22.06,20.6833,22.1128,21.605,314.999998,314.999998,324.999988,324.999988,99.55821428571429,99.50751666666666,99.57035714285715,99.55,0.035250000000000004,-0.11366666666666658,-0.17283333333333334,0.054,-0.051666666666669414,-0.06142857142857139,1.548,1.55,38.875,30.270666666666664,39.205,36.031,55.552,35.6735,60.446,53.632999999999996,53.515,34.7765,58.9895,51.907,52.673,34.319,58.8625,51.288,-0.08650000000000002,-0.08600000000000008,0.104135,0.114085,0.0,218.815,218.765,215.53333333333333,215.53333333333333,0.0,0.0
33,0.0,0.0,0.0,1.0,1.0,0.0,0.0,1.0,0.0,100.0,1.0,1.1856,26.0,0.0,0.0,0.0,55.000001,0.0,26.0,26.0,26.0,26.0,-0.08377777777777784,0.262,-0.04055,291.351,-2.6497,-2.753125,-1.5585499999999999,-1.5869,-163.75,215.9725,190.2545,0.0,0.0,0.0,0.0,0.06666666666666654,-5.498166666666667,-5.498166666666667,-0.6123000000000001,-0.35450000000000004,-0.08055555555555571,1.396,70.019,-0.0616,-0.21475,0.35000000000000053,100.0,1.0,1.0,215.78333333333333,0.0,0.0,0.0,0.0,0.0,0.0,0.0,9146.3,0.0,55.0,5.0,252.04333333333335,1.0,0.0,0.0,0.0,0.0,0.0,1.0,0.0,1.6529999999999987,1.6529999999999987,0.0,0.0,1.0,55.0,616.79921,10000.0,85.000001,85.000001,85.000001,85.000001,395.0,0.0,0.0,0.0,1.0,333.33500000000004,51.834,51.834,46.371,46.371,34.0,-25.5325,22.189999999999998,-33.38333333333333,27.445,0.0,1781.21,-0.134999999999998,100.0,29.28,28.331,44.802,43.762,0.0,0.0,100.0,0.0,0.0,0.0,0.0,3148.625,3011.2,4317.444444444444,4297.7,305.316,305.30275,314.40075,314.32475,22.0688,20.6884,22.122799999999998,21.6137,314.999998,314.999998,324.999988,324.999988,99.55821428571429,99.50753333333333,99.5705,99.55015714285715,0.041749999999999954,-0.10133333333333339,-0.16233333333333336,0.0545,-0.04833333333333201,-0.03999999999999915,1.482,1.4945,38.93,30.302666666666667,39.266999999999996,36.085499999999996,55.538,35.713,60.4835,53.6915,53.501999999999995,34.813,59.025,51.963499999999996,52.659,34.35366666666667,58.894999999999996,51.343,-0.09599999999999997,-0.07150000000000012,0.10101,0.10536500000000001,0.0,219.19,219.135,215.78333333333333,215.78333333333333,0.0,0.0
34,0.0,0.0,0.0,1.0,1.0,0.0,0.0,1.0,0.0,100.0,1.0,1.1856,26.0,0.0,0.0,0.0,55.000001,0.0,26.0,26.0,26.0,26.0,-0.05977777777777782,0.25550000000000006,-0.0451,291.809,-2.6708,-2.73175,-1.5981,-1.6025,-159.95999999999998,215.95749999999998,190.225,0.0,0.0,0.0,0.0,0.06886666666666652,-5.498166666666667,-5.498166666666667,-0.6463,-0.7695000000000001,-0.04388888888888909,1.048,70.154,-0.0427,-0.2278,0.1460000000000008,100.0,1.0,1.0,216.29000000000002,0.0,0.0,0.0,0.0,0.0,0.0,0.0,9167.7,0.0,55.0,5.0,252.52666666666664,0.0,0.0,0.0,0.0,0.0,0.0,1.0,0.0,1.7070000000000007,1.7070000000000007,0.0,0.0,0.0,55.0,616.79921,10000.0,85.000001,85.000001,85.000001,85.000001,395.0,0.0,0.0,0.0,1.0,166.665,52.109,52.109,47.363,47.363,34.0,-24.695,22.656,-30.9,27.6575,0.0,1781.158,-0.09999999999999787,100.0,28.96,27.989,44.400999999999996,43.862,0.0,0.0,100.0,0.0,0.0,0.0,0.0,3071.375,3041.9,4063.3333333333335,4153.7,305.374,305.18975,315.0335,314.622,22.0785,20.6942,22.1339,21.6235,314.999998,314.999998,324.999988,324.999988,99.55821428571429,99.50755,99.57064285714286,99.5503,0.05425000000000013,-0.09266666666666656,-0.15333333333333335,0.07616666666666667,-0.03999999999999915,-0.05142857142856627,1.5185,1.5230000000000001,38.991,30.339,39.337,36.147,55.524,35.751999999999995,60.518,53.75,53.489000000000004,34.849000000000004,59.057,52.0195,52.644,34.388,58.924,51.397666666666666,-0.09199999999999997,-0.07250000000000001,0.10409,0.108965,0.0,219.565,219.54500000000002,216.29000000000002,216.29000000000002,0.0,0.0
35,0.0,0.0,0.0,1.0,1.0,0.0,0.0,1.0,0.0,100.0,1.0,1.1856,26.0,0.0,0.0,0.0,55.000001,0.0,26.0,26.0,26.0,26.0,-0.04155555555555557,0.2512000000000001,-0.0354,291.779,-2.722,-2.6888750000000003,-1.5658,-1.6164,-156.59,215.9425,190.19675,0.0,0.0,0.0,0.0,0.0708333333333333,-5.498166666666667,-5.498166666666667,-0.6856,-0.4730000000000001,-0.05333333333333368,-0.050999999999999934,70.274,-0.0247,-0.23172500000000001,0.008000000000000007,100.0,1.0,1.0,216.70666666666668,0.0,0.0,0.0,0.0,0.0,0.0,0.0,9185.4,0.0,55.0,5.0,252.96,1.0,0.0,0.0,0.0,0.0,0.0,1.0,0.0,1.754999999999999,1.754999999999999,0.0,0.0,1.0,55.0,616.79921,10000.0,85.000001,85.000001,85.000001,85.000001,395.0,0.0,0.0,0.0,1.0,166.665,51.59,51.59,47.012,47.012,34.0,-25.945,25.772,-29.013333333333332,27.2775,0.0,1781.111,-0.06500000000000128,100.0,28.682,28.297,44.147999999999996,43.439,0.0,0.0,100.0,0.0,0.0,0.0,0.0,3235.625,3328.2,4041.6666666666665,3952.0,305.18066666666664,304.372,315.014,315.10375,22.087,20.6995,22.1436,21.6321,314.999998,314.999998,324.999988,324.999988,99.55822857142857,99.50756666666666,99.5708,99.55044285714285,0.06325000000000003,-0.06833333333333336,-0.12833333333333335,0.09933333333333333,-0.045000000000001705,-0.05142857142856627,1.548,1.5465,39.044,30.372,39.397999999999996,36.2005,55.509,35.7905,60.5505,53.8015,53.474000000000004,34.8845,59.087,52.069,52.629000000000005,34.42166666666667,58.951,51.44566666666667,-0.09399999999999997,-0.0665,0.107965,0.104385,0.0,219.935,219.93,216.70666666666665,216.70666666666668,0.0,0.0
36,0.0,0.0,0.0,1.0,1.0,0.0,0.0,1.0,0.0,100.0,1.0,1.1856,26.0,0.0,0.0,0.0,55.000001,0.0,26.0,26.0,26.0,26.0,-0.0431111111111111,0.27059999999999995,0.032325,290.863,-2.7303,-2.6423750000000004,-1.5405,-1.6014,-153.22,215.9275,190.167,0.0,0.0,0.0,0.0,0.07279999999999998,-5.498166666666667,-5.498166666666667,-0.6654,0.344,-0.0813333333333337,0.18300000000000005,70.396,-0.0158,-0.19942500000000002,0.14000000000000057,100.0,1.0,1.0,216.85666666666668,0.0,0.0,0.0,0.0,0.0,0.0,0.0,9191.7,0.0,55.0,5.0,253.4,0.0,0.0,0.0,0.0,0.0,0.0,1.0,0.0,1.8030000000000008,1.8030000000000008,0.0,0.0,0.0,55.0,616.79921,10000.0,85.000001,85.000001,85.000001,85.000001,395.0,0.0,0.0,0.0,1.0,166.665,51.269999999999996,51.269999999999996,46.188,46.188,34.0,-26.1525,24.15,-32.32,33.03,0.0,1781.063,-0.07499999999999929,100.0,29.198,28.677,44.238,43.713,0.0,0.0,100.0,0.0,0.0,0.0,0.0,3294.75,3190.1,4466.222222222223,4558.6,304.92833333333334,304.823,314.0175,313.71,22.0957,20.705,22.1535,21.6409,314.999998,314.999998,324.999988,324.999988,99.55824285714286,99.50756666666666,99.57094285714285,99.55058571428572,0.07500000000000018,-0.06633333333333336,-0.11866666666666667,0.10633333333333334,-0.045000000000001705,-0.060000000000002274,1.436,1.4305,39.098,30.406333333333336,39.46,36.2555,55.498000000000005,35.83,60.5845,53.857,53.464,34.921,59.119,52.123,52.617999999999995,34.45666666666666,58.980000000000004,51.498,-0.09099999999999997,-0.07499999999999996,0.10651000000000001,0.10926500000000001,0.0,220.36,220.335,216.85666666666668,216.85666666666668,0.0,0.0
