,ABS Active,ABS Enabled,AID Allow Tire Blankets,AID Auto Blip,AID Auto Clutch,AID Auto Shift,AID Fuel Rate,AID Ideal Line,AID Mech Damage,AID Stability,AID Tire Wear Rate,Air Density,Air Temp,Ballast,Best Lap Delta,Best Lap Time,Brake Bias,Brake Pos,Brake Temp FL,Brake Temp FR,Brake Temp RL,Brake Temp RR,CG Accel Lateral,CG Accel Longitudinal,CG Accel Vertical,CG Height,Camber FL,Camber FR,Camber RL,Camber RR,Car Coord X,Car Coord Y,Car Coord Z,Car Damage Front,Car Damage Left,Car Damage Rear,Car Damage Right,Car Pos Norm,Caster FL,Caster FR,Chassis Pitch Angle,Chassis Pitch Rate,Chassis Roll Angle,Chassis Roll Rate,Chassis Velocity X,Chassis Velocity Y,Chassis Velocity Z,Chassis Yaw Rate,Clutch Pos,DRS Active,DRS Available,Drive Train Speed,ERS Heat Charging,ERS Is Charging,ERS Max Energy,ERS Power Level,ERS Recovery Level,Engine Brake Setting,Engine Limiter,Engine RPM,Flags,Fuel Level,Gear,Ground Speed,HR Sample Clock,In Pit,KERS Charge,KERS Deployed Energy,KERS Input,KERS Max Energy,LR Sample Clock,Lap Invalidated,Lap Time,Lap Time2,Last Lap Time,Last Sector Time,MR Sample Clock,Max Fuel,Max Power,Max RPM,Max Sus Travel FL,Max Sus Travel FR,Max Sus Travel RL,Max Sus Travel RR,Max Torque,Max Turbo Boost,Num Tires Off Track,Penalties Enabled,Position,Raw Data Sample Rate,Ride Height FL,Ride Height FR,Ride Height RL,Ride Height RR,Road Temp,Self Align Torque FL,Self Align Torque FR,Self Align Torque RL,Self Align Torque RR,Session Lap Count,Session Time Left,Steering Angle,Surface Grip,Suspension Travel FL,Suspension Travel FR,Suspension Travel RL,Suspension Travel RR,TC Active,TC Enabled,Throttle Pos,Tire Dirt Level FL,Tire Dirt Level FR,Tire Dirt Level RL,Tire Dirt Level RR,Tire Load FL,Tire Load FR,Tire Load RL,Tire Load RR,Tire Loaded Radius FL,Tire Loaded Radius FR,Tire Loaded Radius RL,Tire Loaded Radius RR,Tire Pressure FL,Tire Pressure FR,Tire Pressure RL,Tire Pressure RR,Tire Radius FL,Tire Radius FR,Tire Radius RL,Tire Radius RR,Tire Rubber Grip FL,Tire Rubber Grip FR,Tire Rubber Grip RL,Tire Rubber Grip RR,Tire Slip Angle FL,Tire Slip Angle FR,Tire Slip Angle RL,Tire Slip Angle RR,Tire Slip Ratio FL,Tire Slip Ratio FR,Tire Slip Ratio RL,Tire Slip Ratio RR,Tire Temp Core FL,Tire Temp Core FR,Tire Temp Core RL,Tire Temp Core RR,Tire Temp Inner FL,Tire Temp Inner FR,Tire Temp Inner RL,Tire Temp Inner RR,Tire Temp Middle FL,Tire Temp Middle FR,Tire Temp Middle RL,Tire Temp Middle RR,Tire Temp Outer FL,Tire Temp Outer FR,Tire Temp Outer RL,Tire Temp Outer RR,Toe In FL,Toe In FR,Toe In RL,Toe In RR,Turbo Boost,Wheel Angular Speed FL,Wheel Angular Speed FR,Wheel Angular Speed RL,Wheel Angular Speed RR,Wind Direction,Wind Speed
0,0.0,0.0,0.0,1.0,1.0,0.0,0.0,1.0,0.0,100.0,1.0,1.1856,26.0,0.0,0.0,0.0,55.0,0.0,26.0,26.0,26.0,26.0,-0.03588888888888886,0.2915000000000001,0.17385,293.32,-2.7953,-2.6222,-1.5599,-1.5127000000000002,-275.68,215.5575,190.9875,0.0,0.0,0.0,0.0,0.0016,-5.498166666666667,-5.498166666666667,-0.5629000000000001,1.27,-0.0024444444444444713,-0.6539999999999999,65.548,-0.033,-0.22005000000000002,0.15799999999999947,100.0,1.0,1.0,202.39,0.0,0.0,0.0,0.0,0.0,0.0,0.0,8578.6,0.0,55.0,5.0,235.94333333333333,0.0,0.0,0.0,0.0,0.0,0.0,0.0,0.0,0.0030000000000001137,0.0030000000000001137,0.0,0.0,0.0,55.0,616.79921,10000.0,85.0,85.0,85.0,85.0,395.0,0.0,0.0,0.0,1.0,20.0,51.01,51.01,48.965,48.965,34.0,-30.355,32.16,-29.13,24.830000000000002,0.0,1783.001,0.23000000000000043,100.0,27.08,27.021,40.516,40.274,0.0,0.0,100.0,0.0,0.0,0.0,0.0,3405.0,4305.6,4006.6666666666665,4006.4,304.53266666666667,301.508,315.13675,314.84775,21.7971,20.514499999999998,21.7942,21.3314,314.99999,314.99999,324.99998,324.99998,99.5602,99.50721666666666,99.56658571428571,99.54607142857142,0.01750000000000007,-0.08899999999999997,-0.14633333333333334,0.073,-0.036666666666668846,-0.07666666666666799,1.5663333333333334,1.5819999999999999,37.232,29.216,37.214,34.3215,56.748000000000005,34.5245,59.545,51.988,54.635999999999996,33.6815,58.1575,50.3215,53.793,33.232,58.1245,49.736000000000004,-0.05899999999999994,-0.09000000000000008,0.10626000000000001,0.10170000000000001,0.0,205.36,205.35500000000002,202.39,202.39,0.0,0.0
1,0.0,0.0,0.0,1.0,1.0,0.0,0.0,1.0,0.0,100.0,1.0,1.1856,26.0,0.0,0.0,0.0,55.000001,0.0,26.0,26.0,26.0,26.0,-0.08577777777777784,0.3228,0.144075,292.252,-2.6507,-2.7039,-1.5954000000000002,-1.3771,-272.33,215.5675,190.967375,0.0,0.0,0.0,0.0,0.0035333333333333336,-5.498166666666667,-5.498166666666667,-0.4757,-1.0635,-0.05022222222222217,-0.10400000000000009,65.707,-0.0291,-0.1773,0.6920000000000011,100.0,1.0,1.0,202.26333333333332,0.0,0.0,0.0,0.0,0.0,0.0,0.0,8573.1,0.0,55.0,5.0,236.51333333333332,1.0,0.0,0.0,0.0,0.0,0.0,0.0,0.0,0.053999999999998494,0.053999999999998494,0.0,0.0,1.0,55.0,616.79921,10000.0,85.000001,85.000001,85.000001,85.000001,395.0,0.0,0.0,0.0,1.0,333.33500000000004,54.108,54.108,47.226,47.226,34.0,-23.1675,16.835,-38.88333333333333,33.18,0.0,1782.951,0.4450000000000003,100.0,27.641,27.264,42.481,42.766999999999996,0.0,0.0,100.0,0.0,0.0,0.0,0.0,2852.5,2454.7,4818.333333333333,5393.700000000001,306.09566666666666,306.96733333333333,312.971,311.141,21.8071,20.5197,21.8052,21.3408,314.999998,314.999998,324.999988,324.999988,99.56021428571428,99.50723333333333,99.56674285714286,99.54622857142857,0.03000000000000025,-0.1096666666666668,-0.1485,0.054,-0.01999999999999602,-0.05333333333332746,1.2993333333333332,1.3085,37.294,29.247999999999998,37.283,34.379999999999995,56.730999999999995,34.5635,59.591499999999996,52.056,54.619,33.718,58.201,50.3865,53.775999999999996,33.2665,58.164500000000004,49.8,-0.045499999999999985,-0.10650000000000004,0.10470000000000002,0.10586000000000001,0.0,205.85000000000002,205.82,202.26333333333332,202.26333333333332,0.0,0.0
2,0.0,0.0,0.0,1.0,1.0,0.0,0.0,1.0,0.0,100.0,1.0,1.1856,26.0,0.0,0.0,0.0,55.000001,0.0,26.0,26.0,26.0,26.0,-0.0885555555555555,0.2715000000000001,-0.24877500000000002,293.93,-2.6422,-2.6496,-1.5734,-1.5098,-268.78,215.5775,190.9475,0.0,0.0,0.0,0.0,0.0056,-5.498166666666667,-5.498166666666667,-0.5707,0.969,-0.0037777777777776578,2.1189999999999998,65.85,-0.035,-0.26677500000000004,0.9220000000000006,100.0,1.0,1.0,203.69,0.0,0.0,0.0,0.0,0.0,0.0,0.0,8633.7,0.0,55.0,5.0,237.03,0.0,0.0,0.0,0.0,0.0,0.0,0.0,0.0,0.10800000000000054,0.10800000000000054,0.0,0.0,0.0,55.0,616.79921,10000.0,85.000001,85.000001,85.000001,85.000001,395.0,0.0,0.0,0.0,1.0,166.665,52.124,52.124,50.674,50.674,34.0,-28.107499999999998,20.938333333333333,-25.403333333333332,19.15,0.0,1782.897,0.5899999999999999,100.0,28.239,27.497,41.927,41.653999999999996,0.0,0.0,100.0,0.0,0.0,0.0,0.0,3229.625,3072.8,3512.3333333333335,3448.6,304.835,304.83733333333333,316.3015,316.36325,21.8178,20.5251,21.8163,21.349899999999998,314.999998,314.999998,324.999988,324.999988,99.56021428571428,99.50725,99.56688571428572,99.54635714285715,0.0022500000000000853,-0.125,-0.17216666666666666,0.05533333333333334,-0.045000000000001705,-0.04999999999999716,1.7386666666666666,1.788,37.361999999999995,29.282,37.352000000000004,34.437,56.715,34.6055,59.626999999999995,52.108000000000004,54.604,33.757,58.234,50.437,53.76,33.304,58.1945,49.8495,-0.03200000000000003,-0.123,0.10586500000000001,0.10276,0.0,206.32,206.24,203.69,203.69,0.0,0.0
3,0.0,0.0,0.0,1.0,1.0,0.0,0.0,1.0,0.0,100.0,1.0,1.1856,26.0,0.0,0.0,0.0,55.000001,0.0,26.0,26.0,26.0,26.0,-0.08711111111111103,0.3077000000000001,0.118575,293.076,-2.6579,-2.6868,-1.5189,-1.4859,-265.81,215.585,190.9295,0.0,0.0,0.0,0.0,0.007333333333333333,-5.498166666666667,-5.498166666666667,-0.503,0.48849999999999993,0.003555555555555534,-1.439,65.99000000000001,-0.049300000000000004,-0.18725,0.8380000000000001,100.0,1.0,1.0,203.49333333333334,0.0,0.0,0.0,0.0,0.0,0.0,0.0,8625.3,0.0,55.0,5.0,237.53,1.0,0.0,0.0,0.0,0.0,0.0,0.0,0.0,0.1529999999999987,0.1529999999999987,0.0,0.0,1.0,55.0,616.79921,10000.0,85.000001,85.000001,85.000001,85.000001,395.0,0.0,0.0,0.0,1.0,333.33500000000004,53.36,53.36,47.668,47.668,34.0,-24.265,19.971666666666668,-33.71,27.11,0.0,1782.851,0.7050000000000018,100.0,27.791,27.361,42.1,41.997,0.0,0.0,100.0,0.0,0.0,0.0,0.0,2870.5,2948.0,4462.555555555556,4323.7,306.18333333333334,305.4216666666667,313.9545,314.0165,21.8265,20.5299,21.8256,21.358,314.999998,314.999998,324.999988,324.999988,99.56021428571428,99.50726666666667,99.56701428571428,99.54648571428571,0.0027500000000002522,-0.1279999999999999,-0.15433333333333335,0.06866666666666667,-0.046666666666666856,-0.03999999999999915,1.456,1.4745,37.416,29.311666666666667,37.41,34.4875,56.698,34.6435,59.6605,52.166,54.588,33.7915,58.2655,50.4925,53.742999999999995,33.3375,58.2235,49.903999999999996,-0.02300000000000002,-0.12949999999999995,0.09746,0.118665,0.0,206.78,206.71,203.49333333333334,203.49333333333334,0.0,0.0
4,0.0,0.0,0.0,1.0,1.0,0.0,0.0,1.0,0.0,100.0,1.0,1.1856,26.0,0.0,0.0,0.0,55.000001,0.0,26.0,26.0,26.0,26.0,-0.11111111111111105,0.2925,-0.053075000000000004,293.411,-2.64985,-2.7638,-1.4591,-1.6028,-262.25,215.5925,190.908875,0.0,0.0,0.0,0.0,0.0094,-5.498166666666667,-5.498166666666667,-0.533,-0.8355000000000001,-0.052999999999999936,0.3730000000000002,66.144,-0.0649,-0.23497500000000002,1.267999999999999,100.0,1.0,1.0,204.15,0.0,0.0,0.0,0.0,0.0,0.0,0.0,8653.2,0.0,55.0,5.0,238.08666666666667,0.0,0.0,0.0,0.0,0.0,0.0,0.0,0.0,0.20700000000000074,0.20700000000000074,0.0,0.0,0.0,55.0,616.79921,10000.0,85.000001,85.000001,85.000001,85.000001,395.0,0.0,0.0,0.0,1.0,166.665,53.055,53.055,48.691,48.691,34.0,-27.59,20.09166666666667,-30.93,23.545,0.0,1782.797,0.6649999999999991,100.0,27.843,26.945,42.903999999999996,42.019,0.0,0.0,100.0,0.0,0.0,0.0,0.0,3136.25,2941.5,4073.1111111111113,3853.8,305.2296666666667,305.521,314.87225,315.26925,21.837,20.5352,21.837,21.3675,314.999998,314.999998,324.999988,324.999988,99.56021428571428,99.50728333333333,99.56717142857143,99.54664285714286,-0.009749999999999925,-0.1379999999999999,-0.1935,0.04683333333333334,-0.02499999999999858,-0.030000000000001137,1.5583333333333333,1.5855000000000001,37.480999999999995,29.345333333333336,37.480999999999995,34.547,56.679,34.686,59.704499999999996,52.228,54.57,33.831,58.3065,50.552,53.724000000000004,33.375,58.2615,49.962,-0.020000000000000018,-0.13149999999999995,0.10876500000000001,0.11371,0.0,207.175,207.10500000000002,204.15,204.15,0.0,0.0
5,0.0,0.0,0.0,1.0,1.0,0.0,0.0,1.0,0.0,100.0,1.0,1.1856,26.0,0.0,0.0,0.0,55.000001,0.0,26.0,26.0,26.0,26.0,-0.12188888888888894,0.29059999999999997,-0.034575,293.686,-2.6616,-2.7196,-1.5166,-1.5981,-259.07,215.595,190.89025,0.0,0.0,0.0,0.0,0.011266666666666668,-5.498166666666667,-5.498166666666667,-0.5401,0.5155000000000001,-0.04366666666666674,0.7789999999999999,66.279,-0.082,-0.2255,1.1600000000000001,100.0,1.0,1.0,204.66666666666669,0.0,0.0,0.0,0.0,0.0,0.0,0.0,8675.1,0.0,55.0,5.0,238.57666666666665,1.0,0.0,0.0,0.0,0.0,0.0,0.0,0.0,0.254999999999999,0.254999999999999,0.0,0.0,1.0,55.0,616.79921,10000.0,85.000001,85.000001,85.000001,85.000001,395.0,0.0,0.0,0.0,1.0,166.665,53.192,53.192,49.254999999999995,49.254999999999995,34.0,-26.7675,20.32333333333333,-30.586666666666666,23.1575,0.0,1782.75,0.33500000000000085,100.0,27.843,26.824,42.545,41.469,0.0,0.0,100.0,0.0,0.0,0.0,0.0,3079.25,2968.0,3936.0,3947.0,305.32733333333334,305.421,315.25925,315.1065,21.8465,20.5402,21.8468,21.375799999999998,314.999998,314.999998,324.999988,324.999988,99.56022857142857,99.5073,99.5673,99.54675714285715,0.0012500000000001954,-0.1286666666666667,-0.20066666666666666,0.030166666666666668,-0.041666666666671404,-0.05666666666667197,1.5756666666666668,1.619,37.54,29.375999999999998,37.543,34.5985,56.664,34.725,59.739,52.2805,54.555,33.867,58.338499999999996,50.6025,53.709,33.4095,58.291,50.0115,-0.046499999999999986,-0.10050000000000003,0.09855000000000001,0.11490500000000001,0.0,207.68,207.56,204.66666666666669,204.66666666666669,0.0,0.0
6,0.0,0.0,0.0,1.0,1.0,0.0,0.0,1.0,0.0,100.0,1.0,1.1856,26.0,0.0,0.0,0.0,55.000001,0.0,26.0,26.0,26.0,26.0,-0.1426666666666666,0.2772000000000001,-0.000375,293.488,-2.6445499999999997,-2.7928,-1.5109,-1.5750000000000002,-255.88,215.595,190.87075,0.0,0.0,0.0,0.0,0.0131,-5.498166666666667,-5.498166666666667,-0.5252,-0.16349999999999998,-0.0604444444444443,0.5069999999999997,66.42,-0.0858,-0.203875,0.902000000000001,100.0,1.0,1.0,204.92333333333335,0.0,0.0,0.0,0.0,0.0,0.0,0.0,8686.0,0.0,55.0,5.0,239.07999999999998,0.0,0.0,0.0,0.0,0.0,0.0,0.0,0.0,0.3030000000000008,0.3030000000000008,0.0,0.0,0.0,55.0,616.79921,10000.0,85.000001,85.000001,85.000001,85.000001,395.0,0.0,0.0,0.0,1.0,333.33500000000004,53.619,53.619,48.400999999999996,48.400999999999996,34.0,-27.6575,19.665,-34.06,23.627499999999998,0.0,1782.701,0.4750000000000014,100.0,27.589,26.498,42.817,41.594,0.0,0.0,100.0,0.0,0.0,0.0,0.0,3097.125,2870.9,4232.555555555556,4095.6000000000004,305.365,305.74833333333333,314.446,314.72,21.8558,20.5449,21.8569,21.3843,314.999998,314.999998,324.999988,324.999988,99.56022857142857,99.50731666666667,99.56744285714285,99.5469,-0.02224999999999988,-0.14100000000000001,-0.20283333333333334,0.017833333333333333,-0.036666666666668846,-0.04833333333333201,1.4793333333333334,1.5305,37.599000000000004,29.406,37.605000000000004,34.652,56.647,34.7625,59.7765,52.337,54.539,33.9015,58.373,50.6565,53.693,33.442499999999995,58.323,50.0645,-0.034499999999999975,-0.10850000000000004,0.10756,0.10544,0.0,208.06,208.005,204.92333333333335,204.92333333333335,0.0,0.0
7,0.0,0.0,0.0,1.0,1.0,0.0,0.0,1.0,0.0,100.0,1.0,1.1856,26.0,0.0,0.0,0.0,55.000001,0.0,26.0,26.0,26.0,26.0,-0.10466666666666657,0.2883,-0.01435,293.503,-2.60785,-2.7913,-1.5615,-1.6228,-252.29,215.5925,190.849,0.0,0.0,0.0,0.0,0.0152,-5.498166666666667,-5.498166666666667,-0.5325,0.12749999999999995,-0.05255555555555569,1.1710000000000003,66.572,-0.0844,-0.21557500000000002,0.6879999999999997,100.0,1.0,1.0,205.46,0.0,0.0,0.0,0.0,0.0,0.0,0.0,8708.7,0.0,55.0,5.0,239.63333333333333,1.0,0.0,0.0,0.0,0.0,0.0,0.0,0.0,0.3569999999999993,0.3569999999999993,0.0,0.0,1.0,55.0,616.79921,10000.0,85.000001,85.000001,85.000001,85.000001,395.0,0.0,0.0,0.0,1.0,166.665,53.299,53.299,48.737,48.737,34.0,-25.61,21.391666666666666,-32.96,23.5275,0.0,1782.648,0.004999999999999005,100.0,27.88,26.668,42.839,41.611000000000004,0.0,0.0,100.0,0.0,0.0,0.0,0.0,3069.125,2933.7,4093.6666666666665,3981.6000000000004,305.3566666666667,305.51,314.862,314.985,21.8664,20.5504,21.8681,21.3938,314.999998,314.999998,324.999988,324.999988,99.56022857142857,99.50731666666667,99.56758571428571,99.54704285714286,0.015750000000000153,-0.11099999999999999,-0.20166666666666666,0.021666666666666667,-0.045000000000001705,-0.051666666666669414,1.533,1.574,37.665,29.440333333333335,37.676,34.711,56.629999999999995,34.8055,59.817,52.399,54.524,33.941,58.411500000000004,50.716,53.676,33.480000000000004,58.358000000000004,50.1225,-0.07299999999999995,-0.06899999999999995,0.11189,0.10629000000000001,0.0,208.54500000000002,208.48000000000002,205.46,205.46,0.0,0.0
8,0.0,0.0,0.0,1.0,1.0,0.0,0.0,1.0,0.0,100.0,1.0,1.1856,26.0,0.0,0.0,0.0,55.000001,0.0,26.0,26.0,26.0,26.0,-0.06611111111111112,0.2803,-0.02325,293.549,-2.6929,-2.7183,-1.5413000000000001,-1.6116000000000001,-248.89,215.5875,190.828375,0.0,0.0,0.0,0.0,0.017166666666666667,-5.498166666666667,-5.498166666666667,-0.5369,-0.20900000000000007,-0.041888888888888864,-0.9929999999999999,66.718,-0.06910000000000001,-0.21882500000000002,0.4139999999999997,100.0,1.0,1.0,205.89666666666668,0.0,0.0,0.0,0.0,0.0,0.0,0.0,8727.2,0.0,55.0,5.0,240.15333333333334,0.0,0.0,0.0,0.0,0.0,0.0,0.0,0.0,0.40800000000000125,0.40800000000000125,0.0,0.0,0.0,55.0,616.79921,10000.0,85.000001,85.000001,85.000001,85.000001,395.0,0.0,0.0,0.0,1.0,166.665,53.406,53.406,48.553,48.553,34.0,-26.88,20.861666666666665,-31.60666666666667,24.0425,0.0,1782.596,-0.03999999999999915,100.0,27.358,26.938,42.732,41.88,0.0,0.0,100.0,0.0,0.0,0.0,0.0,3147.75,2927.8,4064.6666666666665,3942.3,305.4386666666667,305.36333333333334,314.991,314.9915,21.8763,20.5557,21.8788,21.4029,314.999998,314.999998,324.999988,324.999988,99.56022857142857,99.50735,99.56772857142857,99.54718571428572,0.01200000000000001,-0.11199999999999988,-0.1885,0.03716666666666667,-0.045000000000001705,-0.036666666666668846,1.55,1.557,37.727000000000004,29.473,37.742000000000004,34.768,56.613,34.8455,59.8555,52.4585,54.507,33.9775,58.4475,50.772999999999996,53.659,33.5155,58.391,50.1785,-0.08050000000000002,-0.06950000000000012,0.110685,0.104495,0.0,208.97,208.93,205.89666666666668,205.89666666666668,0.0,0.0
9,0.0,0.0,0.0,1.0,1.0,0.0,0.0,1.0,0.0,100.0,1.0,1.1856,26.0,0.0,0.0,0.0,55.000001,0.0,26.0,26.0,26.0,26.0,-0.03722222222222216,0.2964,-0.0082,293.259,-2.617,-2.7294,-1.5432000000000001,-1.5670000000000002,-245.69,215.57999999999998,190.808625,0.0,0.0,0.0,0.0,0.019033333333333336,-5.498166666666667,-5.498166666666667,-0.5333,0.277,-0.04844444444444429,-0.5979999999999999,66.85300000000001,-0.057,-0.211075,0.266,100.0,1.0,1.0,206.29000000000002,0.0,0.0,0.0,0.0,0.0,0.0,0.0,8743.9,0.0,55.0,5.0,240.64333333333332,1.0,0.0,0.0,0.0,0.0,0.0,0.0,0.0,0.4559999999999995,0.4559999999999995,0.0,0.0,1.0,55.0,616.79921,10000.0,85.000001,85.000001,85.000001,85.000001,395.0,0.0,0.0,0.0,1.0,166.665,52.963,52.963,48.691,48.691,34.0,-26.5675,21.758333333333333,-31.14,25.892500000000002,0.0,1782.549,-0.19500000000000028,100.0,27.67,27.076,42.656,41.914,0.0,0.0,100.0,0.0,0.0,0.0,0.0,3246.875,2933.6,4113.555555555556,4081.1000000000004,305.064,305.3546666666667,314.9065,314.693,21.8857,20.5606,21.8887,21.4113,314.999998,314.999998,324.999988,324.999988,99.56024285714285,99.50735,99.56787142857142,99.54731428571428,0.028000000000000025,-0.09333333333333327,-0.1685,0.065,-0.03999999999999915,-0.061666666666667425,1.5336666666666665,1.5455,37.785,29.503999999999998,37.804,34.821,56.598,34.8825,59.891,52.5135,54.492999999999995,34.012,58.480000000000004,50.826,53.644,33.548500000000004,58.421,50.230000000000004,-0.09299999999999997,-0.05699999999999994,0.10173000000000001,0.11650500000000001,0.0,209.39499999999998,209.375,206.29000000000002,206.29000000000002,0.0,0.0
10,0.0,0.0,0.0,1.0,1.0,0.0,0.0,1.0,0.0,100.0,1.0,1.1856,26.0,0.0,0.0,0.0,55.000001,0.0,26.0,26.0,26.0,26.0,-0.02644444444444438,0.2844,-0.0018000000000000002,293.167,-2.6767,-2.705,-1.5045000000000002,-1.552,-242.47,215.5725,190.789125,0.0,0.0,0.0,0.0,0.020900000000000002,-5.498166666666667,-5.498166666666667,-0.5279,-0.31400000000000006,-0.02300000000000013,0.04499999999999993,66.99000000000001,-0.0419,-0.21115,0.05200000000000049,100.0,1.0,1.0,206.62666666666667,0.0,0.0,0.0,0.0,0.0,0.0,0.0,8758.1,0.0,55.0,5.0,241.13333333333333,0.0,0.0,0.0,0.0,0.0,0.0,1.0,0.0,0.5040000000000013,0.5040000000000013,0.0,0.0,0.0,55.0,616.79921,10000.0,85.000001,85.000001,85.000001,85.000001,395.0,0.0,0.0,0.0,1.0,333.33500000000004,53.329,53.329,48.309,48.309,34.0,-25.305,21.541666666666668,-30.866666666666667,26.75,0.0,1782.499,-0.28999999999999915,100.0,27.568,27.048000000000002,42.786,42.291,0.0,0.0,100.0,0.0,0.0,0.0,0.0,3113.375,2896.9,4176.888888888889,4183.0,305.484,305.499,314.70175,314.42675,21.895,20.5656,21.898699999999998,21.4199,314.999998,314.999998,324.999988,324.999988,99.56024285714285,99.50736666666667,99.56801428571428,99.54745714285714,0.040000000000000036,-0.08466666666666667,-0.15766666666666665,0.0675,-0.041666666666671404,-0.07166666666666544,1.501,1.512,37.844,29.534666666666666,37.867000000000004,34.8745,56.583,34.9185,59.927,52.570499999999996,54.479,34.045,58.513999999999996,50.881,53.629000000000005,33.58,58.452,50.284,-0.09150000000000003,-0.0535000000000001,0.10251500000000001,0.112195,0.0,209.79000000000002,209.81,206.62666666666667,206.62666666666667,0.0,0.0
11,0.0,0.0,0.0,1.0,1.0,0.0,0.0,1.0,0.0,100.0,1.0,1.1856,26.0,0.0,0.0,0.0,55.000001,0.0,26.0,26.0,26.0,26.0,-0.034777777777777796,0.28190000000000004,-0.044750000000000005,293.503,-2.67985,-2.7015000000000002,-1.5606,-1.5261,-239.05,215.5625,190.768125,0.0,0.0,0.0,0.0,0.022600000000000002,-5.498166666666667,-5.498166666666667,-0.5503,-0.19300000000000006,0.0043333333333333,0.8479999999999999,67.131,-0.0285,-0.22425,-0.12399999999999967,100.0,1.0,1.0,207.19333333333333,0.0,0.0,0.0,0.0,0.0,0.0,0.0,8782.2,0.0,55.0,5.0,241.64333333333332,1.0,0.0,0.0,0.0,0.0,0.0,1.0,0.0,0.5549999999999997,0.5549999999999997,0.0,0.0,1.0,55.0,616.79921,10000.0,85.000001,85.000001,85.000001,85.000001,395.0,0.0,0.0,0.0,1.0,333.33500000000004,53.253,53.253,48.903999999999996,48.903999999999996,34.0,-23.8,23.936666666666667,-27.766666666666666,26.3225,0.0,1782.448,-0.46499999999999986,100.0,27.47,26.938,42.57,42.203,0.0,0.0,100.0,0.0,0.0,0.0,0.0,3017.875,3101.8,3885.1111111111113,4049.7,305.59766666666667,305.03266666666667,315.37775,314.8585,21.9047,20.5709,21.9092,21.429,314.999998,314.999998,324.999988,324.999988,99.56025714285714,99.50736666666667,99.56815714285715,99.54758571428572,0.06099999999999994,-0.06466666666666665,-0.13783333333333334,0.09283333333333334,-0.04333333333332945,-0.045000000000001705,1.5816666666666666,1.5655000000000001,37.905,29.567999999999998,37.933,34.9315,56.566,34.9565,59.962,52.629999999999995,54.463,34.0805,58.5465,50.9375,53.611999999999995,33.614,58.4815,50.3395,-0.10199999999999998,-0.04499999999999993,0.11509000000000001,0.10444,0.0,210.22,210.21,207.19333333333333,207.19333333333333,0.0,0.0
12,0.0,0.0,0.0,1.0,1.0,0.0,0.0,1.0,0.0,100.0,1.0,1.1856,26.0,0.0,0.0,0.0,55.000001,0.0,26.0,26.0,26.0,26.0,-0.007555555555555538,0.28710000000000013,0.00030000000000000003,293.121,-2.70655,-2.6976,-1.5381,-1.5469,-235.82999999999998,215.5525,190.747625,0.0,0.0,0.0,0.0,0.025466666666666665,-5.498166666666667,-5.498166666666667,-0.5426,0.36649999999999994,0.0023333333333332984,0.7889999999999997,67.266,-0.012400000000000001,-0.20572500000000002,-0.3020000000000005,100.0,1.0,1.0,207.51666666666665,0.0,0.0,0.0,0.0,0.0,0.0,0.0,8795.8,0.0,55.0,5.0,242.12666666666667,0.0,0.0,0.0,0.0,0.0,0.0,1.0,0.0,0.602999999999998,0.602999999999998,0.0,0.0,0.0,55.0,616.79921,10000.0,85.000001,85.000001,85.000001,85.000001,395.0,0.0,0.0,0.0,1.0,333.33500000000004,52.994,52.994,48.278999999999996,48.278999999999996,34.0,-23.835,24.806666666666665,-28.356666666666666,28.545,0.0,1782.4,-0.384999999999998,100.0,27.587,27.219,42.489000000000004,42.182,0.0,0.0,100.0,0.0,0.0,0.0,0.0,3036.625,3139.5,4108.555555555556,4199.7,305.5283333333333,304.90166666666664,314.83725,314.51625,21.913899999999998,20.576,21.9191,21.4376,314.999998,314.999998,324.999988,324.999988,99.56025714285714,99.50738333333334,99.56828571428571,99.54772857142858,0.07050000000000001,-0.05166666666666675,-0.113,0.10383333333333333,-0.045000000000001705,-0.04833333333333201,1.533,1.5190000000000001,37.962,29.6,37.995000000000005,34.985,56.553,34.993,59.996,52.6855,54.45,34.114,58.578,50.991,53.598,33.646,58.5105,50.391999999999996,-0.09699999999999998,-0.050000000000000044,0.10237500000000001,0.10031000000000001,0.0,210.65,210.66500000000002,207.51666666666665,207.51666666666665,0.0,0.0
13,0.0,0.0,0.0,1.0,1.0,0.0,0.0,1.0,0.0,100.0,1.0,1.1856,26.0,0.0,0.0,0.0,55.000001,0.0,26.0,26.0,26.0,26.0,0.02288888888888896,0.27690000000000015,0.029075,292.801,-2.6807,-2.7063,-1.5709,-1.5523,-232.19,215.54250000000002,190.724625,0.0,0.0,0.0,0.0,0.02686666666666667,-5.498166666666667,-5.498166666666667,-0.5382,-0.22599999999999998,0.0032222222222222374,1.2149999999999999,67.417,-0.0026000000000000003,-0.214475,-0.35799999999999965,100.0,1.0,1.0,207.91333333333333,0.0,0.0,0.0,0.0,0.0,0.0,0.0,8812.7,0.0,55.0,5.0,242.67000000000002,1.0,0.0,0.0,0.0,0.0,0.0,1.0,0.0,0.657,0.657,0.0,0.0,1.0,55.0,616.79921,10000.0,85.000001,85.000001,85.000001,85.000001,395.0,0.0,0.0,0.0,1.0,166.665,52.811,52.811,48.05,48.05,34.0,-22.595,25.651666666666667,-28.266666666666666,30.9575,0.0,1782.348,-0.36499999999999844,100.0,27.819,27.395,42.835,42.641,0.0,0.0,100.0,0.0,0.0,0.0,0.0,3033.25,3118.6,4097.777777777777,4310.6,305.5346666666667,304.969,314.81425,314.2185,21.9242,20.5818,21.9304,21.4473,314.999998,314.999998,324.999988,324.999988,99.56027142857143,99.50738333333334,99.56844285714286,99.54788571428571,0.09399999999999986,-0.028666666666666618,-0.10066666666666667,0.12616666666666668,-0.036666666666668846,-0.030000000000001137,1.5086666666666666,1.483,38.025999999999996,29.636,38.065,35.046,56.538,35.033500000000004,60.036500000000004,52.7505,54.435,34.150999999999996,58.6155,51.054,53.583,33.682,58.545,50.4535,-0.11249999999999993,-0.03299999999999992,0.104745,0.11389500000000001,0.0,211.09,211.11,207.91333333333333,207.91333333333333,0.0,0.0
14,0.0,0.0,0.0,1.0,1.0,0.0,0.0,1.0,0.0,100.0,1.0,1.1856,26.0,0.0,0.0,0.0,55.000001,0.0,26.0,26.0,26.0,26.0,0.020444444444444487,0.28080000000000016,-0.018475000000000002,293.015,-2.70005,-2.7107,-1.5675,-1.5439,-228.95,215.535,190.7045,0.0,0.0,0.0,0.0,0.02876666666666667,-5.498166666666667,-5.498166666666667,-0.5502,-0.034499999999999975,0.020444444444444265,0.9889999999999999,67.547,0.0053,-0.226025,-0.36799999999999944,100.0,1.0,1.0,208.40333333333334,0.0,0.0,0.0,0.0,0.0,0.0,0.0,8833.5,0.0,55.0,5.0,243.14333333333335,0.0,0.0,0.0,0.0,0.0,0.0,1.0,0.0,0.7049999999999983,0.7049999999999983,0.0,0.0,0.0,55.0,616.79921,10000.0,85.000001,85.000001,85.000001,85.000001,395.0,0.0,0.0,0.0,1.0,166.665,52.795,52.795,48.385999999999996,48.385999999999996,34.0,-22.1425,25.873333333333335,-26.74,29.3875,0.0,1782.3,-0.4250000000000007,100.0,27.79,27.567,42.683,42.731,0.0,0.0,100.0,0.0,0.0,0.0,0.0,2991.0,3131.8,3960.6666666666665,4145.4,305.66433333333333,304.87033333333335,315.186,314.621,21.9333,20.5869,21.9403,21.456,314.999998,314.999998,324.999988,324.999988,99.56028571428571,99.5074,99.56857142857143,99.54801428571429,0.10024999999999995,-0.028999999999999915,-0.09816666666666668,0.1305,-0.046666666666666856,-0.04333333333332945,1.552,1.5415,38.083,29.668333333333333,38.126999999999995,35.1,56.525,35.069,60.0695,52.807,54.423,34.1845,58.6465,51.108000000000004,53.57,33.713499999999996,58.5725,50.5065,-0.11299999999999999,-0.038999999999999924,0.109255,0.11472,0.0,211.505,211.535,208.40333333333334,208.40333333333334,0.0,0.0
15,0.0,0.0,0.0,1.0,1.0,0.0,0.0,1.0,0.0,100.0,1.0,1.1856,26.0,0.0,0.0,0.0,55.000001,0.0,26.0,26.0,26.0,26.0,0.034666666666666845,0.2782,-0.00030000000000000003,292.923,-2.69435,-2.6854,-1.5783,-1.5602,-225.71,215.5275,190.684,0.0,0.0,0.0,0.0,0.03066666666666667,-5.498166666666667,-5.498166666666667,-0.5429,0.246,0.031888888888888856,0.7039999999999997,67.68,0.0125,-0.21257500000000001,-0.40200000000000014,100.0,1.0,1.0,208.76999999999998,0.0,0.0,0.0,0.0,0.0,0.0,0.0,8849.0,0.0,55.0,5.0,243.62,1.0,0.0,0.0,0.0,0.0,0.0,1.0,0.0,0.7530000000000001,0.7530000000000001,0.0,0.0,1.0,55.0,616.79921,10000.0,85.000001,85.000001,85.000001,85.000001,395.0,0.0,0.0,0.0,1.0,333.33500000000004,52.841,52.841,48.218,48.218,34.0,-21.965,25.348333333333333,-26.933333333333334,30.6825,0.0,1782.251,-0.3150000000000013,100.0,27.785,27.642,42.555,42.807,0.0,0.0,100.0,0.0,0.0,0.0,0.0,2952.125,3110.6,4036.8888888888887,4224.3,305.7776666666667,304.9236666666667,315.011,314.401,21.9424,20.5921,21.9502,21.4646,314.999998,314.999998,324.999988,324.999988,99.5603,99.5074,99.56871428571428,99.54815714285715,0.09549999999999992,-0.03200000000000003,-0.0855,0.13483333333333333,-0.03499999999999659,-0.060000000000002274,1.5336666666666665,1.516,38.14,29.700666666666663,38.189,35.153999999999996,56.512,35.105000000000004,60.1025,52.864,54.41,34.2175,58.677,51.163,53.556,33.7455,58.6005,50.5605,-0.10350000000000004,-0.05049999999999999,0.09854,0.109895,0.0,211.935,211.945,208.76999999999998,208.76999999999998,0.0,0.0
16,0.0,0.0,0.0,1.0,1.0,0.0,0.0,1.0,0.0,100.0,1.0,1.1856,26.0,0.0,0.0,0.0,55.000001,0.0,26.0,26.0,26.0,26.0,0.033666666666666734,0.27290000000000014,-0.00935,292.801,-2.75915,-2.6281,-1.5561,-1.5547,-222.25,215.51999999999998,190.662,0.0,0.0,0.0,0.0,0.03266666666666667,-5.498166666666667,-5.498166666666667,-0.5548000000000001,-0.44100000000000006,0.02011111111111097,-1.177,67.82,0.015300000000000001,-0.22455,-0.1899999999999995,100.0,1.0,1.0,209.18666666666667,0.0,0.0,0.0,0.0,0.0,0.0,0.0,8866.7,0.0,55.0,5.0,244.12333333333333,0.0,0.0,0.0,0.0,0.0,0.0,1.0,0.0,0.8039999999999985,0.8039999999999985,0.0,0.0,0.0,55.0,616.79921,10000.0,85.000001,85.000001,85.000001,85.000001,395.0,0.0,0.0,0.0,1.0,333.33500000000004,52.582,52.582,47.928,47.928,34.0,-24.3925,24.64666666666667,-27.346666666666668,28.57,0.0,1782.2,-0.254999999999999,100.0,27.413,27.842,42.716,43.043,0.0,0.0,100.0,0.0,0.0,0.0,0.0,3182.75,3129.0,4079.6666666666665,4042.7,305.342,304.74666666666667,314.9575,314.744,21.951999999999998,20.5976,21.9609,21.4738,314.999998,314.999998,324.999988,324.999988,99.56031428571428,99.5074,99.56885714285714,99.5483,0.09299999999999997,-0.04400000000000004,-0.09433333333333332,0.12283333333333334,-0.041666666666671404,-0.05666666666667197,1.5396666666666667,1.5175,38.2,29.735,38.254999999999995,35.2115,56.495999999999995,35.143,60.1395,52.924,54.394999999999996,34.253,58.7115,51.221000000000004,53.541,33.7795,58.6315,50.6175,-0.09750000000000003,-0.05600000000000005,0.10338000000000001,0.104275,0.0,212.34,212.35500000000002,209.18666666666667,209.18666666666667,0.0,0.0
17,0.0,0.0,0.0,1.0,1.0,0.0,0.0,1.0,0.0,100.0,1.0,1.1856,26.0,0.0,0.0,0.0,55.000001,0.0,26.0,26.0,26.0,26.0,0.02011111111111119,0.28180000000000005,0.040225000000000004,292.419,-2.62555,-2.6144,-1.5028000000000001,-1.5203,-218.59,215.5125,190.638375,0.0,0.0,0.0,0.0,0.034800000000000005,-5.498166666666667,-5.498166666666667,-0.5499,0.18699999999999994,-0.0037777777777776578,-0.875,67.967,0.0117,-0.21402500000000002,-0.10599999999999987,100.0,1.0,1.0,209.57999999999998,0.0,0.0,0.0,0.0,0.0,0.0,0.0,8883.4,0.0,55.0,5.0,244.65333333333334,1.0,0.0,0.0,0.0,0.0,0.0,1.0,0.0,0.8580000000000005,0.8580000000000005,0.0,0.0,1.0,55.0,616.79921,10000.0,85.000001,85.000001,85.000001,85.000001,395.0,0.0,0.0,0.0,1.0,166.665,52.353,52.353,47.546,47.546,34.0,-23.2225,24.481666666666666,-28.743333333333332,29.5325,0.0,1782.147,-0.21999999999999886,100.0,27.835,27.971,42.728,43.018,0.0,0.0,100.0,0.0,0.0,0.0,0.0,3174.5,3101.9,4308.666666666667,4227.3,305.227,304.82866666666666,314.40025,314.38375,21.9622,20.6035,21.972,21.4835,314.999998,314.999998,324.999988,324.999988,99.56031428571428,99.5074,99.56901428571429,99.54845714285715,0.09299999999999997,-0.03933333333333322,-0.09633333333333333,0.12083333333333333,-0.03499999999999659,-0.04833333333333201,1.4996666666666667,1.4985,38.263999999999996,29.772,38.325,35.272,56.482,35.184,60.177,52.987,54.382,34.291,58.7465,51.2815,53.525999999999996,33.816,58.6635,50.6765,-0.09550000000000003,-0.058499999999999996,0.10469,0.10616500000000001,0.0,212.82,212.82999999999998,209.57999999999998,209.57999999999998,0.0,0.0
18,0.0,0.0,0.0,1.0,1.0,0.0,0.0,1.0,0.0,100.0,1.0,1.1856,26.0,0.0,0.0,0.0,55.000001,0.0,26.0,26.0,26.0,26.0,0.029111111111111088,0.2713000000000001,0.05075,292.404,-2.6506,-2.7404,-1.5011999999999999,-1.483,-215.32,215.505,190.61725,0.0,0.0,0.0,0.0,0.0367,-5.498166666666667,-5.498166666666667,-0.5609000000000001,-0.3185,0.0012222222222222356,-0.613,68.09700000000001,0.0071,-0.22575,-0.05399999999999938,100.0,1.0,1.0,209.98666666666668,0.0,0.0,0.0,0.0,0.0,0.0,0.0,8900.5,0.0,55.0,5.0,245.12333333333333,0.0,0.0,0.0,0.0,0.0,0.0,1.0,0.0,0.9059999999999988,0.9059999999999988,0.0,0.0,0.0,55.0,616.79921,10000.0,85.000001,85.000001,85.000001,85.000001,395.0,0.0,0.0,0.0,1.0,166.665,52.322,52.322,47.699,47.699,34.0,-23.7725,25.566666666666666,-28.166666666666668,28.8625,0.0,1782.099,-0.22500000000000142,100.0,27.777,27.948999999999998,42.917,43.193,0.0,0.0,100.0,0.0,0.0,0.0,0.0,3184.75,3099.8,4147.555555555556,4234.1,305.24966666666666,304.7013333333333,314.7595,314.34575,21.9713,20.6087,21.982,21.4922,314.999998,314.999998,324.999988,324.999988,99.56032857142857,99.50741666666667,99.56914285714285,99.54858571428572,0.08674999999999988,-0.04400000000000004,-0.10966666666666668,0.117,-0.04833333333333201,-0.04999999999999716,1.4986666666666668,1.5030000000000001,38.321,29.804000000000002,38.387,35.326499999999996,56.468,35.22,60.2115,53.044,54.369,34.324,58.7785,51.336,53.512,33.8475,58.692499999999995,50.730000000000004,-0.09799999999999998,-0.05499999999999994,0.10897000000000001,0.110655,0.0,213.22,213.20499999999998,209.98666666666668,209.98666666666668,0.0,0.0
19,0.0,0.0,0.0,1.0,1.0,0.0,0.0,1.0,0.0,100.0,1.0,1.1856,26.0,0.0,0.0,0.0,55.000001,0.0,26.0,26.0,26.0,26.0,0.04122222222222227,0.29200000000000004,0.050550000000000005,292.114,-2.65205,-2.7057,-1.5259,-1.6063,-212.05,215.5,190.59575,0.0,0.0,0.0,0.0,0.0386,-5.498166666666667,-5.498166666666667,-0.5512,0.591,0.00855555555555565,-0.7330000000000001,68.227,0.0029000000000000002,-0.21475,-0.016000000000000014,100.0,1.0,1.0,210.37333333333333,0.0,0.0,0.0,0.0,0.0,0.0,0.0,8916.9,0.0,55.0,5.0,245.59,1.0,0.0,0.0,0.0,0.0,0.0,1.0,0.0,0.9540000000000006,0.9540000000000006,0.0,0.0,1.0,55.0,616.79921,10000.0,85.000001,85.000001,85.000001,85.000001,395.0,0.0,0.0,0.0,1.0,333.33500000000004,51.956,51.956,47.668,47.668,34.0,-23.955,24.314999999999998,-28.47,31.142500000000002,0.0,1782.051,-0.16499999999999915,100.0,28.304000000000002,28.36,42.876,43.286,0.0,0.0,100.0,0.0,0.0,0.0,0.0,3185.625,3051.6,4210.333333333333,4277.6,305.22566666666665,304.86033333333336,314.65975,314.14175,21.9805,20.6139,21.9919,21.5009,314.999998,314.999998,324.999988,324.999988,99.56034285714286,99.50741666666667,99.56928571428571,99.54872857142857,0.08375000000000021,-0.05566666666666675,-0.09966666666666667,0.1165,-0.051666666666669414,-0.05666666666667197,1.4906666666666668,1.4955,38.378,29.837333333333333,38.449,35.3805,56.457,35.2575,60.244,53.1,54.358000000000004,34.3585,58.8085,51.3905,53.5,33.881,58.72,50.783500000000004,-0.09550000000000003,-0.06499999999999995,0.09959000000000001,0.115445,0.0,213.66,213.63,210.37333333333333,210.37333333333333,0.0,0.0
20,0.0,0.0,0.0,1.0,1.0,0.0,0.0,1.0,0.0,100.0,1.0,1.1856,26.0,0.0,0.0,0.0,55.000001,0.0,26.0,26.0,26.0,26.0,0.007111111111111068,0.2670000000000001,-0.012750000000000001,292.328,-2.7138999999999998,-2.6649000000000003,-1.532,-1.5905,-208.56,215.495,190.573375,0.0,0.0,0.0,0.0,0.040600000000000004,-5.498166666666667,-5.498166666666667,-0.5556,-0.859,0.010555555555555651,0.492,68.36500000000001,-0.0001,-0.226825,-0.05399999999999938,100.0,1.0,1.0,210.78,0.0,0.0,0.0,0.0,0.0,0.0,0.0,8934.2,0.0,55.0,5.0,246.08666666666664,0.0,0.0,0.0,0.0,0.0,0.0,0.0,0.0,1.004999999999999,1.004999999999999,0.0,0.0,0.0,55.0,616.79921,10000.0,85.000001,85.000001,85.000001,85.000001,395.0,0.0,0.0,0.0,1.0,333.33500000000004,52.521,52.521,47.318,47.318,34.0,-23.13,24.833333333333336,-27.826666666666668,29.67,0.0,1781.999,-0.18499999999999872,100.0,28.067,27.925,43.522999999999996,43.601,0.0,0.0,100.0,0.0,0.0,0.0,0.0,3016.125,3134.7,4091.6666666666665,4138.6,305.645,304.928,314.82,314.54575,21.99,20.6195,22.0026,21.5103,314.999998,314.999998,324.999988,324.999988,99.56034285714286,99.50743333333334,99.56941428571429,99.54887142857143,0.08400000000000007,-0.04366666666666674,-0.10083333333333333,0.117,-0.023333333333326323,-0.041666666666671404,1.491,1.491,38.438,29.871666666666666,38.516,35.439,56.441,35.295500000000004,60.2815,53.161500000000004,54.342,34.394,58.844,51.4495,53.483999999999995,33.915,58.7525,50.841,-0.09150000000000003,-0.05899999999999994,0.10225500000000001,0.107505,0.0,214.025,214.01999999999998,210.78,210.78,0.0,0.0
21,0.0,0.0,0.0,1.0,1.0,0.0,0.0,1.0,0.0,100.0,1.0,1.1856,26.0,0.0,0.0,0.0,55.000001,0.0,26.0,26.0,26.0,26.0,0.00822222222222213,0.264,-0.028300000000000002,292.557,-2.7118,-2.666,-1.5767,-1.5361,-205.07,215.49,190.550375,0.0,0.0,0.0,0.0,0.042633333333333336,-5.498166666666667,-5.498166666666667,-0.5732,0.18099999999999994,-0.006000000000000227,-0.6829999999999998,68.499,-0.0021000000000000003,-0.22187500000000002,-0.002000000000000668,100.0,1.0,1.0,211.32666666666665,0.0,0.0,0.0,0.0,0.0,0.0,0.0,8957.4,0.0,55.0,5.0,246.56666666666666,1.0,0.0,0.0,0.0,0.0,0.0,0.0,0.0,1.056000000000001,1.056000000000001,0.0,0.0,1.0,55.0,616.79921,10000.0,85.000001,85.000001,85.000001,85.000001,395.0,0.0,0.0,0.0,1.0,166.665,52.322,52.322,47.974000000000004,47.974000000000004,34.0,-24.9625,24.128333333333334,-29.02,27.085,0.0,1781.949,-0.22500000000000142,100.0,28.008,27.996000000000002,43.05,43.225,0.0,0.0,100.0,0.0,0.0,0.0,0.0,3228.0,3074.4,4094.3333333333335,4026.2,305.1933333333333,304.96433333333334,314.97625,314.91475,21.9996,20.625,22.012999999999998,21.5193,314.999998,314.999998,324.999988,324.999988,99.56035714285714,99.50743333333334,99.56957142857142,99.54901428571429,0.08024999999999993,-0.052000000000000046,-0.12083333333333333,0.10666666666666667,-0.04333333333332945,-0.041666666666671404,1.5473333333333334,1.557,38.498000000000005,29.906333333333336,38.581,35.496,56.426,35.334,60.315,53.218,54.329,34.4295,58.875,51.504,53.469,33.949,58.7805,50.8945,-0.09750000000000003,-0.05449999999999999,0.10756500000000001,0.10890500000000002,0.0,214.48000000000002,214.45499999999998,211.32666666666665,211.32666666666665,0.0,0.0
22,0.0,0.0,0.0,1.0,1.0,0.0,0.0,1.0,0.0,100.0,1.0,1.1856,26.0,0.0,0.0,0.0,55.000001,0.0,26.0,26.0,26.0,26.0,0.0003333333333332966,0.2843,-0.002,292.145,-2.77355,-2.6291,-1.5991,-1.5318,-201.78,215.485,190.528,0.0,0.0,0.0,0.0,0.04456666666666667,-5.498166666666667,-5.498166666666667,-0.5577,0.04349999999999998,0.004444444444444251,-0.472,68.629,-0.0022,-0.20117500000000002,-0.07600000000000051,100.0,1.0,1.0,211.56333333333333,0.0,0.0,0.0,0.0,0.0,0.0,0.0,8967.4,0.0,55.0,5.0,247.03333333333336,0.0,0.0,0.0,0.0,0.0,0.0,0.0,0.0,1.1039999999999992,1.1039999999999992,0.0,0.0,0.0,55.0,616.79921,10000.0,85.000001,85.000001,85.000001,85.000001,395.0,0.0,0.0,0.0,1.0,166.665,52.46,52.46,47.104,47.104,34.0,-24.655,23.32,-31.513333333333332,29.675,0.0,1781.9,-0.25,100.0,28.087,28.12,43.257,43.421,0.0,0.0,100.0,0.0,0.0,0.0,0.0,3129.25,3039.8,4327.555555555556,4338.1,305.56666666666666,305.109,314.4215,314.13125,22.0086,20.6302,22.0229,21.5281,314.999998,314.999998,324.999988,324.999988,99.56037142857143,99.50743333333334,99.56971428571428,99.54915714285714,0.07750000000000012,-0.05499999999999994,-0.11850000000000001,0.10316666666666667,-0.03833333333332689,-0.04333333333332945,1.4866666666666668,1.4965,38.554,29.939,38.643,35.5505,56.413,35.3705,60.35,53.2745,54.316,34.463,58.9075,51.5585,53.456,33.9815,58.81,50.948,-0.10399999999999998,-0.05449999999999999,0.10559,0.10624000000000001,0.0,214.865,214.87,211.56333333333333,211.56333333333333,0.0,0.0
23,0.0,0.0,0.0,1.0,1.0,0.0,0.0,1.0,0.0,100.0,1.0,1.1856,26.0,0.0,0.0,0.0,55.000001,0.0,26.0,26.0,26.0,26.0,-0.019000000000000017,0.2634000000000001,-0.0103,292.007,-2.6551,-2.669,-1.6512,-1.5104000000000002,-198.28,215.48000000000002,190.504375,0.0,0.0,0.0,0.0,0.0466,-5.498166666666667,-5.498166666666667,-0.5739000000000001,-0.2490000000000001,0.0040000000000000036,0.5350000000000001,68.763,0.0017000000000000001,-0.226,-0.13600000000000012,100.0,1.0,1.0,212.05666666666667,0.0,0.0,0.0,0.0,0.0,0.0,0.0,8988.3,0.0,55.0,5.0,247.51666666666665,1.0,0.0,0.0,0.0,0.0,0.0,0.0,0.0,1.1550000000000011,1.1550000000000011,0.0,0.0,1.0,55.0,616.79921,10000.0,85.000001,85.000001,85.000001,85.000001,395.0,0.0,0.0,0.0,1.0,333.33500000000004,51.804,51.804,47.592,47.592,34.0,-24.2225,25.256666666666668,-29.84,28.8875,0.0,1781.849,-0.245000000000001,100.0,28.441,28.123,43.488,43.565,0.0,0.0,100.0,0.0,0.0,0.0,0.0,3211.625,3188.4,4151.111111111111,4161.0,304.966,304.7506666666667,314.82375,314.6255,22.0183,20.6359,22.0335,21.537399999999998,314.999998,314.999998,324.999988,324.999988,99.56038571428572,99.50745,99.56985714285715,99.54931428571429,0.08899999999999997,-0.046666666666666634,-0.10533333333333333,0.12416666666666668,-0.045000000000001705,-0.045000000000001705,1.5333333333333334,1.512,38.614000000000004,29.974333333333334,38.71,35.609,56.399,35.41,60.385999999999996,53.335,54.303,34.5,58.941,51.6165,53.442,34.0165,58.84,51.0045,-0.09550000000000003,-0.06099999999999994,0.10663,0.10945,0.0,215.26,215.275,212.05666666666667,212.05666666666667,0.0,0.0
24,0.0,0.0,0.0,1.0,1.0,0.0,0.0,1.0,0.0,100.0,1.0,1.1856,26.0,0.0,0.0,0.0,55.000001,0.0,26.0,26.0,26.0,26.0,0.0030000000000001137,0.2702,-0.047525000000000005,292.374,-2.6829,-2.6694,-1.5462,-1.5391,-194.98000000000002,215.475,190.481875,0.0,0.0,0.0,0.0,0.0485,-5.498166666666667,-5.498166666666667,-0.5842,-0.40000000000000013,0.014666666666666606,1.2610000000000001,68.889,0.002,-0.222525,-0.1299999999999999,100.0,1.0,1.0,212.41666666666669,0.0,0.0,0.0,0.0,0.0,0.0,0.0,9003.6,0.0,55.0,5.0,247.97333333333336,0.0,0.0,0.0,0.0,0.0,0.0,0.0,0.0,1.2029999999999994,1.2029999999999994,0.0,0.0,0.0,55.0,616.79921,10000.0,85.000001,85.000001,85.000001,85.000001,395.0,0.0,0.0,0.0,1.0,333.33500000000004,52.689,52.689,47.363,47.363,34.0,-21.919999999999998,24.306666666666665,-28.433333333333334,29.8675,0.0,1781.8,-0.2749999999999986,100.0,28.228,27.877,43.432,43.481,0.0,0.0,100.0,0.0,0.0,0.0,0.0,2955.125,3076.3,4160.0,4195.8,305.7973333333333,305.12533333333334,314.666,314.54275,22.0272,20.641,22.0435,21.5461,314.999998,314.999998,324.999988,324.999988,99.5604,99.50745,99.56998571428572,99.54944285714285,0.0950000000000002,-0.044333333333333114,-0.09933333333333333,0.12916666666666665,-0.03999999999999915,-0.051666666666669414,1.51,1.5045000000000002,38.67,30.006333333333334,38.772,35.6635,56.385999999999996,35.445499999999996,60.4195,53.39,54.29,34.5325,58.972,51.6695,53.428,34.048,58.868,51.0565,-0.10449999999999993,-0.06099999999999994,0.103165,0.11851,0.0,215.66500000000002,215.67000000000002,212.41666666666669,212.41666666666669,0.0,0.0
25,0.0,0.0,0.0,1.0,1.0,0.0,0.0,1.0,0.0,100.0,1.0,1.1856,26.0,0.0,0.0,0.0,55.000001,0.0,26.0,26.0,26.0,26.0,0.007111111111111068,0.26070000000000015,-0.006675,292.068,-2.68195,-2.6494,-1.5904,-1.5356,-191.25,215.47,190.455,0.0,0.0,0.0,0.0,0.05066666666666667,-5.498166666666667,-5.498166666666667,-0.6025,0.16249999999999998,0.020333333333333314,0.14500000000000046,69.03,0.0031000000000000003,-0.218425,-0.17999999999999972,100.0,1.0,1.0,212.91,0.0,0.0,0.0,0.0,0.0,0.0,0.0,9024.5,0.0,55.0,5.0,248.48333333333335,1.0,0.0,0.0,0.0,0.0,0.0,0.0,0.0,1.256999999999998,1.256999999999998,0.0,0.0,1.0,55.0,616.79921,10000.0,85.000001,85.000001,85.000001,85.000001,395.0,0.0,0.0,0.0,1.0,166.665,51.636,51.636,47.684,47.684,34.0,-24.22,26.616666666666667,-28.013333333333332,29.2275,0.0,1781.748,-0.29499999999999815,100.0,28.227,28.173000000000002,43.2,43.354,0.0,0.0,100.0,0.0,0.0,0.0,0.0,3225.5,3345.8,4040.222222222222,4146.3,304.99533333333335,304.2613333333333,315.09825,314.641,22.0372,20.647,22.0545,21.5559,314.999998,314.999998,324.999988,324.999988,99.56041428571429,99.50746666666667,99.57015714285714,99.5496,0.09600000000000009,-0.04499999999999993,-0.10533333333333333,0.12816666666666665,-0.03999999999999915,-0.060000000000002274,1.5466666666666666,1.5425,38.733000000000004,30.044,38.841,35.724000000000004,56.370000000000005,35.487,60.454499999999996,53.451,54.275,34.571,59.004999999999995,51.7285,53.412,34.085,58.8975,51.1145,-0.10150000000000003,-0.0605,0.10681500000000001,0.11053,0.0,216.07999999999998,216.12,212.91,212.91,0.0,0.0
26,0.0,0.0,0.0,1.0,1.0,0.0,0.0,1.0,0.0,100.0,1.0,1.1856,26.0,0.0,0.0,0.0,55.000001,0.0,26.0,26.0,26.0,26.0,0.014111111111111185,0.2715000000000001,0.0858,291.26,-2.6729,-2.732,-1.5514999999999999,-1.5599,-187.93,215.465,190.431,0.0,0.0,0.0,0.0,0.0526,-5.498166666666667,-5.498166666666667,-0.5736,0.40700000000000003,0.00822222222222213,0.8710000000000004,69.158,0.0057,-0.20175,-0.23399999999999999,100.0,1.0,1.0,213.09,0.0,0.0,0.0,0.0,0.0,0.0,0.0,9032.1,0.0,55.0,5.0,248.94333333333333,0.0,0.0,0.0,0.0,0.0,0.0,0.0,0.0,1.3049999999999997,1.3049999999999997,0.0,0.0,0.0,55.0,616.79921,10000.0,85.000001,85.000001,85.000001,85.000001,395.0,0.0,0.0,0.0,1.0,166.665,51.62,51.62,46.432,46.432,34.0,-23.13,25.485,-31.093333333333334,33.705,0.0,1781.7,-0.3200000000000003,100.0,28.923000000000002,28.597,43.71,43.775,0.0,0.0,100.0,0.0,0.0,0.0,0.0,3139.5,3116.6,4454.666666666667,4535.8,305.24533333333335,304.911,313.98125,313.6905,22.0463,20.6525,22.0645,21.5647,314.999998,314.999998,324.999988,324.999988,99.56042857142857,99.50746666666667,99.57028571428572,99.54974285714286,0.10199999999999987,-0.040999999999999925,-0.09583333333333333,0.13133333333333336,-0.03333333333333144,-0.05333333333332746,1.4346666666666668,1.425,38.789,30.077666666666666,38.903,35.7795,56.36,35.525,60.4905,53.5085,54.265,34.6065,59.038,51.784,53.400999999999996,34.119,58.928,51.1685,-0.10599999999999998,-0.05600000000000005,0.105245,0.11460500000000001,0.0,216.525,216.525,213.09,213.09,0.0,0.0
27,0.0,0.0,0.0,1.0,1.0,0.0,0.0,1.0,0.0,100.0,1.0,1.1856,26.0,0.0,0.0,0.0,55.000001,0.0,26.0,26.0,26.0,26.0,0.021666666666666723,0.24850000000000017,-0.058550000000000005,291.824,-2.75245,-2.6698,-1.6128,-1.5439,-184.39999999999998,215.4625,190.406375,0.0,0.0,0.0,0.0,0.05466666666666667,-5.498166666666667,-5.498166666666667,-0.5985,-0.8175000000000001,0.01344444444444437,-0.5549999999999997,69.289,0.0081,-0.23995000000000002,-0.17799999999999905,100.0,1.0,1.0,213.64,0.0,0.0,0.0,0.0,0.0,0.0,0.0,9055.4,0.0,55.0,5.0,249.41333333333336,1.0,0.0,0.0,0.0,0.0,0.0,0.0,0.0,1.355999999999998,1.355999999999998,0.0,0.0,1.0,55.0,616.79921,10000.0,85.000001,85.000001,85.000001,85.000001,395.0,0.0,0.0,0.0,1.0,166.665,51.926,51.926,46.768,46.768,34.0,-24.0975,24.538333333333334,-28.81,29.1525,0.0,1781.649,-0.3099999999999987,100.0,28.385,28.662,44.019999999999996,44.19,0.0,0.0,100.0,0.0,0.0,0.0,0.0,3152.0,3105.5,4101.888888888889,4080.0,305.483,304.81166666666667,314.8565,314.793,22.0557,20.6581,22.0753,21.5741,314.999998,314.999998,324.999988,324.999988,99.56042857142857,99.50748333333334,99.57042857142856,99.54988571428571,0.09224999999999994,-0.052000000000000046,-0.1005,0.13266666666666665,-0.04833333333333201,-0.041666666666671404,1.5303333333333335,1.5145,38.848,30.113333333333333,38.97,35.838499999999996,56.345,35.564,60.5275,53.569,54.251000000000005,34.6425,59.0725,51.842,53.385999999999996,34.1535,58.959,51.2255,-0.10599999999999998,-0.0605,0.10402000000000002,0.112115,0.0,216.88,216.885,213.64,213.64,0.0,0.0
28,0.0,0.0,0.0,1.0,1.0,0.0,0.0,1.0,0.0,100.0,1.0,1.1856,26.0,0.0,0.0,0.0,55.000001,0.0,26.0,26.0,26.0,26.0,0.030999999999999917,0.2610000000000001,-0.05595,291.946,-2.6823,-2.6555,-1.6246,-1.5682,-181.07999999999998,215.46,190.3825,0.0,0.0,0.0,0.0,0.056600000000000004,-5.498166666666667,-5.498166666666667,-0.6017,0.558,0.0014444444444443594,-0.8959999999999999,69.412,0.009300000000000001,-0.217425,-0.20399999999999974,100.0,1.0,1.0,214.09,0.0,0.0,0.0,0.0,0.0,0.0,0.0,9074.5,0.0,55.0,5.0,249.85333333333335,0.0,0.0,0.0,0.0,0.0,0.0,0.0,0.0,1.404,1.404,0.0,0.0,0.0,55.0,616.79921,10000.0,85.000001,85.000001,85.000001,85.000001,395.0,0.0,0.0,0.0,1.0,333.33500000000004,51.849000000000004,51.849000000000004,47.394,47.394,34.0,-23.33,24.566666666666666,-29.446666666666665,28.985,0.0,1781.6,-0.384999999999998,100.0,28.476,28.602,43.436,43.801,0.0,0.0,100.0,0.0,0.0,0.0,0.0,3183.375,3088.4,4150.777777777777,4104.0,305.293,304.8643333333333,314.952,314.7245,22.0646,20.6635,22.085,21.5828,314.999998,314.999998,324.999988,324.999988,99.56044285714286,99.50748333333334,99.57057142857143,99.55002857142857,0.10349999999999993,-0.04466666666666663,-0.10883333333333334,0.121,-0.06333333333333258,-0.05666666666667197,1.5470000000000002,1.544,38.903999999999996,30.147,39.031,35.8925,56.334,35.6015,60.5575,53.6225,54.239999999999995,34.677,59.1005,51.894,53.373999999999995,34.1865,58.984,51.2755,-0.11599999999999999,-0.05750000000000011,0.10696000000000001,0.111115,0.0,217.3,217.315,214.09,214.09,0.0,0.0
29,0.0,0.0,0.0,1.0,1.0,0.0,0.0,1.0,0.0,100.0,1.0,1.1856,26.0,0.0,0.0,0.0,55.000001,0.0,26.0,26.0,26.0,26.0,0.03811111111111121,0.26639999999999997,-0.027475000000000003,291.84,-2.75595,-2.718,-1.604,-1.5488,-177.32,215.45749999999998,190.3545,0.0,0.0,0.0,0.0,0.05876666666666667,-5.498166666666667,-5.498166666666667,-0.6066,-0.7364999999999999,-0.0023333333333335204,-0.8340000000000001,69.554,0.0131,-0.2165,-0.31400000000000006,100.0,1.0,1.0,214.37333333333333,0.0,0.0,0.0,0.0,0.0,0.0,0.0,9086.4,0.0,55.0,5.0,250.36666666666667,1.0,0.0,0.0,0.0,0.0,0.0,0.0,0.0,1.4579999999999984,1.4579999999999984,0.0,0.0,1.0,55.0,616.79921,10000.0,85.000001,85.000001,85.000001,85.000001,395.0,0.0,0.0,0.0,1.0,166.665,52.261,52.261,47.012,47.012,34.0,-24.537499999999998,24.445,-29.85666666666667,30.245,0.0,1781.547,-0.4250000000000007,100.0,28.147,28.411,43.828,44.091,0.0,0.0,100.0,0.0,0.0,0.0,0.0,3243.125,2983.6,4192.111111111111,4239.8,305.3736666666667,305.16366666666664,314.74975,314.3225,22.0745,20.6695,22.0963,21.5927,314.999998,314.999998,324.999988,324.999988,99.56045714285715,99.50748333333334,99.57072857142857,99.55018571428572,0.09699999999999998,-0.03766666666666674,-0.108,0.121,-0.026666666666670835,-0.03333333333333144,1.4953333333333334,1.4825,38.966,30.184333333333335,39.102000000000004,35.954499999999996,56.318,35.641,60.597,53.6865,54.224999999999994,34.713499999999996,59.137,51.9555,53.358000000000004,34.2215,59.016999999999996,51.336,-0.11499999999999999,-0.04200000000000004,0.11225500000000001,0.10374000000000001,0.0,217.69,217.71,214.37333333333333,214.37333333333333,0.0,0.0
30,0.0,0.0,0.0,1.0,1.0,0.0,0.0,1.0,0.0,100.0,1.0,1.1856,26.0,0.0,0.0,0.0,55.000001,0.0,26.0,26.0,26.0,26.0,0.02499999999999991,0.25480000000000014,0.01375,291.153,-2.7256,-2.5997,-1.6394000000000002,-1.4688,-173.98000000000002,215.45499999999998,190.3295,0.0,0.0,0.0,0.0,0.06073333333333334,-5.498166666666667,-5.498166666666667,-0.6048,0.9299999999999999,0.00022222222222212373,-0.4299999999999997,69.674,0.0196,-0.21680000000000002,-0.35599999999999987,100.0,1.0,1.0,214.83333333333331,0.0,0.0,0.0,0.0,0.0,0.0,0.0,9106.0,0.0,55.0,5.0,250.8,0.0,0.0,0.0,0.0,0.0,0.0,1.0,0.0,1.5060000000000002,1.5060000000000002,0.0,0.0,0.0,55.0,616.79921,10000.0,85.000001,85.000001,85.000001,85.000001,395.0,0.0,0.0,0.0,1.0,166.665,50.629,50.629,46.89,46.89,34.0,-25.2425,25.861666666666665,-30.316666666666666,29.095,0.0,1781.498,-0.3500000000000014,100.0,29.11,29.182000000000002,43.636,43.996,0.0,0.0,100.0,0.0,0.0,0.0,0.0,3366.375,3259.7,4279.222222222223,4213.8,304.66633333333334,304.2386666666667,314.677,314.61625,22.0836,20.6751,22.1062,21.6015,314.999998,314.999998,324.999988,324.999988,99.56047142857143,99.5075,99.57087142857142,99.55032857142857,0.10824999999999996,-0.04166666666666674,-0.09916666666666667,0.1335,-0.05333333333332746,-0.05333333333332746,1.5276666666666667,1.518,39.022,30.21933333333333,39.164,36.0095,56.309,35.6805,60.628,53.741,54.217,34.75,59.166,52.007999999999996,53.349000000000004,34.2565,59.0435,51.3875,-0.11249999999999993,-0.055500000000000105,0.11038500000000001,0.107005,0.0,218.12,218.14,214.83333333333331,214.83333333333331,0.0,0.0
31,0.0,0.0,0.0,1.0,1.0,0.0,0.0,1.0,0.0,100.0,1.0,1.1856,26.0,0.0,0.0,0.0,55.000001,0.0,26.0,26.0,26.0,26.0,0.027888888888888852,0.2579,0.06292500000000001,290.741,-2.76855,-2.626,-1.6427,-1.4976,-170.63,215.45499999999998,190.30525,0.0,0.0,0.0,0.0,0.06266666666666666,-5.498166666666667,-5.498166666666667,-0.5872,-0.401,0.009888888888888836,-0.782,69.8,0.0219,-0.22007500000000002,-0.27200000000000024,100.0,1.0,1.0,215.0233333333333,0.0,0.0,0.0,0.0,0.0,0.0,0.0,9114.0,0.0,55.0,5.0,251.25333333333333,1.0,0.0,0.0,0.0,0.0,0.0,1.0,0.0,1.5539999999999985,1.5539999999999985,0.0,0.0,1.0,55.0,616.79921,10000.0,85.000001,85.000001,85.000001,85.000001,395.0,0.0,0.0,0.0,1.0,333.33500000000004,51.117,51.117,45.609,45.609,34.0,-24.447499999999998,26.193333333333335,-31.310000000000002,31.245,0.0,1781.449,-0.41000000000000014,100.0,28.884,29.238,44.375,44.822,0.0,0.0,100.0,0.0,0.0,0.0,0.0,3241.125,3266.0,4391.777777777777,4363.9,305.25233333333335,304.412,314.2035,313.9595,22.0925,20.6806,22.1163,21.610500000000002,314.999998,314.999998,324.999988,324.999988,99.56048571428572,99.5075,99.57101428571428,99.55047142857143,0.10524999999999984,-0.03600000000000003,-0.08650000000000001,0.127,-0.036666666666668846,-0.051666666666669414,1.444,1.427,39.078,30.253666666666668,39.227000000000004,36.066,56.298,35.718,60.665,53.8005,54.206,34.7845,59.2005,52.0655,53.337,34.29,59.074,51.4435,-0.11349999999999993,-0.05699999999999994,0.09596500000000001,0.105605,0.0,218.47500000000002,218.495,215.0233333333333,215.0233333333333,0.0,0.0
32,0.0,0.0,0.0,1.0,1.0,0.0,0.0,1.0,0.0,100.0,1.0,1.1856,26.0,0.0,0.0,0.0,55.000001,0.0,26.0,26.0,26.0,26.0,0.041888888888888864,0.2639,-0.0339,291.306,-2.68975,-2.6868,-1.5838,-1.5544,-167.07,215.45499999999998,190.27975,0.0,0.0,0.0,0.0,0.06473333333333334,-5.498166666666667,-5.498166666666667,-0.6059,-0.25750000000000006,-0.008777777777777995,0.3769999999999998,69.92699999999999,0.0252,-0.23222500000000001,-0.387999999999999,100.0,1.0,1.0,215.55666666666667,0.0,0.0,0.0,0.0,0.0,0.0,0.0,9136.7,0.0,55.0,5.0,251.71,0.0,0.0,0.0,0.0,0.0,0.0,1.0,0.0,1.6050000000000004,1.6050000000000004,0.0,0.0,0.0,55.0,616.79921,10000.0,85.000001,85.000001,85.000001,85.000001,395.0,0.0,0.0,0.0,1.0,166.665,51.559,51.559,46.57,46.57,34.0,-21.78,26.335,-27.23,32.9225,0.0,1781.399,-0.384999999999998,100.0,28.899,28.928,44.269999999999996,44.522999999999996,0.0,0.0,100.0,0.0,0.0,0.0,0.0,3076.75,3172.6,4105.333333333333,4335.6,305.46,304.788,314.849,314.26625,22.1019,20.6864,22.1269,21.6199,314.999998,314.999998,324.999988,324.999988,99.5605,99.5075,99.57115714285715,99.55061428571429,0.12424999999999997,-0.02299999999999991,-0.07616666666666667,0.15966666666666665,-0.036666666666668846,-0.05666666666667197,1.5246666666666666,1.5030000000000001,39.137,30.290333333333333,39.293,36.1245,56.285,35.7575,60.698499999999996,53.859,54.194,34.821,59.2315,52.122,53.323,34.325,59.102000000000004,51.4985,-0.11399999999999999,-0.050999999999999934,0.102745,0.11046500000000001,0.0,218.86,218.89,215.55666666666667,215.55666666666667,0.0,0.0
33,0.0,0.0,0.0,1.0,1.0,0.0,0.0,1.0,0.0,100.0,1.0,1.1856,26.0,0.0,0.0,0.0,55.000001,0.0,26.0,26.0,26.0,26.0,0.03400000000000003,0.25649999999999995,-0.0661,291.611,-2.72485,-2.6971,-1.5904,-1.5882,-163.70999999999998,215.45499999999998,190.25475,0.0,0.0,0.0,0.0,0.06670000000000001,-5.498166666666667,-5.498166666666667,-0.6151,-0.1915,-0.00755555555555576,1.037,70.048,0.0228,-0.2172,-0.32399999999999984,100.0,1.0,1.0,215.94666666666666,0.0,0.0,0.0,0.0,0.0,0.0,0.0,9153.2,0.0,55.0,5.0,252.14666666666665,1.0,0.0,0.0,0.0,0.0,0.0,1.0,0.0,1.6529999999999987,1.6529999999999987,0.0,0.0,1.0,55.0,616.79921,10000.0,85.000001,85.000001,85.000001,85.000001,395.0,0.0,0.0,0.0,1.0,333.33500000000004,51.894999999999996,51.894999999999996,46.921,46.921,34.0,-22.465,25.636666666666667,-27.566666666666666,31.7525,0.0,1781.352,-0.41000000000000014,100.0,28.705,28.634999999999998,44.04,44.286,0.0,0.0,100.0,0.0,0.0,0.0,0.0,3078.25,3125.1,4100.333333333333,4232.1,305.5283333333333,304.93466666666666,314.9175,314.4745,22.1107,20.6918,22.1367,21.6287,314.999998,314.999998,324.999988,324.999988,99.56051428571429,99.5075,99.5713,99.55075714285714,0.11450000000000005,-0.03133333333333321,-0.08283333333333333,0.145,-0.01999999999999602,-0.07000000000000028,1.526,1.5025,39.192,30.323666666666668,39.355000000000004,36.179,56.272999999999996,35.792,60.730000000000004,53.9135,54.182,34.8535,59.260999999999996,52.174,53.311,34.356,59.1285,51.5495,-0.11299999999999999,-0.0535000000000001,0.10604000000000001,0.10583500000000001,0.0,219.23000000000002,219.26,215.94666666666666,215.94666666666666,0.0,0.0
34,0.0,0.0,0.0,1.0,1.0,0.0,0.0,1.0,0.0,100.0,1.0,1.1856,26.0,0.0,0.0,0.0,55.000001,0.0,26.0,26.0,26.0,26.0,0.030666666666666842,0.24690000000000012,-0.090175,291.84,-2.66395,-2.6845,-1.6246,-1.5272999999999999,-159.93,215.45749999999998,190.225,0.0,0.0,0.0,0.0,0.0689,-5.498166666666667,-5.498166666666667,-0.6433,-0.8795,0.01344444444444437,0.9260000000000002,70.184,0.0238,-0.222275,-0.38200000000000056,100.0,1.0,1.0,216.32666666666665,0.0,0.0,0.0,0.0,0.0,0.0,0.0,9169.3,0.0,55.0,5.0,252.63666666666666,0.0,0.0,0.0,0.0,0.0,0.0,1.0,0.0,1.7070000000000007,1.7070000000000007,0.0,0.0,0.0,55.0,616.79921,10000.0,85.000001,85.000001,85.000001,85.000001,395.0,0.0,0.0,0.0,1.0,166.665,52.353,52.353,47.119,47.119,34.0,-20.9525,25.621666666666666,-27.7,30.825,0.0,1781.298,-0.3949999999999996,100.0,28.416,28.302,43.891,44.36,0.0,0.0,100.0,0.0,0.0,0.0,0.0,2995.625,3111.6,4112.0,4247.4,305.767,305.07866666666666,314.91025,314.43725,22.1205,20.6977,22.1478,21.6386,314.999998,314.999998,324.999988,324.999988,99.56052857142858,99.50751666666666,99.57145714285714,99.55091428571428,0.12124999999999986,-0.022666666666666613,-0.074,0.13966666666666666,-0.046666666666666856,-0.03833333333332689,1.5136666666666665,1.49,39.253,30.360666666666667,39.424,36.2415,56.257999999999996,35.8305,60.765,53.9765,54.168,34.888999999999996,59.2935,52.235,53.296,34.39,59.1575,51.6085,-0.11649999999999994,-0.0515000000000001,0.10215,0.10339000000000001,0.0,219.64499999999998,219.64499999999998,216.32666666666665,216.32666666666665,0.0,0.0
35,0.0,0.0,0.0,1.0,1.0,0.0,0.0,1.0,0.0,100.0,1.0,1.1856,26.0,0.0,0.0,0.0,55.000001,0.0,26.0,26.0,26.0,26.0,0.03344444444444439,0.2492000000000001,-0.102325,291.809,-2.72455,-2.6211,-1.5390000000000001,-1.582,-156.55,215.46,190.196875,0.0,0.0,0.0,0.0,0.07083333333333335,-5.498166666666667,-5.498166666666667,-0.6795,-0.18100000000000005,-0.0025555555555558662,-0.054999999999999716,70.303,0.0258,-0.22765000000000002,-0.3719999999999999,100.0,1.0,1.0,216.7866666666667,0.0,0.0,0.0,0.0,0.0,0.0,0.0,9188.9,0.0,55.0,5.0,253.06333333333333,1.0,0.0,0.0,0.0,0.0,0.0,1.0,0.0,1.754999999999999,1.754999999999999,0.0,0.0,1.0,55.0,616.79921,10000.0,85.000001,85.000001,85.000001,85.000001,395.0,0.0,0.0,0.0,1.0,333.33500000000004,51.743,51.743,46.799,46.799,34.0,-22.65,27.405,-26.296666666666667,30.3475,0.0,1781.25,-0.23000000000000043,100.0,28.246,28.657,43.653999999999996,43.885,0.0,0.0,100.0,0.0,0.0,0.0,0.0,3067.125,3392.0,4088.1111111111113,4066.3,305.5316666666667,304.126,315.00925,314.932,22.1291,20.7033,22.1576,21.6473,314.999998,314.999998,324.999988,324.999988,99.56054285714286,99.50751666666666,99.5716,99.55105714285715,0.10924999999999985,-0.032333333333333325,-0.078,0.15333333333333335,-0.030000000000001137,-0.060000000000002274,1.5613333333333332,1.5405,39.307,30.395333333333333,39.485,36.295500000000004,56.244,35.868,60.795500000000004,54.0275,54.155,34.923500000000004,59.3215,52.2845,53.281,34.423500000000004,59.1825,51.657,-0.10350000000000004,-0.06800000000000006,0.10679500000000001,0.10519500000000001,0.0,220.01,220.04500000000002,216.7866666666667,216.7866666666667,0.0,0.0
