,ABS Active,ABS Enabled,AID Allow Tire Blankets,AID Auto Blip,AID Auto Clutch,AID Auto Shift,AID Fuel Rate,AID Ideal Line,AID Mech Damage,AID Stability,AID Tire Wear Rate,Air Density,Air Temp,Ballast,Best Lap Delta,Best Lap Time,Brake Bias,Brake Pos,Brake Temp FL,Brake Temp FR,Brake Temp RL,Brake Temp RR,CG Accel Lateral,CG Accel Longitudinal,CG Accel Vertical,CG Height,Camber FL,Camber FR,Camber RL,Camber RR,Car Coord X,Car Coord Y,Car Coord Z,Car Damage Front,Car Damage Left,Car Damage Rear,Car Damage Right,Car Pos Norm,Caster FL,Caster FR,Chassis Pitch Angle,Chassis Pitch Rate,Chassis Roll Angle,Chassis Roll Rate,Chassis Velocity X,Chassis Velocity Y,Chassis Velocity Z,Chassis Yaw Rate,Clutch Pos,DRS Active,DRS Available,Drive Train Speed,ERS Heat Charging,ERS Is Charging,ERS Max Energy,ERS Power Level,ERS Recovery Level,Engine Brake Setting,Engine Limiter,Engine RPM,Flags,Fuel Level,Gear,Ground Speed,HR Sample Clock,In Pit,KERS Charge,KERS Deployed Energy,KERS Input,KERS Max Energy,LR Sample Clock,Lap Invalidated,Lap Time,Lap Time2,Last Lap Time,Last Sector Time,MR Sample Clock,Max Fuel,Max Power,Max RPM,Max Sus Travel FL,Max Sus Travel FR,Max Sus Travel RL,Max Sus Travel RR,Max Torque,Max Turbo Boost,Num Tires Off Track,Penalties Enabled,Position,Raw Data Sample Rate,Ride Height FL,Ride Height FR,Ride Height RL,Ride Height RR,Road Temp,Self Align Torque FL,Self Align Torque FR,Self Align Torque RL,Self Align Torque RR,Session Lap Count,Session Time Left,Steering Angle,Surface Grip,Suspension Travel FL,Suspension Travel FR,Suspension Travel RL,Suspension Travel RR,TC Active,TC Enabled,Throttle Pos,Tire Dirt Level FL,Tire Dirt Level FR,Tire Dirt Level RL,Tire Dirt Level RR,Tire Load FL,Tire Load FR,Tire Load RL,Tire Load RR,Tire Loaded Radius FL,Tire Loaded Radius FR,Tire Loaded Radius RL,Tire Loaded Radius RR,Tire Pressure FL,Tire Pressure FR,Tire Pressure RL,Tire Pressure RR,Tire Radius FL,Tire Radius FR,Tire Radius RL,Tire Radius RR,Tire Rubber Grip FL,Tire Rubber Grip FR,Tire Rubber Grip RL,Tire Rubber Grip RR,Tire Slip Angle FL,Tire Slip Angle FR,Tire Slip Angle RL,Tire Slip Angle RR,Tire Slip Ratio FL,Tire Slip Ratio FR,Tire Slip Ratio RL,Tire Slip Ratio RR,Tire Temp Core FL,Tire Temp Core FR,Tire Temp Core RL,Tire Temp Core RR,Tire Temp Inner FL,Tire Temp Inner FR,Tire Temp Inner RL,Tire Temp Inner RR,Tire Temp Middle FL,Tire Temp Middle FR,Tire Temp Middle RL,Tire Temp Middle RR,Tire Temp Outer FL,Tire Temp Outer FR,Tire Temp Outer RL,Tire Temp Outer RR,Toe In FL,Toe In FR,Toe In RL,Toe In RR,Turbo Boost,Wheel Angular Speed FL,Wheel Angular Speed FR,Wheel Angular Speed RL,Wheel Angular Speed RR,Wind Direction,Wind Speed
0,0.0,0.0,0.0,1.0,1.0,0.0,0.0,1.0,0.0,100.0,1.0,1.1856,26.0,0.0,0.0,0.0,55.0,0.0,26.0,26.0,26.0,26.0,-0.08411111111111103,0.28500000000000014,0.0693,294.006,-2.70875,-2.6701,-1.50895,-1.5658,-275.51,216.28750000000002,190.986625,0.0,0.0,0.0,0.0,0.0017000000000000001,-5.498166666666667,-5.498166666666667,-0.5449,1.194,-0.017777777777777892,-0.665,65.536,-0.04679999999999995,-0.2106,1.0139999999999993,100.0,1.0,1.0,202.33333333333331,0.0,0.0,0.0,0.0,0.0,0.0,0.0,8576.1,0.0,55.0,5.0,235.89666666666668,0.0,0.0,0.0,0.0,0.0,0.0,0.0,0.0,0.006000000000000227,0.006000000000000227,0.0,0.0,0.0,55.0,616.79921,10000.0,85.0,85.0,85.0,85.0,395.0,0.0,0.0,0.0,1.0,20.0,52.765,52.765,49.423,49.423,34.0,-26.2025,23.284,-30.516666666666666,24.2075,0.0,1782.987,0.8550000000000004,100.0,27.586,26.895,40.72,40.428,0.0,0.0,100.0,0.0,0.0,0.0,0.0,2989.4285714285716,3389.4,4126.25,3977.6000000000004,305.7685,304.0593333333333,314.802,314.92575,21.7958,20.5125,21.7882,21.3303,314.99999,314.99999,324.99998,324.99998,99.55987142857143,99.50723333333333,99.56611428571429,99.54591428571429,-0.0040000000000000036,-0.1279999999999999,-0.16266666666666665,0.050666666666666665,-0.06333333333333258,-0.036666666666668846,1.5365,1.578,37.224000000000004,29.203333333333333,37.176,34.314499999999995,56.638,34.495,59.3845,51.908,54.53,33.6545,58.001999999999995,50.247,53.688,33.2065,57.9675,49.664,-0.016000000000000014,-0.14100000000000001,0.10394,0.10158,0.0,205.41,205.3,202.33333333333331,202.33333333333331,0.0,0.0
1,0.0,0.0,0.0,1.0,1.0,0.0,0.0,1.0,0.0,100.0,1.0,1.1856,26.0,0.0,0.0,0.0,55.000001,0.0,26.0,26.0,26.0,26.0,-0.12211111111111106,0.30510000000000015,0.23306666666666667,293.015,-2.6226,-2.7803,-1.5157,-1.5592000000000001,-272.16,216.2825,190.966375,0.0,0.0,0.0,0.0,0.003633333333333334,-5.498166666666667,-5.498166666666667,-0.5009,-0.6966666666666667,-0.06811111111111146,-1.033,65.691,-0.059699999999999975,-0.19642500000000002,1.450000000000001,100.0,1.0,1.0,202.49666666666667,0.0,0.0,0.0,0.0,0.0,0.0,0.0,8583.1,0.0,55.0,5.0,236.45666666666668,1.0,0.0,0.0,0.0,0.0,0.0,0.0,0.0,0.05699999999999861,0.05699999999999861,0.0,0.0,1.0,55.0,616.79921,10000.0,85.000001,85.000001,85.000001,85.000001,395.0,0.0,0.0,0.0,1.0,333.33500000000004,53.467,53.467,48.37,48.37,34.0,-28.15,17.766,-34.92333333333333,28.1525,0.0,1782.935,0.9400000000000013,100.0,27.627,26.896,42.698,41.579,0.0,0.0,100.0,0.0,0.0,0.0,0.0,3181.285714285714,2701.3,4361.5,4699.3,305.2415,306.21933333333334,314.20275,313.148,21.805799999999998,20.5176,21.799,21.3395,314.999998,314.999998,324.999988,324.999988,99.55987142857143,99.50725,99.56625714285714,99.54607142857142,-0.023499999999999854,-0.1543333333333332,-0.19,0.0195,-0.023333333333326323,-0.04833333333333201,1.4005,1.4485000000000001,37.287,29.235,37.244,34.3715,56.620999999999995,34.536,59.429,51.972,54.513999999999996,33.692,58.0435,50.3085,53.671,33.2425,58.006,49.724000000000004,-0.0015000000000000568,-0.14849999999999985,0.099485,0.09846,0.0,205.81,205.73000000000002,202.49666666666667,202.49666666666667,0.0,0.0
2,0.0,0.0,0.0,1.0,1.0,0.0,0.0,1.0,0.0,100.0,1.0,1.1856,26.0,0.0,0.0,0.0,55.000001,0.0,26.0,26.0,26.0,26.0,-0.1617777777777778,0.28469999999999995,-0.0613,293.686,-2.5921,-2.8032,-1.48265,-1.6144,-268.81,216.275,190.9475,0.0,0.0,0.0,0.0,0.0056,-5.498166666666667,-5.498166666666667,-0.5487000000000001,0.18566666666666667,-0.05322222222222228,2.803,65.832,-0.07609999999999995,-0.2531,1.6300000000000008,100.0,1.0,1.0,203.39666666666668,0.0,0.0,0.0,0.0,0.0,0.0,0.0,8621.2,0.0,55.0,5.0,236.97,0.0,0.0,0.0,0.0,0.0,0.0,0.0,0.0,0.10800000000000054,0.10800000000000054,0.0,0.0,0.0,55.0,616.79921,10000.0,85.000001,85.000001,85.000001,85.000001,395.0,0.0,0.0,0.0,1.0,166.665,52.429,52.429,50.171,50.171,34.0,-29.799999999999997,20.058,-29.483333333333334,20.7475,0.0,1782.886,0.7149999999999999,100.0,28.507,26.814,42.641999999999996,41.228,0.0,0.0,100.0,0.0,0.0,0.0,0.0,3293.142857142857,3000.8,3752.0,3729.3,304.6375,305.372,315.6355,315.6805,21.8161,20.5226,21.8096,21.348300000000002,314.999998,314.999998,324.999988,324.999988,99.55987142857143,99.50726666666667,99.5664,99.5462,-0.03200000000000003,-0.15766666666666662,-0.22633333333333336,0.0135,-0.05666666666667197,-0.06666666666666998,1.615,1.691,37.351,29.266,37.31,34.4265,56.608999999999995,34.5755,59.466499999999996,52.0275,54.501999999999995,33.7285,58.0785,50.362,53.658,33.2775,58.0385,49.7765,-0.014000000000000012,-0.13649999999999984,0.10709500000000001,0.10977500000000001,0.0,206.29000000000002,206.15,203.39666666666668,203.39666666666668,0.0,0.0
3,0.0,0.0,0.0,1.0,1.0,0.0,0.0,1.0,0.0,100.0,1.0,1.1856,26.0,0.0,0.0,0.0,55.000001,0.0,26.0,26.0,26.0,26.0,-0.1373333333333333,0.30390000000000006,0.08653333333333334,293.503,-2.7226,-2.6973000000000003,-1.5087000000000002,-1.5927,-265.64,216.265,190.929125,0.0,0.0,0.0,0.0,0.0074333333333333335,-5.498166666666667,-5.498166666666667,-0.5097,0.212,-0.01288888888888895,0.14100000000000001,65.976,-0.08939999999999992,-0.199525,1.2040000000000006,100.0,1.0,1.0,203.53,0.0,0.0,0.0,0.0,0.0,0.0,0.0,8626.8,0.0,55.0,5.0,237.48333333333335,1.0,0.0,0.0,0.0,0.0,0.0,0.0,0.0,0.1559999999999988,0.1559999999999988,0.0,0.0,1.0,55.0,616.79921,10000.0,85.000001,85.000001,85.000001,85.000001,395.0,0.0,0.0,0.0,1.0,333.33500000000004,53.635,53.635,48.172,48.172,34.0,-25.6025,18.482,-34.61666666666666,24.2425,0.0,1782.837,0.6600000000000001,100.0,27.96,26.844,42.493,41.33,0.0,0.0,100.0,0.0,0.0,0.0,0.0,2837.4285714285716,2889.5,4275.5,4261.5,306.155,305.6526666666667,314.36575,314.304,21.8254,20.5274,21.8194,21.3567,314.999998,314.999998,324.999988,324.999988,99.55988571428571,99.50728333333333,99.56654285714286,99.54634285714286,-0.02400000000000002,-0.15466666666666673,-0.20783333333333334,0.0033333333333333335,-0.03333333333333144,-0.046666666666666856,1.4845,1.5290000000000001,37.409,29.296666666666667,37.370999999999995,34.4795,56.592,34.6155,59.5025,52.086,54.486999999999995,33.7655,58.112,50.418,53.641999999999996,33.3125,58.0695,49.8315,-0.02299999999999991,-0.12700000000000022,0.10402000000000002,0.10744500000000001,0.0,206.72500000000002,206.635,203.53,203.53,0.0,0.0
4,0.0,0.0,0.0,1.0,1.0,0.0,0.0,1.0,0.0,100.0,1.0,1.1856,26.0,0.0,0.0,0.0,55.000001,0.0,26.0,26.0,26.0,26.0,-0.16222222222222216,0.30200000000000005,-0.04583333333333334,293.671,-2.64735,-2.755,-1.51775,-1.6077,-262.08,216.25,190.908125,0.0,0.0,0.0,0.0,0.0095,-5.498166666666667,-5.498166666666667,-0.548,-0.6326666666666666,-0.08599999999999985,-0.355,66.13,-0.0867,-0.239575,1.1080000000000005,100.0,1.0,1.0,204.17333333333335,0.0,0.0,0.0,0.0,0.0,0.0,0.0,8654.2,0.0,55.0,5.0,238.04000000000002,0.0,0.0,0.0,0.0,0.0,0.0,0.0,0.0,0.21000000000000085,0.21000000000000085,0.0,0.0,0.0,55.0,616.79921,10000.0,85.000001,85.000001,85.000001,85.000001,395.0,0.0,0.0,0.0,1.0,166.665,52.948,52.948,49.010999999999996,49.010999999999996,34.0,-29.432499999999997,20.102,-31.64,20.7125,0.0,1782.783,0.6550000000000011,100.0,27.881,26.701,42.865,41.288,0.0,0.0,100.0,0.0,0.0,0.0,0.0,3253.285714285714,2984.5,4015.125,3675.1,304.9405,305.36966666666666,314.98,315.71175,21.8358,20.5329,21.8307,21.3661,314.999998,314.999998,324.999988,324.999988,99.55988571428571,99.5073,99.56668571428571,99.54648571428571,-0.026999999999999913,-0.14466666666666672,-0.20483333333333334,0.014666666666666666,-0.05333333333332746,-0.06499999999999773,1.5805,1.619,37.474000000000004,29.330333333333336,37.442,34.5385,56.573,34.6595,59.545500000000004,52.1465,54.469,33.806,58.1525,50.476,53.623000000000005,33.3515,58.107,49.8885,-0.023499999999999854,-0.11649999999999983,0.10895500000000001,0.09588500000000001,0.0,207.155,207.075,204.17333333333335,204.17333333333335,0.0,0.0
5,0.0,0.0,0.0,1.0,1.0,0.0,0.0,1.0,0.0,100.0,1.0,1.1856,26.0,0.0,0.0,0.0,55.000001,0.0,26.0,26.0,26.0,26.0,-0.13688888888888895,0.3002,0.0068000000000000005,293.564,-2.67335,-2.7661,-1.5087000000000002,-1.5864,-258.7,216.23250000000002,190.887625,0.0,0.0,0.0,0.0,0.011466666666666668,-5.498166666666667,-5.498166666666667,-0.5347000000000001,0.326,-0.08377777777777773,-0.27,66.27799999999999,-0.08719999999999994,-0.2131,1.0939999999999994,100.0,1.0,1.0,204.53333333333333,0.0,0.0,0.0,0.0,0.0,0.0,0.0,8669.5,0.0,55.0,5.0,238.56666666666666,1.0,0.0,0.0,0.0,0.0,0.0,0.0,0.0,0.26099999999999923,0.26099999999999923,0.0,0.0,1.0,55.0,616.79921,10000.0,85.000001,85.000001,85.000001,85.000001,395.0,0.0,0.0,0.0,1.0,166.665,53.391,53.391,48.859,48.859,34.0,-28.415,18.698,-34.666666666666664,22.815,0.0,1782.732,0.23499999999999943,100.0,27.771,26.72,42.588,41.198,0.0,0.0,100.0,0.0,0.0,0.0,0.0,3222.285714285714,2782.3,4232.625,4072.3,305.1595,305.863,314.59,314.71225,21.8459,20.5379,21.8412,21.375,314.999998,314.999998,324.999988,324.999988,99.5599,99.50731666666667,99.56682857142857,99.54662857142857,-0.00924999999999998,-0.1463333333333332,-0.223,0.0031666666666666666,-0.060000000000002274,-0.03999999999999915,1.5105,1.5575,37.537,29.362000000000002,37.507999999999996,34.5935,56.559,34.7,59.585,52.204,54.455,33.843,58.189,50.531,53.608999999999995,33.387,58.141,49.942,-0.05449999999999999,-0.09650000000000025,0.107255,0.10336500000000001,0.0,207.685,207.56,204.53333333333333,204.53333333333333,0.0,0.0
6,0.0,0.0,0.0,1.0,1.0,0.0,0.0,1.0,0.0,100.0,1.0,1.1856,26.0,0.0,0.0,0.0,55.000001,0.0,26.0,26.0,26.0,26.0,-0.11855555555555553,0.28459999999999996,0.0036000000000000003,293.457,-2.6342499999999998,-2.7984,-1.5513,-1.5832000000000002,-255.71,216.2125,190.8695,0.0,0.0,0.0,0.0,0.0132,-5.498166666666667,-5.498166666666667,-0.5314,0.107,-0.06300000000000017,0.976,66.407,-0.08319999999999994,-0.2155,0.7560000000000002,100.0,1.0,1.0,204.93666666666667,0.0,0.0,0.0,0.0,0.0,0.0,0.0,8686.4,0.0,55.0,5.0,239.0366666666667,0.0,0.0,0.0,0.0,0.0,0.0,0.0,0.0,0.30600000000000094,0.30600000000000094,0.0,0.0,0.0,55.0,616.79921,10000.0,85.000001,85.000001,85.000001,85.000001,395.0,0.0,0.0,0.0,1.0,166.665,53.146,53.146,48.737,48.737,34.0,-26.3825,21.561999999999998,-32.39,23.935000000000002,0.0,1782.686,0.010000000000001563,100.0,27.867,26.717,42.75,41.442,0.0,0.0,100.0,0.0,0.0,0.0,0.0,3098.0,2972.3,4084.5,4058.7,305.29,305.353,314.8725,314.8265,21.8547,20.5425,21.8506,21.3829,314.999998,314.999998,324.999988,324.999988,99.5599,99.50731666666667,99.56695714285715,99.54674285714286,0.008750000000000036,-0.11733333333333329,-0.19433333333333336,0.0285,-0.046666666666666856,-0.07333333333333059,1.532,1.553,37.592,29.390666666666668,37.566,34.6435,56.544,34.7355,59.6195,52.2575,54.441,33.876,58.2215,50.582499999999996,53.594,33.4185,58.170500000000004,49.992,-0.06800000000000006,-0.08099999999999996,0.10358,0.10909500000000001,0.0,208.04000000000002,207.97500000000002,204.93666666666667,204.93666666666667,0.0,0.0
7,0.0,0.0,0.0,1.0,1.0,0.0,0.0,1.0,0.0,100.0,1.0,1.1856,26.0,0.0,0.0,0.0,55.000001,0.0,26.0,26.0,26.0,26.0,-0.061999999999999944,0.28700000000000014,0.016,293.228,-2.61305,-2.7276,-1.51715,-1.6235,-252.32,216.19,190.849125,0.0,0.0,0.0,0.0,0.015166666666666667,-5.498166666666667,-5.498166666666667,-0.5349,0.005666666666666667,-0.05122222222222206,-0.248,66.55199999999999,-0.07039999999999991,-0.22465000000000002,0.43599999999999994,100.0,1.0,1.0,205.37,0.0,0.0,0.0,0.0,0.0,0.0,0.0,8704.9,0.0,55.0,5.0,239.56,1.0,0.0,0.0,0.0,0.0,0.0,0.0,0.0,0.3569999999999993,0.3569999999999993,0.0,0.0,1.0,55.0,616.79921,10000.0,85.000001,85.000001,85.000001,85.000001,395.0,0.0,0.0,0.0,1.0,333.33500000000004,52.811,52.811,48.859,48.859,34.0,-26.5975,21.718,-31.736666666666665,24.7925,0.0,1782.635,-0.23999999999999844,100.0,27.821,26.958,42.714,41.814,0.0,0.0,100.0,0.0,0.0,0.0,0.0,3265.5714285714284,2951.6,4071.75,4020.7,304.9005,305.25166666666667,314.92575,314.77325,21.8647,20.5477,21.8612,21.392,314.999998,314.999998,324.999988,324.999988,99.5599,99.50733333333334,99.56711428571428,99.54688571428571,0.033500000000000085,-0.09866666666666668,-0.19266666666666665,0.035666666666666666,-0.05333333333332746,-0.04999999999999716,1.5245,1.5375,37.653999999999996,29.423000000000002,37.632,34.7,56.528999999999996,34.775,59.658,52.317499999999995,54.426,33.9125,58.2575,50.64,53.579,33.4535,58.2035,50.048500000000004,-0.09650000000000003,-0.05549999999999988,0.10909,0.11075000000000002,0.0,208.47,208.41500000000002,205.37,205.37,0.0,0.0
8,0.0,0.0,0.0,1.0,1.0,0.0,0.0,1.0,0.0,100.0,1.0,1.1856,26.0,0.0,0.0,0.0,55.000001,0.0,26.0,26.0,26.0,26.0,-0.0411111111111111,0.28800000000000003,-0.028900000000000002,293.51800000000003,-2.6975,-2.7243,-1.4972,-1.5769000000000002,-248.73,216.1625,190.82725,0.0,0.0,0.0,0.0,0.017266666666666666,-5.498166666666667,-5.498166666666667,-0.5382,-0.5760000000000001,-0.035555555555555785,-0.573,66.706,-0.04719999999999991,-0.21857500000000002,-0.04600000000000026,100.0,1.0,1.0,205.79333333333335,0.0,0.0,0.0,0.0,0.0,0.0,0.0,8722.8,0.0,55.0,5.0,240.11666666666667,0.0,0.0,0.0,0.0,0.0,0.0,0.0,0.0,0.41100000000000136,0.41100000000000136,0.0,0.0,0.0,55.0,616.79921,10000.0,85.000001,85.000001,85.000001,85.000001,395.0,0.0,0.0,0.0,1.0,166.665,53.589,53.589,48.325,48.325,34.0,-24.705,22.098,-30.4,26.3675,0.0,1782.582,-0.3550000000000004,100.0,27.296,26.905,42.692,41.955,0.0,0.0,100.0,0.0,0.0,0.0,0.0,3059.714285714286,2924.4,4116.375,4049.4,305.6995,305.4096666666667,314.79575,314.70375,21.875,20.5532,21.8724,21.4015,314.999998,314.999998,324.999988,324.999988,99.5599,99.50735,99.56725714285714,99.54704285714286,0.04475000000000007,-0.08066666666666666,-0.162,0.07316666666666667,-0.04999999999999716,-0.05333333333332746,1.524,1.5230000000000001,37.719,29.457666666666668,37.702,34.7595,56.51,34.8155,59.699,52.3805,54.408,33.9495,58.295500000000004,50.7005,53.56,33.489,58.2385,50.108000000000004,-0.10399999999999987,-0.04300000000000015,0.11118000000000001,0.11767000000000001,0.0,208.92000000000002,208.9,205.79333333333335,205.79333333333335,0.0,0.0
9,0.0,0.0,0.0,1.0,1.0,0.0,0.0,1.0,0.0,100.0,1.0,1.1856,26.0,0.0,0.0,0.0,55.000001,0.0,26.0,26.0,26.0,26.0,-0.032888888888888856,0.28469999999999995,0.03333333333333333,293.182,-2.68615,-2.7218,-1.5550000000000002,-1.554,-245.72,216.1375,190.808625,0.0,0.0,0.0,0.0,0.019,-5.498166666666667,-5.498166666666667,-0.5378000000000001,0.6903333333333334,-0.03166666666666673,0.8719999999999999,66.832,-0.028699999999999948,-0.2142,-0.1739999999999995,100.0,1.0,1.0,206.27666666666667,0.0,0.0,0.0,0.0,0.0,0.0,0.0,8743.3,0.0,55.0,5.0,240.56666666666666,1.0,0.0,0.0,0.0,0.0,0.0,0.0,0.0,0.4559999999999995,0.4559999999999995,0.0,0.0,1.0,55.0,616.79921,10000.0,85.000001,85.000001,85.000001,85.000001,395.0,0.0,0.0,0.0,1.0,333.33500000000004,52.475,52.475,49.21,49.21,34.0,-25.5175,24.752000000000002,-28.549999999999997,27.145,0.0,1782.535,-0.5199999999999996,100.0,27.938,27.143,42.374,41.842,0.0,0.0,100.0,0.0,0.0,0.0,0.0,3271.714285714286,3093.4,3982.75,4100.4,304.836,304.98966666666666,315.19675,314.73925,21.8838,20.558,21.8815,21.4095,314.999998,314.999998,324.999988,324.999988,99.55991428571429,99.50735,99.5674,99.54717142857143,0.0757500000000002,-0.04899999999999993,-0.13816666666666666,0.0945,-0.04833333333333201,-0.07000000000000028,1.5575,1.5715000000000001,37.772999999999996,29.487333333333332,37.76,34.809,56.497,34.852000000000004,59.732,52.436,54.396,33.9835,58.326499999999996,50.7535,53.547,33.5215,58.266999999999996,50.1595,-0.11699999999999999,-0.033500000000000085,0.108785,0.11188500000000001,0.0,209.32,209.335,206.27666666666667,206.27666666666667,0.0,0.0
10,0.0,0.0,0.0,1.0,1.0,0.0,0.0,1.0,0.0,100.0,1.0,1.1856,26.0,0.0,0.0,0.0,55.000001,0.0,26.0,26.0,26.0,26.0,0.014777777777777779,0.28869999999999996,0.04243333333333334,293.091,-2.70655,-2.7061,-1.5392000000000001,-1.5434999999999999,-242.11,216.11,190.78675,0.0,0.0,0.0,0.0,0.0211,-5.498166666666667,-5.498166666666667,-0.5219,-0.7723333333333334,0.014000000000000012,1.642,66.987,-0.006899999999999906,-0.209375,-0.5379999999999994,100.0,1.0,1.0,206.55666666666667,0.0,0.0,0.0,0.0,0.0,0.0,0.0,8755.1,0.0,55.0,5.0,241.12333333333333,0.0,0.0,0.0,0.0,0.0,0.0,1.0,0.0,0.509999999999998,0.509999999999998,0.0,0.0,0.0,55.0,616.79921,10000.0,85.000001,85.000001,85.000001,85.000001,395.0,0.0,0.0,0.0,1.0,166.665,53.574,53.574,47.76,47.76,34.0,-21.1125,23.951999999999998,-28.740000000000002,30.2125,0.0,1782.483,-0.6099999999999994,100.0,27.638,27.101,42.855000000000004,42.629,0.0,0.0,100.0,0.0,0.0,0.0,0.0,2827.285714285714,2994.1,4190.25,4300.8,306.217,305.37733333333335,314.55025,314.1845,21.8941,20.5636,21.8929,21.4193,314.999998,314.999998,324.999988,324.999988,99.55992857142857,99.50736666666667,99.56752857142857,99.54731428571428,0.08950000000000014,-0.04033333333333311,-0.10166666666666667,0.11533333333333333,-0.04333333333332945,-0.04833333333333201,1.4925,1.483,37.838,29.522333333333336,37.83,34.8705,56.483000000000004,34.8885,59.7725,52.499,54.382,34.016999999999996,58.364,50.814499999999995,53.533,33.554,58.301,50.2195,-0.12149999999999994,-0.027499999999999858,0.10379500000000001,0.11044500000000002,0.0,209.76999999999998,209.79500000000002,206.55666666666667,206.55666666666667,0.0,0.0
11,0.0,0.0,0.0,1.0,1.0,0.0,0.0,1.0,0.0,100.0,1.0,1.1856,26.0,0.0,0.0,0.0,55.000001,0.0,26.0,26.0,26.0,26.0,0.05488888888888899,0.28080000000000016,-0.08876666666666666,293.564,-2.71545,-2.6824,-1.5887,-1.5195,-238.69,216.08249999999998,190.765875,0.0,0.0,0.0,0.0,0.022600000000000002,-5.498166666666667,-5.498166666666667,-0.5607,0.044,0.03222222222222215,-0.861,67.125,0.010599999999999943,-0.233075,-0.5920000000000005,100.0,1.0,1.0,207.28,0.0,0.0,0.0,0.0,0.0,0.0,0.0,8785.9,0.0,55.0,5.0,241.62333333333333,1.0,0.0,0.0,0.0,0.0,0.0,1.0,0.0,0.5609999999999999,0.5609999999999999,0.0,0.0,1.0,55.0,616.79921,10000.0,85.000001,85.000001,85.000001,85.000001,395.0,0.0,0.0,0.0,1.0,166.665,52.917,52.917,49.271,49.271,34.0,-22.645,25.564,-24.79,26.675,0.0,1782.432,-0.7850000000000001,100.0,27.337,27.556,42.141,42.521,0.0,0.0,100.0,0.0,0.0,0.0,0.0,3100.285714285714,3078.8,3780.5,3881.9,305.537,304.865,315.7415,315.223,21.9037,20.569,21.9032,21.4283,314.999998,314.999998,324.999988,324.999988,99.55994285714286,99.50736666666667,99.56767142857143,99.54745714285714,0.10775000000000023,-0.02299999999999991,-0.09383333333333332,0.13333333333333336,-0.03999999999999915,-0.04999999999999716,1.6455,1.6215,37.897999999999996,29.556666666666665,37.894999999999996,34.9265,56.468,34.9265,59.805,52.5575,54.367999999999995,34.0525,58.394,50.8705,53.518,33.5875,58.3285,50.2745,-0.131,-0.020500000000000185,0.10669500000000001,0.10974,0.0,210.19,210.22500000000002,207.28,207.28,0.0,0.0
12,0.0,0.0,0.0,1.0,1.0,0.0,0.0,1.0,0.0,100.0,1.0,1.1856,26.0,0.0,0.0,0.0,55.000001,0.0,26.0,26.0,26.0,26.0,0.04800000000000004,0.2884,0.021233333333333337,292.984,-2.76045,-2.6826,-1.55625,-1.5246,-235.66,216.0575,190.746375,0.0,0.0,0.0,0.0,0.025466666666666665,-5.498166666666667,-5.498166666666667,-0.5444,0.2803333333333333,0.019888888888888845,0.6270000000000002,67.254,0.02740000000000009,-0.205325,-0.7359999999999998,100.0,1.0,1.0,207.45,0.0,0.0,0.0,0.0,0.0,0.0,0.0,8793.1,0.0,55.0,5.0,242.08333333333334,0.0,0.0,0.0,0.0,0.0,0.0,1.0,0.0,0.6059999999999981,0.6059999999999981,0.0,0.0,0.0,55.0,616.79921,10000.0,85.000001,85.000001,85.000001,85.000001,395.0,0.0,0.0,0.0,1.0,166.665,52.887,52.887,47.943,47.943,34.0,-22.54,26.624,-27.006666666666668,31.795,0.0,1782.386,-0.4450000000000003,100.0,27.395,27.506,42.296,42.449,0.0,0.0,100.0,0.0,0.0,0.0,0.0,3031.4285714285716,3199.9,4177.875,4244.2,305.59,304.70366666666666,314.6555,314.3805,21.9122,20.5739,21.9125,21.4363,314.999998,314.999998,324.999988,324.999988,99.55995714285714,99.50736666666667,99.56781428571429,99.54758571428572,0.11025000000000018,-0.018999999999999906,-0.07033333333333333,0.1615,-0.036666666666668846,-0.03999999999999915,1.521,1.492,37.951,29.587,37.953,34.9765,56.456,34.96,59.838,52.6105,54.357,34.083,58.425,50.922,53.504999999999995,33.617,58.3565,50.3245,-0.11250000000000004,-0.04300000000000015,0.10819000000000001,0.10926500000000001,0.0,210.595,210.635,207.45,207.45,0.0,0.0
13,0.0,0.0,0.0,1.0,1.0,0.0,0.0,1.0,0.0,100.0,1.0,1.1856,26.0,0.0,0.0,0.0,55.000001,0.0,26.0,26.0,26.0,26.0,0.08477777777777784,0.28490000000000015,0.03376666666666667,292.603,-2.74055,-2.6728,-1.5907,-1.5393,-232.23,216.0325,190.724625,0.0,0.0,0.0,0.0,0.02686666666666667,-5.498166666666667,-5.498166666666667,-0.5385,-0.11633333333333333,0.021777777777777896,-0.46199999999999997,67.396,0.03410000000000002,-0.21435,-0.8140000000000001,100.0,1.0,1.0,207.83333333333331,0.0,0.0,0.0,0.0,0.0,0.0,0.0,8809.3,0.0,55.0,5.0,242.59666666666666,1.0,0.0,0.0,0.0,0.0,0.0,1.0,0.0,0.657,0.657,0.0,0.0,1.0,55.0,616.79921,10000.0,85.000001,85.000001,85.000001,85.000001,395.0,0.0,0.0,0.0,1.0,333.33500000000004,52.536,52.536,47.928,47.928,34.0,-21.79,27.066,-27.5,32.355000000000004,0.0,1782.334,-0.8900000000000006,100.0,27.601,27.879,42.473,43.078,0.0,0.0,100.0,0.0,0.0,0.0,0.0,3158.0,3085.8,4193.875,4290.9,305.368,304.86333333333334,314.66325,314.159,21.9219,20.5794,21.923099999999998,21.4455,314.999998,314.999998,324.999988,324.999988,99.55997142857143,99.50738333333334,99.56794285714285,99.54772857142858,0.14375000000000027,0.015000000000000124,-0.06833333333333333,0.15566666666666665,-0.04999999999999716,-0.046666666666666856,1.5135,1.4755,38.012,29.621333333333332,38.019999999999996,35.0345,56.445,34.998,59.8755,52.673500000000004,54.346000000000004,34.1185,58.4595,50.9825,53.494,33.650999999999996,58.388,50.384,-0.15349999999999997,0.0,0.105385,0.110545,0.0,211.03,211.07999999999998,207.83333333333331,207.83333333333331,0.0,0.0
14,0.0,0.0,0.0,1.0,1.0,0.0,0.0,1.0,0.0,100.0,1.0,1.1856,26.0,0.0,0.0,0.0,55.000001,0.0,26.0,26.0,26.0,26.0,0.08800000000000008,0.2875000000000001,-0.008666666666666668,292.831,-2.7301,-2.6167,-1.59775,-1.5107,-228.79,216.01,190.703375,0.0,0.0,0.0,0.0,0.02886666666666667,-5.498166666666667,-5.498166666666667,-0.5491,-0.12266666666666667,0.05288888888888876,1.294,67.536,0.048799999999999955,-0.228,-1.0439999999999996,100.0,1.0,1.0,208.35333333333335,0.0,0.0,0.0,0.0,0.0,0.0,0.0,8831.4,0.0,55.0,5.0,243.10000000000002,0.0,0.0,0.0,0.0,0.0,0.0,1.0,0.0,0.7079999999999984,0.7079999999999984,0.0,0.0,0.0,55.0,616.79921,10000.0,85.000001,85.000001,85.000001,85.000001,395.0,0.0,0.0,0.0,1.0,166.665,52.628,52.628,48.141,48.141,34.0,-19.4625,28.738,-24.373333333333335,32.54,0.0,1782.286,-0.9749999999999979,100.0,27.683,27.837,42.5,43.166,0.0,0.0,100.0,0.0,0.0,0.0,0.0,2924.714285714286,3264.8,3943.75,4219.0,305.864,304.50333333333333,315.20225,314.439,21.9315,20.585,21.9336,21.4548,314.999998,314.999998,324.999988,324.999988,99.55998571428572,99.50738333333334,99.56808571428571,99.54788571428571,0.15775000000000006,0.028999999999999915,-0.04566666666666667,0.18583333333333335,-0.046666666666666856,-0.04833333333333201,1.5675,1.516,38.072,29.656,38.085,35.092,56.434,35.036,59.911,52.735,54.335,34.1535,58.4925,51.042,53.482,33.685,58.417500000000004,50.442499999999995,-0.14849999999999985,-0.0015000000000000568,0.10423500000000001,0.11411,0.0,211.44,211.51999999999998,208.35333333333335,208.35333333333335,0.0,0.0
15,0.0,0.0,0.0,1.0,1.0,0.0,0.0,1.0,0.0,100.0,1.0,1.1856,26.0,0.0,0.0,0.0,55.000001,0.0,26.0,26.0,26.0,26.0,0.11611111111111105,0.28490000000000015,0.014,292.847,-2.74405,-2.5747999999999998,-1.62635,-1.4524,-225.54,215.99,190.683,0.0,0.0,0.0,0.0,0.03073333333333333,-5.498166666666667,-5.498166666666667,-0.5396000000000001,0.25133333333333335,0.08411111111111103,0.8799999999999999,67.667,0.0625,-0.208625,-1.217999999999999,100.0,1.0,1.0,208.73333333333335,0.0,0.0,0.0,0.0,0.0,0.0,0.0,8847.4,0.0,55.0,5.0,243.57333333333332,1.0,0.0,0.0,0.0,0.0,0.0,1.0,0.0,0.7560000000000002,0.7560000000000002,0.0,0.0,1.0,55.0,616.79921,10000.0,85.000001,85.000001,85.000001,85.000001,395.0,0.0,0.0,0.0,1.0,166.665,52.841,52.841,48.157,48.157,34.0,-18.0875,28.636,-24.063333333333333,33.81,0.0,1782.237,-1.004999999999999,100.0,27.674,27.923000000000002,42.257,43.288,0.0,0.0,100.0,0.0,0.0,0.0,0.0,2790.0,3241.0,3937.5,4408.1,306.298,304.57166666666666,315.25575,314.00375,21.9405,20.5902,21.9435,21.4634,314.999998,314.999998,324.999988,324.999988,99.56,99.50738333333334,99.56822857142858,99.54801428571429,0.16825,0.04166666666666696,-0.032,0.19133333333333336,-0.03833333333332689,-0.054999999999999716,1.5465,1.5025,38.128,29.689,38.147,35.1465,56.424,35.073,59.943,52.7935,54.326,34.1875,58.522,51.098,53.471000000000004,33.7175,58.4445,50.4975,-0.15349999999999997,0.0015000000000000568,0.10959,0.10991000000000001,0.0,211.87,211.94,208.73333333333335,208.73333333333335,0.0,0.0
16,0.0,0.0,0.0,1.0,1.0,0.0,0.0,1.0,0.0,100.0,1.0,1.1856,26.0,0.0,0.0,0.0,55.000001,0.0,26.0,26.0,26.0,26.0,0.12622222222222224,0.2639,-0.0603,292.801,-2.80265,-2.5807,-1.6003,-1.5134,-222.09,215.9725,190.660875,0.0,0.0,0.0,0.0,0.03276666666666667,-5.498166666666667,-5.498166666666667,-0.5628000000000001,-0.7003333333333334,0.06711111111111112,-1.081,67.807,0.07560000000000011,-0.22710000000000002,-1.2039999999999997,100.0,1.0,1.0,209.17333333333335,0.0,0.0,0.0,0.0,0.0,0.0,0.0,8866.1,0.0,55.0,5.0,244.07999999999998,0.0,0.0,0.0,0.0,0.0,0.0,1.0,0.0,0.8069999999999986,0.8069999999999986,0.0,0.0,0.0,55.0,616.79921,10000.0,85.000001,85.000001,85.000001,85.000001,395.0,0.0,0.0,0.0,1.0,333.33500000000004,52.612,52.612,47.958,47.958,34.0,-20.6125,28.332,-23.46,32.230000000000004,0.0,1782.184,-0.9100000000000001,100.0,27.288,28.174,42.442,43.480000000000004,0.0,0.0,100.0,0.0,0.0,0.0,0.0,3040.285714285714,3220.6,3958.0,4101.3,305.8465,304.4873333333333,315.2475,314.60675,21.9497,20.5959,21.9541,21.4726,314.999998,314.999998,324.999988,324.999988,99.56001428571429,99.5074,99.56837142857142,99.54815714285715,0.1592500000000001,0.033333333333333215,-0.0265,0.19866666666666666,-0.051666666666669414,-0.036666666666668846,1.5715,1.5330000000000001,38.186,29.724,38.213,35.204,56.41,35.1125,59.980000000000004,52.8545,54.312,34.2245,58.556,51.157,53.456,33.753,58.4755,50.5555,-0.14500000000000002,-0.008999999999999897,0.10933000000000001,0.10350000000000001,0.0,212.26999999999998,212.32999999999998,209.17333333333335,209.17333333333335,0.0,0.0
17,0.0,0.0,0.0,1.0,1.0,0.0,0.0,1.0,0.0,100.0,1.0,1.1856,26.0,0.0,0.0,0.0,55.000001,0.0,26.0,26.0,26.0,26.0,0.1160000000000001,0.2984,0.03903333333333334,292.297,-2.7639,-2.5632,-1.6417000000000002,-1.4757,-218.42000000000002,215.95749999999998,190.637,0.0,0.0,0.0,0.0,0.03486666666666667,-5.498166666666667,-5.498166666666667,-0.5488000000000001,0.437,0.047111111111111104,-0.6039999999999999,67.955,0.08099999999999996,-0.206575,-1.1320000000000006,100.0,1.0,1.0,209.5366666666667,0.0,0.0,0.0,0.0,0.0,0.0,0.0,8881.5,0.0,55.0,5.0,244.61,1.0,0.0,0.0,0.0,0.0,0.0,1.0,0.0,0.8610000000000007,0.8610000000000007,0.0,0.0,1.0,55.0,616.79921,10000.0,85.000001,85.000001,85.000001,85.000001,395.0,0.0,0.0,0.0,1.0,166.665,52.338,52.338,47.546,47.546,34.0,-20.345,27.342,-27.166666666666664,34.057500000000005,0.0,1782.132,-1.004999999999999,100.0,27.741,28.425,42.299,43.525999999999996,0.0,0.0,100.0,0.0,0.0,0.0,0.0,3118.0,3115.2,4351.875,4340.4,305.532,304.81333333333333,314.399,314.12475,21.9599,20.6019,21.9651,21.4824,314.999998,314.999998,324.999988,324.999988,99.56004285714286,99.5074,99.56851428571429,99.54832857142857,0.1732499999999999,0.03866666666666685,-0.029500000000000002,0.19766666666666666,-0.051666666666669414,-0.03166666666666629,1.5255,1.4765,38.248999999999995,29.762,38.282,35.265,56.400999999999996,35.156,60.0165,52.9195,54.303,34.2645,58.59,51.2195,53.446,33.7915,58.5065,50.617,-0.15500000000000003,-0.0024999999999999467,0.11170000000000001,0.10713500000000001,0.0,212.765,212.825,209.5366666666667,209.5366666666667,0.0,0.0
18,0.0,0.0,0.0,1.0,1.0,0.0,0.0,1.0,0.0,100.0,1.0,1.1856,26.0,0.0,0.0,0.0,55.000001,0.0,26.0,26.0,26.0,26.0,0.12288888888888905,0.27859999999999996,0.0014666666666666667,292.419,-2.79505,-2.539,-1.65765,-1.4216,-215.36,215.9475,190.61725,0.0,0.0,0.0,0.0,0.03666666666666667,-5.498166666666667,-5.498166666666667,-0.5606,-0.4836666666666667,0.07455555555555571,1.125,68.076,0.08340000000000014,-0.22405,-1.306,100.0,1.0,1.0,209.9766666666667,0.0,0.0,0.0,0.0,0.0,0.0,0.0,8900.2,0.0,55.0,5.0,245.04666666666668,0.0,0.0,0.0,0.0,0.0,0.0,1.0,0.0,0.9059999999999988,0.9059999999999988,0.0,0.0,0.0,55.0,616.79921,10000.0,85.000001,85.000001,85.000001,85.000001,395.0,0.0,0.0,0.0,1.0,333.33500000000004,52.261,52.261,47.653,47.653,34.0,-18.7575,30.83,-24.226666666666667,33.1525,0.0,1782.085,-1.2249999999999979,100.0,27.627,28.169,42.669,43.76,0.0,0.0,100.0,0.0,0.0,0.0,0.0,3000.714285714286,3395.2,3997.5,4256.0,305.7695,304.18033333333335,315.139,314.3765,21.9682,20.6069,21.9745,21.4906,314.999998,314.999998,324.999988,324.999988,99.56007142857143,99.5074,99.56864285714286,99.54845714285715,0.19874999999999998,0.06533333333333369,-0.018666666666666668,0.21433333333333335,-0.03833333333332689,-0.054999999999999716,1.549,1.51,38.301,29.793333333333333,38.34,35.3165,56.391,35.1915,60.0485,52.975,54.294,34.2975,58.62,51.2735,53.436,33.823499999999996,58.533,50.67,-0.17100000000000004,0.010499999999999954,0.10412500000000001,0.11046,0.0,213.09,213.195,209.9766666666667,209.9766666666667,0.0,0.0
19,0.0,0.0,0.0,1.0,1.0,0.0,0.0,1.0,0.0,100.0,1.0,1.1856,26.0,0.0,0.0,0.0,55.000001,0.0,26.0,26.0,26.0,26.0,0.1685555555555558,0.2935000000000001,0.06273333333333334,291.916,-2.7162,-2.637,-1.59505,-1.4011,-211.68,215.94,190.593375,0.0,0.0,0.0,0.0,0.0388,-5.498166666666667,-5.498166666666667,-0.5472,0.8063333333333333,0.08777777777777773,0.9449999999999998,68.22200000000001,0.09240000000000004,-0.2106,-1.7139999999999995,100.0,1.0,1.0,210.35666666666668,0.0,0.0,0.0,0.0,0.0,0.0,0.0,8916.2,0.0,55.0,5.0,245.57,1.0,0.0,0.0,0.0,0.0,0.0,1.0,0.0,0.9600000000000009,0.9600000000000009,0.0,0.0,1.0,55.0,616.79921,10000.0,85.000001,85.000001,85.000001,85.000001,395.0,0.0,0.0,0.0,1.0,166.665,51.834,51.834,47.333,47.333,34.0,-16.65,31.951999999999998,-23.46333333333333,36.510000000000005,0.0,1782.034,-1.5249999999999986,100.0,28.104,28.72,42.419,43.828,0.0,0.0,100.0,0.0,0.0,0.0,0.0,2945.857142857143,3302.4,4146.25,4576.3,305.761,304.188,314.73575,313.6505,21.9784,20.6131,21.985500000000002,21.5004,314.999998,314.999998,324.999988,324.999988,99.5601,99.50741666666667,99.5688,99.5486,0.22524999999999995,0.08466666666666667,0.0025,0.2245,-0.03166666666666629,-0.061666666666667425,1.5190000000000001,1.4835,38.364999999999995,29.832,38.409,35.3775,56.384,35.238,60.084,53.0415,54.287,34.341,58.6525,51.3375,53.427,33.865,58.5625,50.733000000000004,-0.1955,0.03400000000000003,0.10642000000000001,0.10577500000000001,0.0,213.565,213.685,210.35666666666668,210.35666666666668,0.0,0.0
20,0.0,0.0,0.0,1.0,1.0,0.0,0.0,1.0,0.0,100.0,1.0,1.1856,26.0,0.0,0.0,0.0,55.000001,0.0,26.0,26.0,26.0,26.0,0.2092222222222222,0.2755000000000001,0.0415,292.358,-2.82595,-2.5829,-1.60725,-1.5178,-208.39999999999998,215.9375,190.57225,0.0,0.0,0.0,0.0,0.0407,-5.498166666666667,-5.498166666666667,-0.5567,-1.24,0.09511111111111115,0.532,68.35300000000001,0.10840000000000005,-0.22345,-1.9879999999999995,100.0,1.0,1.0,210.71333333333334,0.0,0.0,0.0,0.0,0.0,0.0,0.0,8931.4,0.0,55.0,5.0,246.04333333333335,0.0,0.0,0.0,0.0,0.0,0.0,0.0,0.0,1.0079999999999991,1.0079999999999991,0.0,0.0,0.0,55.0,616.79921,10000.0,85.000001,85.000001,85.000001,85.000001,395.0,0.0,0.0,0.0,1.0,166.665,52.765,52.765,47.012,47.012,34.0,-16.4,31.058,-21.886666666666663,37.582499999999996,0.0,1781.985,-1.1600000000000001,100.0,27.408,28.356,42.863,44.291,0.0,0.0,100.0,0.0,0.0,0.0,0.0,2793.142857142857,3285.3,4032.375,4324.1,306.4405,304.4696666666667,314.94325,314.05875,21.987,20.6185,21.9955,21.5093,314.999998,314.999998,324.999988,324.999988,99.56011428571429,99.50743333333334,99.56892857142857,99.54875714285714,0.22550000000000026,0.08733333333333348,0.022166666666666668,0.2505,-0.026666666666670835,-0.04833333333333201,1.5234999999999999,1.451,38.419,29.865333333333332,38.472,35.433,56.373999999999995,35.2785,60.12,53.102000000000004,54.275999999999996,34.378,58.686,51.396,53.416,33.900999999999996,58.5925,50.7905,-0.1855,0.030999999999999917,0.10609,0.11042500000000001,0.0,213.89499999999998,214.06,210.71333333333334,210.71333333333334,0.0,0.0
21,0.0,0.0,0.0,1.0,1.0,0.0,0.0,1.0,0.0,100.0,1.0,1.1856,26.0,0.0,0.0,0.0,55.000001,0.0,26.0,26.0,26.0,26.0,0.16333333333333333,0.2801,-0.05503333333333334,292.618,-2.7923999999999998,-2.6315,-1.6684,-1.4794,-205.12,215.9375,190.5505,0.0,0.0,0.0,0.0,0.0426,-5.498166666666667,-5.498166666666667,-0.5780000000000001,0.5223333333333334,0.07566666666666677,0.038000000000000256,68.477,0.123,-0.223975,-1.5439999999999996,100.0,1.0,1.0,211.31666666666666,0.0,0.0,0.0,0.0,0.0,0.0,0.0,8956.9,0.0,55.0,5.0,246.49,1.0,0.0,0.0,0.0,0.0,0.0,0.0,0.0,1.056000000000001,1.056000000000001,0.0,0.0,1.0,55.0,616.79921,10000.0,85.000001,85.000001,85.000001,85.000001,395.0,0.0,0.0,0.0,1.0,166.665,52.246,52.246,48.203,48.203,34.0,-19.5075,29.218,-21.096666666666664,34.5125,0.0,1781.937,-0.14499999999999957,100.0,27.759,28.554000000000002,42.164,43.870000000000005,0.0,0.0,100.0,0.0,0.0,0.0,0.0,2941.142857142857,3276.8,3943.625,4109.5,305.898,304.401,315.35725,314.74725,21.9959,20.624,22.0051,21.5178,314.999998,314.999998,324.999988,324.999988,99.56012857142858,99.50743333333334,99.56905714285715,99.5489,0.17174999999999985,0.03166666666666673,0.033166666666666664,0.2588333333333333,-0.04333333333332945,-0.04333333333332945,1.6045,1.547,38.474000000000004,29.9,38.532,35.4865,56.364999999999995,35.319,60.1485,53.158,54.268,34.416,58.7125,51.45,53.406,33.937,58.616,50.8435,-0.10399999999999987,-0.053999999999999826,0.10727,0.11410500000000001,0.0,214.34,214.45499999999998,211.31666666666666,211.31666666666666,0.0,0.0
22,0.0,0.0,0.0,1.0,1.0,0.0,0.0,1.0,0.0,100.0,1.0,1.1856,26.0,0.0,0.0,0.0,55.000001,0.0,26.0,26.0,26.0,26.0,0.12222222222222223,0.2683,0.002266666666666667,292.13,-2.71735,-2.644,-1.65185,-1.4819,-201.62,215.9425,190.52675,0.0,0.0,0.0,0.0,0.04463333333333333,-5.498166666666667,-5.498166666666667,-0.5576,0.04466666666666667,0.0654444444444442,-0.883,68.61500000000001,0.1079000000000001,-0.2071,-0.24600000000000044,100.0,1.0,1.0,211.53333333333333,0.0,0.0,0.0,0.0,0.0,0.0,0.0,8966.1,0.0,55.0,5.0,246.98666666666668,0.0,0.0,0.0,0.0,0.0,0.0,0.0,0.0,1.1069999999999993,1.1069999999999993,0.0,0.0,0.0,55.0,616.79921,10000.0,85.000001,85.000001,85.000001,85.000001,395.0,0.0,0.0,0.0,1.0,166.665,52.383,52.383,47.119,47.119,34.0,-21.16,25.232,-26.096666666666664,34.6125,0.0,1781.886,0.48499999999999943,100.0,27.731,28.727,42.637,44.153999999999996,0.0,0.0,100.0,0.0,0.0,0.0,0.0,2945.857142857143,3091.8,4236.375,4341.1,305.967,304.7606666666667,314.636,314.11675,22.0054,20.6298,22.0157,21.5272,314.999998,314.999998,324.999988,324.999988,99.56014285714286,99.50743333333334,99.56921428571428,99.54904285714285,0.11474999999999991,-0.028666666666666618,-0.01916666666666667,0.20583333333333334,-0.051666666666669414,-0.03999999999999915,1.4929999999999999,1.482,38.533,29.936,38.598,35.545,56.352000000000004,35.3585,60.1865,53.2215,54.256,34.4525,58.7475,51.5115,53.393,33.9725,58.647999999999996,50.9035,-0.040999999999999925,-0.1200000000000001,0.10948500000000001,0.10339000000000001,0.0,214.825,214.84,211.53333333333333,211.53333333333333,0.0,0.0
23,0.0,0.0,0.0,1.0,1.0,0.0,0.0,1.0,0.0,100.0,1.0,1.1856,26.0,0.0,0.0,0.0,55.000001,0.0,26.0,26.0,26.0,26.0,0.04877777777777781,0.24460000000000015,-0.05883333333333334,292.175,-2.7203,-2.6202,-1.6781000000000001,-1.4832,-197.92000000000002,215.9525,190.501875,0.0,0.0,0.0,0.0,0.0468,-5.498166666666667,-5.498166666666667,-0.5763,0.004,0.035666666666666735,-1.095,68.757,0.056400000000000006,-0.2303,0.7560000000000002,100.0,1.0,1.0,212.11,0.0,0.0,0.0,0.0,0.0,0.0,0.0,8990.5,0.0,55.0,5.0,247.49666666666667,1.0,0.0,0.0,0.0,0.0,0.0,0.0,0.0,1.1610000000000014,1.1610000000000014,0.0,0.0,1.0,55.0,616.79921,10000.0,85.000001,85.000001,85.000001,85.000001,395.0,0.0,0.0,0.0,1.0,166.665,51.712,51.712,48.096000000000004,48.096000000000004,34.0,-25.56,23.658,-28.116666666666667,27.6625,0.0,1781.833,0.75,100.0,28.252,28.597,42.927,44.114000000000004,0.0,0.0,100.0,0.0,0.0,0.0,0.0,3249.5714285714284,3116.2,4038.5,3974.8,305.0715,304.767,315.189,315.067,22.0155,20.6358,22.0269,21.537,314.999998,314.999998,324.999988,324.999988,99.56017142857142,99.50745,99.56937142857143,99.5492,0.07500000000000018,-0.06433333333333313,-0.08683333333333333,0.14433333333333334,-0.04333333333332945,-0.05333333333332746,1.5430000000000001,1.585,38.597,29.974,38.668,35.6065,56.338,35.4005,60.2235,53.286500000000004,54.242000000000004,34.4915,58.7815,51.574,53.378,34.01,58.679,50.965,-0.01649999999999996,-0.137,0.10951000000000001,0.10795,0.0,215.29000000000002,215.235,212.11,212.11,0.0,0.0
24,0.0,0.0,0.0,1.0,1.0,0.0,0.0,1.0,0.0,100.0,1.0,1.1856,26.0,0.0,0.0,0.0,55.000001,0.0,26.0,26.0,26.0,26.0,-0.027000000000000024,0.2774000000000001,-0.10126666666666667,292.389,-2.7165,-2.66,-1.5759,-1.5336,-194.82,215.96,190.48075,0.0,0.0,0.0,0.0,0.048600000000000004,-5.498166666666667,-5.498166666666667,-0.5794,-0.6013333333333334,0.022777777777777786,0.5800000000000001,68.877,0.010599999999999943,-0.21732500000000002,1.048,100.0,1.0,1.0,212.35333333333335,0.0,0.0,0.0,0.0,0.0,0.0,0.0,9000.8,0.0,55.0,5.0,247.93,0.0,0.0,0.0,0.0,0.0,0.0,0.0,0.0,1.2059999999999995,1.2059999999999995,0.0,0.0,0.0,55.0,616.79921,10000.0,85.000001,85.000001,85.000001,85.000001,395.0,0.0,0.0,0.0,1.0,166.665,52.917,52.917,47.073,47.073,34.0,-23.5,21.726,-30.676666666666666,28.4125,0.0,1781.788,0.7750000000000021,100.0,28.114,28.032,43.366,43.778999999999996,0.0,0.0,100.0,0.0,0.0,0.0,0.0,2887.4285714285716,2993.3,4277.875,4131.5,306.0415,305.371,314.407,314.68125,22.0238,20.6407,22.0362,21.545099999999998,314.999998,314.999998,324.999988,324.999988,99.56018571428571,99.50745,99.5695,99.54932857142857,0.046250000000000124,-0.08766666666666678,-0.114,0.11383333333333333,-0.03166666666666629,-0.04999999999999716,1.492,1.5195,38.649,30.003999999999998,38.726,35.657,56.323,35.435,60.2565,53.338,54.227000000000004,34.5235,58.8125,51.624,53.363,34.0405,58.7065,51.013999999999996,-0.013500000000000068,-0.13850000000000007,0.10624000000000001,0.11704,0.0,215.66,215.585,212.35333333333335,212.35333333333335,0.0,0.0
25,0.0,0.0,0.0,1.0,1.0,0.0,0.0,1.0,0.0,100.0,1.0,1.1856,26.0,0.0,0.0,0.0,55.000001,0.0,26.0,26.0,26.0,26.0,-0.06733333333333336,0.26180000000000003,-0.04506666666666667,292.297,-2.7552,-2.6464,-1.56705,-1.5615999999999999,-191.3,215.9675,190.455375,0.0,0.0,0.0,0.0,0.050633333333333336,-5.498166666666667,-5.498166666666667,-0.6118,0.101,-0.005444444444444585,-1.736,69.009,-0.0381999999999999,-0.224525,1.3439999999999994,100.0,1.0,1.0,212.92000000000002,0.0,0.0,0.0,0.0,0.0,0.0,0.0,9024.8,0.0,55.0,5.0,248.40666666666667,1.0,0.0,0.0,0.0,0.0,0.0,0.0,0.0,1.256999999999998,1.256999999999998,0.0,0.0,1.0,55.0,616.79921,10000.0,85.000001,85.000001,85.000001,85.000001,395.0,0.0,0.0,0.0,1.0,333.33500000000004,51.788,51.788,47.943,47.943,34.0,-29.6675,22.195999999999998,-30.826666666666664,24.7075,0.0,1781.736,0.7100000000000009,100.0,28.11,28.182000000000002,43.206,43.263,0.0,0.0,100.0,0.0,0.0,0.0,0.0,3379.285714285714,3193.9,4022.75,3950.3,304.841,304.58433333333335,315.1605,315.08375,22.0333,20.6463,22.046599999999998,21.5542,314.999998,314.999998,324.999988,324.999988,99.56018571428571,99.50746666666667,99.56964285714285,99.54947142857142,0.015499999999999847,-0.1166666666666667,-0.17200000000000001,0.06516666666666668,-0.04833333333333201,-0.036666666666668846,1.5385,1.585,38.708,30.03933333333333,38.791,35.713499999999996,56.305,35.477000000000004,60.2905,53.394,54.21,34.5625,58.844,51.678,53.345,34.078,58.735,51.0665,-0.026000000000000023,-0.1299999999999999,0.10398500000000001,0.109895,0.0,216.10000000000002,215.965,212.92000000000002,212.92000000000002,0.0,0.0
26,0.0,0.0,0.0,1.0,1.0,0.0,0.0,1.0,0.0,100.0,1.0,1.1856,26.0,0.0,0.0,0.0,55.000001,0.0,26.0,26.0,26.0,26.0,-0.1253333333333334,0.2742,0.09046666666666667,291.138,-2.66515,-2.7655000000000003,-1.58515,-1.5846,-187.78,215.9725,190.429625,0.0,0.0,0.0,0.0,0.052700000000000004,-5.498166666666667,-5.498166666666667,-0.5685,0.6593333333333334,-0.052000000000000046,0.29899999999999993,69.145,-0.07179999999999997,-0.194275,1.2699999999999996,100.0,1.0,1.0,213.04333333333335,0.0,0.0,0.0,0.0,0.0,0.0,0.0,9030.2,0.0,55.0,5.0,248.89666666666665,0.0,0.0,0.0,0.0,0.0,0.0,0.0,0.0,1.3079999999999998,1.3079999999999998,0.0,0.0,0.0,55.0,616.79921,10000.0,85.000001,85.000001,85.000001,85.000001,395.0,0.0,0.0,0.0,1.0,166.665,51.498,51.498,46.082,46.082,34.0,-27.985,21.242,-38.03666666666666,28.1025,0.0,1781.686,0.490000000000002,100.0,29.307,28.38,44.197,43.342,0.0,0.0,100.0,0.0,0.0,0.0,0.0,3225.714285714286,3046.7,4632.25,4494.3,304.9855,305.111,313.65975,313.888,22.0431,20.652,22.057299999999998,21.5635,314.999998,314.999998,324.999988,324.999988,99.56018571428571,99.50748333333334,99.5698,99.54962857142857,0.008750000000000036,-0.1353333333333333,-0.1805,0.03883333333333334,-0.03499999999999659,-0.03833333333332689,1.4224999999999999,1.4515,38.769,30.074666666666666,38.858000000000004,35.7715,56.291,35.522,60.3315,53.454,54.197,34.6035,58.8825,51.735,53.331,34.1175,58.7705,51.1225,-0.04049999999999998,-0.1280000000000001,0.10268500000000001,0.11228500000000001,0.0,216.54500000000002,216.425,213.04333333333335,213.04333333333335,0.0,0.0
27,0.0,0.0,0.0,1.0,1.0,0.0,0.0,1.0,0.0,100.0,1.0,1.1856,26.0,0.0,0.0,0.0,55.000001,0.0,26.0,26.0,26.0,26.0,-0.12744444444444447,0.2513000000000001,-0.0366,291.672,-2.61685,-2.7472000000000003,-1.565,-1.6679,-184.45999999999998,215.97750000000002,190.4065,0.0,0.0,0.0,0.0,0.05463333333333334,-5.498166666666667,-5.498166666666667,-0.5985,-1.0516666666666667,-0.06466666666666665,0.6120000000000001,69.269,-0.08439999999999992,-0.243625,1.0779999999999994,100.0,1.0,1.0,213.57666666666665,0.0,0.0,0.0,0.0,0.0,0.0,0.0,9052.7,0.0,55.0,5.0,249.34333333333336,1.0,0.0,0.0,0.0,0.0,0.0,0.0,0.0,1.355999999999998,1.355999999999998,0.0,0.0,1.0,55.0,616.79921,10000.0,85.000001,85.000001,85.000001,85.000001,395.0,0.0,0.0,0.0,1.0,166.665,51.788,51.788,46.722,46.722,34.0,-27.5,21.042,-33.76,24.775,0.0,1781.637,0.4299999999999997,100.0,29.108,28.049,44.952,43.736000000000004,0.0,0.0,100.0,0.0,0.0,0.0,0.0,3186.142857142857,3090.4,4099.0,3989.1000000000004,305.103,305.08866666666665,314.78225,314.9495,22.052,20.6571,22.0675,21.5723,314.999998,314.999998,324.999988,324.999988,99.56018571428571,99.5075,99.56994285714286,99.54977142857143,0.000500000000000167,-0.1416666666666666,-0.20550000000000002,0.026166666666666668,-0.046666666666666856,-0.045000000000001705,1.482,1.5165,38.825,30.107,38.922,35.826499999999996,56.275,35.5615,60.37,53.5095,54.182,34.64,58.9185,51.7885,53.315,34.1525,58.8035,51.1745,-0.04600000000000004,-0.11450000000000005,0.110475,0.10958500000000002,0.0,216.865,216.76,213.57666666666665,213.57666666666665,0.0,0.0
28,0.0,0.0,0.0,1.0,1.0,0.0,0.0,1.0,0.0,100.0,1.0,1.1856,26.0,0.0,0.0,0.0,55.000001,0.0,26.0,26.0,26.0,26.0,-0.11644444444444446,0.2613000000000001,-0.04713333333333333,291.87,-2.6485,-2.7294,-1.5128,-1.6278000000000001,-180.92000000000002,215.97750000000002,190.381125,0.0,0.0,0.0,0.0,0.056666666666666664,-5.498166666666667,-5.498166666666667,-0.5986,0.659,-0.07133333333333347,-0.5129999999999999,69.399,-0.09019999999999995,-0.212225,1.0739999999999998,100.0,1.0,1.0,214.04333333333335,0.0,0.0,0.0,0.0,0.0,0.0,0.0,9072.5,0.0,55.0,5.0,249.81,0.0,0.0,0.0,0.0,0.0,0.0,0.0,0.0,1.407,1.407,0.0,0.0,0.0,55.0,616.79921,10000.0,85.000001,85.000001,85.000001,85.000001,395.0,0.0,0.0,0.0,1.0,166.665,51.849000000000004,51.849000000000004,47.424,47.424,34.0,-29.1925,19.394,-34.013333333333335,23.72,0.0,1781.586,0.3049999999999997,100.0,29.065,28.133,44.203,43.24,0.0,0.0,100.0,0.0,0.0,0.0,0.0,3314.5714285714284,2924.1,4208.75,4059.9,304.85,305.4003333333333,314.7705,314.8325,22.0617,20.6626,22.0778,21.5813,314.999998,314.999998,324.999988,324.999988,99.56018571428571,99.50751666666666,99.57008571428571,99.54991428571428,-0.00550000000000006,-0.15100000000000002,-0.21483333333333335,0.010833333333333334,-0.036666666666668846,-0.03333333333333144,1.5234999999999999,1.5655000000000001,38.885999999999996,30.141333333333336,38.986999999999995,35.882999999999996,56.26,35.6045,60.405,53.5645,54.168,34.68,58.951,51.841499999999996,53.3,34.1905,58.833,51.226,-0.06000000000000005,-0.10400000000000009,0.11055500000000001,0.11108000000000001,0.0,217.305,217.20499999999998,214.04333333333335,214.04333333333335,0.0,0.0
29,0.0,0.0,0.0,1.0,1.0,0.0,0.0,1.0,0.0,100.0,1.0,1.1856,26.0,0.0,0.0,0.0,55.000001,0.0,26.0,26.0,26.0,26.0,-0.11144444444444446,0.25780000000000003,0.0211,291.534,-2.58815,-2.7852,-1.5505,-1.6047,-177.38,215.975,190.354625,0.0,0.0,0.0,0.0,0.05873333333333334,-5.498166666666667,-5.498166666666667,-0.6072000000000001,-0.6943333333333334,-0.06555555555555559,0.6960000000000002,69.533,-0.08289999999999997,-0.21895,0.6980000000000004,100.0,1.0,1.0,214.31,0.0,0.0,0.0,0.0,0.0,0.0,0.0,9083.8,0.0,55.0,5.0,250.29333333333335,1.0,0.0,0.0,0.0,0.0,0.0,0.0,0.0,1.4579999999999984,1.4579999999999984,0.0,0.0,1.0,55.0,616.79921,10000.0,85.000001,85.000001,85.000001,85.000001,395.0,0.0,0.0,0.0,1.0,333.33500000000004,51.743,51.743,46.631,46.631,34.0,-28.015,21.754,-34.06,25.755000000000003,0.0,1781.535,0.22500000000000142,100.0,28.93,27.902,44.715,43.44,0.0,0.0,100.0,0.0,0.0,0.0,0.0,3270.142857142857,3097.6,4219.125,4199.9,304.8885,304.937,314.53875,314.507,22.0711,20.6681,22.0885,21.5906,314.999998,314.999998,324.999988,324.999988,99.5602,99.50753333333333,99.57024285714286,99.55005714285714,0.0007500000000000284,-0.1376666666666666,-0.19133333333333336,0.03216666666666666,-0.02833333333332888,-0.05833333333333002,1.4645000000000001,1.5050000000000001,38.945,30.175666666666665,39.053,35.9415,56.242999999999995,35.646,60.445499999999996,53.6235,54.152,34.718,58.989,51.897999999999996,53.283,34.227000000000004,58.868,51.281,-0.0625,-0.09850000000000003,0.10229,0.110325,0.0,217.66500000000002,217.615,214.31,214.31,0.0,0.0
30,0.0,0.0,0.0,1.0,1.0,0.0,0.0,1.0,0.0,100.0,1.0,1.1856,26.0,0.0,0.0,0.0,55.000001,0.0,26.0,26.0,26.0,26.0,-0.09744444444444444,0.25450000000000017,0.069,291.092,-2.6445,-2.6722,-1.4916,-1.6636000000000002,-174.04,215.9675,190.329625,0.0,0.0,0.0,0.0,0.060700000000000004,-5.498166666666667,-5.498166666666667,-0.6011000000000001,0.787,-0.06588888888888889,0.919,69.655,-0.07479999999999998,-0.21505000000000002,0.6720000000000006,100.0,1.0,1.0,214.71666666666667,0.0,0.0,0.0,0.0,0.0,0.0,0.0,9101.1,0.0,55.0,5.0,250.73000000000002,0.0,0.0,0.0,0.0,0.0,0.0,1.0,0.0,1.5060000000000002,1.5060000000000002,0.0,0.0,0.0,55.0,616.79921,10000.0,85.000001,85.000001,85.000001,85.000001,395.0,0.0,0.0,0.0,1.0,333.33500000000004,50.903,50.903,46.89,46.89,34.0,-28.549999999999997,21.137999999999998,-33.14666666666666,27.567500000000003,0.0,1781.486,0.08500000000000085,100.0,29.809,28.587,44.571,43.454,0.0,0.0,100.0,0.0,0.0,0.0,0.0,3399.5714285714284,3082.5,4278.375,4228.0,304.4825,305.03433333333334,314.469,314.40925,22.0804,20.6735,22.098399999999998,21.5993,314.999998,314.999998,324.999988,324.999988,99.5602,99.50755,99.57038571428572,99.5502,0.03000000000000025,-0.12399999999999989,-0.182,0.04466666666666667,-0.045000000000001705,-0.05833333333333002,1.4765000000000001,1.4965,39.001999999999995,30.209666666666664,39.115,35.9955,56.230999999999995,35.688,60.4795,53.6775,54.14,34.757,59.021,51.95,53.271,34.2645,58.8965,51.3315,-0.0814999999999999,-0.08899999999999997,0.10860500000000001,0.108075,0.0,218.085,218.04000000000002,214.71666666666667,214.71666666666667,0.0,0.0
31,0.0,0.0,0.0,1.0,1.0,0.0,0.0,1.0,0.0,100.0,1.0,1.1856,26.0,0.0,0.0,0.0,55.000001,0.0,26.0,26.0,26.0,26.0,-0.07533333333333336,0.26239999999999997,0.0099,290.894,-2.7124,-2.6502,-1.5406,-1.655,-170.26999999999998,215.96,190.302375,0.0,0.0,0.0,0.0,0.06286666666666667,-5.498166666666667,-5.498166666666667,-0.5939,-0.7333333333333334,-0.05655555555555569,0.6219999999999999,69.794,-0.058599999999999985,-0.22555,0.3379999999999992,100.0,1.0,1.0,215.06,0.0,0.0,0.0,0.0,0.0,0.0,0.0,9115.7,0.0,55.0,5.0,251.23333333333335,1.0,0.0,0.0,0.0,0.0,0.0,1.0,0.0,1.5599999999999987,1.5599999999999987,0.0,0.0,1.0,55.0,616.79921,10000.0,85.000001,85.000001,85.000001,85.000001,395.0,0.0,0.0,0.0,1.0,166.665,51.208,51.208,45.7,45.7,34.0,-27.2,22.774,-33.24666666666667,29.0425,0.0,1781.433,0.015000000000000568,100.0,29.396,28.642,45.187,44.083,0.0,0.0,100.0,0.0,0.0,0.0,0.0,3228.142857142857,3261.1,4287.125,4316.6,305.146,304.673,314.37025,314.2765,22.0904,20.6796,22.1098,21.6093,314.999998,314.999998,324.999988,324.999988,99.5602,99.50756666666666,99.57054285714285,99.55035714285714,0.03275000000000006,-0.11033333333333317,-0.166,0.061,-0.03499999999999659,-0.05833333333333002,1.467,1.4745,39.065,30.247333333333334,39.186,36.0585,56.214,35.7335,60.5225,53.7415,54.123999999999995,34.799,59.0615,52.0115,53.254000000000005,34.3045,58.934,51.3915,-0.08299999999999996,-0.08550000000000013,0.10676000000000001,0.10905000000000001,0.0,218.45499999999998,218.44,215.06,215.06,0.0,0.0
32,0.0,0.0,0.0,1.0,1.0,0.0,0.0,1.0,0.0,100.0,1.0,1.1856,26.0,0.0,0.0,0.0,55.000001,0.0,26.0,26.0,26.0,26.0,-0.05999999999999994,0.26460000000000017,-0.010433333333333333,291.168,-2.6225,-2.7548,-1.60585,-1.5631,-166.70999999999998,215.95,190.27675,0.0,0.0,0.0,0.0,0.06493333333333334,-5.498166666666667,-5.498166666666667,-0.6081,0.19366666666666665,-0.08111111111111136,-0.845,69.92099999999999,-0.04789999999999994,-0.22740000000000002,0.3460000000000001,100.0,1.0,1.0,215.55333333333334,0.0,0.0,0.0,0.0,0.0,0.0,0.0,9136.5,0.0,55.0,5.0,251.69,0.0,0.0,0.0,0.0,0.0,0.0,1.0,0.0,1.6110000000000007,1.6110000000000007,0.0,0.0,0.0,55.0,616.79921,10000.0,85.000001,85.000001,85.000001,85.000001,395.0,0.0,0.0,0.0,1.0,166.665,51.3,51.3,46.478,46.478,34.0,-26.8925,22.485999999999997,-33.97666666666666,27.2675,0.0,1781.383,-0.07000000000000028,100.0,29.29,28.811,44.64,43.926,0.0,0.0,100.0,0.0,0.0,0.0,0.0,3319.0,3013.4,4333.125,4233.0,304.8345,305.109,314.481,314.46525,22.1,20.6853,22.1203,21.6185,314.999998,314.999998,324.999988,324.999988,99.5602,99.50758333333333,99.5707,99.5505,0.04125000000000023,-0.09999999999999987,-0.1645,0.06816666666666667,-0.045000000000001705,-0.046666666666666856,1.513,1.5195,39.125,30.283,39.251999999999995,36.116,56.2,35.7755,60.5575,53.7975,54.111000000000004,34.838,59.094,52.0655,53.239999999999995,34.342,58.963499999999996,51.4445,-0.09050000000000002,-0.07450000000000001,0.11005500000000001,0.10776000000000001,0.0,218.885,218.85000000000002,215.55333333333334,215.55333333333334,0.0,0.0
33,0.0,0.0,0.0,1.0,1.0,0.0,0.0,1.0,0.0,100.0,1.0,1.1856,26.0,0.0,0.0,0.0,55.000001,0.0,26.0,26.0,26.0,26.0,-0.05988888888888888,0.25960000000000005,-0.02666666666666667,291.397,-2.66495,-2.7397,-1.542,-1.5755,-163.56,215.94,190.253125,0.0,0.0,0.0,0.0,0.06676666666666667,-5.498166666666667,-5.498166666666667,-0.6121,-0.432,-0.06644444444444453,1.376,70.036,-0.04059999999999997,-0.21625,0.2220000000000013,100.0,1.0,1.0,215.84,0.0,0.0,0.0,0.0,0.0,0.0,0.0,9148.6,0.0,55.0,5.0,252.10333333333335,1.0,0.0,0.0,0.0,0.0,0.0,1.0,0.0,1.6559999999999988,1.6559999999999988,0.0,0.0,1.0,55.0,616.79921,10000.0,85.000001,85.000001,85.000001,85.000001,395.0,0.0,0.0,0.0,1.0,166.665,51.849000000000004,51.849000000000004,46.524,46.524,34.0,-24.925,23.018,-31.353333333333335,28.4375,0.0,1781.337,-0.16499999999999915,100.0,29.141,28.354,44.683,43.912,0.0,0.0,100.0,0.0,0.0,0.0,0.0,3147.0,3034.2,4227.75,4315.2,305.3305,305.24066666666664,314.53875,314.278,22.1083,20.6902,22.1296,21.6268,314.999998,314.999998,324.999988,324.999988,99.56021428571428,99.50758333333333,99.57082857142858,99.55064285714286,0.05900000000000016,-0.08299999999999996,-0.14183333333333334,0.07233333333333333,-0.051666666666669414,-0.03333333333333144,1.4805,1.4885,39.177,30.313666666666666,39.31,36.167500000000004,56.186,35.8095,60.59,53.849000000000004,54.098,34.8695,59.1245,52.115,53.226,34.372,58.991,51.4925,-0.09499999999999997,-0.06599999999999984,0.10477,0.10803000000000001,0.0,219.24,219.185,215.84,215.84,0.0,0.0
34,0.0,0.0,0.0,1.0,1.0,0.0,0.0,1.0,0.0,100.0,1.0,1.1856,26.0,0.0,0.0,0.0,55.000001,0.0,26.0,26.0,26.0,26.0,-0.048666666666666636,0.24360000000000004,-0.08066666666666666,291.885,-2.6852,-2.7188,-1.6136,-1.5918999999999999,-159.76999999999998,215.925,190.2235,0.0,0.0,0.0,0.0,0.06896666666666666,-5.498166666666667,-5.498166666666667,-0.6473,-0.757,-0.03211111111111098,1.0140000000000002,70.17099999999999,-0.02839999999999998,-0.22667500000000002,0.06600000000000072,100.0,1.0,1.0,216.33666666666667,0.0,0.0,0.0,0.0,0.0,0.0,0.0,9169.7,0.0,55.0,5.0,252.59,0.0,0.0,0.0,0.0,0.0,0.0,1.0,0.0,1.7100000000000009,1.7100000000000009,0.0,0.0,0.0,55.0,616.79921,10000.0,85.000001,85.000001,85.000001,85.000001,395.0,0.0,0.0,0.0,1.0,166.665,52.307,52.307,47.318,47.318,34.0,-23.662499999999998,23.148,-30.456666666666663,28.29,0.0,1781.283,-0.15500000000000114,100.0,28.819,28.086,44.3,43.956,0.0,0.0,100.0,0.0,0.0,0.0,0.0,3004.0,3017.2,4064.625,4153.3,305.6015,305.265,315.0475,314.63625,22.1182,20.696,22.1406,21.6366,314.999998,314.999998,324.999988,324.999988,99.56022857142857,99.5076,99.57098571428571,99.5508,0.06674999999999986,-0.07233333333333314,-0.14150000000000001,0.091,-0.026666666666670835,-0.04999999999999716,1.5314999999999999,1.5195,39.239000000000004,30.35033333333333,39.379,36.229,56.17,35.85,60.6255,53.9105,54.083,34.907,59.1575,52.174,53.21,34.4075,59.0205,51.55,-0.09099999999999997,-0.06450000000000022,0.11237000000000001,0.11239,0.0,219.615,219.60000000000002,216.33666666666664,216.33666666666667,0.0,0.0
35,0.0,0.0,0.0,1.0,1.0,0.0,0.0,1.0,0.0,100.0,1.0,1.1856,26.0,0.0,0.0,0.0,55.000001,0.0,26.0,26.0,26.0,26.0,-0.02733333333333332,0.24930000000000008,-0.063,291.763,-2.6841,-2.6729000000000003,-1.5759,-1.6043,-156.39999999999998,215.9125,190.195125,0.0,0.0,0.0,0.0,0.07093333333333333,-5.498166666666667,-5.498166666666667,-0.6854,-0.2653333333333333,-0.040888888888888975,0.06099999999999994,70.28999999999999,-0.017100000000000004,-0.23012500000000002,-0.016000000000000014,100.0,1.0,1.0,216.76999999999998,0.0,0.0,0.0,0.0,0.0,0.0,0.0,9188.0,0.0,55.0,5.0,253.02333333333334,1.0,0.0,0.0,0.0,0.0,0.0,1.0,0.0,1.7579999999999991,1.7579999999999991,0.0,0.0,1.0,55.0,616.79921,10000.0,85.000001,85.000001,85.000001,85.000001,395.0,0.0,0.0,0.0,1.0,333.33500000000004,51.514,51.514,47.028,47.028,34.0,-24.6725,26.392,-28.376666666666665,27.447499999999998,0.0,1781.233,-0.08500000000000085,100.0,28.627,28.438,44.046,43.55,0.0,0.0,100.0,0.0,0.0,0.0,0.0,3172.142857142857,3375.2,3986.5,3962.9,305.2275,304.2183333333333,315.16525,315.10275,22.1268,20.7015,22.1504,21.6452,314.999998,314.999998,324.999988,324.999988,99.56022857142857,99.50761666666666,99.57112857142857,99.55092857142857,0.07525000000000004,-0.06066666666666665,-0.12333333333333334,0.10566666666666667,-0.03999999999999915,-0.04999999999999716,1.554,1.558,39.293,30.384,39.44,36.2825,56.153,35.8875,60.658500000000004,53.9645,54.067,34.944,59.1885,52.2265,53.194,34.4435,59.047,51.601,-0.09099999999999997,-0.0674999999999999,0.11105500000000001,0.11252000000000001,0.0,219.98000000000002,219.985,216.76999999999998,216.76999999999998,0.0,0.0
36,0.0,0.0,0.0,1.0,1.0,0.0,0.0,1.0,0.0,100.0,1.0,1.1856,26.0,0.0,0.0,0.0,55.000001,0.0,26.0,26.0,26.0,26.0,-0.0005555555555555314,0.2631000000000001,0.05826666666666667,290.848,-2.63515,-2.7376,-1.54615,-1.6019,-152.82,215.8975,190.1635,0.0,0.0,0.0,0.0,0.07303333333333334,-5.498166666666667,-5.498166666666667,-0.6632,0.14300000000000002,-0.08055555555555571,-1.311,70.42099999999999,-0.011699999999999933,-0.20125,0.18599999999999994,100.0,1.0,1.0,216.90333333333334,0.0,0.0,0.0,0.0,0.0,0.0,0.0,9193.7,0.0,55.0,5.0,253.49,0.0,0.0,0.0,0.0,0.0,0.0,1.0,0.0,1.809000000000001,1.809000000000001,0.0,0.0,0.0,55.0,616.79921,10000.0,85.000001,85.000001,85.000001,85.000001,395.0,0.0,0.0,0.0,1.0,166.665,51.407,51.407,46.082,46.082,34.0,-24.1275,23.338,-32.85333333333334,32.59,0.0,1781.184,-0.0799999999999983,100.0,29.045,28.907,44.181,44.096000000000004,0.0,0.0,100.0,0.0,0.0,0.0,0.0,3177.857142857143,2975.7,4501.75,4533.4,305.1315,304.97866666666664,314.00175,313.67875,22.1363,20.7073,22.160899999999998,21.6546,314.999998,314.999998,324.999988,324.999988,99.56024285714285,99.50761666666666,99.57128571428571,99.55108571428572,0.08050000000000024,-0.07466666666666666,-0.12166666666666667,0.09916666666666667,-0.04333333333332945,-0.051666666666669414,1.4215,1.4205,39.352000000000004,30.420666666666666,39.506,36.341499999999996,56.141,35.929,60.693,54.0215,54.055,34.980000000000004,59.2205,52.281,53.18,34.4775,59.0775,51.653999999999996,-0.09699999999999998,-0.06999999999999984,0.09761,0.11059000000000001,0.0,220.41500000000002,220.42000000000002,216.90333333333334,216.90333333333334,0.0,0.0
