,ABS Active,ABS Enabled,AID Allow Tire Blankets,AID Auto Blip,AID Auto Clutch,AID Auto Shift,AID Fuel Rate,AID Ideal Line,AID Mech Damage,AID Stability,AID Tire Wear Rate,Air Density,Air Temp,Ballast,Best Lap Delta,Best Lap Time,Brake Bias,Brake Pos,Brake Temp FL,Brake Temp FR,Brake Temp RL,Brake Temp RR,CG Accel Lateral,CG Accel Longitudinal,CG Accel Vertical,CG Height,Camber FL,Camber FR,Camber RL,Camber RR,Car Coord X,Car Coord Y,Car Coord Z,Car Damage Front,Car Damage Left,Car Damage Rear,Car Damage Right,Car Pos Norm,Caster FL,Caster FR,Chassis Pitch Angle,Chassis Pitch Rate,Chassis Roll Angle,Chassis Roll Rate,Chassis Velocity X,Chassis Velocity Y,Chassis Velocity Z,Chassis Yaw Rate,Clutch Pos,DRS Active,DRS Available,Drive Train Speed,ERS Heat Charging,ERS Is Charging,ERS Max Energy,ERS Power Level,ERS Recovery Level,Engine Brake Setting,Engine Limiter,Engine RPM,Flags,Fuel Level,Gear,Ground Speed,HR Sample Clock,In Pit,KERS Charge,KERS Deployed Energy,KERS Input,KERS Max Energy,LR Sample Clock,Lap Invalidated,Lap Time,Lap Time2,Last Lap Time,Last Sector Time,MR Sample Clock,Max Fuel,Max Power,Max RPM,Max Sus Travel FL,Max Sus Travel FR,Max Sus Travel RL,Max Sus Travel RR,Max Torque,Max Turbo Boost,Num Tires Off Track,Penalties Enabled,Position,Raw Data Sample Rate,Ride Height FL,Ride Height FR,Ride Height RL,Ride Height RR,Road Temp,Self Align Torque FL,Self Align Torque FR,Self Align Torque RL,Self Align Torque RR,Session Lap Count,Session Time Left,Steering Angle,Surface Grip,Suspension Travel FL,Suspension Travel FR,Suspension Travel RL,Suspension Travel RR,TC Active,TC Enabled,Throttle Pos,Tire Dirt Level FL,Tire Dirt Level FR,Tire Dirt Level RL,Tire Dirt Level RR,Tire Load FL,Tire Load FR,Tire Load RL,Tire Load RR,Tire Loaded Radius FL,Tire Loaded Radius FR,Tire Loaded Radius RL,Tire Loaded Radius RR,Tire Pressure FL,Tire Pressure FR,Tire Pressure RL,Tire Pressure RR,Tire Radius FL,Tire Radius FR,Tire Radius RL,Tire Radius RR,Tire Rubber Grip FL,Tire Rubber Grip FR,Tire Rubber Grip RL,Tire Rubber Grip RR,Tire Slip Angle FL,Tire Slip Angle FR,Tire Slip Angle RL,Tire Slip Angle RR,Tire Slip Ratio FL,Tire Slip Ratio FR,Tire Slip Ratio RL,Tire Slip Ratio RR,Tire Temp Core FL,Tire Temp Core FR,Tire Temp Core RL,Tire Temp Core RR,Tire Temp Inner FL,Tire Temp Inner FR,Tire Temp Inner RL,Tire Temp Inner RR,Tire Temp Middle FL,Tire Temp Middle FR,Tire Temp Middle RL,Tire Temp Middle RR,Tire Temp Outer FL,Tire Temp Outer FR,Tire Temp Outer RL,Tire Temp Outer RR,Toe In FL,Toe In FR,Toe In RL,Toe In RR,Turbo Boost,Wheel Angular Speed FL,Wheel Angular Speed FR,Wheel Angular Speed RL,Wheel Angular Speed RR,Wind Direction,Wind Speed
0,0.0,0.0,0.0,1.0,1.0,0.0,0.0,1.0,0.0,100.0,1.0,1.1856,26.0,0.0,0.0,0.0,55.0,0.0,26.0,26.0,26.0,26.0,-0.03512499999999996,0.3053000000000001,0.18013333333333334,293.365,-2.7478,-2.6292999999999997,-1.5572,-1.5122,-275.68,215.575,190.987625,0.0,0.0,0.0,0.0,0.0015999999999999348,-5.498166666666667,-5.498166666666667,-0.5589000000000001,1.4653333333333334,-0.00550000000000006,-0.8520000000000001,65.512,-0.028900000000000002,-0.217675,0.13200000000000145,100.0,1.0,1.0,202.28,0.0,0.0,0.0,0.0,0.0,0.0,0.0,8573.9,0.0,55.0,5.0,235.81333333333333,0.0,0.0,0.0,0.0,0.0,0.0,0.0,0.0,0.0030000000000001137,0.0030000000000001137,0.0,0.0,0.0,55.0,616.79921,10000.0,85.0,85.0,85.0,85.0,395.0,0.0,0.0,0.0,1.0,20.0,51.224000000000004,51.224000000000004,48.935,48.935,34.0,-29.7325,32.004,-29.423333333333332,25.545,0.0,1782.942,0.33000000000000185,100.0,27.026,26.965,40.465,40.208,0.0,0.0,100.0,0.0,0.0,0.0,0.0,3372.0,4257.2,4049.875,4032.2,304.6255,301.66266666666667,315.03225,314.77375,21.784,20.5146,21.7763,21.322499999999998,314.99999,314.99999,324.99998,324.99998,99.55947142857143,99.50721666666666,99.56565714285715,99.54567142857142,0.013500000000000068,-0.08633333333333315,-0.1446666666666666,0.08216666666666672,-0.03499999999999659,-0.06499999999999773,1.5574999999999999,1.565,37.15,29.21633333333333,37.102000000000004,34.266,56.494,34.4915,59.2295,51.8245,54.394,33.6515,57.8505,50.169,53.555,33.20333333333333,57.8155,49.588,-0.05399999999999994,-0.09499999999999997,0.11091000000000001,0.11000000000000001,0.0,205.26999999999998,205.245,202.28,202.28,0.0,0.0
1,0.0,0.0,0.0,1.0,1.0,0.0,0.0,1.0,0.0,100.0,1.0,1.1856,26.0,0.0,0.0,0.0,55.000001,0.0,26.0,26.0,26.0,26.0,-0.06725000000000003,0.32610000000000006,0.1388666666666667,292.374,-2.6507,-2.7025,-1.5942,-1.3757000000000001,-272.34,215.57999999999998,190.9675,0.0,0.0,0.0,0.0,0.0035333333333333883,-5.498166666666667,-5.498166666666667,-0.47450000000000003,-1.209,-0.04937499999999995,0.08499999999999996,65.67,-0.0263,-0.1758,0.7240000000000002,100.0,1.0,1.0,202.17666666666668,0.0,0.0,0.0,0.0,0.0,0.0,0.0,8569.5,0.0,55.0,5.0,236.38,1.0,0.0,0.0,0.0,0.0,0.0,0.0,0.0,0.053999999999998494,0.053999999999998494,0.0,0.0,1.0,55.0,616.79921,10000.0,85.000001,85.000001,85.000001,85.000001,395.0,0.0,0.0,0.0,1.0,166.665,54.214,54.214,47.287,47.287,34.0,-23.13,17.13,-37.906666666666666,33.845,0.0,1782.891,0.4450000000000003,100.0,27.525,27.142,42.442,42.723,0.0,0.0,100.0,0.0,0.0,0.0,0.0,2837.857142857143,2458.7,4790.75,5369.8,306.1435,306.9696666666667,313.034,311.20375,21.7939,20.5197,21.7872,21.3319,314.999998,314.999998,324.999988,324.999988,99.55947142857143,99.50723333333333,99.5658,99.54581428571429,0.027000000000000135,-0.10066666666666668,-0.13616666666666666,0.0661666666666667,-0.01666666666666572,-0.022500000000000853,1.281,1.3175,37.212,29.247999999999998,37.17,34.3245,56.477000000000004,34.5295,59.2765,51.893,54.378,33.687,57.8945,50.2345,53.538,33.23766666666667,57.857,49.65233333333333,-0.03600000000000003,-0.1060000000000001,0.10075,0.11695000000000001,0.0,205.735,205.68,202.17666666666668,202.17666666666668,0.0,0.0
2,0.0,0.0,0.0,1.0,1.0,0.0,0.0,1.0,0.0,100.0,1.0,1.1856,26.0,0.0,0.0,0.0,55.000001,0.0,26.0,26.0,26.0,26.0,-0.10087499999999994,0.28590000000000004,-0.11033333333333332,293.976,-2.6436,-2.6482,-1.5755,-1.5102,-268.79,215.58249999999998,190.9475,0.0,0.0,0.0,0.0,0.005599999999999938,-5.498166666666667,-5.498166666666667,-0.5721,0.802,-0.0021249999999999325,2.479,65.815,-0.0356,-0.2656,0.9199999999999999,100.0,1.0,1.0,203.57666666666665,0.0,0.0,0.0,0.0,0.0,0.0,0.0,8628.8,0.0,55.0,5.0,236.90333333333334,0.0,0.0,0.0,0.0,0.0,0.0,0.0,0.0,0.10800000000000054,0.10800000000000054,0.0,0.0,0.0,55.0,616.79921,10000.0,85.000001,85.000001,85.000001,85.000001,395.0,0.0,0.0,0.0,1.0,166.665,52.109,52.109,50.751,50.751,34.0,-27.52,22.131999999999998,-25.006666666666668,19.3675,0.0,1782.839,0.5,100.0,28.198999999999998,27.352,41.864000000000004,41.592,0.0,0.0,100.0,0.0,0.0,0.0,0.0,3227.714285714286,3165.0,3484.75,3448.4,304.837,304.70233333333334,316.3495,316.3655,21.8046,20.525199999999998,21.7982,21.341,314.999998,314.999998,324.999988,324.999988,99.55948571428571,99.50723333333333,99.56594285714286,99.54595714285715,0.015249999999999986,-0.11066666666666669,-0.1698333333333334,0.0605,-0.03499999999999659,-0.04374999999999574,1.764,1.7845,37.278999999999996,29.282333333333334,37.239000000000004,34.381,56.461,34.572,59.3125,51.9465,54.363,33.726,57.928,50.286,53.522,33.275,57.8875,49.703,-0.04249999999999998,-0.1160000000000001,0.10081000000000001,0.10777500000000001,0.0,206.2,206.115,203.57666666666665,203.57666666666665,0.0,0.0
3,0.0,0.0,0.0,1.0,1.0,0.0,0.0,1.0,0.0,100.0,1.0,1.1856,26.0,0.0,0.0,0.0,55.000001,0.0,26.0,26.0,26.0,26.0,-0.09075,0.3054000000000001,-0.0346,293.121,-2.6608,-2.6846,-1.5171000000000001,-1.4843,-265.82,215.57999999999998,190.929625,0.0,0.0,0.0,0.0,0.007333333333333303,-5.498166666666667,-5.498166666666667,-0.502,0.6996666666666667,-0.0027500000000002522,-2.301,65.95400000000001,-0.0459,-0.18895,0.75,100.0,1.0,1.0,203.38333333333333,0.0,0.0,0.0,0.0,0.0,0.0,0.0,8620.7,0.0,55.0,5.0,237.40333333333334,1.0,0.0,0.0,0.0,0.0,0.0,0.0,0.0,0.1529999999999987,0.1529999999999987,0.0,0.0,1.0,55.0,616.79921,10000.0,85.000001,85.000001,85.000001,85.000001,395.0,0.0,0.0,0.0,1.0,333.33500000000004,53.36,53.36,47.699,47.699,34.0,-24.607499999999998,19.394,-34.56333333333333,26.2725,0.0,1782.791,0.6799999999999997,100.0,27.734,27.477,41.956,42.01,0.0,0.0,100.0,0.0,0.0,0.0,0.0,2882.0,2854.6,4512.0,4287.6,306.155,305.531,313.88025,314.06425,21.8132,20.5299,21.8074,21.349,314.999998,314.999998,324.999988,324.999988,99.55948571428571,99.50725,99.56607142857143,99.54608571428571,-0.003249999999999975,-0.1279999999999999,-0.16316666666666657,0.057666666666666755,-0.03999999999999915,-0.04625000000000057,1.455,1.4669999999999999,37.332,29.311666666666667,37.296,34.431,56.443,34.612,59.35,52.0085,54.346000000000004,33.763,57.963,50.3455,53.504999999999995,33.31033333333333,57.9195,49.76133333333333,-0.026000000000000023,-0.127,0.09911500000000001,0.10837500000000001,0.0,206.66,206.595,203.38333333333333,203.38333333333333,0.0,0.0
4,0.0,0.0,0.0,1.0,1.0,0.0,0.0,1.0,0.0,100.0,1.0,1.1856,26.0,0.0,0.0,0.0,55.000001,0.0,26.0,26.0,26.0,26.0,-0.10187499999999994,0.2861,-0.0396,293.472,-2.654,-2.7608,-1.462,-1.5989,-262.45,215.5775,190.91025,0.0,0.0,0.0,0.0,0.009266666666666534,-5.498166666666667,-5.498166666666667,-0.5293,-0.8476666666666667,-0.05037499999999984,0.382,66.1,-0.054700000000000006,-0.2325,1.1420000000000012,100.0,1.0,1.0,204.01,0.0,0.0,0.0,0.0,0.0,0.0,0.0,8647.2,0.0,55.0,5.0,237.93,0.0,0.0,0.0,0.0,0.0,0.0,0.0,0.0,0.20400000000000063,0.20400000000000063,0.0,0.0,0.0,55.0,616.79921,10000.0,85.000001,85.000001,85.000001,85.000001,395.0,0.0,0.0,0.0,1.0,333.33500000000004,53.192,53.192,48.737,48.737,34.0,-27.195,20.396,-30.303333333333335,23.735,0.0,1782.741,0.7149999999999999,100.0,27.742,26.85,42.846000000000004,42.025,0.0,0.0,100.0,0.0,0.0,0.0,0.0,3112.857142857143,2936.6,4067.125,3875.4,305.2935,305.539,314.87525,315.211,21.823,20.535,21.8182,21.358,314.999998,314.999998,324.999988,324.999988,99.55948571428571,99.50726666666667,99.56621428571428,99.54621428571429,-0.004999999999999893,-0.129,-0.17916666666666659,0.0475000000000001,-0.03833333333332689,-0.060000000000002274,1.5385,1.571,37.394,29.343333333333334,37.363,34.4875,56.427,34.6495,59.3895,52.0635,54.331,33.7975,58.0,50.3985,53.489000000000004,33.343333333333334,57.954,49.81333333333333,-0.016000000000000014,-0.12850000000000006,0.10852500000000001,0.10698500000000001,0.0,207.05,206.995,204.01,204.01,0.0,0.0
5,0.0,0.0,0.0,1.0,1.0,0.0,0.0,1.0,0.0,100.0,1.0,1.1856,26.0,0.0,0.0,0.0,55.000001,0.0,26.0,26.0,26.0,26.0,-0.11599999999999999,0.30930000000000013,-0.0335,293.777,-2.6698,-2.7141,-1.52,-1.5849,-258.88,215.5725,190.88925,0.0,0.0,0.0,0.0,0.011366666666666525,-5.498166666666667,-5.498166666666667,-0.5372,0.5353333333333333,-0.038000000000000256,0.734,66.253,-0.0747,-0.221225,1.1260000000000012,100.0,1.0,1.0,204.57999999999998,0.0,0.0,0.0,0.0,0.0,0.0,0.0,8671.4,0.0,55.0,5.0,238.48333333333335,1.0,0.0,0.0,0.0,0.0,0.0,0.0,0.0,0.2579999999999991,0.2579999999999991,0.0,0.0,1.0,55.0,616.79921,10000.0,85.000001,85.000001,85.000001,85.000001,395.0,0.0,0.0,0.0,1.0,166.665,53.36,53.36,49.24,49.24,34.0,-26.295,20.695999999999998,-30.58,23.585,0.0,1782.689,0.240000000000002,100.0,27.681,26.738,42.423,41.463,0.0,0.0,100.0,0.0,0.0,0.0,0.0,3035.142857142857,2976.2,3932.875,3978.9,305.467,305.39233333333334,315.26075,315.03175,21.8336,20.5405,21.8292,21.3673,314.999998,314.999998,324.999988,324.999988,99.5595,99.50728333333333,99.56635714285714,99.54635714285715,0.0034999999999998366,-0.11999999999999988,-0.2001666666666666,0.03849999999999998,-0.036666666666668846,-0.08249999999999602,1.5735,1.6285,37.46,29.378,37.432,34.545500000000004,56.411,34.692499999999995,59.429,52.124,54.315,33.8375,58.036500000000004,50.456,53.472,33.38166666666667,57.9875,49.86966666666667,-0.04849999999999999,-0.1060000000000001,0.108575,0.11351000000000001,0.0,207.565,207.49,204.57999999999998,204.57999999999998,0.0,0.0
6,0.0,0.0,0.0,1.0,1.0,0.0,0.0,1.0,0.0,100.0,1.0,1.1856,26.0,0.0,0.0,0.0,55.000001,0.0,26.0,26.0,26.0,26.0,-0.12412499999999993,0.29910000000000014,0.014566666666666667,293.579,-2.7,-2.7906,-1.5137,-1.5713,-255.7,215.565,190.86975,0.0,0.0,0.0,0.0,0.01323333333333332,-5.498166666666667,-5.498166666666667,-0.5251,-0.232,-0.057374999999999954,0.609,66.394,-0.0762,-0.203325,0.7900000000000009,100.0,1.0,1.0,204.82666666666665,0.0,0.0,0.0,0.0,0.0,0.0,0.0,8681.8,0.0,55.0,5.0,238.98666666666668,0.0,0.0,0.0,0.0,0.0,0.0,0.0,0.0,0.30600000000000094,0.30600000000000094,0.0,0.0,0.0,55.0,616.79921,10000.0,85.000001,85.000001,85.000001,85.000001,395.0,0.0,0.0,0.0,1.0,166.665,53.741,53.741,48.538,48.538,34.0,-27.415,20.218,-33.07,24.2325,0.0,1782.641,0.3049999999999997,100.0,27.436,26.387999999999998,42.714,41.592,0.0,0.0,100.0,0.0,0.0,0.0,0.0,3101.4285714285716,2864.8,4211.125,4099.4,305.3665,305.75033333333334,314.4935,314.7065,21.8428,20.5453,21.8391,21.375799999999998,314.999998,314.999998,324.999988,324.999988,99.5595,99.5073,99.5665,99.5465,-0.004249999999999865,-0.1253333333333333,-0.18966666666666665,0.030666666666666842,-0.02499999999999858,-0.0625,1.5105,1.54,37.516999999999996,29.408,37.495000000000005,34.5985,56.394,34.7295,59.4675,52.181,54.299,33.8715,58.0725,50.510999999999996,53.456,33.41433333333333,58.0205,49.92333333333333,-0.05399999999999994,-0.09600000000000009,0.11151000000000001,0.11070500000000001,0.0,207.97500000000002,207.92000000000002,204.82666666666665,204.82666666666665,0.0,0.0
7,0.0,0.0,0.0,1.0,1.0,0.0,0.0,1.0,0.0,100.0,1.0,1.1856,26.0,0.0,0.0,0.0,55.000001,0.0,26.0,26.0,26.0,26.0,-0.09087499999999993,0.29100000000000015,-0.012533333333333334,293.564,-2.6225,-2.7791,-1.568,-1.6118000000000001,-252.31,215.555,190.849125,0.0,0.0,0.0,0.0,0.01516666666666655,-5.498166666666667,-5.498166666666667,-0.5323,0.07533333333333334,-0.046499999999999986,-0.274,66.538,-0.0746,-0.2146,0.6340000000000003,100.0,1.0,1.0,205.35333333333335,0.0,0.0,0.0,0.0,0.0,0.0,0.0,8704.2,0.0,55.0,5.0,239.50666666666666,1.0,0.0,0.0,0.0,0.0,0.0,0.0,0.0,0.3569999999999993,0.3569999999999993,0.0,0.0,1.0,55.0,616.79921,10000.0,85.000001,85.000001,85.000001,85.000001,395.0,0.0,0.0,0.0,1.0,166.665,53.375,53.375,48.766999999999996,48.766999999999996,34.0,-26.345,20.536,-33.443333333333335,23.127499999999998,0.0,1782.589,-0.06500000000000128,100.0,27.564,26.843,42.623000000000005,41.707,0.0,0.0,100.0,0.0,0.0,0.0,0.0,3161.5714285714284,2839.2,4134.625,3943.5,305.2675,305.619,314.81825,315.00225,21.8527,20.5505,21.8497,21.3847,314.999998,314.999998,324.999988,324.999988,99.5595,99.50731666666667,99.56662857142857,99.54664285714286,0.01650000000000018,-0.11533333333333329,-0.20433333333333337,0.01983333333333337,-0.06833333333332803,-0.026249999999997442,1.5385,1.567,37.58,29.440333333333335,37.561,34.6545,56.379000000000005,34.769999999999996,59.5065,52.24,54.285,33.908500000000004,58.109,50.567499999999995,53.441,33.449666666666666,58.0545,49.97866666666667,-0.08199999999999996,-0.06600000000000006,0.11055500000000001,0.09863000000000001,0.0,208.445,208.35000000000002,205.35333333333335,205.35333333333335,0.0,0.0
8,0.0,0.0,0.0,1.0,1.0,0.0,0.0,1.0,0.0,100.0,1.0,1.1856,26.0,0.0,0.0,0.0,55.000001,0.0,26.0,26.0,26.0,26.0,-0.04337499999999994,0.28970000000000007,-0.031100000000000003,293.564,-2.701,-2.7098,-1.5473,-1.6047,-249.11,215.54500000000002,190.82975,0.0,0.0,0.0,0.0,0.017033333333333345,-5.498166666666667,-5.498166666666667,-0.5369,-0.20400000000000001,-0.03487499999999999,-0.9790000000000001,66.674,-0.0636,-0.21905000000000002,0.38400000000000034,100.0,1.0,1.0,205.76,0.0,0.0,0.0,0.0,0.0,0.0,0.0,8721.4,0.0,55.0,5.0,240.0,0.0,0.0,0.0,0.0,0.0,0.0,0.0,0.0,0.40500000000000114,0.40500000000000114,0.0,0.0,0.0,55.0,616.79921,10000.0,85.000001,85.000001,85.000001,85.000001,395.0,0.0,0.0,0.0,1.0,166.665,53.436,53.436,48.615,48.615,34.0,-26.39,21.42,-30.89666666666666,24.82,0.0,1782.541,-0.1750000000000007,100.0,27.296,26.951999999999998,42.614000000000004,41.877,0.0,0.0,100.0,0.0,0.0,0.0,0.0,3117.857142857143,2937.0,4052.625,3968.2,305.4725,305.3353333333333,315.009,314.918,21.862,20.5554,21.8596,21.3932,314.999998,314.999998,324.999988,324.999988,99.5595,99.50731666666667,99.56677142857143,99.54677142857143,0.020000000000000018,-0.09866666666666668,-0.17366666666666664,0.051166666666666805,-0.05666666666667197,-0.04749999999999943,1.542,1.563,37.637,29.471333333333334,37.623000000000005,34.707499999999996,56.363,34.807,59.5435,52.2965,54.269,33.943,58.143,50.622,53.425,33.48266666666667,58.085499999999996,50.032,-0.08150000000000002,-0.06099999999999994,0.10177000000000001,0.111585,0.0,208.845,208.79500000000002,205.76,205.76,0.0,0.0
9,0.0,0.0,0.0,1.0,1.0,0.0,0.0,1.0,0.0,100.0,1.0,1.1856,26.0,0.0,0.0,0.0,55.000001,0.0,26.0,26.0,26.0,26.0,-0.04999999999999993,0.28259999999999996,0.014766666666666666,293.274,-2.6155,-2.7289,-1.546,-1.5606,-245.71,215.53,190.80875,0.0,0.0,0.0,0.0,0.019033333333333347,-5.498166666666667,-5.498166666666667,-0.5339,0.259,-0.04200000000000026,0.766,66.819,-0.0478,-0.21155000000000002,-0.007999999999999119,100.0,1.0,1.0,206.18333333333334,0.0,0.0,0.0,0.0,0.0,0.0,0.0,8739.3,0.0,55.0,5.0,240.51666666666665,1.0,0.0,0.0,0.0,0.0,0.0,0.0,0.0,0.4559999999999995,0.4559999999999995,0.0,0.0,1.0,55.0,616.79921,10000.0,85.000001,85.000001,85.000001,85.000001,395.0,0.0,0.0,0.0,1.0,166.665,52.994,52.994,48.721000000000004,48.721000000000004,34.0,-24.4925,23.232,-29.943333333333335,26.46,0.0,1782.49,-0.3249999999999993,100.0,27.762,26.925,42.641999999999996,41.853,0.0,0.0,100.0,0.0,0.0,0.0,0.0,3127.0,3048.8,4063.125,4135.5,305.2495,305.1736666666667,314.95425,314.63425,21.8718,20.5607,21.8701,21.4022,314.999998,314.999998,324.999988,324.999988,99.55951428571429,99.50733333333334,99.56691428571429,99.5469,0.05449999999999999,-0.07666666666666666,-0.15216666666666656,0.07116666666666682,-0.030000000000001137,-0.05749999999999744,1.547,1.54,37.699,29.504333333333335,37.688,34.763999999999996,56.348,34.8465,59.5815,52.356,54.254999999999995,33.979,58.179,50.679,53.41,33.51733333333333,58.1185,50.087666666666664,-0.10099999999999998,-0.052999999999999936,0.1024,0.11180500000000002,0.0,209.26999999999998,209.265,206.18333333333334,206.18333333333334,0.0,0.0
10,0.0,0.0,0.0,1.0,1.0,0.0,0.0,1.0,0.0,100.0,1.0,1.1856,26.0,0.0,0.0,0.0,55.000001,0.0,26.0,26.0,26.0,26.0,-0.02387499999999998,0.2794000000000001,0.0105,293.213,-2.6752000000000002,-2.7051,-1.5089000000000001,-1.5474999999999999,-242.49,215.515,190.78925,0.0,0.0,0.0,0.0,0.02089999999999992,-5.498166666666667,-5.498166666666667,-0.5281,-0.19766666666666666,-0.014750000000000263,1.699,66.955,-0.031200000000000002,-0.21080000000000002,-0.14399999999999924,100.0,1.0,1.0,206.53333333333333,0.0,0.0,0.0,0.0,0.0,0.0,0.0,8754.3,0.0,55.0,5.0,241.01,0.0,0.0,0.0,0.0,0.0,0.0,1.0,0.0,0.5040000000000013,0.5040000000000013,0.0,0.0,0.0,55.0,616.79921,10000.0,85.000001,85.000001,85.000001,85.000001,395.0,0.0,0.0,0.0,1.0,166.665,53.329,53.329,48.355000000000004,48.355000000000004,34.0,-23.4575,23.142,-29.299999999999997,28.5975,0.0,1782.442,-0.35999999999999943,100.0,27.698,26.896,42.775,42.193,0.0,0.0,100.0,0.0,0.0,0.0,0.0,2981.285714285714,3024.0,4097.0,4265.2,305.669,305.2873333333333,314.81025,314.32175,21.8811,20.5656,21.8801,21.410800000000002,314.999998,314.999998,324.999988,324.999988,99.55951428571429,99.50735,99.56705714285714,99.54704285714286,0.06075000000000008,-0.06733333333333325,-0.13849999999999996,0.09349999999999992,-0.01999999999999602,-0.060000000000002274,1.512,1.513,37.757,29.535333333333334,37.751000000000005,34.817499999999995,56.334,34.882,59.6185,52.4135,54.242000000000004,34.012,58.213499999999996,50.734,53.396,33.54866666666666,58.15,50.141666666666666,-0.09850000000000003,-0.04600000000000004,0.10742000000000002,0.10838500000000001,0.0,209.67000000000002,209.695,206.53333333333333,206.53333333333333,0.0,0.0
11,0.0,0.0,0.0,1.0,1.0,0.0,0.0,1.0,0.0,100.0,1.0,1.1856,26.0,0.0,0.0,0.0,55.000001,0.0,26.0,26.0,26.0,26.0,-0.0050000000000000044,0.28380000000000005,-0.03356666666666667,293.488,-2.6886,-2.6942,-1.5663,-1.5204,-238.88,215.5,190.767,0.0,0.0,0.0,0.0,0.022599999999999953,-5.498166666666667,-5.498166666666667,-0.5499,-0.185,0.01012499999999994,0.7949999999999999,67.105,-0.0167,-0.22305,-0.3020000000000005,100.0,1.0,1.0,207.10333333333335,0.0,0.0,0.0,0.0,0.0,0.0,0.0,8778.3,0.0,55.0,5.0,241.55,1.0,0.0,0.0,0.0,0.0,0.0,1.0,0.0,0.5579999999999998,0.5579999999999998,0.0,0.0,1.0,55.0,616.79921,10000.0,85.000001,85.000001,85.000001,85.000001,395.0,0.0,0.0,0.0,1.0,166.665,53.268,53.268,48.859,48.859,34.0,-22.6775,25.48,-26.9,27.3725,0.0,1782.388,-0.7149999999999999,100.0,27.381,26.990000000000002,42.489000000000004,42.272999999999996,0.0,0.0,100.0,0.0,0.0,0.0,0.0,3001.4285714285716,3123.7,3888.875,4083.6000000000004,305.645,304.9576666666667,315.36425,314.7685,21.8913,20.5713,21.8911,21.4204,314.999998,314.999998,324.999988,324.999988,99.55952857142857,99.50735,99.5672,99.5472,0.08625000000000016,-0.030999999999999917,-0.11683333333333334,0.11016666666666675,-0.02833333333332888,-0.05124999999999602,1.575,1.5735,37.821,29.570666666666668,37.82,34.8775,56.318,34.922,59.6565,52.477000000000004,54.226,34.049,58.2485,50.795,53.379000000000005,33.584,58.1825,50.20166666666667,-0.11599999999999999,-0.019500000000000073,0.10894000000000001,0.1091,0.0,210.12,210.155,207.10333333333335,207.10333333333335,0.0,0.0
12,0.0,0.0,0.0,1.0,1.0,0.0,0.0,1.0,0.0,100.0,1.0,1.1856,26.0,0.0,0.0,0.0,55.000001,0.0,26.0,26.0,26.0,26.0,0.0006250000000000977,0.2834000000000001,0.005966666666666667,293.152,-2.7236000000000002,-2.6812,-1.5487000000000002,-1.5362,-235.85,215.485,190.74775,0.0,0.0,0.0,0.0,0.025466666666666526,-5.498166666666667,-5.498166666666667,-0.5426,0.374,0.010999999999999899,-0.5940000000000001,67.231,-0.001,-0.20555,-0.34999999999999964,100.0,1.0,1.0,207.42333333333335,0.0,0.0,0.0,0.0,0.0,0.0,0.0,8792.0,0.0,55.0,5.0,242.00333333333333,0.0,0.0,0.0,0.0,0.0,0.0,1.0,0.0,0.602999999999998,0.602999999999998,0.0,0.0,0.0,55.0,616.79921,10000.0,85.000001,85.000001,85.000001,85.000001,395.0,0.0,0.0,0.0,1.0,333.33500000000004,52.994,52.994,48.294,48.294,34.0,-25.045,23.78,-28.07666666666666,28.665,0.0,1782.341,-0.4400000000000013,100.0,27.343,27.406,42.294,42.344,0.0,0.0,100.0,0.0,0.0,0.0,0.0,3114.857142857143,3069.5,4134.75,4161.9,305.4695,304.934,314.839,314.53325,21.8999,20.5761,21.9004,21.4283,314.999998,314.999998,324.999988,324.999988,99.55952857142857,99.50735,99.56732857142858,99.54731428571428,0.05699999999999994,-0.06266666666666665,-0.10366666666666657,0.11383333333333323,-0.04999999999999716,-0.048749999999998295,1.5485,1.53,37.873999999999995,29.60033333333333,37.876999999999995,34.927,56.306,34.9555,59.6885,52.5295,54.215,34.08,58.2785,50.8455,53.367000000000004,33.614,58.21,50.251333333333335,-0.09350000000000003,-0.052000000000000046,0.10162,0.10587,0.0,210.54000000000002,210.575,207.42333333333335,207.42333333333335,0.0,0.0
13,0.0,0.0,0.0,1.0,1.0,0.0,0.0,1.0,0.0,100.0,1.0,1.1856,26.0,0.0,0.0,0.0,55.000001,0.0,26.0,26.0,26.0,26.0,0.033625000000000016,0.28880000000000017,0.0274,292.816,-2.6892,-2.6994,-1.5759,-1.5453000000000001,-232.42000000000002,215.47,190.726125,0.0,0.0,0.0,0.0,0.026733333333333387,-5.498166666666667,-5.498166666666667,-0.5374,-0.20766666666666667,0.008750000000000036,1.082,67.374,0.0108,-0.212875,-0.41799999999999926,100.0,1.0,1.0,207.78333333333333,0.0,0.0,0.0,0.0,0.0,0.0,0.0,8807.1,0.0,55.0,5.0,242.51999999999998,1.0,0.0,0.0,0.0,0.0,0.0,1.0,0.0,0.6539999999999999,0.6539999999999999,0.0,0.0,1.0,55.0,616.79921,10000.0,85.000001,85.000001,85.000001,85.000001,395.0,0.0,0.0,0.0,1.0,166.665,52.826,52.826,48.019,48.019,34.0,-21.9625,25.992,-27.563333333333333,31.2225,0.0,1782.291,-0.46499999999999986,100.0,27.748,27.421,42.748000000000005,42.705,0.0,0.0,100.0,0.0,0.0,0.0,0.0,3022.285714285714,3122.0,4113.125,4295.2,305.568,304.9563333333333,314.771,314.2515,21.9096,20.5815,21.911,21.4376,314.999998,314.999998,324.999988,324.999988,99.55954285714286,99.50736666666667,99.56748571428571,99.54747142857143,0.10824999999999996,-0.01966666666666672,-0.08433333333333337,0.13600000000000012,-0.045000000000001705,-0.04749999999999943,1.5185,1.4889999999999999,37.935,29.634666666666668,37.944,34.985,56.293,34.9935,59.7275,52.592,54.202,34.115,58.315,50.9055,53.352999999999994,33.647666666666666,58.243,50.31,-0.11699999999999999,-0.034499999999999975,0.10488000000000001,0.10891,0.0,210.97,211.005,207.78333333333333,207.78333333333333,0.0,0.0
14,0.0,0.0,0.0,1.0,1.0,0.0,0.0,1.0,0.0,100.0,1.0,1.1856,26.0,0.0,0.0,0.0,55.000001,0.0,26.0,26.0,26.0,26.0,0.05312500000000009,0.2815000000000001,-0.02806666666666667,293.045,-2.7126,-2.7004,-1.5735999999999999,-1.5371000000000001,-228.98,215.45499999999998,190.70475,0.0,0.0,0.0,0.0,0.02873333333333339,-5.498166666666667,-5.498166666666667,-0.5501,-0.059666666666666666,0.024124999999999952,-0.27900000000000014,67.513,0.016900000000000002,-0.22585000000000002,-0.3899999999999997,100.0,1.0,1.0,208.31666666666666,0.0,0.0,0.0,0.0,0.0,0.0,0.0,8829.8,0.0,55.0,5.0,243.01999999999998,0.0,0.0,0.0,0.0,0.0,0.0,1.0,0.0,0.7049999999999983,0.7049999999999983,0.0,0.0,0.0,55.0,616.79921,10000.0,85.000001,85.000001,85.000001,85.000001,395.0,0.0,0.0,0.0,1.0,333.33500000000004,52.826,52.826,48.416,48.416,34.0,-22.7525,25.14,-26.726666666666667,28.6825,0.0,1782.24,-0.5249999999999986,100.0,27.55,27.737000000000002,42.531,42.874,0.0,0.0,100.0,0.0,0.0,0.0,0.0,3087.5714285714284,3034.0,3992.5,4085.2,305.559,304.99466666666666,315.1575,314.69925,21.9192,20.587,21.9214,21.4467,314.999998,314.999998,324.999988,324.999988,99.55955714285714,99.50736666666667,99.56761428571428,99.54761428571429,0.1027499999999999,-0.028000000000000025,-0.09233333333333338,0.12683333333333335,-0.036666666666668846,-0.05124999999999602,1.548,1.5425,37.995000000000005,29.668666666666667,38.009,35.042,56.28,35.031,59.7635,52.6525,54.19,34.15,58.3485,50.963499999999996,53.34,33.681,58.2735,50.367,-0.11399999999999999,-0.03249999999999997,0.102605,0.10401,0.0,211.4,211.425,208.31666666666666,208.31666666666666,0.0,0.0
15,0.0,0.0,0.0,1.0,1.0,0.0,0.0,1.0,0.0,100.0,1.0,1.1856,26.0,0.0,0.0,0.0,55.000001,0.0,26.0,26.0,26.0,26.0,0.06237500000000007,0.27770000000000006,-0.016133333333333336,292.969,-2.7059,-2.6748,-1.5832000000000002,-1.5524,-225.74,215.4425,190.68425,0.0,0.0,0.0,0.0,0.0306333333333334,-5.498166666666667,-5.498166666666667,-0.5428000000000001,0.209,0.035374999999999934,-0.8,67.646,0.0227,-0.21230000000000002,-0.4579999999999993,100.0,1.0,1.0,208.67666666666668,0.0,0.0,0.0,0.0,0.0,0.0,0.0,8845.0,0.0,55.0,5.0,243.49666666666667,1.0,0.0,0.0,0.0,0.0,0.0,1.0,0.0,0.7530000000000001,0.7530000000000001,0.0,0.0,1.0,55.0,616.79921,10000.0,85.000001,85.000001,85.000001,85.000001,395.0,0.0,0.0,0.0,1.0,166.665,52.887,52.887,48.218,48.218,34.0,-22.2475,24.67,-27.29,30.3575,0.0,1782.193,-0.41999999999999815,100.0,27.521,27.835,42.365,42.944,0.0,0.0,100.0,0.0,0.0,0.0,0.0,3046.0,3010.4,4086.125,4156.5,305.6885,305.047,314.95175,314.479,21.9283,20.5922,21.9313,21.4553,314.999998,314.999998,324.999988,324.999988,99.55957142857143,99.50736666666667,99.56775714285715,99.54775714285714,0.10475000000000012,-0.028666666666666618,-0.08550000000000002,0.14066666666666672,-0.07000000000000028,-0.038750000000000284,1.537,1.5255,38.052,29.701333333333334,38.07,35.096000000000004,56.268,35.067,59.7975,52.71,54.178,34.183,58.3795,51.0195,53.328,33.712666666666664,58.302,50.42166666666667,-0.11249999999999993,-0.03750000000000009,0.10669000000000001,0.10540000000000001,0.0,211.845,211.85000000000002,208.67666666666668,208.67666666666668,0.0,0.0
16,0.0,0.0,0.0,1.0,1.0,0.0,0.0,1.0,0.0,100.0,1.0,1.1856,26.0,0.0,0.0,0.0,55.000001,0.0,26.0,26.0,26.0,26.0,0.035250000000000004,0.27300000000000013,0.0015666666666666667,292.786,-2.7612,-2.626,-1.5609000000000002,-1.5508000000000002,-222.28,215.43,190.66225,0.0,0.0,0.0,0.0,0.0326333333333334,-5.498166666666667,-5.498166666666667,-0.5541,-0.441,0.0286249999999999,0.28600000000000003,67.786,0.0236,-0.22462500000000002,-0.33000000000000007,100.0,1.0,1.0,209.09,0.0,0.0,0.0,0.0,0.0,0.0,0.0,8862.5,0.0,55.0,5.0,244.00333333333333,0.0,0.0,0.0,0.0,0.0,0.0,1.0,0.0,0.8039999999999985,0.8039999999999985,0.0,0.0,0.0,55.0,616.79921,10000.0,85.000001,85.000001,85.000001,85.000001,395.0,0.0,0.0,0.0,1.0,166.665,52.567,52.567,47.974000000000004,47.974000000000004,34.0,-23.009999999999998,26.788,-26.4,29.77,0.0,1782.143,-0.3949999999999996,100.0,27.554,27.755,42.68,43.019999999999996,0.0,0.0,100.0,0.0,0.0,0.0,0.0,3071.4285714285716,3244.0,4023.75,4102.7,305.4965,304.56533333333334,315.00525,314.6695,21.9378,20.5977,21.9418,21.4646,314.999998,314.999998,324.999988,324.999988,99.55957142857143,99.50738333333334,99.5679,99.54788571428571,0.10725000000000007,-0.013666666666666716,-0.08083333333333331,0.14100000000000001,-0.04999999999999716,-0.03625000000000256,1.533,1.5334999999999999,38.111000000000004,29.735666666666667,38.135999999999996,35.1535,56.253,35.1045,59.835,52.7715,54.165,34.218,58.414500000000004,51.0785,53.313,33.74633333333333,58.334,50.47933333333333,-0.09999999999999998,-0.04499999999999993,0.10666500000000001,0.105785,0.0,212.245,212.245,209.09,209.09,0.0,0.0
17,0.0,0.0,0.0,1.0,1.0,0.0,0.0,1.0,0.0,100.0,1.0,1.1856,26.0,0.0,0.0,0.0,55.000001,0.0,26.0,26.0,26.0,26.0,0.02774999999999994,0.29679999999999995,0.034800000000000005,292.496,-2.6361,-2.6054,-1.5091,-1.5119,-218.82,215.42000000000002,190.64,0.0,0.0,0.0,0.0,0.03466666666666651,-5.498166666666667,-5.498166666666667,-0.5518000000000001,0.218,0.0044999999999999485,-1.064,67.925,0.0224,-0.21657500000000002,-0.3099999999999996,100.0,1.0,1.0,209.46666666666667,0.0,0.0,0.0,0.0,0.0,0.0,0.0,8878.5,0.0,55.0,5.0,244.50333333333333,1.0,0.0,0.0,0.0,0.0,0.0,1.0,0.0,0.8550000000000004,0.8550000000000004,0.0,0.0,1.0,55.0,616.79921,10000.0,85.000001,85.000001,85.000001,85.000001,395.0,0.0,0.0,0.0,1.0,166.665,52.322,52.322,47.668,47.668,34.0,-22.96,24.904,-28.253333333333337,29.51,0.0,1782.091,-0.28000000000000114,100.0,27.718,28.027,42.533,43.032,0.0,0.0,100.0,0.0,0.0,0.0,0.0,3165.142857142857,3131.4,4277.0,4201.5,305.2455,304.72433333333333,314.47875,314.44675,21.947400000000002,20.6033,21.9523,21.4737,314.999998,314.999998,324.999988,324.999988,99.5596,99.50738333333334,99.56804285714286,99.54804285714286,0.09949999999999992,-0.03400000000000003,-0.09316666666666662,0.1283333333333332,-0.06499999999999773,-0.05375000000000085,1.5294999999999999,1.5125,38.171,29.770666666666664,38.202,35.210499999999996,56.241,35.1435,59.8715,52.8315,54.153,34.254,58.448499999999996,51.1365,53.3,33.78066666666666,58.3645,50.536,-0.10250000000000004,-0.05750000000000011,0.10751000000000001,0.10083,0.0,212.69,212.715,209.46666666666667,209.46666666666667,0.0,0.0
18,0.0,0.0,0.0,1.0,1.0,0.0,0.0,1.0,0.0,100.0,1.0,1.1856,26.0,0.0,0.0,0.0,55.000001,0.0,26.0,26.0,26.0,26.0,0.03225000000000011,0.2832000000000001,0.04856666666666667,292.45,-2.6555,-2.7366,-1.5030000000000001,-1.4759,-215.56,215.41,190.618875,0.0,0.0,0.0,0.0,0.03653333333333331,-5.498166666666667,-5.498166666666667,-0.5607,-0.371,0.00550000000000006,-0.5210000000000001,68.056,0.019200000000000002,-0.22505,-0.18200000000000038,100.0,1.0,1.0,209.84333333333333,0.0,0.0,0.0,0.0,0.0,0.0,0.0,8894.5,0.0,55.0,5.0,244.97666666666666,0.0,0.0,0.0,0.0,0.0,0.0,1.0,0.0,0.9029999999999987,0.9029999999999987,0.0,0.0,0.0,55.0,616.79921,10000.0,85.000001,85.000001,85.000001,85.000001,395.0,0.0,0.0,0.0,1.0,166.665,52.353,52.353,47.729,47.729,34.0,-23.4875,25.854,-27.733333333333334,29.1225,0.0,1782.044,-0.28000000000000114,100.0,27.696,27.945,42.754,43.193,0.0,0.0,100.0,0.0,0.0,0.0,0.0,3167.5714285714284,3119.9,4162.875,4248.9,305.298,304.6426666666667,314.701,314.30275,21.9563,20.6085,21.9622,21.4824,314.999998,314.999998,324.999988,324.999988,99.55961428571429,99.50738333333334,99.56817142857143,99.54818571428571,0.09074999999999989,-0.04066666666666663,-0.09866666666666657,0.12083333333333335,-0.04999999999999716,-0.05749999999999744,1.503,1.496,38.227000000000004,29.802999999999997,38.263999999999996,35.265,56.227999999999994,35.1785,59.9065,52.8885,54.14,34.286500000000004,58.4815,51.1915,53.287,33.812,58.3945,50.590333333333334,-0.09550000000000003,-0.058499999999999996,0.11053500000000001,0.10368500000000001,0.0,213.085,213.09,209.84333333333333,209.84333333333333,0.0,0.0
19,0.0,0.0,0.0,1.0,1.0,0.0,0.0,1.0,0.0,100.0,1.0,1.1856,26.0,0.0,0.0,0.0,55.000001,0.0,26.0,26.0,26.0,26.0,0.04600000000000004,0.26980000000000004,0.008333333333333333,292.313,-2.6571,-2.7006,-1.5301,-1.601,-211.88,215.4,190.59475,0.0,0.0,0.0,0.0,0.03869999999999996,-5.498166666666667,-5.498166666666667,-0.5516,0.5513333333333333,0.012750000000000039,-0.8540000000000001,68.201,0.0143,-0.2152,-0.11399999999999988,100.0,1.0,1.0,210.32666666666665,0.0,0.0,0.0,0.0,0.0,0.0,0.0,8915.0,0.0,55.0,5.0,245.49666666666667,1.0,0.0,0.0,0.0,0.0,0.0,1.0,0.0,0.9570000000000007,0.9570000000000007,0.0,0.0,1.0,55.0,616.79921,10000.0,85.000001,85.000001,85.000001,85.000001,395.0,0.0,0.0,0.0,1.0,166.665,52.124,52.124,47.852000000000004,47.852000000000004,34.0,-23.425,24.222,-28.356666666666662,30.42,0.0,1781.989,-0.22500000000000142,100.0,28.235,28.396,42.736000000000004,43.324,0.0,0.0,100.0,0.0,0.0,0.0,0.0,3139.285714285714,3010.2,4165.25,4186.9,305.38,304.9986666666667,314.76775,314.37175,21.9665,20.6144,21.973300000000002,21.4921,314.999998,314.999998,324.999988,324.999988,99.55962857142858,99.5074,99.56832857142857,99.54832857142857,0.08700000000000019,-0.04733333333333323,-0.10433333333333339,0.11949999999999994,-0.046666666666666856,-0.04999999999999716,1.4995,1.4929999999999999,38.291,29.84,38.333,35.3255,56.216,35.2205,59.944,52.953,54.128,34.325,58.516,51.253,53.274,33.849333333333334,58.426,50.650666666666666,-0.09950000000000003,-0.05699999999999994,0.109225,0.10794500000000001,0.0,213.56,213.57,210.32666666666665,210.32666666666665,0.0,0.0
20,0.0,0.0,0.0,1.0,1.0,0.0,0.0,1.0,0.0,100.0,1.0,1.1856,26.0,0.0,0.0,0.0,55.000001,0.0,26.0,26.0,26.0,26.0,0.03312500000000007,0.2653000000000001,-0.0103,292.374,-2.7079,-2.6427,-1.5231,-1.5868,-208.6,215.39,190.573625,0.0,0.0,0.0,0.0,0.04059999999999997,-5.498166666666667,-5.498166666666667,-0.5545,-0.7283333333333334,0.011749999999999927,-0.915,68.331,0.0148,-0.22515000000000002,-0.11599999999999966,100.0,1.0,1.0,210.69333333333333,0.0,0.0,0.0,0.0,0.0,0.0,0.0,8930.6,0.0,55.0,5.0,245.96666666666667,0.0,0.0,0.0,0.0,0.0,0.0,0.0,0.0,1.004999999999999,1.004999999999999,0.0,0.0,0.0,55.0,616.79921,10000.0,85.000001,85.000001,85.000001,85.000001,395.0,0.0,0.0,0.0,1.0,166.665,52.521,52.521,47.379,47.379,34.0,-23.485,23.774,-28.630000000000003,29.2725,0.0,1781.942,-0.19000000000000128,100.0,27.852,28.112000000000002,43.29,43.703,0.0,0.0,100.0,0.0,0.0,0.0,0.0,3121.142857142857,3035.0,4156.875,4069.0,305.51,305.0516666666667,314.74525,314.639,21.9754,20.6196,21.9833,21.500799999999998,314.999998,314.999998,324.999988,324.999988,99.55962857142858,99.5074,99.56847142857143,99.54847142857143,0.09100000000000019,-0.047666666666666746,-0.11083333333333334,0.121,-0.04333333333332945,-0.04124999999999801,1.4909999999999999,1.503,38.346000000000004,29.872666666666667,38.396,35.379999999999995,56.202,35.2565,59.9805,53.010999999999996,54.114999999999995,34.3585,58.5505,51.309,53.26,33.881,58.457499999999996,50.705666666666666,-0.09250000000000003,-0.0645,0.11851500000000001,0.10350500000000001,0.0,213.93,213.93,210.69333333333333,210.69333333333333,0.0,0.0
21,0.0,0.0,0.0,1.0,1.0,0.0,0.0,1.0,0.0,100.0,1.0,1.1856,26.0,0.0,0.0,0.0,55.000001,0.0,26.0,26.0,26.0,26.0,0.02774999999999994,0.274,-0.044500000000000005,292.633,-2.7269,-2.6564,-1.5727,-1.5264,-205.32,215.3825,190.552125,0.0,0.0,0.0,0.0,0.04249999999999998,-5.498166666666667,-5.498166666666667,-0.5735,-0.012333333333333335,0.004249999999999865,-0.6240000000000001,68.458,0.013800000000000002,-0.22510000000000002,-0.06200000000000028,100.0,1.0,1.0,211.2,0.0,0.0,0.0,0.0,0.0,0.0,0.0,8951.9,0.0,55.0,5.0,246.42000000000002,1.0,0.0,0.0,0.0,0.0,0.0,0.0,0.0,1.0530000000000008,1.0530000000000008,0.0,0.0,1.0,55.0,616.79921,10000.0,85.000001,85.000001,85.000001,85.000001,395.0,0.0,0.0,0.0,1.0,333.33500000000004,52.414,52.414,48.08,48.08,34.0,-24.5225,24.654,-27.509999999999998,27.3625,0.0,1781.893,-0.23999999999999844,100.0,27.867,27.968,42.975,43.329,0.0,0.0,100.0,0.0,0.0,0.0,0.0,3211.714285714286,3085.2,4047.25,4012.3,305.242,304.9363333333333,315.07025,314.9325,21.9844,20.6248,21.9931,21.5094,314.999998,314.999998,324.999988,324.999988,99.55964285714286,99.5074,99.5686,99.5486,0.08999999999999986,-0.03933333333333322,-0.10033333333333339,0.11783333333333323,-0.03833333333332689,-0.04749999999999943,1.5574999999999999,1.5675,38.402,29.90533333333333,38.457,35.4335,56.189,35.292500000000004,60.013,53.0655,54.102999999999994,34.391999999999996,58.5805,51.3615,53.247,33.913,58.485,50.757,-0.09650000000000003,-0.05750000000000011,0.10314000000000001,0.10703000000000001,0.0,214.32999999999998,214.34,211.2,211.2,0.0,0.0
22,0.0,0.0,0.0,1.0,1.0,0.0,0.0,1.0,0.0,100.0,1.0,1.1856,26.0,0.0,0.0,0.0,55.000001,0.0,26.0,26.0,26.0,26.0,0.010000000000000009,0.2902,-0.0018333333333333333,292.221,-2.7624,-2.6625,-1.6016,-1.5264,-201.82,215.375,190.528375,0.0,0.0,0.0,0.0,0.044533333333333314,-5.498166666666667,-5.498166666666667,-0.5585,0.07766666666666668,0.01287499999999997,1.027,68.596,0.0108,-0.200575,-0.22200000000000042,100.0,1.0,1.0,211.47,0.0,0.0,0.0,0.0,0.0,0.0,0.0,8963.5,0.0,55.0,5.0,246.91666666666666,0.0,0.0,0.0,0.0,0.0,0.0,0.0,0.0,1.1039999999999992,1.1039999999999992,0.0,0.0,0.0,55.0,616.79921,10000.0,85.000001,85.000001,85.000001,85.000001,395.0,0.0,0.0,0.0,1.0,333.33500000000004,52.49,52.49,47.226,47.226,34.0,-23.2525,25.79,-29.53666666666666,31.5475,0.0,1781.841,-0.3299999999999983,100.0,28.046,27.893,43.169,43.266,0.0,0.0,100.0,0.0,0.0,0.0,0.0,3058.857142857143,3173.5,4250.25,4395.9,305.584,304.867,314.515,314.072,21.9939,20.6304,22.0036,21.5185,314.999998,314.999998,324.999988,324.999988,99.55965714285715,99.5074,99.56874285714285,99.54875714285714,0.0987499999999999,-0.02733333333333321,-0.09283333333333332,0.1313333333333333,-0.04833333333333201,-0.045000000000001705,1.5045,1.49,38.462,29.939999999999998,38.522,35.491,56.176,35.331,60.05,53.1255,54.091,34.4275,58.615,51.4195,53.233999999999995,33.94733333333333,58.516,50.81366666666666,-0.10350000000000004,-0.0495000000000001,0.1078,0.10758500000000001,0.0,214.76999999999998,214.76,211.47,211.47,0.0,0.0
23,0.0,0.0,0.0,1.0,1.0,0.0,0.0,1.0,0.0,100.0,1.0,1.1856,26.0,0.0,0.0,0.0,55.000001,0.0,26.0,26.0,26.0,26.0,0.004874999999999963,0.2610000000000001,-0.008533333333333334,292.053,-2.6666,-2.6797,-1.6436000000000002,-1.5014,-198.32,215.3675,190.50475,0.0,0.0,0.0,0.0,0.046566666666666534,-5.498166666666667,-5.498166666666667,-0.5725,-0.23233333333333334,0.009874999999999856,-0.7030000000000001,68.731,0.0132,-0.2243,-0.16999999999999993,100.0,1.0,1.0,211.93333333333334,0.0,0.0,0.0,0.0,0.0,0.0,0.0,8983.1,0.0,55.0,5.0,247.40333333333334,1.0,0.0,0.0,0.0,0.0,0.0,0.0,0.0,1.1550000000000011,1.1550000000000011,0.0,0.0,1.0,55.0,616.79921,10000.0,85.000001,85.000001,85.000001,85.000001,395.0,0.0,0.0,0.0,1.0,166.665,51.926,51.926,47.516,47.516,34.0,-24.2,24.778,-30.523333333333333,28.635,0.0,1781.79,-0.3200000000000003,100.0,28.198,28.255,43.249,43.659,0.0,0.0,100.0,0.0,0.0,0.0,0.0,3252.4285714285716,3081.5,4239.125,4164.7,305.013,304.86033333333336,314.658,314.5515,22.0034,20.636,22.0142,21.5278,314.999998,314.999998,324.999988,324.999988,99.55967142857143,99.50741666666667,99.5689,99.5489,0.09525000000000006,-0.043333333333333224,-0.10649999999999993,0.11933333333333329,-0.03499999999999659,-0.05624999999999858,1.524,1.5065,38.521,29.97533333333333,38.589,35.549,56.163,35.37,60.0875,53.1865,54.078,34.463499999999996,58.65,51.4785,53.22,33.982,58.5475,50.87133333333333,-0.10449999999999993,-0.05750000000000011,0.10827500000000001,0.10161,0.0,215.16500000000002,215.17000000000002,211.93333333333334,211.93333333333334,0.0,0.0
24,0.0,0.0,0.0,1.0,1.0,0.0,0.0,1.0,0.0,100.0,1.0,1.1856,26.0,0.0,0.0,0.0,55.000001,0.0,26.0,26.0,26.0,26.0,0.033625000000000016,0.27249999999999996,-0.022433333333333336,292.45,-2.694,-2.66,-1.5525,-1.5527000000000002,-195.01999999999998,215.36,190.48225,0.0,0.0,0.0,0.0,0.04849999999999999,-5.498166666666667,-5.498166666666667,-0.5852,-0.33466666666666667,0.01862499999999989,-0.262,68.857,0.0151,-0.22357500000000002,-0.2060000000000004,100.0,1.0,1.0,212.32666666666665,0.0,0.0,0.0,0.0,0.0,0.0,0.0,8999.7,0.0,55.0,5.0,247.86,0.0,0.0,0.0,0.0,0.0,0.0,0.0,0.0,1.2029999999999994,1.2029999999999994,0.0,0.0,0.0,55.0,616.79921,10000.0,85.000001,85.000001,85.000001,85.000001,395.0,0.0,0.0,0.0,1.0,166.665,52.673,52.673,47.44,47.44,34.0,-22.53,23.728,-28.443333333333335,29.125,0.0,1781.743,-0.3049999999999997,100.0,28.001,28.043,43.215,43.588,0.0,0.0,100.0,0.0,0.0,0.0,0.0,3041.0,3006.2,4189.875,4121.1,305.7085,305.15766666666667,314.683,314.6215,22.0123,20.6412,22.024,21.5365,314.999998,314.999998,324.999988,324.999988,99.55968571428572,99.50741666666667,99.56902857142857,99.54904285714285,0.09575000000000022,-0.04600000000000004,-0.09650000000000003,0.12149999999999994,-0.060000000000002274,-0.04374999999999574,1.521,1.5115,38.577,30.007666666666665,38.65,35.603,56.150999999999996,35.405,60.121,53.2425,54.067,34.496,58.681,51.532,53.207,34.013333333333335,58.576,50.92366666666666,-0.10350000000000004,-0.05750000000000011,0.10567000000000001,0.10593500000000002,0.0,215.57,215.56,212.32666666666665,212.32666666666665,0.0,0.0
25,0.0,0.0,0.0,1.0,1.0,0.0,0.0,1.0,0.0,100.0,1.0,1.1856,26.0,0.0,0.0,0.0,55.000001,0.0,26.0,26.0,26.0,26.0,0.03275000000000006,0.25429999999999997,-0.016300000000000002,292.175,-2.6903,-2.6563,-1.5962,-1.5477,-191.3,215.35500000000002,190.4555,0.0,0.0,0.0,0.0,0.05066666666666653,-5.498166666666667,-5.498166666666667,-0.6014,0.15566666666666665,0.023749999999999938,-0.935,68.998,0.0173,-0.218725,-0.2599999999999998,100.0,1.0,1.0,212.81666666666666,0.0,0.0,0.0,0.0,0.0,0.0,0.0,9020.5,0.0,55.0,5.0,248.36666666666667,1.0,0.0,0.0,0.0,0.0,0.0,0.0,0.0,1.256999999999998,1.256999999999998,0.0,0.0,1.0,55.0,616.79921,10000.0,85.000001,85.000001,85.000001,85.000001,395.0,0.0,0.0,0.0,1.0,166.665,51.804,51.804,47.76,47.76,34.0,-24.48,26.43,-28.206666666666663,29.34,0.0,1781.688,-0.3200000000000003,100.0,27.983,28.273,42.992000000000004,43.391,0.0,0.0,100.0,0.0,0.0,0.0,0.0,3272.714285714286,3249.0,4085.75,4118.4,304.997,304.37033333333335,315.024,314.643,22.0223,20.6472,22.035,21.5462,314.999998,314.999998,324.999988,324.999988,99.55968571428572,99.50743333333334,99.56918571428571,99.5492,0.09724999999999984,-0.035666666666666735,-0.10033333333333339,0.1283333333333332,-0.041666666666671404,-0.05124999999999602,1.537,1.5195,38.638999999999996,30.045,38.719,35.6635,56.135999999999996,35.4465,60.1575,53.3045,54.053,34.5345,58.715,51.591499999999996,53.192,34.05,58.6065,50.982,-0.10599999999999998,-0.050000000000000044,0.11075000000000002,0.10632000000000001,0.0,216.005,216.01,212.81666666666666,212.81666666666666,0.0,0.0
26,0.0,0.0,0.0,1.0,1.0,0.0,0.0,1.0,0.0,100.0,1.0,1.1856,26.0,0.0,0.0,0.0,55.000001,0.0,26.0,26.0,26.0,26.0,0.04237500000000005,0.27090000000000014,0.05726666666666667,291.458,-2.717,-2.6496,-1.5579,-1.5507,-187.98000000000002,215.35000000000002,190.4315,0.0,0.0,0.0,0.0,0.05256666666666654,-5.498166666666667,-5.498166666666667,-0.5746,0.352,0.0129999999999999,-0.6360000000000001,69.126,0.0173,-0.2019,-0.21399999999999952,100.0,1.0,1.0,213.0,0.0,0.0,0.0,0.0,0.0,0.0,0.0,9028.2,0.0,55.0,5.0,248.82666666666665,0.0,0.0,0.0,0.0,0.0,0.0,0.0,0.0,1.3049999999999997,1.3049999999999997,0.0,0.0,0.0,55.0,616.79921,10000.0,85.000001,85.000001,85.000001,85.000001,395.0,0.0,0.0,0.0,1.0,166.665,51.757999999999996,51.757999999999996,46.707,46.707,34.0,-24.31,24.222,-30.450000000000003,32.9225,0.0,1781.642,-0.36499999999999844,100.0,28.564,28.639,43.417,43.797,0.0,0.0,100.0,0.0,0.0,0.0,0.0,3253.857142857143,3051.4,4456.0,4456.2,305.1405,305.06333333333333,314.05925,313.799,22.0313,20.6526,22.045,21.555,314.999998,314.999998,324.999988,324.999988,99.55971428571429,99.50743333333334,99.56932857142857,99.54932857142857,0.10075000000000012,-0.04066666666666663,-0.08633333333333337,0.13149999999999995,-0.04333333333332945,-0.048749999999998295,1.452,1.435,38.696,30.079,38.781,35.7185,56.126999999999995,35.484,60.1935,53.3625,54.043,34.569,58.7485,51.647999999999996,53.182,34.083333333333336,58.637,51.037333333333336,-0.11249999999999993,-0.05600000000000005,0.10515500000000001,0.10895,0.0,216.41500000000002,216.435,213.0,213.0,0.0,0.0
27,0.0,0.0,0.0,1.0,1.0,0.0,0.0,1.0,0.0,100.0,1.0,1.1856,26.0,0.0,0.0,0.0,55.000001,0.0,26.0,26.0,26.0,26.0,0.03962500000000002,0.24940000000000007,-0.04186666666666667,291.87,-2.7601,-2.6619,-1.6171,-1.5335,-184.66,215.345,190.40825,0.0,0.0,0.0,0.0,0.05449999999999999,-5.498166666666667,-5.498166666666667,-0.5957,-0.8153333333333334,0.02112500000000006,-0.5880000000000001,69.25,0.0167,-0.236275,-0.25200000000000067,100.0,1.0,1.0,213.50666666666666,0.0,0.0,0.0,0.0,0.0,0.0,0.0,9049.8,0.0,55.0,5.0,249.27333333333334,1.0,0.0,0.0,0.0,0.0,0.0,0.0,0.0,1.352999999999998,1.352999999999998,0.0,0.0,1.0,55.0,616.79921,10000.0,85.000001,85.000001,85.000001,85.000001,395.0,0.0,0.0,0.0,1.0,166.665,52.002,52.002,46.799,46.799,34.0,-23.5625,25.132,-29.46,28.9925,0.0,1781.593,-0.41999999999999815,100.0,28.258,28.62,43.841,44.147000000000006,0.0,0.0,100.0,0.0,0.0,0.0,0.0,3144.0,3118.5,4167.5,4093.3,305.516,304.7683333333333,314.796,314.75,22.0402,20.6579,22.055,21.5638,314.999998,314.999998,324.999988,324.999988,99.55971428571429,99.50743333333334,99.56947142857143,99.54947142857142,0.10400000000000009,-0.038999999999999924,-0.10316666666666663,0.12916666666666687,-0.060000000000002274,-0.042499999999996874,1.5165,1.5025,38.751000000000005,30.112333333333332,38.843,35.7735,56.114000000000004,35.5205,60.229,53.42,54.031,34.603,58.782,51.7035,53.169,34.11566666666667,58.667500000000004,51.09133333333333,-0.11199999999999999,-0.05049999999999999,0.11013500000000001,0.10605,0.0,216.76999999999998,216.76,213.50666666666666,213.50666666666666,0.0,0.0
28,0.0,0.0,0.0,1.0,1.0,0.0,0.0,1.0,0.0,100.0,1.0,1.1856,26.0,0.0,0.0,0.0,55.000001,0.0,26.0,26.0,26.0,26.0,0.03037500000000004,0.27090000000000014,-0.03426666666666667,291.977,-2.6872,-2.6518,-1.63,-1.562,-181.13,215.34,190.382875,0.0,0.0,0.0,0.0,0.05656666666666654,-5.498166666666667,-5.498166666666667,-0.6021000000000001,0.5416666666666666,0.011125000000000052,0.29899999999999993,69.38,0.0176,-0.2174,-0.38399999999999945,100.0,1.0,1.0,213.99,0.0,0.0,0.0,0.0,0.0,0.0,0.0,9070.3,0.0,55.0,5.0,249.74333333333334,0.0,0.0,0.0,0.0,0.0,0.0,0.0,0.0,1.404,1.404,0.0,0.0,0.0,55.0,616.79921,10000.0,85.000001,85.000001,85.000001,85.000001,395.0,0.0,0.0,0.0,1.0,166.665,51.894999999999996,51.894999999999996,47.379,47.379,34.0,-21.86,26.278,-28.15,30.395,0.0,1781.542,-0.46000000000000085,100.0,28.53,28.463,43.411,43.731,0.0,0.0,100.0,0.0,0.0,0.0,0.0,3060.714285714286,3212.3,4099.125,4147.0,305.4775,304.668,314.98525,314.66525,22.049599999999998,20.6637,22.0652,21.5729,314.999998,314.999998,324.999988,324.999988,99.55974285714285,99.50745,99.56961428571428,99.54962857142857,0.11900000000000022,-0.025333333333333208,-0.08866666666666656,0.14466666666666672,-0.01666666666666572,-0.03999999999999915,1.5514999999999999,1.545,38.81,30.148,38.908,35.831,56.102999999999994,35.56,60.262,53.478,54.019999999999996,34.6395,58.812,51.759,53.157,34.150666666666666,58.6945,51.14566666666666,-0.11949999999999994,-0.05049999999999999,0.11227000000000001,0.10706500000000001,0.0,217.16500000000002,217.185,213.99,213.99,0.0,0.0
29,0.0,0.0,0.0,1.0,1.0,0.0,0.0,1.0,0.0,100.0,1.0,1.1856,26.0,0.0,0.0,0.0,55.000001,0.0,26.0,26.0,26.0,26.0,0.050999999999999934,0.25229999999999997,-0.018500000000000003,291.84,-2.7596,-2.7092,-1.5747,-1.5439,-177.57999999999998,215.3375,190.3565,0.0,0.0,0.0,0.0,0.058633333333333315,-5.498166666666667,-5.498166666666667,-0.6037,-0.6933333333333334,0.002874999999999961,-0.7890000000000001,69.514,0.0211,-0.2142,-0.36799999999999944,100.0,1.0,1.0,214.25,0.0,0.0,0.0,0.0,0.0,0.0,0.0,9081.3,0.0,55.0,5.0,250.22333333333336,1.0,0.0,0.0,0.0,0.0,0.0,0.0,0.0,1.4549999999999983,1.4549999999999983,0.0,0.0,1.0,55.0,616.79921,10000.0,85.000001,85.000001,85.000001,85.000001,395.0,0.0,0.0,0.0,1.0,166.665,52.382999999999996,52.382999999999996,46.768,46.768,34.0,-23.4625,24.71,-29.136666666666663,31.1825,0.0,1781.491,-0.48499999999999943,100.0,28.073,28.439,43.775,44.135000000000005,0.0,0.0,100.0,0.0,0.0,0.0,0.0,3165.285714285714,2998.9,4212.25,4266.3,305.605,305.1046666666667,314.6315,314.24875,22.0589,20.6693,22.0758,21.5823,314.999998,314.999998,324.999988,324.999988,99.55974285714285,99.50745,99.56975714285714,99.54977142857143,0.10650000000000004,-0.033333333333333215,-0.09599999999999997,0.13349999999999995,-0.03999999999999915,-0.03750000000000142,1.476,1.461,38.867999999999995,30.183,38.974000000000004,35.8895,56.089,35.597,60.3005,53.539,54.007,34.674,58.848,51.818,53.143,34.18366666666667,58.727000000000004,51.203,-0.118,-0.040000000000000036,0.10974,0.10355,0.0,217.585,217.60500000000002,214.25,214.25,0.0,0.0
30,0.0,0.0,0.0,1.0,1.0,0.0,0.0,1.0,0.0,100.0,1.0,1.1856,26.0,0.0,0.0,0.0,55.000001,0.0,26.0,26.0,26.0,26.0,0.0747500000000001,0.2431000000000001,-0.008066666666666668,291.229,-2.6391999999999998,-2.7151,-1.6427,-1.5972,-174.24,215.3375,190.331625,0.0,0.0,0.0,0.0,0.060566666666666547,-5.498166666666667,-5.498166666666667,-0.6078,0.7473333333333334,0.00649999999999995,-0.373,69.635,0.025,-0.218375,-0.4500000000000002,100.0,1.0,1.0,214.75333333333333,0.0,0.0,0.0,0.0,0.0,0.0,0.0,9102.6,0.0,55.0,5.0,250.66,0.0,0.0,0.0,0.0,0.0,0.0,1.0,0.0,1.5030000000000001,1.5030000000000001,0.0,0.0,0.0,55.0,616.79921,10000.0,85.000001,85.000001,85.000001,85.000001,395.0,0.0,0.0,0.0,1.0,166.665,50.522,50.522,47.195,47.195,34.0,-24.5925,28.602,-29.003333333333337,30.1075,0.0,1781.443,-0.46499999999999986,100.0,28.983,29.047,43.511,44.04,0.0,0.0,100.0,0.0,0.0,0.0,0.0,3464.857142857143,3367.8,4194.875,4055.0,304.514,303.98,314.893,314.77475,22.0679,20.6748,22.0856,21.591,314.999998,314.999998,324.999988,324.999988,99.55977142857142,99.50745,99.5699,99.54991428571428,0.11649999999999983,-0.02633333333333332,-0.08833333333333337,0.13949999999999996,-0.054999999999999716,-0.04749999999999943,1.5345,1.5145,38.924,30.217666666666666,39.035,35.944,56.081,35.6355,60.332,53.594,54.0,34.7095,58.8775,51.871,53.134,34.218,58.7535,51.254999999999995,-0.12449999999999994,-0.04600000000000004,0.106255,0.104315,0.0,217.98000000000002,218.01,214.75333333333333,214.75333333333333,0.0,0.0
31,0.0,0.0,0.0,1.0,1.0,0.0,0.0,1.0,0.0,100.0,1.0,1.1856,26.0,0.0,0.0,0.0,55.000001,0.0,26.0,26.0,26.0,26.0,0.044875,0.25270000000000015,0.066,290.695,-2.7779,-2.6186,-1.6505,-1.5371000000000001,-170.69,215.335,190.30575,0.0,0.0,0.0,0.0,0.06263333333333332,-5.498166666666667,-5.498166666666667,-0.5863,-0.34700000000000003,0.023125000000000062,0.958,69.769,0.029500000000000002,-0.21875,-0.4660000000000002,100.0,1.0,1.0,214.91666666666669,0.0,0.0,0.0,0.0,0.0,0.0,0.0,9109.6,0.0,55.0,5.0,251.14333333333335,1.0,0.0,0.0,0.0,0.0,0.0,1.0,0.0,1.5539999999999985,1.5539999999999985,0.0,0.0,1.0,55.0,616.79921,10000.0,85.000001,85.000001,85.000001,85.000001,395.0,0.0,0.0,0.0,1.0,333.33500000000004,51.102000000000004,51.102000000000004,45.578,45.578,34.0,-23.0175,27.836,-30.273333333333333,34.1075,0.0,1781.391,-0.4549999999999983,100.0,29.012999999999998,29.092,44.354,44.731,0.0,0.0,100.0,0.0,0.0,0.0,0.0,3120.142857142857,3388.0,4347.0,4493.9,305.407,304.21566666666666,314.2055,313.70225,22.0772,20.6807,22.0963,21.6005,314.999998,314.999998,324.999988,324.999988,99.55977142857142,99.50746666666667,99.57005714285714,99.55007142857143,0.121,-0.01866666666666661,-0.0698333333333333,0.14650000000000007,-0.03333333333333144,-0.06125000000000114,1.4355,1.405,38.983000000000004,30.254333333333335,39.102000000000004,36.0035,56.07,35.6755,60.3715,53.658,53.989000000000004,34.7465,58.914500000000004,51.9325,53.123000000000005,34.25366666666667,58.787,51.315333333333335,-0.118,-0.04600000000000004,0.10888,0.10621000000000001,0.0,218.365,218.41,214.91666666666669,214.91666666666669,0.0,0.0
32,0.0,0.0,0.0,1.0,1.0,0.0,0.0,1.0,0.0,100.0,1.0,1.1856,26.0,0.0,0.0,0.0,55.000001,0.0,26.0,26.0,26.0,26.0,0.0645,0.2603,-0.012733333333333333,291.321,-2.7087,-2.6724,-1.5953,-1.613,-167.13,215.3375,190.28025,0.0,0.0,0.0,0.0,0.06469999999999998,-5.498166666666667,-5.498166666666667,-0.6062000000000001,-0.33166666666666667,0.0016249999999999876,-1.0390000000000001,69.896,0.032600000000000004,-0.23292500000000002,-0.4579999999999993,100.0,1.0,1.0,215.4766666666667,0.0,0.0,0.0,0.0,0.0,0.0,0.0,9133.3,0.0,55.0,5.0,251.60000000000002,0.0,0.0,0.0,0.0,0.0,0.0,1.0,0.0,1.6050000000000004,1.6050000000000004,0.0,0.0,0.0,55.0,616.79921,10000.0,85.000001,85.000001,85.000001,85.000001,395.0,0.0,0.0,0.0,1.0,166.665,51.575,51.575,46.616,46.616,34.0,-22.4425,25.768,-27.863333333333337,31.845,0.0,1781.341,-0.46000000000000085,100.0,28.675,29.152,44.1,44.724000000000004,0.0,0.0,100.0,0.0,0.0,0.0,0.0,3158.714285714286,3094.1,4129.125,4214.0,305.401,304.866,314.851,314.37725,22.0865,20.6865,22.1067,21.6099,314.999998,314.999998,324.999988,324.999988,99.5598,99.50746666666667,99.5702,99.55021428571429,0.12375000000000025,-0.020333333333333314,-0.08283333333333331,0.13983333333333325,-0.03166666666666629,-0.048749999999998295,1.5205,1.5045,39.041,30.290333333333333,39.167,36.0615,56.058,35.7145,60.4065,53.7175,53.977999999999994,34.7825,58.9465,51.9895,53.11,34.288333333333334,58.816,51.371,-0.11849999999999994,-0.04499999999999993,0.11402500000000002,0.099445,0.0,218.755,218.78,215.4766666666667,215.4766666666667,0.0,0.0
33,0.0,0.0,0.0,1.0,1.0,0.0,0.0,1.0,0.0,100.0,1.0,1.1856,26.0,0.0,0.0,0.0,55.000001,0.0,26.0,26.0,26.0,26.0,0.07262499999999994,0.24890000000000012,-0.0555,291.611,-2.7395,-2.6837,-1.5989,-1.5791,-163.76999999999998,215.3375,190.25525,0.0,0.0,0.0,0.0,0.06666666666666654,-5.498166666666667,-5.498166666666667,-0.6157,-0.23666666666666666,0.0006249999999998757,-0.17799999999999994,70.017,0.0332,-0.21732500000000002,-0.4039999999999999,100.0,1.0,1.0,215.87,0.0,0.0,0.0,0.0,0.0,0.0,0.0,9149.9,0.0,55.0,5.0,252.03333333333336,1.0,0.0,0.0,0.0,0.0,0.0,1.0,0.0,1.6529999999999987,1.6529999999999987,0.0,0.0,1.0,55.0,616.79921,10000.0,85.000001,85.000001,85.000001,85.000001,395.0,0.0,0.0,0.0,1.0,333.33500000000004,51.819,51.819,46.951,46.951,34.0,-22.825,25.166,-27.276666666666664,31.545,0.0,1781.292,-0.4750000000000014,100.0,28.531,28.881999999999998,43.893,44.441,0.0,0.0,100.0,0.0,0.0,0.0,0.0,3168.142857142857,3040.5,4119.375,4182.8,305.424,305.04266666666666,314.91925,314.53725,22.0952,20.6918,22.1165,21.6186,314.999998,314.999998,324.999988,324.999988,99.55981428571428,99.50746666666667,99.57034285714286,99.55035714285714,0.12250000000000005,-0.02499999999999991,-0.07333333333333336,0.1503333333333332,-0.061666666666667425,-0.030000000000001137,1.5215,1.501,39.095,30.323666666666668,39.227999999999994,36.116,56.047,35.7495,60.4385,53.772,53.967,34.815,58.9765,52.042,53.098,34.31933333333333,58.843,51.422,-0.11949999999999994,-0.045500000000000096,0.100635,0.10548,0.0,219.15,219.15,215.87,215.87,0.0,0.0
34,0.0,0.0,0.0,1.0,1.0,0.0,0.0,1.0,0.0,100.0,1.0,1.1856,26.0,0.0,0.0,0.0,55.000001,0.0,26.0,26.0,26.0,26.0,0.044624999999999915,0.25450000000000017,-0.09093333333333334,291.885,-2.6705,-2.6694,-1.6307,-1.5207000000000002,-160.2,215.3425,190.22725,0.0,0.0,0.0,0.0,0.06873333333333331,-5.498166666666667,-5.498166666666667,-0.6416000000000001,-0.8236666666666667,0.02024999999999988,0.8140000000000001,70.146,0.0358,-0.22205,-0.5120000000000005,100.0,1.0,1.0,216.21333333333334,0.0,0.0,0.0,0.0,0.0,0.0,0.0,9164.5,0.0,55.0,5.0,252.5,0.0,0.0,0.0,0.0,0.0,0.0,1.0,0.0,1.7040000000000006,1.7040000000000006,0.0,0.0,0.0,55.0,616.79921,10000.0,85.000001,85.000001,85.000001,85.000001,395.0,0.0,0.0,0.0,1.0,166.665,52.429,52.429,47.134,47.134,34.0,-20.38,25.142,-27.613333333333337,31.267500000000002,0.0,1781.243,-0.4750000000000014,100.0,28.367,28.457,43.809,44.384,0.0,0.0,100.0,0.0,0.0,0.0,0.0,2961.0,3018.4,4102.5,4280.2,305.861,305.206,314.92775,314.39275,22.1044,20.697400000000002,22.1269,21.6279,314.999998,314.999998,324.999988,324.999988,99.55982857142857,99.50748333333334,99.57048571428571,99.55051428571429,0.12950000000000017,-0.014000000000000012,-0.07299999999999995,0.14566666666666683,-0.046666666666666856,-0.04625000000000057,1.5215,1.4925,39.152,30.358666666666664,39.293,36.1745,56.034,35.7855,60.4725,53.832,53.955,34.8485,59.007999999999996,52.1,53.085,34.351333333333336,58.871,51.479,-0.12149999999999994,-0.040000000000000036,0.10327000000000001,0.10558500000000001,0.0,219.515,219.54000000000002,216.21333333333334,216.21333333333334,0.0,0.0
35,0.0,0.0,0.0,1.0,1.0,0.0,0.0,1.0,0.0,100.0,1.0,1.1856,26.0,0.0,0.0,0.0,55.000001,0.0,26.0,26.0,26.0,26.0,0.06150000000000011,0.24960000000000004,-0.05973333333333334,291.794,-2.8109,-2.6444,-1.5453000000000001,-1.5741,-156.61,215.3475,190.197375,0.0,0.0,0.0,0.0,0.07079999999999997,-5.498166666666667,-5.498166666666667,-0.6782,-0.04933333333333334,0.0036249999999999893,-1.2640000000000002,70.272,0.0381,-0.226725,-0.38399999999999945,100.0,1.0,1.0,216.70333333333332,0.0,0.0,0.0,0.0,0.0,0.0,0.0,9185.2,0.0,55.0,5.0,252.95333333333335,1.0,0.0,0.0,0.0,0.0,0.0,1.0,0.0,1.754999999999999,1.754999999999999,0.0,0.0,1.0,55.0,616.79921,10000.0,85.000001,85.000001,85.000001,85.000001,395.0,0.0,0.0,0.0,1.0,166.665,51.650999999999996,51.650999999999996,46.936,46.936,34.0,-24.02,26.988,-25.976666666666667,29.9325,0.0,1781.191,-0.28000000000000114,100.0,28.105,28.911,43.493,44.001000000000005,0.0,0.0,100.0,0.0,0.0,0.0,0.0,3181.5714285714284,3290.4,4095.75,4035.5,305.351,304.26533333333333,315.0415,314.9795,22.1135,20.7032,22.1372,21.6371,314.999998,314.999998,324.999988,324.999988,99.55984285714285,99.50748333333334,99.57062857142857,99.55065714285715,0.11474999999999991,-0.02966666666666673,-0.07050000000000001,0.15216666666666678,-0.045000000000001705,-0.05624999999999858,1.563,1.544,39.209,30.395333333333333,39.358000000000004,36.232,56.021,35.825,60.5055,53.888,53.942,34.885,59.0385,52.153999999999996,53.071,34.38633333333333,58.8985,51.531666666666666,-0.10849999999999993,-0.0605,0.10493000000000001,0.10603000000000001,0.0,219.925,219.95499999999998,216.70333333333335,216.70333333333332,0.0,0.0
36,0.0,0.0,0.0,1.0,1.0,0.0,0.0,1.0,0.0,100.0,1.0,1.1856,26.0,0.0,0.0,0.0,55.000001,0.0,26.0,26.0,26.0,26.0,0.05025000000000013,0.25429999999999997,0.019233333333333335,291.153,-2.6579,-2.7065,-1.6532,-1.5876000000000001,-153.24,215.35250000000002,190.168125,0.0,0.0,0.0,0.0,0.07276666666666654,-5.498166666666667,-5.498166666666667,-0.6617000000000001,0.08333333333333333,-0.039000000000000146,-1.396,70.395,0.0298,-0.20450000000000002,-0.1899999999999995,100.0,1.0,1.0,216.86666666666667,0.0,0.0,0.0,0.0,0.0,0.0,0.0,9192.1,0.0,55.0,5.0,253.39333333333335,0.0,0.0,0.0,0.0,0.0,0.0,1.0,0.0,1.8030000000000008,1.8030000000000008,0.0,0.0,0.0,55.0,616.79921,10000.0,85.000001,85.000001,85.000001,85.000001,395.0,0.0,0.0,0.0,1.0,166.665,51.712,51.712,46.356,46.356,34.0,-21.8525,25.006,-31.833333333333336,33.3875,0.0,1781.144,-0.28999999999999915,100.0,28.7,28.921,43.724000000000004,44.333,0.0,0.0,100.0,0.0,0.0,0.0,0.0,3117.857142857143,3026.3,4453.125,4411.4,305.376,304.977,314.13975,313.95475,22.1223,20.7087,22.147100000000002,21.646,314.999998,314.999998,324.999988,324.999988,99.55985714285714,99.50748333333334,99.57077142857143,99.5508,0.12274999999999991,-0.03400000000000003,-0.08583333333333332,0.13683333333333336,-0.04333333333332945,-0.042499999999996874,1.4515,1.437,39.263999999999996,30.429666666666666,39.419,36.2875,56.010999999999996,35.862,60.539,53.945499999999996,53.932,34.919,59.07,52.2095,53.06,34.419333333333334,58.9265,51.58566666666667,-0.11199999999999999,-0.06150000000000011,0.10627,0.10143,0.0,220.34,220.34,216.86666666666667,216.86666666666667,0.0,0.0
