,ABS Active,ABS Enabled,AID Allow Tire Blankets,AID Auto Blip,AID Auto Clutch,AID Auto Shift,AID Fuel Rate,AID Ideal Line,AID Mech Damage,AID Stability,AID Tire Wear Rate,Air Density,Air Temp,Ballast,Best Lap Delta,Best Lap Time,Brake Bias,Brake Pos,Brake Temp FL,Brake Temp FR,Brake Temp RL,Brake Temp RR,CG Accel Lateral,CG Accel Longitudinal,CG Accel Vertical,CG Height,Camber FL,Camber FR,Camber RL,Camber RR,Car Coord X,Car Coord Y,Car Coord Z,Car Damage Front,Car Damage Left,Car Damage Rear,Car Damage Right,Car Pos Norm,Caster FL,Caster FR,Chassis Pitch Angle,Chassis Pitch Rate,Chassis Roll Angle,Chassis Roll Rate,Chassis Velocity X,Chassis Velocity Y,Chassis Velocity Z,Chassis Yaw Rate,Clutch Pos,DRS Active,DRS Available,Drive Train Speed,ERS Heat Charging,ERS Is Charging,ERS Max Energy,ERS Power Level,ERS Recovery Level,Engine Brake Setting,Engine Limiter,Engine RPM,Flags,Fuel Level,Gear,Ground Speed,HR Sample Clock,In Pit,KERS Charge,KERS Deployed Energy,KERS Input,KERS Max Energy,LR Sample Clock,Lap Invalidated,Lap Time,Lap Time2,Last Lap Time,Last Sector Time,MR Sample Clock,Max Fuel,Max Power,Max RPM,Max Sus Travel FL,Max Sus Travel FR,Max Sus Travel RL,Max Sus Travel RR,Max Torque,Max Turbo Boost,Num Tires Off Track,Penalties Enabled,Position,Raw Data Sample Rate,Ride Height FL,Ride Height FR,Ride Height RL,Ride Height RR,Road Temp,Self Align Torque FL,Self Align Torque FR,Self Align Torque RL,Self Align Torque RR,Session Lap Count,Session Time Left,Steering Angle,Surface Grip,Suspension Travel FL,Suspension Travel FR,Suspension Travel RL,Suspension Travel RR,TC Active,TC Enabled,Throttle Pos,Tire Dirt Level FL,Tire Dirt Level FR,Tire Dirt Level RL,Tire Dirt Level RR,Tire Load FL,Tire Load FR,Tire Load RL,Tire Load RR,Tire Loaded Radius FL,Tire Loaded Radius FR,Tire Loaded Radius RL,Tire Loaded Radius RR,Tire Pressure FL,Tire Pressure FR,Tire Pressure RL,Tire Pressure RR,Tire Radius FL,Tire Radius FR,Tire Radius RL,Tire Radius RR,Tire Rubber Grip FL,Tire Rubber Grip FR,Tire Rubber Grip RL,Tire Rubber Grip RR,Tire Slip Angle FL,Tire Slip Angle FR,Tire Slip Angle RL,Tire Slip Angle RR,Tire Slip Ratio FL,Tire Slip Ratio FR,Tire Slip Ratio RL,Tire Slip Ratio RR,Tire Temp Core FL,Tire Temp Core FR,Tire Temp Core RL,Tire Temp Core RR,Tire Temp Inner FL,Tire Temp Inner FR,Tire Temp Inner RL,Tire Temp Inner RR,Tire Temp Middle FL,Tire Temp Middle FR,Tire Temp Middle RL,Tire Temp Middle RR,Tire Temp Outer FL,Tire Temp Outer FR,Tire Temp Outer RL,Tire Temp Outer RR,Toe In FL,Toe In FR,Toe In RL,Toe In RR,Turbo Boost,Wheel Angular Speed FL,Wheel Angular Speed FR,Wheel Angular Speed RL,Wheel Angular Speed RR,Wind Direction,Wind Speed
0,0.0,0.0,0.0,1.0,1.0,0.0,0.0,1.0,0.0,100.0,1.0,1.1856,26.0,0.0,0.0,0.0,55.0,0.0,26.0,26.0,26.0,26.0,-0.04125000000000001,0.2986,0.084,293.533,-2.74135,-2.4791,-1.528,-1.5131999999999999,-275.66,215.72750000000002,190.9875,0.0,0.0,0.0,0.0,0.0016,-5.498166666666667,-5.498166666666667,-0.5537000000000001,1.8943333333333334,-0.00633333333333308,-0.17999999999999994,65.473,-0.0383,-0.21652500000000002,0.3420000000000005,100.0,1.0,1.0,202.12666666666667,0.0,0.0,0.0,0.0,0.0,0.0,0.0,8567.4,0.0,55.0,5.0,235.67000000000002,0.0,0.0,0.0,0.0,0.0,0.0,0.0,0.0,0.0030000000000001137,0.0030000000000001137,0.0,0.0,0.0,55.0,616.79921,10000.0,85.0,85.0,85.0,85.0,395.0,0.0,0.0,0.0,1.0,20.0,51.575,51.575,48.95,48.95,34.0,-28.4825,27.155,-29.33,25.975,0.0,1783.306,0.4250000000000007,100.0,27.173000000000002,26.927,40.391,40.045,0.0,0.0,100.0,0.0,0.0,0.0,0.0,3208.75,3967.0,4086.0,4113.5,304.9935,302.005,314.89775,314.6545,21.7841,20.5125,21.7867,21.328,314.99999,314.99999,324.99998,324.99998,99.55941428571428,99.50713333333333,99.56578571428571,99.54577142857143,0.00633333333333308,-0.10499999999999998,-0.14300000000000002,0.07966666666666668,-0.030000000000001137,-0.04333333333332945,1.5603333333333333,1.5605,37.150999999999996,29.203,37.167,34.3005,56.445,34.449,59.2495,51.823499999999996,54.349999999999994,33.6145,57.868,50.1725,53.513999999999996,33.1695,57.829499999999996,49.5955,-0.04349999999999998,-0.10200000000000009,0.09589,0.11452000000000001,0.0,205.17000000000002,205.135,202.12666666666667,202.12666666666667,0.0,0.0
1,0.0,0.0,0.0,1.0,1.0,0.0,0.0,1.0,0.0,100.0,1.0,1.1856,26.0,0.0,0.0,0.0,55.000001,0.0,26.0,26.0,26.0,26.0,-0.085125,0.3236000000000001,0.22516666666666665,292.801,-2.65225,-2.71215,-1.5413000000000001,-1.3777,-272.32,215.7425,190.967625,0.0,0.0,0.0,0.0,0.0035333333333333336,-5.498166666666667,-5.498166666666667,-0.4792,-1.3676666666666666,-0.056111111111111445,-0.5509999999999999,65.63,-0.0409,-0.1812,0.9740000000000002,100.0,1.0,1.0,202.09,0.0,0.0,0.0,0.0,0.0,0.0,0.0,8565.9,0.0,55.0,5.0,236.23666666666668,1.0,0.0,0.0,0.0,0.0,0.0,0.0,0.0,0.053999999999998494,0.053999999999998494,0.0,0.0,1.0,55.0,616.79921,10000.0,85.000001,85.000001,85.000001,85.000001,395.0,0.0,0.0,0.0,1.0,166.665,54.367,54.367,47.836,47.836,34.0,-24.7225,16.488333333333333,-37.88333333333333,30.7975,0.0,1783.255,0.6099999999999994,100.0,27.274,26.856,42.271,42.354,0.0,0.0,100.0,0.0,0.0,0.0,0.0,2947.125,2449.7,4714.625,5122.8,305.9175,306.98766666666666,313.249,311.8465,21.794,20.5175,21.7976,21.3374,314.999998,314.999998,324.999988,324.999988,99.55941428571428,99.50715,99.56594285714286,99.54591428571429,0.010000000000000231,-0.1206666666666667,-0.16566666666666666,0.049833333333333334,-0.05833333333333002,-0.046666666666666856,1.322,1.3255,37.212,29.234333333333332,37.235,34.3585,56.427,34.488,59.2965,51.8915,54.333,33.6505,57.9125,50.2375,53.495999999999995,33.204499999999996,57.8705,49.659,-0.03049999999999997,-0.12400000000000011,0.10654500000000001,0.11017500000000001,0.0,205.64,205.55,202.09,202.09,0.0,0.0
2,0.0,0.0,0.0,1.0,1.0,0.0,0.0,1.0,0.0,100.0,1.0,1.1856,26.0,0.0,0.0,0.0,55.000001,0.0,26.0,26.0,26.0,26.0,-0.13112499999999994,0.28380000000000005,-0.09426666666666667,294.174,-2.62105,-2.6764,-1.5167000000000002,-1.5278,-268.97,215.755,190.948875,0.0,0.0,0.0,0.0,0.0055000000000000005,-5.498166666666667,-5.498166666666667,-0.5708,0.4586666666666668,-0.02400000000000002,2.621,65.767,-0.0516,-0.267525,1.1959999999999997,100.0,1.0,1.0,203.42333333333335,0.0,0.0,0.0,0.0,0.0,0.0,0.0,8622.3,0.0,55.0,5.0,236.73000000000002,0.0,0.0,0.0,0.0,0.0,0.0,0.0,0.0,0.10500000000000043,0.10500000000000043,0.0,0.0,0.0,55.0,616.79921,10000.0,85.000001,85.000001,85.000001,85.000001,395.0,0.0,0.0,0.0,1.0,333.33500000000004,52.399,52.399,50.980000000000004,50.980000000000004,34.0,-28.9725,20.538333333333334,-25.769999999999996,18.51,0.0,1783.201,0.7349999999999994,100.0,28.119,26.956,41.917,41.307,0.0,0.0,100.0,0.0,0.0,0.0,0.0,3294.125,3075.6,3535.125,3374.6,304.6415,305.0106666666667,316.20025,316.53675,21.8041,20.5226,21.808,21.3459,314.999998,314.999998,324.999988,324.999988,99.55941428571428,99.50718333333333,99.56607142857143,99.54604285714285,-0.0076666666666667105,-0.1363333333333332,-0.18933333333333335,0.04633333333333334,-0.03499999999999659,-0.07833333333332604,1.7323333333333335,1.7810000000000001,37.275999999999996,29.266,37.3,34.412,56.413,34.528,59.3315,51.941,54.32,33.6875,57.945,50.2855,53.482,33.2395,57.9005,49.706,-0.02100000000000002,-0.12749999999999995,0.10729000000000001,0.107115,0.0,206.05,205.995,203.42333333333335,203.42333333333335,0.0,0.0
3,0.0,0.0,0.0,1.0,1.0,0.0,0.0,1.0,0.0,100.0,1.0,1.1856,26.0,0.0,0.0,0.0,55.000001,0.0,26.0,26.0,26.0,26.0,-0.11099999999999999,0.2921,-0.02776666666666667,293.32,-2.6473,-2.7042,-1.5037,-1.5796000000000001,-265.61,215.765,190.9285,0.0,0.0,0.0,0.0,0.0074333333333333335,-5.498166666666667,-5.498166666666667,-0.5017,0.4930000000000001,-0.013777777777777889,-2.0540000000000003,65.923,-0.0673,-0.188025,1.097999999999999,100.0,1.0,1.0,203.31333333333333,0.0,0.0,0.0,0.0,0.0,0.0,0.0,8617.8,0.0,55.0,5.0,237.29000000000002,1.0,0.0,0.0,0.0,0.0,0.0,0.0,0.0,0.1559999999999988,0.1559999999999988,0.0,0.0,1.0,55.0,616.79921,10000.0,85.000001,85.000001,85.000001,85.000001,395.0,0.0,0.0,0.0,1.0,166.665,53.543,53.543,47.852000000000004,47.852000000000004,34.0,-26.02,18.168333333333333,-35.75,25.475,0.0,1783.152,0.8550000000000004,100.0,27.64,27.165,42.099000000000004,41.677,0.0,0.0,100.0,0.0,0.0,0.0,0.0,2965.125,2803.1,4520.125,4199.1,305.928,305.71666666666664,313.85125,314.38475,21.8139,20.5278,21.8184,21.3549,314.999998,314.999998,324.999988,324.999988,99.55941428571428,99.5072,99.56622857142857,99.5462,-0.021666666666666723,-0.15266666666666673,-0.18483333333333335,0.033666666666666664,-0.041666666666671404,-0.05666666666667197,1.4406666666666668,1.4935,37.337,29.298666666666666,37.364999999999995,34.468,56.394999999999996,34.571,59.371,52.0055,54.303,33.727000000000004,57.9815,50.347,53.464,33.278,57.9345,49.766999999999996,-0.014499999999999957,-0.137,0.10432000000000001,0.10669500000000001,0.0,206.585,206.485,203.31333333333333,203.31333333333333,0.0,0.0
4,0.0,0.0,0.0,1.0,1.0,0.0,0.0,1.0,0.0,100.0,1.0,1.1856,26.0,0.0,0.0,0.0,55.000001,0.0,26.0,26.0,26.0,26.0,-0.12049999999999994,0.2977000000000001,-0.0001,293.579,-2.6728,-2.77435,-1.4483000000000001,-1.6112000000000002,-262.44,215.76999999999998,190.91025,0.0,0.0,0.0,0.0,0.009300000000000001,-5.498166666666667,-5.498166666666667,-0.5322,-0.8773333333333333,-0.06766666666666676,-1.307,66.061,-0.0805,-0.233375,1.468,100.0,1.0,1.0,203.88333333333333,0.0,0.0,0.0,0.0,0.0,0.0,0.0,8641.9,0.0,55.0,5.0,237.79000000000002,0.0,0.0,0.0,0.0,0.0,0.0,0.0,0.0,0.20400000000000063,0.20400000000000063,0.0,0.0,0.0,55.0,616.79921,10000.0,85.000001,85.000001,85.000001,85.000001,395.0,0.0,0.0,0.0,1.0,333.33500000000004,53.284,53.284,48.766999999999996,48.766999999999996,34.0,-30.0,18.60666666666667,-32.43333333333334,21.8975,0.0,1783.102,0.7699999999999996,100.0,27.498,26.773,42.777,41.784,0.0,0.0,100.0,0.0,0.0,0.0,0.0,3276.875,2830.3,4168.5,3791.1,305.0205,305.67966666666666,314.7095,315.366,21.8232,20.5325,21.8285,21.3633,314.999998,314.999998,324.999988,324.999988,99.55942857142857,99.50721666666666,99.56635714285714,99.54632857142857,-0.03433333333333333,-0.16066666666666674,-0.21033333333333334,0.017833333333333333,-0.04333333333332945,-0.04833333333333201,1.5503333333333333,1.5825,37.394999999999996,29.328333333333333,37.428,34.521,56.379000000000005,34.612,59.413,52.064499999999995,54.288,33.765,58.021,50.4035,53.448,33.314,57.971000000000004,49.822,-0.010000000000000009,-0.13650000000000007,0.10361500000000001,0.109835,0.0,206.95,206.82,203.88333333333333,203.88333333333333,0.0,0.0
5,0.0,0.0,0.0,1.0,1.0,0.0,0.0,1.0,0.0,100.0,1.0,1.1856,26.0,0.0,0.0,0.0,55.000001,0.0,26.0,26.0,26.0,26.0,-0.13337500000000002,0.28590000000000004,-0.027933333333333334,293.854,-2.69515,-2.73745,-1.4967000000000001,-1.6096,-258.87,215.775,190.889125,0.0,0.0,0.0,0.0,0.011366666666666667,-5.498166666666667,-5.498166666666667,-0.5373,0.51,-0.06411111111111145,-0.5429999999999999,66.215,-0.0976,-0.21780000000000002,1.3420000000000005,100.0,1.0,1.0,204.44333333333333,0.0,0.0,0.0,0.0,0.0,0.0,0.0,8665.6,0.0,55.0,5.0,238.34,1.0,0.0,0.0,0.0,0.0,0.0,0.0,0.0,0.2579999999999991,0.2579999999999991,0.0,0.0,1.0,55.0,616.79921,10000.0,85.000001,85.000001,85.000001,85.000001,395.0,0.0,0.0,0.0,1.0,166.665,53.497,53.497,49.316,49.316,34.0,-29.4625,18.189999999999998,-32.74333333333333,21.545,0.0,1783.05,0.5650000000000013,100.0,27.562,26.657,42.447,41.226,0.0,0.0,100.0,0.0,0.0,0.0,0.0,3217.0,2810.4,4045.875,3935.8,305.1485,305.745,315.03475,315.08025,21.8338,20.5379,21.8395,21.3726,314.999998,314.999998,324.999988,324.999988,99.55942857142857,99.50723333333333,99.5665,99.54647142857142,-0.02966666666666673,-0.15966666666666662,-0.22983333333333333,-0.005333333333333333,-0.054999999999999716,-0.01999999999999602,1.564,1.616,37.461,29.362000000000002,37.497,34.5785,56.364999999999995,34.6535,59.4505,52.1205,54.274,33.803,58.0565,50.457,53.434,33.3505,58.0035,49.8745,-0.035499999999999976,-0.11349999999999993,0.11156,0.10627500000000001,0.0,207.46,207.34,204.44333333333333,204.44333333333333,0.0,0.0
6,0.0,0.0,0.0,1.0,1.0,0.0,0.0,1.0,0.0,100.0,1.0,1.1856,26.0,0.0,0.0,0.0,55.000001,0.0,26.0,26.0,26.0,26.0,-0.161875,0.29980000000000007,0.007366666666666667,293.579,-2.63035,-2.80785,-1.5408,-1.5842,-255.89,215.775,190.870875,0.0,0.0,0.0,0.0,0.0131,-5.498166666666667,-5.498166666666667,-0.5235000000000001,-0.06266666666666665,-0.07377777777777794,0.575,66.346,-0.0983,-0.200875,1.0579999999999998,100.0,1.0,1.0,204.68666666666667,0.0,0.0,0.0,0.0,0.0,0.0,0.0,8675.9,0.0,55.0,5.0,238.81666666666666,0.0,0.0,0.0,0.0,0.0,0.0,0.0,0.0,0.3030000000000008,0.3030000000000008,0.0,0.0,0.0,55.0,616.79921,10000.0,85.000001,85.000001,85.000001,85.000001,395.0,0.0,0.0,0.0,1.0,333.33500000000004,53.68,53.68,48.477000000000004,48.477000000000004,34.0,-28.3275,19.328333333333333,-35.403333333333336,22.7375,0.0,1783.005,0.5700000000000003,100.0,27.559,26.307,42.782,41.32,0.0,0.0,100.0,0.0,0.0,0.0,0.0,3115.75,2860.7,4265.75,4090.2,305.293,305.768,314.40425,314.74,21.8425,20.5423,21.8489,21.3805,314.999998,314.999998,324.999988,324.999988,99.55944285714286,99.50723333333333,99.56662857142857,99.5466,-0.03699999999999992,-0.15100000000000002,-0.21666666666666667,-0.0003333333333333333,-0.02499999999999858,-0.036666666666668846,1.488,1.5335,37.516,29.389666666666663,37.556,34.628,56.351,34.689,59.487,52.173500000000004,54.260999999999996,33.836,58.0905,50.5085,53.42,33.382,58.035,49.9245,-0.02400000000000002,-0.1100000000000001,0.10405500000000001,0.09764500000000001,0.0,207.84,207.765,204.68666666666667,204.68666666666667,0.0,0.0
7,0.0,0.0,0.0,1.0,1.0,0.0,0.0,1.0,0.0,100.0,1.0,1.1856,26.0,0.0,0.0,0.0,55.000001,0.0,26.0,26.0,26.0,26.0,-0.11887499999999995,0.28490000000000015,-0.0025666666666666667,293.533,-2.5993,-2.7995,-1.5001,-1.6280999999999999,-252.3,215.76999999999998,190.849125,0.0,0.0,0.0,0.0,0.0152,-5.498166666666667,-5.498166666666667,-0.5347000000000001,0.08299999999999996,-0.06066666666666665,1.2269999999999999,66.499,-0.0946,-0.2197,0.8579999999999997,100.0,1.0,1.0,205.24,0.0,0.0,0.0,0.0,0.0,0.0,0.0,8699.4,0.0,55.0,5.0,239.36666666666667,1.0,0.0,0.0,0.0,0.0,0.0,0.0,0.0,0.3569999999999993,0.3569999999999993,0.0,0.0,1.0,55.0,616.79921,10000.0,85.000001,85.000001,85.000001,85.000001,395.0,0.0,0.0,0.0,1.0,166.665,53.207,53.207,48.981,48.981,34.0,-26.4075,20.953333333333333,-32.14666666666666,23.1075,0.0,1782.951,0.10000000000000142,100.0,27.914,26.591,42.83,41.454,0.0,0.0,100.0,0.0,0.0,0.0,0.0,3118.125,2942.8,4021.625,3976.6000000000004,305.193,305.46933333333334,314.98925,314.98925,21.8531,20.5478,21.8601,21.3899,314.999998,314.999998,324.999988,324.999988,99.55944285714286,99.50726666666667,99.5668,99.54674285714286,0.006666666666666821,-0.1259999999999999,-0.21533333333333335,0.012666666666666666,-0.03166666666666629,-0.05333333333332746,1.542,1.576,37.582,29.423666666666666,37.625,34.687,56.336,34.7325,59.528999999999996,52.236000000000004,54.245999999999995,33.876,58.1295,50.568,53.405,33.42,58.0715,49.983000000000004,-0.06999999999999995,-0.07800000000000007,0.10621000000000001,0.102385,0.0,208.32,208.235,205.24,205.24,0.0,0.0
8,0.0,0.0,0.0,1.0,1.0,0.0,0.0,1.0,0.0,100.0,1.0,1.1856,26.0,0.0,0.0,0.0,55.000001,0.0,26.0,26.0,26.0,26.0,-0.09312500000000001,0.28170000000000006,-0.0013333333333333335,293.503,-2.6805,-2.7307,-1.4816,-1.6188,-249.11,215.765,190.829625,0.0,0.0,0.0,0.0,0.017033333333333334,-5.498166666666667,-5.498166666666667,-0.5368,-0.30766666666666664,-0.04688888888888876,0.5860000000000001,66.636,-0.083,-0.219225,0.5020000000000007,100.0,1.0,1.0,205.61,0.0,0.0,0.0,0.0,0.0,0.0,0.0,8715.0,0.0,55.0,5.0,239.86333333333334,0.0,0.0,0.0,0.0,0.0,0.0,0.0,0.0,0.40500000000000114,0.40500000000000114,0.0,0.0,0.0,55.0,616.79921,10000.0,85.000001,85.000001,85.000001,85.000001,395.0,0.0,0.0,0.0,1.0,333.33500000000004,53.482,53.482,48.447,48.447,34.0,-25.82,21.345,-31.163333333333334,24.947499999999998,0.0,1782.902,0.010000000000001563,100.0,27.567,26.676000000000002,42.911,41.66,0.0,0.0,100.0,0.0,0.0,0.0,0.0,3018.75,3004.6,4044.0,4067.2,305.582,305.3226666666667,314.90625,314.75325,21.8623,20.552599999999998,21.87,21.3984,314.999998,314.999998,324.999988,324.999988,99.55944285714286,99.50726666666667,99.56692857142858,99.54687142857144,0.011666666666666714,-0.11333333333333329,-0.19133333333333336,0.035333333333333335,-0.04999999999999716,-0.05833333333333002,1.5093333333333332,1.54,37.64,29.454,37.687,34.74,56.32,34.7705,59.5665,52.292500000000004,54.230999999999995,33.911,58.164500000000004,50.6225,53.388999999999996,33.4535,58.1035,50.036,-0.07250000000000001,-0.07250000000000001,0.11039500000000001,0.10605500000000001,0.0,208.71,208.69,205.61,205.61,0.0,0.0
9,0.0,0.0,0.0,1.0,1.0,0.0,0.0,1.0,0.0,100.0,1.0,1.1856,26.0,0.0,0.0,0.0,55.000001,0.0,26.0,26.0,26.0,26.0,-0.08724999999999994,0.28259999999999996,0.017,293.304,-2.59875,-2.7434,-1.5328,-1.5759,-245.9,215.7575,190.81,0.0,0.0,0.0,0.0,0.0189,-5.498166666666667,-5.498166666666667,-0.5362,0.39400000000000013,-0.057222222222222285,0.813,66.771,-0.0684,-0.21355000000000002,0.31400000000000006,100.0,1.0,1.0,206.06666666666666,0.0,0.0,0.0,0.0,0.0,0.0,0.0,8734.4,0.0,55.0,5.0,240.3466666666667,1.0,0.0,0.0,0.0,0.0,0.0,0.0,0.0,0.4529999999999994,0.4529999999999994,0.0,0.0,1.0,55.0,616.79921,10000.0,85.000001,85.000001,85.000001,85.000001,395.0,0.0,0.0,0.0,1.0,333.33500000000004,52.887,52.887,48.92,48.92,34.0,-26.5175,22.351666666666667,-31.35333333333333,25.0125,0.0,1782.854,-0.14999999999999858,100.0,27.94,26.833,42.739000000000004,41.634,0.0,0.0,100.0,0.0,0.0,0.0,0.0,3206.125,3010.3,4039.0,4084.0,304.9925,305.2986666666667,314.988,314.77375,21.8716,20.5576,21.8799,21.4068,314.999998,314.999998,324.999988,324.999988,99.55944285714286,99.50728333333333,99.56705714285714,99.547,0.02200000000000024,-0.09266666666666667,-0.18766666666666665,0.04933333333333334,-0.03499999999999659,-0.054999999999999716,1.5436666666666667,1.573,37.698,29.484666666666666,37.748999999999995,34.792500000000004,56.305,34.8085,59.602000000000004,52.3475,54.217,33.945499999999996,58.198,50.675,53.375,33.487,58.134,50.0875,-0.08199999999999996,-0.05950000000000011,0.112,0.11188500000000001,0.0,209.155,209.12,206.06666666666666,206.06666666666666,0.0,0.0
10,0.0,0.0,0.0,1.0,1.0,0.0,0.0,1.0,0.0,100.0,1.0,1.1856,26.0,0.0,0.0,0.0,55.000001,0.0,26.0,26.0,26.0,26.0,-0.04574999999999996,0.2902,-0.0102,293.243,-2.6676,-2.71175,-1.4992,-1.5548000000000002,-242.49,215.7475,190.78925,0.0,0.0,0.0,0.0,0.020900000000000002,-5.498166666666667,-5.498166666666667,-0.5255000000000001,-0.3833333333333333,-0.028444444444444272,0.19900000000000007,66.917,-0.0497,-0.21027500000000002,0.08200000000000074,100.0,1.0,1.0,206.38666666666666,0.0,0.0,0.0,0.0,0.0,0.0,0.0,8748.0,0.0,55.0,5.0,240.87333333333333,0.0,0.0,0.0,0.0,0.0,0.0,1.0,0.0,0.5040000000000013,0.5040000000000013,0.0,0.0,0.0,55.0,616.79921,10000.0,85.000001,85.000001,85.000001,85.000001,395.0,0.0,0.0,0.0,1.0,333.33500000000004,53.482,53.482,48.218,48.218,34.0,-25.2025,20.755,-31.376666666666665,26.16,0.0,1782.803,-0.23000000000000043,100.0,27.645,26.953,42.866,42.16,0.0,0.0,100.0,0.0,0.0,0.0,0.0,3068.5,2846.3,4219.125,4184.2,305.6105,305.671,314.5845,314.4165,21.8814,20.5627,21.8905,21.4159,314.999998,314.999998,324.999988,324.999988,99.55944285714286,99.5073,99.5672,99.54715714285715,0.0303333333333331,-0.09499999999999997,-0.16066666666666665,0.05483333333333334,-0.04833333333333201,-0.02499999999999858,1.4936666666666667,1.502,37.759,29.517,37.815,34.8495,56.29,34.8465,59.6425,52.409,54.203,33.981,58.2355,50.734,53.358999999999995,33.5205,58.1685,50.144999999999996,-0.09050000000000002,-0.052999999999999936,0.10236,0.10602,0.0,209.575,209.55,206.38666666666666,206.38666666666666,0.0,0.0
11,0.0,0.0,0.0,1.0,1.0,0.0,0.0,1.0,0.0,100.0,1.0,1.1856,26.0,0.0,0.0,0.0,55.000001,0.0,26.0,26.0,26.0,26.0,-0.03837499999999994,0.27380000000000004,-0.05616666666666666,293.625,-2.67565,-2.70515,-1.5561,-1.5283,-239.07999999999998,215.735,190.768375,0.0,0.0,0.0,0.0,0.022600000000000002,-5.498166666666667,-5.498166666666667,-0.5538000000000001,-0.1443333333333333,-0.0013333333333331865,0.778,67.05799999999999,-0.0322,-0.22735000000000002,-0.0860000000000003,100.0,1.0,1.0,207.01333333333332,0.0,0.0,0.0,0.0,0.0,0.0,0.0,8774.6,0.0,55.0,5.0,241.38,1.0,0.0,0.0,0.0,0.0,0.0,1.0,0.0,0.5549999999999997,0.5549999999999997,0.0,0.0,1.0,55.0,616.79921,10000.0,85.000001,85.000001,85.000001,85.000001,395.0,0.0,0.0,0.0,1.0,333.33500000000004,53.238,53.238,49.149,49.149,34.0,-24.395,23.386666666666667,-27.32,25.6125,0.0,1782.752,-0.23000000000000043,100.0,27.513,26.898,42.546,42.058,0.0,0.0,100.0,0.0,0.0,0.0,0.0,3040.0,3086.9,3838.5,3975.6000000000004,305.5255,305.0833333333333,315.50325,315.04525,21.8911,20.568,21.9009,21.4249,314.999998,314.999998,324.999988,324.999988,99.55945714285714,99.50731666666667,99.56734285714286,99.54728571428572,0.050666666666666416,-0.07533333333333325,-0.13966666666666666,0.09216666666666667,-0.023333333333326323,-0.05666666666667197,1.5913333333333335,1.599,37.819,29.549999999999997,37.879999999999995,34.906,56.274,34.8855,59.6775,52.4675,54.187,34.016999999999996,58.2685,50.7905,53.343,33.555,58.198499999999996,50.2005,-0.09350000000000003,-0.05800000000000005,0.10797000000000001,0.10952,0.0,209.985,209.99,207.01333333333332,207.01333333333332,0.0,0.0
12,0.0,0.0,0.0,1.0,1.0,0.0,0.0,1.0,0.0,100.0,1.0,1.1856,26.0,0.0,0.0,0.0,55.000001,0.0,26.0,26.0,26.0,26.0,-0.015375000000000028,0.28290000000000015,0.010633333333333333,293.182,-2.70035,-2.7069,-1.5322,-1.5526,-235.86,215.725,190.74775,0.0,0.0,0.0,0.0,0.025466666666666665,-5.498166666666667,-5.498166666666667,-0.5436,0.3363333333333334,-0.005555555555555536,0.758,67.194,-0.0181,-0.205425,-0.1479999999999997,100.0,1.0,1.0,207.29333333333335,0.0,0.0,0.0,0.0,0.0,0.0,0.0,8786.4,0.0,55.0,5.0,241.86666666666667,0.0,0.0,0.0,0.0,0.0,0.0,1.0,0.0,0.602999999999998,0.602999999999998,0.0,0.0,0.0,55.0,616.79921,10000.0,85.000001,85.000001,85.000001,85.000001,395.0,0.0,0.0,0.0,1.0,333.33500000000004,53.04,53.04,48.278999999999996,48.278999999999996,34.0,-24.0425,24.525,-29.263333333333335,28.2675,0.0,1782.704,-0.34499999999999886,100.0,27.533,27.127,42.49,42.046,0.0,0.0,100.0,0.0,0.0,0.0,0.0,3064.125,3124.3,4141.375,4180.2,305.441,304.952,314.75,314.56625,21.900199999999998,20.5731,21.9107,21.4334,314.999998,314.999998,324.999988,324.999988,99.55947142857143,99.50731666666667,99.56748571428571,99.54742857142857,0.06999999999999984,-0.05699999999999994,-0.1265,0.10133333333333333,-0.03999999999999915,-0.05333333333332746,1.5306666666666666,1.5365,37.876000000000005,29.581666666666663,37.942,34.9585,56.26,34.922,59.7125,52.5235,54.174,34.0505,58.301,50.844,53.329,33.5875,58.2285,50.253,-0.09850000000000003,-0.050999999999999934,0.11181500000000001,0.10376500000000001,0.0,210.43,210.44,207.29333333333335,207.29333333333335,0.0,0.0
13,0.0,0.0,0.0,1.0,1.0,0.0,0.0,1.0,0.0,100.0,1.0,1.1856,26.0,0.0,0.0,0.0,55.000001,0.0,26.0,26.0,26.0,26.0,0.027125000000000066,0.28570000000000007,0.0313,292.786,-2.6775,-2.71075,-1.5615,-1.5592000000000001,-232.42000000000002,215.7125,190.726125,0.0,0.0,0.0,0.0,0.02673333333333333,-5.498166666666667,-5.498166666666667,-0.5374,-0.16933333333333334,-0.00855555555555565,-0.29999999999999993,67.337,-0.0117,-0.2129,-0.23599999999999977,100.0,1.0,1.0,207.65666666666667,0.0,0.0,0.0,0.0,0.0,0.0,0.0,8801.8,0.0,55.0,5.0,242.38333333333333,1.0,0.0,0.0,0.0,0.0,0.0,1.0,0.0,0.6539999999999999,0.6539999999999999,0.0,0.0,1.0,55.0,616.79921,10000.0,85.000001,85.000001,85.000001,85.000001,395.0,0.0,0.0,0.0,1.0,333.33500000000004,52.75,52.75,48.035,48.035,34.0,-23.474999999999998,24.461666666666666,-30.086666666666666,29.2075,0.0,1782.653,-0.3949999999999996,100.0,27.697,27.494,42.729,42.626,0.0,0.0,100.0,0.0,0.0,0.0,0.0,3177.875,2996.6,4216.75,4227.2,305.265,305.157,314.6055,314.33025,21.9099,20.5785,21.9213,21.4425,314.999998,314.999998,324.999988,324.999988,99.55948571428571,99.50731666666667,99.56762857142857,99.54755714285714,0.09699999999999998,-0.03600000000000003,-0.12166666666666667,0.10283333333333333,-0.04999999999999716,-0.045000000000001705,1.517,1.4865,37.937,29.615666666666666,38.007999999999996,35.016,56.247,34.960499999999996,59.751999999999995,52.585499999999996,54.162,34.086,58.3375,50.9035,53.316,33.6215,58.262,50.311,-0.128,-0.02750000000000008,0.10622500000000001,0.104135,0.0,210.86,210.88,207.65666666666667,207.65666666666667,0.0,0.0
14,0.0,0.0,0.0,1.0,1.0,0.0,0.0,1.0,0.0,100.0,1.0,1.1856,26.0,0.0,0.0,0.0,55.000001,0.0,26.0,26.0,26.0,26.0,0.017749999999999932,0.276,-0.0098,292.969,-2.6974,-2.715,-1.5649000000000002,-1.5444,-228.99,215.7,190.70475,0.0,0.0,0.0,0.0,0.028733333333333333,-5.498166666666667,-5.498166666666667,-0.5497000000000001,-0.06966666666666665,0.017444444444444374,1.072,67.476,0.0005,-0.22667500000000002,-0.36599999999999966,100.0,1.0,1.0,208.18,0.0,0.0,0.0,0.0,0.0,0.0,0.0,8824.0,0.0,55.0,5.0,242.88666666666666,0.0,0.0,0.0,0.0,0.0,0.0,1.0,0.0,0.7049999999999983,0.7049999999999983,0.0,0.0,0.0,55.0,616.79921,10000.0,85.000001,85.000001,85.000001,85.000001,395.0,0.0,0.0,0.0,1.0,166.665,52.734,52.734,48.294,48.294,34.0,-22.535,25.828333333333333,-27.053333333333335,28.665,0.0,1782.604,-0.3999999999999986,100.0,27.8,27.521,42.725,42.674,0.0,0.0,100.0,0.0,0.0,0.0,0.0,2997.125,3148.2,3966.0,4154.4,305.638,304.79833333333335,315.16,314.595,21.9195,20.5839,21.9318,21.4517,314.999998,314.999998,324.999988,324.999988,99.55948571428571,99.50731666666667,99.56777142857143,99.5477,0.09133333333333349,-0.03533333333333322,-0.10366666666666667,0.115,-0.03833333333332689,-0.05333333333332746,1.5456666666666665,1.5470000000000002,37.997,29.64966666666667,38.074,35.073,56.233999999999995,34.999,59.788,52.646,54.149,34.1215,58.371,50.962,53.302,33.6555,58.292500000000004,50.368,-0.10999999999999999,-0.04249999999999998,0.10464000000000001,0.10719000000000001,0.0,211.28,211.315,208.18,208.18,0.0,0.0
15,0.0,0.0,0.0,1.0,1.0,0.0,0.0,1.0,0.0,100.0,1.0,1.1856,26.0,0.0,0.0,0.0,55.000001,0.0,26.0,26.0,26.0,26.0,0.030124999999999957,0.2794000000000001,0.012100000000000001,292.877,-2.6967,-2.68385,-1.5803,-1.5556,-225.74,215.69,190.68425,0.0,0.0,0.0,0.0,0.030633333333333332,-5.498166666666667,-5.498166666666667,-0.542,0.258,0.03355555555555556,0.7850000000000001,67.60900000000001,0.0106,-0.21150000000000002,-0.3779999999999992,100.0,1.0,1.0,208.54666666666668,0.0,0.0,0.0,0.0,0.0,0.0,0.0,8839.5,0.0,55.0,5.0,243.36333333333334,1.0,0.0,0.0,0.0,0.0,0.0,1.0,0.0,0.7530000000000001,0.7530000000000001,0.0,0.0,1.0,55.0,616.79921,10000.0,85.000001,85.000001,85.000001,85.000001,395.0,0.0,0.0,0.0,1.0,333.33500000000004,52.841,52.841,48.203,48.203,34.0,-21.662499999999998,25.355,-26.856666666666662,30.7325,0.0,1782.555,-0.3150000000000013,100.0,27.845,27.619,42.59,42.788,0.0,0.0,100.0,0.0,0.0,0.0,0.0,2930.875,3123.3,4020.875,4282.0,305.843,304.8666666666667,315.046,314.25275,21.9286,20.5891,21.9416,21.4602,314.999998,314.999998,324.999988,324.999988,99.5595,99.50733333333334,99.56791428571428,99.54784285714285,0.0983333333333336,-0.03499999999999992,-0.08566666666666667,0.12816666666666665,-0.036666666666668846,-0.060000000000002274,1.5293333333333334,1.5265,38.054,29.681666666666665,38.135,35.1265,56.221000000000004,35.035,59.8215,52.7035,54.137,34.155,58.402,51.016999999999996,53.289,33.6875,58.321,50.4225,-0.10499999999999998,-0.050000000000000044,0.09751000000000001,0.10951500000000002,0.0,211.715,211.73000000000002,208.54666666666668,208.54666666666668,0.0,0.0
16,0.0,0.0,0.0,1.0,1.0,0.0,0.0,1.0,0.0,100.0,1.0,1.1856,26.0,0.0,0.0,0.0,55.000001,0.0,26.0,26.0,26.0,26.0,0.016750000000000043,0.27259999999999995,-0.003966666666666667,292.847,-2.75665,-2.63265,-1.5548000000000002,-1.5565,-222.09,215.6775,190.661,0.0,0.0,0.0,0.0,0.03276666666666667,-5.498166666666667,-5.498166666666667,-0.558,-0.488,0.020888888888888957,0.08400000000000007,67.757,0.0164,-0.22512500000000002,-0.2579999999999991,100.0,1.0,1.0,209.01999999999998,0.0,0.0,0.0,0.0,0.0,0.0,0.0,8859.5,0.0,55.0,5.0,243.9,0.0,0.0,0.0,0.0,0.0,0.0,1.0,0.0,0.8069999999999986,0.8069999999999986,0.0,0.0,0.0,55.0,616.79921,10000.0,85.000001,85.000001,85.000001,85.000001,395.0,0.0,0.0,0.0,1.0,166.665,52.597,52.597,48.035,48.035,34.0,-23.8325,25.723333333333333,-26.6,29.9925,0.0,1782.501,-0.18499999999999872,100.0,27.562,27.635,42.813,42.894999999999996,0.0,0.0,100.0,0.0,0.0,0.0,0.0,3106.875,3234.8,4001.125,4084.1000000000004,305.452,304.598,315.083,314.717,21.9386,20.5949,21.9528,21.4699,314.999998,314.999998,324.999988,324.999988,99.55951428571429,99.50735,99.56805714285714,99.548,0.09266666666666667,-0.03766666666666674,-0.09066666666666667,0.14633333333333334,-0.023333333333326323,-0.06333333333333258,1.536,1.5225,38.116,29.718,38.205,35.187,56.205,35.0755,59.8615,52.766999999999996,54.120999999999995,34.192499999999995,58.439499999999995,51.078,53.272999999999996,33.7235,58.355000000000004,50.4825,-0.09099999999999997,-0.06299999999999994,0.111255,0.11723000000000001,0.0,212.13,212.17000000000002,209.01999999999998,209.01999999999998,0.0,0.0
17,0.0,0.0,0.0,1.0,1.0,0.0,0.0,1.0,0.0,100.0,1.0,1.1856,26.0,0.0,0.0,0.0,55.000001,0.0,26.0,26.0,26.0,26.0,0.012750000000000039,0.2946,0.023266666666666668,292.435,-2.7171,-2.61615,-1.5956000000000001,-1.5227,-218.63,215.66750000000002,190.638625,0.0,0.0,0.0,0.0,0.03476666666666667,-5.498166666666667,-5.498166666666667,-0.5486,0.278,-0.005777777777777882,-0.92,67.897,0.0125,-0.209425,-0.02799999999999958,100.0,1.0,1.0,209.36666666666667,0.0,0.0,0.0,0.0,0.0,0.0,0.0,8874.3,0.0,55.0,5.0,244.4,1.0,0.0,0.0,0.0,0.0,0.0,1.0,0.0,0.8580000000000005,0.8580000000000005,0.0,0.0,1.0,55.0,616.79921,10000.0,85.000001,85.000001,85.000001,85.000001,395.0,0.0,0.0,0.0,1.0,166.665,52.383,52.383,47.592,47.592,34.0,-24.695,23.884999999999998,-31.07666666666666,29.65,0.0,1782.45,-0.1999999999999993,100.0,27.861,27.917,42.716,42.974000000000004,0.0,0.0,100.0,0.0,0.0,0.0,0.0,3227.75,3059.2,4373.125,4229.1,305.184,304.9703333333333,314.3415,314.38775,21.9483,20.6004,21.9632,21.479,314.999998,314.999998,324.999988,324.999988,99.55952857142857,99.50735,99.5682,99.54814285714286,0.08666666666666645,-0.044333333333333114,-0.107,0.12333333333333334,-0.04333333333332945,-0.05666666666667197,1.5023333333333333,1.5065,38.177,29.752666666666666,38.269999999999996,35.244,56.193,35.1145,59.897999999999996,52.827,54.11,34.2285,58.4735,51.135999999999996,53.26,33.757999999999996,58.3855,50.539,-0.09499999999999997,-0.06099999999999994,0.10342000000000001,0.11102500000000001,0.0,212.61,212.62,209.36666666666667,209.36666666666667,0.0,0.0
18,0.0,0.0,0.0,1.0,1.0,0.0,0.0,1.0,0.0,100.0,1.0,1.1856,26.0,0.0,0.0,0.0,55.000001,0.0,26.0,26.0,26.0,26.0,0.010375000000000023,0.2855000000000001,0.028733333333333333,292.343,-2.65395,-2.6017,-1.5966,-1.4772,-215.37,215.6575,190.6175,0.0,0.0,0.0,0.0,0.03666666666666667,-5.498166666666667,-5.498166666666667,-0.5609000000000001,-0.38,0.005555555555555536,-0.387,68.028,0.0077,-0.224175,-0.07000000000000028,100.0,1.0,1.0,209.78,0.0,0.0,0.0,0.0,0.0,0.0,0.0,8891.8,0.0,55.0,5.0,244.87,0.0,0.0,0.0,0.0,0.0,0.0,1.0,0.0,0.9059999999999988,0.9059999999999988,0.0,0.0,0.0,55.0,616.79921,10000.0,85.000001,85.000001,85.000001,85.000001,395.0,0.0,0.0,0.0,1.0,166.665,52.185,52.185,47.577,47.577,34.0,-24.1775,25.303333333333335,-29.839999999999996,28.255000000000003,0.0,1782.402,-0.22500000000000142,100.0,27.796,27.883,42.984,43.201,0.0,0.0,100.0,0.0,0.0,0.0,0.0,3219.625,3229.4,4202.625,4194.2,305.132,304.50466666666665,314.70025,314.4565,21.9573,20.6056,21.9731,21.4877,314.999998,314.999998,324.999988,324.999988,99.55952857142857,99.50735,99.56834285714285,99.54828571428571,0.0853333333333337,-0.04266666666666663,-0.1105,0.11483333333333333,-0.061666666666667425,-0.04333333333332945,1.5150000000000001,1.518,38.233000000000004,29.785,38.332,35.298,56.18,35.15,59.9335,52.884,54.097,34.260999999999996,58.5065,51.191,53.247,33.789500000000004,58.416,50.5925,-0.09450000000000003,-0.05950000000000011,0.10614000000000001,0.10397,0.0,213.005,212.99,209.78,209.78,0.0,0.0
19,0.0,0.0,0.0,1.0,1.0,0.0,0.0,1.0,0.0,100.0,1.0,1.1856,26.0,0.0,0.0,0.0,55.000001,0.0,26.0,26.0,26.0,26.0,0.011624999999999996,0.2882,0.0757,291.992,-2.6547,-2.70225,-1.5308000000000002,-1.4639,-212.1,215.65,190.596125,0.0,0.0,0.0,0.0,0.03856666666666667,-5.498166666666667,-5.498166666666667,-0.5506,0.7116666666666667,0.012555555555555653,-0.716,68.157,0.0058000000000000005,-0.213225,-0.06799999999999962,100.0,1.0,1.0,210.15666666666667,0.0,0.0,0.0,0.0,0.0,0.0,0.0,8907.8,0.0,55.0,5.0,245.33666666666664,1.0,0.0,0.0,0.0,0.0,0.0,1.0,0.0,0.9540000000000006,0.9540000000000006,0.0,0.0,1.0,55.0,616.79921,10000.0,85.000001,85.000001,85.000001,85.000001,395.0,0.0,0.0,0.0,1.0,333.33500000000004,51.834,51.834,47.516,47.516,34.0,-24.2175,24.763333333333335,-29.363333333333337,29.775,0.0,1782.353,-0.2049999999999983,100.0,28.305,28.345,42.862,43.252,0.0,0.0,100.0,0.0,0.0,0.0,0.0,3201.75,3105.5,4248.5,4405.3,305.154,304.66633333333334,314.55675,313.9905,21.9664,20.6109,21.9829,21.496299999999998,314.999998,314.999998,324.999988,324.999988,99.55954285714286,99.50736666666667,99.56847142857143,99.54841428571429,0.08199999999999985,-0.05666666666666664,-0.10866666666666668,0.1135,-0.054999999999999716,-0.05833333333333002,1.4883333333333333,1.4895,38.29,29.817999999999998,38.393,35.352000000000004,56.169,35.188,59.966499999999996,52.9405,54.087,34.296,58.537,51.2455,53.235,33.823499999999996,58.444,50.6465,-0.09750000000000003,-0.06099999999999994,0.101745,0.10985,0.0,213.425,213.41,210.15666666666667,210.15666666666667,0.0,0.0
20,0.0,0.0,0.0,1.0,1.0,0.0,0.0,1.0,0.0,100.0,1.0,1.1856,26.0,0.0,0.0,0.0,55.000001,0.0,26.0,26.0,26.0,26.0,0.014000000000000012,0.2692000000000001,0.020066666666666667,292.313,-2.7428,-2.66325,-1.5327000000000002,-1.5904,-208.62,215.64,190.57375,0.0,0.0,0.0,0.0,0.04056666666666667,-5.498166666666667,-5.498166666666667,-0.5542,-0.9986666666666667,0.011222222222222022,0.42500000000000004,68.29599999999999,0.0036000000000000003,-0.22407500000000002,-0.07600000000000051,100.0,1.0,1.0,210.54333333333335,0.0,0.0,0.0,0.0,0.0,0.0,0.0,8924.2,0.0,55.0,5.0,245.83666666666664,0.0,0.0,0.0,0.0,0.0,0.0,0.0,0.0,1.004999999999999,1.004999999999999,0.0,0.0,0.0,55.0,616.79921,10000.0,85.000001,85.000001,85.000001,85.000001,395.0,0.0,0.0,0.0,1.0,333.33500000000004,52.628,52.628,47.18,47.18,34.0,-23.2375,24.418333333333333,-28.586666666666666,30.497500000000002,0.0,1782.303,-0.15500000000000114,100.0,28.0,27.866,43.559,43.582,0.0,0.0,100.0,0.0,0.0,0.0,0.0,3000.0,3122.9,4130.0,4199.2,305.756,304.978,314.71775,314.38275,21.9758,20.6164,21.9936,21.5056,314.999998,314.999998,324.999988,324.999988,99.55955714285714,99.50736666666667,99.56862857142858,99.54857142857144,0.08233333333333359,-0.050000000000000044,-0.1075,0.12133333333333333,-0.036666666666668846,-0.03499999999999659,1.4703333333333333,1.4795,38.349000000000004,29.852333333333334,38.46,35.41,56.153,35.226,60.0055,53.0025,54.072,34.3315,58.573499999999996,51.305,53.219,33.8575,58.477000000000004,50.704499999999996,-0.08750000000000002,-0.06950000000000012,0.113055,0.10647500000000001,0.0,213.805,213.8,210.54333333333335,210.54333333333335,0.0,0.0
21,0.0,0.0,0.0,1.0,1.0,0.0,0.0,1.0,0.0,100.0,1.0,1.1856,26.0,0.0,0.0,0.0,55.000001,0.0,26.0,26.0,26.0,26.0,-0.013499999999999956,0.26770000000000005,-0.07406666666666667,292.633,-2.70885,-2.66985,-1.6014,-1.5467,-205.34,215.6325,190.552125,0.0,0.0,0.0,0.0,0.0425,-5.498166666666667,-5.498166666666667,-0.5752,0.20766666666666667,-0.004777777777777992,0.44100000000000006,68.42099999999999,0.0,-0.22425,-0.06200000000000028,100.0,1.0,1.0,211.12333333333333,0.0,0.0,0.0,0.0,0.0,0.0,0.0,8948.7,0.0,55.0,5.0,246.28666666666666,1.0,0.0,0.0,0.0,0.0,0.0,0.0,0.0,1.0530000000000008,1.0530000000000008,0.0,0.0,1.0,55.0,616.79921,10000.0,85.000001,85.000001,85.000001,85.000001,395.0,0.0,0.0,0.0,1.0,333.33500000000004,52.368,52.368,48.096000000000004,48.096000000000004,34.0,-23.8325,24.634999999999998,-27.906666666666666,27.915,0.0,1782.255,-0.23499999999999943,100.0,28.176000000000002,27.879,43.099000000000004,43.144,0.0,0.0,100.0,0.0,0.0,0.0,0.0,3109.625,3130.5,4034.5,4018.5,305.366,304.96933333333334,315.10175,314.96475,21.9848,20.6216,22.0033,21.5141,314.999998,314.999998,324.999988,324.999988,99.55955714285714,99.50736666666667,99.56875714285714,99.5487,0.08599999999999985,-0.047666666666666746,-0.10433333333333333,0.1235,-0.03166666666666629,-0.060000000000002274,1.5766666666666667,1.5635,38.405,29.884999999999998,38.521,35.463,56.141,35.263,60.037,53.056,54.06,34.3655,58.603,51.3565,53.207,33.89,58.5035,50.754999999999995,-0.09399999999999997,-0.0605,0.10511000000000001,0.11474000000000001,0.0,214.22500000000002,214.23000000000002,211.12333333333333,211.12333333333333,0.0,0.0
22,0.0,0.0,0.0,1.0,1.0,0.0,0.0,1.0,0.0,100.0,1.0,1.1856,26.0,0.0,0.0,0.0,55.000001,0.0,26.0,26.0,26.0,26.0,0.012250000000000094,0.2714000000000001,0.011566666666666668,292.282,-2.6487,-2.71455,-1.5975000000000001,-1.5325,-201.85,215.6225,190.528375,0.0,0.0,0.0,0.0,0.044533333333333334,-5.498166666666667,-5.498166666666667,-0.5574,0.09600000000000009,0.004111111111110954,-0.44399999999999995,68.56,-0.0004,-0.202625,-0.07000000000000028,100.0,1.0,1.0,211.37333333333333,0.0,0.0,0.0,0.0,0.0,0.0,0.0,8959.3,0.0,55.0,5.0,246.78666666666666,0.0,0.0,0.0,0.0,0.0,0.0,0.0,0.0,1.1039999999999992,1.1039999999999992,0.0,0.0,0.0,55.0,616.79921,10000.0,85.000001,85.000001,85.000001,85.000001,395.0,0.0,0.0,0.0,1.0,333.33500000000004,52.612,52.612,47.134,47.134,34.0,-22.495,23.51833333333333,-31.416666666666664,29.7075,0.0,1782.204,-0.28000000000000114,100.0,28.041,28.109,43.206,43.39,0.0,0.0,100.0,0.0,0.0,0.0,0.0,3017.25,2976.1,4304.375,4306.8,305.741,305.14566666666667,314.47125,314.2115,21.9944,20.6271,22.0138,21.5233,314.999998,314.999998,324.999988,324.999988,99.55957142857143,99.50738333333334,99.5689,99.54884285714286,0.08266666666666644,-0.05899999999999994,-0.1205,0.10783333333333334,-0.05333333333332746,-0.026666666666670835,1.4836666666666667,1.4889999999999999,38.465,29.919666666666664,38.587,35.5205,56.128,35.302,60.075,53.1165,54.048,34.4015,58.6385,51.414500000000004,53.193,33.9245,58.536,50.812,-0.10299999999999998,-0.06150000000000011,0.11107000000000002,0.10756500000000001,0.0,214.675,214.64499999999998,211.37333333333333,211.37333333333333,0.0,0.0
23,0.0,0.0,0.0,1.0,1.0,0.0,0.0,1.0,0.0,100.0,1.0,1.1856,26.0,0.0,0.0,0.0,55.000001,0.0,26.0,26.0,26.0,26.0,-0.0040000000000000036,0.2581,-0.025333333333333336,292.175,-2.675,-2.67035,-1.651,-1.5083,-198.35,215.615,190.505,0.0,0.0,0.0,0.0,0.04656666666666667,-5.498166666666667,-5.498166666666667,-0.5743,-0.2453333333333334,0.005444444444444363,0.5070000000000001,68.694,-0.0019,-0.22675,-0.04600000000000026,100.0,1.0,1.0,211.87666666666667,0.0,0.0,0.0,0.0,0.0,0.0,0.0,8980.7,0.0,55.0,5.0,247.26999999999998,1.0,0.0,0.0,0.0,0.0,0.0,0.0,0.0,1.1550000000000011,1.1550000000000011,0.0,0.0,1.0,55.0,616.79921,10000.0,85.000001,85.000001,85.000001,85.000001,395.0,0.0,0.0,0.0,1.0,333.33500000000004,51.849000000000004,51.849000000000004,47.913,47.913,34.0,-24.5775,25.336666666666666,-29.21,28.052500000000002,0.0,1782.151,-0.28999999999999915,100.0,28.372,28.064,43.397,43.512,0.0,0.0,100.0,0.0,0.0,0.0,0.0,3261.875,3180.6,4052.0,4098.8,304.9675,304.77066666666667,315.0715,314.797,22.0039,20.6327,22.0243,21.5326,314.999998,314.999998,324.999988,324.999988,99.55958571428572,99.50738333333334,99.56905714285715,99.549,0.09100000000000019,-0.04366666666666674,-0.11133333333333333,0.12133333333333333,-0.03499999999999659,-0.054999999999999716,1.5430000000000001,1.5390000000000001,38.524,29.954666666666668,38.652,35.5785,56.114999999999995,35.341499999999996,60.1115,53.177,54.035,34.438,58.6725,51.473,53.18,33.9595,58.567,50.869,-0.10199999999999998,-0.05449999999999999,0.10046000000000001,0.11053,0.0,215.06,215.055,211.87666666666667,211.87666666666667,0.0,0.0
24,0.0,0.0,0.0,1.0,1.0,0.0,0.0,1.0,0.0,100.0,1.0,1.1856,26.0,0.0,0.0,0.0,55.000001,0.0,26.0,26.0,26.0,26.0,-0.005124999999999935,0.28269999999999995,-0.05153333333333334,292.404,-2.6991,-2.67935,-1.5683,-1.5394,-195.04,215.60750000000002,190.482375,0.0,0.0,0.0,0.0,0.04846666666666667,-5.498166666666667,-5.498166666666667,-0.5834,-0.4103333333333333,0.0129999999999999,1.1320000000000001,68.822,0.0021000000000000003,-0.2195,-0.18200000000000038,100.0,1.0,1.0,212.2,0.0,0.0,0.0,0.0,0.0,0.0,0.0,8994.3,0.0,55.0,5.0,247.73000000000002,0.0,0.0,0.0,0.0,0.0,0.0,0.0,0.0,1.2029999999999994,1.2029999999999994,0.0,0.0,0.0,55.0,616.79921,10000.0,85.000001,85.000001,85.000001,85.000001,395.0,0.0,0.0,0.0,1.0,333.33500000000004,52.78,52.78,47.302,47.302,34.0,-22.28,24.086666666666666,-29.259999999999998,29.4525,0.0,1782.103,-0.28500000000000014,100.0,28.194,27.817,43.39,43.461,0.0,0.0,100.0,0.0,0.0,0.0,0.0,2945.5,3050.9,4231.125,4179.7,305.832,305.20533333333333,314.532,314.57725,22.0127,20.6379,22.0342,21.5412,314.999998,314.999998,324.999988,324.999988,99.5596,99.5074,99.5692,99.54914285714285,0.08733333333333348,-0.04600000000000004,-0.1,0.12383333333333334,-0.036666666666668846,-0.045000000000001705,1.5256666666666665,1.5070000000000001,38.579,29.986666666666665,38.714,35.6325,56.101,35.3785,60.147999999999996,53.2365,54.022,34.473,58.7065,51.53,53.166,33.993,58.598,50.9245,-0.10050000000000003,-0.05800000000000005,0.10250500000000001,0.108145,0.0,215.45,215.47,212.2,212.2,0.0,0.0
25,0.0,0.0,0.0,1.0,1.0,0.0,0.0,1.0,0.0,100.0,1.0,1.1856,26.0,0.0,0.0,0.0,55.000001,0.0,26.0,26.0,26.0,26.0,0.016625000000000112,0.2579,-0.033433333333333336,292.282,-2.77345,-2.63275,-1.5882,-1.5399,-191.53,215.5975,190.457125,0.0,0.0,0.0,0.0,0.0505,-5.498166666666667,-5.498166666666667,-0.6058,-0.06733333333333336,0.018999999999999906,-0.863,68.955,0.0063,-0.22155,-0.16799999999999926,100.0,1.0,1.0,212.69666666666666,0.0,0.0,0.0,0.0,0.0,0.0,0.0,9015.5,0.0,55.0,5.0,248.21,1.0,0.0,0.0,0.0,0.0,0.0,0.0,0.0,1.2540000000000013,1.2540000000000013,0.0,0.0,1.0,55.0,616.79921,10000.0,85.000001,85.000001,85.000001,85.000001,395.0,0.0,0.0,0.0,1.0,166.665,51.894999999999996,51.894999999999996,47.882,47.882,34.0,-26.035,25.561666666666667,-28.18,28.5275,0.0,1782.055,-0.2749999999999986,100.0,27.944,28.167,43.097,43.326,0.0,0.0,100.0,0.0,0.0,0.0,0.0,3316.75,3244.3,4006.0,4095.9,305.014,304.434,315.17975,314.73625,22.022,20.6435,22.0445,21.5503,314.999998,314.999998,324.999988,324.999988,99.55961428571429,99.5074,99.56934285714286,99.54927142857143,0.08566666666666656,-0.04800000000000004,-0.1155,0.1215,-0.061666666666667425,-0.045000000000001705,1.5483333333333333,1.545,38.638,30.022,38.778,35.689499999999995,56.087,35.4155,60.18,53.2905,54.009,34.507,58.7365,51.582499999999996,53.152,34.0255,58.625,50.976,-0.10250000000000004,-0.05800000000000005,0.1096,0.10999,0.0,215.87,215.87,212.69666666666666,212.69666666666666,0.0,0.0
26,0.0,0.0,0.0,1.0,1.0,0.0,0.0,1.0,0.0,100.0,1.0,1.1856,26.0,0.0,0.0,0.0,55.000001,0.0,26.0,26.0,26.0,26.0,0.014499999999999957,0.28370000000000006,0.08176666666666667,291.26,-2.67285,-2.7313,-1.6120999999999999,-1.5293,-188.01,215.59,190.4315,0.0,0.0,0.0,0.0,0.052566666666666664,-5.498166666666667,-5.498166666666667,-0.5742,0.5793333333333333,0.007222222222222241,0.677,69.09100000000001,0.0119,-0.200825,-0.27200000000000024,100.0,1.0,1.0,212.89,0.0,0.0,0.0,0.0,0.0,0.0,0.0,9023.7,0.0,55.0,5.0,248.7,0.0,0.0,0.0,0.0,0.0,0.0,0.0,0.0,1.3049999999999997,1.3049999999999997,0.0,0.0,0.0,55.0,616.79921,10000.0,85.000001,85.000001,85.000001,85.000001,395.0,0.0,0.0,0.0,1.0,333.33500000000004,51.528999999999996,51.528999999999996,46.402,46.402,34.0,-23.3,25.738333333333333,-32.336666666666666,32.965,0.0,1782.002,-0.2749999999999986,100.0,28.916,28.625,43.596000000000004,43.665,0.0,0.0,100.0,0.0,0.0,0.0,0.0,3144.25,3146.9,4518.25,4533.3,305.2195,304.793,313.92225,313.72425,22.0316,20.6493,22.0551,21.5596,314.999998,314.999998,324.999988,324.999988,99.55962857142858,99.5074,99.56948571428572,99.54942857142858,0.0990000000000002,-0.04233333333333311,-0.094,0.129,-0.051666666666669414,-0.046666666666666856,1.433,1.438,38.698,30.058,38.844,35.7475,56.077,35.4565,60.2185,53.352000000000004,53.998999999999995,34.545,58.772,51.6415,53.141,34.062,58.657,51.034,-0.10299999999999998,-0.05899999999999994,0.10995500000000001,0.108075,0.0,216.325,216.315,212.89,212.89,0.0,0.0
27,0.0,0.0,0.0,1.0,1.0,0.0,0.0,1.0,0.0,100.0,1.0,1.1856,26.0,0.0,0.0,0.0,55.000001,0.0,26.0,26.0,26.0,26.0,0.023249999999999993,0.2591000000000001,-0.0287,291.763,-2.69425,-2.6694,-1.5799,-1.62,-184.69,215.58249999999998,190.408375,0.0,0.0,0.0,0.0,0.0545,-5.498166666666667,-5.498166666666667,-0.5956,-0.9786666666666667,0.011777777777777887,0.7910000000000001,69.215,0.011000000000000001,-0.23997500000000002,-0.21999999999999975,100.0,1.0,1.0,213.38333333333333,0.0,0.0,0.0,0.0,0.0,0.0,0.0,9044.5,0.0,55.0,5.0,249.15,1.0,0.0,0.0,0.0,0.0,0.0,0.0,0.0,1.352999999999998,1.352999999999998,0.0,0.0,1.0,55.0,616.79921,10000.0,85.000001,85.000001,85.000001,85.000001,395.0,0.0,0.0,0.0,1.0,333.33500000000004,51.941,51.941,46.692,46.692,34.0,-22.0775,25.861666666666665,-28.366666666666667,30.655,0.0,1781.953,-0.3249999999999993,100.0,28.585,28.499,44.134,44.144000000000005,0.0,0.0,100.0,0.0,0.0,0.0,0.0,2992.25,3206.5,4097.875,4118.7,305.6865,304.7096666666667,314.84525,314.63275,22.040399999999998,20.6546,22.0651,21.5685,314.999998,314.999998,324.999988,324.999988,99.55962857142858,99.50741666666667,99.56962857142857,99.54957142857143,0.10166666666666657,-0.03699999999999992,-0.09866666666666668,0.13216666666666665,-0.02833333333332888,-0.06666666666666998,1.5033333333333334,1.499,38.751999999999995,30.091,38.907,35.803,56.064,35.493,60.2545,53.41,53.986000000000004,34.5785,58.8055,51.6975,53.126999999999995,34.0945,58.688,51.088,-0.10449999999999993,-0.058499999999999996,0.112225,0.10677500000000001,0.0,216.65,216.66,213.38333333333333,213.38333333333333,0.0,0.0
28,0.0,0.0,0.0,1.0,1.0,0.0,0.0,1.0,0.0,100.0,1.0,1.1856,26.0,0.0,0.0,0.0,55.000001,0.0,26.0,26.0,26.0,26.0,0.040124999999999966,0.27870000000000017,-0.06556666666666666,292.007,-2.6769,-2.65925,-1.6219999999999999,-1.5716,-181.16,215.5775,190.383125,0.0,0.0,0.0,0.0,0.05653333333333334,-5.498166666666667,-5.498166666666667,-0.6048,0.5936666666666668,-0.002000000000000224,-0.8220000000000001,69.345,0.0125,-0.22135000000000002,-0.19599999999999973,100.0,1.0,1.0,213.90666666666667,0.0,0.0,0.0,0.0,0.0,0.0,0.0,9066.8,0.0,55.0,5.0,249.61666666666667,0.0,0.0,0.0,0.0,0.0,0.0,0.0,0.0,1.404,1.404,0.0,0.0,0.0,55.0,616.79921,10000.0,85.000001,85.000001,85.000001,85.000001,395.0,0.0,0.0,0.0,1.0,333.33500000000004,51.804,51.804,47.668,47.668,34.0,-23.662499999999998,24.791666666666664,-28.346666666666664,28.865000000000002,0.0,1781.903,-0.379999999999999,100.0,28.53,28.603,43.416,43.733000000000004,0.0,0.0,100.0,0.0,0.0,0.0,0.0,3210.75,3083.1,4070.75,4077.8,305.19,304.884,315.10875,314.789,22.0498,20.6603,22.0754,21.5776,314.999998,314.999998,324.999988,324.999988,99.55964285714286,99.50741666666667,99.56977142857143,99.54971428571429,0.10066666666666668,-0.03866666666666663,-0.10233333333333333,0.12383333333333334,-0.05833333333333002,-0.05833333333333002,1.568,1.56,38.811,30.126666666666665,38.971000000000004,35.86,56.052,35.5325,60.287,53.467,53.974999999999994,34.615,58.835499999999996,51.752,53.114999999999995,34.1295,58.7145,51.141999999999996,-0.11099999999999999,-0.0515000000000001,0.10449000000000001,0.10479500000000001,0.0,217.095,217.09,213.90666666666667,213.90666666666667,0.0,0.0
29,0.0,0.0,0.0,1.0,1.0,0.0,0.0,1.0,0.0,100.0,1.0,1.1856,26.0,0.0,0.0,0.0,55.000001,0.0,26.0,26.0,26.0,26.0,0.03462500000000013,0.25780000000000003,-0.008833333333333334,291.748,-2.6595,-2.71725,-1.5711,-1.5485,-177.62,215.57,190.35675,0.0,0.0,0.0,0.0,0.058600000000000006,-5.498166666666667,-5.498166666666667,-0.6039,-0.643,0.0024444444444442492,0.944,69.48,0.0165,-0.21480000000000002,-0.35799999999999965,100.0,1.0,1.0,214.12333333333333,0.0,0.0,0.0,0.0,0.0,0.0,0.0,9076.0,0.0,55.0,5.0,250.10000000000002,1.0,0.0,0.0,0.0,0.0,0.0,0.0,0.0,1.4549999999999983,1.4549999999999983,0.0,0.0,1.0,55.0,616.79921,10000.0,85.000001,85.000001,85.000001,85.000001,395.0,0.0,0.0,0.0,1.0,166.665,52.17,52.17,46.677,46.677,34.0,-21.7375,25.805,-28.373333333333335,31.630000000000003,0.0,1781.854,-0.375,100.0,28.342,28.27,43.897,43.916,0.0,0.0,100.0,0.0,0.0,0.0,0.0,3022.5,3157.1,4174.0,4346.5,305.64,304.802,314.634,314.1445,22.0591,20.6659,22.086,21.5869,314.999998,314.999998,324.999988,324.999988,99.55965714285715,99.50743333333334,99.56991428571429,99.54987142857142,0.1073333333333335,-0.03933333333333322,-0.08583333333333333,0.13,-0.041666666666671404,-0.05666666666667197,1.4723333333333333,1.4635,38.869,30.161666666666665,39.037,35.9185,56.038,35.570499999999996,60.3255,53.528,53.962,34.65,58.8715,51.8105,53.101,34.163,58.7475,51.199,-0.10549999999999993,-0.05800000000000005,0.10633000000000001,0.10432500000000001,0.0,217.485,217.485,214.12333333333333,214.12333333333333,0.0,0.0
30,0.0,0.0,0.0,1.0,1.0,0.0,0.0,1.0,0.0,100.0,1.0,1.1856,26.0,0.0,0.0,0.0,55.000001,0.0,26.0,26.0,26.0,26.0,0.03462500000000013,0.25960000000000005,0.049933333333333337,291.229,-2.71735,-2.60365,-1.5459,-1.6023,-174.28,215.565,190.33175,0.0,0.0,0.0,0.0,0.06053333333333334,-5.498166666666667,-5.498166666666667,-0.6079,0.7343333333333333,0.0015555555555555323,0.48,69.601,0.018500000000000003,-0.22057500000000002,-0.347999999999999,100.0,1.0,1.0,214.62333333333333,0.0,0.0,0.0,0.0,0.0,0.0,0.0,9097.1,0.0,55.0,5.0,250.53666666666666,0.0,0.0,0.0,0.0,0.0,0.0,1.0,0.0,1.5030000000000001,1.5030000000000001,0.0,0.0,0.0,55.0,616.79921,10000.0,85.000001,85.000001,85.000001,85.000001,395.0,0.0,0.0,0.0,1.0,333.33500000000004,50.568,50.568,47.256,47.256,34.0,-24.974999999999998,27.11,-26.979999999999997,31.46,0.0,1781.805,-0.379999999999999,100.0,29.099,28.98,43.620000000000005,43.929,0.0,0.0,100.0,0.0,0.0,0.0,0.0,3362.5,3353.5,4081.0,4166.3,304.578,304.091,314.97475,314.54875,22.0681,20.6714,22.0958,21.5956,314.999998,314.999998,324.999988,324.999988,99.55967142857143,99.50743333333334,99.57005714285714,99.55001428571428,0.11333333333333373,-0.030333333333333323,-0.08683333333333333,0.14483333333333334,-0.02833333333332888,-0.04833333333333201,1.52,1.498,38.926,30.196333333333335,39.098,35.973,56.03,35.609,60.357,53.5835,53.954,34.686,58.9005,51.864,53.091,34.1975,58.7735,51.2515,-0.11449999999999994,-0.05499999999999994,0.10762500000000001,0.10944000000000001,0.0,217.865,217.89,214.62333333333333,214.62333333333333,0.0,0.0
31,0.0,0.0,0.0,1.0,1.0,0.0,0.0,1.0,0.0,100.0,1.0,1.1856,26.0,0.0,0.0,0.0,55.000001,0.0,26.0,26.0,26.0,26.0,0.02750000000000008,0.24480000000000013,0.04836666666666667,290.848,-2.76245,-2.63245,-1.5931000000000002,-1.4996,-170.51999999999998,215.56,190.304375,0.0,0.0,0.0,0.0,0.06273333333333334,-5.498166666666667,-5.498166666666667,-0.5893,-0.44399999999999995,0.008333333333333304,0.6779999999999999,69.741,0.020800000000000003,-0.22182500000000002,-0.34999999999999964,100.0,1.0,1.0,214.89,0.0,0.0,0.0,0.0,0.0,0.0,0.0,9108.3,0.0,55.0,5.0,251.04333333333335,1.0,0.0,0.0,0.0,0.0,0.0,1.0,0.0,1.5569999999999986,1.5569999999999986,0.0,0.0,1.0,55.0,616.79921,10000.0,85.000001,85.000001,85.000001,85.000001,395.0,0.0,0.0,0.0,1.0,166.665,51.086,51.086,45.715,45.715,34.0,-23.2375,27.756666666666668,-29.08,31.73,0.0,1781.751,-0.41000000000000014,100.0,29.004,29.064,44.462,44.652,0.0,0.0,100.0,0.0,0.0,0.0,0.0,3141.625,3372.6,4264.25,4333.6,305.363,304.2633333333333,314.42,314.13025,22.0781,20.6775,22.1071,21.6057,314.999998,314.999998,324.999988,324.999988,99.55968571428572,99.50743333333334,99.57021428571429,99.55017142857143,0.1166666666666667,-0.020000000000000018,-0.077,0.14350000000000002,-0.02499999999999858,-0.04333333333332945,1.4486666666666668,1.4385,38.988,30.234666666666666,39.169,36.0355,56.016999999999996,35.6515,60.3985,53.65,53.942,34.7255,58.939499999999995,51.9285,53.079,34.235,58.809,51.314,-0.11399999999999999,-0.04849999999999999,0.10522500000000001,0.10683500000000001,0.0,218.28,218.29500000000002,214.89,214.89,0.0,0.0
32,0.0,0.0,0.0,1.0,1.0,0.0,0.0,1.0,0.0,100.0,1.0,1.1856,26.0,0.0,0.0,0.0,55.000001,0.0,26.0,26.0,26.0,26.0,0.01924999999999999,0.2619,-0.044666666666666674,291.275,-2.68855,-2.6911,-1.6476000000000002,-1.5553,-167.17000000000002,215.5575,190.2805,0.0,0.0,0.0,0.0,0.06466666666666666,-5.498166666666667,-5.498166666666667,-0.6056,-0.15600000000000003,-0.01200000000000001,0.2809999999999999,69.861,0.0228,-0.230325,-0.4039999999999999,100.0,1.0,1.0,215.36,0.0,0.0,0.0,0.0,0.0,0.0,0.0,9128.4,0.0,55.0,5.0,251.47666666666666,0.0,0.0,0.0,0.0,0.0,0.0,1.0,0.0,1.6050000000000004,1.6050000000000004,0.0,0.0,0.0,55.0,616.79921,10000.0,85.000001,85.000001,85.000001,85.000001,395.0,0.0,0.0,0.0,1.0,333.33500000000004,51.513999999999996,51.513999999999996,46.494,46.494,34.0,-22.34,26.191666666666666,-29.32666666666666,31.552500000000002,0.0,1781.701,-0.35999999999999943,100.0,28.906,28.916,44.219,44.501999999999995,0.0,0.0,100.0,0.0,0.0,0.0,0.0,3094.625,3183.3,4211.25,4298.2,305.388,304.7463333333333,314.7135,314.3615,22.0868,20.683,22.1169,21.6144,314.999998,314.999998,324.999988,324.999988,99.55971428571429,99.50745,99.57035714285715,99.55031428571428,0.11500000000000021,-0.030000000000000027,-0.0845,0.1405,-0.046666666666666856,-0.036666666666668846,1.5110000000000001,1.505,39.043,30.268666666666668,39.230999999999995,36.09,56.006,35.6885,60.431,53.705,53.931,34.7595,58.97,51.9815,53.067,34.268,58.836,51.366,-0.10999999999999999,-0.05400000000000005,0.11209000000000001,0.10593500000000002,0.0,218.66500000000002,218.655,215.36,215.36,0.0,0.0
33,0.0,0.0,0.0,1.0,1.0,0.0,0.0,1.0,0.0,100.0,1.0,1.1856,26.0,0.0,0.0,0.0,55.000001,0.0,26.0,26.0,26.0,26.0,0.02662500000000012,0.2573000000000001,-0.04796666666666667,291.58,-2.7213,-2.6861,-1.5856,-1.5949,-163.81,215.555,190.255375,0.0,0.0,0.0,0.0,0.06663333333333334,-5.498166666666667,-5.498166666666667,-0.6144000000000001,-0.253,-0.014000000000000234,1.012,69.983,0.024200000000000003,-0.217425,-0.3120000000000003,100.0,1.0,1.0,215.73666666666668,0.0,0.0,0.0,0.0,0.0,0.0,0.0,9144.3,0.0,55.0,5.0,251.91333333333336,1.0,0.0,0.0,0.0,0.0,0.0,1.0,0.0,1.6529999999999987,1.6529999999999987,0.0,0.0,1.0,55.0,616.79921,10000.0,85.000001,85.000001,85.000001,85.000001,395.0,0.0,0.0,0.0,1.0,166.665,51.879999999999995,51.879999999999995,46.783,46.783,34.0,-22.482499999999998,25.483333333333334,-28.269999999999996,31.502499999999998,0.0,1781.654,-0.375,100.0,28.746,28.631,44.051,44.322,0.0,0.0,100.0,0.0,0.0,0.0,0.0,3069.125,3123.1,4143.125,4221.7,305.5635,304.93833333333333,314.79975,314.494,22.0956,20.688299999999998,22.1267,21.6231,314.999998,314.999998,324.999988,324.999988,99.55971428571429,99.50745,99.5705,99.55045714285714,0.11100000000000021,-0.032333333333333325,-0.0895,0.1405,-0.03999999999999915,-0.046666666666666856,1.5110000000000001,1.508,39.097,30.301666666666666,39.292,36.1445,55.994,35.7235,60.463499999999996,53.76,53.92,34.792,59.0,52.034,53.055,34.299,58.8635,51.417,-0.10999999999999999,-0.05499999999999994,0.11054000000000001,0.11191500000000001,0.0,219.01999999999998,219.05,215.73666666666668,215.73666666666668,0.0,0.0
34,0.0,0.0,0.0,1.0,1.0,0.0,0.0,1.0,0.0,100.0,1.0,1.1856,26.0,0.0,0.0,0.0,55.000001,0.0,26.0,26.0,26.0,26.0,0.047125000000000083,0.254,-0.052366666666666666,291.824,-2.6628,-2.6768,-1.6505,-1.5551,-160.24,215.5525,190.2275,0.0,0.0,0.0,0.0,0.0687,-5.498166666666667,-5.498166666666667,-0.64,-0.817,0.009444444444444366,-0.30199999999999994,70.112,0.0247,-0.22212500000000002,-0.2679999999999998,100.0,1.0,1.0,216.11333333333334,0.0,0.0,0.0,0.0,0.0,0.0,0.0,9160.3,0.0,55.0,5.0,252.37666666666667,0.0,0.0,0.0,0.0,0.0,0.0,1.0,0.0,1.7040000000000006,1.7040000000000006,0.0,0.0,0.0,55.0,616.79921,10000.0,85.000001,85.000001,85.000001,85.000001,395.0,0.0,0.0,0.0,1.0,333.33500000000004,52.277,52.277,47.18,47.18,34.0,-22.315,24.336666666666666,-29.446666666666665,30.3425,0.0,1781.604,-0.370000000000001,100.0,28.342,28.432000000000002,43.808,44.452,0.0,0.0,100.0,0.0,0.0,0.0,0.0,3113.375,2979.8,4156.0,4178.1,305.573,305.1623333333333,314.85325,314.503,22.1048,20.6938,22.1371,21.6325,314.999998,314.999998,324.999988,324.999988,99.55972857142856,99.50745,99.57064285714286,99.5506,0.1073333333333335,-0.03166666666666673,-0.0955,0.13366666666666666,-0.045000000000001705,-0.05333333333332746,1.5213333333333334,1.5095,39.155,30.336666666666666,39.357,36.203,55.980999999999995,35.76,60.4975,53.8195,53.907,34.8255,59.032,52.092,53.041,34.3315,58.8915,51.4735,-0.10799999999999998,-0.0495000000000001,0.10749500000000001,0.10983000000000001,0.0,219.43,219.435,216.11333333333334,216.11333333333334,0.0,0.0
35,0.0,0.0,0.0,1.0,1.0,0.0,0.0,1.0,0.0,100.0,1.0,1.1856,26.0,0.0,0.0,0.0,55.000001,0.0,26.0,26.0,26.0,26.0,0.05712500000000009,0.2521,-0.045866666666666674,291.809,-2.7227,-2.6203,-1.6209,-1.5150000000000001,-156.45,215.5525,190.195875,0.0,0.0,0.0,0.0,0.0709,-5.498166666666667,-5.498166666666667,-0.6808000000000001,-0.20866666666666667,-0.008111111111110958,-1.246,70.24600000000001,0.027800000000000002,-0.228325,-0.31599999999999984,100.0,1.0,1.0,216.61666666666667,0.0,0.0,0.0,0.0,0.0,0.0,0.0,9181.6,0.0,55.0,5.0,252.86,1.0,0.0,0.0,0.0,0.0,0.0,1.0,0.0,1.7579999999999991,1.7579999999999991,0.0,0.0,1.0,55.0,616.79921,10000.0,85.000001,85.000001,85.000001,85.000001,395.0,0.0,0.0,0.0,1.0,166.665,51.743,51.743,46.844,46.844,34.0,-23.4575,26.78333333333333,-27.523333333333333,28.745,0.0,1781.55,-0.22500000000000142,100.0,28.143,28.789,43.618,43.903,0.0,0.0,100.0,0.0,0.0,0.0,0.0,3155.25,3299.2,4056.875,4018.6000000000004,305.4285,304.25166666666667,315.03075,314.9375,22.1144,20.7,22.148,21.6421,314.999998,314.999998,324.999988,324.999988,99.55974285714285,99.50745,99.5708,99.55075714285714,0.1033333333333335,-0.03066666666666662,-0.08366666666666667,0.14333333333333334,-0.05333333333332746,-0.05666666666667197,1.5583333333333333,1.5335,39.215,30.375,39.425,36.2635,55.966,35.8015,60.533,53.8785,53.891999999999996,34.8645,59.064499999999995,52.1485,53.025,34.3685,58.921,51.528999999999996,-0.09699999999999998,-0.0625,0.10265500000000001,0.106855,0.0,219.85500000000002,219.865,216.61666666666667,216.61666666666667,0.0,0.0
36,0.0,0.0,0.0,1.0,1.0,0.0,0.0,1.0,0.0,100.0,1.0,1.1856,26.0,0.0,0.0,0.0,55.000001,0.0,26.0,26.0,26.0,26.0,0.04899999999999993,0.258,0.03283333333333333,291.10699999999997,-2.6452999999999998,-2.71705,-1.5666,-1.56,-153.07,215.5525,190.166375,0.0,0.0,0.0,0.0,0.07286666666666666,-5.498166666666667,-5.498166666666667,-0.6628000000000001,0.18566666666666687,-0.05088888888888876,-1.316,70.369,0.0233,-0.2016,-0.0420000000000007,100.0,1.0,1.0,216.78,0.0,0.0,0.0,0.0,0.0,0.0,0.0,9188.5,0.0,55.0,5.0,253.3,0.0,0.0,0.0,0.0,0.0,0.0,1.0,0.0,1.806000000000001,1.806000000000001,0.0,0.0,0.0,55.0,616.79921,10000.0,85.000001,85.000001,85.000001,85.000001,395.0,0.0,0.0,0.0,1.0,166.665,51.59,51.59,46.448,46.448,34.0,-22.8375,24.803333333333335,-30.486666666666665,33.1875,0.0,1781.502,-0.16000000000000014,100.0,28.781,28.926000000000002,43.796,44.251000000000005,0.0,0.0,100.0,0.0,0.0,0.0,0.0,3151.0,3033.1,4424.375,4448.6,305.271,304.9483333333333,314.21725,313.88,22.1232,20.7055,22.157899999999998,21.651,314.999998,314.999998,324.999988,324.999988,99.55975714285714,99.50746666666667,99.57094285714285,99.5509,0.10433333333333339,-0.04299999999999993,-0.089,0.13566666666666666,-0.045000000000001705,-0.041666666666671404,1.4436666666666667,1.4445000000000001,39.269999999999996,30.409,39.486999999999995,36.3185,55.955,35.839,60.5665,53.935,53.882,34.899,59.096000000000004,52.203,53.013999999999996,34.402,58.9495,51.582,-0.09550000000000003,-0.07050000000000001,0.10401500000000001,0.11470000000000001,0.0,220.255,220.255,216.78,216.78,0.0,0.0
