,ABS Active,ABS Enabled,AID Allow Tire Blankets,AID Auto Blip,AID Auto Clutch,AID Auto Shift,AID Fuel Rate,AID Ideal Line,AID Mech Damage,AID Stability,AID Tire Wear Rate,Air Density,Air Temp,Ballast,Best Lap Delta,Best Lap Time,Brake Bias,Brake Pos,Brake Temp FL,Brake Temp FR,Brake Temp RL,Brake Temp RR,CG Accel Lateral,CG Accel Longitudinal,CG Accel Vertical,CG Height,Camber FL,Camber FR,Camber RL,Camber RR,Car Coord X,Car Coord Y,Car Coord Z,Car Damage Front,Car Damage Left,Car Damage Rear,Car Damage Right,Car Pos Norm,Caster FL,Caster FR,Chassis Pitch Angle,Chassis Pitch Rate,Chassis Roll Angle,Chassis Roll Rate,Chassis Velocity X,Chassis Velocity Y,Chassis Velocity Z,Chassis Yaw Rate,Clutch Pos,DRS Active,DRS Available,Drive Train Speed,ERS Heat Charging,ERS Is Charging,ERS Max Energy,ERS Power Level,ERS Recovery Level,Engine Brake Setting,Engine Limiter,Engine RPM,Flags,Fuel Level,Gear,Ground Speed,HR Sample Clock,In Pit,KERS Charge,KERS Deployed Energy,KERS Input,KERS Max Energy,LR Sample Clock,Lap Invalidated,Lap Time,Lap Time2,Last Lap Time,Last Sector Time,MR Sample Clock,Max Fuel,Max Power,Max RPM,Max Sus Travel FL,Max Sus Travel FR,Max Sus Travel RL,Max Sus Travel RR,Max Torque,Max Turbo Boost,Num Tires Off Track,Penalties Enabled,Position,Raw Data Sample Rate,Ride Height FL,Ride Height FR,Ride Height RL,Ride Height RR,Road Temp,Self Align Torque FL,Self Align Torque FR,Self Align Torque RL,Self Align Torque RR,Session Lap Count,Session Time Left,Steering Angle,Surface Grip,Suspension Travel FL,Suspension Travel FR,Suspension Travel RL,Suspension Travel RR,TC Active,TC Enabled,Throttle Pos,Tire Dirt Level FL,Tire Dirt Level FR,Tire Dirt Level RL,Tire Dirt Level RR,Tire Load FL,Tire Load FR,Tire Load RL,Tire Load RR,Tire Loaded Radius FL,Tire Loaded Radius FR,Tire Loaded Radius RL,Tire Loaded Radius RR,Tire Pressure FL,Tire Pressure FR,Tire Pressure RL,Tire Pressure RR,Tire Radius FL,Tire Radius FR,Tire Radius RL,Tire Radius RR,Tire Rubber Grip FL,Tire Rubber Grip FR,Tire Rubber Grip RL,Tire Rubber Grip RR,Tire Slip Angle FL,Tire Slip Angle FR,Tire Slip Angle RL,Tire Slip Angle RR,Tire Slip Ratio FL,Tire Slip Ratio FR,Tire Slip Ratio RL,Tire Slip Ratio RR,Tire Temp Core FL,Tire Temp Core FR,Tire Temp Core RL,Tire Temp Core RR,Tire Temp Inner FL,Tire Temp Inner FR,Tire Temp Inner RL,Tire Temp Inner RR,Tire Temp Middle FL,Tire Temp Middle FR,Tire Temp Middle RL,Tire Temp Middle RR,Tire Temp Outer FL,Tire Temp Outer FR,Tire Temp Outer RL,Tire Temp Outer RR,Toe In FL,Toe In FR,Toe In RL,Toe In RR,Turbo Boost,Wheel Angular Speed FL,Wheel Angular Speed FR,Wheel Angular Speed RL,Wheel Angular Speed RR,Wind Direction,Wind Speed
0,0.0,0.0,0.0,1.0,1.0,0.0,0.0,1.0,0.0,100.0,1.0,1.1856,26.0,0.0,0.0,0.0,59.99999,0.0,26.0,26.0,26.0,26.0,-0.179875,0.28659999999999997,0.07066666666666667,297.638,-2.7038,-2.70175,-1.4109,-1.508,-275.72,216.22750000000002,190.9915,0.0,0.0,0.0,0.0,0.0015666666666666051,-5.498166666666667,-5.498166666666667,-0.6602,0.7426666666666667,-0.03977777777777769,-1.291,65.639,-0.1014,-0.331975,1.9420000000000002,100.0,1.0,1.0,202.71,0.0,0.0,0.0,0.0,0.0,0.0,0.0,8592.1,0.0,55.0,5.0,236.2733333333333,0.0,0.0,0.0,0.0,0.0,0.0,0.0,0.0,0.0030000000000001137,0.0030000000000001137,0.0,0.0,0.0,55.0,616.79921,10000.0,85.0,85.0,85.0,85.0,395.0,0.0,0.0,0.0,1.0,20.0,53.055,53.055,56.107,56.107,34.0,-33.455,21.369999999999997,-31.856666666666666,18.7275,0.0,1783.502,1.3100000000000023,100.0,26.622,25.9165,34.737,34.236000000000004,0.0,0.0,100.0,0.0,0.0,0.0,0.0,3352.0,3471.5,4032.5,3776.4,304.7405,303.81025,315.0996666666667,315.39125,21.7464,20.5439,21.8416,21.304,314.99999,314.99999,324.99998,324.99998,99.55774285714286,99.50818333333333,99.56982857142857,99.54537142857143,-0.08899999999999997,-0.1865,-0.23966666666666667,-0.014833333333333334,-0.054999999999999716,-0.030000000000001137,1.5806666666666667,1.6395,36.915,29.3995,37.51,34.15,55.888,35.1665,60.729,51.614,53.775,34.289500000000004,59.311,50.016,52.897999999999996,33.835,59.2885,49.48833333333333,0.033666666666666956,-0.17149999999999999,0.10761000000000001,0.10438000000000001,0.0,205.69,205.54000000000002,202.71,202.71,0.0,0.0
1,0.0,0.0,0.0,1.0,1.0,0.0,0.0,1.0,0.0,100.0,1.0,1.1856,26.0,0.0,0.0,0.0,59.999996,0.0,26.0,26.0,26.0,26.0,-0.22512500000000002,0.30290000000000017,0.008633333333333333,296.616,-2.6245,-2.81575,-1.4118,-1.507125,-272.37,216.2375,190.971125,0.0,0.0,0.0,0.0,0.0035333333333333883,-5.498166666666667,-5.498166666666667,-0.5815,0.2633333333333333,-0.09155555555555583,0.08499999999999996,65.794,-0.11720000000000001,-0.30057500000000004,2.128,100.0,1.0,1.0,202.76333333333332,0.0,0.0,0.0,0.0,0.0,0.0,0.0,8594.5,0.0,55.0,5.0,236.82666666666665,1.0,0.0,0.0,0.0,0.0,0.0,0.0,0.0,0.053999999999998494,0.053999999999998494,0.0,0.0,1.0,55.0,616.79921,10000.0,85.000001,85.000001,85.000001,85.000001,395.0,0.0,0.0,0.0,1.0,166.665,54.581,54.581,54.047,54.047,34.0,-30.4325,15.418333333333333,-39.763333333333335,24.645,0.0,1783.451,1.2800000000000011,100.0,26.974,25.917,36.744,35.218,0.0,0.0,100.0,0.0,0.0,0.0,0.0,3118.0,2569.6,4617.375,4765.3,305.1425,306.6405,313.541,313.0205,21.7565,20.5493,21.852899999999998,21.3131,314.999998,314.999998,324.999988,324.999988,99.55775714285714,99.50821666666667,99.56998571428572,99.54551428571429,-0.08624999999999994,-0.20024999999999993,-0.25233333333333335,-0.0275,-0.01666666666666572,-0.05142857142857338,1.3543333333333334,1.4455,36.977999999999994,29.433,37.58,34.2065,55.881,35.211,60.7725,51.6775,53.768,34.33,59.352000000000004,50.076499999999996,52.89,33.874,59.327,49.548,0.03000000000000025,-0.17200000000000015,0.097945,0.11409500000000002,0.0,206.20499999999998,206.05,202.76333333333332,202.76333333333332,0.0,0.0
2,0.0,0.0,0.0,1.0,1.0,0.0,0.0,1.0,0.0,100.0,1.0,1.1856,26.0,0.0,0.0,0.0,59.999996,0.0,26.0,26.0,26.0,26.0,-0.23050000000000004,0.27480000000000016,-0.1468,297.943,-2.6063,-2.828875,-1.38875,-1.54275,-268.81,216.2425,190.951875,0.0,0.0,0.0,0.0,0.005599999999999938,-5.498166666666667,-5.498166666666667,-0.6437,-0.336,-0.06277777777777782,2.957,65.944,-0.1303,-0.37317500000000003,2.2780000000000005,100.0,1.0,1.0,203.75666666666666,0.0,0.0,0.0,0.0,0.0,0.0,0.0,8636.5,0.0,55.0,5.0,237.37,0.0,0.0,0.0,0.0,0.0,0.0,0.0,0.0,0.10800000000000054,0.10800000000000054,0.0,0.0,0.0,55.0,616.79921,10000.0,85.000001,85.000001,85.000001,85.000001,395.0,0.0,0.0,0.0,1.0,166.665,53.848,53.848,56.885,56.885,34.0,-33.215,17.165,-30.623333333333335,16.42,0.0,1783.396,1.1950000000000003,100.0,27.079,25.6565,36.218,34.732,0.0,0.0,100.0,0.0,0.0,0.0,0.0,3342.333333333333,2865.3,3724.5,3609.0,304.4775,305.793,315.705,315.94825,21.7672,20.5545,21.8645,21.322400000000002,314.999998,314.999998,324.999988,324.999988,99.55778571428571,99.50821666666667,99.57014285714286,99.54565714285714,-0.09575,-0.20999999999999996,-0.2836666666666667,-0.04583333333333334,-0.026666666666670835,-0.04714285714285893,1.6153333333333335,1.7155,37.045,29.466,37.653,34.265,55.873999999999995,35.251,60.8115,51.738,53.760999999999996,34.367,59.3885,50.1345,52.882999999999996,33.909,59.361,49.605000000000004,0.022333333333333094,-0.16300000000000026,0.10454000000000001,0.11170000000000001,0.0,206.615,206.45,203.75666666666666,203.75666666666666,0.0,0.0
3,0.0,0.0,0.0,1.0,1.0,0.0,0.0,1.0,0.0,100.0,1.0,1.1856,26.0,0.0,0.0,0.0,59.999996,0.0,26.0,26.0,26.0,26.0,-0.219375,0.30079999999999996,-0.0533,297.836,-2.7389,-2.7193750000000003,-1.41105,-1.5145,-265.84,216.2425,190.934625,0.0,0.0,0.0,0.0,0.007299999999999973,-5.498166666666667,-5.498166666666667,-0.609,0.9043333333333334,-0.022555555555555884,-0.986,66.077,-0.1436,-0.3144,1.902000000000001,100.0,1.0,1.0,203.91333333333333,0.0,0.0,0.0,0.0,0.0,0.0,0.0,8643.1,0.0,55.0,5.0,237.8466666666667,1.0,0.0,0.0,0.0,0.0,0.0,0.0,0.0,0.1529999999999987,0.1529999999999987,0.0,0.0,1.0,55.0,616.79921,10000.0,85.000001,85.000001,85.000001,85.000001,395.0,0.0,0.0,0.0,1.0,333.33500000000004,54.84,54.84,55.191,55.191,34.0,-29.475,16.12333333333333,-37.336666666666666,18.725,0.0,1783.351,0.8900000000000006,100.0,26.531,25.765,35.563,34.588,0.0,0.0,100.0,0.0,0.0,0.0,0.0,2965.1666666666665,2750.0,4336.375,4073.4,305.751,305.876,314.358,314.73875,21.7759,20.5592,21.874,21.3301,314.999998,314.999998,324.999988,324.999988,99.5578,99.50825,99.57027142857143,99.54578571428571,-0.08799999999999997,-0.19899999999999995,-0.2798333333333333,-0.052833333333333336,-0.026666666666670835,-0.05285714285714249,1.5006666666666666,1.5835,37.099000000000004,29.494999999999997,37.713,34.313,55.863,35.2915,60.844,51.7945,53.751999999999995,34.4045,59.419,50.189499999999995,52.872,33.9445,59.388999999999996,49.65866666666666,-0.0040000000000000036,-0.14000000000000012,0.10316,0.10976000000000001,0.0,207.075,206.925,203.91333333333333,203.91333333333333,0.0,0.0
4,0.0,0.0,0.0,1.0,1.0,0.0,0.0,1.0,0.0,100.0,1.0,1.1856,26.0,0.0,0.0,0.0,59.999996,0.0,26.0,26.0,26.0,26.0,-0.23050000000000004,0.30580000000000007,-0.027733333333333332,297.791,-2.6647,-2.7795,-1.4241000000000001,-1.529875,-262.47,216.2375,190.914625,0.0,0.0,0.0,0.0,0.009266666666666534,-5.498166666666667,-5.498166666666667,-0.6339,-1.0010000000000001,-0.09277777777777807,-0.476,66.225,-0.1358,-0.340575,1.5620000000000012,100.0,1.0,1.0,204.36,0.0,0.0,0.0,0.0,0.0,0.0,0.0,8662.1,0.0,55.0,5.0,238.38333333333333,0.0,0.0,0.0,0.0,0.0,0.0,0.0,0.0,0.20400000000000063,0.20400000000000063,0.0,0.0,0.0,55.0,616.79921,10000.0,85.000001,85.000001,85.000001,85.000001,395.0,0.0,0.0,0.0,1.0,333.33500000000004,54.535,54.535,55.222,55.222,34.0,-31.5625,18.118333333333332,-35.32,18.315,0.0,1783.3,0.8399999999999999,100.0,26.421,25.3465,36.237,34.722,0.0,0.0,100.0,0.0,0.0,0.0,0.0,3230.666666666667,2895.6,4234.875,3724.7,305.0105,305.6845,314.4273333333333,315.5555,21.7855,20.5644,21.8852,21.339,314.999998,314.999998,324.999988,324.999988,99.5578,99.50826666666667,99.57041428571429,99.54591428571429,-0.08124999999999993,-0.18174999999999997,-0.25383333333333336,-0.026833333333333334,-0.045000000000001705,-0.0357142857142847,1.5273333333333334,1.5705,37.16,29.527,37.782,34.369,55.851,35.329499999999996,60.8825,51.85,53.739999999999995,34.439499999999995,59.455,50.2425,52.86,33.978,59.4225,49.71066666666667,-0.0023333333333332984,-0.12950000000000017,0.10586500000000001,0.10628000000000001,0.0,207.47,207.32999999999998,204.36,204.36,0.0,0.0
5,0.0,0.0,0.0,1.0,1.0,0.0,0.0,1.0,0.0,100.0,1.0,1.1856,26.0,0.0,0.0,0.0,59.999996,0.0,26.0,26.0,26.0,26.0,-0.18987500000000002,0.2997000000000001,-0.03096666666666667,297.852,-2.6879,-2.78775,-1.41825,-1.506625,-259.09,216.225,190.89425,0.0,0.0,0.0,0.0,0.011233333333333317,-5.498166666666667,-5.498166666666667,-0.638,0.36233333333333334,-0.08788888888888868,-0.11299999999999999,66.37,-0.127,-0.3336,1.4920000000000009,100.0,1.0,1.0,204.86,0.0,0.0,0.0,0.0,0.0,0.0,0.0,8683.2,0.0,55.0,5.0,238.90333333333334,1.0,0.0,0.0,0.0,0.0,0.0,0.0,0.0,0.254999999999999,0.254999999999999,0.0,0.0,1.0,55.0,616.79921,10000.0,85.000001,85.000001,85.000001,85.000001,395.0,0.0,0.0,0.0,1.0,333.33500000000004,54.581,54.581,55.801,55.801,34.0,-31.4375,17.701666666666668,-35.22,18.9825,0.0,1783.249,0.46499999999999986,100.0,26.494,25.5655,35.812,34.546,0.0,0.0,100.0,0.0,0.0,0.0,0.0,3268.5,2756.3,4203.25,3946.3,304.986,305.9495,314.69033333333334,315.02625,21.7956,20.5696,21.8961,21.3477,314.999998,314.999998,324.999988,324.999988,99.55781428571429,99.5083,99.57057142857143,99.54605714285714,-0.06599999999999995,-0.17199999999999993,-0.2673333333333333,-0.0325,-0.07333333333333059,-0.044285714285713595,1.5383333333333333,1.585,37.222,29.560000000000002,37.849999999999994,34.423,55.842,35.3725,60.9215,51.909,53.730999999999995,34.479,59.492,50.299,52.85,34.0155,59.4565,49.766,-0.03066666666666662,-0.10650000000000004,0.10988500000000001,0.11131,0.0,207.97,207.825,204.86,204.86,0.0,0.0
6,0.0,0.0,0.0,1.0,1.0,0.0,0.0,1.0,0.0,100.0,1.0,1.1856,26.0,0.0,0.0,0.0,59.999996,0.0,26.0,26.0,26.0,26.0,-0.16912499999999997,0.2921,0.006166666666666667,297.638,-2.6532,-2.8185000000000002,-1.46135,-1.5017500000000001,-255.7,216.21,190.873625,0.0,0.0,0.0,0.0,0.01319999999999999,-5.498166666666667,-5.498166666666667,-0.628,0.17066666666666666,-0.06511111111111134,0.927,66.517,-0.113,-0.327,1.0139999999999993,100.0,1.0,1.0,205.25333333333333,0.0,0.0,0.0,0.0,0.0,0.0,0.0,8699.9,0.0,55.0,5.0,239.43333333333334,0.0,0.0,0.0,0.0,0.0,0.0,0.0,0.0,0.30600000000000094,0.30600000000000094,0.0,0.0,0.0,55.0,616.79921,10000.0,85.000001,85.000001,85.000001,85.000001,395.0,0.0,0.0,0.0,1.0,166.665,54.443,54.443,55.405,55.405,34.0,-28.605,20.48166666666667,-34.266666666666666,21.23,0.0,1783.199,0.2699999999999996,100.0,26.556,25.582,35.926,34.778,0.0,0.0,100.0,0.0,0.0,0.0,0.0,3112.166666666667,2928.6,4170.875,4041.8,305.222,305.514,314.683,314.866,21.8055,20.5749,21.9071,21.3567,314.999998,314.999998,324.999988,324.999988,99.55781428571429,99.5083,99.57071428571429,99.5462,-0.03774999999999995,-0.13949999999999996,-0.23733333333333334,0.0005,-0.05333333333332746,-0.0628571428571405,1.5150000000000001,1.5505,37.284,29.593,37.919,34.4795,55.831,35.41,60.9565,51.9655,53.72,34.513,59.525,50.3535,52.839,34.048500000000004,59.487,49.81933333333333,-0.045333333333333226,-0.08450000000000024,0.11152000000000001,0.10873000000000001,0.0,208.385,208.3,205.25333333333333,205.25333333333333,0.0,0.0
7,0.0,0.0,0.0,1.0,1.0,0.0,0.0,1.0,0.0,100.0,1.0,1.1856,26.0,0.0,0.0,0.0,59.999996,0.0,26.0,26.0,26.0,26.0,-0.11262499999999998,0.2875000000000001,0.018566666666666665,297.455,-2.6332,-2.7668749999999998,-1.42475,-1.537625,-252.3,216.19,190.85325,0.0,0.0,0.0,0.0,0.015199999999999991,-5.498166666666667,-5.498166666666667,-0.6354000000000001,-0.11366666666666668,-0.05266666666666664,-0.16399999999999992,66.662,-0.0901,-0.34195000000000003,0.6779999999999999,100.0,1.0,1.0,205.68333333333334,0.0,0.0,0.0,0.0,0.0,0.0,0.0,8718.1,0.0,55.0,5.0,239.96,1.0,0.0,0.0,0.0,0.0,0.0,0.0,0.0,0.3569999999999993,0.3569999999999993,0.0,0.0,1.0,55.0,616.79921,10000.0,85.000001,85.000001,85.000001,85.000001,395.0,0.0,0.0,0.0,1.0,166.665,54.001,54.001,55.664,55.664,34.0,-29.0975,21.096666666666668,-32.32666666666667,22.05,0.0,1783.148,-0.09499999999999886,100.0,26.53,25.8205,35.832,35.068,0.0,0.0,100.0,0.0,0.0,0.0,0.0,3299.666666666667,2921.8,4125.5,3988.3,304.787,305.337,314.81266666666664,314.84325,21.8153,20.5802,21.918,21.3657,314.999998,314.999998,324.999988,324.999988,99.55782857142857,99.50831666666667,99.57085714285714,99.54632857142857,-0.011249999999999982,-0.11699999999999999,-0.21766666666666667,0.0095,-0.051666666666669414,-0.05571428571428072,1.5183333333333335,1.541,37.346000000000004,29.625999999999998,37.988,34.5355,55.818,35.448,60.993,52.025999999999996,53.708,34.5485,59.5595,50.411,52.825,34.082,59.5185,49.876,-0.07099999999999995,-0.06099999999999994,0.11399500000000001,0.10457500000000002,0.0,208.8,208.75,205.68333333333334,205.68333333333334,0.0,0.0
8,0.0,0.0,0.0,1.0,1.0,0.0,0.0,1.0,0.0,100.0,1.0,1.1856,26.0,0.0,0.0,0.0,59.999996,0.0,26.0,26.0,26.0,26.0,-0.07274999999999998,0.2813000000000001,0.018733333333333334,297.714,-2.722,-2.72925,-1.4102000000000001,-1.463875,-249.1,216.17000000000002,190.833875,0.0,0.0,0.0,0.0,0.017033333333333345,-5.498166666666667,-5.498166666666667,-0.6378,-0.431,-0.03000000000000025,-0.623,66.799,-0.0664,-0.3341,0.18799999999999972,100.0,1.0,1.0,206.04666666666668,0.0,0.0,0.0,0.0,0.0,0.0,0.0,8733.5,0.0,55.0,5.0,240.45,0.0,0.0,0.0,0.0,0.0,0.0,0.0,0.0,0.40500000000000114,0.40500000000000114,0.0,0.0,0.0,55.0,616.79921,10000.0,85.000001,85.000001,85.000001,85.000001,395.0,0.0,0.0,0.0,1.0,333.33500000000004,54.886,54.886,54.977000000000004,54.977000000000004,34.0,-26.6075,21.48166666666667,-31.596666666666664,24.165,0.0,1783.099,-0.245000000000001,100.0,25.981,25.795,35.746,35.134,0.0,0.0,100.0,0.0,0.0,0.0,0.0,3052.5,2880.7,4243.75,4108.2,305.6785,305.5415,314.516,314.561,21.8244,20.5852,21.9283,21.3741,314.999998,314.999998,324.999988,324.999988,99.55782857142857,99.50833333333334,99.571,99.54647142857142,0.0020000000000000018,-0.08850000000000002,-0.18366666666666667,0.051500000000000004,-0.04833333333333201,-0.05714285714285694,1.4969999999999999,1.5005,37.403,29.6575,38.052,34.588499999999996,55.801,35.485,61.0285,52.085499999999996,53.692,34.582499999999996,59.5925,50.4685,52.809,34.1145,59.5485,49.93233333333333,-0.08066666666666666,-0.039000000000000146,0.10348500000000001,0.10853000000000002,0.0,209.23000000000002,209.2,206.04666666666668,206.04666666666668,0.0,0.0
9,0.0,0.0,0.0,1.0,1.0,0.0,0.0,1.0,0.0,100.0,1.0,1.1856,26.0,0.0,0.0,0.0,59.999996,0.0,26.0,26.0,26.0,26.0,-0.05412499999999998,0.28790000000000004,0.03543333333333333,297.409,-2.6431,-2.741,-1.46465,-1.468375,-245.69,216.14499999999998,190.81275,0.0,0.0,0.0,0.0,0.019033333333333347,-5.498166666666667,-5.498166666666667,-0.6407,0.6746666666666666,-0.032333333333333325,0.8599999999999999,66.94200000000001,-0.042300000000000004,-0.3325,-0.02799999999999958,100.0,1.0,1.0,206.5966666666667,0.0,0.0,0.0,0.0,0.0,0.0,0.0,8756.8,0.0,55.0,5.0,240.96333333333334,1.0,0.0,0.0,0.0,0.0,0.0,0.0,0.0,0.4559999999999995,0.4559999999999995,0.0,0.0,1.0,55.0,616.79921,10000.0,85.000001,85.000001,85.000001,85.000001,395.0,0.0,0.0,0.0,1.0,166.665,53.696,53.696,56.061,56.061,34.0,-26.2075,24.628333333333334,-28.136666666666663,25.6725,0.0,1783.05,-0.39000000000000057,100.0,26.684,25.9735,35.508,35.032,0.0,0.0,100.0,0.0,0.0,0.0,0.0,3276.666666666667,3084.1,4022.5,4099.5,304.7385,305.04425,315.114,314.74775,21.8342,20.5907,21.939,21.3831,314.999998,314.999998,324.999988,324.999988,99.55782857142857,99.50833333333334,99.57114285714286,99.54661428571428,0.053749999999999964,-0.05399999999999994,-0.14666666666666667,0.08766666666666667,-0.03999999999999915,-0.05714285714285694,1.564,1.5505,37.464,29.692,38.119,34.644,55.789,35.5205,61.0585,52.1405,53.681,34.615,59.6205,50.5215,52.797,34.1455,59.574,49.98433333333333,-0.10466666666666669,-0.03750000000000009,0.10738,0.11453,0.0,209.64499999999998,209.64499999999998,206.5966666666667,206.5966666666667,0.0,0.0
10,0.0,0.0,0.0,1.0,1.0,0.0,0.0,1.0,0.0,100.0,1.0,1.1856,26.0,0.0,0.0,0.0,59.999996,0.0,26.0,26.0,26.0,26.0,-0.021625000000000005,0.2735000000000001,0.052700000000000004,297.287,-2.6762,-2.725,-1.443,-1.448375,-242.47,216.12,190.79325,0.0,0.0,0.0,0.0,0.02089999999999992,-5.498166666666667,-5.498166666666667,-0.6168,-0.3916666666666667,0.006666666666666599,1.867,67.07900000000001,-0.0201,-0.322875,-0.4039999999999999,100.0,1.0,1.0,206.82,0.0,0.0,0.0,0.0,0.0,0.0,0.0,8766.3,0.0,55.0,5.0,241.45666666666665,0.0,0.0,0.0,0.0,0.0,0.0,1.0,0.0,0.5040000000000013,0.5040000000000013,0.0,0.0,0.0,55.0,616.79921,10000.0,85.000001,85.000001,85.000001,85.000001,395.0,0.0,0.0,0.0,1.0,333.33500000000004,54.81,54.81,54.489,54.489,34.0,-21.9225,24.028333333333336,-29.653333333333336,28.785,0.0,1783.0,-0.5649999999999977,100.0,26.43,25.862000000000002,35.975,35.68,0.0,0.0,100.0,0.0,0.0,0.0,0.0,2843.6666666666665,2965.1,4302.25,4363.1,306.0585,305.463,314.286,314.042,21.8434,20.5958,21.9494,21.3917,314.999998,314.999998,324.999988,324.999988,99.55784285714286,99.50835,99.57127142857144,99.54674285714286,0.06824999999999992,-0.036250000000000004,-0.1245,0.10266666666666667,-0.036666666666668846,-0.044285714285713595,1.4676666666666667,1.4395,37.521,29.724,38.184,34.698499999999996,55.777,35.5535,61.093,52.2005,53.669,34.6455,59.6525,50.579,52.785,34.175,59.6035,50.041,-0.10433333333333317,-0.020500000000000185,0.10558000000000001,0.1044,0.0,210.07999999999998,210.085,206.82,206.82,0.0,0.0
11,0.0,0.0,0.0,1.0,1.0,0.0,0.0,1.0,0.0,100.0,1.0,1.1856,26.0,0.0,0.0,0.0,59.999996,0.0,26.0,26.0,26.0,26.0,0.04412499999999997,0.2816000000000001,-0.0916,297.928,-2.729,-2.705125,-1.5002,-1.43275,-239.05,216.095,190.7725,0.0,0.0,0.0,0.0,0.022599999999999953,-5.498166666666667,-5.498166666666667,-0.6615,-0.338,0.03066666666666662,-0.7729999999999999,67.218,0.0039000000000000003,-0.3589,-0.5300000000000002,100.0,1.0,1.0,207.5366666666667,0.0,0.0,0.0,0.0,0.0,0.0,0.0,8796.7,0.0,55.0,5.0,241.96,1.0,0.0,0.0,0.0,0.0,0.0,1.0,0.0,0.5549999999999997,0.5549999999999997,0.0,0.0,1.0,55.0,616.79921,10000.0,85.000001,85.000001,85.000001,85.000001,395.0,0.0,0.0,0.0,1.0,166.665,54.23,54.23,56.274,56.274,34.0,-24.002499999999998,25.958333333333336,-23.483333333333334,25.0275,0.0,1782.951,-0.5949999999999989,100.0,26.003,26.2185,35.377,35.59,0.0,0.0,100.0,0.0,0.0,0.0,0.0,3111.333333333333,3078.9,3708.625,3869.2,305.4865,304.8905,315.89,315.20325,21.8528,20.601399999999998,21.9602,21.4008,314.999998,314.999998,324.999988,324.999988,99.55784285714286,99.50835,99.57141428571428,99.54688571428571,0.08099999999999996,-0.018000000000000016,-0.09833333333333333,0.122,-0.05666666666667197,-0.05714285714285694,1.6306666666666665,1.6135,37.58,29.758499999999998,38.251000000000005,34.754999999999995,55.762,35.589,61.123,52.26,53.655,34.678,59.6805,50.637,52.769999999999996,34.2065,59.629,50.09766666666667,-0.11499999999999999,-0.02300000000000013,0.10538000000000002,0.10817,0.0,210.465,210.495,207.5366666666667,207.5366666666667,0.0,0.0
12,0.0,0.0,0.0,1.0,1.0,0.0,0.0,1.0,0.0,100.0,1.0,1.1856,26.0,0.0,0.0,0.0,59.999996,0.0,26.0,26.0,26.0,26.0,0.04787500000000011,0.30269999999999997,0.0126,297.348,-2.772,-2.7116249999999997,-1.46,-1.44075,-235.62,216.07,190.7505,0.0,0.0,0.0,0.0,0.025466666666666526,-5.498166666666667,-5.498166666666667,-0.6458,0.3426666666666667,0.013555555555555543,0.6699999999999999,67.363,0.0211,-0.323675,-0.6559999999999997,100.0,1.0,1.0,207.77666666666667,0.0,0.0,0.0,0.0,0.0,0.0,0.0,8807.0,0.0,55.0,5.0,242.47666666666666,0.0,0.0,0.0,0.0,0.0,0.0,1.0,0.0,0.6059999999999981,0.6059999999999981,0.0,0.0,0.0,55.0,616.79921,10000.0,85.000001,85.000001,85.000001,85.000001,395.0,0.0,0.0,0.0,1.0,166.665,54.214,54.214,54.932,54.932,34.0,-22.68,27.91166666666667,-25.95,29.990000000000002,0.0,1782.898,-0.6649999999999991,100.0,26.132,26.1625,35.391,35.394999999999996,0.0,0.0,100.0,0.0,0.0,0.0,0.0,3030.6666666666665,3188.3,4183.5,4233.7,305.568,304.758,314.664,314.4045,21.8623,20.607,21.9709,21.4098,314.999998,314.999998,324.999988,324.999988,99.55785714285715,99.50835,99.57155714285715,99.54701428571428,0.10899999999999999,0.008000000000000007,-0.07566666666666667,0.1525,-0.046666666666666856,-0.04285714285714448,1.529,1.5015,37.64,29.794,38.318,34.8115,55.748999999999995,35.625,61.155,52.320499999999996,53.643,34.7115,59.710499999999996,50.695,52.757,34.238,59.656,50.154666666666664,-0.11633333333333318,-0.014499999999999957,0.10608000000000001,0.10473500000000001,0.0,210.935,210.97500000000002,207.77666666666667,207.77666666666667,0.0,0.0
13,0.0,0.0,0.0,1.0,1.0,0.0,0.0,1.0,0.0,100.0,1.0,1.1856,26.0,0.0,0.0,0.0,59.999996,0.0,26.0,26.0,26.0,26.0,0.06899999999999995,0.2861,0.05163333333333334,296.951,-2.7539,-2.6975,-1.4955,-1.42225,-232.18,216.04500000000002,190.728625,0.0,0.0,0.0,0.0,0.026899999999999924,-5.498166666666667,-5.498166666666667,-0.6384000000000001,-0.13066666666666665,0.01644444444444426,-0.5149999999999999,67.505,0.033100000000000004,-0.333225,-0.782,100.0,1.0,1.0,208.14333333333332,0.0,0.0,0.0,0.0,0.0,0.0,0.0,8822.4,0.0,55.0,5.0,242.99,1.0,0.0,0.0,0.0,0.0,0.0,1.0,0.0,0.657,0.657,0.0,0.0,1.0,55.0,616.79921,10000.0,85.000001,85.000001,85.000001,85.000001,395.0,0.0,0.0,0.0,1.0,166.665,53.894,53.894,54.871,54.871,34.0,-23.174999999999997,27.47833333333333,-27.32,31.259999999999998,0.0,1782.849,-0.8249999999999993,100.0,26.255,26.4705,35.521,35.993,0.0,0.0,100.0,0.0,0.0,0.0,0.0,3174.666666666667,3091.6,4245.0,4330.1,305.3,304.85625,314.5656666666667,314.04625,21.8719,20.6127,21.9818,21.4191,314.999998,314.999998,324.999988,324.999988,99.55787142857143,99.50836666666666,99.5717,99.54717142857143,0.11824999999999997,0.018000000000000016,-0.08083333333333333,0.1585,-0.02833333333332888,-0.03857142857143003,1.4863333333333333,1.456,37.699,29.8295,38.385999999999996,34.869,55.739000000000004,35.661500000000004,61.1885,52.3845,53.634,34.745,59.742,50.7565,52.745999999999995,34.2705,59.6845,50.215333333333334,-0.1353333333333333,-0.0024999999999999467,0.11128,0.10992,0.0,211.36,211.41500000000002,208.14333333333332,208.14333333333332,0.0,0.0
14,0.0,0.0,0.0,1.0,1.0,0.0,0.0,1.0,0.0,100.0,1.0,1.1856,26.0,0.0,0.0,0.0,59.999996,0.0,26.0,26.0,26.0,26.0,0.09937499999999999,0.27700000000000014,-0.0071333333333333335,297.256,-2.7528,-2.6423750000000004,-1.5039,-1.425,-228.93,216.0225,190.70875,0.0,0.0,0.0,0.0,0.028766666666666607,-5.498166666666667,-5.498166666666667,-0.65,-0.20033333333333334,0.043888888888888866,-0.129,67.636,0.047400000000000005,-0.35025,-0.9179999999999993,100.0,1.0,1.0,208.64333333333332,0.0,0.0,0.0,0.0,0.0,0.0,0.0,8843.6,0.0,55.0,5.0,243.46333333333334,0.0,0.0,0.0,0.0,0.0,0.0,1.0,0.0,0.7049999999999983,0.7049999999999983,0.0,0.0,0.0,55.0,616.79921,10000.0,85.000001,85.000001,85.000001,85.000001,395.0,0.0,0.0,0.0,1.0,333.33500000000004,54.031,54.031,55.176,55.176,34.0,-21.72,28.118333333333332,-24.766666666666666,30.545,0.0,1782.799,-0.9199999999999982,100.0,26.143,26.506,35.458,36.096000000000004,0.0,0.0,100.0,0.0,0.0,0.0,0.0,3062.6666666666665,3160.4,4024.125,4177.4,305.6285,304.665,315.09,314.4485,21.8809,20.6181,21.992,21.4277,314.999998,314.999998,324.999988,324.999988,99.55788571428572,99.50836666666666,99.57184285714285,99.54731428571428,0.13000000000000012,0.028750000000000053,-0.06616666666666668,0.17416666666666666,-0.060000000000002274,-0.04999999999999716,1.546,1.5030000000000001,37.756,29.863,38.45,34.923,55.730000000000004,35.696,61.218,52.443,53.623999999999995,34.777,59.7695,50.8135,52.736000000000004,34.301,59.7095,50.27133333333333,-0.1399999999999999,0.0024999999999999467,0.10412500000000001,0.11543500000000001,0.0,211.76999999999998,211.82999999999998,208.64333333333332,208.64333333333332,0.0,0.0
15,0.0,0.0,0.0,1.0,1.0,0.0,0.0,1.0,0.0,100.0,1.0,1.1856,26.0,0.0,0.0,0.0,59.999996,0.0,26.0,26.0,26.0,26.0,0.11362500000000009,0.28700000000000014,0.006966666666666668,297.409,-2.757,-2.605875,-1.5279500000000001,-1.367125,-225.48,216.0025,190.687125,0.0,0.0,0.0,0.0,0.03076666666666661,-5.498166666666667,-5.498166666666667,-0.6393,0.2853333333333333,0.07422222222222219,0.7840000000000003,67.776,0.061200000000000004,-0.327425,-1.1899999999999995,100.0,1.0,1.0,209.05,0.0,0.0,0.0,0.0,0.0,0.0,0.0,8860.8,0.0,55.0,5.0,243.96666666666667,1.0,0.0,0.0,0.0,0.0,0.0,1.0,0.0,0.7560000000000002,0.7560000000000002,0.0,0.0,1.0,55.0,616.79921,10000.0,85.000001,85.000001,85.000001,85.000001,395.0,0.0,0.0,0.0,1.0,166.665,54.413,54.413,55.283,55.283,34.0,-18.695,29.113333333333333,-22.92,32.985,0.0,1782.749,-1.004999999999999,100.0,26.216,26.333,35.268,35.982,0.0,0.0,100.0,0.0,0.0,0.0,0.0,2789.6666666666665,3220.1,3936.625,4437.7,306.276,304.65625,315.28,313.921,21.8903,20.6238,22.0027,21.4369,314.999998,314.999998,324.999988,324.999988,99.5579,99.50836666666666,99.57197142857143,99.54745714285714,0.15575000000000006,0.0515000000000001,-0.035166666666666666,0.19383333333333336,-0.04833333333333201,-0.044285714285713595,1.5466666666666666,1.4935,37.815,29.899,38.516999999999996,34.9805,55.72,35.7335,61.2475,52.5065,53.614999999999995,34.812,59.7965,50.8745,52.726,34.3345,59.7335,50.33133333333333,-0.1459999999999999,0.011500000000000066,0.10614000000000001,0.11136000000000001,0.0,212.20499999999998,212.275,209.05,209.05,0.0,0.0
16,0.0,0.0,0.0,1.0,1.0,0.0,0.0,1.0,0.0,100.0,1.0,1.1856,26.0,0.0,0.0,0.0,59.999996,0.0,26.0,26.0,26.0,26.0,0.12650000000000006,0.2715000000000001,-0.03983333333333333,297.409,-2.8158,-2.6172500000000003,-1.49965,-1.431125,-222.01999999999998,215.985,190.665125,0.0,0.0,0.0,0.0,0.03279999999999994,-5.498166666666667,-5.498166666666667,-0.6626000000000001,-0.7356666666666667,0.05544444444444441,-1.224,67.91499999999999,0.0752,-0.346025,-1.1799999999999997,100.0,1.0,1.0,209.49,0.0,0.0,0.0,0.0,0.0,0.0,0.0,8879.5,0.0,55.0,5.0,244.47,0.0,0.0,0.0,0.0,0.0,0.0,1.0,0.0,0.8069999999999986,0.8069999999999986,0.0,0.0,0.0,55.0,616.79921,10000.0,85.000001,85.000001,85.000001,85.000001,395.0,0.0,0.0,0.0,1.0,166.665,54.199,54.199,55.176,55.176,34.0,-21.3975,29.141666666666666,-22.573333333333338,31.715,0.0,1782.698,-0.8900000000000006,100.0,25.699,26.501,35.397999999999996,36.078,0.0,0.0,100.0,0.0,0.0,0.0,0.0,3098.5,3216.5,3963.5,4137.5,305.672,304.54175,315.242,314.509,21.8995,20.6296,22.0135,21.4461,314.999998,314.999998,324.999988,324.999988,99.55792857142858,99.50838333333333,99.57211428571429,99.5476,0.15399999999999991,0.046250000000000124,-0.03333333333333334,0.20083333333333334,-0.041666666666671404,-0.06428571428571672,1.5556666666666668,1.5005,37.872,29.935000000000002,38.585,35.038,55.707,35.772,61.28,52.5685,53.602999999999994,34.847,59.827,50.9345,52.713,34.3685,59.760999999999996,50.39066666666667,-0.1396666666666666,-0.0030000000000001137,0.11489,0.10553000000000001,0.0,212.59,212.685,209.49,209.49,0.0,0.0
17,0.0,0.0,0.0,1.0,1.0,0.0,0.0,1.0,0.0,100.0,1.0,1.1856,26.0,0.0,0.0,0.0,59.999996,0.0,26.0,26.0,26.0,26.0,0.10975000000000001,0.29300000000000015,0.0026000000000000003,296.997,-2.7707,-2.60525,-1.53725,-1.3935,-218.55,215.97,190.6425,0.0,0.0,0.0,0.0,0.03479999999999994,-5.498166666666667,-5.498166666666667,-0.6498,0.5056666666666667,0.0367777777777778,0.919,68.054,0.0805,-0.326125,-1.1739999999999995,100.0,1.0,1.0,209.85333333333335,0.0,0.0,0.0,0.0,0.0,0.0,0.0,8895.0,0.0,55.0,5.0,244.96666666666667,1.0,0.0,0.0,0.0,0.0,0.0,1.0,0.0,0.8580000000000005,0.8580000000000005,0.0,0.0,1.0,55.0,616.79921,10000.0,85.000001,85.000001,85.000001,85.000001,395.0,0.0,0.0,0.0,1.0,166.665,53.97,53.97,54.855000000000004,54.855000000000004,34.0,-20.1125,29.096666666666668,-24.2,33.8425,0.0,1782.648,-0.8649999999999984,100.0,26.385,26.522,35.354,35.96,0.0,0.0,100.0,0.0,0.0,0.0,0.0,3020.1666666666665,3196.8,4245.25,4393.0,305.6175,304.7615,314.60633333333334,314.0725,21.909,20.6354,22.0242,21.4553,314.999998,314.999998,324.999988,324.999988,99.55794285714286,99.50838333333333,99.57225714285714,99.54775714285714,0.16725000000000012,0.05824999999999991,-0.01616666666666667,0.21033333333333334,-0.041666666666671404,-0.06714285714285495,1.5293333333333334,1.487,37.931,29.9715,38.650999999999996,35.0955,55.7,35.812,61.3095,52.631,53.595,34.8845,59.8545,50.995,52.704,34.403999999999996,59.7855,50.45,-0.1413333333333333,-0.002000000000000224,0.1096,0.107505,0.0,213.065,213.16,209.85333333333335,209.85333333333335,0.0,0.0
18,0.0,0.0,0.0,1.0,1.0,0.0,0.0,1.0,0.0,100.0,1.0,1.1856,26.0,0.0,0.0,0.0,59.999996,0.0,26.0,26.0,26.0,26.0,0.09062499999999996,0.27080000000000015,-0.012266666666666667,297.043,-2.8067,-2.57425,-1.5513,-1.338875,-215.28,215.96,190.621375,0.0,0.0,0.0,0.0,0.036699999999999955,-5.498166666666667,-5.498166666666667,-0.66,-0.5113333333333333,0.058555555555555694,0.8410000000000002,68.184,0.08120000000000001,-0.3435,-0.9299999999999997,100.0,1.0,1.0,210.26666666666665,0.0,0.0,0.0,0.0,0.0,0.0,0.0,8912.5,0.0,55.0,5.0,245.43666666666667,0.0,0.0,0.0,0.0,0.0,0.0,1.0,0.0,0.9059999999999988,0.9059999999999988,0.0,0.0,0.0,55.0,616.79921,10000.0,85.000001,85.000001,85.000001,85.000001,395.0,0.0,0.0,0.0,1.0,166.665,53.894,53.894,54.825,54.825,34.0,-21.5675,29.703333333333333,-23.506666666666664,31.825000000000003,0.0,1782.598,-0.46000000000000085,100.0,26.111,26.418,35.608000000000004,36.269999999999996,0.0,0.0,100.0,0.0,0.0,0.0,0.0,3020.5,3375.0,4038.875,4297.2,305.671,304.25,315.057,314.26375,21.9177,20.6409,22.034399999999998,21.4641,314.999998,314.999998,324.999988,324.999988,99.55795714285715,99.5084,99.5724,99.54788571428571,0.13949999999999996,0.03600000000000003,-0.025333333333333333,0.20266666666666666,-0.05666666666667197,-0.03999999999999915,1.53,1.4929999999999999,37.986000000000004,30.005499999999998,38.715,35.1505,55.69,35.8475,61.34,52.692,53.586,34.917500000000004,59.882999999999996,51.0535,52.694,34.4355,59.811,50.507999999999996,-0.10399999999999987,-0.03500000000000014,0.103775,0.10812000000000001,0.0,213.445,213.5,210.26666666666665,210.26666666666665,0.0,0.0
19,0.0,0.0,0.0,1.0,1.0,0.0,0.0,1.0,0.0,100.0,1.0,1.1856,26.0,0.0,0.0,0.0,59.999996,0.0,26.0,26.0,26.0,26.0,0.05725000000000002,0.28180000000000005,0.0304,296.677,-2.7634,-2.581375,-1.54975,-1.33925,-212.01,215.9525,190.600125,0.0,0.0,0.0,0.0,0.03859999999999997,-5.498166666666667,-5.498166666666667,-0.6523,0.8413333333333334,0.04899999999999993,0.44399999999999995,68.313,0.0719,-0.33432500000000004,-0.4320000000000004,100.0,1.0,1.0,210.67000000000002,0.0,0.0,0.0,0.0,0.0,0.0,0.0,8929.5,0.0,55.0,5.0,245.89666666666665,1.0,0.0,0.0,0.0,0.0,0.0,1.0,0.0,0.9540000000000006,0.9540000000000006,0.0,0.0,1.0,55.0,616.79921,10000.0,85.000001,85.000001,85.000001,85.000001,395.0,0.0,0.0,0.0,1.0,166.665,53.314,53.314,54.855000000000004,54.855000000000004,34.0,-23.4425,28.468333333333334,-25.58,32.53,0.0,1782.551,-0.015000000000000568,100.0,26.659,26.731,35.427,36.091,0.0,0.0,100.0,0.0,0.0,0.0,0.0,3117.833333333333,3358.1,4174.75,4421.8,305.2805,304.212,314.789,314.02575,21.9267,20.6465,22.0445,21.4728,314.999998,314.999998,324.999988,324.999988,99.55797142857143,99.5084,99.57252857142858,99.54802857142857,0.10899999999999999,0.008000000000000007,-0.04716666666666666,0.198,-0.04333333333332945,-0.07000000000000028,1.5236666666666667,1.51,38.042,30.0405,38.778,35.205,55.681,35.8845,61.367,52.751,53.577,34.951,59.908,51.1105,52.684,34.468,59.8335,50.564,-0.06899999999999995,-0.0665,0.11291000000000001,0.11657500000000001,0.0,213.9,213.925,210.67000000000002,210.67000000000002,0.0,0.0
20,0.0,0.0,0.0,1.0,1.0,0.0,0.0,1.0,0.0,100.0,1.0,1.1856,26.0,0.0,0.0,0.0,59.999996,0.0,26.0,26.0,26.0,26.0,0.05800000000000005,0.2672000000000001,-0.006566666666666668,297.073,-2.7984999999999998,-2.658625,-1.45895,-1.473,-208.51999999999998,215.945,190.577875,0.0,0.0,0.0,0.0,0.0406333333333333,-5.498166666666667,-5.498166666666667,-0.6532,-1.1106666666666667,0.030111111111110977,-1.262,68.452,0.048600000000000004,-0.34215,0.04800000000000004,100.0,1.0,1.0,210.97333333333333,0.0,0.0,0.0,0.0,0.0,0.0,0.0,8942.4,0.0,55.0,5.0,246.4,0.0,0.0,0.0,0.0,0.0,0.0,0.0,0.0,1.004999999999999,1.004999999999999,0.0,0.0,0.0,55.0,616.79921,10000.0,85.000001,85.000001,85.000001,85.000001,395.0,0.0,0.0,0.0,1.0,166.665,54.641999999999996,54.641999999999996,54.230000000000004,54.230000000000004,34.0,-23.4725,24.814999999999998,-26.913333333333334,31.93,0.0,1782.501,0.17999999999999972,100.0,25.915,26.416,35.973,36.408,0.0,0.0,100.0,0.0,0.0,0.0,0.0,2979.6666666666665,3021.6,4270.375,4272.4,305.9905,305.10575,314.49533333333335,314.08375,21.936,20.6521,22.0555,21.4822,314.999998,314.999998,324.999988,324.999988,99.55798571428572,99.5084,99.57267142857143,99.54818571428571,0.07774999999999999,-0.022499999999999964,-0.077,0.1635,-0.036666666666668846,-0.0357142857142847,1.4666666666666668,1.463,38.099999999999994,30.076,38.847,35.2635,55.666,35.9195,61.402,52.815,53.563,34.9835,59.9405,51.1725,52.669,34.4995,59.863,50.625,-0.05499999999999994,-0.07750000000000012,0.10620500000000001,0.111365,0.0,214.3,214.28,210.97333333333333,210.97333333333333,0.0,0.0
21,0.0,0.0,0.0,1.0,1.0,0.0,0.0,1.0,0.0,100.0,1.0,1.1856,26.0,0.0,0.0,0.0,59.999996,0.0,26.0,26.0,26.0,26.0,0.02487499999999998,0.27300000000000013,-0.07683333333333334,297.47,-2.6945,-2.729125,-1.51145,-1.445125,-205.23000000000002,215.94,190.556125,0.0,0.0,0.0,0.0,0.04256666666666653,-5.498166666666667,-5.498166666666667,-0.6812,0.42233333333333334,-0.00044444444444424747,-1.287,68.576,0.0193,-0.34802500000000003,0.39200000000000035,100.0,1.0,1.0,211.62,0.0,0.0,0.0,0.0,0.0,0.0,0.0,8969.8,0.0,55.0,5.0,246.84666666666666,1.0,0.0,0.0,0.0,0.0,0.0,0.0,0.0,1.0530000000000008,1.0530000000000008,0.0,0.0,1.0,55.0,616.79921,10000.0,85.000001,85.000001,85.000001,85.000001,395.0,0.0,0.0,0.0,1.0,166.665,53.986000000000004,53.986000000000004,55.756,55.756,34.0,-25.244999999999997,24.905,-26.433333333333334,25.9025,0.0,1782.453,0.17999999999999972,100.0,26.355,26.476,35.432,35.794,0.0,0.0,100.0,0.0,0.0,0.0,0.0,3180.333333333333,3038.1,4014.0,3955.2,305.266,304.9915,315.2443333333333,315.077,21.9449,20.6576,22.0655,21.4907,314.999998,314.999998,324.999988,324.999988,99.558,99.5084,99.5728,99.54831428571428,0.06125000000000003,-0.04149999999999998,-0.10350000000000001,0.1225,-0.05833333333333002,-0.054285714285711606,1.5773333333333333,1.6015,38.156,30.11,38.909,35.317,55.653999999999996,35.954499999999996,61.427,52.8695,53.552,35.016,59.9645,51.225,52.657,34.5305,59.8845,50.67666666666666,-0.05333333333333323,-0.08199999999999985,0.10268000000000001,0.10078500000000001,0.0,214.74,214.7,211.62,211.62,0.0,0.0
22,0.0,0.0,0.0,1.0,1.0,0.0,0.0,1.0,0.0,100.0,1.0,1.1856,26.0,0.0,0.0,0.0,59.999996,0.0,26.0,26.0,26.0,26.0,-0.01112499999999994,0.26839999999999997,0.0036000000000000003,296.86,-2.6611,-2.7487500000000002,-1.49665,-1.44525,-201.73000000000002,215.935,190.53225,0.0,0.0,0.0,0.0,0.04459999999999997,-5.498166666666667,-5.498166666666667,-0.6574,0.18,-0.0005555555555556424,1.2000000000000002,68.715,-0.0064,-0.3256,0.46799999999999997,100.0,1.0,1.0,211.81,0.0,0.0,0.0,0.0,0.0,0.0,0.0,8977.8,0.0,55.0,5.0,247.34666666666666,0.0,0.0,0.0,0.0,0.0,0.0,0.0,0.0,1.1039999999999992,1.1039999999999992,0.0,0.0,0.0,55.0,616.79921,10000.0,85.000001,85.000001,85.000001,85.000001,395.0,0.0,0.0,0.0,1.0,166.665,54.047,54.047,54.428,54.428,34.0,-23.7425,24.953333333333333,-29.72,28.8925,0.0,1782.402,0.129999999999999,100.0,26.692,26.369,36.066,35.9,0.0,0.0,100.0,0.0,0.0,0.0,0.0,2968.5,3092.2,4268.75,4382.3,305.655,304.98425,314.493,314.111,21.9544,20.6633,22.0765,21.5,314.999998,314.999998,324.999988,324.999988,99.558,99.5084,99.57295714285715,99.54845714285715,0.05075000000000007,-0.051999999999999935,-0.11866666666666667,0.1075,-0.046666666666666856,-0.060000000000002274,1.4763333333333333,1.49,38.215,30.1455,38.977999999999994,35.375,55.641,35.9915,61.462,52.931,53.539,35.0505,59.9965,51.2845,52.644,34.563,59.9135,50.73466666666667,-0.05433333333333312,-0.08150000000000013,0.107215,0.103135,0.0,215.16,215.125,211.81,211.81,0.0,0.0
23,0.0,0.0,0.0,1.0,1.0,0.0,0.0,1.0,0.0,100.0,1.0,1.1856,26.0,0.0,0.0,0.0,59.999996,0.0,26.0,26.0,26.0,26.0,-0.028749999999999942,0.25950000000000006,-0.04676666666666667,296.921,-2.6943,-2.697875,-1.4212500000000001,-1.512,-198.22,215.93,190.50875,0.0,0.0,0.0,0.0,0.046633333333333304,-5.498166666666667,-5.498166666666667,-0.6781,-0.335,-0.009222222222222243,-0.7389999999999999,68.848,-0.0223,-0.35807500000000003,0.5920000000000005,100.0,1.0,1.0,212.32666666666665,0.0,0.0,0.0,0.0,0.0,0.0,0.0,8999.7,0.0,55.0,5.0,247.82999999999998,1.0,0.0,0.0,0.0,0.0,0.0,0.0,0.0,1.1550000000000011,1.1550000000000011,0.0,0.0,1.0,55.0,616.79921,10000.0,85.000001,85.000001,85.000001,85.000001,395.0,0.0,0.0,0.0,1.0,111.11,53.406,53.406,55.557,55.557,34.0,-28.2875,23.458333333333336,-27.473333333333333,25.365000000000002,0.0,1782.351,0.15000000000000213,100.0,26.743,26.543,36.068,36.119,0.0,0.0,100.0,0.0,0.0,0.0,0.0,3375.666666666667,3051.0,3993.125,3985.6000000000004,304.654,305.00575,315.1573333333333,314.867,21.9639,20.669,22.0874,21.5093,314.999998,314.999998,324.999988,324.999988,99.55801428571428,99.50841666666666,99.5731,99.54861428571428,0.03649999999999998,-0.07150000000000001,-0.14283333333333334,0.08016666666666668,-0.045000000000001705,-0.04142857142857537,1.513,1.537,38.274,30.1815,39.046,35.4335,55.628,36.0295,61.4945,52.992,53.525999999999996,35.085499999999996,60.0275,51.3435,52.629999999999995,34.5965,59.9415,50.79266666666666,-0.06033333333333313,-0.07600000000000007,0.10404500000000001,0.10669000000000001,0.0,215.56,215.49,212.32666666666665,212.32666666666665,0.0,0.0
24,0.0,0.0,0.0,1.0,1.0,0.0,0.0,1.0,0.0,100.0,1.0,1.1856,26.0,0.0,0.0,0.0,59.999996,0.0,26.0,26.0,26.0,26.0,-0.05212499999999998,0.2761,-0.0473,297.302,-2.7135,-2.714375,-1.4605000000000001,-1.456,-194.91,215.9225,190.486375,0.0,0.0,0.0,0.0,0.04853333333333332,-5.498166666666667,-5.498166666666667,-0.6823,-0.403,-0.004888888888888943,-0.30000000000000004,68.975,-0.0273,-0.3436,0.44200000000000017,100.0,1.0,1.0,212.65,0.0,0.0,0.0,0.0,0.0,0.0,0.0,9013.4,0.0,55.0,5.0,248.28666666666666,0.0,0.0,0.0,0.0,0.0,0.0,0.0,0.0,1.2029999999999994,1.2029999999999994,0.0,0.0,0.0,55.0,616.79921,10000.0,85.000001,85.000001,85.000001,85.000001,395.0,0.0,0.0,0.0,1.0,333.33500000000004,54.703,54.703,54.672,54.672,34.0,-25.325,21.72833333333333,-31.849999999999998,25.4225,0.0,1782.301,0.10000000000000142,100.0,26.412,26.1985,36.02,35.888,0.0,0.0,100.0,0.0,0.0,0.0,0.0,3013.0,2866.6,4349.0,4108.9,305.7765,305.62425,314.355,314.67525,21.9727,20.6743,22.0976,21.518,314.999998,314.999998,324.999988,324.999988,99.55801428571428,99.50843333333333,99.57324285714286,99.54875714285714,0.02574999999999994,-0.07624999999999993,-0.15733333333333335,0.07883333333333332,-0.05666666666667197,-0.04142857142857537,1.496,1.5145,38.329,30.2145,39.11,35.4875,55.614000000000004,36.0635,61.5255,53.0475,53.513,35.1165,60.056,51.397,52.616,34.6265,59.9675,50.845333333333336,-0.058666666666666645,-0.07500000000000018,0.10902,0.11132,0.0,215.96,215.89499999999998,212.65,212.65,0.0,0.0
25,0.0,0.0,0.0,1.0,1.0,0.0,0.0,1.0,0.0,100.0,1.0,1.1856,26.0,0.0,0.0,0.0,59.999996,0.0,26.0,26.0,26.0,26.0,-0.06162499999999993,0.25880000000000014,-0.06743333333333335,297.256,-2.7732,-2.682125,-1.4697,-1.46175,-191.39,215.91500000000002,190.461,0.0,0.0,0.0,0.0,0.05059999999999998,-5.498166666666667,-5.498166666666667,-0.7143,-0.031,-0.002888888888889163,0.010000000000000231,69.107,-0.0284,-0.34750000000000003,0.3279999999999994,100.0,1.0,1.0,213.18666666666667,0.0,0.0,0.0,0.0,0.0,0.0,0.0,9036.2,0.0,55.0,5.0,248.76,1.0,0.0,0.0,0.0,0.0,0.0,0.0,0.0,1.2540000000000013,1.2540000000000013,0.0,0.0,1.0,55.0,616.79921,10000.0,85.000001,85.000001,85.000001,85.000001,395.0,0.0,0.0,0.0,1.0,166.665,53.665,53.665,55.527,55.527,34.0,-27.6,25.505,-27.453333333333333,24.795,0.0,1782.25,0.08500000000000085,100.0,26.497,26.251,35.796,35.492000000000004,0.0,0.0,100.0,0.0,0.0,0.0,0.0,3231.0,3276.0,3954.0,4038.6000000000004,305.095,304.54675,315.2923333333333,314.895,21.982,20.68,22.1084,21.5271,314.999998,314.999998,324.999988,324.999988,99.55802857142857,99.50843333333333,99.5734,99.5489,0.03675000000000006,-0.06125000000000003,-0.14083333333333334,0.08033333333333333,-0.02833333333332888,-0.04714285714285893,1.558,1.57,38.387,30.25,39.177,35.5445,55.597,36.101,61.555,53.1045,53.498000000000005,35.1515,60.084,51.452,52.6,34.66,59.9925,50.89933333333333,-0.06499999999999995,-0.06850000000000023,0.10790500000000001,0.09958,0.0,216.345,216.32999999999998,213.18666666666667,213.18666666666667,0.0,0.0
26,0.0,0.0,0.0,1.0,1.0,0.0,0.0,1.0,0.0,100.0,1.0,1.1856,26.0,0.0,0.0,0.0,59.999996,0.0,26.0,26.0,26.0,26.0,-0.051124999999999976,0.27100000000000013,0.08053333333333335,296.036,-2.7246,-2.7588749999999997,-1.5146000000000002,-1.46,-187.86,215.905,190.435125,0.0,0.0,0.0,0.0,0.05263333333333331,-5.498166666666667,-5.498166666666667,-0.6719,0.8023333333333333,-0.026222222222222147,-0.754,69.243,-0.028,-0.31855,0.3879999999999999,100.0,1.0,1.0,213.32666666666665,0.0,0.0,0.0,0.0,0.0,0.0,0.0,9042.1,0.0,55.0,5.0,249.25,0.0,0.0,0.0,0.0,0.0,0.0,0.0,0.0,1.3049999999999997,1.3049999999999997,0.0,0.0,0.0,55.0,616.79921,10000.0,85.000001,85.000001,85.000001,85.000001,395.0,0.0,0.0,0.0,1.0,166.665,53.253,53.253,53.665,53.665,34.0,-28.0475,23.77,-35.013333333333335,28.595,0.0,1782.2,-0.03500000000000014,100.0,27.081,26.887999999999998,36.282,36.053,0.0,0.0,100.0,0.0,0.0,0.0,0.0,3322.666666666667,3026.9,4672.875,4491.9,304.8585,304.982,313.6693333333333,313.791,21.9916,20.6859,22.1193,21.5364,314.999998,314.999998,324.999988,324.999988,99.55802857142857,99.50845,99.57354285714285,99.54904285714285,0.03600000000000003,-0.07499999999999996,-0.14350000000000002,0.07783333333333332,-0.045000000000001705,-0.044285714285713595,1.4266666666666667,1.4355,38.448,30.287,39.245999999999995,35.603,55.586,36.1415,61.5905,53.1655,53.486999999999995,35.189,60.1175,51.510999999999996,52.589,34.695499999999996,60.022999999999996,50.957,-0.07333333333333325,-0.06800000000000006,0.108975,0.10809,0.0,216.825,216.775,213.32666666666665,213.32666666666665,0.0,0.0
27,0.0,0.0,0.0,1.0,1.0,0.0,0.0,1.0,0.0,100.0,1.0,1.1856,26.0,0.0,0.0,0.0,59.999996,0.0,26.0,26.0,26.0,26.0,-0.03300000000000003,0.254,-0.03643333333333333,296.768,-2.6934,-2.72925,-1.50535,-1.527625,-184.32999999999998,215.89499999999998,190.41075,0.0,0.0,0.0,0.0,0.05469999999999997,-5.498166666666667,-5.498166666666667,-0.6999000000000001,-1.111,-0.018777777777777782,0.7850000000000001,69.375,-0.024800000000000003,-0.37062500000000004,0.13400000000000034,100.0,1.0,1.0,213.86333333333334,0.0,0.0,0.0,0.0,0.0,0.0,0.0,9064.8,0.0,55.0,5.0,249.72333333333336,1.0,0.0,0.0,0.0,0.0,0.0,0.0,0.0,1.355999999999998,1.355999999999998,0.0,0.0,1.0,55.0,616.79921,10000.0,85.000001,85.000001,85.000001,85.000001,395.0,0.0,0.0,0.0,1.0,166.665,53.864,53.864,54.397999999999996,54.397999999999996,34.0,-24.665,25.331666666666667,-29.073333333333334,27.53,0.0,1782.149,-0.125,100.0,26.798000000000002,26.4225,36.787,36.357,0.0,0.0,100.0,0.0,0.0,0.0,0.0,3054.3333333333335,3167.8,4067.0,4093.7,305.4785,304.8525,314.8833333333333,314.69925,22.001,20.6916,22.1304,21.5459,314.999998,314.999998,324.999988,324.999988,99.55802857142857,99.50846666666666,99.57368571428572,99.5492,0.052999999999999936,-0.05349999999999999,-0.134,0.09983333333333333,-0.02499999999999858,-0.054285714285711606,1.4846666666666666,1.4865,38.506,30.322499999999998,39.315,35.662,55.572,36.179,61.626,53.2275,53.474000000000004,35.2235,60.1505,51.570499999999996,52.574,34.729,60.053,51.015,-0.07899999999999996,-0.06000000000000005,0.108395,0.103565,0.0,217.14,217.14,213.86333333333334,213.86333333333334,0.0,0.0
28,0.0,0.0,0.0,1.0,1.0,0.0,0.0,1.0,0.0,100.0,1.0,1.1856,26.0,0.0,0.0,0.0,59.999996,0.0,26.0,26.0,26.0,26.0,-0.008124999999999938,0.26550000000000007,-0.07303333333333334,297.073,-2.6861,-2.705125,-1.48265,-1.483625,-180.79,215.885,190.385375,0.0,0.0,0.0,0.0,0.05676666666666652,-5.498166666666667,-5.498166666666667,-0.7043,0.716,-0.023222222222222033,-0.476,69.504,-0.019100000000000002,-0.340525,0.15200000000000102,100.0,1.0,1.0,214.38,0.0,0.0,0.0,0.0,0.0,0.0,0.0,9086.7,0.0,55.0,5.0,250.18666666666667,0.0,0.0,0.0,0.0,0.0,0.0,0.0,0.0,1.407,1.407,0.0,0.0,0.0,55.0,616.79921,10000.0,85.000001,85.000001,85.000001,85.000001,395.0,0.0,0.0,0.0,1.0,166.665,53.879,53.879,55.266999999999996,55.266999999999996,34.0,-25.807499999999997,23.736666666666665,-29.06,26.240000000000002,0.0,1782.098,-0.18999999999999773,100.0,26.693,26.514,35.9,35.851,0.0,0.0,100.0,0.0,0.0,0.0,0.0,3196.5,3002.5,4163.25,4076.5,305.165,305.13375,314.9463333333333,314.78,22.0104,20.697400000000002,22.1409,21.555,314.999998,314.999998,324.999988,324.999988,99.55804285714285,99.50846666666666,99.57384285714286,99.54934285714286,0.052750000000000075,-0.05674999999999997,-0.137,0.09483333333333333,-0.03833333333332689,-0.048571428571428044,1.5486666666666666,1.5505,38.565,30.3585,39.381,35.719,55.56,36.216499999999996,61.653999999999996,53.283500000000004,53.462,35.257999999999996,60.177,51.6245,52.562,34.762,60.076499999999996,51.068333333333335,-0.08433333333333315,-0.05500000000000016,0.10232000000000001,0.109475,0.0,217.60000000000002,217.59,214.38,214.38,0.0,0.0
29,0.0,0.0,0.0,1.0,1.0,0.0,0.0,1.0,0.0,100.0,1.0,1.1856,26.0,0.0,0.0,0.0,59.999996,0.0,26.0,26.0,26.0,26.0,-0.007750000000000035,0.24619999999999997,-0.0022333333333333333,296.677,-2.6737,-2.756625,-1.46095,-1.4561250000000001,-177.24,215.8725,190.35875,0.0,0.0,0.0,0.0,0.058833333333333404,-5.498166666666667,-5.498166666666667,-0.7097,-0.738,-0.01188888888888906,0.8199999999999998,69.638,-0.012400000000000001,-0.3401,-0.08000000000000007,100.0,1.0,1.0,214.60000000000002,0.0,0.0,0.0,0.0,0.0,0.0,0.0,9096.2,0.0,55.0,5.0,250.67333333333335,1.0,0.0,0.0,0.0,0.0,0.0,0.0,0.0,1.4579999999999984,1.4579999999999984,0.0,0.0,1.0,55.0,616.79921,10000.0,85.000001,85.000001,85.000001,85.000001,395.0,0.0,0.0,0.0,1.0,166.665,53.894,53.894,54.443,54.443,34.0,-24.5925,25.826666666666668,-28.826666666666664,29.4325,0.0,1782.046,-0.23499999999999943,100.0,26.582,26.34,36.373,36.1,0.0,0.0,100.0,0.0,0.0,0.0,0.0,3110.0,3148.0,4181.375,4336.5,305.3555,304.83825,314.655,314.16575,22.0196,20.7031,22.1519,21.5644,314.999998,314.999998,324.999988,324.999988,99.55805714285714,99.50846666666666,99.57398571428571,99.54948571428571,0.062000000000000055,-0.04599999999999993,-0.12133333333333333,0.11566666666666667,-0.023333333333326323,-0.04714285714285893,1.456,1.452,38.622,30.394,39.449,35.7775,55.544,36.2525,61.6885,53.345,53.448,35.2915,60.209,51.6835,52.547,34.7935,60.106,51.126,-0.09033333333333315,-0.04700000000000015,0.10393500000000001,0.11384000000000001,0.0,217.965,217.965,214.60000000000002,214.60000000000002,0.0,0.0
30,0.0,0.0,0.0,1.0,1.0,0.0,0.0,1.0,0.0,100.0,1.0,1.1856,26.0,0.0,0.0,0.0,59.999996,0.0,26.0,26.0,26.0,26.0,-0.013375000000000026,0.2553000000000001,0.059866666666666665,296.188,-2.6846,-2.6488750000000003,-1.43425,-1.52025,-173.89,215.8625,190.33375,0.0,0.0,0.0,0.0,0.060766666666666524,-5.498166666666667,-5.498166666666667,-0.7058,0.866,-0.016555555555555657,0.8250000000000002,69.759,-0.0044,-0.34415,-0.05200000000000049,100.0,1.0,1.0,215.05,0.0,0.0,0.0,0.0,0.0,0.0,0.0,9115.2,0.0,55.0,5.0,251.11,0.0,0.0,0.0,0.0,0.0,0.0,1.0,0.0,1.5060000000000002,1.5060000000000002,0.0,0.0,0.0,55.0,616.79921,10000.0,85.000001,85.000001,85.000001,85.000001,395.0,0.0,0.0,0.0,1.0,166.665,52.689,52.689,54.749,54.749,34.0,-26.237499999999997,25.973333333333333,-28.673333333333336,29.052500000000002,0.0,1782.0,-0.23999999999999844,100.0,27.433,26.9745,36.244,36.156,0.0,0.0,100.0,0.0,0.0,0.0,0.0,3337.166666666667,3229.9,4218.25,4213.0,304.5695,304.5695,314.64566666666667,314.43325,22.0286,20.7088,22.162,21.5732,314.999998,314.999998,324.999988,324.999988,99.55805714285714,99.50848333333333,99.57412857142857,99.54962857142857,0.0767500000000001,-0.03774999999999995,-0.123,0.1125,-0.05666666666667197,-0.05571428571428072,1.4723333333333333,1.4905,38.679,30.43,39.512,35.832499999999996,55.536,36.2905,61.717,53.400999999999996,53.44,35.326499999999996,60.236,51.7375,52.538,34.827,60.1295,51.179,-0.08966666666666678,-0.05650000000000022,0.11497,0.10574000000000001,0.0,218.39499999999998,218.39,215.05,215.05,0.0,0.0
31,0.0,0.0,0.0,1.0,1.0,0.0,0.0,1.0,0.0,100.0,1.0,1.1856,26.0,0.0,0.0,0.0,59.999996,0.0,26.0,26.0,26.0,26.0,0.010874999999999968,0.2499,0.02646666666666667,296.127,-2.7989,-2.626875,-1.48155,-1.5115,-170.32999999999998,215.85,190.308125,0.0,0.0,0.0,0.0,0.0628333333333333,-5.498166666666667,-5.498166666666667,-0.6905,-0.5193333333333334,-0.011444444444444368,-0.817,69.891,0.0044,-0.34840000000000004,-0.1479999999999997,100.0,1.0,1.0,215.32333333333332,0.0,0.0,0.0,0.0,0.0,0.0,0.0,9126.8,0.0,55.0,5.0,251.58333333333334,1.0,0.0,0.0,0.0,0.0,0.0,1.0,0.0,1.5569999999999986,1.5569999999999986,0.0,0.0,1.0,55.0,616.79921,10000.0,85.000001,85.000001,85.000001,85.000001,395.0,0.0,0.0,0.0,1.0,166.665,53.421,53.421,53.452,53.452,34.0,-26.2325,25.833333333333336,-30.13,30.245,0.0,1781.947,-0.2749999999999986,100.0,26.684,26.98,36.721000000000004,36.766,0.0,0.0,100.0,0.0,0.0,0.0,0.0,3243.166666666667,3223.9,4383.5,4325.3,305.247,304.57475,314.2583333333333,314.17975,22.0379,20.7147,22.173000000000002,21.5828,314.999998,314.999998,324.999988,324.999988,99.55807142857142,99.5085,99.57428571428571,99.54977142857143,0.07150000000000012,-0.035499999999999976,-0.11066666666666668,0.1165,-0.051666666666669414,-0.05285714285714249,1.4536666666666667,1.448,38.736999999999995,30.467,39.581,35.8925,55.524,36.3285,61.753,53.463499999999996,53.428,35.3615,60.2695,51.798500000000004,52.525,34.861000000000004,60.1605,51.23866666666667,-0.09033333333333315,-0.051000000000000156,0.103705,0.1044,0.0,218.76,218.76999999999998,215.32333333333332,215.32333333333332,0.0,0.0
32,0.0,0.0,0.0,1.0,1.0,0.0,0.0,1.0,0.0,100.0,1.0,1.1856,26.0,0.0,0.0,0.0,59.999996,0.0,26.0,26.0,26.0,26.0,0.016625000000000112,0.2641,-0.03306666666666667,296.585,-2.7016,-2.7365,-1.53985,-1.422125,-166.97,215.8375,190.284125,0.0,0.0,0.0,0.0,0.06479999999999997,-5.498166666666667,-5.498166666666667,-0.7086,-0.050666666666666665,-0.03766666666666696,-1.103,70.01,0.010700000000000001,-0.353675,-0.18399999999999928,100.0,1.0,1.0,215.81666666666666,0.0,0.0,0.0,0.0,0.0,0.0,0.0,9147.6,0.0,55.0,5.0,252.01,0.0,0.0,0.0,0.0,0.0,0.0,1.0,0.0,1.6050000000000004,1.6050000000000004,0.0,0.0,0.0,55.0,616.79921,10000.0,85.000001,85.000001,85.000001,85.000001,395.0,0.0,0.0,0.0,1.0,111.11,53.635,53.635,54.535,54.535,34.0,-25.375,25.506666666666668,-29.113333333333333,28.1525,0.0,1781.901,-0.23999999999999844,100.0,26.646,26.805500000000002,36.298,36.400999999999996,0.0,0.0,100.0,0.0,0.0,0.0,0.0,3256.666666666667,3070.8,4272.875,4235.3,305.058,304.95025,314.65866666666665,314.47475,22.046599999999998,20.7202,22.1831,21.5915,314.999998,314.999998,324.999988,324.999988,99.55808571428571,99.5085,99.57441428571428,99.54991428571428,0.0767500000000001,-0.035499999999999976,-0.10166666666666667,0.12233333333333334,-0.04999999999999716,-0.03714285714285381,1.5183333333333335,1.5150000000000001,38.791,30.5015,39.644999999999996,35.947,55.512,36.3635,61.781,53.5185,53.417,35.394,60.295500000000004,51.8515,52.513,34.891999999999996,60.1835,51.29066666666667,-0.09166666666666679,-0.051000000000000156,0.10830000000000001,0.1033,0.0,219.13,219.135,215.81666666666666,215.81666666666666,0.0,0.0
33,0.0,0.0,0.0,1.0,1.0,0.0,0.0,1.0,0.0,100.0,1.0,1.1856,26.0,0.0,0.0,0.0,59.999996,0.0,26.0,26.0,26.0,26.0,0.002874999999999961,0.256,-0.0441,296.783,-2.7386,-2.7327500000000002,-1.4715500000000001,-1.503875,-163.39999999999998,215.8275,190.257375,0.0,0.0,0.0,0.0,0.06686666666666652,-5.498166666666667,-5.498166666666667,-0.7180000000000001,-0.39,-0.028555555555555667,1.464,70.139,0.0112,-0.342125,-0.09999999999999964,100.0,1.0,1.0,216.16666666666669,0.0,0.0,0.0,0.0,0.0,0.0,0.0,9162.5,0.0,55.0,5.0,252.47666666666666,1.0,0.0,0.0,0.0,0.0,0.0,1.0,0.0,1.6559999999999988,1.6559999999999988,0.0,0.0,1.0,55.0,616.79921,10000.0,85.000001,85.000001,85.000001,85.000001,395.0,0.0,0.0,0.0,1.0,166.665,54.031,54.031,54.703,54.703,34.0,-23.6725,25.811666666666667,-27.516666666666666,30.5275,0.0,1781.85,-0.3099999999999987,100.0,26.682,26.358,36.311,36.249,0.0,0.0,100.0,0.0,0.0,0.0,0.0,3064.6666666666665,3112.8,4144.125,4293.5,305.493,305.0055,314.77666666666664,314.273,22.0558,20.726,22.1939,21.6009,314.999998,314.999998,324.999988,324.999988,99.55808571428571,99.5085,99.57457142857143,99.55007142857143,0.08800000000000008,-0.03149999999999997,-0.10266666666666667,0.13166666666666665,-0.03999999999999915,-0.054285714285711606,1.4943333333333333,1.4825,38.849000000000004,30.537,39.712,36.0055,55.498999999999995,36.397999999999996,61.8115,53.578,53.405,35.426,60.3245,51.909,52.5,34.9225,60.2095,51.346666666666664,-0.09433333333333316,-0.05449999999999999,0.10480500000000001,0.110795,0.0,219.525,219.53,216.16666666666669,216.16666666666669,0.0,0.0
34,0.0,0.0,0.0,1.0,1.0,0.0,0.0,1.0,0.0,100.0,1.0,1.1856,26.0,0.0,0.0,0.0,59.999996,0.0,26.0,26.0,26.0,26.0,0.022250000000000103,0.25460000000000016,-0.0786,297.058,-2.7665,-2.6546250000000002,-1.53745,-1.461375,-159.82,215.815,190.229125,0.0,0.0,0.0,0.0,0.0689333333333334,-5.498166666666667,-5.498166666666667,-0.7501,-0.8783333333333334,-0.003555555555555756,-0.42199999999999993,70.268,0.013300000000000001,-0.352725,-0.12600000000000033,100.0,1.0,1.0,216.57999999999998,0.0,0.0,0.0,0.0,0.0,0.0,0.0,9180.0,0.0,55.0,5.0,252.94,0.0,0.0,0.0,0.0,0.0,0.0,1.0,0.0,1.7070000000000007,1.7070000000000007,0.0,0.0,0.0,55.0,616.79921,10000.0,85.000001,85.000001,85.000001,85.000001,395.0,0.0,0.0,0.0,1.0,166.665,54.337,54.337,55.084,55.084,34.0,-23.877499999999998,24.47833333333333,-28.28,28.6475,0.0,1781.797,-0.3299999999999983,100.0,26.362000000000002,26.3615,35.987,36.371,0.0,0.0,100.0,0.0,0.0,0.0,0.0,3062.1666666666665,2986.2,4145.875,4167.5,305.612,305.213,314.92066666666665,314.5095,22.065,20.7317,22.2046,21.6102,314.999998,314.999998,324.999988,324.999988,99.5581,99.5085,99.57471428571428,99.55022857142858,0.08550000000000013,-0.023499999999999965,-0.1045,0.12783333333333333,-0.060000000000002274,-0.027142857142855803,1.512,1.509,38.906,30.573,39.778999999999996,36.064,55.486000000000004,36.4325,61.8405,53.638,53.391999999999996,35.457499999999996,60.3515,51.967,52.486999999999995,34.953,60.2335,51.403333333333336,-0.09333333333333327,-0.0405000000000002,0.10011500000000001,0.11075000000000002,0.0,219.91,219.885,216.57999999999998,216.57999999999998,0.0,0.0
35,0.0,0.0,0.0,1.0,1.0,0.0,0.0,1.0,0.0,100.0,1.0,1.1856,26.0,0.0,0.0,0.0,59.999996,0.0,26.0,26.0,26.0,26.0,0.014375000000000027,0.2579,-0.0833,296.951,-2.7373,-2.6765,-1.51095,-1.4216250000000001,-156.23000000000002,215.805,190.198875,0.0,0.0,0.0,0.0,0.07103333333333339,-5.498166666666667,-5.498166666666667,-0.7904,-0.11666666666666667,-0.01644444444444426,-0.020999999999999908,70.393,0.016800000000000002,-0.358625,-0.28799999999999937,100.0,1.0,1.0,217.07333333333332,0.0,0.0,0.0,0.0,0.0,0.0,0.0,9200.9,0.0,55.0,5.0,253.39333333333335,1.0,0.0,0.0,0.0,0.0,0.0,1.0,0.0,1.7579999999999991,1.7579999999999991,0.0,0.0,1.0,55.0,616.79921,10000.0,85.000001,85.000001,85.000001,85.000001,395.0,0.0,0.0,0.0,1.0,166.665,53.482,53.482,54.900999999999996,54.900999999999996,34.0,-24.085,28.921666666666667,-25.5,27.055,0.0,1781.746,-0.23499999999999943,100.0,26.443,26.711,35.897,35.831,0.0,0.0,100.0,0.0,0.0,0.0,0.0,3104.333333333333,3433.9,3956.0,4015.0,305.389,304.044,315.266,314.98975,22.073999999999998,20.7376,22.2153,21.6194,314.999998,314.999998,324.999988,324.999988,99.55811428571428,99.5085,99.57487142857143,99.55037142857142,0.08624999999999994,-0.019000000000000017,-0.08683333333333333,0.138,-0.03833333333332689,-0.06714285714285495,1.549,1.551,38.963,30.61,39.846000000000004,36.1215,55.472,36.4695,61.869,53.6935,53.379000000000005,35.492,60.378,52.0205,52.472,34.9855,60.257,51.456,-0.08599999999999985,-0.04999999999999982,0.10547000000000001,0.10322,0.0,220.29500000000002,220.32999999999998,217.07333333333332,217.07333333333332,0.0,0.0
36,0.0,0.0,0.0,1.0,1.0,0.0,0.0,1.0,0.0,100.0,1.0,1.1856,26.0,0.0,0.0,0.0,59.999996,0.0,26.0,26.0,26.0,26.0,0.017000000000000126,0.2623,0.0458,295.975,-2.6687,-2.69975,-1.4602,-1.481,-153.06,215.79500000000002,190.171,0.0,0.0,0.0,0.0,0.07286666666666652,-5.498166666666667,-5.498166666666667,-0.7658,0.4096666666666667,-0.06077777777777804,-1.4849999999999999,70.508,0.0196,-0.32627500000000004,-0.06400000000000006,100.0,1.0,1.0,217.17000000000002,0.0,0.0,0.0,0.0,0.0,0.0,0.0,9205.1,0.0,55.0,5.0,253.80666666666667,0.0,0.0,0.0,0.0,0.0,0.0,1.0,0.0,1.8030000000000008,1.8030000000000008,0.0,0.0,0.0,55.0,616.79921,10000.0,85.000001,85.000001,85.000001,85.000001,395.0,0.0,0.0,0.0,1.0,166.665,53.299,53.299,53.986000000000004,53.986000000000004,34.0,-24.82,25.845,-30.013333333333335,32.3175,0.0,1781.702,-0.11499999999999844,100.0,26.858,26.9525,36.142,36.357,0.0,0.0,100.0,0.0,0.0,0.0,0.0,3227.0,3134.5,4516.0,4524.2,304.9285,304.76975,314.02633333333335,313.70375,22.0822,20.7429,22.2248,21.6278,314.999998,314.999998,324.999988,324.999988,99.55811428571428,99.50851666666667,99.575,99.5505,0.08250000000000002,-0.034499999999999975,-0.09466666666666668,0.12933333333333336,-0.061666666666667425,-0.044285714285713595,1.4246666666666667,1.4295,39.013999999999996,30.6435,39.905,36.1735,55.462,36.503,61.897,53.7475,53.369,35.522999999999996,60.4045,52.0725,52.462,35.0155,60.2805,51.507,-0.07833333333333314,-0.06050000000000022,0.10864000000000001,0.10861000000000001,0.0,220.695,220.68,217.17000000000002,217.17000000000002,0.0,0.0
