,ABS Active,ABS Enabled,AID Allow Tire Blankets,AID Auto Blip,AID Auto Clutch,AID Auto Shift,AID Fuel Rate,AID Ideal Line,AID Mech Damage,AID Stability,AID Tire Wear Rate,Air Density,Air Temp,Ballast,Best Lap Delta,Best Lap Time,Brake Bias,Brake Pos,Brake Temp FL,Brake Temp FR,Brake Temp RL,Brake Temp RR,CG Accel Lateral,CG Accel Longitudinal,CG Accel Vertical,CG Height,Camber FL,Camber FR,Camber RL,Camber RR,Car Coord X,Car Coord Y,Car Coord Z,Car Damage Front,Car Damage Left,Car Damage Rear,Car Damage Right,Car Pos Norm,Caster FL,Caster FR,Chassis Pitch Angle,Chassis Pitch Rate,Chassis Roll Angle,Chassis Roll Rate,Chassis Velocity X,Chassis Velocity Y,Chassis Velocity Z,Chassis Yaw Rate,Clutch Pos,DRS Active,DRS Available,Drive Train Speed,ERS Heat Charging,ERS Is Charging,ERS Max Energy,ERS Power Level,ERS Recovery Level,Engine Brake Setting,Engine Limiter,Engine RPM,Flags,Fuel Level,Gear,Ground Speed,HR Sample Clock,In Pit,KERS Charge,KERS Deployed Energy,KERS Input,KERS Max Energy,LR Sample Clock,Lap Invalidated,Lap Time,Lap Time2,Last Lap Time,Last Sector Time,MR Sample Clock,Max Fuel,Max Power,Max RPM,Max Sus Travel FL,Max Sus Travel FR,Max Sus Travel RL,Max Sus Travel RR,Max Torque,Max Turbo Boost,Num Tires Off Track,Penalties Enabled,Position,Raw Data Sample Rate,Ride Height FL,Ride Height FR,Ride Height RL,Ride Height RR,Road Temp,Self Align Torque FL,Self Align Torque FR,Self Align Torque RL,Self Align Torque RR,Session Lap Count,Session Time Left,Steering Angle,Surface Grip,Suspension Travel FL,Suspension Travel FR,Suspension Travel RL,Suspension Travel RR,TC Active,TC Enabled,Throttle Pos,Tire Dirt Level FL,Tire Dirt Level FR,Tire Dirt Level RL,Tire Dirt Level RR,Tire Load FL,Tire Load FR,Tire Load RL,Tire Load RR,Tire Loaded Radius FL,Tire Loaded Radius FR,Tire Loaded Radius RL,Tire Loaded Radius RR,Tire Pressure FL,Tire Pressure FR,Tire Pressure RL,Tire Pressure RR,Tire Radius FL,Tire Radius FR,Tire Radius RL,Tire Radius RR,Tire Rubber Grip FL,Tire Rubber Grip FR,Tire Rubber Grip RL,Tire Rubber Grip RR,Tire Slip Angle FL,Tire Slip Angle FR,Tire Slip Angle RL,Tire Slip Angle RR,Tire Slip Ratio FL,Tire Slip Ratio FR,Tire Slip Ratio RL,Tire Slip Ratio RR,Tire Temp Core FL,Tire Temp Core FR,Tire Temp Core RL,Tire Temp Core RR,Tire Temp Inner FL,Tire Temp Inner FR,Tire Temp Inner RL,Tire Temp Inner RR,Tire Temp Middle FL,Tire Temp Middle FR,Tire Temp Middle RL,Tire Temp Middle RR,Tire Temp Outer FL,Tire Temp Outer FR,Tire Temp Outer RL,Tire Temp Outer RR,Toe In FL,Toe In FR,Toe In RL,Toe In RR,Turbo Boost,Wheel Angular Speed FL,Wheel Angular Speed FR,Wheel Angular Speed RL,Wheel Angular Speed RR,Wind Direction,Wind Speed
0,0.0,0.0,0.0,1.0,1.0,0.0,0.0,1.0,0.0,100.0,1.0,1.1856,26.0,0.0,0.0,0.0,59.99999,0.0,26.0,26.0,26.0,26.0,-0.025124999999999953,0.3004,0.1693666666666667,296.98199999999997,-2.82055,-2.623333333333333,-1.48945,-1.4225555555555558,-275.73,215.445,190.9915,0.0,0.0,0.0,0.0,0.0015666666666666667,-5.498166666666667,-5.498166666666667,-0.668,1.1219999999999999,0.011222222222222022,-0.38400000000000034,65.64,-0.02389999999999992,-0.332175,0.08800000000000008,100.0,1.0,1.0,202.67333333333335,0.0,0.0,0.0,0.0,0.0,0.0,0.0,8590.6,0.0,55.0,5.0,236.27666666666667,0.0,0.0,0.0,0.0,0.0,0.0,0.0,0.0,0.0030000000000001137,0.0030000000000001137,0.0,0.0,0.0,55.0,616.79921,10000.0,85.0,85.0,85.0,85.0,395.0,0.0,0.0,0.0,1.0,20.0,51.544,51.544,55.435,55.435,34.0,-31.72,34.422,-27.155,24.575,0.0,1782.941,0.14499999999999957,100.0,26.0855,26.2745,34.153999999999996,34.133,0.0,0.0,100.0,0.0,0.0,0.0,0.0,3527.5714285714284,4390.0,3956.125,3986.0,304.131,301.273,315.28375,314.888,21.73,20.5464,21.8427,21.2974,314.99999,314.99999,324.99998,324.99998,99.55685714285714,99.50823333333334,99.57014285714286,99.54508571428572,0.020750000000000046,-0.06499999999999995,-0.13483333333333336,0.09583333333333321,-0.06833333333332803,-0.036666666666668846,1.5836666666666668,1.5885,36.813,29.415,37.516999999999996,34.1085,55.617000000000004,35.189,60.838499999999996,51.568,53.516999999999996,34.321,59.4195,49.9695,52.643,33.876999999999995,59.400999999999996,49.441,-0.06099999999999994,-0.08349999999999991,0.10241000000000001,0.11764000000000001,0.0,205.65,205.61,202.67333333333335,202.67333333333335,0.0,0.0
1,0.0,0.0,0.0,1.0,1.0,0.0,0.0,1.0,0.0,100.0,1.0,1.1856,26.0,0.0,0.0,0.0,59.999996,0.0,26.0,26.0,26.0,26.0,-0.053875000000000006,0.3284,0.22406666666666666,295.868,-2.7084,-2.7119999999999997,-1.521,-1.442777777777778,-272.37,215.4525,190.971375,0.0,0.0,0.0,0.0,0.0035,-5.498166666666667,-5.498166666666667,-0.5586,-0.7945,-0.04355555555555579,-0.4379999999999997,65.799,-0.019499999999999962,-0.2806,0.5039999999999996,100.0,1.0,1.0,202.47333333333333,0.0,0.0,0.0,0.0,0.0,0.0,0.0,8582.0,0.0,55.0,5.0,236.8466666666667,1.0,0.0,0.0,0.0,0.0,0.0,0.0,0.0,0.053999999999998494,0.053999999999998494,0.0,0.0,1.0,55.0,616.79921,10000.0,85.000001,85.000001,85.000001,85.000001,395.0,0.0,0.0,0.0,1.0,166.665,55.266999999999996,55.266999999999996,52.933,52.933,34.0,-23.285,18.012,-38.8725,39.5275,0.0,1782.892,0.3099999999999987,100.0,26.4775,26.2125,36.129,36.58,0.0,0.0,100.0,0.0,0.0,0.0,0.0,2825.142857142857,2471.2,5044.25,5814.0,306.1665,306.88533333333334,312.4475,310.58125,21.7399,20.5519,21.8541,21.3068,314.999998,314.999998,324.999988,324.999988,99.55687142857143,99.50826666666667,99.57028571428572,99.54524285714285,0.031749999999999945,-0.08099999999999996,-0.1323333333333333,0.08316666666666683,-0.03833333333332689,-0.051666666666669414,1.2666666666666666,1.2945,36.873999999999995,29.4495,37.588,34.167500000000004,55.604,35.228,60.882,51.6385,53.504000000000005,34.357,59.46,50.037,52.629999999999995,33.911500000000004,59.4385,49.507,-0.046499999999999986,-0.08599999999999985,0.10808000000000001,0.10952,0.0,206.135,206.11,202.47333333333333,202.47333333333333,0.0,0.0
2,0.0,0.0,0.0,1.0,1.0,0.0,0.0,1.0,0.0,100.0,1.0,1.1856,26.0,0.0,0.0,0.0,59.999996,0.0,26.0,26.0,26.0,26.0,-0.07387500000000002,0.28770000000000007,0.025333333333333336,298.248,-2.67875,-2.681888888888889,-1.4755500000000001,-1.4365555555555556,-269.02,215.46,190.95325,0.0,0.0,0.0,0.0,0.0054666666666666665,-5.498166666666667,-5.498166666666667,-0.6833,-0.38050000000000006,-0.016777777777778002,2.232,65.932,-0.0242,-0.4076,0.7720000000000002,100.0,1.0,1.0,203.96333333333334,0.0,0.0,0.0,0.0,0.0,0.0,0.0,8645.2,0.0,55.0,5.0,237.33333333333331,0.0,0.0,0.0,0.0,0.0,0.0,0.0,0.0,0.10500000000000043,0.10500000000000043,0.0,0.0,0.0,55.0,616.79921,10000.0,85.000001,85.000001,85.000001,85.000001,395.0,0.0,0.0,0.0,1.0,166.665,53.116,53.116,57.755,57.755,34.0,-30.2675,23.372,-23.285,17.66,0.0,1782.841,0.495000000000001,100.0,26.7445,26.125,35.203,34.928,0.0,0.0,100.0,0.0,0.0,0.0,0.0,3438.0,3215.8,3424.75,3265.9,304.373,304.58933333333334,316.4645,316.755,21.7498,20.5571,21.8649,21.3155,314.999998,314.999998,324.999988,324.999988,99.55687142857143,99.50826666666667,99.57042857142856,99.54537142857143,0.00275000000000003,-0.09875,-0.16349999999999998,0.06783333333333319,-0.08166666666667055,-0.061666666666667425,1.7626666666666666,1.801,36.936,29.482,37.656,34.2215,55.591,35.263,60.9125,51.69,53.492000000000004,34.3895,59.4885,50.087,52.617000000000004,33.942499999999995,59.464,49.556333333333335,-0.03299999999999992,-0.10749999999999993,0.10552500000000001,0.10633500000000001,0.0,206.55,206.45499999999998,203.96333333333334,203.96333333333334,0.0,0.0
3,0.0,0.0,0.0,1.0,1.0,0.0,0.0,1.0,0.0,100.0,1.0,1.1856,26.0,0.0,0.0,0.0,59.999996,0.0,26.0,26.0,26.0,26.0,-0.071125,0.3098000000000001,0.07866666666666666,297.638,-2.71755,-2.6943333333333332,-1.4694,-1.379888888888889,-265.85,215.4675,190.93425,0.0,0.0,0.0,0.0,0.0073,-5.498166666666667,-5.498166666666667,-0.6039,1.126,0.018111111111110967,-1.327,66.08,-0.0383,-0.2988,0.6920000000000002,100.0,1.0,1.0,203.8,0.0,0.0,0.0,0.0,0.0,0.0,0.0,8638.4,0.0,55.0,5.0,237.85666666666668,1.0,0.0,0.0,0.0,0.0,0.0,0.0,0.0,0.1529999999999987,0.1529999999999987,0.0,0.0,1.0,55.0,616.79921,10000.0,85.000001,85.000001,85.000001,85.000001,395.0,0.0,0.0,0.0,1.0,333.33500000000004,54.885999999999996,54.885999999999996,54.81,54.81,34.0,-23.86,21.524,-31.905,26.27,0.0,1782.791,0.5500000000000007,100.0,26.28,26.0255,34.9,34.958,0.0,0.0,100.0,0.0,0.0,0.0,0.0,2789.142857142857,2967.1,4395.625,4385.7,306.391,305.35566666666665,314.16175,313.873,21.7589,20.5624,21.875,21.323900000000002,314.999998,314.999998,324.999988,324.999988,99.55687142857143,99.50828333333334,99.57055714285714,99.54551428571429,0.0044999999999999485,-0.09575,-0.14549999999999996,0.07550000000000012,-0.046666666666666856,-0.05833333333333002,1.447,1.486,36.992999999999995,29.514499999999998,37.719,34.274,55.576,35.3015,60.9415,51.7505,53.477999999999994,34.425,59.5155,50.144999999999996,52.602000000000004,33.976,59.489,49.61366666666667,-0.02849999999999997,-0.10999999999999988,0.10197,0.10985,0.0,207.07999999999998,206.99,203.8,203.8,0.0,0.0
4,0.0,0.0,0.0,1.0,1.0,0.0,0.0,1.0,0.0,100.0,1.0,1.1856,26.0,0.0,0.0,0.0,59.999996,0.0,26.0,26.0,26.0,26.0,-0.08050000000000002,0.27970000000000006,0.013266666666666666,297.714,-2.6965500000000002,-2.7705555555555557,-1.4028,-1.5042222222222221,-262.47,215.47,190.9145,0.0,0.0,0.0,0.0,0.009266666666666668,-5.498166666666667,-5.498166666666667,-0.6237,-1.2045,-0.04488888888888898,-1.065,66.227,-0.04589999999999994,-0.340225,1.0499999999999998,100.0,1.0,1.0,204.30666666666667,0.0,0.0,0.0,0.0,0.0,0.0,0.0,8659.8,0.0,55.0,5.0,238.39,0.0,0.0,0.0,0.0,0.0,0.0,0.0,0.0,0.20400000000000063,0.20400000000000063,0.0,0.0,0.0,55.0,616.79921,10000.0,85.000001,85.000001,85.000001,85.000001,395.0,0.0,0.0,0.0,1.0,166.665,54.565,54.565,55.45,55.45,34.0,-28.872500000000002,20.17,-30.855,23.355,0.0,1782.739,0.6950000000000003,100.0,26.107,25.7205,35.747,35.281,0.0,0.0,100.0,0.0,0.0,0.0,0.0,3215.5714285714284,2828.9,4225.25,3927.9,305.179,305.7296666666667,314.579,314.9915,21.7685,20.5676,21.8862,21.333,314.999998,314.999998,324.999988,324.999988,99.55688571428571,99.5083,99.57071428571429,99.54565714285714,-0.01824999999999999,-0.11875000000000002,-0.17766666666666664,0.05383333333333318,-0.02833333333332888,-0.046666666666666856,1.5173333333333332,1.5485,37.053,29.547,37.789,34.331,55.559,35.3375,60.9805,51.812,53.462,34.458,59.552,50.204499999999996,52.586,34.007999999999996,59.5225,49.672,-0.014999999999999902,-0.11850000000000005,0.10780500000000001,0.11069500000000002,0.0,207.425,207.37,204.30666666666667,204.30666666666667,0.0,0.0
5,0.0,0.0,0.0,1.0,1.0,0.0,0.0,1.0,0.0,100.0,1.0,1.1856,26.0,0.0,0.0,0.0,59.999996,0.0,26.0,26.0,26.0,26.0,-0.10749999999999993,0.29390000000000005,-0.04166666666666667,298.126,-2.6687,-2.7134444444444443,-1.4534,-1.4803333333333333,-259.09,215.4725,190.894875,0.0,0.0,0.0,0.0,0.011233333333333333,-5.498166666666667,-5.498166666666667,-0.6495000000000001,0.5025,-0.022777777777777786,1.0910000000000002,66.37,-0.0623999999999999,-0.35535,1.0300000000000002,100.0,1.0,1.0,204.96666666666667,0.0,0.0,0.0,0.0,0.0,0.0,0.0,8687.8,0.0,55.0,5.0,238.90333333333334,1.0,0.0,0.0,0.0,0.0,0.0,0.0,0.0,0.254999999999999,0.254999999999999,0.0,0.0,1.0,55.0,616.79921,10000.0,85.000001,85.000001,85.000001,85.000001,395.0,0.0,0.0,0.0,1.0,166.665,54.306,54.306,56.488,56.488,34.0,-26.8925,21.978,-28.377499999999998,21.46,0.0,1782.689,0.19500000000000028,100.0,26.451,25.777,35.257,34.595,0.0,0.0,100.0,0.0,0.0,0.0,0.0,3070.142857142857,3043.6,3863.625,3887.2,305.3225,305.18666666666667,315.4515,315.253,21.7784,20.573,21.897,21.3417,314.999998,314.999998,324.999988,324.999988,99.55688571428571,99.5083,99.57085714285714,99.54578571428571,-0.00275000000000003,-0.10299999999999998,-0.1858333333333334,0.03866666666666685,-0.07166666666666544,-0.05833333333333002,1.595,1.6604999999999999,37.114999999999995,29.581,37.855999999999995,34.385999999999996,55.547,35.376999999999995,61.0125,51.868,53.45,34.4945,59.582,50.2585,52.573,34.042500000000004,59.55,49.724666666666664,-0.04400000000000004,-0.09699999999999998,0.10082,0.108435,0.0,207.96,207.84,204.96666666666667,204.96666666666667,0.0,0.0
6,0.0,0.0,0.0,1.0,1.0,0.0,0.0,1.0,0.0,100.0,1.0,1.1856,26.0,0.0,0.0,0.0,59.999996,0.0,26.0,26.0,26.0,26.0,-0.10199999999999998,0.3085,0.0007333333333333333,297.974,-2.7117,-2.7827777777777776,-1.4038,-1.4635555555555557,-255.7,215.4725,190.874125,0.0,0.0,0.0,0.0,0.0132,-5.498166666666667,-5.498166666666667,-0.6282,-0.14949999999999997,-0.04144444444444417,-1.246,66.52,-0.06629999999999991,-0.32070000000000004,0.8780000000000001,100.0,1.0,1.0,205.2,0.0,0.0,0.0,0.0,0.0,0.0,0.0,8697.7,0.0,55.0,5.0,239.44333333333333,0.0,0.0,0.0,0.0,0.0,0.0,0.0,0.0,0.30600000000000094,0.30600000000000094,0.0,0.0,0.0,55.0,616.79921,10000.0,85.000001,85.000001,85.000001,85.000001,395.0,0.0,0.0,0.0,1.0,166.665,55.022999999999996,55.022999999999996,55.679,55.679,34.0,-28.71,19.408,-32.317499999999995,22.8775,0.0,1782.639,0.4450000000000003,100.0,25.903,25.547,35.301,34.801,0.0,0.0,100.0,0.0,0.0,0.0,0.0,3173.142857142857,2740.9,4297.75,4078.2,305.328,305.9406666666667,314.425,314.65325,21.788,20.5783,21.907899999999998,21.3507,314.999998,314.999998,324.999988,324.999988,99.55688571428571,99.50831666666667,99.571,99.54592857142858,-0.022249999999999992,-0.12424999999999997,-0.19066666666666665,0.033666666666666734,-0.03166666666666629,-0.045000000000001705,1.4906666666666668,1.5314999999999999,37.175,29.613999999999997,37.925,34.442,55.531,35.414,61.0475,51.9295,53.435,34.5285,59.615,50.317499999999995,52.558,34.075,59.58,49.782666666666664,-0.03299999999999992,-0.10150000000000015,0.10461000000000001,0.10365,0.0,208.375,208.3,205.2,205.2,0.0,0.0
7,0.0,0.0,0.0,1.0,1.0,0.0,0.0,1.0,0.0,100.0,1.0,1.1856,26.0,0.0,0.0,0.0,59.999996,0.0,26.0,26.0,26.0,26.0,-0.07037499999999997,0.2834000000000001,0.0011666666666666668,297.821,-2.6532,-2.7823333333333333,-1.45465,-1.513111111111111,-252.51,215.47,190.854625,0.0,0.0,0.0,0.0,0.015066666666666666,-5.498166666666667,-5.498166666666667,-0.639,-0.06150000000000011,-0.033777777777777906,-0.1739999999999995,66.655,-0.06989999999999996,-0.33690000000000003,0.7160000000000002,100.0,1.0,1.0,205.68,0.0,0.0,0.0,0.0,0.0,0.0,0.0,8718.0,0.0,55.0,5.0,239.93333333333334,1.0,0.0,0.0,0.0,0.0,0.0,0.0,0.0,0.3539999999999992,0.3539999999999992,0.0,0.0,1.0,55.0,616.79921,10000.0,85.000001,85.000001,85.000001,85.000001,395.0,0.0,0.0,0.0,1.0,333.33500000000004,54.413,54.413,55.771,55.771,34.0,-27.38,21.474,-31.794999999999998,22.155,0.0,1782.59,-0.06500000000000128,100.0,26.241,25.8325,35.388,34.861000000000004,0.0,0.0,100.0,0.0,0.0,0.0,0.0,3207.4285714285716,2874.8,4187.75,3934.4,305.153,305.52066666666667,314.72,315.011,21.7971,20.5833,21.9183,21.3592,314.999998,314.999998,324.999988,324.999988,99.55688571428571,99.50833333333334,99.57114285714286,99.54605714285714,0.007749999999999924,-0.09975,-0.1901666666666666,0.028166666666666673,-0.04999999999999716,-0.045000000000001705,1.525,1.5695000000000001,37.232,29.6455,37.989000000000004,34.495,55.518,35.4495,61.0805,51.985,53.423,34.561,59.646,50.371,52.545,34.106,59.6085,49.83533333333334,-0.07499999999999996,-0.06450000000000022,0.10513000000000002,0.10593500000000002,0.0,208.8,208.72500000000002,205.68,205.68,0.0,0.0
8,0.0,0.0,0.0,1.0,1.0,0.0,0.0,1.0,0.0,100.0,1.0,1.1856,26.0,0.0,0.0,0.0,59.999996,0.0,26.0,26.0,26.0,26.0,-0.060250000000000026,0.27970000000000006,-0.0152,297.821,-2.69965,-2.7142222222222223,-1.47425,-1.5030000000000001,-249.1,215.465,190.834,0.0,0.0,0.0,0.0,0.017066666666666667,-5.498166666666667,-5.498166666666667,-0.6439,-0.06150000000000011,-0.01722222222222225,0.32200000000000006,66.8,-0.05879999999999996,-0.34550000000000003,0.25200000000000067,100.0,1.0,1.0,206.13,0.0,0.0,0.0,0.0,0.0,0.0,0.0,8737.0,0.0,55.0,5.0,240.45333333333332,0.0,0.0,0.0,0.0,0.0,0.0,0.0,0.0,0.40500000000000114,0.40500000000000114,0.0,0.0,0.0,55.0,616.79921,10000.0,85.000001,85.000001,85.000001,85.000001,395.0,0.0,0.0,0.0,1.0,166.665,54.428,54.428,55.588,55.588,34.0,-25.325,23.322000000000003,-29.93,24.39,0.0,1782.54,-0.125,100.0,26.2815,25.8755,35.421,34.912,0.0,0.0,100.0,0.0,0.0,0.0,0.0,3000.714285714286,3082.5,4058.875,4027.0,305.602,305.0683333333333,314.956,314.8495,21.8068,20.5888,21.9292,21.3682,314.999998,314.999998,324.999988,324.999988,99.55688571428571,99.50835,99.57127142857144,99.5462,0.023749999999999938,-0.07899999999999996,-0.1698333333333334,0.062000000000000055,-0.045000000000001705,-0.051666666666669414,1.5376666666666667,1.5465,37.292,29.68,38.058,34.5515,55.504000000000005,35.4875,61.1145,52.046,53.409,34.5965,59.6775,50.4295,52.531,34.14,59.6375,49.89266666666666,-0.0754999999999999,-0.06050000000000022,0.11179000000000001,0.10640000000000001,0.0,209.23000000000002,209.195,206.13,206.13,0.0,0.0
9,0.0,0.0,0.0,1.0,1.0,0.0,0.0,1.0,0.0,100.0,1.0,1.1856,26.0,0.0,0.0,0.0,59.999996,0.0,26.0,26.0,26.0,26.0,-0.041874999999999996,0.29669999999999996,0.008166666666666668,297.714,-2.64525,-2.7346666666666666,-1.4316,-1.464888888888889,-245.89,215.45749999999998,190.814375,0.0,0.0,0.0,0.0,0.018933333333333337,-5.498166666666667,-5.498166666666667,-0.6399,0.1925,-0.032222222222222374,0.8159999999999998,66.936,-0.04469999999999996,-0.33765,0.08399999999999963,100.0,1.0,1.0,206.52666666666667,0.0,0.0,0.0,0.0,0.0,0.0,0.0,8754.0,0.0,55.0,5.0,240.94,1.0,0.0,0.0,0.0,0.0,0.0,0.0,0.0,0.4529999999999994,0.4529999999999994,0.0,0.0,1.0,55.0,616.79921,10000.0,85.000001,85.000001,85.000001,85.000001,395.0,0.0,0.0,0.0,1.0,333.33500000000004,54.26,54.26,55.786,55.786,34.0,-25.44,24.067999999999998,-28.8925,25.84,0.0,1782.491,-0.245000000000001,100.0,26.4,25.8175,35.395,34.863,0.0,0.0,100.0,0.0,0.0,0.0,0.0,3107.714285714286,3054.2,4074.25,4128.7,305.2885,305.1816666666667,314.90275,314.64275,21.8158,20.5939,21.9395,21.3767,314.999998,314.999998,324.999988,324.999988,99.5569,99.50835,99.57141428571428,99.54632857142857,0.034250000000000114,-0.058499999999999996,-0.15600000000000003,0.08550000000000013,-0.054999999999999716,-0.06333333333333258,1.5256666666666667,1.5345,37.349000000000004,29.712,38.122,34.6045,55.491,35.5225,61.147,52.1015,53.397,34.6285,59.708,50.483000000000004,52.518,34.171,59.665,49.94566666666667,-0.08250000000000002,-0.04600000000000026,0.1121,0.10749,0.0,209.64499999999998,209.635,206.52666666666667,206.52666666666667,0.0,0.0
10,0.0,0.0,0.0,1.0,1.0,0.0,0.0,1.0,0.0,100.0,1.0,1.1856,26.0,0.0,0.0,0.0,59.999996,0.0,26.0,26.0,26.0,26.0,-0.03600000000000003,0.2825,0.0083,297.684,-2.70595,-2.709888888888889,-1.4693,-1.446888888888889,-242.26999999999998,215.45,190.792375,0.0,0.0,0.0,0.0,0.021033333333333334,-5.498166666666667,-5.498166666666667,-0.6358,-0.21900000000000008,-0.00533333333333319,1.5739999999999998,67.089,-0.027699999999999947,-0.33587500000000003,-0.1299999999999999,100.0,1.0,1.0,206.92000000000002,0.0,0.0,0.0,0.0,0.0,0.0,0.0,8770.6,0.0,55.0,5.0,241.49,0.0,0.0,0.0,0.0,0.0,0.0,1.0,0.0,0.5069999999999979,0.5069999999999979,0.0,0.0,0.0,55.0,616.79921,10000.0,85.000001,85.000001,85.000001,85.000001,395.0,0.0,0.0,0.0,1.0,166.665,54.611000000000004,54.611000000000004,55.557,55.557,34.0,-23.982499999999998,23.84,-28.82,27.18,0.0,1782.436,-0.35999999999999943,100.0,26.2735,25.7345,35.447,35.101,0.0,0.0,100.0,0.0,0.0,0.0,0.0,2971.857142857143,3044.4,4104.625,4288.7,305.6765,305.2336666666667,314.818,314.253,21.826,20.5997,21.9511,21.386400000000002,314.999998,314.999998,324.999988,324.999988,99.55691428571429,99.50836666666666,99.57157142857143,99.5465,0.05225000000000013,-0.05599999999999994,-0.1376666666666666,0.09033333333333338,-0.04333333333332945,-0.03999999999999915,1.5073333333333334,1.506,37.413,29.747999999999998,38.194,34.664500000000004,55.476,35.5625,61.185,52.170500000000004,53.382999999999996,34.6655,59.7435,50.549,52.503,34.206,59.6975,50.010666666666665,-0.08999999999999986,-0.04400000000000004,0.11002,0.10579000000000001,0.0,210.10000000000002,210.085,206.92000000000002,206.92000000000002,0.0,0.0
11,0.0,0.0,0.0,1.0,1.0,0.0,0.0,1.0,0.0,100.0,1.0,1.1856,26.0,0.0,0.0,0.0,59.999996,0.0,26.0,26.0,26.0,26.0,0.014874999999999972,0.2852000000000001,-0.04103333333333333,297.928,-2.71255,-2.7046666666666668,-1.4747,-1.422777777777778,-238.85,215.4425,190.77125,0.0,0.0,0.0,0.0,0.022600000000000002,-5.498166666666667,-5.498166666666667,-0.6577000000000001,-0.32000000000000006,0.012222222222222134,-0.5819999999999999,67.23,-0.012199999999999989,-0.34915,-0.21799999999999908,100.0,1.0,1.0,207.46,0.0,0.0,0.0,0.0,0.0,0.0,0.0,8793.5,0.0,55.0,5.0,242.0,1.0,0.0,0.0,0.0,0.0,0.0,1.0,0.0,0.5579999999999998,0.5579999999999998,0.0,0.0,1.0,55.0,616.79921,10000.0,85.000001,85.000001,85.000001,85.000001,395.0,0.0,0.0,0.0,1.0,111.11,54.459,54.459,56.046,56.046,34.0,-24.7125,24.54,-26.474999999999998,25.697499999999998,0.0,1782.388,-0.5350000000000001,100.0,25.928,25.976,35.12,35.2,0.0,0.0,100.0,0.0,0.0,0.0,0.0,3112.4285714285716,3034.6,3960.0,4040.0,305.485,305.0726666666667,315.26575,314.792,21.8355,20.6052,21.9619,21.3954,314.999998,314.999998,324.999988,324.999988,99.55691428571429,99.50836666666666,99.5717,99.54662857142857,0.06075000000000008,-0.04125000000000001,-0.121,0.10683333333333334,-0.036666666666668846,-0.0799999999999983,1.5703333333333334,1.554,37.472,29.782,38.262,34.7215,55.463,35.596000000000004,61.2145,52.227000000000004,53.370000000000005,34.6965,59.771,50.604,52.489999999999995,34.2355,59.7225,50.06433333333334,-0.10199999999999987,-0.02950000000000008,0.10415500000000001,0.1078,0.0,210.505,210.55,207.46,207.46,0.0,0.0
12,0.0,0.0,0.0,1.0,1.0,0.0,0.0,1.0,0.0,100.0,1.0,1.1856,26.0,0.0,0.0,0.0,59.999996,0.0,26.0,26.0,26.0,26.0,0.0036249999999999893,0.2925,0.0004333333333333333,297.577,-2.73765,-2.7006666666666668,-1.471,-1.4426666666666668,-235.82,215.435,190.752,0.0,0.0,0.0,0.0,0.025466666666666665,-5.498166666666667,-5.498166666666667,-0.65,0.47850000000000004,0.01633333333333331,0.8070000000000004,67.356,-0.00029999999999996696,-0.331225,-0.33200000000000074,100.0,1.0,1.0,207.79333333333335,0.0,0.0,0.0,0.0,0.0,0.0,0.0,8807.6,0.0,55.0,5.0,242.45333333333335,0.0,0.0,0.0,0.0,0.0,0.0,1.0,0.0,0.602999999999998,0.602999999999998,0.0,0.0,0.0,55.0,616.79921,10000.0,85.000001,85.000001,85.000001,85.000001,395.0,0.0,0.0,0.0,1.0,333.33500000000004,54.169,54.169,55.496,55.496,34.0,-24.345,25.637999999999998,-26.37,28.65,0.0,1782.34,-0.36499999999999844,100.0,26.2575,26.076,35.134,35.076,0.0,0.0,100.0,0.0,0.0,0.0,0.0,3018.142857142857,3191.2,4094.625,4231.3,305.553,304.7436666666667,314.89275,314.43425,21.843899999999998,20.6101,21.9714,21.4034,314.999998,314.999998,324.999988,324.999988,99.55692857142857,99.50838333333333,99.57184285714285,99.54675714285715,0.0605,-0.044749999999999956,-0.09483333333333333,0.12949999999999995,-0.03333333333333144,-0.05333333333332746,1.5413333333333332,1.5225,37.524,29.813499999999998,38.321,34.771,55.451,35.6305,61.2445,52.283500000000004,53.36,34.728,59.799,50.658500000000004,52.477999999999994,34.266,59.7475,50.118,-0.08000000000000007,-0.052999999999999936,0.10377000000000002,0.105715,0.0,210.935,210.945,207.79333333333335,207.79333333333335,0.0,0.0
13,0.0,0.0,0.0,1.0,1.0,0.0,0.0,1.0,0.0,100.0,1.0,1.1856,26.0,0.0,0.0,0.0,59.999996,0.0,26.0,26.0,26.0,26.0,0.03675000000000006,0.27790000000000004,0.02756666666666667,297.256,-2.7114,-2.7133333333333334,-1.4841,-1.453111111111111,-232.38,215.4275,190.73025,0.0,0.0,0.0,0.0,0.02676666666666667,-5.498166666666667,-5.498166666666667,-0.6413,-0.22249999999999992,0.006000000000000005,-0.5990000000000002,67.499,0.008099999999999996,-0.337975,-0.2939999999999996,100.0,1.0,1.0,208.13333333333333,0.0,0.0,0.0,0.0,0.0,0.0,0.0,8821.9,0.0,55.0,5.0,242.96666666666667,1.0,0.0,0.0,0.0,0.0,0.0,1.0,0.0,0.6539999999999999,0.6539999999999999,0.0,0.0,1.0,55.0,616.79921,10000.0,85.000001,85.000001,85.000001,85.000001,395.0,0.0,0.0,0.0,1.0,166.665,54.153,54.153,55.144999999999996,55.144999999999996,34.0,-24.13,25.448,-28.61,29.055,0.0,1782.291,-0.47499999999999787,100.0,26.212,26.2795,35.459,35.595,0.0,0.0,100.0,0.0,0.0,0.0,0.0,3148.0,3016.3,4227.375,4265.0,305.3615,305.1016666666667,314.6115,314.214,21.8534,20.6158,21.9824,21.4126,314.999998,314.999998,324.999988,324.999988,99.55692857142857,99.50838333333333,99.57197142857143,99.5469,0.08224999999999993,-0.017000000000000015,-0.1103333333333334,0.12250000000000005,-0.060000000000002274,-0.03999999999999915,1.487,1.4855,37.584,29.8485,38.39,34.829,55.44,35.664500000000004,61.277,52.343,53.349000000000004,34.7595,59.829499999999996,50.7155,52.466,34.296,59.7755,50.17433333333334,-0.10650000000000004,-0.025500000000000078,0.10723500000000001,0.10855500000000001,0.0,211.38,211.365,208.13333333333333,208.13333333333333,0.0,0.0
14,0.0,0.0,0.0,1.0,1.0,0.0,0.0,1.0,0.0,100.0,1.0,1.1856,26.0,0.0,0.0,0.0,59.999996,0.0,26.0,26.0,26.0,26.0,0.028999999999999915,0.27459999999999996,-0.024666666666666667,297.60699999999997,-2.7231,-2.727888888888889,-1.4758,-1.4476666666666669,-228.94,215.42000000000002,190.709,0.0,0.0,0.0,0.0,0.02876666666666667,-5.498166666666667,-5.498166666666667,-0.6555000000000001,-0.0645,0.022777777777777786,1.0389999999999997,67.638,0.01419999999999999,-0.35345000000000004,-0.4139999999999997,100.0,1.0,1.0,208.67000000000002,0.0,0.0,0.0,0.0,0.0,0.0,0.0,8844.8,0.0,55.0,5.0,243.47,0.0,0.0,0.0,0.0,0.0,0.0,1.0,0.0,0.7049999999999983,0.7049999999999983,0.0,0.0,0.0,55.0,616.79921,10000.0,85.000001,85.000001,85.000001,85.000001,395.0,0.0,0.0,0.0,1.0,166.665,54.230000000000004,54.230000000000004,55.71,55.71,34.0,-22.8425,26.578,-25.215,28.39,0.0,1782.241,-0.3999999999999986,100.0,26.328,26.177,35.403999999999996,35.431,0.0,0.0,100.0,0.0,0.0,0.0,0.0,2986.857142857143,3129.3,3950.5,4159.8,305.643,304.91066666666666,315.2265,314.57,21.8629,20.6214,21.9932,21.4218,314.999998,314.999998,324.999988,324.999988,99.55694285714286,99.50838333333333,99.57211428571429,99.54704285714286,0.08725000000000005,-0.01474999999999993,-0.09283333333333332,0.1343333333333332,-0.041666666666671404,-0.04999999999999716,1.552,1.5365,37.643,29.884,38.458,34.8865,55.428,35.7005,61.3085,52.4045,53.338,34.792500000000004,59.8585,50.775,52.454,34.3275,59.8015,50.23233333333333,-0.09749999999999992,-0.03600000000000003,0.110685,0.100815,0.0,211.79000000000002,211.8,208.67000000000002,208.67000000000002,0.0,0.0
15,0.0,0.0,0.0,1.0,1.0,0.0,0.0,1.0,0.0,100.0,1.0,1.1856,26.0,0.0,0.0,0.0,59.999996,0.0,26.0,26.0,26.0,26.0,0.02825000000000011,0.26849999999999996,-0.007266666666666668,297.592,-2.71445,-2.7103333333333333,-1.48205,-1.466,-225.69,215.41500000000002,190.6885,0.0,0.0,0.0,0.0,0.03066666666666667,-5.498166666666667,-5.498166666666667,-0.6479,0.2935,0.02966666666666673,0.7210000000000001,67.77,0.018399999999999972,-0.33715,-0.41600000000000037,100.0,1.0,1.0,209.04666666666668,0.0,0.0,0.0,0.0,0.0,0.0,0.0,8860.7,0.0,55.0,5.0,243.94333333333333,1.0,0.0,0.0,0.0,0.0,0.0,1.0,0.0,0.7530000000000001,0.7530000000000001,0.0,0.0,1.0,55.0,616.79921,10000.0,85.000001,85.000001,85.000001,85.000001,395.0,0.0,0.0,0.0,1.0,166.665,54.352000000000004,54.352000000000004,55.557,55.557,34.0,-22.21,26.112000000000002,-25.58,29.697499999999998,0.0,1782.191,-0.3099999999999987,100.0,26.303,26.1755,35.259,35.423,0.0,0.0,100.0,0.0,0.0,0.0,0.0,2943.714285714286,3101.7,4041.25,4213.2,305.7725,304.97866666666664,315.021,314.426,21.8718,20.6268,22.0034,21.4305,314.999998,314.999998,324.999988,324.999988,99.55695714285714,99.50838333333333,99.57224285714285,99.54718571428572,0.09175,-0.01649999999999996,-0.08350000000000002,0.1433333333333333,-0.054999999999999716,-0.04333333333332945,1.532,1.5105,37.699,29.9175,38.521,34.9405,55.417,35.7345,61.3375,52.4625,53.327,34.824,59.8855,50.831,52.443,34.3575,59.826,50.287333333333336,-0.08749999999999991,-0.04499999999999993,0.10482500000000002,0.10163000000000001,0.0,212.215,212.22500000000002,209.04666666666668,209.04666666666668,0.0,0.0
16,0.0,0.0,0.0,1.0,1.0,0.0,0.0,1.0,0.0,100.0,1.0,1.1856,26.0,0.0,0.0,0.0,59.999996,0.0,26.0,26.0,26.0,26.0,0.043625000000000025,0.2731000000000001,-0.0025666666666666667,297.44,-2.7751,-2.6542222222222223,-1.4563000000000001,-1.4646666666666668,-222.23,215.41,190.6665,0.0,0.0,0.0,0.0,0.03266666666666667,-5.498166666666667,-5.498166666666667,-0.6577000000000001,-0.4295,0.015666666666666718,-1.157,67.91,0.01760000000000006,-0.34735,-0.1720000000000006,100.0,1.0,1.0,209.44333333333333,0.0,0.0,0.0,0.0,0.0,0.0,0.0,8877.6,0.0,55.0,5.0,244.45,0.0,0.0,0.0,0.0,0.0,0.0,1.0,0.0,0.8039999999999985,0.8039999999999985,0.0,0.0,0.0,55.0,616.79921,10000.0,85.000001,85.000001,85.000001,85.000001,395.0,0.0,0.0,0.0,1.0,166.665,54.047,54.047,55.283,55.283,34.0,-25.1825,25.857999999999997,-26.5175,27.965,0.0,1782.141,-0.28500000000000014,100.0,26.018,26.3575,35.351,35.61,0.0,0.0,100.0,0.0,0.0,0.0,0.0,3181.285714285714,3124.5,4129.0,4057.9,305.321,304.77166666666665,314.86075,314.693,21.8812,20.6324,22.0143,21.4397,314.999998,314.999998,324.999988,324.999988,99.55695714285714,99.5084,99.5724,99.54731428571428,0.07750000000000012,-0.02024999999999999,-0.09550000000000003,0.1326666666666667,-0.04333333333332945,-0.046666666666666856,1.518,1.5175,37.757,29.953,38.589,34.998,55.403999999999996,35.769999999999996,61.37,52.524,53.315,34.857,59.9165,50.8905,52.43,34.3895,59.854,50.346000000000004,-0.09099999999999997,-0.04300000000000015,0.11182500000000001,0.11256500000000001,0.0,212.625,212.63,209.44333333333333,209.44333333333333,0.0,0.0
17,0.0,0.0,0.0,1.0,1.0,0.0,0.0,1.0,0.0,100.0,1.0,1.1856,26.0,0.0,0.0,0.0,59.999996,0.0,26.0,26.0,26.0,26.0,0.033500000000000085,0.28080000000000016,0.047,297.211,-2.6447,-2.7424444444444447,-1.40365,-1.426111111111111,-218.55,215.405,190.643,0.0,0.0,0.0,0.0,0.034800000000000005,-5.498166666666667,-5.498166666666667,-0.6565000000000001,0.1885,-0.007111111111111068,-1.04,68.056,0.015900000000000025,-0.3436,-0.1479999999999997,100.0,1.0,1.0,209.85666666666668,0.0,0.0,0.0,0.0,0.0,0.0,0.0,8895.1,0.0,55.0,5.0,244.97666666666666,1.0,0.0,0.0,0.0,0.0,0.0,1.0,0.0,0.8580000000000005,0.8580000000000005,0.0,0.0,1.0,55.0,616.79921,10000.0,85.000001,85.000001,85.000001,85.000001,395.0,0.0,0.0,0.0,1.0,166.665,53.97,53.97,55.069,55.069,34.0,-24.06,25.427999999999997,-27.2575,28.625,0.0,1782.086,-0.16000000000000014,100.0,26.281,26.4655,35.325,35.544,0.0,0.0,100.0,0.0,0.0,0.0,0.0,3144.285714285714,3041.9,4264.5,4232.2,305.3135,304.8706666666667,314.5475,314.34775,21.8912,20.6385,22.0258,21.4494,314.999998,314.999998,324.999988,324.999988,99.55697142857143,99.5084,99.57254285714286,99.54747142857143,0.07125000000000004,-0.035250000000000004,-0.10183333333333333,0.12766666666666682,-0.054999999999999716,-0.03833333333332689,1.492,1.4895,37.82,29.991,38.661,35.059,55.391999999999996,35.8095,61.403999999999996,52.588499999999996,53.303,34.893,59.948,50.9525,52.417,34.424,59.8825,50.407,-0.08250000000000002,-0.05549999999999988,0.11181,0.10959500000000001,0.0,213.10500000000002,213.11,209.85666666666668,209.85666666666668,0.0,0.0
18,0.0,0.0,0.0,1.0,1.0,0.0,0.0,1.0,0.0,100.0,1.0,1.1856,26.0,0.0,0.0,0.0,59.999996,0.0,26.0,26.0,26.0,26.0,0.025125000000000064,0.2836000000000001,0.03596666666666667,297.18,-2.66475,-2.7716666666666665,-1.39935,-1.3908888888888888,-215.49,215.4,190.623125,0.0,0.0,0.0,0.0,0.0366,-5.498166666666667,-5.498166666666667,-0.6647000000000001,-0.3325,-0.0009999999999998899,0.9729999999999999,68.179,0.010299999999999976,-0.3504,-0.11000000000000032,100.0,1.0,1.0,210.21,0.0,0.0,0.0,0.0,0.0,0.0,0.0,8910.0,0.0,55.0,5.0,245.41666666666666,0.0,0.0,0.0,0.0,0.0,0.0,1.0,0.0,0.9029999999999987,0.9029999999999987,0.0,0.0,0.0,55.0,616.79921,10000.0,85.000001,85.000001,85.000001,85.000001,395.0,0.0,0.0,0.0,1.0,166.665,53.955,53.955,55.144999999999996,55.144999999999996,34.0,-23.41,27.166,-25.9675,29.564999999999998,0.0,1782.041,-0.2049999999999983,100.0,26.3755,26.2095,35.535,35.541,0.0,0.0,100.0,0.0,0.0,0.0,0.0,3061.5714285714284,3174.0,4114.375,4344.8,305.4275,304.681,314.77025,314.143,21.8995,20.6435,22.0354,21.4576,314.999998,314.999998,324.999988,324.999988,99.55698571428572,99.5084,99.57267142857143,99.5476,0.07725000000000004,-0.02400000000000002,-0.09766666666666657,0.13866666666666672,-0.041666666666671404,-0.04833333333333201,1.4993333333333334,1.484,37.872,30.022,38.721000000000004,35.11,55.381,35.8405,61.4325,52.643,53.293,34.922,59.9745,51.004999999999995,52.406,34.451499999999996,59.9065,50.458666666666666,-0.08099999999999996,-0.04899999999999993,0.10355500000000001,0.11465000000000002,0.0,213.485,213.46,210.21,210.21,0.0,0.0
19,0.0,0.0,0.0,1.0,1.0,0.0,0.0,1.0,0.0,100.0,1.0,1.1856,26.0,0.0,0.0,0.0,59.999996,0.0,26.0,26.0,26.0,26.0,0.03325,0.26859999999999995,0.025500000000000002,297.028,-2.6727,-2.731222222222222,-1.42795,-1.5095555555555558,-212.01,215.3975,190.600375,0.0,0.0,0.0,0.0,0.0386,-5.498166666666667,-5.498166666666667,-0.6579,0.5994999999999999,0.006888888888888944,-0.8869999999999996,68.315,0.0029000000000001247,-0.343575,0.0039999999999995595,100.0,1.0,1.0,210.66666666666669,0.0,0.0,0.0,0.0,0.0,0.0,0.0,8929.4,0.0,55.0,5.0,245.91,1.0,0.0,0.0,0.0,0.0,0.0,1.0,0.0,0.9540000000000006,0.9540000000000006,0.0,0.0,1.0,55.0,616.79921,10000.0,85.000001,85.000001,85.000001,85.000001,395.0,0.0,0.0,0.0,1.0,166.665,53.65,53.65,55.313,55.313,34.0,-25.065,25.067999999999998,-28.0575,29.4325,0.0,1781.992,-0.18499999999999872,100.0,26.592,26.694,35.329,35.695,0.0,0.0,100.0,0.0,0.0,0.0,0.0,3192.5714285714284,3047.1,4189.25,4231.6,305.19,304.885,314.74575,314.243,21.909,20.6493,22.0462,21.4668,314.999998,314.999998,324.999988,324.999988,99.55698571428572,99.5084,99.57282857142857,99.54775714285714,0.06400000000000006,-0.04225000000000001,-0.1213333333333334,0.11650000000000005,-0.05666666666667197,-0.045000000000001705,1.4906666666666668,1.4755,37.931,30.058,38.789,35.167500000000004,55.370000000000005,35.8785,61.463,52.704,53.282,34.9565,60.003,51.064,52.394999999999996,34.485,59.9325,50.516666666666666,-0.08299999999999996,-0.05449999999999999,0.11248500000000002,0.10633500000000001,0.0,213.935,213.91,210.66666666666669,210.66666666666669,0.0,0.0
20,0.0,0.0,0.0,1.0,1.0,0.0,0.0,1.0,0.0,100.0,1.0,1.1856,26.0,0.0,0.0,0.0,59.999996,0.0,26.0,26.0,26.0,26.0,0.013500000000000068,0.2522,-0.030233333333333334,297.348,-2.7254,-2.6783333333333332,-1.5049000000000001,-1.495888888888889,-208.31,215.39499999999998,190.576625,0.0,0.0,0.0,0.0,0.04076666666666667,-5.498166666666667,-5.498166666666667,-0.6605000000000001,-0.7410000000000001,0.0024444444444442492,-0.8579999999999997,68.461,0.00019999999999997797,-0.35250000000000004,0.06400000000000006,100.0,1.0,1.0,211.09333333333333,0.0,0.0,0.0,0.0,0.0,0.0,0.0,8947.5,0.0,55.0,5.0,246.43666666666667,0.0,0.0,0.0,0.0,0.0,0.0,0.0,0.0,1.0079999999999991,1.0079999999999991,0.0,0.0,0.0,55.0,616.79921,10000.0,85.000001,85.000001,85.000001,85.000001,395.0,0.0,0.0,0.0,1.0,166.665,54.321,54.321,55.038,55.038,34.0,-25.134999999999998,24.142,-28.9275,27.240000000000002,0.0,1781.937,-0.17999999999999972,100.0,26.1515,26.316,35.79,35.934,0.0,0.0,100.0,0.0,0.0,0.0,0.0,3122.5714285714284,3012.0,4163.25,4039.6000000000004,305.4865,305.1356666666667,314.78275,314.7525,21.9189,20.6553,22.0578,21.4766,314.999998,314.999998,324.999988,324.999988,99.557,99.5084,99.57298571428572,99.5479,0.05624999999999991,-0.04149999999999998,-0.12066666666666659,0.11116666666666686,-0.05333333333332746,-0.045000000000001705,1.4926666666666666,1.498,37.992999999999995,30.0955,38.861000000000004,35.229,55.355999999999995,35.9165,61.499,52.769999999999996,53.269,34.992,60.037,51.1275,52.381,34.5185,59.963,50.579,-0.08000000000000007,-0.053999999999999826,0.10549000000000001,0.11153500000000001,0.0,214.34,214.315,211.09333333333333,211.09333333333333,0.0,0.0
21,0.0,0.0,0.0,1.0,1.0,0.0,0.0,1.0,0.0,100.0,1.0,1.1856,26.0,0.0,0.0,0.0,59.999996,0.0,26.0,26.0,26.0,26.0,0.009500000000000064,0.2619,-0.03713333333333333,297.485,-2.7387,-2.6934444444444443,-1.46435,-1.437111111111111,-205.03,215.39249999999998,190.555,0.0,0.0,0.0,0.0,0.04266666666666667,-5.498166666666667,-5.498166666666667,-0.6806,0.0040000000000000036,-0.004222222222222349,-0.633,68.588,0.0017000000000000348,-0.35142500000000004,-0.02200000000000024,100.0,1.0,1.0,211.59,0.0,0.0,0.0,0.0,0.0,0.0,0.0,8968.5,0.0,55.0,5.0,246.89,1.0,0.0,0.0,0.0,0.0,0.0,0.0,0.0,1.056000000000001,1.056000000000001,0.0,0.0,1.0,55.0,616.79921,10000.0,85.000001,85.000001,85.000001,85.000001,395.0,0.0,0.0,0.0,1.0,166.665,53.986000000000004,53.986000000000004,55.71,55.71,34.0,-26.060000000000002,25.16,-27.5625,26.3175,0.0,1781.887,-0.1999999999999993,100.0,26.241,26.232,35.405,35.508,0.0,0.0,100.0,0.0,0.0,0.0,0.0,3241.142857142857,3093.5,4065.75,4023.3,305.1275,304.91333333333336,315.06275,314.8945,21.9277,20.6606,22.0679,21.4852,314.999998,314.999998,324.999988,324.999988,99.55701428571429,99.50841666666666,99.57311428571428,99.54805714285715,0.06374999999999997,-0.03774999999999995,-0.1256666666666666,0.11716666666666686,-0.06333333333333258,-0.03333333333333144,1.5413333333333332,1.5455,38.048,30.1285,38.924,35.2825,55.343,35.9525,61.5285,52.828,53.257,35.025,60.064499999999995,51.184,52.367999999999995,34.5505,59.9875,50.63433333333333,-0.08650000000000002,-0.05149999999999988,0.11259500000000001,0.10482000000000001,0.0,214.755,214.71,211.59,211.59,0.0,0.0
22,0.0,0.0,0.0,1.0,1.0,0.0,0.0,1.0,0.0,100.0,1.0,1.1856,26.0,0.0,0.0,0.0,59.999996,0.0,26.0,26.0,26.0,26.0,0.004625000000000101,0.2825,0.019133333333333336,297.012,-2.7862999999999998,-2.653,-1.4999,-1.4324444444444444,-201.73000000000002,215.3875,190.5325,0.0,0.0,0.0,0.0,0.0446,-5.498166666666667,-5.498166666666667,-0.6645,0.14100000000000001,0.004888888888888943,-0.49099999999999966,68.717,0.0018000000000000238,-0.3269,-0.05600000000000005,100.0,1.0,1.0,211.81333333333333,0.0,0.0,0.0,0.0,0.0,0.0,0.0,8978.1,0.0,55.0,5.0,247.35666666666668,0.0,0.0,0.0,0.0,0.0,0.0,0.0,0.0,1.1039999999999992,1.1039999999999992,0.0,0.0,0.0,55.0,616.79921,10000.0,85.000001,85.000001,85.000001,85.000001,395.0,0.0,0.0,0.0,1.0,333.33500000000004,54.092,54.092,54.763999999999996,54.763999999999996,34.0,-26.0225,24.404,-30.47,29.627499999999998,0.0,1781.839,-0.254999999999999,100.0,26.2755,26.3985,35.524,35.671,0.0,0.0,100.0,0.0,0.0,0.0,0.0,3197.142857142857,3070.4,4374.875,4375.3,305.332,304.99666666666667,314.3405,314.0195,21.9365,20.666,22.0781,21.4939,314.999998,314.999998,324.999988,324.999988,99.55702857142857,99.50841666666666,99.57325714285714,99.54818571428571,0.06325000000000003,-0.041749999999999954,-0.1173333333333334,0.1206666666666667,-0.03333333333333144,-0.046666666666666856,1.4736666666666665,1.4645000000000001,38.102999999999994,30.1625,38.988,35.337,55.332,35.9845,61.5595,52.882,53.247,35.055,60.091499999999996,51.236000000000004,52.357,34.5805,60.0125,50.689,-0.09050000000000002,-0.05149999999999988,0.110755,0.117125,0.0,215.14,215.15,211.81333333333333,211.81333333333333,0.0,0.0
23,0.0,0.0,0.0,1.0,1.0,0.0,0.0,1.0,0.0,100.0,1.0,1.1856,26.0,0.0,0.0,0.0,59.999996,0.0,26.0,26.0,26.0,26.0,-0.007874999999999965,0.2561,0.033266666666666674,296.89,-2.67965,-2.7142222222222223,-1.53885,-1.4082222222222223,-198.22,215.385,190.509,0.0,0.0,0.0,0.0,0.04663333333333333,-5.498166666666667,-5.498166666666667,-0.6784,-0.29800000000000004,0.0067777777777777715,0.6310000000000002,68.852,0.0023999999999999577,-0.354375,-0.14399999999999924,100.0,1.0,1.0,212.26666666666665,0.0,0.0,0.0,0.0,0.0,0.0,0.0,8997.1,0.0,55.0,5.0,247.84,1.0,0.0,0.0,0.0,0.0,0.0,0.0,0.0,1.1550000000000011,1.1550000000000011,0.0,0.0,1.0,55.0,616.79921,10000.0,85.000001,85.000001,85.000001,85.000001,395.0,0.0,0.0,0.0,1.0,166.665,53.65,53.65,55.054,55.054,34.0,-24.43,26.376,-29.1475,28.4875,0.0,1781.79,-0.2749999999999986,100.0,26.6755,26.376,35.816,35.832,0.0,0.0,100.0,0.0,0.0,0.0,0.0,3168.142857142857,3180.3,4230.0,4269.8,305.082,304.7463333333333,314.63625,314.34675,21.9459,20.6718,22.089,21.5032,314.999998,314.999998,324.999988,324.999988,99.55702857142857,99.50843333333333,99.5734,99.54832857142857,0.08024999999999993,-0.030000000000000027,-0.10549999999999993,0.12549999999999994,-0.01666666666666572,-0.04833333333333201,1.496,1.4865,38.162,30.1985,39.056,35.3955,55.321,36.022,61.59,52.9445,53.236000000000004,35.0895,60.122,51.296,52.345,34.6115,60.039500000000004,50.74433333333333,-0.09099999999999997,-0.05250000000000021,0.10847000000000001,0.10307500000000001,0.0,215.53,215.535,212.26666666666665,212.26666666666665,0.0,0.0
24,0.0,0.0,0.0,1.0,1.0,0.0,0.0,1.0,0.0,100.0,1.0,1.1856,26.0,0.0,0.0,0.0,59.999996,0.0,26.0,26.0,26.0,26.0,0.010499999999999954,0.2651000000000001,-0.044666666666666674,297.44,-2.7063,-2.697111111111111,-1.44405,-1.461,-194.91,215.385,190.4865,0.0,0.0,0.0,0.0,0.04856666666666667,-5.498166666666667,-5.498166666666667,-0.6927,-0.3985000000000001,0.01288888888888895,1.271,68.97800000000001,0.0052000000000000934,-0.35555000000000003,-0.18799999999999972,100.0,1.0,1.0,212.68333333333334,0.0,0.0,0.0,0.0,0.0,0.0,0.0,9014.9,0.0,55.0,5.0,248.29333333333335,0.0,0.0,0.0,0.0,0.0,0.0,0.0,0.0,1.2029999999999994,1.2029999999999994,0.0,0.0,0.0,55.0,616.79921,10000.0,85.000001,85.000001,85.000001,85.000001,395.0,0.0,0.0,0.0,1.0,333.33500000000004,54.474000000000004,54.474000000000004,55.222,55.222,34.0,-22.73,25.344,-26.9275,28.47,0.0,1781.741,-0.259999999999998,100.0,26.431,26.108,35.706,35.679,0.0,0.0,100.0,0.0,0.0,0.0,0.0,2949.0,3086.0,4125.125,4161.0,305.777,305.11966666666666,314.783,314.584,21.9547,20.6771,22.0992,21.5119,314.999998,314.999998,324.999988,324.999988,99.55704285714286,99.50843333333333,99.57352857142857,99.54845714285715,0.07899999999999996,-0.027000000000000024,-0.10299999999999998,0.1283333333333332,-0.03333333333333144,-0.041666666666671404,1.5093333333333332,1.5075,38.217,30.2315,39.120000000000005,35.4495,55.31,36.055,61.619,53.0005,53.224999999999994,35.12,60.1495,51.35,52.333,34.641,60.064,50.797333333333334,-0.09199999999999986,-0.04850000000000021,0.10776000000000001,0.10719500000000001,0.0,215.93,215.94,212.68333333333334,212.68333333333334,0.0,0.0
25,0.0,0.0,0.0,1.0,1.0,0.0,0.0,1.0,0.0,100.0,1.0,1.1856,26.0,0.0,0.0,0.0,59.999996,0.0,26.0,26.0,26.0,26.0,0.02300000000000013,0.26680000000000015,-0.03303333333333333,297.165,-2.71295,-2.6692222222222224,-1.49105,-1.4515555555555557,-191.39,215.3825,190.461125,0.0,0.0,0.0,0.0,0.0506,-5.498166666666667,-5.498166666666667,-0.7083,0.10749999999999993,0.020888888888888957,-0.9630000000000001,69.111,0.007200000000000095,-0.346025,-0.11399999999999988,100.0,1.0,1.0,213.14,0.0,0.0,0.0,0.0,0.0,0.0,0.0,9034.3,0.0,55.0,5.0,248.77333333333334,1.0,0.0,0.0,0.0,0.0,0.0,0.0,0.0,1.2540000000000013,1.2540000000000013,0.0,0.0,1.0,55.0,616.79921,10000.0,85.000001,85.000001,85.000001,85.000001,395.0,0.0,0.0,0.0,1.0,166.665,53.574,53.574,55.510999999999996,55.510999999999996,34.0,-25.9575,26.45,-27.044999999999998,27.6325,0.0,1781.691,-0.2749999999999986,100.0,26.2325,26.4965,35.356,35.581,0.0,0.0,100.0,0.0,0.0,0.0,0.0,3276.5714285714284,3235.3,4072.25,4126.6,304.975,304.47,315.09375,314.606,21.9639,20.6828,22.1099,21.5211,314.999998,314.999998,324.999988,324.999988,99.55704285714286,99.50843333333333,99.57368571428572,99.54861428571428,0.06974999999999998,-0.03425,-0.10766666666666658,0.12083333333333335,-0.05333333333332746,-0.041666666666671404,1.5366666666666666,1.537,38.274,30.2675,39.187,35.507,55.296,36.091499999999996,61.647999999999996,53.0595,53.212,35.1535,60.1765,51.407,52.32,34.673,60.088499999999996,50.85333333333333,-0.08749999999999991,-0.04850000000000021,0.10730500000000001,0.10677500000000001,0.0,216.365,216.345,213.14,213.14,0.0,0.0
26,0.0,0.0,0.0,1.0,1.0,0.0,0.0,1.0,0.0,100.0,1.0,1.1856,26.0,0.0,0.0,0.0,59.999996,0.0,26.0,26.0,26.0,26.0,0.014874999999999972,0.27900000000000014,0.09576666666666667,296.326,-2.7279999999999998,-2.689111111111111,-1.4505,-1.4615555555555557,-187.86,215.38,190.4355,0.0,0.0,0.0,0.0,0.05263333333333334,-5.498166666666667,-5.498166666666667,-0.6785,0.37049999999999994,0.006222222222222129,0.9359999999999999,69.24600000000001,0.007800000000000029,-0.32982500000000003,-0.21799999999999908,100.0,1.0,1.0,213.33666666666667,0.0,0.0,0.0,0.0,0.0,0.0,0.0,9042.6,0.0,55.0,5.0,249.26333333333332,0.0,0.0,0.0,0.0,0.0,0.0,0.0,0.0,1.3049999999999997,1.3049999999999997,0.0,0.0,0.0,55.0,616.79921,10000.0,85.000001,85.000001,85.000001,85.000001,395.0,0.0,0.0,0.0,1.0,166.665,53.467,53.467,54.26,54.26,34.0,-24.8025,26.48,-29.544999999999998,32.2625,0.0,1781.641,-0.3200000000000003,100.0,26.971,26.618000000000002,35.979,35.974000000000004,0.0,0.0,100.0,0.0,0.0,0.0,0.0,3200.142857142857,3188.5,4470.0,4551.3,305.087,304.85766666666666,314.0065,313.63975,21.973399999999998,20.6887,22.1208,21.5305,314.999998,314.999998,324.999988,324.999988,99.55705714285715,99.50845,99.57382857142858,99.54875714285714,0.08650000000000002,-0.02024999999999999,-0.09366666666666656,0.13016666666666676,-0.03166666666666629,-0.060000000000002274,1.423,1.4165,38.333,30.304499999999997,39.254999999999995,35.5655,55.287,36.1295,61.682,53.122,53.203,35.189,60.208,51.4675,52.31,34.7065,60.117,50.91266666666667,-0.10099999999999998,-0.046499999999999986,0.10519500000000001,0.110865,0.0,216.785,216.805,213.33666666666667,213.33666666666667,0.0,0.0
27,0.0,0.0,0.0,1.0,1.0,0.0,0.0,1.0,0.0,100.0,1.0,1.1856,26.0,0.0,0.0,0.0,59.999996,0.0,26.0,26.0,26.0,26.0,0.011624999999999996,0.25970000000000004,-0.051666666666666666,296.951,-2.7781,-2.6994444444444445,-1.5118,-1.4381111111111111,-184.54,215.38,190.4125,0.0,0.0,0.0,0.0,0.054566666666666666,-5.498166666666667,-5.498166666666667,-0.7003,-0.885,0.018333333333333313,0.9630000000000001,69.37,0.008199999999999985,-0.368775,-0.24799999999999933,100.0,1.0,1.0,213.83666666666667,0.0,0.0,0.0,0.0,0.0,0.0,0.0,9063.8,0.0,55.0,5.0,249.70666666666665,1.0,0.0,0.0,0.0,0.0,0.0,0.0,0.0,1.352999999999998,1.352999999999998,0.0,0.0,1.0,55.0,616.79921,10000.0,85.000001,85.000001,85.000001,85.000001,395.0,0.0,0.0,0.0,1.0,166.665,53.955,53.955,54.504,54.504,34.0,-23.29,26.77,-27.8975,28.71,0.0,1781.591,-0.33999999999999986,100.0,26.5485,26.4985,36.216,36.136,0.0,0.0,100.0,0.0,0.0,0.0,0.0,3022.857142857143,3214.2,4156.875,4204.3,305.6455,304.68533333333335,314.77425,314.52975,21.982,20.6942,22.1312,21.5394,314.999998,314.999998,324.999988,324.999988,99.55707142857143,99.50845,99.57397142857143,99.5489,0.09475000000000011,-0.024499999999999966,-0.09883333333333333,0.13200000000000012,-0.02499999999999858,-0.061666666666667425,1.4953333333333334,1.491,38.388,30.339,39.32,35.621,55.275999999999996,36.164,61.713499999999996,53.1805,53.193,35.2205,60.2375,51.524,52.299,34.737,60.144,50.968,-0.10099999999999998,-0.04300000000000015,0.10637,0.103245,0.0,217.115,217.135,213.83666666666667,213.83666666666667,0.0,0.0
28,0.0,0.0,0.0,1.0,1.0,0.0,0.0,1.0,0.0,100.0,1.0,1.1856,26.0,0.0,0.0,0.0,59.999996,0.0,26.0,26.0,26.0,26.0,0.021749999999999936,0.26760000000000006,-0.055200000000000006,297.226,-2.7027,-2.693888888888889,-1.518,-1.469,-180.79,215.38,190.385625,0.0,0.0,0.0,0.0,0.05676666666666667,-5.498166666666667,-5.498166666666667,-0.7080000000000001,0.5355,-0.0005555555555556424,0.29100000000000037,69.507,0.013700000000000045,-0.34565,-0.35599999999999987,100.0,1.0,1.0,214.35666666666668,0.0,0.0,0.0,0.0,0.0,0.0,0.0,9085.7,0.0,55.0,5.0,250.2,0.0,0.0,0.0,0.0,0.0,0.0,0.0,0.0,1.407,1.407,0.0,0.0,0.0,55.0,616.79921,10000.0,85.000001,85.000001,85.000001,85.000001,395.0,0.0,0.0,0.0,1.0,166.665,54.016,54.016,55.144999999999996,55.144999999999996,34.0,-22.7075,26.554,-27.715,28.927500000000002,0.0,1781.536,-0.33500000000000085,100.0,26.5965,26.4195,35.577,35.63,0.0,0.0,100.0,0.0,0.0,0.0,0.0,3012.285714285714,3163.1,4192.875,4156.6,305.562,304.813,314.8095,314.65775,21.9919,20.7004,22.1425,21.5491,314.999998,314.999998,324.999988,324.999988,99.55707142857143,99.50845,99.57412857142857,99.54907142857142,0.09349999999999992,-0.017749999999999932,-0.09466666666666657,0.1383333333333332,-0.04333333333332945,-0.04999999999999716,1.539,1.5234999999999999,38.449,30.377499999999998,39.391,35.682,55.263,36.203,61.745,53.242,53.181,35.2565,60.266999999999996,51.587,52.286,34.7735,60.168,51.029666666666664,-0.09749999999999992,-0.04349999999999987,0.11336500000000001,0.10589000000000001,0.0,217.60500000000002,217.61,214.35666666666668,214.35666666666668,0.0,0.0
29,0.0,0.0,0.0,1.0,1.0,0.0,0.0,1.0,0.0,100.0,1.0,1.1856,26.0,0.0,0.0,0.0,59.999996,0.0,26.0,26.0,26.0,26.0,0.03887499999999999,0.2591000000000001,-0.0407,296.967,-2.77885,-2.614,-1.49805,-1.4685555555555556,-177.24,215.38,190.359125,0.0,0.0,0.0,0.0,0.05883333333333334,-5.498166666666667,-5.498166666666667,-0.7134,-0.75,-0.004444444444444251,-0.6319999999999997,69.641,0.016800000000000148,-0.3433,-0.2400000000000002,100.0,1.0,1.0,214.61333333333334,0.0,0.0,0.0,0.0,0.0,0.0,0.0,9096.6,0.0,55.0,5.0,250.68333333333334,1.0,0.0,0.0,0.0,0.0,0.0,0.0,0.0,1.4579999999999984,1.4579999999999984,0.0,0.0,1.0,55.0,616.79921,10000.0,85.000001,85.000001,85.000001,85.000001,395.0,0.0,0.0,0.0,1.0,166.665,54.031,54.031,54.885999999999996,54.885999999999996,34.0,-25.634999999999998,25.55,-28.855,29.9025,0.0,1781.487,-0.384999999999998,100.0,26.2,26.361,35.81,35.989000000000004,0.0,0.0,100.0,0.0,0.0,0.0,0.0,3271.5714285714284,3148.4,4250.25,4265.7,305.231,304.9413333333333,314.63825,314.2115,22.001,20.7061,22.1535,21.5585,314.999998,314.999998,324.999988,324.999988,99.55708571428572,99.50846666666666,99.57427142857142,99.54921428571429,0.08374999999999999,-0.018749999999999933,-0.10583333333333333,0.1306666666666667,-0.04333333333332945,-0.045000000000001705,1.4683333333333333,1.4769999999999999,38.506,30.413,39.459,35.7405,55.251000000000005,36.238,61.775999999999996,53.3035,53.169,35.289,60.296,51.6425,52.272999999999996,34.8025,60.196,51.08433333333333,-0.10099999999999998,-0.03750000000000009,0.11087500000000002,0.11190000000000001,0.0,217.965,217.98000000000002,214.61333333333334,214.61333333333334,0.0,0.0
30,0.0,0.0,0.0,1.0,1.0,0.0,0.0,1.0,0.0,100.0,1.0,1.1856,26.0,0.0,0.0,0.0,59.999996,0.0,26.0,26.0,26.0,26.0,0.034250000000000114,0.2533000000000001,0.04986666666666667,296.295,-2.75145,-2.6799999999999997,-1.5383,-1.3655555555555556,-174.1,215.38,190.335625,0.0,0.0,0.0,0.0,0.06063333333333334,-5.498166666666667,-5.498166666666667,-0.7139,0.9045,0.0029999999999998916,0.7469999999999999,69.754,0.019600000000000062,-0.35092500000000004,-0.3959999999999999,100.0,1.0,1.0,215.05,0.0,0.0,0.0,0.0,0.0,0.0,0.0,9115.2,0.0,55.0,5.0,251.09,0.0,0.0,0.0,0.0,0.0,0.0,1.0,0.0,1.5030000000000001,1.5030000000000001,0.0,0.0,0.0,55.0,616.79921,10000.0,85.000001,85.000001,85.000001,85.000001,395.0,0.0,0.0,0.0,1.0,166.665,52.414,52.414,54.916,54.916,34.0,-26.08,29.234,-28.5625,28.29,0.0,1781.442,-0.384999999999998,100.0,27.221,26.9965,35.75,35.906,0.0,0.0,100.0,0.0,0.0,0.0,0.0,3340.714285714286,3416.5,4227.25,4281.3,304.5545,303.883,314.77975,314.49,22.0094,20.7115,22.163,21.5667,314.999998,314.999998,324.999988,324.999988,99.5571,99.50846666666666,99.5744,99.54934285714286,0.09499999999999997,-0.01474999999999993,-0.09866666666666657,0.13600000000000012,-0.046666666666666856,-0.046666666666666856,1.5110000000000001,1.5070000000000001,38.559,30.4465,39.518,35.792,55.245000000000005,36.272999999999996,61.8015,53.3565,53.163,35.321,60.32,51.694,52.266,34.8335,60.2175,51.13466666666667,-0.09999999999999987,-0.04499999999999993,0.10963500000000001,0.10484500000000001,0.0,218.36,218.365,215.05,215.05,0.0,0.0
31,0.0,0.0,0.0,1.0,1.0,0.0,0.0,1.0,0.0,100.0,1.0,1.1856,26.0,0.0,0.0,0.0,59.999996,0.0,26.0,26.0,26.0,26.0,0.04262499999999991,0.24960000000000004,0.08123333333333334,296.051,-2.8019,-2.6573333333333333,-1.54005,-1.441,-170.54,215.3825,190.31,0.0,0.0,0.0,0.0,0.06273333333333334,-5.498166666666667,-5.498166666666667,-0.6884,-0.29699999999999993,0.010333333333333306,-0.7480000000000002,69.886,0.021300000000000097,-0.34975,-0.274,100.0,1.0,1.0,215.26333333333332,0.0,0.0,0.0,0.0,0.0,0.0,0.0,9124.2,0.0,55.0,5.0,251.56666666666666,1.0,0.0,0.0,0.0,0.0,0.0,1.0,0.0,1.5539999999999985,1.5539999999999985,0.0,0.0,1.0,55.0,616.79921,10000.0,85.000001,85.000001,85.000001,85.000001,395.0,0.0,0.0,0.0,1.0,166.665,53.299,53.299,53.558,53.558,34.0,-25.2925,27.490000000000002,-30.2775,31.0975,0.0,1781.391,-0.41000000000000014,100.0,26.707,27.039,36.376,36.695,0.0,0.0,100.0,0.0,0.0,0.0,0.0,3234.285714285714,3267.4,4425.75,4424.3,305.2315,304.40666666666664,314.153,313.787,22.0187,20.7174,22.174,21.5763,314.999998,314.999998,324.999988,324.999988,99.55711428571429,99.50846666666666,99.57455714285715,99.5495,0.09224999999999994,-0.01474999999999993,-0.08866666666666656,0.12966666666666682,-0.046666666666666856,-0.04833333333333201,1.4193333333333333,1.4165,38.617000000000004,30.484,39.588,35.852000000000004,55.235,36.311,61.837,53.421,53.153999999999996,35.3565,60.353,51.756,52.256,34.867,60.247,51.19566666666667,-0.10899999999999999,-0.039000000000000146,0.101385,0.10110500000000001,0.0,218.765,218.765,215.26333333333332,215.26333333333332,0.0,0.0
32,0.0,0.0,0.0,1.0,1.0,0.0,0.0,1.0,0.0,100.0,1.0,1.1856,26.0,0.0,0.0,0.0,59.999996,0.0,26.0,26.0,26.0,26.0,0.044624999999999915,0.26449999999999996,-0.05066666666666667,296.936,-2.72445,-2.723222222222222,-1.47815,-1.5187777777777778,-166.97,215.385,190.28475,0.0,0.0,0.0,0.0,0.0648,-5.498166666666667,-5.498166666666667,-0.7118,-0.4315,-0.00855555555555565,0.19500000000000028,70.013,0.022299999999999986,-0.36395,-0.42600000000000016,100.0,1.0,1.0,215.81333333333333,0.0,0.0,0.0,0.0,0.0,0.0,0.0,9147.5,0.0,55.0,5.0,252.02333333333334,0.0,0.0,0.0,0.0,0.0,0.0,1.0,0.0,1.6050000000000004,1.6050000000000004,0.0,0.0,0.0,55.0,616.79921,10000.0,85.000001,85.000001,85.000001,85.000001,395.0,0.0,0.0,0.0,1.0,166.665,53.97,53.97,54.932,54.932,34.0,-22.84,27.146,-25.71,31.23,0.0,1781.338,-0.3949999999999996,100.0,26.5885,26.5885,36.094,36.287,0.0,0.0,100.0,0.0,0.0,0.0,0.0,3036.0,3152.3,4059.0,4239.9,305.562,304.8743333333333,314.997,314.35525,22.0278,20.7233,22.1848,21.5857,314.999998,314.999998,324.999988,324.999988,99.55712857142858,99.50846666666666,99.5747,99.54965714285714,0.09875000000000012,-0.006750000000000034,-0.08099999999999996,0.1503333333333332,-0.03999999999999915,-0.04999999999999716,1.513,1.5045,38.674,30.521,39.655,35.9105,55.223,36.3495,61.868,53.4845,53.141999999999996,35.3915,60.382,51.817499999999995,52.242999999999995,34.900999999999996,60.272999999999996,51.25566666666667,-0.10149999999999992,-0.03299999999999992,0.10975000000000001,0.10889000000000001,0.0,219.125,219.14,215.81333333333333,215.81333333333333,0.0,0.0
33,0.0,0.0,0.0,1.0,1.0,0.0,0.0,1.0,0.0,100.0,1.0,1.1856,26.0,0.0,0.0,0.0,59.999996,0.0,26.0,26.0,26.0,26.0,0.03974999999999995,0.25150000000000006,-0.052000000000000005,297.104,-2.737,-2.6894444444444443,-1.5423,-1.446777777777778,-163.19,215.39,190.25625,0.0,0.0,0.0,0.0,0.067,-5.498166666666667,-5.498166666666667,-0.7241000000000001,-0.13650000000000007,-0.009888888888888836,1.1799999999999997,70.149,0.02429999999999999,-0.34240000000000004,-0.3720000000000008,100.0,1.0,1.0,216.24,0.0,0.0,0.0,0.0,0.0,0.0,0.0,9165.6,0.0,55.0,5.0,252.51,1.0,0.0,0.0,0.0,0.0,0.0,1.0,0.0,1.658999999999999,1.658999999999999,0.0,0.0,1.0,55.0,616.79921,10000.0,85.000001,85.000001,85.000001,85.000001,395.0,0.0,0.0,0.0,1.0,111.11,54.092,54.092,55.161,55.161,34.0,-22.895,26.798,-27.0125,30.3675,0.0,1781.287,-0.39000000000000057,100.0,26.5225,26.305500000000002,35.794,35.896,0.0,0.0,100.0,0.0,0.0,0.0,0.0,3066.857142857143,3156.1,4169.625,4252.4,305.4925,304.9273333333333,314.86425,314.45275,22.0375,20.7294,22.1962,21.5955,314.999998,314.999998,324.999988,324.999988,99.55714285714286,99.50848333333333,99.57485714285714,99.5498,0.10575000000000001,-0.006750000000000034,-0.07783333333333331,0.15599999999999992,-0.045000000000001705,-0.041666666666671404,1.5423333333333333,1.5215,38.733999999999995,30.558999999999997,39.726,35.972,55.212,36.384,61.897,53.542500000000004,53.131,35.424,60.4095,51.8735,52.230999999999995,34.9315,60.297,51.31066666666666,-0.10799999999999987,-0.03949999999999987,0.10194500000000001,0.113515,0.0,219.565,219.565,216.24,216.24,0.0,0.0
34,0.0,0.0,0.0,1.0,1.0,0.0,0.0,1.0,0.0,100.0,1.0,1.1856,26.0,0.0,0.0,0.0,59.999996,0.0,26.0,26.0,26.0,26.0,0.04762500000000003,0.2558,-0.07696666666666667,297.226,-2.6949,-2.714444444444444,-1.5177,-1.4215555555555557,-160.03,215.39499999999998,190.23125,0.0,0.0,0.0,0.0,0.06883333333333334,-5.498166666666667,-5.498166666666667,-0.7503000000000001,-0.9884999999999999,0.008999999999999897,-0.49599999999999955,70.263,0.024800000000000155,-0.35297500000000004,-0.3260000000000005,100.0,1.0,1.0,216.53,0.0,0.0,0.0,0.0,0.0,0.0,0.0,9177.9,0.0,55.0,5.0,252.92333333333335,0.0,0.0,0.0,0.0,0.0,0.0,1.0,0.0,1.7040000000000006,1.7040000000000006,0.0,0.0,0.0,55.0,616.79921,10000.0,85.000001,85.000001,85.000001,85.000001,395.0,0.0,0.0,0.0,1.0,166.665,54.519999999999996,54.519999999999996,55.252,55.252,34.0,-22.794999999999998,25.342,-28.24,29.134999999999998,0.0,1781.241,-0.4250000000000007,100.0,26.158,26.283,35.645,36.125,0.0,0.0,100.0,0.0,0.0,0.0,0.0,3082.0,3009.9,4205.625,4252.9,305.6705,305.25733333333335,314.76875,314.32625,22.0454,20.7344,22.2057,21.6038,314.999998,314.999998,324.999988,324.999988,99.55715714285714,99.50848333333333,99.57498571428572,99.54992857142857,0.09600000000000009,-0.01649999999999996,-0.09816666666666662,0.13349999999999995,-0.05333333333332746,-0.051666666666669414,1.4966666666666666,1.4889999999999999,38.784,30.59,39.786,36.024,55.201,36.414,61.923,53.597,53.120999999999995,35.451499999999996,60.4335,51.926,52.22,34.958,60.319,51.362,-0.10549999999999993,-0.03949999999999987,0.10873500000000001,0.108045,0.0,219.9,219.89,216.53,216.53,0.0,0.0
35,0.0,0.0,0.0,1.0,1.0,0.0,0.0,1.0,0.0,100.0,1.0,1.1856,26.0,0.0,0.0,0.0,59.999996,0.0,26.0,26.0,26.0,26.0,0.038124999999999964,0.24970000000000003,-0.08366666666666667,297.073,-2.82035,-2.6926666666666668,-1.4275,-1.4832222222222222,-156.44,215.4,190.20125,0.0,0.0,0.0,0.0,0.0709,-5.498166666666667,-5.498166666666667,-0.7905000000000001,-0.08949999999999991,-0.008777777777777995,-0.08300000000000018,70.389,0.027300000000000102,-0.3632,-0.3439999999999994,100.0,1.0,1.0,217.0366666666667,0.0,0.0,0.0,0.0,0.0,0.0,0.0,9199.4,0.0,55.0,5.0,253.37333333333333,1.0,0.0,0.0,0.0,0.0,0.0,1.0,0.0,1.754999999999999,1.754999999999999,0.0,0.0,1.0,55.0,616.79921,10000.0,85.000001,85.000001,85.000001,85.000001,395.0,0.0,0.0,0.0,1.0,166.665,53.635,53.635,54.977000000000004,54.977000000000004,34.0,-24.47,28.994,-24.52,29.5425,0.0,1781.19,-0.23000000000000043,100.0,26.360500000000002,26.6825,35.564,35.605000000000004,0.0,0.0,100.0,0.0,0.0,0.0,0.0,3085.714285714286,3389.2,4088.0,4091.0,305.4505,304.15133333333335,315.035,314.866,22.0544,20.7404,22.2164,21.613,314.999998,314.999998,324.999988,324.999988,99.55717142857142,99.50848333333333,99.57512857142856,99.55008571428571,0.09075000000000011,-0.012249999999999983,-0.07250000000000001,0.15916666666666668,-0.04999999999999716,-0.03999999999999915,1.5503333333333333,1.5345,38.84,30.627499999999998,39.852000000000004,36.0815,55.188,36.451499999999996,61.951,53.653,53.108999999999995,35.486000000000004,60.4595,51.9805,52.207,34.991,60.342,51.415333333333336,-0.08450000000000002,-0.05500000000000016,0.103995,0.10902,0.0,220.29500000000002,220.29500000000002,217.03666666666666,217.0366666666667,0.0,0.0
