,ABS Active,ABS Enabled,AID Allow Tire Blankets,AID Auto Blip,AID Auto Clutch,AID Auto Shift,AID Fuel Rate,AID Ideal Line,AID Mech Damage,AID Stability,AID Tire Wear Rate,Air Density,Air Temp,Ballast,Best Lap Delta,Best Lap Time,Brake Bias,Brake Pos,Brake Temp FL,Brake Temp FR,Brake Temp RL,Brake Temp RR,CG Accel Lateral,CG Accel Longitudinal,CG Accel Vertical,CG Height,Camber FL,Camber FR,Camber RL,Camber RR,Car Coord X,Car Coord Y,Car Coord Z,Car Damage Front,Car Damage Left,Car Damage Rear,Car Damage Right,Car Pos Norm,Caster FL,Caster FR,Chassis Pitch Angle,Chassis Pitch Rate,Chassis Roll Angle,Chassis Roll Rate,Chassis Velocity X,Chassis Velocity Y,Chassis Velocity Z,Chassis Yaw Rate,Clutch Pos,DRS Active,DRS Available,Drive Train Speed,ERS Heat Charging,ERS Is Charging,ERS Max Energy,ERS Power Level,ERS Recovery Level,Engine Brake Setting,Engine Limiter,Engine RPM,Flags,Fuel Level,Gear,Ground Speed,HR Sample Clock,In Pit,KERS Charge,KERS Deployed Energy,KERS Input,KERS Max Energy,LR Sample Clock,Lap Invalidated,Lap Time,Lap Time2,Last Lap Time,Last Sector Time,MR Sample Clock,Max Fuel,Max Power,Max RPM,Max Sus Travel FL,Max Sus Travel FR,Max Sus Travel RL,Max Sus Travel RR,Max Torque,Max Turbo Boost,Num Tires Off Track,Penalties Enabled,Position,Raw Data Sample Rate,Ride Height FL,Ride Height FR,Ride Height RL,Ride Height RR,Road Temp,Self Align Torque FL,Self Align Torque FR,Self Align Torque RL,Self Align Torque RR,Session Lap Count,Session Time Left,Steering Angle,Surface Grip,Suspension Travel FL,Suspension Travel FR,Suspension Travel RL,Suspension Travel RR,TC Active,TC Enabled,Throttle Pos,Tire Dirt Level FL,Tire Dirt Level FR,Tire Dirt Level RL,Tire Dirt Level RR,Tire Load FL,Tire Load FR,Tire Load RL,Tire Load RR,Tire Loaded Radius FL,Tire Loaded Radius FR,Tire Loaded Radius RL,Tire Loaded Radius RR,Tire Pressure FL,Tire Pressure FR,Tire Pressure RL,Tire Pressure RR,Tire Radius FL,Tire Radius FR,Tire Radius RL,Tire Radius RR,Tire Rubber Grip FL,Tire Rubber Grip FR,Tire Rubber Grip RL,Tire Rubber Grip RR,Tire Slip Angle FL,Tire Slip Angle FR,Tire Slip Angle RL,Tire Slip Angle RR,Tire Slip Ratio FL,Tire Slip Ratio FR,Tire Slip Ratio RL,Tire Slip Ratio RR,Tire Temp Core FL,Tire Temp Core FR,Tire Temp Core RL,Tire Temp Core RR,Tire Temp Inner FL,Tire Temp Inner FR,Tire Temp Inner RL,Tire Temp Inner RR,Tire Temp Middle FL,Tire Temp Middle FR,Tire Temp Middle RL,Tire Temp Middle RR,Tire Temp Outer FL,Tire Temp Outer FR,Tire Temp Outer RL,Tire Temp Outer RR,Toe In FL,Toe In FR,Toe In RL,Toe In RR,Turbo Boost,Wheel Angular Speed FL,Wheel Angular Speed FR,Wheel Angular Speed RL,Wheel Angular Speed RR,Wind Direction,Wind Speed
0,0.0,0.0,0.0,1.0,1.0,0.0,0.0,1.0,0.0,100.0,1.0,1.1856,26.0,0.0,0.0,0.0,59.99999,0.0,26.0,26.0,26.0,26.0,-0.04574999999999996,0.28800000000000003,0.16005,295.135,-2.743,-2.624625,-1.5102,-1.4715,-275.79,215.60750000000002,190.989875,0.0,0.0,0.0,0.0,0.0015333333333333334,-5.498166666666667,-5.498166666666667,-0.6421,0.937,-0.003874999999999851,-0.375,65.629,-0.0316,-0.30175,0.25200000000000067,100.0,1.0,1.0,202.68333333333334,0.0,0.0,0.0,0.0,0.0,0.0,0.0,8591.0,0.0,55.0,5.0,236.24,0.0,0.0,0.0,0.0,0.0,0.0,0.0,0.0,0.0030000000000001137,0.0030000000000001137,0.0,0.0,0.0,55.0,616.79921,10000.0,85.0,85.0,85.0,85.0,395.0,0.0,0.0,0.0,1.0,20.0,50.69,50.69,52.948,52.948,34.0,-31.369999999999997,32.228,-27.706666666666663,23.5325,0.0,1783.469,0.33000000000000185,100.0,27.317,27.123,37.024,36.909,0.0,0.0,100.0,0.0,0.0,0.0,0.0,3525.4285714285716,4290.1,3947.25,3900.3,304.1615,301.6406666666667,315.299,315.11675,21.762,20.5426,21.8284,21.3064,314.99999,314.99999,324.99998,324.99998,99.55875714285715,99.50813333333333,99.56921428571428,99.5454,0.01100000000000012,-0.08499999999999996,-0.14216666666666666,0.07666666666666667,-0.04999999999999716,-0.06666666666666998,1.5825,1.6145,37.012,29.3915,37.427,34.165,56.236000000000004,35.1685,60.5065,51.691,54.123000000000005,34.2655,59.095,50.069,53.26,33.7845,59.072,49.519,-0.05349999999999988,-0.10099999999999998,0.10245000000000001,0.1097,0.0,205.61,205.575,202.68333333333334,202.68333333333334,0.0,0.0
1,0.0,0.0,0.0,1.0,1.0,0.0,0.0,1.0,0.0,100.0,1.0,1.1856,26.0,0.0,0.0,0.0,59.999996,0.0,26.0,26.0,26.0,26.0,-0.08799999999999997,0.33410000000000006,0.15765,293.839,-2.6529,-2.683625,-1.5091,-1.4689,-272.44,215.62,190.969375,0.0,0.0,0.0,0.0,0.0034666666666666665,-5.498166666666667,-5.498166666666667,-0.5411,-0.532,-0.03987499999999988,0.108,65.789,-0.030500000000000003,-0.253975,0.7999999999999998,100.0,1.0,1.0,202.4766666666667,0.0,0.0,0.0,0.0,0.0,0.0,0.0,8582.3,0.0,55.0,5.0,236.80666666666667,1.0,0.0,0.0,0.0,0.0,0.0,0.0,0.0,0.053999999999998494,0.053999999999998494,0.0,0.0,1.0,55.0,616.79921,10000.0,85.000001,85.000001,85.000001,85.000001,395.0,0.0,0.0,0.0,1.0,166.665,53.543,53.543,50.491,50.491,34.0,-23.36,17.016,-39.093333333333334,38.3725,0.0,1783.418,0.5199999999999996,100.0,28.082,27.843,38.667,38.882,0.0,0.0,100.0,0.0,0.0,0.0,0.0,2841.4285714285716,2496.9,4995.5,5789.5,306.075,306.80966666666666,312.5995,310.749,21.772,20.548,21.8397,21.3157,314.999998,314.999998,324.999988,324.999988,99.55875714285715,99.50815,99.56937142857143,99.54554285714286,0.02375000000000016,-0.1113333333333334,-0.1485,0.066,-0.046666666666666856,-0.030000000000001137,1.2864999999999998,1.297,37.075,29.4255,37.498000000000005,34.223,56.221000000000004,35.209,60.5505,51.7595,54.108999999999995,34.303,59.1365,50.1345,53.246,33.82,59.1105,49.583333333333336,-0.03649999999999998,-0.11549999999999994,0.10387500000000001,0.10513000000000002,0.0,206.14499999999998,206.05,202.4766666666667,202.4766666666667,0.0,0.0
2,0.0,0.0,0.0,1.0,1.0,0.0,0.0,1.0,0.0,100.0,1.0,1.1856,26.0,0.0,0.0,0.0,59.999996,0.0,26.0,26.0,26.0,26.0,-0.09199999999999997,0.2734000000000001,0.0201,296.082,-2.6188,-2.6630000000000003,-1.46655,-1.4752,-269.08,215.6325,190.9515,0.0,0.0,0.0,0.0,0.005433333333333333,-5.498166666666667,-5.498166666666667,-0.6616000000000001,-0.595,-0.02400000000000002,1.699,65.923,-0.0397,-0.38955,1.0440000000000005,100.0,1.0,1.0,203.88,0.0,0.0,0.0,0.0,0.0,0.0,0.0,8641.7,0.0,55.0,5.0,237.3,0.0,0.0,0.0,0.0,0.0,0.0,0.0,0.0,0.10500000000000043,0.10500000000000043,0.0,0.0,0.0,55.0,616.79921,10000.0,85.000001,85.000001,85.000001,85.000001,395.0,0.0,0.0,0.0,1.0,166.665,51.559,51.559,55.13,55.13,34.0,-29.987499999999997,21.662,-24.173333333333332,17.7875,0.0,1783.367,0.6550000000000011,100.0,28.4515,27.634999999999998,37.908,37.565,0.0,0.0,100.0,0.0,0.0,0.0,0.0,3440.142857142857,3163.0,3470.375,3262.9,304.3585,304.7423333333333,316.34425,316.7265,21.7821,20.5533,21.8505,21.3244,314.999998,314.999998,324.999988,324.999988,99.55875714285715,99.50816666666667,99.56951428571429,99.54567142857142,-0.00275000000000003,-0.1233333333333334,-0.176,0.05683333333333334,-0.07000000000000028,-0.051666666666669414,1.7334999999999998,1.7555,37.138,29.458,37.566,34.2775,56.207,35.2465,60.583,51.8135,54.095,34.3375,59.167,50.1865,53.232,33.8535,59.138,49.63466666666667,-0.02949999999999986,-0.129,0.10565500000000001,0.10808000000000001,0.0,206.5,206.41,203.88,203.88,0.0,0.0
3,0.0,0.0,0.0,1.0,1.0,0.0,0.0,1.0,0.0,100.0,1.0,1.1856,26.0,0.0,0.0,0.0,59.999996,0.0,26.0,26.0,26.0,26.0,-0.09675,0.31679999999999997,0.02355,295.593,-2.6508,-2.6881250000000003,-1.45825,-1.4276,-265.91,215.64,190.932625,0.0,0.0,0.0,0.0,0.007266666666666668,-5.498166666666667,-5.498166666666667,-0.5913,1.1575,0.0020000000000000018,-1.008,66.068,-0.055900000000000005,-0.282875,0.8720000000000008,100.0,1.0,1.0,203.82999999999998,0.0,0.0,0.0,0.0,0.0,0.0,0.0,8639.7,0.0,55.0,5.0,237.81666666666666,1.0,0.0,0.0,0.0,0.0,0.0,0.0,0.0,0.1529999999999987,0.1529999999999987,0.0,0.0,1.0,55.0,616.79921,10000.0,85.000001,85.000001,85.000001,85.000001,395.0,0.0,0.0,0.0,1.0,166.665,53.177,53.177,52.429,52.429,34.0,-24.1575,19.512,-32.763333333333335,24.247500000000002,0.0,1783.318,0.6550000000000011,100.0,28.128,27.62,37.604,37.396,0.0,0.0,100.0,0.0,0.0,0.0,0.0,2840.0,2912.5,4367.625,4226.5,306.239,305.52366666666666,314.22225,314.2995,21.7913,20.5585,21.860500000000002,21.3327,314.999998,314.999998,324.999988,324.999988,99.55875714285715,99.50818333333333,99.56964285714285,99.54581428571429,-0.0035000000000000586,-0.133,-0.171,0.049666666666666665,-0.02499999999999858,-0.051666666666669414,1.4769999999999999,1.5165,37.196,29.490499999999997,37.628,34.329499999999996,56.191,35.2855,60.6135,51.8715,54.08,34.374,59.195499999999996,50.242,53.216,33.888,59.164,49.68933333333334,-0.026000000000000023,-0.13200000000000012,0.10935,0.10517000000000001,0.0,207.03,206.97,203.82999999999998,203.82999999999998,0.0,0.0
4,0.0,0.0,0.0,1.0,1.0,0.0,0.0,1.0,0.0,100.0,1.0,1.1856,26.0,0.0,0.0,0.0,59.999996,0.0,26.0,26.0,26.0,26.0,-0.105375,0.26780000000000004,0.027025,295.425,-2.6827,-2.7515,-1.4081000000000001,-1.5418,-262.54,215.6475,190.912625,0.0,0.0,0.0,0.0,0.009233333333333333,-5.498166666666667,-5.498166666666667,-0.6075,-1.221,-0.05025000000000013,-1.083,66.217,-0.0637,-0.31765,1.2479999999999993,100.0,1.0,1.0,204.26,0.0,0.0,0.0,0.0,0.0,0.0,0.0,8657.8,0.0,55.0,5.0,238.35333333333335,0.0,0.0,0.0,0.0,0.0,0.0,0.0,0.0,0.20400000000000063,0.20400000000000063,0.0,0.0,0.0,55.0,616.79921,10000.0,85.000001,85.000001,85.000001,85.000001,395.0,0.0,0.0,0.0,1.0,166.665,52.795,52.795,52.673,52.673,34.0,-29.2325,19.206,-32.82333333333334,23.21,0.0,1783.268,0.7850000000000001,100.0,27.931,27.343,38.397999999999996,37.829,0.0,0.0,100.0,0.0,0.0,0.0,0.0,3226.5714285714284,2869.6,4295.5,3949.1000000000004,305.179,305.6236666666667,314.39725,314.94675,21.801099999999998,20.5636,21.8717,21.3418,314.999998,314.999998,324.999988,324.999988,99.55875714285715,99.5082,99.5698,99.54595714285715,-0.027499999999999858,-0.14700000000000002,-0.19816666666666666,0.037333333333333336,-0.06333333333333258,-0.05833333333333002,1.4785,1.5414999999999999,37.257,29.523,37.698,34.385999999999996,56.173,35.324,60.6545,51.9325,54.063,34.409,59.2335,50.301,53.199,33.922,59.1995,49.747,-0.01550000000000007,-0.13850000000000007,0.11482500000000001,0.11452000000000001,0.0,207.45,207.335,204.26,204.26,0.0,0.0
5,0.0,0.0,0.0,1.0,1.0,0.0,0.0,1.0,0.0,100.0,1.0,1.1856,26.0,0.0,0.0,0.0,59.999996,0.0,26.0,26.0,26.0,26.0,-0.13375000000000004,0.28100000000000014,-0.0318,295.837,-2.7045,-2.709,-1.4593,-1.5402,-259.16,215.65,190.892875,0.0,0.0,0.0,0.0,0.0112,-5.498166666666667,-5.498166666666667,-0.6335000000000001,0.493,-0.0402499999999999,0.921,66.35900000000001,-0.08120000000000001,-0.337675,1.2200000000000006,100.0,1.0,1.0,204.92000000000002,0.0,0.0,0.0,0.0,0.0,0.0,0.0,8685.7,0.0,55.0,5.0,238.86666666666667,1.0,0.0,0.0,0.0,0.0,0.0,0.0,0.0,0.254999999999999,0.254999999999999,0.0,0.0,1.0,55.0,616.79921,10000.0,85.000001,85.000001,85.000001,85.000001,395.0,0.0,0.0,0.0,1.0,333.33500000000004,52.536,52.536,53.802,53.802,34.0,-28.32,20.415999999999997,-30.186666666666664,21.35,0.0,1783.216,0.5500000000000007,100.0,28.2535,27.2845,38.004,37.186,0.0,0.0,100.0,0.0,0.0,0.0,0.0,3158.5714285714284,3043.2,3928.875,3865.2,305.1085,305.18766666666664,315.28475,315.29975,21.8111,20.5691,21.8825,21.3505,314.999998,314.999998,324.999988,324.999988,99.55877142857143,99.50821666666667,99.56992857142858,99.54608571428571,-0.008499999999999952,-0.1393333333333333,-0.21,0.021166666666666667,-0.041666666666671404,-0.07333333333333059,1.5909999999999997,1.6315,37.319,29.557000000000002,37.766,34.441,56.16,35.3655,60.689,51.9885,54.05,34.4475,59.266,50.3545,53.185,33.9585,59.229,49.79933333333334,-0.040999999999999925,-0.11900000000000022,0.10203500000000001,0.10755500000000001,0.0,207.92000000000002,207.81,204.92000000000002,204.92000000000002,0.0,0.0
6,0.0,0.0,0.0,1.0,1.0,0.0,0.0,1.0,0.0,100.0,1.0,1.1856,26.0,0.0,0.0,0.0,59.999996,0.0,26.0,26.0,26.0,26.0,-0.131625,0.3063,-0.005,295.715,-2.6473,-2.7795,-1.5026000000000002,-1.5109,-255.97,215.6525,190.8735,0.0,0.0,0.0,0.0,0.013066666666666666,-5.498166666666667,-5.498166666666667,-0.6069,0.11299999999999999,-0.05262499999999992,0.51,66.499,-0.0859,-0.29802500000000004,0.9539999999999997,100.0,1.0,1.0,205.14333333333332,0.0,0.0,0.0,0.0,0.0,0.0,0.0,8695.3,0.0,55.0,5.0,239.37,0.0,0.0,0.0,0.0,0.0,0.0,0.0,0.0,0.3030000000000008,0.3030000000000008,0.0,0.0,0.0,55.0,616.79921,10000.0,85.000001,85.000001,85.000001,85.000001,395.0,0.0,0.0,0.0,1.0,166.665,53.391,53.391,52.765,52.765,34.0,-27.0375,19.476,-34.29666666666667,22.8625,0.0,1783.169,0.5350000000000001,100.0,27.855,26.8935,38.173,37.268,0.0,0.0,100.0,0.0,0.0,0.0,0.0,3056.0,2868.7,4330.0,4110.8,305.482,305.74333333333334,314.27275,314.68475,21.8203,20.5741,21.8928,21.3589,314.999998,314.999998,324.999988,324.999988,99.55877142857143,99.50823333333334,99.57007142857142,99.54621428571429,-0.017749999999999932,-0.14300000000000002,-0.19466666666666665,0.02033333333333333,-0.05666666666667197,-0.041666666666671404,1.4979999999999998,1.551,37.376999999999995,29.588,37.83,34.4935,56.144,35.4025,60.724000000000004,52.045,54.036,34.4815,59.2985,50.409,53.17,33.9915,59.2595,49.852666666666664,-0.03749999999999987,-0.11799999999999988,0.10558000000000001,0.10792,0.0,208.335,208.25,205.14333333333332,205.14333333333332,0.0,0.0
7,0.0,0.0,0.0,1.0,1.0,0.0,0.0,1.0,0.0,100.0,1.0,1.1856,26.0,0.0,0.0,0.0,59.999996,0.0,26.0,26.0,26.0,26.0,-0.09937499999999999,0.2881,5e-05,295.67,-2.6139,-2.777875,-1.5102,-1.5596,-252.37,215.65,190.85175,0.0,0.0,0.0,0.0,0.015133333333333335,-5.498166666666667,-5.498166666666667,-0.6169,0.007000000000000006,-0.042874999999999996,1.283,66.652,-0.08360000000000001,-0.31605,0.7479999999999993,100.0,1.0,1.0,205.68,0.0,0.0,0.0,0.0,0.0,0.0,0.0,8718.1,0.0,55.0,5.0,239.92000000000002,1.0,0.0,0.0,0.0,0.0,0.0,0.0,0.0,0.3569999999999993,0.3569999999999993,0.0,0.0,1.0,55.0,616.79921,10000.0,85.000001,85.000001,85.000001,85.000001,395.0,0.0,0.0,0.0,1.0,166.665,52.902,52.902,53.192,53.192,34.0,-26.2875,21.811999999999998,-32.49666666666667,23.317500000000003,0.0,1783.114,0.07000000000000028,100.0,28.063,27.0095,38.256,37.403999999999996,0.0,0.0,100.0,0.0,0.0,0.0,0.0,3100.142857142857,2991.0,4116.625,3983.5,305.245,305.33733333333333,314.812,314.96525,21.8309,20.5797,21.9044,21.3684,314.999998,314.999998,324.999988,324.999988,99.55877142857143,99.50825,99.57022857142857,99.54635714285715,0.007750000000000146,-0.10999999999999999,-0.20033333333333334,0.033666666666666664,-0.04999999999999716,-0.03166666666666629,1.5234999999999999,1.568,37.443,29.6235,37.902,34.5525,56.129000000000005,35.444,60.7635,52.1075,54.021,34.519999999999996,59.335499999999996,50.469,53.153999999999996,34.028,59.2935,49.91166666666666,-0.07099999999999995,-0.07699999999999996,0.10196000000000001,0.11559000000000001,0.0,208.8,208.7,205.68,205.68,0.0,0.0
8,0.0,0.0,0.0,1.0,1.0,0.0,0.0,1.0,0.0,100.0,1.0,1.1856,26.0,0.0,0.0,0.0,59.999996,0.0,26.0,26.0,26.0,26.0,-0.06799999999999995,0.2873000000000001,-0.0257,295.807,-2.7024,-2.70175,-1.44095,-1.5453999999999999,-248.97,215.64499999999998,190.831125,0.0,0.0,0.0,0.0,0.017133333333333334,-5.498166666666667,-5.498166666666667,-0.6217,-0.22350000000000003,-0.030874999999999986,-1.057,66.797,-0.0692,-0.31935,0.45399999999999974,100.0,1.0,1.0,206.11333333333334,0.0,0.0,0.0,0.0,0.0,0.0,0.0,8736.4,0.0,55.0,5.0,240.44,0.0,0.0,0.0,0.0,0.0,0.0,0.0,0.0,0.40800000000000125,0.40800000000000125,0.0,0.0,0.0,55.0,616.79921,10000.0,85.000001,85.000001,85.000001,85.000001,395.0,0.0,0.0,0.0,1.0,166.665,53.131,53.131,52.994,52.994,34.0,-26.835,20.866,-30.473333333333333,23.61,0.0,1783.064,0.02500000000000213,100.0,27.5055,27.246000000000002,38.078,37.574,0.0,0.0,100.0,0.0,0.0,0.0,0.0,3119.285714285714,2961.4,4085.125,3954.1000000000004,305.465,305.267,314.9115,314.9415,21.8406,20.5852,21.9153,21.3774,314.999998,314.999998,324.999988,324.999988,99.55878571428572,99.50826666666667,99.57037142857143,99.54651428571428,0.009500000000000064,-0.1153333333333334,-0.18516666666666667,0.043166666666666666,-0.05666666666667197,-0.05333333333332746,1.532,1.539,37.504000000000005,29.657,37.971000000000004,34.609,56.111999999999995,35.483000000000004,60.8,52.167500000000004,54.004999999999995,34.556,59.3695,50.5265,53.138,34.063,59.324,49.968,-0.08000000000000007,-0.07500000000000018,0.10708000000000001,0.115015,0.0,209.22500000000002,209.185,206.11333333333334,206.11333333333334,0.0,0.0
9,0.0,0.0,0.0,1.0,1.0,0.0,0.0,1.0,0.0,100.0,1.0,1.1856,26.0,0.0,0.0,0.0,59.999996,0.0,26.0,26.0,26.0,26.0,-0.055625000000000036,0.2876000000000001,-0.007500000000000001,295.578,-2.6205,-2.7185,-1.48975,-1.5036,-245.76,215.6375,190.811375,0.0,0.0,0.0,0.0,0.019,-5.498166666666667,-5.498166666666667,-0.6173000000000001,0.31899999999999995,-0.042625000000000135,-0.662,66.932,-0.056400000000000006,-0.30960000000000004,0.2860000000000005,100.0,1.0,1.0,206.51666666666665,0.0,0.0,0.0,0.0,0.0,0.0,0.0,8753.5,0.0,55.0,5.0,240.92666666666668,1.0,0.0,0.0,0.0,0.0,0.0,0.0,0.0,0.4559999999999995,0.4559999999999995,0.0,0.0,1.0,55.0,616.79921,10000.0,85.000001,85.000001,85.000001,85.000001,395.0,0.0,0.0,0.0,1.0,166.665,52.75,52.75,53.223,53.223,34.0,-26.5775,22.034,-31.113333333333333,23.8125,0.0,1783.015,-0.21000000000000085,100.0,27.8245,27.298000000000002,37.977000000000004,37.554,0.0,0.0,100.0,0.0,0.0,0.0,0.0,3253.857142857143,2956.4,4150.25,4050.0,305.0285,305.28866666666664,314.796,314.765,21.849899999999998,20.5903,21.9255,21.3858,314.999998,314.999998,324.999988,324.999988,99.55878571428572,99.50826666666667,99.5705,99.54664285714286,0.03000000000000025,-0.08899999999999997,-0.17483333333333334,0.04616666666666667,-0.054999999999999716,-0.03999999999999915,1.5385,1.542,37.562,29.689500000000002,38.035,34.661500000000004,56.098,35.5195,60.833,52.2225,53.992000000000004,34.5895,59.4005,50.579499999999996,53.124,34.095,59.3525,50.019999999999996,-0.08949999999999991,-0.05750000000000011,0.108395,0.10048000000000001,0.0,209.66500000000002,209.60000000000002,206.51666666666665,206.51666666666665,0.0,0.0
10,0.0,0.0,0.0,1.0,1.0,0.0,0.0,1.0,0.0,100.0,1.0,1.1856,26.0,0.0,0.0,0.0,59.999996,0.0,26.0,26.0,26.0,26.0,-0.029874999999999985,0.2922,-0.004725,295.486,-2.6792,-2.695125,-1.4516,-1.4877,-242.54,215.63,190.79175,0.0,0.0,0.0,0.0,0.020866666666666665,-5.498166666666667,-5.498166666666667,-0.6119,-0.345,-0.01100000000000012,0.133,67.068,-0.039400000000000004,-0.30915000000000004,0.036000000000000476,100.0,1.0,1.0,206.84,0.0,0.0,0.0,0.0,0.0,0.0,0.0,8767.2,0.0,55.0,5.0,241.41666666666666,0.0,0.0,0.0,0.0,0.0,0.0,1.0,0.0,0.5040000000000013,0.5040000000000013,0.0,0.0,0.0,55.0,616.79921,10000.0,85.000001,85.000001,85.000001,85.000001,395.0,0.0,0.0,0.0,1.0,333.33500000000004,53.131,53.131,52.719,52.719,34.0,-25.3025,21.546,-30.553333333333335,26.225,0.0,1782.965,-0.23000000000000043,100.0,27.748,27.268,38.149,37.854,0.0,0.0,100.0,0.0,0.0,0.0,0.0,3088.285714285714,2912.6,4247.375,4204.4,305.54,305.46366666666665,314.54475,314.3615,21.859099999999998,20.5954,21.9359,21.3944,314.999998,314.999998,324.999988,324.999988,99.55878571428572,99.50828333333334,99.57065714285714,99.54677142857143,0.03500000000000014,-0.08599999999999997,-0.1535,0.07116666666666667,-0.03999999999999915,-0.04833333333333201,1.5015,1.5025,37.619,29.7215,38.099000000000004,34.715,56.083,35.5565,60.8695,52.284,53.977999999999994,34.624,59.4345,50.6385,53.109,34.128,59.384,50.078,-0.09250000000000003,-0.052999999999999936,0.103245,0.10551,0.0,210.04000000000002,210.035,206.84,206.84,0.0,0.0
11,0.0,0.0,0.0,1.0,1.0,0.0,0.0,1.0,0.0,100.0,1.0,1.1856,26.0,0.0,0.0,0.0,59.999996,0.0,26.0,26.0,26.0,26.0,-0.03325,0.2875000000000001,-0.0478,295.883,-2.6841,-2.690625,-1.5062,-1.4611,-239.12,215.62,190.770875,0.0,0.0,0.0,0.0,0.022600000000000002,-5.498166666666667,-5.498166666666667,-0.6378,-0.22950000000000004,0.01012499999999994,0.808,67.208,-0.0238,-0.32875000000000004,-0.16799999999999926,100.0,1.0,1.0,207.42666666666668,0.0,0.0,0.0,0.0,0.0,0.0,0.0,8792.0,0.0,55.0,5.0,241.92333333333335,1.0,0.0,0.0,0.0,0.0,0.0,1.0,0.0,0.5549999999999997,0.5549999999999997,0.0,0.0,1.0,55.0,616.79921,10000.0,85.000001,85.000001,85.000001,85.000001,395.0,0.0,0.0,0.0,1.0,166.665,52.979,52.979,53.558,53.558,34.0,-24.107499999999998,24.432000000000002,-26.84,25.32,0.0,1782.916,-0.21000000000000085,100.0,27.6445,27.224,37.932,37.702,0.0,0.0,100.0,0.0,0.0,0.0,0.0,3034.142857142857,3127.2,3879.25,4028.5,305.532,304.967,315.40375,314.89975,21.8687,20.6009,21.9467,21.4035,314.999998,314.999998,324.999988,324.999988,99.5588,99.5083,99.57078571428572,99.54691428571428,0.05774999999999997,-0.056333333333333346,-0.1335,0.09416666666666668,-0.04833333333333201,-0.05666666666667197,1.581,1.5755,37.68,29.755499999999998,38.167,34.7715,56.069,35.591499999999996,60.9,52.34,53.965,34.6565,59.463,50.692499999999995,53.095,34.159,59.4095,50.131,-0.09499999999999997,-0.04999999999999982,0.10441500000000001,0.10525000000000001,0.0,210.465,210.47,207.42666666666668,207.42666666666668,0.0,0.0
12,0.0,0.0,0.0,1.0,1.0,0.0,0.0,1.0,0.0,100.0,1.0,1.1856,26.0,0.0,0.0,0.0,59.999996,0.0,26.0,26.0,26.0,26.0,-0.01574999999999993,0.2854000000000001,-0.003375,295.517,-2.7151,-2.6862500000000002,-1.48415,-1.4824,-235.89,215.6125,190.750375,0.0,0.0,0.0,0.0,0.025466666666666665,-5.498166666666667,-5.498166666666667,-0.6279,0.43799999999999994,0.008999999999999897,0.881,67.342,-0.0105,-0.30517500000000003,-0.3379999999999992,100.0,1.0,1.0,207.75666666666666,0.0,0.0,0.0,0.0,0.0,0.0,0.0,8806.1,0.0,55.0,5.0,242.40333333333334,0.0,0.0,0.0,0.0,0.0,0.0,1.0,0.0,0.602999999999998,0.602999999999998,0.0,0.0,0.0,55.0,616.79921,10000.0,85.000001,85.000001,85.000001,85.000001,395.0,0.0,0.0,0.0,1.0,166.665,52.811,52.811,52.811,52.811,34.0,-25.645,23.222,-27.47,28.552500000000002,0.0,1782.868,0.5700000000000003,100.0,27.6715,27.411,37.846000000000004,37.64,0.0,0.0,100.0,0.0,0.0,0.0,0.0,3036.5714285714284,3164.6,4121.375,4213.4,305.508,304.836,314.81725,314.481,21.8779,20.6062,21.9568,21.4119,314.999998,314.999998,324.999988,324.999988,99.5588,99.5083,99.57092857142857,99.54704285714286,0.028500000000000192,-0.09166666666666656,-0.10683333333333334,0.11950000000000001,-0.03333333333333144,-0.054999999999999716,1.5225,1.5215,37.736999999999995,29.7885,38.230000000000004,34.8245,56.057,35.6265,60.931,52.396,53.953,34.6885,59.492,50.7465,53.082,34.19,59.436,50.184,-0.05600000000000005,-0.09949999999999992,0.10133,0.11436500000000001,0.0,210.89,210.91,207.75666666666666,207.75666666666666,0.0,0.0
13,0.0,0.0,0.0,1.0,1.0,0.0,0.0,1.0,0.0,100.0,1.0,1.1856,26.0,0.0,0.0,0.0,59.999996,0.0,26.0,26.0,26.0,26.0,0.02187500000000009,0.2856000000000001,0.036975,295.105,-2.6783,-2.70525,-1.5065,-1.496,-232.45,215.60250000000002,190.728625,0.0,0.0,0.0,0.0,0.02673333333333333,-5.498166666666667,-5.498166666666667,-0.6212,-0.2590000000000001,-0.004999999999999893,-0.481,67.486,-0.0053,-0.31215000000000004,-0.14399999999999924,100.0,1.0,1.0,208.08333333333331,0.0,0.0,0.0,0.0,0.0,0.0,0.0,8819.9,0.0,55.0,5.0,242.92000000000002,1.0,0.0,0.0,0.0,0.0,0.0,1.0,0.0,0.6539999999999999,0.6539999999999999,0.0,0.0,1.0,55.0,616.79921,10000.0,85.000001,85.000001,85.000001,85.000001,395.0,0.0,0.0,0.0,1.0,166.665,52.582,52.582,52.504999999999995,52.504999999999995,34.0,-23.845,24.66,-30.186666666666664,28.197499999999998,0.0,1782.818,-0.370000000000001,100.0,27.811,27.7015,38.091,38.138,0.0,0.0,100.0,0.0,0.0,0.0,0.0,3186.5714285714284,3013.7,4285.25,4250.0,305.2405,305.11766666666665,314.45975,314.26075,21.8875,20.6118,21.9678,21.4212,314.999998,314.999998,324.999988,324.999988,99.55881428571429,99.5083,99.57107142857143,99.5472,0.09025000000000016,-0.03400000000000003,-0.124,0.0975,-0.03833333333332689,-0.03166666666666629,1.4779999999999998,1.4869999999999999,37.797,29.8235,38.298,34.882,56.043,35.664,60.967,52.4585,53.94,34.723,59.5255,50.807,53.069,34.223,59.466499999999996,50.24333333333333,-0.11549999999999994,-0.03699999999999992,0.10608000000000001,0.10426500000000001,0.0,211.315,211.325,208.08333333333331,208.08333333333331,0.0,0.0
14,0.0,0.0,0.0,1.0,1.0,0.0,0.0,1.0,0.0,100.0,1.0,1.1856,26.0,0.0,0.0,0.0,59.999996,0.0,26.0,26.0,26.0,26.0,0.03249999999999997,0.2774000000000001,-0.020925000000000003,295.425,-2.7001,-2.70525,-1.50845,-1.4812,-228.8,215.5925,190.706,0.0,0.0,0.0,0.0,0.028833333333333332,-5.498166666666667,-5.498166666666667,-0.639,-0.11549999999999994,0.016874999999999973,-0.402,67.632,0.0054,-0.333125,-0.2920000000000007,100.0,1.0,1.0,208.65666666666667,0.0,0.0,0.0,0.0,0.0,0.0,0.0,8844.1,0.0,55.0,5.0,243.45,0.0,0.0,0.0,0.0,0.0,0.0,1.0,0.0,0.7079999999999984,0.7079999999999984,0.0,0.0,0.0,55.0,616.79921,10000.0,85.000001,85.000001,85.000001,85.000001,395.0,0.0,0.0,0.0,1.0,166.665,52.536,52.536,53.07,53.07,34.0,-23.7175,24.682000000000002,-27.14,27.8,0.0,1782.762,-0.40500000000000114,100.0,27.815,27.9265,37.944,38.098,0.0,0.0,100.0,0.0,0.0,0.0,0.0,3122.285714285714,3048.8,4010.875,4106.1,305.445,304.957,315.1355,314.6315,21.8978,20.6178,21.9792,21.4308,314.999998,314.999998,324.999988,324.999988,99.55882857142858,99.5083,99.57121428571429,99.54734285714285,0.0847500000000001,-0.043333333333333335,-0.11483333333333333,0.11983333333333333,-0.04333333333332945,-0.046666666666666856,1.5470000000000002,1.532,37.861000000000004,29.861,38.370000000000005,34.943,56.03,35.703,61.001999999999995,52.522999999999996,53.927,34.759,59.558,50.869,53.055,34.257999999999996,59.496,50.30433333333333,-0.10699999999999998,-0.04249999999999998,0.110935,0.106645,0.0,211.76999999999998,211.78,208.65666666666667,208.65666666666667,0.0,0.0
15,0.0,0.0,0.0,1.0,1.0,0.0,0.0,1.0,0.0,100.0,1.0,1.1856,26.0,0.0,0.0,0.0,59.999996,0.0,26.0,26.0,26.0,26.0,0.03112500000000007,0.28070000000000017,0.007500000000000001,295.334,-2.6927,-2.6814999999999998,-1.5175,-1.4955,-225.76,215.585,190.686875,0.0,0.0,0.0,0.0,0.030633333333333332,-5.498166666666667,-5.498166666666667,-0.6307,0.3105,0.03287499999999999,0.745,67.756,0.012400000000000001,-0.31667500000000004,-0.41999999999999993,100.0,1.0,1.0,208.9766666666667,0.0,0.0,0.0,0.0,0.0,0.0,0.0,8857.8,0.0,55.0,5.0,243.89666666666665,1.0,0.0,0.0,0.0,0.0,0.0,1.0,0.0,0.7530000000000001,0.7530000000000001,0.0,0.0,1.0,55.0,616.79921,10000.0,85.000001,85.000001,85.000001,85.000001,395.0,0.0,0.0,0.0,1.0,166.665,52.567,52.567,52.872,52.872,34.0,-21.9225,25.502000000000002,-25.979999999999997,30.43,0.0,1782.717,-0.3150000000000013,100.0,28.001,27.8345,37.873,38.025999999999996,0.0,0.0,100.0,0.0,0.0,0.0,0.0,2953.142857142857,3136.1,4038.25,4287.6,305.758,304.8426666666667,315.022,314.24425,21.9063,20.6228,21.9887,21.4389,314.999998,314.999998,324.999988,324.999988,99.55884285714286,99.50831666666667,99.57134285714285,99.54747142857143,0.09624999999999995,-0.03366666666666662,-0.08216666666666668,0.13666666666666666,-0.04833333333333201,-0.05833333333333002,1.5314999999999999,1.51,37.914,29.8925,38.429,34.9935,56.019,35.735,61.03,52.5775,53.917,34.789,59.5845,50.9215,53.044,34.286500000000004,59.5195,50.356,-0.10549999999999993,-0.05250000000000021,0.10494,0.109825,0.0,212.18,212.185,208.9766666666667,208.9766666666667,0.0,0.0
16,0.0,0.0,0.0,1.0,1.0,0.0,0.0,1.0,0.0,100.0,1.0,1.1856,26.0,0.0,0.0,0.0,59.999996,0.0,26.0,26.0,26.0,26.0,0.02750000000000008,0.25970000000000004,-0.011875,295.273,-2.7567,-2.629,-1.4949,-1.495,-222.3,215.5775,190.66475,0.0,0.0,0.0,0.0,0.032633333333333334,-5.498166666666667,-5.498166666666667,-0.6419,-0.5225,0.01862499999999989,-1.181,67.896,0.0146,-0.327875,-0.13200000000000056,100.0,1.0,1.0,209.39333333333332,0.0,0.0,0.0,0.0,0.0,0.0,0.0,8875.5,0.0,55.0,5.0,244.39666666666665,0.0,0.0,0.0,0.0,0.0,0.0,1.0,0.0,0.8039999999999985,0.8039999999999985,0.0,0.0,0.0,55.0,616.79921,10000.0,85.000001,85.000001,85.000001,85.000001,395.0,0.0,0.0,0.0,1.0,166.665,52.49,52.49,52.628,52.628,34.0,-24.7825,24.856,-27.37,28.82,0.0,1782.667,-0.254999999999999,100.0,27.5365,27.956,37.985,38.213,0.0,0.0,100.0,0.0,0.0,0.0,0.0,3187.5714285714284,3131.5,4124.75,4097.9,305.322,304.75733333333335,314.862,314.5875,21.9157,20.6284,21.9995,21.4482,314.999998,314.999998,324.999988,324.999988,99.55884285714286,99.50831666666667,99.57148571428571,99.54761428571429,0.08400000000000007,-0.03966666666666663,-0.10066666666666667,0.133,-0.041666666666671404,-0.04833333333333201,1.4985,1.5015,37.973,29.927500000000002,38.497,35.051,56.004999999999995,35.772,61.064499999999995,52.638999999999996,53.903,34.823,59.616,50.981,53.028999999999996,34.319,59.5485,50.41433333333333,-0.09999999999999987,-0.05449999999999999,0.10518500000000001,0.10985,0.0,212.585,212.57999999999998,209.39333333333332,209.39333333333332,0.0,0.0
17,0.0,0.0,0.0,1.0,1.0,0.0,0.0,1.0,0.0,100.0,1.0,1.1856,26.0,0.0,0.0,0.0,59.999996,0.0,26.0,26.0,26.0,26.0,0.007624999999999993,0.27890000000000015,0.010700000000000001,294.983,-2.7092,-2.619125,-1.53065,-1.4605000000000001,-218.82999999999998,215.57,190.6425,0.0,0.0,0.0,0.0,0.034633333333333335,-5.498166666666667,-5.498166666666667,-0.6394000000000001,0.20599999999999996,-0.0036249999999999893,0.449,68.03399999999999,0.010400000000000001,-0.318025,-0.1479999999999997,100.0,1.0,1.0,209.79333333333335,0.0,0.0,0.0,0.0,0.0,0.0,0.0,8892.4,0.0,55.0,5.0,244.89666666666665,1.0,0.0,0.0,0.0,0.0,0.0,1.0,0.0,0.8550000000000004,0.8550000000000004,0.0,0.0,1.0,55.0,616.79921,10000.0,85.000001,85.000001,85.000001,85.000001,395.0,0.0,0.0,0.0,1.0,166.665,52.2,52.2,52.521,52.521,34.0,-23.947499999999998,25.176000000000002,-28.73,29.41,0.0,1782.615,-0.23000000000000043,100.0,28.113500000000002,27.922,38.003,38.03,0.0,0.0,100.0,0.0,0.0,0.0,0.0,3148.5714285714284,3188.7,4269.0,4267.3,305.2365,304.76366666666667,314.53175,314.36425,21.9254,20.6342,22.0103,21.4573,314.999998,314.999998,324.999988,324.999988,99.55885714285715,99.50831666666667,99.57162857142858,99.54777142857142,0.09074999999999989,-0.03733333333333333,-0.0945,0.13033333333333336,-0.03333333333333144,-0.041666666666671404,1.4945,1.492,38.034,29.9635,38.564,35.108000000000004,55.992999999999995,35.809,61.0965,52.6995,53.891999999999996,34.858000000000004,59.6465,51.039,53.016999999999996,34.3525,59.576,50.471333333333334,-0.09699999999999998,-0.06550000000000011,0.10664000000000001,0.10866,0.0,213.025,213.03,209.79333333333335,209.79333333333335,0.0,0.0
18,0.0,0.0,0.0,1.0,1.0,0.0,0.0,1.0,0.0,100.0,1.0,1.1856,26.0,0.0,0.0,0.0,59.999996,0.0,26.0,26.0,26.0,26.0,0.01475000000000004,0.2834000000000001,0.0483,294.861,-2.6479,-2.737625,-1.43695,-1.4166,-215.36,215.5625,190.62,0.0,0.0,0.0,0.0,0.03666666666666667,-5.498166666666667,-5.498166666666667,-0.6509,-0.3985000000000001,0.0016249999999999876,-0.468,68.173,0.0046,-0.3326,-0.05799999999999983,100.0,1.0,1.0,210.18,0.0,0.0,0.0,0.0,0.0,0.0,0.0,8908.7,0.0,55.0,5.0,245.39666666666665,0.0,0.0,0.0,0.0,0.0,0.0,1.0,0.0,0.9059999999999988,0.9059999999999988,0.0,0.0,0.0,55.0,616.79921,10000.0,85.000001,85.000001,85.000001,85.000001,395.0,0.0,0.0,0.0,1.0,166.665,52.016999999999996,52.016999999999996,52.382999999999996,52.382999999999996,34.0,-24.099999999999998,26.09,-27.763333333333335,27.715,0.0,1782.565,-0.245000000000001,100.0,27.948,28.0605,38.08,38.25,0.0,0.0,100.0,0.0,0.0,0.0,0.0,3221.0,3169.0,4207.625,4262.0,305.123,304.49833333333333,314.61825,314.2655,21.935,20.6398,22.0211,21.4666,314.999998,314.999998,324.999988,324.999988,99.55887142857142,99.50833333333334,99.57178571428571,99.54791428571428,0.08599999999999985,-0.04633333333333334,-0.10866666666666668,0.10866666666666668,-0.03999999999999915,-0.045000000000001705,1.4859999999999998,1.494,38.093,29.9985,38.632,35.166,55.980000000000004,35.8455,61.131,52.760999999999996,53.879000000000005,34.8915,59.6785,51.0985,53.004,34.385,59.605000000000004,50.529666666666664,-0.09999999999999987,-0.05750000000000011,0.10462500000000001,0.104135,0.0,213.43,213.43,210.18,210.18,0.0,0.0
19,0.0,0.0,0.0,1.0,1.0,0.0,0.0,1.0,0.0,100.0,1.0,1.1856,26.0,0.0,0.0,0.0,59.999996,0.0,26.0,26.0,26.0,26.0,0.02499999999999991,0.27960000000000007,0.0425,294.678,-2.6403,-2.709375,-1.4604,-1.5422,-211.88,215.555,190.59725,0.0,0.0,0.0,0.0,0.038700000000000005,-5.498166666666667,-5.498166666666667,-0.6418,0.5965,0.009374999999999911,0.672,68.309,0.0036000000000000003,-0.32405,-0.13600000000000012,100.0,1.0,1.0,210.61666666666667,0.0,0.0,0.0,0.0,0.0,0.0,0.0,8927.3,0.0,55.0,5.0,245.88666666666666,1.0,0.0,0.0,0.0,0.0,0.0,1.0,0.0,0.9570000000000007,0.9570000000000007,0.0,0.0,1.0,55.0,616.79921,10000.0,85.000001,85.000001,85.000001,85.000001,395.0,0.0,0.0,0.0,1.0,111.11,51.819,51.819,52.597,52.597,34.0,-23.2625,25.224,-27.513333333333335,31.3,0.0,1782.515,-0.18499999999999872,100.0,28.653,28.36,38.091,38.202,0.0,0.0,100.0,0.0,0.0,0.0,0.0,3081.857142857143,3145.3,4161.75,4359.5,305.3425,304.76366666666667,314.716,314.015,21.9447,20.6456,22.0319,21.4758,314.999998,314.999998,324.999988,324.999988,99.55888571428571,99.50833333333334,99.57192857142857,99.54805714285715,0.08099999999999996,-0.05033333333333334,-0.10366666666666667,0.124,-0.041666666666671404,-0.054999999999999716,1.4834999999999998,1.4765,38.153999999999996,30.035,38.699,35.224000000000004,55.968,35.8845,61.1625,52.822,53.867999999999995,34.9275,59.708,51.1575,52.992000000000004,34.4195,59.6315,50.587666666666664,-0.09450000000000003,-0.06850000000000023,0.11045500000000001,0.11353,0.0,213.9,213.9,210.61666666666667,210.61666666666667,0.0,0.0
20,0.0,0.0,0.0,1.0,1.0,0.0,0.0,1.0,0.0,100.0,1.0,1.1856,26.0,0.0,0.0,0.0,59.999996,0.0,26.0,26.0,26.0,26.0,0.011249999999999982,0.25780000000000003,0.0017000000000000001,294.861,-2.7358000000000002,-2.6647499999999997,-1.4673500000000002,-1.5267,-208.6,215.55,190.576125,0.0,0.0,0.0,0.0,0.040600000000000004,-5.498166666666667,-5.498166666666667,-0.6465000000000001,-0.919,0.008624999999999883,0.648,68.439,0.0001,-0.33632500000000004,-0.02799999999999958,100.0,1.0,1.0,210.96666666666667,0.0,0.0,0.0,0.0,0.0,0.0,0.0,8942.1,0.0,55.0,5.0,246.35333333333335,0.0,0.0,0.0,0.0,0.0,0.0,0.0,0.0,1.004999999999999,1.004999999999999,0.0,0.0,0.0,55.0,616.79921,10000.0,85.000001,85.000001,85.000001,85.000001,395.0,0.0,0.0,0.0,1.0,166.665,52.307,52.307,52.138999999999996,52.138999999999996,34.0,-23.5775,24.793999999999997,-28.2,29.9325,0.0,1782.465,-0.18499999999999872,100.0,28.211,28.069,38.566,38.508,0.0,0.0,100.0,0.0,0.0,0.0,0.0,3045.0,3143.3,4160.5,4223.2,305.579,304.9236666666667,314.66375,314.3285,21.9535,20.6509,22.0422,21.4846,314.999998,314.999998,324.999988,324.999988,99.5589,99.50835,99.57205714285715,99.5482,0.08325000000000005,-0.04599999999999993,-0.1125,0.12333333333333334,-0.030000000000001137,-0.04833333333333201,1.4699999999999998,1.4685,38.21,30.067999999999998,38.763999999999996,35.278999999999996,55.955,35.919,61.196,52.881,53.855999999999995,34.9595,59.7395,51.214,52.977999999999994,34.45,59.6605,50.64333333333333,-0.09050000000000002,-0.0665,0.108365,0.10878000000000002,0.0,214.255,214.255,210.96666666666667,210.96666666666667,0.0,0.0
21,0.0,0.0,0.0,1.0,1.0,0.0,0.0,1.0,0.0,100.0,1.0,1.1856,26.0,0.0,0.0,0.0,59.999996,0.0,26.0,26.0,26.0,26.0,0.010625000000000107,0.2862,-0.038525000000000004,295.197,-2.7133,-2.661625,-1.51215,-1.468,-205.1,215.54250000000002,190.55325,0.0,0.0,0.0,0.0,0.042633333333333336,-5.498166666666667,-5.498166666666667,-0.6689,0.15149999999999997,-0.004999999999999893,-0.748,68.572,-0.0027,-0.33790000000000003,-0.02799999999999958,100.0,1.0,1.0,211.54666666666668,0.0,0.0,0.0,0.0,0.0,0.0,0.0,8966.7,0.0,55.0,5.0,246.83333333333334,1.0,0.0,0.0,0.0,0.0,0.0,0.0,0.0,1.056000000000001,1.056000000000001,0.0,0.0,1.0,55.0,616.79921,10000.0,85.000001,85.000001,85.000001,85.000001,395.0,0.0,0.0,0.0,1.0,166.665,52.109,52.109,53.101,53.101,34.0,-25.315,24.256,-27.73,26.695,0.0,1782.415,-0.1999999999999993,100.0,28.162,28.18,37.969,38.128,0.0,0.0,100.0,0.0,0.0,0.0,0.0,3243.857142857143,3094.4,4082.875,4020.7,305.1285,304.914,315.0175,314.91025,21.9631,20.6566,22.0529,21.4937,314.999998,314.999998,324.999988,324.999988,99.5589,99.50835,99.5722,99.54834285714286,0.0757500000000002,-0.05233333333333334,-0.11583333333333333,0.11883333333333333,-0.05666666666667197,-0.04999999999999716,1.5665,1.5655,38.269,30.104,38.83,35.335499999999996,55.942,35.956,61.2265,52.939,53.843,34.9935,59.7675,51.269999999999996,52.965,34.483000000000004,59.6855,50.69833333333334,-0.09899999999999998,-0.06050000000000022,0.10720500000000001,0.11032000000000002,0.0,214.685,214.695,211.54666666666668,211.54666666666668,0.0,0.0
22,0.0,0.0,0.0,1.0,1.0,0.0,0.0,1.0,0.0,100.0,1.0,1.1856,26.0,0.0,0.0,0.0,59.999996,0.0,26.0,26.0,26.0,26.0,-0.005124999999999935,0.29059999999999997,-0.0063,294.754,-2.7639,-2.633,-1.53165,-1.4689,-201.6,215.5375,190.529375,0.0,0.0,0.0,0.0,0.044666666666666674,-5.498166666666667,-5.498166666666667,-0.6509,0.034499999999999975,0.004999999999999893,1.091,68.71000000000001,-0.0006000000000000001,-0.312575,-0.1459999999999999,100.0,1.0,1.0,211.79000000000002,0.0,0.0,0.0,0.0,0.0,0.0,0.0,8977.0,0.0,55.0,5.0,247.32666666666665,0.0,0.0,0.0,0.0,0.0,0.0,0.0,0.0,1.1069999999999993,1.1069999999999993,0.0,0.0,0.0,55.0,616.79921,10000.0,85.000001,85.000001,85.000001,85.000001,395.0,0.0,0.0,0.0,1.0,166.665,52.277,52.277,52.124,52.124,34.0,-23.7625,24.536,-29.966666666666665,30.775,0.0,1782.365,-0.254999999999999,100.0,28.372500000000002,28.084,38.306,38.199,0.0,0.0,100.0,0.0,0.0,0.0,0.0,3055.0,3165.0,4285.375,4446.4,305.5925,304.92133333333334,314.4475,313.9435,21.9726,20.6623,22.0637,21.503,314.999998,314.999998,324.999988,324.999988,99.55891428571428,99.50836666666666,99.57235714285714,99.54848571428572,0.08599999999999985,-0.048666666666666636,-0.111,0.12466666666666668,-0.03999999999999915,-0.05833333333333002,1.4725000000000001,1.4855,38.329,30.139499999999998,38.897999999999996,35.3935,55.929,35.9935,61.2605,53.0,53.831,35.0285,59.7995,51.329,52.952,34.5165,59.7145,50.756,-0.10050000000000003,-0.0665,0.10933000000000001,0.10534500000000001,0.0,215.11,215.125,211.79000000000002,211.79000000000002,0.0,0.0
23,0.0,0.0,0.0,1.0,1.0,0.0,0.0,1.0,0.0,100.0,1.0,1.1856,26.0,0.0,0.0,0.0,59.999996,0.0,26.0,26.0,26.0,26.0,-0.013749999999999929,0.2632000000000001,0.00355,294.662,-2.6738,-2.66625,-1.5825,-1.4434,-198.3,215.5325,190.507125,0.0,0.0,0.0,0.0,0.04656666666666667,-5.498166666666667,-5.498166666666667,-0.6678000000000001,-0.33099999999999996,0.0044999999999999485,0.614,68.83500000000001,0.003,-0.33987500000000004,-0.1200000000000001,100.0,1.0,1.0,212.25,0.0,0.0,0.0,0.0,0.0,0.0,0.0,8996.6,0.0,55.0,5.0,247.78,1.0,0.0,0.0,0.0,0.0,0.0,0.0,0.0,1.1550000000000011,1.1550000000000011,0.0,0.0,1.0,55.0,616.79921,10000.0,85.000001,85.000001,85.000001,85.000001,395.0,0.0,0.0,0.0,1.0,333.33500000000004,51.59,51.59,52.734,52.734,34.0,-24.7575,25.594,-29.176666666666666,28.1575,0.0,1782.315,-0.2049999999999983,100.0,28.594,28.282,38.378,38.399,0.0,0.0,100.0,0.0,0.0,0.0,0.0,3251.0,3203.2,4159.0,4197.6,304.884,304.71633333333335,314.81975,314.53,21.9816,20.6678,22.073900000000002,21.5118,314.999998,314.999998,324.999988,324.999988,99.55892857142857,99.50836666666666,99.5725,99.54862857142857,0.08725000000000005,-0.04166666666666663,-0.10783333333333334,0.12233333333333334,-0.026666666666670835,-0.05666666666667197,1.5145,1.507,38.385,30.1735,38.962,35.448499999999996,55.918,36.028999999999996,61.292,53.058,53.82,35.0615,59.829,51.385,52.941,34.548500000000004,59.741,50.81066666666666,-0.10099999999999998,-0.06099999999999994,0.098835,0.10996500000000001,0.0,215.49,215.485,212.25,212.25,0.0,0.0
24,0.0,0.0,0.0,1.0,1.0,0.0,0.0,1.0,0.0,100.0,1.0,1.1856,26.0,0.0,0.0,0.0,59.999996,0.0,26.0,26.0,26.0,26.0,0.011749999999999927,0.2722,-0.015700000000000002,295.059,-2.7036,-2.669375,-1.4707,-1.4945,-194.79,215.5275,190.48325,0.0,0.0,0.0,0.0,0.048633333333333334,-5.498166666666667,-5.498166666666667,-0.6817000000000001,-0.39149999999999996,0.012750000000000039,-0.34700000000000003,68.969,0.0053,-0.339525,-0.08200000000000074,100.0,1.0,1.0,212.63333333333333,0.0,0.0,0.0,0.0,0.0,0.0,0.0,9012.8,0.0,55.0,5.0,248.26333333333332,0.0,0.0,0.0,0.0,0.0,0.0,0.0,0.0,1.2059999999999995,1.2059999999999995,0.0,0.0,0.0,55.0,616.79921,10000.0,85.000001,85.000001,85.000001,85.000001,395.0,0.0,0.0,0.0,1.0,166.665,52.46,52.46,52.504999999999995,52.504999999999995,34.0,-23.7575,23.868,-28.726666666666663,28.192500000000003,0.0,1782.265,-0.23000000000000043,100.0,28.2195,28.233,38.173,38.341,0.0,0.0,100.0,0.0,0.0,0.0,0.0,3068.4285714285716,3005.7,4223.25,4155.6,305.6245,305.1816666666667,314.63125,314.52375,21.991,20.6734,22.084699999999998,21.521,314.999998,314.999998,324.999988,324.999988,99.55894285714285,99.50838333333333,99.57264285714285,99.54877142857143,0.07399999999999984,-0.044333333333333336,-0.11783333333333333,0.11266666666666668,-0.041666666666671404,-0.04333333333332945,1.516,1.501,38.444,30.209,39.028999999999996,35.5065,55.903999999999996,36.0655,61.3245,53.118,53.808,35.095,59.859,51.442499999999995,52.927,34.5805,59.768,50.867666666666665,-0.09549999999999992,-0.05699999999999994,0.10629000000000001,0.10924500000000001,0.0,215.92000000000002,215.905,212.63333333333333,212.63333333333333,0.0,0.0
25,0.0,0.0,0.0,1.0,1.0,0.0,0.0,1.0,0.0,100.0,1.0,1.1856,26.0,0.0,0.0,0.0,59.999996,0.0,26.0,26.0,26.0,26.0,0.005249999999999977,0.26460000000000017,-0.006925000000000001,294.8,-2.7404,-2.64825,-1.5204,-1.4697,-191.26999999999998,215.5225,190.457875,0.0,0.0,0.0,0.0,0.05066666666666667,-5.498166666666667,-5.498166666666667,-0.6982,0.16400000000000003,0.01912500000000006,0.256,69.102,0.0047,-0.33440000000000003,-0.1200000000000001,100.0,1.0,1.0,213.11333333333334,0.0,0.0,0.0,0.0,0.0,0.0,0.0,9033.1,0.0,55.0,5.0,248.74,1.0,0.0,0.0,0.0,0.0,0.0,0.0,0.0,1.256999999999998,1.256999999999998,0.0,0.0,1.0,55.0,616.79921,10000.0,85.000001,85.000001,85.000001,85.000001,395.0,0.0,0.0,0.0,1.0,111.11,51.513999999999996,51.513999999999996,52.902,52.902,34.0,-25.4375,27.17,-26.976666666666663,28.405,0.0,1782.215,-0.28999999999999915,100.0,28.3405,28.2765,38.031,38.085,0.0,0.0,100.0,0.0,0.0,0.0,0.0,3271.857142857143,3356.8,4044.125,4176.5,304.9435,304.242,315.09425,314.5605,22.0004,20.6792,22.095399999999998,21.5302,314.999998,314.999998,324.999988,324.999988,99.55894285714285,99.50838333333333,99.57278571428571,99.54892857142858,0.08800000000000008,-0.03466666666666662,-0.10250000000000001,0.1245,-0.046666666666666856,-0.04999999999999716,1.5470000000000002,1.5325,38.503,30.2455,39.096000000000004,35.564,55.891,36.103,61.355000000000004,53.177,53.795,35.129999999999995,59.8875,51.4995,52.913,34.614,59.7935,50.92333333333333,-0.10349999999999993,-0.06300000000000017,0.10185500000000001,0.10754500000000002,0.0,216.32,216.325,213.11333333333334,213.11333333333334,0.0,0.0
26,0.0,0.0,0.0,1.0,1.0,0.0,0.0,1.0,0.0,100.0,1.0,1.1856,26.0,0.0,0.0,0.0,59.999996,0.0,26.0,26.0,26.0,26.0,0.017249999999999988,0.27259999999999995,0.09005,293.945,-2.6685,-2.731375,-1.48265,-1.4635,-187.95,215.51749999999998,190.433625,0.0,0.0,0.0,0.0,0.0526,-5.498166666666667,-5.498166666666667,-0.6668000000000001,0.4455,0.003374999999999906,0.763,69.229,0.0055000000000000005,-0.3144,-0.25,100.0,1.0,1.0,213.28,0.0,0.0,0.0,0.0,0.0,0.0,0.0,9040.2,0.0,55.0,5.0,249.2,0.0,0.0,0.0,0.0,0.0,0.0,0.0,0.0,1.3049999999999997,1.3049999999999997,0.0,0.0,0.0,55.0,616.79921,10000.0,85.000001,85.000001,85.000001,85.000001,395.0,0.0,0.0,0.0,1.0,333.33500000000004,51.437,51.437,51.498,51.498,34.0,-23.065,25.904,-29.923333333333336,32.6025,0.0,1782.165,-0.33500000000000085,100.0,29.0645,28.726,38.554,38.518,0.0,0.0,100.0,0.0,0.0,0.0,0.0,3152.714285714286,3134.9,4505.5,4582.3,305.1955,304.86066666666665,313.88575,313.59475,22.0095,20.6848,22.1057,21.5391,314.999998,314.999998,324.999988,324.999988,99.55895714285714,99.50838333333333,99.57292857142858,99.54907142857142,0.10475000000000012,-0.03533333333333333,-0.08666666666666667,0.1315,-0.03999999999999915,-0.05333333333332746,1.4285,1.413,38.559,30.28,39.16,35.619,55.881,36.1415,61.39,53.2395,53.785,35.1655,59.92,51.56,52.903,34.647999999999996,59.823499999999996,50.98233333333333,-0.11450000000000005,-0.05250000000000021,0.10427000000000002,0.112835,0.0,216.73000000000002,216.76,213.28,213.28,0.0,0.0
27,0.0,0.0,0.0,1.0,1.0,0.0,0.0,1.0,0.0,100.0,1.0,1.1856,26.0,0.0,0.0,0.0,59.999996,0.0,26.0,26.0,26.0,26.0,0.035374999999999934,0.23940000000000006,-0.044725,294.51,-2.7433,-2.6715,-1.5404,-1.4758,-184.41,215.5125,190.409125,0.0,0.0,0.0,0.0,0.05466666666666667,-5.498166666666667,-5.498166666666667,-0.6975,-1.0335,0.008750000000000036,-0.557,69.36,0.0105,-0.363325,-0.19399999999999995,100.0,1.0,1.0,213.81333333333333,0.0,0.0,0.0,0.0,0.0,0.0,0.0,9062.7,0.0,55.0,5.0,249.67000000000002,1.0,0.0,0.0,0.0,0.0,0.0,0.0,0.0,1.355999999999998,1.355999999999998,0.0,0.0,1.0,55.0,616.79921,10000.0,85.000001,85.000001,85.000001,85.000001,395.0,0.0,0.0,0.0,1.0,166.665,51.650999999999996,51.650999999999996,52.001999999999995,52.001999999999995,34.0,-24.56,25.144,-28.55,28.247500000000002,0.0,1782.115,-0.28500000000000014,100.0,28.576,28.820999999999998,38.744,38.795,0.0,0.0,100.0,0.0,0.0,0.0,0.0,3189.0,3136.3,4151.25,4114.8,305.3715,304.731,314.7465,314.683,22.0188,20.6906,22.1167,21.5486,314.999998,314.999998,324.999988,324.999988,99.55897142857143,99.5084,99.57307142857142,99.54921428571429,0.08674999999999988,-0.04466666666666663,-0.10350000000000001,0.1265,-0.036666666666668846,-0.03499999999999659,1.496,1.5035,38.617999999999995,30.316499999999998,39.229,35.6785,55.869,36.177,61.4225,53.2975,53.774,35.198499999999996,59.951,51.616,52.89,34.6795,59.851,51.037333333333336,-0.10799999999999987,-0.058499999999999996,0.10215500000000001,0.107185,0.0,217.09,217.10000000000002,213.81333333333333,213.81333333333333,0.0,0.0
28,0.0,0.0,0.0,1.0,1.0,0.0,0.0,1.0,0.0,100.0,1.0,1.1856,26.0,0.0,0.0,0.0,59.999996,0.0,26.0,26.0,26.0,26.0,0.014499999999999957,0.2692000000000001,-0.0453,294.739,-2.6726,-2.66,-1.5505,-1.502,-180.87,215.5075,190.38375,0.0,0.0,0.0,0.0,0.0567,-5.498166666666667,-5.498166666666667,-0.7026,0.6755,-0.00012500000000015277,0.46900000000000003,69.489,0.0119,-0.33887500000000004,-0.24799999999999933,100.0,1.0,1.0,214.30666666666667,0.0,0.0,0.0,0.0,0.0,0.0,0.0,9083.7,0.0,55.0,5.0,250.13333333333333,0.0,0.0,0.0,0.0,0.0,0.0,0.0,0.0,1.407,1.407,0.0,0.0,0.0,55.0,616.79921,10000.0,85.000001,85.000001,85.000001,85.000001,395.0,0.0,0.0,0.0,1.0,166.665,51.635999999999996,51.635999999999996,52.689,52.689,34.0,-22.3925,25.792,-27.669999999999998,29.585,0.0,1782.065,-0.34499999999999886,100.0,28.889499999999998,28.6645,38.147,38.244,0.0,0.0,100.0,0.0,0.0,0.0,0.0,3058.0,3189.4,4157.75,4180.5,305.426,304.72266666666667,314.90175,314.61275,22.0283,20.6965,22.1272,21.5577,314.999998,314.999998,324.999988,324.999988,99.55898571428571,99.5084,99.57321428571429,99.54935714285715,0.10424999999999995,-0.03466666666666662,-0.09133333333333334,0.13916666666666666,-0.02833333333332888,-0.04833333333333201,1.5484999999999998,1.534,38.677,30.353,39.295,35.736,55.857,36.215,61.451,53.3555,53.763,35.234,59.9775,51.6715,52.879000000000005,34.713499999999996,59.8745,51.092,-0.10949999999999993,-0.059499999999999886,0.102855,0.11211000000000002,0.0,217.515,217.55,214.30666666666667,214.30666666666667,0.0,0.0
29,0.0,0.0,0.0,1.0,1.0,0.0,0.0,1.0,0.0,100.0,1.0,1.1856,26.0,0.0,0.0,0.0,59.999996,0.0,26.0,26.0,26.0,26.0,0.025249999999999995,0.26350000000000007,-0.0016,294.54,-2.6515,-2.7203749999999998,-1.49745,-1.483,-177.53,215.505,190.35875,0.0,0.0,0.0,0.0,0.058666666666666666,-5.498166666666667,-5.498166666666667,-0.7020000000000001,-0.635,-0.002000000000000224,0.853,69.61500000000001,0.013900000000000001,-0.33227500000000004,-0.34999999999999964,100.0,1.0,1.0,214.50666666666666,0.0,0.0,0.0,0.0,0.0,0.0,0.0,9092.2,0.0,55.0,5.0,250.59,1.0,0.0,0.0,0.0,0.0,0.0,0.0,0.0,1.4549999999999983,1.4549999999999983,0.0,0.0,1.0,55.0,616.79921,10000.0,85.000001,85.000001,85.000001,85.000001,395.0,0.0,0.0,0.0,1.0,333.33500000000004,52.063,52.063,52.032,52.032,34.0,-22.0225,26.07,-28.243333333333336,31.19,0.0,1782.015,-0.379999999999999,100.0,28.5025,28.4115,38.561,38.49,0.0,0.0,100.0,0.0,0.0,0.0,0.0,3039.285714285714,3136.2,4220.75,4398.4,305.586,304.88533333333334,314.55,314.0145,22.037,20.7019,22.1375,21.5666,314.999998,314.999998,324.999988,324.999988,99.559,99.5084,99.57335714285715,99.5495,0.10199999999999987,-0.028666666666666618,-0.09533333333333333,0.13116666666666665,-0.03833333333332689,-0.05333333333332746,1.4659999999999997,1.456,38.730999999999995,30.386499999999998,39.358999999999995,35.7915,55.845,36.249,61.484,53.4135,53.751000000000005,35.265,60.007999999999996,51.728,52.866,34.7435,59.9025,51.147,-0.10850000000000004,-0.04899999999999993,0.11215000000000001,0.10487,0.0,217.885,217.92000000000002,214.50666666666666,214.50666666666666,0.0,0.0
30,0.0,0.0,0.0,1.0,1.0,0.0,0.0,1.0,0.0,100.0,1.0,1.1856,26.0,0.0,0.0,0.0,59.999996,0.0,26.0,26.0,26.0,26.0,0.03237500000000004,0.24850000000000017,0.040075,293.991,-2.6715999999999998,-2.603625,-1.5654,-1.5361,-174.19,215.5025,190.333875,0.0,0.0,0.0,0.0,0.0606,-5.498166666666667,-5.498166666666667,-0.7074,0.7115,-0.0016250000000002096,0.671,69.735,0.0179,-0.34265,-0.33399999999999963,100.0,1.0,1.0,215.01,0.0,0.0,0.0,0.0,0.0,0.0,0.0,9113.5,0.0,55.0,5.0,251.02333333333334,0.0,0.0,0.0,0.0,0.0,0.0,1.0,0.0,1.5030000000000001,1.5030000000000001,0.0,0.0,0.0,55.0,616.79921,10000.0,85.000001,85.000001,85.000001,85.000001,395.0,0.0,0.0,0.0,1.0,166.665,50.293,50.293,52.567,52.567,34.0,-24.822499999999998,27.433999999999997,-28.256666666666664,30.4325,0.0,1781.969,-0.34499999999999886,100.0,29.4015,29.166,38.323,38.472,0.0,0.0,100.0,0.0,0.0,0.0,0.0,3337.285714285714,3383.7,4157.0,4169.2,304.571,304.0063333333333,314.949,314.541,22.046,20.7076,22.1476,21.5754,314.999998,314.999998,324.999988,324.999988,99.559,99.5084,99.5735,99.54964285714286,0.10400000000000009,-0.02966666666666662,-0.096,0.14233333333333334,-0.041666666666671404,-0.05666666666667197,1.5,1.4949999999999999,38.788,30.4225,39.422,35.8465,55.837,36.286500000000004,61.5125,53.47,53.742999999999995,35.3,60.035,51.782,52.857,34.777,59.9265,51.2,-0.11399999999999988,-0.05699999999999994,0.10938,0.113875,0.0,218.29500000000002,218.31,215.01,215.01,0.0,0.0
31,0.0,0.0,0.0,1.0,1.0,0.0,0.0,1.0,0.0,100.0,1.0,1.1856,26.0,0.0,0.0,0.0,59.999996,0.0,26.0,26.0,26.0,26.0,0.03512500000000007,0.2630000000000001,0.04165,293.579,-2.7622,-2.6252500000000003,-1.5668000000000002,-1.4287,-170.63,215.5,190.308,0.0,0.0,0.0,0.0,0.06266666666666666,-5.498166666666667,-5.498166666666667,-0.6906,-0.45199999999999996,0.005125000000000046,-0.809,69.867,0.0195,-0.346625,-0.2400000000000002,100.0,1.0,1.0,215.21,0.0,0.0,0.0,0.0,0.0,0.0,0.0,9121.9,0.0,55.0,5.0,251.5,1.0,0.0,0.0,0.0,0.0,0.0,1.0,0.0,1.5539999999999985,1.5539999999999985,0.0,0.0,1.0,55.0,616.79921,10000.0,85.000001,85.000001,85.000001,85.000001,395.0,0.0,0.0,0.0,1.0,166.665,50.812,50.812,51.071,51.071,34.0,-24.6425,26.258,-31.11,31.255,0.0,1781.918,-0.41999999999999815,100.0,29.0995,29.4355,38.853,39.150999999999996,0.0,0.0,100.0,0.0,0.0,0.0,0.0,3273.714285714286,3280.7,4435.0,4397.3,305.1415,304.37733333333335,314.1235,313.8645,22.0554,20.7135,22.1586,21.585,314.999998,314.999998,324.999988,324.999988,99.55901428571428,99.50841666666666,99.57365714285714,99.5498,0.10575000000000001,-0.038000000000000034,-0.0945,0.1395,-0.04999999999999716,-0.03999999999999915,1.4194999999999998,1.4124999999999999,38.846000000000004,30.4595,39.491,35.9065,55.826,36.325,61.5485,53.534,53.733000000000004,35.335499999999996,60.0685,51.844,52.846000000000004,34.8115,59.957,51.260999999999996,-0.11850000000000005,-0.05650000000000022,0.109255,0.11190000000000001,0.0,218.695,218.695,215.21,215.21,0.0,0.0
32,0.0,0.0,0.0,1.0,1.0,0.0,0.0,1.0,0.0,100.0,1.0,1.1856,26.0,0.0,0.0,0.0,59.999996,0.0,26.0,26.0,26.0,26.0,0.046875,0.26150000000000007,-0.04245,294.35699999999997,-2.682,-2.691,-1.5035,-1.5562,-166.64,215.5,190.2795,0.0,0.0,0.0,0.0,0.065,-5.498166666666667,-5.498166666666667,-0.7149,-0.30000000000000004,-0.015375000000000139,0.299,70.009,0.0206,-0.36502500000000004,-0.3700000000000001,100.0,1.0,1.0,215.80333333333334,0.0,0.0,0.0,0.0,0.0,0.0,0.0,9147.2,0.0,55.0,5.0,252.00666666666666,0.0,0.0,0.0,0.0,0.0,0.0,1.0,0.0,1.6110000000000007,1.6110000000000007,0.0,0.0,0.0,55.0,616.79921,10000.0,85.000001,85.000001,85.000001,85.000001,395.0,0.0,0.0,0.0,1.0,111.11,51.331,51.331,52.46,52.46,34.0,-21.759999999999998,26.454,-26.133333333333333,31.9725,0.0,1781.861,-0.384999999999998,100.0,29.1375,29.0885,38.566,38.748000000000005,0.0,0.0,100.0,0.0,0.0,0.0,0.0,3063.4285714285716,3175.9,4044.625,4249.1,305.456,304.738,315.01275,314.326,22.0658,20.7202,22.1706,21.5955,314.999998,314.999998,324.999988,324.999988,99.55904285714286,99.50841666666666,99.57381428571429,99.54995714285714,0.12124999999999986,-0.023666666666666614,-0.084,0.15066666666666667,-0.03999999999999915,-0.05666666666667197,1.5095,1.484,38.912,30.500999999999998,39.566,35.972,55.814,36.367,61.583,53.6015,53.721000000000004,35.375,60.1005,51.909,52.833,34.849000000000004,59.9855,51.324333333333335,-0.11699999999999999,-0.05250000000000021,0.10710000000000001,0.11019500000000002,0.0,219.11,219.15,215.80333333333334,215.80333333333334,0.0,0.0
33,0.0,0.0,0.0,1.0,1.0,0.0,0.0,1.0,0.0,100.0,1.0,1.1856,26.0,0.0,0.0,0.0,59.999996,0.0,26.0,26.0,26.0,26.0,0.04112500000000008,0.25670000000000015,-0.054925,294.571,-2.7028,-2.6985,-1.51375,-1.5194,-163.49,215.5,190.256,0.0,0.0,0.0,0.0,0.06683333333333334,-5.498166666666667,-5.498166666666667,-0.7214,-0.15500000000000003,-0.01587499999999986,-0.265,70.122,0.0198,-0.34540000000000004,-0.23799999999999955,100.0,1.0,1.0,216.16,0.0,0.0,0.0,0.0,0.0,0.0,0.0,9162.2,0.0,55.0,5.0,252.41333333333336,1.0,0.0,0.0,0.0,0.0,0.0,1.0,0.0,1.6559999999999988,1.6559999999999988,0.0,0.0,1.0,55.0,616.79921,10000.0,85.000001,85.000001,85.000001,85.000001,395.0,0.0,0.0,0.0,1.0,166.665,51.635999999999996,51.635999999999996,52.643,52.643,34.0,-23.5875,24.811999999999998,-28.316666666666663,30.34,0.0,1781.816,-0.41999999999999815,100.0,28.768,28.9165,38.282,38.568,0.0,0.0,100.0,0.0,0.0,0.0,0.0,3206.714285714286,3028.4,4162.625,4217.5,305.2655,305.08233333333334,314.82275,314.44,22.0741,20.7252,22.18,21.6037,314.999998,314.999998,324.999988,324.999988,99.55905714285714,99.50843333333333,99.57394285714285,99.5501,0.10575000000000001,-0.03433333333333333,-0.107,0.13616666666666666,-0.05333333333332746,-0.051666666666669414,1.5034999999999998,1.4875,38.963,30.533,39.625,36.0235,55.804,36.3985,61.61,53.653,53.712,35.403999999999996,60.126,51.9585,52.822,34.877,60.007999999999996,51.37266666666667,-0.11799999999999988,-0.053999999999999826,0.10814000000000001,0.11339,0.0,219.47,219.495,216.16,216.16,0.0,0.0
34,0.0,0.0,0.0,1.0,1.0,0.0,0.0,1.0,0.0,100.0,1.0,1.1856,26.0,0.0,0.0,0.0,59.999996,0.0,26.0,26.0,26.0,26.0,0.048875,0.26839999999999997,-0.07345,294.769,-2.6583,-2.68525,-1.54695,-1.4566,-160.12,215.5,190.2295,0.0,0.0,0.0,0.0,0.06876666666666667,-5.498166666666667,-5.498166666666667,-0.7463000000000001,-0.8694999999999999,0.008999999999999897,-0.335,70.243,0.0199,-0.347175,-0.26399999999999935,100.0,1.0,1.0,216.48000000000002,0.0,0.0,0.0,0.0,0.0,0.0,0.0,9175.7,0.0,55.0,5.0,252.85000000000002,0.0,0.0,0.0,0.0,0.0,0.0,1.0,0.0,1.7040000000000006,1.7040000000000006,0.0,0.0,0.0,55.0,616.79921,10000.0,85.000001,85.000001,85.000001,85.000001,395.0,0.0,0.0,0.0,1.0,333.33500000000004,52.185,52.185,52.75,52.75,34.0,-22.3475,24.622,-28.123333333333335,29.675,0.0,1781.765,-0.41999999999999815,100.0,28.447,28.549500000000002,38.247,38.678,0.0,0.0,100.0,0.0,0.0,0.0,0.0,3131.4285714285716,3011.4,4193.625,4244.8,305.519,305.2583333333333,314.785,314.358,22.0827,20.7306,22.1901,21.6126,314.999998,314.999998,324.999988,324.999988,99.55907142857143,99.50843333333333,99.5741,99.55024285714286,0.10899999999999999,-0.028666666666666618,-0.08983333333333333,0.13566666666666666,-0.054999999999999716,-0.041666666666671404,1.4954999999999998,1.4909999999999999,39.016999999999996,30.566499999999998,39.688,36.079,55.791,36.4335,61.6405,53.713499999999996,53.699,35.436,60.1545,52.0175,52.809,34.908,60.033,51.43033333333334,-0.11850000000000005,-0.045500000000000096,0.09847,0.11307,0.0,219.835,219.82999999999998,216.48000000000002,216.48000000000002,0.0,0.0
35,0.0,0.0,0.0,1.0,1.0,0.0,0.0,1.0,0.0,100.0,1.0,1.1856,26.0,0.0,0.0,0.0,59.999996,0.0,26.0,26.0,26.0,26.0,0.04312500000000008,0.2533000000000001,-0.026625000000000003,294.678,-2.7174,-2.622875,-1.54405,-1.4456,-156.32,215.5025,190.19775,0.0,0.0,0.0,0.0,0.07100000000000001,-5.498166666666667,-5.498166666666667,-0.7825000000000001,-0.05699999999999994,-0.012875000000000192,-1.407,70.376,0.0236,-0.3517,-0.3260000000000005,100.0,1.0,1.0,216.99666666666667,0.0,0.0,0.0,0.0,0.0,0.0,0.0,9197.7,0.0,55.0,5.0,253.32999999999998,1.0,0.0,0.0,0.0,0.0,0.0,1.0,0.0,1.7579999999999991,1.7579999999999991,0.0,0.0,1.0,55.0,616.79921,10000.0,85.000001,85.000001,85.000001,85.000001,395.0,0.0,0.0,0.0,1.0,166.665,51.513999999999996,51.513999999999996,52.382999999999996,52.382999999999996,34.0,-24.035,26.734,-27.006666666666664,27.755000000000003,0.0,1781.714,-0.245000000000001,100.0,28.2595,28.9455,38.088,38.265,0.0,0.0,100.0,0.0,0.0,0.0,0.0,3193.714285714286,3319.1,4084.125,4045.9,305.2985,304.198,315.008,314.85375,22.0923,20.737,22.2013,21.6224,314.999998,314.999998,324.999988,324.999988,99.55908571428571,99.50843333333333,99.57424285714286,99.5504,0.09675000000000011,-0.036666666666666625,-0.089,0.136,-0.051666666666669414,-0.041666666666671404,1.5484999999999998,1.5175,39.077,30.606,39.757999999999996,36.14,55.777,36.4715,61.67,53.7695,53.686,35.4715,60.1815,52.0715,52.795,34.942,60.0575,51.483666666666664,-0.09850000000000003,-0.06050000000000022,0.10835000000000002,0.10814000000000001,0.0,220.25,220.25,216.99666666666667,216.99666666666667,0.0,0.0
36,0.0,0.0,0.0,1.0,1.0,0.0,0.0,1.0,0.0,100.0,1.0,1.1856,26.0,0.0,0.0,0.0,59.999996,0.0,26.0,26.0,26.0,26.0,0.04262499999999991,0.25690000000000013,0.05315,293.945,-2.6358,-2.724,-1.4945,-1.4901,-153.15,215.505,190.17,0.0,0.0,0.0,0.0,0.07283333333333335,-5.498166666666667,-5.498166666666667,-0.762,0.23050000000000004,-0.04999999999999982,0.27,70.49000000000001,0.0222,-0.32227500000000003,-0.16999999999999993,100.0,1.0,1.0,217.13,0.0,0.0,0.0,0.0,0.0,0.0,0.0,9203.3,0.0,55.0,5.0,253.74,0.0,0.0,0.0,0.0,0.0,0.0,1.0,0.0,1.8030000000000008,1.8030000000000008,0.0,0.0,0.0,55.0,616.79921,10000.0,85.000001,85.000001,85.000001,85.000001,395.0,0.0,0.0,0.0,1.0,166.665,51.422,51.422,51.865,51.865,34.0,-22.3175,26.088,-28.916666666666664,33.56,0.0,1781.669,-0.14499999999999957,100.0,29.0485,28.847,38.473,38.569,0.0,0.0,100.0,0.0,0.0,0.0,0.0,3088.857142857143,3152.7,4386.75,4559.0,305.2785,304.78833333333336,314.241,313.69,22.1006,20.7422,22.2108,21.6307,314.999998,314.999998,324.999988,324.999988,99.55908571428571,99.50843333333333,99.57437142857142,99.55054285714286,0.10650000000000004,-0.03500000000000003,-0.08316666666666667,0.14483333333333334,-0.045000000000001705,-0.051666666666669414,1.435,1.43,39.128,30.639,39.818,36.192,55.768,36.504999999999995,61.698,53.823499999999996,53.677,35.5025,60.208,52.124,52.785,34.9715,60.081,51.534666666666666,-0.09850000000000003,-0.06800000000000006,0.10312,0.10465500000000001,0.0,220.625,220.635,217.13,217.13,0.0,0.0
