,ABS Active,ABS Enabled,AID Allow Tire Blankets,AID Auto Blip,AID Auto Clutch,AID Auto Shift,AID Fuel Rate,AID Ideal Line,AID Mech Damage,AID Stability,AID Tire Wear Rate,Air Density,Air Temp,Ballast,Best Lap Delta,Best Lap Time,Brake Bias,Brake Pos,Brake Temp FL,Brake Temp FR,Brake Temp RL,Brake Temp RR,CG Accel Lateral,CG Accel Longitudinal,CG Accel Vertical,CG Height,Camber FL,Camber FR,Camber RL,Camber RR,Car Coord X,Car Coord Y,Car Coord Z,Car Damage Front,Car Damage Left,Car Damage Rear,Car Damage Right,Car Pos Norm,Caster FL,Caster FR,Chassis Pitch Angle,Chassis Pitch Rate,Chassis Roll Angle,Chassis Roll Rate,Chassis Velocity X,Chassis Velocity Y,Chassis Velocity Z,Chassis Yaw Rate,Clutch Pos,DRS Active,DRS Available,Drive Train Speed,ERS Heat Charging,ERS Is Charging,ERS Max Energy,ERS Power Level,ERS Recovery Level,Engine Brake Setting,Engine Limiter,Engine RPM,Flags,Fuel Level,Gear,Ground Speed,HR Sample Clock,In Pit,KERS Charge,KERS Deployed Energy,KERS Input,KERS Max Energy,LR Sample Clock,Lap Invalidated,Lap Time,Lap Time2,Last Lap Time,Last Sector Time,MR Sample Clock,Max Fuel,Max Power,Max RPM,Max Sus Travel FL,Max Sus Travel FR,Max Sus Travel RL,Max Sus Travel RR,Max Torque,Max Turbo Boost,Num Tires Off Track,Penalties Enabled,Position,Raw Data Sample Rate,Ride Height FL,Ride Height FR,Ride Height RL,Ride Height RR,Road Temp,Self Align Torque FL,Self Align Torque FR,Self Align Torque RL,Self Align Torque RR,Session Lap Count,Session Time Left,Steering Angle,Surface Grip,Suspension Travel FL,Suspension Travel FR,Suspension Travel RL,Suspension Travel RR,TC Active,TC Enabled,Throttle Pos,Tire Dirt Level FL,Tire Dirt Level FR,Tire Dirt Level RL,Tire Dirt Level RR,Tire Load FL,Tire Load FR,Tire Load RL,Tire Load RR,Tire Loaded Radius FL,Tire Loaded Radius FR,Tire Loaded Radius RL,Tire Loaded Radius RR,Tire Pressure FL,Tire Pressure FR,Tire Pressure RL,Tire Pressure RR,Tire Radius FL,Tire Radius FR,Tire Radius RL,Tire Radius RR,Tire Rubber Grip FL,Tire Rubber Grip FR,Tire Rubber Grip RL,Tire Rubber Grip RR,Tire Slip Angle FL,Tire Slip Angle FR,Tire Slip Angle RL,Tire Slip Angle RR,Tire Slip Ratio FL,Tire Slip Ratio FR,Tire Slip Ratio RL,Tire Slip Ratio RR,Tire Temp Core FL,Tire Temp Core FR,Tire Temp Core RL,Tire Temp Core RR,Tire Temp Inner FL,Tire Temp Inner FR,Tire Temp Inner RL,Tire Temp Inner RR,Tire Temp Middle FL,Tire Temp Middle FR,Tire Temp Middle RL,Tire Temp Middle RR,Tire Temp Outer FL,Tire Temp Outer FR,Tire Temp Outer RL,Tire Temp Outer RR,Toe In FL,Toe In FR,Toe In RL,Toe In RR,Turbo Boost,Wheel Angular Speed FL,Wheel Angular Speed FR,Wheel Angular Speed RL,Wheel Angular Speed RR,Wind Direction,Wind Speed
0,0.0,0.0,0.0,1.0,1.0,0.0,0.0,1.0,0.0,100.0,1.0,1.1856,26.0,0.0,0.0,0.0,59.99999,0.0,26.0,26.0,26.0,26.0,-0.06355555555555548,0.30180000000000007,0.055766666666666666,294.25,-2.718,-2.482555555555556,-1.5206,-1.5296,-275.7,216.0375,190.988125,0.0,0.0,0.0,0.0,0.0015666666666666051,-5.498166666666667,-5.498166666666667,-0.5581,1.6355,-0.010111111111111182,-0.34399999999999986,65.577,-0.0403,-0.22237500000000002,0.7420000000000009,100.0,1.0,1.0,202.45333333333332,0.0,0.0,0.0,0.0,0.0,0.0,0.0,8581.3,0.0,55.0,5.0,236.04666666666668,0.0,0.0,0.0,0.0,0.0,0.0,0.0,0.0,0.0030000000000001137,0.0030000000000001137,0.0,0.0,0.0,55.0,616.79921,10000.0,85.0,85.0,85.0,85.0,395.0,0.0,0.0,0.0,1.0,20.0,52.536,52.536,49.988,49.988,34.0,-28.0375,22.73,-29.916666666666668,25.0275,0.0,1783.452,0.9100000000000001,100.0,27.098,26.721,39.956,39.68,0.0,0.0,100.0,0.0,0.0,0.0,0.0,3121.142857142857,3565.6,4081.25,4047.3,305.2625,303.37325,314.8915,314.77075,21.7693,20.525199999999998,21.796599999999998,21.3126,314.99999,314.99999,324.99998,324.99998,99.55875714285715,99.50758333333333,99.56718571428571,99.54547142857143,-0.010499999999999954,-0.12875000000000003,-0.15566666666666662,0.06550000000000011,-0.04999999999999716,-0.06499999999999773,1.5463333333333333,1.558,37.058,29.282666666666664,37.229,34.2035,56.224999999999994,34.769,59.772999999999996,51.737,54.138,33.9055,58.381,50.0965,53.301,33.446,58.352000000000004,49.52766666666667,-0.006000000000000005,-0.14049999999999985,0.10106000000000001,0.11171,0.0,205.515,205.425,202.45333333333332,202.45333333333332,0.0,0.0
1,0.0,0.0,0.0,1.0,1.0,0.0,0.0,1.0,0.0,100.0,1.0,1.1856,26.0,0.0,0.0,0.0,59.999996,0.0,26.0,26.0,26.0,26.0,-0.12355555555555553,0.32720000000000016,0.21476666666666666,293.503,-2.6546,-2.8004444444444445,-1.5131000000000001,-1.3582,-272.35,216.055,190.968,0.0,0.0,0.0,0.0,0.0035333333333333883,-5.498166666666667,-5.498166666666667,-0.49970000000000003,-1.0899999999999999,-0.054888888888888765,-0.7319999999999998,65.732,-0.052000000000000005,-0.20422500000000002,1.3580000000000005,100.0,1.0,1.0,202.53,0.0,0.0,0.0,0.0,0.0,0.0,0.0,8584.5,0.0,55.0,5.0,236.60333333333335,1.0,0.0,0.0,0.0,0.0,0.0,0.0,0.0,0.053999999999998494,0.053999999999998494,0.0,0.0,1.0,55.0,616.79921,10000.0,85.000001,85.000001,85.000001,85.000001,395.0,0.0,0.0,0.0,1.0,166.665,54.092,54.092,48.903999999999996,48.903999999999996,34.0,-26.9625,17.03333333333333,-36.20666666666666,26.63,0.0,1783.403,0.9750000000000014,100.0,27.285,26.761,41.746,41.14,0.0,0.0,100.0,0.0,0.0,0.0,0.0,3058.4285714285716,2571.2,4515.875,4854.2,305.5755,306.70575,313.7595,312.7225,21.7792,20.5304,21.8077,21.3218,314.999998,314.999998,324.999988,324.999988,99.55875714285715,99.50761666666666,99.56734285714286,99.54561428571428,-0.017749999999999932,-0.14900000000000002,-0.1818333333333334,0.030999999999999917,-0.05666666666667197,-0.045000000000001705,1.3676666666666666,1.428,37.120000000000005,29.314666666666668,37.298,34.2615,56.209,34.8095,59.818,51.803,54.123000000000005,33.943,58.4235,50.159,53.285,33.4815,58.3915,49.589666666666666,0.000500000000000167,-0.15300000000000002,0.10610000000000001,0.10851500000000001,0.0,205.95499999999998,205.835,202.53,202.53,0.0,0.0
2,0.0,0.0,0.0,1.0,1.0,0.0,0.0,1.0,0.0,100.0,1.0,1.1856,26.0,0.0,0.0,0.0,59.999996,0.0,26.0,26.0,26.0,26.0,-0.15200000000000002,0.26360000000000006,-0.10653333333333333,294.708,-2.5989,-2.785333333333333,-1.4799,-1.6256,-268.99,216.0725,190.9495,0.0,0.0,0.0,0.0,0.005466666666666509,-5.498166666666667,-5.498166666666667,-0.5826,-0.11549999999999994,-0.04822222222222239,2.6740000000000004,65.87100000000001,-0.0717,-0.29347500000000004,1.6920000000000002,100.0,1.0,1.0,203.62333333333333,0.0,0.0,0.0,0.0,0.0,0.0,0.0,8630.8,0.0,55.0,5.0,237.10666666666668,0.0,0.0,0.0,0.0,0.0,0.0,0.0,0.0,0.10500000000000043,0.10500000000000043,0.0,0.0,0.0,55.0,616.79921,10000.0,85.000001,85.000001,85.000001,85.000001,395.0,0.0,0.0,0.0,1.0,333.33500000000004,52.49,52.49,51.956,51.956,34.0,-30.68,19.691666666666666,-28.14666666666667,18.7925,0.0,1783.351,1.0700000000000003,100.0,28.272,26.7535,41.038,40.067,0.0,0.0,100.0,0.0,0.0,0.0,0.0,3347.0,2999.1,3680.25,3445.5,304.4825,305.385,315.7995,316.39375,21.7893,20.5354,21.8183,21.3306,314.999998,314.999998,324.999988,324.999988,99.55875714285715,99.50763333333333,99.56747142857142,99.54574285714286,-0.03849999999999998,-0.16249999999999998,-0.21733333333333338,0.012666666666666604,-0.05833333333333002,-0.06833333333332803,1.6756666666666666,1.7269999999999999,37.183,29.346333333333334,37.364999999999995,34.316,56.197,34.849000000000004,59.854,51.8575,54.111000000000004,33.979,58.457,50.2115,53.272999999999996,33.5165,58.422,49.641,0.0015000000000000568,-0.15249999999999986,0.09761500000000001,0.11460500000000001,0.0,206.39,206.265,203.62333333333333,203.62333333333333,0.0,0.0
3,0.0,0.0,0.0,1.0,1.0,0.0,0.0,1.0,0.0,100.0,1.0,1.1856,26.0,0.0,0.0,0.0,59.999996,0.0,26.0,26.0,26.0,26.0,-0.1561111111111111,0.30590000000000006,0.06873333333333334,294.174,-2.6437,-2.689222222222222,-1.48465,-1.5607,-265.83,216.085,190.93075,0.0,0.0,0.0,0.0,0.007333333333333303,-5.498166666666667,-5.498166666666667,-0.5296000000000001,0.8155,-0.008999999999999897,0.020000000000000018,66.015,-0.0942,-0.215125,1.4860000000000007,100.0,1.0,1.0,203.67333333333335,0.0,0.0,0.0,0.0,0.0,0.0,0.0,8633.0,0.0,55.0,5.0,237.62333333333333,1.0,0.0,0.0,0.0,0.0,0.0,0.0,0.0,0.1529999999999987,0.1529999999999987,0.0,0.0,1.0,55.0,616.79921,10000.0,85.000001,85.000001,85.000001,85.000001,395.0,0.0,0.0,0.0,1.0,333.33500000000004,53.589,53.589,49.438,49.438,34.0,-26.4375,17.715,-35.04,23.11,0.0,1783.303,1.0350000000000001,100.0,27.826999999999998,26.9005,40.95,40.124,0.0,0.0,100.0,0.0,0.0,0.0,0.0,2908.714285714286,2892.7,4366.75,4202.9,305.983,305.62,314.17925,314.484,21.7986,20.540399999999998,21.8283,21.3389,314.999998,314.999998,324.999988,324.999988,99.55877142857143,99.50765,99.56761428571428,99.54587142857143,-0.04525000000000001,-0.17325000000000002,-0.20750000000000002,0.0003333333333332966,-0.054999999999999716,-0.04999999999999716,1.4956666666666667,1.543,37.241,29.377333333333333,37.427,34.368,56.183,34.89,59.888999999999996,51.914500000000004,54.098,34.016999999999996,58.4895,50.266999999999996,53.259,33.553,58.452,49.695,0.0009999999999998899,-0.15249999999999986,0.10125500000000001,0.10527,0.0,206.89499999999998,206.755,203.67333333333335,203.67333333333335,0.0,0.0
4,0.0,0.0,0.0,1.0,1.0,0.0,0.0,1.0,0.0,100.0,1.0,1.1856,26.0,0.0,0.0,0.0,59.999996,0.0,26.0,26.0,26.0,26.0,-0.1637777777777778,0.29690000000000016,0.024300000000000002,294.205,-2.66645,-2.7824444444444443,-1.42115,-1.5817,-262.46,216.0925,190.911,0.0,0.0,0.0,0.0,0.009266666666666534,-5.498166666666667,-5.498166666666667,-0.5582,-1.1025,-0.07900000000000018,-1.846,66.163,-0.1017,-0.25855,1.6479999999999997,100.0,1.0,1.0,204.15333333333334,0.0,0.0,0.0,0.0,0.0,0.0,0.0,8653.3,0.0,55.0,5.0,238.16,0.0,0.0,0.0,0.0,0.0,0.0,0.0,0.0,0.20400000000000063,0.20400000000000063,0.0,0.0,0.0,55.0,616.79921,10000.0,85.000001,85.000001,85.000001,85.000001,395.0,0.0,0.0,0.0,1.0,333.33500000000004,53.207,53.207,49.698,49.698,34.0,-31.7025,17.69833333333333,-35.32333333333333,19.927500000000002,0.0,1783.251,1.120000000000001,100.0,27.477,26.7225,41.441,40.428,0.0,0.0,100.0,0.0,0.0,0.0,0.0,3314.857142857143,2866.1,4344.25,3723.2,304.9385,305.5665,314.29225,315.4985,21.8084,20.5455,21.839199999999998,21.3479,314.999998,314.999998,324.999988,324.999988,99.55877142857143,99.50768333333333,99.56775714285715,99.54601428571429,-0.0674999999999999,-0.19199999999999995,-0.238,-0.007833333333333359,-0.04999999999999716,-0.04333333333332945,1.5213333333333332,1.565,37.302,29.409333333333336,37.495000000000005,34.4245,56.168,34.9315,59.932,51.9745,54.083,34.0555,58.5295,50.324,53.243,33.5895,58.4895,49.751,0.013500000000000068,-0.15600000000000014,0.107255,0.10539000000000001,0.0,207.25,207.135,204.15333333333334,204.15333333333334,0.0,0.0
5,0.0,0.0,0.0,1.0,1.0,0.0,0.0,1.0,0.0,100.0,1.0,1.1856,26.0,0.0,0.0,0.0,59.999996,0.0,26.0,26.0,26.0,26.0,-0.18533333333333335,0.30720000000000014,-0.04373333333333333,294.479,-2.6762,-2.753111111111111,-1.49235,-1.6102,-259.08,216.0975,190.890875,0.0,0.0,0.0,0.0,0.011233333333333317,-5.498166666666667,-5.498166666666667,-0.5649000000000001,0.49149999999999994,-0.07622222222222241,1.1059999999999999,66.307,-0.11130000000000001,-0.24885000000000002,1.6099999999999994,100.0,1.0,1.0,204.71,0.0,0.0,0.0,0.0,0.0,0.0,0.0,8676.9,0.0,55.0,5.0,238.67333333333335,1.0,0.0,0.0,0.0,0.0,0.0,0.0,0.0,0.254999999999999,0.254999999999999,0.0,0.0,1.0,55.0,616.79921,10000.0,85.000001,85.000001,85.000001,85.000001,395.0,0.0,0.0,0.0,1.0,166.665,53.375,53.375,50.583,50.583,34.0,-29.6425,17.403333333333332,-34.28666666666667,20.817500000000003,0.0,1783.202,0.9600000000000009,100.0,27.92,26.6075,41.131,39.933,0.0,0.0,100.0,0.0,0.0,0.0,0.0,3115.285714285714,2874.4,4108.75,3936.7,305.264,305.74,314.846,315.136,21.8184,20.5507,21.8498,21.3566,314.999998,314.999998,324.999988,324.999988,99.55878571428572,99.5077,99.5679,99.54614285714285,-0.05899999999999994,-0.18999999999999995,-0.246,-0.018333333333333313,-0.03166666666666629,-0.05333333333332746,1.5376666666666667,1.6219999999999999,37.364999999999995,29.441666666666666,37.561,34.479,56.156,34.9745,59.971000000000004,52.028999999999996,54.072,34.095,58.566,50.376,53.232,33.6275,58.522999999999996,49.802,-0.008000000000000007,-0.1495000000000002,0.10666500000000001,0.10493000000000001,0.0,207.755,207.635,204.71,204.71,0.0,0.0
6,0.0,0.0,0.0,1.0,1.0,0.0,0.0,1.0,0.0,100.0,1.0,1.1856,26.0,0.0,0.0,0.0,59.999996,0.0,26.0,26.0,26.0,26.0,-0.17766666666666664,0.2976000000000001,0.0037666666666666664,294.113,-2.63135,-2.798222222222222,-1.52465,-1.5651000000000002,-255.89,216.0975,190.871375,0.0,0.0,0.0,0.0,0.0131,-5.498166666666667,-5.498166666666667,-0.5506,0.14649999999999996,-0.06955555555555559,0.734,66.446,-0.1178,-0.233825,1.4800000000000004,100.0,1.0,1.0,205.0233333333333,0.0,0.0,0.0,0.0,0.0,0.0,0.0,8690.2,0.0,55.0,5.0,239.17666666666668,0.0,0.0,0.0,0.0,0.0,0.0,0.0,0.0,0.3030000000000008,0.3030000000000008,0.0,0.0,0.0,55.0,616.79921,10000.0,85.000001,85.000001,85.000001,85.000001,395.0,0.0,0.0,0.0,1.0,166.665,53.253,53.253,49.866,49.866,34.0,-29.215,18.631666666666668,-35.95333333333333,21.5975,0.0,1783.154,0.5850000000000009,100.0,27.84,26.659,41.335,40.215,0.0,0.0,100.0,0.0,0.0,0.0,0.0,3120.857142857143,2926.9,4246.375,4035.8,305.256,305.53375,314.47375,314.8855,21.8278,20.5556,21.8599,21.365,314.999998,314.999998,324.999988,324.999988,99.55878571428572,99.50771666666667,99.56804285714286,99.54628571428572,-0.056749999999999856,-0.17974999999999997,-0.23866666666666658,-0.007499999999999951,-0.03999999999999915,-0.045000000000001705,1.5143333333333333,1.5715,37.423,29.47233333333333,37.625,34.5315,56.144,35.0145,60.0095,52.085,54.06,34.1315,58.602000000000004,50.43,53.219,33.6625,58.5565,49.85466666666667,-0.01200000000000001,-0.133,0.10106000000000001,0.11546500000000001,0.0,208.18,208.04000000000002,205.0233333333333,205.0233333333333,0.0,0.0
7,0.0,0.0,0.0,1.0,1.0,0.0,0.0,1.0,0.0,100.0,1.0,1.1856,26.0,0.0,0.0,0.0,59.999996,0.0,26.0,26.0,26.0,26.0,-0.1527777777777778,0.2873000000000001,0.030500000000000003,293.915,-2.59835,-2.796666666666667,-1.4805000000000001,-1.6148,-252.5,216.0925,190.850875,0.0,0.0,0.0,0.0,0.015066666666666562,-5.498166666666667,-5.498166666666667,-0.5618000000000001,-0.17199999999999993,-0.06666666666666643,-0.30299999999999994,66.59100000000001,-0.11420000000000001,-0.256875,1.25,100.0,1.0,1.0,205.47333333333333,0.0,0.0,0.0,0.0,0.0,0.0,0.0,8709.3,0.0,55.0,5.0,239.69666666666666,1.0,0.0,0.0,0.0,0.0,0.0,0.0,0.0,0.3539999999999992,0.3539999999999992,0.0,0.0,1.0,55.0,616.79921,10000.0,85.000001,85.000001,85.000001,85.000001,395.0,0.0,0.0,0.0,1.0,333.33500000000004,52.689,52.689,50.201,50.201,34.0,-30.134999999999998,19.669999999999998,-35.54,21.14,0.0,1783.102,0.26500000000000057,100.0,27.933,26.878,41.287,40.454,0.0,0.0,100.0,0.0,0.0,0.0,0.0,3340.5714285714284,2929.4,4194.125,3921.9,304.6985,305.296,314.6185,315.0155,21.837699999999998,20.5608,21.8707,21.374,314.999998,314.999998,324.999988,324.999988,99.5588,99.50773333333333,99.56818571428572,99.54642857142858,-0.03325,-0.16025,-0.25183333333333335,-0.01883333333333337,-0.04999999999999716,-0.02833333333332888,1.498,1.559,37.486000000000004,29.504666666666665,37.692,34.5875,56.131,35.056,60.0505,52.144,54.048,34.17,58.6405,50.487,53.206,33.699,58.592,49.910333333333334,-0.04899999999999993,-0.10250000000000004,0.11066000000000001,0.10926500000000001,0.0,208.615,208.49,205.47333333333333,205.47333333333333,0.0,0.0
8,0.0,0.0,0.0,1.0,1.0,0.0,0.0,1.0,0.0,100.0,1.0,1.1856,26.0,0.0,0.0,0.0,59.999996,0.0,26.0,26.0,26.0,26.0,-0.11566666666666658,0.2984,0.008566666666666667,294.22,-2.67665,-2.744666666666667,-1.46035,-1.6048,-249.1,216.085,190.830375,0.0,0.0,0.0,0.0,0.017033333333333345,-5.498166666666667,-5.498166666666667,-0.5634,-0.44399999999999995,-0.04977777777777792,0.7869999999999999,66.736,-0.10010000000000001,-0.248925,0.6260000000000003,100.0,1.0,1.0,205.86666666666667,0.0,0.0,0.0,0.0,0.0,0.0,0.0,8725.9,0.0,55.0,5.0,240.22,0.0,0.0,0.0,0.0,0.0,0.0,0.0,0.0,0.40500000000000114,0.40500000000000114,0.0,0.0,0.0,55.0,616.79921,10000.0,85.000001,85.000001,85.000001,85.000001,395.0,0.0,0.0,0.0,1.0,333.33500000000004,53.558,53.558,49.637,49.637,34.0,-26.06,20.381666666666668,-33.03,24.075000000000003,0.0,1783.051,0.10000000000000142,100.0,27.686,26.701999999999998,41.367000000000004,40.331,0.0,0.0,100.0,0.0,0.0,0.0,0.0,2969.5714285714284,2972.3,4194.125,4092.6000000000004,305.7585,305.439,314.5195,314.67175,21.8474,20.566,21.8815,21.3829,314.999998,314.999998,324.999988,324.999988,99.5588,99.50775,99.56834285714285,99.54655714285714,-0.008999999999999897,-0.13349999999999995,-0.20450000000000002,0.01750000000000007,-0.04833333333333201,-0.045000000000001705,1.5006666666666666,1.525,37.546,29.537666666666667,37.759,34.6435,56.114999999999995,35.097,60.0905,52.2025,54.033,34.207499999999996,58.678,50.543,53.19,33.735,58.6265,49.965,-0.0674999999999999,-0.08650000000000002,0.10386500000000001,0.10724500000000001,0.0,209.04500000000002,208.97500000000002,205.86666666666667,205.86666666666667,0.0,0.0
9,0.0,0.0,0.0,1.0,1.0,0.0,0.0,1.0,0.0,100.0,1.0,1.1856,26.0,0.0,0.0,0.0,59.999996,0.0,26.0,26.0,26.0,26.0,-0.11488888888888893,0.2932000000000001,0.021866666666666666,293.945,-2.6614,-2.752111111111111,-1.5121,-1.5663,-245.89,216.0725,190.8105,0.0,0.0,0.0,0.0,0.018899999999999917,-5.498166666666667,-5.498166666666667,-0.5679000000000001,0.5615,-0.054888888888888765,0.758,66.869,-0.0825,-0.2474,0.5179999999999998,100.0,1.0,1.0,206.39,0.0,0.0,0.0,0.0,0.0,0.0,0.0,8748.2,0.0,55.0,5.0,240.7,1.0,0.0,0.0,0.0,0.0,0.0,0.0,0.0,0.4529999999999994,0.4529999999999994,0.0,0.0,1.0,55.0,616.79921,10000.0,85.000001,85.000001,85.000001,85.000001,395.0,0.0,0.0,0.0,1.0,166.665,52.46,52.46,50.598,50.598,34.0,-28.509999999999998,21.805,-31.563333333333333,23.0225,0.0,1783.003,-0.0799999999999983,100.0,28.117,27.0135,41.071,40.303,0.0,0.0,100.0,0.0,0.0,0.0,0.0,3316.714285714286,3050.7,4055.375,4005.7,304.696,305.14,314.96625,314.96575,21.8567,20.5711,21.8915,21.3913,314.999998,314.999998,324.999988,324.999988,99.5588,99.50776666666667,99.56847142857143,99.54668571428572,0.013749999999999929,-0.11749999999999994,-0.19566666666666666,0.024666666666666837,-0.054999999999999716,-0.036666666666668846,1.5526666666666666,1.5825,37.604,29.569333333333333,37.822,34.696,56.101,35.135999999999996,60.1255,52.256,54.019999999999996,34.2435,58.711,50.5945,53.176,33.7695,58.6565,50.01533333333333,-0.08000000000000007,-0.07299999999999995,0.11162500000000002,0.10088000000000001,0.0,209.465,209.41,206.39,206.39,0.0,0.0
10,0.0,0.0,0.0,1.0,1.0,0.0,0.0,1.0,0.0,100.0,1.0,1.1856,26.0,0.0,0.0,0.0,59.999996,0.0,26.0,26.0,26.0,26.0,-0.06466666666666665,0.2905,0.0082,293.793,-2.63265,-2.735333333333333,-1.48595,-1.5488,-242.48,216.06,190.78975,0.0,0.0,0.0,0.0,0.02089999999999992,-5.498166666666667,-5.498166666666667,-0.5473,-0.45650000000000013,-0.02344444444444438,0.26400000000000023,67.016,-0.0596,-0.240575,0.18799999999999972,100.0,1.0,1.0,206.62666666666667,0.0,0.0,0.0,0.0,0.0,0.0,0.0,8758.2,0.0,55.0,5.0,241.22666666666666,0.0,0.0,0.0,0.0,0.0,0.0,1.0,0.0,0.5040000000000013,0.5040000000000013,0.0,0.0,0.0,55.0,616.79921,10000.0,85.000001,85.000001,85.000001,85.000001,395.0,0.0,0.0,0.0,1.0,333.33500000000004,53.391,53.391,49.194,49.194,34.0,-24.395,20.23333333333333,-33.876666666666665,25.935,0.0,1782.953,-0.15500000000000114,100.0,27.881,27.163,41.382,40.934,0.0,0.0,100.0,0.0,0.0,0.0,0.0,2985.0,2816.9,4409.375,4212.0,305.803,305.72675,314.10675,314.32025,21.8664,20.5764,21.9023,21.4005,314.999998,314.999998,324.999988,324.999988,99.55881428571429,99.50778333333334,99.56862857142858,99.54684285714286,0.02475000000000005,-0.10824999999999996,-0.1745,0.04600000000000004,-0.03166666666666629,-0.04999999999999716,1.4569999999999999,1.4745,37.665,29.602333333333334,37.888999999999996,34.753,56.086,35.1745,60.1665,52.318,54.004999999999995,34.278999999999996,58.7495,50.6535,53.161,33.8035,58.692,50.07333333333334,-0.09050000000000002,-0.06050000000000022,0.10123000000000001,0.109465,0.0,209.88,209.875,206.62666666666667,206.62666666666667,0.0,0.0
11,0.0,0.0,0.0,1.0,1.0,0.0,0.0,1.0,0.0,100.0,1.0,1.1856,26.0,0.0,0.0,0.0,59.999996,0.0,26.0,26.0,26.0,26.0,-0.05322222222222217,0.27290000000000014,-0.07836666666666667,294.388,-2.6784,-2.712111111111111,-1.54515,-1.5329000000000002,-239.06,216.04500000000002,190.769,0.0,0.0,0.0,0.0,0.022599999999999953,-5.498166666666667,-5.498166666666667,-0.5909,-0.21999999999999997,0.0076666666666667105,0.4870000000000001,67.154,-0.0405,-0.27525,0.0420000000000007,100.0,1.0,1.0,207.35666666666668,0.0,0.0,0.0,0.0,0.0,0.0,0.0,8789.1,0.0,55.0,5.0,241.72666666666666,1.0,0.0,0.0,0.0,0.0,0.0,1.0,0.0,0.5549999999999997,0.5549999999999997,0.0,0.0,1.0,55.0,616.79921,10000.0,85.000001,85.000001,85.000001,85.000001,395.0,0.0,0.0,0.0,1.0,166.665,52.811,52.811,50.888,50.888,34.0,-24.912499999999998,23.663333333333334,-27.093333333333334,24.205,0.0,1782.902,-0.120000000000001,100.0,27.764,27.2725,40.924,40.669,0.0,0.0,100.0,0.0,0.0,0.0,0.0,3054.4285714285716,3133.2,3753.75,3860.8,305.4745,304.89475,315.72575,315.28325,21.876,20.5818,21.9129,21.4095,314.999998,314.999998,324.999988,324.999988,99.55881428571429,99.50778333333334,99.56875714285714,99.54697142857142,0.04200000000000026,-0.08174999999999999,-0.15649999999999997,0.08099999999999996,-0.045000000000001705,-0.06333333333333258,1.617,1.6179999999999999,37.724999999999994,29.636333333333333,37.955,34.8095,56.07,35.214,60.201,52.376,53.989999999999995,34.3155,58.781,50.7095,53.144999999999996,33.838499999999996,58.721000000000004,50.12833333333333,-0.0814999999999999,-0.06550000000000011,0.10923500000000001,0.10923500000000001,0.0,210.3,210.29500000000002,207.35666666666668,207.35666666666668,0.0,0.0
12,0.0,0.0,0.0,1.0,1.0,0.0,0.0,1.0,0.0,100.0,1.0,1.1856,26.0,0.0,0.0,0.0,59.999996,0.0,26.0,26.0,26.0,26.0,-0.039111111111111097,0.2966,0.0055000000000000005,293.854,-2.7286,-2.712666666666667,-1.5048,-1.5586,-235.82999999999998,216.03,190.74825,0.0,0.0,0.0,0.0,0.025466666666666526,-5.498166666666667,-5.498166666666667,-0.5745,0.35550000000000004,-0.009111111111111292,0.5510000000000002,67.291,-0.0235,-0.23945000000000002,-0.13999999999999968,100.0,1.0,1.0,207.56333333333333,0.0,0.0,0.0,0.0,0.0,0.0,0.0,8797.8,0.0,55.0,5.0,242.21666666666667,0.0,0.0,0.0,0.0,0.0,0.0,1.0,0.0,0.602999999999998,0.602999999999998,0.0,0.0,0.0,55.0,616.79921,10000.0,85.000001,85.000001,85.000001,85.000001,395.0,0.0,0.0,0.0,1.0,333.33500000000004,52.872,52.872,49.606,49.606,34.0,-25.8075,23.28,-29.28333333333333,28.405,0.0,1782.852,0.3200000000000003,100.0,27.665,27.351,40.953,40.574,0.0,0.0,100.0,0.0,0.0,0.0,0.0,3073.5714285714284,3127.4,4210.375,4184.7,305.4495,304.946,314.57675,314.53075,21.8851,20.587,21.9228,21.418,314.999998,314.999998,324.999988,324.999988,99.55882857142858,99.5078,99.5689,99.54711428571429,0.03474999999999984,-0.08850000000000002,-0.12266666666666659,0.09949999999999992,-0.04833333333333201,-0.04999999999999716,1.532,1.5125,37.782,29.668333333333333,38.018,34.8625,56.056,35.25,60.2355,52.4315,53.976,34.349000000000004,58.8135,50.763,53.131,33.8705,58.7505,50.18066666666667,-0.059499999999999886,-0.08950000000000014,0.10533500000000001,0.104645,0.0,210.745,210.74,207.56333333333333,207.56333333333333,0.0,0.0
13,0.0,0.0,0.0,1.0,1.0,0.0,0.0,1.0,0.0,100.0,1.0,1.1856,26.0,0.0,0.0,0.0,59.999996,0.0,26.0,26.0,26.0,26.0,-0.011555555555555541,0.2872000000000001,0.0543,293.411,-2.6987,-2.7141111111111114,-1.534,-1.5535,-232.19,216.01,190.72525,0.0,0.0,0.0,0.0,0.026866666666666594,-5.498166666666667,-5.498166666666667,-0.5685,-0.20650000000000013,-0.012555555555555653,1.205,67.441,-0.015300000000000001,-0.2503,-0.10999999999999943,100.0,1.0,1.0,207.95,0.0,0.0,0.0,0.0,0.0,0.0,0.0,8814.3,0.0,55.0,5.0,242.76,1.0,0.0,0.0,0.0,0.0,0.0,1.0,0.0,0.657,0.657,0.0,0.0,1.0,55.0,616.79921,10000.0,85.000001,85.000001,85.000001,85.000001,395.0,0.0,0.0,0.0,1.0,166.665,52.46,52.46,49.545,49.545,34.0,-24.205,24.935000000000002,-29.696666666666665,30.04,0.0,1782.8,-0.33500000000000085,100.0,28.087,27.5195,41.25,41.006,0.0,0.0,100.0,0.0,0.0,0.0,0.0,3134.714285714286,3123.5,4212.25,4325.7,305.242,304.953,314.5235,314.172,21.8954,20.5928,21.9342,21.4277,314.999998,314.999998,324.999988,324.999988,99.55882857142858,99.50781666666667,99.56905714285715,99.54725714285715,0.08050000000000024,-0.04899999999999993,-0.11699999999999999,0.10716666666666685,-0.026666666666670835,-0.06833333333332803,1.4863333333333335,1.4875,37.846000000000004,29.705,38.089,34.9235,56.042,35.291,60.275999999999996,52.497,53.963,34.3865,58.851,50.826,53.116,33.9065,58.785,50.242333333333335,-0.10899999999999999,-0.047499999999999876,0.10537,0.10834500000000001,0.0,211.19,211.195,207.95,207.95,0.0,0.0
14,0.0,0.0,0.0,1.0,1.0,0.0,0.0,1.0,0.0,100.0,1.0,1.1856,26.0,0.0,0.0,0.0,59.999996,0.0,26.0,26.0,26.0,26.0,0.013222222222222246,0.27570000000000006,-0.0037333333333333337,293.671,-2.6988,-2.646111111111111,-1.54635,-1.5192999999999999,-228.75,215.9925,190.704,0.0,0.0,0.0,0.0,0.028866666666666596,-5.498166666666667,-5.498166666666667,-0.5838,-0.20700000000000007,0.014333333333333309,-0.28200000000000003,67.58,-0.0041,-0.270725,-0.2079999999999993,100.0,1.0,1.0,208.48333333333335,0.0,0.0,0.0,0.0,0.0,0.0,0.0,8836.9,0.0,55.0,5.0,243.26,0.0,0.0,0.0,0.0,0.0,0.0,1.0,0.0,0.7079999999999984,0.7079999999999984,0.0,0.0,0.0,55.0,616.79921,10000.0,85.000001,85.000001,85.000001,85.000001,395.0,0.0,0.0,0.0,1.0,166.665,52.444,52.444,49.896,49.896,34.0,-23.8675,24.545,-28.35666666666667,28.175,0.0,1782.748,-0.3200000000000003,100.0,27.887999999999998,27.878,41.022999999999996,41.149,0.0,0.0,100.0,0.0,0.0,0.0,0.0,3128.285714285714,3123.8,4042.75,4128.9,305.433,304.776,315.032,314.57375,21.9051,20.5983,21.9449,21.4369,314.999998,314.999998,324.999988,324.999988,99.55884285714286,99.50781666666667,99.5692,99.5474,0.08225000000000016,-0.04874999999999996,-0.1223333333333334,0.11299999999999999,-0.054999999999999716,-0.046666666666666856,1.535,1.5285,37.907,29.739333333333335,38.156,34.9805,56.028999999999996,35.3285,60.311,52.558,53.951,34.4215,58.884,50.885,53.103,33.9405,58.815,50.29966666666667,-0.10699999999999998,-0.04899999999999993,0.107035,0.11187000000000001,0.0,211.63,211.62,208.48333333333335,208.48333333333335,0.0,0.0
15,0.0,0.0,0.0,1.0,1.0,0.0,0.0,1.0,0.0,100.0,1.0,1.1856,26.0,0.0,0.0,0.0,59.999996,0.0,26.0,26.0,26.0,26.0,0.013666666666666716,0.28780000000000006,0.0002,293.73199999999997,-2.6669,-2.6157777777777778,-1.5644,-1.4692,-225.7,215.97750000000002,190.684875,0.0,0.0,0.0,0.0,0.0306333333333334,-5.498166666666667,-5.498166666666667,-0.5737,0.3225,0.0367777777777778,1.008,67.70400000000001,0.0061,-0.25125000000000003,-0.31599999999999984,100.0,1.0,1.0,208.85333333333335,0.0,0.0,0.0,0.0,0.0,0.0,0.0,8852.5,0.0,55.0,5.0,243.70333333333335,1.0,0.0,0.0,0.0,0.0,0.0,1.0,0.0,0.7530000000000001,0.7530000000000001,0.0,0.0,1.0,55.0,616.79921,10000.0,85.000001,85.000001,85.000001,85.000001,395.0,0.0,0.0,0.0,1.0,333.33500000000004,52.673,52.673,49.988,49.988,34.0,-21.2925,24.86333333333333,-26.836666666666666,30.425,0.0,1782.702,-0.2699999999999996,100.0,28.119,27.7365,40.897,41.027,0.0,0.0,100.0,0.0,0.0,0.0,0.0,2888.857142857143,3150.0,3992.625,4342.2,305.9295,304.87475,315.116,314.169,21.9136,20.6032,21.9542,21.445,314.999998,314.999998,324.999988,324.999988,99.55885714285715,99.50781666666667,99.56934285714286,99.54754285714286,0.09324999999999983,-0.035499999999999976,-0.09533333333333338,0.13749999999999996,-0.04833333333333201,-0.046666666666666856,1.549,1.5215,37.96,29.77,38.214,35.031,56.016999999999996,35.364,60.343,52.6155,53.94,34.454499999999996,58.9135,50.94,53.091,33.972,58.841499999999996,50.35433333333333,-0.10450000000000004,-0.0495000000000001,0.10425000000000001,0.11235500000000001,0.0,212.01999999999998,212.04000000000002,208.85333333333335,208.85333333333335,0.0,0.0
16,0.0,0.0,0.0,1.0,1.0,0.0,0.0,1.0,0.0,100.0,1.0,1.1856,26.0,0.0,0.0,0.0,59.999996,0.0,26.0,26.0,26.0,26.0,0.027888888888888852,0.2711000000000001,-0.04166666666666667,293.777,-2.7571,-2.626777777777778,-1.5339,-1.4716,-222.25,215.9625,190.662875,0.0,0.0,0.0,0.0,0.03266666666666651,-5.498166666666667,-5.498166666666667,-0.5941000000000001,-0.7415,0.018111111111110967,-1.164,67.844,0.0131,-0.26565,-0.17999999999999972,100.0,1.0,1.0,209.25666666666666,0.0,0.0,0.0,0.0,0.0,0.0,0.0,8869.7,0.0,55.0,5.0,244.21,0.0,0.0,0.0,0.0,0.0,0.0,1.0,0.0,0.8039999999999985,0.8039999999999985,0.0,0.0,0.0,55.0,616.79921,10000.0,85.000001,85.000001,85.000001,85.000001,395.0,0.0,0.0,0.0,1.0,166.665,52.658,52.658,49.698,49.698,34.0,-24.335,24.313333333333333,-27.296666666666667,28.31,0.0,1782.654,-0.16000000000000014,100.0,27.593,27.8755,41.068,41.129,0.0,0.0,100.0,0.0,0.0,0.0,0.0,3122.142857142857,3105.5,4061.75,4110.4,305.5545,304.86725,315.00175,314.6345,21.923000000000002,20.6088,21.9649,21.4541,314.999998,314.999998,324.999988,324.999988,99.55887142857142,99.50783333333334,99.56947142857143,99.54767142857143,0.07975000000000021,-0.045499999999999985,-0.10199999999999998,0.13083333333333336,-0.051666666666669414,-0.045000000000001705,1.538,1.5234999999999999,38.019,29.804666666666666,38.281,35.088499999999996,56.001999999999995,35.3995,60.378,52.6725,53.925,34.487,58.946,50.995,53.076,34.0035,58.8715,50.408,-0.08899999999999997,-0.06150000000000011,0.10485000000000001,0.10464000000000001,0.0,212.41500000000002,212.425,209.25666666666666,209.25666666666666,0.0,0.0
17,0.0,0.0,0.0,1.0,1.0,0.0,0.0,1.0,0.0,100.0,1.0,1.1856,26.0,0.0,0.0,0.0,59.999996,0.0,26.0,26.0,26.0,26.0,-0.007777777777777772,0.2905,-0.020133333333333336,293.472,-2.7069,-2.620111111111111,-1.5683500000000001,-1.4986000000000002,-218.78,215.945,190.640375,0.0,0.0,0.0,0.0,0.03466666666666651,-5.498166666666667,-5.498166666666667,-0.5848,0.5329999999999999,-0.00533333333333319,0.641,67.982,0.0115,-0.247675,-0.13200000000000056,100.0,1.0,1.0,209.66333333333333,0.0,0.0,0.0,0.0,0.0,0.0,0.0,8886.9,0.0,55.0,5.0,244.70666666666665,1.0,0.0,0.0,0.0,0.0,0.0,1.0,0.0,0.8550000000000004,0.8550000000000004,0.0,0.0,1.0,55.0,616.79921,10000.0,85.000001,85.000001,85.000001,85.000001,395.0,0.0,0.0,0.0,1.0,333.33500000000004,52.368,52.368,49.698,49.698,34.0,-23.287499999999998,24.056666666666665,-29.28333333333333,29.18,0.0,1782.6,-0.22499999999999787,100.0,28.282,27.951999999999998,40.982,40.965,0.0,0.0,100.0,0.0,0.0,0.0,0.0,3099.285714285714,3075.6,4260.375,4265.8,305.392,305.133,314.5645,314.397,21.9327,20.6144,21.9755,21.4632,314.999998,314.999998,324.999988,324.999988,99.55887142857142,99.50783333333334,99.56961428571428,99.54781428571428,0.09525000000000006,-0.03874999999999995,-0.09866666666666657,0.1186666666666667,-0.03333333333333144,-0.05833333333333002,1.5176666666666667,1.518,38.079,29.840333333333334,38.347,35.144999999999996,55.991,35.438,60.412,52.732,53.914,34.522999999999996,58.978,51.0525,53.064,34.038,58.9,50.464333333333336,-0.10099999999999998,-0.06199999999999983,0.11021500000000001,0.09845000000000001,0.0,212.88,212.885,209.66333333333333,209.66333333333333,0.0,0.0
18,0.0,0.0,0.0,1.0,1.0,0.0,0.0,1.0,0.0,100.0,1.0,1.1856,26.0,0.0,0.0,0.0,59.999996,0.0,26.0,26.0,26.0,26.0,-0.006444444444444475,0.26839999999999997,-0.0193,293.488,-2.7359999999999998,-2.597666666666667,-1.57885,-1.4478,-215.51999999999998,215.93,190.61925,0.0,0.0,0.0,0.0,0.036566666666666525,-5.498166666666667,-5.498166666666667,-0.5946,-0.5820000000000001,0.014000000000000012,1.1660000000000004,68.112,0.0091,-0.2659,-0.08999999999999986,100.0,1.0,1.0,210.05333333333334,0.0,0.0,0.0,0.0,0.0,0.0,0.0,8903.4,0.0,55.0,5.0,245.17666666666668,0.0,0.0,0.0,0.0,0.0,0.0,1.0,0.0,0.9029999999999987,0.9029999999999987,0.0,0.0,0.0,55.0,616.79921,10000.0,85.000001,85.000001,85.000001,85.000001,395.0,0.0,0.0,0.0,1.0,333.33500000000004,52.322,52.322,49.606,49.606,34.0,-23.724999999999998,25.60666666666667,-28.343333333333334,28.1075,0.0,1782.553,-0.245000000000001,100.0,28.015,27.7735,41.245000000000005,41.236000000000004,0.0,0.0,100.0,0.0,0.0,0.0,0.0,3110.285714285714,3257.7,4100.875,4193.7,305.415,304.65175,314.87825,314.5275,21.9416,20.6196,21.985599999999998,21.472,314.999998,314.999998,324.999988,324.999988,99.55888571428571,99.50783333333334,99.56975714285714,99.54795714285714,0.09224999999999994,-0.034499999999999975,-0.10116666666666663,0.12200000000000011,-0.02833333333332888,-0.046666666666666856,1.516,1.5185,38.135,29.872666666666667,38.41,35.2,55.979,35.473,60.447,52.7905,53.903,34.555,59.0105,51.109,53.051,34.0685,58.93,50.519666666666666,-0.09699999999999998,-0.06000000000000005,0.104675,0.10061500000000001,0.0,213.255,213.265,210.05333333333334,210.05333333333334,0.0,0.0
19,0.0,0.0,0.0,1.0,1.0,0.0,0.0,1.0,0.0,100.0,1.0,1.1856,26.0,0.0,0.0,0.0,59.999996,0.0,26.0,26.0,26.0,26.0,0.009333333333333416,0.2932000000000001,0.0375,293.015,-2.7104,-2.583333333333333,-1.5915,-1.4318,-212.04,215.91500000000002,190.59675,0.0,0.0,0.0,0.0,0.03859999999999997,-5.498166666666667,-5.498166666666667,-0.5888,0.8385,0.01822222222222214,-0.7229999999999999,68.249,0.007,-0.25720000000000004,-0.05799999999999983,100.0,1.0,1.0,210.48666666666668,0.0,0.0,0.0,0.0,0.0,0.0,0.0,8921.7,0.0,55.0,5.0,245.66666666666666,1.0,0.0,0.0,0.0,0.0,0.0,1.0,0.0,0.9540000000000006,0.9540000000000006,0.0,0.0,1.0,55.0,616.79921,10000.0,85.000001,85.000001,85.000001,85.000001,395.0,0.0,0.0,0.0,1.0,333.33500000000004,51.559,51.559,49.545,49.545,34.0,-24.7625,25.126666666666665,-29.796666666666667,28.95,0.0,1782.502,-0.23000000000000043,100.0,28.446,28.436500000000002,40.916,41.22,0.0,0.0,100.0,0.0,0.0,0.0,0.0,3265.5714285714284,3210.8,4250.625,4328.8,305.01,304.4905,314.65525,314.19725,21.9514,20.6254,21.9962,21.4811,314.999998,314.999998,324.999988,324.999988,99.5589,99.50785,99.5699,99.54811428571429,0.09299999999999997,-0.04125000000000001,-0.10599999999999998,0.12116666666666687,-0.04333333333332945,-0.05833333333333002,1.5253333333333332,1.517,38.196,29.908666666666665,38.476,35.257,55.968,35.5125,60.480000000000004,52.851,53.891999999999996,34.592,59.041,51.167,53.04,34.104,58.957499999999996,50.577,-0.10299999999999998,-0.05699999999999994,0.10394500000000001,0.105605,0.0,213.7,213.715,210.48666666666668,210.48666666666668,0.0,0.0
20,0.0,0.0,0.0,1.0,1.0,0.0,0.0,1.0,0.0,100.0,1.0,1.1856,26.0,0.0,0.0,0.0,59.999996,0.0,26.0,26.0,26.0,26.0,0.012111111111111184,0.2815000000000001,0.03503333333333333,293.396,-2.74485,-2.6606666666666667,-1.50905,-1.5604,-208.56,215.8975,190.574375,0.0,0.0,0.0,0.0,0.0406333333333333,-5.498166666666667,-5.498166666666667,-0.5913,-1.1915,0.011222222222222022,0.4580000000000002,68.388,0.0094,-0.266975,-0.17600000000000016,100.0,1.0,1.0,210.76999999999998,0.0,0.0,0.0,0.0,0.0,0.0,0.0,8933.8,0.0,55.0,5.0,246.17333333333335,0.0,0.0,0.0,0.0,0.0,0.0,0.0,0.0,1.004999999999999,1.004999999999999,0.0,0.0,0.0,55.0,616.79921,10000.0,85.000001,85.000001,85.000001,85.000001,395.0,0.0,0.0,0.0,1.0,333.33500000000004,52.765,52.765,48.981,48.981,34.0,-22.7775,24.703333333333333,-28.41,31.5675,0.0,1782.451,-0.14999999999999858,100.0,27.958,27.852,41.524,41.393,0.0,0.0,100.0,0.0,0.0,0.0,0.0,2963.857142857143,3117.4,4211.875,4308.0,305.8875,305.01825,314.51475,314.088,21.9607,20.6309,22.0071,21.4905,314.999998,314.999998,324.999988,324.999988,99.5589,99.50785,99.57004285714285,99.54825714285714,0.08499999999999996,-0.040999999999999925,-0.09616666666666662,0.12966666666666682,-0.03499999999999659,-0.05833333333333002,1.4543333333333335,1.4605000000000001,38.254999999999995,29.943333333333335,38.544,35.3155,55.953,35.5495,60.5185,52.914500000000004,53.878,34.6265,59.077,51.228,53.025,34.137,58.9905,50.63666666666667,-0.09149999999999991,-0.06899999999999995,0.10826500000000001,0.10570500000000001,0.0,214.10000000000002,214.10500000000002,210.76999999999998,210.76999999999998,0.0,0.0
21,0.0,0.0,0.0,1.0,1.0,0.0,0.0,1.0,0.0,100.0,1.0,1.1856,26.0,0.0,0.0,0.0,59.999996,0.0,26.0,26.0,26.0,26.0,0.0030000000000001137,0.2622,-0.07223333333333334,293.823,-2.66,-2.715111111111111,-1.5750000000000002,-1.5183,-205.26999999999998,215.885,190.55275,0.0,0.0,0.0,0.0,0.04253333333333331,-5.498166666666667,-5.498166666666667,-0.6178,0.43299999999999994,-0.003666666666666707,0.40100000000000025,68.512,0.0054,-0.27340000000000003,-0.07000000000000028,100.0,1.0,1.0,211.43666666666667,0.0,0.0,0.0,0.0,0.0,0.0,0.0,8962.1,0.0,55.0,5.0,246.61666666666667,1.0,0.0,0.0,0.0,0.0,0.0,0.0,0.0,1.0530000000000008,1.0530000000000008,0.0,0.0,1.0,55.0,616.79921,10000.0,85.000001,85.000001,85.000001,85.000001,395.0,0.0,0.0,0.0,1.0,166.665,52.260999999999996,52.260999999999996,50.461,50.461,34.0,-22.995,25.53333333333333,-26.836666666666666,27.26,0.0,1782.403,-0.19000000000000128,100.0,28.307,28.011499999999998,40.887,40.948,0.0,0.0,100.0,0.0,0.0,0.0,0.0,3076.0,3131.5,3965.5,3997.9,305.392,304.88825,315.294,315.0195,21.9697,20.6363,22.0169,21.499,314.999998,314.999998,324.999988,324.999988,99.55892857142857,99.50785,99.57017142857143,99.5484,0.08975,-0.03849999999999998,-0.10216666666666663,0.12416666666666676,-0.045000000000001705,-0.05666666666667197,1.584,1.5925,38.311,29.976666666666667,38.605999999999995,35.3685,55.942,35.586,60.5475,52.968,53.867000000000004,34.66,59.104,51.2795,53.013,34.1695,59.015,50.687333333333335,-0.09549999999999992,-0.06099999999999994,0.108035,0.108755,0.0,214.515,214.515,211.43666666666667,211.43666666666667,0.0,0.0
22,0.0,0.0,0.0,1.0,1.0,0.0,0.0,1.0,0.0,100.0,1.0,1.1856,26.0,0.0,0.0,0.0,59.999996,0.0,26.0,26.0,26.0,26.0,0.017000000000000126,0.2654000000000001,0.009933333333333334,293.243,-2.6484,-2.711888888888889,-1.57355,-1.5029,-201.76999999999998,215.8675,190.528875,0.0,0.0,0.0,0.0,0.04456666666666653,-5.498166666666667,-5.498166666666667,-0.5942000000000001,0.11449999999999994,0.004888888888888943,-0.47799999999999976,68.651,0.0024000000000000002,-0.24827500000000002,0.002000000000000668,100.0,1.0,1.0,211.63333333333333,0.0,0.0,0.0,0.0,0.0,0.0,0.0,8970.4,0.0,55.0,5.0,247.11333333333334,0.0,0.0,0.0,0.0,0.0,0.0,0.0,0.0,1.1039999999999992,1.1039999999999992,0.0,0.0,0.0,55.0,616.79921,10000.0,85.000001,85.000001,85.000001,85.000001,395.0,0.0,0.0,0.0,1.0,333.33500000000004,52.353,52.353,49.164,49.164,34.0,-22.9425,23.83833333333333,-30.89,29.802500000000002,0.0,1782.352,-0.23499999999999943,100.0,28.198,28.288,41.178,41.323,0.0,0.0,100.0,0.0,0.0,0.0,0.0,3051.285714285714,3001.9,4303.75,4335.3,305.629,305.06375,314.4815,314.13,21.9792,20.6419,22.0276,21.5082,314.999998,314.999998,324.999988,324.999988,99.55892857142857,99.50786666666667,99.57032857142858,99.54854285714286,0.07925000000000004,-0.05674999999999997,-0.11699999999999999,0.11133333333333328,-0.05666666666667197,-0.030000000000001137,1.4776666666666665,1.466,38.370000000000005,30.012,38.673,35.4265,55.929,35.624,60.5845,53.0295,53.855000000000004,34.695,59.1385,51.339,53.0,34.203,59.0465,50.745333333333335,-0.09450000000000003,-0.06499999999999995,0.10894000000000001,0.1077,0.0,214.95,214.93,211.63333333333333,211.63333333333333,0.0,0.0
23,0.0,0.0,0.0,1.0,1.0,0.0,0.0,1.0,0.0,100.0,1.0,1.1856,26.0,0.0,0.0,0.0,59.999996,0.0,26.0,26.0,26.0,26.0,0.005777777777777882,0.25280000000000014,0.004033333333333334,293.259,-2.6739,-2.6693333333333333,-1.4976,-1.568,-198.26999999999998,215.85500000000002,190.505375,0.0,0.0,0.0,0.0,0.046599999999999975,-5.498166666666667,-5.498166666666667,-0.6167,-0.373,0.0031111111111110645,0.5830000000000002,68.78399999999999,0.0023,-0.282325,-0.05999999999999961,100.0,1.0,1.0,212.14666666666668,0.0,0.0,0.0,0.0,0.0,0.0,0.0,8992.1,0.0,55.0,5.0,247.60000000000002,1.0,0.0,0.0,0.0,0.0,0.0,0.0,0.0,1.1550000000000011,1.1550000000000011,0.0,0.0,1.0,55.0,616.79921,10000.0,85.000001,85.000001,85.000001,85.000001,395.0,0.0,0.0,0.0,1.0,333.33500000000004,51.575,51.575,50.308,50.308,34.0,-24.375,25.54,-25.89,28.4925,0.0,1782.301,-0.245000000000001,100.0,28.623,28.232,41.296,41.376,0.0,0.0,100.0,0.0,0.0,0.0,0.0,3258.142857142857,3191.6,3908.75,4059.3,304.857,304.75,315.283,314.76375,21.9887,20.6477,22.0384,21.5176,314.999998,314.999998,324.999988,324.999988,99.55894285714285,99.50786666666667,99.57047142857142,99.54868571428571,0.09724999999999984,-0.040999999999999925,-0.10383333333333333,0.11650000000000005,-0.05333333333332746,-0.060000000000002274,1.5243333333333333,1.524,38.429,30.047666666666665,38.739999999999995,35.485,55.917,35.663,60.6195,53.091499999999996,53.844,34.731,59.1715,51.3985,52.988,34.2375,59.076,50.803666666666665,-0.10299999999999998,-0.06099999999999994,0.10753000000000001,0.10008,0.0,215.335,215.335,212.14666666666668,212.14666666666668,0.0,0.0
24,0.0,0.0,0.0,1.0,1.0,0.0,0.0,1.0,0.0,100.0,1.0,1.1856,26.0,0.0,0.0,0.0,59.999996,0.0,26.0,26.0,26.0,26.0,0.004666666666666597,0.27580000000000005,-0.055,293.579,-2.6989,-2.676333333333333,-1.54085,-1.5081,-194.95999999999998,215.84,190.483,0.0,0.0,0.0,0.0,0.04853333333333332,-5.498166666666667,-5.498166666666667,-0.6231,-0.47950000000000004,0.014222222222222136,1.2140000000000004,68.912,0.0078000000000000005,-0.270975,-0.2060000000000004,100.0,1.0,1.0,212.45333333333332,0.0,0.0,0.0,0.0,0.0,0.0,0.0,9005.1,0.0,55.0,5.0,248.05666666666667,0.0,0.0,0.0,0.0,0.0,0.0,0.0,0.0,1.2029999999999994,1.2029999999999994,0.0,0.0,0.0,55.0,616.79921,10000.0,85.000001,85.000001,85.000001,85.000001,395.0,0.0,0.0,0.0,1.0,166.665,52.719,52.719,49.438,49.438,34.0,-21.6925,24.306666666666665,-28.7,29.2975,0.0,1782.254,-0.23499999999999943,100.0,28.332,27.955,41.253,41.2,0.0,0.0,100.0,0.0,0.0,0.0,0.0,2913.4285714285716,3046.3,4224.375,4198.0,305.9335,305.23075,314.542,314.5265,21.9975,20.6529,22.0484,21.5262,314.999998,314.999998,324.999988,324.999988,99.55895714285714,99.50788333333334,99.57061428571429,99.54881428571429,0.09425000000000017,-0.039000000000000035,-0.09750000000000003,0.12583333333333324,-0.030000000000001137,-0.05833333333333002,1.5243333333333333,1.502,38.483999999999995,30.080666666666666,38.802,35.539,55.905,35.6975,60.6525,53.1475,53.832,34.763,59.202,51.453,52.975,34.2685,59.1035,50.85666666666667,-0.10250000000000004,-0.05600000000000005,0.10645500000000001,0.10154,0.0,215.72500000000002,215.75,212.45333333333332,212.45333333333332,0.0,0.0
25,0.0,0.0,0.0,1.0,1.0,0.0,0.0,1.0,0.0,100.0,1.0,1.1856,26.0,0.0,0.0,0.0,59.999996,0.0,26.0,26.0,26.0,26.0,0.02100000000000013,0.2643,-0.05556666666666667,293.472,-2.7699,-2.631666666666667,-1.5575999999999999,-1.5106000000000002,-191.44,215.825,190.457625,0.0,0.0,0.0,0.0,0.05056666666666654,-5.498166666666667,-5.498166666666667,-0.6511,-0.007500000000000062,0.016111111111110965,-1.1139999999999999,69.043,0.01,-0.27292500000000003,-0.1200000000000001,100.0,1.0,1.0,212.99,0.0,0.0,0.0,0.0,0.0,0.0,0.0,9027.9,0.0,55.0,5.0,248.53,1.0,0.0,0.0,0.0,0.0,0.0,0.0,0.0,1.2540000000000013,1.2540000000000013,0.0,0.0,1.0,55.0,616.79921,10000.0,85.000001,85.000001,85.000001,85.000001,395.0,0.0,0.0,0.0,1.0,166.665,51.788,51.788,50.14,50.14,34.0,-25.982499999999998,25.805,-26.973333333333333,27.8475,0.0,1782.202,-0.23999999999999844,100.0,28.064,28.3205,40.887,41.077,0.0,0.0,100.0,0.0,0.0,0.0,0.0,3308.142857142857,3243.9,3969.75,4065.6000000000004,305.0545,304.44375,315.28075,314.80675,22.0068,20.6586,22.0589,21.5354,314.999998,314.999998,324.999988,324.999988,99.55897142857143,99.50788333333334,99.57075714285715,99.54897142857143,0.08375000000000021,-0.041999999999999926,-0.10633333333333339,0.12233333333333318,-0.05833333333333002,-0.045000000000001705,1.561,1.562,38.542,30.116333333333333,38.867999999999995,35.596000000000004,55.89,35.7355,60.6845,53.2055,53.818,34.798500000000004,59.232,51.509,52.96,34.3025,59.1305,50.91166666666666,-0.09899999999999998,-0.05799999999999983,0.11164,0.10423,0.0,216.135,216.14499999999998,212.99,212.99,0.0,0.0
26,0.0,0.0,0.0,1.0,1.0,0.0,0.0,1.0,0.0,100.0,1.0,1.1856,26.0,0.0,0.0,0.0,59.999996,0.0,26.0,26.0,26.0,26.0,0.0021111111111111747,0.27680000000000016,0.09133333333333334,292.267,-2.71595,-2.7125555555555554,-1.6029499999999999,-1.5058,-187.92000000000002,215.81,190.43175,0.0,0.0,0.0,0.0,0.05259999999999998,-5.498166666666667,-5.498166666666667,-0.6119,0.6525,0.0006666666666665932,0.8050000000000002,69.18,0.010100000000000001,-0.24535,-0.13200000000000056,100.0,1.0,1.0,213.13666666666666,0.0,0.0,0.0,0.0,0.0,0.0,0.0,9034.1,0.0,55.0,5.0,249.01999999999998,0.0,0.0,0.0,0.0,0.0,0.0,0.0,0.0,1.3049999999999997,1.3049999999999997,0.0,0.0,0.0,55.0,616.79921,10000.0,85.000001,85.000001,85.000001,85.000001,395.0,0.0,0.0,0.0,1.0,333.33500000000004,51.331,51.331,48.385999999999996,48.385999999999996,34.0,-23.77,26.011666666666667,-32.12,33.4275,0.0,1782.151,-0.3099999999999987,100.0,29.086,28.7945,41.502,41.457,0.0,0.0,100.0,0.0,0.0,0.0,0.0,3149.857142857143,3168.1,4557.25,4582.1,305.1985,304.72625,313.84125,313.6125,22.0164,20.6645,22.0696,21.5447,314.999998,314.999998,324.999988,324.999988,99.55898571428571,99.50788333333334,99.57091428571428,99.54911428571428,0.0987499999999999,-0.03700000000000003,-0.08783333333333332,0.13516666666666666,-0.046666666666666856,-0.041666666666671404,1.4416666666666667,1.424,38.602000000000004,30.153,38.935,35.6545,55.881,35.775999999999996,60.722,53.268,53.809,34.836,59.2665,51.5685,52.95,34.338,59.162,50.970333333333336,-0.10099999999999998,-0.06099999999999994,0.09835500000000001,0.11582500000000001,0.0,216.59,216.595,213.13666666666666,213.13666666666666,0.0,0.0
27,0.0,0.0,0.0,1.0,1.0,0.0,0.0,1.0,0.0,100.0,1.0,1.1856,26.0,0.0,0.0,0.0,59.999996,0.0,26.0,26.0,26.0,26.0,0.019333333333333425,0.2582,-0.018766666666666668,292.877,-2.68635,-2.676,-1.59305,-1.5735999999999999,-184.6,215.7975,190.40875,0.0,0.0,0.0,0.0,0.05453333333333332,-5.498166666666667,-5.498166666666667,-0.6423,-1.214,0.0043333333333333,0.7010000000000001,69.303,0.0091,-0.302425,-0.2839999999999998,100.0,1.0,1.0,213.61333333333334,0.0,0.0,0.0,0.0,0.0,0.0,0.0,9054.3,0.0,55.0,5.0,249.47,1.0,0.0,0.0,0.0,0.0,0.0,0.0,0.0,1.352999999999998,1.352999999999998,0.0,0.0,1.0,55.0,616.79921,10000.0,85.000001,85.000001,85.000001,85.000001,395.0,0.0,0.0,0.0,1.0,333.33500000000004,51.666,51.666,49.010999999999996,49.010999999999996,34.0,-21.912499999999998,26.483333333333334,-28.796666666666667,30.2,0.0,1782.104,-0.41000000000000014,100.0,28.744,28.633499999999998,41.822,41.785,0.0,0.0,100.0,0.0,0.0,0.0,0.0,3047.285714285714,3229.7,4126.875,4154.3,305.514,304.643,314.77975,314.52125,22.025199999999998,20.6699,22.0799,21.5536,314.999998,314.999998,324.999988,324.999988,99.55898571428571,99.5079,99.57104285714286,99.54925714285714,0.11474999999999991,-0.028749999999999942,-0.09716666666666662,0.12783333333333324,-0.045000000000001705,-0.041666666666671404,1.483,1.4835,38.657,30.186999999999998,38.998999999999995,35.710499999999996,55.869,35.812,60.7575,53.327,53.798,34.869,59.2995,51.626,52.938,34.37,59.192,51.02633333333333,-0.11599999999999988,-0.052000000000000046,0.11035,0.09941000000000001,0.0,216.91,216.92000000000002,213.61333333333334,213.61333333333334,0.0,0.0
28,0.0,0.0,0.0,1.0,1.0,0.0,0.0,1.0,0.0,100.0,1.0,1.1856,26.0,0.0,0.0,0.0,59.999996,0.0,26.0,26.0,26.0,26.0,0.03744444444444439,0.27100000000000013,-0.07466666666666667,293.32,-2.67345,-2.665888888888889,-1.5881500000000002,-1.536,-181.06,215.785,190.383625,0.0,0.0,0.0,0.0,0.056599999999999984,-5.498166666666667,-5.498166666666667,-0.6514,0.753,-0.004777777777777992,-0.6080000000000001,69.432,0.0167,-0.27745000000000003,-0.2679999999999998,100.0,1.0,1.0,214.19,0.0,0.0,0.0,0.0,0.0,0.0,0.0,9078.7,0.0,55.0,5.0,249.93,0.0,0.0,0.0,0.0,0.0,0.0,0.0,0.0,1.404,1.404,0.0,0.0,0.0,55.0,616.79921,10000.0,85.000001,85.000001,85.000001,85.000001,395.0,0.0,0.0,0.0,1.0,333.33500000000004,51.666,51.666,50.293,50.293,34.0,-23.822499999999998,24.78333333333333,-27.826666666666668,28.835,0.0,1782.053,-0.33500000000000085,100.0,28.683,28.695,40.924,41.229,0.0,0.0,100.0,0.0,0.0,0.0,0.0,3212.142857142857,3067.9,4045.125,4079.8,305.1695,304.92425,315.22475,314.7985,22.0347,20.6757,22.0903,21.5627,314.999998,314.999998,324.999988,324.999988,99.559,99.5079,99.57118571428572,99.54941428571429,0.09675000000000011,-0.037250000000000005,-0.10699999999999998,0.13283333333333336,-0.054999999999999716,-0.05333333333332746,1.573,1.5585,38.717,30.223333333333336,39.064,35.766999999999996,55.858000000000004,35.8505,60.7875,53.384,53.787,34.9045,59.3275,51.6805,52.927,34.403999999999996,59.217,51.07966666666667,-0.10799999999999987,-0.05449999999999999,0.11375500000000001,0.10557000000000001,0.0,217.365,217.375,214.19,214.19,0.0,0.0
29,0.0,0.0,0.0,1.0,1.0,0.0,0.0,1.0,0.0,100.0,1.0,1.1856,26.0,0.0,0.0,0.0,59.999996,0.0,26.0,26.0,26.0,26.0,0.04499999999999993,0.2552000000000001,0.014133333333333335,292.953,-2.66345,-2.7092222222222224,-1.54085,-1.5151,-177.3,215.7725,190.3555,0.0,0.0,0.0,0.0,0.05879999999999996,-5.498166666666667,-5.498166666666667,-0.6505000000000001,-0.7335,0.0007777777777777661,-0.722,69.574,0.021500000000000002,-0.268575,-0.29799999999999915,100.0,1.0,1.0,214.40333333333334,0.0,0.0,0.0,0.0,0.0,0.0,0.0,9087.8,0.0,55.0,5.0,250.44,1.0,0.0,0.0,0.0,0.0,0.0,0.0,0.0,1.4579999999999984,1.4579999999999984,0.0,0.0,1.0,55.0,616.79921,10000.0,85.000001,85.000001,85.000001,85.000001,395.0,0.0,0.0,0.0,1.0,166.665,51.971000000000004,51.971000000000004,49.179,49.179,34.0,-23.1725,25.34166666666667,-28.60333333333333,30.85,0.0,1782.0,-0.3299999999999983,100.0,28.26,28.521,41.352000000000004,41.61,0.0,0.0,100.0,0.0,0.0,0.0,0.0,3184.5714285714284,3076.6,4239.875,4298.5,305.345,304.85725,314.58275,314.1695,22.0444,20.6818,22.1016,21.5727,314.999998,314.999998,324.999988,324.999988,99.55901428571428,99.50791666666667,99.57134285714285,99.54957142857143,0.10150000000000015,-0.036250000000000004,-0.08983333333333332,0.12916666666666687,-0.061666666666667425,-0.03999999999999915,1.4623333333333335,1.45,38.778,30.261,39.135,35.829,55.844,35.8895,60.826499999999996,53.4495,53.772999999999996,34.9405,59.364,51.7435,52.912,34.439,59.25,51.141333333333336,-0.10850000000000004,-0.05549999999999988,0.10397500000000001,0.10253000000000001,0.0,217.78,217.76999999999998,214.40333333333334,214.40333333333334,0.0,0.0
30,0.0,0.0,0.0,1.0,1.0,0.0,0.0,1.0,0.0,100.0,1.0,1.1856,26.0,0.0,0.0,0.0,59.999996,0.0,26.0,26.0,26.0,26.0,0.03455555555555567,0.25780000000000003,-0.0044666666666666665,292.48,-2.6771,-2.5966666666666667,-1.51535,-1.5714000000000001,-173.95999999999998,215.76,190.3305,0.0,0.0,0.0,0.0,0.060733333333333306,-5.498166666666667,-5.498166666666667,-0.6496000000000001,0.8089999999999999,-0.0032222222222220154,-0.6699999999999999,69.695,0.024,-0.274975,-0.23599999999999977,100.0,1.0,1.0,214.87666666666667,0.0,0.0,0.0,0.0,0.0,0.0,0.0,9107.8,0.0,55.0,5.0,250.87666666666667,0.0,0.0,0.0,0.0,0.0,0.0,1.0,0.0,1.5060000000000002,1.5060000000000002,0.0,0.0,0.0,55.0,616.79921,10000.0,85.000001,85.000001,85.000001,85.000001,395.0,0.0,0.0,0.0,1.0,166.665,50.613,50.613,49.576,49.576,34.0,-24.9225,25.265,-27.66,30.517500000000002,0.0,1781.952,-0.3150000000000013,100.0,29.251,29.309,41.219,41.584,0.0,0.0,100.0,0.0,0.0,0.0,0.0,3370.714285714286,3162.4,4195.5,4143.7,304.6345,304.558,314.756,314.5285,22.0535,20.6874,22.1116,21.5814,314.999998,314.999998,324.999988,324.999988,99.55904285714286,99.50791666666667,99.57148571428571,99.54971428571429,0.10524999999999984,-0.03400000000000003,-0.08999999999999997,0.13549999999999995,-0.046666666666666856,-0.061666666666667425,1.5,1.484,38.834,30.296666666666667,39.197,35.884,55.836,35.928,60.857,53.5055,53.766,34.9765,59.3925,51.798,52.903,34.473,59.2755,51.19466666666666,-0.11349999999999993,-0.05799999999999983,0.10414000000000001,0.10892,0.0,218.16500000000002,218.2,214.87666666666667,214.87666666666667,0.0,0.0
31,0.0,0.0,0.0,1.0,1.0,0.0,0.0,1.0,0.0,100.0,1.0,1.1856,26.0,0.0,0.0,0.0,59.999996,0.0,26.0,26.0,26.0,26.0,0.020444444444444487,0.2533000000000001,0.0009000000000000001,292.267,-2.7731,-2.587777777777778,-1.55585,-1.5678,-170.39999999999998,215.75,190.304875,0.0,0.0,0.0,0.0,0.06279999999999997,-5.498166666666667,-5.498166666666667,-0.6412,-0.6260000000000001,0.003444444444444361,0.6510000000000002,69.827,0.024200000000000003,-0.2863,-0.2999999999999998,100.0,1.0,1.0,215.14,0.0,0.0,0.0,0.0,0.0,0.0,0.0,9119.0,0.0,55.0,5.0,251.35000000000002,1.0,0.0,0.0,0.0,0.0,0.0,1.0,0.0,1.5569999999999986,1.5569999999999986,0.0,0.0,1.0,55.0,616.79921,10000.0,85.000001,85.000001,85.000001,85.000001,395.0,0.0,0.0,0.0,1.0,166.665,50.949,50.949,48.294,48.294,34.0,-23.4975,27.401666666666664,-28.673333333333332,33.345,0.0,1781.9,-0.370000000000001,100.0,29.106,29.1755,41.862,41.915,0.0,0.0,100.0,0.0,0.0,0.0,0.0,3151.857142857143,3396.5,4280.5,4354.3,305.3425,304.21275,314.3845,314.199,22.0628,20.6934,22.1224,21.591,314.999998,314.999998,324.999988,324.999988,99.55904285714286,99.50791666666667,99.57164285714286,99.54987142857142,0.11425000000000018,-0.022749999999999937,-0.07666666666666666,0.15533333333333332,-0.01999999999999602,-0.04333333333332945,1.442,1.4425,38.891999999999996,30.333333333333336,39.265,35.9435,55.825,35.967,60.8945,53.5695,53.754999999999995,35.0125,59.4275,51.8595,52.891,34.507999999999996,59.3075,51.254666666666665,-0.11050000000000004,-0.05799999999999983,0.1034,0.11357500000000001,0.0,218.54000000000002,218.54500000000002,215.14,215.14,0.0,0.0
32,0.0,0.0,0.0,1.0,1.0,0.0,0.0,1.0,0.0,100.0,1.0,1.1856,26.0,0.0,0.0,0.0,59.999996,0.0,26.0,26.0,26.0,26.0,0.02633333333333332,0.26859999999999995,-0.0397,292.679,-2.6734999999999998,-2.6944444444444446,-1.6001,-1.4796,-167.05,215.74,190.280875,0.0,0.0,0.0,0.0,0.06473333333333331,-5.498166666666667,-5.498166666666667,-0.6607000000000001,-0.056499999999999995,-0.02444444444444427,0.15500000000000025,69.946,0.0234,-0.29675,-0.3799999999999999,100.0,1.0,1.0,215.61333333333334,0.0,0.0,0.0,0.0,0.0,0.0,0.0,9139.1,0.0,55.0,5.0,251.78,0.0,0.0,0.0,0.0,0.0,0.0,1.0,0.0,1.6050000000000004,1.6050000000000004,0.0,0.0,0.0,55.0,616.79921,10000.0,85.000001,85.000001,85.000001,85.000001,395.0,0.0,0.0,0.0,1.0,333.33500000000004,51.208,51.208,49.376999999999995,49.376999999999995,34.0,-22.48,26.461666666666666,-28.689999999999998,30.7275,0.0,1781.851,-0.3949999999999996,100.0,29.121000000000002,29.1325,41.436,41.521,0.0,0.0,100.0,0.0,0.0,0.0,0.0,3157.142857142857,3185.2,4219.875,4316.7,305.184,304.741,314.70825,314.326,22.0716,20.6989,22.1324,21.5997,314.999998,314.999998,324.999988,324.999988,99.55905714285714,99.50791666666667,99.57177142857142,99.55,0.12049999999999983,-0.025000000000000022,-0.08550000000000002,0.14400000000000013,-0.02833333333332888,-0.06499999999999773,1.5323333333333333,1.5195,38.947,30.368333333333332,39.327,35.9985,55.815,36.0035,60.9255,53.625,53.745999999999995,35.0465,59.456,51.9135,52.881,34.5405,59.333,51.30733333333333,-0.11299999999999999,-0.05750000000000011,0.11210500000000001,0.10792500000000001,0.0,218.91500000000002,218.945,215.61333333333334,215.61333333333334,0.0,0.0
33,0.0,0.0,0.0,1.0,1.0,0.0,0.0,1.0,0.0,100.0,1.0,1.1856,26.0,0.0,0.0,0.0,59.999996,0.0,26.0,26.0,26.0,26.0,0.03977777777777791,0.25429999999999997,-0.036000000000000004,292.938,-2.71965,-2.6847777777777777,-1.5469,-1.5617,-163.48000000000002,215.73000000000002,190.254125,0.0,0.0,0.0,0.0,0.0668333333333333,-5.498166666666667,-5.498166666666667,-0.668,-0.29600000000000004,-0.020888888888888957,0.03699999999999992,70.075,0.023700000000000002,-0.28042500000000004,-0.2400000000000002,100.0,1.0,1.0,215.99333333333334,0.0,0.0,0.0,0.0,0.0,0.0,0.0,9155.2,0.0,55.0,5.0,252.24333333333334,1.0,0.0,0.0,0.0,0.0,0.0,1.0,0.0,1.6559999999999988,1.6559999999999988,0.0,0.0,1.0,55.0,616.79921,10000.0,85.000001,85.000001,85.000001,85.000001,395.0,0.0,0.0,0.0,1.0,166.665,51.697,51.697,49.591,49.591,34.0,-23.1675,24.605,-28.163333333333334,31.125,0.0,1781.801,-0.3550000000000004,100.0,28.749,28.91,41.278999999999996,41.522999999999996,0.0,0.0,100.0,0.0,0.0,0.0,0.0,3182.714285714286,3033.9,4166.0,4257.4,305.3295,305.08525,314.78025,314.3365,22.0809,20.7046,22.1429,21.609,314.999998,314.999998,324.999988,324.999988,99.55907142857143,99.50793333333333,99.57192857142857,99.55015714285715,0.11450000000000005,-0.03700000000000003,-0.09399999999999997,0.13216666666666677,-0.046666666666666856,-0.04333333333332945,1.5,1.4815,39.006,30.403666666666666,39.393,36.0565,55.804,36.039500000000004,60.9585,53.6845,53.735,35.08,59.487,51.9705,52.869,34.5725,59.3605,51.36333333333333,-0.11850000000000005,-0.04999999999999982,0.11002500000000001,0.10424000000000001,0.0,219.32,219.32999999999998,215.99333333333334,215.99333333333334,0.0,0.0
34,0.0,0.0,0.0,1.0,1.0,0.0,0.0,1.0,0.0,100.0,1.0,1.1856,26.0,0.0,0.0,0.0,59.999996,0.0,26.0,26.0,26.0,26.0,0.0387777777777778,0.25029999999999997,-0.04946666666666667,293.121,-2.74375,-2.681111111111111,-1.6085500000000001,-1.5216,-160.11,215.7225,190.22775,0.0,0.0,0.0,0.0,0.06876666666666653,-5.498166666666667,-5.498166666666667,-0.6920000000000001,-0.7745,0.006222222222222129,-0.347,70.196,0.024,-0.284175,-0.21399999999999952,100.0,1.0,1.0,216.35666666666668,0.0,0.0,0.0,0.0,0.0,0.0,0.0,9170.6,0.0,55.0,5.0,252.68,0.0,0.0,0.0,0.0,0.0,0.0,1.0,0.0,1.7040000000000006,1.7040000000000006,0.0,0.0,0.0,55.0,616.79921,10000.0,85.000001,85.000001,85.000001,85.000001,395.0,0.0,0.0,0.0,1.0,166.665,52.002,52.002,49.911,49.911,34.0,-23.2775,25.005,-28.616666666666667,30.6025,0.0,1781.754,-0.3249999999999993,100.0,28.489,28.5885,41.150999999999996,41.656,0.0,0.0,100.0,0.0,0.0,0.0,0.0,3125.4285714285716,3056.2,4127.25,4218.9,305.387,305.09325,314.92525,314.3765,22.0896,20.7099,22.1529,21.6179,314.999998,314.999998,324.999988,324.999988,99.55908571428571,99.50793333333333,99.57205714285715,99.5503,0.10899999999999999,-0.029249999999999998,-0.09433333333333338,0.1393333333333333,-0.04999999999999716,-0.030000000000001137,1.5076666666666667,1.4994999999999998,39.06,30.437333333333335,39.455,36.112,55.792,36.073499999999996,60.988,53.742,53.724000000000004,35.111000000000004,59.515,52.025999999999996,52.857,34.6025,59.3855,51.41733333333333,-0.10749999999999993,-0.053999999999999826,0.10533000000000001,0.11188500000000001,0.0,219.695,219.68,216.35666666666668,216.35666666666668,0.0,0.0
35,0.0,0.0,0.0,1.0,1.0,0.0,0.0,1.0,0.0,100.0,1.0,1.1856,26.0,0.0,0.0,0.0,59.999996,0.0,26.0,26.0,26.0,26.0,0.02300000000000013,0.25480000000000014,-0.07540000000000001,293.152,-2.71465,-2.6285555555555558,-1.5826500000000001,-1.4855,-156.53,215.715,190.19775,0.0,0.0,0.0,0.0,0.07086666666666652,-5.498166666666667,-5.498166666666667,-0.7317,-0.27649999999999997,-0.011222222222222022,0.02300000000000013,70.322,0.024,-0.29055000000000003,-0.2839999999999998,100.0,1.0,1.0,216.84,0.0,0.0,0.0,0.0,0.0,0.0,0.0,9191.0,0.0,55.0,5.0,253.13333333333333,1.0,0.0,0.0,0.0,0.0,0.0,1.0,0.0,1.754999999999999,1.754999999999999,0.0,0.0,1.0,55.0,616.79921,10000.0,85.000001,85.000001,85.000001,85.000001,395.0,0.0,0.0,0.0,1.0,166.665,51.528999999999996,51.528999999999996,49.515,49.515,34.0,-22.675,27.471666666666664,-26.506666666666668,28.6275,0.0,1781.702,-0.254999999999999,100.0,28.42,28.7155,41.168,41.186,0.0,0.0,100.0,0.0,0.0,0.0,0.0,3113.4285714285716,3397.4,4005.5,4020.9,305.378,304.12475,315.103,314.964,22.0987,20.7158,22.1633,21.6271,314.999998,314.999998,324.999988,324.999988,99.5591,99.50795,99.57221428571428,99.55045714285714,0.11549999999999994,-0.03300000000000003,-0.07916666666666661,0.14983333333333326,-0.046666666666666856,-0.05333333333332746,1.5436666666666667,1.535,39.117000000000004,30.474,39.521,36.1695,55.778,36.1115,61.019999999999996,53.798,53.711,35.147,59.544,52.08,52.843,34.637,59.411500000000004,51.470666666666666,-0.10749999999999993,-0.06850000000000023,0.10766500000000001,0.10984000000000001,0.0,220.085,220.10500000000002,216.84,216.84,0.0,0.0
