,ABS Active,ABS Enabled,AID Allow Tire Blankets,AID Auto Blip,AID Auto Clutch,AID Auto Shift,AID Fuel Rate,AID Ideal Line,AID Mech Damage,AID Stability,AID Tire Wear Rate,Air Density,Air Temp,Ballast,Best Lap Delta,Best Lap Time,Brake Bias,Brake Pos,Brake Temp FL,Brake Temp FR,Brake Temp RL,Brake Temp RR,CG Accel Lateral,CG Accel Longitudinal,CG Accel Vertical,CG Height,Camber FL,Camber FR,Camber RL,Camber RR,Car Coord X,Car Coord Y,Car Coord Z,Car Damage Front,Car Damage Left,Car Damage Rear,Car Damage Right,Car Pos Norm,Caster FL,Caster FR,Chassis Pitch Angle,Chassis Pitch Rate,Chassis Roll Angle,Chassis Roll Rate,Chassis Velocity X,Chassis Velocity Y,Chassis Velocity Z,Chassis Yaw Rate,Clutch Pos,DRS Active,DRS Available,Drive Train Speed,ERS Heat Charging,ERS Is Charging,ERS Max Energy,ERS Power Level,ERS Recovery Level,Engine Brake Setting,Engine Limiter,Engine RPM,Flags,Fuel Level,Gear,Ground Speed,HR Sample Clock,In Pit,KERS Charge,KERS Deployed Energy,KERS Input,KERS Max Energy,LR Sample Clock,Lap Invalidated,Lap Time,Lap Time2,Last Lap Time,Last Sector Time,MR Sample Clock,Max Fuel,Max Power,Max RPM,Max Sus Travel FL,Max Sus Travel FR,Max Sus Travel RL,Max Sus Travel RR,Max Torque,Max Turbo Boost,Num Tires Off Track,Penalties Enabled,Position,Raw Data Sample Rate,Ride Height FL,Ride Height FR,Ride Height RL,Ride Height RR,Road Temp,Self Align Torque FL,Self Align Torque FR,Self Align Torque RL,Self Align Torque RR,Session Lap Count,Session Time Left,Steering Angle,Surface Grip,Suspension Travel FL,Suspension Travel FR,Suspension Travel RL,Suspension Travel RR,TC Active,TC Enabled,Throttle Pos,Tire Dirt Level FL,Tire Dirt Level FR,Tire Dirt Level RL,Tire Dirt Level RR,Tire Load FL,Tire Load FR,Tire Load RL,Tire Load RR,Tire Loaded Radius FL,Tire Loaded Radius FR,Tire Loaded Radius RL,Tire Loaded Radius RR,Tire Pressure FL,Tire Pressure FR,Tire Pressure RL,Tire Pressure RR,Tire Radius FL,Tire Radius FR,Tire Radius RL,Tire Radius RR,Tire Rubber Grip FL,Tire Rubber Grip FR,Tire Rubber Grip RL,Tire Rubber Grip RR,Tire Slip Angle FL,Tire Slip Angle FR,Tire Slip Angle RL,Tire Slip Angle RR,Tire Slip Ratio FL,Tire Slip Ratio FR,Tire Slip Ratio RL,Tire Slip Ratio RR,Tire Temp Core FL,Tire Temp Core FR,Tire Temp Core RL,Tire Temp Core RR,Tire Temp Inner FL,Tire Temp Inner FR,Tire Temp Inner RL,Tire Temp Inner RR,Tire Temp Middle FL,Tire Temp Middle FR,Tire Temp Middle RL,Tire Temp Middle RR,Tire Temp Outer FL,Tire Temp Outer FR,Tire Temp Outer RL,Tire Temp Outer RR,Toe In FL,Toe In FR,Toe In RL,Toe In RR,Turbo Boost,Wheel Angular Speed FL,Wheel Angular Speed FR,Wheel Angular Speed RL,Wheel Angular Speed RR,Wind Direction,Wind Speed
0,0.0,0.0,0.0,1.0,1.0,0.0,0.0,1.0,0.0,100.0,1.0,1.1856,26.0,0.0,0.0,0.0,59.99999,0.0,26.0,26.0,26.0,26.0,-0.06474999999999997,0.28669999999999995,0.13675,293.976,-2.7187,-2.4779999999999998,-1.5213,-1.5265,-275.71,215.91750000000002,190.988,0.0,0.0,0.0,0.0,0.0015666666666666051,-5.498166666666667,-5.498166666666667,-0.5712,1.0166666666666666,-0.010444444444444478,-0.952,65.587,-0.040600000000000004,-0.22890000000000002,0.6420000000000003,100.0,1.0,1.0,202.5233333333333,0.0,0.0,0.0,0.0,0.0,0.0,0.0,8584.2,0.0,55.0,5.0,236.08333333333331,0.0,0.0,0.0,0.0,0.0,0.0,0.0,0.0,0.0030000000000001137,0.0030000000000001137,0.0,0.0,0.0,55.0,616.79921,10000.0,85.0,85.0,85.0,85.0,395.0,0.0,0.0,0.0,1.0,20.0,51.743,51.743,49.988,49.988,34.0,-29.7025,25.482,-29.310000000000002,23.84,0.0,1783.417,0.6700000000000017,100.0,27.082,26.85,39.985,39.807,0.0,0.0,100.0,0.0,0.0,0.0,0.0,3323.666666666667,3826.4,4014.5714285714284,3922.6,304.79,302.53333333333336,315.119,315.01375,21.776125,20.5318,21.79711111111111,21.3122,314.99999,314.99999,324.99998,324.99998,99.5591,99.50783333333334,99.56712857142857,99.54537142857143,-0.0040000000000000036,-0.11375000000000002,-0.16000000000000003,0.06133333333333324,-0.06333333333333258,-0.051666666666669414,1.576,1.5819999999999999,37.101,29.3235,37.232,34.201,56.370000000000005,34.8935,59.751999999999995,51.6875,54.266999999999996,34.013999999999996,58.36,50.049,53.42,33.5445,58.33,49.480666666666664,-0.03200000000000003,-0.11649999999999983,0.10372,0.10956,0.0,205.5,205.445,202.5233333333333,202.5233333333333,0.0,0.0
1,0.0,0.0,0.0,1.0,1.0,0.0,0.0,1.0,0.0,100.0,1.0,1.1856,26.0,0.0,0.0,0.0,59.999996,0.0,26.0,26.0,26.0,26.0,-0.12512499999999993,0.3138000000000001,0.0352,293.03,-2.6502,-2.7004285714285716,-1.5388000000000002,-1.35825,-272.36,215.9225,190.96775,0.0,0.0,0.0,0.0,0.0035333333333333883,-5.498166666666667,-5.498166666666667,-0.49810000000000004,-0.6393333333333334,-0.05055555555555591,-0.2330000000000001,65.743,-0.0442,-0.206175,1.0460000000000012,100.0,1.0,1.0,202.5,0.0,0.0,0.0,0.0,0.0,0.0,0.0,8583.3,0.0,55.0,5.0,236.64333333333332,1.0,0.0,0.0,0.0,0.0,0.0,0.0,0.0,0.053999999999998494,0.053999999999998494,0.0,0.0,1.0,55.0,616.79921,10000.0,85.000001,85.000001,85.000001,85.000001,395.0,0.0,0.0,0.0,1.0,166.665,53.787,53.787,48.477000000000004,48.477000000000004,34.0,-25.265,17.08,-36.876666666666665,29.535,0.0,1783.366,0.740000000000002,100.0,27.743,27.1715,41.778999999999996,41.382,0.0,0.0,100.0,0.0,0.0,0.0,0.0,2934.6666666666665,2536.8,4633.142857142857,5094.200000000001,305.773,306.6603333333333,313.48466666666667,312.0975,21.786125,20.5371,21.808222222222224,21.3214,314.999998,314.999998,324.999988,324.999988,99.55911428571429,99.50785,99.56728571428572,99.54551428571429,-0.0012499999999999734,-0.123,-0.16466666666666663,0.046499999999999986,-0.06333333333333258,-0.04999999999999716,1.335,1.3825000000000003,37.163,29.3565,37.301,34.259,56.354,34.934,59.797,51.7545,54.251999999999995,34.052,58.402,50.113,53.403999999999996,33.5805,58.369,49.54366666666667,-0.018000000000000016,-0.13149999999999995,0.102855,0.103715,0.0,206.0,205.91500000000002,202.5,202.5,0.0,0.0
2,0.0,0.0,0.0,1.0,1.0,0.0,0.0,1.0,0.0,100.0,1.0,1.1856,26.0,0.0,0.0,0.0,59.999996,0.0,26.0,26.0,26.0,26.0,-0.12837500000000002,0.26370000000000005,-0.10435,294.724,-2.6071,-2.7721428571428572,-1.4884,-1.528,-269.0,215.9225,190.949625,0.0,0.0,0.0,0.0,0.005466666666666509,-5.498166666666667,-5.498166666666667,-0.5884,-0.28800000000000003,-0.04322222222222205,1.691,65.881,-0.0545,-0.305525,1.436,100.0,1.0,1.0,203.68333333333334,0.0,0.0,0.0,0.0,0.0,0.0,0.0,8633.3,0.0,55.0,5.0,237.14666666666668,0.0,0.0,0.0,0.0,0.0,0.0,0.0,0.0,0.10500000000000043,0.10500000000000043,0.0,0.0,0.0,55.0,616.79921,10000.0,85.000001,85.000001,85.000001,85.000001,395.0,0.0,0.0,0.0,1.0,166.665,52.368,52.368,52.063,52.063,34.0,-30.5975,19.58,-27.10333333333333,17.5675,0.0,1783.314,0.879999999999999,100.0,28.204,27.109,40.969,40.230000000000004,0.0,0.0,100.0,0.0,0.0,0.0,0.0,3419.666666666667,2928.8,3638.4285714285716,3300.1,304.421,305.47566666666665,315.92066666666665,316.6235,21.79625,20.5422,21.81888888888889,21.3302,314.999998,314.999998,324.999988,324.999988,99.55911428571429,99.50786666666667,99.56742857142856,99.54564285714285,-0.022749999999999937,-0.15225,-0.20199999999999996,0.028833333333333266,-0.051666666666669414,-0.04999999999999716,1.6975,1.7325,37.227000000000004,29.3885,37.367999999999995,34.313,56.341,34.9725,59.833,51.809,54.239000000000004,34.0875,58.4355,50.1655,53.39,33.6145,58.4,49.595333333333336,-0.010333333333333306,-0.1459999999999999,0.10642000000000001,0.107535,0.0,206.405,206.3,203.68333333333334,203.68333333333334,0.0,0.0
3,0.0,0.0,0.0,1.0,1.0,0.0,0.0,1.0,0.0,100.0,1.0,1.1856,26.0,0.0,0.0,0.0,59.999996,0.0,26.0,26.0,26.0,26.0,-0.136,0.30290000000000017,-0.07905000000000001,294.235,-2.6528,-2.694285714285714,-1.4942,-1.55175,-265.84,215.92000000000002,190.930875,0.0,0.0,0.0,0.0,0.007299999999999973,-5.498166666666667,-5.498166666666667,-0.5335,1.0813333333333333,-0.0038888888888890527,-1.3559999999999999,66.025,-0.0747,-0.21960000000000002,1.2420000000000009,100.0,1.0,1.0,203.73000000000002,0.0,0.0,0.0,0.0,0.0,0.0,0.0,8635.3,0.0,55.0,5.0,237.66,1.0,0.0,0.0,0.0,0.0,0.0,0.0,0.0,0.1529999999999987,0.1529999999999987,0.0,0.0,1.0,55.0,616.79921,10000.0,85.000001,85.000001,85.000001,85.000001,395.0,0.0,0.0,0.0,1.0,111.11,53.497,53.497,49.576,49.576,34.0,-25.6425,18.396,-34.70333333333333,23.6825,0.0,1783.267,0.8500000000000014,100.0,27.83,27.271,40.635,40.244,0.0,0.0,100.0,0.0,0.0,0.0,0.0,2888.6666666666665,2818.2,4385.142857142857,4112.1,306.1045,305.664,314.224,314.65075,21.8055,20.5472,21.828777777777777,21.3384,314.999998,314.999998,324.999988,324.999988,99.55911428571429,99.50788333333334,99.56755714285714,99.54577142857143,-0.029749999999999943,-0.14800000000000002,-0.19933333333333336,0.024333333333333318,-0.04333333333332945,-0.041666666666671404,1.513,1.5484999999999998,37.284,29.42,37.43,34.364999999999995,56.325,35.0125,59.8665,51.8665,54.224000000000004,34.1245,58.467,50.221000000000004,53.373999999999995,33.65,58.4285,49.64966666666667,-0.015666666666666718,-0.13100000000000023,0.10401500000000001,0.10717000000000002,0.0,206.91,206.8,203.73000000000002,203.73000000000002,0.0,0.0
4,0.0,0.0,0.0,1.0,1.0,0.0,0.0,1.0,0.0,100.0,1.0,1.1856,26.0,0.0,0.0,0.0,59.999996,0.0,26.0,26.0,26.0,26.0,-0.15487499999999998,0.3014000000000001,-0.0043,294.113,-2.6699,-2.7752857142857144,-1.4311,-1.572125,-262.47,215.91500000000002,190.911,0.0,0.0,0.0,0.0,0.009266666666666534,-5.498166666666667,-5.498166666666667,-0.5556,-1.129,-0.06511111111111134,-0.2669999999999999,66.174,-0.0814,-0.2564,1.3580000000000005,100.0,1.0,1.0,204.16,0.0,0.0,0.0,0.0,0.0,0.0,0.0,8653.5,0.0,55.0,5.0,238.19666666666666,0.0,0.0,0.0,0.0,0.0,0.0,0.0,0.0,0.20400000000000063,0.20400000000000063,0.0,0.0,0.0,55.0,616.79921,10000.0,85.000001,85.000001,85.000001,85.000001,395.0,0.0,0.0,0.0,1.0,166.665,53.177,53.177,49.744,49.744,34.0,-29.055,19.502000000000002,-33.15,22.05,0.0,1783.215,0.8850000000000016,100.0,27.701,26.700499999999998,41.41,40.493,0.0,0.0,100.0,0.0,0.0,0.0,0.0,3176.666666666667,2970.7,4276.571428571428,3853.2,305.1815,305.4433333333333,314.36833333333334,315.2235,21.81525,20.5524,21.839666666666666,21.3475,314.999998,314.999998,324.999988,324.999988,99.55911428571429,99.5079,99.5677,99.54591428571429,-0.033499999999999974,-0.16049999999999998,-0.20299999999999996,0.021166666666666556,-0.06333333333333258,-0.03999999999999915,1.5135,1.5590000000000002,37.345,29.4525,37.498000000000005,34.422,56.307,35.053,59.909,51.9275,54.207,34.161500000000004,58.507,50.278999999999996,53.357,33.686,58.4655,49.70666666666666,-0.006333333333333302,-0.14900000000000002,0.10101,0.10767000000000002,0.0,207.315,207.18,204.16,204.16,0.0,0.0
5,0.0,0.0,0.0,1.0,1.0,0.0,0.0,1.0,0.0,100.0,1.0,1.1856,26.0,0.0,0.0,0.0,59.999996,0.0,26.0,26.0,26.0,26.0,-0.13487499999999997,0.2996000000000001,-0.0529,294.449,-2.6955999999999998,-2.7297142857142855,-1.5103,-1.591375,-259.09,215.9075,190.891,0.0,0.0,0.0,0.0,0.011233333333333317,-5.498166666666667,-5.498166666666667,-0.5702,0.4383333333333333,-0.0602222222222224,-0.2829999999999999,66.31700000000001,-0.09050000000000001,-0.2585,1.436,100.0,1.0,1.0,204.76,0.0,0.0,0.0,0.0,0.0,0.0,0.0,8679.0,0.0,55.0,5.0,238.71333333333334,1.0,0.0,0.0,0.0,0.0,0.0,0.0,0.0,0.254999999999999,0.254999999999999,0.0,0.0,1.0,55.0,616.79921,10000.0,85.000001,85.000001,85.000001,85.000001,395.0,0.0,0.0,0.0,1.0,166.665,53.131,53.131,50.705,50.705,34.0,-30.240000000000002,18.25,-33.07666666666666,21.035,0.0,1783.164,0.7149999999999999,100.0,27.76,26.9365,40.912,40.105000000000004,0.0,0.0,100.0,0.0,0.0,0.0,0.0,3231.0,2861.5,4076.0,3858.3,305.096,305.58633333333336,314.9823333333333,315.257,21.825375,20.5577,21.85033333333333,21.3561,314.999998,314.999998,324.999988,324.999988,99.55912857142857,99.50791666666667,99.56784285714286,99.54605714285714,-0.044749999999999956,-0.16625,-0.22783333333333333,0.0003333333333332966,-0.06666666666666998,-0.03333333333333144,1.567,1.6284999999999998,37.408,29.485500000000002,37.564,34.476,56.294,35.095,59.9475,51.982,54.194,34.2,58.542500000000004,50.3315,53.344,33.7225,58.4985,49.757999999999996,-0.018333333333333313,-0.12700000000000022,0.10401500000000001,0.108475,0.0,207.815,207.66,204.76,204.76,0.0,0.0
6,0.0,0.0,0.0,1.0,1.0,0.0,0.0,1.0,0.0,100.0,1.0,1.1856,26.0,0.0,0.0,0.0,59.999996,0.0,26.0,26.0,26.0,26.0,-0.15325,0.29590000000000005,0.010450000000000001,294.205,-2.6474,-2.7862857142857145,-1.5376,-1.5515,-255.7,215.89499999999998,190.870375,0.0,0.0,0.0,0.0,0.01319999999999999,-5.498166666666667,-5.498166666666667,-0.5491,0.097,-0.055777777777777704,0.7569999999999999,66.465,-0.0947,-0.23170000000000002,1.0739999999999998,100.0,1.0,1.0,205.05,0.0,0.0,0.0,0.0,0.0,0.0,0.0,8691.4,0.0,55.0,5.0,239.24666666666667,0.0,0.0,0.0,0.0,0.0,0.0,0.0,0.0,0.30600000000000094,0.30600000000000094,0.0,0.0,0.0,55.0,616.79921,10000.0,85.000001,85.000001,85.000001,85.000001,395.0,0.0,0.0,0.0,1.0,166.665,53.528,53.528,49.82,49.82,34.0,-27.215,19.744,-34.68,23.165,0.0,1783.113,0.40000000000000213,100.0,27.641,26.607,41.157,40.231,0.0,0.0,100.0,0.0,0.0,0.0,0.0,3047.0,2903.5,4285.142857142857,4108.1,305.4535,305.6086666666667,314.36633333333333,314.702,21.835125,20.5629,21.861,21.365099999999998,314.999998,314.999998,324.999988,324.999988,99.55912857142857,99.50793333333333,99.568,99.5462,-0.022249999999999992,-0.14525,-0.2008333333333333,0.014499999999999957,-0.03333333333333144,-0.045000000000001705,1.498,1.5335,37.47,29.518,37.631,34.532,56.278,35.1355,59.9875,52.042500000000004,54.179,34.2375,58.58,50.3895,53.328,33.7585,58.533,49.81466666666667,-0.03466666666666662,-0.11149999999999993,0.10200500000000001,0.11215000000000001,0.0,208.235,208.13,205.05,205.05,0.0,0.0
7,0.0,0.0,0.0,1.0,1.0,0.0,0.0,1.0,0.0,100.0,1.0,1.1856,26.0,0.0,0.0,0.0,59.999996,0.0,26.0,26.0,26.0,26.0,-0.10462499999999997,0.28459999999999996,0.0064,294.205,-2.6176,-2.777857142857143,-1.4949,-1.600375,-252.31,215.8775,190.849875,0.0,0.0,0.0,0.0,0.01516666666666655,-5.498166666666667,-5.498166666666667,-0.5614,-0.074,-0.05022222222222217,-0.2669999999999999,66.60900000000001,-0.0907,-0.2541,0.9060000000000006,100.0,1.0,1.0,205.56,0.0,0.0,0.0,0.0,0.0,0.0,0.0,8712.9,0.0,55.0,5.0,239.76666666666665,1.0,0.0,0.0,0.0,0.0,0.0,0.0,0.0,0.3569999999999993,0.3569999999999993,0.0,0.0,1.0,55.0,616.79921,10000.0,85.000001,85.000001,85.000001,85.000001,395.0,0.0,0.0,0.0,1.0,166.665,53.024,53.024,50.369,50.369,34.0,-28.1175,20.406,-33.03,22.33,0.0,1783.062,0.07499999999999929,100.0,27.729,26.94,41.066,40.451,0.0,0.0,100.0,0.0,0.0,0.0,0.0,3224.666666666667,2896.1,4125.0,3904.7,305.049,305.4316666666667,314.79966666666667,315.0745,21.845125,20.5682,21.87177777777778,21.374,314.999998,314.999998,324.999988,324.999988,99.55914285714286,99.50795,99.56814285714286,99.54632857142857,-0.010249999999999981,-0.13075000000000003,-0.21599999999999997,0.011666666666666714,-0.046666666666666856,-0.04833333333333201,1.5405,1.5629999999999997,37.532,29.551499999999997,37.699,34.588,56.263,35.1755,60.027,52.1015,54.165,34.2745,58.617,50.4465,53.313,33.794,58.567,49.870333333333335,-0.06400000000000006,-0.08099999999999996,0.10902500000000001,0.10746000000000001,0.0,208.66,208.575,205.56,205.56,0.0,0.0
8,0.0,0.0,0.0,1.0,1.0,0.0,0.0,1.0,0.0,100.0,1.0,1.1856,26.0,0.0,0.0,0.0,59.999996,0.0,26.0,26.0,26.0,26.0,-0.09262499999999996,0.2811000000000001,-0.007850000000000001,294.296,-2.6973000000000003,-2.713142857142857,-1.4766,-1.5871250000000001,-248.91,215.86,190.82925,0.0,0.0,0.0,0.0,0.017166666666666552,-5.498166666666667,-5.498166666666667,-0.5655,-0.3293333333333333,-0.03166666666666673,0.756,66.755,-0.07350000000000001,-0.25165,0.3979999999999997,100.0,1.0,1.0,205.97,0.0,0.0,0.0,0.0,0.0,0.0,0.0,8730.3,0.0,55.0,5.0,240.2866666666667,0.0,0.0,0.0,0.0,0.0,0.0,0.0,0.0,0.40800000000000125,0.40800000000000125,0.0,0.0,0.0,55.0,616.79921,10000.0,85.000001,85.000001,85.000001,85.000001,395.0,0.0,0.0,0.0,1.0,166.665,53.421,53.421,49.911,49.911,34.0,-25.475,21.938,-31.043333333333337,25.0,0.0,1783.012,-0.06499999999999773,100.0,27.473,26.8645,41.134,40.439,0.0,0.0,100.0,0.0,0.0,0.0,0.0,3006.0,3044.5,4072.0,4053.8,305.6655,305.20866666666666,314.838,314.79175,21.854875,20.5735,21.882555555555555,21.383,314.999998,314.999998,324.999988,324.999988,99.55914285714286,99.50796666666666,99.56828571428571,99.54647142857142,0.019000000000000128,-0.10324999999999995,-0.1858333333333334,0.046666666666666856,-0.046666666666666856,-0.051666666666669414,1.518,1.5335,37.593,29.5845,37.766,34.644,56.245999999999995,35.215,60.066,52.1605,54.149,34.311,58.6535,50.503,53.296,33.829,58.6005,49.925666666666665,-0.07666666666666666,-0.06850000000000023,0.10852500000000001,0.10781500000000001,0.0,209.085,209.035,205.97,205.97,0.0,0.0
9,0.0,0.0,0.0,1.0,1.0,0.0,0.0,1.0,0.0,100.0,1.0,1.1856,26.0,0.0,0.0,0.0,59.999996,0.0,26.0,26.0,26.0,26.0,-0.0655,0.29679999999999995,-0.0099,294.067,-2.6248,-2.7164285714285716,-1.5306000000000002,-1.538875,-245.9,215.84,190.81075,0.0,0.0,0.0,0.0,0.018899999999999917,-5.498166666666667,-5.498166666666667,-0.5640000000000001,0.4503333333333333,-0.040000000000000036,-0.5590000000000002,66.88,-0.057600000000000005,-0.24527500000000002,0.29800000000000004,100.0,1.0,1.0,206.39666666666668,0.0,0.0,0.0,0.0,0.0,0.0,0.0,8748.4,0.0,55.0,5.0,240.74,1.0,0.0,0.0,0.0,0.0,0.0,0.0,0.0,0.4529999999999994,0.4529999999999994,0.0,0.0,1.0,55.0,616.79921,10000.0,85.000001,85.000001,85.000001,85.000001,395.0,0.0,0.0,0.0,1.0,166.665,52.765,52.765,50.446,50.446,34.0,-26.9425,21.66,-31.163333333333334,24.465,0.0,1782.967,-0.254999999999999,100.0,27.708,27.198,40.832,40.515,0.0,0.0,100.0,0.0,0.0,0.0,0.0,3285.5,2958.7,4115.285714285715,4018.6000000000004,304.91,305.27633333333335,314.87466666666666,314.859,21.863625,20.5783,21.89188888888889,21.3908,314.999998,314.999998,324.999988,324.999988,99.55914285714286,99.50796666666666,99.56841428571428,99.5466,0.03049999999999997,-0.09850000000000003,-0.17149999999999999,0.05516666666666681,-0.061666666666667425,-0.03999999999999915,1.538,1.5575,37.647,29.6145,37.824,34.693,56.233000000000004,35.25,60.0985,52.212,54.135999999999996,34.343,58.684,50.5525,53.283,33.8595,58.6285,49.974333333333334,-0.08833333333333315,-0.05799999999999983,0.10612500000000001,0.11137000000000001,0.0,209.5,209.45499999999998,206.39666666666668,206.39666666666668,0.0,0.0
10,0.0,0.0,0.0,1.0,1.0,0.0,0.0,1.0,0.0,100.0,1.0,1.1856,26.0,0.0,0.0,0.0,59.999996,0.0,26.0,26.0,26.0,26.0,-0.04212499999999997,0.2792000000000001,-0.00455,293.976,-2.6878,-2.689571428571429,-1.4968,-1.520125,-242.28,215.815,190.78875,0.0,0.0,0.0,0.0,0.020999999999999908,-5.498166666666667,-5.498166666666667,-0.5539000000000001,-0.5803333333333334,-0.011111111111111072,0.038000000000000034,67.035,-0.0344,-0.24550000000000002,-0.06599999999999984,100.0,1.0,1.0,206.71666666666667,0.0,0.0,0.0,0.0,0.0,0.0,0.0,8762.0,0.0,55.0,5.0,241.29666666666668,0.0,0.0,0.0,0.0,0.0,0.0,1.0,0.0,0.5069999999999979,0.5069999999999979,0.0,0.0,0.0,55.0,616.79921,10000.0,85.000001,85.000001,85.000001,85.000001,395.0,0.0,0.0,0.0,1.0,166.665,53.421,53.421,49.637,49.637,34.0,-24.5175,21.927999999999997,-31.259999999999998,26.627499999999998,0.0,1782.912,-0.33500000000000085,100.0,27.547,27.142,41.118,40.893,0.0,0.0,100.0,0.0,0.0,0.0,0.0,3038.3333333333335,2898.6,4266.714285714285,4203.8,305.7105,305.51166666666666,314.47133333333335,314.349,21.874,20.584,21.903333333333332,21.4005,314.999998,314.999998,324.999988,324.999988,99.55915714285715,99.50798333333333,99.56857142857143,99.54674285714286,0.04400000000000004,-0.07150000000000001,-0.14983333333333337,0.06783333333333319,-0.051666666666669414,-0.045000000000001705,1.4825,1.4755000000000003,37.712,29.65,37.896,34.753,56.217,35.289,60.1405,52.2775,54.120999999999995,34.3795,58.723,50.6155,53.266999999999996,33.8945,58.664500000000004,50.036,-0.10066666666666668,-0.04300000000000015,0.10338000000000001,0.100195,0.0,209.94,209.92000000000002,206.71666666666667,206.71666666666667,0.0,0.0
11,0.0,0.0,0.0,1.0,1.0,0.0,0.0,1.0,0.0,100.0,1.0,1.1856,26.0,0.0,0.0,0.0,59.999996,0.0,26.0,26.0,26.0,26.0,-0.017874999999999974,0.2824,-0.058050000000000004,294.479,-2.6924,-2.687142857142857,-1.5487000000000002,-1.490875,-238.86,215.79250000000002,190.767875,0.0,0.0,0.0,0.0,0.022599999999999953,-5.498166666666667,-5.498166666666667,-0.5865,-0.05566666666666666,0.015111111111111075,0.651,67.173,-0.0161,-0.26575,-0.2679999999999998,100.0,1.0,1.0,207.37,0.0,0.0,0.0,0.0,0.0,0.0,0.0,8789.7,0.0,55.0,5.0,241.79666666666668,1.0,0.0,0.0,0.0,0.0,0.0,1.0,0.0,0.5579999999999998,0.5579999999999998,0.0,0.0,1.0,55.0,616.79921,10000.0,85.000001,85.000001,85.000001,85.000001,395.0,0.0,0.0,0.0,1.0,166.665,53.101,53.101,50.827,50.827,34.0,-23.34,24.814,-25.813333333333333,25.8625,0.0,1782.862,-0.5300000000000011,100.0,27.478,27.154,40.692,40.583,0.0,0.0,100.0,0.0,0.0,0.0,0.0,3015.5,3136.1,3807.857142857143,3977.0,305.595,304.92333333333335,315.5876666666667,315.038,21.883625,20.5894,21.913888888888888,21.4095,314.999998,314.999998,324.999988,324.999988,99.55915714285715,99.508,99.56871428571428,99.54688571428571,0.07400000000000007,-0.04849999999999999,-0.1163333333333334,0.10733333333333328,-0.036666666666668846,-0.06333333333333258,1.6115,1.5990000000000002,37.772,29.683999999999997,37.961,34.809,56.201,35.327,60.174,52.3365,54.107,34.414500000000004,58.754,50.6725,53.251000000000005,33.928,58.692499999999995,50.09166666666667,-0.10699999999999998,-0.039000000000000146,0.10314500000000001,0.1086,0.0,210.36,210.37,207.37,207.37,0.0,0.0
12,0.0,0.0,0.0,1.0,1.0,0.0,0.0,1.0,0.0,100.0,1.0,1.1856,26.0,0.0,0.0,0.0,59.999996,0.0,26.0,26.0,26.0,26.0,-0.002375000000000016,0.28,0.0143,293.9,-2.7128,-2.689285714285714,-1.5204,-1.522,-235.63,215.76999999999998,190.747125,0.0,0.0,0.0,0.0,0.025466666666666526,-5.498166666666667,-5.498166666666667,-0.5718,0.39766666666666667,0.006222222222222129,0.776,67.309,-0.00030000000000000003,-0.237275,-0.3379999999999992,100.0,1.0,1.0,207.62666666666667,0.0,0.0,0.0,0.0,0.0,0.0,0.0,8800.6,0.0,55.0,5.0,242.28333333333336,0.0,0.0,0.0,0.0,0.0,0.0,1.0,0.0,0.6059999999999981,0.6059999999999981,0.0,0.0,0.0,55.0,616.79921,10000.0,85.000001,85.000001,85.000001,85.000001,395.0,0.0,0.0,0.0,1.0,166.665,52.917,52.917,49.698,49.698,34.0,-23.6675,24.944,-28.14,29.637500000000003,0.0,1782.813,-0.16999999999999815,100.0,27.547,27.36,40.803,40.641999999999996,0.0,0.0,100.0,0.0,0.0,0.0,0.0,3035.6666666666665,3166.4,4162.571428571428,4238.6,305.5255,304.8226666666667,314.6976666666667,314.42225,21.892625,20.5947,21.92377777777778,21.418,314.999998,314.999998,324.999988,324.999988,99.55917142857143,99.508,99.56884285714285,99.54701428571428,0.07525000000000004,-0.052749999999999964,-0.10416666666666663,0.12483333333333335,-0.036666666666668846,-0.05666666666667197,1.5295,1.5145,37.829,29.7165,38.024,34.861999999999995,56.188,35.362,60.207499999999996,52.3935,54.094,34.447,58.7855,50.727000000000004,53.238,33.959,58.7215,50.14533333333333,-0.09099999999999997,-0.06050000000000022,0.11072000000000001,0.10614000000000001,0.0,210.79000000000002,210.805,207.62666666666667,207.62666666666667,0.0,0.0
13,0.0,0.0,0.0,1.0,1.0,0.0,0.0,1.0,0.0,100.0,1.0,1.1856,26.0,0.0,0.0,0.0,59.999996,0.0,26.0,26.0,26.0,26.0,0.03574999999999995,0.27659999999999996,0.04215,293.518,-2.6896,-2.693,-1.5543,-1.52625,-232.2,215.745,190.725375,0.0,0.0,0.0,0.0,0.026866666666666594,-5.498166666666667,-5.498166666666667,-0.5686,-0.322,0.0033333333333331883,-0.4710000000000001,67.452,0.0106,-0.25172500000000003,-0.37600000000000033,100.0,1.0,1.0,207.99,0.0,0.0,0.0,0.0,0.0,0.0,0.0,8816.0,0.0,55.0,5.0,242.79666666666668,1.0,0.0,0.0,0.0,0.0,0.0,1.0,0.0,0.657,0.657,0.0,0.0,1.0,55.0,616.79921,10000.0,85.000001,85.000001,85.000001,85.000001,395.0,0.0,0.0,0.0,1.0,166.665,52.582,52.582,49.591,49.591,34.0,-23.310000000000002,24.964,-29.513333333333335,30.4675,0.0,1782.764,-0.46999999999999886,100.0,27.74,27.7295,40.975,41.188,0.0,0.0,100.0,0.0,0.0,0.0,0.0,3163.166666666667,3048.6,4234.571428571428,4283.8,305.319,304.99766666666665,314.5686666666667,314.17125,21.90225,20.6002,21.934555555555555,21.4272,314.999998,314.999998,324.999988,324.999988,99.55918571428572,99.508,99.569,99.54717142857143,0.10024999999999995,-0.03225,-0.10666666666666658,0.1233333333333333,-0.061666666666667425,-0.045000000000001705,1.478,1.4515000000000002,37.888999999999996,29.7515,38.091,34.92,56.176,35.399,60.2455,52.4565,54.082,34.481,58.821,50.7875,53.225,33.992,58.7535,50.20466666666667,-0.11833333333333318,-0.038000000000000256,0.10617000000000001,0.10908500000000002,0.0,211.22,211.22500000000002,207.99,207.99,0.0,0.0
14,0.0,0.0,0.0,1.0,1.0,0.0,0.0,1.0,0.0,100.0,1.0,1.1856,26.0,0.0,0.0,0.0,59.999996,0.0,26.0,26.0,26.0,26.0,0.04899999999999993,0.26960000000000006,-0.01265,293.777,-2.7101,-2.697,-1.5525,-1.512875,-228.96,215.7225,190.705375,0.0,0.0,0.0,0.0,0.028766666666666607,-5.498166666666667,-5.498166666666667,-0.5860000000000001,-0.17466666666666666,0.02733333333333321,-0.31800000000000006,67.582,0.0213,-0.272525,-0.44599999999999973,100.0,1.0,1.0,208.5,0.0,0.0,0.0,0.0,0.0,0.0,0.0,8837.6,0.0,55.0,5.0,243.26666666666665,0.0,0.0,0.0,0.0,0.0,0.0,1.0,0.0,0.7049999999999983,0.7049999999999983,0.0,0.0,0.0,55.0,616.79921,10000.0,85.000001,85.000001,85.000001,85.000001,395.0,0.0,0.0,0.0,1.0,333.33500000000004,52.46,52.46,50.018,50.018,34.0,-23.049999999999997,25.56,-26.61333333333333,29.1025,0.0,1782.713,-0.4549999999999983,100.0,27.787,27.9825,40.872,41.147999999999996,0.0,0.0,100.0,0.0,0.0,0.0,0.0,3108.0,3095.3,3994.714285714286,4117.0,305.4945,304.792,315.15366666666665,314.604,21.911375,20.6055,21.944555555555556,21.4358,314.999998,314.999998,324.999988,324.999988,99.5592,99.50801666666666,99.56914285714285,99.54731428571428,0.09925000000000006,-0.03125,-0.09516666666666662,0.13416666666666677,-0.06666666666666998,-0.046666666666666856,1.55,1.5215000000000005,37.946,29.7845,38.153,34.974000000000004,56.164,35.436,60.28,52.518,54.07,34.5155,58.853,50.8465,53.213,34.025,58.7825,50.26266666666667,-0.11499999999999999,-0.0405000000000002,0.10897000000000001,0.10785000000000002,0.0,211.62,211.64,208.5,208.5,0.0,0.0
15,0.0,0.0,0.0,1.0,1.0,0.0,0.0,1.0,0.0,100.0,1.0,1.1856,26.0,0.0,0.0,0.0,59.999996,0.0,26.0,26.0,26.0,26.0,0.048250000000000126,0.2753000000000001,0.013300000000000001,293.808,-2.7041,-2.672714285714286,-1.5655000000000001,-1.525125,-225.51,215.7,190.683625,0.0,0.0,0.0,0.0,0.03076666666666661,-5.498166666666667,-5.498166666666667,-0.5752,0.2856666666666667,0.040999999999999925,0.5720000000000001,67.72200000000001,0.0309,-0.25075000000000003,-0.5520000000000005,100.0,1.0,1.0,208.89,0.0,0.0,0.0,0.0,0.0,0.0,0.0,8854.1,0.0,55.0,5.0,243.77333333333334,1.0,0.0,0.0,0.0,0.0,0.0,1.0,0.0,0.7560000000000002,0.7560000000000002,0.0,0.0,1.0,55.0,616.79921,10000.0,85.000001,85.000001,85.000001,85.000001,395.0,0.0,0.0,0.0,1.0,166.665,52.765,52.765,49.957,49.957,34.0,-20.8825,25.816,-25.876666666666672,31.94,0.0,1782.665,-0.33500000000000085,100.0,27.918,27.829,40.763,41.059,0.0,0.0,100.0,0.0,0.0,0.0,0.0,2895.1666666666665,3122.0,4002.4285714285716,4311.7,305.9585,304.89,315.1,314.18475,21.921,20.6111,21.955,21.4449,314.999998,314.999998,324.999988,324.999988,99.5592,99.50801666666666,99.56927142857143,99.54745714285714,0.11149999999999993,-0.020749999999999935,-0.07366666666666666,0.15316666666666667,-0.036666666666668846,-0.041666666666671404,1.537,1.5125000000000002,38.006,29.819499999999998,38.219,35.031,56.152,35.4705,60.3115,52.576499999999996,54.059,34.5475,58.882,50.9035,53.201,34.0555,58.809,50.318333333333335,-0.10433333333333317,-0.047499999999999876,0.10953,0.10894000000000001,0.0,212.055,212.07999999999998,208.89,208.89,0.0,0.0
16,0.0,0.0,0.0,1.0,1.0,0.0,0.0,1.0,0.0,100.0,1.0,1.1856,26.0,0.0,0.0,0.0,59.999996,0.0,26.0,26.0,26.0,26.0,0.04412499999999997,0.27090000000000014,-0.01345,293.747,-2.7640000000000002,-2.6215714285714284,-1.538,-1.526375,-222.05,215.68,190.661625,0.0,0.0,0.0,0.0,0.03276666666666661,-5.498166666666667,-5.498166666666667,-0.5928,-0.5416666666666666,0.024333333333333318,-1.15,67.862,0.031400000000000004,-0.2679,-0.24399999999999977,100.0,1.0,1.0,209.32666666666665,0.0,0.0,0.0,0.0,0.0,0.0,0.0,8872.6,0.0,55.0,5.0,244.27666666666664,0.0,0.0,0.0,0.0,0.0,0.0,1.0,0.0,0.8069999999999986,0.8069999999999986,0.0,0.0,0.0,55.0,616.79921,10000.0,85.000001,85.000001,85.000001,85.000001,395.0,0.0,0.0,0.0,1.0,166.665,52.414,52.414,49.82,49.82,34.0,-24.0925,26.128,-26.243333333333332,29.6525,0.0,1782.613,-0.33999999999999986,100.0,27.474,27.950499999999998,40.856,41.166,0.0,0.0,100.0,0.0,0.0,0.0,0.0,3210.5,3178.1,4042.285714285714,4073.0,305.3085,304.637,315.0316666666667,314.68,21.930374999999998,20.6167,21.965777777777777,21.4541,314.999998,314.999998,324.999988,324.999988,99.55922857142858,99.50801666666666,99.56941428571429,99.54758571428572,0.10475000000000012,-0.017749999999999932,-0.08233333333333337,0.14749999999999996,-0.05333333333332746,-0.04999999999999716,1.533,1.516,38.065,29.8545,38.286,35.088,56.138,35.507,60.3475,52.638,54.046,34.5815,58.916,50.9625,53.186,34.088499999999996,58.8395,50.376666666666665,-0.1036666666666668,-0.04800000000000004,0.099915,0.11291000000000001,0.0,212.465,212.485,209.32666666666665,209.32666666666665,0.0,0.0
17,0.0,0.0,0.0,1.0,1.0,0.0,0.0,1.0,0.0,100.0,1.0,1.1856,26.0,0.0,0.0,0.0,59.999996,0.0,26.0,26.0,26.0,26.0,0.025875000000000092,0.28910000000000013,0.019950000000000002,293.35,-2.7185,-2.609571428571429,-1.5781,-1.490375,-218.57999999999998,215.66,190.63925,0.0,0.0,0.0,0.0,0.03479999999999994,-5.498166666666667,-5.498166666666667,-0.5848,0.2783333333333333,0.004222222222222127,0.655,68.001,0.0273,-0.252925,-0.3200000000000003,100.0,1.0,1.0,209.68666666666667,0.0,0.0,0.0,0.0,0.0,0.0,0.0,8887.8,0.0,55.0,5.0,244.77333333333334,1.0,0.0,0.0,0.0,0.0,0.0,1.0,0.0,0.8580000000000005,0.8580000000000005,0.0,0.0,1.0,55.0,616.79921,10000.0,85.000001,85.000001,85.000001,85.000001,395.0,0.0,0.0,0.0,1.0,166.665,52.261,52.261,49.454,49.454,34.0,-22.8275,25.864,-28.43,31.36,0.0,1782.562,-0.3299999999999983,100.0,28.072,27.948,40.911,41.028999999999996,0.0,0.0,100.0,0.0,0.0,0.0,0.0,3122.6666666666665,3193.1,4290.428571428572,4330.6,305.315,304.7506666666667,314.45733333333334,314.21325,21.94,20.6224,21.976333333333333,21.4632,314.999998,314.999998,324.999988,324.999988,99.55922857142858,99.50803333333333,99.56955714285715,99.54774285714285,0.11325000000000007,-0.020499999999999963,-0.07450000000000001,0.14949999999999997,-0.046666666666666856,-0.07666666666666799,1.5115,1.5040000000000004,38.125,29.89,38.352000000000004,35.144999999999996,56.126999999999995,35.5445,60.382,52.6995,54.035,34.616,58.9475,51.0215,53.174,34.122,58.8685,50.434333333333335,-0.10633333333333317,-0.05250000000000021,0.10716500000000001,0.10894000000000001,0.0,212.925,212.95,209.68666666666667,209.68666666666667,0.0,0.0
18,0.0,0.0,0.0,1.0,1.0,0.0,0.0,1.0,0.0,100.0,1.0,1.1856,26.0,0.0,0.0,0.0,59.999996,0.0,26.0,26.0,26.0,26.0,0.025875000000000092,0.2695000000000001,0.0317,293.289,-2.6569000000000003,-2.596,-1.5774,-1.44575,-215.32,215.64249999999998,190.618125,0.0,0.0,0.0,0.0,0.036699999999999955,-5.498166666666667,-5.498166666666667,-0.5972000000000001,-0.41133333333333333,0.013666666666666716,0.8739999999999999,68.131,0.0224,-0.2701,-0.274,100.0,1.0,1.0,210.07,0.0,0.0,0.0,0.0,0.0,0.0,0.0,8904.1,0.0,55.0,5.0,245.24333333333334,0.0,0.0,0.0,0.0,0.0,0.0,1.0,0.0,0.9059999999999988,0.9059999999999988,0.0,0.0,0.0,55.0,616.79921,10000.0,85.000001,85.000001,85.000001,85.000001,395.0,0.0,0.0,0.0,1.0,166.665,52.016999999999996,52.016999999999996,49.423,49.423,34.0,-22.4125,27.178,-27.54,30.6525,0.0,1782.515,-0.33500000000000085,100.0,27.979,27.9355,41.066,41.147999999999996,0.0,0.0,100.0,0.0,0.0,0.0,0.0,3111.6666666666665,3353.5,4161.285714285715,4325.9,305.2785,304.2846666666667,314.725,314.19125,21.948999999999998,20.6277,21.986333333333334,21.472,314.999998,314.999998,324.999988,324.999988,99.55925714285715,99.50803333333333,99.56968571428571,99.54788571428571,0.10925000000000007,-0.02100000000000002,-0.07599999999999996,0.14700000000000002,-0.04333333333332945,-0.04999999999999716,1.5105,1.4924999999999997,38.181,29.923000000000002,38.415,35.2,56.114999999999995,35.579,60.4155,52.757999999999996,54.024,34.647999999999996,58.979,51.078,53.162,34.1525,58.897,50.49,-0.10733333333333328,-0.05449999999999999,0.10145000000000001,0.10934500000000001,0.0,213.305,213.315,210.07,210.07,0.0,0.0
19,0.0,0.0,0.0,1.0,1.0,0.0,0.0,1.0,0.0,100.0,1.0,1.1856,26.0,0.0,0.0,0.0,59.999996,0.0,26.0,26.0,26.0,26.0,0.0378750000000001,0.29390000000000005,0.05765,293.091,-2.6544,-2.700285714285714,-1.5074,-1.4355,-212.04,215.625,190.596875,0.0,0.0,0.0,0.0,0.03859999999999997,-5.498166666666667,-5.498166666666667,-0.5896,0.712,0.018111111111110967,0.714,68.26,0.0196,-0.2606,-0.274,100.0,1.0,1.0,210.46333333333334,0.0,0.0,0.0,0.0,0.0,0.0,0.0,8920.7,0.0,55.0,5.0,245.70666666666665,1.0,0.0,0.0,0.0,0.0,0.0,1.0,0.0,0.9540000000000006,0.9540000000000006,0.0,0.0,1.0,55.0,616.79921,10000.0,85.000001,85.000001,85.000001,85.000001,395.0,0.0,0.0,0.0,1.0,166.665,51.788,51.788,49.637,49.637,34.0,-22.34,26.334,-26.923333333333332,31.7725,0.0,1782.466,-0.3149999999999977,100.0,28.517,28.344,40.900999999999996,41.108000000000004,0.0,0.0,100.0,0.0,0.0,0.0,0.0,3084.8333333333335,3188.2,4149.428571428572,4505.4,305.3305,304.58366666666666,314.7336666666667,313.8165,21.958125,20.6331,21.996333333333332,21.4806,314.999998,314.999998,324.999988,324.999988,99.55925714285715,99.50803333333333,99.56982857142857,99.54801428571429,0.10624999999999996,-0.03300000000000003,-0.08350000000000002,0.1443333333333332,-0.030000000000001137,-0.06666666666666998,1.5015,1.4975000000000005,38.239000000000004,29.957,38.477000000000004,35.254,56.105000000000004,35.6155,60.447,52.816,54.013999999999996,34.6815,59.007999999999996,51.134,53.152,34.185,58.9235,50.544666666666664,-0.10599999999999987,-0.06199999999999983,0.10450000000000001,0.11264500000000001,0.0,213.735,213.75,210.46333333333334,210.46333333333334,0.0,0.0
20,0.0,0.0,0.0,1.0,1.0,0.0,0.0,1.0,0.0,100.0,1.0,1.1856,26.0,0.0,0.0,0.0,59.999996,0.0,26.0,26.0,26.0,26.0,0.03412499999999996,0.25960000000000005,-0.00895,293.472,-2.7207,-2.6580000000000004,-1.5093,-1.5565,-208.35,215.60500000000002,190.573,0.0,0.0,0.0,0.0,0.0407333333333334,-5.498166666666667,-5.498166666666667,-0.5967,-1.0070000000000001,0.015333333333333199,0.6179999999999999,68.405,0.0162,-0.27515,-0.20999999999999996,100.0,1.0,1.0,210.89,0.0,0.0,0.0,0.0,0.0,0.0,0.0,8938.8,0.0,55.0,5.0,246.23333333333335,0.0,0.0,0.0,0.0,0.0,0.0,0.0,0.0,1.0079999999999991,1.0079999999999991,0.0,0.0,0.0,55.0,616.79921,10000.0,85.000001,85.000001,85.000001,85.000001,395.0,0.0,0.0,0.0,1.0,166.665,52.46,52.46,49.423,49.423,34.0,-22.302500000000002,25.648,-26.696666666666665,31.085,0.0,1782.412,-0.3000000000000007,100.0,28.029,28.004,41.355000000000004,41.408,0.0,0.0,100.0,0.0,0.0,0.0,0.0,3020.3333333333335,3156.6,4089.4285714285716,4190.2,305.6275,304.87966666666665,314.818,314.45125,21.968125,20.639,22.007666666666665,21.4906,314.999998,314.999998,324.999988,324.999988,99.55927142857144,99.50803333333333,99.56998571428572,99.54818571428571,0.10575000000000001,-0.027249999999999996,-0.08566666666666656,0.14483333333333337,-0.030000000000001137,-0.05333333333332746,1.495,1.4805000000000001,38.301,29.994,38.548,35.316,56.09,35.653999999999996,60.486,52.8825,54.0,34.7175,59.045,51.198,53.135999999999996,34.219,58.957,50.60766666666667,-0.10533333333333328,-0.05449999999999999,0.10640000000000001,0.109045,0.0,214.15,214.155,210.89,210.89,0.0,0.0
21,0.0,0.0,0.0,1.0,1.0,0.0,0.0,1.0,0.0,100.0,1.0,1.1856,26.0,0.0,0.0,0.0,59.999996,0.0,26.0,26.0,26.0,26.0,0.028874999999999984,0.26750000000000007,-0.0683,293.747,-2.7216,-2.656428571428571,-1.5571000000000002,-1.511125,-205.26999999999998,215.59,190.552875,0.0,0.0,0.0,0.0,0.04253333333333331,-5.498166666666667,-5.498166666666667,-0.6167,0.15933333333333335,0.0022222222222221255,-0.8580000000000001,68.523,0.014700000000000001,-0.275325,-0.1979999999999995,100.0,1.0,1.0,211.41666666666669,0.0,0.0,0.0,0.0,0.0,0.0,0.0,8961.1,0.0,55.0,5.0,246.65333333333334,1.0,0.0,0.0,0.0,0.0,0.0,0.0,0.0,1.0530000000000008,1.0530000000000008,0.0,0.0,1.0,55.0,616.79921,10000.0,85.000001,85.000001,85.000001,85.000001,395.0,0.0,0.0,0.0,1.0,333.33500000000004,52.231,52.231,50.278,50.278,34.0,-24.3875,24.778,-27.189999999999998,27.634999999999998,0.0,1782.365,-0.3099999999999987,100.0,28.031,28.1415,40.784,41.058,0.0,0.0,100.0,0.0,0.0,0.0,0.0,3213.166666666667,3085.2,4038.714285714286,4006.3,305.238,304.93233333333336,315.1116666666667,314.9285,21.976625,20.644,22.01688888888889,21.4986,314.999998,314.999998,324.999988,324.999988,99.55928571428572,99.50803333333333,99.5701,99.5483,0.09200000000000008,-0.03674999999999995,-0.10083333333333333,0.12816666666666676,-0.04999999999999716,-0.03833333333332689,1.571,1.569,38.354,30.0255,38.605999999999995,35.366,56.079,35.687,60.513999999999996,52.934,53.989999999999995,34.748,59.070499999999996,51.2475,53.125,34.2485,58.980000000000004,50.656,-0.10133333333333328,-0.05250000000000021,0.10226,0.10834500000000001,0.0,214.54000000000002,214.54000000000002,211.41666666666669,211.41666666666669,0.0,0.0
22,0.0,0.0,0.0,1.0,1.0,0.0,0.0,1.0,0.0,100.0,1.0,1.1856,26.0,0.0,0.0,0.0,59.999996,0.0,26.0,26.0,26.0,26.0,0.03225000000000011,0.274,-0.0002,293.35,-2.7728,-2.6271428571428572,-1.5749,-1.4977500000000001,-201.76999999999998,215.575,190.529,0.0,0.0,0.0,0.0,0.04456666666666653,-5.498166666666667,-5.498166666666667,-0.5968,0.08133333333333333,0.012222222222222134,1.1560000000000001,68.661,0.014400000000000001,-0.247125,-0.3120000000000003,100.0,1.0,1.0,211.65666666666667,0.0,0.0,0.0,0.0,0.0,0.0,0.0,8971.3,0.0,55.0,5.0,247.15,0.0,0.0,0.0,0.0,0.0,0.0,0.0,0.0,1.1039999999999992,1.1039999999999992,0.0,0.0,0.0,55.0,616.79921,10000.0,85.000001,85.000001,85.000001,85.000001,395.0,0.0,0.0,0.0,1.0,333.33500000000004,52.536,52.536,49.271,49.271,34.0,-22.4,25.052,-29.21,31.365000000000002,0.0,1782.314,-0.3999999999999986,100.0,28.225,28.073999999999998,41.115,41.138,0.0,0.0,100.0,0.0,0.0,0.0,0.0,2992.1666666666665,3130.0,4259.857142857143,4438.8,305.8085,305.031,314.496,313.97675,21.986125,20.6497,22.027555555555555,21.5079,314.999998,314.999998,324.999988,324.999988,99.5593,99.50805,99.57025714285714,99.54845714285715,0.10624999999999996,-0.027249999999999996,-0.09033333333333338,0.1280000000000001,-0.026666666666670835,-0.061666666666667425,1.4815,1.4725000000000001,38.413,30.061,38.673,35.424,56.067,35.724000000000004,60.55,52.9955,53.977999999999994,34.7825,59.104,51.307,53.113,34.2815,59.0105,50.714,-0.11033333333333317,-0.047499999999999876,0.10713,0.10263000000000001,0.0,214.98000000000002,214.97500000000002,211.65666666666667,211.65666666666667,0.0,0.0
23,0.0,0.0,0.0,1.0,1.0,0.0,0.0,1.0,0.0,100.0,1.0,1.1856,26.0,0.0,0.0,0.0,59.999996,0.0,26.0,26.0,26.0,26.0,0.0202500000000001,0.26439999999999997,-0.0403,293.182,-2.6873,-2.6544285714285714,-1.6297000000000001,-1.4721250000000001,-198.26999999999998,215.56,190.5055,0.0,0.0,0.0,0.0,0.046599999999999975,-5.498166666666667,-5.498166666666667,-0.6168,-0.3226666666666667,0.012555555555555653,-0.7629999999999999,68.794,0.0179,-0.2788,-0.2400000000000002,100.0,1.0,1.0,212.14,0.0,0.0,0.0,0.0,0.0,0.0,0.0,8991.8,0.0,55.0,5.0,247.63333333333333,1.0,0.0,0.0,0.0,0.0,0.0,0.0,0.0,1.1550000000000011,1.1550000000000011,0.0,0.0,1.0,55.0,616.79921,10000.0,85.000001,85.000001,85.000001,85.000001,395.0,0.0,0.0,0.0,1.0,333.33500000000004,51.650999999999996,51.650999999999996,49.927,49.927,34.0,-24.715,25.33,-29.07,28.497500000000002,0.0,1782.262,-0.33500000000000085,100.0,28.33,28.427,41.073,41.416,0.0,0.0,100.0,0.0,0.0,0.0,0.0,3315.666666666667,3115.3,4153.285714285715,4133.6,304.8565,304.79466666666667,314.883,314.62375,21.995625,20.6555,22.038333333333334,21.5172,314.999998,314.999998,324.999988,324.999988,99.55931428571428,99.50805,99.57041428571429,99.5486,0.09925000000000006,-0.03149999999999997,-0.09766666666666657,0.13083333333333336,-0.06666666666666998,-0.04999999999999716,1.535,1.5244999999999997,38.473,30.0965,38.739000000000004,35.483000000000004,56.054,35.7645,60.587,53.061,53.966,34.8195,59.138999999999996,51.3705,53.099000000000004,34.317499999999995,59.042,50.77633333333333,-0.11099999999999999,-0.0495000000000001,0.10784,0.106425,0.0,215.37,215.375,212.14,212.14,0.0,0.0
24,0.0,0.0,0.0,1.0,1.0,0.0,0.0,1.0,0.0,100.0,1.0,1.1856,26.0,0.0,0.0,0.0,59.999996,0.0,26.0,26.0,26.0,26.0,0.023374999999999924,0.27249999999999996,-0.024800000000000003,293.564,-2.7082,-2.664857142857143,-1.5129000000000001,-1.501125,-194.95999999999998,215.54500000000002,190.483,0.0,0.0,0.0,0.0,0.04853333333333332,-5.498166666666667,-5.498166666666667,-0.6278,-0.3253333333333333,0.018111111111110967,-0.29499999999999993,68.92099999999999,0.020300000000000002,-0.2755,-0.24799999999999933,100.0,1.0,1.0,212.5,0.0,0.0,0.0,0.0,0.0,0.0,0.0,9007.1,0.0,55.0,5.0,248.08666666666664,0.0,0.0,0.0,0.0,0.0,0.0,0.0,0.0,1.2029999999999994,1.2029999999999994,0.0,0.0,0.0,55.0,616.79921,10000.0,85.000001,85.000001,85.000001,85.000001,395.0,0.0,0.0,0.0,1.0,166.665,52.551,52.551,49.606,49.606,34.0,-22.585,23.984,-28.17,28.705,0.0,1782.216,-0.370000000000001,100.0,28.132,28.209,40.981,41.282,0.0,0.0,100.0,0.0,0.0,0.0,0.0,3052.5,2996.4,4228.142857142857,4159.6,305.674,305.19933333333336,314.588,314.55625,22.0045,20.6608,22.048222222222222,21.5259,314.999998,314.999998,324.999988,324.999988,99.55932857142857,99.50805,99.57052857142857,99.54874285714286,0.09975,-0.03849999999999998,-0.09566666666666657,0.12116666666666687,-0.03499999999999659,-0.041666666666671404,1.5215,1.5055000000000005,38.528,30.1295,38.802,35.537,56.043,35.7965,60.617,53.1145,53.955,34.849000000000004,59.167,51.4215,53.088,34.3455,59.067,50.82666666666667,-0.1076666666666668,-0.0495000000000001,0.10728000000000001,0.09766000000000001,0.0,215.74,215.775,212.5,212.5,0.0,0.0
25,0.0,0.0,0.0,1.0,1.0,0.0,0.0,1.0,0.0,100.0,1.0,1.1856,26.0,0.0,0.0,0.0,59.999996,0.0,26.0,26.0,26.0,26.0,0.02937499999999993,0.25839999999999996,-0.0184,293.381,-2.7521,-2.6405714285714286,-1.5688,-1.502625,-191.45,215.5325,190.457625,0.0,0.0,0.0,0.0,0.05056666666666654,-5.498166666666667,-5.498166666666667,-0.6447,0.096,0.028999999999999915,0.3879999999999999,69.053,0.0181,-0.269,-0.31400000000000006,100.0,1.0,1.0,212.9766666666667,0.0,0.0,0.0,0.0,0.0,0.0,0.0,9027.3,0.0,55.0,5.0,248.56666666666666,1.0,0.0,0.0,0.0,0.0,0.0,0.0,0.0,1.2540000000000013,1.2540000000000013,0.0,0.0,1.0,55.0,616.79921,10000.0,85.000001,85.000001,85.000001,85.000001,395.0,0.0,0.0,0.0,1.0,333.33500000000004,51.772999999999996,51.772999999999996,50.049,50.049,34.0,-24.02,27.964,-26.08,30.075000000000003,0.0,1782.165,-0.4450000000000003,100.0,28.105,28.187,40.891,41.05,0.0,0.0,100.0,0.0,0.0,0.0,0.0,3219.666666666667,3362.5,3980.285714285714,4206.9,305.114,304.22933333333333,315.2343333333333,314.517,22.013875,20.6665,22.058777777777777,21.5351,314.999998,314.999998,324.999988,324.999988,99.55932857142857,99.50806666666666,99.57068571428572,99.54888571428572,0.11125000000000007,-0.01649999999999996,-0.08250000000000002,0.14349999999999996,-0.04999999999999716,-0.04333333333332945,1.5554999999999999,1.5309999999999997,38.587,30.1655,38.867000000000004,35.595,56.03,35.8335,60.6495,53.173500000000004,53.942,34.8835,59.197,51.479,53.074,34.379,59.094,50.882666666666665,-0.11233333333333317,-0.04800000000000004,0.09831000000000001,0.11135500000000001,0.0,216.18,216.175,212.9766666666667,212.9766666666667,0.0,0.0
26,0.0,0.0,0.0,1.0,1.0,0.0,0.0,1.0,0.0,100.0,1.0,1.1856,26.0,0.0,0.0,0.0,59.999996,0.0,26.0,26.0,26.0,26.0,0.034499999999999975,0.272,0.06960000000000001,292.419,-2.6859,-2.717714285714286,-1.5329000000000002,-1.4917500000000001,-187.92000000000002,215.51749999999998,190.432,0.0,0.0,0.0,0.0,0.05259999999999998,-5.498166666666667,-5.498166666666667,-0.6138,0.3863333333333333,0.012555555555555653,-0.875,69.189,0.0172,-0.25022500000000003,-0.3360000000000003,100.0,1.0,1.0,213.16,0.0,0.0,0.0,0.0,0.0,0.0,0.0,9035.0,0.0,55.0,5.0,249.05333333333334,0.0,0.0,0.0,0.0,0.0,0.0,0.0,0.0,1.3049999999999997,1.3049999999999997,0.0,0.0,0.0,55.0,616.79921,10000.0,85.000001,85.000001,85.000001,85.000001,395.0,0.0,0.0,0.0,1.0,333.33500000000004,51.544,51.544,48.599000000000004,48.599000000000004,34.0,-23.4825,25.144,-31.016666666666666,33.2,0.0,1782.113,-0.4800000000000004,100.0,28.725,28.882,41.29,41.615,0.0,0.0,100.0,0.0,0.0,0.0,0.0,3236.333333333333,3033.6,4530.714285714285,4538.2,305.137,304.9696666666667,313.8883333333333,313.61225,22.0235,20.6724,22.069444444444443,21.5446,314.999998,314.999998,324.999988,324.999988,99.55935714285714,99.50806666666666,99.57082857142858,99.54902857142856,0.11024999999999996,-0.033499999999999974,-0.09066666666666656,0.13816666666666677,-0.045000000000001705,-0.02833333333332888,1.435,1.4135,38.647,30.2025,38.934,35.653,56.019999999999996,35.8725,60.6855,53.237,53.933,34.92,59.2305,51.539500000000004,53.064,34.4135,59.125,50.94233333333334,-0.1213333333333333,-0.044500000000000206,0.10890500000000002,0.11540500000000001,0.0,216.62,216.61,213.16,213.16,0.0,0.0
27,0.0,0.0,0.0,1.0,1.0,0.0,0.0,1.0,0.0,100.0,1.0,1.1856,26.0,0.0,0.0,0.0,59.999996,0.0,26.0,26.0,26.0,26.0,0.05387500000000012,0.25250000000000017,-0.027450000000000002,293.06,-2.7511,-2.657285714285714,-1.581,-1.5818750000000001,-184.6,215.5075,190.409,0.0,0.0,0.0,0.0,0.05453333333333332,-5.498166666666667,-5.498166666666667,-0.6432,-1.0913333333333333,0.014000000000000012,-0.6790000000000003,69.312,0.0222,-0.30055000000000004,-0.3700000000000001,100.0,1.0,1.0,213.66333333333333,0.0,0.0,0.0,0.0,0.0,0.0,0.0,9056.4,0.0,55.0,5.0,249.5,1.0,0.0,0.0,0.0,0.0,0.0,0.0,0.0,1.352999999999998,1.352999999999998,0.0,0.0,1.0,55.0,616.79921,10000.0,85.000001,85.000001,85.000001,85.000001,395.0,0.0,0.0,0.0,1.0,333.33500000000004,51.819,51.819,49.164,49.164,34.0,-23.384999999999998,25.458,-28.42,29.9725,0.0,1782.066,-0.4349999999999987,100.0,28.446,28.779,41.506,41.746,0.0,0.0,100.0,0.0,0.0,0.0,0.0,3152.666666666667,3136.7,4183.0,4045.5,305.497,304.734,314.7626666666667,314.734,22.03225,20.6778,22.079555555555554,21.5535,314.999998,314.999998,324.999988,324.999988,99.55935714285714,99.50806666666666,99.57097142857143,99.54918571428571,0.10749999999999993,-0.03400000000000003,-0.08899999999999997,0.1393333333333333,-0.04999999999999716,-0.05666666666667197,1.505,1.4905,38.701,30.2365,38.997,35.709,56.009,35.908,60.7205,53.295500000000004,53.922,34.9525,59.2635,51.5965,53.052,34.445,59.1545,50.99766666666667,-0.12033333333333318,-0.04700000000000015,0.10674000000000002,0.10770500000000001,0.0,216.94,216.95499999999998,213.66333333333333,213.66333333333333,0.0,0.0
28,0.0,0.0,0.0,1.0,1.0,0.0,0.0,1.0,0.0,100.0,1.0,1.1856,26.0,0.0,0.0,0.0,59.999996,0.0,26.0,26.0,26.0,26.0,0.034250000000000114,0.2651000000000001,-0.054200000000000005,293.35,-2.6821,-2.6527142857142856,-1.5964,-1.527875,-181.06,215.495,190.38375,0.0,0.0,0.0,0.0,0.056599999999999984,-5.498166666666667,-5.498166666666667,-0.6515000000000001,0.7013333333333334,0.00955555555555554,0.532,69.441,0.024300000000000002,-0.27705,-0.4479999999999995,100.0,1.0,1.0,214.19666666666666,0.0,0.0,0.0,0.0,0.0,0.0,0.0,9079.1,0.0,55.0,5.0,249.96333333333334,0.0,0.0,0.0,0.0,0.0,0.0,0.0,0.0,1.404,1.404,0.0,0.0,0.0,55.0,616.79921,10000.0,85.000001,85.000001,85.000001,85.000001,395.0,0.0,0.0,0.0,1.0,166.665,51.757999999999996,51.757999999999996,50.14,50.14,34.0,-21.74,26.828,-26.96,29.835,0.0,1782.015,-0.48499999999999943,100.0,28.703,28.578,40.894,41.096000000000004,0.0,0.0,100.0,0.0,0.0,0.0,0.0,3061.6666666666665,3211.0,4038.5714285714284,4158.3,305.4585,304.6793333333333,315.1786666666667,314.646,22.041625,20.6837,22.09,21.5626,314.999998,314.999998,324.999988,324.999988,99.55938571428571,99.50808333333333,99.57111428571429,99.54932857142857,0.121,-0.012249999999999983,-0.08583333333333332,0.14183333333333326,-0.046666666666666856,-0.06333333333333258,1.5635,1.5540000000000003,38.76,30.273,39.062,35.766,55.998000000000005,35.946,60.7505,53.3535,53.912,34.988,59.291,51.652,53.04,34.479,59.179,51.05233333333334,-0.121,-0.03949999999999987,0.10773,0.10085500000000001,0.0,217.39,217.41,214.19666666666666,214.19666666666666,0.0,0.0
29,0.0,0.0,0.0,1.0,1.0,0.0,0.0,1.0,0.0,100.0,1.0,1.1856,26.0,0.0,0.0,0.0,59.999996,0.0,26.0,26.0,26.0,26.0,0.05699999999999994,0.25750000000000006,-0.0035,293.076,-2.6665,-2.7084285714285716,-1.5427,-1.511625,-177.51,215.485,190.35725,0.0,0.0,0.0,0.0,0.058666666666666534,-5.498166666666667,-5.498166666666667,-0.6488,-0.6966666666666667,0.0023333333333332984,-0.8940000000000001,69.576,0.0275,-0.26687500000000003,-0.4139999999999997,100.0,1.0,1.0,214.40333333333334,0.0,0.0,0.0,0.0,0.0,0.0,0.0,9087.7,0.0,55.0,5.0,250.44666666666666,1.0,0.0,0.0,0.0,0.0,0.0,0.0,0.0,1.4549999999999983,1.4549999999999983,0.0,0.0,1.0,55.0,616.79921,10000.0,85.000001,85.000001,85.000001,85.000001,395.0,0.0,0.0,0.0,1.0,333.33500000000004,52.231,52.231,49.194,49.194,34.0,-22.3975,25.344,-28.623333333333335,31.4375,0.0,1781.964,-0.5,100.0,28.154,28.5165,41.259,41.555,0.0,0.0,100.0,0.0,0.0,0.0,0.0,3130.0,3025.1,4255.714285714285,4325.8,305.5275,305.025,314.552,314.093,22.050875,20.6893,22.100666666666665,21.5721,314.999998,314.999998,324.999988,324.999988,99.5594,99.50808333333333,99.57127142857144,99.54947142857142,0.10875000000000012,-0.023749999999999938,-0.08850000000000002,0.13650000000000007,-0.03833333333332689,-0.051666666666669414,1.476,1.452,38.818,30.308500000000002,39.129000000000005,35.825,55.985,35.982,60.787,53.4155,53.899,35.021,59.3255,51.712,53.027,34.510999999999996,59.21,51.111000000000004,-0.11833333333333318,-0.040999999999999925,0.10446000000000001,0.10504500000000001,0.0,217.78,217.785,214.40333333333334,214.40333333333334,0.0,0.0
30,0.0,0.0,0.0,1.0,1.0,0.0,0.0,1.0,0.0,100.0,1.0,1.1856,26.0,0.0,0.0,0.0,59.999996,0.0,26.0,26.0,26.0,26.0,0.06162500000000004,0.24429999999999996,0.01115,292.48,-2.6856,-2.5905714285714287,-1.613,-1.5618750000000001,-174.17000000000002,215.47750000000002,190.33225,0.0,0.0,0.0,0.0,0.06059999999999999,-5.498166666666667,-5.498166666666667,-0.6556000000000001,0.7063333333333334,0.006444444444444253,-0.4780000000000002,69.696,0.028900000000000002,-0.280175,-0.45999999999999996,100.0,1.0,1.0,214.90666666666667,0.0,0.0,0.0,0.0,0.0,0.0,0.0,9109.1,0.0,55.0,5.0,250.88,0.0,0.0,0.0,0.0,0.0,0.0,1.0,0.0,1.5030000000000001,1.5030000000000001,0.0,0.0,0.0,55.0,616.79921,10000.0,85.000001,85.000001,85.000001,85.000001,395.0,0.0,0.0,0.0,1.0,166.665,50.323,50.323,49.683,49.683,34.0,-24.807499999999997,27.42,-28.4,30.355,0.0,1781.915,-0.495000000000001,100.0,29.151,29.2985,41.046,41.491,0.0,0.0,100.0,0.0,0.0,0.0,0.0,3397.0,3332.2,4173.571428571428,4115.7,304.543,304.009,314.951,314.604,22.059874999999998,20.695,22.110555555555557,21.5809,314.999998,314.999998,324.999988,324.999988,99.55941428571428,99.50808333333333,99.5714,99.54962857142857,0.11424999999999996,-0.020749999999999935,-0.08599999999999997,0.14183333333333326,-0.03999999999999915,-0.05333333333332746,1.512,1.505,38.875,30.344,39.191,35.879999999999995,55.977000000000004,36.019999999999996,60.817499999999995,53.4725,53.891999999999996,35.056,59.3535,51.766999999999996,53.019,34.5445,59.2355,51.16466666666666,-0.12399999999999989,-0.044500000000000206,0.102925,0.10419,0.0,218.16,218.18,214.90666666666667,214.90666666666667,0.0,0.0
31,0.0,0.0,0.0,1.0,1.0,0.0,0.0,1.0,0.0,100.0,1.0,1.1856,26.0,0.0,0.0,0.0,59.999996,0.0,26.0,26.0,26.0,26.0,0.04899999999999993,0.2552000000000001,0.0449,292.13,-2.7697000000000003,-2.620142857142857,-1.6086,-1.45975,-170.39999999999998,215.47,190.305,0.0,0.0,0.0,0.0,0.06279999999999997,-5.498166666666667,-5.498166666666667,-0.6401,-0.4836666666666667,0.010555555555555651,-0.9380000000000002,69.836,0.0349,-0.287625,-0.45999999999999996,100.0,1.0,1.0,215.15,0.0,0.0,0.0,0.0,0.0,0.0,0.0,9119.4,0.0,55.0,5.0,251.38666666666666,1.0,0.0,0.0,0.0,0.0,0.0,1.0,0.0,1.5569999999999986,1.5569999999999986,0.0,0.0,1.0,55.0,616.79921,10000.0,85.000001,85.000001,85.000001,85.000001,395.0,0.0,0.0,0.0,1.0,166.665,50.766,50.766,48.385999999999996,48.385999999999996,34.0,-24.049999999999997,27.172,-29.973333333333336,31.3625,0.0,1781.863,-0.5249999999999986,100.0,29.022,29.467,41.635,42.019000000000005,0.0,0.0,100.0,0.0,0.0,0.0,0.0,3278.0,3313.7,4347.857142857143,4349.4,305.1285,304.25733333333335,314.3233333333333,313.98775,22.069875,20.7013,22.122,21.591,314.999998,314.999998,324.999988,324.999988,99.55942857142857,99.50808333333333,99.57155714285715,99.54978571428572,0.12125000000000008,-0.02400000000000002,-0.07799999999999996,0.14066666666666672,-0.045000000000001705,-0.045000000000001705,1.436,1.4160000000000004,38.937,30.383,39.263,35.944,55.967,36.061,60.857,53.541,53.882,35.0945,59.3905,51.833,53.007,34.5815,59.2685,51.22933333333333,-0.1266666666666667,-0.045500000000000096,0.10431000000000001,0.10383,0.0,218.57999999999998,218.60000000000002,215.15,215.15,0.0,0.0
32,0.0,0.0,0.0,1.0,1.0,0.0,0.0,1.0,0.0,100.0,1.0,1.1856,26.0,0.0,0.0,0.0,59.999996,0.0,26.0,26.0,26.0,26.0,0.07137499999999997,0.28100000000000014,-0.01905,292.77,-2.6955,-2.678571428571429,-1.5505,-1.5113750000000001,-167.05,215.465,190.281125,0.0,0.0,0.0,0.0,0.06473333333333331,-5.498166666666667,-5.498166666666667,-0.6622,-0.3546666666666667,-0.007000000000000117,-0.8679999999999999,69.956,0.036000000000000004,-0.302875,-0.4720000000000004,100.0,1.0,1.0,215.63333333333333,0.0,0.0,0.0,0.0,0.0,0.0,0.0,9139.9,0.0,55.0,5.0,251.81666666666666,0.0,0.0,0.0,0.0,0.0,0.0,1.0,0.0,1.6050000000000004,1.6050000000000004,0.0,0.0,0.0,55.0,616.79921,10000.0,85.000001,85.000001,85.000001,85.000001,395.0,0.0,0.0,0.0,1.0,166.665,51.315,51.315,49.5,49.5,34.0,-22.557499999999997,26.27,-26.84666666666667,31.87,0.0,1781.815,-0.48499999999999943,100.0,28.882,29.2685,41.329,41.705,0.0,0.0,100.0,0.0,0.0,0.0,0.0,3190.166666666667,3111.4,4111.285714285715,4312.6,305.291,304.81666666666666,314.8933333333333,314.2495,22.078625,20.7068,22.132,21.5998,314.999998,314.999998,324.999988,324.999988,99.55944285714286,99.5081,99.5717,99.54992857142857,0.12450000000000006,-0.013749999999999929,-0.07799999999999996,0.15450000000000008,-0.051666666666669414,-0.06333333333333258,1.524,1.5120000000000005,38.992000000000004,30.4175,39.325,35.999,55.956,36.0965,60.888,53.5975,53.872,35.126999999999995,59.419,51.8875,52.995999999999995,34.613,59.2945,51.282666666666664,-0.1213333333333333,-0.04249999999999998,0.10736000000000001,0.106745,0.0,218.945,218.97500000000002,215.63333333333333,215.63333333333333,0.0,0.0
33,0.0,0.0,0.0,1.0,1.0,0.0,0.0,1.0,0.0,100.0,1.0,1.1856,26.0,0.0,0.0,0.0,59.999996,0.0,26.0,26.0,26.0,26.0,0.07187500000000013,0.2591000000000001,-0.0519,293.06,-2.729,-2.689285714285714,-1.5561,-1.546375,-163.69,215.46,190.256,0.0,0.0,0.0,0.0,0.06669999999999998,-5.498166666666667,-5.498166666666667,-0.6686000000000001,-0.126,-0.007888888888889056,-0.31700000000000017,70.076,0.0342,-0.280825,-0.4059999999999997,100.0,1.0,1.0,216.03,0.0,0.0,0.0,0.0,0.0,0.0,0.0,9156.7,0.0,55.0,5.0,252.24666666666667,1.0,0.0,0.0,0.0,0.0,0.0,1.0,0.0,1.6529999999999987,1.6529999999999987,0.0,0.0,1.0,55.0,616.79921,10000.0,85.000001,85.000001,85.000001,85.000001,395.0,0.0,0.0,0.0,1.0,166.665,51.727000000000004,51.727000000000004,49.759,49.759,34.0,-22.82,25.426000000000002,-27.53666666666666,31.3775,0.0,1781.767,-0.5449999999999982,100.0,28.671,28.977,41.102000000000004,41.476,0.0,0.0,100.0,0.0,0.0,0.0,0.0,3180.5,3032.2,4142.0,4217.5,305.39,305.06966666666665,314.88533333333334,314.4425,22.087375,20.7122,22.141777777777776,21.6086,314.999998,314.999998,324.999988,324.999988,99.55945714285714,99.5081,99.57184285714285,99.55007142857143,0.12224999999999997,-0.018000000000000016,-0.08550000000000002,0.15016666666666678,-0.04833333333333201,-0.04333333333332945,1.5115,1.5055000000000005,39.046,30.4515,39.385999999999996,36.054,55.946,36.129999999999995,60.918,53.653,53.861999999999995,35.158500000000004,59.447,51.9415,52.985,34.643,59.319,51.335,-0.1213333333333333,-0.03949999999999987,0.109505,0.11042500000000001,0.0,219.32,219.35000000000002,216.03,216.03,0.0,0.0
34,0.0,0.0,0.0,1.0,1.0,0.0,0.0,1.0,0.0,100.0,1.0,1.1856,26.0,0.0,0.0,0.0,59.999996,0.0,26.0,26.0,26.0,26.0,0.05712500000000009,0.2661,-0.0659,293.243,-2.6623,-2.681571428571429,-1.5897000000000001,-1.487125,-160.11,215.45749999999998,190.227875,0.0,0.0,0.0,0.0,0.06876666666666653,-5.498166666666667,-5.498166666666667,-0.6927,-0.871,0.015333333333333199,1.04,70.205,0.036000000000000004,-0.283675,-0.5179999999999998,100.0,1.0,1.0,216.37333333333333,0.0,0.0,0.0,0.0,0.0,0.0,0.0,9171.3,0.0,55.0,5.0,252.71333333333334,0.0,0.0,0.0,0.0,0.0,0.0,1.0,0.0,1.7040000000000006,1.7040000000000006,0.0,0.0,0.0,55.0,616.79921,10000.0,85.000001,85.000001,85.000001,85.000001,395.0,0.0,0.0,0.0,1.0,333.33500000000004,52.2,52.2,49.85,49.85,34.0,-20.6525,26.28,-27.156666666666666,31.9775,0.0,1781.714,-0.5350000000000001,100.0,28.543,28.453,41.153999999999996,41.509,0.0,0.0,100.0,0.0,0.0,0.0,0.0,3001.5,3113.6,4114.428571428572,4322.1,305.7355,305.108,314.894,314.25325,22.096625,20.7179,22.152333333333335,21.618,314.999998,314.999998,324.999988,324.999988,99.55947142857143,99.5081,99.57198571428572,99.55021428571429,0.129,-0.005750000000000033,-0.07166666666666666,0.15883333333333338,-0.054999999999999716,-0.03999999999999915,1.506,1.4779999999999998,39.104,30.487000000000002,39.452,36.113,55.933,36.165,60.95,53.7145,53.849999999999994,35.1905,59.477000000000004,52.0005,52.972,34.674,59.346000000000004,51.39333333333333,-0.121,-0.0365000000000002,0.107325,0.11321,0.0,219.715,219.72,216.37333333333333,216.37333333333333,0.0,0.0
35,0.0,0.0,0.0,1.0,1.0,0.0,0.0,1.0,0.0,100.0,1.0,1.1856,26.0,0.0,0.0,0.0,59.999996,0.0,26.0,26.0,26.0,26.0,0.06737499999999996,0.25140000000000007,-0.08205,293.167,-2.7966,-2.6571428571428575,-1.5886,-1.478,-156.31,215.45499999999998,190.196125,0.0,0.0,0.0,0.0,0.07099999999999995,-5.498166666666667,-5.498166666666667,-0.7298,0.01633333333333333,-0.0037777777777776578,-0.04899999999999993,70.338,0.0402,-0.2882,-0.5599999999999996,100.0,1.0,1.0,216.89666666666668,0.0,0.0,0.0,0.0,0.0,0.0,0.0,9193.5,0.0,55.0,5.0,253.19,1.0,0.0,0.0,0.0,0.0,0.0,1.0,0.0,1.7579999999999991,1.7579999999999991,0.0,0.0,1.0,55.0,616.79921,10000.0,85.000001,85.000001,85.000001,85.000001,395.0,0.0,0.0,0.0,1.0,166.665,51.559,51.559,49.484,49.484,34.0,-22.9125,28.884,-25.90333333333333,30.0325,0.0,1781.662,-0.3200000000000003,100.0,28.351,28.8495,41.019,41.125,0.0,0.0,100.0,0.0,0.0,0.0,0.0,3076.8333333333335,3399.9,3997.1428571428573,4109.9,305.4995,304.093,315.132,314.74875,22.10625,20.7242,22.163333333333334,21.6278,314.999998,314.999998,324.999988,324.999988,99.5595,99.50811666666667,99.57214285714285,99.55037142857142,0.12024999999999997,-0.010000000000000009,-0.0668333333333333,0.1648333333333334,-0.041666666666671404,-0.041666666666671404,1.54,1.5395000000000003,39.164,30.5265,39.521,36.174,55.92,36.2055,60.983000000000004,53.775,53.837,35.2285,59.5075,52.059,52.958,34.71,59.3735,51.45033333333333,-0.10499999999999998,-0.05049999999999999,0.107965,0.10733500000000001,0.0,220.12,220.155,216.89666666666668,216.89666666666668,0.0,0.0
