,ABS Active,ABS Enabled,AID Allow Tire Blankets,AID Auto Blip,AID Auto Clutch,AID Auto Shift,AID Fuel Rate,AID Ideal Line,AID Mech Damage,AID Stability,AID Tire Wear Rate,Air Density,Air Temp,Ballast,Best Lap Delta,Best Lap Time,Brake Bias,Brake Pos,Brake Temp FL,Brake Temp FR,Brake Temp RL,Brake Temp RR,CG Accel Lateral,CG Accel Longitudinal,CG Accel Vertical,CG Height,Camber FL,Camber FR,Camber RL,Camber RR,Car Coord X,Car Coord Y,Car Coord Z,Car Damage Front,Car Damage Left,Car Damage Rear,Car Damage Right,Car Pos Norm,Caster FL,Caster FR,Chassis Pitch Angle,Chassis Pitch Rate,Chassis Roll Angle,Chassis Roll Rate,Chassis Velocity X,Chassis Velocity Y,Chassis Velocity Z,Chassis Yaw Rate,Clutch Pos,DRS Active,DRS Available,Drive Train Speed,ERS Heat Charging,ERS Is Charging,ERS Max Energy,ERS Power Level,ERS Recovery Level,Engine Brake Setting,Engine Limiter,Engine RPM,Flags,Fuel Level,Gear,Ground Speed,HR Sample Clock,In Pit,KERS Charge,KERS Deployed Energy,KERS Input,KERS Max Energy,LR Sample Clock,Lap Invalidated,Lap Time,Lap Time2,Last Lap Time,Last Sector Time,MR Sample Clock,Max Fuel,Max Power,Max RPM,Max Sus Travel FL,Max Sus Travel FR,Max Sus Travel RL,Max Sus Travel RR,Max Torque,Max Turbo Boost,Num Tires Off Track,Penalties Enabled,Position,Raw Data Sample Rate,Ride Height FL,Ride Height FR,Ride Height RL,Ride Height RR,Road Temp,Self Align Torque FL,Self Align Torque FR,Self Align Torque RL,Self Align Torque RR,Session Lap Count,Session Time Left,Steering Angle,Surface Grip,Suspension Travel FL,Suspension Travel FR,Suspension Travel RL,Suspension Travel RR,TC Active,TC Enabled,Throttle Pos,Tire Dirt Level FL,Tire Dirt Level FR,Tire Dirt Level RL,Tire Dirt Level RR,Tire Load FL,Tire Load FR,Tire Load RL,Tire Load RR,Tire Loaded Radius FL,Tire Loaded Radius FR,Tire Loaded Radius RL,Tire Loaded Radius RR,Tire Pressure FL,Tire Pressure FR,Tire Pressure RL,Tire Pressure RR,Tire Radius FL,Tire Radius FR,Tire Radius RL,Tire Radius RR,Tire Rubber Grip FL,Tire Rubber Grip FR,Tire Rubber Grip RL,Tire Rubber Grip RR,Tire Slip Angle FL,Tire Slip Angle FR,Tire Slip Angle RL,Tire Slip Angle RR,Tire Slip Ratio FL,Tire Slip Ratio FR,Tire Slip Ratio RL,Tire Slip Ratio RR,Tire Temp Core FL,Tire Temp Core FR,Tire Temp Core RL,Tire Temp Core RR,Tire Temp Inner FL,Tire Temp Inner FR,Tire Temp Inner RL,Tire Temp Inner RR,Tire Temp Middle FL,Tire Temp Middle FR,Tire Temp Middle RL,Tire Temp Middle RR,Tire Temp Outer FL,Tire Temp Outer FR,Tire Temp Outer RL,Tire Temp Outer RR,Toe In FL,Toe In FR,Toe In RL,Toe In RR,Turbo Boost,Wheel Angular Speed FL,Wheel Angular Speed FR,Wheel Angular Speed RL,Wheel Angular Speed RR,Wind Direction,Wind Speed
0,0.0,0.0,0.0,1.0,1.0,0.0,0.0,1.0,0.0,100.0,1.0,1.1856,26.0,0.0,0.0,0.0,59.99999,0.0,26.0,26.0,26.0,26.0,-0.04677777777777781,0.27380000000000004,0.05973333333333334,293.976,-2.74775,-2.631555555555556,-1.5270000000000001,-1.5186000000000002,-275.79,215.695,190.988625,0.0,0.0,0.0,0.0,0.0015333333333333865,-5.498166666666667,-5.498166666666667,-0.5732,1.156,-0.0024444444444444713,0.21999999999999975,65.56700000000001,-0.030600000000000002,-0.2288,0.27399999999999913,100.0,1.0,1.0,202.45,0.0,0.0,0.0,0.0,0.0,0.0,0.0,8581.1,0.0,55.0,5.0,236.01,0.0,0.0,0.0,0.0,0.0,0.0,0.0,0.0,0.0030000000000001137,0.0030000000000001137,0.0,0.0,0.0,55.0,616.79921,10000.0,85.0,85.0,85.0,85.0,395.0,0.0,0.0,0.0,1.0,20.0,51.62,51.62,49.988,49.988,34.0,-29.09,30.838,-28.156666666666666,25.564999999999998,0.0,1783.486,0.375,100.0,27.017,26.645,39.912,39.605000000000004,0.0,0.0,100.0,0.0,0.0,0.0,0.0,3291.142857142857,4167.9,3950.375,4021.6000000000004,304.7595,302.071,315.22725,314.84725,21.7636,20.5277,21.7995,21.3124,314.99999,314.99999,324.99998,324.99998,99.55841428571429,99.50771666666667,99.56738571428572,99.54547142857143,0.01200000000000001,-0.09075,-0.14416666666666667,0.08450000000000002,-0.03499999999999659,-0.05333333333332746,1.5715,1.573,37.022,29.298000000000002,37.247,34.203,56.126999999999995,34.8045,59.8405,51.729,54.047,33.9525,58.4475,50.088499999999996,53.212,33.507,58.4195,49.519999999999996,-0.04200000000000004,-0.10400000000000009,0.10358,0.11112000000000001,0.0,205.44,205.4,202.45,202.45,0.0,0.0
1,0.0,0.0,0.0,1.0,1.0,0.0,0.0,1.0,0.0,100.0,1.0,1.1856,26.0,0.0,0.0,0.0,59.999996,0.0,26.0,26.0,26.0,26.0,-0.08233333333333337,0.3277000000000001,0.2876666666666667,292.709,-2.6555999999999997,-2.6977777777777776,-1.5404,-1.358,-272.44,215.7,190.96825,0.0,0.0,0.0,0.0,0.003466666666666507,-5.498166666666667,-5.498166666666667,-0.48950000000000005,-0.8286666666666667,-0.0477777777777777,-0.4889999999999999,65.725,-0.0337,-0.189925,0.9220000000000006,100.0,1.0,1.0,202.34333333333333,0.0,0.0,0.0,0.0,0.0,0.0,0.0,8576.6,0.0,55.0,5.0,236.57666666666665,1.0,0.0,0.0,0.0,0.0,0.0,0.0,0.0,0.053999999999998494,0.053999999999998494,0.0,0.0,1.0,55.0,616.79921,10000.0,85.000001,85.000001,85.000001,85.000001,395.0,0.0,0.0,0.0,1.0,166.665,53.894,53.894,48.019,48.019,34.0,-24.425,16.892,-39.65,32.89,0.0,1783.435,0.5100000000000016,100.0,27.541,27.308500000000002,41.481,41.496,0.0,0.0,100.0,0.0,0.0,0.0,0.0,2961.0,2504.1,4894.875,5447.9,305.85,306.78333333333336,312.862,311.139,21.7735,20.533,21.8106,21.3217,314.999998,314.999998,324.999988,324.999988,99.55842857142858,99.50775,99.56752857142857,99.54561428571428,0.022250000000000103,-0.11975000000000002,-0.16533333333333333,0.05333333333333323,-0.03999999999999915,-0.03499999999999659,1.2995,1.324,37.084,29.3315,37.316,34.2605,56.111999999999995,34.8445,59.8855,51.797,54.032,33.99,58.49,50.153,53.197,33.542500000000004,58.459,49.583666666666666,-0.03600000000000003,-0.125,0.10772000000000001,0.112405,0.0,205.95,205.85500000000002,202.34333333333333,202.34333333333333,0.0,0.0
2,0.0,0.0,0.0,1.0,1.0,0.0,0.0,1.0,0.0,100.0,1.0,1.1856,26.0,0.0,0.0,0.0,59.999996,0.0,26.0,26.0,26.0,26.0,-0.1193333333333334,0.2753000000000001,-0.10636666666666668,294.739,-2.61395,-2.6785555555555556,-1.4939,-1.5191,-269.08,215.7,190.950125,0.0,0.0,0.0,0.0,0.005433333333333401,-5.498166666666667,-5.498166666666667,-0.6037,-0.28,-0.027000000000000135,2.3689999999999998,65.861,-0.042,-0.32415,1.0620000000000012,100.0,1.0,1.0,203.68666666666667,0.0,0.0,0.0,0.0,0.0,0.0,0.0,8633.6,0.0,55.0,5.0,237.07333333333332,0.0,0.0,0.0,0.0,0.0,0.0,0.0,0.0,0.10500000000000043,0.10500000000000043,0.0,0.0,0.0,55.0,616.79921,10000.0,85.000001,85.000001,85.000001,85.000001,395.0,0.0,0.0,0.0,1.0,166.665,51.971000000000004,51.971000000000004,52.353,52.353,34.0,-29.1725,21.308,-24.446666666666665,18.0,0.0,1783.382,0.6350000000000016,100.0,28.35,27.237000000000002,40.733000000000004,40.226,0.0,0.0,100.0,0.0,0.0,0.0,0.0,3350.714285714286,3118.3,3488.5,3257.8,304.469,304.884,316.2715,316.76075,21.7836,20.5382,21.8213,21.3305,314.999998,314.999998,324.999988,324.999988,99.55842857142858,99.50776666666667,99.56768571428572,99.54575714285714,-0.0009999999999998899,-0.12675000000000003,-0.17133333333333334,0.05383333333333318,-0.07666666666666799,-0.0833333333333286,1.738,1.7785,37.147,29.363500000000002,37.382999999999996,34.3155,56.098,34.8855,59.922,51.8535,54.019,34.0275,58.5235,50.208,53.183,33.579,58.4895,49.63733333333333,-0.027499999999999858,-0.12550000000000017,0.10028000000000001,0.103995,0.0,206.32999999999998,206.23000000000002,203.68666666666667,203.68666666666667,0.0,0.0
3,0.0,0.0,0.0,1.0,1.0,0.0,0.0,1.0,0.0,100.0,1.0,1.1856,26.0,0.0,0.0,0.0,59.999996,0.0,26.0,26.0,26.0,26.0,-0.09133333333333338,0.30930000000000013,0.10863333333333333,294.189,-2.655,-2.6883333333333335,-1.49865,-1.4635,-265.92,215.6975,190.93125,0.0,0.0,0.0,0.0,0.0072666666666665325,-5.498166666666667,-5.498166666666667,-0.5328,1.147,0.004666666666666597,-0.5920000000000001,66.006,-0.059800000000000006,-0.212375,0.902000000000001,100.0,1.0,1.0,203.65,0.0,0.0,0.0,0.0,0.0,0.0,0.0,8632.0,0.0,55.0,5.0,237.59,1.0,0.0,0.0,0.0,0.0,0.0,0.0,0.0,0.1529999999999987,0.1529999999999987,0.0,0.0,1.0,55.0,616.79921,10000.0,85.000001,85.000001,85.000001,85.000001,395.0,0.0,0.0,0.0,1.0,166.665,53.558,53.558,49.53,49.53,34.0,-23.605,19.826,-32.53333333333333,25.075000000000003,0.0,1783.337,0.6050000000000004,100.0,27.841,27.234,40.537,40.228,0.0,0.0,100.0,0.0,0.0,0.0,0.0,2800.5714285714284,2931.9,4342.25,4252.3,306.3505,305.49733333333336,314.2715,314.28775,21.7927,20.5432,21.8312,21.3388,314.999998,314.999998,324.999988,324.999988,99.55842857142858,99.50776666666667,99.56781428571429,99.54588571428572,0.0022500000000000853,-0.12824999999999998,-0.16200000000000003,0.052166666666666694,-0.05666666666667197,-0.060000000000002274,1.495,1.5075,37.204,29.395,37.445,34.3675,56.082,34.9225,59.9525,51.908500000000004,54.004000000000005,34.0615,58.552,50.260999999999996,53.167,33.6115,58.5155,49.68966666666667,-0.03749999999999987,-0.12449999999999983,0.10143,0.11325,0.0,206.835,206.765,203.65,203.65,0.0,0.0
4,0.0,0.0,0.0,1.0,1.0,0.0,0.0,1.0,0.0,100.0,1.0,1.1856,26.0,0.0,0.0,0.0,59.999996,0.0,26.0,26.0,26.0,26.0,-0.11711111111111105,0.29879999999999995,0.0012000000000000001,294.052,-2.6493,-2.767444444444444,-1.439,-1.5859,-262.35,215.695,190.91025,0.0,0.0,0.0,0.0,0.009333333333333305,-5.498166666666667,-5.498166666666667,-0.5538000000000001,-1.2203333333333333,-0.055777777777777704,0.17600000000000016,66.163,-0.06670000000000001,-0.257575,1.1600000000000001,100.0,1.0,1.0,204.11,0.0,0.0,0.0,0.0,0.0,0.0,0.0,8651.5,0.0,55.0,5.0,238.16,0.0,0.0,0.0,0.0,0.0,0.0,0.0,0.0,0.20700000000000074,0.20700000000000074,0.0,0.0,0.0,55.0,616.79921,10000.0,85.000001,85.000001,85.000001,85.000001,395.0,0.0,0.0,0.0,1.0,111.11,53.085,53.085,49.82,49.82,34.0,-27.9225,20.392,-32.13666666666666,23.48,0.0,1783.283,0.7250000000000014,100.0,27.7,26.7445,41.361000000000004,40.586,0.0,0.0,100.0,0.0,0.0,0.0,0.0,3163.714285714286,2988.5,4245.75,3937.2,305.1525,305.3976666666667,314.4305,315.041,21.803,20.5487,21.8428,21.348399999999998,314.999998,314.999998,324.999988,324.999988,99.55842857142858,99.50778333333334,99.56795714285714,99.54602857142856,-0.011749999999999927,-0.14024999999999999,-0.1855,0.03483333333333327,-0.054999999999999716,-0.036666666666668846,1.5035,1.5525,37.269,29.429000000000002,37.518,34.4275,56.064,34.9645,59.9975,51.9735,53.986000000000004,34.1,58.594,50.323,53.149,33.6485,58.555,49.75033333333333,-0.01949999999999985,-0.1280000000000001,0.10334000000000002,0.10162,0.0,207.255,207.16500000000002,204.11,204.11,0.0,0.0
5,0.0,0.0,0.0,1.0,1.0,0.0,0.0,1.0,0.0,100.0,1.0,1.1856,26.0,0.0,0.0,0.0,59.999996,0.0,26.0,26.0,26.0,26.0,-0.10766666666666658,0.3062,-0.0572,294.495,-2.67215,-2.708,-1.49895,-1.5747,-258.97,215.6875,190.8905,0.0,0.0,0.0,0.0,0.011299999999999977,-5.498166666666667,-5.498166666666667,-0.5738,0.537,-0.04122222222222227,-0.22100000000000009,66.306,-0.0777,-0.26555,1.218,100.0,1.0,1.0,204.76666666666665,0.0,0.0,0.0,0.0,0.0,0.0,0.0,8679.3,0.0,55.0,5.0,238.67333333333335,1.0,0.0,0.0,0.0,0.0,0.0,0.0,0.0,0.2579999999999991,0.2579999999999991,0.0,0.0,1.0,55.0,616.79921,10000.0,85.000001,85.000001,85.000001,85.000001,395.0,0.0,0.0,0.0,1.0,166.665,53.009,53.009,50.934,50.934,34.0,-28.64,19.576,-31.04,21.305,0.0,1783.232,0.5150000000000006,100.0,27.75,27.0745,40.771,40.153999999999996,0.0,0.0,100.0,0.0,0.0,0.0,0.0,3203.714285714286,2921.1,3966.25,3831.8,305.1125,305.37333333333333,315.2265,315.33325,21.813,20.554,21.8535,21.3572,314.999998,314.999998,324.999988,324.999988,99.55844285714285,99.5078,99.56811428571429,99.54617142857143,-0.01649999999999996,-0.14074999999999993,-0.21216666666666661,0.01633333333333331,-0.051666666666669414,-0.05333333333332746,1.595,1.6595,37.331,29.4625,37.584,34.4825,56.05,35.006,60.0345,52.0285,53.973,34.1385,58.6285,50.376,53.135,33.685,58.586,49.802,-0.038000000000000034,-0.11450000000000005,0.108785,0.11192,0.0,207.745,207.65,204.76666666666665,204.76666666666665,0.0,0.0
6,0.0,0.0,0.0,1.0,1.0,0.0,0.0,1.0,0.0,100.0,1.0,1.1856,26.0,0.0,0.0,0.0,59.999996,0.0,26.0,26.0,26.0,26.0,-0.12711111111111106,0.30500000000000016,0.010066666666666668,294.312,-2.65645,-2.775666666666667,-1.5441,-1.5436,-255.98,215.6775,190.87225,0.0,0.0,0.0,0.0,0.013033333333333341,-5.498166666666667,-5.498166666666667,-0.5484,0.15866666666666665,-0.047666666666666746,0.6100000000000003,66.438,-0.079,-0.22762500000000002,0.8800000000000008,100.0,1.0,1.0,204.97,0.0,0.0,0.0,0.0,0.0,0.0,0.0,8687.9,0.0,55.0,5.0,239.14666666666668,0.0,0.0,0.0,0.0,0.0,0.0,0.0,0.0,0.3030000000000008,0.3030000000000008,0.0,0.0,0.0,55.0,616.79921,10000.0,85.000001,85.000001,85.000001,85.000001,395.0,0.0,0.0,0.0,1.0,166.665,53.711,53.711,49.835,49.835,34.0,-26.62,19.836,-34.47,24.740000000000002,0.0,1783.186,0.45500000000000185,100.0,27.511,26.583,41.016999999999996,40.217,0.0,0.0,100.0,0.0,0.0,0.0,0.0,3025.857142857143,2888.3,4311.5,4128.2,305.5615,305.6863333333333,314.30675,314.65775,21.8215,20.5586,21.863,21.365099999999998,314.999998,314.999998,324.999988,324.999988,99.55844285714285,99.50781666666667,99.56824285714286,99.54628571428572,-0.012499999999999956,-0.13674999999999993,-0.19066666666666665,0.04383333333333317,-0.036666666666668846,-0.05833333333333002,1.5015,1.5305,37.385,29.491,37.644,34.5315,56.035,35.041,60.069,52.0815,53.959,34.170500000000004,58.6605,50.427,53.12,33.716,58.6155,49.852000000000004,-0.03849999999999998,-0.10749999999999993,0.10210000000000001,0.112875,0.0,208.14499999999998,208.06,204.97,204.97,0.0,0.0
7,0.0,0.0,0.0,1.0,1.0,0.0,0.0,1.0,0.0,100.0,1.0,1.1856,26.0,0.0,0.0,0.0,59.999996,0.0,26.0,26.0,26.0,26.0,-0.08666666666666656,0.28700000000000014,0.003433333333333334,294.159,-2.6267,-2.774,-1.4995,-1.592,-252.59,215.66500000000002,190.851625,0.0,0.0,0.0,0.0,0.015033333333333343,-5.498166666666667,-5.498166666666667,-0.5606,-0.13866666666666666,-0.04355555555555579,-0.31199999999999983,66.582,-0.0757,-0.2509,0.7759999999999998,100.0,1.0,1.0,205.46333333333334,0.0,0.0,0.0,0.0,0.0,0.0,0.0,8708.8,0.0,55.0,5.0,239.67000000000002,1.0,0.0,0.0,0.0,0.0,0.0,0.0,0.0,0.3539999999999992,0.3539999999999992,0.0,0.0,1.0,55.0,616.79921,10000.0,85.000001,85.000001,85.000001,85.000001,395.0,0.0,0.0,0.0,1.0,166.665,53.055,53.055,50.232,50.232,34.0,-27.3175,20.924,-32.776666666666664,23.18,0.0,1783.136,0.010000000000001563,100.0,27.655,26.97,41.035,40.502,0.0,0.0,100.0,0.0,0.0,0.0,0.0,3219.857142857143,2898.4,4155.125,3927.8,305.1115,305.4186666666667,314.7255,315.0155,21.8314,20.5639,21.8738,21.3741,314.999998,314.999998,324.999988,324.999988,99.55844285714285,99.50783333333334,99.56838571428571,99.54642857142858,0.007249999999999979,-0.11775000000000002,-0.20133333333333336,0.02733333333333321,-0.036666666666668846,-0.054999999999999716,1.516,1.555,37.446,29.524,37.711,34.588,56.019999999999996,35.0805,60.108000000000004,52.141,53.945,34.207499999999996,58.6975,50.484,53.106,33.751,58.6495,49.907666666666664,-0.07050000000000001,-0.07799999999999985,0.10865000000000001,0.10874500000000001,0.0,208.56,208.485,205.46333333333334,205.46333333333334,0.0,0.0
8,0.0,0.0,0.0,1.0,1.0,0.0,0.0,1.0,0.0,100.0,1.0,1.1856,26.0,0.0,0.0,0.0,59.999996,0.0,26.0,26.0,26.0,26.0,-0.05699999999999994,0.28580000000000005,-0.015566666666666666,294.312,-2.7101,-2.6983333333333333,-1.4844,-1.5773000000000001,-248.99,215.65,190.82975,0.0,0.0,0.0,0.0,0.017100000000000004,-5.498166666666667,-5.498166666666667,-0.5669000000000001,-0.2,-0.02566666666666695,-0.9239999999999999,66.735,-0.0599,-0.254425,0.36400000000000077,100.0,1.0,1.0,205.93333333333334,0.0,0.0,0.0,0.0,0.0,0.0,0.0,8728.8,0.0,55.0,5.0,240.22,0.0,0.0,0.0,0.0,0.0,0.0,0.0,0.0,0.40800000000000125,0.40800000000000125,0.0,0.0,0.0,55.0,616.79921,10000.0,85.000001,85.000001,85.000001,85.000001,395.0,0.0,0.0,0.0,1.0,166.665,53.284,53.284,50.079,50.079,34.0,-26.34,21.39,-30.59,24.1,0.0,1783.082,-0.08500000000000085,100.0,27.333,27.139499999999998,40.918,40.565,0.0,0.0,100.0,0.0,0.0,0.0,0.0,3097.0,2968.5,4079.125,3955.9,305.53,305.24,314.915,314.945,21.8417,20.5695,21.8852,21.3836,314.999998,314.999998,324.999988,324.999988,99.55845714285714,99.50785,99.56852857142857,99.54657142857143,0.017749999999999932,-0.10350000000000004,-0.1778333333333334,0.045333333333333226,-0.051666666666669414,-0.045000000000001705,1.537,1.5534999999999999,37.510999999999996,29.5595,37.782,34.6475,56.003,35.1225,60.1485,52.2035,53.928,34.246,58.7345,50.544,53.088,33.788,58.684,49.96666666666667,-0.0774999999999999,-0.06999999999999984,0.10673,0.10849,0.0,209.025,208.995,205.93333333333334,205.93333333333334,0.0,0.0
9,0.0,0.0,0.0,1.0,1.0,0.0,0.0,1.0,0.0,100.0,1.0,1.1856,26.0,0.0,0.0,0.0,59.999996,0.0,26.0,26.0,26.0,26.0,-0.05511111111111111,0.2774000000000001,0.016,294.067,-2.62785,-2.716333333333333,-1.53515,-1.5356,-245.99,215.6325,190.81125,0.0,0.0,0.0,0.0,0.018866666666666587,-5.498166666666667,-5.498166666666667,-0.5633,0.295,-0.03266666666666662,0.79,66.862,-0.0456,-0.24532500000000002,0.07399999999999984,100.0,1.0,1.0,206.31333333333333,0.0,0.0,0.0,0.0,0.0,0.0,0.0,8744.9,0.0,55.0,5.0,240.67333333333335,1.0,0.0,0.0,0.0,0.0,0.0,0.0,0.0,0.4529999999999994,0.4529999999999994,0.0,0.0,1.0,55.0,616.79921,10000.0,85.000001,85.000001,85.000001,85.000001,395.0,0.0,0.0,0.0,1.0,166.665,52.902,52.902,50.293,50.293,34.0,-25.0775,23.15,-29.853333333333335,26.16,0.0,1783.037,-0.23499999999999943,100.0,27.766,27.0685,40.927,40.45,0.0,0.0,100.0,0.0,0.0,0.0,0.0,3133.714285714286,3058.1,4075.625,4114.7,305.216,305.1553333333333,314.8915,314.6925,21.8503,20.5743,21.8946,21.3915,314.999998,314.999998,324.999988,324.999988,99.55845714285714,99.50785,99.56867142857143,99.5467,0.04499999999999993,-0.07774999999999999,-0.14900000000000002,0.07600000000000007,-0.04333333333332945,-0.051666666666669414,1.5390000000000001,1.5465,37.564,29.5895,37.841,34.697,55.989999999999995,35.157,60.181,52.2555,53.916,34.278,58.765,50.594,53.076,33.8185,58.7115,50.01566666666667,-0.08949999999999991,-0.06199999999999983,0.10287,0.10316,0.0,209.425,209.405,206.31333333333333,206.31333333333333,0.0,0.0
10,0.0,0.0,0.0,1.0,1.0,0.0,0.0,1.0,0.0,100.0,1.0,1.1856,26.0,0.0,0.0,0.0,59.999996,0.0,26.0,26.0,26.0,26.0,-0.030444444444444385,0.28510000000000013,0.016966666666666668,293.945,-2.6865,-2.690888888888889,-1.49795,-1.5187,-242.37,215.615,190.78925,0.0,0.0,0.0,0.0,0.020966666666666578,-5.498166666666667,-5.498166666666667,-0.5575,-0.4003333333333333,-0.005666666666666931,1.678,67.016,-0.0269,-0.24705000000000002,-0.13399999999999945,100.0,1.0,1.0,206.68333333333334,0.0,0.0,0.0,0.0,0.0,0.0,0.0,8760.5,0.0,55.0,5.0,241.2266666666667,0.0,0.0,0.0,0.0,0.0,0.0,1.0,0.0,0.5069999999999979,0.5069999999999979,0.0,0.0,0.0,55.0,616.79921,10000.0,85.000001,85.000001,85.000001,85.000001,395.0,0.0,0.0,0.0,1.0,166.665,53.238,53.238,49.789,49.789,34.0,-23.14,23.466,-29.56,28.71,0.0,1782.982,-0.3550000000000004,100.0,27.758,27.076,41.127,40.777,0.0,0.0,100.0,0.0,0.0,0.0,0.0,2955.4285714285716,3040.1,4146.25,4281.8,305.757,305.253,314.68525,314.27325,21.860599999999998,20.5799,21.9061,21.4012,314.999998,314.999998,324.999988,324.999988,99.55845714285714,99.50786666666667,99.56881428571428,99.54685714285715,0.06450000000000022,-0.05974999999999997,-0.13716666666666666,0.09883333333333333,-0.041666666666671404,-0.04333333333332945,1.5065,1.4895,37.629000000000005,29.624499999999998,37.913,34.7575,55.974999999999994,35.1965,60.2215,52.320499999999996,53.902,34.314499999999995,58.803,50.6565,53.06,33.8535,58.7465,50.077,-0.10250000000000004,-0.04850000000000021,0.110725,0.11124,0.0,209.87,209.875,206.68333333333334,206.68333333333334,0.0,0.0
11,0.0,0.0,0.0,1.0,1.0,0.0,0.0,1.0,0.0,100.0,1.0,1.1856,26.0,0.0,0.0,0.0,59.999996,0.0,26.0,26.0,26.0,26.0,0.02155555555555555,0.2845,-0.060500000000000005,294.327,-2.6967,-2.6813333333333333,-1.5511,-1.4911,-238.95,215.595,190.76825,0.0,0.0,0.0,0.0,0.022599999999999953,-5.498166666666667,-5.498166666666667,-0.5848,-0.21466666666666667,0.014999999999999902,-0.5089999999999999,67.156,-0.013000000000000001,-0.26615,-0.22999999999999954,100.0,1.0,1.0,207.26999999999998,0.0,0.0,0.0,0.0,0.0,0.0,0.0,8785.5,0.0,55.0,5.0,241.73333333333335,1.0,0.0,0.0,0.0,0.0,0.0,1.0,0.0,0.5579999999999998,0.5579999999999998,0.0,0.0,1.0,55.0,616.79921,10000.0,85.000001,85.000001,85.000001,85.000001,395.0,0.0,0.0,0.0,1.0,166.665,53.024,53.024,50.598,50.598,34.0,-24.115,23.956,-26.566666666666663,26.3925,0.0,1782.931,-0.3999999999999986,100.0,27.366,27.3615,40.69,40.775,0.0,0.0,100.0,0.0,0.0,0.0,0.0,3116.5714285714284,3052.2,3900.375,4001.2,305.4745,305.0006666666667,315.3915,314.90275,21.8702,20.5854,21.9167,21.4103,314.999998,314.999998,324.999988,324.999988,99.55847142857142,99.50786666666667,99.56895714285714,99.54698571428571,0.07275000000000009,-0.054749999999999965,-0.1143333333333334,0.10983333333333323,-0.07166666666666544,-0.046666666666666856,1.5899999999999999,1.5715,37.689,29.6585,37.979,34.814,55.961,35.234,60.2555,52.379999999999995,53.888,34.349000000000004,58.8345,50.714,53.046,33.8865,58.775,50.13333333333333,-0.11050000000000004,-0.04200000000000026,0.096555,0.11112000000000001,0.0,210.32,210.29500000000002,207.26999999999998,207.26999999999998,0.0,0.0
12,0.0,0.0,0.0,1.0,1.0,0.0,0.0,1.0,0.0,100.0,1.0,1.1856,26.0,0.0,0.0,0.0,59.999996,0.0,26.0,26.0,26.0,26.0,-0.0014444444444444704,0.29600000000000004,-0.004200000000000001,294.022,-2.71755,-2.684333333333333,-1.52665,-1.5155,-235.92000000000002,215.5775,190.749,0.0,0.0,0.0,0.0,0.025466666666666526,-5.498166666666667,-5.498166666666667,-0.5738,0.4756666666666667,0.012111111111110962,0.8410000000000002,67.282,0.0011,-0.24127500000000002,-0.4679999999999991,100.0,1.0,1.0,207.57666666666665,0.0,0.0,0.0,0.0,0.0,0.0,0.0,8798.4,0.0,55.0,5.0,242.18666666666667,0.0,0.0,0.0,0.0,0.0,0.0,1.0,0.0,0.602999999999998,0.602999999999998,0.0,0.0,0.0,55.0,616.79921,10000.0,85.000001,85.000001,85.000001,85.000001,395.0,0.0,0.0,0.0,1.0,166.665,52.948,52.948,49.942,49.942,34.0,-24.107499999999998,24.59,-27.123333333333335,29.255,0.0,1782.886,0.054999999999999716,100.0,27.57,27.367,40.733000000000004,40.626,0.0,0.0,100.0,0.0,0.0,0.0,0.0,3016.0,3156.0,4097.125,4196.2,305.573,304.85433333333333,314.86625,314.53,21.8786,20.5903,21.926,21.4182,314.999998,314.999998,324.999988,324.999988,99.55848571428571,99.50788333333334,99.56908571428572,99.54711428571429,0.06174999999999997,-0.05774999999999997,-0.09599999999999997,0.12816666666666676,-0.05333333333332746,-0.041666666666671404,1.5635,1.5365,37.742000000000004,29.689,38.038,34.864,55.95,35.266999999999996,60.286,52.433,53.878,34.3795,58.863,50.7645,53.035,33.916,58.801,50.183,-0.07650000000000001,-0.06899999999999995,0.10902,0.107285,0.0,210.7,210.73000000000002,207.57666666666665,207.57666666666665,0.0,0.0
13,0.0,0.0,0.0,1.0,1.0,0.0,0.0,1.0,0.0,100.0,1.0,1.1856,26.0,0.0,0.0,0.0,59.999996,0.0,26.0,26.0,26.0,26.0,0.0431111111111111,0.28059999999999996,0.0325,293.61,-2.68855,-2.6966666666666668,-1.55545,-1.5224,-232.29,215.56,190.726,0.0,0.0,0.0,0.0,0.026833333333333376,-5.498166666666667,-5.498166666666667,-0.5677,-0.3113333333333333,0.01011111111111096,1.1950000000000003,67.434,0.0097,-0.25020000000000003,-0.45199999999999996,100.0,1.0,1.0,207.93333333333334,0.0,0.0,0.0,0.0,0.0,0.0,0.0,8813.5,0.0,55.0,5.0,242.73333333333335,1.0,0.0,0.0,0.0,0.0,0.0,1.0,0.0,0.657,0.657,0.0,0.0,1.0,55.0,616.79921,10000.0,85.000001,85.000001,85.000001,85.000001,395.0,0.0,0.0,0.0,1.0,166.665,52.734,52.734,49.637,49.637,34.0,-21.925,26.35,-27.49,31.105,0.0,1782.832,-0.48999999999999844,100.0,27.799,27.499,41.065,41.033,0.0,0.0,100.0,0.0,0.0,0.0,0.0,3029.714285714286,3143.9,4139.625,4356.6,305.5335,304.89233333333334,314.707,314.09575,21.8888,20.5961,21.9375,21.428,314.999998,314.999998,324.999988,324.999988,99.5585,99.50788333333334,99.56924285714285,99.54727142857143,0.11050000000000004,-0.01574999999999993,-0.08250000000000002,0.12916666666666687,-0.03999999999999915,-0.05333333333332746,1.501,1.476,37.805,29.726,38.108999999999995,34.925,55.937,35.3065,60.3255,52.5,53.864999999999995,34.416,58.9,50.829,53.021,33.951,58.8345,50.246,-0.12149999999999994,-0.03400000000000025,0.10132000000000001,0.09941000000000001,0.0,211.15,211.17000000000002,207.93333333333334,207.93333333333334,0.0,0.0
14,0.0,0.0,0.0,1.0,1.0,0.0,0.0,1.0,0.0,100.0,1.0,1.1856,26.0,0.0,0.0,0.0,59.999996,0.0,26.0,26.0,26.0,26.0,0.053777777777777924,0.2825,-0.034333333333333334,293.915,-2.7099,-2.6993333333333336,-1.5506,-1.5139,-228.84,215.54000000000002,190.70475,0.0,0.0,0.0,0.0,0.028833333333333377,-5.498166666666667,-5.498166666666667,-0.5858,-0.11233333333333333,0.022555555555555662,-0.48,67.572,0.0219,-0.270525,-0.48599999999999977,100.0,1.0,1.0,208.48333333333335,0.0,0.0,0.0,0.0,0.0,0.0,0.0,8836.9,0.0,55.0,5.0,243.23333333333335,0.0,0.0,0.0,0.0,0.0,0.0,1.0,0.0,0.7079999999999984,0.7079999999999984,0.0,0.0,0.0,55.0,616.79921,10000.0,85.000001,85.000001,85.000001,85.000001,395.0,0.0,0.0,0.0,1.0,166.665,52.628,52.628,50.186,50.186,34.0,-22.8825,25.198,-26.636666666666663,28.77,0.0,1782.781,-0.47499999999999787,100.0,27.689,27.9125,40.79,41.064,0.0,0.0,100.0,0.0,0.0,0.0,0.0,3101.714285714286,3044.4,3979.75,4099.8,305.5105,304.96066666666667,315.19975,314.65,21.8984,20.6017,21.9481,21.4372,314.999998,314.999998,324.999988,324.999988,99.55851428571428,99.50788333333334,99.56938571428572,99.54741428571428,0.10175000000000001,-0.02849999999999997,-0.09933333333333338,0.1323333333333332,-0.06499999999999773,-0.060000000000002274,1.5565,1.544,37.864999999999995,29.7605,38.175,34.9825,55.926,35.344,60.3595,52.561,53.854,34.4505,58.9315,50.8875,53.009,33.9835,58.863,50.303666666666665,-0.10949999999999993,-0.04249999999999998,0.11472500000000001,0.10142500000000002,0.0,211.59,211.61,208.48333333333335,208.48333333333335,0.0,0.0
15,0.0,0.0,0.0,1.0,1.0,0.0,0.0,1.0,0.0,100.0,1.0,1.1856,26.0,0.0,0.0,0.0,59.999996,0.0,26.0,26.0,26.0,26.0,0.05122222222222228,0.28070000000000017,-0.0010666666666666667,293.839,-2.6987,-2.6785555555555556,-1.56,-1.5312000000000001,-225.8,215.525,190.6855,0.0,0.0,0.0,0.0,0.03059999999999996,-5.498166666666667,-5.498166666666667,-0.5771000000000001,0.3263333333333333,0.03611111111111098,0.7940000000000005,67.696,0.030100000000000002,-0.253075,-0.5579999999999998,100.0,1.0,1.0,208.82333333333332,0.0,0.0,0.0,0.0,0.0,0.0,0.0,8851.2,0.0,55.0,5.0,243.67666666666668,1.0,0.0,0.0,0.0,0.0,0.0,1.0,0.0,0.7530000000000001,0.7530000000000001,0.0,0.0,1.0,55.0,616.79921,10000.0,85.000001,85.000001,85.000001,85.000001,395.0,0.0,0.0,0.0,1.0,166.665,52.719,52.719,50.003,50.003,34.0,-21.335,26.016,-26.33,31.892500000000002,0.0,1782.736,-0.39000000000000057,100.0,27.886,27.7875,40.765,40.967,0.0,0.0,100.0,0.0,0.0,0.0,0.0,2936.714285714286,3129.3,4013.0,4274.4,305.8075,304.861,315.071,314.27775,21.9069,20.6066,21.9574,21.4453,314.999998,314.999998,324.999988,324.999988,99.55851428571428,99.50788333333334,99.5695,99.54754285714286,0.10824999999999996,-0.01924999999999999,-0.08183333333333331,0.15833333333333321,-0.03833333333332689,-0.04999999999999716,1.53,1.525,37.918,29.7915,38.233999999999995,35.033,55.915,35.3765,60.388999999999996,52.6155,53.844,34.4805,58.959,50.9405,52.998000000000005,34.013,58.888,50.355333333333334,-0.10799999999999987,-0.047499999999999876,0.11582500000000001,0.11478500000000001,0.0,211.98000000000002,212.0,208.82333333333332,208.82333333333332,0.0,0.0
16,0.0,0.0,0.0,1.0,1.0,0.0,0.0,1.0,0.0,100.0,1.0,1.1856,26.0,0.0,0.0,0.0,59.999996,0.0,26.0,26.0,26.0,26.0,0.04966666666666675,0.26380000000000003,0.005433333333333333,293.716,-2.7571,-2.627666666666667,-1.53455,-1.5287000000000002,-222.14,215.51,190.66225,0.0,0.0,0.0,0.0,0.03273333333333339,-5.498166666666667,-5.498166666666667,-0.5891000000000001,-0.4646666666666667,0.025111111111111084,0.23500000000000032,67.844,0.0291,-0.26575,-0.3099999999999996,100.0,1.0,1.0,209.25666666666666,0.0,0.0,0.0,0.0,0.0,0.0,0.0,8869.6,0.0,55.0,5.0,244.21,0.0,0.0,0.0,0.0,0.0,0.0,1.0,0.0,0.8069999999999986,0.8069999999999986,0.0,0.0,0.0,55.0,616.79921,10000.0,85.000001,85.000001,85.000001,85.000001,395.0,0.0,0.0,0.0,1.0,166.665,52.46,52.46,49.774,49.774,34.0,-23.009999999999998,26.846,-25.669999999999998,30.3275,0.0,1782.683,-0.375,100.0,27.643,27.801000000000002,40.942,41.074,0.0,0.0,100.0,0.0,0.0,0.0,0.0,3085.285714285714,3252.1,4025.625,4134.7,305.447,304.547,315.01725,314.59025,21.9169,20.6126,21.9687,21.455,314.999998,314.999998,324.999988,324.999988,99.55854285714285,99.5079,99.56965714285714,99.5477,0.10899999999999999,-0.01474999999999993,-0.0721666666666666,0.15083333333333337,-0.01999999999999602,-0.060000000000002274,1.5215,1.513,37.980000000000004,29.8285,38.304,35.094,55.900999999999996,35.4155,60.427,52.681,53.831,34.516999999999996,58.994,51.0035,52.983999999999995,34.0475,58.92,50.41766666666666,-0.09999999999999987,-0.05149999999999988,0.10550000000000001,0.10537,0.0,212.39499999999998,212.44,209.25666666666666,209.25666666666666,0.0,0.0
17,0.0,0.0,0.0,1.0,1.0,0.0,0.0,1.0,0.0,100.0,1.0,1.1856,26.0,0.0,0.0,0.0,59.999996,0.0,26.0,26.0,26.0,26.0,0.028111111111111198,0.2882,0.031,293.396,-2.62805,-2.609111111111111,-1.57495,-1.4913,-218.68,215.495,190.64,0.0,0.0,0.0,0.0,0.034733333333333394,-5.498166666666667,-5.498166666666667,-0.5864,0.21233333333333335,-0.0007777777777779882,-0.9899999999999998,67.983,0.024900000000000002,-0.25775000000000003,-0.2599999999999998,100.0,1.0,1.0,209.63666666666666,0.0,0.0,0.0,0.0,0.0,0.0,0.0,8885.7,0.0,55.0,5.0,244.71,1.0,0.0,0.0,0.0,0.0,0.0,1.0,0.0,0.8580000000000005,0.8580000000000005,0.0,0.0,1.0,55.0,616.79921,10000.0,85.000001,85.000001,85.000001,85.000001,395.0,0.0,0.0,0.0,1.0,166.665,52.246,52.246,49.469,49.469,34.0,-22.8375,25.084,-29.38,30.18,0.0,1782.631,-0.3299999999999983,100.0,27.872,28.097,40.799,41.099000000000004,0.0,0.0,100.0,0.0,0.0,0.0,0.0,3184.4285714285716,3117.2,4340.625,4236.8,305.1805,304.782,314.42775,314.35175,21.9264,20.6182,21.9793,21.464199999999998,314.999998,314.999998,324.999988,324.999988,99.55854285714285,99.5079,99.5698,99.54784285714285,0.10400000000000009,-0.02749999999999997,-0.08766666666666656,0.14000000000000012,-0.054999999999999716,-0.03166666666666629,1.5150000000000001,1.5025,38.04,29.863999999999997,38.370000000000005,35.1515,55.891,35.4535,60.4615,52.742,53.82,34.5515,59.025999999999996,51.062,52.972,34.081,58.949,50.475,-0.10599999999999987,-0.05149999999999988,0.10760000000000002,0.10780500000000001,0.0,212.875,212.87,209.63666666666666,209.63666666666666,0.0,0.0
18,0.0,0.0,0.0,1.0,1.0,0.0,0.0,1.0,0.0,100.0,1.0,1.1856,26.0,0.0,0.0,0.0,59.999996,0.0,26.0,26.0,26.0,26.0,0.02011111111111119,0.2735000000000001,0.029233333333333333,293.35,-2.65,-2.605777777777778,-1.569,-1.4541,-215.61,215.48250000000002,190.620125,0.0,0.0,0.0,0.0,0.03653333333333331,-5.498166666666667,-5.498166666666667,-0.596,-0.3733333333333333,0.0067777777777777715,0.9180000000000001,68.105,0.019700000000000002,-0.267,-0.2560000000000002,100.0,1.0,1.0,209.99,0.0,0.0,0.0,0.0,0.0,0.0,0.0,8900.7,0.0,55.0,5.0,245.15,0.0,0.0,0.0,0.0,0.0,0.0,1.0,0.0,0.9029999999999987,0.9029999999999987,0.0,0.0,0.0,55.0,616.79921,10000.0,85.000001,85.000001,85.000001,85.000001,395.0,0.0,0.0,0.0,1.0,166.665,52.17,52.17,49.469,49.469,34.0,-22.39,26.902,-28.323333333333334,30.295,0.0,1782.587,-0.33500000000000085,100.0,27.946,27.822499999999998,41.018,41.074,0.0,0.0,100.0,0.0,0.0,0.0,0.0,3100.0,3321.4,4185.5,4333.3,305.31,304.3933333333333,314.66575,314.17775,21.9348,20.6231,21.9887,21.4724,314.999998,314.999998,324.999988,324.999988,99.55855714285714,99.50791666666667,99.56992857142858,99.54797142857143,0.10599999999999987,-0.02200000000000002,-0.08833333333333337,0.13766666666666683,-0.036666666666668846,-0.07000000000000028,1.4969999999999999,1.4969999999999999,38.092,29.8945,38.429,35.2025,55.879000000000005,35.4855,60.4925,52.797,53.81,34.5815,59.055,51.115,52.961,34.1095,58.9755,50.527,-0.10450000000000004,-0.053999999999999826,0.11041000000000001,0.104105,0.0,213.22500000000002,213.25,209.99,209.99,0.0,0.0
19,0.0,0.0,0.0,1.0,1.0,0.0,0.0,1.0,0.0,100.0,1.0,1.1856,26.0,0.0,0.0,0.0,59.999996,0.0,26.0,26.0,26.0,26.0,0.040888888888888975,0.28770000000000007,0.053566666666666665,293.167,-2.6516,-2.703444444444444,-1.5018,-1.5767,-212.14,215.47,190.5975,0.0,0.0,0.0,0.0,0.03853333333333331,-5.498166666666667,-5.498166666666667,-0.5898,0.6036666666666667,0.010333333333333306,-0.786,68.242,0.015700000000000002,-0.261025,-0.1739999999999995,100.0,1.0,1.0,210.42000000000002,0.0,0.0,0.0,0.0,0.0,0.0,0.0,8918.9,0.0,55.0,5.0,245.64333333333335,1.0,0.0,0.0,0.0,0.0,0.0,1.0,0.0,0.9540000000000006,0.9540000000000006,0.0,0.0,1.0,55.0,616.79921,10000.0,85.000001,85.000001,85.000001,85.000001,395.0,0.0,0.0,0.0,1.0,166.665,51.834,51.834,49.698,49.698,34.0,-23.4525,25.048000000000002,-27.736666666666665,31.995,0.0,1782.536,-0.2749999999999986,100.0,28.33,28.437,40.821,41.236000000000004,0.0,0.0,100.0,0.0,0.0,0.0,0.0,3189.0,3080.7,4201.625,4301.4,305.194,304.7676666666667,314.68925,314.0645,21.9444,20.6288,21.9992,21.4816,314.999998,314.999998,324.999988,324.999988,99.55857142857143,99.50791666666667,99.57007142857142,99.54812857142858,0.09575000000000022,-0.044499999999999984,-0.09399999999999997,0.13549999999999995,-0.046666666666666856,-0.046666666666666856,1.4945,1.4869999999999999,38.153,29.930500000000002,38.495000000000005,35.26,55.869,35.5245,60.5255,52.858000000000004,53.8,34.6175,59.086,51.174,52.95,34.144,59.0035,50.584666666666664,-0.10250000000000004,-0.058499999999999996,0.102915,0.108475,0.0,213.70499999999998,213.685,210.42000000000002,210.42000000000002,0.0,0.0
20,0.0,0.0,0.0,1.0,1.0,0.0,0.0,1.0,0.0,100.0,1.0,1.1856,26.0,0.0,0.0,0.0,59.999996,0.0,26.0,26.0,26.0,26.0,0.02288888888888896,0.2631000000000001,0.006666666666666667,293.442,-2.7186,-2.660222222222222,-1.5086,-1.5588000000000002,-208.64999999999998,215.45749999999998,190.575,0.0,0.0,0.0,0.0,0.04056666666666653,-5.498166666666667,-5.498166666666667,-0.5924,-0.901,0.013777777777777889,0.6080000000000005,68.38,0.0115,-0.27265,-0.1720000000000006,100.0,1.0,1.0,210.79666666666668,0.0,0.0,0.0,0.0,0.0,0.0,0.0,8934.9,0.0,55.0,5.0,246.14333333333335,0.0,0.0,0.0,0.0,0.0,0.0,0.0,0.0,1.004999999999999,1.004999999999999,0.0,0.0,0.0,55.0,616.79921,10000.0,85.000001,85.000001,85.000001,85.000001,395.0,0.0,0.0,0.0,1.0,166.665,52.475,52.475,49.376999999999995,49.376999999999995,34.0,-22.4225,25.628,-27.596666666666664,30.6825,0.0,1782.483,-0.28999999999999915,100.0,28.036,27.9725,41.323,41.399,0.0,0.0,100.0,0.0,0.0,0.0,0.0,3015.0,3146.2,4129.125,4223.8,305.629,304.89666666666665,314.72825,314.332,21.9538,20.6344,22.009999999999998,21.4909,314.999998,314.999998,324.999988,324.999988,99.55858571428571,99.50791666666667,99.57021428571429,99.54827142857143,0.10175000000000001,-0.026249999999999996,-0.09450000000000003,0.129,-0.03833333333332689,-0.06499999999999773,1.4615,1.4685,38.211,29.965,38.563,35.318,55.855999999999995,35.5615,60.5625,52.921,53.787,34.6515,59.1205,51.235,52.936,34.177,59.0345,50.644333333333336,-0.10250000000000004,-0.0535000000000001,0.10463000000000001,0.10084000000000001,0.0,214.075,214.07999999999998,210.79666666666668,210.79666666666668,0.0,0.0
21,0.0,0.0,0.0,1.0,1.0,0.0,0.0,1.0,0.0,100.0,1.0,1.1856,26.0,0.0,0.0,0.0,59.999996,0.0,26.0,26.0,26.0,26.0,0.028888888888888964,0.26900000000000013,-0.0557,293.808,-2.7192,-2.6608888888888886,-1.5540500000000002,-1.499,-205.16,215.4475,190.55225,0.0,0.0,0.0,0.0,0.04259999999999997,-5.498166666666667,-5.498166666666667,-0.6161,0.09766666666666668,-0.00022222222222234578,-0.75,68.513,0.0106,-0.27490000000000003,-0.1720000000000006,100.0,1.0,1.0,211.38333333333333,0.0,0.0,0.0,0.0,0.0,0.0,0.0,8959.8,0.0,55.0,5.0,246.62,1.0,0.0,0.0,0.0,0.0,0.0,0.0,0.0,1.056000000000001,1.056000000000001,0.0,0.0,1.0,55.0,616.79921,10000.0,85.000001,85.000001,85.000001,85.000001,395.0,0.0,0.0,0.0,1.0,166.665,52.292,52.292,50.339,50.339,34.0,-24.6125,24.939999999999998,-27.31,27.05,0.0,1782.433,-0.28999999999999915,100.0,27.967,28.02,40.748000000000005,40.983000000000004,0.0,0.0,100.0,0.0,0.0,0.0,0.0,3224.142857142857,3093.8,4045.5,4005.7,305.193,304.90233333333333,315.09725,314.94425,21.9633,20.6401,22.0205,21.5,314.999998,314.999998,324.999988,324.999988,99.5586,99.50791666666667,99.57037142857143,99.54841428571429,0.0887500000000001,-0.036250000000000004,-0.10183333333333333,0.11933333333333329,-0.046666666666666856,-0.051666666666669414,1.557,1.558,38.271,30.000500000000002,38.628,35.375,55.844,35.599000000000004,60.5945,52.979,53.775999999999996,34.6865,59.15,51.291,52.924,34.210499999999996,59.0615,50.699333333333335,-0.10699999999999998,-0.053999999999999826,0.10366500000000001,0.09792500000000001,0.0,214.515,214.515,211.38333333333333,211.38333333333333,0.0,0.0
22,0.0,0.0,0.0,1.0,1.0,0.0,0.0,1.0,0.0,100.0,1.0,1.1856,26.0,0.0,0.0,0.0,59.999996,0.0,26.0,26.0,26.0,26.0,0.014444444444444482,0.28770000000000007,0.010433333333333333,293.274,-2.75935,-2.6295555555555556,-1.5737999999999999,-1.4991,-201.67000000000002,215.4375,190.528375,0.0,0.0,0.0,0.0,0.0446333333333333,-5.498166666666667,-5.498166666666667,-0.5968,0.07966666666666668,0.010444444444444256,1.178,68.651,0.0134,-0.2452,-0.2839999999999998,100.0,1.0,1.0,211.61333333333334,0.0,0.0,0.0,0.0,0.0,0.0,0.0,8969.5,0.0,55.0,5.0,247.11666666666667,0.0,0.0,0.0,0.0,0.0,0.0,0.0,0.0,1.1069999999999993,1.1069999999999993,0.0,0.0,0.0,55.0,616.79921,10000.0,85.000001,85.000001,85.000001,85.000001,395.0,0.0,0.0,0.0,1.0,166.665,52.414,52.414,49.301,49.301,34.0,-23.365,25.47,-29.346666666666664,31.5075,0.0,1782.383,-0.3249999999999993,100.0,28.157,27.9425,41.077,41.069,0.0,0.0,100.0,0.0,0.0,0.0,0.0,3062.285714285714,3184.3,4285.25,4460.5,305.565,304.84833333333336,314.436,313.9165,21.9728,20.6457,22.0311,21.5092,314.999998,314.999998,324.999988,324.999988,99.55861428571428,99.50793333333333,99.5705,99.54857142857144,0.09600000000000009,-0.03025,-0.08883333333333332,0.1266666666666667,-0.04333333333332945,-0.045000000000001705,1.478,1.4729999999999999,38.33,30.0355,38.694,35.4325,55.832,35.6365,60.629999999999995,53.04,53.763999999999996,34.721000000000004,59.1835,51.3495,52.911,34.2435,59.091499999999996,50.75666666666667,-0.10299999999999998,-0.04899999999999993,0.10712500000000001,0.10051,0.0,214.94,214.945,211.61333333333334,211.61333333333334,0.0,0.0
23,0.0,0.0,0.0,1.0,1.0,0.0,0.0,1.0,0.0,100.0,1.0,1.1856,26.0,0.0,0.0,0.0,59.999996,0.0,26.0,26.0,26.0,26.0,0.024111111111111194,0.2771000000000001,0.0074333333333333335,293.152,-2.6663,-2.6768888888888887,-1.6163,-1.4704000000000002,-198.16,215.425,190.50475,0.0,0.0,0.0,0.0,0.04666666666666652,-5.498166666666667,-5.498166666666667,-0.6152000000000001,-0.339,0.010333333333333306,-0.7509999999999999,68.786,0.0148,-0.27740000000000004,-0.1979999999999995,100.0,1.0,1.0,212.07666666666665,0.0,0.0,0.0,0.0,0.0,0.0,0.0,8989.1,0.0,55.0,5.0,247.60000000000002,1.0,0.0,0.0,0.0,0.0,0.0,0.0,0.0,1.1580000000000013,1.1580000000000013,0.0,0.0,1.0,55.0,616.79921,10000.0,85.000001,85.000001,85.000001,85.000001,395.0,0.0,0.0,0.0,1.0,166.665,51.788,51.788,49.683,49.683,34.0,-24.085,25.13,-30.24,28.6675,0.0,1782.332,-0.3200000000000003,100.0,28.31,28.368000000000002,41.083,41.372,0.0,0.0,100.0,0.0,0.0,0.0,0.0,3255.142857142857,3095.5,4245.375,4211.2,304.995,304.811,314.65525,314.4265,21.9822,20.6514,22.0418,21.5186,314.999998,314.999998,324.999988,324.999988,99.55862857142857,99.50793333333333,99.57065714285714,99.54871428571428,0.09799999999999986,-0.03774999999999995,-0.10566666666666658,0.12149999999999994,-0.04999999999999716,-0.03499999999999659,1.504,1.5175,38.388999999999996,30.0715,38.760999999999996,35.491,55.82,35.675,60.6655,53.1025,53.753,34.7565,59.216,51.4095,52.899,34.2775,59.121,50.815666666666665,-0.10349999999999993,-0.05650000000000022,0.11213500000000001,0.10502500000000001,0.0,215.32999999999998,215.32999999999998,212.07666666666665,212.07666666666665,0.0,0.0
24,0.0,0.0,0.0,1.0,1.0,0.0,0.0,1.0,0.0,100.0,1.0,1.1856,26.0,0.0,0.0,0.0,59.999996,0.0,26.0,26.0,26.0,26.0,0.019888888888888845,0.27570000000000006,-0.050300000000000004,293.579,-2.6803,-2.6688888888888886,-1.51825,-1.5077,-195.06,215.41750000000002,190.48375,0.0,0.0,0.0,0.0,0.04846666666666655,-5.498166666666667,-5.498166666666667,-0.6296,-0.381,0.014555555555555655,1.162,68.903,0.0173,-0.27915,-0.31399999999999917,100.0,1.0,1.0,212.46666666666667,0.0,0.0,0.0,0.0,0.0,0.0,0.0,9005.6,0.0,55.0,5.0,248.02666666666664,0.0,0.0,0.0,0.0,0.0,0.0,0.0,0.0,1.2029999999999994,1.2029999999999994,0.0,0.0,0.0,55.0,616.79921,10000.0,85.000001,85.000001,85.000001,85.000001,395.0,0.0,0.0,0.0,1.0,166.665,52.505,52.505,49.744,49.744,34.0,-21.64,25.392,-27.416666666666664,29.91,0.0,1782.286,-0.34499999999999886,100.0,28.331,28.014499999999998,41.087,41.125,0.0,0.0,100.0,0.0,0.0,0.0,0.0,2974.714285714286,3092.8,4142.25,4186.2,305.7205,305.07866666666666,314.71075,314.557,21.9905,20.6564,22.051099999999998,21.526699999999998,314.999998,314.999998,324.999988,324.999988,99.55862857142857,99.50795,99.57077142857143,99.54884285714286,0.10524999999999984,-0.021499999999999964,-0.09050000000000002,0.14016666666666677,-0.03833333333332689,-0.046666666666666856,1.5165,1.5055,38.441,30.1025,38.82,35.542,55.809,35.707,60.695,53.155,53.742999999999995,34.786,59.244,51.460499999999996,52.888,34.306,59.146,50.86533333333333,-0.10450000000000004,-0.04850000000000021,0.109325,0.10544,0.0,215.7,215.715,212.46666666666667,212.46666666666667,0.0,0.0
25,0.0,0.0,0.0,1.0,1.0,0.0,0.0,1.0,0.0,100.0,1.0,1.1856,26.0,0.0,0.0,0.0,59.999996,0.0,26.0,26.0,26.0,26.0,0.0411111111111111,0.26280000000000014,-0.03283333333333333,293.396,-2.75215,-2.638777777777778,-1.5671,-1.4961,-191.54,215.4075,190.458375,0.0,0.0,0.0,0.0,0.05049999999999999,-5.498166666666667,-5.498166666666667,-0.6443,0.08266666666666668,0.024555555555555664,-0.8609999999999998,69.036,0.020300000000000002,-0.269125,-0.28799999999999937,100.0,1.0,1.0,212.92333333333335,0.0,0.0,0.0,0.0,0.0,0.0,0.0,9025.1,0.0,55.0,5.0,248.50333333333333,1.0,0.0,0.0,0.0,0.0,0.0,0.0,0.0,1.2540000000000013,1.2540000000000013,0.0,0.0,1.0,55.0,616.79921,10000.0,85.000001,85.000001,85.000001,85.000001,395.0,0.0,0.0,0.0,1.0,166.665,51.819,51.819,50.064,50.064,34.0,-25.1375,26.552,-26.9,28.7975,0.0,1782.235,-0.34499999999999886,100.0,27.994,28.3005,40.79,41.068,0.0,0.0,100.0,0.0,0.0,0.0,0.0,3302.857142857143,3250.8,4044.75,4151.3,305.024,304.41366666666664,315.12875,314.579,21.9999,20.6621,22.0616,21.535899999999998,314.999998,314.999998,324.999988,324.999988,99.55864285714286,99.50795,99.57092857142857,99.54898571428572,0.09825000000000017,-0.028249999999999997,-0.08966666666666656,0.1280000000000001,-0.04333333333332945,-0.04333333333332945,1.5474999999999999,1.5345,38.498999999999995,30.137999999999998,38.885,35.5995,55.796,35.7445,60.7275,53.214,53.730000000000004,34.821,59.274,51.516999999999996,52.875,34.3395,59.1735,50.921,-0.10650000000000004,-0.05250000000000021,0.10236500000000001,0.101345,0.0,216.115,216.115,212.92333333333335,212.92333333333335,0.0,0.0
26,0.0,0.0,0.0,1.0,1.0,0.0,0.0,1.0,0.0,100.0,1.0,1.1856,26.0,0.0,0.0,0.0,59.999996,0.0,26.0,26.0,26.0,26.0,0.028111111111111198,0.2801,0.09240000000000001,292.48,-2.7063,-2.725888888888889,-1.5265,-1.5229,-188.01999999999998,215.4,190.43275,0.0,0.0,0.0,0.0,0.05256666666666654,-5.498166666666667,-5.498166666666667,-0.616,0.337,0.013333333333333197,0.8140000000000001,69.172,0.0222,-0.25220000000000004,-0.3520000000000003,100.0,1.0,1.0,213.12,0.0,0.0,0.0,0.0,0.0,0.0,0.0,9033.3,0.0,55.0,5.0,248.99333333333334,0.0,0.0,0.0,0.0,0.0,0.0,0.0,0.0,1.3049999999999997,1.3049999999999997,0.0,0.0,0.0,55.0,616.79921,10000.0,85.000001,85.000001,85.000001,85.000001,395.0,0.0,0.0,0.0,1.0,166.665,51.528999999999996,51.528999999999996,48.737,48.737,34.0,-23.05,26.0,-29.473333333333333,34.317499999999995,0.0,1782.185,-0.34499999999999886,100.0,28.935,28.6895,41.383,41.447,0.0,0.0,100.0,0.0,0.0,0.0,0.0,3150.142857142857,3130.5,4440.875,4579.6,305.2595,304.87966666666665,314.02625,313.583,22.0094,20.6679,22.0723,21.5453,314.999998,314.999998,324.999988,324.999988,99.55865714285714,99.50795,99.57107142857143,99.54914285714285,0.11125000000000007,-0.03049999999999997,-0.07650000000000001,0.14500000000000002,-0.05333333333332746,-0.045000000000001705,1.4315,1.4224999999999999,38.559,30.174500000000002,38.952,35.658,55.787,35.783500000000004,60.7635,53.277,53.721000000000004,34.857,59.3075,51.5775,52.864000000000004,34.374,59.2035,50.980333333333334,-0.11050000000000004,-0.05549999999999988,0.098335,0.11046500000000001,0.0,216.575,216.56,213.12,213.12,0.0,0.0
27,0.0,0.0,0.0,1.0,1.0,0.0,0.0,1.0,0.0,100.0,1.0,1.1856,26.0,0.0,0.0,0.0,59.999996,0.0,26.0,26.0,26.0,26.0,0.035222222222222266,0.2590000000000001,-0.04533333333333334,293.076,-2.7549,-2.6624444444444446,-1.58285,-1.5029,-184.49,215.39249999999998,190.40825,0.0,0.0,0.0,0.0,0.05459999999999998,-5.498166666666667,-5.498166666666667,-0.6467,-0.968,0.018333333333333313,-0.5469999999999997,69.303,0.0212,-0.30255000000000004,-0.25399999999999956,100.0,1.0,1.0,213.64333333333332,0.0,0.0,0.0,0.0,0.0,0.0,0.0,9055.6,0.0,55.0,5.0,249.46666666666667,1.0,0.0,0.0,0.0,0.0,0.0,0.0,0.0,1.355999999999998,1.355999999999998,0.0,0.0,1.0,55.0,616.79921,10000.0,85.000001,85.000001,85.000001,85.000001,395.0,0.0,0.0,0.0,1.0,166.665,51.712,51.712,49.271,49.271,34.0,-24.1275,25.537999999999997,-28.406666666666666,28.91,0.0,1782.133,-0.40500000000000114,100.0,28.48,28.8095,41.419,41.589,0.0,0.0,100.0,0.0,0.0,0.0,0.0,3174.4285714285716,3140.3,4169.75,4134.6,305.406,304.70433333333335,314.79325,314.64025,22.0187,20.6737,22.0831,21.5547,314.999998,314.999998,324.999988,324.999988,99.55867142857143,99.50795,99.57121428571429,99.54928571428572,0.09650000000000025,-0.034499999999999975,-0.09133333333333338,0.129,-0.046666666666666856,-0.046666666666666856,1.518,1.508,38.617000000000004,30.2105,39.019999999999996,35.717,55.775,35.8215,60.8,53.339,53.71,34.8925,59.341499999999996,51.6375,52.852000000000004,34.408,59.2345,51.039,-0.10549999999999993,-0.052000000000000046,0.09979,0.10045000000000001,0.0,216.92000000000002,216.91500000000002,213.64333333333332,213.64333333333332,0.0,0.0
28,0.0,0.0,0.0,1.0,1.0,0.0,0.0,1.0,0.0,100.0,1.0,1.1856,26.0,0.0,0.0,0.0,59.999996,0.0,26.0,26.0,26.0,26.0,0.03222222222222215,0.2634000000000001,-0.05856666666666666,293.32,-2.68275,-2.6542222222222223,-1.5951,-1.5304,-180.95,215.3875,190.383,0.0,0.0,0.0,0.0,0.05666666666666653,-5.498166666666667,-5.498166666666667,-0.6505000000000001,0.686,0.008333333333333304,0.43100000000000005,69.432,0.0177,-0.27537500000000004,-0.38399999999999945,100.0,1.0,1.0,214.15333333333334,0.0,0.0,0.0,0.0,0.0,0.0,0.0,9077.2,0.0,55.0,5.0,249.93,0.0,0.0,0.0,0.0,0.0,0.0,0.0,0.0,1.407,1.407,0.0,0.0,0.0,55.0,616.79921,10000.0,85.000001,85.000001,85.000001,85.000001,395.0,0.0,0.0,0.0,1.0,166.665,51.788,51.788,49.896,49.896,34.0,-21.5,26.65,-27.7,30.4425,0.0,1782.081,-0.509999999999998,100.0,28.686,28.5985,40.884,41.064,0.0,0.0,100.0,0.0,0.0,0.0,0.0,3031.857142857143,3205.6,4117.125,4173.3,305.5055,304.695,314.98125,314.631,22.0281,20.6795,22.0935,21.5639,314.999998,314.999998,324.999988,324.999988,99.55868571428572,99.50796666666666,99.57137142857142,99.54944285714285,0.12199999999999989,-0.01574999999999993,-0.08716666666666661,0.14983333333333326,-0.054999999999999716,-0.045000000000001705,1.554,1.538,38.676,30.247,39.085,35.774,55.765,35.86,60.83,53.397,53.7,34.928,59.3695,51.6935,52.841,34.442,59.259,51.093666666666664,-0.12450000000000006,-0.04349999999999987,0.11120000000000001,0.11324000000000001,0.0,217.365,217.37,214.15333333333334,214.15333333333334,0.0,0.0
29,0.0,0.0,0.0,1.0,1.0,0.0,0.0,1.0,0.0,100.0,1.0,1.1856,26.0,0.0,0.0,0.0,59.999996,0.0,26.0,26.0,26.0,26.0,0.0494444444444444,0.26760000000000006,-0.021133333333333334,293.198,-2.7551,-2.582,-1.57175,-1.5149,-177.41,215.3825,190.3565,0.0,0.0,0.0,0.0,0.058733333333333304,-5.498166666666667,-5.498166666666667,-0.6507000000000001,-0.7506666666666666,-0.0005555555555556424,-0.9140000000000001,69.566,0.0219,-0.26882500000000004,-0.3899999999999997,100.0,1.0,1.0,214.38666666666666,0.0,0.0,0.0,0.0,0.0,0.0,0.0,9087.0,0.0,55.0,5.0,250.41333333333336,1.0,0.0,0.0,0.0,0.0,0.0,0.0,0.0,1.4579999999999984,1.4579999999999984,0.0,0.0,1.0,55.0,616.79921,10000.0,85.000001,85.000001,85.000001,85.000001,395.0,0.0,0.0,0.0,1.0,166.665,52.292,52.292,49.484,49.484,34.0,-24.3525,24.454,-29.27,31.625,0.0,1782.031,-0.504999999999999,100.0,28.093,28.424500000000002,41.174,41.457,0.0,0.0,100.0,0.0,0.0,0.0,0.0,3230.4285714285716,3076.3,4253.75,4301.1,305.404,305.15933333333334,314.61225,314.1545,22.0373,20.685200000000002,22.1043,21.5733,314.999998,314.999998,324.999988,324.999988,99.55871428571429,99.50796666666666,99.57151428571429,99.54958571428571,0.09825000000000017,-0.021749999999999936,-0.09466666666666657,0.14266666666666672,-0.05333333333332746,-0.041666666666671404,1.4815,1.4495,38.733000000000004,30.2825,39.152,35.833,55.751999999999995,35.896,60.8665,53.459,53.688,34.961,59.4035,51.753,52.828,34.474000000000004,59.29,51.152,-0.11549999999999994,-0.038000000000000256,0.10921000000000002,0.11195500000000001,0.0,217.745,217.755,214.38666666666666,214.38666666666666,0.0,0.0
30,0.0,0.0,0.0,1.0,1.0,0.0,0.0,1.0,0.0,100.0,1.0,1.1856,26.0,0.0,0.0,0.0,59.999996,0.0,26.0,26.0,26.0,26.0,0.06633333333333336,0.24619999999999997,0.03456666666666667,292.542,-2.7257,-2.7183333333333333,-1.60775,-1.5653000000000001,-174.26999999999998,215.3775,190.333125,0.0,0.0,0.0,0.0,0.06053333333333333,-5.498166666666667,-5.498166666666667,-0.6576000000000001,0.6756666666666666,0.005555555555555536,0.742,69.679,0.0247,-0.27947500000000003,-0.5099999999999998,100.0,1.0,1.0,214.86666666666667,0.0,0.0,0.0,0.0,0.0,0.0,0.0,9107.4,0.0,55.0,5.0,250.82,0.0,0.0,0.0,0.0,0.0,0.0,1.0,0.0,1.5030000000000001,1.5030000000000001,0.0,0.0,0.0,55.0,616.79921,10000.0,85.000001,85.000001,85.000001,85.000001,395.0,0.0,0.0,0.0,1.0,333.33500000000004,50.293,50.293,49.82,49.82,34.0,-24.865,29.83,-27.756666666666664,30.955000000000002,0.0,1781.985,-0.47499999999999787,100.0,29.192,29.0215,41.04,41.308,0.0,0.0,100.0,0.0,0.0,0.0,0.0,3374.0,3481.9,4121.5,4139.2,304.483,303.77933333333334,315.028,314.62,22.0458,20.6905,22.113599999999998,21.5815,314.999998,314.999998,324.999988,324.999988,99.55871428571429,99.50796666666666,99.57164285714286,99.54971428571429,0.12049999999999983,-0.02100000000000002,-0.08316666666666661,0.15116666666666667,-0.026666666666670835,-0.04999999999999716,1.5270000000000001,1.5115,38.786,30.3155,39.21,35.8845,55.745999999999995,35.9315,60.8945,53.5115,53.681,34.994,59.4295,51.804,52.82,34.5055,59.3135,51.20166666666667,-0.127,-0.04700000000000015,0.10355,0.11561,0.0,218.10500000000002,218.125,214.86666666666667,214.86666666666667,0.0,0.0
31,0.0,0.0,0.0,1.0,1.0,0.0,0.0,1.0,0.0,100.0,1.0,1.1856,26.0,0.0,0.0,0.0,59.999996,0.0,26.0,26.0,26.0,26.0,0.04922222222222228,0.2479,0.05016666666666667,292.068,-2.7005,-2.622777777777778,-1.6121500000000002,-1.505,-170.51,215.375,190.30575,0.0,0.0,0.0,0.0,0.06273333333333331,-5.498166666666667,-5.498166666666667,-0.6386000000000001,-0.4696666666666667,0.018000000000000016,0.8239999999999998,69.82,0.0298,-0.28625,-0.5220000000000002,100.0,1.0,1.0,215.07,0.0,0.0,0.0,0.0,0.0,0.0,0.0,9116.0,0.0,55.0,5.0,251.32666666666665,1.0,0.0,0.0,0.0,0.0,0.0,1.0,0.0,1.5569999999999986,1.5569999999999986,0.0,0.0,1.0,55.0,616.79921,10000.0,85.000001,85.000001,85.000001,85.000001,395.0,0.0,0.0,0.0,1.0,111.11,50.827,50.827,48.325,48.325,34.0,-21.982499999999998,28.406,-29.71,33.96,0.0,1781.933,-0.48499999999999943,100.0,29.178,29.269,41.705,41.887,0.0,0.0,100.0,0.0,0.0,0.0,0.0,3105.4285714285716,3412.5,4318.0,4492.5,305.299,304.1363333333333,314.29425,313.7145,22.0557,20.6967,22.1251,21.5917,314.999998,314.999998,324.999988,324.999988,99.55872857142857,99.50796666666666,99.57181428571428,99.54988571428571,0.12875000000000014,-0.012499999999999956,-0.07433333333333336,0.15316666666666667,-0.030000000000001137,-0.05666666666667197,1.435,1.405,38.848,30.3545,39.282,35.948,55.735,35.973,60.934,53.58,53.671,35.0325,59.466499999999996,51.87,52.809,34.542500000000004,59.347,51.266333333333336,-0.12250000000000005,-0.04400000000000004,0.10974500000000001,0.101675,0.0,218.525,218.555,215.07,215.07,0.0,0.0
32,0.0,0.0,0.0,1.0,1.0,0.0,0.0,1.0,0.0,100.0,1.0,1.1856,26.0,0.0,0.0,0.0,59.999996,0.0,26.0,26.0,26.0,26.0,0.06555555555555559,0.2622,-0.0204,292.908,-2.6976,-2.6782222222222223,-1.5483500000000001,-1.5825,-166.94,215.375,190.280375,0.0,0.0,0.0,0.0,0.06479999999999997,-5.498166666666667,-5.498166666666667,-0.6633,-0.3756666666666667,-0.007444444444444365,-1.162,69.946,0.0339,-0.30495,-0.4660000000000002,100.0,1.0,1.0,215.62666666666667,0.0,0.0,0.0,0.0,0.0,0.0,0.0,9139.6,0.0,55.0,5.0,251.78,0.0,0.0,0.0,0.0,0.0,0.0,1.0,0.0,1.6080000000000005,1.6080000000000005,0.0,0.0,0.0,55.0,616.79921,10000.0,85.000001,85.000001,85.000001,85.000001,395.0,0.0,0.0,0.0,1.0,166.665,51.407,51.407,49.652,49.652,34.0,-22.5325,25.826,-26.886666666666663,31.875,0.0,1781.881,-0.4499999999999993,100.0,28.861,29.2295,41.251,41.67,0.0,0.0,100.0,0.0,0.0,0.0,0.0,3177.142857142857,3094.2,4096.25,4202.9,305.337,304.863,314.955,314.38975,22.0649,20.7026,22.1357,21.601,314.999998,314.999998,324.999988,324.999988,99.55875714285715,99.50798333333333,99.57195714285714,99.55002857142857,0.12274999999999991,-0.020749999999999935,-0.08083333333333331,0.14933333333333332,-0.04833333333333201,-0.03833333333332689,1.5055,1.4969999999999999,38.906,30.3915,39.348,36.0065,55.724999999999994,36.0115,60.966499999999996,53.64,53.661,35.068,59.4965,51.928,52.798,34.576,59.3735,51.323,-0.12050000000000005,-0.0495000000000001,0.10659500000000001,0.107175,0.0,218.92000000000002,218.925,215.62666666666667,215.62666666666667,0.0,0.0
33,0.0,0.0,0.0,1.0,1.0,0.0,0.0,1.0,0.0,100.0,1.0,1.1856,26.0,0.0,0.0,0.0,59.999996,0.0,26.0,26.0,26.0,26.0,0.05133333333333323,0.25670000000000015,-0.07996666666666667,293.167,-2.7239,-2.6943333333333332,-1.5542,-1.5484,-163.79,215.375,190.257,0.0,0.0,0.0,0.0,0.06663333333333332,-5.498166666666667,-5.498166666666667,-0.6691,-0.08700000000000001,-0.006111111111111178,1.0469999999999997,70.059,0.0317,-0.28225,-0.42799999999999905,100.0,1.0,1.0,215.99,0.0,0.0,0.0,0.0,0.0,0.0,0.0,9155.0,0.0,55.0,5.0,252.18666666666667,1.0,0.0,0.0,0.0,0.0,0.0,1.0,0.0,1.6529999999999987,1.6529999999999987,0.0,0.0,1.0,55.0,616.79921,10000.0,85.000001,85.000001,85.000001,85.000001,395.0,0.0,0.0,0.0,1.0,333.33500000000004,51.804,51.804,49.881,49.881,34.0,-21.9275,26.124,-26.46,31.64,0.0,1781.835,-0.495000000000001,100.0,28.812,28.764,41.133,41.309,0.0,0.0,100.0,0.0,0.0,0.0,0.0,3069.4285714285716,3118.8,4077.5,4232.5,305.5435,304.964,314.97775,314.47375,22.0731,20.7077,22.145,21.6092,314.999998,314.999998,324.999988,324.999988,99.55875714285715,99.50798333333333,99.57208571428572,99.55017142857143,0.12475000000000014,-0.01749999999999996,-0.0741666666666666,0.15399999999999991,-0.03999999999999915,-0.05833333333333002,1.5185,1.505,38.957,30.423000000000002,39.406,36.0575,55.715,36.0435,60.9945,53.6915,53.652,35.0975,59.522999999999996,51.9775,52.788,34.6045,59.397,51.37166666666667,-0.11799999999999988,-0.04700000000000015,0.10318000000000001,0.10629500000000001,0.0,219.265,219.305,215.99,215.99,0.0,0.0
34,0.0,0.0,0.0,1.0,1.0,0.0,0.0,1.0,0.0,100.0,1.0,1.1856,26.0,0.0,0.0,0.0,59.999996,0.0,26.0,26.0,26.0,26.0,0.0427777777777778,0.2634000000000001,-0.07053333333333334,293.335,-2.66385,-2.6844444444444444,-1.5902500000000002,-1.4865,-160.01,215.375,190.227125,0.0,0.0,0.0,0.0,0.0688333333333333,-5.498166666666667,-5.498166666666667,-0.6934,-0.9066666666666666,0.015555555555555545,0.968,70.196,0.0308,-0.283075,-0.5020000000000007,100.0,1.0,1.0,216.34333333333333,0.0,0.0,0.0,0.0,0.0,0.0,0.0,9170.0,0.0,55.0,5.0,252.68,0.0,0.0,0.0,0.0,0.0,0.0,1.0,0.0,1.7070000000000007,1.7070000000000007,0.0,0.0,0.0,55.0,616.79921,10000.0,85.000001,85.000001,85.000001,85.000001,395.0,0.0,0.0,0.0,1.0,166.665,52.368,52.368,49.881,49.881,34.0,-20.6925,26.502000000000002,-27.286666666666665,32.0375,0.0,1781.782,-0.5399999999999991,100.0,28.449,28.2955,41.101,41.438,0.0,0.0,100.0,0.0,0.0,0.0,0.0,2977.285714285714,3136.1,4120.75,4330.9,305.812,305.04766666666666,314.8795,314.22325,22.0827,20.7137,22.1562,21.6192,314.999998,314.999998,324.999988,324.999988,99.55878571428572,99.50798333333333,99.57224285714285,99.55032857142857,0.12349999999999994,-0.006000000000000005,-0.07333333333333336,0.15783333333333327,-0.03499999999999659,-0.05666666666667197,1.513,1.4709999999999999,39.016999999999996,30.4605,39.476,36.12,55.703,36.0805,61.0285,53.7565,53.64,35.132,59.5545,52.04,52.775,34.6375,59.4255,51.43266666666666,-0.12050000000000005,-0.03750000000000009,0.107505,0.10457000000000001,0.0,219.66500000000002,219.69,216.34333333333333,216.34333333333333,0.0,0.0
35,0.0,0.0,0.0,1.0,1.0,0.0,0.0,1.0,0.0,100.0,1.0,1.1856,26.0,0.0,0.0,0.0,59.999996,0.0,26.0,26.0,26.0,26.0,0.05588888888888888,0.2499,-0.08276666666666667,293.198,-2.792,-2.663444444444444,-1.5827499999999999,-1.4823,-156.20999999999998,215.38,190.195375,0.0,0.0,0.0,0.0,0.07103333333333339,-5.498166666666667,-5.498166666666667,-0.7286,0.08833333333333333,-0.008333333333333304,-0.03100000000000014,70.32900000000001,0.0357,-0.285825,-0.5120000000000005,100.0,1.0,1.0,216.86666666666667,0.0,0.0,0.0,0.0,0.0,0.0,0.0,9192.1,0.0,55.0,5.0,253.16,1.0,0.0,0.0,0.0,0.0,0.0,1.0,0.0,1.7609999999999992,1.7609999999999992,0.0,0.0,1.0,55.0,616.79921,10000.0,85.000001,85.000001,85.000001,85.000001,395.0,0.0,0.0,0.0,1.0,111.11,51.605000000000004,51.605000000000004,49.606,49.606,34.0,-22.9975,28.34,-26.253333333333334,30.0775,0.0,1781.729,-0.3099999999999987,100.0,28.35,28.7865,40.953,41.047,0.0,0.0,100.0,0.0,0.0,0.0,0.0,3091.857142857143,3376.7,4023.375,4110.8,305.439,304.17033333333336,315.0715,314.74925,22.0924,20.72,22.1672,21.6289,314.999998,314.999998,324.999988,324.999988,99.5588,99.508,99.5724,99.55048571428571,0.12049999999999983,-0.017749999999999932,-0.07250000000000001,0.16433333333333322,-0.04333333333332945,-0.07333333333333059,1.5535,1.536,39.077,30.5,39.545,36.1805,55.69,36.1215,61.0615,53.816,53.626999999999995,35.17,59.585,52.0975,52.760999999999996,34.674,59.4525,51.489,-0.10899999999999999,-0.05600000000000005,0.10997000000000001,0.11053500000000001,0.0,220.095,220.14499999999998,216.86666666666667,216.86666666666667,0.0,0.0
36,0.0,0.0,0.0,1.0,1.0,0.0,0.0,1.0,0.0,100.0,1.0,1.1856,26.0,0.0,0.0,0.0,59.999996,0.0,26.0,26.0,26.0,26.0,0.060555555555555696,0.26260000000000017,0.023033333333333336,292.572,-2.6507,-2.7111111111111112,-1.6146500000000001,-1.5563,-153.04,215.3825,190.16775,0.0,0.0,0.0,0.0,0.07289999999999996,-5.498166666666667,-5.498166666666667,-0.7089000000000001,0.037,-0.04400000000000004,-1.342,70.444,0.033,-0.258525,-0.26200000000000045,100.0,1.0,1.0,217.0,0.0,0.0,0.0,0.0,0.0,0.0,0.0,9197.8,0.0,55.0,5.0,253.57,0.0,0.0,0.0,0.0,0.0,0.0,1.0,0.0,1.806000000000001,1.806000000000001,0.0,0.0,0.0,55.0,616.79921,10000.0,85.000001,85.000001,85.000001,85.000001,395.0,0.0,0.0,0.0,1.0,111.11,51.788,51.788,48.92,48.92,34.0,-22.0325,24.756,-30.823333333333334,33.620000000000005,0.0,1781.683,-0.245000000000001,100.0,28.721,28.943,41.224000000000004,41.626,0.0,0.0,100.0,0.0,0.0,0.0,0.0,3088.0,3004.3,4448.0,4488.1,305.495,305.081,314.18275,313.76875,22.1005,20.7252,22.1767,21.6373,314.999998,314.999998,324.999988,324.999988,99.55881428571429,99.508,99.57252857142858,99.55061428571429,0.11050000000000004,-0.03574999999999995,-0.07883333333333331,0.1373333333333333,-0.03333333333333144,-0.046666666666666856,1.4445000000000001,1.4375,39.128,30.5325,39.604,36.233000000000004,55.681,36.1545,61.091499999999996,53.871,53.619,35.2005,59.613,52.1505,52.751000000000005,34.7035,59.4775,51.541,-0.10650000000000004,-0.0665,0.10359000000000002,0.100375,0.0,220.47,220.49,217.0,217.0,0.0,0.0
