,ABS Active,ABS Enabled,AID Allow Tire Blankets,AID Auto Blip,AID Auto Clutch,AID Auto Shift,AID Fuel Rate,AID Ideal Line,AID Mech Damage,AID Stability,AID Tire Wear Rate,Air Density,Air Temp,Ballast,Best Lap Delta,Best Lap Time,Brake Bias,Brake Pos,Brake Temp FL,Brake Temp FR,Brake Temp RL,Brake Temp RR,CG Accel Lateral,CG Accel Longitudinal,CG Accel Vertical,CG Height,Camber FL,Camber FR,Camber RL,Camber RR,Car Coord X,Car Coord Y,Car Coord Z,Car Damage Front,Car Damage Left,Car Damage Rear,Car Damage Right,Car Pos Norm,Caster FL,Caster FR,Chassis Pitch Angle,Chassis Pitch Rate,Chassis Roll Angle,Chassis Roll Rate,Chassis Velocity X,Chassis Velocity Y,Chassis Velocity Z,Chassis Yaw Rate,Clutch Pos,DRS Active,DRS Available,Drive Train Speed,ERS Heat Charging,ERS Is Charging,ERS Max Energy,ERS Power Level,ERS Recovery Level,Engine Brake Setting,Engine Limiter,Engine RPM,Flags,Fuel Level,Gear,Ground Speed,HR Sample Clock,In Pit,KERS Charge,KERS Deployed Energy,KERS Input,KERS Max Energy,LR Sample Clock,Lap Invalidated,Lap Time,Lap Time2,Last Lap Time,Last Sector Time,MR Sample Clock,Max Fuel,Max Power,Max RPM,Max Sus Travel FL,Max Sus Travel FR,Max Sus Travel RL,Max Sus Travel RR,Max Torque,Max Turbo Boost,Num Tires Off Track,Penalties Enabled,Position,Raw Data Sample Rate,Ride Height FL,Ride Height FR,Ride Height RL,Ride Height RR,Road Temp,Self Align Torque FL,Self Align Torque FR,Self Align Torque RL,Self Align Torque RR,Session Lap Count,Session Time Left,Steering Angle,Surface Grip,Suspension Travel FL,Suspension Travel FR,Suspension Travel RL,Suspension Travel RR,TC Active,TC Enabled,Throttle Pos,Tire Dirt Level FL,Tire Dirt Level FR,Tire Dirt Level RL,Tire Dirt Level RR,Tire Load FL,Tire Load FR,Tire Load RL,Tire Load RR,Tire Loaded Radius FL,Tire Loaded Radius FR,Tire Loaded Radius RL,Tire Loaded Radius RR,Tire Pressure FL,Tire Pressure FR,Tire Pressure RL,Tire Pressure RR,Tire Radius FL,Tire Radius FR,Tire Radius RL,Tire Radius RR,Tire Rubber Grip FL,Tire Rubber Grip FR,Tire Rubber Grip RL,Tire Rubber Grip RR,Tire Slip Angle FL,Tire Slip Angle FR,Tire Slip Angle RL,Tire Slip Angle RR,Tire Slip Ratio FL,Tire Slip Ratio FR,Tire Slip Ratio RL,Tire Slip Ratio RR,Tire Temp Core FL,Tire Temp Core FR,Tire Temp Core RL,Tire Temp Core RR,Tire Temp Inner FL,Tire Temp Inner FR,Tire Temp Inner RL,Tire Temp Inner RR,Tire Temp Middle FL,Tire Temp Middle FR,Tire Temp Middle RL,Tire Temp Middle RR,Tire Temp Outer FL,Tire Temp Outer FR,Tire Temp Outer RL,Tire Temp Outer RR,Toe In FL,Toe In FR,Toe In RL,Toe In RR,Turbo Boost,Wheel Angular Speed FL,Wheel Angular Speed FR,Wheel Angular Speed RL,Wheel Angular Speed RR,Wind Direction,Wind Speed
0,0.0,0.0,0.0,1.0,1.0,0.0,0.0,1.0,0.0,100.0,1.0,1.1856,26.0,0.0,0.0,0.0,59.99999,0.0,26.0,26.0,26.0,26.0,-0.06955555555555548,0.30120000000000013,-0.00013333333333333334,294.128,-2.7243,-2.656,-1.5190000000000001,-1.5535,-275.67,216.2975,190.987625,0.0,0.0,0.0,0.0,0.0016,-5.498166666666667,-5.498166666666667,-0.5499,1.0340000000000003,-0.005625000000000213,-1.1320000000000001,65.508,-0.032100000000000004,-0.2147,1.0060000000000002,100.0,1.0,1.0,202.26,0.0,0.0,0.0,0.0,0.0,0.0,0.0,8573.1,0.0,55.0,5.0,235.79666666666668,0.0,0.0,0.0,0.0,0.0,0.0,0.0,0.0,0.0030000000000001137,0.0030000000000001137,0.0,0.0,0.0,55.0,616.79921,10000.0,85.0,85.0,85.0,85.0,395.0,0.0,0.0,0.0,1.0,20.0,52.826,52.826,49.713,49.713,34.0,-26.122500000000002,23.332,-29.60333333333333,24.2275,0.0,1782.704,0.8000000000000007,100.0,27.469,26.938,40.537,40.604,0.0,0.0,100.0,0.0,0.0,0.0,0.0,2979.714285714286,3346.7,4069.75,3940.7,305.8315,304.123,314.98633333333333,314.973,21.7661,20.511499999999998,21.776699999999998,21.313,314.99999,314.99999,324.99998,324.99998,99.55818571428571,99.50713333333333,99.56551428571429,99.54515714285715,-0.0030000000000000027,-0.11824999999999997,-0.15533333333333332,0.06033333333333335,-0.046666666666666856,-0.05833333333333002,1.561,1.5985,37.038,29.197,37.105000000000004,34.2065,56.048,34.3825,59.171,51.61,53.988,33.5925,57.8,49.965,53.171,33.191,57.769999999999996,49.38733333333333,-0.012499999999999956,-0.13649999999999984,0.09828,0.1097,0.0,205.275,205.19,202.26,202.26,0.0,0.0
1,0.0,0.0,0.0,1.0,1.0,0.0,0.0,1.0,0.0,100.0,1.0,1.1856,26.0,0.0,0.0,0.0,59.999996,0.0,26.0,26.0,26.0,26.0,-0.10533333333333339,0.3136000000000001,-0.0031000000000000003,292.999,-2.6317,-2.7702222222222224,-1.5244,-1.5514000000000001,-272.33,216.29250000000002,190.96725,0.0,0.0,0.0,0.0,0.0035333333333333336,-5.498166666666667,-5.498166666666667,-0.4995,-0.2283333333333334,-0.05624999999999991,-0.23700000000000002,65.661,-0.0516,-0.194725,1.3760000000000012,100.0,1.0,1.0,202.43333333333334,0.0,0.0,0.0,0.0,0.0,0.0,0.0,8580.4,0.0,55.0,5.0,236.35000000000002,1.0,0.0,0.0,0.0,0.0,0.0,0.0,0.0,0.053999999999998494,0.053999999999998494,0.0,0.0,1.0,55.0,616.79921,10000.0,85.000001,85.000001,85.000001,85.000001,395.0,0.0,0.0,0.0,1.0,166.665,53.421,53.421,48.325,48.325,34.0,-26.545,18.862000000000002,-33.78333333333333,29.9175,0.0,1782.654,0.8900000000000006,100.0,27.777,26.993,42.683,41.546,0.0,0.0,100.0,0.0,0.0,0.0,0.0,3062.142857142857,2735.5,4321.0,4711.8,305.3955,306.12975,314.24966666666666,313.14925,21.776,20.5167,21.7875,21.3221,314.999998,314.999998,324.999988,324.999988,99.55818571428571,99.50716666666666,99.56565714285715,99.54531428571428,-0.005750000000000033,-0.12924999999999998,-0.17333333333333334,0.05049999999999999,-0.02499999999999858,-0.045000000000001705,1.4100000000000001,1.465,37.099999999999994,29.229,37.172,34.263,56.033,34.424,59.2155,51.674,53.973,33.6305,57.841,50.0265,53.156,33.2275,57.8085,49.44766666666666,-0.00550000000000006,-0.1419999999999999,0.10361500000000001,0.11588500000000002,0.0,205.73000000000002,205.63,202.43333333333334,202.43333333333334,0.0,0.0
2,0.0,0.0,0.0,1.0,1.0,0.0,0.0,1.0,0.0,100.0,1.0,1.1856,26.0,0.0,0.0,0.0,59.999996,0.0,26.0,26.0,26.0,26.0,-0.14933333333333332,0.2813000000000001,-0.06626666666666667,293.594,-2.5982,-2.7983333333333333,-1.4886,-1.6112000000000002,-268.78,216.2825,190.94725,0.0,0.0,0.0,0.0,0.0056,-5.498166666666667,-5.498166666666667,-0.5457000000000001,0.1346666666666667,-0.04787499999999989,2.795,65.813,-0.0722,-0.2515,1.5220000000000002,100.0,1.0,1.0,203.32666666666665,0.0,0.0,0.0,0.0,0.0,0.0,0.0,8618.2,0.0,55.0,5.0,236.9,0.0,0.0,0.0,0.0,0.0,0.0,0.0,0.0,0.10800000000000054,0.10800000000000054,0.0,0.0,0.0,55.0,616.79921,10000.0,85.000001,85.000001,85.000001,85.000001,395.0,0.0,0.0,0.0,1.0,166.665,52.444,52.444,50.003,50.003,34.0,-29.295,20.278,-29.266666666666666,21.145,0.0,1782.599,0.7149999999999999,100.0,28.463,26.852,42.685,41.393,0.0,0.0,100.0,0.0,0.0,0.0,0.0,3274.5714285714284,3005.9,3759.0,3748.2,304.6845,305.35775,315.60633333333334,315.621,21.7867,20.5219,21.7987,21.3314,314.999998,314.999998,324.999988,324.999988,99.55818571428571,99.50718333333333,99.56581428571428,99.54545714285715,-0.02400000000000002,-0.15249999999999997,-0.21883333333333332,0.018333333333333313,-0.051666666666669414,-0.054999999999999716,1.623,1.6665,37.167,29.261666666666667,37.242000000000004,34.3215,56.019999999999996,34.466,59.2565,51.735,53.961,33.669,57.8795,50.085,53.143,33.2645,57.844,49.50533333333333,-0.01649999999999996,-0.14049999999999985,0.1106,0.11069500000000002,0.0,206.21,206.085,203.32666666666665,203.32666666666665,0.0,0.0
3,0.0,0.0,0.0,1.0,1.0,0.0,0.0,1.0,0.0,100.0,1.0,1.1856,26.0,0.0,0.0,0.0,59.999996,0.0,26.0,26.0,26.0,26.0,-0.1343333333333333,0.3034000000000001,0.0847,293.488,-2.7267,-2.695444444444444,-1.5110000000000001,-1.593,-265.62,216.2725,190.928875,0.0,0.0,0.0,0.0,0.0074333333333333335,-5.498166666666667,-5.498166666666667,-0.51,0.17900000000000005,-0.009625000000000217,0.12,65.956,-0.0853,-0.19992500000000002,1.1639999999999997,100.0,1.0,1.0,203.48666666666668,0.0,0.0,0.0,0.0,0.0,0.0,0.0,8625.1,0.0,55.0,5.0,237.41,1.0,0.0,0.0,0.0,0.0,0.0,0.0,0.0,0.1559999999999988,0.1559999999999988,0.0,0.0,1.0,55.0,616.79921,10000.0,85.000001,85.000001,85.000001,85.000001,395.0,0.0,0.0,0.0,1.0,166.665,53.619,53.619,48.172,48.172,34.0,-25.3325,18.664,-34.593333333333334,24.87,0.0,1782.552,0.6000000000000014,100.0,27.954,26.881,42.536,41.443,0.0,0.0,100.0,0.0,0.0,0.0,0.0,2826.5714285714284,2898.6,4249.75,4239.4,306.187,305.62375,314.42766666666665,314.35075,21.7959,20.5268,21.8085,21.3398,314.999998,314.999998,324.999988,324.999988,99.5582,99.5072,99.56594285714286,99.5456,-0.01924999999999999,-0.15149999999999997,-0.21066666666666656,0.01849999999999996,-0.036666666666668846,-0.054999999999999716,1.472,1.5405,37.224000000000004,29.292333333333332,37.303,34.3735,56.004999999999995,34.506,59.293,51.794,53.946,33.7065,57.9135,50.1415,53.126999999999995,33.2995,57.875,49.56066666666666,-0.02849999999999997,-0.12449999999999983,0.10758500000000001,0.106355,0.0,206.66,206.565,203.48666666666668,203.48666666666668,0.0,0.0
4,0.0,0.0,0.0,1.0,1.0,0.0,0.0,1.0,0.0,100.0,1.0,1.1856,26.0,0.0,0.0,0.0,59.999996,0.0,26.0,26.0,26.0,26.0,-0.15755555555555556,0.2916000000000001,-0.018466666666666666,293.594,-2.6583,-2.7453333333333334,-1.528,-1.5977999999999999,-262.45,216.2575,190.91025,0.0,0.0,0.0,0.0,0.009300000000000001,-5.498166666666667,-5.498166666666667,-0.5429,-0.844,-0.07624999999999993,-0.664,66.094,-0.08370000000000001,-0.23492500000000002,1.0660000000000007,100.0,1.0,1.0,204.0233333333333,0.0,0.0,0.0,0.0,0.0,0.0,0.0,8647.9,0.0,55.0,5.0,237.91,0.0,0.0,0.0,0.0,0.0,0.0,0.0,0.0,0.20400000000000063,0.20400000000000063,0.0,0.0,0.0,55.0,616.79921,10000.0,85.000001,85.000001,85.000001,85.000001,395.0,0.0,0.0,0.0,1.0,333.33500000000004,53.07,53.07,48.691,48.691,34.0,-28.695,19.927999999999997,-32.35666666666666,21.012500000000003,0.0,1782.501,0.629999999999999,100.0,27.78,26.731,42.893,41.511,0.0,0.0,100.0,0.0,0.0,0.0,0.0,3196.285714285714,2984.9,4074.625,3712.6,305.141,305.37175,314.81533333333334,315.5925,21.8049,20.5315,21.8186,21.3481,314.999998,314.999998,324.999988,324.999988,99.5582,99.50721666666666,99.56607142857143,99.54571428571428,-0.02300000000000002,-0.14700000000000002,-0.20350000000000001,0.017000000000000126,-0.041666666666671404,-0.06333333333333258,1.5695000000000001,1.607,37.281,29.322,37.366,34.426,55.988,34.545500000000004,59.332,51.8495,53.93,33.742,57.95,50.1945,53.111,33.334,57.909,49.61266666666667,-0.024499999999999966,-0.1259999999999999,0.11182500000000001,0.09937000000000001,0.0,207.04500000000002,206.97,204.0233333333333,204.0233333333333,0.0,0.0
5,0.0,0.0,0.0,1.0,1.0,0.0,0.0,1.0,0.0,100.0,1.0,1.1856,26.0,0.0,0.0,0.0,59.999996,0.0,26.0,26.0,26.0,26.0,-0.12811111111111106,0.3094000000000001,-0.0165,293.61,-2.6745,-2.7640000000000002,-1.5096,-1.5861,-259.07,216.24,190.889875,0.0,0.0,0.0,0.0,0.011266666666666668,-5.498166666666667,-5.498166666666667,-0.5352,0.39566666666666683,-0.08199999999999985,-0.226,66.24000000000001,-0.0844,-0.2137,1.0899999999999999,100.0,1.0,1.0,204.43333333333334,0.0,0.0,0.0,0.0,0.0,0.0,0.0,8665.2,0.0,55.0,5.0,238.43666666666667,1.0,0.0,0.0,0.0,0.0,0.0,0.0,0.0,0.254999999999999,0.254999999999999,0.0,0.0,1.0,55.0,616.79921,10000.0,85.000001,85.000001,85.000001,85.000001,395.0,0.0,0.0,0.0,1.0,333.33500000000004,53.421,53.421,48.92,48.92,34.0,-28.145,18.892,-33.21666666666666,22.4625,0.0,1782.451,0.21499999999999986,100.0,27.785,26.776,42.596000000000004,41.277,0.0,0.0,100.0,0.0,0.0,0.0,0.0,3193.0,2763.1,4188.375,4036.8,305.223,305.9265,314.69866666666667,314.80575,21.8149,20.5366,21.8291,21.3569,314.999998,314.999998,324.999988,324.999988,99.5582,99.50723333333333,99.56622857142857,99.54585714285714,-0.009499999999999953,-0.13674999999999993,-0.20650000000000002,0.00216666666666665,-0.04833333333333201,-0.060000000000002274,1.548,1.5670000000000002,37.343,29.354,37.432,34.4805,55.974999999999994,34.586,59.372,51.9065,53.918,33.78,57.9875,50.2495,53.097,33.37,57.9435,49.666,-0.05600000000000005,-0.09250000000000025,0.09978500000000001,0.10533000000000001,0.0,207.55,207.45499999999998,204.43333333333334,204.43333333333334,0.0,0.0
6,0.0,0.0,0.0,1.0,1.0,0.0,0.0,1.0,0.0,100.0,1.0,1.1856,26.0,0.0,0.0,0.0,59.999996,0.0,26.0,26.0,26.0,26.0,-0.10544444444444445,0.29400000000000004,-0.011466666666666668,293.411,-2.6421,-2.7376666666666667,-1.557,-1.5817999999999999,-255.89,216.22,190.8705,0.0,0.0,0.0,0.0,0.0131,-5.498166666666667,-5.498166666666667,-0.5304,0.08166666666666678,-0.06199999999999983,-0.519,66.379,-0.08270000000000001,-0.214475,0.8140000000000001,100.0,1.0,1.0,204.85333333333335,0.0,0.0,0.0,0.0,0.0,0.0,0.0,8682.9,0.0,55.0,5.0,238.93333333333334,0.0,0.0,0.0,0.0,0.0,0.0,0.0,0.0,0.3030000000000008,0.3030000000000008,0.0,0.0,0.0,55.0,616.79921,10000.0,85.000001,85.000001,85.000001,85.000001,395.0,0.0,0.0,0.0,1.0,166.665,53.101,53.101,48.706,48.706,34.0,-27.6675,20.228,-32.89333333333333,23.2225,0.0,1782.405,0.05000000000000071,100.0,27.673000000000002,26.911,42.706,41.659,0.0,0.0,100.0,0.0,0.0,0.0,0.0,3224.0,2895.1,4117.0,3981.6000000000004,305.1235,305.4605,314.8586666666667,314.93475,21.8241,20.5415,21.839,21.3653,314.999998,314.999998,324.999988,324.999988,99.5582,99.50723333333333,99.56635714285714,99.54598571428572,0.0024999999999999467,-0.12575000000000003,-0.20099999999999996,0.02499999999999991,-0.051666666666669414,-0.04999999999999716,1.5505,1.5665,37.400999999999996,29.384333333333334,37.494,34.533500000000004,55.961,34.6245,59.409,51.9645,53.903999999999996,33.815,58.022,50.305,53.083,33.4035,57.9755,49.720333333333336,-0.07299999999999995,-0.07799999999999985,0.09949000000000001,0.11293500000000001,0.0,207.95,207.875,204.85333333333335,204.85333333333332,0.0,0.0
7,0.0,0.0,0.0,1.0,1.0,0.0,0.0,1.0,0.0,100.0,1.0,1.1856,26.0,0.0,0.0,0.0,59.999996,0.0,26.0,26.0,26.0,26.0,-0.08899999999999997,0.2691000000000001,0.04186666666666667,293.152,-2.6093,-2.732333333333333,-1.5150000000000001,-1.5707,-252.5,216.195,190.850125,0.0,0.0,0.0,0.0,0.015066666666666666,-5.498166666666667,-5.498166666666667,-0.5342,-0.04933333333333334,-0.04999999999999982,1.111,66.524,-0.0673,-0.22290000000000001,0.33999999999999986,100.0,1.0,1.0,205.2733333333333,0.0,0.0,0.0,0.0,0.0,0.0,0.0,8700.8,0.0,55.0,5.0,239.46,1.0,0.0,0.0,0.0,0.0,0.0,0.0,0.0,0.3539999999999992,0.3539999999999992,0.0,0.0,1.0,55.0,616.79921,10000.0,85.000001,85.000001,85.000001,85.000001,395.0,0.0,0.0,0.0,1.0,333.33500000000004,52.78,52.78,48.798,48.798,34.0,-26.165,22.98,-30.863333333333337,25.3125,0.0,1782.351,-0.2049999999999983,100.0,27.944,26.812,42.825,41.795,0.0,0.0,100.0,0.0,0.0,0.0,0.0,3210.857142857143,3059.4,4050.625,4121.7,304.917,305.1455,314.897,314.652,21.8339,20.5467,21.8496,21.374299999999998,314.999998,314.999998,324.999988,324.999988,99.55821428571429,99.50725,99.5665,99.54614285714285,0.034499999999999975,-0.08550000000000002,-0.17666666666666664,0.048833333333333284,-0.05666666666667197,-0.06333333333333258,1.5194999999999999,1.5434999999999999,37.462,29.416666666666664,37.56,34.5895,55.946,34.6665,59.451,52.028999999999996,53.89,33.8535,58.061,50.367,53.068,33.44,58.0115,49.781,-0.08999999999999986,-0.058499999999999996,0.10697000000000001,0.10608000000000001,0.0,208.385,208.35500000000002,205.2733333333333,205.2733333333333,0.0,0.0
8,0.0,0.0,0.0,1.0,1.0,0.0,0.0,1.0,0.0,100.0,1.0,1.1856,26.0,0.0,0.0,0.0,59.999996,0.0,26.0,26.0,26.0,26.0,-0.03933333333333333,0.3055000000000001,-0.018433333333333336,293.427,-2.698,-2.7143333333333333,-1.498,-1.553,-249.1,216.17000000000002,190.8295,0.0,0.0,0.0,0.0,0.017033333333333334,-5.498166666666667,-5.498166666666667,-0.5355,-0.45833333333333337,-0.03462500000000013,-0.47700000000000004,66.67099999999999,-0.048100000000000004,-0.21527500000000002,0.009999999999999787,100.0,1.0,1.0,205.66,0.0,0.0,0.0,0.0,0.0,0.0,0.0,8717.1,0.0,55.0,5.0,239.98333333333335,0.0,0.0,0.0,0.0,0.0,0.0,0.0,0.0,0.40500000000000114,0.40500000000000114,0.0,0.0,0.0,55.0,616.79921,10000.0,85.000001,85.000001,85.000001,85.000001,395.0,0.0,0.0,0.0,1.0,333.33500000000004,53.635,53.635,48.08,48.08,34.0,-24.0675,21.912,-30.943333333333335,26.18,0.0,1782.3,-0.370000000000001,100.0,27.414,26.933,42.699,41.964,0.0,0.0,100.0,0.0,0.0,0.0,0.0,2982.0,2900.3,4206.5,4117.2,305.855,305.47275,314.569,314.553,21.8435,20.5518,21.8601,21.3833,314.999998,314.999998,324.999988,324.999988,99.55821428571429,99.50726666666667,99.56664285714285,99.54627142857143,0.04425000000000012,-0.07824999999999993,-0.15633333333333332,0.06633333333333336,-0.054999999999999716,-0.02833333333332888,1.521,1.5225,37.522,29.448999999999998,37.626000000000005,34.6455,55.93,34.7025,59.488,52.086,53.875,33.8865,58.0955,50.4215,53.053,33.472,58.043,49.83433333333333,-0.10149999999999992,-0.04249999999999998,0.10391500000000001,0.1136,0.0,208.81,208.785,205.66,205.66,0.0,0.0
9,0.0,0.0,0.0,1.0,1.0,0.0,0.0,1.0,0.0,100.0,1.0,1.1856,26.0,0.0,0.0,0.0,59.999996,0.0,26.0,26.0,26.0,26.0,-0.015444444444444483,0.29520000000000013,-0.019866666666666668,293.121,-2.6864,-2.7183333333333333,-1.5552000000000001,-1.5545,-245.9,216.14499999999998,190.80975,0.0,0.0,0.0,0.0,0.0189,-5.498166666666667,-5.498166666666667,-0.5428000000000001,0.6020000000000001,-0.03437499999999982,-0.40700000000000003,66.804,-0.0302,-0.2179,-0.10999999999999943,100.0,1.0,1.0,206.20666666666668,0.0,0.0,0.0,0.0,0.0,0.0,0.0,8740.4,0.0,55.0,5.0,240.46666666666667,1.0,0.0,0.0,0.0,0.0,0.0,0.0,0.0,0.4529999999999994,0.4529999999999994,0.0,0.0,1.0,55.0,616.79921,10000.0,85.000001,85.000001,85.000001,85.000001,395.0,0.0,0.0,0.0,1.0,166.665,52.414,52.414,49.149,49.149,34.0,-26.7225,23.962,-28.816666666666663,26.15,0.0,1782.254,-0.5300000000000011,100.0,27.822,27.357,42.383,41.969,0.0,0.0,100.0,0.0,0.0,0.0,0.0,3370.4285714285716,3008.9,3994.0,4026.3,304.6855,305.08275,315.16833333333335,314.8475,21.8527,20.5569,21.8699,21.3917,314.999998,314.999998,324.999988,324.999988,99.55821428571429,99.50726666666667,99.56678571428571,99.5464,0.06475000000000009,-0.05425000000000002,-0.14383333333333337,0.08499999999999996,-0.04833333333333201,-0.051666666666669414,1.5819999999999999,1.5765,37.58,29.480666666666664,37.687,34.698,55.919,34.7395,59.5215,52.141999999999996,53.864000000000004,33.921,58.126999999999995,50.475,53.04,33.5045,58.072,49.887,-0.12050000000000005,-0.03200000000000003,0.11115000000000001,0.10543500000000001,0.0,209.22500000000002,209.23000000000002,206.20666666666668,206.20666666666668,0.0,0.0
10,0.0,0.0,0.0,1.0,1.0,0.0,0.0,1.0,0.0,100.0,1.0,1.1856,26.0,0.0,0.0,0.0,59.999996,0.0,26.0,26.0,26.0,26.0,0.0038888888888888307,0.2996000000000001,0.054066666666666666,292.969,-2.658,-2.7046666666666668,-1.5341,-1.5354,-242.49,216.1175,190.789,0.0,0.0,0.0,0.0,0.020900000000000002,-5.498166666666667,-5.498166666666667,-0.5182,-0.46699999999999997,0.007749999999999924,1.812,66.951,-0.007,-0.206325,-0.5700000000000003,100.0,1.0,1.0,206.42666666666668,0.0,0.0,0.0,0.0,0.0,0.0,0.0,8749.6,0.0,55.0,5.0,240.99666666666667,0.0,0.0,0.0,0.0,0.0,0.0,1.0,0.0,0.5040000000000013,0.5040000000000013,0.0,0.0,0.0,55.0,616.79921,10000.0,85.000001,85.000001,85.000001,85.000001,395.0,0.0,0.0,0.0,1.0,166.665,53.452,53.452,47.638,47.638,34.0,-20.4625,24.028,-29.28333333333333,30.565,0.0,1782.204,-0.6050000000000004,100.0,27.826,27.171,42.876,42.584,0.0,0.0,100.0,0.0,0.0,0.0,0.0,2823.142857142857,2973.6,4261.25,4344.3,306.1435,305.425,314.3546666666667,314.08,21.8624,20.5622,21.8806,21.4009,314.999998,314.999998,324.999988,324.999988,99.55822857142857,99.50728333333333,99.56692857142858,99.54654285714285,0.09675000000000011,-0.03374999999999995,-0.10233333333333339,0.11549999999999994,-0.021666666666668277,-0.04333333333332945,1.5005000000000002,1.4605000000000001,37.64,29.513666666666666,37.754000000000005,34.7555,55.906,34.7765,59.5625,52.206,53.852000000000004,33.955,58.165,50.536500000000004,53.028,33.537,58.1065,49.94733333333333,-0.12650000000000006,-0.026499999999999968,0.10568000000000001,0.10779000000000001,0.0,209.64499999999998,209.685,206.42666666666668,206.42666666666668,0.0,0.0
11,0.0,0.0,0.0,1.0,1.0,0.0,0.0,1.0,0.0,100.0,1.0,1.1856,26.0,0.0,0.0,0.0,59.999996,0.0,26.0,26.0,26.0,26.0,0.05466666666666686,0.27259999999999995,-0.09416666666666666,293.533,-2.7099,-2.6822222222222223,-1.5924,-1.5211000000000001,-239.07,216.09,190.76825,0.0,0.0,0.0,0.0,0.022600000000000002,-5.498166666666667,-5.498166666666667,-0.5614,-0.22899999999999998,0.033625000000000016,-0.625,67.09,0.013600000000000001,-0.23852500000000001,-0.6219999999999999,100.0,1.0,1.0,207.17666666666668,0.0,0.0,0.0,0.0,0.0,0.0,0.0,8781.4,0.0,55.0,5.0,241.49666666666667,1.0,0.0,0.0,0.0,0.0,0.0,1.0,0.0,0.5549999999999997,0.5549999999999997,0.0,0.0,1.0,55.0,616.79921,10000.0,85.000001,85.000001,85.000001,85.000001,395.0,0.0,0.0,0.0,1.0,333.33500000000004,52.856,52.856,49.316,49.316,34.0,-22.7725,25.682000000000002,-24.089999999999996,26.47,0.0,1782.15,-0.6750000000000007,100.0,27.399,27.56,42.304,42.61,0.0,0.0,100.0,0.0,0.0,0.0,0.0,3092.0,3096.2,3697.75,3861.8,305.54,304.8215,315.897,315.241,21.8719,20.5676,21.891,21.4098,314.999998,314.999998,324.999988,324.999988,99.55824285714286,99.50728333333333,99.56705714285714,99.54668571428572,0.10200000000000009,-0.02400000000000002,-0.09033333333333338,0.131,-0.05833333333333002,-0.05333333333332746,1.6400000000000001,1.6175000000000002,37.699,29.547333333333334,37.819,34.8115,55.893,34.814499999999995,59.5965,52.2655,53.839,33.99,58.1965,50.594,53.013999999999996,33.570499999999996,58.1355,50.00366666666667,-0.123,-0.027499999999999858,0.10967,0.10370000000000001,0.0,210.09,210.115,207.17666666666668,207.17666666666668,0.0,0.0
12,0.0,0.0,0.0,1.0,1.0,0.0,0.0,1.0,0.0,100.0,1.0,1.1856,26.0,0.0,0.0,0.0,59.999996,0.0,26.0,26.0,26.0,26.0,0.0625555555555557,0.2885,0.02896666666666667,292.969,-2.7656,-2.675777777777778,-1.5531000000000001,-1.522,-235.85,216.065,190.7475,0.0,0.0,0.0,0.0,0.025466666666666665,-5.498166666666667,-5.498166666666667,-0.5454,0.30533333333333323,0.01924999999999999,-0.893,67.227,0.029400000000000003,-0.205325,-0.6539999999999999,100.0,1.0,1.0,207.36666666666667,0.0,0.0,0.0,0.0,0.0,0.0,0.0,8789.6,0.0,55.0,5.0,241.98666666666668,0.0,0.0,0.0,0.0,0.0,0.0,1.0,0.0,0.602999999999998,0.602999999999998,0.0,0.0,0.0,55.0,616.79921,10000.0,85.000001,85.000001,85.000001,85.000001,395.0,0.0,0.0,0.0,1.0,166.665,52.872,52.872,47.943,47.943,34.0,-23.065,26.134,-26.96,30.7625,0.0,1782.105,-0.6600000000000001,100.0,27.281,27.725,42.205,42.58,0.0,0.0,100.0,0.0,0.0,0.0,0.0,3116.714285714286,3091.5,4236.25,4177.5,305.5155,304.85775,314.596,314.45825,21.8808,20.5727,21.9008,21.4183,314.999998,314.999998,324.999988,324.999988,99.55825714285714,99.5073,99.5672,99.54682857142858,0.11099999999999999,-0.010249999999999981,-0.06533333333333335,0.15300000000000002,-0.04333333333332945,-0.04333333333332945,1.5394999999999999,1.506,37.754999999999995,29.579666666666668,37.879999999999995,34.8645,55.881,34.85,59.6315,52.3225,53.828,34.022999999999996,58.229,50.649,53.001,33.602000000000004,58.165,50.05733333333333,-0.123,-0.02450000000000019,0.10048000000000001,0.11216500000000001,0.0,210.51,210.56,207.36666666666667,207.36666666666667,0.0,0.0
13,0.0,0.0,0.0,1.0,1.0,0.0,0.0,1.0,0.0,100.0,1.0,1.1856,26.0,0.0,0.0,0.0,59.999996,0.0,26.0,26.0,26.0,26.0,0.07066666666666666,0.2703,0.05246666666666667,292.572,-2.7351,-2.674888888888889,-1.6225,-1.5088,-232.41,216.04000000000002,190.72575,0.0,0.0,0.0,0.0,0.02673333333333333,-5.498166666666667,-5.498166666666667,-0.5392,-0.06366666666666665,0.023749999999999938,0.974,67.369,0.0388,-0.21395,-0.8460000000000001,100.0,1.0,1.0,207.76,0.0,0.0,0.0,0.0,0.0,0.0,0.0,8806.1,0.0,55.0,5.0,242.5,1.0,0.0,0.0,0.0,0.0,0.0,1.0,0.0,0.6539999999999999,0.6539999999999999,0.0,0.0,1.0,55.0,616.79921,10000.0,85.000001,85.000001,85.000001,85.000001,395.0,0.0,0.0,0.0,1.0,333.33500000000004,52.505,52.505,47.913,47.913,34.0,-20.919999999999998,27.854,-26.843333333333327,32.754999999999995,0.0,1782.051,-0.8550000000000004,100.0,27.781,27.766,42.558,42.963,0.0,0.0,100.0,0.0,0.0,0.0,0.0,3053.142857142857,3184.3,4153.25,4352.7,305.4915,304.74275,314.71,314.0995,21.8904,20.5782,21.9114,21.4275,314.999998,314.999998,324.999988,324.999988,99.55827142857143,99.5073,99.56734285714286,99.54697142857142,0.1472500000000001,0.015249999999999986,-0.052166666666666583,0.16366666666666685,-0.054999999999999716,-0.04333333333332945,1.5070000000000001,1.4805,37.815,29.613999999999997,37.946,34.922,55.870999999999995,34.8885,59.6695,52.3865,53.818,34.058,58.2645,50.710499999999996,52.991,33.635999999999996,58.1975,50.117666666666665,-0.14300000000000002,-0.011499999999999844,0.1019,0.10432000000000001,0.0,210.95499999999998,210.99,207.76,207.76,0.0,0.0
14,0.0,0.0,0.0,1.0,1.0,0.0,0.0,1.0,0.0,100.0,1.0,1.1856,26.0,0.0,0.0,0.0,59.999996,0.0,26.0,26.0,26.0,26.0,0.09577777777777796,0.27859999999999996,-0.012433333333333333,292.77,-2.7371,-2.6144444444444446,-1.6311,-1.5122,-228.97,216.015,190.7045,0.0,0.0,0.0,0.0,0.028733333333333333,-5.498166666666667,-5.498166666666667,-0.5487000000000001,-0.17199999999999993,0.04949999999999988,-0.003,67.509,0.0494,-0.22805,-0.944,100.0,1.0,1.0,208.26999999999998,0.0,0.0,0.0,0.0,0.0,0.0,0.0,8827.8,0.0,55.0,5.0,243.00333333333333,0.0,0.0,0.0,0.0,0.0,0.0,1.0,0.0,0.7049999999999983,0.7049999999999983,0.0,0.0,0.0,55.0,616.79921,10000.0,85.000001,85.000001,85.000001,85.000001,395.0,0.0,0.0,0.0,1.0,333.33500000000004,52.582,52.582,48.08,48.08,34.0,-20.365,27.522,-26.28,31.545,0.0,1782.0,-0.9699999999999989,100.0,27.583,28.009,42.462,43.294,0.0,0.0,100.0,0.0,0.0,0.0,0.0,3042.5714285714284,3155.5,4034.5,4159.3,305.6975,304.673,315.0663333333333,314.50175,21.9,20.5837,21.9218,21.4366,314.999998,314.999998,324.999988,324.999988,99.5583,99.5073,99.56748571428571,99.54711428571429,0.15450000000000008,0.02200000000000002,-0.06166666666666665,0.1741666666666668,-0.051666666666669414,-0.04999999999999716,1.5495,1.5110000000000001,37.875,29.648333333333333,38.010999999999996,34.979,55.861999999999995,34.9265,59.706,52.449,53.809,34.0935,58.298,50.7705,52.980999999999995,33.6695,58.228,50.17666666666666,-0.15399999999999991,0.0,0.10457500000000002,0.11515000000000002,0.0,211.375,211.435,208.26999999999998,208.26999999999998,0.0,0.0
15,0.0,0.0,0.0,1.0,1.0,0.0,0.0,1.0,0.0,100.0,1.0,1.1856,26.0,0.0,0.0,0.0,59.999996,0.0,26.0,26.0,26.0,26.0,0.11733333333333329,0.28570000000000007,-0.04356666666666667,292.816,-2.7145,-2.5701111111111112,-1.6322,-1.4513,-225.73,215.9975,190.68425,0.0,0.0,0.0,0.0,0.030633333333333332,-5.498166666666667,-5.498166666666667,-0.5407000000000001,0.28833333333333333,0.08162500000000006,-0.242,67.641,0.0629,-0.21177500000000002,-1.1339999999999995,100.0,1.0,1.0,208.67000000000002,0.0,0.0,0.0,0.0,0.0,0.0,0.0,8844.8,0.0,55.0,5.0,243.47666666666666,1.0,0.0,0.0,0.0,0.0,0.0,1.0,0.0,0.7530000000000001,0.7530000000000001,0.0,0.0,1.0,55.0,616.79921,10000.0,85.000001,85.000001,85.000001,85.000001,395.0,0.0,0.0,0.0,1.0,166.665,52.765,52.765,48.187,48.187,34.0,-18.8875,27.2,-24.729999999999997,32.595,0.0,1781.954,-0.9800000000000004,100.0,27.56,28.076999999999998,42.2,43.346000000000004,0.0,0.0,100.0,0.0,0.0,0.0,0.0,2896.714285714286,3133.7,3978.75,4323.0,306.0715,304.72575,315.21133333333336,314.127,21.9089,20.589,21.9316,21.4452,314.999998,314.999998,324.999988,324.999988,99.55831428571429,99.5073,99.56761428571428,99.54725714285715,0.15949999999999998,0.02849999999999997,-0.03933333333333333,0.18283333333333318,-0.05666666666667197,-0.03833333333332689,1.549,1.5145,37.93,29.680999999999997,38.072,35.0325,55.852999999999994,34.963499999999996,59.7385,52.507999999999996,53.801,34.1275,58.328,50.8275,52.971000000000004,33.702,58.254999999999995,50.23266666666667,-0.15349999999999997,0.0015000000000000568,0.09522000000000001,0.11401000000000001,0.0,211.805,211.84,208.67000000000002,208.67000000000002,0.0,0.0
16,0.0,0.0,0.0,1.0,1.0,0.0,0.0,1.0,0.0,100.0,1.0,1.1856,26.0,0.0,0.0,0.0,59.999996,0.0,26.0,26.0,26.0,26.0,0.13377777777777777,0.27780000000000005,-0.05633333333333334,292.847,-2.8086,-2.580111111111111,-1.6013000000000002,-1.5125000000000002,-222.07,215.97750000000002,190.660875,0.0,0.0,0.0,0.0,0.03276666666666667,-5.498166666666667,-5.498166666666667,-0.5621,-0.6676666666666666,0.06837499999999985,-1.093,67.789,0.0736,-0.22665000000000002,-1.1739999999999995,100.0,1.0,1.0,209.12666666666667,0.0,0.0,0.0,0.0,0.0,0.0,0.0,8864.0,0.0,55.0,5.0,244.01333333333332,0.0,0.0,0.0,0.0,0.0,0.0,1.0,0.0,0.8069999999999986,0.8069999999999986,0.0,0.0,0.0,55.0,616.79921,10000.0,85.000001,85.000001,85.000001,85.000001,395.0,0.0,0.0,0.0,1.0,166.665,52.673,52.673,47.974000000000004,47.974000000000004,34.0,-20.6175,28.524,-23.29,32.435,0.0,1781.901,-0.9149999999999991,100.0,27.177,28.142,42.426,43.467,0.0,0.0,100.0,0.0,0.0,0.0,0.0,3053.4285714285716,3230.1,3941.25,4102.8,305.8015,304.488,315.26433333333335,314.59275,21.918599999999998,20.5949,21.9427,21.4549,314.999998,314.999998,324.999988,324.999988,99.55832857142858,99.50731666666667,99.56777142857143,99.54741428571428,0.1625000000000001,0.03649999999999998,-0.025000000000000022,0.20033333333333325,-0.045000000000001705,-0.04833333333333201,1.5745,1.5095,37.991,29.718,38.141999999999996,35.093,55.84,35.0055,59.778,52.574,53.788,34.1665,58.3645,50.8915,52.957,33.7395,58.288,50.29566666666666,-0.14900000000000002,-0.0045000000000001705,0.10643000000000001,0.103705,0.0,212.21,212.29500000000002,209.12666666666667,209.12666666666667,0.0,0.0
17,0.0,0.0,0.0,1.0,1.0,0.0,0.0,1.0,0.0,100.0,1.0,1.1856,26.0,0.0,0.0,0.0,59.999996,0.0,26.0,26.0,26.0,26.0,0.13122222222222213,0.28580000000000005,-0.004633333333333334,292.542,-2.7632,-2.5647777777777776,-1.6381999999999999,-1.4772,-218.82,215.9625,190.639625,0.0,0.0,0.0,0.0,0.03466666666666667,-5.498166666666667,-5.498166666666667,-0.55,0.5210000000000001,0.044624999999999915,-0.786,67.919,0.07830000000000001,-0.205125,-1.1059999999999999,100.0,1.0,1.0,209.49333333333334,0.0,0.0,0.0,0.0,0.0,0.0,0.0,8879.6,0.0,55.0,5.0,244.48000000000002,1.0,0.0,0.0,0.0,0.0,0.0,1.0,0.0,0.8550000000000004,0.8550000000000004,0.0,0.0,1.0,55.0,616.79921,10000.0,85.000001,85.000001,85.000001,85.000001,395.0,0.0,0.0,0.0,1.0,333.33500000000004,52.49,52.49,47.867,47.867,34.0,-20.13,27.122,-26.24666666666667,33.3275,0.0,1781.851,-0.9849999999999994,100.0,27.674,28.383,42.225,43.433,0.0,0.0,100.0,0.0,0.0,0.0,0.0,3093.285714285714,3063.7,4250.75,4251.9,305.6105,304.98325,314.65933333333334,314.3545,21.9275,20.6003,21.9524,21.4635,314.999998,314.999998,324.999988,324.999988,99.55835714285715,99.50731666666667,99.5679,99.54754285714286,0.17325000000000013,0.046250000000000124,-0.029166666666666563,0.20399999999999996,-0.041666666666671404,-0.05333333333332746,1.5415,1.5190000000000001,38.047,29.751666666666665,38.203,35.1465,55.833,35.0445,59.8105,52.6325,53.781,34.2025,58.394999999999996,50.9475,52.949,33.774,58.3155,50.35066666666667,-0.15449999999999986,0.0024999999999999467,0.10513000000000002,0.11721500000000001,0.0,212.65,212.735,209.49333333333334,209.49333333333334,0.0,0.0
18,0.0,0.0,0.0,1.0,1.0,0.0,0.0,1.0,0.0,100.0,1.0,1.1856,26.0,0.0,0.0,0.0,59.999996,0.0,26.0,26.0,26.0,26.0,0.12477777777777788,0.2773000000000001,-0.0049,292.435,-2.796,-2.538111111111111,-1.6588,-1.4203000000000001,-215.35,215.9525,190.617125,0.0,0.0,0.0,0.0,0.03666666666666667,-5.498166666666667,-5.498166666666667,-0.5609000000000001,-0.4923333333333333,0.07562500000000005,1.175,68.05799999999999,0.08030000000000001,-0.2245,-1.3079999999999998,100.0,1.0,1.0,209.91333333333333,0.0,0.0,0.0,0.0,0.0,0.0,0.0,8897.5,0.0,55.0,5.0,244.98333333333335,0.0,0.0,0.0,0.0,0.0,0.0,1.0,0.0,0.9059999999999988,0.9059999999999988,0.0,0.0,0.0,55.0,616.79921,10000.0,85.000001,85.000001,85.000001,85.000001,395.0,0.0,0.0,0.0,1.0,166.665,52.261,52.261,47.668,47.668,34.0,-18.91,31.004,-24.18,33.004999999999995,0.0,1781.801,-1.2349999999999994,100.0,27.595,28.146,42.633,43.762,0.0,0.0,100.0,0.0,0.0,0.0,0.0,3000.142857142857,3402.3,4000.0,4247.0,305.755,304.151,315.125,314.39275,21.936799999999998,20.6059,21.9629,21.4728,314.999998,314.999998,324.999988,324.999988,99.55838571428572,99.50731666666667,99.56804285714286,99.5477,0.19524999999999992,0.06750000000000012,-0.01849999999999996,0.21383333333333332,-0.03999999999999915,-0.05666666666667197,1.569,1.513,38.105000000000004,29.786666666666665,38.268,35.205,55.824,35.085499999999996,59.848,52.6965,53.772,34.24,58.4295,51.0095,52.939,33.81,58.347,50.41133333333333,-0.17399999999999993,0.016999999999999904,0.10539000000000001,0.11514500000000001,0.0,213.035,213.13,209.91333333333333,209.91333333333333,0.0,0.0
19,0.0,0.0,0.0,1.0,1.0,0.0,0.0,1.0,0.0,100.0,1.0,1.1856,26.0,0.0,0.0,0.0,59.999996,0.0,26.0,26.0,26.0,26.0,0.14366666666666683,0.2963,0.02966666666666667,292.007,-2.7693,-2.525555555555556,-1.6745999999999999,-1.4017,-212.07999999999998,215.945,190.595875,0.0,0.0,0.0,0.0,0.03856666666666667,-5.498166666666667,-5.498166666666667,-0.5521,0.8540000000000001,0.0871249999999999,0.879,68.187,0.0896,-0.212375,-1.6520000000000001,100.0,1.0,1.0,210.31333333333333,0.0,0.0,0.0,0.0,0.0,0.0,0.0,8914.4,0.0,55.0,5.0,245.44333333333333,1.0,0.0,0.0,0.0,0.0,0.0,1.0,0.0,0.9540000000000006,0.9540000000000006,0.0,0.0,1.0,55.0,616.79921,10000.0,85.000001,85.000001,85.000001,85.000001,395.0,0.0,0.0,0.0,1.0,333.33500000000004,51.650999999999996,51.650999999999996,47.623,47.623,34.0,-18.0075,31.74,-24.46333333333333,34.9525,0.0,1781.752,-1.4600000000000009,100.0,28.08,28.64,42.323,43.738,0.0,0.0,100.0,0.0,0.0,0.0,0.0,3036.142857142857,3416.4,4113.75,4442.4,305.533,304.005,314.918,313.987,21.9457,20.6114,21.9727,21.4814,314.999998,314.999998,324.999988,324.999988,99.5584,99.50733333333334,99.56818571428572,99.54784285714285,0.21849999999999992,0.08000000000000007,-0.004833333333333356,0.22216666666666685,-0.03499999999999659,-0.054999999999999716,1.564,1.5055,38.161,29.820999999999998,38.329,35.259,55.819,35.126999999999995,59.8795,52.756,53.766999999999996,34.2785,58.459,51.0665,52.932,33.847,58.373,50.467666666666666,-0.1964999999999999,0.027499999999999858,0.10845,0.10668000000000001,0.0,213.465,213.57,210.31333333333333,210.31333333333333,0.0,0.0
20,0.0,0.0,0.0,1.0,1.0,0.0,0.0,1.0,0.0,100.0,1.0,1.1856,26.0,0.0,0.0,0.0,59.999996,0.0,26.0,26.0,26.0,26.0,0.1407777777777779,0.27390000000000003,-0.038233333333333334,292.328,-2.8243,-2.5806666666666667,-1.5998999999999999,-1.5232999999999999,-208.6,215.94,190.573625,0.0,0.0,0.0,0.0,0.040600000000000004,-5.498166666666667,-5.498166666666667,-0.5536,-1.0723333333333334,0.08274999999999988,-1.115,68.326,0.1058,-0.22145,-1.37,100.0,1.0,1.0,210.61333333333334,0.0,0.0,0.0,0.0,0.0,0.0,0.0,8927.2,0.0,55.0,5.0,245.94666666666666,0.0,0.0,0.0,0.0,0.0,0.0,0.0,0.0,1.004999999999999,1.004999999999999,0.0,0.0,0.0,55.0,616.79921,10000.0,85.000001,85.000001,85.000001,85.000001,395.0,0.0,0.0,0.0,1.0,166.665,52.872,52.872,46.89,46.89,34.0,-19.7425,26.92,-24.233333333333327,36.105000000000004,0.0,1781.702,-0.2049999999999983,100.0,27.365,28.484,42.78,44.295,0.0,0.0,100.0,0.0,0.0,0.0,0.0,2843.5714285714284,3135.2,4195.125,4315.9,306.3805,304.73075,314.64,313.98425,21.9548,20.617,21.9832,21.4908,314.999998,314.999998,324.999988,324.999988,99.55841428571429,99.50733333333334,99.56832857142857,99.54798571428572,0.14800000000000013,0.018750000000000044,-0.0030000000000000027,0.21900000000000008,-0.021666666666668277,-0.04833333333333201,1.496,1.444,38.217,29.856333333333332,38.394999999999996,35.317499999999995,55.807,35.167500000000004,59.919,52.8215,53.756,34.316,58.4955,51.129999999999995,52.92,33.882999999999996,58.4065,50.53,-0.10650000000000004,-0.045500000000000096,0.11308000000000001,0.09797,0.0,213.845,213.965,210.61333333333334,210.61333333333334,0.0,0.0
21,0.0,0.0,0.0,1.0,1.0,0.0,0.0,1.0,0.0,100.0,1.0,1.1856,26.0,0.0,0.0,0.0,59.999996,0.0,26.0,26.0,26.0,26.0,0.11066666666666669,0.27760000000000007,-0.06296666666666667,292.679,-2.7247,-2.652111111111111,-1.6476000000000002,-1.5011,-205.32,215.94,190.551875,0.0,0.0,0.0,0.0,0.0425,-5.498166666666667,-5.498166666666667,-0.5793,0.4956666666666667,0.04712499999999986,-1.354,68.451,0.09910000000000001,-0.22675,-0.41600000000000037,100.0,1.0,1.0,211.25333333333333,0.0,0.0,0.0,0.0,0.0,0.0,0.0,8954.2,0.0,55.0,5.0,246.39333333333335,1.0,0.0,0.0,0.0,0.0,0.0,0.0,0.0,1.0530000000000008,1.0530000000000008,0.0,0.0,1.0,55.0,616.79921,10000.0,85.000001,85.000001,85.000001,85.000001,395.0,0.0,0.0,0.0,1.0,333.33500000000004,52.231,52.231,48.355000000000004,48.355000000000004,34.0,-22.535,25.89,-23.769999999999996,30.795,0.0,1781.653,0.40500000000000114,100.0,27.736,28.512,42.275,43.713,0.0,0.0,100.0,0.0,0.0,0.0,0.0,3096.5714285714284,3128.1,3981.75,3986.7,305.5185,304.67775,315.2973333333333,315.00775,21.9636,20.6224,21.9929,21.499299999999998,314.999998,314.999998,324.999988,324.999988,99.55842857142858,99.50735,99.56847142857143,99.54812857142858,0.11325000000000007,-0.022249999999999992,-0.022166666666666557,0.20350000000000001,-0.046666666666666856,-0.046666666666666856,1.617,1.5935000000000001,38.272999999999996,29.890333333333334,38.455,35.3705,55.797,35.2055,59.948499999999996,52.877,53.745999999999995,34.351,58.522999999999996,51.1835,52.909,33.917,58.431,50.58233333333334,-0.05049999999999999,-0.10650000000000004,0.11254000000000002,0.10551,0.0,214.315,214.345,211.25333333333333,211.25333333333333,0.0,0.0
22,0.0,0.0,0.0,1.0,1.0,0.0,0.0,1.0,0.0,100.0,1.0,1.1856,26.0,0.0,0.0,0.0,59.999996,0.0,26.0,26.0,26.0,26.0,0.044777777777777805,0.2764,0.011733333333333333,292.16,-2.6873,-2.676111111111111,-1.6235,-1.5068000000000001,-201.61,215.9425,190.52675,0.0,0.0,0.0,0.0,0.044666666666666674,-5.498166666666667,-5.498166666666667,-0.5566,0.045666666666666744,0.034375000000000044,-0.894,68.598,0.058,-0.20485,0.5620000000000003,100.0,1.0,1.0,211.48666666666668,0.0,0.0,0.0,0.0,0.0,0.0,0.0,8964.2,0.0,55.0,5.0,246.92333333333335,0.0,0.0,0.0,0.0,0.0,0.0,0.0,0.0,1.1069999999999993,1.1069999999999993,0.0,0.0,0.0,55.0,616.79921,10000.0,85.000001,85.000001,85.000001,85.000001,395.0,0.0,0.0,0.0,1.0,166.665,52.444,52.444,47.119,47.119,34.0,-22.865,23.464,-28.96333333333333,31.6125,0.0,1781.6,0.6900000000000013,100.0,27.885,28.438,42.92,43.83,0.0,0.0,100.0,0.0,0.0,0.0,0.0,2997.5714285714284,3034.6,4272.0,4308.7,305.7995,304.94525,314.54533333333336,314.194,21.9735,20.6284,22.004,21.509,314.999998,314.999998,324.999988,324.999988,99.55844285714285,99.50735,99.56861428571429,99.54828571428571,0.07750000000000012,-0.06574999999999998,-0.07333333333333336,0.14966666666666684,-0.05833333333333002,-0.02833333333332888,1.4825,1.4885,38.335,29.927666666666667,38.525,35.4315,55.784,35.2475,59.9895,52.943,53.733000000000004,34.3895,58.561,51.2475,52.894999999999996,33.954,58.4655,50.644999999999996,-0.02499999999999991,-0.13500000000000023,0.10633500000000001,0.104535,0.0,214.805,214.745,211.48666666666668,211.48666666666668,0.0,0.0
23,0.0,0.0,0.0,1.0,1.0,0.0,0.0,1.0,0.0,100.0,1.0,1.1856,26.0,0.0,0.0,0.0,59.999996,0.0,26.0,26.0,26.0,26.0,-0.004555555555555535,0.26750000000000007,-0.04033333333333333,292.099,-2.6906,-2.6525555555555558,-1.5278,-1.5977000000000001,-198.32,215.945,190.504625,0.0,0.0,0.0,0.0,0.04656666666666667,-5.498166666666667,-5.498166666666667,-0.5752,-0.2793333333333333,0.005749999999999922,-1.151,68.724,0.0099,-0.232025,1.0999999999999996,100.0,1.0,1.0,211.97333333333333,0.0,0.0,0.0,0.0,0.0,0.0,0.0,8984.8,0.0,55.0,5.0,247.38,1.0,0.0,0.0,0.0,0.0,0.0,0.0,0.0,1.1550000000000011,1.1550000000000011,0.0,0.0,1.0,55.0,616.79921,10000.0,85.000001,85.000001,85.000001,85.000001,395.0,0.0,0.0,0.0,1.0,333.33500000000004,51.712,51.712,48.05,48.05,34.0,-27.3275,22.304000000000002,-28.21333333333333,27.5375,0.0,1781.551,0.6950000000000003,100.0,28.326,28.387999999999998,43.309,43.894999999999996,0.0,0.0,100.0,0.0,0.0,0.0,0.0,3350.714285714286,3049.4,4012.125,3956.2,304.7375,304.9835,315.088,314.9505,21.9824,20.6337,22.0139,21.5177,314.999998,314.999998,324.999988,324.999988,99.55845714285714,99.50735,99.56875714285714,99.54842857142857,0.05125000000000002,-0.08924999999999994,-0.12583333333333335,0.10650000000000004,-0.04833333333333201,-0.046666666666666856,1.5070000000000001,1.5430000000000001,38.39,29.96066666666667,38.587,35.4855,55.771,35.286,60.0245,53.001,53.72,34.4255,58.5935,51.303,52.882,33.988,58.495,50.699666666666666,-0.026999999999999913,-0.1379999999999999,0.10858500000000001,0.10875000000000001,0.0,215.19,215.09,211.97333333333333,211.97333333333333,0.0,0.0
24,0.0,0.0,0.0,1.0,1.0,0.0,0.0,1.0,0.0,100.0,1.0,1.1856,26.0,0.0,0.0,0.0,59.999996,0.0,26.0,26.0,26.0,26.0,-0.0768888888888889,0.2735000000000001,-0.09123333333333335,292.389,-2.6885,-2.687555555555556,-1.5553,-1.5546,-194.81,215.9475,190.48075,0.0,0.0,0.0,0.0,0.048600000000000004,-5.498166666666667,-5.498166666666667,-0.5800000000000001,-0.6216666666666667,-0.002375000000000238,0.75,68.85900000000001,-0.0302,-0.218175,1.0660000000000007,100.0,1.0,1.0,212.30333333333334,0.0,0.0,0.0,0.0,0.0,0.0,0.0,8998.8,0.0,55.0,5.0,247.86666666666667,0.0,0.0,0.0,0.0,0.0,0.0,0.0,0.0,1.2059999999999995,1.2059999999999995,0.0,0.0,0.0,55.0,616.79921,10000.0,85.000001,85.000001,85.000001,85.000001,395.0,0.0,0.0,0.0,1.0,166.665,52.902,52.902,47.089,47.089,34.0,-24.625,20.884,-32.75333333333334,25.9825,0.0,1781.501,0.620000000000001,100.0,28.275,27.816,43.616,43.482,0.0,0.0,100.0,0.0,0.0,0.0,0.0,2936.857142857143,2963.4,4293.125,4110.5,305.875,305.47925,314.3623333333333,314.728,21.9918,20.6391,22.0244,21.5268,314.999998,314.999998,324.999988,324.999988,99.55845714285714,99.50736666666667,99.5689,99.54857142857144,0.023749999999999938,-0.10799999999999998,-0.15500000000000003,0.06466666666666687,-0.03833333333332689,-0.061666666666667425,1.4865,1.5234999999999999,38.449,29.994333333333334,38.653,35.542500000000004,55.754999999999995,35.326,60.0625,53.0595,53.706,34.462,58.629,51.3595,52.866,34.0235,58.5275,50.754999999999995,-0.02849999999999997,-0.12950000000000017,0.11162500000000002,0.10444500000000001,0.0,215.60500000000002,215.53,212.30333333333334,212.30333333333334,0.0,0.0
25,0.0,0.0,0.0,1.0,1.0,0.0,0.0,1.0,0.0,100.0,1.0,1.1856,26.0,0.0,0.0,0.0,59.999996,0.0,26.0,26.0,26.0,26.0,-0.10288888888888892,0.26750000000000007,-0.07273333333333334,292.389,-2.7358000000000002,-2.667666666666667,-1.5548000000000002,-1.5732,-191.5,215.9475,190.456875,0.0,0.0,0.0,0.0,0.05053333333333333,-5.498166666666667,-5.498166666666667,-0.6118,-0.03700000000000003,-0.017625000000000224,-0.28500000000000003,68.98400000000001,-0.0557,-0.225975,1.1140000000000008,100.0,1.0,1.0,212.83666666666667,0.0,0.0,0.0,0.0,0.0,0.0,0.0,9021.4,0.0,55.0,5.0,248.31666666666666,1.0,0.0,0.0,0.0,0.0,0.0,0.0,0.0,1.2540000000000013,1.2540000000000013,0.0,0.0,1.0,55.0,616.79921,10000.0,85.000001,85.000001,85.000001,85.000001,395.0,0.0,0.0,0.0,1.0,333.33500000000004,51.956,51.956,47.928,47.928,34.0,-28.9725,22.046,-30.526666666666664,24.12,0.0,1781.452,0.5949999999999989,100.0,28.333,27.889,43.503,43.047,0.0,0.0,100.0,0.0,0.0,0.0,0.0,3268.857142857143,3244.2,3975.625,3975.0,305.011,304.632,315.22266666666667,315.0845,22.0006,20.6443,22.0342,21.5353,314.999998,314.999998,324.999988,324.999988,99.55845714285714,99.50738333333334,99.56904285714286,99.5487,0.00550000000000006,-0.12875000000000003,-0.17766666666666664,0.04933333333333323,-0.04333333333332945,-0.051666666666669414,1.549,1.6,38.504000000000005,30.026666666666664,38.714,35.5955,55.739999999999995,35.366,60.0955,53.1125,53.691,34.499,58.66,51.4105,52.85,34.0585,58.5555,50.80466666666666,-0.03400000000000003,-0.1280000000000001,0.10717000000000002,0.10602500000000001,0.0,216.0,215.89499999999998,212.83666666666667,212.83666666666667,0.0,0.0
26,0.0,0.0,0.0,1.0,1.0,0.0,0.0,1.0,0.0,100.0,1.0,1.1856,26.0,0.0,0.0,0.0,59.999996,0.0,26.0,26.0,26.0,26.0,-0.11255555555555552,0.28070000000000017,0.06380000000000001,291.168,-2.6649,-2.766111111111111,-1.5852,-1.5849,-187.98000000000002,215.945,190.431,0.0,0.0,0.0,0.0,0.052566666666666664,-5.498166666666667,-5.498166666666667,-0.5695,0.7543333333333333,-0.05799999999999983,-1.068,69.12,-0.0746,-0.19390000000000002,1.1600000000000001,100.0,1.0,1.0,212.99333333333334,0.0,0.0,0.0,0.0,0.0,0.0,0.0,9028.0,0.0,55.0,5.0,248.80333333333334,0.0,0.0,0.0,0.0,0.0,0.0,0.0,0.0,1.3049999999999997,1.3049999999999997,0.0,0.0,0.0,55.0,616.79921,10000.0,85.000001,85.000001,85.000001,85.000001,395.0,0.0,0.0,0.0,1.0,166.665,51.422,51.422,46.204,46.204,34.0,-29.11,20.612000000000002,-39.19,26.71,0.0,1781.402,0.3099999999999987,100.0,29.188,28.532,44.095,43.346000000000004,0.0,0.0,100.0,0.0,0.0,0.0,0.0,3347.142857142857,2960.4,4652.625,4380.9,304.789,305.1735,313.676,314.02725,22.0104,20.6499,22.0448,21.5445,314.999998,314.999998,324.999988,324.999988,99.55845714285714,99.5074,99.5692,99.54885714285714,0.005249999999999977,-0.139,-0.1988333333333333,0.02833333333333332,-0.046666666666666856,-0.041666666666671404,1.422,1.478,38.565,30.061999999999998,38.78,35.653,55.727999999999994,35.411,60.1365,53.173,53.679,34.5405,58.698499999999996,51.4685,52.838,34.0985,58.591,50.861000000000004,-0.058499999999999996,-0.11299999999999999,0.11005000000000001,0.112555,0.0,216.47,216.35500000000002,212.99333333333334,212.99333333333334,0.0,0.0
27,0.0,0.0,0.0,1.0,1.0,0.0,0.0,1.0,0.0,100.0,1.0,1.1856,26.0,0.0,0.0,0.0,59.999996,0.0,26.0,26.0,26.0,26.0,-0.0848888888888889,0.24550000000000005,-0.011733333333333333,291.565,-2.6243,-2.738,-1.5712000000000002,-1.6628,-184.66,215.94,190.407875,0.0,0.0,0.0,0.0,0.0545,-5.498166666666667,-5.498166666666667,-0.5955,-1.1143333333333334,-0.061875000000000124,-0.68,69.245,-0.07980000000000001,-0.24202500000000002,0.902000000000001,100.0,1.0,1.0,213.46,0.0,0.0,0.0,0.0,0.0,0.0,0.0,9047.7,0.0,55.0,5.0,249.25666666666666,1.0,0.0,0.0,0.0,0.0,0.0,0.0,0.0,1.352999999999998,1.352999999999998,0.0,0.0,1.0,55.0,616.79921,10000.0,85.000001,85.000001,85.000001,85.000001,395.0,0.0,0.0,0.0,1.0,333.33500000000004,51.757999999999996,51.757999999999996,46.6,46.6,34.0,-28.2075,20.656,-34.266666666666666,25.450000000000003,0.0,1781.353,0.21999999999999886,100.0,28.937,28.254,44.889,43.858000000000004,0.0,0.0,100.0,0.0,0.0,0.0,0.0,3292.714285714286,2993.3,4203.125,4018.9,304.9525,305.197,314.661,314.78375,22.0193,20.655,22.0549,21.5533,314.999998,314.999998,324.999988,324.999988,99.55847142857142,99.50741666666667,99.56934285714286,99.549,0.0044999999999999485,-0.13524999999999998,-0.1968333333333333,0.033500000000000085,-0.04333333333332945,-0.045000000000001705,1.473,1.5070000000000001,38.620999999999995,30.094,38.843,35.708,55.713,35.4505,60.176,53.2305,53.665,34.577,58.7355,51.5235,52.823,34.132999999999996,58.625,50.915,-0.06600000000000006,-0.09750000000000014,0.10003000000000001,0.111295,0.0,216.765,216.695,213.46,213.46,0.0,0.0
28,0.0,0.0,0.0,1.0,1.0,0.0,0.0,1.0,0.0,100.0,1.0,1.1856,26.0,0.0,0.0,0.0,59.999996,0.0,26.0,26.0,26.0,26.0,-0.10511111111111104,0.2701,-0.05296666666666667,291.901,-2.65,-2.726777777777778,-1.5211999999999999,-1.6228,-181.12,215.9325,190.382625,0.0,0.0,0.0,0.0,0.05656666666666667,-5.498166666666667,-5.498166666666667,-0.601,0.6699999999999999,-0.06125000000000025,0.888,69.374,-0.07930000000000001,-0.2167,0.71,100.0,1.0,1.0,213.99,0.0,0.0,0.0,0.0,0.0,0.0,0.0,9070.2,0.0,55.0,5.0,249.72,0.0,0.0,0.0,0.0,0.0,0.0,0.0,0.0,1.404,1.404,0.0,0.0,0.0,55.0,616.79921,10000.0,85.000001,85.000001,85.000001,85.000001,395.0,0.0,0.0,0.0,1.0,166.665,51.743,51.743,47.531,47.531,34.0,-27.3275,21.59,-31.693333333333335,25.505000000000003,0.0,1781.304,0.08000000000000185,100.0,29.183,28.056,44.218,43.206,0.0,0.0,100.0,0.0,0.0,0.0,0.0,3238.857142857143,3054.5,4074.0,4113.3,304.957,305.173,314.9716666666667,314.77225,22.0289,20.6606,22.0652,21.5622,314.999998,314.999998,324.999988,324.999988,99.55848571428571,99.50743333333334,99.56948571428572,99.54914285714285,0.022750000000000048,-0.11824999999999997,-0.1895,0.040000000000000036,-0.051666666666669414,-0.05333333333332746,1.5345,1.5550000000000002,38.681,30.128666666666668,38.908,35.763999999999996,55.7,35.493,60.210499999999996,53.286,53.653,34.6165,58.7675,51.577,52.81,34.170500000000004,58.653999999999996,50.967,-0.07499999999999996,-0.08950000000000014,0.10838500000000001,0.10955500000000001,0.0,217.235,217.14499999999998,213.99,213.99,0.0,0.0
29,0.0,0.0,0.0,1.0,1.0,0.0,0.0,1.0,0.0,100.0,1.0,1.1856,26.0,0.0,0.0,0.0,59.999996,0.0,26.0,26.0,26.0,26.0,-0.08499999999999996,0.2582,0.0459,291.504,-2.6052,-2.7683333333333335,-1.5623,-1.5958,-177.57999999999998,215.9225,190.35625,0.0,0.0,0.0,0.0,0.05863333333333334,-5.498166666666667,-5.498166666666667,-0.605,-0.749,-0.05512499999999987,-0.59,69.509,-0.0664,-0.21607500000000002,0.4239999999999995,100.0,1.0,1.0,214.21333333333334,0.0,0.0,0.0,0.0,0.0,0.0,0.0,9079.7,0.0,55.0,5.0,250.20333333333335,1.0,0.0,0.0,0.0,0.0,0.0,0.0,0.0,1.4549999999999983,1.4549999999999983,0.0,0.0,1.0,55.0,616.79921,10000.0,85.000001,85.000001,85.000001,85.000001,395.0,0.0,0.0,0.0,1.0,333.33500000000004,51.788,51.788,46.478,46.478,34.0,-27.4225,22.305999999999997,-34.64,26.4725,0.0,1781.25,-0.004999999999999005,100.0,28.637999999999998,28.079,44.489000000000004,43.606,0.0,0.0,100.0,0.0,0.0,0.0,0.0,3331.4285714285716,3046.2,4312.375,4186.2,304.875,304.90775,314.37266666666665,314.44775,22.0382,20.666,22.0759,21.5715,314.999998,314.999998,324.999988,324.999988,99.55848571428571,99.50745,99.56962857142857,99.54928571428572,0.025500000000000078,-0.11649999999999994,-0.1841666666666666,0.047666666666666746,-0.046666666666666856,-0.03499999999999659,1.467,1.5005000000000002,38.739000000000004,30.162666666666667,38.974000000000004,35.822,55.684,35.534,60.2515,53.3465,53.637,34.653999999999996,58.8055,51.635,52.794,34.2065,58.689,51.023666666666664,-0.08650000000000002,-0.0794999999999999,0.10913,0.11049500000000001,0.0,217.585,217.535,214.21333333333334,214.21333333333334,0.0,0.0
30,0.0,0.0,0.0,1.0,1.0,0.0,0.0,1.0,0.0,100.0,1.0,1.1856,26.0,0.0,0.0,0.0,59.999996,0.0,26.0,26.0,26.0,26.0,-0.05811111111111111,0.26839999999999997,0.02916666666666667,291.031,-2.6656,-2.6531111111111114,-1.5055,-1.6497000000000002,-174.24,215.9125,190.33125,0.0,0.0,0.0,0.0,0.060566666666666664,-5.498166666666667,-5.498166666666667,-0.6044,0.7916666666666667,-0.0535000000000001,-0.638,69.63,-0.052500000000000005,-0.21882500000000002,0.35600000000000076,100.0,1.0,1.0,214.65333333333334,0.0,0.0,0.0,0.0,0.0,0.0,0.0,9098.3,0.0,55.0,5.0,250.64333333333335,0.0,0.0,0.0,0.0,0.0,0.0,1.0,0.0,1.5030000000000001,1.5030000000000001,0.0,0.0,0.0,55.0,616.79921,10000.0,85.000001,85.000001,85.000001,85.000001,395.0,0.0,0.0,0.0,1.0,333.33500000000004,50.766,50.766,46.89,46.89,34.0,-28.6175,21.811999999999998,-32.28,27.9875,0.0,1781.204,-0.08999999999999986,100.0,29.516,28.867,44.285,43.662,0.0,0.0,100.0,0.0,0.0,0.0,0.0,3476.142857142857,3063.8,4300.125,4195.8,304.377,304.88275,314.48566666666665,314.38,22.0473,20.6714,22.0857,21.5802,314.999998,314.999998,324.999988,324.999988,99.55848571428571,99.50746666666667,99.56977142857143,99.54942857142858,0.04475000000000007,-0.10599999999999998,-0.16166666666666663,0.057666666666666755,-0.054999999999999716,-0.03833333333332689,1.491,1.4855,38.795,30.196333333333335,39.036,35.876,55.674,35.5755,60.285,53.4015,53.628,34.692,58.837,51.688,52.783,34.243,58.7175,51.075,-0.09549999999999992,-0.0794999999999999,0.10312500000000001,0.10661500000000002,0.0,218.015,217.96,214.65333333333334,214.65333333333334,0.0,0.0
31,0.0,0.0,0.0,1.0,1.0,0.0,0.0,1.0,0.0,100.0,1.0,1.1856,26.0,0.0,0.0,0.0,59.999996,0.0,26.0,26.0,26.0,26.0,-0.055333333333333345,0.25270000000000015,0.020533333333333334,291.0,-2.7291,-2.633111111111111,-1.5931000000000002,-1.6386,-170.69,215.8975,190.305375,0.0,0.0,0.0,0.0,0.06263333333333335,-5.498166666666667,-5.498166666666667,-0.5901000000000001,-0.6923333333333332,-0.039124999999999854,0.602,69.762,-0.0333,-0.22030000000000002,-0.043999999999999595,100.0,1.0,1.0,214.94666666666666,0.0,0.0,0.0,0.0,0.0,0.0,0.0,9110.9,0.0,55.0,5.0,251.12,1.0,0.0,0.0,0.0,0.0,0.0,1.0,0.0,1.5539999999999985,1.5539999999999985,0.0,0.0,1.0,55.0,616.79921,10000.0,85.000001,85.000001,85.000001,85.000001,395.0,0.0,0.0,0.0,1.0,333.33500000000004,51.483000000000004,51.483000000000004,45.501999999999995,45.501999999999995,34.0,-25.127499999999998,23.336,-33.42,30.29,0.0,1781.153,-0.14000000000000057,100.0,29.28,28.761,44.984,44.219,0.0,0.0,100.0,0.0,0.0,0.0,0.0,3136.4285714285716,3191.8,4403.875,4278.5,305.438,304.903,314.12733333333335,314.3855,22.0566,20.6771,22.0964,21.5896,314.999998,314.999998,324.999988,324.999988,99.5585,99.50748333333334,99.56992857142858,99.54957142857143,0.06275000000000008,-0.08074999999999999,-0.1363333333333333,0.09266666666666667,-0.04333333333332945,-0.046666666666666856,1.465,1.445,38.854,30.231666666666666,39.103,35.935,55.66,35.6175,60.326,53.463499999999996,53.614999999999995,34.731,58.8755,51.7475,52.769999999999996,34.28,58.7525,51.13333333333333,-0.09899999999999998,-0.07050000000000001,0.11114500000000001,0.10677,0.0,218.36,218.36,214.94666666666666,214.94666666666666,0.0,0.0
32,0.0,0.0,0.0,1.0,1.0,0.0,0.0,1.0,0.0,100.0,1.0,1.1856,26.0,0.0,0.0,0.0,59.999996,0.0,26.0,26.0,26.0,26.0,-0.02344444444444449,0.2652000000000001,-0.05116666666666667,291.245,-2.6709,-2.7297777777777776,-1.6215000000000002,-1.5464,-167.13,215.885,190.279875,0.0,0.0,0.0,0.0,0.06470000000000001,-5.498166666666667,-5.498166666666667,-0.6089,0.15599999999999992,-0.06225000000000014,-0.933,69.889,-0.0206,-0.22920000000000001,0.09600000000000009,100.0,1.0,1.0,215.50333333333333,0.0,0.0,0.0,0.0,0.0,0.0,0.0,9134.4,0.0,55.0,5.0,251.57333333333332,0.0,0.0,0.0,0.0,0.0,0.0,1.0,0.0,1.6050000000000004,1.6050000000000004,0.0,0.0,0.0,55.0,616.79921,10000.0,85.000001,85.000001,85.000001,85.000001,395.0,0.0,0.0,0.0,1.0,166.665,51.193,51.193,46.646,46.646,34.0,-25.997500000000002,23.857999999999997,-31.57333333333333,27.950000000000003,0.0,1781.103,-0.1999999999999993,100.0,29.148,28.945,44.489000000000004,44.061,0.0,0.0,100.0,0.0,0.0,0.0,0.0,3351.714285714286,3061.0,4237.125,4161.0,304.8355,304.95825,314.72566666666665,314.67925,22.066,20.6828,22.1068,21.5988,314.999998,314.999998,324.999988,324.999988,99.5585,99.50748333333334,99.57008571428571,99.54971428571429,0.07424999999999993,-0.07174999999999998,-0.13483333333333336,0.09866666666666668,-0.061666666666667425,-0.046666666666666856,1.544,1.5354999999999999,38.912,30.267666666666663,39.168,35.9925,55.647999999999996,35.6595,60.361,53.521,53.602999999999994,34.7695,58.908500000000004,51.803,52.757,34.317,58.782,51.187333333333335,-0.10450000000000004,-0.06800000000000006,0.10888500000000001,0.113335,0.0,218.785,218.745,215.50333333333333,215.50333333333333,0.0,0.0
33,0.0,0.0,0.0,1.0,1.0,0.0,0.0,1.0,0.0,100.0,1.0,1.1856,26.0,0.0,0.0,0.0,59.999996,0.0,26.0,26.0,26.0,26.0,-0.01388888888888884,0.2650000000000001,-0.0341,291.382,-2.689,-2.718,-1.558,-1.6204,-163.76999999999998,215.87,190.25475,0.0,0.0,0.0,0.0,0.06666666666666667,-5.498166666666667,-5.498166666666667,-0.6128,-0.3813333333333334,-0.046250000000000124,0.107,70.012,-0.014400000000000001,-0.21702500000000002,0.020000000000000462,100.0,1.0,1.0,215.77666666666667,0.0,0.0,0.0,0.0,0.0,0.0,0.0,9146.0,0.0,55.0,5.0,252.01666666666665,1.0,0.0,0.0,0.0,0.0,0.0,1.0,0.0,1.6529999999999987,1.6529999999999987,0.0,0.0,1.0,55.0,616.79921,10000.0,85.000001,85.000001,85.000001,85.000001,395.0,0.0,0.0,0.0,1.0,333.33500000000004,51.849000000000004,51.849000000000004,46.448,46.448,34.0,-24.8875,23.1,-31.206666666666663,30.2,0.0,1781.052,-0.2699999999999996,100.0,28.883,28.649,44.412,44.173,0.0,0.0,100.0,0.0,0.0,0.0,0.0,3189.285714285714,2988.3,4288.75,4259.9,305.3475,305.21125,314.47833333333335,314.325,22.0747,20.688,22.1167,21.607599999999998,314.999998,314.999998,324.999988,324.999988,99.55851428571428,99.5075,99.57024285714286,99.54988571428571,0.06925000000000003,-0.07125000000000004,-0.12749999999999995,0.09866666666666668,-0.061666666666667425,-0.02499999999999858,1.4845,1.4805,38.967,30.299999999999997,39.229,36.047,55.635999999999996,35.697,60.397999999999996,53.581,53.592,34.8045,58.942499999999995,51.861000000000004,52.744,34.35,58.813,51.24366666666667,-0.10149999999999992,-0.06000000000000005,0.10249000000000001,0.10812000000000001,0.0,219.16,219.12,215.77666666666667,215.77666666666667,0.0,0.0
34,0.0,0.0,0.0,1.0,1.0,0.0,0.0,1.0,0.0,100.0,1.0,1.1856,26.0,0.0,0.0,0.0,59.999996,0.0,26.0,26.0,26.0,26.0,-0.024666666666666615,0.2559,-0.05443333333333334,291.718,-2.6999,-2.6723333333333334,-1.6235,-1.5777999999999999,-160.2,215.85250000000002,190.227,0.0,0.0,0.0,0.0,0.06873333333333334,-5.498166666666667,-5.498166666666667,-0.6423,-0.7026666666666667,-0.014750000000000263,1.1,70.14,-0.005200000000000001,-0.2255,-0.11399999999999988,100.0,1.0,1.0,216.23333333333335,0.0,0.0,0.0,0.0,0.0,0.0,0.0,9165.4,0.0,55.0,5.0,252.47666666666666,0.0,0.0,0.0,0.0,0.0,0.0,1.0,0.0,1.7040000000000006,1.7040000000000006,0.0,0.0,0.0,55.0,616.79921,10000.0,85.000001,85.000001,85.000001,85.000001,395.0,0.0,0.0,0.0,1.0,333.33500000000004,52.016999999999996,52.016999999999996,47.318,47.318,34.0,-23.275,24.322000000000003,-29.223333333333336,29.892500000000002,0.0,1781.001,-0.3000000000000007,100.0,28.781,28.258,44.177,44.207,0.0,0.0,100.0,0.0,0.0,0.0,0.0,3058.0,3089.2,4048.0,4198.0,305.39,305.1125,315.065,314.50125,22.0839,20.6935,22.1271,21.6168,314.999998,314.999998,324.999988,324.999988,99.55852857142857,99.5075,99.57037142857143,99.55001428571428,0.09149999999999991,-0.04774999999999996,-0.11583333333333334,0.11683333333333334,-0.036666666666668846,-0.045000000000001705,1.522,1.5085000000000002,39.024,30.334666666666664,39.294,36.105000000000004,55.623000000000005,35.7325,60.4295,53.637,53.58,34.837,58.972,51.914500000000004,52.730999999999995,34.3815,58.8395,51.296,-0.10399999999999987,-0.05250000000000021,0.11173000000000001,0.10720500000000001,0.0,219.515,219.515,216.23333333333335,216.23333333333335,0.0,0.0
35,0.0,0.0,0.0,1.0,1.0,0.0,0.0,1.0,0.0,100.0,1.0,1.1856,26.0,0.0,0.0,0.0,59.999996,0.0,26.0,26.0,26.0,26.0,0.008000000000000007,0.24670000000000014,-0.05183333333333334,291.733,-2.7046,-2.638777777777778,-1.6067,-1.5907,-156.62,215.8375,190.197,0.0,0.0,0.0,0.0,0.0708,-5.498166666666667,-5.498166666666667,-0.683,-0.38,-0.02662500000000012,-1.014,70.267,0.0071,-0.22912500000000002,-0.2160000000000002,100.0,1.0,1.0,216.68333333333334,0.0,0.0,0.0,0.0,0.0,0.0,0.0,9184.4,0.0,55.0,5.0,252.93666666666667,1.0,0.0,0.0,0.0,0.0,0.0,1.0,0.0,1.754999999999999,1.754999999999999,0.0,0.0,1.0,55.0,616.79921,10000.0,85.000001,85.000001,85.000001,85.000001,395.0,0.0,0.0,0.0,1.0,333.33500000000004,51.59,51.59,46.875,46.875,34.0,-24.564999999999998,25.876,-28.496666666666663,28.435,0.0,1780.951,-0.23000000000000043,100.0,28.387999999999998,28.634,43.877,43.798,0.0,0.0,100.0,0.0,0.0,0.0,0.0,3212.285714285714,3282.0,4074.0,3964.5,305.229,304.327,314.984,315.0585,22.0929,20.6993,22.1374,21.626,314.999998,314.999998,324.999988,324.999988,99.55854285714285,99.5075,99.57051428571428,99.55015714285715,0.08624999999999994,-0.05074999999999996,-0.10283333333333333,0.12616666666666676,-0.046666666666666856,-0.041666666666671404,1.5465,1.5310000000000001,39.08,30.370333333333335,39.359,36.162,55.608000000000004,35.7715,60.463499999999996,53.693,53.565,34.873,59.0035,51.9685,52.716,34.416,58.868,51.34866666666667,-0.09899999999999998,-0.05900000000000016,0.10612500000000001,0.10928,0.0,219.91,219.9,216.68333333333334,216.68333333333334,0.0,0.0
