,ABS Active,ABS Enabled,AID Allow Tire Blankets,AID Auto Blip,AID Auto Clutch,AID Auto Shift,AID Fuel Rate,AID Ideal Line,AID Mech Damage,AID Stability,AID Tire Wear Rate,Air Density,Air Temp,Ballast,Best Lap Delta,Best Lap Time,Brake Bias,Brake Pos,Brake Temp FL,Brake Temp FR,Brake Temp RL,Brake Temp RR,CG Accel Lateral,CG Accel Longitudinal,CG Accel Vertical,CG Height,Camber FL,Camber FR,Camber RL,Camber RR,Car Coord X,Car Coord Y,Car Coord Z,Car Damage Front,Car Damage Left,Car Damage Rear,Car Damage Right,Car Pos Norm,Caster FL,Caster FR,Chassis Pitch Angle,Chassis Pitch Rate,Chassis Roll Angle,Chassis Roll Rate,Chassis Velocity X,Chassis Velocity Y,Chassis Velocity Z,Chassis Yaw Rate,Clutch Pos,DRS Active,DRS Available,Drive Train Speed,ERS Heat Charging,ERS Is Charging,ERS Max Energy,ERS Power Level,ERS Recovery Level,Engine Brake Setting,Engine Limiter,Engine RPM,Flags,Fuel Level,Gear,Ground Speed,HR Sample Clock,In Pit,KERS Charge,KERS Deployed Energy,KERS Input,KERS Max Energy,LR Sample Clock,Lap Invalidated,Lap Time,Lap Time2,Last Lap Time,Last Sector Time,MR Sample Clock,Max Fuel,Max Power,Max RPM,Max Sus Travel FL,Max Sus Travel FR,Max Sus Travel RL,Max Sus Travel RR,Max Torque,Max Turbo Boost,Num Tires Off Track,Penalties Enabled,Position,Raw Data Sample Rate,Ride Height FL,Ride Height FR,Ride Height RL,Ride Height RR,Road Temp,Self Align Torque FL,Self Align Torque FR,Self Align Torque RL,Self Align Torque RR,Session Lap Count,Session Time Left,Steering Angle,Surface Grip,Suspension Travel FL,Suspension Travel FR,Suspension Travel RL,Suspension Travel RR,TC Active,TC Enabled,Throttle Pos,Tire Dirt Level FL,Tire Dirt Level FR,Tire Dirt Level RL,Tire Dirt Level RR,Tire Load FL,Tire Load FR,Tire Load RL,Tire Load RR,Tire Loaded Radius FL,Tire Loaded Radius FR,Tire Loaded Radius RL,Tire Loaded Radius RR,Tire Pressure FL,Tire Pressure FR,Tire Pressure RL,Tire Pressure RR,Tire Radius FL,Tire Radius FR,Tire Radius RL,Tire Radius RR,Tire Rubber Grip FL,Tire Rubber Grip FR,Tire Rubber Grip RL,Tire Rubber Grip RR,Tire Slip Angle FL,Tire Slip Angle FR,Tire Slip Angle RL,Tire Slip Angle RR,Tire Slip Ratio FL,Tire Slip Ratio FR,Tire Slip Ratio RL,Tire Slip Ratio RR,Tire Temp Core FL,Tire Temp Core FR,Tire Temp Core RL,Tire Temp Core RR,Tire Temp Inner FL,Tire Temp Inner FR,Tire Temp Inner RL,Tire Temp Inner RR,Tire Temp Middle FL,Tire Temp Middle FR,Tire Temp Middle RL,Tire Temp Middle RR,Tire Temp Outer FL,Tire Temp Outer FR,Tire Temp Outer RL,Tire Temp Outer RR,Toe In FL,Toe In FR,Toe In RL,Toe In RR,Turbo Boost,Wheel Angular Speed FL,Wheel Angular Speed FR,Wheel Angular Speed RL,Wheel Angular Speed RR,Wind Direction,Wind Speed
0,0.0,0.0,0.0,1.0,1.0,0.0,0.0,1.0,0.0,100.0,1.0,1.1856,26.0,0.0,0.0,0.0,59.99999,0.0,26.0,26.0,26.0,26.0,-0.07499999999999996,0.31020000000000003,0.03606666666666667,293.991,-2.7109,-2.664285714285714,-1.514,-1.5634444444444444,-275.64,216.29000000000002,190.987375,0.0,0.0,0.0,0.0,0.0016,-5.498166666666667,-5.498166666666667,-0.556,0.9153333333333334,-0.012375000000000025,-0.385,65.543,-0.0395,-0.2194,1.0140000000000002,100.0,1.0,1.0,202.41,0.0,0.0,0.0,0.0,0.0,0.0,0.0,8579.5,0.0,55.0,5.0,235.92333333333335,0.0,0.0,0.0,0.0,0.0,0.0,0.0,0.0,0.0030000000000001137,0.0030000000000001137,0.0,0.0,0.0,55.0,616.79921,10000.0,85.0,85.0,85.0,85.0,395.0,0.0,0.0,0.0,1.0,20.0,52.521,52.521,49.759,49.759,34.0,-26.9775,24.332,-29.89333333333333,24.73,0.0,1783.516,0.7750000000000021,100.0,27.593,26.915,40.688,40.525,0.0,0.0,100.0,0.0,0.0,0.0,0.0,3062.5714285714284,3454.0,4022.375,3917.0,305.54,303.8915,315.06,315.077,21.7887,20.5127,21.7836,21.3226,314.99999,314.99999,324.99998,324.99998,99.55974285714285,99.50721666666666,99.56588571428571,99.54565714285714,-0.0040000000000000036,-0.11499999999999999,-0.17066666666666666,0.07200000000000001,-0.06333333333333258,-0.0357142857142847,1.568,1.591,37.18,29.2045,37.147,34.2665,56.587,34.513999999999996,59.3025,51.7905,54.483999999999995,33.672,57.924,50.1375,53.644999999999996,33.223,57.8895,49.55733333333333,-0.007500000000000062,-0.1280000000000001,0.11406000000000001,0.11107000000000002,0.0,205.39,205.29500000000002,202.41,202.41,0.0,0.0
1,0.0,0.0,0.0,1.0,1.0,0.0,0.0,1.0,0.0,100.0,1.0,1.1856,26.0,0.0,0.0,0.0,59.999996,0.0,26.0,26.0,26.0,26.0,-0.11362499999999998,0.32120000000000015,0.1945,292.969,-2.636,-2.7617142857142856,-1.5277500000000002,-1.5478888888888889,-272.3,216.285,190.967125,0.0,0.0,0.0,0.0,0.0035666666666666668,-5.498166666666667,-5.498166666666667,-0.5007,-0.3226666666666667,-0.05500000000000016,-0.8180000000000001,65.697,-0.0541,-0.19612500000000002,1.4260000000000002,100.0,1.0,1.0,202.5233333333333,0.0,0.0,0.0,0.0,0.0,0.0,0.0,8584.2,0.0,55.0,5.0,236.48000000000002,1.0,0.0,0.0,0.0,0.0,0.0,0.0,0.0,0.053999999999998494,0.053999999999998494,0.0,0.0,1.0,55.0,616.79921,10000.0,85.000001,85.000001,85.000001,85.000001,395.0,0.0,0.0,0.0,1.0,333.33500000000004,53.36,53.36,48.309,48.309,34.0,-27.655,18.1,-34.72666666666666,29.1575,0.0,1783.465,0.870000000000001,100.0,27.701999999999998,27.165,42.653999999999996,41.563,0.0,0.0,100.0,0.0,0.0,0.0,0.0,3147.857142857143,2700.6,4338.5,4735.8,305.3175,306.21875,314.248,313.07125,21.7988,20.5179,21.7944,21.331699999999998,314.999998,314.999998,324.999988,324.999988,99.55974285714285,99.50723333333333,99.56604285714286,99.5458,-0.016249999999999876,-0.14125,-0.1875,0.034833333333333334,-0.07499999999999574,-0.030000000000001137,1.4060000000000001,1.454,37.242000000000004,29.237000000000002,37.215,34.323,56.571,34.556,59.347,51.8545,54.469,33.710499999999996,57.9655,50.199,53.629000000000005,33.26,57.9285,49.617666666666665,-0.0044999999999999485,-0.13949999999999996,0.09976,0.10973000000000001,0.0,205.885,205.745,202.5233333333333,202.5233333333333,0.0,0.0
2,0.0,0.0,0.0,1.0,1.0,0.0,0.0,1.0,0.0,100.0,1.0,1.1856,26.0,0.0,0.0,0.0,59.999996,0.0,26.0,26.0,26.0,26.0,-0.15049999999999997,0.27560000000000007,-0.11576666666666668,293.64,-2.5966,-2.8,-1.4847000000000001,-1.6133333333333333,-268.94,216.2775,190.94825,0.0,0.0,0.0,0.0,0.0055000000000000005,-5.498166666666667,-5.498166666666667,-0.5481,-0.017333333333333333,-0.0521250000000002,2.4619999999999997,65.839,-0.0751,-0.25367500000000004,1.6280000000000001,100.0,1.0,1.0,203.41,0.0,0.0,0.0,0.0,0.0,0.0,0.0,8621.7,0.0,55.0,5.0,236.99333333333334,0.0,0.0,0.0,0.0,0.0,0.0,0.0,0.0,0.10500000000000043,0.10500000000000043,0.0,0.0,0.0,55.0,616.79921,10000.0,85.000001,85.000001,85.000001,85.000001,395.0,0.0,0.0,0.0,1.0,333.33500000000004,52.414,52.414,50.095,50.095,34.0,-29.605,19.762,-29.356666666666662,20.1,0.0,1783.414,0.7300000000000004,100.0,28.475,27.038,42.643,41.407,0.0,0.0,100.0,0.0,0.0,0.0,0.0,3304.142857142857,2911.4,3780.875,3686.8,304.621,305.60075,315.559,315.772,21.809,20.5228,21.8049,21.3405,314.999998,314.999998,324.999988,324.999988,99.55975714285714,99.50725,99.56617142857142,99.54594285714286,-0.02499999999999991,-0.14825,-0.21766666666666667,0.004666666666666667,-0.01999999999999602,-0.05857142857143316,1.627,1.6804999999999999,37.306,29.2675,37.281,34.3785,56.558,34.5945,59.3845,51.912,54.456,33.746,58.001,50.254,53.616,33.294,57.961,49.67133333333334,-0.018000000000000016,-0.137,0.10518500000000001,0.107795,0.0,206.305,206.16,203.41,203.41,0.0,0.0
3,0.0,0.0,0.0,1.0,1.0,0.0,0.0,1.0,0.0,100.0,1.0,1.1856,26.0,0.0,0.0,0.0,59.999996,0.0,26.0,26.0,26.0,26.0,-0.14125,0.3147,0.06533333333333334,293.396,-2.7268,-2.6914285714285713,-1.51265,-1.592,-265.78,216.26749999999998,190.92975,0.0,0.0,0.0,0.0,0.007366666666666667,-5.498166666666667,-5.498166666666667,-0.513,0.4053333333333333,-0.008000000000000007,0.33499999999999996,65.982,-0.08700000000000001,-0.20267500000000002,1.1560000000000006,100.0,1.0,1.0,203.58333333333331,0.0,0.0,0.0,0.0,0.0,0.0,0.0,8629.2,0.0,55.0,5.0,237.50333333333333,1.0,0.0,0.0,0.0,0.0,0.0,0.0,0.0,0.1529999999999987,0.1529999999999987,0.0,0.0,1.0,55.0,616.79921,10000.0,85.000001,85.000001,85.000001,85.000001,395.0,0.0,0.0,0.0,1.0,333.33500000000004,53.391,53.391,48.187,48.187,34.0,-25.785,18.677999999999997,-35.10666666666667,24.17,0.0,1783.366,0.5749999999999993,100.0,28.019,27.005,42.46,41.394,0.0,0.0,100.0,0.0,0.0,0.0,0.0,2874.714285714286,2925.8,4264.75,4242.4,306.002,305.53,314.395,314.364,21.8183,20.5277,21.814799999999998,21.3489,314.999998,314.999998,324.999988,324.999988,99.55975714285714,99.50726666666667,99.5663,99.54607142857142,-0.016000000000000014,-0.15525,-0.21766666666666667,0.006333333333333333,-0.045000000000001705,-0.03142857142857025,1.476,1.5465,37.364000000000004,29.298000000000002,37.342,34.4305,56.542,34.6345,59.420500000000004,51.97,54.441,33.783,58.0345,50.3095,53.6,33.329499999999996,57.992,49.726,-0.03149999999999986,-0.12300000000000022,0.11285,0.10409,0.0,206.76,206.655,203.58333333333331,203.58333333333331,0.0,0.0
4,0.0,0.0,0.0,1.0,1.0,0.0,0.0,1.0,0.0,100.0,1.0,1.1856,26.0,0.0,0.0,0.0,59.999996,0.0,26.0,26.0,26.0,26.0,-0.13749999999999996,0.2824,-0.018233333333333334,293.61,-2.6621,-2.7398571428571428,-1.5276,-1.597777777777778,-262.41,216.2525,190.910125,0.0,0.0,0.0,0.0,0.009300000000000001,-5.498166666666667,-5.498166666666667,-0.5433,-0.7253333333333334,-0.07750000000000012,-1.769,66.129,-0.0848,-0.23667500000000002,1.1579999999999995,100.0,1.0,1.0,204.13666666666666,0.0,0.0,0.0,0.0,0.0,0.0,0.0,8652.6,0.0,55.0,5.0,238.0366666666667,0.0,0.0,0.0,0.0,0.0,0.0,0.0,0.0,0.20400000000000063,0.20400000000000063,0.0,0.0,0.0,55.0,616.79921,10000.0,85.000001,85.000001,85.000001,85.000001,395.0,0.0,0.0,0.0,1.0,333.33500000000004,53.07,53.07,48.721000000000004,48.721000000000004,34.0,-29.15,18.914,-32.92333333333333,20.997500000000002,0.0,1783.315,0.6050000000000004,100.0,27.717,26.919,42.785,41.53,0.0,0.0,100.0,0.0,0.0,0.0,0.0,3252.714285714286,2875.5,4124.375,3692.8,305.093,305.5225,314.76733333333334,315.62125,21.8281,20.5328,21.825499999999998,21.3578,314.999998,314.999998,324.999988,324.999988,99.55975714285714,99.50728333333333,99.56645714285715,99.54621428571429,-0.022750000000000048,-0.15449999999999997,-0.20416666666666666,0.018166666666666668,-0.05666666666667197,-0.034285714285715585,1.533,1.596,37.426,29.33,37.409,34.4865,56.522999999999996,34.676,59.462,52.0285,54.423,33.821,58.073,50.3655,53.582,33.366,58.028,49.781,-0.027499999999999858,-0.12300000000000022,0.10441,0.10747000000000001,0.0,207.16,207.035,204.13666666666666,204.13666666666666,0.0,0.0
5,0.0,0.0,0.0,1.0,1.0,0.0,0.0,1.0,0.0,100.0,1.0,1.1856,26.0,0.0,0.0,0.0,59.999996,0.0,26.0,26.0,26.0,26.0,-0.134625,0.30580000000000007,-0.0076,293.655,-2.6679,-2.768,-1.51025,-1.5876666666666668,-259.03,216.235,190.88975,0.0,0.0,0.0,0.0,0.011266666666666668,-5.498166666666667,-5.498166666666667,-0.536,0.4206666666666667,-0.08012500000000022,1.1219999999999999,66.275,-0.08800000000000001,-0.213975,1.0099999999999998,100.0,1.0,1.0,204.54666666666668,0.0,0.0,0.0,0.0,0.0,0.0,0.0,8669.9,0.0,55.0,5.0,238.56333333333333,1.0,0.0,0.0,0.0,0.0,0.0,0.0,0.0,0.254999999999999,0.254999999999999,0.0,0.0,1.0,55.0,616.79921,10000.0,85.000001,85.000001,85.000001,85.000001,395.0,0.0,0.0,0.0,1.0,333.33500000000004,53.421,53.421,48.981,48.981,34.0,-27.235,19.622,-33.05,23.4725,0.0,1783.264,0.28500000000000014,100.0,27.948,26.637,42.647,41.120000000000005,0.0,0.0,100.0,0.0,0.0,0.0,0.0,3092.4285714285716,2852.9,4133.875,4094.5,305.358,305.81725,314.7726666666667,314.74225,21.8382,20.5379,21.8359,21.3666,314.999998,314.999998,324.999988,324.999988,99.55977142857142,99.5073,99.5666,99.54634285714286,-0.008000000000000007,-0.13249999999999995,-0.21166666666666667,0.01633333333333333,-0.05666666666667197,-0.028571428571432023,1.548,1.5859999999999999,37.489000000000004,29.362000000000002,37.474999999999994,34.541,56.509,34.716499999999996,59.5015,52.085499999999996,54.409,33.8585,58.1095,50.42,53.567,33.402,58.0615,49.83433333333333,-0.050999999999999934,-0.09600000000000009,0.10825000000000001,0.11046,0.0,207.66,207.54500000000002,204.54666666666668,204.54666666666668,0.0,0.0
6,0.0,0.0,0.0,1.0,1.0,0.0,0.0,1.0,0.0,100.0,1.0,1.1856,26.0,0.0,0.0,0.0,59.999996,0.0,26.0,26.0,26.0,26.0,-0.11975000000000002,0.2771000000000001,0.010666666666666668,293.442,-2.6365,-2.7445714285714287,-1.55295,-1.5836666666666668,-255.85,216.215,190.870375,0.0,0.0,0.0,0.0,0.013133333333333335,-5.498166666666667,-5.498166666666667,-0.5312,0.10866666666666668,-0.06225000000000014,0.8959999999999999,66.413,-0.08560000000000001,-0.215,0.7679999999999998,100.0,1.0,1.0,204.95333333333332,0.0,0.0,0.0,0.0,0.0,0.0,0.0,8687.2,0.0,55.0,5.0,239.06,0.0,0.0,0.0,0.0,0.0,0.0,0.0,0.0,0.3030000000000008,0.3030000000000008,0.0,0.0,0.0,55.0,616.79921,10000.0,85.000001,85.000001,85.000001,85.000001,395.0,0.0,0.0,0.0,1.0,166.665,53.101,53.101,48.737,48.737,34.0,-26.5075,21.342,-32.85666666666667,23.535,0.0,1783.217,0.07499999999999929,100.0,27.85,26.727,42.771,41.472,0.0,0.0,100.0,0.0,0.0,0.0,0.0,3112.4285714285716,3004.2,4073.5,4052.2,305.2435,305.321,314.9026666666667,314.84125,21.8476,20.5428,21.8459,21.375,314.999998,314.999998,324.999988,324.999988,99.55977142857142,99.50731666666667,99.56674285714286,99.54648571428571,0.009500000000000064,-0.11599999999999999,-0.20533333333333334,0.02316666666666667,-0.03333333333333144,-0.0714285714285694,1.5265,1.573,37.548,29.392,37.537,34.594,56.492999999999995,34.7545,59.5385,52.143,54.394999999999996,33.8935,58.1445,50.4755,53.552,33.4355,58.0935,49.888333333333335,-0.06800000000000006,-0.07850000000000001,0.10768000000000001,0.10741,0.0,208.06,207.995,204.95333333333332,204.95333333333332,0.0,0.0
7,0.0,0.0,0.0,1.0,1.0,0.0,0.0,1.0,0.0,100.0,1.0,1.1856,26.0,0.0,0.0,0.0,59.999996,0.0,26.0,26.0,26.0,26.0,-0.07550000000000001,0.28469999999999995,0.0211,293.182,-2.6114,-2.729142857142857,-1.51325,-1.624888888888889,-252.46,216.19,190.849875,0.0,0.0,0.0,0.0,0.0151,-5.498166666666667,-5.498166666666667,-0.5346000000000001,-0.025666666666666667,-0.05312500000000009,-0.1519999999999999,66.559,-0.0693,-0.223975,0.4299999999999997,100.0,1.0,1.0,205.38,0.0,0.0,0.0,0.0,0.0,0.0,0.0,8705.3,0.0,55.0,5.0,239.58333333333331,1.0,0.0,0.0,0.0,0.0,0.0,0.0,0.0,0.3539999999999992,0.3539999999999992,0.0,0.0,1.0,55.0,616.79921,10000.0,85.000001,85.000001,85.000001,85.000001,395.0,0.0,0.0,0.0,1.0,333.33500000000004,52.78,52.78,48.828,48.828,34.0,-27.1425,21.978,-31.563333333333333,24.6425,0.0,1783.165,-0.245000000000001,100.0,27.824,26.947,42.722,41.841,0.0,0.0,100.0,0.0,0.0,0.0,0.0,3298.285714285714,2960.6,4100.125,4027.7,304.823,305.28075,314.849,314.75775,21.857599999999998,20.5479,21.8565,21.3841,314.999998,314.999998,324.999988,324.999988,99.55977142857142,99.50731666666667,99.56688571428572,99.54662857142857,0.027249999999999996,-0.09275,-0.18466666666666667,0.03233333333333334,-0.04833333333333201,-0.04142857142856826,1.525,1.552,37.61,29.424500000000002,37.602999999999994,34.6505,56.477999999999994,34.794,59.5775,52.2035,54.379999999999995,33.9295,58.181,50.533,53.536,33.47,58.126999999999995,49.945,-0.09299999999999997,-0.04999999999999982,0.10526,0.10969500000000001,0.0,208.495,208.44,205.38,205.38,0.0,0.0
8,0.0,0.0,0.0,1.0,1.0,0.0,0.0,1.0,0.0,100.0,1.0,1.1856,26.0,0.0,0.0,0.0,59.999996,0.0,26.0,26.0,26.0,26.0,-0.03887499999999999,0.3017000000000001,0.03423333333333333,293.472,-2.6961,-2.716857142857143,-1.4988000000000001,-1.550888888888889,-249.06,216.16500000000002,190.829375,0.0,0.0,0.0,0.0,0.017066666666666667,-5.498166666666667,-5.498166666666667,-0.5354,-0.5730000000000001,-0.03149999999999986,0.79,66.705,-0.050100000000000006,-0.21415,-0.09999999999999964,100.0,1.0,1.0,205.76,0.0,0.0,0.0,0.0,0.0,0.0,0.0,8721.4,0.0,55.0,5.0,240.11,0.0,0.0,0.0,0.0,0.0,0.0,0.0,0.0,0.40500000000000114,0.40500000000000114,0.0,0.0,0.0,55.0,616.79921,10000.0,85.000001,85.000001,85.000001,85.000001,395.0,0.0,0.0,0.0,1.0,333.33500000000004,53.68,53.68,48.126,48.126,34.0,-23.275,23.04,-30.236666666666665,27.0325,0.0,1783.114,-0.36499999999999844,100.0,27.486,26.743,42.765,41.86,0.0,0.0,100.0,0.0,0.0,0.0,0.0,2915.857142857143,3005.4,4133.875,4184.3,305.9595,305.3335,314.65866666666665,314.45975,21.8674,20.5531,21.867,21.3931,314.999998,314.999998,324.999988,324.999988,99.55977142857142,99.50733333333334,99.56702857142857,99.54677142857143,0.05149999999999988,-0.06825000000000003,-0.15133333333333335,0.07466666666666667,-0.05666666666667197,-0.054285714285711606,1.51,1.522,37.671,29.457,37.669,34.7065,56.46,34.832,59.6165,52.2635,54.363,33.965,58.217,50.591,53.519,33.5035,58.1605,50.001333333333335,-0.10149999999999992,-0.035499999999999865,0.107785,0.10684,0.0,208.91,208.905,205.76,205.76,0.0,0.0
9,0.0,0.0,0.0,1.0,1.0,0.0,0.0,1.0,0.0,100.0,1.0,1.1856,26.0,0.0,0.0,0.0,59.999996,0.0,26.0,26.0,26.0,26.0,-0.019000000000000017,0.29600000000000004,-0.014666666666666666,293.091,-2.6258,-2.716857142857143,-1.5556,-1.5536666666666668,-245.65,216.1375,190.80825,0.0,0.0,0.0,0.0,0.019066666666666666,-5.498166666666667,-5.498166666666667,-0.5407000000000001,0.6990000000000001,-0.03337499999999993,-0.3699999999999999,66.84700000000001,-0.0279,-0.21580000000000002,-0.13999999999999968,100.0,1.0,1.0,206.31666666666666,0.0,0.0,0.0,0.0,0.0,0.0,0.0,8745.1,0.0,55.0,5.0,240.62,1.0,0.0,0.0,0.0,0.0,0.0,0.0,0.0,0.4559999999999995,0.4559999999999995,0.0,0.0,1.0,55.0,616.79921,10000.0,85.000001,85.000001,85.000001,85.000001,395.0,0.0,0.0,0.0,1.0,166.665,52.368,52.368,49.132999999999996,49.132999999999996,34.0,-25.73,23.168,-28.803333333333335,26.4575,0.0,1783.064,-0.5150000000000006,100.0,27.895,27.377,42.341,41.979,0.0,0.0,100.0,0.0,0.0,0.0,0.0,3349.857142857143,2998.0,4044.25,4060.1000000000004,304.6835,305.11075,315.089,314.78375,21.877299999999998,20.5585,21.8775,21.402,314.999998,314.999998,324.999988,324.999988,99.55978571428571,99.50735,99.56717142857143,99.5469,0.07100000000000017,-0.07050000000000001,-0.13516666666666666,0.08600000000000001,-0.061666666666667425,-0.05857142857143316,1.5775000000000001,1.5695000000000001,37.733000000000004,29.491,37.733999999999995,34.7625,56.447,34.871,59.652,52.322,54.349999999999994,34.001,58.2505,50.6475,53.504999999999995,33.5385,58.1905,50.056666666666665,-0.11799999999999988,-0.0405000000000002,0.10642000000000001,0.110515,0.0,209.385,209.365,206.31666666666666,206.31666666666666,0.0,0.0
10,0.0,0.0,0.0,1.0,1.0,0.0,0.0,1.0,0.0,100.0,1.0,1.1856,26.0,0.0,0.0,0.0,59.999996,0.0,26.0,26.0,26.0,26.0,0.0073750000000001315,0.2905,-0.009766666666666668,292.953,-2.6624,-2.7039999999999997,-1.5352999999999999,-1.5352222222222223,-242.44,216.1125,190.788625,0.0,0.0,0.0,0.0,0.020933333333333335,-5.498166666666667,-5.498166666666667,-0.5184,-0.39766666666666667,0.006624999999999881,0.3740000000000001,66.985,-0.0077,-0.20727500000000001,-0.4560000000000004,100.0,1.0,1.0,206.53333333333333,0.0,0.0,0.0,0.0,0.0,0.0,0.0,8754.2,0.0,55.0,5.0,241.11666666666667,0.0,0.0,0.0,0.0,0.0,0.0,1.0,0.0,0.5040000000000013,0.5040000000000013,0.0,0.0,0.0,55.0,616.79921,10000.0,85.000001,85.000001,85.000001,85.000001,395.0,0.0,0.0,0.0,1.0,333.33500000000004,53.436,53.436,47.607,47.607,34.0,-21.445,22.784,-30.48,29.84,0.0,1783.015,-0.5850000000000009,100.0,27.753,27.378,42.794,42.75,0.0,0.0,100.0,0.0,0.0,0.0,0.0,2886.857142857143,2865.9,4325.375,4267.5,306.0955,305.56025,314.2916666666667,314.18475,21.886499999999998,20.5635,21.8875,21.4107,314.999998,314.999998,324.999988,324.999988,99.5598,99.50735,99.5673,99.54704285714286,0.08300000000000018,-0.04599999999999993,-0.1145,0.1125,-0.03833333333332689,-0.03142857142857025,1.4775,1.4675,37.791,29.522,37.797,34.8165,56.434,34.9055,59.6905,52.382,54.338,34.033,58.286,50.705,53.492000000000004,33.5685,58.2235,50.113,-0.12450000000000006,-0.03049999999999997,0.10750000000000001,0.11511,0.0,209.76999999999998,209.785,206.53333333333333,206.53333333333333,0.0,0.0
11,0.0,0.0,0.0,1.0,1.0,0.0,0.0,1.0,0.0,100.0,1.0,1.1856,26.0,0.0,0.0,0.0,59.999996,0.0,26.0,26.0,26.0,26.0,0.02950000000000008,0.2764,-0.06603333333333335,293.457,-2.7054,-2.685142857142857,-1.59165,-1.5236666666666667,-239.01999999999998,216.085,190.767875,0.0,0.0,0.0,0.0,0.022600000000000002,-5.498166666666667,-5.498166666666667,-0.5614,-0.21933333333333335,0.03424999999999989,0.30100000000000016,67.124,0.0099,-0.23725000000000002,-0.6299999999999999,100.0,1.0,1.0,207.28,0.0,0.0,0.0,0.0,0.0,0.0,0.0,8785.9,0.0,55.0,5.0,241.61666666666667,1.0,0.0,0.0,0.0,0.0,0.0,1.0,0.0,0.5549999999999997,0.5549999999999997,0.0,0.0,1.0,55.0,616.79921,10000.0,85.000001,85.000001,85.000001,85.000001,395.0,0.0,0.0,0.0,1.0,333.33500000000004,52.78,52.78,49.225,49.225,34.0,-21.71,26.632,-24.10333333333333,27.1125,0.0,1782.964,-0.625,100.0,27.628,27.474,42.405,42.612,0.0,0.0,100.0,0.0,0.0,0.0,0.0,3001.0,3190.8,3684.125,3890.2,305.675,304.69775,315.9103333333333,315.2085,21.8961,20.5689,21.8979,21.4197,314.999998,314.999998,324.999988,324.999988,99.5598,99.50735,99.56744285714285,99.54718571428572,0.1120000000000001,-0.01824999999999999,-0.09283333333333334,0.139,-0.05666666666667197,-0.0714285714285694,1.6425,1.611,37.851,29.555999999999997,37.861999999999995,34.873,56.419,34.9435,59.724000000000004,52.4415,54.323,34.067499999999995,58.317,50.762,53.476,33.602000000000004,58.2515,50.169,-0.125,-0.028500000000000192,0.108365,0.10883500000000002,0.0,210.19,210.23000000000002,207.28,207.28,0.0,0.0
12,0.0,0.0,0.0,1.0,1.0,0.0,0.0,1.0,0.0,100.0,1.0,1.1856,26.0,0.0,0.0,0.0,59.999996,0.0,26.0,26.0,26.0,26.0,0.049125000000000085,0.2832000000000001,0.04266666666666667,292.816,-2.758,-2.6814285714285715,-1.55535,-1.5293333333333332,-235.6,216.0575,190.745875,0.0,0.0,0.0,0.0,0.025466666666666665,-5.498166666666667,-5.498166666666667,-0.5454,0.2743333333333333,0.014124999999999943,-0.861,67.269,0.027800000000000002,-0.20672500000000002,-0.6760000000000002,100.0,1.0,1.0,207.49,0.0,0.0,0.0,0.0,0.0,0.0,0.0,8794.7,0.0,55.0,5.0,242.13666666666666,0.0,0.0,0.0,0.0,0.0,0.0,1.0,0.0,0.6059999999999981,0.6059999999999981,0.0,0.0,0.0,55.0,616.79921,10000.0,85.000001,85.000001,85.000001,85.000001,395.0,0.0,0.0,0.0,1.0,166.665,52.658,52.658,47.806,47.806,34.0,-22.9325,26.252000000000002,-28.240000000000002,30.93,0.0,1782.915,-0.5,100.0,27.426,27.808,42.318,42.650999999999996,0.0,0.0,100.0,0.0,0.0,0.0,0.0,3153.142857142857,3106.2,4263.375,4179.2,305.406,304.8095,314.53266666666667,314.456,21.9057,20.5744,21.9084,21.4287,314.999998,314.999998,324.999988,324.999988,99.55982857142857,99.50735,99.56758571428571,99.54732857142857,0.1200000000000001,-0.011499999999999955,-0.083,0.15283333333333335,-0.041666666666671404,-0.034285714285715585,1.522,1.4929999999999999,37.911,29.5905,37.927,34.9295,56.405,34.981,59.7615,52.5015,54.311,34.1025,58.352000000000004,50.82,53.462,33.6355,58.283500000000004,50.22566666666667,-0.129,-0.026499999999999968,0.114155,0.11269000000000001,0.0,210.64,210.68,207.49,207.49,0.0,0.0
13,0.0,0.0,0.0,1.0,1.0,0.0,0.0,1.0,0.0,100.0,1.0,1.1856,26.0,0.0,0.0,0.0,59.999996,0.0,26.0,26.0,26.0,26.0,0.08487500000000003,0.28390000000000004,0.0337,292.496,-2.7381,-2.670285714285714,-1.62445,-1.5101111111111112,-232.36,216.035,190.725375,0.0,0.0,0.0,0.0,0.02676666666666667,-5.498166666666667,-5.498166666666667,-0.5389,-0.06333333333333334,0.021374999999999922,-0.401,67.403,0.0375,-0.2155,-0.79,100.0,1.0,1.0,207.85000000000002,0.0,0.0,0.0,0.0,0.0,0.0,0.0,8810.0,0.0,55.0,5.0,242.62,1.0,0.0,0.0,0.0,0.0,0.0,1.0,0.0,0.6539999999999999,0.6539999999999999,0.0,0.0,1.0,55.0,616.79921,10000.0,85.000001,85.000001,85.000001,85.000001,395.0,0.0,0.0,0.0,1.0,333.33500000000004,52.429,52.429,47.806,47.806,34.0,-21.697499999999998,26.93,-27.64666666666666,32.1075,0.0,1782.865,-0.8299999999999983,100.0,27.718,27.993,42.559,43.131,0.0,0.0,100.0,0.0,0.0,0.0,0.0,3157.142857142857,3086.6,4218.75,4296.8,305.3675,304.86275,314.63166666666666,314.14325,21.9149,20.5797,21.9184,21.4374,314.999998,314.999998,324.999988,324.999988,99.55984285714285,99.50736666666667,99.56772857142857,99.54747142857143,0.14500000000000002,0.01200000000000001,-0.06,0.15766666666666665,-0.05666666666667197,-0.057142857142849834,1.5234999999999999,1.4745,37.968,29.622999999999998,37.989999999999995,34.9835,56.394999999999996,35.016999999999996,59.797,52.561,54.301,34.1355,58.385,50.877,53.452,33.667500000000004,58.3135,50.282,-0.14700000000000002,-0.0030000000000001137,0.09880000000000001,0.11543500000000001,0.0,211.065,211.11,207.85000000000002,207.85000000000002,0.0,0.0
14,0.0,0.0,0.0,1.0,1.0,0.0,0.0,1.0,0.0,100.0,1.0,1.1856,26.0,0.0,0.0,0.0,59.999996,0.0,26.0,26.0,26.0,26.0,0.08937499999999998,0.2784,-0.008766666666666667,292.755,-2.7364,-2.6162857142857145,-1.60025,-1.512,-228.92000000000002,216.0125,190.704125,0.0,0.0,0.0,0.0,0.02876666666666667,-5.498166666666667,-5.498166666666667,-0.5481,-0.11533333333333333,0.05400000000000005,1.294,67.542,0.0477,-0.227575,-1.0060000000000002,100.0,1.0,1.0,208.37,0.0,0.0,0.0,0.0,0.0,0.0,0.0,8832.0,0.0,55.0,5.0,243.12333333333333,0.0,0.0,0.0,0.0,0.0,0.0,1.0,0.0,0.7049999999999983,0.7049999999999983,0.0,0.0,0.0,55.0,616.79921,10000.0,85.000001,85.000001,85.000001,85.000001,395.0,0.0,0.0,0.0,1.0,166.665,52.567,52.567,48.035,48.035,34.0,-19.287499999999998,28.497999999999998,-24.380000000000003,32.0075,0.0,1782.815,-0.9549999999999983,100.0,27.745,27.898,42.588,43.266999999999996,0.0,0.0,100.0,0.0,0.0,0.0,0.0,2925.5714285714284,3261.4,3950.0,4223.8,305.8635,304.5185,315.18666666666667,314.42325,21.9245,20.5852,21.9288,21.4465,314.999998,314.999998,324.999988,324.999988,99.55985714285714,99.50736666666667,99.56785714285714,99.54761428571429,0.16325000000000012,0.02499999999999991,-0.043666666666666666,0.17516666666666666,-0.04333333333332945,-0.06142857142857139,1.5594999999999999,1.5255,38.028,29.6575,38.055,35.041,56.384,35.055,59.832499999999996,52.6235,54.29,34.171,58.418,50.937,53.44,33.701499999999996,58.3435,50.341,-0.15249999999999986,-0.00749999999999984,0.09731500000000001,0.11172000000000001,0.0,211.45499999999998,211.535,208.37,208.37,0.0,0.0
15,0.0,0.0,0.0,1.0,1.0,0.0,0.0,1.0,0.0,100.0,1.0,1.1856,26.0,0.0,0.0,0.0,59.999996,0.0,26.0,26.0,26.0,26.0,0.11287500000000006,0.2922,-0.050466666666666674,292.786,-2.7476,-2.571428571428571,-1.62655,-1.453,-225.47,215.99,190.6825,0.0,0.0,0.0,0.0,0.03076666666666667,-5.498166666666667,-5.498166666666667,-0.5389,0.199,0.080125,-0.6239999999999999,67.682,0.0631,-0.209675,-1.1879999999999997,100.0,1.0,1.0,208.7733333333333,0.0,0.0,0.0,0.0,0.0,0.0,0.0,8849.2,0.0,55.0,5.0,243.63,1.0,0.0,0.0,0.0,0.0,0.0,1.0,0.0,0.7560000000000002,0.7560000000000002,0.0,0.0,1.0,55.0,616.79921,10000.0,85.000001,85.000001,85.000001,85.000001,395.0,0.0,0.0,0.0,1.0,166.665,52.795,52.795,48.05,48.05,34.0,-19.197499999999998,27.346,-24.913333333333334,32.462500000000006,0.0,1782.764,-0.9649999999999999,100.0,27.533,28.086,42.227000000000004,43.424,0.0,0.0,100.0,0.0,0.0,0.0,0.0,2886.714285714286,3142.5,3992.375,4356.0,306.16,304.69225,315.1786666666667,314.03325,21.9341,20.5908,21.9392,21.4557,314.999998,314.999998,324.999988,324.999988,99.55987142857143,99.50736666666667,99.568,99.54775714285714,0.15600000000000014,0.02950000000000008,-0.041833333333333333,0.17233333333333334,-0.05333333333332746,-0.03999999999999915,1.5434999999999999,1.5030000000000001,38.088,29.6925,38.120000000000005,35.098,56.373999999999995,35.0935,59.867,52.686,54.28,34.207,58.4495,50.9975,53.428,33.736000000000004,58.372,50.4,-0.15349999999999997,0.0035000000000000586,0.11094500000000002,0.10008,0.0,211.905,211.99,208.7733333333333,208.7733333333333,0.0,0.0
16,0.0,0.0,0.0,1.0,1.0,0.0,0.0,1.0,0.0,100.0,1.0,1.1856,26.0,0.0,0.0,0.0,59.999996,0.0,26.0,26.0,26.0,26.0,0.12062499999999998,0.28370000000000006,-0.013666666666666667,292.816,-2.7993,-2.587714285714286,-1.5976,-1.5181111111111112,-222.01999999999998,215.9725,190.6605,0.0,0.0,0.0,0.0,0.0328,-5.498166666666667,-5.498166666666667,-0.5624,-0.637,0.06662499999999993,0.21399999999999997,67.822,0.07930000000000001,-0.227275,-1.258,100.0,1.0,1.0,209.2266666666667,0.0,0.0,0.0,0.0,0.0,0.0,0.0,8868.4,0.0,55.0,5.0,244.13333333333333,0.0,0.0,0.0,0.0,0.0,0.0,1.0,0.0,0.8069999999999986,0.8069999999999986,0.0,0.0,0.0,55.0,616.79921,10000.0,85.000001,85.000001,85.000001,85.000001,395.0,0.0,0.0,0.0,1.0,166.665,52.597,52.597,47.989,47.989,34.0,-19.93,29.7,-22.243333333333332,33.535,0.0,1782.713,-0.8499999999999979,100.0,27.325,27.973,42.533,43.369,0.0,0.0,100.0,0.0,0.0,0.0,0.0,3001.285714285714,3331.9,3897.625,4142.3,305.815,304.34875,315.3233333333333,314.575,21.9434,20.5964,21.9498,21.4649,314.999998,314.999998,324.999988,324.999988,99.5599,99.50736666666667,99.56815714285715,99.5479,0.17100000000000026,0.043500000000000094,-0.010333333333333335,0.21683333333333335,-0.03833333333332689,-0.05857142857143316,1.579,1.52,38.146,29.7275,38.186,35.1555,56.36,35.132999999999996,59.903999999999996,52.747,54.266999999999996,34.2435,58.484,51.0565,53.414,33.771,58.4035,50.458,-0.14149999999999996,-0.008000000000000007,0.10598500000000001,0.106495,0.0,212.3,212.405,209.2266666666667,209.2266666666667,0.0,0.0
17,0.0,0.0,0.0,1.0,1.0,0.0,0.0,1.0,0.0,100.0,1.0,1.1856,26.0,0.0,0.0,0.0,59.999996,0.0,26.0,26.0,26.0,26.0,0.123,0.28900000000000015,0.015000000000000001,292.419,-2.7665,-2.563714285714286,-1.6409,-1.4755555555555557,-218.56,215.95749999999998,190.637875,0.0,0.0,0.0,0.0,0.034800000000000005,-5.498166666666667,-5.498166666666667,-0.548,0.4386666666666667,0.047250000000000014,-0.683,67.961,0.08360000000000001,-0.204075,-1.1059999999999999,100.0,1.0,1.0,209.58333333333331,0.0,0.0,0.0,0.0,0.0,0.0,0.0,8883.5,0.0,55.0,5.0,244.63,1.0,0.0,0.0,0.0,0.0,0.0,1.0,0.0,0.8580000000000005,0.8580000000000005,0.0,0.0,1.0,55.0,616.79921,10000.0,85.000001,85.000001,85.000001,85.000001,395.0,0.0,0.0,0.0,1.0,166.665,52.46,52.46,47.623,47.623,34.0,-20.09,27.240000000000002,-26.766666666666666,34.045,0.0,1782.662,-0.9299999999999997,100.0,27.636,28.345,42.269999999999996,43.475,0.0,0.0,100.0,0.0,0.0,0.0,0.0,3105.0,3098.7,4308.875,4316.3,305.5775,304.874,314.505,314.18475,21.953,20.6021,21.9601,21.474,314.999998,314.999998,324.999988,324.999988,99.55991428571429,99.50738333333334,99.5683,99.54805714285715,0.17700000000000005,0.040750000000000064,-0.02866666666666667,0.20266666666666666,-0.05666666666667197,-0.0357142857142847,1.53,1.487,38.206,29.762999999999998,38.251000000000005,35.2125,56.351,35.174,59.9385,52.809,54.257999999999996,34.2815,58.516,51.116,53.403999999999996,33.8075,58.432,50.516666666666666,-0.15349999999999997,-0.010000000000000231,0.11604,0.10735000000000001,0.0,212.785,212.84,209.58333333333331,209.58333333333331,0.0,0.0
18,0.0,0.0,0.0,1.0,1.0,0.0,0.0,1.0,0.0,100.0,1.0,1.1856,26.0,0.0,0.0,0.0,59.999996,0.0,26.0,26.0,26.0,26.0,0.12037500000000012,0.2741,-0.014833333333333336,292.496,-2.7948,-2.543142857142857,-1.6549,-1.422777777777778,-215.49,215.9475,190.618125,0.0,0.0,0.0,0.0,0.0366,-5.498166666666667,-5.498166666666667,-0.5592,-0.5373333333333333,0.07262499999999994,1.1670000000000003,68.083,0.08320000000000001,-0.2217,-1.2380000000000004,100.0,1.0,1.0,209.99333333333334,0.0,0.0,0.0,0.0,0.0,0.0,0.0,8900.8,0.0,55.0,5.0,245.07,0.0,0.0,0.0,0.0,0.0,0.0,1.0,0.0,0.9029999999999987,0.9029999999999987,0.0,0.0,0.0,55.0,616.79921,10000.0,85.000001,85.000001,85.000001,85.000001,395.0,0.0,0.0,0.0,1.0,166.665,52.399,52.399,47.684,47.684,34.0,-18.83,30.66,-24.096666666666664,32.29,0.0,1782.617,-1.1699999999999982,100.0,27.592,28.096,42.658,43.789,0.0,0.0,100.0,0.0,0.0,0.0,0.0,2982.142857142857,3367.6,4002.25,4224.9,305.83,304.2865,315.12333333333333,314.45225,21.9613,20.6071,21.9695,21.4822,314.999998,314.999998,324.999988,324.999988,99.55994285714286,99.5074,99.56841428571428,99.54818571428571,0.1937500000000001,0.06824999999999992,-0.016833333333333332,0.20366666666666666,-0.03999999999999915,-0.04571428571428271,1.558,1.5165,38.257999999999996,29.794,38.309,35.263999999999996,56.342,35.2095,59.971000000000004,52.865,54.248999999999995,34.314,58.546,51.17,53.394,33.839,58.4595,50.56966666666666,-0.16849999999999987,0.01200000000000001,0.10834500000000001,0.100385,0.0,213.115,213.20499999999998,209.99333333333334,209.99333333333334,0.0,0.0
19,0.0,0.0,0.0,1.0,1.0,0.0,0.0,1.0,0.0,100.0,1.0,1.1856,26.0,0.0,0.0,0.0,59.999996,0.0,26.0,26.0,26.0,26.0,0.15900000000000003,0.28800000000000003,0.033600000000000005,291.916,-2.7727,-2.5225714285714287,-1.6755,-1.4003333333333332,-212.01999999999998,215.94,190.5955,0.0,0.0,0.0,0.0,0.0386,-5.498166666666667,-5.498166666666667,-0.5502,0.8266666666666667,0.08487500000000003,-0.45100000000000007,68.22,0.093,-0.21045,-1.6100000000000003,100.0,1.0,1.0,210.39333333333332,0.0,0.0,0.0,0.0,0.0,0.0,0.0,8917.8,0.0,55.0,5.0,245.56333333333333,1.0,0.0,0.0,0.0,0.0,0.0,1.0,0.0,0.9540000000000006,0.9540000000000006,0.0,0.0,1.0,55.0,616.79921,10000.0,85.000001,85.000001,85.000001,85.000001,395.0,0.0,0.0,0.0,1.0,166.665,51.62,51.62,47.485,47.485,34.0,-18.8275,30.794,-25.019999999999996,34.64,0.0,1782.566,-1.5300000000000011,100.0,27.967,28.831,42.352000000000004,43.902,0.0,0.0,100.0,0.0,0.0,0.0,0.0,3134.0,3324.4,4176.5,4421.4,305.4245,304.12475,314.825,313.97025,21.9709,20.6129,21.9798,21.4915,314.999998,314.999998,324.999988,324.999988,99.55995714285714,99.5074,99.56857142857143,99.54832857142857,0.2124999999999999,0.0767500000000001,-0.006833333333333333,0.21633333333333335,-0.03499999999999659,-0.05285714285714249,1.553,1.4855,38.318,29.831,38.373999999999995,35.3215,56.335,35.2535,60.0045,52.9275,54.242000000000004,34.355000000000004,58.577,51.2305,53.385999999999996,33.879,58.4875,50.629,-0.1915,0.03299999999999992,0.10378000000000001,0.10454000000000001,0.0,213.565,213.685,210.39333333333332,210.39333333333332,0.0,0.0
20,0.0,0.0,0.0,1.0,1.0,0.0,0.0,1.0,0.0,100.0,1.0,1.1856,26.0,0.0,0.0,0.0,59.999996,0.0,26.0,26.0,26.0,26.0,0.21025000000000005,0.27160000000000006,0.04596666666666667,292.282,-2.8231,-2.584714285714286,-1.6073,-1.5175555555555558,-208.54,215.9375,190.573125,0.0,0.0,0.0,0.0,0.040633333333333334,-5.498166666666667,-5.498166666666667,-0.5542,-1.2196666666666667,0.09587499999999993,0.6059999999999999,68.35900000000001,0.1095,-0.22162500000000002,-2.056,100.0,1.0,1.0,210.71333333333334,0.0,0.0,0.0,0.0,0.0,0.0,0.0,8931.4,0.0,55.0,5.0,246.06666666666666,0.0,0.0,0.0,0.0,0.0,0.0,0.0,0.0,1.004999999999999,1.004999999999999,0.0,0.0,0.0,55.0,616.79921,10000.0,85.000001,85.000001,85.000001,85.000001,395.0,0.0,0.0,0.0,1.0,333.33500000000004,52.78,52.78,46.875,46.875,34.0,-15.530000000000001,32.07,-21.78,38.370000000000005,0.0,1782.515,-1.754999999999999,100.0,27.448,28.38,42.905,44.346000000000004,0.0,0.0,100.0,0.0,0.0,0.0,0.0,2772.857142857143,3283.1,4078.0,4373.9,306.501,304.4695,314.83633333333336,313.92125,21.9801,20.6186,21.9904,21.5009,314.999998,314.999998,324.999988,324.999988,99.55998571428572,99.5074,99.56871428571428,99.54848571428572,0.24299999999999988,0.1120000000000001,0.030166666666666668,0.25233333333333335,-0.01999999999999602,-0.0714285714285694,1.517,1.423,38.376000000000005,29.866500000000002,38.44,35.3805,56.325,35.297,60.043,52.9925,54.232,34.394999999999996,58.613,51.2935,53.375,33.917,58.519999999999996,50.691,-0.21299999999999986,0.059499999999999886,0.101385,0.11145000000000001,0.0,213.91,214.09,210.71333333333334,210.71333333333334,0.0,0.0
21,0.0,0.0,0.0,1.0,1.0,0.0,0.0,1.0,0.0,100.0,1.0,1.1856,26.0,0.0,0.0,0.0,59.999996,0.0,26.0,26.0,26.0,26.0,0.21300000000000008,0.28900000000000015,-0.06936666666666666,292.587,-2.8045,-2.571428571428571,-1.6802000000000001,-1.4677777777777778,-205.05,215.9375,190.55,0.0,0.0,0.0,0.0,0.04266666666666667,-5.498166666666667,-5.498166666666667,-0.5775,0.5433333333333333,0.08499999999999996,-0.9590000000000001,68.491,0.1306,-0.222475,-2.0180000000000002,100.0,1.0,1.0,211.36333333333334,0.0,0.0,0.0,0.0,0.0,0.0,0.0,8958.9,0.0,55.0,5.0,246.54000000000002,1.0,0.0,0.0,0.0,0.0,0.0,0.0,0.0,1.056000000000001,1.056000000000001,0.0,0.0,1.0,55.0,616.79921,10000.0,85.000001,85.000001,85.000001,85.000001,395.0,0.0,0.0,0.0,1.0,166.665,52.231,52.231,48.157,48.157,34.0,-19.0325,29.592,-21.159999999999997,34.655,0.0,1782.464,-0.5399999999999991,100.0,27.537,28.779,42.065,43.991,0.0,0.0,100.0,0.0,0.0,0.0,0.0,3025.5714285714284,3225.4,3959.125,4116.5,305.8215,304.45975,315.35633333333334,314.68525,21.9895,20.6245,22.0006,21.509999999999998,314.999998,314.999998,324.999988,324.999988,99.56001428571429,99.50743333333334,99.56884285714285,99.54864285714285,0.19600000000000017,0.06325000000000003,0.035,0.2625,-0.054999999999999716,-0.04285714285714448,1.6255000000000002,1.549,38.435,29.903,38.504000000000005,35.4375,56.317,35.3425,60.074,53.053,54.224999999999994,34.4375,58.641,51.3515,53.366,33.958,58.545,50.748333333333335,-0.1439999999999999,-0.008999999999999897,0.11006,0.10294,0.0,214.375,214.51999999999998,211.36333333333334,211.36333333333334,0.0,0.0
22,0.0,0.0,0.0,1.0,1.0,0.0,0.0,1.0,0.0,100.0,1.0,1.1856,26.0,0.0,0.0,0.0,59.999996,0.0,26.0,26.0,26.0,26.0,0.1628750000000001,0.26090000000000013,0.022933333333333337,292.068,-2.734,-2.625571428571429,-1.6661000000000001,-1.4666666666666668,-201.76,215.945,190.527625,0.0,0.0,0.0,0.0,0.04456666666666667,-5.498166666666667,-5.498166666666667,-0.5574,0.084,0.08437499999999987,-0.812,68.62100000000001,0.1333,-0.20735,-0.8379999999999992,100.0,1.0,1.0,211.55666666666667,0.0,0.0,0.0,0.0,0.0,0.0,0.0,8967.1,0.0,55.0,5.0,247.01,0.0,0.0,0.0,0.0,0.0,0.0,0.0,0.0,1.1039999999999992,1.1039999999999992,0.0,0.0,0.0,55.0,616.79921,10000.0,85.000001,85.000001,85.000001,85.000001,395.0,0.0,0.0,0.0,1.0,333.33500000000004,52.261,52.261,47.089,47.089,34.0,-20.355,26.7,-24.380000000000003,36.055,0.0,1782.414,0.3500000000000014,100.0,27.677,28.852,42.505,44.321,0.0,0.0,100.0,0.0,0.0,0.0,0.0,2933.0,3152.1,4211.875,4345.9,305.998,304.561,314.69666666666666,314.10125,21.9984,20.63,22.0106,21.5188,314.999998,314.999998,324.999988,324.999988,99.56004285714286,99.50743333333334,99.569,99.54878571428571,0.1352500000000001,-0.0040000000000000036,0.012,0.23416666666666666,-0.04999999999999716,-0.030000000000001137,1.5015,1.4595,38.489999999999995,29.9375,38.566,35.4925,56.306,35.382999999999996,60.1115,53.118,54.214,34.475,58.676,51.414500000000004,53.354,33.994,58.576499999999996,50.81,-0.06000000000000005,-0.09699999999999998,0.10983000000000001,0.10359000000000002,0.0,214.81,214.89,211.55666666666667,211.55666666666667,0.0,0.0
23,0.0,0.0,0.0,1.0,1.0,0.0,0.0,1.0,0.0,100.0,1.0,1.1856,26.0,0.0,0.0,0.0,59.999996,0.0,26.0,26.0,26.0,26.0,0.08337499999999998,0.2579,-0.045733333333333334,292.145,-2.7371,-2.6014285714285714,-1.6938,-1.557,-198.05,215.95499999999998,190.50275,0.0,0.0,0.0,0.0,0.046733333333333335,-5.498166666666667,-5.498166666666667,-0.5770000000000001,-0.07933333333333333,0.05262499999999992,-1.107,68.763,0.0913,-0.233025,0.4320000000000004,100.0,1.0,1.0,212.13,0.0,0.0,0.0,0.0,0.0,0.0,0.0,8991.4,0.0,55.0,5.0,247.51999999999998,1.0,0.0,0.0,0.0,0.0,0.0,0.0,0.0,1.1580000000000013,1.1580000000000013,0.0,0.0,1.0,55.0,616.79921,10000.0,85.000001,85.000001,85.000001,85.000001,395.0,0.0,0.0,0.0,1.0,166.665,51.62,51.62,48.172,48.172,34.0,-24.8175,24.598,-25.92,30.2425,0.0,1782.363,0.8000000000000007,100.0,28.148,28.761,42.82,44.349000000000004,0.0,0.0,100.0,0.0,0.0,0.0,0.0,3240.857142857143,3154.2,3980.125,3939.6000000000004,305.0865,304.6445,315.3263333333333,315.02325,22.0084,20.6361,22.0217,21.5287,314.999998,314.999998,324.999988,324.999988,99.56005714285715,99.50743333333334,99.56914285714285,99.54894285714286,0.09350000000000014,-0.04625000000000001,-0.048,0.17883333333333334,-0.046666666666666856,-0.04142857142856826,1.542,1.5554999999999999,38.552,29.9755,38.635999999999996,35.554,56.293,35.4225,60.147,53.18,54.201,34.512,58.709,51.474000000000004,53.34,34.0295,58.606,50.86866666666667,-0.016999999999999904,-0.14449999999999985,0.110075,0.09885500000000001,0.0,215.29500000000002,215.25,212.13,212.13,0.0,0.0
24,0.0,0.0,0.0,1.0,1.0,0.0,0.0,1.0,0.0,100.0,1.0,1.1856,26.0,0.0,0.0,0.0,59.999996,0.0,26.0,26.0,26.0,26.0,-0.001375000000000015,0.2822,-0.10553333333333333,292.358,-2.7344,-2.6394285714285717,-1.5917,-1.5201111111111112,-194.95,215.965,190.481625,0.0,0.0,0.0,0.0,0.04853333333333333,-5.498166666666667,-5.498166666666667,-0.5786,-0.5466666666666666,0.03887499999999999,0.46399999999999997,68.883,0.0391,-0.21705000000000002,0.9539999999999997,100.0,1.0,1.0,212.37333333333333,0.0,0.0,0.0,0.0,0.0,0.0,0.0,9001.7,0.0,55.0,5.0,247.95,0.0,0.0,0.0,0.0,0.0,0.0,0.0,0.0,1.2029999999999994,1.2029999999999994,0.0,0.0,0.0,55.0,616.79921,10000.0,85.000001,85.000001,85.000001,85.000001,395.0,0.0,0.0,0.0,1.0,166.665,52.872,52.872,47.058,47.058,34.0,-22.915,22.165999999999997,-29.89666666666666,29.0925,0.0,1782.317,0.9200000000000017,100.0,28.061,28.215,43.204,43.973,0.0,0.0,100.0,0.0,0.0,0.0,0.0,2857.285714285714,3005.2,4275.25,4136.6,306.1325,305.3245,314.40666666666664,314.66575,22.0167,20.641,22.031,21.5367,314.999998,314.999998,324.999988,324.999988,99.56005714285715,99.50745,99.56927142857143,99.54907142857142,0.05750000000000011,-0.07499999999999996,-0.09483333333333333,0.1305,-0.03499999999999659,-0.03142857142857025,1.482,1.533,38.604,30.006,38.694,35.6045,56.278,35.4565,60.179,53.233000000000004,54.187,34.5435,58.739,51.525,53.326,34.06,58.632999999999996,50.91866666666667,-0.0015000000000000568,-0.15100000000000025,0.11048500000000001,0.10460000000000001,0.0,215.685,215.60000000000002,212.37333333333333,212.37333333333333,0.0,0.0
25,0.0,0.0,0.0,1.0,1.0,0.0,0.0,1.0,0.0,100.0,1.0,1.1856,26.0,0.0,0.0,0.0,59.999996,0.0,26.0,26.0,26.0,26.0,-0.07924999999999993,0.2632000000000001,-0.0685,292.175,-2.7607,-2.6414285714285715,-1.5721500000000002,-1.5555555555555556,-191.22,215.97750000000002,190.45475,0.0,0.0,0.0,0.0,0.0507,-5.498166666666667,-5.498166666666667,-0.613,0.09366666666666668,0.004249999999999865,-0.766,69.023,-0.022500000000000003,-0.2255,1.3860000000000001,100.0,1.0,1.0,212.95,0.0,0.0,0.0,0.0,0.0,0.0,0.0,9026.2,0.0,55.0,5.0,248.45666666666665,1.0,0.0,0.0,0.0,0.0,0.0,0.0,0.0,1.256999999999998,1.256999999999998,0.0,0.0,1.0,55.0,616.79921,10000.0,85.000001,85.000001,85.000001,85.000001,395.0,0.0,0.0,0.0,1.0,166.665,51.635999999999996,51.635999999999996,47.897,47.897,34.0,-28.42,23.182000000000002,-29.573333333333338,25.3625,0.0,1782.263,0.9400000000000013,100.0,28.3,28.214,43.182,43.364000000000004,0.0,0.0,100.0,0.0,0.0,0.0,0.0,3286.0,3318.1,3996.0,3975.0,304.9475,304.37,315.17466666666667,315.05225,22.026699999999998,20.6469,22.042,21.5463,314.999998,314.999998,324.999988,324.999988,99.56007142857143,99.50745,99.56942857142857,99.54922857142857,0.028249999999999886,-0.11199999999999999,-0.14916666666666667,0.07883333333333332,-0.04333333333332945,-0.060000000000002274,1.5474999999999999,1.6055000000000001,38.667,30.0435,38.763,35.664500000000004,56.26,35.501,60.2155,53.292500000000004,54.169,34.5845,58.7725,51.583,53.307,34.0995,58.6635,50.975,-0.016000000000000014,-0.15500000000000025,0.10454000000000001,0.10819500000000001,0.0,216.125,216.025,212.95,212.95,0.0,0.0
26,0.0,0.0,0.0,1.0,1.0,0.0,0.0,1.0,0.0,100.0,1.0,1.1856,26.0,0.0,0.0,0.0,59.999996,0.0,26.0,26.0,26.0,26.0,-0.12337500000000001,0.2742,0.05533333333333334,291.10699999999997,-2.6715999999999998,-2.757428571428571,-1.58755,-1.5843333333333334,-187.7,215.9875,190.429,0.0,0.0,0.0,0.0,0.05273333333333334,-5.498166666666667,-5.498166666666667,-0.5691,0.5683333333333334,-0.05387500000000012,-1.3319999999999999,69.15899999999999,-0.0651,-0.19740000000000002,1.516,100.0,1.0,1.0,213.08666666666667,0.0,0.0,0.0,0.0,0.0,0.0,0.0,9032.0,0.0,55.0,5.0,248.94333333333333,0.0,0.0,0.0,0.0,0.0,0.0,0.0,0.0,1.3079999999999998,1.3079999999999998,0.0,0.0,0.0,55.0,616.79921,10000.0,85.000001,85.000001,85.000001,85.000001,395.0,0.0,0.0,0.0,1.0,166.665,51.468,51.468,46.036,46.036,34.0,-29.5825,19.622,-39.93333333333334,26.7325,0.0,1782.212,0.7699999999999996,100.0,29.185,28.644,44.120000000000005,43.54,0.0,0.0,100.0,0.0,0.0,0.0,0.0,3334.142857142857,2920.7,4705.5,4421.7,304.8475,305.30875,313.537,313.96375,22.0365,20.6526,22.0528,21.5556,314.999998,314.999998,324.999988,324.999988,99.56007142857143,99.50748333333334,99.56958571428571,99.54937142857143,-0.007249999999999979,-0.15325,-0.19916666666666666,0.02316666666666667,-0.03833333333332689,-0.02285714285714846,1.399,1.458,38.727999999999994,30.079,38.83,35.7225,56.245999999999995,35.5465,60.257,53.353,54.157,34.6265,58.8115,51.6405,53.293,34.1395,58.699,51.031333333333336,-0.026499999999999968,-0.13949999999999996,0.10817500000000001,0.10354000000000001,0.0,216.60000000000002,216.445,213.08666666666667,213.08666666666667,0.0,0.0
27,0.0,0.0,0.0,1.0,1.0,0.0,0.0,1.0,0.0,100.0,1.0,1.1856,26.0,0.0,0.0,0.0,59.999996,0.0,26.0,26.0,26.0,26.0,-0.13375000000000004,0.2581,-0.012733333333333333,291.595,-2.6153,-2.7487142857142857,-1.56175,-1.670777777777778,-184.59,215.995,190.407375,0.0,0.0,0.0,0.0,0.054566666666666666,-5.498166666666667,-5.498166666666667,-0.5976,-1.099,-0.06700000000000017,0.5870000000000002,69.275,-0.0873,-0.24405000000000002,1.38,100.0,1.0,1.0,213.57,0.0,0.0,0.0,0.0,0.0,0.0,0.0,9052.5,0.0,55.0,5.0,249.36666666666667,1.0,0.0,0.0,0.0,0.0,0.0,0.0,0.0,1.352999999999998,1.352999999999998,0.0,0.0,1.0,55.0,616.79921,10000.0,85.000001,85.000001,85.000001,85.000001,395.0,0.0,0.0,0.0,1.0,166.665,51.727000000000004,51.727000000000004,46.692,46.692,34.0,-28.3475,20.458,-34.61333333333333,24.6525,0.0,1782.167,0.6649999999999991,100.0,29.168,28.127,44.96,43.75,0.0,0.0,100.0,0.0,0.0,0.0,0.0,3203.4285714285716,3074.6,4156.875,4023.3,305.0415,305.15,314.70433333333335,314.85775,22.0449,20.6574,22.0623,21.5638,314.999998,314.999998,324.999988,324.999988,99.56007142857143,99.5075,99.56971428571428,99.5495,-0.015249999999999986,-0.15249999999999997,-0.2135,0.01933333333333333,-0.045000000000001705,-0.05857142857143316,1.4775,1.5350000000000001,38.781,30.109,38.888999999999996,35.7735,56.230999999999995,35.584,60.2935,53.4055,54.143,34.661,58.846000000000004,51.6915,53.278999999999996,34.1725,58.7305,51.080666666666666,-0.026999999999999913,-0.13500000000000023,0.10847000000000001,0.10518500000000001,0.0,216.89,216.76,213.57,213.57,0.0,0.0
28,0.0,0.0,0.0,1.0,1.0,0.0,0.0,1.0,0.0,100.0,1.0,1.1856,26.0,0.0,0.0,0.0,59.999996,0.0,26.0,26.0,26.0,26.0,-0.15137500000000004,0.26570000000000005,-0.0512,291.855,-2.6374,-2.7385714285714284,-1.50455,-1.6360000000000001,-180.84,215.9975,190.3805,0.0,0.0,0.0,0.0,0.05673333333333334,-5.498166666666667,-5.498166666666667,-0.599,0.6833333333333333,-0.07637500000000008,0.7600000000000002,69.413,-0.10260000000000001,-0.212675,1.2599999999999998,100.0,1.0,1.0,214.07999999999998,0.0,0.0,0.0,0.0,0.0,0.0,0.0,9074.1,0.0,55.0,5.0,249.85666666666668,0.0,0.0,0.0,0.0,0.0,0.0,0.0,0.0,1.407,1.407,0.0,0.0,0.0,55.0,616.79921,10000.0,85.000001,85.000001,85.000001,85.000001,395.0,0.0,0.0,0.0,1.0,166.665,51.834,51.834,47.394,47.394,34.0,-28.6725,19.990000000000002,-33.989999999999995,24.47,0.0,1782.112,0.46499999999999986,100.0,29.306,27.94,44.302,43.067,0.0,0.0,100.0,0.0,0.0,0.0,0.0,3210.857142857143,3006.6,4201.5,4105.3,304.9715,305.30825,314.724,314.77075,22.0552,20.6633,22.0733,21.5733,314.999998,314.999998,324.999988,324.999988,99.56007142857143,99.5075,99.56987142857143,99.54965714285714,-0.014499999999999957,-0.15000000000000002,-0.21583333333333335,0.016,-0.04999999999999716,-0.05571428571428072,1.52,1.5385,38.845,30.1455,38.958,35.833,56.216,35.629999999999995,60.331,53.464,54.129000000000005,34.7035,58.8805,51.747,53.263999999999996,34.213,58.7625,51.135,-0.04600000000000004,-0.1120000000000001,0.10457000000000001,0.110655,0.0,217.35500000000002,217.26999999999998,214.07999999999998,214.07999999999998,0.0,0.0
29,0.0,0.0,0.0,1.0,1.0,0.0,0.0,1.0,0.0,100.0,1.0,1.1856,26.0,0.0,0.0,0.0,59.999996,0.0,26.0,26.0,26.0,26.0,-0.14049999999999996,0.2610000000000001,0.011433333333333334,291.489,-2.5761,-2.797428571428571,-1.53865,-1.619888888888889,-177.51,216.0,190.355625,0.0,0.0,0.0,0.0,0.058666666666666666,-5.498166666666667,-5.498166666666667,-0.6065,-0.718,-0.07725000000000026,0.6400000000000001,69.539,-0.09970000000000001,-0.21807500000000002,0.9560000000000004,100.0,1.0,1.0,214.32666666666665,0.0,0.0,0.0,0.0,0.0,0.0,0.0,9084.5,0.0,55.0,5.0,250.31333333333333,1.0,0.0,0.0,0.0,0.0,0.0,0.0,0.0,1.4549999999999983,1.4549999999999983,0.0,0.0,1.0,55.0,616.79921,10000.0,85.000001,85.000001,85.000001,85.000001,395.0,0.0,0.0,0.0,1.0,333.33500000000004,51.682,51.682,46.555,46.555,34.0,-28.9225,21.214,-35.42333333333333,25.21,0.0,1782.063,0.38500000000000156,100.0,29.011,27.816,44.806,43.315,0.0,0.0,100.0,0.0,0.0,0.0,0.0,3303.285714285714,3101.6,4264.125,4190.5,304.7815,304.9065,314.41633333333334,314.522,22.0641,20.6684,22.0834,21.5821,314.999998,314.999998,324.999988,324.999988,99.56008571428572,99.50753333333333,99.57001428571428,99.5498,-0.014499999999999957,-0.15400000000000003,-0.21183333333333335,0.01916666666666667,-0.03333333333333144,-0.03999999999999915,1.4635,1.504,38.900999999999996,30.177500000000002,39.021,35.888,56.201,35.6695,60.37,53.5195,54.114000000000004,34.74,58.917500000000004,51.801,53.248000000000005,34.248,58.796,51.190333333333335,-0.05049999999999999,-0.11549999999999994,0.10919500000000001,0.11110500000000001,0.0,217.685,217.60500000000002,214.32666666666665,214.32666666666665,0.0,0.0
30,0.0,0.0,0.0,1.0,1.0,0.0,0.0,1.0,0.0,100.0,1.0,1.1856,26.0,0.0,0.0,0.0,59.999996,0.0,26.0,26.0,26.0,26.0,-0.13137500000000002,0.27080000000000015,0.056,291.031,-2.6306,-2.686,-1.4792,-1.6944444444444444,-174.17000000000002,215.995,190.330625,0.0,0.0,0.0,0.0,0.0606,-5.498166666666667,-5.498166666666667,-0.602,0.8073333333333333,-0.07887500000000003,0.8839999999999999,69.66,-0.0932,-0.21575,0.9060000000000006,100.0,1.0,1.0,214.73000000000002,0.0,0.0,0.0,0.0,0.0,0.0,0.0,9101.7,0.0,55.0,5.0,250.75,0.0,0.0,0.0,0.0,0.0,0.0,1.0,0.0,1.5030000000000001,1.5030000000000001,0.0,0.0,0.0,55.0,616.79921,10000.0,85.000001,85.000001,85.000001,85.000001,395.0,0.0,0.0,0.0,1.0,166.665,50.888,50.888,46.799,46.799,34.0,-29.9025,20.478,-34.42666666666666,26.817500000000003,0.0,1782.017,0.23000000000000043,100.0,29.855,28.459,44.666,43.312,0.0,0.0,100.0,0.0,0.0,0.0,0.0,3425.857142857143,3076.2,4321.5,4251.0,304.39,305.04925,314.3616666666667,314.3325,22.0734,20.6737,22.0933,21.5907,314.999998,314.999998,324.999988,324.999988,99.56008571428572,99.50755,99.57015714285714,99.54992857142857,0.0040000000000000036,-0.14125,-0.201,0.01983333333333333,-0.041666666666671404,-0.054285714285711606,1.4695,1.506,38.959,30.211,39.083,35.942,56.189,35.712,60.405,53.573499999999996,54.102999999999994,34.7795,58.95,51.8525,53.236000000000004,34.286,58.826,51.23766666666667,-0.06699999999999995,-0.10000000000000009,0.10307500000000001,0.11135,0.0,218.125,218.05,214.73000000000002,214.73000000000002,0.0,0.0
31,0.0,0.0,0.0,1.0,1.0,0.0,0.0,1.0,0.0,100.0,1.0,1.1856,26.0,0.0,0.0,0.0,59.999996,0.0,26.0,26.0,26.0,26.0,-0.10575000000000001,0.25560000000000005,-0.007566666666666668,291.031,-2.7068,-2.6571428571428575,-1.5723500000000001,-1.6624444444444444,-170.61,215.99,190.304875,0.0,0.0,0.0,0.0,0.06266666666666666,-5.498166666666667,-5.498166666666667,-0.5896,-0.6363333333333334,-0.06850000000000023,-0.7789999999999999,69.792,-0.078,-0.21962500000000001,0.5320000000000009,100.0,1.0,1.0,215.04000000000002,0.0,0.0,0.0,0.0,0.0,0.0,0.0,9114.7,0.0,55.0,5.0,251.22666666666666,1.0,0.0,0.0,0.0,0.0,0.0,1.0,0.0,1.5539999999999985,1.5539999999999985,0.0,0.0,1.0,55.0,616.79921,10000.0,85.000001,85.000001,85.000001,85.000001,395.0,0.0,0.0,0.0,1.0,166.665,51.575,51.575,45.516999999999996,45.516999999999996,34.0,-28.025,20.024,-37.54,27.0,0.0,1781.966,0.14499999999999957,100.0,29.33,28.691,45.16,44.028999999999996,0.0,0.0,100.0,0.0,0.0,0.0,0.0,3245.714285714286,3029.1,4498.75,4235.8,305.2525,305.2375,314.0036666666667,314.41425,22.0829,20.6793,22.1041,21.6001,314.999998,314.999998,324.999988,324.999988,99.56008571428572,99.50756666666666,99.57031428571429,99.55008571428571,0.011499999999999844,-0.13624999999999998,-0.19933333333333333,0.0315,-0.04999999999999716,-0.03857142857143003,1.43,1.4645000000000001,39.018,30.246000000000002,39.150999999999996,36.001,56.173,35.7555,60.447,53.634,54.087,34.8195,58.9895,51.911,53.22,34.324,58.862,51.294333333333334,-0.08199999999999985,-0.08999999999999986,0.111725,0.10743000000000001,0.0,218.48000000000002,218.42000000000002,215.04000000000002,215.04000000000002,0.0,0.0
32,0.0,0.0,0.0,1.0,1.0,0.0,0.0,1.0,0.0,100.0,1.0,1.1856,26.0,0.0,0.0,0.0,59.999996,0.0,26.0,26.0,26.0,26.0,-0.11199999999999999,0.2662,-0.0466,291.275,-2.6371,-2.702285714285714,-1.59485,-1.5735555555555556,-167.05,215.98000000000002,190.279125,0.0,0.0,0.0,0.0,0.06473333333333334,-5.498166666666667,-5.498166666666667,-0.6104,0.19633333333333336,-0.08975,0.262,69.919,-0.0651,-0.23055,0.5260000000000007,100.0,1.0,1.0,215.60000000000002,0.0,0.0,0.0,0.0,0.0,0.0,0.0,9138.6,0.0,55.0,5.0,251.68,0.0,0.0,0.0,0.0,0.0,0.0,1.0,0.0,1.6050000000000004,1.6050000000000004,0.0,0.0,0.0,55.0,616.79921,10000.0,85.000001,85.000001,85.000001,85.000001,395.0,0.0,0.0,0.0,1.0,166.665,51.147,51.147,46.722,46.722,34.0,-27.4825,22.158,-33.36,25.7225,0.0,1781.915,0.08000000000000185,100.0,29.504,28.6,44.778999999999996,43.698,0.0,0.0,100.0,0.0,0.0,0.0,0.0,3319.4285714285716,3118.3,4229.625,4146.9,304.757,304.97175,314.70866666666666,314.76875,22.0925,20.6851,22.1146,21.6093,314.999998,314.999998,324.999988,324.999988,99.5601,99.50758333333333,99.57047142857142,99.55022857142858,0.03374999999999995,-0.11249999999999993,-0.17566666666666667,0.0535,-0.05333333333332746,-0.047142857142851824,1.5295,1.5514999999999999,39.078,30.2815,39.216,36.058,56.158,35.799,60.4825,53.6905,54.073,34.8595,59.022999999999996,51.965,53.205,34.3625,58.8925,51.347,-0.07600000000000007,-0.09050000000000002,0.10227000000000001,0.10949,0.0,218.885,218.835,215.60000000000002,215.60000000000002,0.0,0.0
33,0.0,0.0,0.0,1.0,1.0,0.0,0.0,1.0,0.0,100.0,1.0,1.1856,26.0,0.0,0.0,0.0,59.999996,0.0,26.0,26.0,26.0,26.0,-0.08162499999999995,0.2722,-0.028733333333333333,291.397,-2.6611,-2.7462857142857144,-1.5352000000000001,-1.5835555555555556,-163.48000000000002,215.97,190.2525,0.0,0.0,0.0,0.0,0.06683333333333334,-5.498166666666667,-5.498166666666667,-0.6123000000000001,-0.44,-0.07825000000000015,0.15799999999999992,70.05,-0.056,-0.216475,0.41799999999999926,100.0,1.0,1.0,215.87333333333333,0.0,0.0,0.0,0.0,0.0,0.0,0.0,9150.1,0.0,55.0,5.0,252.15333333333334,1.0,0.0,0.0,0.0,0.0,0.0,1.0,0.0,1.6559999999999988,1.6559999999999988,0.0,0.0,1.0,55.0,616.79921,10000.0,85.000001,85.000001,85.000001,85.000001,395.0,0.0,0.0,0.0,1.0,166.665,51.879999999999995,51.879999999999995,46.539,46.539,34.0,-26.295,21.494,-33.25666666666666,26.935000000000002,0.0,1781.864,-0.08500000000000085,100.0,29.117,28.436,44.705,43.894999999999996,0.0,0.0,100.0,0.0,0.0,0.0,0.0,3218.5714285714284,2921.7,4279.0,4267.3,305.224,305.43825,314.477,314.353,22.102,20.6905,22.1252,21.6186,314.999998,314.999998,324.999988,324.999988,99.5601,99.50758333333333,99.57061428571429,99.55038571428571,0.039000000000000146,-0.10199999999999998,-0.17216666666666666,0.049,-0.046666666666666856,-0.057142857142849834,1.4775,1.492,39.138,30.316,39.282,36.1165,56.143,35.838499999999996,60.519999999999996,53.749,54.059,34.896,59.058,52.021,53.19,34.397,58.9245,51.402,-0.09650000000000003,-0.06899999999999995,0.10589000000000001,0.10952,0.0,219.265,219.245,215.87333333333333,215.87333333333333,0.0,0.0
34,0.0,0.0,0.0,1.0,1.0,0.0,0.0,1.0,0.0,100.0,1.0,1.1856,26.0,0.0,0.0,0.0,59.999996,0.0,26.0,26.0,26.0,26.0,-0.06462499999999993,0.2591000000000001,-0.0623,291.84,-2.6715,-2.730142857142857,-1.6005500000000001,-1.6007777777777779,-159.89999999999998,215.95749999999998,190.2245,0.0,0.0,0.0,0.0,0.0689,-5.498166666666667,-5.498166666666667,-0.6475000000000001,-0.7803333333333334,-0.042749999999999844,1.0070000000000001,70.17699999999999,-0.0427,-0.2278,0.21399999999999952,100.0,1.0,1.0,216.36,0.0,0.0,0.0,0.0,0.0,0.0,0.0,9170.7,0.0,55.0,5.0,252.61,0.0,0.0,0.0,0.0,0.0,0.0,1.0,0.0,1.7070000000000007,1.7070000000000007,0.0,0.0,0.0,55.0,616.79921,10000.0,85.000001,85.000001,85.000001,85.000001,395.0,0.0,0.0,0.0,1.0,166.665,52.139,52.139,47.363,47.363,34.0,-24.322499999999998,22.822000000000003,-31.296666666666663,27.125,0.0,1781.813,-0.10500000000000043,100.0,28.931,28.025,44.386,43.865,0.0,0.0,100.0,0.0,0.0,0.0,0.0,3067.142857142857,3031.5,4059.125,4144.1,305.403,305.21925,315.047,314.651,22.1113,20.696,22.1356,21.6279,314.999998,314.999998,324.999988,324.999988,99.5601,99.5076,99.57077142857143,99.55054285714286,0.06225000000000014,-0.08599999999999997,-0.162,0.06966666666666667,-0.03999999999999915,-0.057142857142849834,1.5234999999999999,1.544,39.196,30.3505,39.347,36.1745,56.126000000000005,35.876999999999995,60.554,53.807,54.043,34.9315,59.09,52.077,53.174,34.4315,58.953,51.45633333333333,-0.09299999999999997,-0.06550000000000011,0.10557000000000001,0.10697500000000001,0.0,219.635,219.60500000000002,216.36,216.36,0.0,0.0
35,0.0,0.0,0.0,1.0,1.0,0.0,0.0,1.0,0.0,100.0,1.0,1.1856,26.0,0.0,0.0,0.0,59.999996,0.0,26.0,26.0,26.0,26.0,-0.026000000000000023,0.24419999999999997,-0.04686666666666667,291.763,-2.675,-2.681142857142857,-1.5665,-1.611888888888889,-156.32,215.9425,190.194375,0.0,0.0,0.0,0.0,0.07100000000000001,-5.498166666666667,-5.498166666666667,-0.6861,-0.18966666666666665,-0.05325000000000024,-0.9909999999999999,70.303,-0.0286,-0.23025,0.1280000000000001,100.0,1.0,1.0,216.80666666666667,0.0,0.0,0.0,0.0,0.0,0.0,0.0,9189.7,0.0,55.0,5.0,253.06666666666666,1.0,0.0,0.0,0.0,0.0,0.0,1.0,0.0,1.7579999999999991,1.7579999999999991,0.0,0.0,1.0,55.0,616.79921,10000.0,85.000001,85.000001,85.000001,85.000001,395.0,0.0,0.0,0.0,1.0,166.665,51.498,51.498,47.073,47.073,34.0,-26.2075,24.823999999999998,-29.733333333333334,26.325000000000003,0.0,1781.761,-0.08500000000000085,100.0,28.576999999999998,28.542,44.032,43.472,0.0,0.0,100.0,0.0,0.0,0.0,0.0,3279.142857142857,3277.7,4031.625,3941.0,305.043,304.35475,315.10333333333335,315.1325,22.1205,20.7018,22.146,21.637,314.999998,314.999998,324.999988,324.999988,99.56011428571429,99.50761666666666,99.57091428571428,99.55067142857143,0.057250000000000245,-0.08174999999999999,-0.1455,0.0835,-0.04333333333332945,-0.04571428571428271,1.5394999999999999,1.556,39.253,30.386,39.412,36.231,56.108999999999995,35.917500000000004,60.588499999999996,53.8615,54.027,34.9695,59.1215,52.1295,53.157,34.4675,58.9815,51.507333333333335,-0.08850000000000002,-0.07350000000000012,0.10980500000000001,0.105355,0.0,220.04000000000002,220.025,216.80666666666667,216.80666666666667,0.0,0.0
36,0.0,0.0,0.0,1.0,1.0,0.0,0.0,1.0,0.0,100.0,1.0,1.1856,26.0,0.0,0.0,0.0,59.999996,0.0,26.0,26.0,26.0,26.0,-0.03562500000000002,0.2693000000000001,0.048,290.833,-2.7282,-2.6454285714285715,-1.5389,-1.6036666666666668,-153.15,215.93,190.1665,0.0,0.0,0.0,0.0,0.07283333333333335,-5.498166666666667,-5.498166666666667,-0.6642,0.304,-0.08387499999999992,0.09699999999999998,70.419,-0.0221,-0.199225,0.1720000000000006,100.0,1.0,1.0,216.91,0.0,0.0,0.0,0.0,0.0,0.0,0.0,9194.0,0.0,55.0,5.0,253.48000000000002,0.0,0.0,0.0,0.0,0.0,0.0,1.0,0.0,1.8030000000000008,1.8030000000000008,0.0,0.0,0.0,55.0,616.79921,10000.0,85.000001,85.000001,85.000001,85.000001,395.0,0.0,0.0,0.0,1.0,166.665,51.254,51.254,46.173,46.173,34.0,-26.177500000000002,24.024,-32.82,32.57,0.0,1781.717,-0.09499999999999886,100.0,29.201999999999998,28.667,44.256,43.765,0.0,0.0,100.0,0.0,0.0,0.0,0.0,3314.5714285714284,3180.9,4487.125,4557.5,304.881,304.8515,313.9703333333333,313.70875,22.1289,20.7069,22.1553,21.6452,314.999998,314.999998,324.999988,324.999988,99.56011428571429,99.50763333333333,99.57105714285714,99.55081428571428,0.07799999999999985,-0.06799999999999995,-0.12466666666666668,0.0995,-0.03499999999999659,-0.03857142857143003,1.4335,1.453,39.306,30.418,39.47,36.283,56.098,35.954499999999996,60.621,53.914,54.016,35.0035,59.152,52.18,53.144999999999996,34.5,59.009,51.556666666666665,-0.09199999999999986,-0.0754999999999999,0.10344,0.11021,0.0,220.42000000000002,220.405,216.91,216.91,0.0,0.0
