,ABS Active,ABS Enabled,AID Allow Tire Blankets,AID Auto Blip,AID Auto Clutch,AID Auto Shift,AID Fuel Rate,AID Ideal Line,AID Mech Damage,AID Stability,AID Tire Wear Rate,Air Density,Air Temp,Ballast,Best Lap Delta,Best Lap Time,Brake Bias,Brake Pos,Brake Temp FL,Brake Temp FR,Brake Temp RL,Brake Temp RR,CG Accel Lateral,CG Accel Longitudinal,CG Accel Vertical,CG Height,Camber FL,Camber FR,Camber RL,Camber RR,Car Coord X,Car Coord Y,Car Coord Z,Car Damage Front,Car Damage Left,Car Damage Rear,Car Damage Right,Car Pos Norm,Caster FL,Caster FR,Chassis Pitch Angle,Chassis Pitch Rate,Chassis Roll Angle,Chassis Roll Rate,Chassis Velocity X,Chassis Velocity Y,Chassis Velocity Z,Chassis Yaw Rate,Clutch Pos,DRS Active,DRS Available,Drive Train Speed,ERS Heat Charging,ERS Is Charging,ERS Max Energy,ERS Power Level,ERS Recovery Level,Engine Brake Setting,Engine Limiter,Engine RPM,Flags,Fuel Level,Gear,Ground Speed,HR Sample Clock,In Pit,KERS Charge,KERS Deployed Energy,KERS Input,KERS Max Energy,LR Sample Clock,Lap Invalidated,Lap Time,Lap Time2,Last Lap Time,Last Sector Time,MR Sample Clock,Max Fuel,Max Power,Max RPM,Max Sus Travel FL,Max Sus Travel FR,Max Sus Travel RL,Max Sus Travel RR,Max Torque,Max Turbo Boost,Num Tires Off Track,Penalties Enabled,Position,Raw Data Sample Rate,Ride Height FL,Ride Height FR,Ride Height RL,Ride Height RR,Road Temp,Self Align Torque FL,Self Align Torque FR,Self Align Torque RL,Self Align Torque RR,Session Lap Count,Session Time Left,Steering Angle,Surface Grip,Suspension Travel FL,Suspension Travel FR,Suspension Travel RL,Suspension Travel RR,TC Active,TC Enabled,Throttle Pos,Tire Dirt Level FL,Tire Dirt Level FR,Tire Dirt Level RL,Tire Dirt Level RR,Tire Load FL,Tire Load FR,Tire Load RL,Tire Load RR,Tire Loaded Radius FL,Tire Loaded Radius FR,Tire Loaded Radius RL,Tire Loaded Radius RR,Tire Pressure FL,Tire Pressure FR,Tire Pressure RL,Tire Pressure RR,Tire Radius FL,Tire Radius FR,Tire Radius RL,Tire Radius RR,Tire Rubber Grip FL,Tire Rubber Grip FR,Tire Rubber Grip RL,Tire Rubber Grip RR,Tire Slip Angle FL,Tire Slip Angle FR,Tire Slip Angle RL,Tire Slip Angle RR,Tire Slip Ratio FL,Tire Slip Ratio FR,Tire Slip Ratio RL,Tire Slip Ratio RR,Tire Temp Core FL,Tire Temp Core FR,Tire Temp Core RL,Tire Temp Core RR,Tire Temp Inner FL,Tire Temp Inner FR,Tire Temp Inner RL,Tire Temp Inner RR,Tire Temp Middle FL,Tire Temp Middle FR,Tire Temp Middle RL,Tire Temp Middle RR,Tire Temp Outer FL,Tire Temp Outer FR,Tire Temp Outer RL,Tire Temp Outer RR,Toe In FL,Toe In FR,Toe In RL,Toe In RR,Turbo Boost,Wheel Angular Speed FL,Wheel Angular Speed FR,Wheel Angular Speed RL,Wheel Angular Speed RR,Wind Direction,Wind Speed
0,0.0,0.0,0.0,1.0,1.0,0.0,0.0,1.0,0.0,100.0,1.0,1.1856,26.0,0.0,0.0,0.0,59.99999,0.0,26.0,26.0,26.0,26.0,-0.10355555555555551,0.32000000000000006,0.0142,294.022,-2.6992,-2.675,-1.5004,-1.5711,-275.64,216.2825,190.987375,0.0,0.0,0.0,0.0,0.0016333333333333755,-5.498166666666667,-5.498166666666667,-0.5489,1.3796666666666666,-0.027111111111111086,-1.323,65.514,-0.0594,-0.21385,1.177999999999999,100.0,1.0,1.0,202.26666666666665,0.0,0.0,0.0,0.0,0.0,0.0,0.0,8573.3,0.0,55.0,5.0,235.82,0.0,0.0,0.0,0.0,0.0,0.0,0.0,0.0,0.0030000000000001137,0.0030000000000001137,0.0,0.0,0.0,55.0,616.79921,10000.0,85.0,85.0,85.0,85.0,395.0,0.0,0.0,0.0,1.0,20.0,52.75,52.75,49.591,49.591,34.0,-27.195,22.214,-32.129999999999995,23.265,0.0,1783.512,0.8249999999999993,100.0,27.685,26.95,40.606,40.307,0.0,0.0,100.0,0.0,0.0,0.0,0.0,3026.75,3283.6,4186.0,3968.6,305.6786666666667,304.275,314.7115,314.91175,21.787,20.5055,21.7694,21.323999999999998,314.99999,314.99999,324.99998,324.99998,99.55947142857143,99.50698333333334,99.56491428571428,99.54562857142857,-0.022333333333333316,-0.1363333333333332,-0.18916666666666665,0.03133333333333333,-0.07000000000000028,-0.048571428571428044,1.5493333333333332,1.5845,37.169,29.1595,37.059,34.275,56.477999999999994,34.339,58.9675,51.783,54.385999999999996,33.513999999999996,57.5955,50.1275,53.554,33.0745,57.556,49.544666666666664,-0.011499999999999955,-0.13450000000000006,0.10781,0.10609,0.0,205.32999999999998,205.2,202.26666666666665,202.26666666666665,0.0,0.0
1,0.0,0.0,0.0,1.0,1.0,0.0,0.0,1.0,0.0,100.0,1.0,1.1856,26.0,0.0,0.0,0.0,59.999996,0.0,26.0,26.0,26.0,26.0,-0.14111111111111108,0.33240000000000003,-0.019333333333333334,293.045,-2.6147,-2.787,-1.5117,-1.5659,-272.29,216.28,190.967125,0.0,0.0,0.0,0.0,0.003566666666666607,-5.498166666666667,-5.498166666666667,-0.5015000000000001,-0.41933333333333334,-0.07622222222222241,-0.19399999999999995,65.667,-0.0685,-0.19642500000000002,1.4339999999999993,100.0,1.0,1.0,202.45,0.0,0.0,0.0,0.0,0.0,0.0,0.0,8581.1,0.0,55.0,5.0,236.37,1.0,0.0,0.0,0.0,0.0,0.0,0.0,0.0,0.053999999999998494,0.053999999999998494,0.0,0.0,1.0,55.0,616.79921,10000.0,85.000001,85.000001,85.000001,85.000001,395.0,0.0,0.0,0.0,1.0,333.33500000000004,53.482,53.482,48.34,48.34,34.0,-27.625,17.695999999999998,-34.41,28.0975,0.0,1783.458,1.0150000000000006,100.0,27.849,26.864,43.013,41.418,0.0,0.0,100.0,0.0,0.0,0.0,0.0,3088.25,2677.5,4265.666666666667,4685.0,305.3346666666667,306.31266666666664,314.3865,313.20975,21.797,20.5105,21.7802,21.3331,314.999998,314.999998,324.999988,324.999988,99.55948571428571,99.507,99.56507142857143,99.54578571428571,-0.02966666666666673,-0.1519999999999999,-0.2005,0.021833333333333333,-0.05666666666667197,-0.044285714285713595,1.4293333333333333,1.488,37.230999999999995,29.191,37.126000000000005,34.3315,56.462,34.382999999999996,59.0155,51.8515,54.370000000000005,33.5545,57.64,50.1935,53.537,33.113,57.5975,49.609,0.007000000000000117,-0.14500000000000002,0.10895500000000001,0.106715,0.0,205.76999999999998,205.64499999999998,202.45,202.45,0.0,0.0
2,0.0,0.0,0.0,1.0,1.0,0.0,0.0,1.0,0.0,100.0,1.0,1.1856,26.0,0.0,0.0,0.0,59.999996,0.0,26.0,26.0,26.0,26.0,-0.15544444444444439,0.29300000000000015,-0.015066666666666666,293.61,-2.5799,-2.816125,-1.4722,-1.6282,-268.94,216.275,190.94825,0.0,0.0,0.0,0.0,0.005499999999999949,-5.498166666666667,-5.498166666666667,-0.5467000000000001,-0.007333333333333303,-0.06066666666666665,1.871,65.81,-0.0833,-0.250775,1.75,100.0,1.0,1.0,203.32,0.0,0.0,0.0,0.0,0.0,0.0,0.0,8618.0,0.0,55.0,5.0,236.88666666666666,0.0,0.0,0.0,0.0,0.0,0.0,0.0,0.0,0.10500000000000043,0.10500000000000043,0.0,0.0,0.0,55.0,616.79921,10000.0,85.000001,85.000001,85.000001,85.000001,395.0,0.0,0.0,0.0,1.0,333.33500000000004,52.414,52.414,50.049,50.049,34.0,-31.32,18.858,-30.09,20.1125,0.0,1783.407,0.8850000000000016,100.0,28.427,26.906,42.824,41.262,0.0,0.0,100.0,0.0,0.0,0.0,0.0,3442.875,2871.3,3810.1111111111113,3680.4,304.349,305.66366666666664,315.49975,315.77375,21.807299999999998,20.5154,21.7906,21.3419,314.999998,314.999998,324.999988,324.999988,99.55948571428571,99.50701666666667,99.56521428571429,99.54592857142858,-0.03833333333333311,-0.16799999999999993,-0.232,0.0005,-0.06333333333333258,-0.05285714285714249,1.627,1.6665,37.296,29.221,37.191,34.3865,56.45,34.423,59.054,51.9075,54.358999999999995,33.591499999999996,57.6765,50.247,53.525,33.1485,57.631,49.66166666666666,-0.015000000000000013,-0.14549999999999996,0.103885,0.11881000000000001,0.0,206.22,206.05,203.32,203.32,0.0,0.0
3,0.0,0.0,0.0,1.0,1.0,0.0,0.0,1.0,0.0,100.0,1.0,1.1856,26.0,0.0,0.0,0.0,59.999996,0.0,26.0,26.0,26.0,26.0,-0.1541111111111111,0.30200000000000005,-0.046900000000000004,293.411,-2.7169,-2.69925,-1.5046,-1.599,-265.78,216.265,190.92975,0.0,0.0,0.0,0.0,0.0073666666666665215,-5.498166666666667,-5.498166666666667,-0.5106,0.5303333333333333,-0.02011111111111097,-0.7949999999999999,65.953,-0.0979,-0.20292500000000002,1.3640000000000008,100.0,1.0,1.0,203.48666666666668,0.0,0.0,0.0,0.0,0.0,0.0,0.0,8625.0,0.0,55.0,5.0,237.4,1.0,0.0,0.0,0.0,0.0,0.0,0.0,0.0,0.1529999999999987,0.1529999999999987,0.0,0.0,1.0,55.0,616.79921,10000.0,85.000001,85.000001,85.000001,85.000001,395.0,0.0,0.0,0.0,1.0,333.33500000000004,53.467,53.467,48.126,48.126,34.0,-26.6325,17.354,-36.086666666666666,23.8275,0.0,1783.36,0.6799999999999997,100.0,28.044,27.058,42.545,41.365,0.0,0.0,100.0,0.0,0.0,0.0,0.0,2900.25,2782.5,4327.222222222223,4195.6,305.973,305.777,314.321,314.41175,21.8166,20.5202,21.8004,21.3502,314.999998,314.999998,324.999988,324.999988,99.5595,99.50703333333334,99.56532857142857,99.54605714285714,-0.03533333333333322,-0.16866666666666674,-0.22966666666666666,0.0011666666666666668,-0.041666666666671404,-0.060000000000002274,1.4803333333333333,1.525,37.354,29.2515,37.251999999999995,34.439,56.436,34.4615,59.089,51.9625,54.346000000000004,33.626999999999995,57.709,50.3,53.510999999999996,33.1825,57.661500000000004,49.71333333333333,-0.028000000000000025,-0.1260000000000001,0.10335000000000001,0.11436,0.0,206.67000000000002,206.54500000000002,203.48666666666668,203.48666666666668,0.0,0.0
4,0.0,0.0,0.0,1.0,1.0,0.0,0.0,1.0,0.0,100.0,1.0,1.1856,26.0,0.0,0.0,0.0,59.999996,0.0,26.0,26.0,26.0,26.0,-0.17155555555555557,0.2924,-0.0159,293.625,-2.6482,-2.754875,-1.5197,-1.6076000000000001,-262.41,216.2525,190.910125,0.0,0.0,0.0,0.0,0.009299999999999975,-5.498166666666667,-5.498166666666667,-0.544,-0.8493333333333333,-0.08611111111111125,-0.718,66.099,-0.09910000000000001,-0.2368,1.25,100.0,1.0,1.0,204.06,0.0,0.0,0.0,0.0,0.0,0.0,0.0,8649.4,0.0,55.0,5.0,237.93,0.0,0.0,0.0,0.0,0.0,0.0,0.0,0.0,0.20400000000000063,0.20400000000000063,0.0,0.0,0.0,55.0,616.79921,10000.0,85.000001,85.000001,85.000001,85.000001,395.0,0.0,0.0,0.0,1.0,333.33500000000004,53.07,53.07,48.766999999999996,48.766999999999996,34.0,-29.0925,19.259999999999998,-32.86666666666666,20.9975,0.0,1783.309,0.620000000000001,100.0,27.882,26.667,42.987,41.388,0.0,0.0,100.0,0.0,0.0,0.0,0.0,3215.0,2964.4,4062.777777777778,3688.7,305.095,305.43333333333334,314.84525,315.65325,21.8264,20.5253,21.8109,21.359099999999998,314.999998,314.999998,324.999988,324.999988,99.5595,99.50705,99.56548571428571,99.54618571428571,-0.030000000000000027,-0.16133333333333333,-0.21733333333333335,0.01666666666666667,-0.05333333333332746,-0.05571428571428072,1.5533333333333332,1.5965,37.415,29.283,37.318,34.4945,56.418,34.5035,59.1315,52.021,54.329,33.666,57.749,50.356,53.492999999999995,33.2195,57.698499999999996,49.76833333333333,-0.024499999999999966,-0.1280000000000001,0.108575,0.11109500000000001,0.0,207.055,206.94,204.06,204.06,0.0,0.0
5,0.0,0.0,0.0,1.0,1.0,0.0,0.0,1.0,0.0,100.0,1.0,1.1856,26.0,0.0,0.0,0.0,59.999996,0.0,26.0,26.0,26.0,26.0,-0.1293333333333333,0.30190000000000006,-0.011333333333333334,293.64,-2.6635,-2.775125,-1.5032999999999999,-1.5935000000000001,-259.03,216.235,190.889625,0.0,0.0,0.0,0.0,0.011266666666666536,-5.498166666666667,-5.498166666666667,-0.5354,0.3903333333333332,-0.0908888888888888,-0.1260000000000001,66.24600000000001,-0.1019,-0.213475,1.1739999999999995,100.0,1.0,1.0,204.46,0.0,0.0,0.0,0.0,0.0,0.0,0.0,8666.2,0.0,55.0,5.0,238.45666666666668,1.0,0.0,0.0,0.0,0.0,0.0,0.0,0.0,0.254999999999999,0.254999999999999,0.0,0.0,1.0,55.0,616.79921,10000.0,85.000001,85.000001,85.000001,85.000001,395.0,0.0,0.0,0.0,1.0,166.665,53.436,53.436,48.95,48.95,34.0,-28.3525,18.436,-34.78333333333333,21.7125,0.0,1783.259,0.25,100.0,27.838,26.692,42.661,41.138999999999996,0.0,0.0,100.0,0.0,0.0,0.0,0.0,3210.875,2746.1,4199.222222222223,4032.7,305.1766666666667,305.9873333333333,314.66775,314.8205,21.8365,20.5303,21.8214,21.3679,314.999998,314.999998,324.999988,324.999988,99.5595,99.50706666666666,99.56562857142858,99.54632857142857,-0.012333333333333307,-0.14733333333333332,-0.23450000000000001,-0.012333333333333335,-0.06499999999999773,-0.04714285714285893,1.517,1.5915,37.477999999999994,29.3145,37.382999999999996,34.549,56.403999999999996,34.545,59.172,52.078,54.316,33.7035,57.787,50.4105,53.480000000000004,33.256,57.7335,49.821333333333335,-0.0615,-0.09800000000000009,0.11016000000000001,0.10488000000000001,0.0,207.59,207.465,204.46,204.46,0.0,0.0
6,0.0,0.0,0.0,1.0,1.0,0.0,0.0,1.0,0.0,100.0,1.0,1.1856,26.0,0.0,0.0,0.0,59.999996,0.0,26.0,26.0,26.0,26.0,-0.12011111111111106,0.28890000000000016,-0.008666666666666668,293.442,-2.6369,-2.7437500000000004,-1.5502,-1.5868,-255.85,216.215,190.870375,0.0,0.0,0.0,0.0,0.01313333333333333,-5.498166666666667,-5.498166666666667,-0.5309,0.06099999999999994,-0.06911111111111135,-0.48,66.384,-0.0926,-0.21515,0.7940000000000005,100.0,1.0,1.0,204.87,0.0,0.0,0.0,0.0,0.0,0.0,0.0,8683.6,0.0,55.0,5.0,238.95333333333332,0.0,0.0,0.0,0.0,0.0,0.0,0.0,0.0,0.3030000000000008,0.3030000000000008,0.0,0.0,0.0,55.0,616.79921,10000.0,85.000001,85.000001,85.000001,85.000001,395.0,0.0,0.0,0.0,1.0,333.33500000000004,53.101,53.101,48.737,48.737,34.0,-28.4425,20.009999999999998,-34.013333333333335,22.625,0.0,1783.209,0.10000000000000142,100.0,27.735,26.859,42.741,41.541,0.0,0.0,100.0,0.0,0.0,0.0,0.0,3225.0,2885.7,4127.111111111111,3983.0,305.093,305.5056666666667,314.828,314.93475,21.8458,20.5351,21.8312,21.3763,314.999998,314.999998,324.999988,324.999988,99.5595,99.50708333333333,99.56577142857142,99.54645714285714,-0.015333333333333199,-0.1296666666666666,-0.221,0.0115,-0.05666666666667197,-0.05714285714285694,1.5246666666666666,1.5635,37.536,29.3445,37.445,34.602000000000004,56.39,34.5835,59.210499999999996,52.1355,54.302,33.739,57.8225,50.4655,53.465,33.29,57.766999999999996,49.87533333333333,-0.06299999999999994,-0.07250000000000001,0.10698500000000001,0.11064500000000001,0.0,207.97,207.89499999999998,204.87,204.87,0.0,0.0
7,0.0,0.0,0.0,1.0,1.0,0.0,0.0,1.0,0.0,100.0,1.0,1.1856,26.0,0.0,0.0,0.0,59.999996,0.0,26.0,26.0,26.0,26.0,-0.09177777777777785,0.30120000000000013,0.044333333333333336,293.167,-2.6052,-2.738125,-1.5117,-1.629,-252.46,216.1925,190.849875,0.0,0.0,0.0,0.0,0.015100000000000002,-5.498166666666667,-5.498166666666667,-0.5347000000000001,0.0043333333333333,-0.053999999999999826,1.2,66.53,-0.07300000000000001,-0.223425,0.3879999999999999,100.0,1.0,1.0,205.29333333333335,0.0,0.0,0.0,0.0,0.0,0.0,0.0,8701.7,0.0,55.0,5.0,239.48000000000002,1.0,0.0,0.0,0.0,0.0,0.0,0.0,0.0,0.3539999999999992,0.3539999999999992,0.0,0.0,1.0,55.0,616.79921,10000.0,85.000001,85.000001,85.000001,85.000001,395.0,0.0,0.0,0.0,1.0,333.33500000000004,52.765,52.765,48.813,48.813,34.0,-26.1025,22.576,-30.996666666666666,26.2225,0.0,1783.158,-0.19000000000000128,100.0,27.999,26.78,42.857,41.7,0.0,0.0,100.0,0.0,0.0,0.0,0.0,3211.375,3053.4,4045.222222222222,4102.5,304.9166666666667,305.161,314.91175,314.6525,21.8558,20.5403,21.8417,21.3854,314.999998,314.999998,324.999988,324.999988,99.55951428571429,99.5071,99.5659,99.5466,0.03533333333333344,-0.09499999999999997,-0.183,0.05266666666666667,-0.05833333333333002,-0.07000000000000028,1.536,1.5465,37.599000000000004,29.3765,37.510999999999996,34.658500000000004,56.373999999999995,34.6235,59.251,52.196,54.287,33.775999999999996,57.8605,50.5235,53.449,33.325,57.8015,49.932,-0.09299999999999997,-0.056499999999999995,0.10783500000000001,0.11495500000000002,0.0,208.405,208.36,205.29333333333335,205.29333333333335,0.0,0.0
8,0.0,0.0,0.0,1.0,1.0,0.0,0.0,1.0,0.0,100.0,1.0,1.1856,26.0,0.0,0.0,0.0,59.999996,0.0,26.0,26.0,26.0,26.0,-0.04655555555555557,0.3013000000000001,-0.0302,293.457,-2.697,-2.716875,-1.4981,-1.5537,-249.06,216.16500000000002,190.829375,0.0,0.0,0.0,0.0,0.017066666666666563,-5.498166666666667,-5.498166666666667,-0.5356000000000001,-0.495,-0.03600000000000003,-0.5010000000000001,66.676,-0.0541,-0.21595,0.016000000000000014,100.0,1.0,1.0,205.67333333333335,0.0,0.0,0.0,0.0,0.0,0.0,0.0,8717.8,0.0,55.0,5.0,240.00666666666666,0.0,0.0,0.0,0.0,0.0,0.0,0.0,0.0,0.40500000000000114,0.40500000000000114,0.0,0.0,0.0,55.0,616.79921,10000.0,85.000001,85.000001,85.000001,85.000001,395.0,0.0,0.0,0.0,1.0,333.33500000000004,53.665,53.665,48.126,48.126,34.0,-24.105,21.744,-31.48,25.985,0.0,1783.108,-0.35999999999999943,100.0,27.419,26.901,42.716,41.914,0.0,0.0,100.0,0.0,0.0,0.0,0.0,2980.125,2899.7,4189.777777777777,4122.8,305.86966666666666,305.473,314.5995,314.5375,21.8655,20.5454,21.8522,21.3944,314.999998,314.999998,324.999988,324.999988,99.55951428571429,99.5071,99.56604285714286,99.54674285714286,0.04300000000000015,-0.08333333333333326,-0.16866666666666666,0.06216666666666667,-0.041666666666671404,-0.058571428571426054,1.5116666666666667,1.5305,37.659,29.409,37.576,34.715,56.357,34.661500000000004,59.291,52.256,54.271,33.8115,57.8975,50.5815,53.432,33.359,57.836,49.98866666666667,-0.10350000000000004,-0.038999999999999924,0.10611000000000001,0.11659000000000001,0.0,208.805,208.81,205.67333333333335,205.67333333333335,0.0,0.0
9,0.0,0.0,0.0,1.0,1.0,0.0,0.0,1.0,0.0,100.0,1.0,1.1856,26.0,0.0,0.0,0.0,59.999996,0.0,26.0,26.0,26.0,26.0,-0.029777777777777792,0.28259999999999996,0.03626666666666667,293.106,-2.6178,-2.724125,-1.5514000000000001,-1.558,-245.66,216.14,190.80825,0.0,0.0,0.0,0.0,0.019033333333333347,-5.498166666666667,-5.498166666666667,-0.5408000000000001,0.738,-0.035666666666666735,0.848,66.818,-0.0329,-0.21525,-0.1639999999999997,100.0,1.0,1.0,206.24333333333334,0.0,0.0,0.0,0.0,0.0,0.0,0.0,8741.9,0.0,55.0,5.0,240.51666666666665,1.0,0.0,0.0,0.0,0.0,0.0,0.0,0.0,0.4559999999999995,0.4559999999999995,0.0,0.0,1.0,55.0,616.79921,10000.0,85.000001,85.000001,85.000001,85.000001,395.0,0.0,0.0,0.0,1.0,166.665,52.383,52.383,49.149,49.149,34.0,-25.2075,24.46,-28.573333333333334,27.345,0.0,1783.058,-0.5500000000000007,100.0,28.057,27.197,42.442,41.852000000000004,0.0,0.0,100.0,0.0,0.0,0.0,0.0,3267.0,3086.9,4005.222222222222,4099.2,304.77666666666664,305.00533333333334,315.13625,314.75475,21.8754,20.5508,21.8626,21.4033,314.999998,314.999998,324.999988,324.999988,99.55952857142857,99.50711666666666,99.5662,99.54688571428571,0.06866666666666665,-0.055333333333333234,-0.13716666666666666,0.09683333333333333,-0.05666666666667197,-0.06142857142857139,1.575,1.5615,37.721000000000004,29.442,37.641,34.7705,56.344,34.701499999999996,59.3275,52.315,54.257999999999996,33.848,57.9315,50.638,53.418,33.3945,57.867,50.044,-0.11399999999999999,-0.03699999999999992,0.108785,0.11207,0.0,209.3,209.29000000000002,206.24333333333334,206.24333333333334,0.0,0.0
10,0.0,0.0,0.0,1.0,1.0,0.0,0.0,1.0,0.0,100.0,1.0,1.1856,26.0,0.0,0.0,0.0,59.999996,0.0,26.0,26.0,26.0,26.0,0.0,0.28380000000000005,0.05243333333333334,292.969,-2.655,-2.7116249999999997,-1.5326,-1.5366,-242.45,216.1125,190.78875,0.0,0.0,0.0,0.0,0.02089999999999992,-5.498166666666667,-5.498166666666667,-0.518,-0.4866666666666666,0.0067777777777777715,1.903,66.956,-0.012100000000000001,-0.205775,-0.5220000000000002,100.0,1.0,1.0,206.45333333333332,0.0,0.0,0.0,0.0,0.0,0.0,0.0,8750.8,0.0,55.0,5.0,241.01333333333332,0.0,0.0,0.0,0.0,0.0,0.0,1.0,0.0,0.5040000000000013,0.5040000000000013,0.0,0.0,0.0,55.0,616.79921,10000.0,85.000001,85.000001,85.000001,85.000001,395.0,0.0,0.0,0.0,1.0,333.33500000000004,53.482,53.482,47.623,47.623,34.0,-20.81,23.990000000000002,-29.853333333333335,30.1325,0.0,1783.009,-0.6099999999999994,100.0,27.806,27.131,42.899,42.559,0.0,0.0,100.0,0.0,0.0,0.0,0.0,2820.75,2970.1,4253.0,4347.1,306.158,305.43966666666665,314.3695,314.07975,21.8845,20.5557,21.8726,21.412,314.999998,314.999998,324.999988,324.999988,99.55952857142857,99.50713333333333,99.56632857142857,99.54701428571428,0.08700000000000019,-0.03499999999999992,-0.113,0.1065,-0.02499999999999858,-0.034285714285715585,1.4809999999999999,1.4535,37.778,29.473,37.703,34.825,56.331,34.7365,59.3665,52.375,54.245999999999995,33.8805,57.968,50.695499999999996,53.406,33.425,57.9005,50.10033333333333,-0.12049999999999994,-0.02400000000000002,0.10441,0.10835000000000002,0.0,209.68,209.71,206.45333333333332,206.45333333333332,0.0,0.0
11,0.0,0.0,0.0,1.0,1.0,0.0,0.0,1.0,0.0,100.0,1.0,1.1856,26.0,0.0,0.0,0.0,59.999996,0.0,26.0,26.0,26.0,26.0,0.026888888888888962,0.2923,-0.0757,293.564,-2.709,-2.6875,-1.5888,-1.5237,-238.82999999999998,216.085,190.76675,0.0,0.0,0.0,0.0,0.022599999999999953,-5.498166666666667,-5.498166666666667,-0.5615,-0.08199999999999996,0.032333333333333325,0.235,67.10300000000001,0.01,-0.235325,-0.6600000000000001,100.0,1.0,1.0,207.2266666666667,0.0,0.0,0.0,0.0,0.0,0.0,0.0,8783.6,0.0,55.0,5.0,241.54333333333335,1.0,0.0,0.0,0.0,0.0,0.0,1.0,0.0,0.5579999999999998,0.5579999999999998,0.0,0.0,1.0,55.0,616.79921,10000.0,85.000001,85.000001,85.000001,85.000001,395.0,0.0,0.0,0.0,1.0,166.665,52.887,52.887,49.332,49.332,34.0,-21.8425,26.43,-23.903333333333336,26.85,0.0,1782.956,-0.629999999999999,100.0,27.528,27.402,42.248,42.501,0.0,0.0,100.0,0.0,0.0,0.0,0.0,3004.0,3178.7,3708.222222222222,3881.3,305.661,304.72933333333333,315.85,315.23975,21.8946,20.5614,21.883499999999998,21.4215,314.999998,314.999998,324.999988,324.999988,99.55954285714286,99.50713333333333,99.56647142857143,99.54717142857143,0.11066666666666647,-0.020999999999999908,-0.08566666666666667,0.137,-0.05666666666667197,-0.07428571428571473,1.649,1.627,37.842,29.508499999999998,37.772,34.8845,56.315,34.7765,59.403,52.4375,54.230000000000004,33.917500000000004,58.001999999999995,50.7555,53.388999999999996,33.461,57.9315,50.159333333333336,-0.12849999999999995,-0.028999999999999915,0.103105,0.10706500000000001,0.0,210.12,210.17000000000002,207.2266666666667,207.2266666666667,0.0,0.0
12,0.0,0.0,0.0,1.0,1.0,0.0,0.0,1.0,0.0,100.0,1.0,1.1856,26.0,0.0,0.0,0.0,59.999996,0.0,26.0,26.0,26.0,26.0,0.055222222222222284,0.2942,0.0309,292.984,-2.7604,-2.6814999999999998,-1.5510000000000002,-1.5252,-235.81,216.0625,190.74725,0.0,0.0,0.0,0.0,0.025466666666666526,-5.498166666666667,-5.498166666666667,-0.5458000000000001,0.30266666666666686,0.016000000000000014,-0.8780000000000001,67.232,0.027800000000000002,-0.206075,-0.677999999999999,100.0,1.0,1.0,207.39,0.0,0.0,0.0,0.0,0.0,0.0,0.0,8790.5,0.0,55.0,5.0,242.00666666666666,0.0,0.0,0.0,0.0,0.0,0.0,1.0,0.0,0.602999999999998,0.602999999999998,0.0,0.0,0.0,55.0,616.79921,10000.0,85.000001,85.000001,85.000001,85.000001,395.0,0.0,0.0,0.0,1.0,166.665,52.872,52.872,47.974000000000004,47.974000000000004,34.0,-22.985,25.978,-28.053333333333335,30.525,0.0,1782.911,-0.6600000000000001,100.0,27.292,27.694,42.19,42.527,0.0,0.0,100.0,0.0,0.0,0.0,0.0,3127.75,3085.7,4246.888888888889,4167.0,305.4843333333333,304.87266666666665,314.56525,314.48875,21.9031,20.5662,21.8927,21.4295,314.999998,314.999998,324.999988,324.999988,99.55955714285714,99.50713333333333,99.5666,99.5473,0.11399999999999988,-0.013333333333333197,-0.08266666666666668,0.148,-0.04833333333333201,-0.03142857142857025,1.516,1.4945,37.894,29.5385,37.829,34.9345,56.303,34.81,59.437,52.4905,54.219,33.948499999999996,58.034,50.8065,53.376999999999995,33.4905,57.960499999999996,50.20933333333333,-0.12949999999999995,-0.02849999999999997,0.11065000000000001,0.10628000000000001,0.0,210.535,210.575,207.39,207.39,0.0,0.0
13,0.0,0.0,0.0,1.0,1.0,0.0,0.0,1.0,0.0,100.0,1.0,1.1856,26.0,0.0,0.0,0.0,59.999996,0.0,26.0,26.0,26.0,26.0,0.0712222222222223,0.27780000000000005,0.05466666666666667,292.603,-2.734,-2.676,-1.6219000000000001,-1.5087000000000002,-232.37,216.0375,190.7255,0.0,0.0,0.0,0.0,0.026766666666666605,-5.498166666666667,-5.498166666666667,-0.5393,-0.06399999999999995,0.023222222222222033,1.061,67.374,0.0379,-0.21445,-0.847999999999999,100.0,1.0,1.0,207.76666666666665,0.0,0.0,0.0,0.0,0.0,0.0,0.0,8806.5,0.0,55.0,5.0,242.51666666666665,1.0,0.0,0.0,0.0,0.0,0.0,1.0,0.0,0.6539999999999999,0.6539999999999999,0.0,0.0,1.0,55.0,616.79921,10000.0,85.000001,85.000001,85.000001,85.000001,395.0,0.0,0.0,0.0,1.0,333.33500000000004,52.505,52.505,47.928,47.928,34.0,-21.12,27.778,-26.96,32.7,0.0,1782.858,-0.6449999999999996,100.0,27.776,27.728,42.519999999999996,42.923,0.0,0.0,100.0,0.0,0.0,0.0,0.0,3054.75,3183.5,4156.777777777777,4354.3,305.491,304.7423333333333,314.6945,314.09925,21.9128,20.5717,21.9032,21.4387,314.999998,314.999998,324.999988,324.999988,99.55957142857143,99.50713333333333,99.56674285714286,99.54744285714285,0.14300000000000024,0.013333333333333197,-0.0545,0.16283333333333336,-0.036666666666668846,-0.04571428571428271,1.5143333333333333,1.4849999999999999,37.955,29.573,37.894999999999996,34.992,56.292,34.8485,59.476,52.5535,54.209,33.984,58.0695,50.8675,53.366,33.5245,57.9935,50.269333333333336,-0.13749999999999996,-0.012499999999999956,0.10115500000000001,0.11043000000000001,0.0,210.95499999999998,211.01999999999998,207.76666666666665,207.76666666666665,0.0,0.0
14,0.0,0.0,0.0,1.0,1.0,0.0,0.0,1.0,0.0,100.0,1.0,1.1856,26.0,0.0,0.0,0.0,59.999996,0.0,26.0,26.0,26.0,26.0,0.07144444444444442,0.2834000000000001,-0.009466666666666668,292.801,-2.7393,-2.61375,-1.5948,-1.5165000000000002,-228.93,216.0125,190.70425,0.0,0.0,0.0,0.0,0.028766666666666607,-5.498166666666667,-5.498166666666667,-0.5492,-0.16733333333333333,0.0454444444444444,-0.274,67.514,0.047900000000000005,-0.228775,-0.6260000000000003,100.0,1.0,1.0,208.28,0.0,0.0,0.0,0.0,0.0,0.0,0.0,8828.2,0.0,55.0,5.0,243.02333333333334,0.0,0.0,0.0,0.0,0.0,0.0,1.0,0.0,0.7049999999999983,0.7049999999999983,0.0,0.0,0.0,55.0,616.79921,10000.0,85.000001,85.000001,85.000001,85.000001,395.0,0.0,0.0,0.0,1.0,333.33500000000004,52.597,52.597,48.126,48.126,34.0,-22.06,26.112000000000002,-25.806666666666665,30.8375,0.0,1782.808,-0.41499999999999915,100.0,27.553,27.969,42.428,43.237,0.0,0.0,100.0,0.0,0.0,0.0,0.0,3060.875,3152.5,4027.777777777778,4147.8,305.651,304.67266666666666,315.05125,314.532,21.9224,20.5772,21.9136,21.4479,314.999998,314.999998,324.999988,324.999988,99.55958571428572,99.50713333333333,99.56688571428572,99.54758571428572,0.11900000000000022,-0.010999999999999899,-0.062,0.16283333333333336,-0.05333333333332746,-0.04571428571428271,1.5436666666666667,1.534,38.015,29.607,37.96,35.0495,56.281,34.8865,59.5125,52.6155,54.197,34.019,58.104,50.9275,53.352999999999994,33.5585,58.0245,50.327666666666666,-0.11499999999999999,-0.03849999999999998,0.10776000000000001,0.1062,0.0,211.39499999999998,211.44,208.28,208.28,0.0,0.0
15,0.0,0.0,0.0,1.0,1.0,0.0,0.0,1.0,0.0,100.0,1.0,1.1856,26.0,0.0,0.0,0.0,59.999996,0.0,26.0,26.0,26.0,26.0,0.06511111111111112,0.268,0.008033333333333333,292.862,-2.7333,-2.5852500000000003,-1.6120999999999999,-1.467,-225.49,215.9925,190.68275,0.0,0.0,0.0,0.0,0.03076666666666661,-5.498166666666667,-5.498166666666667,-0.5398000000000001,0.22100000000000009,0.0664444444444443,0.592,67.654,0.0509,-0.209125,-0.4720000000000004,100.0,1.0,1.0,208.7,0.0,0.0,0.0,0.0,0.0,0.0,0.0,8846.1,0.0,55.0,5.0,243.52666666666664,1.0,0.0,0.0,0.0,0.0,0.0,1.0,0.0,0.7560000000000002,0.7560000000000002,0.0,0.0,1.0,55.0,616.79921,10000.0,85.000001,85.000001,85.000001,85.000001,395.0,0.0,0.0,0.0,1.0,166.665,52.872,52.872,48.203,48.203,34.0,-20.3475,26.012,-25.683333333333337,32.55,0.0,1782.758,-0.125,100.0,27.746,27.794,42.316,43.149,0.0,0.0,100.0,0.0,0.0,0.0,0.0,2826.25,3205.9,3976.5555555555557,4368.1,306.1913333333333,304.6793333333333,315.14975,314.096,21.932,20.5827,21.924,21.4571,314.999998,314.999998,324.999988,324.999988,99.55961428571429,99.50713333333333,99.56702857142857,99.54774285714285,0.1160000000000001,-0.014333333333333309,-0.060333333333333336,0.17200000000000001,-0.03166666666666629,-0.04571428571428271,1.5213333333333332,1.514,38.075,29.6415,38.025,35.1065,56.268,34.925,59.548,52.6775,54.185,34.0545,58.137,50.987,53.34,33.5925,58.0545,50.38633333333333,-0.09150000000000003,-0.0605,0.11214,0.10799,0.0,211.85000000000002,211.875,208.7,208.7,0.0,0.0
16,0.0,0.0,0.0,1.0,1.0,0.0,0.0,1.0,0.0,100.0,1.0,1.1856,26.0,0.0,0.0,0.0,59.999996,0.0,26.0,26.0,26.0,26.0,0.042444444444444285,0.27659999999999996,-0.03383333333333333,292.862,-2.7816,-2.605125,-1.574,-1.5387,-222.03,215.9725,190.660625,0.0,0.0,0.0,0.0,0.03276666666666661,-5.498166666666667,-5.498166666666667,-0.5623,-0.6343333333333333,0.037111111111111095,-1.383,67.794,0.041800000000000004,-0.22635000000000002,-0.040000000000000036,100.0,1.0,1.0,209.14,0.0,0.0,0.0,0.0,0.0,0.0,0.0,8864.6,0.0,55.0,5.0,244.03333333333336,0.0,0.0,0.0,0.0,0.0,0.0,1.0,0.0,0.8069999999999986,0.8069999999999986,0.0,0.0,0.0,55.0,616.79921,10000.0,85.000001,85.000001,85.000001,85.000001,395.0,0.0,0.0,0.0,1.0,166.665,52.643,52.643,48.035,48.035,34.0,-24.27,25.012,-25.566666666666663,29.6125,0.0,1782.707,0.02499999999999858,100.0,27.33,27.949,42.634,43.209,0.0,0.0,100.0,0.0,0.0,0.0,0.0,3150.5,3169.4,3993.4444444444443,4052.7,305.52566666666667,304.672,315.14175,314.7445,21.9413,20.5882,21.9345,21.4662,314.999998,314.999998,324.999988,324.999988,99.55961428571429,99.50715,99.56717142857143,99.54788571428571,0.09133333333333349,-0.03766666666666674,-0.06816666666666667,0.1505,-0.041666666666671404,-0.04285714285714448,1.5463333333333333,1.5554999999999999,38.132999999999996,29.676000000000002,38.09,35.1635,56.251999999999995,34.963499999999996,59.587,52.7375,54.17,34.09,58.173,51.045,53.324,33.6265,58.0875,50.443333333333335,-0.07299999999999995,-0.08099999999999996,0.10381000000000001,0.10632000000000001,0.0,212.28,212.25,209.14,209.14,0.0,0.0
17,0.0,0.0,0.0,1.0,1.0,0.0,0.0,1.0,0.0,100.0,1.0,1.1856,26.0,0.0,0.0,0.0,59.999996,0.0,26.0,26.0,26.0,26.0,0.0086666666666666,0.2791000000000001,0.020966666666666668,292.542,-2.7271,-2.60175,-1.6033,-1.5139,-218.78,215.9525,190.639375,0.0,0.0,0.0,0.0,0.03466666666666651,-5.498166666666667,-5.498166666666667,-0.5495,0.4933333333333332,0.0029999999999998916,-0.9319999999999999,67.925,0.0222,-0.204525,0.16000000000000014,100.0,1.0,1.0,209.50333333333333,0.0,0.0,0.0,0.0,0.0,0.0,0.0,8880.1,0.0,55.0,5.0,244.5,1.0,0.0,0.0,0.0,0.0,0.0,1.0,0.0,0.8550000000000004,0.8550000000000004,0.0,0.0,1.0,55.0,616.79921,10000.0,85.000001,85.000001,85.000001,85.000001,395.0,0.0,0.0,0.0,1.0,333.33500000000004,52.521,52.521,47.852000000000004,47.852000000000004,34.0,-23.97,23.228,-30.65,29.825000000000003,0.0,1782.658,-0.05000000000000071,100.0,27.896,28.096,42.533,43.062,0.0,0.0,100.0,0.0,0.0,0.0,0.0,3183.125,2985.6,4336.0,4198.7,305.33433333333335,305.24333333333334,314.44575,314.49175,21.9504,20.5934,21.9442,21.4747,314.999998,314.999998,324.999988,324.999988,99.55962857142858,99.50715,99.56731428571429,99.54801428571429,0.09600000000000009,-0.03966666666666674,-0.10466666666666667,0.13566666666666666,-0.04833333333333201,-0.028571428571432023,1.5150000000000001,1.5190000000000001,38.19,29.7085,38.150999999999996,35.217,56.241,35.0005,59.621,52.794,54.159,34.1245,58.204499999999996,51.099000000000004,53.312,33.6595,58.1165,50.49633333333333,-0.08750000000000002,-0.07050000000000001,0.112475,0.11445500000000002,0.0,212.715,212.685,209.50333333333333,209.50333333333333,0.0,0.0
18,0.0,0.0,0.0,1.0,1.0,0.0,0.0,1.0,0.0,100.0,1.0,1.1856,26.0,0.0,0.0,0.0,59.999996,0.0,26.0,26.0,26.0,26.0,-0.010888888888888948,0.2791000000000001,-0.020900000000000002,292.404,-2.743,-2.5925000000000002,-1.607,-1.4718,-215.31,215.935,190.616875,0.0,0.0,0.0,0.0,0.036699999999999955,-5.498166666666667,-5.498166666666667,-0.561,-0.486,0.01633333333333331,0.847,68.064,0.009600000000000001,-0.22412500000000002,0.14400000000000013,100.0,1.0,1.0,209.93333333333334,0.0,0.0,0.0,0.0,0.0,0.0,0.0,8898.3,0.0,55.0,5.0,245.0,0.0,0.0,0.0,0.0,0.0,0.0,1.0,0.0,0.9059999999999988,0.9059999999999988,0.0,0.0,0.0,55.0,616.79921,10000.0,85.000001,85.000001,85.000001,85.000001,395.0,0.0,0.0,0.0,1.0,166.665,52.231,52.231,47.653,47.653,34.0,-24.4875,25.46,-28.663333333333334,28.252499999999998,0.0,1782.608,-0.054999999999999716,100.0,27.943,27.773,43.128,43.248000000000005,0.0,0.0,100.0,0.0,0.0,0.0,0.0,3138.875,3297.4,4091.8888888888887,4168.8,305.3263333333333,304.4873333333333,314.89575,314.591,21.96,20.5988,21.9548,21.484,314.999998,314.999998,324.999988,324.999988,99.55964285714286,99.50715,99.56745714285714,99.54815714285715,0.08266666666666644,-0.045666666666666744,-0.10166666666666667,0.123,-0.036666666666668846,-0.04999999999999716,1.5146666666666666,1.5314999999999999,38.25,29.7425,38.217,35.275,56.227000000000004,35.039,59.6605,52.8555,54.146,34.1605,58.2415,51.158,53.298,33.694,58.15,50.55433333333333,-0.08150000000000002,-0.07850000000000001,0.104895,0.11285,0.0,213.10500000000002,213.10000000000002,209.93333333333334,209.93333333333334,0.0,0.0
19,0.0,0.0,0.0,1.0,1.0,0.0,0.0,1.0,0.0,100.0,1.0,1.1856,26.0,0.0,0.0,0.0,59.999996,0.0,26.0,26.0,26.0,26.0,-0.02733333333333332,0.2854000000000001,0.03163333333333333,291.946,-2.703,-2.593125,-1.6125,-1.4617,-212.04,215.91750000000002,190.595625,0.0,0.0,0.0,0.0,0.03859999999999997,-5.498166666666667,-5.498166666666667,-0.5501,0.8696666666666668,0.015555555555555545,0.643,68.193,0.0009000000000000001,-0.21072500000000002,0.1620000000000008,100.0,1.0,1.0,210.31,0.0,0.0,0.0,0.0,0.0,0.0,0.0,8914.2,0.0,55.0,5.0,245.46333333333334,1.0,0.0,0.0,0.0,0.0,0.0,1.0,0.0,0.9540000000000006,0.9540000000000006,0.0,0.0,1.0,55.0,616.79921,10000.0,85.000001,85.000001,85.000001,85.000001,395.0,0.0,0.0,0.0,1.0,166.665,51.650999999999996,51.650999999999996,47.485,47.485,34.0,-24.6125,24.966,-30.446666666666665,29.1325,0.0,1782.559,-0.06500000000000128,100.0,28.56,28.205,43.0,43.164,0.0,0.0,100.0,0.0,0.0,0.0,0.0,3169.5,3277.6,4233.333333333333,4369.7,305.13466666666665,304.4483333333333,314.61275,314.17025,21.9691,20.6041,21.9645,21.4926,314.999998,314.999998,324.999988,324.999988,99.55964285714286,99.50716666666666,99.56758571428571,99.5483,0.08033333333333337,-0.05566666666666675,-0.11316666666666668,0.11316666666666668,-0.036666666666668846,-0.04142857142857537,1.52,1.531,38.307,29.776,38.278,35.3285,56.216,35.078,59.6945,52.911500000000004,54.135,34.196,58.272999999999996,51.2125,53.286,33.7285,58.1785,50.60766666666667,-0.08450000000000002,-0.08200000000000007,0.0999,0.11127500000000001,0.0,213.56,213.51999999999998,210.31,210.31,0.0,0.0
20,0.0,0.0,0.0,1.0,1.0,0.0,0.0,1.0,0.0,100.0,1.0,1.1856,26.0,0.0,0.0,0.0,59.999996,0.0,26.0,26.0,26.0,26.0,-0.01055555555555554,0.268,0.025400000000000002,292.358,-2.7403,-2.666875,-1.5306000000000002,-1.5932,-208.35,215.8975,190.572,0.0,0.0,0.0,0.0,0.0407333333333334,-5.498166666666667,-5.498166666666667,-0.557,-1.232,0.005555555555555536,0.27,68.34,-0.0026000000000000003,-0.22475,0.04800000000000004,100.0,1.0,1.0,210.68333333333334,0.0,0.0,0.0,0.0,0.0,0.0,0.0,8930.1,0.0,55.0,5.0,246.0,0.0,0.0,0.0,0.0,0.0,0.0,0.0,0.0,1.0079999999999991,1.0079999999999991,0.0,0.0,0.0,55.0,616.79921,10000.0,85.000001,85.000001,85.000001,85.000001,395.0,0.0,0.0,0.0,1.0,166.665,52.734,52.734,47.073,47.073,34.0,-23.5075,23.97,-28.95,29.5475,0.0,1782.506,-0.03500000000000014,100.0,27.979,27.786,43.677,43.555,0.0,0.0,100.0,0.0,0.0,0.0,0.0,2994.625,3117.8,4127.444444444444,4185.3,305.814,305.0063333333333,314.7,314.44025,21.9791,20.6099,21.9758,21.5024,314.999998,314.999998,324.999988,324.999988,99.55965714285715,99.50718333333333,99.56774285714286,99.54845714285715,0.07233333333333336,-0.06000000000000005,-0.1155,0.10583333333333333,-0.041666666666671404,-0.04714285714285893,1.4753333333333334,1.482,38.369,29.811500000000002,38.349000000000004,35.39,56.198,35.1185,59.7375,52.977000000000004,54.117999999999995,34.234,58.3135,51.2755,53.269,33.765,58.216,50.669333333333334,-0.08050000000000002,-0.07850000000000001,0.10827500000000001,0.10595500000000001,0.0,213.96,213.935,210.68333333333334,210.68333333333334,0.0,0.0
21,0.0,0.0,0.0,1.0,1.0,0.0,0.0,1.0,0.0,100.0,1.0,1.1856,26.0,0.0,0.0,0.0,59.999996,0.0,26.0,26.0,26.0,26.0,0.0,0.26550000000000007,-0.07276666666666666,292.664,-2.6544,-2.721375,-1.597,-1.5535999999999999,-205.26999999999998,215.88,190.551625,0.0,0.0,0.0,0.0,0.04253333333333331,-5.498166666666667,-5.498166666666667,-0.5772,0.4570000000000001,-0.014222222222222136,-0.845,68.457,-0.006,-0.223775,0.15600000000000058,100.0,1.0,1.0,211.26666666666665,0.0,0.0,0.0,0.0,0.0,0.0,0.0,8954.9,0.0,55.0,5.0,246.41666666666666,1.0,0.0,0.0,0.0,0.0,0.0,0.0,0.0,1.0530000000000008,1.0530000000000008,0.0,0.0,1.0,55.0,616.79921,10000.0,85.000001,85.000001,85.000001,85.000001,395.0,0.0,0.0,0.0,1.0,166.665,52.307,52.307,48.233000000000004,48.233000000000004,34.0,-24.7225,23.518,-28.37,26.75,0.0,1782.461,-0.05999999999999872,100.0,28.152,28.055,43.024,43.107,0.0,0.0,100.0,0.0,0.0,0.0,0.0,3188.25,3000.7,4027.1111111111113,3959.5,305.243,305.10566666666665,315.17525,315.084,21.9876,20.6147,21.9848,21.5103,314.999998,314.999998,324.999988,324.999988,99.55967142857143,99.50718333333333,99.56787142857142,99.54858571428572,0.06700000000000017,-0.06466666666666665,-0.11916666666666667,0.1085,-0.05333333333332746,-0.048571428571428044,1.5943333333333334,1.5795,38.423,29.842,38.405,35.439499999999995,56.187,35.153999999999996,59.7675,53.0265,54.107,34.266999999999996,58.341,51.323,53.257,33.796,58.241,50.715666666666664,-0.08350000000000002,-0.0685,0.10752500000000001,0.10884,0.0,214.36,214.32999999999998,211.26666666666665,211.26666666666665,0.0,0.0
22,0.0,0.0,0.0,1.0,1.0,0.0,0.0,1.0,0.0,100.0,1.0,1.1856,26.0,0.0,0.0,0.0,59.999996,0.0,26.0,26.0,26.0,26.0,-0.012111111111111073,0.2773000000000001,0.004066666666666666,292.13,-2.6372999999999998,-2.723875,-1.5944,-1.5386000000000002,-201.78,215.86,190.527875,0.0,0.0,0.0,0.0,0.04456666666666653,-5.498166666666667,-5.498166666666667,-0.5559000000000001,0.07066666666666666,0.00011111111111095084,1.213,68.596,-0.0112,-0.20367500000000002,0.10599999999999987,100.0,1.0,1.0,211.47333333333333,0.0,0.0,0.0,0.0,0.0,0.0,0.0,8963.6,0.0,55.0,5.0,246.91666666666666,0.0,0.0,0.0,0.0,0.0,0.0,0.0,0.0,1.1039999999999992,1.1039999999999992,0.0,0.0,0.0,55.0,616.79921,10000.0,85.000001,85.000001,85.000001,85.000001,395.0,0.0,0.0,0.0,1.0,333.33500000000004,52.414,52.414,47.058,47.058,34.0,-22.0275,24.438,-30.526666666666664,30.012500000000003,0.0,1782.408,-0.21000000000000085,100.0,28.374,28.006,43.496,43.3,0.0,0.0,100.0,0.0,0.0,0.0,0.0,2944.625,3092.7,4214.666666666667,4368.5,305.754,304.96066666666667,314.59125,314.14825,21.9972,20.6203,21.9954,21.5196,314.999998,314.999998,324.999988,324.999988,99.55967142857143,99.50718333333333,99.56802857142857,99.54874285714286,0.08199999999999985,-0.05933333333333324,-0.11850000000000001,0.105,-0.04833333333333201,-0.04571428571428271,1.499,1.4954999999999998,38.482,29.8765,38.471000000000004,35.4975,56.173,35.194,59.807,53.088,54.094,34.3035,58.378,51.382,53.242999999999995,33.8315,58.275,50.773666666666664,-0.09450000000000003,-0.0665,0.10252000000000001,0.11202000000000001,0.0,214.78,214.765,211.47333333333333,211.47333333333333,0.0,0.0
23,0.0,0.0,0.0,1.0,1.0,0.0,0.0,1.0,0.0,100.0,1.0,1.1856,26.0,0.0,0.0,0.0,59.999996,0.0,26.0,26.0,26.0,26.0,0.006444444444444475,0.25340000000000007,-0.05846666666666667,292.145,-2.6712,-2.67125,-1.5217,-1.6032000000000002,-198.28,215.84,190.504375,0.0,0.0,0.0,0.0,0.046599999999999975,-5.498166666666667,-5.498166666666667,-0.5760000000000001,-0.2513333333333334,-0.005111111111111288,-0.645,68.73,-0.011300000000000001,-0.23220000000000002,0.10999999999999943,100.0,1.0,1.0,212.01,0.0,0.0,0.0,0.0,0.0,0.0,0.0,8986.3,0.0,55.0,5.0,247.4,1.0,0.0,0.0,0.0,0.0,0.0,0.0,0.0,1.1550000000000011,1.1550000000000011,0.0,0.0,1.0,55.0,616.79921,10000.0,85.000001,85.000001,85.000001,85.000001,395.0,0.0,0.0,0.0,1.0,166.665,51.682,51.682,48.172,48.172,34.0,-25.775,23.746,-27.436666666666664,27.605,0.0,1782.359,-0.22500000000000142,100.0,28.457,28.28,43.49,43.637,0.0,0.0,100.0,0.0,0.0,0.0,0.0,3347.125,3062.8,3928.222222222222,3965.5,304.753,304.9513333333333,315.28575,314.9345,22.0067,20.625799999999998,22.0059,21.5289,314.999998,314.999998,324.999988,324.999988,99.55968571428572,99.5072,99.56815714285715,99.54887142857143,0.07966666666666677,-0.06099999999999994,-0.12866666666666665,0.10366666666666667,-0.045000000000001705,-0.034285714285715585,1.5356666666666667,1.5285,38.542,29.9115,38.537,35.5555,56.16,35.2335,59.8445,53.1485,54.082,34.3405,58.413,51.4405,53.229,33.8665,58.3065,50.830666666666666,-0.10299999999999998,-0.058499999999999996,0.105215,0.11295000000000001,0.0,215.18,215.14499999999998,212.01,212.01,0.0,0.0
24,0.0,0.0,0.0,1.0,1.0,0.0,0.0,1.0,0.0,100.0,1.0,1.1856,26.0,0.0,0.0,0.0,59.999996,0.0,26.0,26.0,26.0,26.0,-0.007777777777777772,0.26900000000000013,-0.05533333333333334,292.374,-2.6975,-2.6778750000000002,-1.5669,-1.5424,-194.97,215.82,190.481875,0.0,0.0,0.0,0.0,0.04849999999999999,-5.498166666666667,-5.498166666666667,-0.5801000000000001,-0.41333333333333333,0.006999999999999895,0.01100000000000001,68.858,-0.0049,-0.21880000000000002,-0.05600000000000005,100.0,1.0,1.0,212.29666666666668,0.0,0.0,0.0,0.0,0.0,0.0,0.0,8998.5,0.0,55.0,5.0,247.86,0.0,0.0,0.0,0.0,0.0,0.0,0.0,0.0,1.2029999999999994,1.2029999999999994,0.0,0.0,0.0,55.0,616.79921,10000.0,85.000001,85.000001,85.000001,85.000001,395.0,0.0,0.0,0.0,1.0,333.33500000000004,52.841,52.841,47.165,47.165,34.0,-22.7925,22.496,-30.58,28.745,0.0,1782.309,-0.254999999999999,100.0,28.217,27.991,43.45,43.552,0.0,0.0,100.0,0.0,0.0,0.0,0.0,2973.0,2930.0,4300.222222222223,4131.1,305.891,305.417,314.42325,314.6365,22.0156,20.6309,22.0157,21.5375,314.999998,314.999998,324.999988,324.999988,99.5597,99.50721666666666,99.5683,99.54901428571429,0.07633333333333336,-0.06299999999999994,-0.11433333333333333,0.11583333333333333,-0.03333333333333144,-0.03999999999999915,1.509,1.5075,38.597,29.942999999999998,38.598,35.6095,56.147,35.2695,59.879999999999995,53.204499999999996,54.069,34.3735,58.446,51.4945,53.216,33.8985,58.337,50.88333333333333,-0.10050000000000003,-0.056499999999999995,0.099275,0.115515,0.0,215.565,215.56,212.29666666666668,212.29666666666668,0.0,0.0
25,0.0,0.0,0.0,1.0,1.0,0.0,0.0,1.0,0.0,100.0,1.0,1.1856,26.0,0.0,0.0,0.0,59.999996,0.0,26.0,26.0,26.0,26.0,-0.010000000000000009,0.26239999999999997,-0.04016666666666667,292.313,-2.763,-2.6397500000000003,-1.5849,-1.5432000000000001,-191.45999999999998,215.8,190.456625,0.0,0.0,0.0,0.0,0.05056666666666654,-5.498166666666667,-5.498166666666667,-0.6109,-0.014333333333333309,0.014888888888888951,0.07899999999999996,68.99000000000001,0.0004,-0.22457500000000002,-0.18399999999999928,100.0,1.0,1.0,212.83666666666667,0.0,0.0,0.0,0.0,0.0,0.0,0.0,9021.4,0.0,55.0,5.0,248.33666666666664,1.0,0.0,0.0,0.0,0.0,0.0,0.0,0.0,1.2540000000000013,1.2540000000000013,0.0,0.0,1.0,55.0,616.79921,10000.0,85.000001,85.000001,85.000001,85.000001,395.0,0.0,0.0,0.0,1.0,166.665,51.834,51.834,47.974000000000004,47.974000000000004,34.0,-24.8725,26.402,-27.053333333333335,27.9125,0.0,1782.26,-0.3099999999999987,100.0,28.197,28.081,43.187,43.253,0.0,0.0,100.0,0.0,0.0,0.0,0.0,3220.0,3338.6,3927.6666666666665,4074.0,305.164,304.30966666666666,315.32975,314.84025,22.0249,20.636499999999998,22.026,21.546599999999998,314.999998,314.999998,324.999988,324.999988,99.55971428571429,99.50721666666666,99.56845714285714,99.54915714285714,0.09366666666666656,-0.045333333333333226,-0.10733333333333334,0.1155,-0.051666666666669414,-0.05142857142857338,1.565,1.572,38.656,29.978,38.662,35.6665,56.131,35.309,59.914500000000004,53.262,54.054,34.41,58.4785,51.5495,53.2,33.9335,58.366,50.937333333333335,-0.10399999999999998,-0.05800000000000005,0.10103000000000001,0.10819500000000001,0.0,215.985,215.98000000000002,212.83666666666667,212.83666666666667,0.0,0.0
26,0.0,0.0,0.0,1.0,1.0,0.0,0.0,1.0,0.0,100.0,1.0,1.1856,26.0,0.0,0.0,0.0,59.999996,0.0,26.0,26.0,26.0,26.0,0.005111111111111066,0.27760000000000007,0.09190000000000001,291.10699999999997,-2.7144,-2.71375,-1.6337000000000002,-1.5368,-187.73000000000002,215.7775,190.429375,0.0,0.0,0.0,0.0,0.0527333333333333,-5.498166666666667,-5.498166666666667,-0.5704,0.5236666666666667,-0.00022222222222234578,0.894,69.135,0.0074,-0.1985,-0.27200000000000024,100.0,1.0,1.0,212.98666666666668,0.0,0.0,0.0,0.0,0.0,0.0,0.0,9027.7,0.0,55.0,5.0,248.85666666666668,0.0,0.0,0.0,0.0,0.0,0.0,0.0,0.0,1.3079999999999998,1.3079999999999998,0.0,0.0,0.0,55.0,616.79921,10000.0,85.000001,85.000001,85.000001,85.000001,395.0,0.0,0.0,0.0,1.0,166.665,51.498,51.498,46.112,46.112,34.0,-23.1775,25.536,-33.14666666666666,33.5375,0.0,1782.207,-0.3999999999999986,100.0,29.056,28.704,43.784,43.756,0.0,0.0,100.0,0.0,0.0,0.0,0.0,3127.375,3123.0,4578.444444444444,4605.2,305.27733333333333,304.882,313.7675,313.584,22.0352,20.6426,22.0372,21.5565,314.999998,314.999998,324.999988,324.999988,99.55972857142856,99.50721666666666,99.56861428571429,99.54932857142857,0.1073333333333335,-0.03766666666666674,-0.09366666666666668,0.12633333333333333,-0.026666666666670835,-0.04571428571428271,1.4383333333333335,1.4295,38.72,30.0165,38.732,35.728,56.120999999999995,35.353,59.957,53.3275,54.044,34.4505,58.518,51.613,53.189,33.9725,58.402,50.99933333333333,-0.11749999999999994,-0.05049999999999999,0.11097000000000001,0.10316,0.0,216.45,216.445,212.98666666666668,212.98666666666668,0.0,0.0
27,0.0,0.0,0.0,1.0,1.0,0.0,0.0,1.0,0.0,100.0,1.0,1.1856,26.0,0.0,0.0,0.0,59.999996,0.0,26.0,26.0,26.0,26.0,0.03811111111111121,0.25280000000000014,-0.03766666666666667,291.656,-2.6953,-2.668375,-1.6286,-1.6002,-184.62,215.76,190.40775,0.0,0.0,0.0,0.0,0.05453333333333332,-5.498166666666667,-5.498166666666667,-0.5972000000000001,-1.0543333333333333,0.00533333333333319,-0.5960000000000001,69.25,0.0112,-0.24295,-0.23799999999999955,100.0,1.0,1.0,213.49333333333334,0.0,0.0,0.0,0.0,0.0,0.0,0.0,9049.1,0.0,55.0,5.0,249.27666666666664,1.0,0.0,0.0,0.0,0.0,0.0,0.0,0.0,1.352999999999998,1.352999999999998,0.0,0.0,1.0,55.0,616.79921,10000.0,85.000001,85.000001,85.000001,85.000001,395.0,0.0,0.0,0.0,1.0,166.665,51.834,51.834,46.631,46.631,34.0,-22.9775,25.046,-29.043333333333333,29.9625,0.0,1782.161,-0.41499999999999915,100.0,28.52,28.740000000000002,44.173,44.370000000000005,0.0,0.0,100.0,0.0,0.0,0.0,0.0,3120.25,3106.0,4133.0,4060.4,305.50233333333335,304.829,314.828,314.6915,22.0434,20.6476,22.0465,21.564799999999998,314.999998,314.999998,324.999988,324.999988,99.55974285714285,99.50723333333333,99.56874285714285,99.54945714285714,0.10133333333333372,-0.038999999999999924,-0.09483333333333333,0.1315,-0.060000000000002274,-0.027142857142855803,1.5,1.4935,38.771,30.0475,38.791,35.78,56.108999999999995,35.387,59.9915,53.3815,54.033,34.482,58.55,51.665,53.177,34.003,58.4315,51.050333333333334,-0.11499999999999999,-0.04699999999999993,0.09587000000000001,0.11228500000000001,0.0,216.76,216.76,213.49333333333334,213.49333333333334,0.0,0.0
28,0.0,0.0,0.0,1.0,1.0,0.0,0.0,1.0,0.0,100.0,1.0,1.1856,26.0,0.0,0.0,0.0,59.999996,0.0,26.0,26.0,26.0,26.0,0.020333333333333314,0.2639,-0.04853333333333333,291.916,-2.6751,-2.668875,-1.6236000000000002,-1.5666,-181.07999999999998,215.7425,190.382375,0.0,0.0,0.0,0.0,0.056599999999999984,-5.498166666666667,-5.498166666666667,-0.6018,0.6580000000000001,-0.0014444444444445814,0.618,69.38,0.0158,-0.21960000000000002,-0.37399999999999967,100.0,1.0,1.0,214.01666666666665,0.0,0.0,0.0,0.0,0.0,0.0,0.0,9071.3,0.0,55.0,5.0,249.74,0.0,0.0,0.0,0.0,0.0,0.0,0.0,0.0,1.404,1.404,0.0,0.0,0.0,55.0,616.79921,10000.0,85.000001,85.000001,85.000001,85.000001,395.0,0.0,0.0,0.0,1.0,333.33500000000004,51.682,51.682,47.653,47.653,34.0,-22.04,26.259999999999998,-27.643333333333334,30.555,0.0,1782.108,-0.48999999999999844,100.0,28.744,28.509999999999998,43.475,43.746,0.0,0.0,100.0,0.0,0.0,0.0,0.0,3108.125,3184.6,4048.5555555555557,4155.8,305.30966666666666,304.744,315.152,314.66475,22.0529,20.6533,22.0567,21.573900000000002,314.999998,314.999998,324.999988,324.999988,99.55975714285714,99.50723333333333,99.5689,99.5496,0.12199999999999989,-0.023333333333333206,-0.09033333333333333,0.14483333333333334,-0.04333333333332945,-0.044285714285713595,1.5543333333333333,1.537,38.83,30.083,38.855000000000004,35.837,56.097,35.429,60.0265,53.442499999999995,54.021,34.521,58.582499999999996,51.7235,53.164,34.04,58.460499999999996,51.10733333333333,-0.12149999999999994,-0.0475000000000001,0.10866500000000001,0.10841,0.0,217.2,217.215,214.01666666666665,214.01666666666665,0.0,0.0
29,0.0,0.0,0.0,1.0,1.0,0.0,0.0,1.0,0.0,100.0,1.0,1.1856,26.0,0.0,0.0,0.0,59.999996,0.0,26.0,26.0,26.0,26.0,0.049111111111111105,0.256,0.026933333333333333,291.626,-2.6701,-2.7055,-1.5792000000000002,-1.5432000000000001,-177.54,215.7225,190.356,0.0,0.0,0.0,0.0,0.058633333333333315,-5.498166666666667,-5.498166666666667,-0.6054,-0.6783333333333332,0.006000000000000005,-0.5489999999999999,69.514,0.0217,-0.217,-0.3860000000000001,100.0,1.0,1.0,214.23666666666668,0.0,0.0,0.0,0.0,0.0,0.0,0.0,9080.8,0.0,55.0,5.0,250.22666666666666,1.0,0.0,0.0,0.0,0.0,0.0,0.0,0.0,1.4549999999999983,1.4549999999999983,0.0,0.0,1.0,55.0,616.79921,10000.0,85.000001,85.000001,85.000001,85.000001,395.0,0.0,0.0,0.0,1.0,333.33500000000004,52.002,52.002,46.631,46.631,34.0,-22.662499999999998,25.936,-28.97,31.2675,0.0,1782.058,-0.5350000000000001,100.0,28.187,28.541,43.772999999999996,44.165,0.0,0.0,100.0,0.0,0.0,0.0,0.0,3162.875,3098.2,4233.0,4269.0,305.40933333333334,304.76933333333335,314.57075,314.249,22.0621,20.6589,22.0673,21.5833,314.999998,314.999998,324.999988,324.999988,99.55977142857142,99.50723333333333,99.56902857142857,99.54975714285715,0.11033333333333362,-0.02633333333333332,-0.08766666666666667,0.13433333333333333,-0.03999999999999915,-0.03857142857143003,1.4706666666666666,1.452,38.888,30.118000000000002,38.921,35.8955,56.084,35.464,60.0635,53.5,54.009,34.5535,58.617,51.7795,53.150999999999996,34.0715,58.492,51.162,-0.11749999999999994,-0.03750000000000009,0.10208500000000001,0.11007000000000002,0.0,217.585,217.585,214.23666666666668,214.23666666666668,0.0,0.0
30,0.0,0.0,0.0,1.0,1.0,0.0,0.0,1.0,0.0,100.0,1.0,1.1856,26.0,0.0,0.0,0.0,59.999996,0.0,26.0,26.0,26.0,26.0,0.03744444444444439,0.2512000000000001,0.0438,291.229,-2.6828,-2.5936250000000003,-1.5552000000000001,-1.5967,-173.99,215.70499999999998,190.3295,0.0,0.0,0.0,0.0,0.060699999999999976,-5.498166666666667,-5.498166666666667,-0.6032000000000001,0.8546666666666667,0.008000000000000007,0.637,69.643,0.0287,-0.217,-0.4820000000000002,100.0,1.0,1.0,214.74,0.0,0.0,0.0,0.0,0.0,0.0,0.0,9102.0,0.0,55.0,5.0,250.69,0.0,0.0,0.0,0.0,0.0,0.0,1.0,0.0,1.5060000000000002,1.5060000000000002,0.0,0.0,0.0,55.0,616.79921,10000.0,85.000001,85.000001,85.000001,85.000001,395.0,0.0,0.0,0.0,1.0,166.665,50.766,50.766,47.15,47.15,34.0,-22.605,26.582,-27.106666666666666,31.765,0.0,1782.008,-0.5,100.0,29.227,29.142,43.61,44.068,0.0,0.0,100.0,0.0,0.0,0.0,0.0,3239.75,3272.7,4126.666666666667,4181.4,304.882,304.393,314.85025,314.516,22.0716,20.6648,22.0776,21.5926,314.999998,314.999998,324.999988,324.999988,99.55978571428571,99.50723333333333,99.56918571428571,99.5499,0.13566666666666638,-0.021333333333333204,-0.0785,0.14833333333333334,-0.03499999999999659,-0.06571428571428584,1.5063333333333333,1.4835,38.948,30.155,38.985,35.9535,56.075,35.506,60.098,53.56,54.0,34.5925,58.649,51.837,53.141,34.1085,58.521,51.218,-0.13149999999999995,-0.04400000000000004,0.10639000000000001,0.10883500000000002,0.0,217.99,218.06,214.74,214.74,0.0,0.0
31,0.0,0.0,0.0,1.0,1.0,0.0,0.0,1.0,0.0,100.0,1.0,1.1856,26.0,0.0,0.0,0.0,59.999996,0.0,26.0,26.0,26.0,26.0,0.03688888888888897,0.25250000000000017,0.025566666666666668,290.894,-2.7737,-2.622375,-1.601,-1.4923,-170.44,215.69,190.30375,0.0,0.0,0.0,0.0,0.06276666666666653,-5.498166666666667,-5.498166666666667,-0.5918,-0.4903333333333333,0.011222222222222022,-0.891,69.775,0.0366,-0.22415000000000002,-0.484,100.0,1.0,1.0,215.0233333333333,0.0,0.0,0.0,0.0,0.0,0.0,0.0,9114.0,0.0,55.0,5.0,251.16666666666666,1.0,0.0,0.0,0.0,0.0,0.0,1.0,0.0,1.5569999999999986,1.5569999999999986,0.0,0.0,1.0,55.0,616.79921,10000.0,85.000001,85.000001,85.000001,85.000001,395.0,0.0,0.0,0.0,1.0,166.665,51.01,51.01,45.685,45.685,34.0,-23.9275,27.328,-29.53,30.745,0.0,1781.957,-0.495000000000001,100.0,28.778,29.329,44.303,44.855000000000004,0.0,0.0,100.0,0.0,0.0,0.0,0.0,3238.625,3303.0,4300.222222222223,4185.9,305.2696666666667,304.29133333333334,314.41725,314.4175,22.081,20.6706,22.0883,21.6021,314.999998,314.999998,324.999988,324.999988,99.5598,99.50725,99.56934285714286,99.55004285714286,0.11699999999999999,-0.01766666666666672,-0.08216666666666668,0.15016666666666667,-0.045000000000001705,-0.0357142857142847,1.475,1.4475,39.006,30.191,39.052,36.013,56.064,35.545500000000004,60.138,53.623,53.989999999999995,34.629,58.6865,51.8975,53.129000000000005,34.144,58.555,51.27766666666667,-0.12,-0.043500000000000094,0.108545,0.11309000000000001,0.0,218.39,218.405,215.0233333333333,215.0233333333333,0.0,0.0
32,0.0,0.0,0.0,1.0,1.0,0.0,0.0,1.0,0.0,100.0,1.0,1.1856,26.0,0.0,0.0,0.0,59.999996,0.0,26.0,26.0,26.0,26.0,0.05355555555555558,0.2763,-0.027133333333333332,291.229,-2.6933,-2.68575,-1.5834000000000001,-1.5026000000000002,-166.87,215.675,190.278125,0.0,0.0,0.0,0.0,0.0648333333333333,-5.498166666666667,-5.498166666666667,-0.606,-0.09699999999999998,-0.008777777777777995,0.382,69.904,0.040400000000000005,-0.229,-0.6020000000000003,100.0,1.0,1.0,215.47333333333333,0.0,0.0,0.0,0.0,0.0,0.0,0.0,9133.1,0.0,55.0,5.0,251.62666666666667,0.0,0.0,0.0,0.0,0.0,0.0,1.0,0.0,1.6080000000000005,1.6080000000000005,0.0,0.0,0.0,55.0,616.79921,10000.0,85.000001,85.000001,85.000001,85.000001,395.0,0.0,0.0,0.0,1.0,166.665,51.483000000000004,51.483000000000004,46.478,46.478,34.0,-21.115,26.92,-27.046666666666663,32.7725,0.0,1781.905,-0.4800000000000004,100.0,28.871,29.035,44.104,44.585,0.0,0.0,100.0,0.0,0.0,0.0,0.0,3077.625,3186.0,4166.222222222223,4389.0,305.4463333333333,304.728,314.698,314.14575,22.0903,20.6764,22.0987,21.6114,314.999998,314.999998,324.999988,324.999988,99.55981428571428,99.50725,99.56948571428572,99.55021428571429,0.14033333333333342,-0.0129999999999999,-0.06283333333333334,0.1625,-0.03499999999999659,-0.05285714285714249,1.5123333333333333,1.5085,39.064,30.2275,39.117000000000004,36.0715,56.053,35.585,60.173,53.6825,53.979,34.6655,58.719,51.955,53.117000000000004,34.179,58.5845,51.333666666666666,-0.12349999999999994,-0.044499999999999984,0.10769500000000001,0.10725000000000001,0.0,218.79000000000002,218.82,215.47333333333333,215.47333333333333,0.0,0.0
33,0.0,0.0,0.0,1.0,1.0,0.0,0.0,1.0,0.0,100.0,1.0,1.1856,26.0,0.0,0.0,0.0,59.999996,0.0,26.0,26.0,26.0,26.0,0.05899999999999994,0.2549000000000001,-0.03283333333333333,291.504,-2.738,-2.669625,-1.5967,-1.5842,-163.73000000000002,215.6625,190.254625,0.0,0.0,0.0,0.0,0.06666666666666654,-5.498166666666667,-5.498166666666667,-0.6151,-0.32766666666666666,-0.005111111111111288,-0.1120000000000001,70.017,0.0398,-0.2182,-0.3979999999999997,100.0,1.0,1.0,215.83666666666667,0.0,0.0,0.0,0.0,0.0,0.0,0.0,9148.5,0.0,55.0,5.0,252.03666666666666,1.0,0.0,0.0,0.0,0.0,0.0,1.0,0.0,1.6529999999999987,1.6529999999999987,0.0,0.0,1.0,55.0,616.79921,10000.0,85.000001,85.000001,85.000001,85.000001,395.0,0.0,0.0,0.0,1.0,333.33500000000004,51.804,51.804,46.738,46.738,34.0,-22.465,25.422,-28.106666666666666,32.22,0.0,1781.859,-0.48499999999999943,100.0,28.552,28.929000000000002,43.899,44.525999999999996,0.0,0.0,100.0,0.0,0.0,0.0,0.0,3145.75,3063.3,4177.111111111111,4233.3,305.50033333333334,304.96633333333335,314.76725,314.40075,22.0985,20.6813,22.1078,21.6196,314.999998,314.999998,324.999988,324.999988,99.55982857142857,99.50725,99.56961428571428,99.55034285714285,0.1256666666666666,-0.020999999999999908,-0.07866666666666668,0.15083333333333335,-0.046666666666666856,-0.03999999999999915,1.4983333333333333,1.4805000000000001,39.114999999999995,30.258499999999998,39.174,36.1225,56.043,35.618,60.204499999999996,53.7345,53.969,34.696,58.748,52.004999999999995,53.105999999999995,34.208,58.6105,51.382666666666665,-0.12049999999999994,-0.04499999999999993,0.10900000000000001,0.10747000000000001,0.0,219.13,219.175,215.83666666666667,215.83666666666667,0.0,0.0
34,0.0,0.0,0.0,1.0,1.0,0.0,0.0,1.0,0.0,100.0,1.0,1.1856,26.0,0.0,0.0,0.0,59.999996,0.0,26.0,26.0,26.0,26.0,0.049111111111111105,0.2539,-0.05266666666666667,291.794,-2.6731,-2.672625,-1.6589,-1.5457,-160.14999999999998,215.65,190.22675,0.0,0.0,0.0,0.0,0.06876666666666653,-5.498166666666667,-5.498166666666667,-0.6421,-0.7603333333333333,0.021777777777777896,0.958,70.146,0.0378,-0.224175,-0.4299999999999997,100.0,1.0,1.0,216.23333333333335,0.0,0.0,0.0,0.0,0.0,0.0,0.0,9165.3,0.0,55.0,5.0,252.5,0.0,0.0,0.0,0.0,0.0,0.0,1.0,0.0,1.7040000000000006,1.7040000000000006,0.0,0.0,0.0,55.0,616.79921,10000.0,85.000001,85.000001,85.000001,85.000001,395.0,0.0,0.0,0.0,1.0,333.33500000000004,52.17,52.17,47.287,47.287,34.0,-20.71,26.278,-27.723333333333333,32.05,0.0,1781.809,-0.5199999999999996,100.0,28.448,28.475,43.764,44.458,0.0,0.0,100.0,0.0,0.0,0.0,0.0,3026.875,3126.3,4072.222222222222,4244.7,305.64733333333334,305.0203333333333,315.00375,314.39425,22.1077,20.6869,22.1181,21.629,314.999998,314.999998,324.999988,324.999988,99.55985714285714,99.50726666666667,99.56975714285714,99.55048571428571,0.13500000000000023,-0.008000000000000007,-0.07166666666666667,0.15933333333333335,-0.03333333333333144,-0.05142857142857338,1.5093333333333332,1.5125,39.173,30.2935,39.238,36.181,56.031,35.6545,60.2385,53.795,53.958,34.730000000000004,58.7795,52.0635,53.094,34.2405,58.6385,51.43966666666667,-0.121,-0.04150000000000009,0.110185,0.10712,0.0,219.515,219.53,216.23333333333335,216.23333333333335,0.0,0.0
35,0.0,0.0,0.0,1.0,1.0,0.0,0.0,1.0,0.0,100.0,1.0,1.1856,26.0,0.0,0.0,0.0,59.999996,0.0,26.0,26.0,26.0,26.0,0.05711111111111111,0.2430000000000001,-0.0333,291.779,-2.7354,-2.608375,-1.6308,-1.505,-156.57,215.64,190.196875,0.0,0.0,0.0,0.0,0.0708333333333333,-5.498166666666667,-5.498166666666667,-0.6827000000000001,-0.32199999999999995,0.0018888888888888289,-1.2640000000000002,70.273,0.0415,-0.23070000000000002,-0.49600000000000044,100.0,1.0,1.0,216.69666666666666,0.0,0.0,0.0,0.0,0.0,0.0,0.0,9184.9,0.0,55.0,5.0,252.95666666666665,1.0,0.0,0.0,0.0,0.0,0.0,1.0,0.0,1.754999999999999,1.754999999999999,0.0,0.0,1.0,55.0,616.79921,10000.0,85.000001,85.000001,85.000001,85.000001,395.0,0.0,0.0,0.0,1.0,166.665,51.666,51.666,46.89,46.89,34.0,-22.955,27.43,-27.213333333333335,29.455,0.0,1781.759,-0.39000000000000057,100.0,28.087,28.863,43.496,44.022,0.0,0.0,100.0,0.0,0.0,0.0,0.0,3171.625,3324.1,4068.777777777778,4009.2,305.397,304.1736666666667,314.99875,314.95125,22.1167,20.6927,22.1284,21.6381,314.999998,314.999998,324.999988,324.999988,99.55985714285714,99.50726666666667,99.56991428571429,99.55064285714286,0.1200000000000001,-0.018999999999999906,-0.07266666666666667,0.162,-0.05333333333332746,-0.05142857142857338,1.5503333333333333,1.5325,39.229,30.3295,39.303,36.2385,56.016,35.6935,60.2725,53.851,53.944,34.766,58.811,52.1175,53.079,34.2755,58.667,51.492333333333335,-0.10899999999999999,-0.04899999999999993,0.11138,0.10752,0.0,219.905,219.95,216.69666666666666,216.69666666666666,0.0,0.0
36,0.0,0.0,0.0,1.0,1.0,0.0,0.0,1.0,0.0,100.0,1.0,1.1856,26.0,0.0,0.0,0.0,59.999996,0.0,26.0,26.0,26.0,26.0,0.04977777777777792,0.25039999999999996,0.028833333333333332,291.0,-2.6558,-2.6496250000000003,-1.5783,-1.5483,-153.19,215.63,190.167375,0.0,0.0,0.0,0.0,0.07279999999999998,-5.498166666666667,-5.498166666666667,-0.6642,0.29066666666666685,-0.03922222222222205,-1.2530000000000001,70.395,0.0408,-0.20272500000000002,-0.26200000000000045,100.0,1.0,1.0,216.86333333333334,0.0,0.0,0.0,0.0,0.0,0.0,0.0,9192.1,0.0,55.0,5.0,253.39333333333335,0.0,0.0,0.0,0.0,0.0,0.0,1.0,0.0,1.8030000000000008,1.8030000000000008,0.0,0.0,0.0,55.0,616.79921,10000.0,85.000001,85.000001,85.000001,85.000001,395.0,0.0,0.0,0.0,1.0,333.33500000000004,51.361000000000004,51.361000000000004,46.448,46.448,34.0,-22.2625,25.956,-29.96,34.295,0.0,1781.71,-0.28000000000000114,100.0,28.739,29.051000000000002,43.608000000000004,44.263,0.0,0.0,100.0,0.0,0.0,0.0,0.0,3189.875,3148.8,4439.0,4474.7,305.1166666666667,304.715,314.17,313.81725,22.1255,20.6983,22.1382,21.647,314.999998,314.999998,324.999988,324.999988,99.55987142857143,99.50726666666667,99.57004285714285,99.55078571428571,0.12733333333333352,-0.023333333333333206,-0.075,0.15333333333333335,-0.03166666666666629,-0.03857142857143003,1.4466666666666668,1.432,39.284,30.363999999999997,39.364000000000004,36.2935,56.007,35.731,60.3065,53.908,53.935,34.801,58.843,52.1725,53.069,34.309,58.696,51.546,-0.11249999999999993,-0.05800000000000005,0.10769000000000001,0.11098500000000001,0.0,220.32,220.35000000000002,216.86333333333334,216.86333333333334,0.0,0.0
