,ABS Active,ABS Enabled,AID Allow Tire Blankets,AID Auto Blip,AID Auto Clutch,AID Auto Shift,AID Fuel Rate,AID Ideal Line,AID Mech Damage,AID Stability,AID Tire Wear Rate,Air Density,Air Temp,Ballast,Best Lap Delta,Best Lap Time,Brake Bias,Brake Pos,Brake Temp FL,Brake Temp FR,Brake Temp RL,Brake Temp RR,CG Accel Lateral,CG Accel Longitudinal,CG Accel Vertical,CG Height,Camber FL,Camber FR,Camber RL,Camber RR,Car Coord X,Car Coord Y,Car Coord Z,Car Damage Front,Car Damage Left,Car Damage Rear,Car Damage Right,Car Pos Norm,Caster FL,Caster FR,Chassis Pitch Angle,Chassis Pitch Rate,Chassis Roll Angle,Chassis Roll Rate,Chassis Velocity X,Chassis Velocity Y,Chassis Velocity Z,Chassis Yaw Rate,Clutch Pos,DRS Active,DRS Available,Drive Train Speed,ERS Heat Charging,ERS Is Charging,ERS Max Energy,ERS Power Level,ERS Recovery Level,Engine Brake Setting,Engine Limiter,Engine RPM,Flags,Fuel Level,Gear,Ground Speed,HR Sample Clock,In Pit,KERS Charge,KERS Deployed Energy,KERS Input,KERS Max Energy,LR Sample Clock,Lap Invalidated,Lap Time,Lap Time2,Last Lap Time,Last Sector Time,MR Sample Clock,Max Fuel,Max Power,Max RPM,Max Sus Travel FL,Max Sus Travel FR,Max Sus Travel RL,Max Sus Travel RR,Max Torque,Max Turbo Boost,Num Tires Off Track,Penalties Enabled,Position,Raw Data Sample Rate,Ride Height FL,Ride Height FR,Ride Height RL,Ride Height RR,Road Temp,Self Align Torque FL,Self Align Torque FR,Self Align Torque RL,Self Align Torque RR,Session Lap Count,Session Time Left,Steering Angle,Surface Grip,Suspension Travel FL,Suspension Travel FR,Suspension Travel RL,Suspension Travel RR,TC Active,TC Enabled,Throttle Pos,Tire Dirt Level FL,Tire Dirt Level FR,Tire Dirt Level RL,Tire Dirt Level RR,Tire Load FL,Tire Load FR,Tire Load RL,Tire Load RR,Tire Loaded Radius FL,Tire Loaded Radius FR,Tire Loaded Radius RL,Tire Loaded Radius RR,Tire Pressure FL,Tire Pressure FR,Tire Pressure RL,Tire Pressure RR,Tire Radius FL,Tire Radius FR,Tire Radius RL,Tire Radius RR,Tire Rubber Grip FL,Tire Rubber Grip FR,Tire Rubber Grip RL,Tire Rubber Grip RR,Tire Slip Angle FL,Tire Slip Angle FR,Tire Slip Angle RL,Tire Slip Angle RR,Tire Slip Ratio FL,Tire Slip Ratio FR,Tire Slip Ratio RL,Tire Slip Ratio RR,Tire Temp Core FL,Tire Temp Core FR,Tire Temp Core RL,Tire Temp Core RR,Tire Temp Inner FL,Tire Temp Inner FR,Tire Temp Inner RL,Tire Temp Inner RR,Tire Temp Middle FL,Tire Temp Middle FR,Tire Temp Middle RL,Tire Temp Middle RR,Tire Temp Outer FL,Tire Temp Outer FR,Tire Temp Outer RL,Tire Temp Outer RR,Toe In FL,Toe In FR,Toe In RL,Toe In RR,Turbo Boost,Wheel Angular Speed FL,Wheel Angular Speed FR,Wheel Angular Speed RL,Wheel Angular Speed RR,Wind Direction,Wind Speed
0,0.0,0.0,0.0,1.0,1.0,0.0,0.0,1.0,0.0,100.0,1.0,1.1856,26.0,0.0,0.0,0.0,59.99999,0.0,26.0,26.0,26.0,26.0,-0.06755555555555548,0.30310000000000015,-0.005533333333333334,294.159,-2.727,-2.652333333333333,-1.5215,-1.5529000000000002,-275.71,216.29250000000002,190.987875,0.0,0.0,0.0,0.0,0.0015666666666666051,-5.498166666666667,-5.498166666666667,-0.549,1.1083333333333334,-0.003750000000000142,-1.082,65.495,-0.028799999999999937,-0.21327500000000002,1.0039999999999996,100.0,1.0,1.0,202.23000000000002,0.0,0.0,0.0,0.0,0.0,0.0,0.0,8571.8,0.0,55.0,5.0,235.75,0.0,0.0,0.0,0.0,0.0,0.0,0.0,0.0,0.0030000000000001137,0.0030000000000001137,0.0,0.0,0.0,55.0,616.79921,10000.0,85.0,85.0,85.0,85.0,395.0,0.0,0.0,0.0,1.0,20.0,52.948,52.948,49.759,49.759,34.0,-26.155,23.2,-29.9,24.75,0.0,1783.382,0.8399999999999999,100.0,27.396,26.909,40.503,40.612,0.0,0.0,100.0,0.0,0.0,0.0,0.0,2976.714285714286,3332.9,4068.5,3953.9,305.832,304.169,314.987,314.943,21.7711,20.5143,21.7663,21.3145,314.99999,314.99999,324.99998,324.99998,99.55865714285714,99.50713333333333,99.56475714285715,99.54524285714285,-0.00374999999999992,-0.11799999999999988,-0.16133333333333333,0.07066666666666666,-0.04333333333332945,-0.060000000000002274,1.5625,1.6155,37.069,29.214333333333336,37.039,34.2155,56.176,34.3795,58.9095,51.6205,54.11,33.567499999999995,57.543,49.9745,53.294,33.1415,57.5075,49.39566666666666,-0.006000000000000005,-0.13649999999999984,0.10646000000000001,0.10968000000000001,0.0,205.25,205.175,202.23000000000002,202.23000000000002,0.0,0.0
1,0.0,0.0,0.0,1.0,1.0,0.0,0.0,1.0,0.0,100.0,1.0,1.1856,26.0,0.0,0.0,0.0,59.999996,0.0,26.0,26.0,26.0,26.0,-0.10388888888888892,0.3074000000000001,0.22996666666666665,292.984,-2.6367,-2.768222222222222,-1.5241,-1.5514000000000001,-272.17,216.28750000000002,190.966375,0.0,0.0,0.0,0.0,0.0036333333333333773,-5.498166666666667,-5.498166666666667,-0.49910000000000004,-0.6143333333333333,-0.05812499999999998,-1.089,65.658,-0.048699999999999966,-0.19362500000000002,1.4139999999999997,100.0,1.0,1.0,202.38666666666666,0.0,0.0,0.0,0.0,0.0,0.0,0.0,8578.4,0.0,55.0,5.0,236.34,1.0,0.0,0.0,0.0,0.0,0.0,0.0,0.0,0.05699999999999861,0.05699999999999861,0.0,0.0,1.0,55.0,616.79921,10000.0,85.000001,85.000001,85.000001,85.000001,395.0,0.0,0.0,0.0,1.0,166.665,53.482,53.482,48.294,48.294,34.0,-27.58,18.274,-34.379999999999995,29.48,0.0,1783.329,0.9400000000000013,100.0,27.537,26.987000000000002,42.622,41.718,0.0,0.0,100.0,0.0,0.0,0.0,0.0,3162.4285714285716,2713.6,4369.875,4715.8,305.28933333333333,306.17575,314.17425,313.10425,21.7815,20.5197,21.7777,21.3241,314.999998,314.999998,324.999988,324.999988,99.55865714285714,99.50715,99.56491428571428,99.5454,-0.011749999999999927,-0.14100000000000001,-0.17799999999999994,0.042166666666666686,-0.041666666666671404,-0.04833333333333201,1.4205,1.464,37.135,29.247999999999998,37.11,34.2755,56.159,34.4235,58.957,51.689,54.094,33.6075,57.588,50.04,53.277,33.18,57.549,49.46,-0.0050000000000000044,-0.14700000000000024,0.10324000000000001,0.10831500000000001,0.0,205.72,205.62,202.38666666666666,202.38666666666666,0.0,0.0
2,0.0,0.0,0.0,1.0,1.0,0.0,0.0,1.0,0.0,100.0,1.0,1.1856,26.0,0.0,0.0,0.0,59.999996,0.0,26.0,26.0,26.0,26.0,-0.1444444444444445,0.30600000000000005,-0.06976666666666667,293.625,-2.6017,-2.795,-1.4914,-1.6078999999999999,-268.82,216.28,190.947625,0.0,0.0,0.0,0.0,0.005566666666666609,-5.498166666666667,-5.498166666666667,-0.5481,0.10400000000000009,-0.04587500000000011,2.713,65.801,-0.07099999999999995,-0.2533,1.6020000000000003,100.0,1.0,1.0,203.29000000000002,0.0,0.0,0.0,0.0,0.0,0.0,0.0,8616.8,0.0,55.0,5.0,236.85333333333335,0.0,0.0,0.0,0.0,0.0,0.0,0.0,0.0,0.10800000000000054,0.10800000000000054,0.0,0.0,0.0,55.0,616.79921,10000.0,85.000001,85.000001,85.000001,85.000001,395.0,0.0,0.0,0.0,1.0,166.665,52.414,52.414,50.125,50.125,34.0,-29.365000000000002,20.774,-29.153333333333336,20.595,0.0,1783.278,0.7050000000000018,100.0,28.428,26.878,42.594,41.361000000000004,0.0,0.0,100.0,0.0,0.0,0.0,0.0,3290.4285714285716,3013.0,3752.125,3735.7,304.63966666666664,305.328,315.62225,315.652,21.7917,20.5246,21.7881,21.3328,314.999998,314.999998,324.999988,324.999988,99.55865714285714,99.50716666666666,99.56505714285714,99.54552857142858,-0.020999999999999908,-0.1413333333333333,-0.21816666666666662,0.011333333333333417,-0.05833333333333002,-0.060000000000002274,1.6325,1.7025,37.198,29.279,37.176,34.33,56.147,34.463,58.996,51.746,54.082,33.644,57.624,50.0945,53.263999999999996,33.2145,57.582499999999996,49.513666666666666,-0.019499999999999962,-0.13050000000000006,0.1,0.10737000000000001,0.0,206.18,206.055,203.29000000000002,203.29000000000002,0.0,0.0
3,0.0,0.0,0.0,1.0,1.0,0.0,0.0,1.0,0.0,100.0,1.0,1.1856,26.0,0.0,0.0,0.0,59.999996,0.0,26.0,26.0,26.0,26.0,-0.12677777777777777,0.30210000000000004,0.08103333333333335,293.472,-2.7281,-2.694111111111111,-1.51,-1.5937000000000001,-265.66,216.26749999999998,190.929125,0.0,0.0,0.0,0.0,0.007433333333333292,-5.498166666666667,-5.498166666666667,-0.51,0.2593333333333332,-0.009749999999999925,0.111,65.944,-0.08649999999999991,-0.2003,1.2539999999999996,100.0,1.0,1.0,203.45,0.0,0.0,0.0,0.0,0.0,0.0,0.0,8623.6,0.0,55.0,5.0,237.36666666666667,1.0,0.0,0.0,0.0,0.0,0.0,0.0,0.0,0.1559999999999988,0.1559999999999988,0.0,0.0,1.0,55.0,616.79921,10000.0,85.000001,85.000001,85.000001,85.000001,395.0,0.0,0.0,0.0,1.0,166.665,53.589,53.589,48.172,48.172,34.0,-25.35,18.637999999999998,-34.38333333333333,24.9075,0.0,1783.23,0.5850000000000009,100.0,27.948,26.918,42.5,41.419,0.0,0.0,100.0,0.0,0.0,0.0,0.0,2842.142857142857,2892.7,4260.75,4241.2,306.12666666666667,305.6395,314.39775,314.35125,21.8009,20.5295,21.7979,21.3412,314.999998,314.999998,324.999988,324.999988,99.55865714285714,99.50718333333333,99.5652,99.54565714285714,-0.014499999999999957,-0.15066666666666673,-0.20633333333333337,0.019166666666666554,-0.061666666666667425,-0.051666666666669414,1.4865,1.547,37.256,29.309333333333335,37.236999999999995,34.3825,56.131,34.503,59.033500000000004,51.8045,54.067,33.681,57.659,50.150999999999996,53.248999999999995,33.2505,57.615,49.569,-0.031000000000000028,-0.12300000000000022,0.1019,0.10965000000000001,0.0,206.64,206.53,203.45,203.45,0.0,0.0
4,0.0,0.0,0.0,1.0,1.0,0.0,0.0,1.0,0.0,100.0,1.0,1.1856,26.0,0.0,0.0,0.0,59.999996,0.0,26.0,26.0,26.0,26.0,-0.14688888888888885,0.29810000000000003,-0.019133333333333336,293.64,-2.6596,-2.7439999999999998,-1.5281,-1.5968,-262.49,216.255,190.910625,0.0,0.0,0.0,0.0,0.009266666666666534,-5.498166666666667,-5.498166666666667,-0.5426,-0.908,-0.0754999999999999,-0.727,66.082,-0.0897,-0.23515,1.1300000000000008,100.0,1.0,1.0,203.99,0.0,0.0,0.0,0.0,0.0,0.0,0.0,8646.4,0.0,55.0,5.0,237.86666666666667,0.0,0.0,0.0,0.0,0.0,0.0,0.0,0.0,0.20400000000000063,0.20400000000000063,0.0,0.0,0.0,55.0,616.79921,10000.0,85.000001,85.000001,85.000001,85.000001,395.0,0.0,0.0,0.0,1.0,333.33500000000004,53.116,53.116,48.721000000000004,48.721000000000004,34.0,-28.5125,20.148,-32.403333333333336,21.1075,0.0,1783.18,0.5450000000000017,100.0,27.769,26.697,42.863,41.473,0.0,0.0,100.0,0.0,0.0,0.0,0.0,3179.5714285714284,2980.2,4071.0,3715.2,305.2026666666667,305.38775,314.816,315.578,21.8099,20.5343,21.8078,21.3495,314.999998,314.999998,324.999988,324.999988,99.55865714285714,99.50721666666666,99.56532857142857,99.54578571428571,-0.02299999999999991,-0.1403333333333332,-0.20450000000000002,0.01849999999999996,-0.04333333333332945,-0.03999999999999915,1.5635,1.607,37.312,29.339,37.299,34.4345,56.114000000000004,34.542,59.073,51.86,54.051,33.717,57.696,50.204499999999996,53.232,33.2845,57.6495,49.621,-0.02949999999999997,-0.1160000000000001,0.10661000000000001,0.11190000000000001,0.0,207.01,206.905,203.99,203.99,0.0,0.0
5,0.0,0.0,0.0,1.0,1.0,0.0,0.0,1.0,0.0,100.0,1.0,1.1856,26.0,0.0,0.0,0.0,59.999996,0.0,26.0,26.0,26.0,26.0,-0.12744444444444447,0.2954000000000001,-0.013766666666666667,293.655,-2.6721,-2.765888888888889,-1.508,-1.5876000000000001,-259.12,216.235,190.890125,0.0,0.0,0.0,0.0,0.011233333333333317,-5.498166666666667,-5.498166666666667,-0.5368,0.40666666666666673,-0.08387499999999992,-0.242,66.229,-0.08999999999999997,-0.21502500000000002,1.0679999999999996,100.0,1.0,1.0,204.40333333333334,0.0,0.0,0.0,0.0,0.0,0.0,0.0,8663.9,0.0,55.0,5.0,238.39333333333332,1.0,0.0,0.0,0.0,0.0,0.0,0.0,0.0,0.254999999999999,0.254999999999999,0.0,0.0,1.0,55.0,616.79921,10000.0,85.000001,85.000001,85.000001,85.000001,395.0,0.0,0.0,0.0,1.0,333.33500000000004,53.436,53.436,49.010999999999996,49.010999999999996,34.0,-28.7225,18.86,-33.593333333333334,22.52,0.0,1783.13,0.15500000000000114,100.0,27.797,26.77,42.563,41.213,0.0,0.0,100.0,0.0,0.0,0.0,0.0,3199.285714285714,2759.3,4175.0,4019.0,305.2083333333333,305.9425,314.72975,314.852,21.8199,20.5393,21.8182,21.3582,314.999998,314.999998,324.999988,324.999988,99.55867142857143,99.50723333333333,99.56547142857143,99.54592857142858,-0.02224999999999988,-0.137,-0.21733333333333338,0.006333333333333302,-0.03999999999999915,-0.05333333333332746,1.549,1.5855,37.375,29.371000000000002,37.364000000000004,34.489,56.101,34.583,59.1135,51.917500000000004,54.038,33.7545,57.734,50.259,53.218,33.320499999999996,57.6845,49.67466666666667,-0.050999999999999934,-0.08999999999999986,0.10412500000000001,0.10999,0.0,207.505,207.41500000000002,204.40333333333334,204.40333333333334,0.0,0.0
6,0.0,0.0,0.0,1.0,1.0,0.0,0.0,1.0,0.0,100.0,1.0,1.1856,26.0,0.0,0.0,0.0,59.999996,0.0,26.0,26.0,26.0,26.0,-0.11911111111111106,0.2852000000000001,0.006033333333333334,293.427,-2.6379,-2.7984444444444443,-1.5535999999999999,-1.5816,-255.73,216.215,190.869625,0.0,0.0,0.0,0.0,0.01319999999999999,-5.498166666666667,-5.498166666666667,-0.5308,0.11966666666666681,-0.061125000000000096,0.902,66.376,-0.08289999999999997,-0.21475,0.6620000000000008,100.0,1.0,1.0,204.8466666666667,0.0,0.0,0.0,0.0,0.0,0.0,0.0,8682.6,0.0,55.0,5.0,238.92333333333335,0.0,0.0,0.0,0.0,0.0,0.0,0.0,0.0,0.30600000000000094,0.30600000000000094,0.0,0.0,0.0,55.0,616.79921,10000.0,85.000001,85.000001,85.000001,85.000001,395.0,0.0,0.0,0.0,1.0,166.665,53.131,53.131,48.691,48.691,34.0,-26.2075,21.682000000000002,-32.276666666666664,23.625,0.0,1783.08,0.004999999999999005,100.0,27.852,26.758,42.768,41.498000000000005,0.0,0.0,100.0,0.0,0.0,0.0,0.0,3094.142857142857,2976.3,4081.875,4055.0,305.292,305.3395,314.87425,314.82825,21.8298,20.5445,21.8287,21.3672,314.999998,314.999998,324.999988,324.999988,99.55867142857143,99.50723333333333,99.56561428571429,99.54607142857142,0.012750000000000039,-0.11533333333333329,-0.19266666666666665,0.023500000000000076,-0.046666666666666856,-0.046666666666666856,1.5375,1.5525,37.436,29.403,37.43,34.545,56.086,34.6235,59.1545,51.979,54.024,33.7915,57.772,50.318,53.203,33.356,57.7195,49.732,-0.06899999999999995,-0.07900000000000018,0.101125,0.10127000000000001,0.0,207.93,207.85500000000002,204.8466666666667,204.84666666666666,0.0,0.0
7,0.0,0.0,0.0,1.0,1.0,0.0,0.0,1.0,0.0,100.0,1.0,1.1856,26.0,0.0,0.0,0.0,59.999996,0.0,26.0,26.0,26.0,26.0,-0.06144444444444441,0.29310000000000014,0.021266666666666666,293.198,-2.6151999999999997,-2.726888888888889,-1.5164,-1.6237,-252.35,216.19,190.84925,0.0,0.0,0.0,0.0,0.01516666666666655,-5.498166666666667,-5.498166666666667,-0.5344,-0.008333333333333304,-0.05037499999999984,-0.168,66.521,-0.06599999999999995,-0.2243,0.36600000000000055,100.0,1.0,1.0,205.2733333333333,0.0,0.0,0.0,0.0,0.0,0.0,0.0,8700.7,0.0,55.0,5.0,239.45,1.0,0.0,0.0,0.0,0.0,0.0,0.0,0.0,0.3569999999999993,0.3569999999999993,0.0,0.0,1.0,55.0,616.79921,10000.0,85.000001,85.000001,85.000001,85.000001,395.0,0.0,0.0,0.0,1.0,166.665,52.78,52.78,48.782,48.782,34.0,-26.705,21.796,-31.15,25.2325,0.0,1783.029,-0.2049999999999983,100.0,27.811,26.978,42.722,41.866,0.0,0.0,100.0,0.0,0.0,0.0,0.0,3265.857142857143,2952.0,4078.25,4024.3,304.88733333333334,305.2535,314.897,314.76,21.8397,20.549599999999998,21.839199999999998,21.3761,314.999998,314.999998,324.999988,324.999988,99.55867142857143,99.50725,99.56575714285714,99.54621428571429,0.03149999999999986,-0.09666666666666668,-0.1805,0.043500000000000094,-0.06833333333332803,-0.05333333333332746,1.536,1.533,37.498000000000005,29.435000000000002,37.495000000000005,34.601,56.071,34.663,59.1945,52.039500000000004,54.01,33.828,57.8095,50.3765,53.188,33.3905,57.7545,49.78933333333333,-0.09399999999999997,-0.05600000000000005,0.10046500000000001,0.10877500000000001,0.0,208.375,208.32,205.2733333333333,205.2733333333333,0.0,0.0
8,0.0,0.0,0.0,1.0,1.0,0.0,0.0,1.0,0.0,100.0,1.0,1.1856,26.0,0.0,0.0,0.0,59.999996,0.0,26.0,26.0,26.0,26.0,-0.04055555555555557,0.2923,-0.02,293.442,-2.6986,-2.7125555555555554,-1.4999,-1.5514000000000001,-249.15,216.16500000000002,190.829875,0.0,0.0,0.0,0.0,0.017033333333333345,-5.498166666666667,-5.498166666666667,-0.5344,-0.43633333333333335,-0.03374999999999995,-0.527,66.65899999999999,-0.046499999999999986,-0.214725,-0.019999999999999574,100.0,1.0,1.0,205.62666666666667,0.0,0.0,0.0,0.0,0.0,0.0,0.0,8715.7,0.0,55.0,5.0,239.94333333333333,0.0,0.0,0.0,0.0,0.0,0.0,0.0,0.0,0.40500000000000114,0.40500000000000114,0.0,0.0,0.0,55.0,616.79921,10000.0,85.000001,85.000001,85.000001,85.000001,395.0,0.0,0.0,0.0,1.0,166.665,53.68,53.68,48.05,48.05,34.0,-24.1825,21.792,-31.466666666666665,26.545,0.0,1782.98,-0.34499999999999886,100.0,27.388,26.916,42.682,41.955,0.0,0.0,100.0,0.0,0.0,0.0,0.0,2972.714285714286,2894.1,4216.625,4127.7,305.886,305.489,314.5395,314.52325,21.8487,20.5545,21.849,21.3846,314.999998,314.999998,324.999988,324.999988,99.55867142857143,99.50726666666667,99.5659,99.54634285714286,0.03925000000000001,-0.07966666666666677,-0.16333333333333333,0.07133333333333325,-0.04833333333333201,-0.03999999999999915,1.5115,1.51,37.555,29.465333333333334,37.556,34.6535,56.055,34.699,59.2325,52.0965,53.995000000000005,33.8615,57.8445,50.431,53.173,33.4225,57.786500000000004,49.842666666666666,-0.09950000000000003,-0.047499999999999876,0.10991000000000001,0.10675000000000001,0.0,208.76999999999998,208.745,205.62666666666667,205.62666666666667,0.0,0.0
9,0.0,0.0,0.0,1.0,1.0,0.0,0.0,1.0,0.0,100.0,1.0,1.1856,26.0,0.0,0.0,0.0,59.999996,0.0,26.0,26.0,26.0,26.0,-0.011555555555555541,0.3004,-0.019466666666666667,293.213,-2.6855,-2.7205555555555554,-1.5547,-1.5542,-245.95,216.14,190.81,0.0,0.0,0.0,0.0,0.018866666666666587,-5.498166666666667,-5.498166666666667,-0.543,0.5589999999999999,-0.035499999999999865,-0.40700000000000003,66.793,-0.026599999999999957,-0.21795,-0.11799999999999944,100.0,1.0,1.0,206.17333333333335,0.0,0.0,0.0,0.0,0.0,0.0,0.0,8738.9,0.0,55.0,5.0,240.42333333333335,1.0,0.0,0.0,0.0,0.0,0.0,0.0,0.0,0.4529999999999994,0.4529999999999994,0.0,0.0,1.0,55.0,616.79921,10000.0,85.000001,85.000001,85.000001,85.000001,395.0,0.0,0.0,0.0,1.0,333.33500000000004,52.475,52.475,49.21,49.21,34.0,-26.585,24.036,-28.153333333333336,26.060000000000002,0.0,1782.931,-0.495000000000001,100.0,27.75,27.284,42.349000000000004,41.92,0.0,0.0,100.0,0.0,0.0,0.0,0.0,3371.857142857143,3009.2,3985.625,4007.7,304.686,305.08325,315.18425,314.894,21.858,20.5595,21.8587,21.393,314.999998,314.999998,324.999988,324.999988,99.55868571428572,99.50726666666667,99.56602857142857,99.54647142857142,0.06800000000000006,-0.05233333333333312,-0.13116666666666665,0.08533333333333326,-0.05333333333332746,-0.03166666666666629,1.5755,1.5645,37.611999999999995,29.496666666666666,37.617000000000004,34.706,56.043,34.736,59.266999999999996,52.152,53.983000000000004,33.8955,57.876999999999995,50.4845,53.16,33.455,57.816,49.894999999999996,-0.11399999999999999,-0.03500000000000014,0.09920000000000001,0.102425,0.0,209.19,209.18,206.17333333333335,206.17333333333335,0.0,0.0
10,0.0,0.0,0.0,1.0,1.0,0.0,0.0,1.0,0.0,100.0,1.0,1.1856,26.0,0.0,0.0,0.0,59.999996,0.0,26.0,26.0,26.0,26.0,0.007000000000000117,0.29000000000000004,0.0521,292.969,-2.6607,-2.7096666666666667,-1.5336,-1.534,-242.54,216.1125,190.78925,0.0,0.0,0.0,0.0,0.02086666666666659,-5.498166666666667,-5.498166666666667,-0.5176000000000001,-0.42366666666666664,0.009374999999999911,1.834,66.94,-0.007000000000000006,-0.20445000000000002,-0.5360000000000005,100.0,1.0,1.0,206.40333333333334,0.0,0.0,0.0,0.0,0.0,0.0,0.0,8748.7,0.0,55.0,5.0,240.95333333333335,0.0,0.0,0.0,0.0,0.0,0.0,1.0,0.0,0.5040000000000013,0.5040000000000013,0.0,0.0,0.0,55.0,616.79921,10000.0,85.000001,85.000001,85.000001,85.000001,395.0,0.0,0.0,0.0,1.0,166.665,53.467,53.467,47.623,47.623,34.0,-20.25,24.037999999999997,-29.49,30.2425,0.0,1782.882,-0.5949999999999989,100.0,27.806,27.161,42.823,42.571,0.0,0.0,100.0,0.0,0.0,0.0,0.0,2813.5714285714284,2973.6,4266.125,4352.0,306.17466666666667,305.426,314.34,314.06525,21.8677,20.5647,21.8693,21.4021,314.999998,314.999998,324.999988,324.999988,99.5587,99.50726666666667,99.56617142857142,99.54661428571428,0.10099999999999998,-0.03466666666666662,-0.10383333333333333,0.10899999999999999,-0.02833333333332888,-0.051666666666669414,1.4775,1.4575,37.673,29.529666666666664,37.683,34.7635,56.031,34.772999999999996,59.308,52.216,53.971000000000004,33.9295,57.9155,50.546,53.147,33.488,57.8515,49.955333333333336,-0.12649999999999995,-0.02400000000000002,0.10758000000000001,0.10239000000000001,0.0,209.61,209.655,206.40333333333334,206.40333333333334,0.0,0.0
11,0.0,0.0,0.0,1.0,1.0,0.0,0.0,1.0,0.0,100.0,1.0,1.1856,26.0,0.0,0.0,0.0,59.999996,0.0,26.0,26.0,26.0,26.0,0.05266666666666686,0.2734000000000001,-0.0935,293.51800000000003,-2.7102,-2.682666666666667,-1.5926,-1.5232,-239.12,216.085,190.768625,0.0,0.0,0.0,0.0,0.022599999999999953,-5.498166666666667,-5.498166666666667,-0.5614,-0.279,0.03249999999999997,-0.72,67.078,0.013600000000000056,-0.238825,-0.6079999999999997,100.0,1.0,1.0,207.13666666666666,0.0,0.0,0.0,0.0,0.0,0.0,0.0,8779.8,0.0,55.0,5.0,241.45333333333335,1.0,0.0,0.0,0.0,0.0,0.0,1.0,0.0,0.5549999999999997,0.5549999999999997,0.0,0.0,1.0,55.0,616.79921,10000.0,85.000001,85.000001,85.000001,85.000001,395.0,0.0,0.0,0.0,1.0,333.33500000000004,52.841,52.841,49.301,49.301,34.0,-22.985,25.604,-24.47,26.4925,0.0,1782.83,-0.6849999999999987,100.0,27.406,27.56,42.318,42.618,0.0,0.0,100.0,0.0,0.0,0.0,0.0,3100.0,3091.4,3701.375,3859.6000000000004,305.525,304.83775,315.8825,315.24175,21.8772,20.5701,21.8796,21.4111,314.999998,314.999998,324.999988,324.999988,99.55871428571429,99.50728333333333,99.5663,99.54675714285715,0.0987499999999999,-0.024666666666666615,-0.09750000000000003,0.1306666666666667,-0.04333333333332945,-0.051666666666669414,1.6320000000000001,1.6145,37.733000000000004,29.563333333333333,37.747,34.8195,56.016999999999996,34.811,59.343,52.275999999999996,53.958,33.9645,57.9475,50.6035,53.132999999999996,33.5215,57.881,50.012,-0.125,-0.027499999999999858,0.10981,0.10907000000000001,0.0,210.04000000000002,210.075,207.13666666666666,207.13666666666666,0.0,0.0
12,0.0,0.0,0.0,1.0,1.0,0.0,0.0,1.0,0.0,100.0,1.0,1.1856,26.0,0.0,0.0,0.0,59.999996,0.0,26.0,26.0,26.0,26.0,0.05166666666666675,0.28259999999999996,0.025466666666666665,293.015,-2.7648,-2.678111111111111,-1.5539,-1.5222,-235.9,216.06,190.747875,0.0,0.0,0.0,0.0,0.025466666666666526,-5.498166666666667,-5.498166666666667,-0.5459,0.32666666666666666,0.018124999999999947,-0.837,67.215,0.029900000000000038,-0.20625000000000002,-0.6559999999999997,100.0,1.0,1.0,207.3466666666667,0.0,0.0,0.0,0.0,0.0,0.0,0.0,8788.6,0.0,55.0,5.0,241.94333333333333,0.0,0.0,0.0,0.0,0.0,0.0,1.0,0.0,0.602999999999998,0.602999999999998,0.0,0.0,0.0,55.0,616.79921,10000.0,85.000001,85.000001,85.000001,85.000001,395.0,0.0,0.0,0.0,1.0,333.33500000000004,52.917,52.917,48.004,48.004,34.0,-23.155,25.560000000000002,-27.803333333333335,30.755,0.0,1782.782,-0.6600000000000001,100.0,27.254,27.68,42.176,42.533,0.0,0.0,100.0,0.0,0.0,0.0,0.0,3119.0,3086.5,4233.75,4166.2,305.501,304.87375,314.5965,314.4895,21.8862,20.5753,21.8893,21.4196,314.999998,314.999998,324.999988,324.999988,99.55872857142857,99.50728333333333,99.56644285714286,99.5469,0.10950000000000015,-0.02299999999999991,-0.08083333333333331,0.1543333333333332,-0.060000000000002274,-0.04999999999999716,1.536,1.502,37.789,29.595666666666666,37.808,34.8725,56.004999999999995,34.8465,59.379,52.333,53.947,33.9975,57.981,50.658,53.120999999999995,33.553,57.911500000000004,50.065666666666665,-0.12,-0.03149999999999986,0.10878000000000002,0.11171,0.0,210.48000000000002,210.535,207.3466666666667,207.3466666666667,0.0,0.0
13,0.0,0.0,0.0,1.0,1.0,0.0,0.0,1.0,0.0,100.0,1.0,1.1856,26.0,0.0,0.0,0.0,59.999996,0.0,26.0,26.0,26.0,26.0,0.06544444444444442,0.29090000000000016,0.0526,292.603,-2.7369,-2.676333333333333,-1.6233,-1.5076,-232.46,216.035,190.726125,0.0,0.0,0.0,0.0,0.026733333333333387,-5.498166666666667,-5.498166666666667,-0.5385,-0.05166666666666664,0.021749999999999936,0.9420000000000001,67.358,0.03869999999999996,-0.212325,-0.8520000000000003,100.0,1.0,1.0,207.72333333333333,0.0,0.0,0.0,0.0,0.0,0.0,0.0,8804.6,0.0,55.0,5.0,242.45666666666665,1.0,0.0,0.0,0.0,0.0,0.0,1.0,0.0,0.6539999999999999,0.6539999999999999,0.0,0.0,1.0,55.0,616.79921,10000.0,85.000001,85.000001,85.000001,85.000001,395.0,0.0,0.0,0.0,1.0,333.33500000000004,52.567,52.567,47.928,47.928,34.0,-20.662499999999998,27.92,-27.376666666666665,32.8275,0.0,1782.73,-0.8399999999999999,100.0,27.752,27.72,42.539,42.942,0.0,0.0,100.0,0.0,0.0,0.0,0.0,3044.4285714285716,3179.6,4151.375,4352.8,305.5226666666667,304.7585,314.7105,314.1,21.8958,20.5808,21.8998,21.4288,314.999998,314.999998,324.999988,324.999988,99.55874285714286,99.50728333333333,99.5666,99.54704285714286,0.15200000000000014,0.01766666666666694,-0.06399999999999995,0.16516666666666668,-0.045000000000001705,-0.046666666666666856,1.5295,1.4755,37.849000000000004,29.63,37.873999999999995,34.93,55.994,34.887,59.42,52.4005,53.936,34.035,58.0195,50.7235,53.108999999999995,33.589,57.9465,50.129333333333335,-0.14249999999999996,-0.01100000000000012,0.11018000000000001,0.10679000000000001,0.0,210.91,210.965,207.72333333333333,207.72333333333333,0.0,0.0
14,0.0,0.0,0.0,1.0,1.0,0.0,0.0,1.0,0.0,100.0,1.0,1.1856,26.0,0.0,0.0,0.0,59.999996,0.0,26.0,26.0,26.0,26.0,0.10099999999999998,0.28200000000000003,-0.0106,292.786,-2.7368,-2.616888888888889,-1.63,-1.5143,-229.01999999999998,216.0125,190.704875,0.0,0.0,0.0,0.0,0.02873333333333339,-5.498166666666667,-5.498166666666667,-0.5485,-0.18199999999999994,0.04849999999999999,0.029,67.498,0.0504,-0.227725,-0.976,100.0,1.0,1.0,208.23000000000002,0.0,0.0,0.0,0.0,0.0,0.0,0.0,8826.2,0.0,55.0,5.0,242.96333333333334,0.0,0.0,0.0,0.0,0.0,0.0,1.0,0.0,0.7049999999999983,0.7049999999999983,0.0,0.0,0.0,55.0,616.79921,10000.0,85.000001,85.000001,85.000001,85.000001,395.0,0.0,0.0,0.0,1.0,333.33500000000004,52.612,52.612,48.096000000000004,48.096000000000004,34.0,-20.63,27.637999999999998,-25.77,31.302500000000002,0.0,1782.68,-0.9349999999999987,100.0,27.546,27.972,42.452,43.254,0.0,0.0,100.0,0.0,0.0,0.0,0.0,3052.142857142857,3151.7,4032.25,4159.5,305.6673333333333,304.689,315.067,314.5025,21.9054,20.5863,21.9102,21.4379,314.999998,314.999998,324.999988,324.999988,99.55875714285715,99.5073,99.56672857142857,99.54718571428572,0.1499999999999999,0.025333333333333208,-0.05266666666666664,0.1688333333333334,-0.04333333333332945,-0.04833333333333201,1.5525,1.5145,37.909,29.66433333333333,37.939,34.987,55.985,34.923,59.455,52.4595,53.927,34.0685,58.0515,50.78,53.099000000000004,33.6205,57.976,50.185,-0.14849999999999997,-0.0030000000000001137,0.10250000000000001,0.10592000000000001,0.0,211.32999999999998,211.39499999999998,208.23000000000002,208.23000000000002,0.0,0.0
15,0.0,0.0,0.0,1.0,1.0,0.0,0.0,1.0,0.0,100.0,1.0,1.1856,26.0,0.0,0.0,0.0,59.999996,0.0,26.0,26.0,26.0,26.0,0.12455555555555575,0.28200000000000003,-0.047566666666666674,292.831,-2.7137000000000002,-2.570888888888889,-1.6320000000000001,-1.452,-225.78,215.9925,190.6845,0.0,0.0,0.0,0.0,0.03059999999999996,-5.498166666666667,-5.498166666666667,-0.54,0.31600000000000006,0.08125000000000004,-0.155,67.629,0.06459999999999999,-0.210925,-1.13,100.0,1.0,1.0,208.63,0.0,0.0,0.0,0.0,0.0,0.0,0.0,8843.1,0.0,55.0,5.0,243.43666666666667,1.0,0.0,0.0,0.0,0.0,0.0,1.0,0.0,0.7530000000000001,0.7530000000000001,0.0,0.0,1.0,55.0,616.79921,10000.0,85.000001,85.000001,85.000001,85.000001,395.0,0.0,0.0,0.0,1.0,333.33500000000004,52.795,52.795,48.233000000000004,48.233000000000004,34.0,-18.8375,27.338,-24.41,32.6575,0.0,1782.631,-0.9600000000000009,100.0,27.58,28.05,42.208,43.339,0.0,0.0,100.0,0.0,0.0,0.0,0.0,2890.142857142857,3124.5,3976.375,4318.5,306.0876666666667,304.757,315.212,314.143,21.9143,20.5915,21.9199,21.4465,314.999998,314.999998,324.999988,324.999988,99.55877142857143,99.5073,99.56685714285715,99.54732857142857,0.15949999999999998,0.03400000000000025,-0.033499999999999974,0.18433333333333324,-0.060000000000002274,-0.046666666666666856,1.551,1.512,37.965,29.697,38.0,35.0405,55.976,34.96,59.488,52.5185,53.918,34.1025,58.082499999999996,50.837,53.089,33.6535,58.004,50.241,-0.15000000000000002,0.0029999999999998916,0.10172,0.10931,0.0,211.765,211.82,208.63,208.63,0.0,0.0
16,0.0,0.0,0.0,1.0,1.0,0.0,0.0,1.0,0.0,100.0,1.0,1.1856,26.0,0.0,0.0,0.0,59.999996,0.0,26.0,26.0,26.0,26.0,0.12311111111111117,0.274,-0.006633333333333333,292.831,-2.803,-2.610666666666667,-1.5996000000000001,-1.4549,-222.32999999999998,215.975,190.6625,0.0,0.0,0.0,0.0,0.03259999999999996,-5.498166666666667,-5.498166666666667,-0.5596,-0.7983333333333333,0.07024999999999992,0.13,67.77,0.07410000000000005,-0.223,-1.2039999999999997,100.0,1.0,1.0,209.05,0.0,0.0,0.0,0.0,0.0,0.0,0.0,8860.8,0.0,55.0,5.0,243.94333333333333,0.0,0.0,0.0,0.0,0.0,0.0,1.0,0.0,0.8039999999999985,0.8039999999999985,0.0,0.0,0.0,55.0,616.79921,10000.0,85.000001,85.000001,85.000001,85.000001,395.0,0.0,0.0,0.0,1.0,166.665,52.719,52.719,47.806,47.806,34.0,-19.134999999999998,29.516,-23.073333333333338,32.545,0.0,1782.581,-0.9050000000000011,100.0,27.357,28.001,42.583,43.427,0.0,0.0,100.0,0.0,0.0,0.0,0.0,2914.857142857143,3283.6,3930.0,4178.7,306.063,304.4445,315.25025,314.51675,21.9235,20.5971,21.9304,21.4557,314.999998,314.999998,324.999988,324.999988,99.55878571428572,99.5073,99.56701428571428,99.54747142857143,0.17474999999999996,0.044333333333333336,-0.020333333333333314,0.20750000000000002,-0.05833333333333002,-0.051666666666669414,1.551,1.5155,38.022,29.732,38.065,35.098,55.963,34.9995,59.5265,52.581,53.906,34.138999999999996,58.118,50.897,53.075,33.689,58.036,50.300333333333334,-0.14849999999999997,-0.0034999999999998366,0.10152000000000001,0.11041000000000001,0.0,212.155,212.23000000000002,209.05,209.05,0.0,0.0
17,0.0,0.0,0.0,1.0,1.0,0.0,0.0,1.0,0.0,100.0,1.0,1.1856,26.0,0.0,0.0,0.0,59.999996,0.0,26.0,26.0,26.0,26.0,0.11733333333333329,0.2923,-0.005833333333333334,292.404,-2.7595,-2.567555555555556,-1.6397,-1.4772,-218.67000000000002,215.96,190.6385,0.0,0.0,0.0,0.0,0.034733333333333394,-5.498166666666667,-5.498166666666667,-0.5499,0.4956666666666667,0.04899999999999993,0.852,67.917,0.07750000000000012,-0.20702500000000001,-1.162,100.0,1.0,1.0,209.45666666666668,0.0,0.0,0.0,0.0,0.0,0.0,0.0,8878.1,0.0,55.0,5.0,244.47,1.0,0.0,0.0,0.0,0.0,0.0,1.0,0.0,0.8580000000000005,0.8580000000000005,0.0,0.0,1.0,55.0,616.79921,10000.0,85.000001,85.000001,85.000001,85.000001,395.0,0.0,0.0,0.0,1.0,166.665,52.353,52.353,47.684,47.684,34.0,-19.2375,28.252000000000002,-25.59,34.480000000000004,0.0,1782.528,-0.9899999999999984,100.0,27.905,28.279,42.358000000000004,43.415,0.0,0.0,100.0,0.0,0.0,0.0,0.0,2996.5714285714284,3197.2,4237.375,4347.6,305.70233333333334,304.7395,314.599,314.18725,21.9336,20.6031,21.9413,21.4653,314.999998,314.999998,324.999988,324.999988,99.55881428571429,99.50731666666667,99.56715714285714,99.54762857142858,0.1807500000000002,0.045333333333333226,-0.01633333333333331,0.20950000000000002,-0.04833333333333201,-0.060000000000002274,1.537,1.5065,38.085,29.769666666666666,38.132999999999996,35.158,55.955,35.0435,59.564,52.6465,53.897999999999996,34.18,58.153,50.960499999999996,53.066,33.728,58.068,50.36233333333333,-0.15100000000000002,-0.0034999999999998366,0.111045,0.10754000000000001,0.0,212.635,212.73000000000002,209.45666666666668,209.45666666666668,0.0,0.0
18,0.0,0.0,0.0,1.0,1.0,0.0,0.0,1.0,0.0,100.0,1.0,1.1856,26.0,0.0,0.0,0.0,59.999996,0.0,26.0,26.0,26.0,26.0,0.1383333333333332,0.27259999999999995,-0.05333333333333334,292.542,-2.7986,-2.538666666666667,-1.6560000000000001,-1.4221,-215.61,215.95,190.618875,0.0,0.0,0.0,0.0,0.03653333333333331,-5.498166666666667,-5.498166666666667,-0.5592,-0.571,0.07200000000000006,-0.036000000000000004,68.039,0.07830000000000004,-0.222775,-1.2000000000000002,100.0,1.0,1.0,209.86333333333334,0.0,0.0,0.0,0.0,0.0,0.0,0.0,8895.3,0.0,55.0,5.0,244.91333333333336,0.0,0.0,0.0,0.0,0.0,0.0,1.0,0.0,0.9029999999999987,0.9029999999999987,0.0,0.0,0.0,55.0,616.79921,10000.0,85.000001,85.000001,85.000001,85.000001,395.0,0.0,0.0,0.0,1.0,166.665,52.475,52.475,47.745,47.745,34.0,-19.575,29.104,-24.553333333333335,31.6675,0.0,1782.483,-1.245000000000001,100.0,27.475,28.284,42.546,43.859,0.0,0.0,100.0,0.0,0.0,0.0,0.0,3041.5714285714284,3240.2,4038.375,4167.0,305.8016666666667,304.5185,315.08025,314.53125,21.9418,20.6081,21.950499999999998,21.4735,314.999998,314.999998,324.999988,324.999988,99.55884285714286,99.50731666666667,99.56728571428572,99.54775714285714,0.18374999999999986,0.05866666666666642,-0.021499999999999964,0.20116666666666672,-0.036666666666668846,-0.060000000000002274,1.5585,1.524,38.135999999999996,29.800333333333334,38.191,35.2095,55.947,35.079,59.598,52.703,53.89,34.2125,58.1845,51.015,53.057,33.759,58.0965,50.416,-0.1725,0.020499999999999963,0.10742000000000002,0.10973000000000001,0.0,212.99,213.07,209.86333333333334,209.86333333333334,0.0,0.0
19,0.0,0.0,0.0,1.0,1.0,0.0,0.0,1.0,0.0,100.0,1.0,1.1856,26.0,0.0,0.0,0.0,59.999996,0.0,26.0,26.0,26.0,26.0,0.1621111111111111,0.28480000000000016,0.0453,291.931,-2.7196,-2.5205555555555557,-1.674,-1.4025,-211.93,215.94,190.594875,0.0,0.0,0.0,0.0,0.038666666666666516,-5.498166666666667,-5.498166666666667,-0.5503,0.8266666666666669,0.08387499999999992,-0.602,68.184,0.08899999999999997,-0.2117,-1.612,100.0,1.0,1.0,210.28,0.0,0.0,0.0,0.0,0.0,0.0,0.0,8913.1,0.0,55.0,5.0,245.43333333333334,1.0,0.0,0.0,0.0,0.0,0.0,1.0,0.0,0.9570000000000007,0.9570000000000007,0.0,0.0,1.0,55.0,616.79921,10000.0,85.000001,85.000001,85.000001,85.000001,395.0,0.0,0.0,0.0,1.0,166.665,51.635999999999996,51.635999999999996,47.455,47.455,34.0,-18.39,30.7,-25.32,34.89,0.0,1782.429,-1.4849999999999994,100.0,27.947,28.841,42.266,43.877,0.0,0.0,100.0,0.0,0.0,0.0,0.0,3104.0,3321.5,4210.5,4428.0,305.443,304.127,314.73575,313.942,21.9518,20.6143,21.9614,21.4832,314.999998,314.999998,324.999988,324.999988,99.55887142857142,99.50731666666667,99.56744285714285,99.54791428571428,0.20750000000000002,0.07466666666666644,-0.007333333333333303,0.2188333333333332,-0.03333333333333144,-0.04999999999999716,1.5385,1.4835,38.199,29.839,38.259,35.269999999999996,55.94,35.126,59.6345,52.769999999999996,53.882999999999996,34.2565,58.2185,51.079499999999996,53.049,33.8015,58.126999999999995,50.47933333333333,-0.1935,0.03349999999999986,0.10738500000000001,0.11214500000000001,0.0,213.46,213.57,210.28,210.28,0.0,0.0
20,0.0,0.0,0.0,1.0,1.0,0.0,0.0,1.0,0.0,100.0,1.0,1.1856,26.0,0.0,0.0,0.0,59.999996,0.0,26.0,26.0,26.0,26.0,0.1905555555555556,0.27690000000000015,-0.04856666666666667,292.282,-2.826,-2.578888888888889,-1.6097000000000001,-1.4022000000000001,-208.64999999999998,215.9375,190.573875,0.0,0.0,0.0,0.0,0.04056666666666653,-5.498166666666667,-5.498166666666667,-0.5526,-1.0493333333333332,0.0951249999999999,-0.557,68.315,0.10450000000000004,-0.221,-2.0199999999999996,100.0,1.0,1.0,210.57,0.0,0.0,0.0,0.0,0.0,0.0,0.0,8925.3,0.0,55.0,5.0,245.90666666666667,0.0,0.0,0.0,0.0,0.0,0.0,0.0,0.0,1.004999999999999,1.004999999999999,0.0,0.0,0.0,55.0,616.79921,10000.0,85.000001,85.000001,85.000001,85.000001,395.0,0.0,0.0,0.0,1.0,166.665,52.841,52.841,46.799,46.799,34.0,-16.3425,30.44,-23.683333333333337,35.89,0.0,1782.381,-1.375,100.0,27.379,28.568,42.775,44.362,0.0,0.0,100.0,0.0,0.0,0.0,0.0,2791.857142857143,3166.2,4161.375,4428.8,306.519,304.63975,314.7015,313.8455,21.9603,20.6196,21.9713,21.4921,314.999998,314.999998,324.999988,324.999988,99.55888571428571,99.50733333333334,99.56757142857143,99.54807142857143,0.22475000000000023,0.0983333333333336,0.005166666666666542,0.2313333333333334,-0.04833333333333201,-0.04833333333333201,1.5025,1.452,38.251999999999995,29.872333333333334,38.321,35.3255,55.931,35.1665,59.6725,52.8315,53.873999999999995,34.294,58.2535,51.138999999999996,53.039,33.837,58.159,50.538,-0.19799999999999995,0.04600000000000004,0.116375,0.10369500000000001,0.0,213.81,213.935,210.57,210.57,0.0,0.0
21,0.0,0.0,0.0,1.0,1.0,0.0,0.0,1.0,0.0,100.0,1.0,1.1856,26.0,0.0,0.0,0.0,59.999996,0.0,26.0,26.0,26.0,26.0,0.19166666666666687,0.26970000000000005,-0.07086666666666666,292.664,-2.745,-2.627222222222222,-1.6724,-1.4759,-205.37,215.9375,190.55225,0.0,0.0,0.0,0.0,0.04246666666666654,-5.498166666666667,-5.498166666666667,-0.5807,0.45599999999999996,0.07537499999999997,-1.16,68.439,0.12640000000000007,-0.22870000000000001,-1.6879999999999997,100.0,1.0,1.0,211.23666666666668,0.0,0.0,0.0,0.0,0.0,0.0,0.0,8953.6,0.0,55.0,5.0,246.35333333333335,1.0,0.0,0.0,0.0,0.0,0.0,0.0,0.0,1.0530000000000008,1.0530000000000008,0.0,0.0,1.0,55.0,616.79921,10000.0,85.000001,85.000001,85.000001,85.000001,395.0,0.0,0.0,0.0,1.0,333.33500000000004,52.155,52.155,48.400999999999996,48.400999999999996,34.0,-19.7675,28.524,-21.03333333333333,33.41,0.0,1782.332,-0.22499999999999787,100.0,27.593,28.734,42.104,43.954,0.0,0.0,100.0,0.0,0.0,0.0,0.0,3050.714285714286,3196.9,3898.375,4021.7,305.658,304.46425,315.49625,314.91675,21.9691,20.6251,21.9808,21.5006,314.999998,314.999998,324.999988,324.999988,99.55891428571428,99.50735,99.56771428571429,99.5482,0.17249999999999988,0.029666666666666952,0.02633333333333332,0.2550000000000001,-0.04833333333333201,-0.051666666666669414,1.639,1.5585,38.307,29.906666666666666,38.379999999999995,35.379,55.923,35.208,59.702,52.8885,53.867000000000004,34.332,58.281,51.194,53.03,33.874,58.1835,50.59166666666667,-0.11099999999999999,-0.044500000000000206,0.10978500000000001,0.10468000000000001,0.0,214.21,214.35500000000002,211.23666666666668,211.23666666666668,0.0,0.0
22,0.0,0.0,0.0,1.0,1.0,0.0,0.0,1.0,0.0,100.0,1.0,1.1856,26.0,0.0,0.0,0.0,59.999996,0.0,26.0,26.0,26.0,26.0,0.13077777777777788,0.2783,0.020533333333333334,292.023,-2.7166,-2.643111111111111,-1.6545,-1.5305,-201.88,215.945,190.528375,0.0,0.0,0.0,0.0,0.044499999999999984,-5.498166666666667,-5.498166666666667,-0.5565,0.17466666666666675,0.0714999999999999,0.849,68.578,0.1149,-0.20575000000000002,-0.34999999999999964,100.0,1.0,1.0,211.42666666666668,0.0,0.0,0.0,0.0,0.0,0.0,0.0,8961.6,0.0,55.0,5.0,246.85333333333335,0.0,0.0,0.0,0.0,0.0,0.0,0.0,0.0,1.1039999999999992,1.1039999999999992,0.0,0.0,0.0,55.0,616.79921,10000.0,85.000001,85.000001,85.000001,85.000001,395.0,0.0,0.0,0.0,1.0,166.665,52.185,52.185,47.089,47.089,34.0,-20.3525,27.054,-24.516666666666666,36.75,0.0,1782.282,0.5399999999999991,100.0,27.946,28.581,42.75,44.089,0.0,0.0,100.0,0.0,0.0,0.0,0.0,2864.857142857143,3252.7,4161.5,4373.1,305.98466666666667,304.42725,314.72975,314.059,21.9784,20.6308,21.9913,21.509900000000002,314.999998,314.999998,324.999988,324.999988,99.55892857142857,99.50735,99.56785714285714,99.54835714285714,0.12375000000000025,-0.0173333333333332,0.0013333333333334085,0.22750000000000004,-0.03833333333332689,-0.061666666666667425,1.5030000000000001,1.4715,38.364999999999995,29.942666666666668,38.446,35.437,55.912,35.248,59.7415,52.953,53.855000000000004,34.369,58.317,51.256,53.018,33.9095,58.216499999999996,50.65266666666667,-0.040000000000000036,-0.12349999999999994,0.106505,0.10344,0.0,214.69,214.745,211.42666666666668,211.42666666666668,0.0,0.0
23,0.0,0.0,0.0,1.0,1.0,0.0,0.0,1.0,0.0,100.0,1.0,1.1856,26.0,0.0,0.0,0.0,59.999996,0.0,26.0,26.0,26.0,26.0,0.057666666666666755,0.24819999999999998,-0.03146666666666667,292.053,-2.7247,-2.6164444444444444,-1.5578,-1.5694,-198.37,215.9525,190.505,0.0,0.0,0.0,0.0,0.046533333333333315,-5.498166666666667,-5.498166666666667,-0.5755,-0.33366666666666667,0.038000000000000034,-1.341,68.713,0.06550000000000011,-0.23397500000000002,0.7400000000000002,100.0,1.0,1.0,211.92666666666668,0.0,0.0,0.0,0.0,0.0,0.0,0.0,8982.8,0.0,55.0,5.0,247.34,1.0,0.0,0.0,0.0,0.0,0.0,0.0,0.0,1.1550000000000011,1.1550000000000011,0.0,0.0,1.0,55.0,616.79921,10000.0,85.000001,85.000001,85.000001,85.000001,395.0,0.0,0.0,0.0,1.0,333.33500000000004,51.666,51.666,47.989,47.989,34.0,-26.285,23.692,-25.403333333333336,30.065,0.0,1782.229,0.8850000000000016,100.0,28.111,28.63,43.024,44.246,0.0,0.0,100.0,0.0,0.0,0.0,0.0,3329.0,3119.0,3991.0,3994.8,304.92033333333336,304.7545,315.13475,314.8445,21.9878,20.6366,22.0018,21.519199999999998,314.999998,314.999998,324.999988,324.999988,99.55894285714285,99.50735,99.568,99.54851428571429,0.07350000000000012,-0.06333333333333324,-0.06566666666666665,0.15766666666666684,-0.04833333333333201,-0.03833333333332689,1.5110000000000001,1.534,38.424,29.97833333333333,38.510999999999996,35.4955,55.899,35.288,59.7785,53.016,53.843,34.4065,58.3515,51.317,53.004000000000005,33.945499999999996,58.2475,50.71233333333333,-0.01649999999999996,-0.14749999999999996,0.10399000000000001,0.101815,0.0,215.13,215.09,211.92666666666668,211.92666666666668,0.0,0.0
24,0.0,0.0,0.0,1.0,1.0,0.0,0.0,1.0,0.0,100.0,1.0,1.1856,26.0,0.0,0.0,0.0,59.999996,0.0,26.0,26.0,26.0,26.0,-0.043888888888888866,0.26990000000000003,-0.11026666666666668,292.389,-2.7144,-2.662111111111111,-1.5756000000000001,-1.5354,-194.87,215.96,190.481125,0.0,0.0,0.0,0.0,0.048566666666666536,-5.498166666666667,-5.498166666666667,-0.5791000000000001,-0.5663333333333334,0.02024999999999988,0.5630000000000001,68.848,0.008399999999999963,-0.21732500000000002,1.1479999999999997,100.0,1.0,1.0,212.26999999999998,0.0,0.0,0.0,0.0,0.0,0.0,0.0,8997.4,0.0,55.0,5.0,247.82666666666665,0.0,0.0,0.0,0.0,0.0,0.0,0.0,0.0,1.2059999999999995,1.2059999999999995,0.0,0.0,0.0,55.0,616.79921,10000.0,85.000001,85.000001,85.000001,85.000001,395.0,0.0,0.0,0.0,1.0,166.665,52.917,52.917,47.104,47.104,34.0,-23.6375,21.334000000000003,-31.636666666666663,27.4625,0.0,1782.18,0.8850000000000016,100.0,28.125,28.039,43.341,43.753,0.0,0.0,100.0,0.0,0.0,0.0,0.0,2892.714285714286,2971.9,4291.25,4116.6,306.0126666666667,305.43425,314.36275,314.7135,21.9972,20.642,22.0122,21.5284,314.999998,314.999998,324.999988,324.999988,99.55895714285714,99.50736666666667,99.56814285714286,99.54865714285714,0.04349999999999987,-0.09366666666666679,-0.128,0.09800000000000009,-0.03999999999999915,-0.046666666666666856,1.4729999999999999,1.5294999999999999,38.482,30.012666666666668,38.576,35.5525,55.882999999999996,35.3275,59.816,53.075,53.828,34.442499999999995,58.387,51.374,52.988,33.9805,58.28,50.76833333333333,-0.008499999999999952,-0.14800000000000013,0.10997000000000001,0.10984500000000001,0.0,215.585,215.48000000000002,212.26999999999998,212.26999999999998,0.0,0.0
25,0.0,0.0,0.0,1.0,1.0,0.0,0.0,1.0,0.0,100.0,1.0,1.1856,26.0,0.0,0.0,0.0,59.999996,0.0,26.0,26.0,26.0,26.0,-0.08711111111111103,0.26890000000000014,-0.0763,292.374,-2.752,-2.651777777777778,-1.5663,-1.5614,-191.56,215.9675,190.45725,0.0,0.0,0.0,0.0,0.05049999999999999,-5.498166666666667,-5.498166666666667,-0.6127,-0.10966666666666658,-0.0031249999999998224,-0.5710000000000001,68.97200000000001,-0.039999999999999925,-0.226975,1.427999999999999,100.0,1.0,1.0,212.80333333333334,0.0,0.0,0.0,0.0,0.0,0.0,0.0,9020.0,0.0,55.0,5.0,248.27333333333334,1.0,0.0,0.0,0.0,0.0,0.0,0.0,0.0,1.2540000000000013,1.2540000000000013,0.0,0.0,1.0,55.0,616.79921,10000.0,85.000001,85.000001,85.000001,85.000001,395.0,0.0,0.0,0.0,1.0,333.33500000000004,51.987,51.987,47.928,47.928,34.0,-28.384999999999998,22.282,-30.163333333333334,24.6,0.0,1782.131,0.865000000000002,100.0,28.24,28.019,43.323,43.211,0.0,0.0,100.0,0.0,0.0,0.0,0.0,3227.857142857143,3258.8,3972.125,3971.9,305.14866666666666,304.587,315.22325,315.085,22.006,20.6473,22.022,21.5369,314.999998,314.999998,324.999988,324.999988,99.55895714285714,99.50738333333334,99.56828571428571,99.54878571428571,0.012500000000000178,-0.1226666666666667,-0.16766666666666663,0.06333333333333324,-0.045000000000001705,-0.04833333333333201,1.5485,1.613,38.537,30.045333333333332,38.637,35.6055,55.867000000000004,35.3675,59.85,53.1285,53.813,34.480000000000004,58.418,51.4255,52.972,34.016,58.308,50.818666666666665,-0.01200000000000001,-0.15249999999999986,0.102355,0.11407500000000001,0.0,215.985,215.85000000000002,212.80333333333334,212.80333333333334,0.0,0.0
26,0.0,0.0,0.0,1.0,1.0,0.0,0.0,1.0,0.0,100.0,1.0,1.1856,26.0,0.0,0.0,0.0,59.999996,0.0,26.0,26.0,26.0,26.0,-0.12577777777777777,0.2712000000000001,0.05983333333333334,291.199,-2.6634,-2.7655555555555558,-1.5806,-1.5884,-188.04,215.975,190.4315,0.0,0.0,0.0,0.0,0.05253333333333332,-5.498166666666667,-5.498166666666667,-0.5717,0.8016666666666667,-0.06199999999999983,-1.443,69.10900000000001,-0.07719999999999994,-0.1963,1.5,100.0,1.0,1.0,212.97333333333333,0.0,0.0,0.0,0.0,0.0,0.0,0.0,9027.2,0.0,55.0,5.0,248.76333333333332,0.0,0.0,0.0,0.0,0.0,0.0,0.0,0.0,1.3049999999999997,1.3049999999999997,0.0,0.0,0.0,55.0,616.79921,10000.0,85.000001,85.000001,85.000001,85.000001,395.0,0.0,0.0,0.0,1.0,166.665,51.361000000000004,51.361000000000004,46.28,46.28,34.0,-29.7625,20.036,-39.879999999999995,25.64,0.0,1782.082,0.6099999999999994,100.0,29.22,28.578,44.028,43.31,0.0,0.0,100.0,0.0,0.0,0.0,0.0,3364.0,2953.9,4648.125,4334.1,304.744,305.17425,313.69175,314.15,22.0158,20.6529,22.0326,21.546,314.999998,314.999998,324.999988,324.999988,99.55895714285714,99.5074,99.56844285714286,99.54894285714286,-0.005749999999999922,-0.1519999999999999,-0.21399999999999997,0.015000000000000124,-0.041666666666671404,-0.036666666666668846,1.4285,1.48,38.599000000000004,30.080666666666666,38.704,35.663,55.855000000000004,35.413,59.891999999999996,53.188,53.801,34.522,58.457499999999996,51.4825,52.959,34.056,58.3445,50.87466666666667,-0.03149999999999997,-0.13200000000000012,0.10981500000000001,0.104105,0.0,216.435,216.31,212.97333333333333,212.97333333333333,0.0,0.0
27,0.0,0.0,0.0,1.0,1.0,0.0,0.0,1.0,0.0,100.0,1.0,1.1856,26.0,0.0,0.0,0.0,59.999996,0.0,26.0,26.0,26.0,26.0,-0.1223333333333334,0.2518,-0.0088,291.534,-2.6136,-2.7505555555555556,-1.5581,-1.6749,-184.72,215.97750000000002,190.408375,0.0,0.0,0.0,0.0,0.05446666666666655,-5.498166666666667,-5.498166666666667,-0.5951000000000001,-1.084,-0.07425000000000015,-0.706,69.233,-0.09199999999999997,-0.241375,1.322000000000001,100.0,1.0,1.0,213.43,0.0,0.0,0.0,0.0,0.0,0.0,0.0,9046.4,0.0,55.0,5.0,249.21333333333334,1.0,0.0,0.0,0.0,0.0,0.0,0.0,0.0,1.352999999999998,1.352999999999998,0.0,0.0,1.0,55.0,616.79921,10000.0,85.000001,85.000001,85.000001,85.000001,395.0,0.0,0.0,0.0,1.0,333.33500000000004,51.727000000000004,51.727000000000004,46.631,46.631,34.0,-29.4125,19.52,-35.42333333333333,24.1,0.0,1782.031,0.5300000000000011,100.0,29.031,28.175,44.945,43.755,0.0,0.0,100.0,0.0,0.0,0.0,0.0,3324.857142857143,2969.3,4237.5,4019.0,304.84566666666666,305.274,314.56975,314.78425,22.0248,20.658,22.0427,21.5548,314.999998,314.999998,324.999988,324.999988,99.55895714285714,99.50741666666667,99.56858571428572,99.54908571428571,-0.017249999999999988,-0.16066666666666674,-0.21566666666666656,0.004833333333333467,-0.03499999999999659,-0.041666666666671404,1.4655,1.5165,38.655,30.112666666666666,38.766999999999996,35.718,55.84,35.453,59.933,53.2455,53.787,34.559,58.496,51.5375,52.945,34.091499999999996,58.379999999999995,50.928,-0.04249999999999998,-0.12150000000000016,0.09832500000000001,0.107075,0.0,216.745,216.655,213.43,213.43,0.0,0.0
28,0.0,0.0,0.0,1.0,1.0,0.0,0.0,1.0,0.0,100.0,1.0,1.1856,26.0,0.0,0.0,0.0,59.999996,0.0,26.0,26.0,26.0,26.0,-0.1393333333333333,0.26690000000000014,-0.05353333333333334,291.901,-2.6376,-2.7404444444444445,-1.5055,-1.634,-181.18,215.975,190.383,0.0,0.0,0.0,0.0,0.056533333333333324,-5.498166666666667,-5.498166666666667,-0.6016,0.6240000000000001,-0.07600000000000007,0.759,69.363,-0.10249999999999992,-0.218025,1.1679999999999993,100.0,1.0,1.0,213.94666666666666,0.0,0.0,0.0,0.0,0.0,0.0,0.0,9068.4,0.0,55.0,5.0,249.68,0.0,0.0,0.0,0.0,0.0,0.0,0.0,0.0,1.404,1.404,0.0,0.0,0.0,55.0,616.79921,10000.0,85.000001,85.000001,85.000001,85.000001,395.0,0.0,0.0,0.0,1.0,166.665,51.788,51.788,47.531,47.531,34.0,-28.54,20.201999999999998,-33.08,23.8625,0.0,1781.982,0.365000000000002,100.0,29.281,27.94,44.344,43.025999999999996,0.0,0.0,100.0,0.0,0.0,0.0,0.0,3260.4285714285716,3026.7,4101.0,4098.7,304.89666666666665,305.26525,314.896,314.8035,22.0345,20.6635,22.0529,21.5638,314.999998,314.999998,324.999988,324.999988,99.55897142857143,99.50743333333334,99.56872857142857,99.54922857142857,-0.0024999999999999467,-0.14866666666666672,-0.21550000000000002,0.009000000000000119,-0.051666666666669414,-0.03999999999999915,1.5234999999999999,1.575,38.715,30.14666666666667,38.831,35.774,55.827,35.497,59.9685,53.301,53.774,34.5995,58.5295,51.591,52.931,34.129999999999995,58.4105,50.980000000000004,-0.05599999999999994,-0.1070000000000002,0.106895,0.10516500000000001,0.0,217.215,217.095,213.94666666666666,213.94666666666666,0.0,0.0
29,0.0,0.0,0.0,1.0,1.0,0.0,0.0,1.0,0.0,100.0,1.0,1.1856,26.0,0.0,0.0,0.0,59.999996,0.0,26.0,26.0,26.0,26.0,-0.12477777777777777,0.2518,0.017466666666666665,291.55,-2.5773,-2.797111111111111,-1.5399,-1.6144,-177.43,215.9725,190.355125,0.0,0.0,0.0,0.0,0.058699999999999974,-5.498166666666667,-5.498166666666667,-0.6072000000000001,-0.7053333333333334,-0.0757500000000002,0.773,69.505,-0.0948,-0.21955000000000002,0.7860000000000005,100.0,1.0,1.0,214.2266666666667,0.0,0.0,0.0,0.0,0.0,0.0,0.0,9080.3,0.0,55.0,5.0,250.19333333333333,1.0,0.0,0.0,0.0,0.0,0.0,0.0,0.0,1.4579999999999984,1.4579999999999984,0.0,0.0,1.0,55.0,616.79921,10000.0,85.000001,85.000001,85.000001,85.000001,395.0,0.0,0.0,0.0,1.0,166.665,51.743,51.743,46.646,46.646,34.0,-27.9825,21.448,-34.46666666666667,25.3,0.0,1781.928,0.23499999999999943,100.0,28.99,27.808,44.772,43.294,0.0,0.0,100.0,0.0,0.0,0.0,0.0,3285.4285714285716,3087.0,4236.875,4190.4,304.829,304.96925,314.4795,314.524,22.0444,20.6692,22.0642,21.5737,314.999998,314.999998,324.999988,324.999988,99.55897142857143,99.50745,99.5689,99.54937142857143,0.0027500000000002522,-0.1456666666666666,-0.19766666666666666,0.021333333333333426,-0.023333333333326323,-0.04833333333333201,1.455,1.4849999999999999,38.778,30.182666666666666,38.900999999999996,35.835499999999996,55.81,35.5415,60.0135,53.364,53.757999999999996,34.6405,58.5715,51.6515,52.914,34.169,58.449,51.039,-0.06399999999999995,-0.10199999999999987,0.10143500000000001,0.10824500000000001,0.0,217.575,217.515,214.2266666666667,214.2266666666667,0.0,0.0
30,0.0,0.0,0.0,1.0,1.0,0.0,0.0,1.0,0.0,100.0,1.0,1.1856,26.0,0.0,0.0,0.0,59.999996,0.0,26.0,26.0,26.0,26.0,-0.11055555555555552,0.27249999999999996,0.0415,291.061,-2.6422,-2.673111111111111,-1.4846,-1.666,-174.3,215.965,190.331625,0.0,0.0,0.0,0.0,0.06053333333333333,-5.498166666666667,-5.498166666666667,-0.6047,0.7803333333333333,-0.07450000000000001,-0.639,69.619,-0.08309999999999995,-0.2192,0.7279999999999998,100.0,1.0,1.0,214.61333333333334,0.0,0.0,0.0,0.0,0.0,0.0,0.0,9096.7,0.0,55.0,5.0,250.60333333333335,0.0,0.0,0.0,0.0,0.0,0.0,1.0,0.0,1.5030000000000001,1.5030000000000001,0.0,0.0,0.0,55.0,616.79921,10000.0,85.000001,85.000001,85.000001,85.000001,395.0,0.0,0.0,0.0,1.0,166.665,50.858000000000004,50.858000000000004,46.875,46.875,34.0,-30.355,20.13,-34.17,26.6,0.0,1781.883,0.129999999999999,100.0,29.633,28.688,44.454,43.403999999999996,0.0,0.0,100.0,0.0,0.0,0.0,0.0,3510.5714285714284,3007.4,4350.0,4211.2,304.286,305.067,314.364,314.335,22.0531,20.6742,22.0734,21.5817,314.999998,314.999998,324.999988,324.999988,99.55897142857143,99.50746666666667,99.56902857142857,99.5495,0.010499999999999954,-0.13866666666666672,-0.1925,0.026000000000000023,-0.03999999999999915,-0.051666666666669414,1.4735,1.4945,38.832,30.214,38.958,35.885999999999996,55.8,35.5815,60.0465,53.415,53.748999999999995,34.677,58.6025,51.7005,52.903999999999996,34.204499999999996,58.4775,51.086666666666666,-0.08250000000000002,-0.08850000000000025,0.10389500000000002,0.11491000000000001,0.0,217.98000000000002,217.91500000000002,214.61333333333334,214.61333333333334,0.0,0.0
31,0.0,0.0,0.0,1.0,1.0,0.0,0.0,1.0,0.0,100.0,1.0,1.1856,26.0,0.0,0.0,0.0,59.999996,0.0,26.0,26.0,26.0,26.0,-0.09233333333333338,0.24639999999999995,0.008366666666666668,291.077,-2.7075,-2.7534444444444444,-1.576,-1.6576,-170.75,215.95499999999998,190.305875,0.0,0.0,0.0,0.0,0.06259999999999999,-5.498166666666667,-5.498166666666667,-0.5899,-0.6466666666666667,-0.060125000000000206,0.539,69.751,-0.06599999999999995,-0.21925,0.3160000000000007,100.0,1.0,1.0,214.93,0.0,0.0,0.0,0.0,0.0,0.0,0.0,9110.1,0.0,55.0,5.0,251.07666666666665,1.0,0.0,0.0,0.0,0.0,0.0,1.0,0.0,1.5539999999999985,1.5539999999999985,0.0,0.0,1.0,55.0,616.79921,10000.0,85.000001,85.000001,85.000001,85.000001,395.0,0.0,0.0,0.0,1.0,166.665,51.575,51.575,45.516999999999996,45.516999999999996,34.0,-26.2725,22.258,-35.24333333333334,28.9375,0.0,1781.832,0.05000000000000071,100.0,29.402,28.560000000000002,45.158,43.955,0.0,0.0,100.0,0.0,0.0,0.0,0.0,3136.4285714285716,3086.2,4410.375,4260.2,305.438,305.01375,314.11275,314.432,22.0625,20.6798,22.084,21.5912,314.999998,314.999998,324.999988,324.999988,99.55898571428571,99.50748333333334,99.56918571428571,99.54965714285714,0.03125,-0.11633333333333318,-0.1708333333333334,0.06566666666666676,-0.03499999999999659,-0.04833333333333201,1.4405000000000001,1.45,38.89,30.249000000000002,39.025,35.945,55.785,35.6245,60.089,53.4765,53.735,34.717,58.641999999999996,51.7595,52.888999999999996,34.2425,58.513999999999996,51.144333333333336,-0.08399999999999996,-0.08300000000000018,0.10463000000000001,0.11549500000000001,0.0,218.345,218.3,214.93,214.93,0.0,0.0
32,0.0,0.0,0.0,1.0,1.0,0.0,0.0,1.0,0.0,100.0,1.0,1.1856,26.0,0.0,0.0,0.0,59.999996,0.0,26.0,26.0,26.0,26.0,-0.07388888888888889,0.2631000000000001,-0.057166666666666664,291.26,-2.649,-2.6905555555555556,-1.6019999999999999,-1.5663,-167.19,215.9425,190.28025,0.0,0.0,0.0,0.0,0.06466666666666654,-5.498166666666667,-5.498166666666667,-0.6084,0.18100000000000005,-0.08499999999999996,-0.928,69.878,-0.0532999999999999,-0.2278,0.41999999999999993,100.0,1.0,1.0,215.48333333333335,0.0,0.0,0.0,0.0,0.0,0.0,0.0,9133.6,0.0,55.0,5.0,251.53333333333336,0.0,0.0,0.0,0.0,0.0,0.0,1.0,0.0,1.6050000000000004,1.6050000000000004,0.0,0.0,0.0,55.0,616.79921,10000.0,85.000001,85.000001,85.000001,85.000001,395.0,0.0,0.0,0.0,1.0,333.33500000000004,51.178,51.178,46.661,46.661,34.0,-28.0375,21.828,-32.93,25.8325,0.0,1781.78,-0.05999999999999872,100.0,29.283,28.8,44.711,43.859,0.0,0.0,100.0,0.0,0.0,0.0,0.0,3400.857142857143,3028.3,4242.125,4103.7,304.68333333333334,305.081,314.711,314.83225,22.0719,20.6855,22.0944,21.6004,314.999998,314.999998,324.999988,324.999988,99.55898571428571,99.5075,99.56934285714286,99.5498,0.03600000000000003,-0.10466666666666669,-0.16416666666666657,0.06316666666666682,-0.05833333333333002,-0.041666666666671404,1.527,1.5505,38.949,30.284333333333336,39.09,36.0025,55.772,35.667500000000004,60.1255,53.533500000000004,53.722,34.757,58.6765,51.8145,52.875,34.2805,58.545,51.19766666666666,-0.08950000000000002,-0.07750000000000012,0.1019,0.11048500000000001,0.0,218.765,218.70499999999998,215.48333333333335,215.48333333333335,0.0,0.0
33,0.0,0.0,0.0,1.0,1.0,0.0,0.0,1.0,0.0,100.0,1.0,1.1856,26.0,0.0,0.0,0.0,59.999996,0.0,26.0,26.0,26.0,26.0,-0.05166666666666664,0.2610000000000001,-0.03176666666666667,291.367,-2.6656,-2.7385555555555556,-1.5697999999999999,-1.5763,-163.82999999999998,215.93,190.255125,0.0,0.0,0.0,0.0,0.06663333333333332,-5.498166666666667,-5.498166666666667,-0.6106,-0.3933333333333333,-0.0717500000000002,0.07100000000000001,70.001,-0.04399999999999993,-0.21635000000000001,0.22799999999999976,100.0,1.0,1.0,215.73000000000002,0.0,0.0,0.0,0.0,0.0,0.0,0.0,9144.0,0.0,55.0,5.0,251.97666666666666,1.0,0.0,0.0,0.0,0.0,0.0,1.0,0.0,1.6529999999999987,1.6529999999999987,0.0,0.0,1.0,55.0,616.79921,10000.0,85.000001,85.000001,85.000001,85.000001,395.0,0.0,0.0,0.0,1.0,333.33500000000004,51.849000000000004,51.849000000000004,46.387,46.387,34.0,-25.75,22.018,-33.63666666666666,27.252499999999998,0.0,1781.732,-0.17999999999999972,100.0,29.056,28.509999999999998,44.628,43.976,0.0,0.0,100.0,0.0,0.0,0.0,0.0,3215.0,2959.4,4339.125,4252.0,305.28633333333335,305.3035,314.402,314.3565,22.0807,20.6907,22.1043,21.609099999999998,314.999998,314.999998,324.999988,324.999988,99.55898571428571,99.5075,99.56947142857143,99.54994285714285,0.0495000000000001,-0.09633333333333316,-0.16149999999999998,0.05883333333333329,-0.03499999999999659,-0.026666666666670835,1.4745,1.502,39.004000000000005,30.316666666666666,39.152,36.057,55.759,35.704499999999996,60.161500000000004,53.5895,53.71,34.7905,58.71,51.8685,52.861999999999995,34.3125,58.576,51.25,-0.09599999999999997,-0.06450000000000022,0.10702500000000001,0.10577500000000001,0.0,219.13,219.085,215.73000000000002,215.73000000000002,0.0,0.0
34,0.0,0.0,0.0,1.0,1.0,0.0,0.0,1.0,0.0,100.0,1.0,1.1856,26.0,0.0,0.0,0.0,59.999996,0.0,26.0,26.0,26.0,26.0,-0.0494444444444444,0.26370000000000005,-0.0611,291.733,-2.7319,-2.695222222222222,-1.6044,-1.5956000000000001,-160.26,215.91500000000002,190.227375,0.0,0.0,0.0,0.0,0.06869999999999998,-5.498166666666667,-5.498166666666667,-0.6423,-0.6986666666666667,-0.035250000000000004,1.104,70.129,-0.029999999999999916,-0.226575,0.08200000000000074,100.0,1.0,1.0,216.19666666666666,0.0,0.0,0.0,0.0,0.0,0.0,0.0,9163.7,0.0,55.0,5.0,252.44,0.0,0.0,0.0,0.0,0.0,0.0,1.0,0.0,1.7040000000000006,1.7040000000000006,0.0,0.0,0.0,55.0,616.79921,10000.0,85.000001,85.000001,85.000001,85.000001,395.0,0.0,0.0,0.0,1.0,333.33500000000004,52.002,52.002,47.424,47.424,34.0,-25.38,23.022,-29.903333333333336,28.4225,0.0,1781.681,-0.1750000000000007,100.0,28.873,28.094,44.345,43.959,0.0,0.0,100.0,0.0,0.0,0.0,0.0,3158.857142857143,3050.2,4052.625,4193.3,305.2056666666667,305.2355,315.0505,314.532,22.0899,20.6961,22.1146,21.6184,314.999998,314.999998,324.999988,324.999988,99.559,99.50751666666666,99.56962857142857,99.5501,0.0677500000000002,-0.07566666666666677,-0.134,0.08683333333333332,-0.03499999999999659,-0.03833333333332689,1.5234999999999999,1.5255,39.062,30.351,39.216,36.115,55.744,35.743,60.1965,53.6485,53.696,34.826,58.743,51.925,52.848,34.3465,58.6055,51.30533333333334,-0.09550000000000003,-0.06700000000000017,0.09934000000000001,0.103775,0.0,219.485,219.46,216.19666666666666,216.19666666666666,0.0,0.0
35,0.0,0.0,0.0,1.0,1.0,0.0,0.0,1.0,0.0,100.0,1.0,1.1856,26.0,0.0,0.0,0.0,59.999996,0.0,26.0,26.0,26.0,26.0,-0.02644444444444438,0.2579,-0.06163333333333334,291.794,-2.7411,-2.654888888888889,-1.578,-1.603,-156.68,215.9,190.1975,0.0,0.0,0.0,0.0,0.07076666666666653,-5.498166666666667,-5.498166666666667,-0.6835,-0.42933333333333334,-0.04137499999999994,-0.92,70.256,-0.01529999999999998,-0.22935,-0.016000000000000014,100.0,1.0,1.0,216.63666666666666,0.0,0.0,0.0,0.0,0.0,0.0,0.0,9182.5,0.0,55.0,5.0,252.89666666666665,1.0,0.0,0.0,0.0,0.0,0.0,1.0,0.0,1.754999999999999,1.754999999999999,0.0,0.0,1.0,55.0,616.79921,10000.0,85.000001,85.000001,85.000001,85.000001,395.0,0.0,0.0,0.0,1.0,166.665,51.682,51.682,46.921,46.921,34.0,-26.049999999999997,24.932000000000002,-29.813333333333333,27.064999999999998,0.0,1781.631,-0.15500000000000114,100.0,28.489,28.474,43.986000000000004,43.615,0.0,0.0,100.0,0.0,0.0,0.0,0.0,3246.285714285714,3245.5,4095.375,3957.4,305.24266666666665,304.45,314.9235,315.0745,22.099,20.7018,22.1249,21.6275,314.999998,314.999998,324.999988,324.999988,99.559,99.50753333333333,99.56977142857143,99.55024285714286,0.06450000000000022,-0.06766666666666676,-0.13316666666666666,0.09783333333333322,-0.03833333333332689,-0.04833333333333201,1.55,1.555,39.117999999999995,30.386333333333333,39.281,36.172,55.727999999999994,35.7825,60.2315,53.704,53.681,34.863,58.7755,51.9785,52.831,34.3815,58.635,51.35766666666667,-0.09550000000000003,-0.06700000000000017,0.11296,0.10516500000000001,0.0,219.88,219.86,216.63666666666666,216.63666666666666,0.0,0.0
