,ABS Active,ABS Enabled,AID Allow Tire Blankets,AID Auto Blip,AID Auto Clutch,AID Auto Shift,AID Fuel Rate,AID Ideal Line,AID Mech Damage,AID Stability,AID Tire Wear Rate,Air Density,Air Temp,Ballast,Best Lap Delta,Best Lap Time,Brake Bias,Brake Pos,Brake Temp FL,Brake Temp FR,Brake Temp RL,Brake Temp RR,CG Accel Lateral,CG Accel Longitudinal,CG Accel Vertical,CG Height,Camber FL,Camber FR,Camber RL,Camber RR,Car Coord X,Car Coord Y,Car Coord Z,Car Damage Front,Car Damage Left,Car Damage Rear,Car Damage Right,Car Pos Norm,Caster FL,Caster FR,Chassis Pitch Angle,Chassis Pitch Rate,Chassis Roll Angle,Chassis Roll Rate,Chassis Velocity X,Chassis Velocity Y,Chassis Velocity Z,Chassis Yaw Rate,Clutch Pos,DRS Active,DRS Available,Drive Train Speed,ERS Heat Charging,ERS Is Charging,ERS Max Energy,ERS Power Level,ERS Recovery Level,Engine Brake Setting,Engine Limiter,Engine RPM,Flags,Fuel Level,Gear,Ground Speed,HR Sample Clock,In Pit,KERS Charge,KERS Deployed Energy,KERS Input,KERS Max Energy,LR Sample Clock,Lap Invalidated,Lap Time,Lap Time2,Last Lap Time,Last Sector Time,MR Sample Clock,Max Fuel,Max Power,Max RPM,Max Sus Travel FL,Max Sus Travel FR,Max Sus Travel RL,Max Sus Travel RR,Max Torque,Max Turbo Boost,Num Tires Off Track,Penalties Enabled,Position,Raw Data Sample Rate,Ride Height FL,Ride Height FR,Ride Height RL,Ride Height RR,Road Temp,Self Align Torque FL,Self Align Torque FR,Self Align Torque RL,Self Align Torque RR,Session Lap Count,Session Time Left,Steering Angle,Surface Grip,Suspension Travel FL,Suspension Travel FR,Suspension Travel RL,Suspension Travel RR,TC Active,TC Enabled,Throttle Pos,Tire Dirt Level FL,Tire Dirt Level FR,Tire Dirt Level RL,Tire Dirt Level RR,Tire Load FL,Tire Load FR,Tire Load RL,Tire Load RR,Tire Loaded Radius FL,Tire Loaded Radius FR,Tire Loaded Radius RL,Tire Loaded Radius RR,Tire Pressure FL,Tire Pressure FR,Tire Pressure RL,Tire Pressure RR,Tire Radius FL,Tire Radius FR,Tire Radius RL,Tire Radius RR,Tire Rubber Grip FL,Tire Rubber Grip FR,Tire Rubber Grip RL,Tire Rubber Grip RR,Tire Slip Angle FL,Tire Slip Angle FR,Tire Slip Angle RL,Tire Slip Angle RR,Tire Slip Ratio FL,Tire Slip Ratio FR,Tire Slip Ratio RL,Tire Slip Ratio RR,Tire Temp Core FL,Tire Temp Core FR,Tire Temp Core RL,Tire Temp Core RR,Tire Temp Inner FL,Tire Temp Inner FR,Tire Temp Inner RL,Tire Temp Inner RR,Tire Temp Middle FL,Tire Temp Middle FR,Tire Temp Middle RL,Tire Temp Middle RR,Tire Temp Outer FL,Tire Temp Outer FR,Tire Temp Outer RL,Tire Temp Outer RR,Toe In FL,Toe In FR,Toe In RL,Toe In RR,Turbo Boost,Wheel Angular Speed FL,Wheel Angular Speed FR,Wheel Angular Speed RL,Wheel Angular Speed RR,Wind Direction,Wind Speed
0,0.0,0.0,0.0,1.0,1.0,0.0,0.0,1.0,0.0,100.0,1.0,1.1856,26.0,0.0,0.0,0.0,59.99999,0.0,26.0,26.0,26.0,26.0,-0.10455555555555551,0.2942,0.02695,293.915,-2.6994,-2.674875,-1.5018500000000001,-1.572,-275.66,216.2825,190.987375,0.0,0.0,0.0,0.0,0.0016,-5.498166666666667,-5.498166666666667,-0.5499,1.526,-0.026111111111111196,-1.245,65.52,-0.0599,-0.21577500000000002,1.1799999999999997,100.0,1.0,1.0,202.2733333333333,0.0,0.0,0.0,0.0,0.0,0.0,0.0,8573.7,0.0,55.0,5.0,235.84,0.0,0.0,0.0,0.0,0.0,0.0,0.0,0.0,0.0030000000000001137,0.0030000000000001137,0.0,0.0,0.0,55.0,616.79921,10000.0,85.0,85.0,85.0,85.0,395.0,0.0,0.0,0.0,1.0,20.0,52.643,52.643,49.53,49.53,34.0,-27.11,22.23166666666667,-31.813333333333333,23.4175,0.0,1783.452,0.8099999999999987,100.0,27.84,27.065,40.65,40.402,0.0,0.0,100.0,0.0,0.0,0.0,0.0,3024.875,3295.0,4198.444444444444,3976.4,305.678,304.2435,314.68075,314.896,21.8033,20.5097,21.7621,21.3165,314.99999,314.99999,324.99998,324.99998,99.56035714285714,99.50708333333333,99.56467142857143,99.54534285714286,-0.020333333333333314,-0.1376666666666666,-0.1796,0.03440000000000021,-0.036666666666668846,-0.05142857142856627,1.541,1.5995,37.271,29.185666666666666,37.013,34.2285,56.787,34.432,58.897,51.69,54.675,33.5985,57.531,50.0405,53.835,33.1535,57.4955,49.46,-0.01200000000000001,-0.135,0.09634000000000001,0.11505000000000001,0.0,205.325,205.25,202.2733333333333,202.2733333333333,0.0,0.0
1,0.0,0.0,0.0,1.0,1.0,0.0,0.0,1.0,0.0,100.0,1.0,1.1856,26.0,0.0,0.0,0.0,59.999996,0.0,26.0,26.0,26.0,26.0,-0.1356666666666666,0.2944,-0.022825,292.984,-2.6143,-2.784625,-1.51425,-1.5661,-272.31,216.28,190.967125,0.0,0.0,0.0,0.0,0.0035666666666666668,-5.498166666666667,-5.498166666666667,-0.4985,-0.48750000000000004,-0.07133333333333347,-0.21999999999999997,65.674,-0.07010000000000001,-0.1965,1.4220000000000006,100.0,1.0,1.0,202.47333333333333,0.0,0.0,0.0,0.0,0.0,0.0,0.0,8582.1,0.0,55.0,5.0,236.39333333333332,1.0,0.0,0.0,0.0,0.0,0.0,0.0,0.0,0.053999999999998494,0.053999999999998494,0.0,0.0,1.0,55.0,616.79921,10000.0,85.000001,85.000001,85.000001,85.000001,395.0,0.0,0.0,0.0,1.0,333.33500000000004,53.421,53.421,48.263999999999996,48.263999999999996,34.0,-27.6025,17.565,-34.46333333333333,28.625,0.0,1783.402,0.9200000000000017,100.0,27.907,26.968,43.043,41.478,0.0,0.0,100.0,0.0,0.0,0.0,0.0,3081.875,2666.3,4274.888888888889,4693.7,305.3636666666667,306.35775,314.356,313.179,21.8134,20.5147,21.7729,21.3256,314.999998,314.999998,324.999988,324.999988,99.56037142857143,99.5071,99.56482857142858,99.5455,-0.030999999999999917,-0.15233333333333332,-0.19740000000000002,0.027599999999999847,-0.021666666666668277,-0.044285714285713595,1.413,1.4649999999999999,37.334,29.217,37.081,34.285,56.769999999999996,34.4735,58.9435,51.7545,54.659,33.6365,57.574,50.102000000000004,53.818,33.19,57.536,49.52033333333333,0.0015000000000000568,-0.14749999999999996,0.108865,0.11104000000000001,0.0,205.79500000000002,205.67000000000002,202.47333333333333,202.47333333333333,0.0,0.0
2,0.0,0.0,0.0,1.0,1.0,0.0,0.0,1.0,0.0,100.0,1.0,1.1856,26.0,0.0,0.0,0.0,59.999996,0.0,26.0,26.0,26.0,26.0,-0.14555555555555555,0.2841,-0.012375,293.549,-2.5808,-2.8126249999999997,-1.4757500000000001,-1.626,-268.96,216.275,190.94825,0.0,0.0,0.0,0.0,0.0055000000000000005,-5.498166666666667,-5.498166666666667,-0.5493,-0.0024999999999999467,-0.06655555555555548,1.924,65.816,-0.0854,-0.25345,1.692000000000001,100.0,1.0,1.0,203.35666666666668,0.0,0.0,0.0,0.0,0.0,0.0,0.0,8619.6,0.0,55.0,5.0,236.90666666666667,0.0,0.0,0.0,0.0,0.0,0.0,0.0,0.0,0.10500000000000043,0.10500000000000043,0.0,0.0,0.0,55.0,616.79921,10000.0,85.000001,85.000001,85.000001,85.000001,395.0,0.0,0.0,0.0,1.0,333.33500000000004,52.292,52.292,50.034,50.034,34.0,-31.28,19.12833333333333,-30.66,19.705,0.0,1783.351,0.7699999999999996,100.0,28.514,27.026,42.836,41.334,0.0,0.0,100.0,0.0,0.0,0.0,0.0,3445.125,2882.9,3802.4444444444443,3668.4,304.34833333333336,305.6325,315.51425,315.8035,21.8237,20.5196,21.7833,21.3344,314.999998,314.999998,324.999988,324.999988,99.56037142857143,99.50713333333333,99.56495714285714,99.54562857142857,-0.03699999999999992,-0.16266666666666663,-0.245,-0.0046000000000000485,-0.05833333333333002,-0.05571428571428072,1.6175,1.6865,37.397999999999996,29.247666666666667,37.146,34.34,56.757999999999996,34.513,58.9825,51.8115,54.647,33.673,57.611,50.157,53.805,33.2245,57.57,49.574,-0.014499999999999957,-0.13549999999999995,0.111865,0.105565,0.0,206.245,206.09,203.35666666666668,203.35666666666668,0.0,0.0
3,0.0,0.0,0.0,1.0,1.0,0.0,0.0,1.0,0.0,100.0,1.0,1.1856,26.0,0.0,0.0,0.0,59.999996,0.0,26.0,26.0,26.0,26.0,-0.14422222222222214,0.3005,0.095375,293.35,-2.7171,-2.7005,-1.50655,-1.6,-265.6,216.2625,190.928625,0.0,0.0,0.0,0.0,0.0074666666666666675,-5.498166666666667,-5.498166666666667,-0.5102,0.16949999999999998,-0.017777777777777892,0.10199999999999987,65.968,-0.096,-0.20147500000000002,1.2199999999999998,100.0,1.0,1.0,203.51,0.0,0.0,0.0,0.0,0.0,0.0,0.0,8626.0,0.0,55.0,5.0,237.45333333333332,1.0,0.0,0.0,0.0,0.0,0.0,0.0,0.0,0.1559999999999988,0.1559999999999988,0.0,0.0,1.0,55.0,616.79921,10000.0,85.000001,85.000001,85.000001,85.000001,395.0,0.0,0.0,0.0,1.0,166.665,53.467,53.467,48.08,48.08,34.0,-25.7725,18.23833333333333,-35.086666666666666,24.55,0.0,1783.3,0.620000000000001,100.0,28.142,26.946,42.682,41.397999999999996,0.0,0.0,100.0,0.0,0.0,0.0,0.0,2851.0,2884.5,4270.888888888889,4263.3,306.125,305.66925,314.36625,314.28925,21.8337,20.5248,21.7937,21.3433,314.999998,314.999998,324.999988,324.999988,99.56038571428572,99.50713333333333,99.56511428571429,99.54577142857143,-0.026000000000000023,-0.16033333333333333,-0.2194,0.006399999999999961,-0.03833333333332689,-0.057142857142849834,1.4935,1.5225,37.46,29.28,37.211,34.396,56.739999999999995,34.5565,59.0225,51.874,54.631,33.713,57.647999999999996,50.217,53.788,33.263,57.6045,49.632999999999996,-0.031000000000000028,-0.125,0.11238500000000001,0.10737500000000001,0.0,206.70499999999998,206.57999999999998,203.51,203.51,0.0,0.0
4,0.0,0.0,0.0,1.0,1.0,0.0,0.0,1.0,0.0,100.0,1.0,1.1856,26.0,0.0,0.0,0.0,59.999996,0.0,26.0,26.0,26.0,26.0,-0.14633333333333332,0.2965,-0.023025,293.594,-2.6491,-2.75275,-1.5181,-1.607,-262.23,216.25,190.909,0.0,0.0,0.0,0.0,0.0094,-5.498166666666667,-5.498166666666667,-0.5464,-0.6275,-0.08800000000000008,-1.569,66.114,-0.094,-0.23895000000000002,1.2400000000000002,100.0,1.0,1.0,204.11666666666667,0.0,0.0,0.0,0.0,0.0,0.0,0.0,8651.8,0.0,55.0,5.0,237.98333333333335,0.0,0.0,0.0,0.0,0.0,0.0,0.0,0.0,0.20700000000000074,0.20700000000000074,0.0,0.0,0.0,55.0,616.79921,10000.0,85.000001,85.000001,85.000001,85.000001,395.0,0.0,0.0,0.0,1.0,166.665,52.948,52.948,48.843,48.843,34.0,-30.28,18.971666666666668,-32.67666666666666,20.085,0.0,1783.249,0.5899999999999999,100.0,27.826,26.904,42.900999999999996,41.426,0.0,0.0,100.0,0.0,0.0,0.0,0.0,3313.75,2875.7,4078.0,3660.4,304.91066666666666,305.52325,314.87425,315.71275,21.8435,20.5299,21.8043,21.3522,314.999998,314.999998,324.999988,324.999988,99.56038571428572,99.50715,99.56524285714286,99.54591428571429,-0.03633333333333311,-0.15600000000000003,-0.215,0.0027999999999999137,-0.04999999999999716,-0.05571428571428072,1.5755,1.625,37.522,29.311999999999998,37.277,34.451,56.722,34.598,59.065,51.932,54.614000000000004,33.7515,57.688,50.2725,53.769999999999996,33.2995,57.6415,49.687333333333335,-0.024499999999999966,-0.1200000000000001,0.10417000000000001,0.10525000000000001,0.0,207.115,207.01,204.11666666666667,204.11666666666667,0.0,0.0
5,0.0,0.0,0.0,1.0,1.0,0.0,0.0,1.0,0.0,100.0,1.0,1.1856,26.0,0.0,0.0,0.0,59.999996,0.0,26.0,26.0,26.0,26.0,-0.13911111111111107,0.2934000000000001,-0.009000000000000001,293.549,-2.6643,-2.772125,-1.50875,-1.5914000000000001,-258.85,216.23000000000002,190.8885,0.0,0.0,0.0,0.0,0.011366666666666667,-5.498166666666667,-5.498166666666667,-0.5341,0.39849999999999997,-0.08333333333333348,1.186,66.261,-0.09680000000000001,-0.211925,1.0460000000000003,100.0,1.0,1.0,204.49666666666667,0.0,0.0,0.0,0.0,0.0,0.0,0.0,8667.9,0.0,55.0,5.0,238.51,1.0,0.0,0.0,0.0,0.0,0.0,0.0,0.0,0.2579999999999991,0.2579999999999991,0.0,0.0,1.0,55.0,616.79921,10000.0,85.000001,85.000001,85.000001,85.000001,395.0,0.0,0.0,0.0,1.0,166.665,53.406,53.406,48.828,48.828,34.0,-27.46,19.905,-33.836666666666666,23.7325,0.0,1783.199,0.18499999999999872,100.0,28.01,26.625,42.755,41.141999999999996,0.0,0.0,100.0,0.0,0.0,0.0,0.0,3098.875,2850.2,4164.222222222223,4122.5,305.3433333333333,305.81875,314.6825,314.66725,21.8535,20.535,21.8147,21.3609,314.999998,314.999998,324.999988,324.999988,99.56038571428572,99.50718333333333,99.5654,99.54605714285714,-0.012333333333333307,-0.126,-0.21880000000000002,0.013800000000000034,-0.03499999999999659,-0.06285714285714761,1.516,1.545,37.585,29.343666666666664,37.342,34.506,56.707,34.638999999999996,59.1055,51.9895,54.599000000000004,33.789,57.726,50.3275,53.754999999999995,33.335499999999996,57.677,49.74133333333333,-0.052999999999999936,-0.08750000000000013,0.1039,0.11002500000000001,0.0,207.615,207.515,204.49666666666667,204.49666666666667,0.0,0.0
6,0.0,0.0,0.0,1.0,1.0,0.0,0.0,1.0,0.0,100.0,1.0,1.1856,26.0,0.0,0.0,0.0,59.999996,0.0,26.0,26.0,26.0,26.0,-0.10966666666666658,0.274,-0.005975,293.396,-2.6364,-2.743125,-1.55205,-1.5867,-255.87,216.2125,190.870375,0.0,0.0,0.0,0.0,0.0131,-5.498166666666667,-5.498166666666667,-0.531,0.05999999999999994,-0.06788888888888867,-0.498,66.39,-0.0903,-0.21535,0.7999999999999998,100.0,1.0,1.0,204.89333333333332,0.0,0.0,0.0,0.0,0.0,0.0,0.0,8684.6,0.0,55.0,5.0,238.97333333333333,0.0,0.0,0.0,0.0,0.0,0.0,0.0,0.0,0.3030000000000008,0.3030000000000008,0.0,0.0,0.0,55.0,616.79921,10000.0,85.000001,85.000001,85.000001,85.000001,395.0,0.0,0.0,0.0,1.0,166.665,53.055,53.055,48.691,48.691,34.0,-28.1,20.105,-34.19333333333333,22.825000000000003,0.0,1783.153,0.05000000000000071,100.0,27.752,26.879,42.753,41.585,0.0,0.0,100.0,0.0,0.0,0.0,0.0,3227.0,2895.8,4132.333333333333,3981.6000000000004,305.0926666666667,305.4595,314.812,314.934,21.8624,20.5395,21.8239,21.3689,314.999998,314.999998,324.999988,324.999988,99.5604,99.50718333333333,99.56551428571429,99.54617142857143,-0.006999999999999895,-0.1296666666666666,-0.224,0.016799999999999926,-0.04999999999999716,-0.0357142857142847,1.5334999999999999,1.5805000000000002,37.64,29.372,37.4,34.5555,56.693,34.675,59.141999999999996,52.044,54.586,33.822,57.76,50.3795,53.741,33.367,57.708,49.792,-0.07150000000000001,-0.08200000000000007,0.11094000000000001,0.11633500000000001,0.0,207.99,207.91500000000002,204.89333333333332,204.89333333333332,0.0,0.0
7,0.0,0.0,0.0,1.0,1.0,0.0,0.0,1.0,0.0,100.0,1.0,1.1856,26.0,0.0,0.0,0.0,59.999996,0.0,26.0,26.0,26.0,26.0,-0.09533333333333338,0.2815000000000001,0.048375,293.152,-2.6071999999999997,-2.734,-1.5128,-1.626,-252.48,216.1875,190.85,0.0,0.0,0.0,0.0,0.0151,-5.498166666666667,-5.498166666666667,-0.5345,-0.001000000000000112,-0.051444444444444404,1.1920000000000002,66.536,-0.07350000000000001,-0.224,0.40000000000000036,100.0,1.0,1.0,205.30333333333334,0.0,0.0,0.0,0.0,0.0,0.0,0.0,8702.1,0.0,55.0,5.0,239.5,1.0,0.0,0.0,0.0,0.0,0.0,0.0,0.0,0.3539999999999992,0.3539999999999992,0.0,0.0,1.0,55.0,616.79921,10000.0,85.000001,85.000001,85.000001,85.000001,395.0,0.0,0.0,0.0,1.0,166.665,52.75,52.75,48.782,48.782,34.0,-26.1175,22.53333333333333,-30.576666666666668,25.46,0.0,1783.103,-0.26500000000000057,100.0,28.006,26.809,42.859,41.736000000000004,0.0,0.0,100.0,0.0,0.0,0.0,0.0,3204.375,3058.2,4042.8888888888887,4107.0,304.9463333333333,305.145,314.91175,314.63725,21.8723,20.5447,21.8344,21.3779,314.999998,314.999998,324.999988,324.999988,99.5604,99.5072,99.56567142857143,99.54631428571429,0.03400000000000025,-0.09633333333333338,-0.1734,0.037599999999999856,-0.02499999999999858,-0.06142857142857139,1.525,1.541,37.702,29.404333333333334,37.465,34.612,56.677,34.7145,59.1825,52.105000000000004,54.57,33.8585,57.7975,50.438,53.724000000000004,33.402,57.743,49.849000000000004,-0.09499999999999997,-0.0495000000000001,0.09814500000000001,0.10660000000000001,0.0,208.4,208.39,205.30333333333334,205.30333333333334,0.0,0.0
8,0.0,0.0,0.0,1.0,1.0,0.0,0.0,1.0,0.0,100.0,1.0,1.1856,26.0,0.0,0.0,0.0,59.999996,0.0,26.0,26.0,26.0,26.0,-0.04799999999999993,0.29059999999999997,0.036625000000000005,293.442,-2.6902,-2.7225,-1.49565,-1.5793,-248.88,216.1625,190.82825,0.0,0.0,0.0,0.0,0.017166666666666667,-5.498166666666667,-5.498166666666667,-0.5368,-0.6225,-0.035666666666666735,0.657,66.69,-0.0511,-0.21527500000000002,-0.09999999999999964,100.0,1.0,1.0,205.73666666666668,0.0,0.0,0.0,0.0,0.0,0.0,0.0,8720.4,0.0,55.0,5.0,240.05666666666667,0.0,0.0,0.0,0.0,0.0,0.0,0.0,0.0,0.40800000000000125,0.40800000000000125,0.0,0.0,0.0,55.0,616.79921,10000.0,85.000001,85.000001,85.000001,85.000001,395.0,0.0,0.0,0.0,1.0,166.665,53.604,53.604,48.172,48.172,34.0,-23.3725,22.72833333333333,-29.673333333333336,26.95,0.0,1783.048,-0.36499999999999844,100.0,27.529,26.745,42.842,41.885,0.0,0.0,100.0,0.0,0.0,0.0,0.0,2951.625,3016.7,4091.3333333333335,4124.8,305.91366666666664,305.31875,314.76625,314.58275,21.8826,20.5502,21.8455,21.3874,314.999998,314.999998,324.999988,324.999988,99.5604,99.50721666666666,99.56581428571428,99.54647142857142,0.05466666666666642,-0.07899999999999996,-0.1496,0.07279999999999998,-0.03333333333333144,-0.04142857142856826,1.516,1.5060000000000002,37.766,29.438666666666666,37.534,34.6715,56.658,34.754999999999995,59.2245,52.1685,54.552,33.8955,57.837,50.499,53.706,33.438,57.7795,49.909,-0.10649999999999993,-0.04400000000000004,0.10452,0.10968000000000001,0.0,208.85500000000002,208.86,205.73666666666668,205.73666666666668,0.0,0.0
9,0.0,0.0,0.0,1.0,1.0,0.0,0.0,1.0,0.0,100.0,1.0,1.1856,26.0,0.0,0.0,0.0,59.999996,0.0,26.0,26.0,26.0,26.0,-0.01533333333333331,0.28790000000000004,-0.014950000000000001,293.106,-2.6843,-2.721,-1.5532,-1.557,-245.88,216.1375,190.8095,0.0,0.0,0.0,0.0,0.018933333333333337,-5.498166666666667,-5.498166666666667,-0.5426,0.5865,-0.03699999999999992,-0.33499999999999996,66.816,-0.031200000000000002,-0.21727500000000002,-0.13399999999999945,100.0,1.0,1.0,206.24,0.0,0.0,0.0,0.0,0.0,0.0,0.0,8741.8,0.0,55.0,5.0,240.50666666666666,1.0,0.0,0.0,0.0,0.0,0.0,0.0,0.0,0.4529999999999994,0.4529999999999994,0.0,0.0,1.0,55.0,616.79921,10000.0,85.000001,85.000001,85.000001,85.000001,395.0,0.0,0.0,0.0,1.0,166.665,52.368,52.368,49.118,49.118,34.0,-26.5625,23.73166666666667,-28.803333333333335,26.267500000000002,0.0,1783.003,-0.4800000000000004,100.0,27.868,27.328,42.425,41.954,0.0,0.0,100.0,0.0,0.0,0.0,0.0,3381.875,3013.6,3997.5555555555557,4027.7,304.669,305.06675,315.15225,314.84675,21.8914,20.5549,21.8546,21.3953,314.999998,314.999998,324.999988,324.999988,99.56041428571429,99.50723333333333,99.56594285714286,99.5466,0.07033333333333358,-0.06099999999999994,-0.1428,0.08600000000000008,-0.04999999999999716,-0.05857142857143316,1.576,1.5715,37.821,29.468,37.591,34.7205,56.644999999999996,34.79,59.257,52.2205,54.54,33.928,57.8675,50.549,53.693,33.4685,57.807,49.95766666666667,-0.119,-0.03600000000000003,0.10498500000000001,0.11126000000000001,0.0,209.275,209.275,206.24,206.24,0.0,0.0
10,0.0,0.0,0.0,1.0,1.0,0.0,0.0,1.0,0.0,100.0,1.0,1.1856,26.0,0.0,0.0,0.0,59.999996,0.0,26.0,26.0,26.0,26.0,-0.00011111111111106187,0.2923,0.0533,292.953,-2.6564,-2.70925,-1.534,-1.5363,-242.47,216.11,190.788875,0.0,0.0,0.0,0.0,0.020900000000000002,-5.498166666666667,-5.498166666666667,-0.5181,-0.47350000000000003,0.007888888888888834,1.815,66.963,-0.0083,-0.20677500000000001,-0.54,100.0,1.0,1.0,206.4766666666667,0.0,0.0,0.0,0.0,0.0,0.0,0.0,8751.7,0.0,55.0,5.0,241.03666666666666,0.0,0.0,0.0,0.0,0.0,0.0,1.0,0.0,0.5040000000000013,0.5040000000000013,0.0,0.0,0.0,55.0,616.79921,10000.0,85.000001,85.000001,85.000001,85.000001,395.0,0.0,0.0,0.0,1.0,333.33500000000004,53.436,53.436,47.592,47.592,34.0,-20.759999999999998,23.91,-29.286666666666665,30.775000000000002,0.0,1782.951,-0.5850000000000009,100.0,27.839,27.185,42.891999999999996,42.617000000000004,0.0,0.0,100.0,0.0,0.0,0.0,0.0,2822.75,2973.6,4258.0,4338.6,306.158,305.4245,314.354,314.0945,21.9013,20.560200000000002,21.865099999999998,21.4045,314.999998,314.999998,324.999988,324.999988,99.56041428571429,99.50723333333333,99.5661,99.54674285714286,0.08899999999999997,-0.037666666666666626,-0.1016,0.119,-0.03333333333333144,-0.04571428571428271,1.48,1.448,37.882999999999996,29.500999999999998,37.657,34.778,56.631,34.827,59.2985,52.2845,54.527,33.962,57.906,50.6105,53.679,33.5015,57.8425,50.018,-0.11499999999999999,-0.023500000000000076,0.10304500000000001,0.10545500000000001,0.0,209.69,209.72,206.4766666666667,206.4766666666667,0.0,0.0
11,0.0,0.0,0.0,1.0,1.0,0.0,0.0,1.0,0.0,100.0,1.0,1.1856,26.0,0.0,0.0,0.0,59.999996,0.0,26.0,26.0,26.0,26.0,0.05166666666666675,0.26280000000000014,-0.0976,293.579,-2.7103,-2.683125,-1.5904,-1.5231,-239.05,216.08249999999998,190.76825,0.0,0.0,0.0,0.0,0.022600000000000002,-5.498166666666667,-5.498166666666667,-0.561,-0.21450000000000014,0.03200000000000003,-0.647,67.101,0.0108,-0.2378,-0.5820000000000007,100.0,1.0,1.0,207.21333333333334,0.0,0.0,0.0,0.0,0.0,0.0,0.0,8783.1,0.0,55.0,5.0,241.53666666666666,1.0,0.0,0.0,0.0,0.0,0.0,1.0,0.0,0.5549999999999997,0.5549999999999997,0.0,0.0,1.0,55.0,616.79921,10000.0,85.000001,85.000001,85.000001,85.000001,395.0,0.0,0.0,0.0,1.0,166.665,52.902,52.902,49.332,49.332,34.0,-22.62,25.63,-23.886666666666663,26.4925,0.0,1782.902,-0.6550000000000011,100.0,27.395,27.516,42.285,42.583,0.0,0.0,100.0,0.0,0.0,0.0,0.0,3087.625,3085.8,3696.5555555555557,3851.1000000000004,305.56933333333336,304.8515,315.89625,315.27075,21.910899999999998,20.5656,21.8754,21.4135,314.999998,314.999998,324.999988,324.999988,99.56042857142857,99.50723333333333,99.56622857142857,99.54688571428571,0.10499999999999998,-0.022666666666666613,-0.0866,0.13280000000000003,-0.04333333333332945,-0.047142857142851824,1.639,1.616,37.943,29.534666666666666,37.721000000000004,34.8345,56.614999999999995,34.8645,59.3335,52.3435,54.512,33.997,57.938,50.667500000000004,53.663,33.535,57.872,50.074,-0.12449999999999994,-0.024499999999999966,0.09706500000000001,0.10783000000000001,0.0,210.12,210.135,207.21333333333334,207.21333333333334,0.0,0.0
12,0.0,0.0,0.0,1.0,1.0,0.0,0.0,1.0,0.0,100.0,1.0,1.1856,26.0,0.0,0.0,0.0,59.999996,0.0,26.0,26.0,26.0,26.0,0.05566666666666675,0.2761,0.029775000000000003,292.999,-2.7637,-2.6799999999999997,-1.55165,-1.5236,-235.82,216.0575,190.747375,0.0,0.0,0.0,0.0,0.025466666666666665,-5.498166666666667,-5.498166666666667,-0.5452,0.30199999999999994,0.017555555555555546,-0.9179999999999999,67.238,0.026500000000000003,-0.20475000000000002,-0.6579999999999995,100.0,1.0,1.0,207.41,0.0,0.0,0.0,0.0,0.0,0.0,0.0,8791.3,0.0,55.0,5.0,242.02666666666664,0.0,0.0,0.0,0.0,0.0,0.0,1.0,0.0,0.602999999999998,0.602999999999998,0.0,0.0,0.0,55.0,616.79921,10000.0,85.000001,85.000001,85.000001,85.000001,395.0,0.0,0.0,0.0,1.0,333.33500000000004,52.887,52.887,47.974000000000004,47.974000000000004,34.0,-23.0025,25.84166666666667,-27.646666666666665,30.55,0.0,1782.852,-0.6900000000000013,100.0,27.267,27.682,42.185,42.533,0.0,0.0,100.0,0.0,0.0,0.0,0.0,3121.5,3086.9,4234.555555555556,4172.1,305.51433333333335,304.87225,314.59525,314.47275,21.92,20.5707,21.8852,21.422,314.999998,314.999998,324.999988,324.999988,99.56044285714286,99.50723333333333,99.56635714285714,99.54701428571428,0.11333333333333373,-0.01633333333333331,-0.0782,0.14900000000000002,-0.02833333333332888,-0.03714285714285381,1.532,1.5045000000000002,38.0,29.567,37.782,34.8875,56.602000000000004,34.9,59.3695,52.4005,54.498999999999995,34.03,57.972,50.722,53.649,33.5665,57.903,50.12766666666667,-0.12749999999999995,-0.02849999999999997,0.10845,0.10717000000000002,0.0,210.54500000000002,210.59,207.41,207.41,0.0,0.0
13,0.0,0.0,0.0,1.0,1.0,0.0,0.0,1.0,0.0,100.0,1.0,1.1856,26.0,0.0,0.0,0.0,59.999996,0.0,26.0,26.0,26.0,26.0,0.07266666666666666,0.28380000000000005,0.053950000000000005,292.572,-2.7325,-2.678,-1.6218,-1.5416,-232.39,216.0325,190.725625,0.0,0.0,0.0,0.0,0.02676666666666667,-5.498166666666667,-5.498166666666667,-0.5389,-0.06899999999999995,0.02288888888888896,1.0710000000000002,67.381,0.033600000000000005,-0.213725,-0.8200000000000003,100.0,1.0,1.0,207.7866666666667,0.0,0.0,0.0,0.0,0.0,0.0,0.0,8807.3,0.0,55.0,5.0,242.54000000000002,1.0,0.0,0.0,0.0,0.0,0.0,1.0,0.0,0.6539999999999999,0.6539999999999999,0.0,0.0,1.0,55.0,616.79921,10000.0,85.000001,85.000001,85.000001,85.000001,395.0,0.0,0.0,0.0,1.0,166.665,52.521,52.521,47.913,47.913,34.0,-20.8375,28.203333333333333,-27.236666666666665,33.0325,0.0,1782.803,-0.9050000000000011,100.0,27.769,27.726,42.55,42.944,0.0,0.0,100.0,0.0,0.0,0.0,0.0,3062.125,3189.7,4155.555555555556,4359.5,305.47566666666665,304.72675,314.694,314.0835,21.9298,20.5762,21.895699999999998,21.4312,314.999998,314.999998,324.999988,324.999988,99.56045714285715,99.50723333333333,99.5665,99.54715714285715,0.15033333333333365,0.02200000000000002,-0.06,0.1594000000000002,-0.03999999999999915,-0.04999999999999716,1.514,1.484,38.061,29.601333333333336,37.848,34.945,56.59,34.9385,59.408500000000004,52.4645,54.488,34.065,58.007999999999996,50.783500000000004,53.637,33.6005,57.936,50.188,-0.14549999999999996,0.0004999999999999449,0.10476500000000001,0.10599000000000001,0.0,210.97500000000002,211.03,207.7866666666667,207.7866666666667,0.0,0.0
14,0.0,0.0,0.0,1.0,1.0,0.0,0.0,1.0,0.0,100.0,1.0,1.1856,26.0,0.0,0.0,0.0,59.999996,0.0,26.0,26.0,26.0,26.0,0.09388888888888891,0.2825,-0.010325,292.801,-2.73,-2.614625,-1.6008499999999999,-1.5110999999999999,-228.75,216.0075,190.703125,0.0,0.0,0.0,0.0,0.02886666666666667,-5.498166666666667,-5.498166666666667,-0.549,-0.08550000000000013,0.05422222222222217,1.251,67.528,0.0476,-0.2277,-1.0679999999999996,100.0,1.0,1.0,208.33333333333331,0.0,0.0,0.0,0.0,0.0,0.0,0.0,8830.5,0.0,55.0,5.0,243.07333333333332,0.0,0.0,0.0,0.0,0.0,0.0,1.0,0.0,0.7079999999999984,0.7079999999999984,0.0,0.0,0.0,55.0,616.79921,10000.0,85.000001,85.000001,85.000001,85.000001,395.0,0.0,0.0,0.0,1.0,166.665,52.597,52.597,48.111000000000004,48.111000000000004,34.0,-19.39,28.605,-24.426666666666666,32.082499999999996,0.0,1782.749,-0.9699999999999989,100.0,27.711,27.872,42.511,43.198,0.0,0.0,100.0,0.0,0.0,0.0,0.0,2915.75,3272.8,3936.1111111111113,4228.0,305.89433333333335,304.47325,315.218,314.40875,21.94,20.582,21.9066,21.4409,314.999998,314.999998,324.999988,324.999988,99.56047142857143,99.50725,99.56665714285714,99.54731428571428,0.15766666666666662,0.024333333333333318,-0.0464,0.17579999999999996,-0.051666666666669414,-0.05857142857143316,1.555,1.5215,38.125,29.637666666666668,37.917,35.0055,56.578,34.979,59.4475,52.53,54.476,34.1025,58.044,50.847,53.623999999999995,33.6365,57.969,50.25,-0.14900000000000002,0.0004999999999999449,0.10386000000000001,0.10799500000000001,0.0,211.44,211.5,208.33333333333331,208.33333333333331,0.0,0.0
15,0.0,0.0,0.0,1.0,1.0,0.0,0.0,1.0,0.0,100.0,1.0,1.1856,26.0,0.0,0.0,0.0,59.999996,0.0,26.0,26.0,26.0,26.0,0.11688888888888904,0.2836000000000001,-0.042325,292.801,-2.7145,-2.572,-1.63075,-1.4538,-225.71,215.99,190.684,0.0,0.0,0.0,0.0,0.030633333333333332,-5.498166666666667,-5.498166666666667,-0.5396000000000001,0.2895,0.08000000000000007,-0.2909999999999999,67.652,0.0644,-0.21050000000000002,-1.178,100.0,1.0,1.0,208.69666666666666,0.0,0.0,0.0,0.0,0.0,0.0,0.0,8845.9,0.0,55.0,5.0,243.51666666666665,1.0,0.0,0.0,0.0,0.0,0.0,1.0,0.0,0.7530000000000001,0.7530000000000001,0.0,0.0,1.0,55.0,616.79921,10000.0,85.000001,85.000001,85.000001,85.000001,395.0,0.0,0.0,0.0,1.0,166.665,52.765,52.765,48.126,48.126,34.0,-18.849999999999998,27.076666666666668,-25.243333333333336,32.71,0.0,1782.704,-0.9800000000000004,100.0,27.593,28.07,42.232,43.385,0.0,0.0,100.0,0.0,0.0,0.0,0.0,2891.75,3133.3,3995.0,4323.6,306.10133333333334,304.72475,315.165,314.1265,21.9486,20.5869,21.9157,21.448999999999998,314.999998,314.999998,324.999988,324.999988,99.5605,99.50725,99.56678571428571,99.54744285714285,0.1596666666666664,0.025333333333333208,-0.047200000000000006,0.1834,-0.03833333333332689,-0.05571428571428072,1.5434999999999999,1.505,38.179,29.668333333333333,37.973,35.056,56.569,35.013,59.479,52.585499999999996,54.467,34.1345,58.073499999999996,50.9,53.614000000000004,33.667,57.9955,50.30233333333334,-0.15200000000000002,-0.00550000000000006,0.10905500000000001,0.10475500000000001,0.0,211.815,211.905,208.69666666666666,208.69666666666666,0.0,0.0
16,0.0,0.0,0.0,1.0,1.0,0.0,0.0,1.0,0.0,100.0,1.0,1.1856,26.0,0.0,0.0,0.0,59.999996,0.0,26.0,26.0,26.0,26.0,0.12400000000000011,0.2834000000000001,-0.011300000000000001,292.847,-2.8039,-2.58475,-1.60045,-1.4543,-222.25,215.9725,190.662,0.0,0.0,0.0,0.0,0.03266666666666667,-5.498166666666667,-5.498166666666667,-0.5597,-0.742,0.0694444444444442,0.14400000000000013,67.792,0.07680000000000001,-0.22385000000000002,-1.2160000000000002,100.0,1.0,1.0,209.11666666666667,0.0,0.0,0.0,0.0,0.0,0.0,0.0,8863.7,0.0,55.0,5.0,244.02333333333334,0.0,0.0,0.0,0.0,0.0,0.0,1.0,0.0,0.8039999999999985,0.8039999999999985,0.0,0.0,0.0,55.0,616.79921,10000.0,85.000001,85.000001,85.000001,85.000001,395.0,0.0,0.0,0.0,1.0,166.665,52.765,52.765,47.882,47.882,34.0,-19.515,29.261666666666667,-22.976666666666663,32.9525,0.0,1782.653,-0.9199999999999982,100.0,27.316,27.967,42.542,43.409,0.0,0.0,100.0,0.0,0.0,0.0,0.0,2930.25,3294.7,3931.0,4180.8,306.0163333333333,304.4425,315.2485,314.51525,21.9579,20.5925,21.926099999999998,21.458199999999998,314.999998,314.999998,324.999988,324.999988,99.56051428571429,99.50725,99.56692857142858,99.54758571428572,0.16900000000000004,0.042333333333333334,-0.019600000000000003,0.2165999999999999,-0.05333333333332746,-0.057142857142849834,1.5735,1.5265,38.236999999999995,29.703333333333333,38.038,35.1135,56.554,35.0525,59.5175,52.6475,54.453,34.171,58.109,50.96,53.599000000000004,33.7025,58.028,50.361333333333334,-0.14400000000000002,-0.012499999999999956,0.11140000000000001,0.11094500000000002,0.0,212.20499999999998,212.315,209.11666666666667,209.11666666666667,0.0,0.0
17,0.0,0.0,0.0,1.0,1.0,0.0,0.0,1.0,0.0,100.0,1.0,1.1856,26.0,0.0,0.0,0.0,59.999996,0.0,26.0,26.0,26.0,26.0,0.12766666666666682,0.2795000000000001,-0.000575,292.496,-2.7682,-2.5638750000000003,-1.64155,-1.4754,-218.79,215.95749999999998,190.639375,0.0,0.0,0.0,0.0,0.03466666666666667,-5.498166666666667,-5.498166666666667,-0.5499,0.49949999999999994,0.0474444444444444,-0.7030000000000001,67.931,0.07880000000000001,-0.2054,-1.112,100.0,1.0,1.0,209.51666666666665,0.0,0.0,0.0,0.0,0.0,0.0,0.0,8880.7,0.0,55.0,5.0,244.51999999999998,1.0,0.0,0.0,0.0,0.0,0.0,1.0,0.0,0.8550000000000004,0.8550000000000004,0.0,0.0,1.0,55.0,616.79921,10000.0,85.000001,85.000001,85.000001,85.000001,395.0,0.0,0.0,0.0,1.0,333.33500000000004,52.46,52.46,47.836,47.836,34.0,-20.11,27.37,-26.37,33.0975,0.0,1782.6,-1.004999999999999,100.0,27.664,28.381,42.227000000000004,43.471000000000004,0.0,0.0,100.0,0.0,0.0,0.0,0.0,3097.0,3083.2,4247.111111111111,4264.1,305.6093333333333,304.92175,314.65875,314.3235,21.9675,20.5982,21.9364,21.4673,314.999998,314.999998,324.999988,324.999988,99.56052857142858,99.50726666666667,99.56707142857142,99.54774285714285,0.17533333333333356,0.04800000000000004,-0.0314,0.19720000000000004,-0.01833333333333087,-0.048571428571428044,1.546,1.512,38.297,29.738666666666667,38.102999999999994,35.170500000000004,56.545,35.094,59.553,52.7095,54.444,34.209,58.141999999999996,51.0195,53.589,33.739,58.0575,50.419666666666664,-0.15700000000000003,0.0034999999999999476,0.10783000000000001,0.10681500000000001,0.0,212.675,212.76,209.51666666666665,209.51666666666665,0.0,0.0
18,0.0,0.0,0.0,1.0,1.0,0.0,0.0,1.0,0.0,100.0,1.0,1.1856,26.0,0.0,0.0,0.0,59.999996,0.0,26.0,26.0,26.0,26.0,0.11755555555555564,0.27790000000000004,-0.004425,292.404,-2.7964,-2.541,-1.65705,-1.4212,-215.32,215.945,190.617,0.0,0.0,0.0,0.0,0.0367,-5.498166666666667,-5.498166666666667,-0.5607,-0.47950000000000004,0.07477777777777783,1.0430000000000001,68.069,0.08310000000000001,-0.22407500000000002,-1.346,100.0,1.0,1.0,209.94666666666666,0.0,0.0,0.0,0.0,0.0,0.0,0.0,8898.9,0.0,55.0,5.0,245.02333333333334,0.0,0.0,0.0,0.0,0.0,0.0,1.0,0.0,0.9059999999999988,0.9059999999999988,0.0,0.0,0.0,55.0,616.79921,10000.0,85.000001,85.000001,85.000001,85.000001,395.0,0.0,0.0,0.0,1.0,166.665,52.246,52.246,47.638,47.638,34.0,-19.044999999999998,30.71666666666667,-23.65,32.99,0.0,1782.55,-1.1950000000000003,100.0,27.61,28.165,42.643,43.777,0.0,0.0,100.0,0.0,0.0,0.0,0.0,3006.125,3402.0,4005.5555555555557,4246.4,305.75466666666665,304.1505,315.109,314.392,21.9769,20.6038,21.9469,21.4766,314.999998,314.999998,324.999988,324.999988,99.56055714285715,99.50726666666667,99.56721428571429,99.54788571428571,0.19333333333333336,0.06066666666666687,-0.0078,0.21320000000000006,-0.03999999999999915,-0.054285714285711606,1.569,1.512,38.355999999999995,29.774,38.168,35.229,56.534,35.1345,59.591,52.772999999999996,54.433,34.247,58.1775,51.0815,53.577,33.775,58.09,50.480333333333334,-0.16700000000000004,0.009000000000000008,0.10078500000000001,0.112335,0.0,213.06,213.16,209.94666666666666,209.94666666666666,0.0,0.0
19,0.0,0.0,0.0,1.0,1.0,0.0,0.0,1.0,0.0,100.0,1.0,1.1856,26.0,0.0,0.0,0.0,59.999996,0.0,26.0,26.0,26.0,26.0,0.16155555555555567,0.2964,0.049925000000000004,291.916,-2.7215,-2.6331249999999997,-1.6750500000000001,-1.4018000000000002,-211.85,215.9375,190.594375,0.0,0.0,0.0,0.0,0.038700000000000005,-5.498166666666667,-5.498166666666667,-0.5485,0.8115,0.08444444444444432,-0.506,68.207,0.09390000000000001,-0.210575,-1.6280000000000001,100.0,1.0,1.0,210.33333333333331,0.0,0.0,0.0,0.0,0.0,0.0,0.0,8915.3,0.0,55.0,5.0,245.51333333333332,1.0,0.0,0.0,0.0,0.0,0.0,1.0,0.0,0.9570000000000007,0.9570000000000007,0.0,0.0,1.0,55.0,616.79921,10000.0,85.000001,85.000001,85.000001,85.000001,395.0,0.0,0.0,0.0,1.0,166.665,51.712,51.712,47.363,47.363,34.0,-17.715,30.93,-25.263333333333335,35.1425,0.0,1782.5,-1.549999999999999,100.0,27.948,28.834,42.295,43.897999999999996,0.0,0.0,100.0,0.0,0.0,0.0,0.0,3078.25,3252.3,4227.0,4457.3,305.53333333333336,304.17325,314.689,313.86475,21.9865,20.6096,21.9571,21.4858,314.999998,314.999998,324.999988,324.999988,99.56058571428571,99.50728333333333,99.56735714285715,99.54802857142857,0.21899999999999986,0.06866666666666688,-0.0036000000000000003,0.21720000000000006,-0.041666666666671404,-0.03714285714285381,1.539,1.4715000000000003,38.416,29.810333333333332,38.232,35.286500000000004,56.527,35.1785,59.626,52.836,54.426,34.2875,58.21,51.141999999999996,53.569,33.814499999999995,58.119,50.540333333333336,-0.1995,0.029000000000000026,0.11099500000000001,0.101205,0.0,213.515,213.635,210.33333333333331,210.33333333333331,0.0,0.0
20,0.0,0.0,0.0,1.0,1.0,0.0,0.0,1.0,0.0,100.0,1.0,1.1856,26.0,0.0,0.0,0.0,59.999996,0.0,26.0,26.0,26.0,26.0,0.1744444444444444,0.2662,-0.049525,292.328,-2.8309,-2.573375,-1.60975,-1.5138,-208.57,215.935,190.573375,0.0,0.0,0.0,0.0,0.040600000000000004,-5.498166666666667,-5.498166666666667,-0.5539000000000001,-1.1045000000000003,0.0948888888888888,-0.806,68.337,0.10700000000000001,-0.222175,-1.8019999999999996,100.0,1.0,1.0,210.64666666666668,0.0,0.0,0.0,0.0,0.0,0.0,0.0,8928.6,0.0,55.0,5.0,245.98666666666668,0.0,0.0,0.0,0.0,0.0,0.0,0.0,0.0,1.004999999999999,1.004999999999999,0.0,0.0,0.0,55.0,616.79921,10000.0,85.000001,85.000001,85.000001,85.000001,395.0,0.0,0.0,0.0,1.0,333.33500000000004,52.856,52.856,46.906,46.906,34.0,-17.715,29.13,-23.49,36.705,0.0,1782.45,-1.0250000000000004,100.0,27.359,28.532,42.725,44.372,0.0,0.0,100.0,0.0,0.0,0.0,0.0,2803.25,3169.9,4146.333333333333,4335.1,306.50233333333335,304.6225,314.746,313.93775,21.9952,20.615,21.9671,21.4947,314.999998,314.999998,324.999988,324.999988,99.56061428571428,99.5073,99.5675,99.54818571428571,0.19333333333333336,0.06533333333333324,0.007200000000000001,0.22960000000000003,-0.041666666666671404,-0.04142857142856826,1.4955,1.447,38.47,29.843666666666664,38.294,35.341499999999996,56.516,35.2185,59.6635,52.897999999999996,54.415,34.3245,58.2445,51.201499999999996,53.557,33.8505,58.1505,50.59866666666667,-0.16349999999999998,0.011499999999999955,0.10916000000000001,0.10516500000000001,0.0,213.87,214.025,210.64666666666668,210.64666666666668,0.0,0.0
21,0.0,0.0,0.0,1.0,1.0,0.0,0.0,1.0,0.0,100.0,1.0,1.1856,26.0,0.0,0.0,0.0,59.999996,0.0,26.0,26.0,26.0,26.0,0.139,0.28469999999999995,-0.064875,292.603,-2.7849,-2.6401250000000003,-1.6595,-1.4885000000000002,-205.07999999999998,215.935,190.55025,0.0,0.0,0.0,0.0,0.042633333333333336,-5.498166666666667,-5.498166666666667,-0.5785,0.5495,0.06611111111111101,-0.052999999999999936,68.469,0.11720000000000001,-0.223975,-1.1819999999999995,100.0,1.0,1.0,211.29666666666668,0.0,0.0,0.0,0.0,0.0,0.0,0.0,8956.2,0.0,55.0,5.0,246.46333333333334,1.0,0.0,0.0,0.0,0.0,0.0,0.0,0.0,1.056000000000001,1.056000000000001,0.0,0.0,1.0,55.0,616.79921,10000.0,85.000001,85.000001,85.000001,85.000001,395.0,0.0,0.0,0.0,1.0,166.665,52.261,52.261,48.218,48.218,34.0,-20.61,28.421666666666667,-22.03,33.4775,0.0,1782.401,-0.10999999999999943,100.0,27.822,28.523,42.192,43.814,0.0,0.0,100.0,0.0,0.0,0.0,0.0,2967.5,3251.7,3976.3333333333335,4076.3,305.82233333333335,304.47775,315.266,314.82375,22.0046,20.6208,21.9772,21.5037,314.999998,314.999998,324.999988,324.999988,99.56062857142857,99.5073,99.56764285714286,99.54832857142857,0.14866666666666672,0.017333333333333423,0.016,0.244,-0.04833333333333201,-0.04999999999999716,1.615,1.5685000000000002,38.528999999999996,29.88,38.357,35.3985,56.504999999999995,35.2605,59.695499999999996,52.957499999999996,54.405,34.364,58.2745,51.2595,53.545,33.888,58.1775,50.65533333333333,-0.08399999999999996,-0.07099999999999995,0.11191500000000001,0.112875,0.0,214.32999999999998,214.435,211.29666666666668,211.29666666666668,0.0,0.0
22,0.0,0.0,0.0,1.0,1.0,0.0,0.0,1.0,0.0,100.0,1.0,1.1856,26.0,0.0,0.0,0.0,59.999996,0.0,26.0,26.0,26.0,26.0,0.10299999999999998,0.27100000000000013,0.010150000000000001,292.068,-2.7062,-2.653625,-1.6442,-1.4886,-201.79,215.94,190.527875,0.0,0.0,0.0,0.0,0.04456666666666667,-5.498166666666667,-5.498166666666667,-0.5571,0.12649999999999995,0.06188888888888888,0.8820000000000001,68.6,0.09380000000000001,-0.206675,-0.07600000000000051,100.0,1.0,1.0,211.49333333333334,0.0,0.0,0.0,0.0,0.0,0.0,0.0,8964.5,0.0,55.0,5.0,246.93333333333334,0.0,0.0,0.0,0.0,0.0,0.0,0.0,0.0,1.1039999999999992,1.1039999999999992,0.0,0.0,0.0,55.0,616.79921,10000.0,85.000001,85.000001,85.000001,85.000001,395.0,0.0,0.0,0.0,1.0,333.33500000000004,52.277,52.277,47.119,47.119,34.0,-20.4625,26.16,-25.806666666666665,35.22,0.0,1782.351,0.5150000000000006,100.0,28.012,28.512999999999998,42.785,44.0,0.0,0.0,100.0,0.0,0.0,0.0,0.0,2866.125,3216.6,4184.111111111111,4376.4,305.99833333333333,304.5485,314.6675,314.1175,22.0135,20.6262,21.987099999999998,21.5125,314.999998,314.999998,324.999988,324.999988,99.56064285714285,99.5073,99.56778571428572,99.54847142857143,0.11900000000000022,-0.03166666666666662,-0.0218,0.21100000000000008,-0.03999999999999915,-0.06571428571428584,1.4969999999999999,1.4725000000000001,38.585,29.913666666666664,38.419,35.453,56.492999999999995,35.2975,59.733000000000004,53.0175,54.393,34.397999999999996,58.309,51.317499999999995,53.532,33.921,58.209,50.71233333333333,-0.04499999999999993,-0.12200000000000011,0.105565,0.11776500000000001,0.0,214.775,214.8,211.49333333333334,211.49333333333334,0.0,0.0
23,0.0,0.0,0.0,1.0,1.0,0.0,0.0,1.0,0.0,100.0,1.0,1.1856,26.0,0.0,0.0,0.0,59.999996,0.0,26.0,26.0,26.0,26.0,0.043333333333333224,0.25280000000000014,-0.037425,292.068,-2.7149,-2.6260000000000003,-1.5493999999999999,-1.5756000000000001,-198.29,215.945,190.504375,0.0,0.0,0.0,0.0,0.0466,-5.498166666666667,-5.498166666666667,-0.5757,-0.25049999999999994,0.03066666666666662,-1.2429999999999999,68.73400000000001,0.045200000000000004,-0.23290000000000002,0.766,100.0,1.0,1.0,212.00666666666666,0.0,0.0,0.0,0.0,0.0,0.0,0.0,8986.2,0.0,55.0,5.0,247.41666666666666,1.0,0.0,0.0,0.0,0.0,0.0,0.0,0.0,1.1550000000000011,1.1550000000000011,0.0,0.0,1.0,55.0,616.79921,10000.0,85.000001,85.000001,85.000001,85.000001,395.0,0.0,0.0,0.0,1.0,166.665,51.650999999999996,51.650999999999996,48.05,48.05,34.0,-26.2825,23.52166666666667,-26.193333333333335,29.37,0.0,1782.302,0.6999999999999993,100.0,28.21,28.603,43.049,44.168,0.0,0.0,100.0,0.0,0.0,0.0,0.0,3306.5,3102.6,3992.222222222222,3969.8,304.88966666666664,304.81425,315.133,314.91925,22.023,20.6319,21.9976,21.5218,314.999998,314.999998,324.999988,324.999988,99.56065714285714,99.50731666666667,99.56791428571428,99.54862857142857,0.06999999999999984,-0.06566666666666665,-0.084,0.1474000000000002,-0.051666666666669414,-0.04142857142856826,1.5165,1.5394999999999999,38.644,29.948999999999998,38.485,35.510999999999996,56.477999999999994,35.338,59.769999999999996,53.079499999999996,54.379000000000005,34.4355,58.3435,51.377,53.516999999999996,33.9565,58.2405,50.771,-0.024499999999999966,-0.13149999999999995,0.10670500000000001,0.114085,0.0,215.22,215.14499999999998,212.00666666666666,212.00666666666666,0.0,0.0
24,0.0,0.0,0.0,1.0,1.0,0.0,0.0,1.0,0.0,100.0,1.0,1.1856,26.0,0.0,0.0,0.0,59.999996,0.0,26.0,26.0,26.0,26.0,-0.04299999999999993,0.2893000000000001,0.006175,292.374,-2.7127,-2.6645000000000003,-1.57175,-1.538,-194.99,215.9525,190.482,0.0,0.0,0.0,0.0,0.0485,-5.498166666666667,-5.498166666666667,-0.5782,-0.4670000000000001,0.014555555555555655,-0.5109999999999999,68.862,-0.00030000000000000003,-0.21627500000000002,1.0220000000000002,100.0,1.0,1.0,212.30666666666667,0.0,0.0,0.0,0.0,0.0,0.0,0.0,8999.0,0.0,55.0,5.0,247.87666666666667,0.0,0.0,0.0,0.0,0.0,0.0,0.0,0.0,1.2029999999999994,1.2029999999999994,0.0,0.0,0.0,55.0,616.79921,10000.0,85.000001,85.000001,85.000001,85.000001,395.0,0.0,0.0,0.0,1.0,333.33500000000004,52.872,52.872,47.043,47.043,34.0,-24.5925,20.71666666666667,-32.4,26.6525,0.0,1782.252,0.6649999999999991,100.0,28.065,28.126,43.296,43.751,0.0,0.0,100.0,0.0,0.0,0.0,0.0,2996.875,2902.2,4368.444444444444,4094.1000000000004,305.8593333333333,305.52475,314.255,314.72775,22.032,20.637,22.0074,21.5304,314.999998,314.999998,324.999988,324.999988,99.56065714285714,99.50731666666667,99.56805714285714,99.54875714285714,0.03966666666666674,-0.09833333333333338,-0.13440000000000002,0.08400000000000007,-0.05666666666667197,-0.054285714285711606,1.4945,1.5285000000000002,38.7,29.981,38.546,35.565,56.462,35.3745,59.806,53.1355,54.364000000000004,34.4695,58.376999999999995,51.431,53.501000000000005,33.9895,58.271,50.82333333333334,-0.025000000000000022,-0.13450000000000006,0.10748500000000001,0.09878500000000001,0.0,215.635,215.535,212.30666666666667,212.30666666666667,0.0,0.0
25,0.0,0.0,0.0,1.0,1.0,0.0,0.0,1.0,0.0,100.0,1.0,1.1856,26.0,0.0,0.0,0.0,59.999996,0.0,26.0,26.0,26.0,26.0,-0.0832222222222222,0.2619,-0.07335,292.358,-2.751,-2.6553750000000003,-1.5645,-1.5618,-191.47,215.96,190.456625,0.0,0.0,0.0,0.0,0.05056666666666667,-5.498166666666667,-5.498166666666667,-0.6126,-0.058499999999999996,-0.004111111111110954,-0.403,68.994,-0.0398,-0.2265,1.1760000000000002,100.0,1.0,1.0,212.87,0.0,0.0,0.0,0.0,0.0,0.0,0.0,9022.8,0.0,55.0,5.0,248.35333333333335,1.0,0.0,0.0,0.0,0.0,0.0,0.0,0.0,1.2540000000000013,1.2540000000000013,0.0,0.0,1.0,55.0,616.79921,10000.0,85.000001,85.000001,85.000001,85.000001,395.0,0.0,0.0,0.0,1.0,166.665,51.926,51.926,47.943,47.943,34.0,-28.495,22.775,-29.58,25.18,0.0,1782.202,0.629999999999999,100.0,28.248,28.003,43.308,43.173,0.0,0.0,100.0,0.0,0.0,0.0,0.0,3251.375,3272.6,3972.777777777778,3981.1000000000004,305.08633333333336,304.5395,315.22225,315.06875,22.0415,20.6425,22.0178,21.5394,314.999998,314.999998,324.999988,324.999988,99.56067142857142,99.50733333333334,99.5682,99.5489,0.015666666666666718,-0.11499999999999999,-0.15580000000000002,0.07159999999999989,-0.046666666666666856,-0.054285714285711606,1.5485,1.5859999999999999,38.759,30.015666666666668,38.611000000000004,35.6215,56.444,35.4165,59.842,53.192,54.346000000000004,34.5085,58.4105,51.485,53.483000000000004,34.0265,58.3015,50.876666666666665,-0.025499999999999967,-0.13250000000000006,0.09666500000000001,0.11143000000000002,0.0,216.04000000000002,215.94,212.87,212.87,0.0,0.0
26,0.0,0.0,0.0,1.0,1.0,0.0,0.0,1.0,0.0,100.0,1.0,1.1856,26.0,0.0,0.0,0.0,59.999996,0.0,26.0,26.0,26.0,26.0,-0.11977777777777776,0.2773000000000001,0.10187500000000001,291.122,-2.6621,-2.76525,-1.586,-1.5849,-187.74,215.9625,190.429375,0.0,0.0,0.0,0.0,0.05273333333333334,-5.498166666666667,-5.498166666666667,-0.5692,0.6265000000000001,-0.05266666666666664,0.29899999999999993,69.139,-0.068,-0.19545,1.1060000000000008,100.0,1.0,1.0,213.01999999999998,0.0,0.0,0.0,0.0,0.0,0.0,0.0,9029.2,0.0,55.0,5.0,248.87,0.0,0.0,0.0,0.0,0.0,0.0,0.0,0.0,1.3079999999999998,1.3079999999999998,0.0,0.0,0.0,55.0,616.79921,10000.0,85.000001,85.000001,85.000001,85.000001,395.0,0.0,0.0,0.0,1.0,166.665,51.483,51.483,46.082,46.082,34.0,-27.6175,21.36,-38.093333333333334,27.955000000000002,0.0,1782.149,0.45500000000000185,100.0,29.35,28.406,44.188,43.317,0.0,0.0,100.0,0.0,0.0,0.0,0.0,3228.0,3037.5,4640.0,4507.1,304.9866666666667,305.142,313.6295,313.84275,22.0519,20.6485,22.0291,21.5492,314.999998,314.999998,324.999988,324.999988,99.56067142857142,99.50735,99.56837142857142,99.54907142857142,0.016999999999999904,-0.1303333333333333,-0.179,0.03520000000000012,-0.04833333333333201,-0.07285714285714562,1.411,1.4635000000000002,38.825,30.053333333333335,38.682,35.6825,56.429,35.464,59.8865,53.2555,54.332,34.552,58.4525,51.5465,53.468,34.0685,58.3395,50.93666666666667,-0.045499999999999985,-0.1180000000000001,0.099635,0.10831500000000001,0.0,216.515,216.435,213.01999999999998,213.01999999999998,0.0,0.0
27,0.0,0.0,0.0,1.0,1.0,0.0,0.0,1.0,0.0,100.0,1.0,1.1856,26.0,0.0,0.0,0.0,59.999996,0.0,26.0,26.0,26.0,26.0,-0.11566666666666658,0.25680000000000014,-0.037200000000000004,291.672,-2.6188,-2.7445,-1.5683,-1.6647,-184.42000000000002,215.965,190.40625,0.0,0.0,0.0,0.0,0.05463333333333334,-5.498166666666667,-5.498166666666667,-0.5995,-1.0350000000000001,-0.06199999999999983,0.706,69.262,-0.0784,-0.24515,0.9920000000000009,100.0,1.0,1.0,213.55333333333334,0.0,0.0,0.0,0.0,0.0,0.0,0.0,9051.7,0.0,55.0,5.0,249.32,1.0,0.0,0.0,0.0,0.0,0.0,0.0,0.0,1.355999999999998,1.355999999999998,0.0,0.0,1.0,55.0,616.79921,10000.0,85.000001,85.000001,85.000001,85.000001,395.0,0.0,0.0,0.0,1.0,166.665,51.788,51.788,46.768,46.768,34.0,-27.14,21.310000000000002,-32.696666666666665,25.19,0.0,1782.1,0.365000000000002,100.0,29.109,28.098,44.924,43.723,0.0,0.0,100.0,0.0,0.0,0.0,0.0,3180.875,3099.8,4075.8888888888887,3993.5,305.1186666666667,305.05875,314.82825,314.93475,22.061,20.6536,22.0392,21.558,314.999998,314.999998,324.999988,324.999988,99.56067142857142,99.50736666666667,99.56851428571429,99.5492,0.008000000000000007,-0.1363333333333333,-0.18980000000000002,0.034599999999999964,-0.03166666666666629,-0.05571428571428072,1.5015,1.5195000000000003,38.881,30.085,38.745000000000005,35.7375,56.413,35.5035,59.9265,53.312,54.317,34.588499999999996,58.4895,51.601,53.452,34.1035,58.374,50.989333333333335,-0.051999999999999935,-0.11149999999999993,0.10035000000000001,0.113015,0.0,216.825,216.75,213.55333333333334,213.55333333333334,0.0,0.0
28,0.0,0.0,0.0,1.0,1.0,0.0,0.0,1.0,0.0,100.0,1.0,1.1856,26.0,0.0,0.0,0.0,59.999996,0.0,26.0,26.0,26.0,26.0,-0.0982222222222221,0.2541,-0.047725000000000004,291.901,-2.6538,-2.7262500000000003,-1.5179,-1.6224,-180.88,215.9625,190.380875,0.0,0.0,0.0,0.0,0.0567,-5.498166666666667,-5.498166666666667,-0.5988,0.6605,-0.06633333333333358,-0.5109999999999999,69.392,-0.082,-0.21305000000000002,0.9340000000000002,100.0,1.0,1.0,214.0233333333333,0.0,0.0,0.0,0.0,0.0,0.0,0.0,9071.7,0.0,55.0,5.0,249.78333333333336,0.0,0.0,0.0,0.0,0.0,0.0,0.0,0.0,1.407,1.407,0.0,0.0,0.0,55.0,616.79921,10000.0,85.000001,85.000001,85.000001,85.000001,395.0,0.0,0.0,0.0,1.0,166.665,51.849000000000004,51.849000000000004,47.44,47.44,34.0,-28.345,19.733333333333334,-33.36666666666667,24.005,0.0,1782.05,0.1999999999999993,100.0,29.02,28.16,44.15,43.237,0.0,0.0,100.0,0.0,0.0,0.0,0.0,3299.75,2919.9,4189.444444444444,4068.3,304.89633333333336,305.3855,314.8015,314.80225,22.0707,20.6591,22.0495,21.567,314.999998,314.999998,324.999988,324.999988,99.56067142857142,99.50738333333334,99.56865714285715,99.54934285714286,0.011333333333333417,-0.14200000000000002,-0.20400000000000001,0.016000000000000014,-0.04999999999999716,-0.04142857142856826,1.5185,1.557,38.942,30.119333333333334,38.809,35.7935,56.397999999999996,35.5465,59.962,53.368,54.302,34.628,58.522999999999996,51.6545,53.436,34.1415,58.403999999999996,51.041333333333334,-0.06999999999999995,-0.10099999999999998,0.10627,0.110685,0.0,217.29500000000002,217.20499999999998,214.0233333333333,214.0233333333333,0.0,0.0
29,0.0,0.0,0.0,1.0,1.0,0.0,0.0,1.0,0.0,100.0,1.0,1.1856,26.0,0.0,0.0,0.0,59.999996,0.0,26.0,26.0,26.0,26.0,-0.09433333333333338,0.2594000000000001,0.042725,291.519,-2.5991,-2.775625,-1.553,-1.6004,-177.55,215.96,190.356,0.0,0.0,0.0,0.0,0.05863333333333334,-5.498166666666667,-5.498166666666667,-0.6056,-0.748,-0.061666666666666536,-0.6930000000000001,69.519,-0.0772,-0.215925,0.6779999999999999,100.0,1.0,1.0,214.24666666666667,0.0,0.0,0.0,0.0,0.0,0.0,0.0,9081.2,0.0,55.0,5.0,250.24333333333334,1.0,0.0,0.0,0.0,0.0,0.0,0.0,0.0,1.4549999999999983,1.4549999999999983,0.0,0.0,1.0,55.0,616.79921,10000.0,85.000001,85.000001,85.000001,85.000001,395.0,0.0,0.0,0.0,1.0,333.33500000000004,51.758,51.758,46.524,46.524,34.0,-28.3875,21.39333333333333,-34.55333333333333,25.485,0.0,1782.0,0.129999999999999,100.0,28.693,28.03,44.522,43.527,0.0,0.0,100.0,0.0,0.0,0.0,0.0,3357.5,3042.2,4313.555555555556,4168.3,304.81333333333333,304.92275,314.372,314.493,22.0796,20.6642,22.0595,21.5757,314.999998,314.999998,324.999988,324.999988,99.56068571428571,99.5074,99.5688,99.54948571428571,0.0086666666666666,-0.1383333333333333,-0.1852,0.02959999999999985,-0.03999999999999915,-0.04285714285714448,1.4689999999999999,1.4885000000000002,38.998000000000005,30.151333333333334,38.872,35.8485,56.379999999999995,35.585,60.0015,53.4245,54.286,34.664,58.56,51.7085,53.419,34.1755,58.438,51.09433333333333,-0.07299999999999995,-0.09450000000000003,0.099845,0.1014,0.0,217.63,217.555,214.24666666666667,214.24666666666667,0.0,0.0
30,0.0,0.0,0.0,1.0,1.0,0.0,0.0,1.0,0.0,100.0,1.0,1.1856,26.0,0.0,0.0,0.0,59.999996,0.0,26.0,26.0,26.0,26.0,-0.0812222222222222,0.2562,0.031,291.046,-2.6542,-2.6626250000000002,-1.4942,-1.6578,-174.20999999999998,215.9525,190.331,0.0,0.0,0.0,0.0,0.060566666666666664,-5.498166666666667,-5.498166666666667,-0.6043000000000001,0.781,-0.06388888888888866,-0.687,69.64,-0.06770000000000001,-0.21845,0.5839999999999996,100.0,1.0,1.0,214.68,0.0,0.0,0.0,0.0,0.0,0.0,0.0,9099.6,0.0,55.0,5.0,250.68,0.0,0.0,0.0,0.0,0.0,0.0,1.0,0.0,1.5030000000000001,1.5030000000000001,0.0,0.0,0.0,55.0,616.79921,10000.0,85.000001,85.000001,85.000001,85.000001,395.0,0.0,0.0,0.0,1.0,166.665,50.812,50.812,46.89,46.89,34.0,-29.45,20.796666666666667,-33.78666666666666,27.015,0.0,1781.954,0.030000000000001137,100.0,29.602,28.789,44.357,43.534,0.0,0.0,100.0,0.0,0.0,0.0,0.0,3497.0,3021.4,4329.666666666667,4196.8,304.346,305.01975,314.4085,314.3795,22.0889,20.6696,22.0693,21.5844,314.999998,314.999998,324.999988,324.999988,99.56068571428571,99.50741666666667,99.56894285714286,99.54962857142857,0.028999999999999915,-0.1233333333333334,-0.18580000000000002,0.03859999999999997,-0.054999999999999716,-0.04999999999999716,1.4675,1.5030000000000001,39.055,30.185000000000002,38.933,35.9025,56.367999999999995,35.626999999999995,60.036500000000004,53.479,54.275,34.7025,58.5925,51.760999999999996,53.407,34.2125,58.468,51.14533333333333,-0.08399999999999996,-0.08750000000000013,0.111905,0.105715,0.0,218.04500000000002,217.99,214.68,214.68,0.0,0.0
31,0.0,0.0,0.0,1.0,1.0,0.0,0.0,1.0,0.0,100.0,1.0,1.1856,26.0,0.0,0.0,0.0,59.999996,0.0,26.0,26.0,26.0,26.0,-0.07711111111111102,0.2549000000000001,0.0099,291.0,-2.7168,-2.646875,-1.5828,-1.6499000000000001,-170.66,215.945,190.305125,0.0,0.0,0.0,0.0,0.06266666666666666,-5.498166666666667,-5.498166666666667,-0.5903,-0.6505000000000001,-0.05111111111111155,0.6680000000000001,69.772,-0.0511,-0.22045,0.23399999999999999,100.0,1.0,1.0,214.98333333333335,0.0,0.0,0.0,0.0,0.0,0.0,0.0,9112.4,0.0,55.0,5.0,251.15333333333334,1.0,0.0,0.0,0.0,0.0,0.0,1.0,0.0,1.5539999999999985,1.5539999999999985,0.0,0.0,1.0,55.0,616.79921,10000.0,85.000001,85.000001,85.000001,85.000001,395.0,0.0,0.0,0.0,1.0,166.665,51.528999999999996,51.528999999999996,45.532,45.532,34.0,-26.21,22.265,-33.846666666666664,29.5075,0.0,1781.903,-0.004999999999999005,100.0,29.377,28.686,45.13,44.085,0.0,0.0,100.0,0.0,0.0,0.0,0.0,3149.625,3159.7,4396.222222222223,4287.2,305.4066666666667,305.00975,314.14175,314.3695,22.098399999999998,20.6752,22.08,21.5938,314.999998,314.999998,324.999988,324.999988,99.56068571428571,99.50743333333334,99.5691,99.54977142857143,0.03833333333333311,-0.10166666666666657,-0.1482,0.07499999999999996,-0.03499999999999659,-0.048571428571428044,1.4655,1.46,39.114999999999995,30.220333333333336,39.0,35.9615,56.352000000000004,35.6695,60.079,53.54,54.259,34.742,58.632,51.82,53.391,34.2505,58.5045,51.203,-0.08650000000000002,-0.08099999999999996,0.10281000000000001,0.111295,0.0,218.39499999999998,218.37,214.98333333333335,214.98333333333335,0.0,0.0
32,0.0,0.0,0.0,1.0,1.0,0.0,0.0,1.0,0.0,100.0,1.0,1.1856,26.0,0.0,0.0,0.0,59.999996,0.0,26.0,26.0,26.0,26.0,-0.053333333333333344,0.2603,-0.0414,291.245,-2.6581,-2.742,-1.6106,-1.5563,-167.09,215.935,190.2795,0.0,0.0,0.0,0.0,0.06473333333333334,-5.498166666666667,-5.498166666666667,-0.6084,0.16449999999999998,-0.07444444444444454,-0.9450000000000001,69.899,-0.042300000000000004,-0.228075,0.2920000000000007,100.0,1.0,1.0,215.53,0.0,0.0,0.0,0.0,0.0,0.0,0.0,9135.5,0.0,55.0,5.0,251.61,0.0,0.0,0.0,0.0,0.0,0.0,1.0,0.0,1.6050000000000004,1.6050000000000004,0.0,0.0,0.0,55.0,616.79921,10000.0,85.000001,85.000001,85.000001,85.000001,395.0,0.0,0.0,0.0,1.0,333.33500000000004,51.178,51.178,46.631,46.631,34.0,-27.2525,22.958333333333332,-32.623333333333335,26.0925,0.0,1781.852,-0.08500000000000085,100.0,29.219,28.863,44.608000000000004,43.964,0.0,0.0,100.0,0.0,0.0,0.0,0.0,3381.5,3043.4,4247.333333333333,4145.5,304.75866666666667,305.0185,314.69475,314.7245,22.1079,20.6809,22.0904,21.603,314.999998,314.999998,324.999988,324.999988,99.5607,99.50743333333334,99.56925714285714,99.54991428571428,0.051000000000000156,-0.09166666666666656,-0.155,0.06359999999999988,-0.05333333333332746,-0.0357142857142847,1.5275,1.5425,39.174,30.255666666666666,39.065,36.019,56.338,35.712,60.115,53.5975,54.245999999999995,34.781,58.666,51.875,53.376000000000005,34.288,58.535,51.25666666666667,-0.08950000000000002,-0.07600000000000007,0.10791,0.09794000000000001,0.0,218.805,218.76999999999998,215.53,215.53,0.0,0.0
33,0.0,0.0,0.0,1.0,1.0,0.0,0.0,1.0,0.0,100.0,1.0,1.1856,26.0,0.0,0.0,0.0,59.999996,0.0,26.0,26.0,26.0,26.0,-0.04755555555555557,0.25560000000000005,-0.0223,291.397,-2.6718,-2.7342500000000003,-1.5462,-1.633,-163.53,215.9225,190.252875,0.0,0.0,0.0,0.0,0.0668,-5.498166666666667,-5.498166666666667,-0.6125,-0.4485000000000001,-0.06199999999999983,1.3519999999999999,70.03,-0.030600000000000002,-0.21675,0.0940000000000003,100.0,1.0,1.0,215.82,0.0,0.0,0.0,0.0,0.0,0.0,0.0,9147.8,0.0,55.0,5.0,252.08333333333334,1.0,0.0,0.0,0.0,0.0,0.0,1.0,0.0,1.6559999999999988,1.6559999999999988,0.0,0.0,1.0,55.0,616.79921,10000.0,85.000001,85.000001,85.000001,85.000001,395.0,0.0,0.0,0.0,1.0,166.665,51.834,51.834,46.509,46.509,34.0,-24.537499999999998,23.041666666666668,-31.38,29.79,0.0,1781.801,-0.134999999999998,100.0,29.137999999999998,28.379,44.647,43.976,0.0,0.0,100.0,0.0,0.0,0.0,0.0,3118.375,3043.1,4210.444444444444,4307.0,305.37766666666664,305.21025,314.57,314.2785,22.1173,20.6864,22.1009,21.6123,314.999998,314.999998,324.999988,324.999988,99.5607,99.50745,99.5694,99.55007142857143,0.06466666666666665,-0.08299999999999996,-0.1442,0.08200000000000007,-0.051666666666669414,-0.03714285714285381,1.48,1.4809999999999999,39.233000000000004,30.29,39.129999999999995,36.077,56.322,35.7505,60.153,53.657,54.230999999999995,34.8165,58.701499999999996,51.932,53.361000000000004,34.322,58.567499999999995,51.312,-0.09650000000000003,-0.07200000000000006,0.11128,0.10183500000000001,0.0,219.20499999999998,219.18,215.82,215.82,0.0,0.0
34,0.0,0.0,0.0,1.0,1.0,0.0,0.0,1.0,0.0,100.0,1.0,1.1856,26.0,0.0,0.0,0.0,59.999996,0.0,26.0,26.0,26.0,26.0,-0.021888888888888847,0.2518,-0.061500000000000006,291.809,-2.69,-2.71325,-1.61165,-1.5884,-159.95,215.91,190.224875,0.0,0.0,0.0,0.0,0.06886666666666666,-5.498166666666667,-5.498166666666667,-0.6452,-0.7929999999999999,-0.03022222222222215,0.0,70.157,-0.019700000000000002,-0.226075,0.11399999999999988,100.0,1.0,1.0,216.29000000000002,0.0,0.0,0.0,0.0,0.0,0.0,0.0,9167.8,0.0,55.0,5.0,252.54000000000002,0.0,0.0,0.0,0.0,0.0,0.0,1.0,0.0,1.7070000000000007,1.7070000000000007,0.0,0.0,0.0,55.0,616.79921,10000.0,85.000001,85.000001,85.000001,85.000001,395.0,0.0,0.0,0.0,1.0,166.665,52.17,52.17,47.302,47.302,34.0,-24.7025,22.581666666666667,-30.41,27.8425,0.0,1781.75,-0.129999999999999,100.0,28.686,28.267,44.248000000000005,44.122,0.0,0.0,100.0,0.0,0.0,0.0,0.0,3144.5,2952.2,4081.222222222222,4117.5,305.35833333333335,305.31175,315.018,314.6525,22.1267,20.6919,22.1112,21.6216,314.999998,314.999998,324.999988,324.999988,99.56071428571428,99.50746666666667,99.56955714285715,99.55021428571429,0.06866666666666665,-0.07533333333333336,-0.1384,0.08860000000000001,-0.04999999999999716,-0.05285714285714249,1.525,1.5345,39.292,30.324333333333335,39.195,36.135,56.307,35.7885,60.188,53.7155,54.216,34.8515,58.734,51.9885,53.345,34.3555,58.597,51.367,-0.09750000000000003,-0.06499999999999995,0.10795500000000001,0.10705,0.0,219.59,219.55,216.29000000000002,216.29000000000002,0.0,0.0
35,0.0,0.0,0.0,1.0,1.0,0.0,0.0,1.0,0.0,100.0,1.0,1.1856,26.0,0.0,0.0,0.0,59.999996,0.0,26.0,26.0,26.0,26.0,-0.01200000000000001,0.24770000000000003,-0.061275,291.733,-2.6917999999999997,-2.6665,-1.5817999999999999,-1.6002,-156.57999999999998,215.8975,190.196625,0.0,0.0,0.0,0.0,0.07083333333333335,-5.498166666666667,-5.498166666666667,-0.6839000000000001,-0.37450000000000006,-0.037555555555555564,-1.0459999999999998,70.277,-0.011000000000000001,-0.2293,0.016000000000000014,100.0,1.0,1.0,216.72,0.0,0.0,0.0,0.0,0.0,0.0,0.0,9185.9,0.0,55.0,5.0,252.97,1.0,0.0,0.0,0.0,0.0,0.0,1.0,0.0,1.754999999999999,1.754999999999999,0.0,0.0,1.0,55.0,616.79921,10000.0,85.000001,85.000001,85.000001,85.000001,395.0,0.0,0.0,0.0,1.0,333.33500000000004,51.575,51.575,46.936,46.936,34.0,-25.375,25.183333333333334,-29.28,27.3525,0.0,1781.7,-0.10500000000000043,100.0,28.482,28.561,43.994,43.683,0.0,0.0,100.0,0.0,0.0,0.0,0.0,3237.0,3270.7,4058.1111111111113,3959.2,305.167,304.38725,315.01375,315.07325,22.1353,20.6973,22.1209,21.6302,314.999998,314.999998,324.999988,324.999988,99.56072857142857,99.50746666666667,99.56968571428571,99.55035714285714,0.07066666666666643,-0.06899999999999995,-0.1276,0.10319999999999996,-0.05333333333332746,-0.04999999999999716,1.5445,1.5420000000000003,39.346000000000004,30.358,39.256,36.1885,56.29,35.826,60.2205,53.7675,54.201,34.8865,58.7645,52.039,53.329,34.388999999999996,58.6245,51.416,-0.08699999999999997,-0.07750000000000012,0.11152000000000001,0.10544500000000001,0.0,219.96,219.93,216.72,216.72,0.0,0.0
36,0.0,0.0,0.0,1.0,1.0,0.0,0.0,1.0,0.0,100.0,1.0,1.1856,26.0,0.0,0.0,0.0,59.999996,0.0,26.0,26.0,26.0,26.0,-0.02444444444444449,0.26380000000000003,0.051500000000000004,290.802,-2.7434,-2.630125,-1.5479,-1.5958999999999999,-153.2,215.885,190.166875,0.0,0.0,0.0,0.0,0.0728,-5.498166666666667,-5.498166666666667,-0.6639,0.33999999999999997,-0.07644444444444431,-1.388,70.399,-0.008700000000000001,-0.199275,0.23600000000000065,100.0,1.0,1.0,216.85666666666668,0.0,0.0,0.0,0.0,0.0,0.0,0.0,9191.8,0.0,55.0,5.0,253.41,0.0,0.0,0.0,0.0,0.0,0.0,1.0,0.0,1.8030000000000008,1.8030000000000008,0.0,0.0,0.0,55.0,616.79921,10000.0,85.000001,85.000001,85.000001,85.000001,395.0,0.0,0.0,0.0,1.0,166.665,51.208,51.208,46.126999999999995,46.126999999999995,34.0,-27.09,23.41,-33.00666666666667,31.73,0.0,1781.654,-0.129999999999999,100.0,29.027,28.942,44.108000000000004,44.01,0.0,0.0,100.0,0.0,0.0,0.0,0.0,3399.375,3098.9,4544.0,4488.2,304.8063333333333,304.9135,313.9105,313.8015,22.144199999999998,20.7028,22.1307,21.639,314.999998,314.999998,324.999988,324.999988,99.56072857142857,99.50748333333334,99.56982857142857,99.5505,0.07399999999999984,-0.06733333333333336,-0.1186,0.0948,-0.04333333333332945,-0.03285714285714647,1.43,1.443,39.400999999999996,30.392333333333333,39.317,36.2435,56.278,35.8655,60.256,53.823499999999996,54.189,34.923,58.7975,52.093,53.316,34.424,58.6545,51.468666666666664,-0.09399999999999997,-0.07400000000000007,0.10309000000000001,0.10819000000000001,0.0,220.35500000000002,220.345,216.85666666666668,216.85666666666668,0.0,0.0
