,ABS Active,ABS Enabled,AID Allow Tire Blankets,AID Auto Blip,AID Auto Clutch,AID Auto Shift,AID Fuel Rate,AID Ideal Line,AID Mech Damage,AID Stability,AID Tire Wear Rate,Air Density,Air Temp,Ballast,Best Lap Delta,Best Lap Time,Brake Bias,Brake Pos,Brake Temp FL,Brake Temp FR,Brake Temp RL,Brake Temp RR,CG Accel Lateral,CG Accel Longitudinal,CG Accel Vertical,CG Height,Camber FL,Camber FR,Camber RL,Camber RR,Car Coord X,Car Coord Y,Car Coord Z,Car Damage Front,Car Damage Left,Car Damage Rear,Car Damage Right,Car Pos Norm,Caster FL,Caster FR,Chassis Pitch Angle,Chassis Pitch Rate,Chassis Roll Angle,Chassis Roll Rate,Chassis Velocity X,Chassis Velocity Y,Chassis Velocity Z,Chassis Yaw Rate,Clutch Pos,DRS Active,DRS Available,Drive Train Speed,ERS Heat Charging,ERS Is Charging,ERS Max Energy,ERS Power Level,ERS Recovery Level,Engine Brake Setting,Engine Limiter,Engine RPM,Flags,Fuel Level,Gear,Ground Speed,HR Sample Clock,In Pit,KERS Charge,KERS Deployed Energy,KERS Input,KERS Max Energy,LR Sample Clock,Lap Invalidated,Lap Time,Lap Time2,Last Lap Time,Last Sector Time,MR Sample Clock,Max Fuel,Max Power,Max RPM,Max Sus Travel FL,Max Sus Travel FR,Max Sus Travel RL,Max Sus Travel RR,Max Torque,Max Turbo Boost,Num Tires Off Track,Penalties Enabled,Position,Raw Data Sample Rate,Ride Height FL,Ride Height FR,Ride Height RL,Ride Height RR,Road Temp,Self Align Torque FL,Self Align Torque FR,Self Align Torque RL,Self Align Torque RR,Session Lap Count,Session Time Left,Steering Angle,Surface Grip,Suspension Travel FL,Suspension Travel FR,Suspension Travel RL,Suspension Travel RR,TC Active,TC Enabled,Throttle Pos,Tire Dirt Level FL,Tire Dirt Level FR,Tire Dirt Level RL,Tire Dirt Level RR,Tire Load FL,Tire Load FR,Tire Load RL,Tire Load RR,Tire Loaded Radius FL,Tire Loaded Radius FR,Tire Loaded Radius RL,Tire Loaded Radius RR,Tire Pressure FL,Tire Pressure FR,Tire Pressure RL,Tire Pressure RR,Tire Radius FL,Tire Radius FR,Tire Radius RL,Tire Radius RR,Tire Rubber Grip FL,Tire Rubber Grip FR,Tire Rubber Grip RL,Tire Rubber Grip RR,Tire Slip Angle FL,Tire Slip Angle FR,Tire Slip Angle RL,Tire Slip Angle RR,Tire Slip Ratio FL,Tire Slip Ratio FR,Tire Slip Ratio RL,Tire Slip Ratio RR,Tire Temp Core FL,Tire Temp Core FR,Tire Temp Core RL,Tire Temp Core RR,Tire Temp Inner FL,Tire Temp Inner FR,Tire Temp Inner RL,Tire Temp Inner RR,Tire Temp Middle FL,Tire Temp Middle FR,Tire Temp Middle RL,Tire Temp Middle RR,Tire Temp Outer FL,Tire Temp Outer FR,Tire Temp Outer RL,Tire Temp Outer RR,Toe In FL,Toe In FR,Toe In RL,Toe In RR,Turbo Boost,Wheel Angular Speed FL,Wheel Angular Speed FR,Wheel Angular Speed RL,Wheel Angular Speed RR,Wind Direction,Wind Speed
0,0.0,0.0,0.0,1.0,1.0,0.0,0.0,1.0,0.0,100.0,1.0,1.1856,26.0,0.0,0.0,0.0,59.99999,0.0,26.0,26.0,26.0,26.0,-0.07911111111111102,0.33150000000000013,0.226825,293.488,-2.7367,-2.479222222222222,-1.5064000000000002,-1.5239,-275.42,215.885,190.986,0.0,0.0,0.0,0.0,0.0017333333333333333,-5.498166666666667,-5.498166666666667,-0.5457000000000001,2.168,-0.01866666666666683,-1.71,65.493,-0.0383,-0.21245,0.5520000000000005,100.0,1.0,1.0,202.18,0.0,0.0,0.0,0.0,0.0,0.0,0.0,8569.6,0.0,55.0,5.0,235.74666666666667,0.0,0.0,0.0,0.0,0.0,0.0,0.0,0.0,0.006000000000000227,0.006000000000000227,0.0,0.0,0.0,55.0,616.79921,10000.0,85.0,85.0,85.0,85.0,395.0,0.0,0.0,0.0,1.0,20.0,51.758,51.758,48.782,48.782,34.0,-29.16,24.432000000000002,-31.03,25.12,0.0,1783.433,0.6000000000000014,100.0,27.242,27.325,40.445,40.192,0.0,0.0,100.0,0.0,0.0,0.0,0.0,3266.0,3714.0,4252.7,4051.0,304.962,302.7825,314.56075,314.72975,21.7739,20.5062,21.7631,21.3163,314.99999,314.99999,324.99998,324.99998,99.55875714285715,99.50691666666667,99.56461428571428,99.54528571428571,-0.0015000000000000568,-0.119,-0.15166666666666662,0.06750000000000012,-0.060000000000002274,-0.07000000000000028,1.5155,1.5619999999999998,37.087,29.164,37.019,34.227000000000004,56.209,34.292,58.854,51.641999999999996,54.141999999999996,33.4915,57.4885,49.995,53.325,33.074,57.451499999999996,49.415333333333336,-0.03400000000000003,-0.125,0.10469,0.10627,0.0,205.275,205.215,202.18,202.18,0.0,0.0
1,0.0,0.0,0.0,1.0,1.0,0.0,0.0,1.0,0.0,100.0,1.0,1.1856,26.0,0.0,0.0,0.0,59.999996,0.0,26.0,26.0,26.0,26.0,-0.1256666666666666,0.2942,0.051050000000000005,293.091,-2.6494999999999997,-2.8049999999999997,-1.5433,-1.3785,-272.08,215.89,190.96625,0.0,0.0,0.0,0.0,0.0037,-5.498166666666667,-5.498166666666667,-0.4884,-1.7885,-0.05666666666666664,-0.29500000000000004,65.651,-0.044000000000000004,-0.20017500000000002,1.0279999999999996,100.0,1.0,1.0,202.22,0.0,0.0,0.0,0.0,0.0,0.0,0.0,8571.4,0.0,55.0,5.0,236.31333333333333,1.0,0.0,0.0,0.0,0.0,0.0,0.0,0.0,0.05699999999999861,0.05699999999999861,0.0,0.0,1.0,55.0,616.79921,10000.0,85.000001,85.000001,85.000001,85.000001,395.0,0.0,0.0,0.0,1.0,166.665,54.397999999999996,54.397999999999996,48.263999999999996,48.263999999999996,34.0,-25.175,17.456,-36.0325,27.8925,0.0,1783.382,0.7100000000000009,100.0,27.349,26.652,42.496,42.438,0.0,0.0,100.0,0.0,0.0,0.0,0.0,2909.714285714286,2516.5,4493.7,4874.9,305.931,306.9245,313.7505,312.531,21.7837,20.5111,21.774,21.3256,314.999998,314.999998,324.999988,324.999988,99.55875714285715,99.50693333333334,99.56475714285715,99.54542857142857,-0.008750000000000036,-0.1226666666666667,-0.16999999999999993,0.03716666666666679,-0.02499999999999858,-0.03999999999999915,1.327,1.3784999999999998,37.147999999999996,29.194333333333333,37.088,34.285,56.191,34.329499999999996,58.9025,51.710499999999996,54.126000000000005,33.525999999999996,57.534,50.061,53.308,33.1075,57.4945,49.480000000000004,-0.010499999999999954,-0.12850000000000006,0.104895,0.09678,0.0,205.67000000000002,205.565,202.22,202.22,0.0,0.0
2,0.0,0.0,0.0,1.0,1.0,0.0,0.0,1.0,0.0,100.0,1.0,1.1856,26.0,0.0,0.0,0.0,59.999996,0.0,26.0,26.0,26.0,26.0,-0.0982222222222221,0.3066,-0.12127500000000001,294.22,-2.6237,-2.76,-1.5119500000000001,-1.6146,-268.73,215.89,190.9475,0.0,0.0,0.0,0.0,0.005633333333333334,-5.498166666666667,-5.498166666666667,-0.5638000000000001,0.7175,-0.028777777777778013,1.653,65.788,-0.0563,-0.256525,1.3960000000000008,100.0,1.0,1.0,203.45333333333332,0.0,0.0,0.0,0.0,0.0,0.0,0.0,8623.6,0.0,55.0,5.0,236.80666666666667,0.0,0.0,0.0,0.0,0.0,0.0,0.0,0.0,0.10800000000000054,0.10800000000000054,0.0,0.0,0.0,55.0,616.79921,10000.0,85.000001,85.000001,85.000001,85.000001,395.0,0.0,0.0,0.0,1.0,166.665,52.551,52.551,50.964,50.964,34.0,-29.987499999999997,20.224,-27.02,19.7425,0.0,1783.33,0.7800000000000011,100.0,27.988,26.957,41.811,41.075,0.0,0.0,100.0,0.0,0.0,0.0,0.0,3354.5714285714284,2979.1,3609.7,3516.1,304.61,305.252,316.0465,316.25925,21.7938,20.5161,21.7843,21.3341,314.999998,314.999998,324.999988,324.999988,99.55875714285715,99.50695,99.5649,99.54555714285715,-0.020499999999999963,-0.14500000000000002,-0.2048333333333333,0.03133333333333321,-0.06833333333332803,-0.07000000000000028,1.7175,1.774,37.211,29.225666666666665,37.152,34.338,56.178,34.3705,58.938,51.760999999999996,54.113,33.5635,57.567,50.1095,53.295,33.1435,57.5245,49.52766666666667,-0.019000000000000017,-0.135,0.105605,0.11205500000000002,0.0,206.15,206.05,203.45333333333332,203.45333333333332,0.0,0.0
3,0.0,0.0,0.0,1.0,1.0,0.0,0.0,1.0,0.0,100.0,1.0,1.1856,26.0,0.0,0.0,0.0,59.999996,0.0,26.0,26.0,26.0,26.0,-0.125,0.2944,-0.030600000000000002,293.427,-2.645,-2.6894444444444443,-1.5018500000000001,-1.5794000000000001,-265.57,215.8875,190.9285,0.0,0.0,0.0,0.0,0.0074666666666666675,-5.498166666666667,-5.498166666666667,-0.503,0.46499999999999986,-0.01577777777777767,-1.751,65.934,-0.0713,-0.19045,1.154,100.0,1.0,1.0,203.36333333333334,0.0,0.0,0.0,0.0,0.0,0.0,0.0,8619.8,0.0,55.0,5.0,237.33333333333331,1.0,0.0,0.0,0.0,0.0,0.0,0.0,0.0,0.1559999999999988,0.1559999999999988,0.0,0.0,1.0,55.0,616.79921,10000.0,85.000001,85.000001,85.000001,85.000001,395.0,0.0,0.0,0.0,1.0,333.33500000000004,53.589,53.589,48.004,48.004,34.0,-26.6025,17.636,-35.965,24.8425,0.0,1783.281,0.8350000000000009,100.0,27.576,27.054000000000002,42.121,41.488,0.0,0.0,100.0,0.0,0.0,0.0,0.0,2993.0,2791.3,4477.2,4226.1,305.836,305.73125,313.94175,314.3075,21.803,20.521,21.7941,21.3425,314.999998,314.999998,324.999988,324.999988,99.55875714285715,99.50696666666667,99.56502857142857,99.54568571428571,-0.030000000000000027,-0.16133333333333333,-0.1971666666666666,0.019166666666666554,-0.05333333333332746,-0.051666666666669414,1.4485000000000001,1.5030000000000001,37.268,29.256333333333334,37.213,34.391,56.162,34.411,58.977000000000004,51.8225,54.098,33.6015,57.603,50.1685,53.278999999999996,33.1795,57.558,49.58533333333334,-0.013499999999999956,-0.13850000000000007,0.10596000000000001,0.09846,0.0,206.62,206.525,203.36333333333334,203.36333333333334,0.0,0.0
4,0.0,0.0,0.0,1.0,1.0,0.0,0.0,1.0,0.0,100.0,1.0,1.1856,26.0,0.0,0.0,0.0,59.999996,0.0,26.0,26.0,26.0,26.0,-0.1486666666666666,0.2902,-0.0328,293.671,-2.6624,-2.788777777777778,-1.4405000000000001,-1.5947,-262.2,215.8825,190.909,0.0,0.0,0.0,0.0,0.009433333333333334,-5.498166666666667,-5.498166666666667,-0.5364,-0.8694999999999999,-0.07399999999999984,-0.028000000000000025,66.081,-0.0806,-0.2366,1.436,100.0,1.0,1.0,203.96333333333334,0.0,0.0,0.0,0.0,0.0,0.0,0.0,8645.2,0.0,55.0,5.0,237.86333333333334,0.0,0.0,0.0,0.0,0.0,0.0,0.0,0.0,0.20700000000000074,0.20700000000000074,0.0,0.0,0.0,55.0,616.79921,10000.0,85.000001,85.000001,85.000001,85.000001,395.0,0.0,0.0,0.0,1.0,333.33500000000004,53.299,53.299,48.813,48.813,34.0,-29.2725,19.845999999999997,-31.807499999999997,21.28,0.0,1783.23,0.7899999999999991,100.0,27.595,26.524,42.842,41.513,0.0,0.0,100.0,0.0,0.0,0.0,0.0,3208.5714285714284,2935.8,4128.4,3768.3,305.035,305.5405,314.72325,315.45625,21.8128,20.526,21.8048,21.3515,314.999998,314.999998,324.999988,324.999988,99.55875714285715,99.50698333333334,99.56517142857143,99.54582857142857,-0.030249999999999888,-0.14866666666666672,-0.2051666666666666,0.015333333333333421,-0.03999999999999915,-0.03999999999999915,1.5514999999999999,1.609,37.33,29.287666666666667,37.28,34.4465,56.147,34.453,59.0195,51.882,54.083,33.6395,57.6435,50.2255,53.263,33.216,57.5955,49.641333333333336,-0.005499999999999949,-0.133,0.10681500000000001,0.10425500000000001,0.0,207.0,206.89499999999998,203.96333333333334,203.96333333333334,0.0,0.0
5,0.0,0.0,0.0,1.0,1.0,0.0,0.0,1.0,0.0,100.0,1.0,1.1856,26.0,0.0,0.0,0.0,59.999996,0.0,26.0,26.0,26.0,26.0,-0.12744444444444447,0.31279999999999997,-0.026000000000000002,293.854,-2.6884,-2.745888888888889,-1.49025,-1.6147,-258.83,215.875,190.888875,0.0,0.0,0.0,0.0,0.0114,-5.498166666666667,-5.498166666666667,-0.5372,0.4484999999999999,-0.07122222222222208,-0.45099999999999996,66.227,-0.0952,-0.21602500000000002,1.42,100.0,1.0,1.0,204.46333333333334,0.0,0.0,0.0,0.0,0.0,0.0,0.0,8666.5,0.0,55.0,5.0,238.38666666666666,1.0,0.0,0.0,0.0,0.0,0.0,0.0,0.0,0.2579999999999991,0.2579999999999991,0.0,0.0,1.0,55.0,616.79921,10000.0,85.000001,85.000001,85.000001,85.000001,395.0,0.0,0.0,0.0,1.0,333.33500000000004,53.513,53.513,49.271,49.271,34.0,-29.475,18.406,-32.91,21.975,0.0,1783.18,0.4450000000000003,100.0,27.532,26.583,42.409,41.107,0.0,0.0,100.0,0.0,0.0,0.0,0.0,3226.285714285714,2798.9,4089.4,3961.5,305.1165,305.7905,314.91225,315.0035,21.8227,20.5311,21.8151,21.3602,314.999998,314.999998,324.999988,324.999988,99.55877142857143,99.50701666666667,99.56532857142857,99.54597142857143,-0.02949999999999986,-0.15333333333333332,-0.22333333333333338,-0.0018333333333333535,-0.04333333333332945,-0.03833333333332689,1.536,1.6124999999999998,37.391999999999996,29.319333333333333,37.345,34.501,56.132999999999996,34.494,59.0585,51.939,54.07,33.6775,57.68,50.28,53.248999999999995,33.2525,57.6295,49.69466666666666,-0.03500000000000003,-0.1100000000000001,0.102315,0.10543000000000001,0.0,207.515,207.37,204.46333333333334,204.46333333333334,0.0,0.0
6,0.0,0.0,0.0,1.0,1.0,0.0,0.0,1.0,0.0,100.0,1.0,1.1856,26.0,0.0,0.0,0.0,59.999996,0.0,26.0,26.0,26.0,26.0,-0.14800000000000002,0.2984,0.0131,293.579,-2.6325,-2.8065555555555557,-1.5422,-1.5828,-255.45,215.8625,190.868125,0.0,0.0,0.0,0.0,0.013366666666666666,-5.498166666666667,-5.498166666666667,-0.526,-0.1499999999999999,-0.07277777777777805,0.8460000000000001,66.375,-0.09720000000000001,-0.205375,1.024,100.0,1.0,1.0,204.76999999999998,0.0,0.0,0.0,0.0,0.0,0.0,0.0,8679.5,0.0,55.0,5.0,238.92333333333335,0.0,0.0,0.0,0.0,0.0,0.0,0.0,0.0,0.30900000000000105,0.30900000000000105,0.0,0.0,0.0,55.0,616.79921,10000.0,85.000001,85.000001,85.000001,85.000001,395.0,0.0,0.0,0.0,1.0,166.665,53.65,53.65,48.522999999999996,48.522999999999996,34.0,-27.6125,19.744,-34.75,23.345,0.0,1783.129,0.3999999999999986,100.0,27.623,26.362000000000002,42.798,41.312,0.0,0.0,100.0,0.0,0.0,0.0,0.0,3093.4285714285716,2866.7,4241.6,4111.8,305.322,305.7365,314.44825,314.677,21.8325,20.5361,21.8257,21.3691,314.999998,314.999998,324.999988,324.999988,99.55877142857143,99.50701666666667,99.56547142857143,99.54611428571428,-0.023499999999999854,-0.1416666666666666,-0.20950000000000002,0.009666666666666712,-0.03833333333332689,-0.054999999999999716,1.5025,1.5455,37.453,29.350666666666665,37.41,34.557,56.117999999999995,34.535,59.101,52.0,54.055,33.7155,57.7195,50.338499999999996,53.233999999999995,33.2885,57.666,49.752,-0.04149999999999998,-0.09850000000000003,0.10476500000000001,0.107255,0.0,207.945,207.84,204.76999999999998,204.76999999999998,0.0,0.0
7,0.0,0.0,0.0,1.0,1.0,0.0,0.0,1.0,0.0,100.0,1.0,1.1856,26.0,0.0,0.0,0.0,59.999996,0.0,26.0,26.0,26.0,26.0,-0.11622222222222212,0.29490000000000016,-0.003725,293.564,-2.6007,-2.7955555555555556,-1.50195,-1.624,-252.26,215.8475,190.848875,0.0,0.0,0.0,0.0,0.0152,-5.498166666666667,-5.498166666666667,-0.5357000000000001,0.09299999999999997,-0.059222222222222065,1.1280000000000001,66.511,-0.0944,-0.22212500000000002,0.8540000000000001,100.0,1.0,1.0,205.28333333333333,0.0,0.0,0.0,0.0,0.0,0.0,0.0,8701.2,0.0,55.0,5.0,239.41,1.0,0.0,0.0,0.0,0.0,0.0,0.0,0.0,0.3569999999999993,0.3569999999999993,0.0,0.0,1.0,55.0,616.79921,10000.0,85.000001,85.000001,85.000001,85.000001,395.0,0.0,0.0,0.0,1.0,333.33500000000004,53.177,53.177,49.042,49.042,34.0,-26.52,20.922,-31.85,23.122500000000002,0.0,1783.08,-0.019999999999999574,100.0,27.906,26.63,42.735,41.449,0.0,0.0,100.0,0.0,0.0,0.0,0.0,3110.4285714285716,2949.8,4011.9,3978.6000000000004,305.208,305.43825,315.00375,314.97325,21.8419,20.5409,21.8355,21.3775,314.999998,314.999998,324.999988,324.999988,99.55877142857143,99.50705,99.5656,99.54624285714286,0.0024999999999999467,-0.1276666666666666,-0.21050000000000002,0.013500000000000068,-0.046666666666666856,-0.06333333333333258,1.539,1.5764999999999998,37.512,29.381,37.472,34.6095,56.105000000000004,34.574,59.138999999999996,52.0565,54.043,33.751,57.754999999999995,50.3925,53.22,33.3225,57.698499999999996,49.805,-0.0685,-0.08200000000000007,0.10451,0.10806,0.0,208.35000000000002,208.275,205.28333333333333,205.28333333333333,0.0,0.0
8,0.0,0.0,0.0,1.0,1.0,0.0,0.0,1.0,0.0,100.0,1.0,1.1856,26.0,0.0,0.0,0.0,59.999996,0.0,26.0,26.0,26.0,26.0,-0.07744444444444443,0.28049999999999997,-0.015925,293.564,-2.6843,-2.7255555555555557,-1.48485,-1.6168,-248.86,215.8275,190.828125,0.0,0.0,0.0,0.0,0.0172,-5.498166666666667,-5.498166666666667,-0.5389,-0.39449999999999985,-0.04988888888888887,-0.856,66.657,-0.0772,-0.219975,0.4120000000000008,100.0,1.0,1.0,205.68333333333334,0.0,0.0,0.0,0.0,0.0,0.0,0.0,8718.2,0.0,55.0,5.0,239.93333333333334,0.0,0.0,0.0,0.0,0.0,0.0,0.0,0.0,0.40800000000000125,0.40800000000000125,0.0,0.0,0.0,55.0,616.79921,10000.0,85.000001,85.000001,85.000001,85.000001,395.0,0.0,0.0,0.0,1.0,333.33500000000004,53.467,53.467,48.538,48.538,34.0,-26.8775,20.674,-31.43,24.535,0.0,1783.029,-0.08499999999999908,100.0,27.375,26.853,42.742000000000004,41.737,0.0,0.0,100.0,0.0,0.0,0.0,0.0,3141.857142857143,2907.0,4079.0,3981.2,305.458,305.4435,314.8895,314.87375,21.8516,20.5461,21.846,21.386499999999998,314.999998,314.999998,324.999988,324.999988,99.55878571428572,99.50705,99.56574285714285,99.54638571428572,0.008500000000000174,-0.1136666666666668,-0.1938333333333333,0.037833333333333385,-0.05833333333333002,-0.03833333333332689,1.53,1.533,37.572,29.413,37.538,34.6655,56.088,34.614,59.18,52.1165,54.027,33.788,57.7935,50.4505,53.204,33.358000000000004,57.734,49.861333333333334,-0.07899999999999996,-0.062000000000000055,0.10176,0.11024,0.0,208.79000000000002,208.735,205.68333333333334,205.68333333333334,0.0,0.0
9,0.0,0.0,0.0,1.0,1.0,0.0,0.0,1.0,0.0,100.0,1.0,1.1856,26.0,0.0,0.0,0.0,59.999996,0.0,26.0,26.0,26.0,26.0,-0.06311111111111112,0.2881,0.0238,293.213,-2.6073,-2.7350000000000003,-1.53895,-1.5684,-245.46,215.8075,190.80725,0.0,0.0,0.0,0.0,0.019166666666666665,-5.498166666666667,-5.498166666666667,-0.5349,0.534,-0.04988888888888887,0.9570000000000001,66.801,-0.0609,-0.21180000000000002,0.18799999999999972,100.0,1.0,1.0,206.13,0.0,0.0,0.0,0.0,0.0,0.0,0.0,8737.1,0.0,55.0,5.0,240.45,1.0,0.0,0.0,0.0,0.0,0.0,0.0,0.0,0.45899999999999963,0.45899999999999963,0.0,0.0,1.0,55.0,616.79921,10000.0,85.000001,85.000001,85.000001,85.000001,395.0,0.0,0.0,0.0,1.0,166.665,52.795,52.795,48.874,48.874,34.0,-25.1325,22.976,-30.509999999999998,25.872500000000002,0.0,1782.98,-0.28500000000000014,100.0,28.006,26.945,42.596000000000004,41.668,0.0,0.0,100.0,0.0,0.0,0.0,0.0,3173.0,3034.7,4083.5,4145.2,305.0825,305.20525,314.9095,314.61975,21.8614,20.5513,21.8564,21.3954,314.999998,314.999998,324.999988,324.999988,99.55878571428572,99.50706666666666,99.56588571428571,99.54652857142857,0.048249999999999904,-0.08133333333333326,-0.16266666666666663,0.057666666666666755,-0.05333333333332746,-0.06333333333333258,1.5505,1.5539999999999998,37.634,29.445999999999998,37.602999999999994,34.721000000000004,56.074,34.655,59.219,52.176,54.013999999999996,33.8255,57.829499999999996,50.5075,53.19,33.3935,57.7675,49.91733333333333,-0.10050000000000003,-0.0495000000000001,0.09642,0.11163000000000001,0.0,209.25,209.22,206.13,206.13,0.0,0.0
10,0.0,0.0,0.0,1.0,1.0,0.0,0.0,1.0,0.0,100.0,1.0,1.1856,26.0,0.0,0.0,0.0,59.999996,0.0,26.0,26.0,26.0,26.0,-0.02877777777777779,0.2932000000000001,-0.017825,293.243,-2.682,-2.698,-1.51215,-1.5437,-242.05,215.785,190.7865,0.0,0.0,0.0,0.0,0.021166666666666667,-5.498166666666667,-5.498166666666667,-0.5287000000000001,-0.6055000000000001,-0.016000000000000014,0.09000000000000008,66.946,-0.038700000000000005,-0.21477500000000002,-0.11600000000000055,100.0,1.0,1.0,206.47,0.0,0.0,0.0,0.0,0.0,0.0,0.0,8751.6,0.0,55.0,5.0,240.97666666666666,0.0,0.0,0.0,0.0,0.0,0.0,1.0,0.0,0.509999999999998,0.509999999999998,0.0,0.0,0.0,55.0,616.79921,10000.0,85.000001,85.000001,85.000001,85.000001,395.0,0.0,0.0,0.0,1.0,166.665,53.452,53.452,48.187,48.187,34.0,-24.1125,21.844,-30.509999999999998,26.73,0.0,1782.928,-0.3699999999999992,100.0,27.553,27.017,42.775,42.287,0.0,0.0,100.0,0.0,0.0,0.0,0.0,3028.5714285714284,2908.3,4186.7,4177.2,305.731,305.47075,314.65875,314.39975,21.8711,20.5565,21.867,21.4045,314.999998,314.999998,324.999988,324.999988,99.55878571428572,99.50706666666666,99.56604285714286,99.54665714285714,0.05049999999999999,-0.07800000000000007,-0.1486666666666666,0.06783333333333319,-0.03833333333332689,-0.02499999999999858,1.521,1.492,37.695,29.478,37.669,34.778,56.059,34.692499999999995,59.26,52.2385,54.0,33.8605,57.868,50.567499999999995,53.175,33.427,57.8035,49.97566666666667,-0.10350000000000004,-0.04499999999999993,0.10514000000000001,0.10505500000000001,0.0,209.64,209.64499999999998,206.47,206.47,0.0,0.0
11,0.0,0.0,0.0,1.0,1.0,0.0,0.0,1.0,0.0,100.0,1.0,1.1856,26.0,0.0,0.0,0.0,59.999996,0.0,26.0,26.0,26.0,26.0,0.003444444444444583,0.28880000000000017,-0.0742,293.625,-2.6877,-2.691888888888889,-1.56365,-1.5191,-238.82999999999998,215.7625,190.766875,0.0,0.0,0.0,0.0,0.022600000000000002,-5.498166666666667,-5.498166666666667,-0.5558000000000001,-0.06700000000000017,0.005222222222222239,-0.5229999999999999,67.078,-0.019200000000000002,-0.2281,-0.21399999999999952,100.0,1.0,1.0,207.08333333333331,0.0,0.0,0.0,0.0,0.0,0.0,0.0,8777.4,0.0,55.0,5.0,241.45,1.0,0.0,0.0,0.0,0.0,0.0,1.0,0.0,0.5579999999999998,0.5579999999999998,0.0,0.0,1.0,55.0,616.79921,10000.0,85.000001,85.000001,85.000001,85.000001,395.0,0.0,0.0,0.0,1.0,333.33500000000004,53.162,53.162,49.179,49.179,34.0,-24.4325,23.823999999999998,-26.9225,25.512500000000003,0.0,1782.88,-0.48499999999999943,100.0,27.306,27.165,42.325,42.178,0.0,0.0,100.0,0.0,0.0,0.0,0.0,3130.4285714285716,3023.2,3853.5,3953.6000000000004,305.433,305.0815,315.502,315.04375,21.8802,20.5615,21.8766,21.4129,314.999998,314.999998,324.999988,324.999988,99.5588,99.50708333333333,99.56617142857142,99.5468,0.0665,-0.05333333333333323,-0.12983333333333336,0.09499999999999997,-0.04333333333332945,-0.045000000000001705,1.616,1.5985,37.751000000000005,29.509333333333334,37.729,34.831,56.045,34.7295,59.2935,52.294,53.986000000000004,33.894,57.8995,50.621,53.161,33.459,57.832,50.028333333333336,-0.11049999999999993,-0.03699999999999992,0.104395,0.107535,0.0,210.055,210.06,207.08333333333331,207.08333333333331,0.0,0.0
12,0.0,0.0,0.0,1.0,1.0,0.0,0.0,1.0,0.0,100.0,1.0,1.1856,26.0,0.0,0.0,0.0,59.999996,0.0,26.0,26.0,26.0,26.0,0.009444444444444589,0.2845,0.020200000000000003,293.106,-2.7138,-2.6924444444444444,-1.54125,-1.5427,-235.61,215.7425,190.746125,0.0,0.0,0.0,0.0,0.025466666666666665,-5.498166666666667,-5.498166666666667,-0.5424,0.33799999999999986,0.0013333333333331865,-0.6759999999999999,67.214,-0.0031000000000000003,-0.20447500000000002,-0.25,100.0,1.0,1.0,207.3466666666667,0.0,0.0,0.0,0.0,0.0,0.0,0.0,8788.7,0.0,55.0,5.0,241.94,0.0,0.0,0.0,0.0,0.0,0.0,1.0,0.0,0.6059999999999981,0.6059999999999981,0.0,0.0,0.0,55.0,616.79921,10000.0,85.000001,85.000001,85.000001,85.000001,395.0,0.0,0.0,0.0,1.0,333.33500000000004,52.994,52.994,48.187,48.187,34.0,-24.2725,24.31,-29.395,29.0575,0.0,1782.832,-0.4499999999999993,100.0,27.32,27.392,42.286,42.248000000000005,0.0,0.0,100.0,0.0,0.0,0.0,0.0,3138.714285714286,3058.9,4207.0,4174.8,305.394,304.966,314.6575,314.489,21.8893,20.5666,21.8864,21.4214,314.999998,314.999998,324.999988,324.999988,99.55881428571429,99.50708333333333,99.5663,99.54694285714285,0.07799999999999985,-0.050000000000000044,-0.11849999999999994,0.11533333333333329,-0.04999999999999716,-0.04333333333332945,1.5394999999999999,1.5034999999999998,37.808,29.541,37.79,34.8835,56.033,34.766,59.33,52.351,53.974000000000004,33.928,57.9335,50.6755,53.147999999999996,33.4915,57.863,50.08166666666666,-0.10949999999999993,-0.04150000000000009,0.10533000000000001,0.11504,0.0,210.495,210.495,207.3466666666667,207.3466666666667,0.0,0.0
13,0.0,0.0,0.0,1.0,1.0,0.0,0.0,1.0,0.0,100.0,1.0,1.1856,26.0,0.0,0.0,0.0,59.999996,0.0,26.0,26.0,26.0,26.0,0.040999999999999925,0.28510000000000013,0.019575000000000002,292.801,-2.6931,-2.692222222222222,-1.5754000000000001,-1.546,-231.97,215.7175,190.72325,0.0,0.0,0.0,0.0,0.027,-5.498166666666667,-5.498166666666667,-0.5397000000000001,-0.2835000000000001,0.004666666666666597,-0.483,67.36500000000001,0.0073,-0.21695,-0.38399999999999945,100.0,1.0,1.0,207.75,0.0,0.0,0.0,0.0,0.0,0.0,0.0,8805.8,0.0,55.0,5.0,242.48333333333335,1.0,0.0,0.0,0.0,0.0,0.0,1.0,0.0,0.6600000000000001,0.6600000000000001,0.0,0.0,1.0,55.0,616.79921,10000.0,85.000001,85.000001,85.000001,85.000001,395.0,0.0,0.0,0.0,1.0,166.665,52.75,52.75,48.126,48.126,34.0,-23.224999999999998,24.922,-28.5175,30.14,0.0,1782.778,-0.4900000000000002,100.0,27.601,27.612000000000002,42.582,42.799,0.0,0.0,100.0,0.0,0.0,0.0,0.0,3138.0,3038.5,4158.8,4251.4,305.4005,305.0185,314.756,314.252,21.8994,20.5723,21.8975,21.4311,314.999998,314.999998,324.999988,324.999988,99.55882857142858,99.5071,99.56645714285715,99.54708571428571,0.09750000000000014,-0.03066666666666662,-0.09766666666666657,0.121,-0.05333333333332746,-0.05333333333332746,1.513,1.5034999999999998,37.870999999999995,29.576666666666668,37.858999999999995,34.9445,56.019999999999996,34.8065,59.372,52.418,53.962,33.965,57.9725,50.7395,53.134,33.527,57.8985,50.144666666666666,-0.12,-0.03499999999999992,0.10021000000000001,0.10525000000000001,0.0,210.945,210.95,207.75,207.75,0.0,0.0
14,0.0,0.0,0.0,1.0,1.0,0.0,0.0,1.0,0.0,100.0,1.0,1.1856,26.0,0.0,0.0,0.0,59.999996,0.0,26.0,26.0,26.0,26.0,0.04322222222222227,0.2764,-0.018075,293.03,-2.7102,-2.7013333333333334,-1.5746,-1.5338,-228.53,215.695,190.701875,0.0,0.0,0.0,0.0,0.029,-5.498166666666667,-5.498166666666667,-0.5508000000000001,0.018999999999999906,0.028888888888888964,0.9950000000000001,67.504,0.016800000000000002,-0.22595,-0.4639999999999995,100.0,1.0,1.0,208.28,0.0,0.0,0.0,0.0,0.0,0.0,0.0,8828.3,0.0,55.0,5.0,242.98666666666668,0.0,0.0,0.0,0.0,0.0,0.0,1.0,0.0,0.7109999999999985,0.7109999999999985,0.0,0.0,0.0,55.0,616.79921,10000.0,85.000001,85.000001,85.000001,85.000001,395.0,0.0,0.0,0.0,1.0,166.665,52.826,52.826,48.385999999999996,48.385999999999996,34.0,-21.53,26.31,-25.6875,29.66,0.0,1782.728,-0.5,100.0,27.718,27.64,42.556,42.786,0.0,0.0,100.0,0.0,0.0,0.0,0.0,2952.4285714285716,3144.4,3954.6,4149.9,305.7735,304.82725,315.21875,314.56325,21.909,20.5777,21.9078,21.4402,314.999998,314.999998,324.999988,324.999988,99.55884285714286,99.5071,99.5666,99.54722857142858,0.10899999999999999,-0.01966666666666672,-0.07683333333333331,0.13650000000000007,-0.026666666666670835,-0.04333333333332945,1.552,1.541,37.931,29.610666666666667,37.924,35.0015,56.007999999999996,34.8445,59.409,52.4785,53.95,34.0005,58.0065,50.798500000000004,53.122,33.561,57.93,50.202333333333335,-0.11699999999999999,-0.038999999999999924,0.09322000000000001,0.11152000000000001,0.0,211.365,211.39499999999998,208.28,208.28,0.0,0.0
15,0.0,0.0,0.0,1.0,1.0,0.0,0.0,1.0,0.0,100.0,1.0,1.1856,26.0,0.0,0.0,0.0,59.999996,0.0,26.0,26.0,26.0,26.0,0.05711111111111111,0.2816000000000001,-0.030575,292.923,-2.7132,-2.667,-1.59245,-1.5458,-225.49,215.675,190.68275,0.0,0.0,0.0,0.0,0.03076666666666667,-5.498166666666667,-5.498166666666667,-0.5415,0.17849999999999988,0.04155555555555557,-0.89,67.628,0.025400000000000002,-0.21100000000000002,-0.4660000000000002,100.0,1.0,1.0,208.61666666666667,0.0,0.0,0.0,0.0,0.0,0.0,0.0,8842.5,0.0,55.0,5.0,243.43333333333334,1.0,0.0,0.0,0.0,0.0,0.0,1.0,0.0,0.7560000000000002,0.7560000000000002,0.0,0.0,1.0,55.0,616.79921,10000.0,85.000001,85.000001,85.000001,85.000001,395.0,0.0,0.0,0.0,1.0,166.665,52.887,52.887,48.187,48.187,34.0,-21.8875,24.6,-27.3025,30.740000000000002,0.0,1782.683,-0.4499999999999993,100.0,27.589,27.877,42.366,43.049,0.0,0.0,100.0,0.0,0.0,0.0,0.0,2993.5714285714284,3018.3,4064.4,4200.7,305.8425,305.01775,314.99875,314.35825,21.9174,20.5825,21.9169,21.4483,314.999998,314.999998,324.999988,324.999988,99.55884285714286,99.5071,99.56671428571428,99.54735714285714,0.10400000000000009,-0.03066666666666662,-0.08583333333333332,0.14216666666666677,-0.05333333333332746,-0.03833333333332689,1.528,1.5265,37.983999999999995,29.641,37.980999999999995,35.0515,55.997,34.878,59.4415,52.533500000000004,53.94,34.0315,58.037,50.851,53.11,33.591,57.957499999999996,50.254,-0.11549999999999994,-0.04049999999999998,0.11150000000000002,0.10701000000000001,0.0,211.76,211.79000000000002,208.61666666666667,208.61666666666667,0.0,0.0
16,0.0,0.0,0.0,1.0,1.0,0.0,0.0,1.0,0.0,100.0,1.0,1.1856,26.0,0.0,0.0,0.0,59.999996,0.0,26.0,26.0,26.0,26.0,0.052999999999999936,0.2673000000000001,-0.023025,292.77,-2.7671,-2.6197777777777778,-1.5627499999999999,-1.5492,-221.84,215.6525,190.659375,0.0,0.0,0.0,0.0,0.0329,-5.498166666666667,-5.498166666666667,-0.56,-0.35599999999999987,0.02733333333333321,-1.1219999999999999,67.776,0.0318,-0.22755,-0.37600000000000033,100.0,1.0,1.0,209.10333333333335,0.0,0.0,0.0,0.0,0.0,0.0,0.0,8863.2,0.0,55.0,5.0,243.96666666666667,0.0,0.0,0.0,0.0,0.0,0.0,1.0,0.0,0.8099999999999987,0.8099999999999987,0.0,0.0,0.0,55.0,616.79921,10000.0,85.000001,85.000001,85.000001,85.000001,395.0,0.0,0.0,0.0,1.0,166.665,52.383,52.383,48.157,48.157,34.0,-24.375,26.232,-25.98,29.27,0.0,1782.628,-0.33999999999999986,100.0,27.425,27.933,42.577,43.068,0.0,0.0,100.0,0.0,0.0,0.0,0.0,3232.4285714285716,3196.6,3998.5,4023.2,305.2215,304.5505,315.1275,314.82175,21.9274,20.5884,21.928,21.4579,314.999998,314.999998,324.999988,324.999988,99.55887142857142,99.5071,99.56688571428572,99.54751428571429,0.10375000000000023,-0.019333333333333202,-0.07850000000000001,0.14383333333333326,-0.03833333333332689,-0.046666666666666856,1.5425,1.529,38.046,29.677333333333333,38.05,35.112,55.983000000000004,34.919,59.482,52.598,53.926,34.069,58.075,50.913,53.095,33.627,57.9925,50.315,-0.10749999999999993,-0.0475000000000001,0.107035,0.101245,0.0,212.215,212.22,209.10333333333335,209.10333333333335,0.0,0.0
17,0.0,0.0,0.0,1.0,1.0,0.0,0.0,1.0,0.0,100.0,1.0,1.1856,26.0,0.0,0.0,0.0,59.999996,0.0,26.0,26.0,26.0,26.0,0.0341111111111112,0.2894000000000001,0.04575,292.313,-2.6328,-2.607333333333333,-1.51185,-1.5106000000000002,-218.38,215.635,190.637,0.0,0.0,0.0,0.0,0.0349,-5.498166666666667,-5.498166666666667,-0.5482,0.21199999999999997,0.00911111111111107,0.7330000000000001,67.917,0.0298,-0.211675,-0.3019999999999996,100.0,1.0,1.0,209.41,0.0,0.0,0.0,0.0,0.0,0.0,0.0,8876.2,0.0,55.0,5.0,244.47,1.0,0.0,0.0,0.0,0.0,0.0,1.0,0.0,0.8610000000000007,0.8610000000000007,0.0,0.0,1.0,55.0,616.79921,10000.0,85.000001,85.000001,85.000001,85.000001,395.0,0.0,0.0,0.0,1.0,166.665,52.353,52.353,47.409,47.409,34.0,-21.509999999999998,26.15,-27.6825,32.1575,0.0,1782.578,-0.29499999999999993,100.0,27.955,27.893,42.742000000000004,43.039,0.0,0.0,100.0,0.0,0.0,0.0,0.0,3050.5714285714284,3208.7,4292.8,4348.8,305.4135,304.6795,314.32725,314.158,21.9369,20.5939,21.938299999999998,21.467,314.999998,314.999998,324.999988,324.999988,99.55887142857142,99.50711666666666,99.56701428571428,99.54765714285715,0.11425000000000018,-0.016666666666666607,-0.07399999999999995,0.15333333333333332,-0.051666666666669414,-0.07499999999999574,1.486,1.4805000000000001,38.105999999999995,29.712,38.114999999999995,35.169,55.972,34.958,59.519999999999996,52.6595,53.915,34.1055,58.1105,50.972,53.084,33.661500000000004,58.0245,50.373,-0.09950000000000003,-0.052999999999999936,0.109185,0.113,0.0,212.66,212.69,209.41,209.41,0.0,0.0
18,0.0,0.0,0.0,1.0,1.0,0.0,0.0,1.0,0.0,100.0,1.0,1.1856,26.0,0.0,0.0,0.0,59.999996,0.0,26.0,26.0,26.0,26.0,0.02499999999999991,0.2885,0.036125000000000004,292.297,-2.6653000000000002,-2.7236666666666665,-1.51605,-1.4684,-215.32,215.6175,190.617125,0.0,0.0,0.0,0.0,0.0367,-5.498166666666667,-5.498166666666667,-0.561,-0.36350000000000016,0.016666666666666607,-0.45299999999999996,68.039,0.0233,-0.22617500000000001,-0.1739999999999995,100.0,1.0,1.0,209.81,0.0,0.0,0.0,0.0,0.0,0.0,0.0,8893.1,0.0,55.0,5.0,244.91333333333336,0.0,0.0,0.0,0.0,0.0,0.0,1.0,0.0,0.9059999999999988,0.9059999999999988,0.0,0.0,0.0,55.0,616.79921,10000.0,85.000001,85.000001,85.000001,85.000001,395.0,0.0,0.0,0.0,1.0,166.665,52.155,52.155,47.485,47.485,34.0,-23.04,27.038,-27.4225,29.61,0.0,1782.532,-0.3650000000000002,100.0,27.746,28.039,42.835,43.338,0.0,0.0,100.0,0.0,0.0,0.0,0.0,3166.714285714286,3194.3,4165.2,4225.6,305.284,304.39975,314.6865,314.3645,21.9453,20.5987,21.947499999999998,21.4751,314.999998,314.999998,324.999988,324.999988,99.55888571428571,99.50711666666666,99.56714285714285,99.54778571428571,0.1030000000000002,-0.026999999999999913,-0.08966666666666656,0.13666666666666671,-0.046666666666666856,-0.045000000000001705,1.5150000000000001,1.5044999999999997,38.158,29.741999999999997,38.172,35.2195,55.96,34.9915,59.554,52.714,53.903999999999996,34.135999999999996,58.1415,51.0245,53.072,33.691,58.0535,50.42433333333334,-0.10699999999999998,-0.045500000000000096,0.10278000000000001,0.11246,0.0,213.03,213.015,209.81,209.81,0.0,0.0
19,0.0,0.0,0.0,1.0,1.0,0.0,0.0,1.0,0.0,100.0,1.0,1.1856,26.0,0.0,0.0,0.0,59.999996,0.0,26.0,26.0,26.0,26.0,0.05455555555555569,0.2682,0.02835,292.236,-2.6661,-2.691,-1.5401500000000001,-1.5915,-211.64,215.6,190.593125,0.0,0.0,0.0,0.0,0.03883333333333333,-5.498166666666667,-5.498166666666667,-0.5476,0.575,0.022444444444444267,-0.923,68.184,0.017400000000000002,-0.2117,-0.19599999999999973,100.0,1.0,1.0,210.25666666666666,0.0,0.0,0.0,0.0,0.0,0.0,0.0,8912.0,0.0,55.0,5.0,245.43666666666667,1.0,0.0,0.0,0.0,0.0,0.0,1.0,0.0,0.9600000000000009,0.9600000000000009,0.0,0.0,1.0,55.0,616.79921,10000.0,85.000001,85.000001,85.000001,85.000001,395.0,0.0,0.0,0.0,1.0,166.665,52.17,52.17,47.699,47.699,34.0,-22.585,24.61,-28.525,31.3525,0.0,1782.478,-0.3249999999999993,100.0,28.17,28.411,42.709,43.442,0.0,0.0,100.0,0.0,0.0,0.0,0.0,3107.4285714285716,3007.3,4199.9,4249.0,305.473,304.9995,314.6775,314.20525,21.9555,20.6047,21.9585,21.4848,314.999998,314.999998,324.999988,324.999988,99.5589,99.50713333333333,99.5673,99.54794285714286,0.10199999999999987,-0.03499999999999992,-0.09833333333333338,0.1286666666666667,-0.05333333333332746,-0.03166666666666629,1.486,1.4889999999999999,38.222,29.779333333333334,38.239999999999995,35.28,55.949,35.033500000000004,59.592,52.778999999999996,53.893,34.175,58.177,51.0875,53.06,33.7285,58.086,50.486000000000004,-0.10699999999999998,-0.05049999999999999,0.105895,0.10819500000000001,0.0,213.505,213.51,210.25666666666666,210.25666666666666,0.0,0.0
20,0.0,0.0,0.0,1.0,1.0,0.0,0.0,1.0,0.0,100.0,1.0,1.1856,26.0,0.0,0.0,0.0,59.999996,0.0,26.0,26.0,26.0,26.0,0.04044444444444428,0.25860000000000016,-0.0204,292.404,-2.7298999999999998,-2.6500000000000004,-1.5411000000000001,-1.5798,-208.36,215.58249999999998,190.572125,0.0,0.0,0.0,0.0,0.04073333333333334,-5.498166666666667,-5.498166666666667,-0.5607,-0.9330000000000003,0.01855555555555566,-1.0,68.314,0.0189,-0.2281,-0.1899999999999995,100.0,1.0,1.0,210.64666666666668,0.0,0.0,0.0,0.0,0.0,0.0,0.0,8928.6,0.0,55.0,5.0,245.90333333333334,0.0,0.0,0.0,0.0,0.0,0.0,0.0,0.0,1.0079999999999991,1.0079999999999991,0.0,0.0,0.0,55.0,616.79921,10000.0,85.000001,85.000001,85.000001,85.000001,395.0,0.0,0.0,0.0,1.0,333.33500000000004,52.536,52.536,47.379,47.379,34.0,-23.259999999999998,24.244,-27.5175,29.265,0.0,1782.428,-0.2649999999999988,100.0,27.74,28.12,43.313,43.748000000000005,0.0,0.0,100.0,0.0,0.0,0.0,0.0,3120.285714285714,3045.3,4109.3,4060.8,305.526,305.00725,314.838,314.685,21.9643,20.6098,21.9684,21.4935,314.999998,314.999998,324.999988,324.999988,99.55891428571428,99.50713333333333,99.56744285714285,99.54808571428572,0.10024999999999995,-0.04033333333333311,-0.09250000000000003,0.12450000000000006,-0.045000000000001705,-0.026666666666670835,1.5,1.496,38.277,29.811333333333334,38.303,35.3345,55.935,35.0715,59.6315,52.841,53.879999999999995,34.21,58.2145,51.147,53.045,33.762,58.1195,50.544333333333334,-0.10499999999999998,-0.05400000000000005,0.10585000000000001,0.1039,0.0,213.88,213.85500000000002,210.64666666666668,210.64666666666668,0.0,0.0
21,0.0,0.0,0.0,1.0,1.0,0.0,0.0,1.0,0.0,100.0,1.0,1.1856,26.0,0.0,0.0,0.0,59.999996,0.0,26.0,26.0,26.0,26.0,0.010000000000000009,0.26960000000000006,-0.043725,292.542,-2.7228,-2.658888888888889,-1.5867499999999999,-1.5242,-204.88,215.5675,190.549,0.0,0.0,0.0,0.0,0.04276666666666667,-5.498166666666667,-5.498166666666667,-0.5728,0.2905,0.008000000000000007,0.597,68.449,0.0181,-0.21965,-0.28800000000000026,100.0,1.0,1.0,211.18,0.0,0.0,0.0,0.0,0.0,0.0,0.0,8951.1,0.0,55.0,5.0,246.38666666666666,1.0,0.0,0.0,0.0,0.0,0.0,0.0,0.0,1.059000000000001,1.059000000000001,0.0,0.0,1.0,55.0,616.79921,10000.0,85.000001,85.000001,85.000001,85.000001,395.0,0.0,0.0,0.0,1.0,166.665,52.307,52.307,47.958,47.958,34.0,-22.77,26.2,-27.4425,29.32,0.0,1782.379,-0.29499999999999993,100.0,28.07,27.915,42.938,43.218,0.0,0.0,100.0,0.0,0.0,0.0,0.0,3092.4285714285716,3216.0,4042.1,4105.2,305.411,304.69225,315.04025,314.76525,21.9738,20.6154,21.9787,21.5026,314.999998,314.999998,324.999988,324.999988,99.55892857142857,99.50713333333333,99.56758571428571,99.54822857142857,0.10999999999999988,-0.027666666666666728,-0.09533333333333338,0.14166666666666683,-0.05333333333332746,-0.03499999999999659,1.5585,1.545,38.336,29.846,38.367000000000004,35.391,55.924,35.108000000000004,59.664500000000004,52.8955,53.869,34.244,58.2445,51.2,53.034,33.7945,58.147,50.596000000000004,-0.10199999999999998,-0.05600000000000005,0.10911000000000001,0.10969500000000001,0.0,214.3,214.32,211.18,211.18,0.0,0.0
22,0.0,0.0,0.0,1.0,1.0,0.0,0.0,1.0,0.0,100.0,1.0,1.1856,26.0,0.0,0.0,0.0,59.999996,0.0,26.0,26.0,26.0,26.0,0.012111111111111184,0.27960000000000007,-0.0034750000000000002,292.175,-2.7816,-2.623,-1.60865,-1.5222,-201.59,215.5525,190.526625,0.0,0.0,0.0,0.0,0.044666666666666674,-5.498166666666667,-5.498166666666667,-0.5577,-0.052999999999999936,0.0173333333333332,1.0340000000000003,68.57900000000001,0.0195,-0.20225,-0.29800000000000004,100.0,1.0,1.0,211.41,0.0,0.0,0.0,0.0,0.0,0.0,0.0,8960.9,0.0,55.0,5.0,246.85666666666668,0.0,0.0,0.0,0.0,0.0,0.0,0.0,0.0,1.1069999999999993,1.1069999999999993,0.0,0.0,0.0,55.0,616.79921,10000.0,85.000001,85.000001,85.000001,85.000001,395.0,0.0,0.0,0.0,1.0,333.33500000000004,52.505,52.505,47.165,47.165,34.0,-22.985,25.344,-29.375,31.76,0.0,1782.33,-0.3200000000000003,100.0,28.088,27.992,43.22,43.444,0.0,0.0,100.0,0.0,0.0,0.0,0.0,3019.857142857143,3171.1,4237.4,4416.2,305.707,304.88325,314.5315,314.01225,21.9827,20.6206,21.9885,21.5112,314.999998,314.999998,324.999988,324.999988,99.55894285714285,99.50713333333333,99.56771428571429,99.54837142857143,0.10075000000000012,-0.028666666666666618,-0.08866666666666656,0.1323333333333332,-0.030000000000001137,-0.05833333333333002,1.488,1.4849999999999999,38.391999999999996,29.878666666666668,38.428,35.445499999999996,55.912,35.1445,59.701499999999996,52.954,53.858000000000004,34.2775,58.278999999999996,51.256,53.022,33.827,58.1785,50.650999999999996,-0.10250000000000004,-0.05499999999999994,0.10670500000000001,0.10819000000000001,0.0,214.695,214.735,211.41,211.41,0.0,0.0
23,0.0,0.0,0.0,1.0,1.0,0.0,0.0,1.0,0.0,100.0,1.0,1.1856,26.0,0.0,0.0,0.0,59.999996,0.0,26.0,26.0,26.0,26.0,0.02488888888888896,0.2782,-0.02295,292.084,-2.6592000000000002,-2.6774444444444443,-1.66175,-1.4973,-198.09,215.5375,190.50325,0.0,0.0,0.0,0.0,0.046700000000000005,-5.498166666666667,-5.498166666666667,-0.5748,-0.15700000000000003,0.014333333333333309,-0.622,68.713,0.022000000000000002,-0.22712500000000002,-0.2560000000000002,100.0,1.0,1.0,211.90666666666667,0.0,0.0,0.0,0.0,0.0,0.0,0.0,8982.0,0.0,55.0,5.0,247.34,1.0,0.0,0.0,0.0,0.0,0.0,0.0,0.0,1.1580000000000013,1.1580000000000013,0.0,0.0,1.0,55.0,616.79921,10000.0,85.000001,85.000001,85.000001,85.000001,395.0,0.0,0.0,0.0,1.0,166.665,51.91,51.91,47.668,47.668,34.0,-23.75,25.073999999999998,-29.3875,29.0775,0.0,1782.281,-0.3100000000000005,100.0,28.204,28.312,43.205,43.678,0.0,0.0,100.0,0.0,0.0,0.0,0.0,3241.142857142857,3090.2,4175.6,4131.7,305.0305,304.8155,314.81125,314.6435,21.9921,20.6262,21.999,21.5205,314.999998,314.999998,324.999988,324.999988,99.55895714285714,99.50713333333333,99.56785714285714,99.54851428571429,0.10150000000000015,-0.038000000000000034,-0.09216666666666662,0.137,-0.061666666666667425,-0.036666666666668846,1.542,1.5335,38.451,29.913666666666664,38.492999999999995,35.503,55.900999999999996,35.184,59.739,53.015,53.847,34.314,58.314,51.315,53.009,33.8615,58.210499999999996,50.708666666666666,-0.10299999999999998,-0.05449999999999999,0.10459,0.111695,0.0,215.11,215.10500000000002,211.90666666666667,211.90666666666667,0.0,0.0
24,0.0,0.0,0.0,1.0,1.0,0.0,0.0,1.0,0.0,100.0,1.0,1.1856,26.0,0.0,0.0,0.0,59.999996,0.0,26.0,26.0,26.0,26.0,0.03966666666666674,0.26880000000000015,-0.02035,292.45,-2.7003,-2.66,-1.54695,-1.5511,-194.78,215.525,190.480625,0.0,0.0,0.0,0.0,0.048633333333333334,-5.498166666666667,-5.498166666666667,-0.5846,-0.38949999999999996,0.024222222222222145,-0.22899999999999998,68.84100000000001,0.0218,-0.22095,-0.2060000000000004,100.0,1.0,1.0,212.26333333333332,0.0,0.0,0.0,0.0,0.0,0.0,0.0,8997.0,0.0,55.0,5.0,247.8,0.0,0.0,0.0,0.0,0.0,0.0,0.0,0.0,1.2059999999999995,1.2059999999999995,0.0,0.0,0.0,55.0,616.79921,10000.0,85.000001,85.000001,85.000001,85.000001,395.0,0.0,0.0,0.0,1.0,166.665,52.78,52.78,47.409,47.409,34.0,-22.0175,24.114,-28.502499999999998,30.0925,0.0,1782.232,-0.33999999999999986,100.0,27.907,28.047,43.15,43.615,0.0,0.0,100.0,0.0,0.0,0.0,0.0,3004.857142857143,3004.0,4192.6,4143.3,305.816,305.174,314.66925,314.56175,22.0009,20.6313,22.0087,21.5291,314.999998,314.999998,324.999988,324.999988,99.55897142857143,99.50715,99.568,99.54865714285714,0.10175000000000001,-0.035666666666666735,-0.09766666666666657,0.13616666666666677,-0.054999999999999716,-0.03333333333333144,1.5095,1.5044999999999997,38.506,29.945999999999998,38.554,35.557,55.888999999999996,35.219,59.7735,53.072,53.835,34.3465,58.3465,51.3695,52.997,33.893,58.24,50.76233333333333,-0.10599999999999998,-0.0515000000000001,0.109905,0.10604500000000001,0.0,215.505,215.505,212.26333333333332,212.26333333333332,0.0,0.0
25,0.0,0.0,0.0,1.0,1.0,0.0,0.0,1.0,0.0,100.0,1.0,1.1856,26.0,0.0,0.0,0.0,59.999996,0.0,26.0,26.0,26.0,26.0,0.031222222222222262,0.27049999999999996,-0.006475000000000001,292.16,-2.7553,-2.6373333333333333,-1.5982500000000002,-1.5264,-191.26999999999998,215.51,190.45525,0.0,0.0,0.0,0.0,0.05066666666666667,-5.498166666666667,-5.498166666666667,-0.6037,0.10799999999999987,0.03133333333333321,0.2490000000000001,68.973,0.0198,-0.22035000000000002,-0.2839999999999998,100.0,1.0,1.0,212.73666666666668,0.0,0.0,0.0,0.0,0.0,0.0,0.0,9017.1,0.0,55.0,5.0,248.27666666666664,1.0,0.0,0.0,0.0,0.0,0.0,0.0,0.0,1.256999999999998,1.256999999999998,0.0,0.0,1.0,55.0,616.79921,10000.0,85.000001,85.000001,85.000001,85.000001,395.0,0.0,0.0,0.0,1.0,166.665,51.697,51.697,47.791,47.791,34.0,-24.1875,27.64,-26.49,29.985,0.0,1782.182,-0.42499999999999893,100.0,28.07,28.178,42.992000000000004,43.372,0.0,0.0,100.0,0.0,0.0,0.0,0.0,3241.714285714286,3372.3,4017.9,4153.9,305.043,304.17325,315.13225,314.61375,22.0102,20.637,22.019,21.5382,314.999998,314.999998,324.999988,324.999988,99.55898571428571,99.50715,99.56814285714286,99.5488,0.11249999999999982,-0.025333333333333208,-0.07733333333333337,0.14483333333333337,-0.051666666666669414,-0.04333333333332945,1.558,1.548,38.564,29.981,38.619,35.614,55.876000000000005,35.2585,59.8085,53.131,53.823,34.382999999999996,58.379,51.4265,52.983999999999995,33.928,58.2695,50.818,-0.11149999999999993,-0.05249999999999999,0.09484000000000001,0.11022000000000001,0.0,215.93,215.925,212.73666666666668,212.73666666666668,0.0,0.0
26,0.0,0.0,0.0,1.0,1.0,0.0,0.0,1.0,0.0,100.0,1.0,1.1856,26.0,0.0,0.0,0.0,59.999996,0.0,26.0,26.0,26.0,26.0,0.026999999999999913,0.2611000000000001,0.073725,291.367,-2.7174,-2.647333333333333,-1.5636,-1.5473,-187.54,215.4975,190.42825,0.0,0.0,0.0,0.0,0.052833333333333336,-5.498166666666667,-5.498166666666667,-0.5727,0.19700000000000006,0.020000000000000018,0.8520000000000001,69.117,0.0217,-0.20342500000000002,-0.3879999999999999,100.0,1.0,1.0,212.96666666666667,0.0,0.0,0.0,0.0,0.0,0.0,0.0,9026.9,0.0,55.0,5.0,248.79333333333335,0.0,0.0,0.0,0.0,0.0,0.0,0.0,0.0,1.311,1.311,0.0,0.0,0.0,55.0,616.79921,10000.0,85.000001,85.000001,85.000001,85.000001,395.0,0.0,0.0,0.0,1.0,166.665,51.712,51.712,46.494,46.494,34.0,-22.345,25.904,-30.127499999999998,33.7325,0.0,1782.128,-0.4350000000000005,100.0,28.751,28.587,43.583,43.903,0.0,0.0,100.0,0.0,0.0,0.0,0.0,3064.5714285714284,3185.6,4413.9,4484.3,305.387,304.80475,314.09025,313.77,22.0202,20.6431,22.0301,21.548099999999998,314.999998,314.999998,324.999988,324.999988,99.559,99.50715,99.5683,99.54895714285715,0.11675000000000013,-0.025333333333333208,-0.08299999999999996,0.14216666666666677,-0.036666666666668846,-0.05333333333332746,1.4409999999999998,1.4194999999999998,38.626999999999995,30.019,38.688,35.6755,55.866,35.301,59.8505,53.1975,53.813,34.4225,58.418,51.4905,52.972,33.9655,58.305,50.881,-0.11349999999999993,-0.0475000000000001,0.11064500000000001,0.10876000000000001,0.0,216.38,216.41,212.96666666666667,212.96666666666667,0.0,0.0
27,0.0,0.0,0.0,1.0,1.0,0.0,0.0,1.0,0.0,100.0,1.0,1.1856,26.0,0.0,0.0,0.0,59.999996,0.0,26.0,26.0,26.0,26.0,0.044333333333333336,0.2670000000000001,-0.05115,291.885,-2.7613,-2.659666666666667,-1.6200999999999999,-1.5322,-184.43,215.4875,190.406625,0.0,0.0,0.0,0.0,0.05463333333333334,-5.498166666666667,-5.498166666666667,-0.5988,-0.8734999999999999,0.020888888888888957,-0.583,69.233,0.0246,-0.23985,-0.3600000000000003,100.0,1.0,1.0,213.47,0.0,0.0,0.0,0.0,0.0,0.0,0.0,9048.2,0.0,55.0,5.0,249.21333333333334,1.0,0.0,0.0,0.0,0.0,0.0,0.0,0.0,1.355999999999998,1.355999999999998,0.0,0.0,1.0,55.0,616.79921,10000.0,85.000001,85.000001,85.000001,85.000001,395.0,0.0,0.0,0.0,1.0,166.665,51.987,51.987,46.814,46.814,34.0,-23.384999999999998,25.43,-28.552500000000002,29.11,0.0,1782.083,-0.41000000000000014,100.0,28.244,28.659,43.83,44.22,0.0,0.0,100.0,0.0,0.0,0.0,0.0,3134.4285714285716,3123.1,4100.8,4073.8,305.5325,304.75425,314.845,314.7965,22.0284,20.648,22.0394,21.5563,314.999998,314.999998,324.999988,324.999988,99.559,99.50716666666666,99.56844285714286,99.54908571428571,0.10650000000000004,-0.032333333333333325,-0.09266666666666656,0.135,-0.05333333333332746,-0.04333333333332945,1.5150000000000001,1.5019999999999998,38.678,30.049999999999997,38.745999999999995,35.727000000000004,55.855000000000004,35.335499999999996,59.885,53.2515,53.803,34.454,58.45,51.542500000000004,52.961,33.996,58.334,50.931666666666665,-0.11399999999999999,-0.0495000000000001,0.10669000000000001,0.108045,0.0,216.69,216.715,213.47,213.47,0.0,0.0
28,0.0,0.0,0.0,1.0,1.0,0.0,0.0,1.0,0.0,100.0,1.0,1.1856,26.0,0.0,0.0,0.0,59.999996,0.0,26.0,26.0,26.0,26.0,0.056777777777777816,0.2742,-0.045175,291.931,-2.6928,-2.649,-1.6327500000000001,-1.5612,-180.69,215.47750000000002,190.379625,0.0,0.0,0.0,0.0,0.05683333333333334,-5.498166666666667,-5.498166666666667,-0.5993,0.5880000000000001,0.008777777777777773,-0.911,69.372,0.0281,-0.2119,-0.37399999999999967,100.0,1.0,1.0,213.92666666666668,0.0,0.0,0.0,0.0,0.0,0.0,0.0,9067.6,0.0,55.0,5.0,249.71,0.0,0.0,0.0,0.0,0.0,0.0,0.0,0.0,1.4100000000000001,1.4100000000000001,0.0,0.0,0.0,55.0,616.79921,10000.0,85.000001,85.000001,85.000001,85.000001,395.0,0.0,0.0,0.0,1.0,166.665,52.016999999999996,52.016999999999996,47.073,47.073,34.0,-22.2175,25.354,-29.36,30.677500000000002,0.0,1782.028,-0.45500000000000007,100.0,28.34,28.66,43.295,43.816,0.0,0.0,100.0,0.0,0.0,0.0,0.0,3094.142857142857,3073.0,4260.0,4181.3,305.525,304.88225,314.665,314.54375,22.0383,20.6541,22.0502,21.566,314.999998,314.999998,324.999988,324.999988,99.55902857142857,99.50716666666666,99.56858571428572,99.54925714285714,0.11450000000000005,-0.021666666666666723,-0.08716666666666661,0.14149999999999996,-0.04333333333332945,-0.05666666666667197,1.5495,1.5219999999999998,38.739999999999995,30.088,38.814,35.7875,55.843,35.376999999999995,59.921,53.3135,53.792,34.4925,58.4835,51.6025,52.949,34.033,58.364,50.99,-0.11449999999999994,-0.04299999999999993,0.109825,0.11335,0.0,217.155,217.2,213.92666666666668,213.92666666666668,0.0,0.0
29,0.0,0.0,0.0,1.0,1.0,0.0,0.0,1.0,0.0,100.0,1.0,1.1856,26.0,0.0,0.0,0.0,59.999996,0.0,26.0,26.0,26.0,26.0,0.06122222222222229,0.2670000000000001,-0.021575,291.87,-2.7675,-2.703222222222222,-1.58025,-1.5386000000000002,-177.35,215.4675,190.35475,0.0,0.0,0.0,0.0,0.05876666666666667,-5.498166666666667,-5.498166666666667,-0.6065,-0.7349999999999999,0.009777777777777885,-0.744,69.498,0.027600000000000003,-0.2165,-0.3860000000000001,100.0,1.0,1.0,214.2,0.0,0.0,0.0,0.0,0.0,0.0,0.0,9079.2,0.0,55.0,5.0,250.16666666666666,1.0,0.0,0.0,0.0,0.0,0.0,0.0,0.0,1.4579999999999984,1.4579999999999984,0.0,0.0,1.0,55.0,616.79921,10000.0,85.000001,85.000001,85.000001,85.000001,395.0,0.0,0.0,0.0,1.0,333.33500000000004,52.261,52.261,46.982,46.982,34.0,-23.62,25.252000000000002,-28.0225,31.1275,0.0,1781.978,-0.5199999999999996,100.0,28.049,28.487000000000002,43.681,44.167,0.0,0.0,100.0,0.0,0.0,0.0,0.0,3203.142857142857,3013.9,4155.9,4259.9,305.484,305.0605,314.76975,314.265,22.047,20.6593,22.0601,21.5748,314.999998,314.999998,324.999988,324.999988,99.55904285714286,99.50716666666666,99.56872857142857,99.5494,0.1120000000000001,-0.02200000000000002,-0.08366666666666656,0.13749999999999996,-0.036666666666668846,-0.060000000000002274,1.491,1.4874999999999998,38.794,30.120666666666665,38.876000000000005,35.8425,55.832,35.4125,59.957499999999996,53.372,53.78,34.5255,58.5175,51.658500000000004,52.936,34.064,58.3955,51.045,-0.11749999999999994,-0.03750000000000009,0.107395,0.10427000000000002,0.0,217.525,217.55,214.2,214.2,0.0,0.0
30,0.0,0.0,0.0,1.0,1.0,0.0,0.0,1.0,0.0,100.0,1.0,1.1856,26.0,0.0,0.0,0.0,59.999996,0.0,26.0,26.0,26.0,26.0,0.04422222222222216,0.25860000000000016,0.0179,291.214,-2.7354,-2.589777777777778,-1.64775,-1.4586000000000001,-174.01,215.46,190.329875,0.0,0.0,0.0,0.0,0.060700000000000004,-5.498166666666667,-5.498166666666667,-0.605,0.9159999999999999,0.009333333333333194,-0.497,69.619,0.034300000000000004,-0.216875,-0.5499999999999998,100.0,1.0,1.0,214.66666666666669,0.0,0.0,0.0,0.0,0.0,0.0,0.0,9098.9,0.0,55.0,5.0,250.60000000000002,0.0,0.0,0.0,0.0,0.0,0.0,1.0,0.0,1.5060000000000002,1.5060000000000002,0.0,0.0,0.0,55.0,616.79921,10000.0,85.000001,85.000001,85.000001,85.000001,395.0,0.0,0.0,0.0,1.0,166.665,50.644,50.644,46.967,46.967,34.0,-24.4175,26.442,-29.345,29.215,0.0,1781.933,-0.45500000000000007,100.0,29.022,29.231,43.455,44.079,0.0,0.0,100.0,0.0,0.0,0.0,0.0,3335.142857142857,3275.8,4260.6,4190.0,304.746,304.18125,314.711,314.6655,22.056,20.6649,22.0698,21.5835,314.999998,314.999998,324.999988,324.999988,99.55905714285714,99.50718333333333,99.56887142857143,99.54952857142857,0.12175000000000002,-0.030000000000000027,-0.08166666666666655,0.14183333333333326,-0.04833333333333201,-0.05666666666667197,1.524,1.5114999999999998,38.849999999999994,30.15533333333333,38.936,35.8965,55.825,35.451499999999996,59.9905,53.428,53.772999999999996,34.5615,58.548,51.7125,52.928,34.099000000000004,58.423,51.09766666666667,-0.121,-0.04899999999999993,0.10475000000000001,0.09897500000000001,0.0,217.93,217.96,214.66666666666669,214.66666666666669,0.0,0.0
31,0.0,0.0,0.0,1.0,1.0,0.0,0.0,1.0,0.0,100.0,1.0,1.1856,26.0,0.0,0.0,0.0,59.999996,0.0,26.0,26.0,26.0,26.0,0.0367777777777778,0.25870000000000015,0.03255,290.787,-2.7759,-2.6197777777777778,-1.65075,-1.4884,-170.45999999999998,215.4525,190.304,0.0,0.0,0.0,0.0,0.06276666666666667,-5.498166666666667,-5.498166666666667,-0.5892000000000001,-0.4195000000000002,0.021888888888888847,0.8009999999999999,69.752,0.0386,-0.2233,-0.48800000000000043,100.0,1.0,1.0,214.90666666666667,0.0,0.0,0.0,0.0,0.0,0.0,0.0,9109.2,0.0,55.0,5.0,251.07999999999998,1.0,0.0,0.0,0.0,0.0,0.0,1.0,0.0,1.5569999999999986,1.5569999999999986,0.0,0.0,1.0,55.0,616.79921,10000.0,85.000001,85.000001,85.000001,85.000001,395.0,0.0,0.0,0.0,1.0,166.665,50.980000000000004,50.980000000000004,45.746,45.746,34.0,-22.7375,28.266,-29.33,32.41,0.0,1781.882,-0.504999999999999,100.0,28.981,29.162,44.341,44.79,0.0,0.0,100.0,0.0,0.0,0.0,0.0,3129.285714285714,3417.1,4246.8,4380.0,305.3775,304.11,314.45025,314.008,22.0653,20.6707,22.0804,21.593,314.999998,314.999998,324.999988,324.999988,99.55907142857143,99.50718333333333,99.56901428571429,99.54968571428572,0.12849999999999984,-0.016000000000000014,-0.0685,0.15116666666666667,-0.02499999999999858,-0.06333333333333258,1.4415,1.436,38.908,30.191666666666666,39.003,35.956,55.814,35.492,60.031,53.492,53.763,34.599000000000004,58.586,51.7745,52.917,34.1345,58.457499999999996,51.15833333333333,-0.118,-0.050999999999999934,0.11184500000000001,0.10049500000000001,0.0,218.315,218.345,214.90666666666667,214.90666666666667,0.0,0.0
32,0.0,0.0,0.0,1.0,1.0,0.0,0.0,1.0,0.0,100.0,1.0,1.1856,26.0,0.0,0.0,0.0,59.999996,0.0,26.0,26.0,26.0,26.0,0.08244444444444432,0.25560000000000005,-0.041175,291.458,-2.7035,-2.6783333333333332,-1.5901,-1.6155,-166.69,215.4475,190.277,0.0,0.0,0.0,0.0,0.06496666666666667,-5.498166666666667,-5.498166666666667,-0.6077,-0.2410000000000001,0.0011111111111110628,0.272,69.887,0.0398,-0.2315,-0.5139999999999993,100.0,1.0,1.0,215.45666666666668,0.0,0.0,0.0,0.0,0.0,0.0,0.0,9132.4,0.0,55.0,5.0,251.56666666666666,0.0,0.0,0.0,0.0,0.0,0.0,1.0,0.0,1.6110000000000007,1.6110000000000007,0.0,0.0,0.0,55.0,616.79921,10000.0,85.000001,85.000001,85.000001,85.000001,395.0,0.0,0.0,0.0,1.0,166.665,51.62,51.62,46.768,46.768,34.0,-20.75,27.17,-25.8475,33.125,0.0,1781.826,-0.46999999999999886,100.0,28.787,28.963,44.065,44.637,0.0,0.0,100.0,0.0,0.0,0.0,0.0,3012.5714285714284,3197.3,4019.8,4229.5,305.6155,304.71425,315.05025,314.3785,22.075,20.6768,22.0914,21.6028,314.999998,314.999998,324.999988,324.999988,99.55908571428571,99.50718333333333,99.56917142857142,99.54984285714286,0.13949999999999996,-0.006999999999999895,-0.06016666666666659,0.1621666666666668,-0.015000000000000568,-0.060000000000002274,1.5145,1.5055,38.969,30.23,39.071,36.0175,55.802,35.533500000000004,60.0685,53.5555,53.751999999999995,34.6375,58.6205,51.835499999999996,52.903999999999996,34.1715,58.4885,51.217666666666666,-0.11749999999999994,-0.044499999999999984,0.10894000000000001,0.10528000000000001,0.0,218.72500000000002,218.755,215.45666666666668,215.45666666666668,0.0,0.0
33,0.0,0.0,0.0,1.0,1.0,0.0,0.0,1.0,0.0,100.0,1.0,1.1856,26.0,0.0,0.0,0.0,59.999996,0.0,26.0,26.0,26.0,26.0,0.0625555555555557,0.24970000000000003,-0.066375,291.641,-2.7188,-2.6406666666666667,-1.60215,-1.5763,-163.32999999999998,215.445,190.251875,0.0,0.0,0.0,0.0,0.0669,-5.498166666666667,-5.498166666666667,-0.616,-0.22199999999999998,0.004666666666666597,1.1320000000000001,70.008,0.0364,-0.215675,-0.42799999999999994,100.0,1.0,1.0,215.82999999999998,0.0,0.0,0.0,0.0,0.0,0.0,0.0,9148.2,0.0,55.0,5.0,252.00333333333333,1.0,0.0,0.0,0.0,0.0,0.0,1.0,0.0,1.658999999999999,1.658999999999999,0.0,0.0,1.0,55.0,616.79921,10000.0,85.000001,85.000001,85.000001,85.000001,395.0,0.0,0.0,0.0,1.0,166.665,51.834,51.834,47.012,47.012,34.0,-21.365,26.183999999999997,-26.724999999999998,32.1725,0.0,1781.78,-0.5149999999999988,100.0,28.616,28.679000000000002,43.868,44.419,0.0,0.0,100.0,0.0,0.0,0.0,0.0,3051.285714285714,3165.4,4051.4,4223.2,305.5625,304.85975,314.997,314.4475,22.0837,20.6821,22.1011,21.6115,314.999998,314.999998,324.999988,324.999988,99.5591,99.50718333333333,99.56931428571428,99.54998571428571,0.1342500000000002,-0.013666666666666716,-0.0698333333333333,0.15700000000000003,-0.041666666666671404,-0.05333333333332746,1.5150000000000001,1.5070000000000001,39.022999999999996,30.262999999999998,39.132,36.0715,55.792,35.5685,60.102000000000004,53.6105,53.742000000000004,34.67,58.652,51.8885,52.893,34.203,58.516999999999996,51.269666666666666,-0.12049999999999994,-0.045500000000000096,0.10539000000000001,0.11266000000000001,0.0,219.11,219.14,215.82999999999998,215.82999999999998,0.0,0.0
34,0.0,0.0,0.0,1.0,1.0,0.0,0.0,1.0,0.0,100.0,1.0,1.1856,26.0,0.0,0.0,0.0,59.999996,0.0,26.0,26.0,26.0,26.0,0.04588888888888887,0.264,-0.086525,291.87,-2.6761,-2.673222222222222,-1.6341999999999999,-1.5166,-159.97,215.4425,190.225375,0.0,0.0,0.0,0.0,0.06886666666666666,-5.498166666666667,-5.498166666666667,-0.6436000000000001,-0.8995000000000002,0.024222222222222145,0.8460000000000001,70.13,0.0368,-0.22325,-0.5300000000000002,100.0,1.0,1.0,216.17000000000002,0.0,0.0,0.0,0.0,0.0,0.0,0.0,9162.6,0.0,55.0,5.0,252.44,0.0,0.0,0.0,0.0,0.0,0.0,1.0,0.0,1.7070000000000007,1.7070000000000007,0.0,0.0,0.0,55.0,616.79921,10000.0,85.000001,85.000001,85.000001,85.000001,395.0,0.0,0.0,0.0,1.0,333.33500000000004,52.353,52.353,47.15,47.15,34.0,-20.405,26.439999999999998,-27.28,31.805,0.0,1781.73,-0.5250000000000004,100.0,28.339,28.364,43.745000000000005,44.464,0.0,0.0,100.0,0.0,0.0,0.0,0.0,2966.0,3138.3,4092.1,4247.2,305.8465,305.0055,314.94375,314.425,22.0923,20.6873,22.1109,21.6203,314.999998,314.999998,324.999988,324.999988,99.55911428571429,99.5072,99.56945714285715,99.55012857142857,0.13074999999999992,-0.006333333333333302,-0.06833333333333336,0.16183333333333327,-0.045000000000001705,-0.04333333333332945,1.5335,1.5,39.077,30.295666666666666,39.193,36.1265,55.781,35.603,60.135,53.668,53.730999999999995,34.701499999999996,58.6825,51.944,52.881,34.2335,58.5445,51.324,-0.12149999999999994,-0.03849999999999998,0.10411500000000001,0.11324500000000001,0.0,219.47500000000002,219.495,216.17000000000002,216.17000000000002,0.0,0.0
35,0.0,0.0,0.0,1.0,1.0,0.0,0.0,1.0,0.0,100.0,1.0,1.1856,26.0,0.0,0.0,0.0,59.999996,0.0,26.0,26.0,26.0,26.0,0.07533333333333325,0.2551000000000001,-0.034925000000000005,291.794,-2.8119,-2.647222222222222,-1.6275,-1.5761,-156.39,215.44,190.195375,0.0,0.0,0.0,0.0,0.07093333333333333,-5.498166666666667,-5.498166666666667,-0.6794,-0.07600000000000007,0.0015555555555555323,-1.249,70.256,0.0402,-0.226025,-0.4739999999999993,100.0,1.0,1.0,216.65,0.0,0.0,0.0,0.0,0.0,0.0,0.0,9183.0,0.0,55.0,5.0,252.89666666666665,1.0,0.0,0.0,0.0,0.0,0.0,1.0,0.0,1.7579999999999991,1.7579999999999991,0.0,0.0,1.0,55.0,616.79921,10000.0,85.000001,85.000001,85.000001,85.000001,395.0,0.0,0.0,0.0,1.0,166.665,51.712,51.712,46.814,46.814,34.0,-23.935,27.746000000000002,-27.1675,30.6,0.0,1781.68,-0.3249999999999993,100.0,28.03,28.886,43.43,44.006,0.0,0.0,100.0,0.0,0.0,0.0,0.0,3157.0,3307.7,4093.8,4071.5,305.4435,304.205,314.93825,314.889,22.1013,20.6932,22.1212,21.6294,314.999998,314.999998,324.999988,324.999988,99.55912857142857,99.5072,99.5696,99.55027142857143,0.11100000000000021,-0.0173333333333332,-0.0688333333333333,0.15833333333333321,-0.051666666666669414,-0.046666666666666856,1.5525,1.5390000000000001,39.132999999999996,30.332333333333334,39.257,36.184,55.766999999999996,35.643,60.1695,53.724000000000004,53.718,34.7385,58.7145,51.998,52.867000000000004,34.2685,58.573,51.376666666666665,-0.10350000000000004,-0.05049999999999999,0.10757000000000001,0.104715,0.0,219.865,219.89499999999998,216.65,216.65,0.0,0.0
36,0.0,0.0,0.0,1.0,1.0,0.0,0.0,1.0,0.0,100.0,1.0,1.1856,26.0,0.0,0.0,0.0,59.999996,0.0,26.0,26.0,26.0,26.0,0.06566666666666676,0.2594000000000001,-0.00185,291.26,-2.6583,-2.7013333333333334,-1.6475,-1.5889,-152.8,215.4425,190.164125,0.0,0.0,0.0,0.0,0.07303333333333334,-5.498166666666667,-5.498166666666667,-0.6624,-0.15399999999999991,-0.035666666666666735,0.18199999999999994,70.386,0.0354,-0.2018,-0.3600000000000003,100.0,1.0,1.0,216.81666666666666,0.0,0.0,0.0,0.0,0.0,0.0,0.0,9190.1,0.0,55.0,5.0,253.36333333333334,0.0,0.0,0.0,0.0,0.0,0.0,1.0,0.0,1.809000000000001,1.809000000000001,0.0,0.0,0.0,55.0,616.79921,10000.0,85.000001,85.000001,85.000001,85.000001,395.0,0.0,0.0,0.0,1.0,166.665,52.094,52.094,46.219,46.219,34.0,-19.8625,25.468,-30.52,35.322500000000005,0.0,1781.63,-0.27999999999999936,100.0,28.746,28.764,43.834,44.364000000000004,0.0,0.0,100.0,0.0,0.0,0.0,0.0,2857.714285714286,3040.9,4442.8,4536.9,305.9585,305.01125,314.2135,313.7265,22.110599999999998,20.698999999999998,22.1316,21.6388,314.999998,314.999998,324.999988,324.999988,99.55915714285715,99.5072,99.56974285714286,99.55042857142857,0.125,-0.022333333333333316,-0.06699999999999995,0.15266666666666673,-0.051666666666669414,-0.061666666666667425,1.447,1.439,39.191,30.368666666666666,39.323,36.2425,55.757,35.6825,60.2065,53.786,53.708,34.775,58.749,52.0575,52.855999999999995,34.3035,58.6045,51.435,-0.10250000000000004,-0.058499999999999996,0.10725000000000001,0.10330500000000001,0.0,220.29000000000002,220.32999999999998,216.81666666666666,216.81666666666666,0.0,0.0
