,ABS Active,ABS Enabled,AID Allow Tire Blankets,AID Auto Blip,AID Auto Clutch,AID Auto Shift,AID Fuel Rate,AID Ideal Line,AID Mech Damage,AID Stability,AID Tire Wear Rate,Air Density,Air Temp,Ballast,Best Lap Delta,Best Lap Time,Brake Bias,Brake Pos,Brake Temp FL,Brake Temp FR,Brake Temp RL,Brake Temp RR,CG Accel Lateral,CG Accel Longitudinal,CG Accel Vertical,CG Height,Camber FL,Camber FR,Camber RL,Camber RR,Car Coord X,Car Coord Y,Car Coord Z,Car Damage Front,Car Damage Left,Car Damage Rear,Car Damage Right,Car Pos Norm,Caster FL,Caster FR,Chassis Pitch Angle,Chassis Pitch Rate,Chassis Roll Angle,Chassis Roll Rate,Chassis Velocity X,Chassis Velocity Y,Chassis Velocity Z,Chassis Yaw Rate,Clutch Pos,DRS Active,DRS Available,Drive Train Speed,ERS Heat Charging,ERS Is Charging,ERS Max Energy,ERS Power Level,ERS Recovery Level,Engine Brake Setting,Engine Limiter,Engine RPM,Flags,Fuel Level,Gear,Ground Speed,HR Sample Clock,In Pit,KERS Charge,KERS Deployed Energy,KERS Input,KERS Max Energy,LR Sample Clock,Lap Invalidated,Lap Time,Lap Time2,Last Lap Time,Last Sector Time,MR Sample Clock,Max Fuel,Max Power,Max RPM,Max Sus Travel FL,Max Sus Travel FR,Max Sus Travel RL,Max Sus Travel RR,Max Torque,Max Turbo Boost,Num Tires Off Track,Penalties Enabled,Position,Raw Data Sample Rate,Ride Height FL,Ride Height FR,Ride Height RL,Ride Height RR,Road Temp,Self Align Torque FL,Self Align Torque FR,Self Align Torque RL,Self Align Torque RR,Session Lap Count,Session Time Left,Steering Angle,Surface Grip,Suspension Travel FL,Suspension Travel FR,Suspension Travel RL,Suspension Travel RR,TC Active,TC Enabled,Throttle Pos,Tire Dirt Level FL,Tire Dirt Level FR,Tire Dirt Level RL,Tire Dirt Level RR,Tire Load FL,Tire Load FR,Tire Load RL,Tire Load RR,Tire Loaded Radius FL,Tire Loaded Radius FR,Tire Loaded Radius RL,Tire Loaded Radius RR,Tire Pressure FL,Tire Pressure FR,Tire Pressure RL,Tire Pressure RR,Tire Radius FL,Tire Radius FR,Tire Radius RL,Tire Radius RR,Tire Rubber Grip FL,Tire Rubber Grip FR,Tire Rubber Grip RL,Tire Rubber Grip RR,Tire Slip Angle FL,Tire Slip Angle FR,Tire Slip Angle RL,Tire Slip Angle RR,Tire Slip Ratio FL,Tire Slip Ratio FR,Tire Slip Ratio RL,Tire Slip Ratio RR,Tire Temp Core FL,Tire Temp Core FR,Tire Temp Core RL,Tire Temp Core RR,Tire Temp Inner FL,Tire Temp Inner FR,Tire Temp Inner RL,Tire Temp Inner RR,Tire Temp Middle FL,Tire Temp Middle FR,Tire Temp Middle RL,Tire Temp Middle RR,Tire Temp Outer FL,Tire Temp Outer FR,Tire Temp Outer RL,Tire Temp Outer RR,Toe In FL,Toe In FR,Toe In RL,Toe In RR,Turbo Boost,Wheel Angular Speed FL,Wheel Angular Speed FR,Wheel Angular Speed RL,Wheel Angular Speed RR,Wind Direction,Wind Speed
0,0.0,0.0,0.0,1.0,1.0,0.0,0.0,1.0,0.0,100.0,1.0,1.1856,26.0,0.0,0.0,0.0,59.99999,0.0,26.0,26.0,26.0,26.0,-0.03500000000000003,0.30000000000000004,0.20170000000000002,293.167,-2.7442,-2.619222222222222,-1.5581,-1.5084444444444445,-275.68,215.58249999999998,190.987375,0.0,0.0,0.0,0.0,0.0016,-5.498166666666667,-5.498166666666667,-0.5643,2.1485000000000003,-0.0026250000000000995,-0.9470000000000001,65.486,-0.0316,-0.22640000000000002,0.18400000000000016,100.0,1.0,1.0,202.17666666666668,0.0,0.0,0.0,0.0,0.0,0.0,0.0,8569.6,0.0,55.0,5.0,235.71666666666667,0.0,0.0,0.0,0.0,0.0,0.0,0.0,0.0,0.0030000000000001137,0.0030000000000001137,0.0,0.0,0.0,55.0,616.79921,10000.0,85.0,85.0,85.0,85.0,395.0,0.0,0.0,0.0,1.0,20.0,50.842,50.842,48.843,48.843,34.0,-29.16,31.656,-30.55,25.765,0.0,1783.376,0.3249999999999993,100.0,27.451,27.351,40.266,40.073,0.0,0.0,100.0,0.0,0.0,0.0,0.0,3356.4285714285716,4273.8,4137.222222222223,4114.4,304.642,301.557,314.83575,314.57725,21.779,20.5068,21.7636,21.3197,314.99999,314.99999,324.99998,324.99998,99.55904285714286,99.50693333333334,99.5647,99.54548571428572,0.022666666666666835,-0.09299999999999997,-0.15183333333333335,0.07416666666666667,-0.060000000000002274,-0.051666666666669414,1.5545,1.5495,37.119,29.167333333333332,37.022,34.248,56.323,34.322,58.8895,51.730000000000004,54.248999999999995,33.5155,57.522,50.0785,53.428,33.0935,57.486,49.49733333333333,-0.0635,-0.10000000000000009,0.11125000000000002,0.10771000000000001,0.0,205.25,205.16500000000002,202.17666666666668,202.17666666666668,0.0,0.0
1,0.0,0.0,0.0,1.0,1.0,0.0,0.0,1.0,0.0,100.0,1.0,1.1856,26.0,0.0,0.0,0.0,59.999996,0.0,26.0,26.0,26.0,26.0,-0.06812499999999999,0.3227,0.1509,292.45,-2.6499,-2.706888888888889,-1.5937999999999999,-1.3791111111111112,-272.33,215.595,190.9675,0.0,0.0,0.0,0.0,0.0035333333333333336,-5.498166666666667,-5.498166666666667,-0.4736,-1.5185,-0.051750000000000185,-0.14500000000000002,65.645,-0.029900000000000003,-0.17805,0.7120000000000006,100.0,1.0,1.0,202.09333333333333,0.0,0.0,0.0,0.0,0.0,0.0,0.0,8566.0,0.0,55.0,5.0,236.29000000000002,1.0,0.0,0.0,0.0,0.0,0.0,0.0,0.0,0.053999999999998494,0.053999999999998494,0.0,0.0,1.0,55.0,616.79921,10000.0,85.000001,85.000001,85.000001,85.000001,395.0,0.0,0.0,0.0,1.0,166.665,54.321,54.321,47.379,47.379,34.0,-22.8,16.497999999999998,-38.20333333333333,33.215,0.0,1783.325,0.504999999999999,100.0,27.586,27.129,42.463,42.778,0.0,0.0,100.0,0.0,0.0,0.0,0.0,2804.714285714286,2414.6,4775.888888888889,5308.1,306.283,307.124,313.05075,311.34275,21.7888,20.5117,21.7745,21.3291,314.999998,314.999998,324.999988,324.999988,99.55905714285714,99.50695,99.56485714285714,99.54562857142857,0.026000000000000245,-0.1096666666666668,-0.14400000000000002,0.063,-0.03499999999999659,-0.03499999999999659,1.2925,1.3215,37.18,29.198,37.091,34.307,56.305,34.36,58.9385,51.799,54.232,33.5505,57.568,50.144999999999996,53.411,33.126999999999995,57.5285,49.562666666666665,-0.04149999999999998,-0.10950000000000015,0.10115500000000001,0.111725,0.0,205.64,205.595,202.09333333333333,202.09333333333333,0.0,0.0
2,0.0,0.0,0.0,1.0,1.0,0.0,0.0,1.0,0.0,100.0,1.0,1.1856,26.0,0.0,0.0,0.0,59.999996,0.0,26.0,26.0,26.0,26.0,-0.10875000000000001,0.2862,-0.11155000000000001,294.022,-2.6365,-2.6546666666666665,-1.5306000000000002,-1.5110000000000001,-268.78,215.60750000000002,190.9475,0.0,0.0,0.0,0.0,0.0056,-5.498166666666667,-5.498166666666667,-0.5778,0.877,-0.007874999999999854,2.54,65.789,-0.038,-0.26937500000000003,0.9560000000000004,100.0,1.0,1.0,203.53333333333333,0.0,0.0,0.0,0.0,0.0,0.0,0.0,8627.0,0.0,55.0,5.0,236.80666666666667,0.0,0.0,0.0,0.0,0.0,0.0,0.0,0.0,0.10800000000000054,0.10800000000000054,0.0,0.0,0.0,55.0,616.79921,10000.0,85.000001,85.000001,85.000001,85.000001,395.0,0.0,0.0,0.0,1.0,166.665,51.971000000000004,51.971000000000004,50.949,50.949,34.0,-28.6025,21.636,-25.046666666666667,18.91,0.0,1783.271,0.6350000000000016,100.0,28.317,27.374,41.758,41.381,0.0,0.0,100.0,0.0,0.0,0.0,0.0,3270.857142857143,3163.2,3490.8888888888887,3421.1,304.701,304.70425,316.335,316.44275,21.7995,20.5171,21.7853,21.3381,314.999998,314.999998,324.999988,324.999988,99.55907142857143,99.50696666666667,99.565,99.54575714285714,-0.0006666666666665932,-0.123,-0.18083333333333335,0.05433333333333334,-0.030000000000001137,-0.05666666666667197,1.7545000000000002,1.7930000000000001,37.247,29.232,37.158,34.363,56.291,34.403,58.9755,51.8515,54.218,33.59,57.6025,50.195499999999996,53.396,33.165,57.56,49.61233333333333,-0.026000000000000023,-0.121,0.10871000000000001,0.10369,0.0,206.125,206.03,203.53333333333333,203.53333333333333,0.0,0.0
3,0.0,0.0,0.0,1.0,1.0,0.0,0.0,1.0,0.0,100.0,1.0,1.1856,26.0,0.0,0.0,0.0,59.999996,0.0,26.0,26.0,26.0,26.0,-0.09375,0.3103,-0.029225,293.076,-2.6564,-2.6846666666666668,-1.5146000000000002,-1.4866666666666668,-265.82,215.615,190.9295,0.0,0.0,0.0,0.0,0.007333333333333333,-5.498166666666667,-5.498166666666667,-0.5039,0.746,-0.0007500000000000284,-2.17,65.929,-0.0502,-0.19005,0.8720000000000008,100.0,1.0,1.0,203.29000000000002,0.0,0.0,0.0,0.0,0.0,0.0,0.0,8616.7,0.0,55.0,5.0,237.31333333333333,1.0,0.0,0.0,0.0,0.0,0.0,0.0,0.0,0.1529999999999987,0.1529999999999987,0.0,0.0,1.0,55.0,616.79921,10000.0,85.000001,85.000001,85.000001,85.000001,395.0,0.0,0.0,0.0,1.0,333.33500000000004,53.299,53.299,47.668,47.668,34.0,-24.74,18.854,-34.71333333333333,26.18,0.0,1783.226,0.8000000000000007,100.0,27.856,27.55,41.963,41.911,0.0,0.0,100.0,0.0,0.0,0.0,0.0,2883.285714285714,2836.5,4538.111111111111,4298.8,306.1415,305.5935,313.80575,314.0355,21.8081,20.5218,21.7945,21.3461,314.999998,314.999998,324.999988,324.999988,99.55907142857143,99.50698333333334,99.56512857142857,99.5459,-0.006999999999999895,-0.1379999999999999,-0.16183333333333336,0.05533333333333334,-0.04333333333332945,-0.02833333333332888,1.4515,1.49,37.301,29.261,37.216,34.413,56.275,34.4415,59.012,51.9105,54.203,33.625,57.635999999999996,50.251999999999995,53.379999999999995,33.199,57.591,49.668,-0.01849999999999996,-0.13350000000000017,0.10258,0.10889000000000001,0.0,206.57999999999998,206.5,203.29000000000002,203.29000000000002,0.0,0.0
4,0.0,0.0,0.0,1.0,1.0,0.0,0.0,1.0,0.0,100.0,1.0,1.1856,26.0,0.0,0.0,0.0,59.999996,0.0,26.0,26.0,26.0,26.0,-0.11499999999999999,0.26370000000000005,-0.06165,293.427,-2.6468,-2.7644444444444445,-1.4575,-1.604,-262.45,215.6225,190.910125,0.0,0.0,0.0,0.0,0.009266666666666668,-5.498166666666667,-5.498166666666667,-0.533,-0.9215,-0.054625000000000146,0.1639999999999997,66.074,-0.0634,-0.23622500000000002,1.2760000000000007,100.0,1.0,1.0,203.94333333333333,0.0,0.0,0.0,0.0,0.0,0.0,0.0,8644.4,0.0,55.0,5.0,237.83333333333331,0.0,0.0,0.0,0.0,0.0,0.0,0.0,0.0,0.20400000000000063,0.20400000000000063,0.0,0.0,0.0,55.0,616.79921,10000.0,85.000001,85.000001,85.000001,85.000001,395.0,0.0,0.0,0.0,1.0,333.33500000000004,53.04,53.04,48.752,48.752,34.0,-27.9025,20.008,-30.84,23.145,0.0,1783.174,0.8000000000000007,100.0,27.862,26.984,42.878,41.952,0.0,0.0,100.0,0.0,0.0,0.0,0.0,3138.5714285714284,2916.3,4066.222222222222,3852.7,305.2185,305.58675,314.8765,315.25825,21.818,20.5268,21.8052,21.355,314.999998,314.999998,324.999988,324.999988,99.55907142857143,99.507,99.56527142857144,99.54604285714285,-0.0173333333333332,-0.1359999999999999,-0.18983333333333335,0.03866666666666666,-0.03833333333332689,-0.041666666666671404,1.5190000000000001,1.589,37.361999999999995,29.292333333333332,37.282,34.469,56.257999999999996,34.482,59.055,51.97,54.187,33.6625,57.6765,50.309,53.363,33.2345,57.629,49.72366666666667,-0.008499999999999952,-0.137,0.10687500000000001,0.10125,0.0,207.0,206.88,203.94333333333333,203.94333333333333,0.0,0.0
5,0.0,0.0,0.0,1.0,1.0,0.0,0.0,1.0,0.0,100.0,1.0,1.1856,26.0,0.0,0.0,0.0,59.999996,0.0,26.0,26.0,26.0,26.0,-0.10862499999999997,0.29059999999999997,-0.03725,293.73199999999997,-2.6639,-2.7185555555555556,-1.5124,-1.598888888888889,-259.08,215.625,190.890375,0.0,0.0,0.0,0.0,0.011233333333333333,-5.498166666666667,-5.498166666666667,-0.5421,0.5289999999999999,-0.04925000000000024,-0.45999999999999996,66.219,-0.0821,-0.22667500000000002,1.2839999999999998,100.0,1.0,1.0,204.48666666666668,0.0,0.0,0.0,0.0,0.0,0.0,0.0,8667.5,0.0,55.0,5.0,238.35666666666668,1.0,0.0,0.0,0.0,0.0,0.0,0.0,0.0,0.254999999999999,0.254999999999999,0.0,0.0,1.0,55.0,616.79921,10000.0,85.000001,85.000001,85.000001,85.000001,395.0,0.0,0.0,0.0,1.0,166.665,53.146,53.146,49.332,49.332,34.0,-28.7875,18.938,-31.606666666666666,21.86,0.0,1783.124,0.34499999999999886,100.0,27.714,26.967,42.41,41.424,0.0,0.0,100.0,0.0,0.0,0.0,0.0,3197.4285714285716,2859.4,3973.8888888888887,3899.8,305.1485,305.577,315.2015,315.17075,21.828,20.5319,21.8155,21.3638,314.999998,314.999998,324.999988,324.999988,99.55908571428571,99.50701666666667,99.56541428571428,99.54617142857143,-0.023666666666666725,-0.1463333333333332,-0.21816666666666668,0.011333333333333334,-0.04999999999999716,-0.041666666666671404,1.5795,1.6515,37.425,29.324333333333335,37.347,34.5235,56.242999999999995,34.5235,59.0935,52.0265,54.173,33.7005,57.7125,50.363,53.348,33.271,57.662,49.776666666666664,-0.038000000000000034,-0.1070000000000002,0.104565,0.112085,0.0,207.47500000000002,207.37,204.48666666666668,204.48666666666668,0.0,0.0
6,0.0,0.0,0.0,1.0,1.0,0.0,0.0,1.0,0.0,100.0,1.0,1.1856,26.0,0.0,0.0,0.0,59.999996,0.0,26.0,26.0,26.0,26.0,-0.12449999999999994,0.29510000000000014,0.02535,293.488,-2.6476,-2.79,-1.5094,-1.5752222222222223,-255.9,215.625,190.870875,0.0,0.0,0.0,0.0,0.0131,-5.498166666666667,-5.498166666666667,-0.5255000000000001,-0.1080000000000001,-0.06450000000000022,-1.0470000000000002,66.35900000000001,-0.0877,-0.20385,1.0220000000000002,100.0,1.0,1.0,204.7266666666667,0.0,0.0,0.0,0.0,0.0,0.0,0.0,8677.6,0.0,55.0,5.0,238.86333333333334,0.0,0.0,0.0,0.0,0.0,0.0,0.0,0.0,0.3030000000000008,0.3030000000000008,0.0,0.0,0.0,55.0,616.79921,10000.0,85.000001,85.000001,85.000001,85.000001,395.0,0.0,0.0,0.0,1.0,166.665,53.604,53.604,48.416,48.416,34.0,-28.94,18.578,-34.98,23.155,0.0,1783.077,0.4499999999999993,100.0,27.412,26.658,42.629,41.605000000000004,0.0,0.0,100.0,0.0,0.0,0.0,0.0,3211.0,2758.5,4326.555555555556,4041.0,305.2005,305.8895,314.297,314.76925,21.8372,20.5367,21.825499999999998,21.3722,314.999998,314.999998,324.999988,324.999988,99.55908571428571,99.50703333333334,99.56554285714286,99.54631428571429,-0.030333333333333323,-0.15100000000000002,-0.20883333333333334,0.01616666666666667,-0.06499999999999773,-0.04999999999999716,1.5075,1.5565,37.482,29.354,37.409,34.576,56.227999999999994,34.5615,59.132999999999996,52.0835,54.158,33.7355,57.7495,50.418,53.333,33.3045,57.696,49.830666666666666,-0.04049999999999998,-0.10650000000000004,0.10724,0.108045,0.0,207.91500000000002,207.805,204.7266666666667,204.7266666666667,0.0,0.0
7,0.0,0.0,0.0,1.0,1.0,0.0,0.0,1.0,0.0,100.0,1.0,1.1856,26.0,0.0,0.0,0.0,59.999996,0.0,26.0,26.0,26.0,26.0,-0.08574999999999999,0.28690000000000015,-0.010175,293.564,-2.612,-2.7858888888888886,-1.5608,-1.620111111111111,-252.31,215.625,190.849125,0.0,0.0,0.0,0.0,0.015166666666666667,-5.498166666666667,-5.498166666666667,-0.534,0.126,-0.05500000000000016,-0.30799999999999983,66.513,-0.08940000000000001,-0.217625,0.8420000000000005,100.0,1.0,1.0,205.28333333333333,0.0,0.0,0.0,0.0,0.0,0.0,0.0,8701.2,0.0,55.0,5.0,239.41666666666669,1.0,0.0,0.0,0.0,0.0,0.0,0.0,0.0,0.3569999999999993,0.3569999999999993,0.0,0.0,1.0,55.0,616.79921,10000.0,85.000001,85.000001,85.000001,85.000001,395.0,0.0,0.0,0.0,1.0,166.665,53.284,53.284,48.874,48.874,34.0,-26.98,20.258,-33.803333333333335,22.4575,0.0,1783.021,0.0,100.0,27.701,26.834,42.667,41.644,0.0,0.0,100.0,0.0,0.0,0.0,0.0,3183.857142857143,2826.3,4122.666666666667,3912.9,305.1925,305.651,314.85025,315.08,21.8477,20.5421,21.8366,21.3816,314.999998,314.999998,324.999988,324.999988,99.55908571428571,99.50705,99.5657,99.54645714285714,0.004666666666666597,-0.12166666666666681,-0.21666666666666667,0.009666666666666665,-0.045000000000001705,-0.04833333333333201,1.5405,1.581,37.548,29.387999999999998,37.479,34.6355,56.212,34.605000000000004,59.176,52.1465,54.143,33.7755,57.789500000000004,50.4785,53.317,33.343,57.733000000000004,49.88933333333333,-0.07499999999999996,-0.07050000000000001,0.10601500000000001,0.10792500000000001,0.0,208.36,208.29000000000002,205.28333333333333,205.28333333333333,0.0,0.0
8,0.0,0.0,0.0,1.0,1.0,0.0,0.0,1.0,0.0,100.0,1.0,1.1856,26.0,0.0,0.0,0.0,59.999996,0.0,26.0,26.0,26.0,26.0,-0.0635,0.28690000000000015,-0.018675,293.549,-2.6912,-2.7190000000000003,-1.491,-1.611,-249.11,215.62,190.82975,0.0,0.0,0.0,0.0,0.017033333333333334,-5.498166666666667,-5.498166666666667,-0.5367000000000001,-0.2470000000000001,-0.04212499999999997,-0.9430000000000001,66.65,-0.0779,-0.218675,0.4800000000000004,100.0,1.0,1.0,205.66333333333333,0.0,0.0,0.0,0.0,0.0,0.0,0.0,8717.3,0.0,55.0,5.0,239.91,0.0,0.0,0.0,0.0,0.0,0.0,0.0,0.0,0.40500000000000114,0.40500000000000114,0.0,0.0,0.0,55.0,616.79921,10000.0,85.000001,85.000001,85.000001,85.000001,395.0,0.0,0.0,0.0,1.0,166.665,53.436,53.436,48.522999999999996,48.522999999999996,34.0,-26.6475,20.602,-31.13,24.0325,0.0,1782.975,-0.07000000000000028,100.0,27.353,26.893,42.714,41.823,0.0,0.0,100.0,0.0,0.0,0.0,0.0,3127.857142857143,2917.7,4061.777777777778,3971.7,305.4435,305.398,314.9355,314.9045,21.8568,20.5469,21.8465,21.3901,314.999998,314.999998,324.999988,324.999988,99.55908571428571,99.50705,99.56582857142857,99.54658571428571,0.013666666666666938,-0.1166666666666667,-0.19083333333333335,0.033166666666666664,-0.051666666666669414,-0.05333333333332746,1.546,1.564,37.605000000000004,29.418333333333333,37.54,34.688,56.196,34.643,59.214,52.203,54.128,33.8105,57.825,50.5325,53.301,33.376,57.766,49.94266666666667,-0.08199999999999996,-0.06550000000000011,0.10325500000000001,0.10633000000000001,0.0,208.765,208.72,205.66333333333333,205.66333333333333,0.0,0.0
9,0.0,0.0,0.0,1.0,1.0,0.0,0.0,1.0,0.0,100.0,1.0,1.1856,26.0,0.0,0.0,0.0,59.999996,0.0,26.0,26.0,26.0,26.0,-0.061999999999999944,0.2843,-0.007850000000000001,293.289,-2.6122,-2.7328888888888887,-1.54,-1.5687777777777778,-245.91,215.6125,190.81,0.0,0.0,0.0,0.0,0.0189,-5.498166666666667,-5.498166666666667,-0.5346000000000001,0.278,-0.05224999999999991,-0.6320000000000001,66.785,-0.0641,-0.2121,0.2760000000000007,100.0,1.0,1.0,206.09,0.0,0.0,0.0,0.0,0.0,0.0,0.0,8735.4,0.0,55.0,5.0,240.39666666666668,1.0,0.0,0.0,0.0,0.0,0.0,0.0,0.0,0.4529999999999994,0.4529999999999994,0.0,0.0,1.0,55.0,616.79921,10000.0,85.000001,85.000001,85.000001,85.000001,395.0,0.0,0.0,0.0,1.0,333.33500000000004,52.979,52.979,48.766999999999996,48.766999999999996,34.0,-26.8525,21.482,-31.19,24.5475,0.0,1782.925,-0.23499999999999943,100.0,27.683,27.02,42.638999999999996,41.832,0.0,0.0,100.0,0.0,0.0,0.0,0.0,3262.857142857143,2921.7,4102.555555555556,4055.7,305.0075,305.389,314.88075,314.75825,21.8661,20.5518,21.8563,21.3985,314.999998,314.999998,324.999988,324.999988,99.55908571428571,99.50706666666666,99.56597142857143,99.54672857142857,0.02400000000000002,-0.09833333333333316,-0.171,0.042333333333333334,-0.06666666666666998,-0.041666666666671404,1.53,1.5465,37.663,29.448999999999998,37.602000000000004,34.7405,56.182,34.681,59.251,52.259,54.114999999999995,33.8455,57.8595,50.586,53.287,33.4095,57.7975,49.99466666666667,-0.09099999999999997,-0.05650000000000022,0.09329000000000001,0.10578000000000001,0.0,209.2,209.155,206.09,206.09,0.0,0.0
10,0.0,0.0,0.0,1.0,1.0,0.0,0.0,1.0,0.0,100.0,1.0,1.1856,26.0,0.0,0.0,0.0,59.999996,0.0,26.0,26.0,26.0,26.0,-0.04599999999999993,0.2843,0.015075,293.167,-2.6666,-2.713222222222222,-1.5003000000000002,-1.5556666666666668,-242.5,215.60500000000002,190.78925,0.0,0.0,0.0,0.0,0.020900000000000002,-5.498166666666667,-5.498166666666667,-0.5277000000000001,-0.29899999999999993,-0.02375000000000016,1.7149999999999999,66.93,-0.048100000000000004,-0.21115,-0.006000000000000227,100.0,1.0,1.0,206.44333333333333,0.0,0.0,0.0,0.0,0.0,0.0,0.0,8750.3,0.0,55.0,5.0,240.92000000000002,0.0,0.0,0.0,0.0,0.0,0.0,1.0,0.0,0.5040000000000013,0.5040000000000013,0.0,0.0,0.0,55.0,616.79921,10000.0,85.000001,85.000001,85.000001,85.000001,395.0,0.0,0.0,0.0,1.0,333.33500000000004,53.314,53.314,48.263999999999996,48.263999999999996,34.0,-23.6925,22.334000000000003,-29.886666666666667,27.330000000000002,0.0,1782.875,-0.3049999999999997,100.0,27.823,26.86,42.925,42.129,0.0,0.0,100.0,0.0,0.0,0.0,0.0,2988.714285714286,2992.9,4121.666666666667,4249.7,305.6555,305.396,314.73575,314.35425,21.875799999999998,20.557,21.8668,21.4076,314.999998,314.999998,324.999988,324.999988,99.5591,99.50708333333333,99.56611428571429,99.54685714285715,0.05466666666666642,-0.08166666666666678,-0.14766666666666667,0.07016666666666667,-0.06333333333333258,-0.04833333333333201,1.5105,1.516,37.724000000000004,29.481333333333332,37.668,34.7975,56.168,34.7195,59.2915,52.32,54.101,33.8815,57.8975,50.644999999999996,53.272,33.4435,57.833,50.05233333333334,-0.10449999999999993,-0.052000000000000046,0.10168500000000001,0.10411000000000001,0.0,209.63,209.59,206.44333333333333,206.44333333333333,0.0,0.0
11,0.0,0.0,0.0,1.0,1.0,0.0,0.0,1.0,0.0,100.0,1.0,1.1856,26.0,0.0,0.0,0.0,59.999996,0.0,26.0,26.0,26.0,26.0,-0.03587499999999999,0.27700000000000014,-0.042675000000000005,293.457,-2.6779,-2.7023333333333333,-1.5589,-1.526888888888889,-238.88,215.595,190.767,0.0,0.0,0.0,0.0,0.022600000000000002,-5.498166666666667,-5.498166666666667,-0.5517000000000001,-0.10850000000000004,0.0020000000000000018,0.7569999999999997,67.08,-0.0296,-0.224525,-0.21199999999999974,100.0,1.0,1.0,207.05333333333334,0.0,0.0,0.0,0.0,0.0,0.0,0.0,8776.3,0.0,55.0,5.0,241.45666666666665,1.0,0.0,0.0,0.0,0.0,0.0,1.0,0.0,0.5579999999999998,0.5579999999999998,0.0,0.0,1.0,55.0,616.79921,10000.0,85.000001,85.000001,85.000001,85.000001,395.0,0.0,0.0,0.0,1.0,166.665,53.162,53.162,48.903999999999996,48.903999999999996,34.0,-23.8525,24.198,-27.633333333333333,26.55,0.0,1782.821,-0.6550000000000011,100.0,27.529,27.02,42.6,42.198,0.0,0.0,100.0,0.0,0.0,0.0,0.0,3028.857142857143,3102.9,3877.4444444444443,4053.2,305.555,305.02075,315.39575,314.846,21.886,20.5626,21.8778,21.4171,314.999998,314.999998,324.999988,324.999988,99.5591,99.5071,99.56625714285714,99.54701428571428,0.061666666666666536,-0.05899999999999994,-0.1375,0.0975,-0.03833333333332689,-0.060000000000002274,1.5825,1.5765,37.787,29.516333333333336,37.736000000000004,34.857,56.150999999999996,34.7605,59.3305,52.382999999999996,54.085,33.919,57.9335,50.7055,53.256,33.480000000000004,57.866,50.111666666666665,-0.10599999999999998,-0.03400000000000025,0.11169000000000001,0.10607000000000001,0.0,210.065,210.065,207.05333333333334,207.05333333333334,0.0,0.0
12,0.0,0.0,0.0,1.0,1.0,0.0,0.0,1.0,0.0,100.0,1.0,1.1856,26.0,0.0,0.0,0.0,59.999996,0.0,26.0,26.0,26.0,26.0,-0.016874999999999973,0.2873000000000001,0.008775,293.106,-2.7106,-2.6928888888888887,-1.5376,-1.5463333333333333,-235.86,215.5875,190.74775,0.0,0.0,0.0,0.0,0.025466666666666665,-5.498166666666667,-5.498166666666667,-0.5426,0.358,-0.0003750000000000142,-0.6699999999999999,67.207,-0.010700000000000001,-0.20570000000000002,-0.2599999999999998,100.0,1.0,1.0,207.34333333333333,0.0,0.0,0.0,0.0,0.0,0.0,0.0,8788.6,0.0,55.0,5.0,241.91333333333336,0.0,0.0,0.0,0.0,0.0,0.0,1.0,0.0,0.602999999999998,0.602999999999998,0.0,0.0,0.0,55.0,616.79921,10000.0,85.000001,85.000001,85.000001,85.000001,395.0,0.0,0.0,0.0,1.0,333.33500000000004,52.963,52.963,48.218,48.218,34.0,-25.9625,22.594,-29.113333333333333,27.7725,0.0,1782.776,-0.28000000000000114,100.0,27.425,27.378,42.423,42.283,0.0,0.0,100.0,0.0,0.0,0.0,0.0,3144.0,3039.9,4169.555555555556,4141.5,305.3795,305.027,314.749,314.5805,21.8945,20.5673,21.8869,21.4251,314.999998,314.999998,324.999988,324.999988,99.55911428571429,99.5071,99.56638571428572,99.54712857142857,0.03933333333333344,-0.08733333333333326,-0.1205,0.097,-0.05833333333333002,-0.04333333333332945,1.54,1.5274999999999999,37.841,29.545666666666666,37.793,34.9065,56.138999999999996,34.795,59.364,52.436,54.074,33.951,57.965,50.756,53.244,33.5105,57.894999999999996,50.16133333333333,-0.08099999999999996,-0.0665,0.109505,0.10258500000000001,0.0,210.47500000000002,210.49,207.34333333333333,207.34333333333333,0.0,0.0
13,0.0,0.0,0.0,1.0,1.0,0.0,0.0,1.0,0.0,100.0,1.0,1.1856,26.0,0.0,0.0,0.0,59.999996,0.0,26.0,26.0,26.0,26.0,0.02662500000000012,0.27360000000000007,0.019,292.786,-2.6826,-2.7039999999999997,-1.5666,-1.5552222222222223,-232.23,215.5775,190.724875,0.0,0.0,0.0,0.0,0.02686666666666667,-5.498166666666667,-5.498166666666667,-0.538,-0.2530000000000001,-0.0036249999999999893,-0.44799999999999995,67.358,-0.0009000000000000001,-0.21477500000000002,-0.20399999999999974,100.0,1.0,1.0,207.73666666666668,0.0,0.0,0.0,0.0,0.0,0.0,0.0,8805.2,0.0,55.0,5.0,242.46,1.0,0.0,0.0,0.0,0.0,0.0,1.0,0.0,0.657,0.657,0.0,0.0,1.0,55.0,616.79921,10000.0,85.000001,85.000001,85.000001,85.000001,395.0,0.0,0.0,0.0,1.0,166.665,52.795,52.795,48.05,48.05,34.0,-23.78,24.102,-29.1,29.4475,0.0,1782.722,-0.3550000000000004,100.0,27.665,27.543,42.745000000000005,42.733000000000004,0.0,0.0,100.0,0.0,0.0,0.0,0.0,3153.0,3001.8,4175.333333333333,4224.0,305.355,305.14075,314.69575,314.3285,21.9048,20.573,21.8981,21.4348,314.999998,314.999998,324.999988,324.999988,99.55912857142857,99.5071,99.56654285714286,99.54728571428572,0.08599999999999985,-0.04499999999999993,-0.1085,0.10983333333333332,-0.051666666666669414,-0.03999999999999915,1.52,1.5,37.905,29.581333333333333,37.863,34.967,56.125,34.836,59.4065,52.502,54.06,33.989,58.0045,50.8195,53.229,33.5465,57.931,50.22366666666667,-0.11049999999999993,-0.04499999999999993,0.10482000000000001,0.103175,0.0,210.935,210.93,207.73666666666668,207.73666666666668,0.0,0.0
14,0.0,0.0,0.0,1.0,1.0,0.0,0.0,1.0,0.0,100.0,1.0,1.1856,26.0,0.0,0.0,0.0,59.999996,0.0,26.0,26.0,26.0,26.0,0.016625000000000112,0.2761,-0.0241,293.03,-2.6974,-2.712777777777778,-1.5664,-1.5454444444444444,-228.79,215.57,190.7035,0.0,0.0,0.0,0.0,0.02886666666666667,-5.498166666666667,-5.498166666666667,-0.5505,-0.023500000000000076,0.01837500000000003,1.0650000000000004,67.498,0.0073,-0.22592500000000001,-0.33199999999999985,100.0,1.0,1.0,208.26333333333332,0.0,0.0,0.0,0.0,0.0,0.0,0.0,8827.5,0.0,55.0,5.0,242.96333333333334,0.0,0.0,0.0,0.0,0.0,0.0,1.0,0.0,0.7079999999999984,0.7079999999999984,0.0,0.0,0.0,55.0,616.79921,10000.0,85.000001,85.000001,85.000001,85.000001,395.0,0.0,0.0,0.0,1.0,166.665,52.826,52.826,48.400999999999996,48.400999999999996,34.0,-22.425,25.448,-26.943333333333335,29.1475,0.0,1782.671,-0.35999999999999943,100.0,27.8,27.532,42.688,42.693,0.0,0.0,100.0,0.0,0.0,0.0,0.0,2982.857142857143,3121.1,3947.8888888888887,4143.2,305.682,304.90425,315.20425,314.624,21.9144,20.5784,21.9085,21.4438,314.999998,314.999998,324.999988,324.999988,99.55912857142857,99.50711666666666,99.56668571428571,99.54742857142857,0.09100000000000019,-0.03699999999999992,-0.1045,0.126,-0.026666666666670835,-0.07333333333333059,1.5474999999999999,1.5455,37.965,29.615333333333332,37.928,35.024,56.111999999999995,34.8745,59.444,52.5625,54.047,34.0245,58.039500000000004,50.878,53.215,33.5805,57.963,50.28033333333333,-0.10350000000000004,-0.04899999999999993,0.10888,0.10639000000000001,0.0,211.345,211.385,208.26333333333332,208.26333333333332,0.0,0.0
15,0.0,0.0,0.0,1.0,1.0,0.0,0.0,1.0,0.0,100.0,1.0,1.1856,26.0,0.0,0.0,0.0,59.999996,0.0,26.0,26.0,26.0,26.0,0.0358750000000001,0.2793000000000001,-0.005275,292.892,-2.7006,-2.6806666666666668,-1.5792000000000002,-1.556888888888889,-225.75,215.5625,190.68425,0.0,0.0,0.0,0.0,0.030633333333333332,-5.498166666666667,-5.498166666666667,-0.5416000000000001,0.21699999999999997,0.03224999999999989,-0.827,67.622,0.013300000000000001,-0.21225000000000002,-0.30799999999999983,100.0,1.0,1.0,208.59,0.0,0.0,0.0,0.0,0.0,0.0,0.0,8841.4,0.0,55.0,5.0,243.41,1.0,0.0,0.0,0.0,0.0,0.0,1.0,0.0,0.7530000000000001,0.7530000000000001,0.0,0.0,1.0,55.0,616.79921,10000.0,85.000001,85.000001,85.000001,85.000001,395.0,0.0,0.0,0.0,1.0,333.33500000000004,52.811,52.811,48.157,48.157,34.0,-23.0275,24.13,-27.97,29.6025,0.0,1782.624,-0.28999999999999915,100.0,27.617,27.8,42.487,42.894,0.0,0.0,100.0,0.0,0.0,0.0,0.0,3055.857142857143,3012.4,4082.8888888888887,4189.8,305.659,305.0335,314.95375,314.38925,21.9229,20.5832,21.9177,21.4519,314.999998,314.999998,324.999988,324.999988,99.55914285714286,99.50711666666666,99.56682857142857,99.54757142857143,0.08700000000000019,-0.04400000000000004,-0.09933333333333333,0.11866666666666667,-0.04999999999999716,-0.05333333333332746,1.525,1.5165,38.018,29.645333333333333,37.985,35.074,56.099999999999994,34.911,59.4785,52.6205,54.036,34.058,58.0715,50.9335,53.203,33.613,57.992,50.33533333333334,-0.10099999999999998,-0.051000000000000156,0.10769000000000001,0.101385,0.0,211.76999999999998,211.785,208.59,208.59,0.0,0.0
16,0.0,0.0,0.0,1.0,1.0,0.0,0.0,1.0,0.0,100.0,1.0,1.1856,26.0,0.0,0.0,0.0,59.999996,0.0,26.0,26.0,26.0,26.0,0.0318750000000001,0.2683,-0.01635,292.801,-2.7571,-2.628888888888889,-1.5531000000000001,-1.5578888888888889,-222.09,215.5525,190.661,0.0,0.0,0.0,0.0,0.03276666666666667,-5.498166666666667,-5.498166666666667,-0.556,-0.4175,0.01749999999999985,-1.0979999999999999,67.77,0.015000000000000001,-0.2255,-0.1280000000000001,100.0,1.0,1.0,209.06,0.0,0.0,0.0,0.0,0.0,0.0,0.0,8861.3,0.0,55.0,5.0,243.94333333333333,0.0,0.0,0.0,0.0,0.0,0.0,1.0,0.0,0.8069999999999986,0.8069999999999986,0.0,0.0,0.0,55.0,616.79921,10000.0,85.000001,85.000001,85.000001,85.000001,395.0,0.0,0.0,0.0,1.0,166.665,52.536,52.536,48.004,48.004,34.0,-25.0775,24.992,-27.42,28.68,0.0,1782.572,-0.23000000000000043,100.0,27.462,27.829,42.749,43.033,0.0,0.0,100.0,0.0,0.0,0.0,0.0,3214.4285714285716,3135.9,4060.8888888888887,4012.4,305.2835,304.71925,314.9905,314.82275,21.933,20.589,21.9288,21.4615,314.999998,314.999998,324.999988,324.999988,99.55915714285715,99.50713333333333,99.56695714285715,99.54771428571429,0.08233333333333359,-0.03766666666666674,-0.0995,0.13116666666666665,-0.036666666666668846,-0.060000000000002274,1.5375,1.534,38.081,29.681333333333335,38.055,35.1345,56.086,34.9495,59.5175,52.681,54.022,34.0935,58.108000000000004,50.992,53.188,33.647,58.0255,50.39233333333333,-0.09350000000000003,-0.05549999999999988,0.101315,0.11214500000000001,0.0,212.175,212.21,209.06,209.06,0.0,0.0
17,0.0,0.0,0.0,1.0,1.0,0.0,0.0,1.0,0.0,100.0,1.0,1.1856,26.0,0.0,0.0,0.0,59.999996,0.0,26.0,26.0,26.0,26.0,0.0031250000000000444,0.2902,0.029150000000000002,292.404,-2.6211,-2.6205555555555557,-1.5941,-1.5234444444444444,-218.63,215.54500000000002,190.638625,0.0,0.0,0.0,0.0,0.03476666666666667,-5.498166666666667,-5.498166666666667,-0.5493,0.19399999999999995,-0.0027500000000002522,0.5730000000000004,67.91,0.012,-0.2127,-0.1819999999999995,100.0,1.0,1.0,209.41,0.0,0.0,0.0,0.0,0.0,0.0,0.0,8876.2,0.0,55.0,5.0,244.44666666666666,1.0,0.0,0.0,0.0,0.0,0.0,1.0,0.0,0.8580000000000005,0.8580000000000005,0.0,0.0,1.0,55.0,616.79921,10000.0,85.000001,85.000001,85.000001,85.000001,395.0,0.0,0.0,0.0,1.0,166.665,52.353,52.353,47.577,47.577,34.0,-22.56,25.234,-29.53,30.6925,0.0,1782.522,-0.1999999999999993,100.0,27.985,27.791,42.828,42.913,0.0,0.0,100.0,0.0,0.0,0.0,0.0,3098.714285714286,3184.4,4293.111111111111,4281.9,305.2765,304.75625,314.43225,314.32575,21.9426,20.5945,21.9392,21.4706,314.999998,314.999998,324.999988,324.999988,99.55917142857143,99.50713333333333,99.56711428571428,99.54787142857143,0.09699999999999998,-0.035666666666666735,-0.09,0.1355,-0.03999999999999915,-0.05666666666667197,1.513,1.5,38.141,29.715666666666664,38.120000000000005,35.1915,56.073,34.989,59.555,52.741,54.01,34.129999999999995,58.143,51.05,53.175,33.682,58.0575,50.449333333333335,-0.09399999999999997,-0.06300000000000017,0.10481000000000001,0.10436500000000001,0.0,212.65,212.65,209.41,209.41,0.0,0.0
18,0.0,0.0,0.0,1.0,1.0,0.0,0.0,1.0,0.0,100.0,1.0,1.1856,26.0,0.0,0.0,0.0,59.999996,0.0,26.0,26.0,26.0,26.0,0.007624999999999993,0.28690000000000015,0.024325000000000003,292.374,-2.6482,-2.605666666666667,-1.5916000000000001,-1.483,-215.57,215.54000000000002,190.618875,0.0,0.0,0.0,0.0,0.036533333333333334,-5.498166666666667,-5.498166666666667,-0.5599000000000001,-0.391,0.0009999999999998899,-0.4630000000000001,68.032,0.008,-0.22307500000000002,-0.0519999999999996,100.0,1.0,1.0,209.79000000000002,0.0,0.0,0.0,0.0,0.0,0.0,0.0,8892.3,0.0,55.0,5.0,244.88666666666666,0.0,0.0,0.0,0.0,0.0,0.0,1.0,0.0,0.9029999999999987,0.9029999999999987,0.0,0.0,0.0,55.0,616.79921,10000.0,85.000001,85.000001,85.000001,85.000001,395.0,0.0,0.0,0.0,1.0,333.33500000000004,52.246,52.246,47.577,47.577,34.0,-24.24,25.058,-30.45,28.4925,0.0,1782.475,-0.22499999999999787,100.0,27.764,27.857,42.912,43.14,0.0,0.0,100.0,0.0,0.0,0.0,0.0,3213.857142857143,3200.8,4235.666666666667,4214.0,305.147,304.59575,314.6085,314.39525,21.951,20.5993,21.9484,21.4787,314.999998,314.999998,324.999988,324.999988,99.55918571428572,99.50713333333333,99.56724285714286,99.54798571428572,0.08166666666666655,-0.04299999999999993,-0.11783333333333333,0.11433333333333333,-0.054999999999999716,-0.03833333333332689,1.5110000000000001,1.5135,38.194,29.745666666666665,38.178,35.242,56.061,35.0225,59.589,52.795,53.998000000000005,34.161,58.1745,51.1015,53.163,33.712,58.0865,50.5,-0.09299999999999997,-0.05650000000000022,0.11253500000000001,0.10493000000000001,0.0,213.025,212.995,209.79000000000002,209.79000000000002,0.0,0.0
19,0.0,0.0,0.0,1.0,1.0,0.0,0.0,1.0,0.0,100.0,1.0,1.1856,26.0,0.0,0.0,0.0,59.999996,0.0,26.0,26.0,26.0,26.0,0.023249999999999993,0.2865,0.058225000000000006,292.084,-2.6467,-2.710888888888889,-1.5247000000000002,-1.6034444444444444,-212.1,215.535,190.596125,0.0,0.0,0.0,0.0,0.03856666666666667,-5.498166666666667,-5.498166666666667,-0.5524,0.6575,0.011500000000000066,0.7839999999999998,68.17,0.0044,-0.2155,-0.10599999999999987,100.0,1.0,1.0,210.21,0.0,0.0,0.0,0.0,0.0,0.0,0.0,8910.0,0.0,55.0,5.0,245.38333333333333,1.0,0.0,0.0,0.0,0.0,0.0,1.0,0.0,0.9540000000000006,0.9540000000000006,0.0,0.0,1.0,55.0,616.79921,10000.0,85.000001,85.000001,85.000001,85.000001,395.0,0.0,0.0,0.0,1.0,166.665,51.91,51.91,47.684,47.684,34.0,-22.9375,25.534,-28.16,32.144999999999996,0.0,1782.425,-0.16000000000000014,100.0,28.456,28.195999999999998,42.907,43.111000000000004,0.0,0.0,100.0,0.0,0.0,0.0,0.0,3093.285714285714,3169.8,4160.555555555556,4375.1,305.3055,304.65025,314.6935,313.977,21.9607,20.6049,21.9588,21.4879,314.999998,314.999998,324.999988,324.999988,99.5592,99.50713333333333,99.56738571428572,99.54812857142858,0.09266666666666667,-0.04933333333333323,-0.09966666666666667,0.1215,-0.03999999999999915,-0.054999999999999716,1.4855,1.4895,38.254000000000005,29.78033333333333,38.242000000000004,35.299,56.049,35.063,59.6255,52.8555,53.986999999999995,34.198499999999996,58.2085,51.16,53.150999999999996,33.7475,58.1175,50.55733333333333,-0.09399999999999997,-0.06450000000000022,0.10522000000000001,0.10421000000000001,0.0,213.47500000000002,213.46,210.21,210.21,0.0,0.0
20,0.0,0.0,0.0,1.0,1.0,0.0,0.0,1.0,0.0,100.0,1.0,1.1856,26.0,0.0,0.0,0.0,59.999996,0.0,26.0,26.0,26.0,26.0,0.02100000000000013,0.26039999999999996,-0.006975,292.313,-2.746,-2.6581111111111113,-1.5321,-1.590888888888889,-208.62,215.5275,190.57375,0.0,0.0,0.0,0.0,0.04056666666666667,-5.498166666666667,-5.498166666666667,-0.5547000000000001,-0.875,0.008000000000000007,-1.012,68.30799999999999,0.0014,-0.22575,0.0600000000000005,100.0,1.0,1.0,210.60333333333335,0.0,0.0,0.0,0.0,0.0,0.0,0.0,8926.7,0.0,55.0,5.0,245.88333333333333,0.0,0.0,0.0,0.0,0.0,0.0,0.0,0.0,1.004999999999999,1.004999999999999,0.0,0.0,0.0,55.0,616.79921,10000.0,85.000001,85.000001,85.000001,85.000001,395.0,0.0,0.0,0.0,1.0,166.665,52.536,52.536,47.256,47.256,34.0,-24.662499999999998,23.284,-28.933333333333334,29.25,0.0,1782.374,-0.14000000000000057,100.0,27.844,28.059,43.416,43.650999999999996,0.0,0.0,100.0,0.0,0.0,0.0,0.0,3142.5714285714284,3019.8,4175.888888888889,4109.9,305.4955,305.084,314.68625,314.51875,21.9701,20.6103,21.9694,21.4971,314.999998,314.999998,324.999988,324.999988,99.5592,99.50715,99.56752857142857,99.54828571428571,0.07500000000000018,-0.06000000000000005,-0.10983333333333332,0.11083333333333333,-0.046666666666666856,-0.046666666666666856,1.478,1.4889999999999999,38.313,29.814333333333334,38.308,35.357,56.035,35.1015,59.6655,52.918,53.973,34.234,58.246,51.22,53.135999999999996,33.782,58.152,50.616,-0.08950000000000002,-0.06700000000000017,0.10419,0.11177000000000001,0.0,213.86,213.85000000000002,210.60333333333335,210.60333333333335,0.0,0.0
21,0.0,0.0,0.0,1.0,1.0,0.0,0.0,1.0,0.0,100.0,1.0,1.1856,26.0,0.0,0.0,0.0,59.999996,0.0,26.0,26.0,26.0,26.0,-0.011624999999999996,0.2732000000000001,-0.05575,292.603,-2.7077,-2.671333333333333,-1.5750000000000002,-1.5363333333333333,-205.13,215.5225,190.55075,0.0,0.0,0.0,0.0,0.0426,-5.498166666666667,-5.498166666666667,-0.5733,0.16600000000000004,-0.004125000000000156,0.5529999999999999,68.44200000000001,-0.0038,-0.22185000000000002,-0.02400000000000002,100.0,1.0,1.0,211.16666666666669,0.0,0.0,0.0,0.0,0.0,0.0,0.0,8950.6,0.0,55.0,5.0,246.36333333333334,1.0,0.0,0.0,0.0,0.0,0.0,0.0,0.0,1.056000000000001,1.056000000000001,0.0,0.0,1.0,55.0,616.79921,10000.0,85.000001,85.000001,85.000001,85.000001,395.0,0.0,0.0,0.0,1.0,166.665,52.383,52.383,48.035,48.035,34.0,-23.8675,25.067999999999998,-27.926666666666666,27.855,0.0,1782.323,-0.22499999999999787,100.0,28.129,27.807,43.101,43.137,0.0,0.0,100.0,0.0,0.0,0.0,0.0,3120.285714285714,3160.0,4034.3333333333335,4048.0,305.3345,304.8765,315.0555,314.90275,21.9796,20.6158,21.9796,21.5061,314.999998,314.999998,324.999988,324.999988,99.55921428571429,99.50715,99.56767142857143,99.54842857142857,0.08700000000000019,-0.044333333333333114,-0.11,0.1205,-0.03333333333333144,-0.051666666666669414,1.569,1.5630000000000002,38.372,29.848666666666666,38.373000000000005,35.4135,56.021,35.141,59.7005,52.975,53.96,34.269999999999996,58.2785,51.275,53.122,33.8165,58.1815,50.67,-0.09450000000000003,-0.06000000000000005,0.10880000000000001,0.10835000000000002,0.0,214.29000000000002,214.285,211.16666666666669,211.16666666666669,0.0,0.0
22,0.0,0.0,0.0,1.0,1.0,0.0,0.0,1.0,0.0,100.0,1.0,1.1856,26.0,0.0,0.0,0.0,59.999996,0.0,26.0,26.0,26.0,26.0,0.003875000000000073,0.2892000000000001,0.0019,292.221,-2.7685,-2.6366666666666667,-1.5955,-1.534888888888889,-201.85,215.51749999999998,190.528375,0.0,0.0,0.0,0.0,0.044533333333333334,-5.498166666666667,-5.498166666666667,-0.558,0.014499999999999957,0.0044999999999999485,0.968,68.572,-0.0045000000000000005,-0.20097500000000001,-0.14399999999999924,100.0,1.0,1.0,211.4,0.0,0.0,0.0,0.0,0.0,0.0,0.0,8960.5,0.0,55.0,5.0,246.83333333333334,0.0,0.0,0.0,0.0,0.0,0.0,0.0,0.0,1.1039999999999992,1.1039999999999992,0.0,0.0,0.0,55.0,616.79921,10000.0,85.000001,85.000001,85.000001,85.000001,395.0,0.0,0.0,0.0,1.0,333.33500000000004,52.567,52.567,47.134,47.134,34.0,-23.412499999999998,24.356,-30.683333333333334,30.585,0.0,1782.273,-0.3000000000000007,100.0,28.212,27.919,43.335,43.253,0.0,0.0,100.0,0.0,0.0,0.0,0.0,3019.0,3122.9,4252.888888888889,4387.9,305.738,305.0365,314.50125,314.08875,21.9885,20.621,21.9895,21.5148,314.999998,314.999998,324.999988,324.999988,99.55922857142858,99.50716666666666,99.56781428571429,99.54857142857144,0.08666666666666645,-0.044333333333333114,-0.1145,0.11216666666666668,-0.03333333333333144,-0.05333333333332746,1.4925,1.4849999999999999,38.428,29.881333333333334,38.434,35.4675,56.009,35.1775,59.737,53.0325,53.949,34.304,58.3125,51.3305,53.108999999999995,33.849000000000004,58.2125,50.724000000000004,-0.10449999999999993,-0.04850000000000021,0.108935,0.11216500000000001,0.0,214.695,214.685,211.4,211.4,0.0,0.0
23,0.0,0.0,0.0,1.0,1.0,0.0,0.0,1.0,0.0,100.0,1.0,1.1856,26.0,0.0,0.0,0.0,59.999996,0.0,26.0,26.0,26.0,26.0,-0.0044999999999999485,0.27690000000000015,-0.039875,292.053,-2.6778,-2.6686666666666667,-1.6487,-1.5102222222222221,-198.34,215.5125,190.504875,0.0,0.0,0.0,0.0,0.04656666666666667,-5.498166666666667,-5.498166666666667,-0.5742,-0.20700000000000007,-0.00012500000000015277,-0.7629999999999999,68.707,0.0008,-0.22660000000000002,-0.09199999999999964,100.0,1.0,1.0,211.88666666666666,0.0,0.0,0.0,0.0,0.0,0.0,0.0,8981.1,0.0,55.0,5.0,247.31666666666666,1.0,0.0,0.0,0.0,0.0,0.0,0.0,0.0,1.1550000000000011,1.1550000000000011,0.0,0.0,1.0,55.0,616.79921,10000.0,85.000001,85.000001,85.000001,85.000001,395.0,0.0,0.0,0.0,1.0,333.33500000000004,51.804,51.804,47.699,47.699,34.0,-26.0175,24.054000000000002,-30.46666666666667,27.5,0.0,1782.222,-0.22499999999999787,100.0,28.29,28.255,43.373,43.58,0.0,0.0,100.0,0.0,0.0,0.0,0.0,3365.714285714286,3074.8,4170.555555555556,4093.0,304.8145,304.907,314.827,314.7355,21.9979,20.6266,21.9999,21.524,314.999998,314.999998,324.999988,324.999988,99.55922857142858,99.50716666666666,99.56795714285714,99.54871428571428,0.07633333333333336,-0.05600000000000005,-0.11733333333333333,0.10933333333333332,-0.051666666666669414,-0.04333333333332945,1.54,1.541,38.486999999999995,29.916,38.5,35.5255,55.995999999999995,35.2175,59.775,53.0935,53.936,34.341,58.348,51.388999999999996,53.096000000000004,33.8845,58.245,50.781333333333336,-0.09750000000000003,-0.06400000000000006,0.11094500000000002,0.10250000000000001,0.0,215.095,215.09,211.88666666666666,211.88666666666666,0.0,0.0
24,0.0,0.0,0.0,1.0,1.0,0.0,0.0,1.0,0.0,100.0,1.0,1.1856,26.0,0.0,0.0,0.0,59.999996,0.0,26.0,26.0,26.0,26.0,0.01100000000000012,0.278,-0.02305,292.389,-2.6854,-2.673222222222222,-1.5465,-1.538888888888889,-195.04,215.5075,190.482375,0.0,0.0,0.0,0.0,0.04846666666666667,-5.498166666666667,-5.498166666666667,-0.5831000000000001,-0.31699999999999995,0.010874999999999968,-0.14900000000000002,68.834,0.0055000000000000005,-0.2212,-0.0860000000000003,100.0,1.0,1.0,212.24666666666667,0.0,0.0,0.0,0.0,0.0,0.0,0.0,8996.4,0.0,55.0,5.0,247.77666666666664,0.0,0.0,0.0,0.0,0.0,0.0,0.0,0.0,1.2029999999999994,1.2029999999999994,0.0,0.0,0.0,55.0,616.79921,10000.0,85.000001,85.000001,85.000001,85.000001,395.0,0.0,0.0,0.0,1.0,166.665,52.704,52.704,47.333,47.333,34.0,-23.065,22.951999999999998,-29.693333333333335,28.8425,0.0,1782.176,-0.21000000000000085,100.0,28.076,27.978,43.312,43.538,0.0,0.0,100.0,0.0,0.0,0.0,0.0,3055.0,2973.4,4248.222222222223,4135.6,305.6635,305.266,314.51675,314.62225,22.0068,20.6317,22.0097,21.5327,314.999998,314.999998,324.999988,324.999988,99.55925714285715,99.50718333333333,99.5681,99.54885714285714,0.08400000000000007,-0.06033333333333313,-0.11183333333333333,0.11733333333333333,-0.036666666666668846,-0.04833333333333201,1.5185,1.501,38.542,29.948,38.561,35.579,55.983999999999995,35.2535,59.8105,53.1495,53.924,34.3745,58.381,51.443,53.083,33.9165,58.275,50.834,-0.09650000000000003,-0.06050000000000022,0.10038000000000001,0.10939000000000002,0.0,215.49,215.49,212.24666666666667,212.24666666666667,0.0,0.0
25,0.0,0.0,0.0,1.0,1.0,0.0,0.0,1.0,0.0,100.0,1.0,1.1856,26.0,0.0,0.0,0.0,59.999996,0.0,26.0,26.0,26.0,26.0,0.010750000000000037,0.26639999999999997,-0.030675,292.252,-2.7479,-2.6496666666666666,-1.5904,-1.5384444444444443,-191.53,215.5025,190.457125,0.0,0.0,0.0,0.0,0.05053333333333333,-5.498166666666667,-5.498166666666667,-0.6032000000000001,-0.03750000000000009,0.021625000000000005,0.23899999999999988,68.967,0.0055000000000000005,-0.21982500000000002,-0.18599999999999994,100.0,1.0,1.0,212.72333333333333,0.0,0.0,0.0,0.0,0.0,0.0,0.0,9016.6,0.0,55.0,5.0,248.25666666666666,1.0,0.0,0.0,0.0,0.0,0.0,0.0,0.0,1.2540000000000013,1.2540000000000013,0.0,0.0,1.0,55.0,616.79921,10000.0,85.000001,85.000001,85.000001,85.000001,395.0,0.0,0.0,0.0,1.0,166.665,51.926,51.926,47.852000000000004,47.852000000000004,34.0,-24.745,26.854,-27.246666666666666,29.177500000000002,0.0,1782.125,-0.254999999999999,100.0,28.062,28.006,43.153999999999996,43.274,0.0,0.0,100.0,0.0,0.0,0.0,0.0,3216.285714285714,3329.1,3986.8888888888887,4151.4,305.1345,304.327,315.194,314.64425,22.0161,20.6373,22.02,21.5418,314.999998,314.999998,324.999988,324.999988,99.55925714285715,99.50718333333333,99.56824285714286,99.549,0.09333333333333371,-0.03600000000000003,-0.0985,0.1255,-0.041666666666671404,-0.06833333333332803,1.548,1.5335,38.599999999999994,29.983,38.625,35.6365,55.97,35.293,59.846000000000004,53.208,53.911,34.411,58.414,51.499,53.069,33.951499999999996,58.305,50.88933333333333,-0.10299999999999998,-0.05799999999999983,0.106855,0.10277000000000001,0.0,215.91,215.905,212.72333333333333,212.72333333333333,0.0,0.0
26,0.0,0.0,0.0,1.0,1.0,0.0,0.0,1.0,0.0,100.0,1.0,1.1856,26.0,0.0,0.0,0.0,59.999996,0.0,26.0,26.0,26.0,26.0,0.013249999999999984,0.2782,0.088675,291.336,-2.7024,-2.734111111111111,-1.5513,-1.5575555555555556,-187.8,215.4975,190.430125,0.0,0.0,0.0,0.0,0.052700000000000004,-5.498166666666667,-5.498166666666667,-0.5732,0.35,0.007374999999999909,0.8739999999999997,69.111,0.0061,-0.20167500000000002,-0.16000000000000014,100.0,1.0,1.0,212.94666666666666,0.0,0.0,0.0,0.0,0.0,0.0,0.0,9026.1,0.0,55.0,5.0,248.77333333333334,0.0,0.0,0.0,0.0,0.0,0.0,0.0,0.0,1.3079999999999998,1.3079999999999998,0.0,0.0,0.0,55.0,616.79921,10000.0,85.000001,85.000001,85.000001,85.000001,395.0,0.0,0.0,0.0,1.0,166.665,51.712,51.712,46.524,46.524,34.0,-23.6675,25.264,-31.28,32.6625,0.0,1782.071,-0.3150000000000013,100.0,28.856,28.525,43.657,43.733000000000004,0.0,0.0,100.0,0.0,0.0,0.0,0.0,3159.714285714286,3098.7,4460.777777777777,4505.8,305.2325,304.975,313.9835,313.72425,22.0262,20.6433,22.0311,21.5517,314.999998,314.999998,324.999988,324.999988,99.55927142857144,99.5072,99.5684,99.54915714285714,0.09866666666666646,-0.04233333333333311,-0.09916666666666667,0.11866666666666667,-0.03499999999999659,-0.041666666666671404,1.4344999999999999,1.4335,38.664,30.021,38.695,35.698,55.959,35.336,59.8875,53.2735,53.9,34.451,58.453,51.562,53.057,33.9895,58.3405,50.951,-0.10599999999999998,-0.06400000000000006,0.107605,0.10716,0.0,216.375,216.365,212.94666666666666,212.94666666666666,0.0,0.0
27,0.0,0.0,0.0,1.0,1.0,0.0,0.0,1.0,0.0,100.0,1.0,1.1856,26.0,0.0,0.0,0.0,59.999996,0.0,26.0,26.0,26.0,26.0,0.03687499999999999,0.2619,-0.024875,291.824,-2.6992,-2.6654444444444443,-1.6089,-1.616888888888889,-184.69,215.4925,190.408375,0.0,0.0,0.0,0.0,0.0545,-5.498166666666667,-5.498166666666667,-0.595,-0.9140000000000001,0.010000000000000009,-0.7010000000000001,69.227,0.0079,-0.238075,-0.19200000000000017,100.0,1.0,1.0,213.43,0.0,0.0,0.0,0.0,0.0,0.0,0.0,9046.5,0.0,55.0,5.0,249.19333333333333,1.0,0.0,0.0,0.0,0.0,0.0,0.0,0.0,1.352999999999998,1.352999999999998,0.0,0.0,1.0,55.0,616.79921,10000.0,85.000001,85.000001,85.000001,85.000001,395.0,0.0,0.0,0.0,1.0,166.665,52.016999999999996,52.016999999999996,46.707,46.707,34.0,-23.1525,24.567999999999998,-29.616666666666667,29.165,0.0,1782.026,-0.3200000000000003,100.0,28.357,28.601,43.986000000000004,44.187,0.0,0.0,100.0,0.0,0.0,0.0,0.0,3104.285714285714,3103.0,4177.555555555556,4033.1000000000004,305.549,304.83075,314.76725,314.76925,22.0345,20.6483,22.0405,21.5599,314.999998,314.999998,324.999988,324.999988,99.55928571428572,99.5072,99.56852857142857,99.54928571428572,0.09466666666666645,-0.04933333333333323,-0.10566666666666667,0.116,-0.05333333333332746,-0.03499999999999659,1.506,1.4895,38.716,30.051666666666666,38.753,35.7495,55.947,35.371,59.922,53.3275,53.888999999999996,34.483000000000004,58.4855,51.614,53.045,34.0205,58.37,51.001666666666665,-0.10949999999999993,-0.05750000000000011,0.10259000000000001,0.10372,0.0,216.70499999999998,216.68,213.43,213.43,0.0,0.0
28,0.0,0.0,0.0,1.0,1.0,0.0,0.0,1.0,0.0,100.0,1.0,1.1856,26.0,0.0,0.0,0.0,59.999996,0.0,26.0,26.0,26.0,26.0,0.03550000000000009,0.2703,-0.056025000000000005,291.977,-2.6821,-2.6574444444444443,-1.6226,-1.5704444444444443,-180.95,215.49,190.3815,0.0,0.0,0.0,0.0,0.056666666666666664,-5.498166666666667,-5.498166666666667,-0.6013000000000001,0.6185,0.0,-0.8199999999999998,69.366,0.0106,-0.21555000000000002,-0.21399999999999952,100.0,1.0,1.0,213.94333333333333,0.0,0.0,0.0,0.0,0.0,0.0,0.0,9068.3,0.0,55.0,5.0,249.68666666666667,0.0,0.0,0.0,0.0,0.0,0.0,0.0,0.0,1.407,1.407,0.0,0.0,0.0,55.0,616.79921,10000.0,85.000001,85.000001,85.000001,85.000001,395.0,0.0,0.0,0.0,1.0,166.665,51.894999999999996,51.894999999999996,47.348,47.348,34.0,-23.3475,24.666,-29.126666666666665,29.44,0.0,1781.972,-0.34999999999999787,100.0,28.462,28.573999999999998,43.400999999999996,43.74,0.0,0.0,100.0,0.0,0.0,0.0,0.0,3154.285714285714,3082.8,4181.444444444444,4124.5,305.3265,304.88225,314.86325,314.69625,22.0445,20.6543,22.0513,21.5696,314.999998,314.999998,324.999988,324.999988,99.5593,99.50721666666666,99.56868571428572,99.54944285714285,0.09866666666666646,-0.04133333333333322,-0.09933333333333333,0.127,-0.036666666666668846,-0.03166666666666629,1.5615,1.5445,38.778,30.089333333333336,38.821,35.8095,55.935,35.413,59.958,53.388,53.876999999999995,34.522,58.5185,51.673,53.032,34.0575,58.4,51.059,-0.10849999999999993,-0.04800000000000004,0.10491,0.108475,0.0,217.15,217.15,213.94333333333333,213.94333333333333,0.0,0.0
29,0.0,0.0,0.0,1.0,1.0,0.0,0.0,1.0,0.0,100.0,1.0,1.1856,26.0,0.0,0.0,0.0,59.999996,0.0,26.0,26.0,26.0,26.0,0.04062499999999991,0.2601,0.002925,291.779,-2.6624,-2.714444444444444,-1.5702,-1.5487777777777778,-177.61,215.4875,190.356625,0.0,0.0,0.0,0.0,0.058600000000000006,-5.498166666666667,-5.498166666666667,-0.6035,-0.6695,-0.001374999999999904,-0.7730000000000001,69.492,0.012700000000000001,-0.2141,-0.24600000000000044,100.0,1.0,1.0,214.16666666666669,0.0,0.0,0.0,0.0,0.0,0.0,0.0,9077.7,0.0,55.0,5.0,250.14666666666665,1.0,0.0,0.0,0.0,0.0,0.0,0.0,0.0,1.4549999999999983,1.4549999999999983,0.0,0.0,1.0,55.0,616.79921,10000.0,85.000001,85.000001,85.000001,85.000001,395.0,0.0,0.0,0.0,1.0,333.33500000000004,52.261,52.261,46.707,46.707,34.0,-22.59,24.482,-29.936666666666667,30.81,0.0,1781.922,-0.384999999999998,100.0,28.127,28.41,43.801,44.052,0.0,0.0,100.0,0.0,0.0,0.0,0.0,3135.5714285714284,3031.9,4239.888888888889,4271.5,305.5025,304.9995,314.55675,314.235,22.0532,20.6595,22.0612,21.5784,314.999998,314.999998,324.999988,324.999988,99.55931428571428,99.50721666666666,99.56884285714285,99.54958571428571,0.10499999999999998,-0.047666666666666746,-0.10783333333333334,0.12616666666666668,-0.05333333333332746,-0.03333333333333144,1.479,1.4795,38.833,30.122,38.882999999999996,35.8645,55.921,35.451,59.9975,53.4495,53.864000000000004,34.557,58.5555,51.732,53.016999999999996,34.091499999999996,58.4335,51.11666666666667,-0.11299999999999999,-0.053999999999999826,0.11381000000000001,0.109215,0.0,217.515,217.505,214.16666666666669,214.16666666666669,0.0,0.0
30,0.0,0.0,0.0,1.0,1.0,0.0,0.0,1.0,0.0,100.0,1.0,1.1856,26.0,0.0,0.0,0.0,59.999996,0.0,26.0,26.0,26.0,26.0,0.052875000000000005,0.24209999999999998,0.00905,291.245,-2.6803,-2.600888888888889,-1.5455,-1.604111111111111,-174.26999999999998,215.485,190.33175,0.0,0.0,0.0,0.0,0.06053333333333334,-5.498166666666667,-5.498166666666667,-0.6079,0.744,-0.002000000000000224,-0.5489999999999999,69.613,0.0154,-0.220725,-0.32399999999999984,100.0,1.0,1.0,214.67333333333335,0.0,0.0,0.0,0.0,0.0,0.0,0.0,9099.2,0.0,55.0,5.0,250.57999999999998,0.0,0.0,0.0,0.0,0.0,0.0,1.0,0.0,1.5030000000000001,1.5030000000000001,0.0,0.0,0.0,55.0,616.79921,10000.0,85.000001,85.000001,85.000001,85.000001,395.0,0.0,0.0,0.0,1.0,166.665,50.537,50.537,47.287,47.287,34.0,-25.555,26.176000000000002,-27.81,29.825,0.0,1781.877,-0.36499999999999844,100.0,29.014,29.081,43.58,43.982,0.0,0.0,100.0,0.0,0.0,0.0,0.0,3412.5714285714284,3287.1,4092.3333333333335,4084.8,304.487,304.1205,314.989,314.685,22.0623,20.6651,22.070999999999998,21.5871,314.999998,314.999998,324.999988,324.999988,99.55931428571428,99.50721666666666,99.56895714285714,99.54971428571429,0.10099999999999998,-0.04133333333333322,-0.10300000000000001,0.126,-0.04833333333333201,-0.041666666666671404,1.524,1.5115,38.888999999999996,30.156666666666666,38.944,35.919,55.913,35.488,60.028,53.5015,53.857,34.591499999999996,58.584,51.782,53.009,34.1245,58.459,51.16566666666667,-0.11549999999999994,-0.053999999999999826,0.10618000000000001,0.1058,0.0,217.91,217.925,214.67333333333335,214.67333333333335,0.0,0.0
31,0.0,0.0,0.0,1.0,1.0,0.0,0.0,1.0,0.0,100.0,1.0,1.1856,26.0,0.0,0.0,0.0,59.999996,0.0,26.0,26.0,26.0,26.0,0.02849999999999997,0.2573000000000001,0.049325,290.771,-2.7678,-2.628222222222222,-1.6399,-1.4993333333333332,-170.51,215.48250000000002,190.304375,0.0,0.0,0.0,0.0,0.06273333333333334,-5.498166666666667,-5.498166666666667,-0.5887,-0.4505000000000001,0.007125000000000048,-0.8239999999999998,69.754,0.019700000000000002,-0.22110000000000002,-0.27199999999999935,100.0,1.0,1.0,214.90333333333334,0.0,0.0,0.0,0.0,0.0,0.0,0.0,9108.9,0.0,55.0,5.0,251.08666666666664,1.0,0.0,0.0,0.0,0.0,0.0,1.0,0.0,1.5569999999999986,1.5569999999999986,0.0,0.0,1.0,55.0,616.79921,10000.0,85.000001,85.000001,85.000001,85.000001,395.0,0.0,0.0,0.0,1.0,166.665,51.041,51.041,45.7,45.7,34.0,-24.537499999999998,26.382,-31.196666666666665,30.525000000000002,0.0,1781.822,-0.3949999999999996,100.0,28.884,29.243000000000002,44.374,44.784,0.0,0.0,100.0,0.0,0.0,0.0,0.0,3264.4285714285716,3277.7,4349.333333333333,4306.2,305.179,304.36925,314.2975,314.09925,22.0722,20.6712,22.0822,21.5971,314.999998,314.999998,324.999988,324.999988,99.55932857142857,99.50723333333333,99.56912857142858,99.54988571428571,0.10766666666666636,-0.03499999999999992,-0.09233333333333334,0.12333333333333334,-0.041666666666671404,-0.03833333333332689,1.4485000000000001,1.4355,38.951,30.194666666666667,39.013999999999996,35.982,55.902,35.531,60.071,53.5685,53.845,34.631,58.624,51.8465,52.997,34.162,58.496,51.22866666666667,-0.11399999999999999,-0.05049999999999999,0.103595,0.10638500000000001,0.0,218.34,218.32999999999998,214.90333333333334,214.90333333333334,0.0,0.0
32,0.0,0.0,0.0,1.0,1.0,0.0,0.0,1.0,0.0,100.0,1.0,1.1856,26.0,0.0,0.0,0.0,59.999996,0.0,26.0,26.0,26.0,26.0,0.046375000000000055,0.27280000000000015,-0.023375,291.26,-2.6958,-2.6833333333333336,-1.5843,-1.5522222222222222,-167.16,215.48250000000002,190.280375,0.0,0.0,0.0,0.0,0.06466666666666666,-5.498166666666667,-5.498166666666667,-0.607,-0.23950000000000005,-0.009625000000000217,-0.9790000000000001,69.874,0.020300000000000002,-0.23265000000000002,-0.3179999999999996,100.0,1.0,1.0,215.39666666666668,0.0,0.0,0.0,0.0,0.0,0.0,0.0,9129.9,0.0,55.0,5.0,251.51999999999998,0.0,0.0,0.0,0.0,0.0,0.0,1.0,0.0,1.6050000000000004,1.6050000000000004,0.0,0.0,0.0,55.0,616.79921,10000.0,85.000001,85.000001,85.000001,85.000001,395.0,0.0,0.0,0.0,1.0,333.33500000000004,51.483000000000004,51.483000000000004,46.509,46.509,34.0,-23.224999999999998,25.538,-28.64,30.9675,0.0,1781.772,-0.39000000000000057,100.0,28.763,29.093,44.184,44.584,0.0,0.0,100.0,0.0,0.0,0.0,0.0,3197.714285714286,3097.8,4178.888888888889,4277.2,305.265,304.8375,314.715,314.34575,22.0809,20.6766,22.092,21.6059,314.999998,314.999998,324.999988,324.999988,99.55935714285714,99.50723333333333,99.56927142857143,99.55004285714286,0.1113333333333335,-0.02966666666666673,-0.092,0.13233333333333336,-0.04833333333333201,-0.060000000000002274,1.513,1.51,39.006,30.228666666666665,39.075,36.036500000000004,55.89,35.570499999999996,60.1065,53.628,53.834,34.667500000000004,58.657,51.903999999999996,52.983999999999995,34.1975,58.5255,51.284666666666666,-0.11449999999999994,-0.04800000000000004,0.10780500000000001,0.10602500000000001,0.0,218.7,218.7,215.39666666666668,215.39666666666668,0.0,0.0
33,0.0,0.0,0.0,1.0,1.0,0.0,0.0,1.0,0.0,100.0,1.0,1.1856,26.0,0.0,0.0,0.0,59.999996,0.0,26.0,26.0,26.0,26.0,0.03875000000000006,0.262,-0.051275,291.58,-2.7239,-2.6821111111111113,-1.5897000000000001,-1.5923333333333334,-163.8,215.48250000000002,190.255375,0.0,0.0,0.0,0.0,0.06663333333333334,-5.498166666666667,-5.498166666666667,-0.6145,-0.22100000000000009,-0.014750000000000263,-0.2599999999999998,69.995,0.021500000000000002,-0.21695,-0.2919999999999998,100.0,1.0,1.0,215.7866666666667,0.0,0.0,0.0,0.0,0.0,0.0,0.0,9146.5,0.0,55.0,5.0,251.95666666666665,1.0,0.0,0.0,0.0,0.0,0.0,1.0,0.0,1.6529999999999987,1.6529999999999987,0.0,0.0,1.0,55.0,616.79921,10000.0,85.000001,85.000001,85.000001,85.000001,395.0,0.0,0.0,0.0,1.0,333.33500000000004,51.849000000000004,51.849000000000004,46.829,46.829,34.0,-23.287499999999998,24.27,-29.009999999999998,30.665,0.0,1781.725,-0.3999999999999986,100.0,28.635,28.829,44.009,44.386,0.0,0.0,100.0,0.0,0.0,0.0,0.0,3160.857142857143,3014.2,4166.0,4175.0,305.4405,305.12075,314.7985,314.554,22.0896,20.6819,22.1017,21.6145,314.999998,314.999998,324.999988,324.999988,99.55935714285714,99.50723333333333,99.5694,99.55017142857143,0.1073333333333335,-0.04033333333333311,-0.10183333333333333,0.13233333333333336,-0.04833333333333201,-0.03833333333332689,1.5245,1.5150000000000001,39.06,30.261666666666667,39.135999999999996,36.091,55.879999999999995,35.604,60.138,53.6795,53.824,34.698499999999996,58.6865,51.953,52.973,34.227000000000004,58.552,51.333,-0.11149999999999993,-0.05750000000000011,0.11177000000000001,0.108105,0.0,219.085,219.075,215.7866666666667,215.7866666666667,0.0,0.0
34,0.0,0.0,0.0,1.0,1.0,0.0,0.0,1.0,0.0,100.0,1.0,1.1856,26.0,0.0,0.0,0.0,59.999996,0.0,26.0,26.0,26.0,26.0,0.036375000000000046,0.24520000000000008,-0.07250000000000001,291.763,-2.6585,-2.6782222222222223,-1.6236000000000002,-1.5581111111111112,-160.23000000000002,215.485,190.227375,0.0,0.0,0.0,0.0,0.0687,-5.498166666666667,-5.498166666666667,-0.6412,-0.8240000000000001,0.011249999999999982,0.9740000000000002,70.124,0.0233,-0.221275,-0.35599999999999987,100.0,1.0,1.0,216.16,0.0,0.0,0.0,0.0,0.0,0.0,0.0,9162.2,0.0,55.0,5.0,252.42000000000002,0.0,0.0,0.0,0.0,0.0,0.0,1.0,0.0,1.7040000000000006,1.7040000000000006,0.0,0.0,0.0,55.0,616.79921,10000.0,85.000001,85.000001,85.000001,85.000001,395.0,0.0,0.0,0.0,1.0,333.33500000000004,52.216,52.216,47.089,47.089,34.0,-21.15,24.927999999999997,-28.32,30.990000000000002,0.0,1781.674,-0.3999999999999986,100.0,28.526,28.456,43.971000000000004,44.38,0.0,0.0,100.0,0.0,0.0,0.0,0.0,3012.5714285714284,3031.5,4099.666666666667,4231.3,305.694,305.16175,314.92875,314.441,22.0988,20.6874,22.112099999999998,21.6239,314.999998,314.999998,324.999988,324.999988,99.55938571428571,99.50723333333333,99.56955714285715,99.55031428571428,0.11866666666666648,-0.024333333333333318,-0.08833333333333333,0.13766666666666666,-0.030000000000001137,-0.05333333333332746,1.513,1.502,39.117000000000004,30.296,39.2,36.149,55.867000000000004,35.6405,60.173,53.7395,53.812,34.732,58.719,52.010999999999996,52.96,34.259,58.5815,51.38966666666666,-0.11749999999999994,-0.0495000000000001,0.11143000000000002,0.10331000000000001,0.0,219.45,219.47500000000002,216.16,216.16,0.0,0.0
35,0.0,0.0,0.0,1.0,1.0,0.0,0.0,1.0,0.0,100.0,1.0,1.1856,26.0,0.0,0.0,0.0,59.999996,0.0,26.0,26.0,26.0,26.0,0.05862499999999993,0.25450000000000017,-0.042025,291.687,-2.7268,-2.6134444444444442,-1.5399,-1.5822222222222222,-156.64999999999998,215.4875,190.1975,0.0,0.0,0.0,0.0,0.0708,-5.498166666666667,-5.498166666666667,-0.6802,-0.1905000000000001,-0.0040000000000000036,-1.2519999999999998,70.251,0.026500000000000003,-0.229275,-0.28000000000000025,100.0,1.0,1.0,216.62333333333333,0.0,0.0,0.0,0.0,0.0,0.0,0.0,9181.9,0.0,55.0,5.0,252.87666666666667,1.0,0.0,0.0,0.0,0.0,0.0,1.0,0.0,1.754999999999999,1.754999999999999,0.0,0.0,1.0,55.0,616.79921,10000.0,85.000001,85.000001,85.000001,85.000001,395.0,0.0,0.0,0.0,1.0,166.665,51.575,51.575,46.692,46.692,34.0,-23.8675,26.752000000000002,-26.866666666666667,29.6225,0.0,1781.625,-0.21499999999999986,100.0,28.21,28.889,43.655,44.015,0.0,0.0,100.0,0.0,0.0,0.0,0.0,3181.4285714285716,3306.3,4139.666666666667,4038.2,305.3515,304.221,314.921,314.96575,22.1078,20.6932,22.1224,21.633,314.999998,314.999998,324.999988,324.999988,99.55938571428571,99.50723333333333,99.5697,99.55047142857143,0.10000000000000009,-0.03166666666666673,-0.0815,0.14366666666666666,-0.03333333333333144,-0.05333333333332746,1.5485,1.552,39.174,30.332333333333334,39.265,36.2065,55.852999999999994,35.68,60.207499999999996,53.796,53.798,34.769,58.751,52.0655,52.945,34.2945,58.61,51.44266666666667,-0.09750000000000003,-0.058499999999999996,0.10508,0.10785000000000002,0.0,219.86,219.87,216.62333333333333,216.62333333333333,0.0,0.0
