,ABS Active,ABS Enabled,AID Allow Tire Blankets,AID Auto Blip,AID Auto Clutch,AID Auto Shift,AID Fuel Rate,AID Ideal Line,AID Mech Damage,AID Stability,AID Tire Wear Rate,Air Density,Air Temp,Ballast,Best Lap Delta,Best Lap Time,Brake Bias,Brake Pos,Brake Temp FL,Brake Temp FR,Brake Temp RL,Brake Temp RR,CG Accel Lateral,CG Accel Longitudinal,CG Accel Vertical,CG Height,Camber FL,Camber FR,Camber RL,Camber RR,Car Coord X,Car Coord Y,Car Coord Z,Car Damage Front,Car Damage Left,Car Damage Rear,Car Damage Right,Car Pos Norm,Caster FL,Caster FR,Chassis Pitch Angle,Chassis Pitch Rate,Chassis Roll Angle,Chassis Roll Rate,Chassis Velocity X,Chassis Velocity Y,Chassis Velocity Z,Chassis Yaw Rate,Clutch Pos,DRS Active,DRS Available,Drive Train Speed,ERS Heat Charging,ERS Is Charging,ERS Max Energy,ERS Power Level,ERS Recovery Level,Engine Brake Setting,Engine Limiter,Engine RPM,Flags,Fuel Level,Gear,Ground Speed,HR Sample Clock,In Pit,KERS Charge,KERS Deployed Energy,KERS Input,KERS Max Energy,LR Sample Clock,Lap Invalidated,Lap Time,Lap Time2,Last Lap Time,Last Sector Time,MR Sample Clock,Max Fuel,Max Power,Max RPM,Max Sus Travel FL,Max Sus Travel FR,Max Sus Travel RL,Max Sus Travel RR,Max Torque,Max Turbo Boost,Num Tires Off Track,Penalties Enabled,Position,Raw Data Sample Rate,Ride Height FL,Ride Height FR,Ride Height RL,Ride Height RR,Road Temp,Self Align Torque FL,Self Align Torque FR,Self Align Torque RL,Self Align Torque RR,Session Lap Count,Session Time Left,Steering Angle,Surface Grip,Suspension Travel FL,Suspension Travel FR,Suspension Travel RL,Suspension Travel RR,TC Active,TC Enabled,Throttle Pos,Tire Dirt Level FL,Tire Dirt Level FR,Tire Dirt Level RL,Tire Dirt Level RR,Tire Load FL,Tire Load FR,Tire Load RL,Tire Load RR,Tire Loaded Radius FL,Tire Loaded Radius FR,Tire Loaded Radius RL,Tire Loaded Radius RR,Tire Pressure FL,Tire Pressure FR,Tire Pressure RL,Tire Pressure RR,Tire Radius FL,Tire Radius FR,Tire Radius RL,Tire Radius RR,Tire Rubber Grip FL,Tire Rubber Grip FR,Tire Rubber Grip RL,Tire Rubber Grip RR,Tire Slip Angle FL,Tire Slip Angle FR,Tire Slip Angle RL,Tire Slip Angle RR,Tire Slip Ratio FL,Tire Slip Ratio FR,Tire Slip Ratio RL,Tire Slip Ratio RR,Tire Temp Core FL,Tire Temp Core FR,Tire Temp Core RL,Tire Temp Core RR,Tire Temp Inner FL,Tire Temp Inner FR,Tire Temp Inner RL,Tire Temp Inner RR,Tire Temp Middle FL,Tire Temp Middle FR,Tire Temp Middle RL,Tire Temp Middle RR,Tire Temp Outer FL,Tire Temp Outer FR,Tire Temp Outer RL,Tire Temp Outer RR,Toe In FL,Toe In FR,Toe In RL,Toe In RR,Turbo Boost,Wheel Angular Speed FL,Wheel Angular Speed FR,Wheel Angular Speed RL,Wheel Angular Speed RR,Wind Direction,Wind Speed
0,0.0,0.0,0.0,1.0,1.0,0.0,0.0,1.0,0.0,100.0,1.0,1.1856,26.0,0.0,0.0,0.0,59.99999,0.0,26.0,26.0,26.0,26.0,-0.03366666666666662,0.29780000000000006,0.11343333333333333,293.518,-2.7479,-2.618125,-1.55285,-1.5029,-275.67,215.615,190.987625,0.0,0.0,0.0,0.0,0.0016,-5.498166666666667,-5.498166666666667,-0.5828,1.279,0.0007500000000000284,-0.039000000000000146,65.594,-0.0292,-0.23815,0.24600000000000044,100.0,1.0,1.0,202.55,0.0,0.0,0.0,0.0,0.0,0.0,0.0,8585.4,0.0,55.0,5.0,236.11,0.0,0.0,0.0,0.0,0.0,0.0,0.0,0.0,0.0030000000000001137,0.0030000000000001137,0.0,0.0,0.0,55.0,616.79921,10000.0,85.0,85.0,85.0,85.0,395.0,0.0,0.0,0.0,1.0,20.0,50.644,50.644,49.698,49.698,34.0,-30.869999999999997,32.804,-28.526666666666664,25.064999999999998,0.0,1783.618,0.38500000000000156,100.0,27.22,27.169,39.925,39.674,0.0,0.0,100.0,0.0,0.0,0.0,0.0,3447.714285714286,4380.0,3932.625,3987.3,304.316,301.27625,315.28625,314.9515,21.7595,20.5284,21.8033,21.3078,314.99999,314.99999,324.99998,324.99998,99.55827142857143,99.50776666666667,99.56761428571428,99.5453,0.008000000000000007,-0.08850000000000002,-0.15016666666666667,0.08683333333333333,-0.04333333333332945,-0.054999999999999716,1.588,1.6065,36.997,29.302500000000002,37.271,34.174,56.078,34.857,59.9185,51.668,54.001999999999995,34.0075,58.5255,50.033500000000004,53.169,33.568,58.5,49.469,-0.044499999999999984,-0.10899999999999999,0.10858000000000001,0.11443,0.0,205.51999999999998,205.47,202.55,202.55,0.0,0.0
1,0.0,0.0,0.0,1.0,1.0,0.0,0.0,1.0,0.0,100.0,1.0,1.1856,26.0,0.0,0.0,0.0,59.999996,0.0,26.0,26.0,26.0,26.0,-0.06388888888888888,0.34010000000000007,0.3332333333333334,292.435,-2.65355,-2.691,-1.5428000000000002,-1.3577,-272.32,215.6275,190.967375,0.0,0.0,0.0,0.0,0.0035333333333333336,-5.498166666666667,-5.498166666666667,-0.49110000000000004,-1.2165,-0.04475000000000007,-0.6790000000000003,65.753,-0.0297,-0.20045000000000002,0.8260000000000005,100.0,1.0,1.0,202.36,0.0,0.0,0.0,0.0,0.0,0.0,0.0,8577.3,0.0,55.0,5.0,236.67666666666668,1.0,0.0,0.0,0.0,0.0,0.0,0.0,0.0,0.053999999999998494,0.053999999999998494,0.0,0.0,1.0,55.0,616.79921,10000.0,85.000001,85.000001,85.000001,85.000001,395.0,0.0,0.0,0.0,1.0,166.665,53.772,53.772,47.836,47.836,34.0,-24.1925,16.984,-40.36333333333333,33.9275,0.0,1783.568,0.495000000000001,100.0,27.753,27.568,41.454,41.833,0.0,0.0,100.0,0.0,0.0,0.0,0.0,2931.857142857143,2486.6,4999.25,5553.5,305.94,306.858,312.587,310.81825,21.7694,20.5337,21.8145,21.3172,314.999998,314.999998,324.999988,324.999988,99.55827142857143,99.50778333333334,99.56778571428572,99.54544285714286,0.020499999999999963,-0.11075000000000002,-0.15533333333333335,0.05533333333333334,-0.026666666666670835,-0.045000000000001705,1.2503333333333333,1.312,37.059,29.3355,37.341,34.2325,56.063,34.896,59.9645,51.7375,53.986999999999995,34.0435,58.5685,50.1,53.153,33.603,58.54,49.534333333333336,-0.03749999999999987,-0.11549999999999994,0.10142500000000002,0.10996,0.0,206.01,205.94,202.36,202.36,0.0,0.0
2,0.0,0.0,0.0,1.0,1.0,0.0,0.0,1.0,0.0,100.0,1.0,1.1856,26.0,0.0,0.0,0.0,59.999996,0.0,26.0,26.0,26.0,26.0,-0.11066666666666658,0.2590000000000001,-0.13353333333333334,295.013,-2.61765,-2.66975,-1.4958,-1.5074,-268.97,215.64,190.94975,0.0,0.0,0.0,0.0,0.0055000000000000005,-5.498166666666667,-5.498166666666667,-0.6188,-0.19399999999999995,-0.02400000000000002,2.452,65.886,-0.0409,-0.34445000000000003,0.9800000000000004,100.0,1.0,1.0,203.85333333333332,0.0,0.0,0.0,0.0,0.0,0.0,0.0,8640.6,0.0,55.0,5.0,237.16666666666669,0.0,0.0,0.0,0.0,0.0,0.0,0.0,0.0,0.10500000000000043,0.10500000000000043,0.0,0.0,0.0,55.0,616.79921,10000.0,85.000001,85.000001,85.000001,85.000001,395.0,0.0,0.0,0.0,1.0,166.665,51.772999999999996,51.772999999999996,52.979,52.979,34.0,-28.634999999999998,21.738,-23.696666666666665,17.2775,0.0,1783.517,0.625,100.0,28.51,27.466,40.331,39.886,0.0,0.0,100.0,0.0,0.0,0.0,0.0,3333.5714285714284,3145.7,3359.875,3165.4,304.5125,304.79025,316.589,316.9865,21.7795,20.538899999999998,21.8252,21.3259,314.999998,314.999998,324.999988,324.999988,99.55827142857143,99.5078,99.56791428571428,99.54557142857144,0.007749999999999924,-0.12024999999999997,-0.1835,0.0555,-0.046666666666666856,-0.04999999999999716,1.7733333333333334,1.7955,37.122,29.368000000000002,37.407,34.287,56.05,34.935,59.998,51.7905,53.975,34.079499999999996,58.5995,50.1515,53.141,33.6375,58.5685,49.584666666666664,-0.03600000000000003,-0.12449999999999983,0.10876000000000001,0.1078,0.0,206.42000000000002,206.31,203.85333333333335,203.85333333333332,0.0,0.0
3,0.0,0.0,0.0,1.0,1.0,0.0,0.0,1.0,0.0,100.0,1.0,1.1856,26.0,0.0,0.0,0.0,59.999996,0.0,26.0,26.0,26.0,26.0,-0.09111111111111103,0.3204,-0.08070000000000001,294.296,-2.6525,-2.693,-1.48705,-1.4692,-265.6,215.6475,190.9295,0.0,0.0,0.0,0.0,0.0074666666666666675,-5.498166666666667,-5.498166666666667,-0.5328,1.2465,-0.005125000000000046,-1.916,66.043,-0.055900000000000005,-0.21075000000000002,0.8920000000000012,100.0,1.0,1.0,203.73666666666668,0.0,0.0,0.0,0.0,0.0,0.0,0.0,8635.7,0.0,55.0,5.0,237.72333333333333,1.0,0.0,0.0,0.0,0.0,0.0,0.0,0.0,0.1559999999999988,0.1559999999999988,0.0,0.0,1.0,55.0,616.79921,10000.0,85.000001,85.000001,85.000001,85.000001,395.0,0.0,0.0,0.0,1.0,166.665,53.589,53.589,49.637,49.637,34.0,-24.2925,18.272,-34.00333333333333,24.7375,0.0,1783.466,0.75,100.0,27.82,27.41,40.253,40.086,0.0,0.0,100.0,0.0,0.0,0.0,0.0,2839.285714285714,2775.1,4473.0,4159.7,306.2715,305.8155,314.02575,314.4235,21.7892,20.5443,21.8357,21.334699999999998,314.999998,314.999998,324.999988,324.999988,99.55828571428572,99.50781666666667,99.56805714285714,99.54571428571428,-0.008000000000000007,-0.14225,-0.17066666666666666,0.05516666666666666,-0.036666666666668846,-0.04999999999999716,1.4796666666666667,1.5150000000000001,37.182,29.4015,37.473,34.342,56.032,34.9765,60.0325,51.8525,53.958,34.1175,58.6315,50.210499999999996,53.123,33.674,58.5975,49.643,-0.024499999999999966,-0.12700000000000022,0.10054500000000001,0.11633,0.0,206.945,206.875,203.73666666666668,203.73666666666668,0.0,0.0
4,0.0,0.0,0.0,1.0,1.0,0.0,0.0,1.0,0.0,100.0,1.0,1.1856,26.0,0.0,0.0,0.0,59.999996,0.0,26.0,26.0,26.0,26.0,-0.12077777777777776,0.2963,0.03246666666666667,294.022,-2.6507,-2.761625,-1.43825,-1.5796999999999999,-262.23,215.655,190.9095,0.0,0.0,0.0,0.0,0.0094,-5.498166666666667,-5.498166666666667,-0.5595,-1.3864999999999998,-0.050875000000000004,0.484,66.191,-0.0639,-0.263875,1.200000000000001,100.0,1.0,1.0,204.17000000000002,0.0,0.0,0.0,0.0,0.0,0.0,0.0,8654.1,0.0,55.0,5.0,238.25666666666666,0.0,0.0,0.0,0.0,0.0,0.0,0.0,0.0,0.20700000000000074,0.20700000000000074,0.0,0.0,0.0,55.0,616.79921,10000.0,85.000001,85.000001,85.000001,85.000001,395.0,0.0,0.0,0.0,1.0,166.665,52.887,52.887,49.942,49.942,34.0,-28.487499999999997,20.576,-32.64333333333333,24.025,0.0,1783.415,0.7850000000000001,100.0,27.806,26.878,41.16,40.426,0.0,0.0,100.0,0.0,0.0,0.0,0.0,3180.5714285714284,3022.9,4272.75,3986.9,305.105,305.30525,314.353,314.918,21.7989,20.5494,21.8467,21.3438,314.999998,314.999998,324.999988,324.999988,99.55828571428572,99.50783333333334,99.5682,99.54585714285714,-0.02100000000000002,-0.14100000000000001,-0.18883333333333335,0.03833333333333334,-0.054999999999999716,-0.036666666666668846,1.4853333333333334,1.529,37.242999999999995,29.433500000000002,37.542,34.399,56.016,35.016,60.0755,51.914,53.942,34.153999999999996,58.672,50.269999999999996,53.107,33.7085,58.635,49.701,-0.014000000000000012,-0.14000000000000012,0.10992500000000001,0.101025,0.0,207.35000000000002,207.22,204.17000000000002,204.17000000000002,0.0,0.0
5,0.0,0.0,0.0,1.0,1.0,0.0,0.0,1.0,0.0,100.0,1.0,1.1856,26.0,0.0,0.0,0.0,59.999996,0.0,26.0,26.0,26.0,26.0,-0.10588888888888892,0.29380000000000006,-0.0641,294.556,-2.67205,-2.7026250000000003,-1.49985,-1.5692,-258.85,215.6575,190.88975,0.0,0.0,0.0,0.0,0.011366666666666667,-5.498166666666667,-5.498166666666667,-0.5821000000000001,0.6735,-0.03687500000000021,-0.3740000000000001,66.332,-0.0785,-0.27687500000000004,1.3399999999999999,100.0,1.0,1.0,204.87666666666667,0.0,0.0,0.0,0.0,0.0,0.0,0.0,8683.9,0.0,55.0,5.0,238.76999999999998,1.0,0.0,0.0,0.0,0.0,0.0,0.0,0.0,0.2579999999999991,0.2579999999999991,0.0,0.0,1.0,55.0,616.79921,10000.0,85.000001,85.000001,85.000001,85.000001,395.0,0.0,0.0,0.0,1.0,166.665,52.811,52.811,51.178,51.178,34.0,-28.645,19.718,-30.823333333333334,21.395,0.0,1783.364,0.40000000000000213,100.0,27.905,27.296,40.515,40.019999999999996,0.0,0.0,100.0,0.0,0.0,0.0,0.0,3190.857142857143,2936.7,3938.625,3789.0,305.1415,305.31075,315.30075,315.438,21.808799999999998,20.5548,21.8574,21.3525,314.999998,314.999998,324.999988,324.999988,99.55828571428572,99.50785,99.56834285714285,99.54598571428572,-0.019749999999999934,-0.13924999999999998,-0.2145,0.024833333333333332,-0.060000000000002274,-0.054999999999999716,1.607,1.6435,37.305,29.4675,37.608000000000004,34.453,56.001999999999995,35.0585,60.1115,51.969,53.93,34.193,58.7055,50.3225,53.093,33.746,58.6655,49.75266666666667,-0.03949999999999987,-0.11549999999999994,0.10204500000000001,0.11551000000000002,0.0,207.84,207.72500000000002,204.87666666666667,204.87666666666667,0.0,0.0
6,0.0,0.0,0.0,1.0,1.0,0.0,0.0,1.0,0.0,100.0,1.0,1.1856,26.0,0.0,0.0,0.0,59.999996,0.0,26.0,26.0,26.0,26.0,-0.14022222222222214,0.2973000000000001,0.0128,294.296,-2.65655,-2.776875,-1.498,-1.5422,-255.86,215.66,190.8715,0.0,0.0,0.0,0.0,0.0131,-5.498166666666667,-5.498166666666667,-0.5518000000000001,0.17299999999999993,-0.04737500000000017,0.5509999999999999,66.465,-0.08310000000000001,-0.23075,0.9459999999999997,100.0,1.0,1.0,205.04000000000002,0.0,0.0,0.0,0.0,0.0,0.0,0.0,8690.9,0.0,55.0,5.0,239.24333333333334,0.0,0.0,0.0,0.0,0.0,0.0,0.0,0.0,0.3030000000000008,0.3030000000000008,0.0,0.0,0.0,55.0,616.79921,10000.0,85.000001,85.000001,85.000001,85.000001,395.0,0.0,0.0,0.0,1.0,333.33500000000004,53.619,53.619,49.911,49.911,34.0,-26.6825,19.39,-34.34,23.845,0.0,1783.318,0.5250000000000021,100.0,27.654,26.753,40.891999999999996,40.15,0.0,0.0,100.0,0.0,0.0,0.0,0.0,3008.714285714286,2853.4,4329.125,4128.1,305.5915,305.7915,314.22975,314.65625,21.8174,20.5594,21.8669,21.3604,314.999998,314.999998,324.999988,324.999988,99.5583,99.50786666666667,99.56847142857143,99.54611428571428,-0.018000000000000016,-0.14149999999999996,-0.195,0.02716666666666667,-0.03499999999999659,-0.06333333333333258,1.4883333333333333,1.5295,37.358000000000004,29.496000000000002,37.668,34.5025,55.988,35.0935,60.1465,52.022,53.915,34.2255,58.738,50.3735,53.078,33.777,58.695499999999996,49.80233333333334,-0.03349999999999986,-0.11299999999999999,0.10530500000000001,0.111405,0.0,208.21,208.14499999999998,205.04000000000002,205.04000000000002,0.0,0.0
7,0.0,0.0,0.0,1.0,1.0,0.0,0.0,1.0,0.0,100.0,1.0,1.1856,26.0,0.0,0.0,0.0,59.999996,0.0,26.0,26.0,26.0,26.0,-0.09999999999999998,0.2865,0.008866666666666667,294.22,-2.62675,-2.7668749999999998,-1.4999,-1.5875,-252.47,215.6575,190.850875,0.0,0.0,0.0,0.0,0.0151,-5.498166666666667,-5.498166666666667,-0.5658000000000001,-0.1915,-0.040000000000000036,-0.28200000000000003,66.60900000000001,-0.0844,-0.25745,0.9120000000000008,100.0,1.0,1.0,205.5366666666667,0.0,0.0,0.0,0.0,0.0,0.0,0.0,8711.9,0.0,55.0,5.0,239.76333333333332,1.0,0.0,0.0,0.0,0.0,0.0,0.0,0.0,0.3539999999999992,0.3539999999999992,0.0,0.0,1.0,55.0,616.79921,10000.0,85.000001,85.000001,85.000001,85.000001,395.0,0.0,0.0,0.0,1.0,333.33500000000004,52.979,52.979,50.43,50.43,34.0,-27.595,20.677999999999997,-33.019999999999996,22.3325,0.0,1783.267,0.06500000000000128,100.0,27.73,27.059,40.817,40.371,0.0,0.0,100.0,0.0,0.0,0.0,0.0,3220.285714285714,2910.6,4162.5,3914.1000000000004,305.11,305.38625,314.70875,315.04475,21.8272,20.5647,21.8777,21.3694,314.999998,314.999998,324.999988,324.999988,99.5583,99.50786666666667,99.56861428571429,99.54625714285714,0.0007500000000000284,-0.12449999999999994,-0.20533333333333334,0.012666666666666666,-0.054999999999999716,-0.054999999999999716,1.524,1.5455,37.42,29.529,37.736000000000004,34.5585,55.973,35.1335,60.186,52.0815,53.902,34.2625,58.775,50.4305,53.064,33.8125,58.730000000000004,49.858333333333334,-0.07250000000000001,-0.0794999999999999,0.10450500000000001,0.10328000000000001,0.0,208.66,208.57999999999998,205.5366666666667,205.5366666666667,0.0,0.0
8,0.0,0.0,0.0,1.0,1.0,0.0,0.0,1.0,0.0,100.0,1.0,1.1856,26.0,0.0,0.0,0.0,59.999996,0.0,26.0,26.0,26.0,26.0,-0.07399999999999995,0.2825,-0.0162,294.403,-2.703,-2.7035,-1.4782,-1.5771000000000002,-249.07,215.6525,190.830375,0.0,0.0,0.0,0.0,0.017066666666666667,-5.498166666666667,-5.498166666666667,-0.5724,-0.14450000000000007,-0.02475000000000005,0.55,66.753,-0.0711,-0.261525,0.41600000000000037,100.0,1.0,1.0,205.98666666666668,0.0,0.0,0.0,0.0,0.0,0.0,0.0,8731.1,0.0,55.0,5.0,240.28333333333333,0.0,0.0,0.0,0.0,0.0,0.0,0.0,0.0,0.40500000000000114,0.40500000000000114,0.0,0.0,0.0,55.0,616.79921,10000.0,85.000001,85.000001,85.000001,85.000001,395.0,0.0,0.0,0.0,1.0,166.665,53.238,53.238,50.308,50.308,34.0,-25.509999999999998,21.990000000000002,-29.803333333333335,24.54,0.0,1783.217,0.0,100.0,27.583,27.021,40.801,40.237,0.0,0.0,100.0,0.0,0.0,0.0,0.0,2994.285714285714,3066.3,4029.125,4004.6000000000004,305.6355,305.11725,314.95975,314.9135,21.8369,20.5701,21.8885,21.3784,314.999998,314.999998,324.999988,324.999988,99.5583,99.50788333333334,99.56875714285714,99.5464,0.0182500000000001,-0.10524999999999995,-0.17016666666666666,0.0495,-0.045000000000001705,-0.05666666666667197,1.5363333333333333,1.557,37.480999999999995,29.563000000000002,37.803,34.6145,55.957,35.174,60.224000000000004,52.1405,53.885999999999996,34.2995,58.8105,50.4875,53.048,33.848,58.7625,49.914,-0.07499999999999996,-0.07500000000000018,0.103775,0.11005500000000001,0.0,209.09,209.04000000000002,205.98666666666668,205.98666666666668,0.0,0.0
9,0.0,0.0,0.0,1.0,1.0,0.0,0.0,1.0,0.0,100.0,1.0,1.1856,26.0,0.0,0.0,0.0,59.999996,0.0,26.0,26.0,26.0,26.0,-0.06777777777777783,0.2844,0.010466666666666668,294.174,-2.62135,-2.7196249999999997,-1.5271,-1.5378,-245.86,215.64499999999998,190.810625,0.0,0.0,0.0,0.0,0.018933333333333337,-5.498166666666667,-5.498166666666667,-0.5657,0.35750000000000004,-0.03675000000000006,0.8380000000000001,66.888,-0.0545,-0.247375,0.16600000000000037,100.0,1.0,1.0,206.4,0.0,0.0,0.0,0.0,0.0,0.0,0.0,8748.5,0.0,55.0,5.0,240.76666666666665,1.0,0.0,0.0,0.0,0.0,0.0,0.0,0.0,0.4529999999999994,0.4529999999999994,0.0,0.0,1.0,55.0,616.79921,10000.0,85.000001,85.000001,85.000001,85.000001,395.0,0.0,0.0,0.0,1.0,333.33500000000004,52.917,52.917,50.476,50.476,34.0,-25.4325,22.798000000000002,-30.906666666666666,25.25,0.0,1783.168,-0.14499999999999957,100.0,27.839,27.044,40.717,40.253,0.0,0.0,100.0,0.0,0.0,0.0,0.0,3128.285714285714,3044.2,4106.0,4105.0,305.23,305.19975,314.8135,314.7215,21.8461,20.5751,21.898600000000002,21.3868,314.999998,314.999998,324.999988,324.999988,99.5583,99.5079,99.5689,99.54652857142857,0.034250000000000114,-0.08424999999999994,-0.16683333333333333,0.059000000000000004,-0.036666666666668846,-0.05833333333333002,1.5406666666666666,1.5430000000000001,37.538,29.5945,37.866,34.667500000000004,55.943,35.211,60.2595,52.195499999999996,53.873000000000005,34.3335,58.8435,50.54,53.034,33.8805,58.792500000000004,49.965666666666664,-0.08349999999999991,-0.06550000000000011,0.114125,0.10304,0.0,209.5,209.49,206.4,206.4,0.0,0.0
10,0.0,0.0,0.0,1.0,1.0,0.0,0.0,1.0,0.0,100.0,1.0,1.1856,26.0,0.0,0.0,0.0,59.999996,0.0,26.0,26.0,26.0,26.0,-0.035666666666666624,0.29590000000000005,0.012566666666666667,294.052,-2.68355,-2.693625,-1.49285,-1.5171999999999999,-242.25,215.6375,190.7885,0.0,0.0,0.0,0.0,0.021033333333333334,-5.498166666666667,-5.498166666666667,-0.5626,-0.486,-0.005875000000000075,1.729,67.042,-0.0358,-0.25372500000000003,-0.02200000000000024,100.0,1.0,1.0,206.76,0.0,0.0,0.0,0.0,0.0,0.0,0.0,8763.8,0.0,55.0,5.0,241.32333333333332,0.0,0.0,0.0,0.0,0.0,0.0,1.0,0.0,0.5069999999999979,0.5069999999999979,0.0,0.0,0.0,55.0,616.79921,10000.0,85.000001,85.000001,85.000001,85.000001,395.0,0.0,0.0,0.0,1.0,166.665,53.192,53.192,49.988,49.988,34.0,-23.865,23.25,-29.83,28.165,0.0,1783.114,-0.23499999999999943,100.0,27.739,27.05,40.914,40.558,0.0,0.0,100.0,0.0,0.0,0.0,0.0,2968.714285714286,3054.7,4157.0,4282.1,305.7095,305.20625,314.6685,314.27175,21.8564,20.5808,21.9101,21.3964,314.999998,314.999998,324.999988,324.999988,99.55831428571429,99.50791666666667,99.56905714285715,99.54667142857143,0.0495000000000001,-0.06874999999999998,-0.14150000000000001,0.08966666666666667,-0.051666666666669414,-0.05333333333332746,1.4993333333333334,1.4929999999999999,37.602000000000004,29.63,37.938,34.7275,55.928,35.251,60.3005,52.2605,53.858000000000004,34.3705,58.882,50.6025,53.018,33.916,58.828,50.026666666666664,-0.09199999999999986,-0.05600000000000005,0.10744500000000001,0.11038,0.0,209.97,209.94,206.76,206.76,0.0,0.0
11,0.0,0.0,0.0,1.0,1.0,0.0,0.0,1.0,0.0,100.0,1.0,1.1856,26.0,0.0,0.0,0.0,59.999996,0.0,26.0,26.0,26.0,26.0,0.0006666666666665932,0.2792000000000001,-0.06466666666666666,294.495,-2.6931,-2.685625,-1.54245,-1.4921,-238.82,215.6275,190.767625,0.0,0.0,0.0,0.0,0.022600000000000002,-5.498166666666667,-5.498166666666667,-0.5899,-0.13000000000000012,0.010000000000000009,-0.7829999999999999,67.181,-0.0244,-0.270575,-0.05600000000000005,100.0,1.0,1.0,207.36666666666667,0.0,0.0,0.0,0.0,0.0,0.0,0.0,8789.4,0.0,55.0,5.0,241.82666666666665,1.0,0.0,0.0,0.0,0.0,0.0,1.0,0.0,0.5579999999999998,0.5579999999999998,0.0,0.0,1.0,55.0,616.79921,10000.0,85.000001,85.000001,85.000001,85.000001,395.0,0.0,0.0,0.0,1.0,111.11,53.04,53.04,50.903,50.903,34.0,-24.64,23.484,-27.189999999999998,25.07,0.0,1783.064,-0.504999999999999,100.0,27.387,27.346,40.422,40.491,0.0,0.0,100.0,0.0,0.0,0.0,0.0,3123.0,3036.3,3907.25,3964.1000000000004,305.457,305.0445,315.38975,314.9925,21.866,20.5863,21.9207,21.4054,314.999998,314.999998,324.999988,324.999988,99.55831428571429,99.50791666666667,99.5692,99.54681428571429,0.06099999999999994,-0.06374999999999997,-0.12816666666666665,0.0895,-0.051666666666669414,-0.041666666666671404,1.5803333333333334,1.5785,37.663,29.664,38.004000000000005,34.784,55.913,35.289500000000004,60.334,52.32,53.844,34.406,58.913,50.6595,53.003,33.95,58.856,50.083,-0.10850000000000004,-0.04400000000000004,0.09795500000000001,0.104635,0.0,210.39499999999998,210.38,207.36666666666667,207.36666666666667,0.0,0.0
12,0.0,0.0,0.0,1.0,1.0,0.0,0.0,1.0,0.0,100.0,1.0,1.1856,26.0,0.0,0.0,0.0,59.999996,0.0,26.0,26.0,26.0,26.0,-0.0003333333333332966,0.29390000000000005,0.020666666666666667,294.052,-2.71535,-2.6876249999999997,-1.51795,-1.5192999999999999,-235.59,215.62,190.747,0.0,0.0,0.0,0.0,0.025466666666666665,-5.498166666666667,-5.498166666666667,-0.5753,0.4545,0.0035000000000000586,-0.8610000000000002,67.31700000000001,-0.0131,-0.24180000000000001,-0.13999999999999968,100.0,1.0,1.0,207.65666666666667,0.0,0.0,0.0,0.0,0.0,0.0,0.0,8801.8,0.0,55.0,5.0,242.31,0.0,0.0,0.0,0.0,0.0,0.0,1.0,0.0,0.6059999999999981,0.6059999999999981,0.0,0.0,0.0,55.0,616.79921,10000.0,85.000001,85.000001,85.000001,85.000001,395.0,0.0,0.0,0.0,1.0,166.665,52.902,52.902,49.988,49.988,34.0,-24.9225,23.810000000000002,-29.763333333333335,27.965,0.0,1783.014,-0.33500000000000085,100.0,27.432,27.502,40.45,40.513,0.0,0.0,100.0,0.0,0.0,0.0,0.0,3130.285714285714,3057.1,4225.125,4162.1,305.418,304.9745,314.65125,314.51325,21.8751,20.5915,21.9307,21.413899999999998,314.999998,314.999998,324.999988,324.999988,99.55832857142858,99.50793333333333,99.56934285714286,99.54695714285714,0.06150000000000011,-0.06099999999999994,-0.128,0.10466666666666667,-0.041666666666671404,-0.03333333333333144,1.5253333333333332,1.53,37.719,29.697,38.067,34.837,55.9,35.325,60.3675,52.376,53.832,34.4385,58.944,50.713499999999996,52.989999999999995,33.981,58.8845,50.135999999999996,-0.09999999999999987,-0.05500000000000016,0.11311500000000001,0.10908000000000001,0.0,210.81,210.82,207.65666666666667,207.65666666666667,0.0,0.0
13,0.0,0.0,0.0,1.0,1.0,0.0,0.0,1.0,0.0,100.0,1.0,1.1856,26.0,0.0,0.0,0.0,59.999996,0.0,26.0,26.0,26.0,26.0,0.017000000000000126,0.29290000000000016,0.0391,293.686,-2.68345,-2.699875,-1.54425,-1.5277,-232.36,215.61,190.726625,0.0,0.0,0.0,0.0,0.02676666666666667,-5.498166666666667,-5.498166666666667,-0.5715,-0.3500000000000001,-0.001374999999999904,-0.5329999999999999,67.451,-0.0038,-0.254375,-0.2160000000000002,100.0,1.0,1.0,207.9766666666667,0.0,0.0,0.0,0.0,0.0,0.0,0.0,8815.3,0.0,55.0,5.0,242.79666666666668,1.0,0.0,0.0,0.0,0.0,0.0,1.0,0.0,0.6539999999999999,0.6539999999999999,0.0,0.0,1.0,55.0,616.79921,10000.0,85.000001,85.000001,85.000001,85.000001,395.0,0.0,0.0,0.0,1.0,166.665,52.673,52.673,49.805,49.805,34.0,-24.1825,24.439999999999998,-30.006666666666664,29.16,0.0,1782.966,-0.41999999999999815,100.0,27.704,27.617,40.775999999999996,40.858000000000004,0.0,0.0,100.0,0.0,0.0,0.0,0.0,3171.285714285714,3024.9,4268.75,4270.1,305.2885,305.0745,314.4925,314.20175,21.8842,20.5967,21.9409,21.4226,314.999998,314.999998,324.999988,324.999988,99.55832857142858,99.50793333333333,99.56947142857143,99.54708571428571,0.08050000000000002,-0.040999999999999925,-0.11416666666666668,0.10300000000000001,-0.030000000000001137,-0.06499999999999773,1.4876666666666667,1.479,37.775999999999996,29.7295,38.131,34.8915,55.888,35.36,60.4035,52.4355,53.821,34.471000000000004,58.9775,50.7705,52.977999999999994,34.0125,58.915,50.19166666666666,-0.10499999999999998,-0.03600000000000003,0.10783500000000001,0.103095,0.0,211.2,211.215,207.9766666666667,207.9766666666667,0.0,0.0
14,0.0,0.0,0.0,1.0,1.0,0.0,0.0,1.0,0.0,100.0,1.0,1.1856,26.0,0.0,0.0,0.0,59.999996,0.0,26.0,26.0,26.0,26.0,0.017888888888888843,0.28190000000000004,-0.023566666666666666,293.991,-2.6952,-2.7117500000000003,-1.5399500000000002,-1.5198,-228.92000000000002,215.6,190.70525,0.0,0.0,0.0,0.0,0.028800000000000003,-5.498166666666667,-5.498166666666667,-0.5916,-0.1140000000000001,0.01749999999999985,1.0699999999999998,67.589,0.0049,-0.2788,-0.31399999999999917,100.0,1.0,1.0,208.53333333333333,0.0,0.0,0.0,0.0,0.0,0.0,0.0,8838.9,0.0,55.0,5.0,243.29333333333335,0.0,0.0,0.0,0.0,0.0,0.0,1.0,0.0,0.7049999999999983,0.7049999999999983,0.0,0.0,0.0,55.0,616.79921,10000.0,85.000001,85.000001,85.000001,85.000001,395.0,0.0,0.0,0.0,1.0,166.665,52.551,52.551,50.43,50.43,34.0,-22.544999999999998,25.932000000000002,-26.356666666666666,29.205000000000002,0.0,1782.917,-0.379999999999999,100.0,27.992,27.746,40.703,40.671,0.0,0.0,100.0,0.0,0.0,0.0,0.0,3015.285714285714,3151.3,3952.125,4135.8,305.57,304.807,315.199,314.634,21.8938,20.6023,21.9516,21.4318,314.999998,314.999998,324.999988,324.999988,99.55835714285715,99.50795,99.56961428571428,99.54722857142858,0.09450000000000003,-0.03325,-0.09866666666666668,0.13466666666666666,-0.05333333333332746,-0.04833333333333201,1.552,1.5385,37.836,29.764499999999998,38.197,34.948499999999996,55.876000000000005,35.397999999999996,60.438,52.4965,53.809,34.506,59.0095,50.829499999999996,52.965,34.046,58.944,50.24933333333333,-0.10650000000000004,-0.04349999999999987,0.10459500000000001,0.108545,0.0,211.64499999999998,211.65,208.53333333333333,208.53333333333333,0.0,0.0
15,0.0,0.0,0.0,1.0,1.0,0.0,0.0,1.0,0.0,100.0,1.0,1.1856,26.0,0.0,0.0,0.0,59.999996,0.0,26.0,26.0,26.0,26.0,0.03966666666666674,0.27900000000000014,-0.026833333333333334,293.991,-2.69745,-2.6811249999999998,-1.5516,-1.5307,-225.47,215.5925,190.683625,0.0,0.0,0.0,0.0,0.0308,-5.498166666666667,-5.498166666666667,-0.5801000000000001,0.276,0.028249999999999886,-1.0220000000000002,67.729,0.010100000000000001,-0.25527500000000003,-0.23399999999999999,100.0,1.0,1.0,208.92333333333335,0.0,0.0,0.0,0.0,0.0,0.0,0.0,8855.5,0.0,55.0,5.0,243.79666666666668,1.0,0.0,0.0,0.0,0.0,0.0,1.0,0.0,0.7560000000000002,0.7560000000000002,0.0,0.0,1.0,55.0,616.79921,10000.0,85.000001,85.000001,85.000001,85.000001,395.0,0.0,0.0,0.0,1.0,166.665,52.78,52.78,50.247,50.247,34.0,-23.03,23.799999999999997,-27.74,29.5425,0.0,1782.866,-0.3150000000000013,100.0,27.714,27.916,40.434,40.817,0.0,0.0,100.0,0.0,0.0,0.0,0.0,3049.285714285714,2979.8,4099.625,4178.9,305.6835,305.14925,314.947,314.41325,21.9034,20.6079,21.9622,21.4409,314.999998,314.999998,324.999988,324.999988,99.55835714285715,99.50795,99.56975714285714,99.54737142857142,0.08450000000000002,-0.044749999999999956,-0.099,0.126,-0.04333333333332945,-0.05333333333332746,1.5150000000000001,1.5165,37.896,29.799,38.263999999999996,35.0055,55.864000000000004,35.435,60.4715,52.558,53.797,34.5405,59.0405,50.8885,52.953,34.079,58.972,50.30733333333333,-0.09899999999999998,-0.052000000000000046,0.100995,0.111585,0.0,212.085,212.10000000000002,208.92333333333335,208.92333333333335,0.0,0.0
16,0.0,0.0,0.0,1.0,1.0,0.0,0.0,1.0,0.0,100.0,1.0,1.1856,26.0,0.0,0.0,0.0,59.999996,0.0,26.0,26.0,26.0,26.0,0.0341111111111112,0.2659,-0.011300000000000001,293.869,-2.7533,-2.6340000000000003,-1.52475,-1.5318,-222.21,215.585,190.66275,0.0,0.0,0.0,0.0,0.03266666666666667,-5.498166666666667,-5.498166666666667,-0.5940000000000001,-0.563,0.014999999999999902,-1.254,67.861,0.0111,-0.27105,-0.1479999999999997,100.0,1.0,1.0,209.29333333333335,0.0,0.0,0.0,0.0,0.0,0.0,0.0,8871.1,0.0,55.0,5.0,244.27333333333334,0.0,0.0,0.0,0.0,0.0,0.0,1.0,0.0,0.8039999999999985,0.8039999999999985,0.0,0.0,0.0,55.0,616.79921,10000.0,85.000001,85.000001,85.000001,85.000001,395.0,0.0,0.0,0.0,1.0,166.665,52.536,52.536,50.018,50.018,34.0,-24.835,25.206,-27.59,28.7175,0.0,1782.817,-0.2749999999999986,100.0,27.505,27.864,40.667,40.839,0.0,0.0,100.0,0.0,0.0,0.0,0.0,3201.142857142857,3128.2,4114.75,4077.0,305.2785,304.75925,314.879,314.635,21.9123,20.6131,21.9723,21.4496,314.999998,314.999998,324.999988,324.999988,99.55837142857143,99.50795,99.5699,99.54751428571429,0.08525000000000005,-0.03200000000000003,-0.10033333333333333,0.12633333333333333,-0.04999999999999716,-0.036666666666668846,1.52,1.5230000000000001,37.952,29.832,38.327,35.06,55.851,35.47,60.5055,52.616,53.785,34.573,59.0725,50.9445,52.939,34.11,59.001,50.36266666666667,-0.09399999999999986,-0.0495000000000001,0.10412,0.110865,0.0,212.47500000000002,212.47500000000002,209.29333333333335,209.29333333333335,0.0,0.0
17,0.0,0.0,0.0,1.0,1.0,0.0,0.0,1.0,0.0,100.0,1.0,1.1856,26.0,0.0,0.0,0.0,59.999996,0.0,26.0,26.0,26.0,26.0,0.008777777777777773,0.28400000000000003,0.019,293.549,-2.70865,-2.623875,-1.5642,-1.4972,-218.75,215.5775,190.6405,0.0,0.0,0.0,0.0,0.0347,-5.498166666666667,-5.498166666666667,-0.5912000000000001,0.22699999999999998,-0.00649999999999995,0.5509999999999999,68.0,0.011000000000000001,-0.261475,-0.22799999999999976,100.0,1.0,1.0,209.7,0.0,0.0,0.0,0.0,0.0,0.0,0.0,8888.4,0.0,55.0,5.0,244.76999999999998,1.0,0.0,0.0,0.0,0.0,0.0,1.0,0.0,0.8550000000000004,0.8550000000000004,0.0,0.0,1.0,55.0,616.79921,10000.0,85.000001,85.000001,85.000001,85.000001,395.0,0.0,0.0,0.0,1.0,166.665,52.2,52.2,49.82,49.82,34.0,-23.63,25.094,-29.383333333333333,30.195,0.0,1782.767,-0.1999999999999993,100.0,28.126,27.863,40.729,40.643,0.0,0.0,100.0,0.0,0.0,0.0,0.0,3151.142857142857,3184.6,4268.375,4281.6,305.2235,304.766,314.518,314.33525,21.9218,20.6188,21.9829,21.4587,314.999998,314.999998,324.999988,324.999988,99.55838571428572,99.50795,99.57004285714285,99.54765714285715,0.09850000000000003,-0.03974999999999995,-0.099,0.134,-0.051666666666669414,-0.06333333333333258,1.5113333333333334,1.5035,38.010999999999996,29.8675,38.393,35.117,55.839,35.507999999999996,60.539500000000004,52.6765,53.774,34.608000000000004,59.1045,51.003,52.927,34.1435,59.03,50.419666666666664,-0.09999999999999987,-0.06150000000000011,0.11045,0.105895,0.0,212.93,212.94,209.7,209.7,0.0,0.0
18,0.0,0.0,0.0,1.0,1.0,0.0,0.0,1.0,0.0,100.0,1.0,1.1856,26.0,0.0,0.0,0.0,59.999996,0.0,26.0,26.0,26.0,26.0,0.018333333333333313,0.2641,0.04196666666666667,293.594,-2.64315,-2.743875,-1.4715,-1.5564,-215.07,215.57,190.61675,0.0,0.0,0.0,0.0,0.036833333333333336,-5.498166666666667,-5.498166666666667,-0.6042000000000001,-0.34850000000000003,0.0035000000000000586,0.9019999999999999,68.146,0.0094,-0.27915,-0.1299999999999999,100.0,1.0,1.0,210.13,0.0,0.0,0.0,0.0,0.0,0.0,0.0,8906.6,0.0,55.0,5.0,245.3,0.0,0.0,0.0,0.0,0.0,0.0,1.0,0.0,0.9089999999999989,0.9089999999999989,0.0,0.0,0.0,55.0,616.79921,10000.0,85.000001,85.000001,85.000001,85.000001,395.0,0.0,0.0,0.0,1.0,111.11,52.2,52.2,49.988,49.988,34.0,-23.099999999999998,26.21,-26.593333333333334,30.66,0.0,1782.714,-0.16999999999999815,100.0,28.102,27.939,40.8,40.788,0.0,0.0,100.0,0.0,0.0,0.0,0.0,3085.0,3186.6,4072.25,4266.3,305.3685,304.62175,314.8635,314.223,21.9319,20.6247,21.9943,21.4685,314.999998,314.999998,324.999988,324.999988,99.5584,99.50796666666666,99.57018571428571,99.54781428571428,0.08499999999999996,-0.043749999999999956,-0.0965,0.12433333333333334,-0.03833333333332689,-0.05333333333332746,1.494,1.491,38.074,29.9045,38.464,35.178,55.826,35.548,60.5775,52.742,53.760999999999996,34.644999999999996,59.1395,51.066,52.913,34.1785,59.062,50.48133333333333,-0.08999999999999986,-0.0674999999999999,0.10389000000000001,0.10566,0.0,213.365,213.37,210.13,210.13,0.0,0.0
19,0.0,0.0,0.0,1.0,1.0,0.0,0.0,1.0,0.0,100.0,1.0,1.1856,26.0,0.0,0.0,0.0,59.999996,0.0,26.0,26.0,26.0,26.0,0.024666666666666837,0.27080000000000015,0.0391,293.396,-2.64395,-2.70975,-1.4952,-1.5747,-211.8,215.5625,190.595375,0.0,0.0,0.0,0.0,0.038733333333333335,-5.498166666666667,-5.498166666666667,-0.5925,0.6034999999999999,0.010000000000000009,0.6559999999999999,68.275,0.005200000000000001,-0.26445,-0.10599999999999987,100.0,1.0,1.0,210.51999999999998,0.0,0.0,0.0,0.0,0.0,0.0,0.0,8923.2,0.0,55.0,5.0,245.76333333333332,1.0,0.0,0.0,0.0,0.0,0.0,1.0,0.0,0.9570000000000007,0.9570000000000007,0.0,0.0,1.0,55.0,616.79921,10000.0,85.000001,85.000001,85.000001,85.000001,395.0,0.0,0.0,0.0,1.0,166.665,52.002,52.002,50.034,50.034,34.0,-22.78,25.094,-27.8,31.1125,0.0,1782.665,-0.14999999999999858,100.0,28.548000000000002,28.259,40.704,40.817,0.0,0.0,100.0,0.0,0.0,0.0,0.0,3056.4285714285716,3117.4,4138.5,4330.2,305.421,304.857,314.76375,314.09325,21.941,20.6301,22.0043,21.4771,314.999998,314.999998,324.999988,324.999988,99.5584,99.50796666666666,99.57032857142858,99.54795714285714,0.08775,-0.04699999999999993,-0.10333333333333333,0.11783333333333333,-0.03333333333333144,-0.04999999999999716,1.4783333333333335,1.4895,38.131,29.938000000000002,38.527,35.232,55.815,35.585,60.6085,52.7995,53.751000000000005,34.679,59.1685,51.1215,52.902,34.2115,59.088,50.536,-0.09250000000000003,-0.0665,0.10859500000000001,0.100485,0.0,213.79500000000002,213.79500000000002,210.51999999999998,210.51999999999998,0.0,0.0
20,0.0,0.0,0.0,1.0,1.0,0.0,0.0,1.0,0.0,100.0,1.0,1.1856,26.0,0.0,0.0,0.0,59.999996,0.0,26.0,26.0,26.0,26.0,0.010111111111111182,0.2761,0.008166666666666668,293.549,-2.7365,-2.667875,-1.4959500000000001,-1.5615,-208.51999999999998,215.5575,190.57425,0.0,0.0,0.0,0.0,0.040633333333333334,-5.498166666666667,-5.498166666666667,-0.5999,-0.9844999999999999,0.0058749999999998526,0.5999999999999999,68.405,0.0035,-0.280675,-0.017999999999999794,100.0,1.0,1.0,210.86666666666667,0.0,0.0,0.0,0.0,0.0,0.0,0.0,8937.9,0.0,55.0,5.0,246.23333333333335,0.0,0.0,0.0,0.0,0.0,0.0,0.0,0.0,1.004999999999999,1.004999999999999,0.0,0.0,0.0,55.0,616.79921,10000.0,85.000001,85.000001,85.000001,85.000001,395.0,0.0,0.0,0.0,1.0,166.665,52.414,52.414,49.637,49.637,34.0,-23.875,24.616,-27.919999999999998,30.115000000000002,0.0,1782.616,-0.129999999999999,100.0,28.117,27.948,41.13,41.034,0.0,0.0,100.0,0.0,0.0,0.0,0.0,3059.285714285714,3135.1,4156.5,4206.5,305.5355,304.94125,314.6655,314.376,21.9498,20.6353,22.014499999999998,21.4859,314.999998,314.999998,324.999988,324.999988,99.55841428571429,99.50798333333333,99.57047142857142,99.54808571428572,0.07950000000000013,-0.049250000000000016,-0.10083333333333333,0.12133333333333333,-0.03999999999999915,-0.07000000000000028,1.4766666666666666,1.4805,38.186,29.971,38.591,35.287,55.802,35.62,60.644,52.8585,53.738,34.7115,59.201499999999996,51.1785,52.888999999999996,34.2425,59.1185,50.59166666666667,-0.08699999999999997,-0.07050000000000001,0.099875,0.1091,0.0,214.14499999999998,214.15,210.86666666666667,210.86666666666667,0.0,0.0
21,0.0,0.0,0.0,1.0,1.0,0.0,0.0,1.0,0.0,100.0,1.0,1.1856,26.0,0.0,0.0,0.0,59.999996,0.0,26.0,26.0,26.0,26.0,-0.0031111111111110645,0.2754000000000001,-0.06483333333333334,293.915,-2.70965,-2.667625,-1.54315,-1.5163,-205.23000000000002,215.55,190.55275,0.0,0.0,0.0,0.0,0.04256666666666667,-5.498166666666667,-5.498166666666667,-0.6225,0.13049999999999995,-0.0034999999999998366,0.611,68.529,-0.0039000000000000003,-0.28325,-0.007999999999999119,100.0,1.0,1.0,211.44333333333333,0.0,0.0,0.0,0.0,0.0,0.0,0.0,8962.3,0.0,55.0,5.0,246.68,1.0,0.0,0.0,0.0,0.0,0.0,0.0,0.0,1.0530000000000008,1.0530000000000008,0.0,0.0,1.0,55.0,616.79921,10000.0,85.000001,85.000001,85.000001,85.000001,395.0,0.0,0.0,0.0,1.0,166.665,52.246,52.246,50.629,50.629,34.0,-23.9325,25.228,-26.99,27.5425,0.0,1782.567,-0.245000000000001,100.0,28.245,27.906,40.628,40.6,0.0,0.0,100.0,0.0,0.0,0.0,0.0,3126.857142857143,3181.3,3999.875,4028.8,305.2985,304.8255,315.142,314.92825,21.9587,20.6407,22.0244,21.4945,314.999998,314.999998,324.999988,324.999988,99.55842857142858,99.50798333333333,99.5706,99.54822857142857,0.08750000000000013,-0.04425000000000001,-0.10516666666666667,0.1215,-0.04833333333333201,-0.06666666666666998,1.57,1.5525,38.242000000000004,30.003999999999998,38.653,35.3405,55.791,35.656,60.674,52.913,53.727000000000004,34.7445,59.2295,51.2305,52.876999999999995,34.2745,59.1435,50.643,-0.09999999999999987,-0.06349999999999989,0.10313000000000001,0.11095000000000001,0.0,214.565,214.57,211.44333333333333,211.44333333333333,0.0,0.0
22,0.0,0.0,0.0,1.0,1.0,0.0,0.0,1.0,0.0,100.0,1.0,1.1856,26.0,0.0,0.0,0.0,59.999996,0.0,26.0,26.0,26.0,26.0,-0.012777777777777777,0.27360000000000007,0.0013666666666666666,293.396,-2.7633,-2.638875,-1.5633,-1.5046,-201.51999999999998,215.54500000000002,190.5275,0.0,0.0,0.0,0.0,0.044700000000000004,-5.498166666666667,-5.498166666666667,-0.6015,0.01100000000000001,0.002375000000000016,1.016,68.676,-0.0027,-0.25265,-0.13399999999999945,100.0,1.0,1.0,211.69,0.0,0.0,0.0,0.0,0.0,0.0,0.0,8972.7,0.0,55.0,5.0,247.20333333333335,0.0,0.0,0.0,0.0,0.0,0.0,0.0,0.0,1.1069999999999993,1.1069999999999993,0.0,0.0,0.0,55.0,616.79921,10000.0,85.000001,85.000001,85.000001,85.000001,395.0,0.0,0.0,0.0,1.0,166.665,52.399,52.399,49.53,49.53,34.0,-23.9575,24.772,-30.68,31.1875,0.0,1782.513,-0.2749999999999986,100.0,28.240000000000002,27.934,40.903999999999996,40.782,0.0,0.0,100.0,0.0,0.0,0.0,0.0,3063.857142857143,3151.6,4300.5,4449.8,305.5635,304.95375,314.404,313.9305,21.9688,20.6467,22.0357,21.5043,314.999998,314.999998,324.999988,324.999988,99.55842857142858,99.508,99.57075714285715,99.54837142857143,0.08299999999999996,-0.04149999999999998,-0.1135,0.12016666666666667,-0.030000000000001137,-0.046666666666666856,1.4736666666666665,1.463,38.305,30.0415,38.723,35.4015,55.777,35.696,60.712,52.978,53.715,34.782,59.265,51.293,52.863,34.31,59.1755,50.704,-0.10099999999999998,-0.058499999999999996,0.10802,0.10282000000000001,0.0,215.025,215.01,211.69,211.69,0.0,0.0
23,0.0,0.0,0.0,1.0,1.0,0.0,0.0,1.0,0.0,100.0,1.0,1.1856,26.0,0.0,0.0,0.0,59.999996,0.0,26.0,26.0,26.0,26.0,-0.018555555555555547,0.2621,0.013133333333333335,293.365,-2.6731,-2.67125,-1.61565,-1.4777,-198.22,215.54000000000002,190.505375,0.0,0.0,0.0,0.0,0.04663333333333333,-5.498166666666667,-5.498166666666667,-0.6212,-0.37349999999999994,0.0031250000000000444,0.698,68.80199999999999,0.0021000000000000003,-0.284375,-0.17799999999999905,100.0,1.0,1.0,212.14666666666668,0.0,0.0,0.0,0.0,0.0,0.0,0.0,8992.1,0.0,55.0,5.0,247.66,1.0,0.0,0.0,0.0,0.0,0.0,0.0,0.0,1.1550000000000011,1.1550000000000011,0.0,0.0,1.0,55.0,616.79921,10000.0,85.000001,85.000001,85.000001,85.000001,395.0,0.0,0.0,0.0,1.0,166.665,51.712,51.712,50.201,50.201,34.0,-24.599999999999998,25.306,-29.626666666666665,28.439999999999998,0.0,1782.465,-0.23000000000000043,100.0,28.501,28.147,40.911,40.891999999999996,0.0,0.0,100.0,0.0,0.0,0.0,0.0,3238.285714285714,3202.3,4150.875,4190.9,304.917,304.71825,314.82175,314.54725,21.9777,20.652,22.0458,21.512999999999998,314.999998,314.999998,324.999988,324.999988,99.55844285714285,99.508,99.57088571428571,99.54851428571429,0.08824999999999994,-0.04899999999999993,-0.11033333333333332,0.12116666666666667,-0.03166666666666629,-0.06499999999999773,1.532,1.5255,38.361000000000004,30.075,38.786,35.4565,55.766,35.7325,60.745,53.036,53.704,34.8155,59.296,51.349000000000004,52.852000000000004,34.3425,59.204,50.75866666666667,-0.09999999999999987,-0.06800000000000006,0.10874,0.10732000000000001,0.0,215.375,215.39499999999998,212.14666666666668,212.14666666666668,0.0,0.0
24,0.0,0.0,0.0,1.0,1.0,0.0,0.0,1.0,0.0,100.0,1.0,1.1856,26.0,0.0,0.0,0.0,59.999996,0.0,26.0,26.0,26.0,26.0,0.005333333333333412,0.28400000000000003,-0.051800000000000006,293.762,-2.69685,-2.6782500000000002,-1.5002499999999999,-1.5049000000000001,-194.92000000000002,215.5325,190.482875,0.0,0.0,0.0,0.0,0.04853333333333333,-5.498166666666667,-5.498166666666667,-0.636,-0.4119999999999999,0.012375000000000025,1.297,68.92699999999999,0.0061,-0.284375,-0.17799999999999905,100.0,1.0,1.0,212.52666666666667,0.0,0.0,0.0,0.0,0.0,0.0,0.0,9008.2,0.0,55.0,5.0,248.11333333333334,0.0,0.0,0.0,0.0,0.0,0.0,0.0,0.0,1.2029999999999994,1.2029999999999994,0.0,0.0,0.0,55.0,616.79921,10000.0,85.000001,85.000001,85.000001,85.000001,395.0,0.0,0.0,0.0,1.0,333.33500000000004,52.567,52.567,50.018,50.018,34.0,-22.3325,24.71,-27.21,29.155,0.0,1782.417,-0.22499999999999787,100.0,28.342,27.951,40.822,40.772999999999996,0.0,0.0,100.0,0.0,0.0,0.0,0.0,2960.5714285714284,3097.3,4152.5,4200.4,305.7645,305.07775,314.679,314.52525,21.9865,20.6573,22.0558,21.5217,314.999998,314.999998,324.999988,324.999988,99.55845714285714,99.50801666666666,99.57104285714286,99.54867142857142,0.08899999999999997,-0.04125000000000001,-0.08966666666666667,0.12416666666666668,-0.051666666666669414,-0.06333333333333258,1.5166666666666666,1.5070000000000001,38.416,30.108,38.849000000000004,35.5105,55.754000000000005,35.7695,60.778999999999996,53.0955,53.692,34.85,59.3275,51.4065,52.839,34.375,59.2325,50.815333333333335,-0.09850000000000003,-0.0625,0.10228000000000001,0.10682000000000001,0.0,215.805,215.775,212.52666666666667,212.52666666666667,0.0,0.0
25,0.0,0.0,0.0,1.0,1.0,0.0,0.0,1.0,0.0,100.0,1.0,1.1856,26.0,0.0,0.0,0.0,59.999996,0.0,26.0,26.0,26.0,26.0,0.021888888888888847,0.27390000000000003,-0.027266666666666668,293.518,-2.7475,-2.6435,-1.558,-1.5046,-191.39999999999998,215.5275,190.4575,0.0,0.0,0.0,0.0,0.0506,-5.498166666666667,-5.498166666666667,-0.6505000000000001,0.118,0.01862499999999989,-1.024,69.06,0.0036000000000000003,-0.275625,-0.040000000000000036,100.0,1.0,1.0,212.99333333333334,0.0,0.0,0.0,0.0,0.0,0.0,0.0,9028.0,0.0,55.0,5.0,248.59,1.0,0.0,0.0,0.0,0.0,0.0,0.0,0.0,1.2540000000000013,1.2540000000000013,0.0,0.0,1.0,55.0,616.79921,10000.0,85.000001,85.000001,85.000001,85.000001,395.0,0.0,0.0,0.0,1.0,166.665,51.727,51.727,50.354,50.354,34.0,-26.195,25.774,-27.696666666666665,28.567500000000003,0.0,1782.368,-0.28000000000000114,100.0,28.072,28.313,40.528999999999996,40.746,0.0,0.0,100.0,0.0,0.0,0.0,0.0,3327.714285714286,3250.2,4067.0,4122.4,304.946,304.412,315.09675,314.60875,21.9959,20.663,22.0664,21.5309,314.999998,314.999998,324.999988,324.999988,99.55845714285714,99.50801666666666,99.57118571428572,99.5488,0.07950000000000013,-0.04699999999999993,-0.10533333333333333,0.12516666666666668,-0.05333333333332746,-0.03833333333332689,1.5543333333333333,1.5385,38.474000000000004,30.144,38.915,35.568,55.741,35.806,60.809,53.150999999999996,53.68,34.882999999999996,59.3555,51.46,52.826,34.407,59.2575,50.867666666666665,-0.10199999999999987,-0.05699999999999994,0.10122500000000001,0.11452000000000001,0.0,216.2,216.2,212.99333333333334,212.99333333333334,0.0,0.0
26,0.0,0.0,0.0,1.0,1.0,0.0,0.0,1.0,0.0,100.0,1.0,1.1856,26.0,0.0,0.0,0.0,59.999996,0.0,26.0,26.0,26.0,26.0,0.02499999999999991,0.26660000000000017,0.07503333333333334,292.557,-2.70205,-2.6563749999999997,-1.51645,-1.5691000000000002,-187.67000000000002,215.5225,190.430375,0.0,0.0,0.0,0.0,0.05276666666666666,-5.498166666666667,-5.498166666666667,-0.6196,0.16849999999999998,0.001874999999999849,-0.7829999999999999,69.20400000000001,0.0045000000000000005,-0.25975000000000004,-0.16199999999999992,100.0,1.0,1.0,213.19,0.0,0.0,0.0,0.0,0.0,0.0,0.0,9036.3,0.0,55.0,5.0,249.10666666666668,0.0,0.0,0.0,0.0,0.0,0.0,0.0,0.0,1.3079999999999998,1.3079999999999998,0.0,0.0,0.0,55.0,616.79921,10000.0,85.000001,85.000001,85.000001,85.000001,395.0,0.0,0.0,0.0,1.0,111.11,51.483,51.483,48.92,48.92,34.0,-24.6675,24.11,-31.906666666666666,33.035,0.0,1782.314,-0.33500000000000085,100.0,28.841,28.801000000000002,41.114000000000004,41.268,0.0,0.0,100.0,0.0,0.0,0.0,0.0,3295.0,3064.8,4569.25,4479.9,305.0135,305.028,313.82625,313.68925,22.0061,20.6692,22.0778,21.5408,314.999998,314.999998,324.999988,324.999988,99.55848571428571,99.50803333333333,99.57132857142857,99.54897142857143,0.09725000000000006,-0.04799999999999993,-0.10483333333333333,0.12166666666666667,-0.04999999999999716,-0.03499999999999659,1.43,1.4095,38.538,30.182499999999997,38.986000000000004,35.629999999999995,55.730999999999995,35.8475,60.848,53.2175,53.67,34.9215,59.391999999999996,51.524,52.815,34.444,59.2905,50.93033333333334,-0.11549999999999994,-0.05549999999999988,0.10056000000000001,0.1078,0.0,216.66500000000002,216.65,213.19,213.19,0.0,0.0
27,0.0,0.0,0.0,1.0,1.0,0.0,0.0,1.0,0.0,100.0,1.0,1.1856,26.0,0.0,0.0,0.0,59.999996,0.0,26.0,26.0,26.0,26.0,0.02244444444444449,0.25260000000000016,-0.049933333333333337,293.304,-2.7446,-2.6713750000000003,-1.5699,-1.5067,-184.34,215.51749999999998,190.407375,0.0,0.0,0.0,0.0,0.054700000000000006,-5.498166666666667,-5.498166666666667,-0.6563,-1.0905,0.008375000000000021,-0.5100000000000002,69.327,0.010100000000000001,-0.31620000000000004,-0.22799999999999976,100.0,1.0,1.0,213.73000000000002,0.0,0.0,0.0,0.0,0.0,0.0,0.0,9059.3,0.0,55.0,5.0,249.55333333333334,1.0,0.0,0.0,0.0,0.0,0.0,0.0,0.0,1.355999999999998,1.355999999999998,0.0,0.0,1.0,55.0,616.79921,10000.0,85.000001,85.000001,85.000001,85.000001,395.0,0.0,0.0,0.0,1.0,166.665,51.682,51.682,49.759,49.759,34.0,-24.535,25.12,-28.689999999999998,28.2675,0.0,1782.264,-0.29499999999999815,100.0,28.538,28.786,41.126,41.166,0.0,0.0,100.0,0.0,0.0,0.0,0.0,3194.714285714286,3128.7,4093.0,4086.3,305.3435,304.74875,314.87025,314.73075,22.0149,20.674599999999998,22.088,21.5497,314.999998,314.999998,324.999988,324.999988,99.55848571428571,99.50803333333333,99.57148571428571,99.5491,0.08899999999999997,-0.04349999999999998,-0.10933333333333332,0.1225,-0.05333333333332746,-0.04833333333333201,1.513,1.5030000000000001,38.593,30.2165,39.05,35.6855,55.719,35.8835,60.8825,53.2755,53.659,34.955,59.424,51.58,52.803,34.476,59.3195,50.985,-0.10499999999999998,-0.05600000000000005,0.10608000000000001,0.10684,0.0,216.985,216.995,213.73000000000002,213.73000000000002,0.0,0.0
28,0.0,0.0,0.0,1.0,1.0,0.0,0.0,1.0,0.0,100.0,1.0,1.1856,26.0,0.0,0.0,0.0,59.999996,0.0,26.0,26.0,26.0,26.0,0.039111111111111097,0.26370000000000005,-0.08433333333333334,293.579,-2.6773,-2.655875,-1.58535,-1.5310000000000001,-181.01,215.515,190.383625,0.0,0.0,0.0,0.0,0.05663333333333334,-5.498166666666667,-5.498166666666667,-0.6592,0.8,-0.0003750000000000142,-0.9529999999999998,69.44800000000001,0.0097,-0.285075,-0.1479999999999997,100.0,1.0,1.0,214.23333333333335,0.0,0.0,0.0,0.0,0.0,0.0,0.0,9080.5,0.0,55.0,5.0,249.98333333333335,0.0,0.0,0.0,0.0,0.0,0.0,0.0,0.0,1.404,1.404,0.0,0.0,0.0,55.0,616.79921,10000.0,85.000001,85.000001,85.000001,85.000001,395.0,0.0,0.0,0.0,1.0,166.665,51.743,51.743,50.507,50.507,34.0,-23.5525,24.6,-28.056666666666665,28.4775,0.0,1782.216,-0.33999999999999986,100.0,28.622,28.734,40.481,40.759,0.0,0.0,100.0,0.0,0.0,0.0,0.0,3178.285714285714,3079.8,4097.0,4074.4,305.29,304.89225,315.10175,314.81275,22.023699999999998,20.6801,22.0977,21.5583,314.999998,314.999998,324.999988,324.999988,99.5585,99.50803333333333,99.57161428571429,99.54924285714286,0.09650000000000003,-0.04225000000000001,-0.10233333333333333,0.12833333333333335,-0.04333333333332945,-0.046666666666666856,1.559,1.5630000000000002,38.647999999999996,30.250999999999998,39.111000000000004,35.739,55.709,35.92,60.91,53.329499999999996,53.649,34.989,59.45,51.632,52.792,34.5085,59.3425,51.036,-0.10799999999999987,-0.05900000000000016,0.09867500000000001,0.11377500000000002,0.0,217.435,217.425,214.23333333333335,214.23333333333335,0.0,0.0
29,0.0,0.0,0.0,1.0,1.0,0.0,0.0,1.0,0.0,100.0,1.0,1.1856,26.0,0.0,0.0,0.0,59.999996,0.0,26.0,26.0,26.0,26.0,0.027666666666666728,0.26550000000000007,0.004866666666666667,293.198,-2.65075,-2.723125,-1.52905,-1.5168,-177.47,215.51,190.357,0.0,0.0,0.0,0.0,0.0587,-5.498166666666667,-5.498166666666667,-0.6535000000000001,-0.6855,-0.003375000000000128,0.841,69.582,0.011000000000000001,-0.27132500000000004,-0.3379999999999992,100.0,1.0,1.0,214.40666666666667,0.0,0.0,0.0,0.0,0.0,0.0,0.0,9088.0,0.0,55.0,5.0,250.47333333333336,1.0,0.0,0.0,0.0,0.0,0.0,0.0,0.0,1.4549999999999983,1.4549999999999983,0.0,0.0,1.0,55.0,616.79921,10000.0,85.000001,85.000001,85.000001,85.000001,395.0,0.0,0.0,0.0,1.0,166.665,52.17,52.17,49.438,49.438,34.0,-22.105,25.804,-28.793333333333333,32.019999999999996,0.0,1782.167,-0.41000000000000014,100.0,28.395,28.284,41.125,41.036,0.0,0.0,100.0,0.0,0.0,0.0,0.0,3038.857142857143,3117.2,4228.625,4419.1,305.5885,304.948,314.5215,313.97075,22.032899999999998,20.6858,22.1085,21.5677,314.999998,314.999998,324.999988,324.999988,99.55851428571428,99.50803333333333,99.57175714285714,99.5494,0.09975,-0.03125,-0.09533333333333333,0.1335,-0.04999999999999716,-0.05333333333332746,1.4563333333333333,1.4515,38.706,30.286,39.178,35.798,55.696,35.9565,60.9465,53.391999999999996,53.635999999999996,35.0225,59.484,51.692,52.778,34.5405,59.3735,51.09466666666667,-0.10650000000000004,-0.045500000000000096,0.10941000000000001,0.10572000000000001,0.0,217.79500000000002,217.825,214.40666666666667,214.40666666666667,0.0,0.0
30,0.0,0.0,0.0,1.0,1.0,0.0,0.0,1.0,0.0,100.0,1.0,1.1856,26.0,0.0,0.0,0.0,59.999996,0.0,26.0,26.0,26.0,26.0,0.025111111111111084,0.24070000000000014,0.04686666666666667,292.633,-2.66895,-2.60525,-1.5979999999999999,-1.5684,-174.12,215.5075,190.332,0.0,0.0,0.0,0.0,0.06063333333333334,-5.498166666666667,-5.498166666666667,-0.6627000000000001,0.677,-0.002874999999999961,0.567,69.703,0.0165,-0.290325,-0.4139999999999997,100.0,1.0,1.0,214.92333333333335,0.0,0.0,0.0,0.0,0.0,0.0,0.0,9109.8,0.0,55.0,5.0,250.90333333333334,0.0,0.0,0.0,0.0,0.0,0.0,1.0,0.0,1.5030000000000001,1.5030000000000001,0.0,0.0,0.0,55.0,616.79921,10000.0,85.000001,85.000001,85.000001,85.000001,395.0,0.0,0.0,0.0,1.0,166.665,50.308,50.308,50.034,50.034,34.0,-24.4275,27.08,-28.583333333333336,29.8325,0.0,1782.118,-0.35999999999999943,100.0,29.419,29.19,40.889,40.985,0.0,0.0,100.0,0.0,0.0,0.0,0.0,3339.285714285714,3367.2,4157.5,4143.2,304.5735,304.054,314.9355,314.60375,22.0419,20.6915,22.1185,21.5765,314.999998,314.999998,324.999988,324.999988,99.55852857142857,99.50805,99.5719,99.54954285714285,0.11175000000000002,-0.03425,-0.0945,0.12616666666666668,-0.046666666666666856,-0.04833333333333201,1.5083333333333333,1.4915,38.762,30.3215,39.239999999999995,35.853,55.689,35.995,60.977000000000004,53.448,53.629000000000005,35.058,59.5125,51.7465,52.769999999999996,34.5745,59.399,51.147999999999996,-0.11749999999999994,-0.06050000000000022,0.10418500000000001,0.10122,0.0,218.18,218.21,214.92333333333335,214.92333333333335,0.0,0.0
31,0.0,0.0,0.0,1.0,1.0,0.0,0.0,1.0,0.0,100.0,1.0,1.1856,26.0,0.0,0.0,0.0,59.999996,0.0,26.0,26.0,26.0,26.0,0.022111111111111192,0.25229999999999997,0.04816666666666667,292.358,-2.75835,-2.6295,-1.59555,-1.4632,-170.56,215.5075,190.30625,0.0,0.0,0.0,0.0,0.0627,-5.498166666666667,-5.498166666666667,-0.6478,-0.4535,0.0015000000000000568,-0.8820000000000001,69.83500000000001,0.020800000000000003,-0.2967,-0.27200000000000024,100.0,1.0,1.0,215.12666666666667,0.0,0.0,0.0,0.0,0.0,0.0,0.0,9118.5,0.0,55.0,5.0,251.38333333333333,1.0,0.0,0.0,0.0,0.0,0.0,1.0,0.0,1.5539999999999985,1.5539999999999985,0.0,0.0,1.0,55.0,616.79921,10000.0,85.000001,85.000001,85.000001,85.000001,395.0,0.0,0.0,0.0,1.0,166.665,50.858000000000004,50.858000000000004,48.751999999999995,48.751999999999995,34.0,-24.5025,26.222,-31.343333333333334,30.9325,0.0,1782.068,-0.370000000000001,100.0,29.089,29.397,41.246,41.474000000000004,0.0,0.0,100.0,0.0,0.0,0.0,0.0,3270.857142857143,3267.4,4412.0,4367.2,305.144,304.40975,314.171,313.94225,22.0513,20.697400000000002,22.1293,21.586,314.999998,314.999998,324.999988,324.999988,99.55854285714285,99.50805,99.57205714285715,99.54968571428572,0.10749999999999993,-0.03700000000000003,-0.09633333333333333,0.1295,-0.05333333333332746,-0.03499999999999659,1.4366666666666665,1.4184999999999999,38.821,30.3585,39.308,35.913,55.678,36.034,61.0145,53.5125,53.620000000000005,35.0945,59.5475,51.8085,52.759,34.6095,59.4305,51.208333333333336,-0.11299999999999999,-0.05449999999999999,0.106925,0.10612,0.0,218.59,218.60000000000002,215.12666666666667,215.12666666666667,0.0,0.0
32,0.0,0.0,0.0,1.0,1.0,0.0,0.0,1.0,0.0,100.0,1.0,1.1856,26.0,0.0,0.0,0.0,59.999996,0.0,26.0,26.0,26.0,26.0,0.05222222222222217,0.2612000000000001,-0.02036666666666667,293.091,-2.6859,-2.68825,-1.53415,-1.5876000000000001,-166.79,215.505,190.2795,0.0,0.0,0.0,0.0,0.0649,-5.498166666666667,-5.498166666666667,-0.6719,-0.35949999999999993,-0.0182500000000001,-1.129,69.969,0.0218,-0.3139,-0.3099999999999996,100.0,1.0,1.0,215.68666666666667,0.0,0.0,0.0,0.0,0.0,0.0,0.0,9142.1,0.0,55.0,5.0,251.86666666666667,0.0,0.0,0.0,0.0,0.0,0.0,1.0,0.0,1.6080000000000005,1.6080000000000005,0.0,0.0,0.0,55.0,616.79921,10000.0,85.000001,85.000001,85.000001,85.000001,395.0,0.0,0.0,0.0,1.0,166.665,51.361,51.361,50.064,50.064,34.0,-23.23,25.38,-27.433333333333334,31.2875,0.0,1782.013,-0.370000000000001,100.0,28.915,29.178,40.878,41.172,0.0,0.0,100.0,0.0,0.0,0.0,0.0,3198.142857142857,3091.4,4098.375,4212.7,305.275,304.877,314.93875,314.358,22.0611,20.7036,22.1406,21.596,314.999998,314.999998,324.999988,324.999988,99.55855714285714,99.50805,99.5722,99.54985714285715,0.10850000000000004,-0.03325,-0.09416666666666668,0.13516666666666666,-0.05666666666667197,-0.04333333333332945,1.501,1.499,38.882,30.3975,39.378,35.975,55.667,36.0745,61.049,53.576,53.608999999999995,35.132,59.579499999999996,51.8695,52.747,34.6455,59.4595,51.26833333333333,-0.11599999999999988,-0.05750000000000011,0.10800000000000001,0.10269,0.0,218.995,219.0,215.68666666666667,215.68666666666667,0.0,0.0
33,0.0,0.0,0.0,1.0,1.0,0.0,0.0,1.0,0.0,100.0,1.0,1.1856,26.0,0.0,0.0,0.0,59.999996,0.0,26.0,26.0,26.0,26.0,0.03766666666666674,0.23840000000000017,-0.06666666666666667,293.304,-2.7147,-2.6905,-1.53915,-1.5531000000000001,-163.64,215.505,190.255875,0.0,0.0,0.0,0.0,0.06673333333333334,-5.498166666666667,-5.498166666666667,-0.6758000000000001,-0.03849999999999998,-0.016999999999999904,1.189,70.082,0.0217,-0.2891,-0.33999999999999986,100.0,1.0,1.0,216.05333333333334,0.0,0.0,0.0,0.0,0.0,0.0,0.0,9157.7,0.0,55.0,5.0,252.26999999999998,1.0,0.0,0.0,0.0,0.0,0.0,1.0,0.0,1.6529999999999987,1.6529999999999987,0.0,0.0,1.0,55.0,616.79921,10000.0,85.000001,85.000001,85.000001,85.000001,395.0,0.0,0.0,0.0,1.0,166.665,51.758,51.758,50.156,50.156,34.0,-22.565,26.108,-27.22,31.265,0.0,1781.968,-0.39000000000000057,100.0,28.877,28.652,40.842,40.868,0.0,0.0,100.0,0.0,0.0,0.0,0.0,3096.857142857143,3129.7,4112.125,4255.2,305.45,304.94725,314.885,314.42675,22.0693,20.7087,22.1498,21.6041,314.999998,314.999998,324.999988,324.999988,99.55857142857143,99.50805,99.57232857142857,99.54998571428571,0.11375000000000002,-0.019000000000000017,-0.08700000000000001,0.14033333333333334,-0.03833333333332689,-0.045000000000001705,1.516,1.487,38.933,30.429000000000002,39.437,36.025999999999996,55.657,36.107,61.077,53.6275,53.599000000000004,35.161500000000004,59.6055,51.919,52.736999999999995,34.674,59.4825,51.31666666666666,-0.11349999999999993,-0.04700000000000015,0.10923000000000001,0.10604500000000001,0.0,219.35500000000002,219.365,216.05333333333334,216.05333333333334,0.0,0.0
34,0.0,0.0,0.0,1.0,1.0,0.0,0.0,1.0,0.0,100.0,1.0,1.1856,26.0,0.0,0.0,0.0,59.999996,0.0,26.0,26.0,26.0,26.0,0.03744444444444439,0.25170000000000003,-0.052833333333333336,293.472,-2.65715,-2.692,-1.5792000000000002,-1.4901,-159.85,215.5075,190.226,0.0,0.0,0.0,0.0,0.06893333333333335,-5.498166666666667,-5.498166666666667,-0.7001000000000001,-0.9075,0.007500000000000062,1.124,70.219,0.024800000000000003,-0.291625,-0.3959999999999999,100.0,1.0,1.0,216.41,0.0,0.0,0.0,0.0,0.0,0.0,0.0,9172.8,0.0,55.0,5.0,252.76333333333332,0.0,0.0,0.0,0.0,0.0,0.0,1.0,0.0,1.7070000000000007,1.7070000000000007,0.0,0.0,0.0,55.0,616.79921,10000.0,85.000001,85.000001,85.000001,85.000001,395.0,0.0,0.0,0.0,1.0,166.665,52.231,52.231,50.201,50.201,34.0,-21.5625,26.317999999999998,-27.84,31.54,0.0,1781.913,-0.3249999999999993,100.0,28.504,28.186,40.854,41.019999999999996,0.0,0.0,100.0,0.0,0.0,0.0,0.0,3024.714285714286,3168.6,4119.375,4322.6,305.658,304.93925,314.878,314.2525,22.079,20.7147,22.161,21.6141,314.999998,314.999998,324.999988,324.999988,99.55858571428571,99.50806666666666,99.5725,99.55014285714286,0.11099999999999999,-0.020000000000000018,-0.08633333333333333,0.15083333333333335,-0.03999999999999915,-0.03499999999999659,1.5053333333333332,1.4875,38.992999999999995,30.4665,39.507,36.088,55.644,36.144,61.1115,53.692,53.587,35.196,59.6375,51.9815,52.723,34.707,59.5115,51.378,-0.10749999999999993,-0.051000000000000156,0.10947000000000001,0.11291000000000001,0.0,219.75,219.755,216.41,216.41,0.0,0.0
35,0.0,0.0,0.0,1.0,1.0,0.0,0.0,1.0,0.0,100.0,1.0,1.1856,26.0,0.0,0.0,0.0,59.999996,0.0,26.0,26.0,26.0,26.0,0.039111111111111097,0.25890000000000013,-0.08473333333333334,293.427,-2.7145,-2.628875,-1.5759500000000002,-1.4807000000000001,-156.48000000000002,215.5075,190.19775,0.0,0.0,0.0,0.0,0.0709,-5.498166666666667,-5.498166666666667,-0.7363000000000001,-0.14200000000000013,-0.016000000000000014,0.010000000000000009,70.337,0.0261,-0.296675,-0.30600000000000005,100.0,1.0,1.0,216.89,0.0,0.0,0.0,0.0,0.0,0.0,0.0,9193.2,0.0,55.0,5.0,253.18666666666667,1.0,0.0,0.0,0.0,0.0,0.0,1.0,0.0,1.754999999999999,1.754999999999999,0.0,0.0,1.0,55.0,616.79921,10000.0,85.000001,85.000001,85.000001,85.000001,395.0,0.0,0.0,0.0,1.0,166.665,51.682,51.682,49.911,49.911,34.0,-22.8375,27.538,-26.759999999999998,28.695,0.0,1781.865,-0.19500000000000028,100.0,28.317,28.648,40.724000000000004,40.671,0.0,0.0,100.0,0.0,0.0,0.0,0.0,3089.4285714285716,3386.1,4017.5,4071.6000000000004,305.438,304.1545,315.07125,314.8405,22.0875,20.7203,22.1709,21.622700000000002,314.999998,314.999998,324.999988,324.999988,99.5586,99.50806666666666,99.57264285714285,99.55028571428572,0.10725000000000007,-0.029749999999999943,-0.0845,0.14400000000000002,-0.04333333333332945,-0.045000000000001705,1.551,1.5375,39.047,30.5015,39.568,36.141999999999996,55.631,36.183,61.141999999999996,53.748,53.574,35.232,59.666,52.036,52.709,34.7415,59.536500000000004,51.431,-0.09850000000000003,-0.06499999999999995,0.10745,0.10377000000000002,0.0,220.12,220.135,216.89,216.89,0.0,0.0
36,0.0,0.0,0.0,1.0,1.0,0.0,0.0,1.0,0.0,100.0,1.0,1.1856,26.0,0.0,0.0,0.0,59.999996,0.0,26.0,26.0,26.0,26.0,0.03788888888888886,0.2549000000000001,0.02846666666666667,292.709,-2.6442,-2.722375,-1.5914000000000001,-1.5248,-152.89,215.51,190.16625,0.0,0.0,0.0,0.0,0.07296666666666667,-5.498166666666667,-5.498166666666667,-0.7136,0.0605,-0.05624999999999991,-1.436,70.46600000000001,0.021400000000000002,-0.26165,-0.06799999999999962,100.0,1.0,1.0,217.04666666666668,0.0,0.0,0.0,0.0,0.0,0.0,0.0,9199.8,0.0,55.0,5.0,253.65333333333334,0.0,0.0,0.0,0.0,0.0,0.0,1.0,0.0,1.806000000000001,1.806000000000001,0.0,0.0,0.0,55.0,616.79921,10000.0,85.000001,85.000001,85.000001,85.000001,395.0,0.0,0.0,0.0,1.0,166.665,51.819,51.819,49.179,49.179,34.0,-22.455,24.232,-32.336666666666666,32.89,0.0,1781.816,-0.14000000000000057,100.0,28.812,28.9,40.962,41.289,0.0,0.0,100.0,0.0,0.0,0.0,0.0,3051.0,2995.9,4539.875,4523.3,305.541,305.11025,314.1175,313.6915,22.0967,20.7261,22.1815,21.6322,314.999998,314.999998,324.999988,324.999988,99.55861428571428,99.50808333333333,99.57278571428571,99.55044285714285,0.09400000000000008,-0.04874999999999996,-0.10066666666666667,0.12633333333333333,-0.051666666666669414,-0.045000000000001705,1.4323333333333332,1.4195,39.104,30.5385,39.635,36.201,55.620999999999995,36.219,61.174,53.806,53.564,35.2655,59.696,52.092,52.699,34.7735,59.5635,51.48566666666667,-0.09199999999999986,-0.06950000000000012,0.10920500000000001,0.107215,0.0,220.56,220.555,217.04666666666668,217.04666666666668,0.0,0.0
