,ABS Active,ABS Enabled,AID Allow Tire Blankets,AID Auto Blip,AID Auto Clutch,AID Auto Shift,AID Fuel Rate,AID Ideal Line,AID Mech Damage,AID Stability,AID Tire Wear Rate,Air Density,Air Temp,Ballast,Best Lap Delta,Best Lap Time,Brake Bias,Brake Pos,Brake Temp FL,Brake Temp FR,Brake Temp RL,Brake Temp RR,CG Accel Lateral,CG Accel Longitudinal,CG Accel Vertical,CG Height,Camber FL,Camber FR,Camber RL,Camber RR,Car Coord X,Car Coord Y,Car Coord Z,Car Damage Front,Car Damage Left,Car Damage Rear,Car Damage Right,Car Pos Norm,Caster FL,Caster FR,Chassis Pitch Angle,Chassis Pitch Rate,Chassis Roll Angle,Chassis Roll Rate,Chassis Velocity X,Chassis Velocity Y,Chassis Velocity Z,Chassis Yaw Rate,Clutch Pos,DRS Active,DRS Available,Drive Train Speed,ERS Heat Charging,ERS Is Charging,ERS Max Energy,ERS Power Level,ERS Recovery Level,Engine Brake Setting,Engine Limiter,Engine RPM,Flags,Fuel Level,Gear,Ground Speed,HR Sample Clock,In Pit,KERS Charge,KERS Deployed Energy,KERS Input,KERS Max Energy,LR Sample Clock,Lap Invalidated,Lap Time,Lap Time2,Last Lap Time,Last Sector Time,MR Sample Clock,Max Fuel,Max Power,Max RPM,Max Sus Travel FL,Max Sus Travel FR,Max Sus Travel RL,Max Sus Travel RR,Max Torque,Max Turbo Boost,Num Tires Off Track,Penalties Enabled,Position,Raw Data Sample Rate,Ride Height FL,Ride Height FR,Ride Height RL,Ride Height RR,Road Temp,Self Align Torque FL,Self Align Torque FR,Self Align Torque RL,Self Align Torque RR,Session Lap Count,Session Time Left,Steering Angle,Surface Grip,Suspension Travel FL,Suspension Travel FR,Suspension Travel RL,Suspension Travel RR,TC Active,TC Enabled,Throttle Pos,Tire Dirt Level FL,Tire Dirt Level FR,Tire Dirt Level RL,Tire Dirt Level RR,Tire Load FL,Tire Load FR,Tire Load RL,Tire Load RR,Tire Loaded Radius FL,Tire Loaded Radius FR,Tire Loaded Radius RL,Tire Loaded Radius RR,Tire Pressure FL,Tire Pressure FR,Tire Pressure RL,Tire Pressure RR,Tire Radius FL,Tire Radius FR,Tire Radius RL,Tire Radius RR,Tire Rubber Grip FL,Tire Rubber Grip FR,Tire Rubber Grip RL,Tire Rubber Grip RR,Tire Slip Angle FL,Tire Slip Angle FR,Tire Slip Angle RL,Tire Slip Angle RR,Tire Slip Ratio FL,Tire Slip Ratio FR,Tire Slip Ratio RL,Tire Slip Ratio RR,Tire Temp Core FL,Tire Temp Core FR,Tire Temp Core RL,Tire Temp Core RR,Tire Temp Inner FL,Tire Temp Inner FR,Tire Temp Inner RL,Tire Temp Inner RR,Tire Temp Middle FL,Tire Temp Middle FR,Tire Temp Middle RL,Tire Temp Middle RR,Tire Temp Outer FL,Tire Temp Outer FR,Tire Temp Outer RL,Tire Temp Outer RR,Toe In FL,Toe In FR,Toe In RL,Toe In RR,Turbo Boost,Wheel Angular Speed FL,Wheel Angular Speed FR,Wheel Angular Speed RL,Wheel Angular Speed RR,Wind Direction,Wind Speed
0,0.0,0.0,0.0,1.0,1.0,0.0,0.0,1.0,0.0,100.0,1.0,1.1856,26.0,0.0,0.0,0.0,59.99999,0.0,26.0,26.0,26.0,26.0,-0.07322222222222219,0.3106,-0.024525,303.0855,-2.7932,-2.7063333333333333,-1.36335,-1.3854444444444445,-275.68,216.3225,190.996625,0.0,0.0,0.0,0.0,0.0016,-5.498166666666667,-5.498166666666667,-0.7058,1.0786666666666667,0.0003333333333332966,-1.246,65.563,-0.03189999999999993,-0.38920000000000005,0.9820000000000002,100.0,1.0,1.0,202.47333333333333,0.0,0.0,0.0,0.0,0.0,0.0,0.0,8582.1,0.0,55.0,5.0,235.99666666666667,0.0,0.0,0.0,0.0,0.0,0.0,0.0,0.0,0.0030000000000001137,0.0030000000000001137,0.0,0.0,0.0,55.0,616.79921,10000.0,85.0,85.0,85.0,85.0,395.0,0.0,0.0,0.0,1.0,20.0,57.114,57.114,62.683,62.683,34.0,-27.2825,24.692,-27.79,21.805,0.0,1782.889,0.8249999999999993,100.0,23.2095,22.968,27.692,27.858,0.0,0.0,100.0,0.0,0.0,0.0,0.0,2942.714285714286,3276.6,4008.875,3878.9,305.935,304.363,315.1956666666667,315.106,21.701888888888888,20.5659,21.8896,21.2741,314.99999,314.99999,324.99998,324.99998,99.55525714285714,99.50891666666666,99.57348571428571,99.54451428571429,-0.030333333333333323,-0.08750000000000002,-0.17220000000000002,0.06699999999999995,-0.04999999999999716,-0.030000000000001137,1.5755,1.6275,36.637,29.5365,37.81,33.963,55.053,35.5895,61.938,51.24,52.94,34.7,60.5055,49.711,52.032,34.2505,60.513999999999996,49.2445,0.008000000000000007,-0.11299999999999999,0.11440000000000002,0.11486,0.0,205.45,205.36,202.47333333333333,202.47333333333333,0.0,0.0
1,0.0,0.0,0.0,1.0,1.0,0.0,0.0,1.0,0.0,100.0,1.0,1.1856,26.0,0.0,0.0,0.0,59.999996,0.0,26.0,26.0,26.0,26.0,-0.10466666666666657,0.32489999999999997,0.23255,301.7275,-2.703,-2.8226666666666667,-1.3651,-1.3865555555555558,-272.13,216.3175,190.974875,0.0,0.0,0.0,0.0,0.0036666666666666666,-5.498166666666667,-5.498166666666667,-0.6518999999999999,-0.3726666666666667,-0.05322222222222228,-1.214,65.727,-0.04949999999999999,-0.368475,1.4579999999999993,100.0,1.0,1.0,202.58333333333331,0.0,0.0,0.0,0.0,0.0,0.0,0.0,8586.8,0.0,55.0,5.0,236.59,1.0,0.0,0.0,0.0,0.0,0.0,0.0,0.0,0.05699999999999861,0.05699999999999861,0.0,0.0,1.0,55.0,616.79921,10000.0,85.000001,85.000001,85.000001,85.000001,395.0,0.0,0.0,0.0,1.0,111.11,57.617,57.617,60.959,60.959,34.0,-29.715,20.035999999999998,-33.68333333333333,26.9025,0.0,1782.835,0.875,100.0,23.293,22.8515,29.672,29.066499999999998,0.0,0.0,100.0,0.0,0.0,0.0,0.0,3164.857142857143,2731.3,4472.75,4732.4,305.2545,306.095,314.00266666666664,313.0545,21.71211111111111,20.5716,21.901699999999998,21.2836,314.999998,314.999998,324.999988,324.999988,99.55527142857143,99.50895,99.57364285714286,99.54465714285715,-0.04899999999999993,-0.10975000000000001,-0.18820000000000003,0.042333333333333334,-0.051666666666669414,-0.03166666666666629,1.386,1.4405000000000001,36.701,29.572499999999998,37.885999999999996,34.0225,55.041,35.629,61.9755,51.3085,52.928,34.736,60.541,49.777,52.019,34.285,60.547,49.3095,0.028500000000000192,-0.12449999999999983,0.10706,0.11011000000000001,0.0,205.95499999999998,205.82999999999998,202.58333333333331,202.58333333333331,0.0,0.0
2,0.0,0.0,0.0,1.0,1.0,0.0,0.0,1.0,0.0,100.0,1.0,1.1856,26.0,0.0,0.0,0.0,59.999996,0.0,26.0,26.0,26.0,26.0,-0.1293333333333333,0.27459999999999996,-0.019,302.704,-2.69085,-2.8355555555555556,-1.3423500000000002,-1.4275555555555557,-268.58,216.3075,190.95525,0.0,0.0,0.0,0.0,0.005733333333333334,-5.498166666666667,-5.498166666666667,-0.6997,0.060333333333333336,-0.02833333333333332,1.803,65.879,-0.06799999999999995,-0.43755,1.6100000000000003,100.0,1.0,1.0,203.50666666666666,0.0,0.0,0.0,0.0,0.0,0.0,0.0,8625.9,0.0,55.0,5.0,237.13666666666666,0.0,0.0,0.0,0.0,0.0,0.0,0.0,0.0,0.11100000000000065,0.11100000000000065,0.0,0.0,0.0,55.0,616.79921,10000.0,85.000001,85.000001,85.000001,85.000001,395.0,0.0,0.0,0.0,1.0,111.11,56.854,56.854,63.1105,63.1105,34.0,-31.84,21.564,-27.83,18.5825,0.0,1782.782,0.7300000000000004,100.0,23.7085,22.817,29.369,28.6185,0.0,0.0,100.0,0.0,0.0,0.0,0.0,3332.714285714286,2943.6,3761.125,3748.7,304.665,305.38433333333336,315.664,315.5565,21.722555555555555,20.5772,21.9136,21.2929,314.999998,314.999998,324.999988,324.999988,99.55527142857143,99.50895,99.57378571428572,99.54478571428571,-0.05466666666666664,-0.12149999999999994,-0.22299999999999998,0.010166666666666657,-0.04833333333333201,-0.06333333333333258,1.601,1.654,36.766,29.6075,37.96,34.081,55.032,35.666,62.0085,51.3695,52.92,34.7705,60.5715,49.836,52.01,34.317499999999995,60.575,49.3675,0.007000000000000117,-0.11050000000000004,0.10908000000000001,0.10501,0.0,206.425,206.3,203.50666666666666,203.50666666666666,0.0,0.0
3,0.0,0.0,0.0,1.0,1.0,0.0,0.0,1.0,0.0,100.0,1.0,1.1856,26.0,0.0,0.0,0.0,59.999996,0.0,26.0,26.0,26.0,26.0,-0.14200000000000002,0.30279999999999996,0.0531,302.887,-2.81125,-2.740555555555556,-1.3595000000000002,-1.41,-265.61,216.2975,190.93825,0.0,0.0,0.0,0.0,0.0074333333333333335,-5.498166666666667,-5.498166666666667,-0.6677,0.2803333333333333,0.008777777777777773,0.08700000000000019,66.013,-0.07929999999999993,-0.38330000000000003,1.178,100.0,1.0,1.0,203.7266666666667,0.0,0.0,0.0,0.0,0.0,0.0,0.0,8635.2,0.0,55.0,5.0,237.61666666666667,1.0,0.0,0.0,0.0,0.0,0.0,0.0,0.0,0.1559999999999988,0.1559999999999988,0.0,0.0,1.0,55.0,616.79921,10000.0,85.000001,85.000001,85.000001,85.000001,395.0,0.0,0.0,0.0,1.0,166.665,58.273,58.273,61.63,61.63,34.0,-26.29,20.28,-31.383333333333333,22.0375,0.0,1782.735,0.625,100.0,23.2565,22.613,29.133,28.466,0.0,0.0,100.0,0.0,0.0,0.0,0.0,2752.5714285714284,2863.7,4157.875,4146.0,306.3815,305.75733333333335,314.713,314.575,21.730777777777778,20.582,21.9233,21.3007,314.999998,314.999998,324.999988,324.999988,99.55527142857143,99.50896666666667,99.57391428571428,99.54492857142857,-0.05133333333333334,-0.11375000000000002,-0.20920000000000005,0.026999999999999913,-0.05333333333332746,-0.061666666666667425,1.5095,1.5425,36.818,29.6375,38.021,34.1295,55.019999999999996,35.6995,62.034,51.4235,52.908,34.801,60.5955,49.888,51.998000000000005,34.3465,60.5965,49.419,0.0009999999999998899,-0.09699999999999998,0.103105,0.11101000000000001,0.0,206.865,206.755,203.7266666666667,203.7266666666667,0.0,0.0
4,0.0,0.0,0.0,1.0,1.0,0.0,0.0,1.0,0.0,100.0,1.0,1.1856,26.0,0.0,0.0,0.0,59.999996,0.0,26.0,26.0,26.0,26.0,-0.1561111111111111,0.30900000000000016,-0.03975,302.841,-2.7398,-2.792666666666667,-1.3695,-1.42,-262.44,216.2825,190.9195,0.0,0.0,0.0,0.0,0.009300000000000001,-5.498166666666667,-5.498166666666667,-0.6980999999999999,-0.9436666666666667,-0.061666666666666536,-0.542,66.15299999999999,-0.07909999999999995,-0.40875,1.0940000000000003,100.0,1.0,1.0,204.19333333333333,0.0,0.0,0.0,0.0,0.0,0.0,0.0,8655.0,0.0,55.0,5.0,238.12666666666667,0.0,0.0,0.0,0.0,0.0,0.0,0.0,0.0,0.20400000000000063,0.20400000000000063,0.0,0.0,0.0,55.0,616.79921,10000.0,85.000001,85.000001,85.000001,85.000001,395.0,0.0,0.0,0.0,1.0,166.665,57.647999999999996,57.647999999999996,61.9355,61.9355,34.0,-29.7725,21.546,-30.14666666666667,19.6625,0.0,1782.688,0.6550000000000011,100.0,23.1555,22.4825,29.442,28.4925,0.0,0.0,100.0,0.0,0.0,0.0,0.0,3139.5714285714284,2952.0,4108.125,3697.2,305.2905,305.521,314.78133333333335,315.62,21.739555555555555,20.587,21.9339,21.309,314.999998,314.999998,324.999988,324.999988,99.55528571428572,99.50898333333333,99.57405714285714,99.54505714285715,-0.04733333333333334,-0.11024999999999996,-0.1926,0.03633333333333333,-0.06499999999999773,-0.061666666666667425,1.547,1.5855000000000001,36.872,29.6685,38.087,34.1815,55.006,35.733000000000004,62.065,51.4785,52.894999999999996,34.832,60.625,49.941,51.985,34.376,60.6235,49.471000000000004,-0.0020000000000000018,-0.10099999999999998,0.10454000000000001,0.10784,0.0,207.22,207.135,204.19333333333333,204.19333333333333,0.0,0.0
5,0.0,0.0,0.0,1.0,1.0,0.0,0.0,1.0,0.0,100.0,1.0,1.1856,26.0,0.0,0.0,0.0,59.999996,0.0,26.0,26.0,26.0,26.0,-0.139,0.2896000000000001,0.009850000000000001,302.6735,-2.7549,-2.809222222222222,-1.3587500000000001,-1.402777777777778,-258.86,216.2625,190.89775,0.0,0.0,0.0,0.0,0.011366666666666667,-5.498166666666667,-5.498166666666667,-0.6976,0.362,-0.05888888888888877,1.404,66.31,-0.08009999999999995,-0.40240000000000004,1.0279999999999996,100.0,1.0,1.0,204.63333333333333,0.0,0.0,0.0,0.0,0.0,0.0,0.0,8673.6,0.0,55.0,5.0,238.68666666666667,1.0,0.0,0.0,0.0,0.0,0.0,0.0,0.0,0.2579999999999991,0.2579999999999991,0.0,0.0,1.0,55.0,616.79921,10000.0,85.000001,85.000001,85.000001,85.000001,395.0,0.0,0.0,0.0,1.0,166.665,57.602000000000004,57.602000000000004,62.1795,62.1795,34.0,-28.802500000000002,22.168,-31.166666666666668,21.5275,0.0,1782.634,0.21000000000000085,100.0,23.4665,22.5605,29.21,28.258499999999998,0.0,0.0,100.0,0.0,0.0,0.0,0.0,3085.285714285714,2922.3,4144.0,4067.0,305.3255,305.63233333333335,314.771,314.80175,21.749777777777776,20.5927,21.9457,21.3182,314.999998,314.999998,324.999988,324.999988,99.55528571428572,99.509,99.57421428571429,99.5452,-0.02966666666666662,-0.09099999999999997,-0.21139999999999992,0.03166666666666673,-0.05333333333332746,-0.051666666666669414,1.547,1.5764999999999998,36.936,29.7045,38.161,34.239,54.995999999999995,35.7715,62.0985,51.539500000000004,52.885,34.8675,60.656,49.9995,51.974000000000004,34.41,60.652,49.5285,-0.030999999999999917,-0.07200000000000006,0.11094500000000002,0.11519000000000001,0.0,207.755,207.67000000000002,204.63333333333333,204.63333333333333,0.0,0.0
6,0.0,0.0,0.0,1.0,1.0,0.0,0.0,1.0,0.0,100.0,1.0,1.1856,26.0,0.0,0.0,0.0,59.999996,0.0,26.0,26.0,26.0,26.0,-0.12111111111111106,0.29890000000000017,0.0030250000000000003,302.5515,-2.72255,-2.835888888888889,-1.4007,-1.3982222222222223,-255.68,216.2425,190.878375,0.0,0.0,0.0,0.0,0.013233333333333335,-5.498166666666667,-5.498166666666667,-0.6897,0.169,-0.040888888888888975,0.9010000000000002,66.44800000000001,-0.07479999999999998,-0.3997,0.6479999999999997,100.0,1.0,1.0,205.06,0.0,0.0,0.0,0.0,0.0,0.0,0.0,8691.7,0.0,55.0,5.0,239.18666666666667,0.0,0.0,0.0,0.0,0.0,0.0,0.0,0.0,0.30600000000000094,0.30600000000000094,0.0,0.0,0.0,55.0,616.79921,10000.0,85.000001,85.000001,85.000001,85.000001,395.0,0.0,0.0,0.0,1.0,166.665,57.449,57.449,61.8895,61.8895,34.0,-27.235,23.53,-30.669999999999998,21.56,0.0,1782.586,0.030000000000001137,100.0,23.427,22.7455,29.302,28.5865,0.0,0.0,100.0,0.0,0.0,0.0,0.0,3032.285714285714,2977.5,4095.875,4041.2,305.455,305.365,314.88533333333334,314.8545,21.758777777777777,20.5978,21.9562,21.3267,314.999998,314.999998,324.999988,324.999988,99.5553,99.509,99.57434285714285,99.54532857142857,-0.010333333333333306,-0.07799999999999996,-0.19679999999999997,0.034666666666666845,-0.03333333333333144,-0.03333333333333144,1.5265,1.5524999999999998,36.992000000000004,29.736,38.226,34.2915,54.983999999999995,35.8055,62.1275,51.597,52.873999999999995,34.8985,60.6835,50.055,51.962,34.4395,60.677,49.583,-0.05049999999999999,-0.0535000000000001,0.11175500000000001,0.10212,0.0,208.16,208.085,205.06,205.06,0.0,0.0
7,0.0,0.0,0.0,1.0,1.0,0.0,0.0,1.0,0.0,100.0,1.0,1.1856,26.0,0.0,0.0,0.0,59.999996,0.0,26.0,26.0,26.0,26.0,-0.06422222222222218,0.2984,0.032100000000000004,302.3375,-2.69505,-2.7715555555555556,-1.3592,-1.442777777777778,-252.28,216.2175,190.858,0.0,0.0,0.0,0.0,0.0152,-5.498166666666667,-5.498166666666667,-0.6952,-0.07633333333333334,-0.03588888888888908,-0.32200000000000006,66.595,-0.05569999999999997,-0.411675,0.39400000000000013,100.0,1.0,1.0,205.4766666666667,0.0,0.0,0.0,0.0,0.0,0.0,0.0,8709.4,0.0,55.0,5.0,239.71666666666667,1.0,0.0,0.0,0.0,0.0,0.0,0.0,0.0,0.3569999999999993,0.3569999999999993,0.0,0.0,1.0,55.0,616.79921,10000.0,85.000001,85.000001,85.000001,85.000001,395.0,0.0,0.0,0.0,1.0,166.665,57.098,57.098,62.1185,62.1185,34.0,-28.5675,23.412,-29.31,22.8925,0.0,1782.534,-0.21000000000000085,100.0,23.377,22.926000000000002,29.238,28.8515,0.0,0.0,100.0,0.0,0.0,0.0,0.0,3242.4285714285716,2941.7,4110.125,3991.9,304.944,305.31,314.87766666666664,314.817,21.768333333333334,20.6032,21.9674,21.3356,314.999998,314.999998,324.999988,324.999988,99.5553,99.50901666666667,99.57448571428571,99.54545714285715,0.0003333333333332966,-0.0635,-0.1784,0.050999999999999934,-0.05833333333333002,-0.04999999999999716,1.518,1.5390000000000001,37.052,29.77,38.296,34.3475,54.972,35.84,62.159,51.6575,52.861999999999995,34.93,60.713499999999996,50.1135,51.95,34.4695,60.704,49.6405,-0.06149999999999989,-0.032500000000000195,0.104355,0.10684,0.0,208.59,208.54000000000002,205.4766666666667,205.4766666666667,0.0,0.0
8,0.0,0.0,0.0,1.0,1.0,0.0,0.0,1.0,0.0,100.0,1.0,1.1856,26.0,0.0,0.0,0.0,59.999996,0.0,26.0,26.0,26.0,26.0,-0.028444444444444383,0.2936000000000001,-0.002975,302.658,-2.78655,-2.760666666666667,-1.3446,-1.3892222222222221,-248.68,216.19,190.836125,0.0,0.0,0.0,0.0,0.0173,-5.498166666666667,-5.498166666666667,-0.7,-0.5383333333333333,-0.015222222222222026,-0.718,66.75,-0.03609999999999991,-0.40785000000000005,-0.021999999999999353,100.0,1.0,1.0,205.91333333333333,0.0,0.0,0.0,0.0,0.0,0.0,0.0,8727.9,0.0,55.0,5.0,240.27666666666667,0.0,0.0,0.0,0.0,0.0,0.0,0.0,0.0,0.41100000000000136,0.41100000000000136,0.0,0.0,0.0,55.0,616.79921,10000.0,85.000001,85.000001,85.000001,85.000001,395.0,0.0,0.0,0.0,1.0,111.11,57.877,57.877,61.6455,61.6455,34.0,-26.3325,24.218,-27.606666666666666,23.805,0.0,1782.48,-0.36499999999999844,100.0,22.81,22.8915,29.207,28.92,0.0,0.0,100.0,0.0,0.0,0.0,0.0,3042.5714285714284,2938.7,4109.125,4038.8,305.7425,305.3763333333333,314.8693333333333,314.70125,21.778222222222222,20.609,21.9792,21.3451,314.999998,314.999998,324.999988,324.999988,99.5553,99.50901666666667,99.57464285714286,99.54561428571428,0.018000000000000016,-0.038250000000000006,-0.14979999999999993,0.07533333333333325,-0.046666666666666856,-0.045000000000001705,1.531,1.5215,37.114000000000004,29.805999999999997,38.370000000000005,34.407,54.956,35.8755,62.1915,51.7215,52.848,34.9625,60.7435,50.175,51.934,34.5005,60.7315,49.701,-0.07650000000000001,-0.020999999999999908,0.10547000000000001,0.102245,0.0,209.05,209.04500000000002,205.91333333333333,205.91333333333333,0.0,0.0
9,0.0,0.0,0.0,1.0,1.0,0.0,0.0,1.0,0.0,100.0,1.0,1.1856,26.0,0.0,0.0,0.0,59.999996,0.0,26.0,26.0,26.0,26.0,-0.008000000000000007,0.28770000000000007,-0.020625,302.429,-2.76515,-2.7654444444444444,-1.3981,-1.3735555555555556,-245.88,216.16750000000002,190.818875,0.0,0.0,0.0,0.0,0.018933333333333337,-5.498166666666667,-5.498166666666667,-0.7034,0.5693333333333334,-0.021333333333333204,-0.726,66.867,-0.021599999999999953,-0.406525,-0.11000000000000032,100.0,1.0,1.0,206.40333333333334,0.0,0.0,0.0,0.0,0.0,0.0,0.0,8748.7,0.0,55.0,5.0,240.69666666666666,1.0,0.0,0.0,0.0,0.0,0.0,0.0,0.0,0.4529999999999994,0.4529999999999994,0.0,0.0,1.0,55.0,616.79921,10000.0,85.000001,85.000001,85.000001,85.000001,395.0,0.0,0.0,0.0,1.0,111.11,56.854,56.854,62.591499999999996,62.591499999999996,34.0,-28.15,25.734,-26.356666666666666,24.11,0.0,1782.44,-0.495000000000001,100.0,23.3245,23.1525,28.897,28.82,0.0,0.0,100.0,0.0,0.0,0.0,0.0,3334.142857142857,3005.5,3980.25,3986.6000000000004,304.788,305.1093333333333,315.256,314.92,21.78611111111111,20.613599999999998,21.9882,21.3524,314.999998,314.999998,324.999988,324.999988,99.5553,99.50903333333333,99.57475714285714,99.54572857142857,0.042333333333333334,-0.019000000000000017,-0.13660000000000005,0.09850000000000003,-0.054999999999999716,-0.04999999999999716,1.5725,1.5739999999999998,37.163,29.835,38.427,34.4525,54.946,35.903999999999996,62.213,51.7705,52.838,34.989,60.7635,50.222,51.924,34.525999999999996,60.7495,49.7475,-0.09250000000000003,-0.01200000000000001,0.11039500000000001,0.105035,0.0,209.44,209.425,206.40333333333334,206.40333333333334,0.0,0.0
10,0.0,0.0,0.0,1.0,1.0,0.0,0.0,1.0,0.0,100.0,1.0,1.1856,26.0,0.0,0.0,0.0,59.999996,0.0,26.0,26.0,26.0,26.0,0.00011111111111117289,0.2912000000000001,0.04725,302.2005,-2.7319,-2.7621111111111114,-1.36955,-1.3597777777777778,-242.46,216.14,190.798125,0.0,0.0,0.0,0.0,0.020900000000000002,-5.498166666666667,-5.498166666666667,-0.6752,-0.3476666666666667,0.015555555555555545,1.8850000000000002,67.015,-0.0031999999999999806,-0.38995,-0.492,100.0,1.0,1.0,206.62,0.0,0.0,0.0,0.0,0.0,0.0,0.0,8757.8,0.0,55.0,5.0,241.2266666666667,0.0,0.0,0.0,0.0,0.0,0.0,1.0,0.0,0.5040000000000013,0.5040000000000013,0.0,0.0,0.0,55.0,616.79921,10000.0,85.000001,85.000001,85.000001,85.000001,395.0,0.0,0.0,0.0,1.0,166.665,57.968,57.968,60.897999999999996,60.897999999999996,34.0,-21.9025,25.832,-27.713333333333335,28.314999999999998,0.0,1782.388,-0.6400000000000006,100.0,23.27,22.846,29.475,29.316499999999998,0.0,0.0,100.0,0.0,0.0,0.0,0.0,2790.857142857143,2953.5,4291.25,4368.5,306.2005,305.5126666666667,314.33566666666667,314.01525,21.795555555555556,20.6191,21.9995,21.3616,314.999998,314.999998,324.999988,324.999988,99.55531428571429,99.50903333333333,99.5749,99.54587142857143,0.06800000000000006,0.006000000000000005,-0.1107999999999999,0.119,-0.03499999999999659,-0.04833333333333201,1.472,1.4565000000000001,37.223,29.869500000000002,38.497,34.51,54.935,35.9365,62.245,51.8345,52.828,35.019,60.7935,50.284,51.913,34.5545,60.7765,49.8085,-0.10099999999999998,0.0024999999999999467,0.10462,0.11277000000000001,0.0,209.86,209.89499999999998,206.62,206.62,0.0,0.0
11,0.0,0.0,0.0,1.0,1.0,0.0,0.0,1.0,0.0,100.0,1.0,1.1856,26.0,0.0,0.0,0.0,59.999996,0.0,26.0,26.0,26.0,26.0,0.06133333333333324,0.27370000000000005,-0.08410000000000001,302.8565,-2.7858,-2.7106666666666666,-1.4309,-1.3433333333333333,-239.04,216.1125,190.777375,0.0,0.0,0.0,0.0,0.022600000000000002,-5.498166666666667,-5.498166666666667,-0.7217,-0.439,0.040888888888888975,-0.835,67.155,0.015100000000000113,-0.4298,-0.6059999999999999,100.0,1.0,1.0,207.35333333333335,0.0,0.0,0.0,0.0,0.0,0.0,0.0,8789.0,0.0,55.0,5.0,241.73333333333335,1.0,0.0,0.0,0.0,0.0,0.0,1.0,0.0,0.5549999999999997,0.5549999999999997,0.0,0.0,1.0,55.0,616.79921,10000.0,85.000001,85.000001,85.000001,85.000001,395.0,0.0,0.0,0.0,1.0,166.665,57.327,57.327,62.729,62.729,34.0,-24.055,27.368,-22.163333333333334,24.86,0.0,1782.336,-0.6799999999999997,100.0,22.8635,23.218,28.869,29.2575,0.0,0.0,100.0,0.0,0.0,0.0,0.0,3065.0,3086.9,3675.625,3861.1000000000004,305.6125,304.8786666666667,315.98533333333336,315.20725,21.80488888888889,20.6248,22.0105,21.3706,314.999998,314.999998,324.999988,324.999988,99.55532857142857,99.50903333333333,99.57502857142858,99.54601428571429,0.08166666666666678,0.013500000000000068,-0.09199999999999997,0.14266666666666672,-0.060000000000002274,-0.036666666666668846,1.6195,1.5989999999999998,37.28,29.905,38.566,34.5665,54.922,35.9705,62.269999999999996,51.8955,52.815,35.05,60.817,50.343,51.9,34.584,60.7975,49.8665,-0.10749999999999993,0.0009999999999998899,0.10201500000000001,0.11249500000000001,0.0,210.275,210.3,207.35333333333335,207.35333333333335,0.0,0.0
12,0.0,0.0,0.0,1.0,1.0,0.0,0.0,1.0,0.0,100.0,1.0,1.1856,26.0,0.0,0.0,0.0,59.999996,0.0,26.0,26.0,26.0,26.0,0.06233333333333335,0.2933000000000001,0.01195,302.414,-2.82805,-2.712888888888889,-1.38035,-1.3533333333333333,-235.81,216.0875,190.75675,0.0,0.0,0.0,0.0,0.025466666666666665,-5.498166666666667,-5.498166666666667,-0.7098,0.41733333333333333,0.015666666666666718,-1.133,67.292,0.02960000000000007,-0.39782500000000004,-0.6299999999999999,100.0,1.0,1.0,207.60333333333335,0.0,0.0,0.0,0.0,0.0,0.0,0.0,8799.5,0.0,55.0,5.0,242.22666666666666,0.0,0.0,0.0,0.0,0.0,0.0,1.0,0.0,0.602999999999998,0.602999999999998,0.0,0.0,0.0,55.0,616.79921,10000.0,85.000001,85.000001,85.000001,85.000001,395.0,0.0,0.0,0.0,1.0,166.665,57.343,57.343,61.5845,61.5845,34.0,-24.235,27.546,-24.686666666666664,27.54,0.0,1782.289,-0.7049999999999983,100.0,22.873,23.317,28.747,29.05,0.0,0.0,100.0,0.0,0.0,0.0,0.0,3092.857142857143,3063.6,4190.0,4095.0,305.557,304.96066666666667,314.77433333333335,314.652,21.813555555555556,20.6301,22.0209,21.379,314.999998,314.999998,324.999988,324.999988,99.55532857142857,99.50903333333333,99.57517142857142,99.54614285714285,0.09166666666666679,0.02400000000000002,-0.0756,0.15149999999999997,-0.04333333333332945,-0.045000000000001705,1.542,1.528,37.335,29.938499999999998,38.631,34.619,54.911,36.0035,62.296,51.952,52.805,35.081,60.841499999999996,50.3975,51.888999999999996,34.6135,60.819,49.920500000000004,-0.10999999999999988,0.0035000000000000586,0.10686000000000001,0.11087000000000001,0.0,210.715,210.765,207.60333333333335,207.60333333333335,0.0,0.0
13,0.0,0.0,0.0,1.0,1.0,0.0,0.0,1.0,0.0,100.0,1.0,1.1856,26.0,0.0,0.0,0.0,59.999996,0.0,26.0,26.0,26.0,26.0,0.0692222222222223,0.28059999999999996,0.050525,301.8645,-2.79875,-2.7444444444444445,-1.44995,-1.3405555555555557,-232.38,216.0625,190.734875,0.0,0.0,0.0,0.0,0.02676666666666667,-5.498166666666667,-5.498166666666667,-0.6956,-0.009000000000000001,0.021333333333333204,1.1360000000000001,67.436,0.038799999999999946,-0.39690000000000003,-0.8419999999999996,100.0,1.0,1.0,207.92333333333335,0.0,0.0,0.0,0.0,0.0,0.0,0.0,8813.1,0.0,55.0,5.0,242.74666666666667,1.0,0.0,0.0,0.0,0.0,0.0,1.0,0.0,0.6539999999999999,0.6539999999999999,0.0,0.0,1.0,55.0,616.79921,10000.0,85.000001,85.000001,85.000001,85.000001,395.0,0.0,0.0,0.0,1.0,166.665,57.053,57.053,61.203,61.203,34.0,-22.455,29.676000000000002,-25.126666666666665,31.262500000000003,0.0,1782.237,-0.879999999999999,100.0,23.3095,23.233,29.189,29.461,0.0,0.0,100.0,0.0,0.0,0.0,0.0,3024.285714285714,3176.4,4201.375,4410.1,305.5485,304.79966666666667,314.63033333333334,313.9435,21.82288888888889,20.6359,22.0321,21.3882,314.999998,314.999998,324.999988,324.999988,99.55534285714286,99.50903333333333,99.57531428571428,99.5463,0.11933333333333329,0.04699999999999993,-0.057599999999999985,0.17133333333333334,-0.03499999999999659,-0.05666666666667197,1.4929999999999999,1.4585,37.393,29.974,38.701,34.6765,54.900999999999996,36.04,62.3255,52.016999999999996,52.796,35.1145,60.869,50.46,51.879000000000005,34.6455,60.844,49.982,-0.12199999999999989,0.0129999999999999,0.10393000000000001,0.11469000000000001,0.0,211.15,211.21,207.92333333333335,207.92333333333335,0.0,0.0
14,0.0,0.0,0.0,1.0,1.0,0.0,0.0,1.0,0.0,100.0,1.0,1.1856,26.0,0.0,0.0,0.0,59.999996,0.0,26.0,26.0,26.0,26.0,0.07699999999999996,0.28,-0.0074,302.2005,-2.7949,-2.6870000000000003,-1.4265,-1.3225555555555557,-228.73,216.0375,190.712375,0.0,0.0,0.0,0.0,0.028900000000000002,-5.498166666666667,-5.498166666666667,-0.7099,-0.21666666666666667,0.05111111111111111,1.1960000000000002,67.58500000000001,0.05010000000000003,-0.421775,-1.0519999999999996,100.0,1.0,1.0,208.48666666666668,0.0,0.0,0.0,0.0,0.0,0.0,0.0,8836.9,0.0,55.0,5.0,243.28,0.0,0.0,0.0,0.0,0.0,0.0,1.0,0.0,0.7079999999999984,0.7079999999999984,0.0,0.0,0.0,55.0,616.79921,10000.0,85.000001,85.000001,85.000001,85.000001,395.0,0.0,0.0,0.0,1.0,166.665,57.129,57.129,61.63,61.63,34.0,-20.9425,30.744,-22.376666666666665,30.1175,0.0,1782.184,-1.0199999999999996,100.0,23.208,23.336,29.131,29.578,0.0,0.0,100.0,0.0,0.0,0.0,0.0,2902.5714285714284,3265.6,3915.125,4250.5,305.891,304.531,315.3066666666667,314.3295,21.832666666666668,20.642,22.0439,21.398,314.999998,314.999998,324.999988,324.999988,99.55535714285715,99.50905,99.57545714285715,99.54644285714286,0.1306666666666667,0.06174999999999997,-0.0534,0.1841666666666668,-0.02499999999999858,-0.05833333333333002,1.5485,1.5124999999999997,37.454,30.0125,38.774,34.7375,54.891999999999996,36.079499999999996,62.3545,52.0845,52.786,35.1505,60.896,50.5255,51.869,34.68,60.868,50.0465,-0.13549999999999995,0.026999999999999913,0.10908000000000001,0.112335,0.0,211.585,211.66500000000002,208.48666666666668,208.48666666666668,0.0,0.0
15,0.0,0.0,0.0,1.0,1.0,0.0,0.0,1.0,0.0,100.0,1.0,1.1856,26.0,0.0,0.0,0.0,59.999996,0.0,26.0,26.0,26.0,26.0,0.12377777777777776,0.2864,-0.050475,302.353,-2.7728,-2.646777777777778,-1.45335,-1.285111111111111,-225.69,216.01999999999998,190.693375,0.0,0.0,0.0,0.0,0.03066666666666667,-5.498166666666667,-5.498166666666667,-0.7006,0.3666666666666667,0.0755555555555556,-0.3819999999999999,67.709,0.06230000000000002,-0.40335000000000004,-1.138,100.0,1.0,1.0,208.87666666666667,0.0,0.0,0.0,0.0,0.0,0.0,0.0,8853.5,0.0,55.0,5.0,243.72666666666666,1.0,0.0,0.0,0.0,0.0,0.0,1.0,0.0,0.7530000000000001,0.7530000000000001,0.0,0.0,1.0,55.0,616.79921,10000.0,85.000001,85.000001,85.000001,85.000001,395.0,0.0,0.0,0.0,1.0,333.33500000000004,57.449,57.449,61.8745,61.8745,34.0,-20.115,29.056,-22.37,30.425,0.0,1782.137,-1.0249999999999986,100.0,23.0695,23.4585,28.778,29.628500000000003,0.0,0.0,100.0,0.0,0.0,0.0,0.0,2877.285714285714,3092.2,3946.375,4299.8,306.113,304.874,315.34433333333334,314.1685,21.840888888888887,20.647100000000002,22.0536,21.406,314.999998,314.999998,324.999988,324.999988,99.55538571428572,99.50905,99.5756,99.54658571428571,0.1373333333333333,0.0685,-0.04499999999999993,0.1915,-0.046666666666666856,-0.05833333333333002,1.5594999999999999,1.517,37.504999999999995,30.044,38.835,34.7875,54.884,36.115,62.378,52.1445,52.778999999999996,35.183,60.917500000000004,50.583,51.86,34.711,60.887,50.1035,-0.13650000000000007,0.028000000000000025,0.10929000000000001,0.10928500000000001,0.0,212.0,212.07999999999998,208.87666666666667,208.87666666666667,0.0,0.0
16,0.0,0.0,0.0,1.0,1.0,0.0,0.0,1.0,0.0,100.0,1.0,1.1856,26.0,0.0,0.0,0.0,59.999996,0.0,26.0,26.0,26.0,26.0,0.13800000000000012,0.278,-0.041125,302.3375,-2.8646,-2.659777777777778,-1.4205,-1.3475555555555556,-222.03,216.0,190.67,0.0,0.0,0.0,0.0,0.0328,-5.498166666666667,-5.498166666666667,-0.7214,-0.7513333333333334,0.05800000000000005,-1.206,67.85900000000001,0.07530000000000014,-0.41425,-1.2139999999999995,100.0,1.0,1.0,209.31333333333333,0.0,0.0,0.0,0.0,0.0,0.0,0.0,8872.0,0.0,55.0,5.0,244.26666666666665,0.0,0.0,0.0,0.0,0.0,0.0,1.0,0.0,0.8069999999999986,0.8069999999999986,0.0,0.0,0.0,55.0,616.79921,10000.0,85.000001,85.000001,85.000001,85.000001,395.0,0.0,0.0,0.0,1.0,166.665,57.343,57.343,61.554,61.554,34.0,-22.169999999999998,30.41,-21.136666666666663,30.7925,0.0,1782.084,-0.8949999999999996,100.0,22.631,23.4525,28.989,29.6585,0.0,0.0,100.0,0.0,0.0,0.0,0.0,3049.4285714285716,3197.6,3952.5,4137.1,305.813,304.62166666666667,315.291,314.497,21.85033333333333,20.6532,22.0653,21.4158,314.999998,314.999998,324.999988,324.999988,99.55538571428572,99.50906666666667,99.57574285714286,99.54674285714286,0.1363333333333332,0.07350000000000012,-0.027000000000000024,0.20633333333333326,-0.04333333333332945,-0.051666666666669414,1.5505,1.5095,37.564,30.0825,38.908,34.8485,54.872,36.153,62.406,52.207499999999996,52.766999999999996,35.2185,60.944,50.644,51.848,34.745,60.911,50.1635,-0.12650000000000006,0.02299999999999991,0.099595,0.10881500000000001,0.0,212.42000000000002,212.49,209.31333333333333,209.31333333333333,0.0,0.0
17,0.0,0.0,0.0,1.0,1.0,0.0,0.0,1.0,0.0,100.0,1.0,1.1856,26.0,0.0,0.0,0.0,59.999996,0.0,26.0,26.0,26.0,26.0,0.13688888888888884,0.2955000000000001,0.027375,301.834,-2.82105,-2.643111111111111,-1.4575,-1.315,-218.36,215.985,190.646125,0.0,0.0,0.0,0.0,0.03493333333333333,-5.498166666666667,-5.498166666666667,-0.7092,0.47200000000000003,0.03444444444444428,-0.718,68.007,0.08010000000000006,-0.39780000000000004,-1.0939999999999999,100.0,1.0,1.0,209.69,0.0,0.0,0.0,0.0,0.0,0.0,0.0,8888.0,0.0,55.0,5.0,244.79666666666668,1.0,0.0,0.0,0.0,0.0,0.0,1.0,0.0,0.8610000000000007,0.8610000000000007,0.0,0.0,1.0,55.0,616.79921,10000.0,85.000001,85.000001,85.000001,85.000001,395.0,0.0,0.0,0.0,1.0,111.11,57.037,57.037,61.1875,61.1875,34.0,-22.22,29.316,-24.456666666666663,32.2825,0.0,1782.031,-0.9649999999999999,100.0,23.1645,23.63,28.884,29.6795,0.0,0.0,100.0,0.0,0.0,0.0,0.0,3122.0,3093.5,4345.375,4347.0,305.483,304.8863333333333,314.4723333333333,314.07575,21.86011111111111,20.6594,22.076999999999998,21.4255,314.999998,314.999998,324.999988,324.999988,99.55541428571429,99.50908333333334,99.57588571428572,99.54688571428571,0.1433333333333333,0.07600000000000007,-0.030399999999999983,0.20816666666666683,-0.054999999999999716,-0.03999999999999915,1.518,1.4865,37.626000000000005,30.121499999999997,38.980999999999995,34.909,54.864999999999995,36.195499999999996,62.4335,52.2745,52.76,35.257999999999996,60.9695,50.709,51.84,34.7825,60.9335,50.2275,-0.12949999999999995,0.026499999999999968,0.11048500000000001,0.11318500000000001,0.0,212.925,212.99,209.69,209.69,0.0,0.0
18,0.0,0.0,0.0,1.0,1.0,0.0,0.0,1.0,0.0,100.0,1.0,1.1856,26.0,0.0,0.0,0.0,59.999996,0.0,26.0,26.0,26.0,26.0,0.12022222222222223,0.28090000000000015,-0.0155,302.002,-2.85245,-2.622111111111111,-1.47405,-1.2535555555555558,-215.3,215.975,190.626375,0.0,0.0,0.0,0.0,0.0367,-5.498166666666667,-5.498166666666667,-0.7184999999999999,-0.48033333333333333,0.06400000000000006,1.2109999999999999,68.129,0.07990000000000008,-0.41290000000000004,-1.278,100.0,1.0,1.0,210.0966666666667,0.0,0.0,0.0,0.0,0.0,0.0,0.0,8905.3,0.0,55.0,5.0,245.24,0.0,0.0,0.0,0.0,0.0,0.0,1.0,0.0,0.9059999999999988,0.9059999999999988,0.0,0.0,0.0,55.0,616.79921,10000.0,85.000001,85.000001,85.000001,85.000001,395.0,0.0,0.0,0.0,1.0,166.665,57.083,57.083,61.2945,61.2945,34.0,-20.3125,32.66,-21.37,31.310000000000002,0.0,1781.985,-1.2300000000000004,100.0,22.9985,23.343,29.195999999999998,29.8315,0.0,0.0,100.0,0.0,0.0,0.0,0.0,2964.857142857143,3360.7,4007.125,4306.2,305.8115,304.31466666666665,315.15166666666664,314.2365,21.868111111111112,20.6646,22.0868,21.4337,314.999998,314.999998,324.999988,324.999988,99.55542857142858,99.50908333333334,99.57601428571428,99.54701428571428,0.16833333333333322,0.09875000000000012,-0.010000000000000009,0.21583333333333332,-0.045000000000001705,-0.05666666666667197,1.5494999999999999,1.5015,37.676,30.1535,39.042,34.960499999999996,54.857,36.2305,62.458,52.332,52.753,35.29,60.9925,50.765,51.831,34.813,60.954,50.2825,-0.14900000000000002,0.04149999999999987,0.09977000000000001,0.10902500000000001,0.0,213.265,213.345,210.0966666666667,210.0966666666667,0.0,0.0
19,0.0,0.0,0.0,1.0,1.0,0.0,0.0,1.0,0.0,100.0,1.0,1.1856,26.0,0.0,0.0,0.0,59.999996,0.0,26.0,26.0,26.0,26.0,0.14544444444444427,0.30200000000000005,0.031075000000000002,301.651,-2.82145,-2.6113333333333335,-1.4893,-1.237,-212.01999999999998,215.9675,190.60525,0.0,0.0,0.0,0.0,0.0386,-5.498166666666667,-5.498166666666667,-0.7118,0.8116666666666666,0.07322222222222208,0.835,68.259,0.08810000000000007,-0.4045,-1.6360000000000001,100.0,1.0,1.0,210.51666666666665,0.0,0.0,0.0,0.0,0.0,0.0,0.0,8923.0,0.0,55.0,5.0,245.70666666666665,1.0,0.0,0.0,0.0,0.0,0.0,1.0,0.0,0.9540000000000006,0.9540000000000006,0.0,0.0,1.0,55.0,616.79921,10000.0,85.000001,85.000001,85.000001,85.000001,395.0,0.0,0.0,0.0,1.0,166.665,56.488,56.488,61.386,61.386,34.0,-19.9625,33.844,-21.226666666666663,33.05,0.0,1781.938,-1.5,100.0,23.434,23.747500000000002,28.891,29.776,0.0,0.0,100.0,0.0,0.0,0.0,0.0,3029.5714285714284,3391.8,4082.75,4455.5,305.529,304.12266666666665,315.036,313.93725,21.87677777777778,20.6702,22.0971,21.4424,314.999998,314.999998,324.999988,324.999988,99.55544285714285,99.5091,99.57614285714286,99.54717142857143,0.18399999999999994,0.11699999999999999,0.0040000000000000036,0.22916666666666674,-0.04333333333332945,-0.07499999999999574,1.561,1.4975,37.730000000000004,30.189,39.107,35.015,54.852000000000004,36.271,62.481,52.3925,52.748000000000005,35.3275,61.0135,50.823499999999996,51.825,34.849000000000004,60.9725,50.3405,-0.16399999999999992,0.06349999999999989,0.102525,0.10942,0.0,213.68,213.815,210.51666666666665,210.51666666666665,0.0,0.0
20,0.0,0.0,0.0,1.0,1.0,0.0,0.0,1.0,0.0,100.0,1.0,1.1856,26.0,0.0,0.0,0.0,59.999996,0.0,26.0,26.0,26.0,26.0,0.2266666666666668,0.26270000000000016,-0.03225,302.109,-2.8804,-2.668333333333333,-1.4187,-1.3507777777777779,-208.13,215.965,190.58025,0.0,0.0,0.0,0.0,0.04086666666666667,-5.498166666666667,-5.498166666666667,-0.72,-1.2523333333333333,0.07722222222222208,-0.843,68.414,0.1048,-0.41960000000000003,-2.01,100.0,1.0,1.0,210.90333333333334,0.0,0.0,0.0,0.0,0.0,0.0,0.0,8939.4,0.0,55.0,5.0,246.26666666666665,0.0,0.0,0.0,0.0,0.0,0.0,0.0,0.0,1.0109999999999992,1.0109999999999992,0.0,0.0,0.0,55.0,616.79921,10000.0,85.000001,85.000001,85.000001,85.000001,395.0,0.0,0.0,0.0,1.0,111.11,57.587,57.587,61.019999999999996,61.019999999999996,34.0,-18.255,32.556,-19.443333333333335,33.97,0.0,1781.881,-1.8099999999999987,100.0,22.5785,23.59,29.214,30.2685,0.0,0.0,100.0,0.0,0.0,0.0,0.0,2901.5714285714284,3147.5,4027.875,4262.1,306.2235,304.725,315.09233333333333,314.146,21.886666666666667,20.6768,22.1096,21.453,314.999998,314.999998,324.999988,324.999988,99.55547142857142,99.50911666666667,99.57631428571429,99.54732857142857,0.20666666666666678,0.13850000000000007,0.016799999999999926,0.2370000000000001,-0.04999999999999716,-0.03499999999999659,1.5165,1.4434999999999998,37.792,30.23,39.185,35.081,54.842,36.318,62.513,52.467,52.739000000000004,35.371,61.044,50.8955,51.815,34.8905,60.9995,50.411500000000004,-0.1935,0.08949999999999991,0.10551500000000001,0.10455,0.0,214.095,214.24,210.90333333333334,210.90333333333334,0.0,0.0
21,0.0,0.0,0.0,1.0,1.0,0.0,0.0,1.0,0.0,100.0,1.0,1.1856,26.0,0.0,0.0,0.0,59.999996,0.0,26.0,26.0,26.0,26.0,0.19211111111111112,0.27390000000000003,-0.0577,302.368,-2.8504,-2.7142222222222223,-1.49225,-1.3035555555555556,-205.05,215.9675,190.55975,0.0,0.0,0.0,0.0,0.04266666666666667,-5.498166666666667,-5.498166666666667,-0.7415,0.4396666666666667,0.07166666666666677,0.3540000000000001,68.531,0.125,-0.419775,-2.3219999999999996,100.0,1.0,1.0,211.49,0.0,0.0,0.0,0.0,0.0,0.0,0.0,8964.3,0.0,55.0,5.0,246.68666666666667,1.0,0.0,0.0,0.0,0.0,0.0,0.0,0.0,1.056000000000001,1.056000000000001,0.0,0.0,1.0,55.0,616.79921,10000.0,85.000001,85.000001,85.000001,85.000001,395.0,0.0,0.0,0.0,1.0,166.665,57.098,57.098,62.1795,62.1795,34.0,-19.0,34.09,-18.143333333333334,33.2425,0.0,1781.834,-1.245000000000001,100.0,23.0905,23.661,28.570999999999998,29.743000000000002,0.0,0.0,100.0,0.0,0.0,0.0,0.0,2898.857142857143,3290.6,3839.5,4145.6,305.987,304.39733333333334,315.64366666666666,314.637,21.894666666666666,20.6821,22.119,21.461,314.999998,314.999998,324.999988,324.999988,99.5555,99.50913333333334,99.57642857142856,99.54747142857143,0.18799999999999994,0.1280000000000001,0.03159999999999985,0.27283333333333326,-0.04999999999999716,-0.07166666666666544,1.6365,1.5425,37.842,30.2635,39.244,35.1315,54.838,36.3585,62.5315,52.5215,52.733999999999995,35.408500000000004,61.0605,50.948499999999996,51.81,34.926,61.0135,50.464,-0.15700000000000003,0.05699999999999994,0.11386,0.10526500000000001,0.0,214.48000000000002,214.66500000000002,211.49,211.49,0.0,0.0
22,0.0,0.0,0.0,1.0,1.0,0.0,0.0,1.0,0.0,100.0,1.0,1.1856,26.0,0.0,0.0,0.0,59.999996,0.0,26.0,26.0,26.0,26.0,0.18100000000000005,0.27760000000000007,0.020275,301.8035,-2.782,-2.7183333333333333,-1.4797500000000001,-1.3003333333333333,-201.75,215.975,190.53725,0.0,0.0,0.0,0.0,0.04456666666666667,-5.498166666666667,-5.498166666666667,-0.7182999999999999,0.27466666666666667,0.07222222222222219,0.8980000000000001,68.663,0.13840000000000008,-0.39835000000000004,-1.3319999999999999,100.0,1.0,1.0,211.67000000000002,0.0,0.0,0.0,0.0,0.0,0.0,0.0,8971.8,0.0,55.0,5.0,247.16333333333336,0.0,0.0,0.0,0.0,0.0,0.0,0.0,0.0,1.1039999999999992,1.1039999999999992,0.0,0.0,0.0,55.0,616.79921,10000.0,85.000001,85.000001,85.000001,85.000001,395.0,0.0,0.0,0.0,1.0,166.665,57.114,57.114,60.974000000000004,60.974000000000004,34.0,-20.195,30.637999999999998,-19.759999999999998,36.6275,0.0,1781.789,0.015000000000000568,100.0,23.2145,23.741,29.041,30.002000000000002,0.0,0.0,100.0,0.0,0.0,0.0,0.0,2802.4285714285716,3246.6,4114.75,4479.1,306.148,304.4823333333333,314.908,313.85475,21.903222222222222,20.6878,22.1294,21.4698,314.999998,314.999998,324.999988,324.999988,99.55551428571428,99.50913333333334,99.57657142857143,99.54761428571429,0.1280000000000001,0.052750000000000075,0.03640000000000021,0.26849999999999996,-0.03999999999999915,-0.051666666666669414,1.513,1.4565000000000001,37.894999999999996,30.299,39.309,35.1865,54.83,36.3975,62.558,52.5845,52.727000000000004,35.444,61.085499999999996,51.009,51.801,34.960499999999996,61.0355,50.524,-0.05449999999999999,-0.05449999999999999,0.107355,0.11209000000000001,0.0,214.925,215.035,211.67000000000002,211.67000000000002,0.0,0.0
23,0.0,0.0,0.0,1.0,1.0,0.0,0.0,1.0,0.0,100.0,1.0,1.1856,26.0,0.0,0.0,0.0,59.999996,0.0,26.0,26.0,26.0,26.0,0.09711111111111115,0.25229999999999997,-0.054275000000000004,301.941,-2.7943,-2.6883333333333335,-1.50665,-1.2994444444444444,-197.82999999999998,215.9875,190.511125,0.0,0.0,0.0,0.0,0.04686666666666667,-5.498166666666667,-5.498166666666667,-0.7375,-0.09333333333333332,0.0407777777777778,-1.111,68.813,0.09870000000000001,-0.425925,0.30600000000000005,100.0,1.0,1.0,212.26666666666665,0.0,0.0,0.0,0.0,0.0,0.0,0.0,8997.2,0.0,55.0,5.0,247.70333333333335,1.0,0.0,0.0,0.0,0.0,0.0,0.0,0.0,1.1610000000000014,1.1610000000000014,0.0,0.0,1.0,55.0,616.79921,10000.0,85.000001,85.000001,85.000001,85.000001,395.0,0.0,0.0,0.0,1.0,111.11,56.656,56.656,62.042,62.042,34.0,-26.46,26.497999999999998,-23.583333333333336,28.84,0.0,1781.731,0.8000000000000007,100.0,23.3945,23.737000000000002,29.113,30.067999999999998,0.0,0.0,100.0,0.0,0.0,0.0,0.0,3214.0,3124.8,4007.0,4053.0,305.16,304.7633333333333,315.308,314.83525,21.913444444444444,20.6945,22.1417,21.4803,314.999998,314.999998,324.999988,324.999988,99.55551428571428,99.50915,99.57672857142857,99.54778571428571,0.06166666666666676,-0.013749999999999929,-0.046599999999999975,0.20016666666666683,-0.051666666666669414,-0.05666666666667197,1.5405,1.5394999999999999,37.959,30.3405,39.385999999999996,35.251999999999995,54.817,36.4385,62.587,52.6575,52.715,35.482,61.1125,51.079499999999996,51.788,34.9965,61.0595,50.5935,0.00749999999999984,-0.11799999999999988,0.11124,0.111405,0.0,215.435,215.435,212.26666666666665,212.26666666666665,0.0,0.0
24,0.0,0.0,0.0,1.0,1.0,0.0,0.0,1.0,0.0,100.0,1.0,1.1856,26.0,0.0,0.0,0.0,59.999996,0.0,26.0,26.0,26.0,26.0,0.02022222222222214,0.27059999999999995,-0.035050000000000005,302.231,-2.7981,-2.7216666666666667,-1.40585,-1.347888888888889,-194.94,215.9975,190.4915,0.0,0.0,0.0,0.0,0.04853333333333333,-5.498166666666667,-5.498166666666667,-0.7409,-0.434,0.02677777777777779,-0.762,68.926,0.048699999999999966,-0.4142,0.9920000000000009,100.0,1.0,1.0,212.5,0.0,0.0,0.0,0.0,0.0,0.0,0.0,9007.1,0.0,55.0,5.0,248.11,0.0,0.0,0.0,0.0,0.0,0.0,0.0,0.0,1.2029999999999994,1.2029999999999994,0.0,0.0,0.0,55.0,616.79921,10000.0,85.000001,85.000001,85.000001,85.000001,395.0,0.0,0.0,0.0,1.0,333.33500000000004,57.846000000000004,57.846000000000004,61.1115,61.1115,34.0,-25.41,23.256,-27.566666666666666,26.965,0.0,1781.687,0.9450000000000003,100.0,23.068,23.3185,29.320999999999998,29.802,0.0,0.0,100.0,0.0,0.0,0.0,0.0,2950.4285714285716,2898.4,4309.125,4107.7,305.9775,305.5203333333333,314.4653333333333,314.66325,21.92088888888889,20.6992,22.1508,21.4879,314.999998,314.999998,324.999988,324.999988,99.55552857142857,99.50915,99.57685714285714,99.5479,0.02400000000000002,-0.04625000000000001,-0.09820000000000007,0.1373333333333333,-0.05333333333332746,-0.01666666666666572,1.4725,1.5070000000000001,38.006,30.369999999999997,39.443,35.299,54.806,36.466499999999996,62.6095,52.7085,52.704,35.5075,61.134,51.129,51.775999999999996,35.021,61.0785,50.641999999999996,0.026499999999999968,-0.1259999999999999,0.11122000000000001,0.10759500000000001,0.0,215.825,215.72500000000002,212.5,212.5,0.0,0.0
25,0.0,0.0,0.0,1.0,1.0,0.0,0.0,1.0,0.0,100.0,1.0,1.1856,26.0,0.0,0.0,0.0,59.999996,0.0,26.0,26.0,26.0,26.0,-0.055333333333333345,0.2622,-0.051500000000000004,302.17,-2.831,-2.7145555555555556,-1.38895,-1.3822222222222222,-191.22,216.0125,190.464625,0.0,0.0,0.0,0.0,0.0507,-5.498166666666667,-5.498166666666667,-0.7741,0.07100000000000001,-0.0037777777777776578,-1.845,69.066,-0.015199999999999991,-0.41935,1.4720000000000004,100.0,1.0,1.0,213.09,0.0,0.0,0.0,0.0,0.0,0.0,0.0,9032.1,0.0,55.0,5.0,248.61333333333334,1.0,0.0,0.0,0.0,0.0,0.0,0.0,0.0,1.256999999999998,1.256999999999998,0.0,0.0,1.0,55.0,616.79921,10000.0,85.000001,85.000001,85.000001,85.000001,395.0,0.0,0.0,0.0,1.0,166.665,56.778,56.778,62.0115,62.0115,34.0,-31.5925,23.875999999999998,-27.88,22.65,0.0,1781.634,1.0350000000000001,100.0,23.2565,23.397,29.186,29.2485,0.0,0.0,100.0,0.0,0.0,0.0,0.0,3324.4285714285716,3151.1,4019.875,3926.7,304.975,304.7486666666667,315.218,315.11075,21.930555555555557,20.7053,22.162399999999998,21.4975,314.999998,314.999998,324.999988,324.999988,99.55552857142857,99.50916666666667,99.577,99.54805714285715,-0.026666666666666616,-0.08524999999999994,-0.1592,0.07533333333333325,-0.04999999999999716,-0.046666666666666856,1.5325,1.588,38.066,30.408,39.515,35.359,54.789,36.504999999999995,62.6365,52.7695,52.688,35.543,61.159,51.1885,51.76,35.055,61.1005,50.7005,0.028999999999999915,-0.12849999999999984,0.10748500000000001,0.11146500000000001,0.0,216.265,216.16,213.09,213.09,0.0,0.0
26,0.0,0.0,0.0,1.0,1.0,0.0,0.0,1.0,0.0,100.0,1.0,1.1856,26.0,0.0,0.0,0.0,59.999996,0.0,26.0,26.0,26.0,26.0,-0.1416666666666666,0.27180000000000004,0.1009,300.995,-2.74205,-2.834,-1.4087,-1.4055555555555557,-187.69,216.025,190.43875,0.0,0.0,0.0,0.0,0.05273333333333334,-5.498166666666667,-5.498166666666667,-0.7285999999999999,0.7946666666666666,-0.05033333333333356,0.40200000000000014,69.20400000000001,-0.06269999999999998,-0.3875,1.5679999999999996,100.0,1.0,1.0,213.21,0.0,0.0,0.0,0.0,0.0,0.0,0.0,9037.2,0.0,55.0,5.0,249.11,0.0,0.0,0.0,0.0,0.0,0.0,0.0,0.0,1.3079999999999998,1.3079999999999998,0.0,0.0,0.0,55.0,616.79921,10000.0,85.000001,85.000001,85.000001,85.000001,395.0,0.0,0.0,0.0,1.0,166.665,56.534,56.534,60.028,60.028,34.0,-30.45,22.845999999999997,-36.8,25.0975,0.0,1781.583,0.8449999999999989,100.0,24.2285,23.4595,30.185000000000002,29.391,0.0,0.0,100.0,0.0,0.0,0.0,0.0,3221.4285714285716,3034.3,4676.375,4498.0,304.9515,305.1836666666667,313.61033333333336,313.85425,21.94011111111111,20.711199999999998,22.1736,21.5067,314.999998,314.999998,324.999988,324.999988,99.55554285714285,99.50918333333334,99.57715714285715,99.54821428571428,-0.03366666666666662,-0.10899999999999999,-0.1973999999999999,0.03666666666666685,-0.04833333333333201,-0.05666666666667197,1.404,1.4659999999999997,38.125,30.445,39.585,35.417,54.78,36.545,62.669,52.8305,52.68,35.58,61.19,51.247,51.751000000000005,35.09,61.1285,50.757999999999996,0.01200000000000001,-0.121,0.113125,0.10762000000000001,0.0,216.74,216.62,213.21,213.21,0.0,0.0
27,0.0,0.0,0.0,1.0,1.0,0.0,0.0,1.0,0.0,100.0,1.0,1.1856,26.0,0.0,0.0,0.0,59.999996,0.0,26.0,26.0,26.0,26.0,-0.12055555555555553,0.2471000000000001,-0.0035,301.5595,-2.7039999999999997,-2.81,-1.3872,-1.485111111111111,-184.57,216.0325,190.41725,0.0,0.0,0.0,0.0,0.054566666666666666,-5.498166666666667,-5.498166666666667,-0.7548,-1.2166666666666668,-0.06211111111111123,-0.756,69.321,-0.08589999999999998,-0.43825000000000003,1.548,100.0,1.0,1.0,213.65666666666667,0.0,0.0,0.0,0.0,0.0,0.0,0.0,9056.1,0.0,55.0,5.0,249.53333333333336,1.0,0.0,0.0,0.0,0.0,0.0,0.0,0.0,1.352999999999998,1.352999999999998,0.0,0.0,1.0,55.0,616.79921,10000.0,85.000001,85.000001,85.000001,85.000001,395.0,0.0,0.0,0.0,1.0,333.33500000000004,56.961,56.961,60.7145,60.7145,34.0,-31.7725,21.025999999999996,-34.06333333333333,21.8375,0.0,1781.538,0.7899999999999991,100.0,23.7525,23.255,30.628,29.808,0.0,0.0,100.0,0.0,0.0,0.0,0.0,3278.857142857143,2938.7,4300.625,4017.6000000000004,304.962,305.391,314.474,314.76475,21.94822222222222,20.7161,22.1836,21.515,314.999998,314.999998,324.999988,324.999988,99.55554285714285,99.5092,99.5773,99.54834285714286,-0.06466666666666665,-0.13124999999999998,-0.21960000000000002,0.011666666666666714,-0.036666666666668846,-0.054999999999999716,1.4324999999999999,1.5055,38.176,30.476,39.647999999999996,35.4685,54.771,36.578,62.6995,52.8845,52.671,35.6105,61.2185,51.299,51.741,35.119,61.155,50.809,0.0129999999999999,-0.11399999999999988,0.1053,0.111435,0.0,217.03,216.91500000000002,213.65666666666667,213.65666666666667,0.0,0.0
28,0.0,0.0,0.0,1.0,1.0,0.0,0.0,1.0,0.0,100.0,1.0,1.1856,26.0,0.0,0.0,0.0,59.999996,0.0,26.0,26.0,26.0,26.0,-0.14788888888888885,0.26,-0.06482500000000001,302.002,-2.7297,-2.797111111111111,-1.33205,-1.4444444444444444,-180.82999999999998,216.04000000000002,190.3905,0.0,0.0,0.0,0.0,0.05673333333333334,-5.498166666666667,-5.498166666666667,-0.764,0.6773333333333333,-0.0682222222222224,-0.6199999999999999,69.459,-0.10459999999999992,-0.413175,1.5300000000000002,100.0,1.0,1.0,214.24333333333334,0.0,0.0,0.0,0.0,0.0,0.0,0.0,9081.0,0.0,55.0,5.0,250.02666666666664,0.0,0.0,0.0,0.0,0.0,0.0,0.0,0.0,1.407,1.407,0.0,0.0,0.0,55.0,616.79921,10000.0,85.000001,85.000001,85.000001,85.000001,395.0,0.0,0.0,0.0,1.0,166.665,57.022,57.022,61.7675,61.7675,34.0,-32.3775,19.968,-33.15,19.7175,0.0,1781.485,0.504999999999999,100.0,23.860500000000002,23.1895,29.842,29.0985,0.0,0.0,100.0,0.0,0.0,0.0,0.0,3293.857142857143,2865.2,4222.5,3972.0,304.877,305.58033333333333,314.782,315.027,21.958111111111112,20.7221,22.1952,21.5245,314.999998,314.999998,324.999988,324.999988,99.55555714285714,99.50921666666666,99.57745714285714,99.54848571428572,-0.06766666666666665,-0.14100000000000001,-0.2417999999999999,-0.006333333333333302,-0.054999999999999716,-0.03499999999999659,1.509,1.5669999999999997,38.238,30.5135,39.72,35.528,54.762,36.619,62.728,52.942499999999995,52.662,35.647999999999996,61.2455,51.355000000000004,51.732,35.1545,61.179,50.8635,-0.00649999999999995,-0.10150000000000015,0.106965,0.10792,0.0,217.505,217.375,214.24333333333334,214.24333333333334,0.0,0.0
29,0.0,0.0,0.0,1.0,1.0,0.0,0.0,1.0,0.0,100.0,1.0,1.1856,26.0,0.0,0.0,0.0,59.999996,0.0,26.0,26.0,26.0,26.0,-0.15522222222222215,0.25860000000000016,0.019875,301.529,-2.6658,-2.8728888888888893,-1.36685,-1.4226666666666667,-177.28,216.04000000000002,190.363875,0.0,0.0,0.0,0.0,0.058800000000000005,-5.498166666666667,-5.498166666666667,-0.7699,-0.679,-0.06366666666666676,0.742,69.594,-0.10339999999999994,-0.41355000000000003,1.0760000000000005,100.0,1.0,1.0,214.47333333333333,0.0,0.0,0.0,0.0,0.0,0.0,0.0,9090.8,0.0,55.0,5.0,250.51333333333332,1.0,0.0,0.0,0.0,0.0,0.0,0.0,0.0,1.4579999999999984,1.4579999999999984,0.0,0.0,1.0,55.0,616.79921,10000.0,85.000001,85.000001,85.000001,85.000001,395.0,0.0,0.0,0.0,1.0,166.665,56.808,56.808,60.8825,60.8825,34.0,-31.015,22.582,-33.70666666666666,21.9575,0.0,1781.433,0.4250000000000007,100.0,23.835,23.023,30.367,29.2695,0.0,0.0,100.0,0.0,0.0,0.0,0.0,3261.857142857143,3042.6,4278.125,4196.8,304.869,305.14733333333334,314.444,314.50375,21.967222222222222,20.7277,22.2064,21.5337,314.999998,314.999998,324.999988,324.999988,99.55557142857143,99.50921666666666,99.5776,99.54864285714285,-0.05399999999999994,-0.12649999999999995,-0.21999999999999997,0.011166666666666547,-0.046666666666666856,-0.036666666666668846,1.438,1.4889999999999999,38.295,30.548000000000002,39.79,35.585499999999996,54.751000000000005,36.656,62.7615,53.002,52.652,35.682,61.2775,51.4125,51.721000000000004,35.187,61.208,50.92,-0.02200000000000002,-0.09100000000000019,0.10905000000000001,0.11283000000000001,0.0,217.885,217.76999999999998,214.47333333333333,214.47333333333333,0.0,0.0
30,0.0,0.0,0.0,1.0,1.0,0.0,0.0,1.0,0.0,100.0,1.0,1.1856,26.0,0.0,0.0,0.0,59.999996,0.0,26.0,26.0,26.0,26.0,-0.14833333333333332,0.27080000000000015,0.061200000000000004,300.995,-2.72505,-2.7407777777777778,-1.30985,-1.5023333333333333,-174.14999999999998,216.0375,190.340375,0.0,0.0,0.0,0.0,0.06063333333333334,-5.498166666666667,-5.498166666666667,-0.7663,0.7756666666666666,-0.06833333333333336,-0.7110000000000001,69.708,-0.09529999999999994,-0.41825,1.08,100.0,1.0,1.0,214.85333333333335,0.0,0.0,0.0,0.0,0.0,0.0,0.0,9106.8,0.0,55.0,5.0,250.92666666666668,0.0,0.0,0.0,0.0,0.0,0.0,1.0,0.0,1.5030000000000001,1.5030000000000001,0.0,0.0,0.0,55.0,616.79921,10000.0,85.000001,85.000001,85.000001,85.000001,395.0,0.0,0.0,0.0,1.0,166.665,55.954,55.954,60.9895,60.9895,34.0,-34.105,21.172,-34.66666666666667,23.052500000000002,0.0,1781.388,0.28000000000000114,100.0,24.4255,23.7435,30.154,29.4605,0.0,0.0,100.0,0.0,0.0,0.0,0.0,3537.285714285714,2980.7,4447.375,4155.4,304.189,305.18333333333334,314.19166666666666,314.43725,21.975666666666665,20.7329,22.2162,21.5418,314.999998,314.999998,324.999988,324.999988,99.55557142857143,99.50923333333333,99.57774285714285,99.54875714285714,-0.04633333333333334,-0.12349999999999994,-0.22699999999999998,0.011333333333333417,-0.061666666666667425,-0.03499999999999659,1.427,1.487,38.348,30.5805,39.851,35.6365,54.745000000000005,36.692,62.788,53.0535,52.647,35.7155,61.3025,51.4615,51.715,35.219,61.231,50.968,-0.034499999999999975,-0.08000000000000007,0.10544,0.112295,0.0,218.285,218.185,214.85333333333335,214.85333333333335,0.0,0.0
31,0.0,0.0,0.0,1.0,1.0,0.0,0.0,1.0,0.0,100.0,1.0,1.1856,26.0,0.0,0.0,0.0,59.999996,0.0,26.0,26.0,26.0,26.0,-0.11755555555555552,0.26470000000000016,-0.0044,301.178,-2.79515,-2.8200000000000003,-1.39905,-1.4701111111111111,-170.59,216.0325,190.314875,0.0,0.0,0.0,0.0,0.0627,-5.498166666666667,-5.498166666666667,-0.7479,-0.5806666666666667,-0.05255555555555569,0.6320000000000001,69.84100000000001,-0.08129999999999993,-0.41805000000000003,0.5839999999999996,100.0,1.0,1.0,215.16333333333333,0.0,0.0,0.0,0.0,0.0,0.0,0.0,9120.0,0.0,55.0,5.0,251.40333333333334,1.0,0.0,0.0,0.0,0.0,0.0,1.0,0.0,1.5539999999999985,1.5539999999999985,0.0,0.0,1.0,55.0,616.79921,10000.0,85.000001,85.000001,85.000001,85.000001,395.0,0.0,0.0,0.0,1.0,166.665,56.992,56.992,59.7535,59.7535,34.0,-28.8975,23.415999999999997,-34.35333333333333,26.085,0.0,1781.337,0.13500000000000156,100.0,23.9895,23.448,30.826999999999998,29.820999999999998,0.0,0.0,100.0,0.0,0.0,0.0,0.0,3104.142857142857,3040.5,4464.0,4334.5,305.478,305.20666666666665,314.0466666666667,314.2135,21.98488888888889,20.7387,22.2276,21.5512,314.999998,314.999998,324.999988,324.999988,99.55557142857143,99.50925,99.5779,99.54891428571429,-0.021333333333333315,-0.09299999999999997,-0.19199999999999995,0.053166666666666806,-0.02499999999999858,-0.03833333333332689,1.435,1.4409999999999998,38.405,30.616999999999997,39.922,35.695,54.733999999999995,36.731,62.8225,53.1145,52.635999999999996,35.7515,61.335,51.5205,51.703,35.253,61.2605,51.025999999999996,-0.04299999999999993,-0.06000000000000005,0.11022000000000001,0.11565500000000001,0.0,218.625,218.57,215.16333333333333,215.16333333333333,0.0,0.0
32,0.0,0.0,0.0,1.0,1.0,0.0,0.0,1.0,0.0,100.0,1.0,1.1856,26.0,0.0,0.0,0.0,59.999996,0.0,26.0,26.0,26.0,26.0,-0.13022222222222213,0.26290000000000013,-0.052950000000000004,301.59,-2.7368,-2.7744444444444447,-1.4136,-1.3860000000000001,-166.81,216.0225,190.28775,0.0,0.0,0.0,0.0,0.0649,-5.498166666666667,-5.498166666666667,-0.7697,0.108,-0.08466666666666667,0.30600000000000005,69.976,-0.06499999999999995,-0.425175,0.5379999999999994,100.0,1.0,1.0,215.74333333333334,0.0,0.0,0.0,0.0,0.0,0.0,0.0,9144.5,0.0,55.0,5.0,251.89,0.0,0.0,0.0,0.0,0.0,0.0,1.0,0.0,1.6080000000000005,1.6080000000000005,0.0,0.0,0.0,55.0,616.79921,10000.0,85.000001,85.000001,85.000001,85.000001,395.0,0.0,0.0,0.0,1.0,166.665,56.763,56.763,61.141999999999996,61.141999999999996,34.0,-29.6875,23.406,-31.57333333333333,23.5,0.0,1781.284,0.10500000000000043,100.0,23.9775,23.314,30.213,29.4515,0.0,0.0,100.0,0.0,0.0,0.0,0.0,3282.714285714286,3053.1,4284.0,4152.5,304.875,305.2126666666667,314.59933333333333,314.7355,21.994555555555557,20.7449,22.2393,21.561,314.999998,314.999998,324.999988,324.999988,99.55558571428571,99.50926666666666,99.57805714285715,99.54907142857142,-0.0043333333333333,-0.08499999999999996,-0.1774,0.0601666666666667,-0.03833333333332689,-0.05666666666667197,1.515,1.5415,38.466,30.6555,39.995000000000005,35.756,54.721000000000004,36.771,62.8525,53.1745,52.623999999999995,35.788,61.363,51.5785,51.69,35.2875,61.2855,51.082499999999996,-0.05049999999999999,-0.06550000000000011,0.109905,0.10930500000000001,0.0,219.055,219.01,215.74333333333334,215.74333333333334,0.0,0.0
33,0.0,0.0,0.0,1.0,1.0,0.0,0.0,1.0,0.0,100.0,1.0,1.1856,26.0,0.0,0.0,0.0,59.999996,0.0,26.0,26.0,26.0,26.0,-0.07911111111111102,0.27,-0.036575,301.697,-2.7444,-2.813888888888889,-1.3836,-1.3915555555555557,-163.66,216.0125,190.264125,0.0,0.0,0.0,0.0,0.06673333333333334,-5.498166666666667,-5.498166666666667,-0.7728999999999999,-0.34700000000000003,-0.07122222222222208,0.06499999999999995,70.092,-0.05469999999999997,-0.411175,0.4660000000000002,100.0,1.0,1.0,215.99333333333334,0.0,0.0,0.0,0.0,0.0,0.0,0.0,9155.2,0.0,55.0,5.0,252.31,1.0,0.0,0.0,0.0,0.0,0.0,1.0,0.0,1.6529999999999987,1.6529999999999987,0.0,0.0,1.0,55.0,616.79921,10000.0,85.000001,85.000001,85.000001,85.000001,395.0,0.0,0.0,0.0,1.0,166.665,57.281,57.281,60.852,60.852,34.0,-28.615000000000002,23.189999999999998,-32.739999999999995,23.71,0.0,1781.239,-0.030000000000001137,100.0,23.619,23.223,30.061,29.537,0.0,0.0,100.0,0.0,0.0,0.0,0.0,3203.714285714286,2905.4,4405.125,4223.6,305.2965,305.4816666666667,314.32033333333334,314.41225,22.002666666666666,20.7498,22.2491,21.5691,314.999998,314.999998,324.999988,324.999988,99.55558571428571,99.50928333333333,99.57818571428571,99.5492,-0.0033333333333332993,-0.07099999999999995,-0.18299999999999994,0.04683333333333328,-0.05333333333332746,-0.04833333333333201,1.4669999999999999,1.488,38.516,30.686500000000002,40.057,35.807,54.709,36.801,62.8785,53.226,52.613,35.8155,61.388,51.628,51.679,35.314,61.308,51.131,-0.05400000000000005,-0.04700000000000015,0.11206,0.10263000000000001,0.0,219.4,219.36,215.99333333333334,215.99333333333334,0.0,0.0
34,0.0,0.0,0.0,1.0,1.0,0.0,0.0,1.0,0.0,100.0,1.0,1.1856,26.0,0.0,0.0,0.0,59.999996,0.0,26.0,26.0,26.0,26.0,-0.08399999999999996,0.2471000000000001,-0.038725,302.017,-2.75595,-2.767555555555556,-1.42145,-1.4117777777777778,-160.07999999999998,216.0,190.23625,0.0,0.0,0.0,0.0,0.0688,-5.498166666666667,-5.498166666666667,-0.8085,-0.875,-0.034777777777777796,1.145,70.22,-0.04049999999999998,-0.42585,0.2939999999999996,100.0,1.0,1.0,216.45,0.0,0.0,0.0,0.0,0.0,0.0,0.0,9174.5,0.0,55.0,5.0,252.76999999999998,0.0,0.0,0.0,0.0,0.0,0.0,1.0,0.0,1.7040000000000006,1.7040000000000006,0.0,0.0,0.0,55.0,616.79921,10000.0,85.000001,85.000001,85.000001,85.000001,395.0,0.0,0.0,0.0,1.0,166.665,57.358,57.358,61.8285,61.8285,34.0,-27.08,24.369999999999997,-28.796666666666667,25.27,0.0,1781.188,-0.030000000000001137,100.0,23.5945,22.9185,29.862000000000002,29.514,0.0,0.0,100.0,0.0,0.0,0.0,0.0,3062.5714285714284,3037.4,4068.125,4174.2,305.3545,305.322,315.0606666666667,314.55775,22.011666666666667,20.7555,22.259999999999998,21.5784,314.999998,314.999998,324.999988,324.999988,99.55558571428571,99.50928333333333,99.57834285714286,99.54934285714286,0.013666666666666716,-0.054749999999999965,-0.15639999999999998,0.07916666666666683,-0.030000000000001137,-0.046666666666666856,1.5135,1.52,38.573,30.722,40.125,35.865,54.695,36.8345,62.905,53.285,52.599000000000004,35.8465,61.413,51.6855,51.664,35.3435,61.33,51.1875,-0.052000000000000046,-0.04800000000000004,0.10630500000000001,0.11142,0.0,219.76,219.75,216.45,216.45,0.0,0.0
35,0.0,0.0,0.0,1.0,1.0,0.0,0.0,1.0,0.0,100.0,1.0,1.1856,26.0,0.0,0.0,0.0,59.999996,0.0,26.0,26.0,26.0,26.0,-0.043888888888888866,0.25029999999999997,-0.070925,301.9105,-2.75565,-2.750111111111111,-1.38795,-1.424111111111111,-156.29,215.985,190.204125,0.0,0.0,0.0,0.0,0.07100000000000001,-5.498166666666667,-5.498166666666667,-0.8525,-0.20633333333333334,-0.044222222222222385,0.1379999999999999,70.355,-0.028200000000000003,-0.432875,0.13600000000000012,100.0,1.0,1.0,216.97,0.0,0.0,0.0,0.0,0.0,0.0,0.0,9196.5,0.0,55.0,5.0,253.25666666666666,1.0,0.0,0.0,0.0,0.0,0.0,1.0,0.0,1.7579999999999991,1.7579999999999991,0.0,0.0,1.0,55.0,616.79921,10000.0,85.000001,85.000001,85.000001,85.000001,395.0,0.0,0.0,0.0,1.0,166.665,56.595,56.595,61.4775,61.4775,34.0,-27.475,28.104,-26.79,24.685000000000002,0.0,1781.132,-0.03999999999999915,100.0,23.4785,23.427,29.617,29.1215,0.0,0.0,100.0,0.0,0.0,0.0,0.0,3169.714285714286,3361.3,3984.5,3956.5,305.162,304.2903333333333,315.20733333333334,315.114,22.021,20.7617,22.2715,21.5881,314.999998,314.999998,324.999988,324.999988,99.5556,99.50928333333333,99.5785,99.5495,0.02633333333333332,-0.03700000000000003,-0.13879999999999992,0.09833333333333338,-0.051666666666669414,-0.04999999999999716,1.528,1.5444999999999998,38.632,30.7605,40.197,35.9255,54.678,36.872,62.933,53.3435,52.583,35.882999999999996,61.439499999999995,51.745,51.649,35.378,61.352000000000004,51.2455,-0.05600000000000005,-0.04700000000000015,0.10759,0.11206,0.0,220.20499999999998,220.19,216.97,216.97,0.0,0.0
