,ABS Active,ABS Enabled,AID Allow Tire Blankets,AID Auto Blip,AID Auto Clutch,AID Auto Shift,AID Fuel Rate,AID Ideal Line,AID Mech Damage,AID Stability,AID Tire Wear Rate,Air Density,Air Temp,Ballast,Best Lap Delta,Best Lap Time,Brake Bias,Brake Pos,Brake Temp FL,Brake Temp FR,Brake Temp RL,Brake Temp RR,CG Accel Lateral,CG Accel Longitudinal,CG Accel Vertical,CG Height,Camber FL,Camber FR,Camber RL,Camber RR,Car Coord X,Car Coord Y,Car Coord Z,Car Damage Front,Car Damage Left,Car Damage Rear,Car Damage Right,Car Pos Norm,Caster FL,Caster FR,Chassis Pitch Angle,Chassis Pitch Rate,Chassis Roll Angle,Chassis Roll Rate,Chassis Velocity X,Chassis Velocity Y,Chassis Velocity Z,Chassis Yaw Rate,Clutch Pos,DRS Active,DRS Available,Drive Train Speed,ERS Heat Charging,ERS Is Charging,ERS Max Energy,ERS Power Level,ERS Recovery Level,Engine Brake Setting,Engine Limiter,Engine RPM,Flags,Fuel Level,Gear,Ground Speed,HR Sample Clock,In Pit,KERS Charge,KERS Deployed Energy,KERS Input,KERS Max Energy,LR Sample Clock,Lap Invalidated,Lap Time,Lap Time2,Last Lap Time,Last Sector Time,MR Sample Clock,Max Fuel,Max Power,Max RPM,Max Sus Travel FL,Max Sus Travel FR,Max Sus Travel RL,Max Sus Travel RR,Max Torque,Max Turbo Boost,Num Tires Off Track,Penalties Enabled,Position,Raw Data Sample Rate,Ride Height FL,Ride Height FR,Ride Height RL,Ride Height RR,Road Temp,Self Align Torque FL,Self Align Torque FR,Self Align Torque RL,Self Align Torque RR,Session Lap Count,Session Time Left,Steering Angle,Surface Grip,Suspension Travel FL,Suspension Travel FR,Suspension Travel RL,Suspension Travel RR,TC Active,TC Enabled,Throttle Pos,Tire Dirt Level FL,Tire Dirt Level FR,Tire Dirt Level RL,Tire Dirt Level RR,Tire Load FL,Tire Load FR,Tire Load RL,Tire Load RR,Tire Loaded Radius FL,Tire Loaded Radius FR,Tire Loaded Radius RL,Tire Loaded Radius RR,Tire Pressure FL,Tire Pressure FR,Tire Pressure RL,Tire Pressure RR,Tire Radius FL,Tire Radius FR,Tire Radius RL,Tire Radius RR,Tire Rubber Grip FL,Tire Rubber Grip FR,Tire Rubber Grip RL,Tire Rubber Grip RR,Tire Slip Angle FL,Tire Slip Angle FR,Tire Slip Angle RL,Tire Slip Angle RR,Tire Slip Ratio FL,Tire Slip Ratio FR,Tire Slip Ratio RL,Tire Slip Ratio RR,Tire Temp Core FL,Tire Temp Core FR,Tire Temp Core RL,Tire Temp Core RR,Tire Temp Inner FL,Tire Temp Inner FR,Tire Temp Inner RL,Tire Temp Inner RR,Tire Temp Middle FL,Tire Temp Middle FR,Tire Temp Middle RL,Tire Temp Middle RR,Tire Temp Outer FL,Tire Temp Outer FR,Tire Temp Outer RL,Tire Temp Outer RR,Toe In FL,Toe In FR,Toe In RL,Toe In RR,Turbo Boost,Wheel Angular Speed FL,Wheel Angular Speed FR,Wheel Angular Speed RL,Wheel Angular Speed RR,Wind Direction,Wind Speed
0,0.0,0.0,0.0,1.0,1.0,0.0,0.0,1.0,0.0,100.0,1.0,1.1856,26.0,0.0,0.0,0.0,59.99999,0.0,26.0,26.0,26.0,26.0,-0.061124999999999985,0.30900000000000016,0.030175,303.253,-2.7921,-2.52725,-1.3572,-1.358,-275.7,216.05,190.997125,0.0,0.0,0.0,0.0,0.0015666666666666051,-5.498166666666667,-5.498166666666667,-0.7121999999999999,1.4615,0.0026249999999998774,-0.347,65.576,-0.040899999999999936,-0.396525,0.8020000000000005,100.0,1.0,1.0,202.5233333333333,0.0,0.0,0.0,0.0,0.0,0.0,0.0,8584.3,0.0,55.0,5.0,236.04333333333335,0.0,0.0,0.0,0.0,0.0,0.0,0.0,0.0,0.0030000000000001137,0.0030000000000001137,0.0,0.0,0.0,55.0,616.79921,10000.0,85.0,85.0,85.0,85.0,395.0,0.0,0.0,0.0,1.0,20.0,56.87,56.87,62.958,62.958,34.0,-28.33,24.542,-26.743333333333332,21.9575,0.0,1783.208,0.6550000000000011,100.0,22.925,22.8105,27.303,27.1845,0.0,0.0,100.0,0.0,0.0,0.0,0.0,3008.285714285714,3482.4,3925.714285714286,3948.3,305.614,303.70875,315.332,315.02875,21.713444444444445,20.5672,21.9016,21.2888,314.99999,314.99999,324.99998,324.99998,99.55608571428571,99.5089,99.57404285714286,99.54515714285715,-0.03400000000000003,-0.08899999999999997,-0.16449999999999998,0.06933333333333325,-0.04333333333332945,-0.054999999999999716,1.577,1.6189999999999998,36.709,29.545,37.885,34.0555,55.304,35.665,62.1015,51.461,53.165,34.7325,60.658,49.929,52.241,34.2405,60.66,49.4655,0.0045000000000001705,-0.10050000000000026,0.10301,0.11045,0.0,205.485,205.42000000000002,202.5233333333333,202.5233333333333,0.0,0.0
1,0.0,0.0,0.0,1.0,1.0,0.0,0.0,1.0,0.0,100.0,1.0,1.1856,26.0,0.0,0.0,0.0,59.999996,0.0,26.0,26.0,26.0,26.0,-0.11762499999999998,0.31310000000000016,0.22237500000000002,302.1545,-2.71785,-2.8592500000000003,-1.3566,-1.2001111111111111,-272.35,216.07,190.976625,0.0,0.0,0.0,0.0,0.0035333333333333883,-5.498166666666667,-5.498166666666667,-0.6500999999999999,-0.6240000000000001,-0.05287500000000023,-0.925,65.733,-0.05169999999999997,-0.367925,1.2839999999999998,100.0,1.0,1.0,202.54333333333335,0.0,0.0,0.0,0.0,0.0,0.0,0.0,8585.1,0.0,55.0,5.0,236.61,1.0,0.0,0.0,0.0,0.0,0.0,0.0,0.0,0.053999999999998494,0.053999999999998494,0.0,0.0,1.0,55.0,616.79921,10000.0,85.000001,85.000001,85.000001,85.000001,395.0,0.0,0.0,0.0,1.0,333.33500000000004,58.212,58.212,61.447,61.447,34.0,-29.205,18.682000000000002,-33.11666666666666,24.6125,0.0,1783.157,0.9299999999999997,100.0,23.023,22.6735,29.243000000000002,28.668,0.0,0.0,100.0,0.0,0.0,0.0,0.0,3096.4285714285716,2585.4,4503.571428571428,4809.6,305.437,306.65925,313.866,312.829,21.723222222222223,20.5726,21.9131,21.298000000000002,314.999998,314.999998,324.999988,324.999988,99.5561,99.50893333333333,99.57418571428572,99.5453,-0.05074999999999996,-0.11724999999999997,-0.17333333333333334,0.04683333333333328,-0.03833333333332689,-0.02499999999999858,1.3785,1.4180000000000001,36.769999999999996,29.578666666666663,37.957,34.1125,55.291,35.701499999999996,62.138,51.525999999999996,53.153,34.766,60.692499999999995,49.991,52.2285,34.272999999999996,60.6915,49.527,0.028500000000000192,-0.12449999999999983,0.099595,0.11636,0.0,205.97500000000002,205.845,202.54333333333335,202.54333333333335,0.0,0.0
2,0.0,0.0,0.0,1.0,1.0,0.0,0.0,1.0,0.0,100.0,1.0,1.1856,26.0,0.0,0.0,0.0,59.999996,0.0,26.0,26.0,26.0,26.0,-0.16162500000000002,0.2793000000000001,-0.0818,303.192,-2.66685,-2.8438749999999997,-1.3301,-1.470777777777778,-268.99,216.085,190.958,0.0,0.0,0.0,0.0,0.005466666666666509,-5.498166666666667,-5.498166666666667,-0.718,-0.19300000000000006,-0.04400000000000004,2.919,65.874,-0.06909999999999994,-0.453525,1.67,100.0,1.0,1.0,203.57666666666665,0.0,0.0,0.0,0.0,0.0,0.0,0.0,8628.9,0.0,55.0,5.0,237.12333333333333,0.0,0.0,0.0,0.0,0.0,0.0,0.0,0.0,0.10500000000000043,0.10500000000000043,0.0,0.0,0.0,55.0,616.79921,10000.0,85.000001,85.000001,85.000001,85.000001,395.0,0.0,0.0,0.0,1.0,333.33500000000004,56.9,56.9,63.9345,63.9345,34.0,-32.405,21.061999999999998,-27.34,17.955,0.0,1783.106,0.9699999999999989,100.0,23.789,22.5615,28.977,27.985,0.0,0.0,100.0,0.0,0.0,0.0,0.0,3353.4285714285716,2959.2,3713.714285714286,3512.0,304.4365,305.5375,315.7395,316.2115,21.73311111111111,20.5778,21.9244,21.3068,314.999998,314.999998,324.999988,324.999988,99.5561,99.50893333333333,99.57432857142857,99.54542857142857,-0.0615,-0.13349999999999995,-0.22783333333333333,0.021166666666666556,-0.05333333333332746,-0.046666666666666856,1.6465,1.6950000000000003,36.832,29.611333333333334,38.027,34.167500000000004,55.283,35.7365,62.167500000000004,51.5815,53.146,34.798,60.72,50.0445,52.22,34.3035,60.717,49.58,0.02200000000000024,-0.12700000000000022,0.113,0.114665,0.0,206.39499999999998,206.255,203.57666666666665,203.57666666666665,0.0,0.0
3,0.0,0.0,0.0,1.0,1.0,0.0,0.0,1.0,0.0,100.0,1.0,1.1856,26.0,0.0,0.0,0.0,59.999996,0.0,26.0,26.0,26.0,26.0,-0.15449999999999997,0.31190000000000007,0.02755,303.055,-2.7193,-2.743875,-1.3401,-1.398777777777778,-265.83,216.0975,190.939625,0.0,0.0,0.0,0.0,0.007333333333333303,-5.498166666666667,-5.498166666666667,-0.6740999999999999,0.746,0.00012499999999993072,0.0050000000000000044,66.018,-0.09039999999999992,-0.389475,1.4539999999999997,100.0,1.0,1.0,203.73666666666668,0.0,0.0,0.0,0.0,0.0,0.0,0.0,8635.7,0.0,55.0,5.0,237.63666666666666,1.0,0.0,0.0,0.0,0.0,0.0,0.0,0.0,0.1529999999999987,0.1529999999999987,0.0,0.0,1.0,55.0,616.79921,10000.0,85.000001,85.000001,85.000001,85.000001,395.0,0.0,0.0,0.0,1.0,333.33500000000004,58.105,58.105,62.0575,62.0575,34.0,-27.9075,19.53,-32.32333333333334,20.9175,0.0,1783.058,0.9349999999999987,100.0,23.2365,22.584,28.644,27.884999999999998,0.0,0.0,100.0,0.0,0.0,0.0,0.0,2888.5714285714284,2873.7,4226.571428571428,4108.3,306.013,305.69625,314.55975,314.6965,21.74222222222222,20.5829,21.9348,21.3151,314.999998,314.999998,324.999988,324.999988,99.55612857142857,99.50895,99.57445714285714,99.54555714285715,-0.07524999999999993,-0.13624999999999998,-0.22016666666666662,0.015666666666666718,-0.01666666666666572,-0.08166666666667055,1.5055,1.5700000000000003,36.888999999999996,29.643333333333334,38.092,34.2195,55.272,35.772999999999996,62.194,51.6385,53.135999999999996,34.832,60.745,50.0995,52.2095,34.336,60.7395,49.634,0.020999999999999908,-0.11750000000000016,0.11224500000000001,0.10867,0.0,206.885,206.79000000000002,203.73666666666668,203.73666666666668,0.0,0.0
4,0.0,0.0,0.0,1.0,1.0,0.0,0.0,1.0,0.0,100.0,1.0,1.1856,26.0,0.0,0.0,0.0,59.999996,0.0,26.0,26.0,26.0,26.0,-0.16162500000000002,0.2834000000000001,0.023350000000000003,303.1005,-2.74065,-2.8425000000000002,-1.2681499999999999,-1.4196666666666669,-262.46,216.10500000000002,190.919875,0.0,0.0,0.0,0.0,0.009266666666666534,-5.498166666666667,-5.498166666666667,-0.6972,-1.0215,-0.07325000000000026,-1.8810000000000002,66.168,-0.09829999999999994,-0.41302500000000003,1.6220000000000008,100.0,1.0,1.0,204.18333333333334,0.0,0.0,0.0,0.0,0.0,0.0,0.0,8654.6,0.0,55.0,5.0,238.17666666666668,0.0,0.0,0.0,0.0,0.0,0.0,0.0,0.0,0.20400000000000063,0.20400000000000063,0.0,0.0,0.0,55.0,616.79921,10000.0,85.000001,85.000001,85.000001,85.000001,395.0,0.0,0.0,0.0,1.0,333.33500000000004,57.922,57.922,62.149,62.149,34.0,-32.6975,19.14,-32.739999999999995,18.205,0.0,1783.008,1.0800000000000018,100.0,22.8685,22.3935,29.049,28.091,0.0,0.0,100.0,0.0,0.0,0.0,0.0,3252.714285714286,2778.8,4312.857142857143,3695.7,305.121,305.871,314.429,315.574,21.751555555555555,20.5882,21.9462,21.3241,314.999998,314.999998,324.999988,324.999988,99.55612857142857,99.50896666666667,99.57461428571429,99.5457,-0.09399999999999997,-0.15100000000000002,-0.2373333333333334,0.0030000000000001137,-0.07333333333333059,-0.02833333333332888,1.538,1.5700000000000003,36.948,29.676000000000002,38.164,34.2755,55.26,35.8095,62.228,51.697,53.123999999999995,34.8655,60.777,50.156,52.1965,34.368,60.769,49.6895,0.03049999999999997,-0.12749999999999995,0.10615500000000001,0.10822000000000001,0.0,207.31,207.155,204.18333333333334,204.18333333333334,0.0,0.0
5,0.0,0.0,0.0,1.0,1.0,0.0,0.0,1.0,0.0,100.0,1.0,1.1856,26.0,0.0,0.0,0.0,59.999996,0.0,26.0,26.0,26.0,26.0,-0.18499999999999994,0.3084,-0.008700000000000001,303.177,-2.7481,-2.81,-1.3408,-1.448888888888889,-259.08,216.11,190.8995,0.0,0.0,0.0,0.0,0.011233333333333317,-5.498166666666667,-5.498166666666667,-0.7097,0.3225,-0.06999999999999984,1.186,66.313,-0.10980000000000001,-0.41625,1.6560000000000006,100.0,1.0,1.0,204.7266666666667,0.0,0.0,0.0,0.0,0.0,0.0,0.0,8677.6,0.0,55.0,5.0,238.70333333333332,1.0,0.0,0.0,0.0,0.0,0.0,0.0,0.0,0.254999999999999,0.254999999999999,0.0,0.0,1.0,55.0,616.79921,10000.0,85.000001,85.000001,85.000001,85.000001,395.0,0.0,0.0,0.0,1.0,333.33500000000004,57.739,57.739,63.0035,63.0035,34.0,-31.525,20.128,-31.896666666666665,19.0025,0.0,1782.956,0.754999999999999,100.0,23.3715,22.3105,28.820999999999998,27.6495,0.0,0.0,100.0,0.0,0.0,0.0,0.0,3147.714285714286,2896.3,4054.285714285714,3921.6000000000004,305.1415,305.70925,315.0135,315.166,21.761333333333333,20.5935,21.9573,21.3328,314.999998,314.999998,324.999988,324.999988,99.55614285714286,99.50898333333333,99.57475714285714,99.54584285714286,-0.08199999999999996,-0.13774999999999993,-0.24916666666666665,-0.009333333333333305,-0.03833333333332689,-0.05333333333332746,1.5514999999999999,1.6310000000000002,37.009,29.709333333333333,38.233000000000004,34.33,55.251999999999995,35.8475,62.259,51.7515,53.116,34.9005,60.806,50.2085,52.1885,34.400999999999996,60.795500000000004,49.741,0.012500000000000178,-0.10599999999999987,0.105315,0.11308000000000001,0.0,207.78,207.64499999999998,204.7266666666667,204.7266666666667,0.0,0.0
6,0.0,0.0,0.0,1.0,1.0,0.0,0.0,1.0,0.0,100.0,1.0,1.1856,26.0,0.0,0.0,0.0,59.999996,0.0,26.0,26.0,26.0,26.0,-0.19237499999999996,0.2925,-0.00032500000000000004,302.994,-2.70265,-2.85625,-1.3725,-1.4057777777777778,-255.89,216.11,190.88025,0.0,0.0,0.0,0.0,0.0131,-5.498166666666667,-5.498166666666667,-0.6952,0.256,-0.06525000000000025,0.637,66.453,-0.11609999999999998,-0.402675,1.4420000000000002,100.0,1.0,1.0,205.07999999999998,0.0,0.0,0.0,0.0,0.0,0.0,0.0,8692.5,0.0,55.0,5.0,239.20666666666668,0.0,0.0,0.0,0.0,0.0,0.0,0.0,0.0,0.3030000000000008,0.3030000000000008,0.0,0.0,0.0,55.0,616.79921,10000.0,85.000001,85.000001,85.000001,85.000001,395.0,0.0,0.0,0.0,1.0,166.665,57.755,57.755,62.454,62.454,34.0,-30.5225,20.438,-34.07333333333334,18.7525,0.0,1782.91,0.6849999999999987,100.0,23.299500000000002,22.3785,28.89,27.805,0.0,0.0,100.0,0.0,0.0,0.0,0.0,3110.285714285714,2890.6,4184.857142857143,3984.3,305.2555,305.65525,314.671,315.00675,21.770444444444443,20.5985,21.9679,21.3412,314.999998,314.999998,324.999988,324.999988,99.55614285714286,99.509,99.57488571428571,99.54597142857143,-0.07724999999999993,-0.14074999999999993,-0.253,-0.012833333333333363,-0.04833333333333201,-0.05333333333332746,1.5015,1.5889999999999995,37.065,29.741,38.299,34.3825,55.244,35.882999999999996,62.289,51.8075,53.108999999999995,34.933,60.8345,50.2625,52.18,34.4325,60.8215,49.7935,0.0030000000000001137,-0.10650000000000004,0.113735,0.10666500000000001,0.0,208.21,208.085,205.07999999999998,205.07999999999998,0.0,0.0
7,0.0,0.0,0.0,1.0,1.0,0.0,0.0,1.0,0.0,100.0,1.0,1.1856,26.0,0.0,0.0,0.0,59.999996,0.0,26.0,26.0,26.0,26.0,-0.16174999999999995,0.28070000000000017,0.037725,302.826,-2.6669,-2.855875,-1.32855,-1.4535555555555557,-252.3,216.10500000000002,190.8585,0.0,0.0,0.0,0.0,0.015199999999999991,-5.498166666666667,-5.498166666666667,-0.7034,-0.09149999999999991,-0.058374999999999844,1.225,66.608,-0.10959999999999992,-0.41902500000000004,1.17,100.0,1.0,1.0,205.55,0.0,0.0,0.0,0.0,0.0,0.0,0.0,8712.6,0.0,55.0,5.0,239.76333333333332,1.0,0.0,0.0,0.0,0.0,0.0,0.0,0.0,0.3569999999999993,0.3569999999999993,0.0,0.0,1.0,55.0,616.79921,10000.0,85.000001,85.000001,85.000001,85.000001,395.0,0.0,0.0,0.0,1.0,166.665,57.343,57.343,62.7595,62.7595,34.0,-30.369999999999997,21.932000000000002,-31.506666666666664,19.8475,0.0,1782.855,0.21999999999999886,100.0,23.479,22.4485,29.006,27.9755,0.0,0.0,100.0,0.0,0.0,0.0,0.0,3194.0,2955.2,4053.8571428571427,3952.7,304.9265,305.4325,314.9375,315.02925,21.780666666666665,20.6042,21.9798,21.3507,314.999998,314.999998,324.999988,324.999988,99.55615714285715,99.50901666666667,99.57505714285715,99.54611428571428,-0.054749999999999965,-0.11699999999999999,-0.23783333333333334,-0.003166666666666651,-0.021666666666668277,-0.0833333333333286,1.513,1.5599999999999996,37.129000000000005,29.776,38.373999999999995,34.4415,55.233999999999995,35.9215,62.323499999999996,51.8695,53.099000000000004,34.9685,60.8675,50.322,52.17,34.466,60.8515,49.8525,-0.023499999999999854,-0.07500000000000018,0.10984000000000001,0.10966000000000001,0.0,208.66,208.57999999999998,205.55,205.55,0.0,0.0
8,0.0,0.0,0.0,1.0,1.0,0.0,0.0,1.0,0.0,100.0,1.0,1.1856,26.0,0.0,0.0,0.0,59.999996,0.0,26.0,26.0,26.0,26.0,-0.11124999999999996,0.2984,0.004825,303.0245,-2.75695,-2.784125,-1.31215,-1.4422222222222223,-248.9,216.0975,190.837875,0.0,0.0,0.0,0.0,0.017166666666666552,-5.498166666666667,-5.498166666666667,-0.7064999999999999,-0.4535,-0.04437500000000005,-0.847,66.755,-0.09659999999999991,-0.41540000000000005,0.7420000000000009,100.0,1.0,1.0,205.94333333333333,0.0,0.0,0.0,0.0,0.0,0.0,0.0,8729.2,0.0,55.0,5.0,240.29333333333335,0.0,0.0,0.0,0.0,0.0,0.0,0.0,0.0,0.40800000000000125,0.40800000000000125,0.0,0.0,0.0,55.0,616.79921,10000.0,85.000001,85.000001,85.000001,85.000001,395.0,0.0,0.0,0.0,1.0,166.665,58.028999999999996,58.028999999999996,62.149,62.149,34.0,-29.34,21.098,-31.55,20.8375,0.0,1782.803,0.05999999999999872,100.0,22.8615,22.6085,28.896,28.1655,0.0,0.0,100.0,0.0,0.0,0.0,0.0,3102.4285714285716,2847.9,4181.571428571428,3973.4,305.5585,305.66675,314.701,314.8685,21.790222222222223,20.6095,21.991,21.3596,314.999998,314.999998,324.999988,324.999988,99.55617142857143,99.50903333333333,99.5752,99.54625714285714,-0.04799999999999993,-0.10250000000000004,-0.22116666666666662,0.013833333333333364,-0.05333333333332746,-0.05833333333333002,1.5075,1.5499999999999998,37.189,29.809666666666665,38.444,34.4975,55.221000000000004,35.957,62.355000000000004,51.928,53.087,35.0015,60.897,50.3785,52.1575,34.4975,60.8785,49.9075,-0.04200000000000004,-0.052999999999999936,0.10329,0.11099500000000001,0.0,209.10000000000002,209.035,205.94333333333333,205.94333333333333,0.0,0.0
9,0.0,0.0,0.0,1.0,1.0,0.0,0.0,1.0,0.0,100.0,1.0,1.1856,26.0,0.0,0.0,0.0,59.999996,0.0,26.0,26.0,26.0,26.0,-0.11375000000000002,0.2876000000000001,0.024475,302.78,-2.73245,-2.81175,-1.35965,-1.4082222222222223,-245.89,216.0875,190.819375,0.0,0.0,0.0,0.0,0.018899999999999917,-5.498166666666667,-5.498166666666667,-0.7101,0.5389999999999999,-0.052000000000000046,0.6859999999999999,66.881,-0.0804999999999999,-0.41445000000000004,0.5200000000000005,100.0,1.0,1.0,206.44666666666666,0.0,0.0,0.0,0.0,0.0,0.0,0.0,8750.5,0.0,55.0,5.0,240.74666666666667,1.0,0.0,0.0,0.0,0.0,0.0,0.0,0.0,0.4529999999999994,0.4529999999999994,0.0,0.0,1.0,55.0,616.79921,10000.0,85.000001,85.000001,85.000001,85.000001,395.0,0.0,0.0,0.0,1.0,333.33500000000004,57.022,57.022,63.1105,63.1105,34.0,-30.405,23.747999999999998,-29.053333333333335,21.125,0.0,1782.758,-0.07499999999999929,100.0,23.511499999999998,22.645,28.715,27.977,0.0,0.0,100.0,0.0,0.0,0.0,0.0,3316.142857142857,3017.0,3998.714285714286,3958.4,304.68,305.27675,315.14825,315.0715,21.798666666666666,20.6144,22.0007,21.3674,314.999998,314.999998,324.999988,324.999988,99.55617142857143,99.50903333333333,99.57532857142857,99.54637142857143,-0.014249999999999985,-0.07524999999999993,-0.19599999999999995,0.03616666666666668,-0.036666666666668846,-0.05833333333333002,1.562,1.5889999999999995,37.242000000000004,29.84,38.504999999999995,34.5465,55.211,35.9895,62.379999999999995,51.9785,53.078,35.031,60.920500000000004,50.427,52.1475,34.5255,60.9,49.9555,-0.05699999999999994,-0.04400000000000004,0.11211000000000002,0.10507000000000001,0.0,209.48000000000002,209.45499999999998,206.44666666666666,206.44666666666666,0.0,0.0
10,0.0,0.0,0.0,1.0,1.0,0.0,0.0,1.0,0.0,100.0,1.0,1.1856,26.0,0.0,0.0,0.0,59.999996,0.0,26.0,26.0,26.0,26.0,-0.07387500000000002,0.2953000000000001,-0.000575,302.658,-2.7077999999999998,-2.794125,-1.33775,-1.3857777777777778,-242.48,216.0725,190.798625,0.0,0.0,0.0,0.0,0.02089999999999992,-5.498166666666667,-5.498166666666667,-0.6834,-0.2630000000000001,-0.016000000000000014,0.32199999999999995,67.029,-0.05779999999999996,-0.39830000000000004,0.1720000000000006,100.0,1.0,1.0,206.67666666666668,0.0,0.0,0.0,0.0,0.0,0.0,0.0,8760.3,0.0,55.0,5.0,241.27666666666664,0.0,0.0,0.0,0.0,0.0,0.0,1.0,0.0,0.5040000000000013,0.5040000000000013,0.0,0.0,0.0,55.0,616.79921,10000.0,85.000001,85.000001,85.000001,85.000001,395.0,0.0,0.0,0.0,1.0,166.665,58.167,58.167,61.5845,61.5845,34.0,-25.955,21.444000000000003,-31.586666666666666,23.5325,0.0,1782.709,-0.21499999999999986,100.0,23.118,22.6845,29.067,28.649,0.0,0.0,100.0,0.0,0.0,0.0,0.0,2952.857142857143,2767.7,4365.285714285715,4205.6,305.8785,305.89375,314.25825,314.3345,21.808333333333334,20.6198,22.0121,21.3766,314.999998,314.999998,324.999988,324.999988,99.55617142857143,99.50903333333333,99.57547142857143,99.54651428571428,-0.007499999999999951,-0.07750000000000001,-0.1805,0.04683333333333328,-0.041666666666671404,-0.03833333333332689,1.4689999999999999,1.4749999999999996,37.302,29.873666666666665,38.575,34.6035,55.198,36.022999999999996,62.413,52.039500000000004,53.066,35.062,60.951499999999996,50.486000000000004,52.1345,34.5555,60.928,50.0135,-0.0645,-0.03699999999999992,0.10634,0.10035500000000001,0.0,209.935,209.9,206.67666666666668,206.67666666666668,0.0,0.0
11,0.0,0.0,0.0,1.0,1.0,0.0,0.0,1.0,0.0,100.0,1.0,1.1856,26.0,0.0,0.0,0.0,59.999996,0.0,26.0,26.0,26.0,26.0,-0.03600000000000003,0.27059999999999995,-0.053500000000000006,303.177,-2.75265,-2.775125,-1.39425,-1.3742222222222222,-239.05,216.0575,190.777875,0.0,0.0,0.0,0.0,0.022599999999999953,-5.498166666666667,-5.498166666666667,-0.7264999999999999,-0.4365000000000001,0.011874999999999858,0.42200000000000004,67.169,-0.03520000000000001,-0.43405000000000005,-0.03200000000000003,100.0,1.0,1.0,207.38333333333333,0.0,0.0,0.0,0.0,0.0,0.0,0.0,8790.3,0.0,55.0,5.0,241.78333333333336,1.0,0.0,0.0,0.0,0.0,0.0,1.0,0.0,0.5549999999999997,0.5549999999999997,0.0,0.0,1.0,55.0,616.79921,10000.0,85.000001,85.000001,85.000001,85.000001,395.0,0.0,0.0,0.0,1.0,333.33500000000004,57.495,57.495,63.1865,63.1865,34.0,-26.235,25.869999999999997,-24.456666666666663,23.1375,0.0,1782.656,-0.2049999999999983,100.0,23.0465,22.7325,28.704,28.441000000000003,0.0,0.0,100.0,0.0,0.0,0.0,0.0,3034.285714285714,3105.4,3724.285714285714,3866.2,305.5195,305.0155,315.832,315.2525,21.817666666666668,20.6253,22.0231,21.3856,314.999998,314.999998,324.999988,324.999988,99.55617142857143,99.50905,99.5756,99.54665714285714,0.020000000000000018,-0.035499999999999976,-0.14116666666666666,0.09883333333333333,-0.05333333333332746,-0.046666666666666856,1.5975,1.601,37.36,29.90833333333333,38.644999999999996,34.66,55.183,36.057,62.439499999999995,52.0985,53.051,35.0935,60.976,50.543,52.119,34.585499999999996,60.9505,50.0695,-0.0674999999999999,-0.028000000000000025,0.10306000000000001,0.11901500000000001,0.0,210.32999999999998,210.34,207.38333333333333,207.38333333333333,0.0,0.0
12,0.0,0.0,0.0,1.0,1.0,0.0,0.0,1.0,0.0,100.0,1.0,1.1856,26.0,0.0,0.0,0.0,59.999996,0.0,26.0,26.0,26.0,26.0,-0.013624999999999998,0.28659999999999997,0.024,302.719,-2.80085,-2.7731250000000003,-1.3533,-1.4004444444444444,-235.62,216.04250000000002,190.755875,0.0,0.0,0.0,0.0,0.025466666666666526,-5.498166666666667,-5.498166666666667,-0.7167,0.41000000000000003,-0.011249999999999982,-1.0220000000000002,67.314,-0.020100000000000007,-0.4076,0.040000000000000036,100.0,1.0,1.0,207.67666666666668,0.0,0.0,0.0,0.0,0.0,0.0,0.0,8802.6,0.0,55.0,5.0,242.30333333333334,0.0,0.0,0.0,0.0,0.0,0.0,1.0,0.0,0.6059999999999981,0.6059999999999981,0.0,0.0,0.0,55.0,616.79921,10000.0,85.000001,85.000001,85.000001,85.000001,395.0,0.0,0.0,0.0,1.0,166.665,57.434,57.434,62.149,62.149,34.0,-27.67,25.072000000000003,-27.736666666666665,25.0925,0.0,1782.607,-0.19500000000000028,100.0,22.9225,23.0255,28.491,28.343,0.0,0.0,100.0,0.0,0.0,0.0,0.0,3179.857142857143,3016.6,4223.857142857143,4036.1000000000004,305.2805,305.1125,314.69675,314.80325,21.827111111111112,20.6309,22.0342,21.3946,314.999998,314.999998,324.999988,324.999988,99.55618571428572,99.50905,99.57575714285714,99.5468,0.025249999999999995,-0.03925000000000001,-0.1336666666666666,0.10083333333333333,-0.045000000000001705,-0.046666666666666856,1.525,1.5430000000000001,37.419,29.943333333333335,38.714,34.716,55.168,36.092,62.467,52.1565,53.037,35.1255,61.0025,50.599000000000004,52.105000000000004,34.616,60.974000000000004,50.1245,-0.06499999999999995,-0.040000000000000036,0.10489000000000001,0.1102,0.0,210.815,210.81,207.67666666666668,207.67666666666668,0.0,0.0
13,0.0,0.0,0.0,1.0,1.0,0.0,0.0,1.0,0.0,100.0,1.0,1.1856,26.0,0.0,0.0,0.0,59.999996,0.0,26.0,26.0,26.0,26.0,-0.003874999999999962,0.28469999999999995,0.04975,302.2615,-2.77395,-2.7716250000000002,-1.4174,-1.3932222222222221,-232.39,216.025,190.73525,0.0,0.0,0.0,0.0,0.026766666666666605,-5.498166666666667,-5.498166666666667,-0.702,0.04799999999999993,-0.012624999999999886,-0.5820000000000001,67.45,-0.012899999999999912,-0.40365,-0.0420000000000007,100.0,1.0,1.0,207.98333333333335,0.0,0.0,0.0,0.0,0.0,0.0,0.0,8815.7,0.0,55.0,5.0,242.79333333333335,1.0,0.0,0.0,0.0,0.0,0.0,1.0,0.0,0.6539999999999999,0.6539999999999999,0.0,0.0,1.0,55.0,616.79921,10000.0,85.000001,85.000001,85.000001,85.000001,395.0,0.0,0.0,0.0,1.0,333.33500000000004,57.281,57.281,61.7675,61.7675,34.0,-26.965,25.474,-29.703333333333333,26.85,0.0,1782.556,-0.3249999999999993,100.0,23.1555,23.0675,28.82,28.819499999999998,0.0,0.0,100.0,0.0,0.0,0.0,0.0,3205.4285714285716,2980.2,4328.571428571428,4252.0,305.1955,305.2265,314.43075,314.2475,21.836,20.6362,22.0448,21.4032,314.999998,314.999998,324.999988,324.999988,99.55618571428572,99.50906666666667,99.57588571428572,99.54694285714285,0.04225000000000012,-0.019749999999999934,-0.13349999999999995,0.09983333333333322,-0.045000000000001705,-0.04333333333332945,1.4869999999999999,1.4809999999999999,37.474999999999994,29.976333333333336,38.78,34.769999999999996,55.157,36.124,62.4955,52.215,53.025999999999996,35.155,61.0285,50.655,52.0935,34.644,60.998,50.18,-0.08000000000000007,-0.021500000000000075,0.103315,0.11546500000000001,0.0,211.235,211.22,207.98333333333335,207.98333333333335,0.0,0.0
14,0.0,0.0,0.0,1.0,1.0,0.0,0.0,1.0,0.0,100.0,1.0,1.1856,26.0,0.0,0.0,0.0,59.999996,0.0,26.0,26.0,26.0,26.0,-0.011874999999999969,0.2852000000000001,-0.006825,302.4595,-2.7712,-2.7185,-1.3907,-1.363888888888889,-228.95,216.0075,190.714,0.0,0.0,0.0,0.0,0.028766666666666607,-5.498166666666667,-5.498166666666667,-0.714,-0.2695000000000001,0.018999999999999906,1.326,67.59100000000001,-0.0033999999999999586,-0.42562500000000003,-0.22999999999999954,100.0,1.0,1.0,208.48000000000002,0.0,0.0,0.0,0.0,0.0,0.0,0.0,8836.7,0.0,55.0,5.0,243.30333333333334,0.0,0.0,0.0,0.0,0.0,0.0,1.0,0.0,0.7049999999999983,0.7049999999999983,0.0,0.0,0.0,55.0,616.79921,10000.0,85.000001,85.000001,85.000001,85.000001,395.0,0.0,0.0,0.0,1.0,166.665,57.281,57.281,62.0115,62.0115,34.0,-24.575,27.272,-25.746666666666663,26.4,0.0,1782.506,-0.379999999999999,100.0,23.2685,22.995,28.955,28.926000000000002,0.0,0.0,100.0,0.0,0.0,0.0,0.0,2991.0,3183.2,4012.714285714286,4187.6,305.6305,304.806,315.0625,314.4975,21.845444444444446,20.6419,22.0559,21.412399999999998,314.999998,314.999998,324.999988,324.999988,99.5562,99.50906666666667,99.57602857142857,99.54707142857143,0.055749999999999966,-0.007249999999999979,-0.11349999999999993,0.1136666666666668,-0.02833333333332888,-0.06666666666666998,1.5265,1.5259999999999998,37.534,30.011666666666667,38.849999999999994,34.8275,55.144,36.1575,62.5235,52.2765,53.013999999999996,35.186,61.0555,50.7145,52.0805,34.674,61.0215,50.2385,-0.08299999999999996,-0.01650000000000018,0.10779000000000001,0.11192,0.0,211.64,211.675,208.48000000000002,208.48000000000002,0.0,0.0
15,0.0,0.0,0.0,1.0,1.0,0.0,0.0,1.0,0.0,100.0,1.0,1.1856,26.0,0.0,0.0,0.0,59.999996,0.0,26.0,26.0,26.0,26.0,0.02300000000000013,0.28170000000000006,-0.049575,302.6275,-2.7759,-2.681,-1.4122,-1.3096666666666668,-225.49,215.9925,190.6925,0.0,0.0,0.0,0.0,0.03076666666666661,-5.498166666666667,-5.498166666666667,-0.7078,0.2925,0.038249999999999895,-0.7790000000000001,67.732,0.009800000000000031,-0.411225,-0.28200000000000003,100.0,1.0,1.0,208.93333333333334,0.0,0.0,0.0,0.0,0.0,0.0,0.0,8855.9,0.0,55.0,5.0,243.80666666666667,1.0,0.0,0.0,0.0,0.0,0.0,1.0,0.0,0.7560000000000002,0.7560000000000002,0.0,0.0,1.0,55.0,616.79921,10000.0,85.000001,85.000001,85.000001,85.000001,395.0,0.0,0.0,0.0,1.0,166.665,57.556,57.556,62.271,62.271,34.0,-24.43,25.317999999999998,-25.54,26.45,0.0,1782.457,-0.3000000000000007,100.0,23.0825,23.1655,28.594,28.957,0.0,0.0,100.0,0.0,0.0,0.0,0.0,2964.0,3029.7,4004.5714285714284,4249.5,305.8965,305.07175,315.206,314.28975,21.854888888888887,20.6475,22.0669,21.4215,314.999998,314.999998,324.999988,324.999988,99.5562,99.50906666666667,99.57617142857143,99.54721428571429,0.04800000000000004,-0.01674999999999993,-0.10899999999999999,0.1186666666666667,-0.046666666666666856,-0.04833333333333201,1.5385,1.5229999999999997,37.593,30.047,38.918,34.8845,55.132,36.1915,62.5495,52.337,53.003,35.2175,61.079499999999996,50.772999999999996,52.0685,34.704,61.043,50.296,-0.07600000000000007,-0.027499999999999858,0.10223,0.10397,0.0,212.10500000000002,212.10500000000002,208.93333333333334,208.93333333333334,0.0,0.0
16,0.0,0.0,0.0,1.0,1.0,0.0,0.0,1.0,0.0,100.0,1.0,1.1856,26.0,0.0,0.0,0.0,59.999996,0.0,26.0,26.0,26.0,26.0,0.036375000000000046,0.2793000000000001,-0.029650000000000003,302.719,-2.83255,-2.6961250000000003,-1.3831,-1.3145555555555557,-222.24,215.975,190.67175,0.0,0.0,0.0,0.0,0.03266666666666651,-5.498166666666667,-5.498166666666667,-0.7241,-0.7095,0.020999999999999908,-1.198,67.86500000000001,0.017200000000000104,-0.418875,-0.19599999999999973,100.0,1.0,1.0,209.32666666666665,0.0,0.0,0.0,0.0,0.0,0.0,0.0,8872.6,0.0,55.0,5.0,244.28666666666666,0.0,0.0,0.0,0.0,0.0,0.0,1.0,0.0,0.8039999999999985,0.8039999999999985,0.0,0.0,0.0,55.0,616.79921,10000.0,85.000001,85.000001,85.000001,85.000001,395.0,0.0,0.0,0.0,1.0,166.665,57.678,57.678,61.9505,61.9505,34.0,-25.795,25.758,-25.03666666666666,26.645,0.0,1782.408,-0.14000000000000057,100.0,22.6715,23.0785,28.854,28.9165,0.0,0.0,100.0,0.0,0.0,0.0,0.0,3076.285714285714,3058.9,4054.0,4092.6000000000004,305.6905,305.034,315.07675,314.66375,21.863444444444443,20.6528,22.0774,21.4301,314.999998,314.999998,324.999988,324.999988,99.5562,99.50906666666667,99.57631428571429,99.54735714285714,0.049250000000000016,-0.01474999999999993,-0.09866666666666657,0.14366666666666683,-0.054999999999999716,-0.046666666666666856,1.535,1.5229999999999997,37.647,30.080333333333336,38.983999999999995,34.9385,55.117000000000004,36.223,62.577,52.3935,52.988,35.2465,61.105000000000004,50.8275,52.0535,34.7315,61.0665,50.35,-0.06699999999999995,-0.040000000000000036,0.10765500000000001,0.114375,0.0,212.47500000000002,212.48000000000002,209.32666666666665,209.32666666666665,0.0,0.0
17,0.0,0.0,0.0,1.0,1.0,0.0,0.0,1.0,0.0,100.0,1.0,1.1856,26.0,0.0,0.0,0.0,59.999996,0.0,26.0,26.0,26.0,26.0,0.001000000000000112,0.29090000000000016,0.005675,302.292,-2.78705,-2.685125,-1.4158,-1.341222222222222,-218.57,215.95749999999998,190.647875,0.0,0.0,0.0,0.0,0.03479999999999994,-5.498166666666667,-5.498166666666667,-0.7164999999999999,0.475,-0.006375000000000242,-0.938,68.013,0.013500000000000068,-0.40592500000000004,0.009999999999999787,100.0,1.0,1.0,209.73666666666668,0.0,0.0,0.0,0.0,0.0,0.0,0.0,8889.9,0.0,55.0,5.0,244.82,1.0,0.0,0.0,0.0,0.0,0.0,1.0,0.0,0.8580000000000005,0.8580000000000005,0.0,0.0,1.0,55.0,616.79921,10000.0,85.000001,85.000001,85.000001,85.000001,395.0,0.0,0.0,0.0,1.0,166.665,57.22,57.22,61.844,61.844,34.0,-26.64,25.018,-28.083333333333336,26.545,0.0,1782.352,-0.23000000000000043,100.0,23.198,23.241,28.705,28.889,0.0,0.0,100.0,0.0,0.0,0.0,0.0,3214.142857142857,2990.3,4349.857142857143,4205.3,305.207,305.2225,314.47125,314.44125,21.873444444444445,20.659,22.0891,21.439799999999998,314.999998,314.999998,324.999988,324.999988,99.55621428571429,99.50908333333334,99.57647142857142,99.54751428571429,0.05425000000000013,-0.015000000000000013,-0.10583333333333333,0.11850000000000005,-0.046666666666666856,-0.051666666666669414,1.5205,1.5179999999999998,37.709,30.118666666666666,39.057,34.9985,55.105000000000004,36.26,62.6045,52.457,52.977000000000004,35.281,61.131,50.888999999999996,52.0415,34.7645,61.0895,50.41,-0.06800000000000006,-0.04200000000000026,0.10958500000000002,0.10708500000000001,0.0,212.98000000000002,212.985,209.73666666666668,209.73666666666668,0.0,0.0
18,0.0,0.0,0.0,1.0,1.0,0.0,0.0,1.0,0.0,100.0,1.0,1.1856,26.0,0.0,0.0,0.0,59.999996,0.0,26.0,26.0,26.0,26.0,-0.020375000000000032,0.2713000000000001,-0.031175,302.3985,-2.8112,-2.668625,-1.4267,-1.291,-215.51,215.945,190.628125,0.0,0.0,0.0,0.0,0.036566666666666525,-5.498166666666667,-5.498166666666667,-0.7228,-0.5005,0.01587499999999986,1.239,68.136,0.009100000000000108,-0.4173,-0.0860000000000003,100.0,1.0,1.0,210.12666666666667,0.0,0.0,0.0,0.0,0.0,0.0,0.0,8906.5,0.0,55.0,5.0,245.26333333333332,0.0,0.0,0.0,0.0,0.0,0.0,1.0,0.0,0.9029999999999987,0.9029999999999987,0.0,0.0,0.0,55.0,616.79921,10000.0,85.000001,85.000001,85.000001,85.000001,395.0,0.0,0.0,0.0,1.0,166.665,57.388,57.388,61.8135,61.8135,34.0,-25.0225,27.5,-26.503333333333337,26.3525,0.0,1782.31,-0.2699999999999996,100.0,23.1085,22.911,29.073,29.017,0.0,0.0,100.0,0.0,0.0,0.0,0.0,3048.0,3208.6,4094.285714285714,4201.3,305.566,304.8185,314.938,314.511,21.881555555555554,20.663899999999998,22.099,21.4479,314.999998,314.999998,324.999988,324.999988,99.55622857142858,99.50908333333334,99.57658571428571,99.54764285714286,0.06400000000000006,0.005249999999999977,-0.10583333333333333,0.12949999999999995,-0.03499999999999659,-0.05666666666667197,1.504,1.5089999999999995,37.76,30.14966666666667,39.119,35.0495,55.093,36.289,62.6305,52.5115,52.966,35.308,61.1555,50.942,52.03,34.7905,61.1115,50.462,-0.0754999999999999,-0.028999999999999915,0.1038,0.11479,0.0,213.335,213.325,210.12666666666667,210.12666666666667,0.0,0.0
19,0.0,0.0,0.0,1.0,1.0,0.0,0.0,1.0,0.0,100.0,1.0,1.1856,26.0,0.0,0.0,0.0,59.999996,0.0,26.0,26.0,26.0,26.0,-0.004750000000000032,0.29200000000000004,0.049875,301.88,-2.72545,-2.772875,-1.43805,-1.2803333333333333,-211.82,215.9275,190.60425,0.0,0.0,0.0,0.0,0.0387333333333334,-5.498166666666667,-5.498166666666667,-0.7155,0.8085,0.018999999999999906,0.5780000000000001,68.282,0.009500000000000064,-0.411725,-0.1899999999999995,100.0,1.0,1.0,210.55333333333334,0.0,0.0,0.0,0.0,0.0,0.0,0.0,8924.7,0.0,55.0,5.0,245.79000000000002,1.0,0.0,0.0,0.0,0.0,0.0,1.0,0.0,0.9570000000000007,0.9570000000000007,0.0,0.0,1.0,55.0,616.79921,10000.0,85.000001,85.000001,85.000001,85.000001,395.0,0.0,0.0,0.0,1.0,166.665,56.686,56.686,61.6455,61.6455,34.0,-24.9,28.439999999999998,-27.306666666666665,28.1375,0.0,1782.255,-0.23499999999999943,100.0,23.593,23.3625,28.899,28.987000000000002,0.0,0.0,100.0,0.0,0.0,0.0,0.0,3102.5714285714284,3205.1,4224.428571428572,4418.3,305.238,304.53625,314.6845,314.02825,21.891555555555556,20.6702,22.110599999999998,21.4576,314.999998,314.999998,324.999988,324.999988,99.55622857142858,99.50908333333334,99.57674285714286,99.54778571428571,0.06600000000000006,-0.003249999999999975,-0.09999999999999998,0.1346666666666667,-0.041666666666671404,-0.05666666666667197,1.502,1.4959999999999996,37.822,30.188666666666666,39.191,35.1105,55.082,36.327,62.6575,52.576,52.955,35.343,61.181,51.0045,52.0185,34.824,61.134,50.524,-0.06800000000000006,-0.03849999999999998,0.11247000000000001,0.10429500000000001,0.0,213.805,213.815,210.55333333333334,210.55333333333334,0.0,0.0
20,0.0,0.0,0.0,1.0,1.0,0.0,0.0,1.0,0.0,100.0,1.0,1.1856,26.0,0.0,0.0,0.0,59.999996,0.0,26.0,26.0,26.0,26.0,0.0063750000000000195,0.2815000000000001,0.008975,302.307,-2.82075,-2.730875,-1.3568500000000001,-1.4042222222222223,-208.54,215.9125,190.58325,0.0,0.0,0.0,0.0,0.0406333333333333,-5.498166666666667,-5.498166666666667,-0.7163999999999999,-1.052,0.014000000000000012,0.733,68.414,0.010900000000000132,-0.417225,-0.17600000000000016,100.0,1.0,1.0,210.85000000000002,0.0,0.0,0.0,0.0,0.0,0.0,0.0,8937.2,0.0,55.0,5.0,246.26666666666665,0.0,0.0,0.0,0.0,0.0,0.0,0.0,0.0,1.004999999999999,1.004999999999999,0.0,0.0,0.0,55.0,616.79921,10000.0,85.000001,85.000001,85.000001,85.000001,395.0,0.0,0.0,0.0,1.0,333.33500000000004,57.938,57.938,61.1115,61.1115,34.0,-23.77,26.264,-26.016666666666666,29.9025,0.0,1782.206,-0.16999999999999815,100.0,22.9445,22.9065,29.423000000000002,29.2365,0.0,0.0,100.0,0.0,0.0,0.0,0.0,2889.0,3070.1,4205.714285714285,4322.9,306.0535,305.18425,314.57425,314.05575,21.900111111111112,20.6755,22.1212,21.4664,314.999998,314.999998,324.999988,324.999988,99.55624285714286,99.50908333333334,99.57688571428571,99.54792857142857,0.059250000000000025,-0.006750000000000034,-0.09366666666666656,0.139,-0.023333333333326323,-0.05666666666667197,1.462,1.4559999999999995,37.876000000000005,30.221666666666664,39.257,35.165,55.067,36.358000000000004,62.6865,52.635,52.942,35.3715,61.208,51.0615,52.0045,34.851,61.158500000000004,50.58,-0.06600000000000006,-0.03400000000000025,0.104455,0.10786000000000001,0.0,214.17000000000002,214.195,210.85000000000002,210.85000000000002,0.0,0.0
21,0.0,0.0,0.0,1.0,1.0,0.0,0.0,1.0,0.0,100.0,1.0,1.1856,26.0,0.0,0.0,0.0,59.999996,0.0,26.0,26.0,26.0,26.0,0.019875000000000087,0.27,-0.066225,302.704,-2.7875,-2.733375,-1.42375,-1.3615555555555556,-205.05,215.8975,190.560125,0.0,0.0,0.0,0.0,0.04266666666666652,-5.498166666666667,-5.498166666666667,-0.7467999999999999,0.2845,-0.0040000000000000036,-1.033,68.547,0.00770000000000004,-0.42685,-0.02200000000000024,100.0,1.0,1.0,211.53,0.0,0.0,0.0,0.0,0.0,0.0,0.0,8966.0,0.0,55.0,5.0,246.74333333333334,1.0,0.0,0.0,0.0,0.0,0.0,0.0,0.0,1.056000000000001,1.056000000000001,0.0,0.0,1.0,55.0,616.79921,10000.0,85.000001,85.000001,85.000001,85.000001,395.0,0.0,0.0,0.0,1.0,166.665,57.251,57.251,62.622,62.622,34.0,-26.73,26.066,-25.793333333333337,24.695,0.0,1782.157,-0.1999999999999993,100.0,23.1275,23.225,28.627,28.8625,0.0,0.0,100.0,0.0,0.0,0.0,0.0,3192.4285714285716,3048.0,4013.714285714286,3943.3,305.2975,305.06825,315.2615,315.094,21.909444444444446,20.6812,22.1321,21.4754,314.999998,314.999998,324.999988,324.999988,99.55625714285715,99.50908333333334,99.57701428571428,99.54807142857143,0.04699999999999993,-0.013000000000000012,-0.11349999999999993,0.1206666666666667,-0.04999999999999716,-0.04999999999999716,1.5755,1.5830000000000002,37.934,30.257666666666665,39.325,35.2215,55.055,36.3925,62.7095,52.692499999999995,52.93,35.4035,61.2295,51.1165,51.992000000000004,34.8815,61.1775,50.6345,-0.06699999999999995,-0.038000000000000256,0.11160500000000001,0.11092500000000001,0.0,214.625,214.61,211.53,211.53,0.0,0.0
22,0.0,0.0,0.0,1.0,1.0,0.0,0.0,1.0,0.0,100.0,1.0,1.1856,26.0,0.0,0.0,0.0,59.999996,0.0,26.0,26.0,26.0,26.0,0.016625000000000112,0.28080000000000016,0.003575,302.2005,-2.7189,-2.785125,-1.4179,-1.349777777777778,-201.76,215.8825,190.53775,0.0,0.0,0.0,0.0,0.04456666666666653,-5.498166666666667,-5.498166666666667,-0.7252000000000001,0.29799999999999993,0.0035000000000000586,-0.49,68.678,0.006000000000000005,-0.40440000000000004,0.020000000000000462,100.0,1.0,1.0,211.72333333333333,0.0,0.0,0.0,0.0,0.0,0.0,0.0,8974.2,0.0,55.0,5.0,247.21666666666667,0.0,0.0,0.0,0.0,0.0,0.0,0.0,0.0,1.1039999999999992,1.1039999999999992,0.0,0.0,0.0,55.0,616.79921,10000.0,85.000001,85.000001,85.000001,85.000001,395.0,0.0,0.0,0.0,1.0,166.665,57.358,57.358,61.4775,61.4775,34.0,-24.8175,25.552,-28.473333333333333,27.18,0.0,1782.108,-0.2749999999999986,100.0,23.2255,23.372,28.966,29.061999999999998,0.0,0.0,100.0,0.0,0.0,0.0,0.0,3043.142857142857,2977.1,4278.857142857143,4291.6,305.627,305.15375,314.6015,314.235,21.91811111111111,20.6867,22.1426,21.484099999999998,314.999998,314.999998,324.999988,324.999988,99.55625714285715,99.5091,99.57715714285715,99.54821428571428,0.047250000000000014,-0.023749999999999938,-0.11916666666666664,0.11299999999999999,-0.04833333333333201,-0.051666666666669414,1.4945,1.4859999999999998,37.988,30.291666666666664,39.391,35.2755,55.044,36.425,62.737,52.75,52.92,35.433,61.2555,51.172,51.9805,34.91,61.2005,50.689,-0.07000000000000006,-0.03400000000000025,0.108825,0.10769500000000001,0.0,215.04000000000002,215.03,211.72333333333333,211.72333333333333,0.0,0.0
23,0.0,0.0,0.0,1.0,1.0,0.0,0.0,1.0,0.0,100.0,1.0,1.1856,26.0,0.0,0.0,0.0,59.999996,0.0,26.0,26.0,26.0,26.0,0.02012499999999995,0.25660000000000016,-0.049850000000000005,302.185,-2.7554,-2.731875,-1.47205,-1.3226666666666669,-198.04,215.8675,190.512875,0.0,0.0,0.0,0.0,0.04673333333333329,-5.498166666666667,-5.498166666666667,-0.7409,-0.22750000000000004,0.005749999999999922,-0.6400000000000001,68.821,0.0050000000000001155,-0.4305,0.016000000000000014,100.0,1.0,1.0,212.24666666666667,0.0,0.0,0.0,0.0,0.0,0.0,0.0,8996.4,0.0,55.0,5.0,247.73333333333335,1.0,0.0,0.0,0.0,0.0,0.0,0.0,0.0,1.1580000000000013,1.1580000000000013,0.0,0.0,1.0,55.0,616.79921,10000.0,85.000001,85.000001,85.000001,85.000001,395.0,0.0,0.0,0.0,1.0,166.665,56.747,56.747,62.317,62.317,34.0,-27.1425,26.062,-27.243333333333336,24.89,0.0,1782.054,-0.26500000000000057,100.0,23.4335,23.3915,29.057000000000002,29.328,0.0,0.0,100.0,0.0,0.0,0.0,0.0,3285.857142857143,3063.7,4073.1428571428573,4043.0,304.931,304.976,315.1405,314.85075,21.928,20.6928,22.1544,21.494,314.999998,314.999998,324.999988,324.999988,99.55625714285715,99.5091,99.57731428571428,99.54837142857143,0.05449999999999999,-0.01824999999999999,-0.11699999999999999,0.11516666666666686,-0.051666666666669414,-0.036666666666668846,1.532,1.5229999999999997,38.05,30.33,39.465,35.3375,55.031,36.461,62.766,52.8155,52.907,35.467,61.283,51.2355,51.9675,34.942499999999995,61.225,50.751,-0.07600000000000007,-0.03049999999999997,0.10614000000000001,0.114165,0.0,215.45,215.45,212.24666666666667,212.24666666666667,0.0,0.0
24,0.0,0.0,0.0,1.0,1.0,0.0,0.0,1.0,0.0,100.0,1.0,1.1856,26.0,0.0,0.0,0.0,59.999996,0.0,26.0,26.0,26.0,26.0,0.01649999999999996,0.2674000000000001,-0.043025,302.5665,-2.7813499999999998,-2.73925,-1.3918,-1.3484444444444443,-194.74,215.85250000000002,190.490375,0.0,0.0,0.0,0.0,0.048666666666666525,-5.498166666666667,-5.498166666666667,-0.7509,-0.5489999999999999,0.016249999999999876,-0.27,68.95,0.007300000000000084,-0.4253,-0.11600000000000055,100.0,1.0,1.0,212.56666666666666,0.0,0.0,0.0,0.0,0.0,0.0,0.0,9009.9,0.0,55.0,5.0,248.19666666666666,0.0,0.0,0.0,0.0,0.0,0.0,0.0,0.0,1.2059999999999995,1.2059999999999995,0.0,0.0,0.0,55.0,616.79921,10000.0,85.000001,85.000001,85.000001,85.000001,395.0,0.0,0.0,0.0,1.0,166.665,57.938,57.938,61.6455,61.6455,34.0,-24.447499999999998,25.14,-27.48,26.145,0.0,1782.006,-0.28999999999999915,100.0,23.0015,23.0855,29.011,29.1705,0.0,0.0,100.0,0.0,0.0,0.0,0.0,2963.5714285714284,2929.8,4262.714285714285,4125.6,305.9315,305.42675,314.601,314.616,21.936555555555557,20.6981,22.1648,21.5027,314.999998,314.999998,324.999988,324.999988,99.55627142857143,99.5091,99.57745714285714,99.54851428571429,0.04899999999999993,-0.008499999999999952,-0.10949999999999993,0.1180000000000001,-0.030000000000001137,-0.04333333333332945,1.503,1.505,38.102999999999994,30.363333333333333,39.53,35.3915,55.018,36.492,62.7915,52.872,52.894999999999996,35.4955,61.307,51.29,51.955,34.9695,61.2465,50.805,-0.0694999999999999,-0.028000000000000025,0.10656500000000001,0.10218500000000001,0.0,215.82999999999998,215.85500000000002,212.56666666666666,212.56666666666666,0.0,0.0
25,0.0,0.0,0.0,1.0,1.0,0.0,0.0,1.0,0.0,100.0,1.0,1.1856,26.0,0.0,0.0,0.0,59.999996,0.0,26.0,26.0,26.0,26.0,0.003375000000000128,0.26890000000000014,-0.036000000000000004,302.4445,-2.84235,-2.705625,-1.40355,-1.3557777777777777,-191.22,215.84,190.465,0.0,0.0,0.0,0.0,0.05069999999999997,-5.498166666666667,-5.498166666666667,-0.7795,0.09450000000000003,0.019625000000000004,0.019000000000000017,69.083,0.010299999999999976,-0.427825,-0.20199999999999996,100.0,1.0,1.0,213.12333333333333,0.0,0.0,0.0,0.0,0.0,0.0,0.0,9033.5,0.0,55.0,5.0,248.67333333333335,1.0,0.0,0.0,0.0,0.0,0.0,0.0,0.0,1.256999999999998,1.256999999999998,0.0,0.0,1.0,55.0,616.79921,10000.0,85.000001,85.000001,85.000001,85.000001,395.0,0.0,0.0,0.0,1.0,166.665,56.793,56.793,62.546,62.546,34.0,-26.86,28.887999999999998,-23.699999999999996,26.455,0.0,1781.956,-0.28500000000000014,100.0,23.2155,23.2315,28.698,28.8015,0.0,0.0,100.0,0.0,0.0,0.0,0.0,3192.285714285714,3323.8,3883.1428571428573,4048.5,305.189,304.3805,315.492,314.86575,21.945666666666668,20.704,22.1757,21.5118,314.999998,314.999998,324.999988,324.999988,99.55628571428572,99.50911666666667,99.5776,99.54865714285714,0.05974999999999997,-0.0007500000000000284,-0.09433333333333338,0.1393333333333333,-0.04833333333333201,-0.054999999999999716,1.581,1.5569999999999995,38.16,30.39966666666667,39.598,35.448499999999996,55.004000000000005,36.5265,62.815,52.9295,52.882,35.527,61.329,51.346000000000004,51.941,35.0,61.266,50.8595,-0.07000000000000006,-0.03000000000000025,0.10747000000000001,0.107645,0.0,216.26,216.26,213.12333333333333,213.12333333333333,0.0,0.0
26,0.0,0.0,0.0,1.0,1.0,0.0,0.0,1.0,0.0,100.0,1.0,1.1856,26.0,0.0,0.0,0.0,59.999996,0.0,26.0,26.0,26.0,26.0,0.0031250000000000444,0.28070000000000017,0.0911,301.3155,-2.79205,-2.78675,-1.45045,-1.3505555555555557,-187.89999999999998,215.825,190.440625,0.0,0.0,0.0,0.0,0.05263333333333331,-5.498166666666667,-5.498166666666667,-0.7372,0.878,0.0020000000000000018,0.771,69.212,0.012499999999999956,-0.3966,-0.21399999999999952,100.0,1.0,1.0,213.24333333333334,0.0,0.0,0.0,0.0,0.0,0.0,0.0,9038.6,0.0,55.0,5.0,249.13666666666666,0.0,0.0,0.0,0.0,0.0,0.0,0.0,0.0,1.3049999999999997,1.3049999999999997,0.0,0.0,0.0,55.0,616.79921,10000.0,85.000001,85.000001,85.000001,85.000001,395.0,0.0,0.0,0.0,1.0,333.33500000000004,56.595,56.595,60.6385,60.6385,34.0,-25.3425,28.166,-29.943333333333335,31.005000000000003,0.0,1781.906,-0.33500000000000085,100.0,23.847,23.6095,29.306,29.268,0.0,0.0,100.0,0.0,0.0,0.0,0.0,3129.714285714286,3167.5,4548.857142857143,4554.6,305.227,304.755,313.9305,313.6715,21.954444444444444,20.709600000000002,22.1862,21.5205,314.999998,314.999998,324.999988,324.999988,99.55628571428572,99.50911666666667,99.57774285714285,99.54878571428571,0.0747500000000001,-0.0010000000000000009,-0.09233333333333338,0.14016666666666677,-0.03499999999999659,-0.04833333333333201,1.433,1.428,38.216,30.435333333333332,39.664,35.5035,54.995000000000005,36.561,62.843,52.9875,52.873999999999995,35.559,61.355000000000004,51.4025,51.9315,35.0305,61.289,50.915,-0.08099999999999996,-0.028500000000000192,0.10147500000000001,0.11242500000000001,0.0,216.695,216.695,213.24333333333334,213.24333333333334,0.0,0.0
27,0.0,0.0,0.0,1.0,1.0,0.0,0.0,1.0,0.0,100.0,1.0,1.1856,26.0,0.0,0.0,0.0,59.999996,0.0,26.0,26.0,26.0,26.0,0.01649999999999996,0.26080000000000014,-0.0118,301.895,-2.7669,-2.748875,-1.43945,-1.417,-184.57,215.8125,190.417625,0.0,0.0,0.0,0.0,0.05456666666666654,-5.498166666666667,-5.498166666666667,-0.7585999999999999,-1.166,0.005624999999999991,0.761,69.337,0.013600000000000056,-0.443425,-0.2939999999999996,100.0,1.0,1.0,213.69333333333333,0.0,0.0,0.0,0.0,0.0,0.0,0.0,9057.7,0.0,55.0,5.0,249.59333333333336,1.0,0.0,0.0,0.0,0.0,0.0,0.0,0.0,1.352999999999998,1.352999999999998,0.0,0.0,1.0,55.0,616.79921,10000.0,85.000001,85.000001,85.000001,85.000001,395.0,0.0,0.0,0.0,1.0,333.33500000000004,57.205,57.205,61.0505,61.0505,34.0,-23.7525,28.194,-26.843333333333334,28.775,0.0,1781.857,-0.375,100.0,23.4025,23.3095,29.799,29.7325,0.0,0.0,100.0,0.0,0.0,0.0,0.0,2978.0,3184.3,4145.428571428572,4184.3,305.695,304.809,314.77825,314.44325,21.963,20.7151,22.1969,21.5295,314.999998,314.999998,324.999988,324.999988,99.5563,99.50911666666667,99.57788571428571,99.54892857142858,0.07325000000000004,0.006750000000000034,-0.09666666666666657,0.13749999999999996,-0.03166666666666629,-0.06333333333333258,1.4705,1.4770000000000003,38.269,30.46933333333333,39.730000000000004,35.559,54.982,36.593,62.873,53.0475,52.861999999999995,35.5905,61.382999999999996,51.463,51.9195,35.0605,61.3135,50.9745,-0.07850000000000001,-0.01750000000000007,0.11298000000000001,0.10438000000000001,0.0,217.01,217.03,213.69333333333333,213.69333333333333,0.0,0.0
28,0.0,0.0,0.0,1.0,1.0,0.0,0.0,1.0,0.0,100.0,1.0,1.1856,26.0,0.0,0.0,0.0,59.999996,0.0,26.0,26.0,26.0,26.0,0.04849999999999999,0.26859999999999995,-0.060825000000000004,302.353,-2.7537,-2.7355,-1.41375,-1.3554444444444445,-180.62,215.7975,190.389375,0.0,0.0,0.0,0.0,0.05686666666666651,-5.498166666666667,-5.498166666666667,-0.7701,0.641,-0.0034999999999998366,-0.615,69.483,0.01990000000000003,-0.42007500000000003,-0.2400000000000002,100.0,1.0,1.0,214.31333333333333,0.0,0.0,0.0,0.0,0.0,0.0,0.0,9083.9,0.0,55.0,5.0,250.11333333333334,0.0,0.0,0.0,0.0,0.0,0.0,0.0,0.0,1.4100000000000001,1.4100000000000001,0.0,0.0,0.0,55.0,616.79921,10000.0,85.000001,85.000001,85.000001,85.000001,395.0,0.0,0.0,0.0,1.0,111.11,57.266,57.266,62.088,62.088,34.0,-24.7125,26.438,-26.093333333333334,27.11,0.0,1781.803,-0.3249999999999993,100.0,23.2945,23.4025,28.848,29.125999999999998,0.0,0.0,100.0,0.0,0.0,0.0,0.0,3101.142857142857,3023.6,4147.428571428572,4106.3,305.472,305.07375,315.0085,314.73475,21.973333333333333,20.7217,22.209,21.5396,314.999998,314.999998,324.999988,324.999988,99.55631428571428,99.50911666666667,99.57804285714286,99.5491,0.07075000000000009,-0.0010000000000000009,-0.09999999999999998,0.14149999999999996,-0.051666666666669414,-0.061666666666667425,1.5434999999999999,1.5350000000000001,38.333,30.510333333333335,39.806,35.6225,54.97,36.632,62.897,53.111000000000004,52.849999999999994,35.6245,61.4055,51.5215,51.9065,35.093,61.334,51.032,-0.08099999999999996,-0.026499999999999968,0.10479500000000001,0.11875500000000001,0.0,217.51999999999998,217.54000000000002,214.31333333333333,214.31333333333333,0.0,0.0
29,0.0,0.0,0.0,1.0,1.0,0.0,0.0,1.0,0.0,100.0,1.0,1.1856,26.0,0.0,0.0,0.0,59.999996,0.0,26.0,26.0,26.0,26.0,0.03225000000000011,0.2622,0.01575,301.9865,-2.7381,-2.78775,-1.3902,-1.3587777777777779,-177.49,215.7875,190.365875,0.0,0.0,0.0,0.0,0.058666666666666534,-5.498166666666667,-5.498166666666667,-0.7736,-0.5915000000000001,0.004124999999999934,0.956,69.602,0.02100000000000013,-0.4137,-0.32200000000000006,100.0,1.0,1.0,214.48333333333335,0.0,0.0,0.0,0.0,0.0,0.0,0.0,9091.1,0.0,55.0,5.0,250.54666666666668,1.0,0.0,0.0,0.0,0.0,0.0,0.0,0.0,1.4549999999999983,1.4549999999999983,0.0,0.0,1.0,55.0,616.79921,10000.0,85.000001,85.000001,85.000001,85.000001,395.0,0.0,0.0,0.0,1.0,166.665,57.281,57.281,61.2335,61.2335,34.0,-23.6325,28.39,-26.416666666666664,30.0,0.0,1781.755,-0.35999999999999943,100.0,23.2065,23.177500000000002,29.295,29.2925,0.0,0.0,100.0,0.0,0.0,0.0,0.0,3004.5714285714284,3163.2,4189.857142857143,4375.2,305.6635,304.77925,314.65725,314.07625,21.98122222222222,20.7268,22.2188,21.5479,314.999998,314.999998,324.999988,324.999988,99.55631428571428,99.50911666666667,99.57818571428571,99.54924285714286,0.07499999999999996,0.004750000000000032,-0.09450000000000003,0.14800000000000013,-0.023333333333326323,-0.05666666666667197,1.4675,1.4660000000000002,38.382999999999996,30.542333333333332,39.867999999999995,35.6745,54.957,36.663,62.924,53.1695,52.838,35.6535,61.431,51.578,51.8935,35.121,61.3565,51.0875,-0.07899999999999996,-0.02450000000000019,0.11606000000000001,0.11489500000000001,0.0,217.82999999999998,217.875,214.48333333333335,214.48333333333335,0.0,0.0
30,0.0,0.0,0.0,1.0,1.0,0.0,0.0,1.0,0.0,100.0,1.0,1.1856,26.0,0.0,0.0,0.0,59.999996,0.0,26.0,26.0,26.0,26.0,0.03937499999999994,0.2521,0.01085,301.4375,-2.75225,-2.67725,-1.3617,-1.4184444444444444,-173.93,215.775,190.33925,0.0,0.0,0.0,0.0,0.060733333333333306,-5.498166666666667,-5.498166666666667,-0.7694,0.873,-0.004249999999999865,-0.8700000000000001,69.732,0.02210000000000001,-0.42150000000000004,-0.2060000000000004,100.0,1.0,1.0,214.96,0.0,0.0,0.0,0.0,0.0,0.0,0.0,9111.4,0.0,55.0,5.0,251.01333333333332,0.0,0.0,0.0,0.0,0.0,0.0,1.0,0.0,1.5060000000000002,1.5060000000000002,0.0,0.0,0.0,55.0,616.79921,10000.0,85.000001,85.000001,85.000001,85.000001,395.0,0.0,0.0,0.0,1.0,166.665,55.984,55.984,61.63,61.63,34.0,-27.34,27.402,-26.32,28.2275,0.0,1781.706,-0.370000000000001,100.0,23.8885,23.983,29.137,29.508000000000003,0.0,0.0,100.0,0.0,0.0,0.0,0.0,3379.5714285714284,3153.3,4238.142857142857,4143.7,304.6015,304.6015,314.7085,314.51125,21.990666666666666,20.7329,22.2298,21.5572,314.999998,314.999998,324.999988,324.999988,99.55632857142857,99.50911666666667,99.57832857142857,99.54937142857143,0.07125000000000004,0.0004999999999999449,-0.09916666666666663,0.133,-0.05833333333333002,-0.054999999999999716,1.492,1.4900000000000002,38.441,30.580666666666666,39.936,35.7325,54.949,36.699,62.9475,53.226,52.83,35.6865,61.453,51.632999999999996,51.885,35.1525,61.376,51.1415,-0.08250000000000002,-0.026499999999999968,0.11000000000000001,0.10897000000000001,0.0,218.305,218.31,214.96,214.96,0.0,0.0
31,0.0,0.0,0.0,1.0,1.0,0.0,0.0,1.0,0.0,100.0,1.0,1.1856,26.0,0.0,0.0,0.0,59.999996,0.0,26.0,26.0,26.0,26.0,0.016874999999999973,0.2570000000000001,-0.002925,301.3915,-2.85435,-2.668125,-1.40135,-1.416111111111111,-170.37,215.765,190.31375,0.0,0.0,0.0,0.0,0.06279999999999997,-5.498166666666667,-5.498166666666667,-0.7549,-0.48649999999999993,0.003249999999999975,0.756,69.86500000000001,0.024399999999999977,-0.429325,-0.3639999999999999,100.0,1.0,1.0,215.25666666666666,0.0,0.0,0.0,0.0,0.0,0.0,0.0,9123.9,0.0,55.0,5.0,251.49333333333334,1.0,0.0,0.0,0.0,0.0,0.0,1.0,0.0,1.5569999999999986,1.5569999999999986,0.0,0.0,1.0,55.0,616.79921,10000.0,85.000001,85.000001,85.000001,85.000001,395.0,0.0,0.0,0.0,1.0,166.665,56.656,56.656,60.379,60.379,34.0,-25.275,29.462,-26.406666666666666,31.0225,0.0,1781.655,-0.375,100.0,23.5845,23.639,29.857,29.8505,0.0,0.0,100.0,0.0,0.0,0.0,0.0,3082.714285714286,3356.3,4269.142857142857,4364.8,305.5085,304.363,314.4585,314.166,21.999777777777776,20.7389,22.2411,21.5668,314.999998,314.999998,324.999988,324.999988,99.55632857142857,99.50913333333334,99.57847142857143,99.54952857142857,0.07600000000000007,0.014499999999999957,-0.07899999999999996,0.15116666666666667,-0.036666666666668846,-0.051666666666669414,1.449,1.431,38.498000000000005,30.618333333333332,40.007,35.792500000000004,54.938,36.735,62.978,53.289500000000004,52.82,35.72,61.482,51.6945,51.8735,35.1845,61.402,51.202,-0.08299999999999996,-0.026499999999999968,0.10700000000000001,0.107825,0.0,218.65,218.675,215.25666666666666,215.25666666666666,0.0,0.0
32,0.0,0.0,0.0,1.0,1.0,0.0,0.0,1.0,0.0,100.0,1.0,1.1856,26.0,0.0,0.0,0.0,59.999996,0.0,26.0,26.0,26.0,26.0,0.015000000000000124,0.2633000000000001,-0.06475,301.9105,-2.75575,-2.777875,-1.44675,-1.3267777777777778,-167.01999999999998,215.755,190.289875,0.0,0.0,0.0,0.0,0.06476666666666653,-5.498166666666667,-5.498166666666667,-0.7739,-0.13450000000000006,-0.025875000000000092,0.10799999999999998,69.985,0.02520000000000011,-0.43465000000000004,-0.36799999999999944,100.0,1.0,1.0,215.74,0.0,0.0,0.0,0.0,0.0,0.0,0.0,9144.4,0.0,55.0,5.0,251.92333333333335,0.0,0.0,0.0,0.0,0.0,0.0,1.0,0.0,1.6050000000000004,1.6050000000000004,0.0,0.0,0.0,55.0,616.79921,10000.0,85.000001,85.000001,85.000001,85.000001,395.0,0.0,0.0,0.0,1.0,333.33500000000004,57.037,57.037,61.508,61.508,34.0,-24.3125,28.177999999999997,-26.236666666666665,28.5325,0.0,1781.605,-0.36499999999999844,100.0,23.51,23.488,29.413,29.4935,0.0,0.0,100.0,0.0,0.0,0.0,0.0,3082.857142857143,3131.1,4204.428571428572,4275.0,305.3955,304.937,314.7975,314.41525,22.008222222222223,20.7445,22.2514,21.575499999999998,314.999998,314.999998,324.999988,324.999988,99.55634285714285,99.50913333333334,99.5786,99.54967142857143,0.08099999999999996,0.01200000000000001,-0.08150000000000002,0.15016666666666678,-0.046666666666666856,-0.061666666666667425,1.515,1.5119999999999996,38.551,30.653333333333336,40.071,35.847,54.927,36.768,63.003,53.3455,52.809,35.751,61.5035,51.748,51.861999999999995,35.2155,61.421,51.2585,-0.08250000000000002,-0.021500000000000075,0.10257000000000001,0.10545500000000001,0.0,219.05,219.06,215.74,215.74,0.0,0.0
33,0.0,0.0,0.0,1.0,1.0,0.0,0.0,1.0,0.0,100.0,1.0,1.1856,26.0,0.0,0.0,0.0,59.999996,0.0,26.0,26.0,26.0,26.0,0.021374999999999922,0.25670000000000015,-0.03875,302.063,-2.7917,-2.7737499999999997,-1.38955,-1.4114444444444443,-163.64999999999998,215.7475,190.264625,0.0,0.0,0.0,0.0,0.06673333333333331,-5.498166666666667,-5.498166666666667,-0.7832,-0.2755000000000001,-0.02187500000000009,1.395,70.108,0.025700000000000056,-0.420425,-0.3020000000000005,100.0,1.0,1.0,216.08333333333331,0.0,0.0,0.0,0.0,0.0,0.0,0.0,9158.9,0.0,55.0,5.0,252.36333333333334,1.0,0.0,0.0,0.0,0.0,0.0,1.0,0.0,1.6529999999999987,1.6529999999999987,0.0,0.0,1.0,55.0,616.79921,10000.0,85.000001,85.000001,85.000001,85.000001,395.0,0.0,0.0,0.0,1.0,166.665,57.343,57.343,61.5995,61.5995,34.0,-24.495,27.798,-25.78,29.884999999999998,0.0,1781.56,-0.35999999999999943,100.0,23.379,23.1915,29.322,29.328,0.0,0.0,100.0,0.0,0.0,0.0,0.0,3050.5714285714284,3115.8,4164.0,4292.2,305.5705,305.02225,314.79275,314.31925,22.016777777777776,20.7499,22.2617,21.5843,314.999998,314.999998,324.999988,324.999988,99.55635714285714,99.50913333333334,99.57874285714286,99.54981428571429,0.07499999999999996,0.008499999999999952,-0.09033333333333338,0.14600000000000013,-0.03833333333332689,-0.04999999999999716,1.502,1.4799999999999995,38.605000000000004,30.686999999999998,40.135999999999996,35.902,54.915,36.799,63.0255,53.400999999999996,52.798,35.7795,61.525999999999996,51.8015,51.851,35.241,61.441,51.3075,-0.07899999999999996,-0.026000000000000245,0.11161000000000001,0.10930000000000001,0.0,219.425,219.435,216.08333333333331,216.08333333333331,0.0,0.0
34,0.0,0.0,0.0,1.0,1.0,0.0,0.0,1.0,0.0,100.0,1.0,1.1856,26.0,0.0,0.0,0.0,59.999996,0.0,26.0,26.0,26.0,26.0,0.02287499999999998,0.2599,-0.040825,302.2615,-2.81825,-2.697375,-1.45865,-1.340111111111111,-159.87,215.7375,190.23475,0.0,0.0,0.0,0.0,0.0689333333333334,-5.498166666666667,-5.498166666666667,-0.8134,-0.8540000000000001,0.008124999999999938,1.079,70.245,0.02540000000000009,-0.43062500000000004,-0.2579999999999991,100.0,1.0,1.0,216.49666666666667,0.0,0.0,0.0,0.0,0.0,0.0,0.0,9176.5,0.0,55.0,5.0,252.86,0.0,0.0,0.0,0.0,0.0,0.0,1.0,0.0,1.7070000000000007,1.7070000000000007,0.0,0.0,0.0,55.0,616.79921,10000.0,85.000001,85.000001,85.000001,85.000001,395.0,0.0,0.0,0.0,1.0,166.665,57.587,57.587,61.9505,61.9505,34.0,-23.482499999999998,27.132,-26.299999999999997,28.6625,0.0,1781.503,-0.3550000000000004,100.0,23.278,23.042,29.172,29.450000000000003,0.0,0.0,100.0,0.0,0.0,0.0,0.0,2915.285714285714,3099.9,4088.0,4267.8,305.8415,305.04675,315.01375,314.38825,22.026222222222223,20.7561,22.2733,21.5942,314.999998,314.999998,324.999988,324.999988,99.55637142857142,99.50913333333334,99.5789,99.54997142857142,0.0787500000000001,0.011500000000000066,-0.09333333333333338,0.14700000000000002,-0.036666666666668846,-0.061666666666667425,1.4985,1.4889999999999999,38.664,30.72533333333333,40.208,35.964,54.902,36.8335,63.051,53.465,52.786,35.8115,61.5505,51.864,51.837,35.2715,61.462,51.3685,-0.0814999999999999,-0.026000000000000245,0.11147000000000001,0.111795,0.0,219.835,219.84,216.49666666666667,216.49666666666667,0.0,0.0
35,0.0,0.0,0.0,1.0,1.0,0.0,0.0,1.0,0.0,100.0,1.0,1.1856,26.0,0.0,0.0,0.0,59.999996,0.0,26.0,26.0,26.0,26.0,0.02487499999999998,0.23940000000000006,-0.0726,302.246,-2.7927,-2.701,-1.43055,-1.3295555555555556,-156.49,215.73000000000002,190.2065,0.0,0.0,0.0,0.0,0.07089999999999996,-5.498166666666667,-5.498166666666667,-0.8563000000000001,-0.377,-0.008999999999999897,0.08499999999999996,70.364,0.025800000000000045,-0.44465000000000005,-0.31599999999999984,100.0,1.0,1.0,216.98000000000002,0.0,0.0,0.0,0.0,0.0,0.0,0.0,9197.1,0.0,55.0,5.0,253.29000000000002,1.0,0.0,0.0,0.0,0.0,0.0,1.0,0.0,1.754999999999999,1.754999999999999,0.0,0.0,1.0,55.0,616.79921,10000.0,85.000001,85.000001,85.000001,85.000001,395.0,0.0,0.0,0.0,1.0,333.33500000000004,56.87,56.87,61.8285,61.8285,34.0,-24.5025,30.162,-23.983333333333334,26.4625,0.0,1781.456,-0.245000000000001,100.0,23.1705,23.475,29.022,29.0155,0.0,0.0,100.0,0.0,0.0,0.0,0.0,3064.4285714285716,3389.5,3948.8571428571427,3988.6000000000004,305.4975,304.1835,315.28325,315.0375,22.034444444444446,20.7617,22.2836,21.602899999999998,314.999998,314.999998,324.999988,324.999988,99.55637142857142,99.50913333333334,99.57904285714285,99.55011428571429,0.07950000000000013,0.012750000000000039,-0.07766666666666666,0.15383333333333327,-0.030000000000001137,-0.054999999999999716,1.543,1.5380000000000003,38.716,30.760666666666665,40.272,36.018,54.888999999999996,36.867,63.073499999999996,53.5175,52.772999999999996,35.842,61.5715,51.915,51.824,35.301,61.480000000000004,51.4185,-0.07800000000000007,-0.027000000000000135,0.10848000000000001,0.11567000000000001,0.0,220.195,220.23000000000002,216.98000000000002,216.98000000000002,0.0,0.0
