,ABS Active,ABS Enabled,AID Allow Tire Blankets,AID Auto Blip,AID Auto Clutch,AID Auto Shift,AID Fuel Rate,AID Ideal Line,AID Mech Damage,AID Stability,AID Tire Wear Rate,Air Density,Air Temp,Ballast,Best Lap Delta,Best Lap Time,Brake Bias,Brake Pos,Brake Temp FL,Brake Temp FR,Brake Temp RL,Brake Temp RR,CG Accel Lateral,CG Accel Longitudinal,CG Accel Vertical,CG Height,Camber FL,Camber FR,Camber RL,Camber RR,Car Coord X,Car Coord Y,Car Coord Z,Car Damage Front,Car Damage Left,Car Damage Rear,Car Damage Right,Car Pos Norm,Caster FL,Caster FR,Chassis Pitch Angle,Chassis Pitch Rate,Chassis Roll Angle,Chassis Roll Rate,Chassis Velocity X,Chassis Velocity Y,Chassis Velocity Z,Chassis Yaw Rate,Clutch Pos,DRS Active,DRS Available,Drive Train Speed,ERS Heat Charging,ERS Is Charging,ERS Max Energy,ERS Power Level,ERS Recovery Level,Engine Brake Setting,Engine Limiter,Engine RPM,Flags,Fuel Level,Gear,Ground Speed,HR Sample Clock,In Pit,KERS Charge,KERS Deployed Energy,KERS Input,KERS Max Energy,LR Sample Clock,Lap Invalidated,Lap Time,Lap Time2,Last Lap Time,Last Sector Time,MR Sample Clock,Max Fuel,Max Power,Max RPM,Max Sus Travel FL,Max Sus Travel FR,Max Sus Travel RL,Max Sus Travel RR,Max Torque,Max Turbo Boost,Num Tires Off Track,Penalties Enabled,Position,Raw Data Sample Rate,Ride Height FL,Ride Height FR,Ride Height RL,Ride Height RR,Road Temp,Self Align Torque FL,Self Align Torque FR,Self Align Torque RL,Self Align Torque RR,Session Lap Count,Session Time Left,Steering Angle,Surface Grip,Suspension Travel FL,Suspension Travel FR,Suspension Travel RL,Suspension Travel RR,TC Active,TC Enabled,Throttle Pos,Tire Dirt Level FL,Tire Dirt Level FR,Tire Dirt Level RL,Tire Dirt Level RR,Tire Load FL,Tire Load FR,Tire Load RL,Tire Load RR,Tire Loaded Radius FL,Tire Loaded Radius FR,Tire Loaded Radius RL,Tire Loaded Radius RR,Tire Pressure FL,Tire Pressure FR,Tire Pressure RL,Tire Pressure RR,Tire Radius FL,Tire Radius FR,Tire Radius RL,Tire Radius RR,Tire Rubber Grip FL,Tire Rubber Grip FR,Tire Rubber Grip RL,Tire Rubber Grip RR,Tire Slip Angle FL,Tire Slip Angle FR,Tire Slip Angle RL,Tire Slip Angle RR,Tire Slip Ratio FL,Tire Slip Ratio FR,Tire Slip Ratio RL,Tire Slip Ratio RR,Tire Temp Core FL,Tire Temp Core FR,Tire Temp Core RL,Tire Temp Core RR,Tire Temp Inner FL,Tire Temp Inner FR,Tire Temp Inner RL,Tire Temp Inner RR,Tire Temp Middle FL,Tire Temp Middle FR,Tire Temp Middle RL,Tire Temp Middle RR,Tire Temp Outer FL,Tire Temp Outer FR,Tire Temp Outer RL,Tire Temp Outer RR,Toe In FL,Toe In FR,Toe In RL,Toe In RR,Turbo Boost,Wheel Angular Speed FL,Wheel Angular Speed FR,Wheel Angular Speed RL,Wheel Angular Speed RR,Wind Direction,Wind Speed
0,0.0,0.0,0.0,1.0,1.0,0.0,0.0,1.0,0.0,100.0,1.0,1.1856,26.0,0.0,0.0,0.0,59.99999,0.0,26.0,26.0,26.0,26.0,-0.06887500000000002,0.30290000000000017,0.07036666666666666,304.199,-2.7988,-2.7175000000000002,-1.34305,-1.3683,-275.51,216.3275,190.99675,0.0,0.0,0.0,0.0,0.0016999999999999238,-5.498166666666667,-5.498166666666667,-0.7283,0.88,-0.001374999999999904,-0.6579999999999999,65.58,-0.03199999999999992,-0.4140666666666667,0.9725000000000001,100.0,1.0,1.0,202.55333333333334,0.0,0.0,0.0,0.0,0.0,0.0,0.0,8585.5,0.0,55.0,5.0,236.06,0.0,0.0,0.0,0.0,0.0,0.0,0.0,0.0,0.006000000000000227,0.006000000000000227,0.0,0.0,0.0,55.0,616.79921,10000.0,85.0,85.0,85.0,85.0,395.0,0.0,0.0,0.0,1.0,20.0,57.4495,57.4495,64.331,64.331,34.0,-28.025,26.07,-26.36,21.0675,0.0,1782.552,0.7850000000000001,100.0,22.6345,22.437,26.152,26.152,0.0,0.0,100.0,0.0,0.0,0.0,0.0,2992.4285714285716,3397.1,3930.375,3818.7,305.751,304.11825,315.33175,315.303,21.675444444444445,20.5785,21.93911111111111,21.2765,314.99999,314.99999,324.99998,324.99998,99.55381428571428,99.50931666666666,99.57631428571429,99.54481428571428,-0.033333333333333215,-0.07974999999999999,-0.15949999999999998,0.06516666666666682,-0.05799999999999983,-0.05833333333333002,1.577,1.616,36.472,29.615499999999997,38.119,33.978,54.498000000000005,35.823,62.82,51.2285,52.426,34.9255,61.3735,49.735,51.539,34.481,61.3985,49.305,0.015000000000000124,-0.10899999999999999,0.11345000000000001,0.10098000000000001,0.0,205.50333333333333,205.43,202.55333333333334,202.55333333333334,0.0,0.0
1,0.0,0.0,0.0,1.0,1.0,0.0,0.0,1.0,0.0,100.0,1.0,1.1856,26.0,0.0,0.0,0.0,59.999996,0.0,26.0,26.0,26.0,26.0,-0.11224999999999996,0.31330000000000013,0.04816666666666667,302.9635,-2.7067,-2.831875,-1.3418,-1.3216,-271.97,216.3225,190.97525,0.0,0.0,0.0,0.0,0.003766666666666585,-5.498166666666667,-5.498166666666667,-0.6762999999999999,-0.40700000000000003,-0.05049999999999999,-0.126,65.746,-0.05019999999999991,-0.40463333333333334,1.4175000000000004,100.0,1.0,1.0,202.65,0.0,0.0,0.0,0.0,0.0,0.0,0.0,8589.6,0.0,55.0,5.0,236.65666666666667,1.0,0.0,0.0,0.0,0.0,0.0,0.0,0.0,0.05999999999999872,0.05999999999999872,0.0,0.0,1.0,55.0,616.79921,10000.0,85.000001,85.000001,85.000001,85.000001,395.0,0.0,0.0,0.0,1.0,166.665,58.1665,58.1665,62.820499999999996,62.820499999999996,34.0,-28.6575,21.085,-32.019999999999996,25.91,0.0,1782.499,0.875,100.0,22.8875,22.218,27.989,27.4285,0.0,0.0,100.0,0.0,0.0,0.0,0.0,3053.4285714285716,2802.8,4382.5,4664.8,305.3905,305.95675,314.154,313.14675,21.685555555555556,20.5843,21.951333333333334,21.286,314.999998,314.999998,324.999988,324.999988,99.55382857142857,99.50933333333333,99.57647142857142,99.54497142857143,-0.045333333333333226,-0.09775,-0.17699999999999994,0.05016666666666669,-0.054999999999999716,-0.03833333333332689,1.3889999999999998,1.443,36.535,29.652,38.196,34.0375,54.488,35.8615,62.8545,51.2965,52.417,34.961,61.406,49.8005,51.528999999999996,34.5145,61.4285,49.3695,0.028000000000000025,-0.11949999999999994,0.10339000000000001,0.11665500000000001,0.0,206.02666666666667,205.885,202.65,202.65,0.0,0.0
2,0.0,0.0,0.0,1.0,1.0,0.0,0.0,1.0,0.0,100.0,1.0,1.1856,26.0,0.0,0.0,0.0,59.999996,0.0,26.0,26.0,26.0,26.0,-0.12512499999999993,0.2977000000000001,-0.0149,304.123,-2.70625,-2.84025,-1.323,-1.3995,-268.61,216.3125,190.956875,0.0,0.0,0.0,0.0,0.005699999999999927,-5.498166666666667,-5.498166666666667,-0.7222,-0.13349999999999995,-0.02400000000000002,1.767,65.889,-0.06969999999999998,-0.46773333333333333,1.6225000000000005,100.0,1.0,1.0,203.56333333333333,0.0,0.0,0.0,0.0,0.0,0.0,0.0,8628.4,0.0,55.0,5.0,237.17333333333335,0.0,0.0,0.0,0.0,0.0,0.0,0.0,0.0,0.11100000000000065,0.11100000000000065,0.0,0.0,0.0,55.0,616.79921,10000.0,85.000001,85.000001,85.000001,85.000001,395.0,0.0,0.0,0.0,1.0,166.665,57.602000000000004,57.602000000000004,65.0785,65.0785,34.0,-31.747500000000002,21.57,-27.2125,18.1625,0.0,1782.448,0.740000000000002,100.0,22.9835,22.226,27.512999999999998,26.860500000000002,0.0,0.0,100.0,0.0,0.0,0.0,0.0,3310.285714285714,2917.8,3709.375,3689.3,304.726,305.475,315.8005,315.693,21.695333333333334,20.5896,21.962666666666667,21.2948,314.999998,314.999998,324.999988,324.999988,99.55382857142857,99.50935,99.5766,99.5451,-0.055333333333333234,-0.11675000000000002,-0.22466666666666657,0.01633333333333331,-0.06099999999999994,-0.036666666666668846,1.6055000000000001,1.6600000000000001,36.596000000000004,29.685000000000002,38.266999999999996,34.092,54.480999999999995,35.896,62.8825,51.353,52.41,34.9925,61.432,49.855000000000004,51.521,34.5445,61.452,49.423,0.0040000000000000036,-0.10499999999999998,0.10848000000000001,0.11323500000000002,0.0,206.44333333333333,206.32,203.56333333333333,203.56333333333333,0.0,0.0
3,0.0,0.0,0.0,1.0,1.0,0.0,0.0,1.0,0.0,100.0,1.0,1.1856,26.0,0.0,0.0,0.0,59.999996,0.0,26.0,26.0,26.0,26.0,-0.139,0.3284,0.03013333333333333,304.413,-2.82965,-2.744625,-1.3392,-1.3819,-265.64,216.3025,190.94,0.0,0.0,0.0,0.0,0.007433333333333292,-5.498166666666667,-5.498166666666667,-0.6962999999999999,0.27949999999999997,0.012750000000000039,0.1200000000000001,66.023,-0.08379999999999999,-0.4165666666666667,1.2000000000000002,100.0,1.0,1.0,203.82333333333332,0.0,0.0,0.0,0.0,0.0,0.0,0.0,8639.4,0.0,55.0,5.0,237.65333333333334,1.0,0.0,0.0,0.0,0.0,0.0,0.0,0.0,0.1559999999999988,0.1559999999999988,0.0,0.0,1.0,55.0,616.79921,10000.0,85.000001,85.000001,85.000001,85.000001,395.0,0.0,0.0,0.0,1.0,166.665,58.9295,58.9295,63.8735,63.8735,34.0,-26.085,20.5325,-30.1475,20.735,0.0,1782.402,0.5650000000000013,100.0,22.557,22.030333333333335,27.13,26.576,0.0,0.0,100.0,0.0,0.0,0.0,0.0,2739.5714285714284,2856.3,4043.875,4015.9,306.3965,305.78725,315.016,314.9085,21.703555555555557,20.5944,21.972444444444445,21.3025,314.999998,314.999998,324.999988,324.999988,99.55382857142857,99.50936666666666,99.57674285714286,99.54522857142857,-0.045333333333333226,-0.10624999999999996,-0.21499999999999997,0.029166666666666785,-0.06799999999999784,-0.045000000000001705,1.5550000000000002,1.5949999999999998,36.647,29.715,38.328,34.1405,54.47,35.928,62.903999999999996,51.4055,52.4,35.022,61.4525,49.9055,51.510999999999996,34.5725,61.47,49.473,-0.0044999999999999485,-0.09549999999999992,0.10966500000000001,0.11792500000000002,0.0,206.9,206.78,203.82333333333332,203.82333333333332,0.0,0.0
4,0.0,0.0,0.0,1.0,1.0,0.0,0.0,1.0,0.0,100.0,1.0,1.1856,26.0,0.0,0.0,0.0,59.999996,0.0,26.0,26.0,26.0,26.0,-0.13824999999999998,0.29610000000000003,0.013266666666666666,304.2605,-2.7534,-2.7984999999999998,-1.34375,-1.3946,-262.27,216.28750000000002,190.919875,0.0,0.0,0.0,0.0,0.009399999999999964,-5.498166666666667,-5.498166666666667,-0.727,-0.7905,-0.06475000000000009,-1.815,66.172,-0.08129999999999993,-0.4379,1.1349999999999998,100.0,1.0,1.0,204.29666666666668,0.0,0.0,0.0,0.0,0.0,0.0,0.0,8659.4,0.0,55.0,5.0,238.19333333333333,0.0,0.0,0.0,0.0,0.0,0.0,0.0,0.0,0.20700000000000074,0.20700000000000074,0.0,0.0,0.0,55.0,616.79921,10000.0,85.000001,85.000001,85.000001,85.000001,395.0,0.0,0.0,0.0,1.0,166.665,58.1665,58.1665,64.148,64.148,34.0,-31.38,21.0275,-30.169999999999998,18.11,0.0,1782.352,0.5850000000000009,100.0,22.397,22.110333333333333,27.322,26.543,0.0,0.0,100.0,0.0,0.0,0.0,0.0,3261.5714285714284,2843.3,4100.0,3597.1,305.06,305.67225,314.91675,315.8465,21.712666666666667,20.5997,21.983777777777778,21.3112,314.999998,314.999998,324.999988,324.999988,99.55384285714285,99.50936666666666,99.57688571428571,99.54535714285714,-0.05600000000000005,-0.10649999999999993,-0.20733333333333337,0.023166666666666558,-0.04899999999999949,-0.054999999999999716,1.5859999999999999,1.6,36.704,29.7485,38.399,34.195,54.457,35.9625,62.9335,51.462,52.387,35.0535,61.480000000000004,49.960499999999996,51.497,34.6025,61.4955,49.5265,-0.004999999999999893,-0.08599999999999985,0.10438000000000001,0.10837500000000001,0.0,207.29000000000002,207.195,204.29666666666668,204.29666666666668,0.0,0.0
5,0.0,0.0,0.0,1.0,1.0,0.0,0.0,1.0,0.0,100.0,1.0,1.1856,26.0,0.0,0.0,0.0,59.999996,0.0,26.0,26.0,26.0,26.0,-0.14474999999999993,0.2922,0.010366666666666668,304.077,-2.7646,-2.8155,-1.3361,-1.3783,-258.89,216.26999999999998,190.89925,0.0,0.0,0.0,0.0,0.011366666666666525,-5.498166666666667,-5.498166666666667,-0.7265999999999999,0.3385,-0.05774999999999997,1.488,66.319,-0.08039999999999992,-0.4354,1.0099999999999998,100.0,1.0,1.0,204.72,0.0,0.0,0.0,0.0,0.0,0.0,0.0,8677.4,0.0,55.0,5.0,238.72333333333333,1.0,0.0,0.0,0.0,0.0,0.0,0.0,0.0,0.2579999999999991,0.2579999999999991,0.0,0.0,1.0,55.0,616.79921,10000.0,85.000001,85.000001,85.000001,85.000001,395.0,0.0,0.0,0.0,1.0,166.665,58.1205,58.1205,64.316,64.316,34.0,-29.13,22.33,-29.525,20.3975,0.0,1782.301,0.26000000000000156,100.0,22.8915,22.069,27.282,26.3525,0.0,0.0,100.0,0.0,0.0,0.0,0.0,3096.0,2921.1,4065.375,3984.5,305.2795,305.647,314.983,315.01375,21.72222222222222,20.6052,21.995,21.3198,314.999998,314.999998,324.999988,324.999988,99.55384285714285,99.50938333333333,99.57701428571428,99.5455,-0.03299999999999992,-0.08775,-0.19899999999999995,0.026999999999999913,-0.06599999999999895,-0.046666666666666856,1.5539999999999998,1.5859999999999999,36.763999999999996,29.7825,38.469,34.249,54.449,35.9985,62.9615,51.5185,52.379999999999995,35.0865,61.506,50.013999999999996,51.489,34.6335,61.519,49.579499999999996,-0.028000000000000025,-0.07100000000000017,0.10225000000000001,0.107435,0.0,207.79333333333335,207.695,204.72,204.72,0.0,0.0
6,0.0,0.0,0.0,1.0,1.0,0.0,0.0,1.0,0.0,100.0,1.0,1.1856,26.0,0.0,0.0,0.0,59.999996,0.0,26.0,26.0,26.0,26.0,-0.09775,0.3017000000000001,-0.005633333333333334,303.94,-2.74,-2.835875,-1.38445,-1.3694,-255.51,216.2475,190.87875,0.0,0.0,0.0,0.0,0.013333333333333308,-5.498166666666667,-5.498166666666667,-0.7162999999999999,0.20850000000000002,-0.039000000000000146,-0.756,66.468,-0.07339999999999991,-0.4316666666666667,0.7050000000000001,100.0,1.0,1.0,205.16333333333333,0.0,0.0,0.0,0.0,0.0,0.0,0.0,8696.1,0.0,55.0,5.0,239.25666666666666,0.0,0.0,0.0,0.0,0.0,0.0,0.0,0.0,0.30900000000000105,0.30900000000000105,0.0,0.0,0.0,55.0,616.79921,10000.0,85.000001,85.000001,85.000001,85.000001,395.0,0.0,0.0,0.0,1.0,166.665,58.1055,58.1055,63.98,63.98,34.0,-28.7025,22.322499999999998,-30.9375,20.295,0.0,1782.25,-0.05999999999999872,100.0,22.6155,22.391666666666666,27.245,26.8135,0.0,0.0,100.0,0.0,0.0,0.0,0.0,3125.714285714286,2849.6,4102.125,3931.7,305.3625,305.5625,314.97475,315.03575,21.731666666666666,20.6107,22.006333333333334,21.3287,314.999998,314.999998,324.999988,324.999988,99.55385714285714,99.5094,99.57715714285715,99.54564285714285,-0.025666666666666726,-0.08499999999999996,-0.20933333333333337,0.03133333333333321,-0.053000000000000824,-0.03833333333332689,1.541,1.5819999999999999,36.823,29.817,38.54,34.3045,54.438,36.033500000000004,62.989,51.578,52.369,35.1185,61.532,50.072,51.478,34.664500000000004,61.542,49.635999999999996,-0.04949999999999988,-0.052999999999999936,0.11217,0.11292500000000001,0.0,208.2266666666667,208.14,205.16333333333333,205.16333333333333,0.0,0.0
7,0.0,0.0,0.0,1.0,1.0,0.0,0.0,1.0,0.0,100.0,1.0,1.1856,26.0,0.0,0.0,0.0,59.999996,0.0,26.0,26.0,26.0,26.0,-0.07074999999999998,0.28890000000000016,0.02766666666666667,303.7565,-2.7063,-2.7753750000000004,-1.33955,-1.4179,-252.31,216.225,190.8595,0.0,0.0,0.0,0.0,0.01516666666666655,-5.498166666666667,-5.498166666666667,-0.7215,-0.12349999999999994,-0.03312500000000007,-0.31899999999999995,66.606,-0.05689999999999995,-0.4427666666666667,0.41500000000000004,100.0,1.0,1.0,205.55333333333334,0.0,0.0,0.0,0.0,0.0,0.0,0.0,8712.7,0.0,55.0,5.0,239.76,1.0,0.0,0.0,0.0,0.0,0.0,0.0,0.0,0.3569999999999993,0.3569999999999993,0.0,0.0,1.0,55.0,616.79921,10000.0,85.000001,85.000001,85.000001,85.000001,395.0,0.0,0.0,0.0,1.0,166.665,57.7085,57.7085,64.1935,64.1935,34.0,-28.77,23.4325,-28.502499999999998,22.0325,0.0,1782.202,-0.21000000000000085,100.0,22.743,22.381999999999998,27.292,26.9925,0.0,0.0,100.0,0.0,0.0,0.0,0.0,3235.857142857143,2930.0,4049.625,3920.8,304.9585,305.35475,315.044,314.99825,21.740444444444446,20.6158,22.017,21.3371,314.999998,314.999998,324.999988,324.999988,99.55385714285714,99.5094,99.5773,99.54577142857143,-0.0040000000000000036,-0.06125000000000003,-0.1808333333333334,0.051833333333333176,-0.06099999999999994,-0.051666666666669414,1.5550000000000002,1.561,36.878,29.849,38.605999999999995,34.357,54.427,36.065,63.0155,51.6345,52.358999999999995,35.1475,61.5565,50.126,51.467,34.692,61.564499999999995,49.6895,-0.0605,-0.034499999999999975,0.10544500000000001,0.1111,0.0,208.64333333333332,208.60000000000002,205.55333333333334,205.55333333333334,0.0,0.0
8,0.0,0.0,0.0,1.0,1.0,0.0,0.0,1.0,0.0,100.0,1.0,1.1856,26.0,0.0,0.0,0.0,59.999996,0.0,26.0,26.0,26.0,26.0,-0.02862500000000001,0.29259999999999997,-0.006233333333333334,304.1075,-2.7959,-2.769625,-1.3235000000000001,-1.3634,-248.71,216.1975,190.83775,0.0,0.0,0.0,0.0,0.01726666666666654,-5.498166666666667,-5.498166666666667,-0.7275,-0.5509999999999999,-0.014000000000000234,-0.827,66.762,-0.0361999999999999,-0.4402333333333333,-0.03750000000000009,100.0,1.0,1.0,206.00666666666666,0.0,0.0,0.0,0.0,0.0,0.0,0.0,8731.9,0.0,55.0,5.0,240.32,0.0,0.0,0.0,0.0,0.0,0.0,0.0,0.0,0.41100000000000136,0.41100000000000136,0.0,0.0,0.0,55.0,616.79921,10000.0,85.000001,85.000001,85.000001,85.000001,395.0,0.0,0.0,0.0,1.0,166.665,58.487,58.487,63.7665,63.7665,34.0,-26.3175,24.1875,-27.465,23.0875,0.0,1782.148,-0.370000000000001,100.0,22.214,22.336,27.216,26.9825,0.0,0.0,100.0,0.0,0.0,0.0,0.0,3019.4285714285716,2925.7,4050.875,3958.9,305.803,305.4215,315.03575,314.898,21.75022222222222,20.6217,22.02888888888889,21.3465,314.999998,314.999998,324.999988,324.999988,99.55385714285714,99.5094,99.57745714285714,99.54591428571429,0.014333333333333087,-0.03774999999999995,-0.16166666666666663,0.07950000000000013,-0.05600000000000094,-0.054999999999999716,1.5305,1.528,36.939,29.8855,38.681,34.416,54.413,36.0995,63.0435,51.697,52.345,35.1795,61.583,50.1865,51.452,34.722,61.5875,49.749,-0.07099999999999995,-0.014000000000000234,0.11312000000000001,0.10552500000000001,0.0,209.08666666666667,209.07999999999998,206.00666666666666,206.00666666666666,0.0,0.0
9,0.0,0.0,0.0,1.0,1.0,0.0,0.0,1.0,0.0,100.0,1.0,1.1856,26.0,0.0,0.0,0.0,59.999996,0.0,26.0,26.0,26.0,26.0,-0.026374999999999926,0.28259999999999996,0.027266666666666668,303.8175,-2.77105,-2.778625,-1.37185,-1.3502,-245.7,216.1725,190.81925,0.0,0.0,0.0,0.0,0.019033333333333347,-5.498166666666667,-5.498166666666667,-0.7303999999999999,0.657,-0.019375000000000142,0.782,66.888,-0.017699999999999938,-0.43760000000000004,-0.20750000000000002,100.0,1.0,1.0,206.50333333333333,0.0,0.0,0.0,0.0,0.0,0.0,0.0,8753.0,0.0,55.0,5.0,240.7733333333333,1.0,0.0,0.0,0.0,0.0,0.0,0.0,0.0,0.4559999999999995,0.4559999999999995,0.0,0.0,1.0,55.0,616.79921,10000.0,85.000001,85.000001,85.000001,85.000001,395.0,0.0,0.0,0.0,1.0,333.33500000000004,57.3885,57.3885,64.7585,64.7585,34.0,-27.465,26.9925,-24.55,24.18,0.0,1782.102,-0.4499999999999993,100.0,22.943,22.445333333333334,26.978,26.7915,0.0,0.0,100.0,0.0,0.0,0.0,0.0,3244.142857142857,3094.3,3893.25,3972.8,304.878,305.03175,315.46675,315.05475,21.758555555555557,20.6267,22.038666666666668,21.3543,314.999998,314.999998,324.999988,324.999988,99.55385714285714,99.50941666666667,99.57757142857143,99.54604285714285,0.04366666666666674,-0.006750000000000034,-0.12249999999999994,0.11216666666666675,-0.045999999999999375,-0.061666666666667425,1.605,1.5939999999999999,36.991,29.9165,38.742000000000004,34.4645,54.403,36.1295,63.0635,51.748,52.336,35.207,61.602000000000004,50.2355,51.443,34.7485,61.6045,49.7975,-0.08299999999999996,-0.009500000000000064,0.10242000000000001,0.11138500000000001,0.0,209.49666666666667,209.51,206.50333333333333,206.50333333333333,0.0,0.0
10,0.0,0.0,0.0,1.0,1.0,0.0,0.0,1.0,0.0,100.0,1.0,1.1856,26.0,0.0,0.0,0.0,59.999996,0.0,26.0,26.0,26.0,26.0,0.018000000000000016,0.28780000000000006,0.0357,303.726,-2.7906,-2.759875,-1.3565,-1.3403,-242.09,216.14249999999998,190.79725,0.0,0.0,0.0,0.0,0.021133333333333337,-5.498166666666667,-5.498166666666667,-0.7047,-0.6014999999999999,0.02587499999999987,1.8050000000000002,67.045,0.0015000000000000568,-0.4238,-0.5299999999999998,100.0,1.0,1.0,206.75,0.0,0.0,0.0,0.0,0.0,0.0,0.0,8763.4,0.0,55.0,5.0,241.34,0.0,0.0,0.0,0.0,0.0,0.0,1.0,0.0,0.509999999999998,0.509999999999998,0.0,0.0,0.0,55.0,616.79921,10000.0,85.000001,85.000001,85.000001,85.000001,395.0,0.0,0.0,0.0,1.0,166.665,58.6855,58.6855,63.0645,63.0645,34.0,-22.025,26.0825,-26.1475,28.310000000000002,0.0,1782.049,-0.620000000000001,100.0,22.5325,22.249333333333333,27.535,27.4155,0.0,0.0,100.0,0.0,0.0,0.0,0.0,2755.142857142857,2969.9,4164.25,4306.3,306.366,305.4805,314.684,314.1655,21.768333333333334,20.6326,22.05077777777778,21.364,314.999998,314.999998,324.999988,324.999988,99.55388571428571,99.50941666666667,99.57772857142857,99.5462,0.06599999999999984,0.009000000000000119,-0.10483333333333333,0.1333333333333333,-0.054999999999999716,-0.046666666666666856,1.4855,1.464,37.052,29.9535,38.817,34.525,54.391999999999996,36.1635,63.0935,51.8155,52.325,35.238,61.6295,50.3005,51.431,34.778,61.6295,49.861000000000004,-0.09549999999999992,-0.002000000000000224,0.108615,0.10870500000000001,0.0,209.96,209.98000000000002,206.75,206.75,0.0,0.0
11,0.0,0.0,0.0,1.0,1.0,0.0,0.0,1.0,0.0,100.0,1.0,1.1856,26.0,0.0,0.0,0.0,59.999996,0.0,26.0,26.0,26.0,26.0,0.028124999999999956,0.27770000000000006,-0.06743333333333335,304.306,-2.7874,-2.722625,-1.4029500000000001,-1.3212000000000002,-238.87,216.1175,190.77775,0.0,0.0,0.0,0.0,0.022599999999999953,-5.498166666666667,-5.498166666666667,-0.7496,-0.393,0.0402499999999999,0.10499999999999998,67.17699999999999,0.019100000000000117,-0.46123333333333333,-0.6825000000000001,100.0,1.0,1.0,207.47,0.0,0.0,0.0,0.0,0.0,0.0,0.0,8793.9,0.0,55.0,5.0,241.81333333333333,1.0,0.0,0.0,0.0,0.0,0.0,1.0,0.0,0.5579999999999998,0.5579999999999998,0.0,0.0,1.0,55.0,616.79921,10000.0,85.000001,85.000001,85.000001,85.000001,395.0,0.0,0.0,0.0,1.0,333.33500000000004,57.953,57.953,64.911,64.911,34.0,-23.785,28.7825,-20.729999999999997,24.552500000000002,0.0,1782.0,-0.625,100.0,22.4595,22.47833333333333,26.94,27.195,0.0,0.0,100.0,0.0,0.0,0.0,0.0,2953.4285714285716,3180.5,3591.375,3820.8,305.7635,304.7705,316.18125,315.35725,21.776888888888887,20.6379,22.061222222222224,21.3724,314.999998,314.999998,324.999988,324.999988,99.55388571428571,99.50941666666667,99.57785714285714,99.54632857142857,0.06833333333333336,0.02774999999999994,-0.08233333333333337,0.15266666666666673,-0.04499999999999815,-0.05333333333332746,1.653,1.629,37.105999999999995,29.987000000000002,38.882,34.5775,54.379999999999995,36.195,63.113,51.8715,52.314,35.2675,61.647999999999996,50.3545,51.42,34.8055,61.644999999999996,49.914500000000004,-0.09050000000000002,0.0024999999999999467,0.11023000000000001,0.10717000000000002,0.0,210.33666666666664,210.38,207.47,207.47,0.0,0.0
12,0.0,0.0,0.0,1.0,1.0,0.0,0.0,1.0,0.0,100.0,1.0,1.1856,26.0,0.0,0.0,0.0,59.999996,0.0,26.0,26.0,26.0,26.0,0.0535000000000001,0.2942,0.0017666666666666668,303.787,-2.8245,-2.73025,-1.3509,-1.333,-235.64,216.0925,190.757125,0.0,0.0,0.0,0.0,0.025466666666666526,-5.498166666666667,-5.498166666666667,-0.7384999999999999,0.4155,0.014499999999999957,0.6839999999999999,67.315,0.033600000000000074,-0.4323,-0.7124999999999999,100.0,1.0,1.0,207.71,0.0,0.0,0.0,0.0,0.0,0.0,0.0,8804.1,0.0,55.0,5.0,242.30666666666667,0.0,0.0,0.0,0.0,0.0,0.0,1.0,0.0,0.6059999999999981,0.6059999999999981,0.0,0.0,0.0,55.0,616.79921,10000.0,85.000001,85.000001,85.000001,85.000001,395.0,0.0,0.0,0.0,1.0,166.665,57.846000000000004,57.846000000000004,63.736,63.736,34.0,-23.4575,29.435,-22.990000000000002,27.6675,0.0,1781.953,-0.6699999999999982,100.0,22.5305,22.567666666666668,26.951,26.945999999999998,0.0,0.0,100.0,0.0,0.0,0.0,0.0,2999.142857142857,3177.5,4044.5,4085.5,305.6325,304.80675,315.047,314.772,21.785555555555554,20.6434,22.071666666666665,21.3808,314.999998,314.999998,324.999988,324.999988,99.55388571428571,99.50941666666667,99.578,99.54645714285714,0.09466666666666645,0.043500000000000094,-0.07050000000000001,0.1641666666666668,-0.05999999999999872,-0.06666666666666998,1.572,1.5379999999999998,37.16,30.021,38.948,34.629999999999995,54.370000000000005,36.228,63.1355,51.927,52.305,35.298,61.669,50.408,51.409,34.8345,61.6635,49.9675,-0.09899999999999998,0.00649999999999995,0.10819500000000001,0.10148000000000001,0.0,210.78333333333336,210.86,207.71,207.71,0.0,0.0
13,0.0,0.0,0.0,1.0,1.0,0.0,0.0,1.0,0.0,100.0,1.0,1.1856,26.0,0.0,0.0,0.0,59.999996,0.0,26.0,26.0,26.0,26.0,0.07512500000000011,0.28710000000000013,0.047733333333333336,303.2835,-2.77705,-2.749,-1.39715,-1.3118,-232.0,216.0675,190.733875,0.0,0.0,0.0,0.0,0.026999999999999913,-5.498166666666667,-5.498166666666667,-0.7227,-0.03950000000000009,0.02562500000000001,1.1480000000000001,67.468,0.04150000000000009,-0.4310666666666667,-0.8500000000000001,100.0,1.0,1.0,208.05333333333334,0.0,0.0,0.0,0.0,0.0,0.0,0.0,8818.7,0.0,55.0,5.0,242.85666666666668,1.0,0.0,0.0,0.0,0.0,0.0,1.0,0.0,0.6600000000000001,0.6600000000000001,0.0,0.0,1.0,55.0,616.79921,10000.0,85.000001,85.000001,85.000001,85.000001,395.0,0.0,0.0,0.0,1.0,166.665,57.678,57.678,63.385,63.385,34.0,-22.1425,30.085,-23.6425,30.700000000000003,0.0,1781.899,-0.870000000000001,100.0,22.7085,22.653,27.251,27.541,0.0,0.0,100.0,0.0,0.0,0.0,0.0,2988.142857142857,3187.9,4085.625,4372.2,305.608,304.767,314.903,314.03275,21.795333333333332,20.6495,22.083555555555556,21.3905,314.999998,314.999998,324.999988,324.999988,99.55391428571428,99.50943333333333,99.57814285714285,99.54661428571428,0.11566666666666636,0.052999999999999936,-0.05916666666666659,0.1761666666666668,-0.028999999999999915,-0.054999999999999716,1.4994999999999998,1.4769999999999999,37.221000000000004,30.0595,39.022999999999996,34.6905,54.361999999999995,36.2665,63.1625,51.9945,52.296,35.333,61.694,50.4735,51.4,34.868,61.686,50.0315,-0.11499999999999999,0.01550000000000007,0.10233,0.11019500000000002,0.0,211.23666666666668,211.325,208.05333333333334,208.05333333333334,0.0,0.0
14,0.0,0.0,0.0,1.0,1.0,0.0,0.0,1.0,0.0,100.0,1.0,1.1856,26.0,0.0,0.0,0.0,59.999996,0.0,26.0,26.0,26.0,26.0,0.07750000000000012,0.28570000000000007,-0.0017000000000000001,303.5585,-2.8052,-2.697625,-1.4,-1.302,-228.76,216.04500000000002,190.713875,0.0,0.0,0.0,0.0,0.028866666666666596,-5.498166666666667,-5.498166666666667,-0.7363999999999999,-0.2929999999999999,0.04774999999999996,1.138,67.6,0.05069999999999997,-0.45396666666666674,-1.0150000000000001,100.0,1.0,1.0,208.55333333333334,0.0,0.0,0.0,0.0,0.0,0.0,0.0,8839.9,0.0,55.0,5.0,243.33666666666664,0.0,0.0,0.0,0.0,0.0,0.0,1.0,0.0,0.7079999999999984,0.7079999999999984,0.0,0.0,0.0,55.0,616.79921,10000.0,85.000001,85.000001,85.000001,85.000001,395.0,0.0,0.0,0.0,1.0,333.33500000000004,57.724000000000004,57.724000000000004,63.69,63.69,34.0,-21.3625,30.9525,-21.9125,29.3925,0.0,1781.849,-1.0,100.0,22.6515,22.741666666666667,27.231,27.6295,0.0,0.0,100.0,0.0,0.0,0.0,0.0,2912.714285714286,3255.2,3883.375,4189.6,305.8595,304.57625,315.397,314.481,21.804,20.655,22.09411111111111,21.3991,314.999998,314.999998,324.999988,324.999988,99.55391428571428,99.50943333333333,99.57827142857143,99.54674285714286,0.1243333333333334,0.06750000000000012,-0.055333333333333345,0.18683333333333318,-0.03200000000000003,-0.04999999999999716,1.5505,1.5230000000000001,37.275,30.0935,39.088,34.7445,54.354,36.3005,63.1845,52.054,52.289,35.3645,61.7145,50.5305,51.391,34.897999999999996,61.704,50.088,-0.12349999999999994,0.028000000000000025,0.11490500000000001,0.11314,0.0,211.63333333333333,211.69,208.55333333333334,208.55333333333334,0.0,0.0
15,0.0,0.0,0.0,1.0,1.0,0.0,0.0,1.0,0.0,100.0,1.0,1.1856,26.0,0.0,0.0,0.0,59.999996,0.0,26.0,26.0,26.0,26.0,0.10412500000000002,0.2883,-0.0063,303.833,-2.8094,-2.660875,-1.4224,-1.2676,-225.51,216.025,190.69375,0.0,0.0,0.0,0.0,0.03076666666666661,-5.498166666666667,-5.498166666666667,-0.7294,0.34550000000000003,0.07424999999999993,0.9730000000000001,67.732,0.0616000000000001,-0.43660000000000004,-1.2075,100.0,1.0,1.0,208.99666666666667,0.0,0.0,0.0,0.0,0.0,0.0,0.0,8858.7,0.0,55.0,5.0,243.81,1.0,0.0,0.0,0.0,0.0,0.0,1.0,0.0,0.7560000000000002,0.7560000000000002,0.0,0.0,1.0,55.0,616.79921,10000.0,85.000001,85.000001,85.000001,85.000001,395.0,0.0,0.0,0.0,1.0,166.665,58.1055,58.1055,64.026,64.026,34.0,-19.4775,30.545,-20.53,30.3825,0.0,1781.802,-1.0599999999999987,100.0,22.5835,22.671,26.911,27.508499999999998,0.0,0.0,100.0,0.0,0.0,0.0,0.0,2760.285714285714,3199.6,3794.875,4312.9,306.3245,304.7355,315.66275,314.22725,21.812555555555555,20.6605,22.104555555555557,21.4076,314.999998,314.999998,324.999988,324.999988,99.55392857142857,99.50945,99.5784,99.54688571428571,0.14066666666666672,0.08024999999999993,-0.035833333333333384,0.19666666666666677,-0.038000000000000256,-0.061666666666667425,1.5699999999999998,1.532,37.328,30.128,39.153999999999996,34.7975,54.347,36.336,63.204499999999996,52.112,52.282,35.397,61.733000000000004,50.587,51.384,34.9295,61.7195,50.144,-0.13250000000000006,0.038999999999999924,0.110505,0.10742000000000002,0.0,212.06666666666666,212.14499999999998,208.99666666666667,208.99666666666667,0.0,0.0
16,0.0,0.0,0.0,1.0,1.0,0.0,0.0,1.0,0.0,100.0,1.0,1.1856,26.0,0.0,0.0,0.0,59.999996,0.0,26.0,26.0,26.0,26.0,0.12874999999999992,0.2914000000000001,-0.0443,303.833,-2.8715,-2.668875,-1.39395,-1.323,-222.05,216.0075,190.67175,0.0,0.0,0.0,0.0,0.03276666666666661,-5.498166666666667,-5.498166666666667,-0.7482,-0.7505,0.05600000000000005,-1.298,67.874,0.07630000000000003,-0.44570000000000004,-1.2125,100.0,1.0,1.0,209.39666666666668,0.0,0.0,0.0,0.0,0.0,0.0,0.0,8875.5,0.0,55.0,5.0,244.32333333333332,0.0,0.0,0.0,0.0,0.0,0.0,1.0,0.0,0.8069999999999986,0.8069999999999986,0.0,0.0,0.0,55.0,616.79921,10000.0,85.000001,85.000001,85.000001,85.000001,395.0,0.0,0.0,0.0,1.0,166.665,58.0595,58.0595,63.7665,63.7665,34.0,-22.73,30.1425,-20.074999999999996,29.8125,0.0,1781.751,-0.8900000000000006,100.0,22.0285,22.803333333333335,27.009999999999998,27.605,0.0,0.0,100.0,0.0,0.0,0.0,0.0,3020.714285714286,3169.6,3889.0,4076.8,305.8885,304.71175,315.4725,314.64775,21.821333333333335,20.6663,22.11577777777778,21.4167,314.999998,314.999998,324.999988,324.999988,99.55394285714286,99.50945,99.57855714285714,99.54702857142857,0.11799999999999988,0.07224999999999993,-0.023333333333333317,0.2068333333333332,-0.06099999999999994,-0.05666666666667197,1.5859999999999999,1.5390000000000001,37.382999999999996,30.1645,39.223,34.8545,54.336,36.3735,63.229,52.1745,52.271,35.4315,61.7555,50.647,51.372,34.9625,61.7395,50.203,-0.11050000000000004,0.027499999999999858,0.10674000000000002,0.11139,0.0,212.47,212.56,209.39666666666668,209.39666666666668,0.0,0.0
17,0.0,0.0,0.0,1.0,1.0,0.0,0.0,1.0,0.0,100.0,1.0,1.1856,26.0,0.0,0.0,0.0,59.999996,0.0,26.0,26.0,26.0,26.0,0.11412500000000003,0.28869999999999996,-0.0010333333333333334,303.4515,-2.82055,-2.6647499999999997,-1.42725,-1.292,-218.59,215.9925,190.649125,0.0,0.0,0.0,0.0,0.03479999999999994,-5.498166666666667,-5.498166666666667,-0.7393000000000001,0.5135000000000001,0.032624999999999904,0.901,68.014,0.08210000000000006,-0.43220000000000003,-1.1875,100.0,1.0,1.0,209.79333333333335,0.0,0.0,0.0,0.0,0.0,0.0,0.0,8892.4,0.0,55.0,5.0,244.82333333333332,1.0,0.0,0.0,0.0,0.0,0.0,1.0,0.0,0.8580000000000005,0.8580000000000005,0.0,0.0,1.0,55.0,616.79921,10000.0,85.000001,85.000001,85.000001,85.000001,395.0,0.0,0.0,0.0,1.0,166.665,57.7085,57.7085,63.5985,63.5985,34.0,-21.415,30.7825,-21.542499999999997,31.455,0.0,1781.701,-0.9450000000000003,100.0,22.731,22.758666666666667,26.987000000000002,27.459,0.0,0.0,100.0,0.0,0.0,0.0,0.0,3000.142857142857,3188.0,4130.25,4273.5,305.65,304.80975,314.928,314.36375,21.830444444444446,20.6723,22.12677777777778,21.4258,314.999998,314.999998,324.999988,324.999988,99.55397142857143,99.50946666666667,99.57868571428571,99.54718571428572,0.14333333333333353,0.08975,-0.013000000000000012,0.21616666666666684,-0.038999999999997925,-0.05333333333332746,1.5695000000000001,1.512,37.441,30.2015,39.292,34.911,54.33,36.4135,63.2505,52.236000000000004,52.266,35.4685,61.775999999999996,50.707,51.365,34.9975,61.757,50.262,-0.11749999999999994,0.02499999999999991,0.10456000000000001,0.11039500000000001,0.0,212.94666666666666,213.01999999999998,209.79333333333335,209.79333333333335,0.0,0.0
18,0.0,0.0,0.0,1.0,1.0,0.0,0.0,1.0,0.0,100.0,1.0,1.1856,26.0,0.0,0.0,0.0,59.999996,0.0,26.0,26.0,26.0,26.0,0.12387499999999996,0.2755000000000001,-0.016033333333333333,303.467,-2.8604,-2.630625,-1.44875,-1.2305,-215.32,215.98250000000002,190.628,0.0,0.0,0.0,0.0,0.036699999999999955,-5.498166666666667,-5.498166666666667,-0.7463,-0.4950000000000001,0.06162500000000004,1.275,68.146,0.08160000000000012,-0.44370000000000004,-1.2574999999999998,100.0,1.0,1.0,210.17333333333335,0.0,0.0,0.0,0.0,0.0,0.0,0.0,8908.5,0.0,55.0,5.0,245.3,0.0,0.0,0.0,0.0,0.0,0.0,1.0,0.0,0.9059999999999988,0.9059999999999988,0.0,0.0,0.0,55.0,616.79921,10000.0,85.000001,85.000001,85.000001,85.000001,395.0,0.0,0.0,0.0,1.0,333.33500000000004,57.769999999999996,57.769999999999996,63.431,63.431,34.0,-20.56,32.7775,-21.1325,30.43,0.0,1781.651,-1.2199999999999989,100.0,22.426000000000002,22.711,27.213,27.761499999999998,0.0,0.0,100.0,0.0,0.0,0.0,0.0,2937.5714285714284,3340.8,3956.875,4273.0,305.887,304.3895,315.28775,314.32675,21.83888888888889,20.6778,22.137333333333334,21.4345,314.999998,314.999998,324.999988,324.999988,99.55398571428572,99.50948333333334,99.57882857142857,99.54732857142857,0.1586666666666665,0.10525000000000007,-0.01866666666666661,0.21116666666666672,-0.045999999999999375,-0.054999999999999716,1.556,1.504,37.492999999999995,30.236,39.358000000000004,34.9655,54.322,36.4525,63.2745,52.3005,52.257999999999996,35.5045,61.7985,50.7695,51.357,35.032,61.777,50.323499999999996,-0.14100000000000001,0.04849999999999999,0.10269500000000001,0.11282500000000001,0.0,213.32,213.41,210.17333333333335,210.17333333333335,0.0,0.0
19,0.0,0.0,0.0,1.0,1.0,0.0,0.0,1.0,0.0,100.0,1.0,1.1856,26.0,0.0,0.0,0.0,59.999996,0.0,26.0,26.0,26.0,26.0,0.1725000000000001,0.29069999999999996,0.0413,303.1005,-2.78285,-2.6195,-1.46595,-1.2133,-211.84,215.975,190.6055,0.0,0.0,0.0,0.0,0.03869999999999996,-5.498166666666667,-5.498166666666667,-0.7392,0.754,0.06787499999999991,-0.817,68.28399999999999,0.0907,-0.44020000000000004,-1.6749999999999998,100.0,1.0,1.0,210.61,0.0,0.0,0.0,0.0,0.0,0.0,0.0,8927.0,0.0,55.0,5.0,245.79666666666668,1.0,0.0,0.0,0.0,0.0,0.0,1.0,0.0,0.9570000000000007,0.9570000000000007,0.0,0.0,1.0,55.0,616.79921,10000.0,85.000001,85.000001,85.000001,85.000001,395.0,0.0,0.0,0.0,1.0,333.33500000000004,57.1135,57.1135,63.4765,63.4765,34.0,-20.099999999999998,33.0275,-21.997500000000002,31.09,0.0,1781.601,-1.5599999999999987,100.0,22.657,23.250333333333334,26.823999999999998,27.806,0.0,0.0,100.0,0.0,0.0,0.0,0.0,3097.0,3304.3,4088.25,4361.9,305.437,304.2125,315.1105,314.07275,21.848,20.6839,22.148222222222223,21.4437,314.999998,314.999998,324.999988,324.999988,99.554,99.5095,99.57895714285715,99.54747142857143,0.18133333333333335,0.11299999999999999,-0.01766666666666661,0.2128333333333332,-0.053000000000000824,-0.06333333333333258,1.5655000000000001,1.504,37.55,30.2745,39.427,35.022999999999996,54.318,36.4935,63.294,52.3605,52.254000000000005,35.542,61.8165,50.827,51.352000000000004,35.068,61.792,50.3805,-0.17149999999999999,0.07050000000000001,0.114945,0.10348500000000001,0.0,213.76666666666665,213.89,210.61,210.61,0.0,0.0
20,0.0,0.0,0.0,1.0,1.0,0.0,0.0,1.0,0.0,100.0,1.0,1.1856,26.0,0.0,0.0,0.0,59.999996,0.0,26.0,26.0,26.0,26.0,0.20812500000000012,0.26480000000000015,-0.0019,303.543,-2.88095,-2.687875,-1.39055,-1.3308,-208.35,215.9725,190.583125,0.0,0.0,0.0,0.0,0.0407333333333334,-5.498166666666667,-5.498166666666667,-0.7416,-1.1164999999999998,0.07662499999999994,0.9180000000000001,68.424,0.10640000000000005,-0.44480000000000003,-2.05,100.0,1.0,1.0,210.93666666666667,0.0,0.0,0.0,0.0,0.0,0.0,0.0,8940.9,0.0,55.0,5.0,246.30333333333334,0.0,0.0,0.0,0.0,0.0,0.0,0.0,0.0,1.0079999999999991,1.0079999999999991,0.0,0.0,0.0,55.0,616.79921,10000.0,85.000001,85.000001,85.000001,85.000001,395.0,0.0,0.0,0.0,1.0,166.665,58.426,58.426,62.958,62.958,34.0,-17.305,33.5525,-18.314999999999998,35.5625,0.0,1781.55,-1.7650000000000006,100.0,22.133,22.727666666666668,27.364,28.0395,0.0,0.0,100.0,0.0,0.0,0.0,0.0,2730.714285714286,3216.8,3977.875,4364.8,306.5275,304.7245,315.13725,313.9925,21.856666666666666,20.689799999999998,22.159444444444446,21.4531,314.999998,314.999998,324.999988,324.999988,99.55402857142857,99.5095,99.57911428571428,99.54762857142858,0.20366666666666644,0.14674999999999994,0.02666666666666684,0.25583333333333336,-0.0329999999999977,-0.036666666666668846,1.5230000000000001,1.4369999999999998,37.604,30.311,39.497,35.0815,54.31,36.535,63.3195,52.426,52.247,35.5805,61.84,50.891,51.343,35.1045,61.8125,50.4435,-0.17849999999999988,0.08699999999999997,0.10528000000000001,0.10820500000000001,0.0,214.12333333333333,214.26,210.93666666666667,210.93666666666667,0.0,0.0
21,0.0,0.0,0.0,1.0,1.0,0.0,0.0,1.0,0.0,100.0,1.0,1.1856,26.0,0.0,0.0,0.0,59.999996,0.0,26.0,26.0,26.0,26.0,0.20162499999999994,0.2703,-0.05153333333333334,303.8635,-2.80165,-2.730125,-1.4624000000000001,-1.2831000000000001,-205.06,215.975,190.561375,0.0,0.0,0.0,0.0,0.0426333333333333,-5.498166666666667,-5.498166666666667,-0.7711,0.3175,0.06637499999999985,0.22399999999999998,68.549,0.12519999999999998,-0.45603333333333335,-2.215,100.0,1.0,1.0,211.5966666666667,0.0,0.0,0.0,0.0,0.0,0.0,0.0,8968.7,0.0,55.0,5.0,246.75333333333333,1.0,0.0,0.0,0.0,0.0,0.0,0.0,0.0,1.056000000000001,1.056000000000001,0.0,0.0,1.0,55.0,616.79921,10000.0,85.000001,85.000001,85.000001,85.000001,395.0,0.0,0.0,0.0,1.0,333.33500000000004,57.663,57.663,64.4225,64.4225,34.0,-18.7975,34.245,-16.737499999999997,32.4075,0.0,1781.501,-1.2199999999999989,100.0,22.511499999999998,22.995666666666665,26.648,27.6325,0.0,0.0,100.0,0.0,0.0,0.0,0.0,2883.5714285714284,3289.0,3741.25,4064.5,305.9565,304.41175,315.90125,314.83325,21.865,20.6955,22.169555555555554,21.4616,314.999998,314.999998,324.999988,324.999988,99.55404285714286,99.50951666666667,99.57924285714286,99.54775714285714,0.18100000000000005,0.129,0.040166666666666684,0.2795000000000001,-0.06099999999999994,-0.06833333333332803,1.6589999999999998,1.565,37.657,30.347,39.56,35.135,54.306,36.577,63.335499999999996,52.484,52.242000000000004,35.6195,61.855000000000004,50.947,51.338,35.1415,61.825,50.4985,-0.1479999999999999,0.04899999999999993,0.10682000000000001,0.10809,0.0,214.55333333333334,214.70499999999998,211.5966666666667,211.5966666666667,0.0,0.0
22,0.0,0.0,0.0,1.0,1.0,0.0,0.0,1.0,0.0,100.0,1.0,1.1856,26.0,0.0,0.0,0.0,59.999996,0.0,26.0,26.0,26.0,26.0,0.17262500000000003,0.2715000000000001,0.0026000000000000003,303.314,-2.78865,-2.7305,-1.449,-1.2788,-201.56,215.98000000000002,190.5375,0.0,0.0,0.0,0.0,0.04466666666666652,-5.498166666666667,-5.498166666666667,-0.7466999999999999,0.29300000000000004,0.0605,-0.957,68.689,0.135,-0.43183333333333335,-1.0524999999999998,100.0,1.0,1.0,211.79000000000002,0.0,0.0,0.0,0.0,0.0,0.0,0.0,8977.0,0.0,55.0,5.0,247.25666666666666,0.0,0.0,0.0,0.0,0.0,0.0,0.0,0.0,1.1069999999999993,1.1069999999999993,0.0,0.0,0.0,55.0,616.79921,10000.0,85.000001,85.000001,85.000001,85.000001,395.0,0.0,0.0,0.0,1.0,166.665,57.8765,57.8765,63.1865,63.1865,34.0,-21.9725,28.695,-20.445,34.0675,0.0,1781.452,0.2950000000000017,100.0,22.43,23.221666666666668,26.983,27.972,0.0,0.0,100.0,0.0,0.0,0.0,0.0,2903.142857142857,3089.6,4132.5,4357.4,306.0545,304.786,314.982,314.05075,21.874,20.7016,22.180666666666667,21.4709,314.999998,314.999998,324.999988,324.999988,99.55405714285715,99.50953333333334,99.57938571428572,99.54791428571428,0.09966666666666635,0.03675000000000006,0.01633333333333331,0.24716666666666676,-0.053000000000000824,-0.05833333333333002,1.5095,1.4729999999999999,37.713,30.384999999999998,39.629000000000005,35.193,54.298,36.6175,63.359,52.5495,52.235,35.6565,61.876999999999995,51.01,51.329,35.177,61.8445,50.561,-0.03200000000000003,-0.06349999999999989,0.10686500000000002,0.10797500000000002,0.0,215.02333333333334,215.115,211.79000000000002,211.79000000000002,0.0,0.0
23,0.0,0.0,0.0,1.0,1.0,0.0,0.0,1.0,0.0,100.0,1.0,1.1856,26.0,0.0,0.0,0.0,59.999996,0.0,26.0,26.0,26.0,26.0,0.0887500000000001,0.24950000000000006,-0.042966666666666674,303.3905,-2.79915,-2.7026250000000003,-1.47675,-1.2792,-197.85,215.9925,190.51275,0.0,0.0,0.0,0.0,0.04683333333333339,-5.498166666666667,-5.498166666666667,-0.7625,-0.15100000000000002,0.03512499999999985,-1.113,68.832,0.09400000000000008,-0.4562666666666667,0.3725000000000005,100.0,1.0,1.0,212.32666666666665,0.0,0.0,0.0,0.0,0.0,0.0,0.0,8999.7,0.0,55.0,5.0,247.77333333333334,1.0,0.0,0.0,0.0,0.0,0.0,0.0,0.0,1.1610000000000014,1.1610000000000014,0.0,0.0,1.0,55.0,616.79921,10000.0,85.000001,85.000001,85.000001,85.000001,395.0,0.0,0.0,0.0,1.0,166.665,57.312,57.312,64.1175,64.1175,34.0,-27.049999999999997,26.6925,-22.567500000000003,27.5275,0.0,1781.399,0.8049999999999997,100.0,22.753,23.03933333333333,27.188,28.000500000000002,0.0,0.0,100.0,0.0,0.0,0.0,0.0,3216.5714285714284,3108.7,3972.125,4008.2,305.1435,304.823,315.4135,314.94075,21.883555555555557,20.7079,22.192555555555558,21.4807,314.999998,314.999998,324.999988,324.999988,99.55407142857143,99.50955,99.57954285714285,99.54808571428572,0.049666666666666526,-0.00824999999999998,-0.03966666666666663,0.1885000000000001,-0.05600000000000094,-0.04333333333332945,1.5470000000000002,1.5630000000000002,37.772,30.424500000000002,39.703,35.2545,54.287,36.655,63.382999999999996,52.6175,52.224000000000004,35.6915,61.8995,51.076,51.318,35.21,61.8635,50.626,0.014499999999999957,-0.11399999999999988,0.105755,0.10527,0.0,215.50333333333333,215.48000000000002,212.32666666666665,212.32666666666665,0.0,0.0
24,0.0,0.0,0.0,1.0,1.0,0.0,0.0,1.0,0.0,100.0,1.0,1.1856,26.0,0.0,0.0,0.0,59.999996,0.0,26.0,26.0,26.0,26.0,-0.005124999999999935,0.28080000000000016,-0.06966666666666667,303.7565,-2.7978,-2.739625,-1.375,-1.3274,-194.75,216.005,190.491625,0.0,0.0,0.0,0.0,0.048633333333333306,-5.498166666666667,-5.498166666666667,-0.7734,-0.6445000000000001,0.02200000000000002,0.8680000000000001,68.953,0.042200000000000015,-0.4517666666666667,0.9675000000000002,100.0,1.0,1.0,212.61333333333334,0.0,0.0,0.0,0.0,0.0,0.0,0.0,9012.0,0.0,55.0,5.0,248.20666666666665,0.0,0.0,0.0,0.0,0.0,0.0,0.0,0.0,1.2059999999999995,1.2059999999999995,0.0,0.0,0.0,55.0,616.79921,10000.0,85.000001,85.000001,85.000001,85.000001,395.0,0.0,0.0,0.0,1.0,333.33500000000004,58.5175,58.5175,63.339,63.339,34.0,-24.634999999999998,24.765,-25.43,26.0325,0.0,1781.351,0.9600000000000009,100.0,22.585,22.429000000000002,27.487000000000002,27.5845,0.0,0.0,100.0,0.0,0.0,0.0,0.0,2834.5714285714284,3023.1,4144.25,4090.4,306.1285,305.351,314.7985,314.7675,21.891444444444446,20.713,22.202333333333332,21.4888,314.999998,314.999998,324.999988,324.999988,99.55407142857143,99.50955,99.57967142857143,99.54821428571428,0.020333333333333314,-0.03500000000000003,-0.09083333333333332,0.13183333333333325,-0.028999999999999915,-0.04833333333333201,1.5095,1.5470000000000002,37.821,30.4565,39.765,35.305,54.274,36.686,63.406,52.6745,52.212,35.7195,61.920500000000004,51.131,51.305,35.237,61.882,50.68,0.03000000000000025,-0.11500000000000021,0.105745,0.10457000000000001,0.0,215.89666666666665,215.825,212.61333333333334,212.61333333333334,0.0,0.0
25,0.0,0.0,0.0,1.0,1.0,0.0,0.0,1.0,0.0,100.0,1.0,1.1856,26.0,0.0,0.0,0.0,59.999996,0.0,26.0,26.0,26.0,26.0,-0.08174999999999999,0.2601,-0.05516666666666666,303.6955,-2.83105,-2.7315,-1.3587500000000001,-1.3575,-191.01999999999998,216.01749999999998,190.464875,0.0,0.0,0.0,0.0,0.050799999999999956,-5.498166666666667,-5.498166666666667,-0.8045,0.16999999999999993,-0.004624999999999879,-0.627,69.093,-0.0230999999999999,-0.4552333333333333,1.4675000000000002,100.0,1.0,1.0,213.23666666666668,0.0,0.0,0.0,0.0,0.0,0.0,0.0,9038.4,0.0,55.0,5.0,248.71333333333334,1.0,0.0,0.0,0.0,0.0,0.0,0.0,0.0,1.259999999999998,1.259999999999998,0.0,0.0,1.0,55.0,616.79921,10000.0,85.000001,85.000001,85.000001,85.000001,395.0,0.0,0.0,0.0,1.0,166.665,57.297,57.297,64.4075,64.4075,34.0,-30.822499999999998,25.697499999999998,-25.919999999999998,22.065,0.0,1781.299,0.9649999999999999,100.0,22.838,22.643333333333334,27.16,27.0445,0.0,0.0,100.0,0.0,0.0,0.0,0.0,3254.5714285714284,3286.2,3869.875,3859.1000000000004,305.0035,304.56325,315.55075,315.33675,21.901,20.7192,22.214,21.4982,314.999998,314.999998,324.999988,324.999988,99.55408571428572,99.50955,99.57981428571429,99.54835714285714,-0.020999999999999908,-0.06899999999999995,-0.15449999999999997,0.08299999999999996,-0.0519999999999996,-0.04833333333333201,1.5764999999999998,1.6179999999999999,37.881,30.494999999999997,39.837,35.364,54.260999999999996,36.722,63.426,52.7305,52.199,35.753,61.939499999999995,51.1855,51.292,35.2685,61.8985,50.7335,0.02950000000000008,-0.12749999999999995,0.105645,0.10891500000000001,0.0,216.36,216.235,213.23666666666668,213.23666666666668,0.0,0.0
26,0.0,0.0,0.0,1.0,1.0,0.0,0.0,1.0,0.0,100.0,1.0,1.1856,26.0,0.0,0.0,0.0,59.999996,0.0,26.0,26.0,26.0,26.0,-0.13912499999999994,0.27659999999999996,0.08633333333333335,302.521,-2.7531,-2.844125,-1.3817,-1.3808,-187.7,216.03,190.440375,0.0,0.0,0.0,0.0,0.0527333333333333,-5.498166666666667,-5.498166666666667,-0.7552,0.9805,-0.049875000000000114,0.4079999999999999,69.224,-0.06709999999999994,-0.4163666666666667,1.545,100.0,1.0,1.0,213.31,0.0,0.0,0.0,0.0,0.0,0.0,0.0,9041.4,0.0,55.0,5.0,249.18,0.0,0.0,0.0,0.0,0.0,0.0,0.0,0.0,1.3079999999999998,1.3079999999999998,0.0,0.0,0.0,55.0,616.79921,10000.0,85.000001,85.000001,85.000001,85.000001,395.0,0.0,0.0,0.0,1.0,166.665,57.2815,57.2815,62.256,62.256,34.0,-30.77,23.134999999999998,-35.582499999999996,24.475,0.0,1781.251,0.7899999999999991,100.0,23.5,22.788666666666668,28.079,27.3415,0.0,0.0,100.0,0.0,0.0,0.0,0.0,3216.714285714286,3025.9,4628.25,4429.4,304.95,305.21325,313.761,314.03525,21.909777777777776,20.7248,22.224666666666668,21.5069,314.999998,314.999998,324.999988,324.999988,99.55408571428572,99.50956666666667,99.57995714285714,99.5485,-0.04033333333333311,-0.10250000000000004,-0.19433333333333336,0.04133333333333322,-0.053000000000000824,-0.051666666666669414,1.4329999999999998,1.4769999999999999,37.936,30.53,39.903999999999996,35.418,54.254000000000005,36.7585,63.454,52.786500000000004,52.193,35.786500000000004,61.9655,51.2395,51.284,35.3005,61.922,50.786500000000004,0.015499999999999847,-0.11500000000000021,0.11274500000000001,0.110045,0.0,216.82,216.66500000000002,213.31,213.31,0.0,0.0
27,0.0,0.0,0.0,1.0,1.0,0.0,0.0,1.0,0.0,100.0,1.0,1.1856,26.0,0.0,0.0,0.0,59.999996,0.0,26.0,26.0,26.0,26.0,-0.14674999999999994,0.25229999999999997,-0.0006000000000000001,302.9785,-2.7148,-2.81975,-1.3674,-1.4574,-184.38,216.0375,190.41725,0.0,0.0,0.0,0.0,0.05466666666666653,-5.498166666666667,-5.498166666666667,-0.7787,-1.2229999999999999,-0.05512499999999987,0.817,69.349,-0.08949999999999991,-0.46406666666666674,1.3899999999999997,100.0,1.0,1.0,213.75333333333333,0.0,0.0,0.0,0.0,0.0,0.0,0.0,9060.3,0.0,55.0,5.0,249.63666666666666,1.0,0.0,0.0,0.0,0.0,0.0,0.0,0.0,1.355999999999998,1.355999999999998,0.0,0.0,1.0,55.0,616.79921,10000.0,85.000001,85.000001,85.000001,85.000001,395.0,0.0,0.0,0.0,1.0,166.665,57.678,57.678,62.729,62.729,34.0,-30.185000000000002,22.4575,-32.21,22.28,0.0,1781.203,0.6999999999999993,100.0,23.1935,22.465666666666667,28.718,27.7875,0.0,0.0,100.0,0.0,0.0,0.0,0.0,3135.142857142857,3051.6,4181.625,4057.7,305.2045,305.25175,314.64125,314.77775,21.918444444444443,20.7301,22.235555555555557,21.5156,314.999998,314.999998,324.999988,324.999988,99.5541,99.50958333333334,99.5801,99.54864285714285,-0.05666666666666664,-0.11599999999999999,-0.20783333333333331,0.024499999999999966,-0.03500000000000014,-0.04833333333333201,1.4455,1.501,37.989999999999995,30.563000000000002,39.972,35.473,54.245000000000005,36.793,63.484,52.844,52.184,35.818,61.994,51.2945,51.274,35.3305,61.9475,50.8405,0.006000000000000227,-0.10150000000000015,0.10726000000000001,0.11737000000000002,0.0,217.11666666666667,217.005,213.75333333333333,213.75333333333333,0.0,0.0
28,0.0,0.0,0.0,1.0,1.0,0.0,0.0,1.0,0.0,100.0,1.0,1.1856,26.0,0.0,0.0,0.0,59.999996,0.0,26.0,26.0,26.0,26.0,-0.14037500000000003,0.2681,-0.06536666666666667,303.482,-2.74525,-2.799375,-1.3131,-1.4152,-180.84,216.04250000000002,190.392,0.0,0.0,0.0,0.0,0.0567333333333333,-5.498166666666667,-5.498166666666667,-0.7952,0.512,-0.06262500000000015,-0.632,69.479,-0.10359999999999991,-0.4567666666666667,1.4750000000000005,100.0,1.0,1.0,214.35333333333335,0.0,0.0,0.0,0.0,0.0,0.0,0.0,9085.7,0.0,55.0,5.0,250.10333333333335,0.0,0.0,0.0,0.0,0.0,0.0,0.0,0.0,1.407,1.407,0.0,0.0,0.0,55.0,616.79921,10000.0,85.000001,85.000001,85.000001,85.000001,395.0,0.0,0.0,0.0,1.0,166.665,57.556,57.556,64.0105,64.0105,34.0,-32.6225,20.985,-31.3475,18.88,0.0,1781.151,0.4800000000000004,100.0,23.203,22.64933333333333,27.820999999999998,27.174,0.0,0.0,100.0,0.0,0.0,0.0,0.0,3304.0,2894.0,4101.375,3863.3,304.8295,305.48775,315.085,315.28425,21.927666666666667,20.7359,22.246555555555556,21.5245,314.999998,314.999998,324.999988,324.999988,99.5541,99.5096,99.58025714285715,99.54878571428571,-0.06733333333333325,-0.122,-0.23716666666666664,-0.0010000000000000009,-0.038999999999997925,-0.045000000000001705,1.5514999999999999,1.596,38.048,30.599,40.041,35.5285,54.238,36.831,63.5075,52.897999999999996,52.178,35.853,62.016,51.3465,51.266999999999996,35.3635,61.967,50.8915,-0.00649999999999995,-0.08999999999999986,0.10838,0.108185,0.0,217.57333333333332,217.43,214.35333333333335,214.35333333333335,0.0,0.0
29,0.0,0.0,0.0,1.0,1.0,0.0,0.0,1.0,0.0,100.0,1.0,1.1856,26.0,0.0,0.0,0.0,59.999996,0.0,26.0,26.0,26.0,26.0,-0.14174999999999993,0.2559,0.0044666666666666665,303.192,-2.68315,-2.854875,-1.346,-1.3932,-177.07999999999998,216.04250000000002,190.364,0.0,0.0,0.0,0.0,0.05889999999999995,-5.498166666666667,-5.498166666666667,-0.7984,-0.4990000000000001,-0.061875000000000124,-0.744,69.622,-0.10070000000000001,-0.44630000000000003,1.0724999999999998,100.0,1.0,1.0,214.62666666666667,0.0,0.0,0.0,0.0,0.0,0.0,0.0,9097.2,0.0,55.0,5.0,250.61666666666667,1.0,0.0,0.0,0.0,0.0,0.0,0.0,0.0,1.4609999999999985,1.4609999999999985,0.0,0.0,1.0,55.0,616.79921,10000.0,85.000001,85.000001,85.000001,85.000001,395.0,0.0,0.0,0.0,1.0,166.665,57.663,57.663,63.324,63.324,34.0,-32.0525,21.505,-33.6275,20.6,0.0,1781.098,0.379999999999999,100.0,22.978,22.576666666666668,28.063,27.323,0.0,0.0,100.0,0.0,0.0,0.0,0.0,3317.5714285714284,2889.1,4257.125,4049.7,304.8675,305.48075,314.624,314.79075,21.937333333333335,20.7418,22.258555555555557,21.5342,314.999998,314.999998,324.999988,324.999988,99.55411428571429,99.50961666666667,99.58041428571428,99.54892857142858,-0.06633333333333313,-0.12049999999999994,-0.2343333333333334,0.010333333333333306,-0.0519999999999996,-0.051666666666669414,1.4754999999999998,1.505,38.108000000000004,30.636499999999998,40.116,35.589,54.227999999999994,36.869,63.5385,52.959,52.168,35.888,62.045500000000004,51.4055,51.256,35.397,61.9935,50.949,-0.012499999999999956,-0.07850000000000001,0.11456500000000001,0.11282,0.0,217.98000000000002,217.885,214.62666666666667,214.62666666666667,0.0,0.0
30,0.0,0.0,0.0,1.0,1.0,0.0,0.0,1.0,0.0,100.0,1.0,1.1856,26.0,0.0,0.0,0.0,59.999996,0.0,26.0,26.0,26.0,26.0,-0.13812499999999994,0.26680000000000015,0.06686666666666667,302.5515,-2.73795,-2.846875,-1.2878,-1.4725000000000001,-173.95,216.04000000000002,190.3405,0.0,0.0,0.0,0.0,0.060733333333333306,-5.498166666666667,-5.498166666666667,-0.7901,0.6985,-0.058499999999999996,1.1760000000000002,69.738,-0.09029999999999994,-0.4466333333333333,0.9125000000000005,100.0,1.0,1.0,214.96333333333334,0.0,0.0,0.0,0.0,0.0,0.0,0.0,9111.5,0.0,55.0,5.0,251.03666666666666,0.0,0.0,0.0,0.0,0.0,0.0,1.0,0.0,1.5060000000000002,1.5060000000000002,0.0,0.0,0.0,55.0,616.79921,10000.0,85.000001,85.000001,85.000001,85.000001,395.0,0.0,0.0,0.0,1.0,166.665,56.656,56.656,63.1715,63.1715,34.0,-32.3875,24.6675,-31.915,23.0275,0.0,1781.053,0.245000000000001,100.0,23.8155,22.846,28.137999999999998,27.3655,0.0,0.0,100.0,0.0,0.0,0.0,0.0,3413.4285714285716,3187.7,4312.125,4141.8,304.3855,304.92025,314.43375,314.58775,21.945666666666668,20.7471,22.268444444444444,21.5422,314.999998,314.999998,324.999988,324.999988,99.55412857142858,99.50963333333333,99.58055714285715,99.54907142857142,-0.030999999999999917,-0.09575,-0.20466666666666666,0.023333333333333428,-0.04199999999999804,-0.061666666666667425,1.4545,1.492,38.16,30.669,40.178,35.638999999999996,54.223,36.903999999999996,63.562,53.0095,52.163,35.92,62.068,51.454,51.251,35.4275,62.0135,50.997,-0.03699999999999992,-0.0714999999999999,0.10838500000000001,0.10799,0.0,218.34666666666666,218.275,214.96333333333334,214.96333333333334,0.0,0.0
31,0.0,0.0,0.0,1.0,1.0,0.0,0.0,1.0,0.0,100.0,1.0,1.1856,26.0,0.0,0.0,0.0,59.999996,0.0,26.0,26.0,26.0,26.0,-0.09787499999999993,0.2723,0.0071333333333333335,302.6275,-2.8179,-2.72075,-1.34025,-1.4381,-170.39,216.0325,190.314875,0.0,0.0,0.0,0.0,0.06279999999999997,-5.498166666666667,-5.498166666666667,-0.7738,-0.5085,-0.04837500000000006,-0.911,69.87100000000001,-0.07350000000000001,-0.44846666666666674,0.5899999999999999,100.0,1.0,1.0,215.26,0.0,0.0,0.0,0.0,0.0,0.0,0.0,9124.1,0.0,55.0,5.0,251.51333333333332,1.0,0.0,0.0,0.0,0.0,0.0,1.0,0.0,1.5569999999999986,1.5569999999999986,0.0,0.0,1.0,55.0,616.79921,10000.0,85.000001,85.000001,85.000001,85.000001,395.0,0.0,0.0,0.0,1.0,333.33500000000004,57.5865,57.5865,61.905,61.905,34.0,-30.6675,22.825,-33.11,24.927500000000002,0.0,1781.0,0.18499999999999872,100.0,23.0295,22.934333333333335,28.563,27.948500000000003,0.0,0.0,100.0,0.0,0.0,0.0,0.0,3223.5714285714284,3058.0,4464.75,4279.0,305.263,305.15625,314.107,314.2725,21.954777777777778,20.753,22.279888888888888,21.5516,314.999998,314.999998,324.999988,324.999988,99.55412857142858,99.50963333333333,99.58071428571428,99.54921428571429,-0.033333333333333215,-0.08999999999999997,-0.1875,0.047666666666666746,-0.04100000000000037,-0.036666666666668846,1.4434999999999998,1.4569999999999999,38.217,30.706,40.248999999999995,35.6975,54.213,36.9415,63.5935,53.07,52.153999999999996,35.955,62.0975,51.5125,51.241,35.460499999999996,62.04,51.054,-0.03749999999999987,-0.06099999999999994,0.10532000000000001,0.114375,0.0,218.72666666666666,218.66500000000002,215.26,215.26,0.0,0.0
32,0.0,0.0,0.0,1.0,1.0,0.0,0.0,1.0,0.0,100.0,1.0,1.1856,26.0,0.0,0.0,0.0,59.999996,0.0,26.0,26.0,26.0,26.0,-0.12137500000000001,0.26350000000000007,-0.039,303.1005,-2.7543,-2.780125,-1.39385,-1.3557000000000001,-166.82,216.025,190.289375,0.0,0.0,0.0,0.0,0.06486666666666652,-5.498166666666667,-5.498166666666667,-0.7968,-0.07850000000000001,-0.07975000000000021,0.242,69.998,-0.061899999999999955,-0.46123333333333333,0.5499999999999998,100.0,1.0,1.0,215.83666666666667,0.0,0.0,0.0,0.0,0.0,0.0,0.0,9148.5,0.0,55.0,5.0,251.97,0.0,0.0,0.0,0.0,0.0,0.0,1.0,0.0,1.6080000000000005,1.6080000000000005,0.0,0.0,0.0,55.0,616.79921,10000.0,85.000001,85.000001,85.000001,85.000001,395.0,0.0,0.0,0.0,1.0,166.665,57.4645,57.4645,63.37,63.37,34.0,-29.8425,24.41,-30.7675,22.7225,0.0,1780.95,0.07499999999999929,100.0,23.2465,22.613,28.137,27.4755,0.0,0.0,100.0,0.0,0.0,0.0,0.0,3253.4285714285716,3079.2,4213.125,4087.8,304.92,305.15025,314.7805,314.88625,21.96377777777778,20.7588,22.291,21.5608,314.999998,314.999998,324.999988,324.999988,99.55412857142858,99.50965,99.58085714285714,99.54935714285715,-0.010666666666666602,-0.0675,-0.18066666666666664,0.06233333333333335,-0.04199999999999804,-0.051666666666669414,1.5335,1.5499999999999998,38.274,30.7425,40.319,35.7545,54.202,36.9785,63.618,53.1265,52.143,35.9885,62.121,51.567,51.229,35.4925,62.0605,51.107,-0.04499999999999993,-0.05600000000000005,0.11292,0.10873500000000001,0.0,219.11666666666667,219.075,215.83666666666667,215.83666666666667,0.0,0.0
33,0.0,0.0,0.0,1.0,1.0,0.0,0.0,1.0,0.0,100.0,1.0,1.1856,26.0,0.0,0.0,0.0,59.999996,0.0,26.0,26.0,26.0,26.0,-0.09299999999999997,0.2663,-0.04276666666666667,303.2685,-2.75715,-2.82575,-1.33255,-1.3656000000000001,-163.45999999999998,216.015,190.264125,0.0,0.0,0.0,0.0,0.0668333333333333,-5.498166666666667,-5.498166666666667,-0.8035,-0.3494999999999999,-0.06450000000000022,1.8780000000000001,70.122,-0.0514,-0.44830000000000003,0.39500000000000046,100.0,1.0,1.0,216.14,0.0,0.0,0.0,0.0,0.0,0.0,0.0,9161.4,0.0,55.0,5.0,252.41666666666666,1.0,0.0,0.0,0.0,0.0,0.0,1.0,0.0,1.6559999999999988,1.6559999999999988,0.0,0.0,1.0,55.0,616.79921,10000.0,85.000001,85.000001,85.000001,85.000001,395.0,0.0,0.0,0.0,1.0,333.33500000000004,57.968,57.968,63.278,63.278,34.0,-27.4125,24.552500000000002,-29.3125,24.6625,0.0,1780.902,-0.0799999999999983,100.0,23.0895,22.438333333333333,28.069,27.3945,0.0,0.0,100.0,0.0,0.0,0.0,0.0,3076.142857142857,3000.5,4173.125,4227.6,305.417,305.4035,314.73125,314.531,21.97222222222222,20.7642,22.301555555555556,21.5693,314.999998,314.999998,324.999988,324.999988,99.55412857142858,99.50966666666666,99.581,99.5495,0.004666666666666597,-0.055499999999999994,-0.16766666666666663,0.07466666666666666,-0.03200000000000003,-0.05666666666667197,1.4834999999999998,1.5059999999999998,38.326,30.776,40.384,35.8085,54.19,37.0095,63.6425,53.1795,52.132999999999996,36.016999999999996,62.144,51.618,51.218,35.5195,62.081,51.1575,-0.050999999999999934,-0.04499999999999993,0.109075,0.11563500000000002,0.0,219.49666666666667,219.45499999999998,216.14,216.14,0.0,0.0
34,0.0,0.0,0.0,1.0,1.0,0.0,0.0,1.0,0.0,100.0,1.0,1.1856,26.0,0.0,0.0,0.0,59.999996,0.0,26.0,26.0,26.0,26.0,-0.06512499999999999,0.24740000000000006,-0.0631,303.665,-2.77455,-2.800875,-1.40645,-1.3795,-159.66,216.0,190.234375,0.0,0.0,0.0,0.0,0.06903333333333339,-5.498166666666667,-5.498166666666667,-0.8415,-0.9525000000000001,-0.028249999999999886,1.008,70.258,-0.03699999999999992,-0.4613333333333333,0.1924999999999999,100.0,1.0,1.0,216.61666666666667,0.0,0.0,0.0,0.0,0.0,0.0,0.0,9181.6,0.0,55.0,5.0,252.91,0.0,0.0,0.0,0.0,0.0,0.0,1.0,0.0,1.7100000000000009,1.7100000000000009,0.0,0.0,0.0,55.0,616.79921,10000.0,85.000001,85.000001,85.000001,85.000001,395.0,0.0,0.0,0.0,1.0,166.665,58.2735,58.2735,64.026,64.026,34.0,-25.805,24.71,-27.78,24.7825,0.0,1780.849,-0.08999999999999986,100.0,22.8725,22.318666666666665,27.698,27.4645,0.0,0.0,100.0,0.0,0.0,0.0,0.0,2943.0,2998.7,4012.5,4081.8,305.749,305.38175,315.225,314.7985,21.981555555555556,20.7702,22.313222222222223,21.5791,314.999998,314.999998,324.999988,324.999988,99.55414285714286,99.50966666666666,99.58115714285714,99.54965714285714,0.016999999999999904,-0.04625000000000001,-0.15083333333333337,0.09366666666666679,-0.045999999999999375,-0.03833333333332689,1.5259999999999998,1.5430000000000001,38.385,30.814,40.457,35.8695,54.176,37.0435,63.666,53.241,52.119,36.048500000000004,62.166,51.6775,51.204,35.5495,62.1,51.2155,-0.057499999999999885,-0.04300000000000015,0.110615,0.11413500000000001,0.0,219.89,219.85000000000002,216.61666666666667,216.61666666666667,0.0,0.0
35,0.0,0.0,0.0,1.0,1.0,0.0,0.0,1.0,0.0,100.0,1.0,1.1856,26.0,0.0,0.0,0.0,59.999996,0.0,26.0,26.0,26.0,26.0,-0.041749999999999954,0.24,-0.0755,303.4365,-2.76665,-2.75625,-1.3645,-1.3964,-156.29,215.985,190.20575,0.0,0.0,0.0,0.0,0.07099999999999995,-5.498166666666667,-5.498166666666667,-0.8846,-0.23350000000000004,-0.041749999999999954,0.15900000000000003,70.378,-0.025399999999999978,-0.4735333333333333,0.13250000000000028,100.0,1.0,1.0,217.0966666666667,0.0,0.0,0.0,0.0,0.0,0.0,0.0,9202.0,0.0,55.0,5.0,253.34,1.0,0.0,0.0,0.0,0.0,0.0,1.0,0.0,1.7579999999999991,1.7579999999999991,0.0,0.0,1.0,55.0,616.79921,10000.0,85.000001,85.000001,85.000001,85.000001,395.0,0.0,0.0,0.0,1.0,166.665,57.19,57.19,63.8735,63.8735,34.0,-27.682499999999997,28.34,-24.919999999999998,23.56,0.0,1780.8,-0.07000000000000028,100.0,22.886499999999998,22.868000000000002,27.498,27.0785,0.0,0.0,100.0,0.0,0.0,0.0,0.0,3158.4285714285716,3370.5,3879.875,3840.0,305.176,304.274,315.47925,315.4015,21.98977777777778,20.7758,22.323444444444444,21.5875,314.999998,314.999998,324.999988,324.999988,99.55414285714286,99.50966666666666,99.5813,99.54978571428572,0.020999999999999908,-0.03500000000000003,-0.1266666666666666,0.10316666666666685,-0.04100000000000037,-0.051666666666669414,1.5644999999999998,1.5779999999999998,38.436,30.849,40.522,35.922,54.163,37.076499999999996,63.6865,53.291,52.107,36.0785,62.1855,51.726,51.191,35.578,62.1165,51.2635,-0.05149999999999988,-0.047499999999999876,0.10480500000000001,0.10819500000000001,0.0,220.26,220.25,217.09666666666666,217.0966666666667,0.0,0.0
