,ABS Active,ABS Enabled,AID Allow Tire Blankets,AID Auto Blip,AID Auto Clutch,AID Auto Shift,AID Fuel Rate,AID Ideal Line,AID Mech Damage,AID Stability,AID Tire Wear Rate,Air Density,Air Temp,Ballast,Best Lap Delta,Best Lap Time,Brake Bias,Brake Pos,Brake Temp FL,Brake Temp FR,Brake Temp RL,Brake Temp RR,CG Accel Lateral,CG Accel Longitudinal,CG Accel Vertical,CG Height,Camber FL,Camber FR,Camber RL,Camber RR,Car Coord X,Car Coord Y,Car Coord Z,Car Damage Front,Car Damage Left,Car Damage Rear,Car Damage Right,Car Pos Norm,Caster FL,Caster FR,Chassis Pitch Angle,Chassis Pitch Rate,Chassis Roll Angle,Chassis Roll Rate,Chassis Velocity X,Chassis Velocity Y,Chassis Velocity Z,Chassis Yaw Rate,Clutch Pos,DRS Active,DRS Available,Drive Train Speed,ERS Heat Charging,ERS Is Charging,ERS Max Energy,ERS Power Level,ERS Recovery Level,Engine Brake Setting,Engine Limiter,Engine RPM,Flags,Fuel Level,Gear,Ground Speed,HR Sample Clock,In Pit,KERS Charge,KERS Deployed Energy,KERS Input,KERS Max Energy,LR Sample Clock,Lap Invalidated,Lap Time,Lap Time2,Last Lap Time,Last Sector Time,MR Sample Clock,Max Fuel,Max Power,Max RPM,Max Sus Travel FL,Max Sus Travel FR,Max Sus Travel RL,Max Sus Travel RR,Max Torque,Max Turbo Boost,Num Tires Off Track,Penalties Enabled,Position,Raw Data Sample Rate,Ride Height FL,Ride Height FR,Ride Height RL,Ride Height RR,Road Temp,Self Align Torque FL,Self Align Torque FR,Self Align Torque RL,Self Align Torque RR,Session Lap Count,Session Time Left,Steering Angle,Surface Grip,Suspension Travel FL,Suspension Travel FR,Suspension Travel RL,Suspension Travel RR,TC Active,TC Enabled,Throttle Pos,Tire Dirt Level FL,Tire Dirt Level FR,Tire Dirt Level RL,Tire Dirt Level RR,Tire Load FL,Tire Load FR,Tire Load RL,Tire Load RR,Tire Loaded Radius FL,Tire Loaded Radius FR,Tire Loaded Radius RL,Tire Loaded Radius RR,Tire Pressure FL,Tire Pressure FR,Tire Pressure RL,Tire Pressure RR,Tire Radius FL,Tire Radius FR,Tire Radius RL,Tire Radius RR,Tire Rubber Grip FL,Tire Rubber Grip FR,Tire Rubber Grip RL,Tire Rubber Grip RR,Tire Slip Angle FL,Tire Slip Angle FR,Tire Slip Angle RL,Tire Slip Angle RR,Tire Slip Ratio FL,Tire Slip Ratio FR,Tire Slip Ratio RL,Tire Slip Ratio RR,Tire Temp Core FL,Tire Temp Core FR,Tire Temp Core RL,Tire Temp Core RR,Tire Temp Inner FL,Tire Temp Inner FR,Tire Temp Inner RL,Tire Temp Inner RR,Tire Temp Middle FL,Tire Temp Middle FR,Tire Temp Middle RL,Tire Temp Middle RR,Tire Temp Outer FL,Tire Temp Outer FR,Tire Temp Outer RL,Tire Temp Outer RR,Toe In FL,Toe In FR,Toe In RL,Toe In RR,Turbo Boost,Wheel Angular Speed FL,Wheel Angular Speed FR,Wheel Angular Speed RL,Wheel Angular Speed RR,Wind Direction,Wind Speed
0,0.0,0.0,0.0,1.0,1.0,0.0,0.0,1.0,0.0,100.0,1.0,1.1856,26.0,0.0,0.0,0.0,59.99999,0.0,26.0,26.0,26.0,26.0,-0.11049999999999993,0.3136000000000001,0.0726,304.245,-2.79455,-2.5377,-1.33045,-1.3481,-275.62,216.15,190.9975,0.0,0.0,0.0,0.0,0.0016333333333333755,-5.498166666666667,-5.498166666666667,-0.7322,1.7185000000000001,-0.00533333333333319,-0.19799999999999995,65.542,-0.04179999999999995,-0.41725,1.2400000000000002,100.0,1.0,1.0,202.44,0.0,0.0,0.0,0.0,0.0,0.0,0.0,8580.7,0.0,55.0,5.0,235.92666666666668,0.0,0.0,0.0,0.0,0.0,0.0,0.0,0.0,0.0030000000000001137,0.0030000000000001137,0.0,0.0,0.0,55.0,616.79921,10000.0,85.0,85.0,85.0,85.0,395.0,0.0,0.0,0.0,1.0,20.0,57.358,57.358,64.514,64.514,34.0,-30.17,22.881999999999998,-27.28666666666666,21.2725,0.0,1782.54,1.3599999999999994,100.0,22.533,22.424,25.841,25.6445,0.0,0.0,100.0,0.0,0.0,0.0,0.0,3056.285714285714,3412.7,3985.8571428571427,3912.0,305.4175,304.03066666666666,315.1963333333333,315.12175,21.69575,20.5779,21.902857142857144,21.2701,314.99999,314.99999,324.99998,324.99998,99.55518571428571,99.5092,99.57461428571429,99.54464285714286,-0.06566666666666676,-0.1116666666666668,-0.1718,0.06440000000000001,-0.07600000000000051,-0.041666666666671404,1.5630000000000002,1.6360000000000001,36.598,29.612000000000002,37.893,33.938,54.921,35.8615,62.302,51.2355,52.798,34.920500000000004,60.8545,49.731,51.876000000000005,34.4305,60.8625,49.2905,0.050000000000000044,-0.15200000000000014,0.11218000000000002,0.11241000000000001,0.0,205.42333333333335,205.34,202.44,202.44,0.0,0.0
1,0.0,0.0,0.0,1.0,1.0,0.0,0.0,1.0,0.0,100.0,1.0,1.1856,26.0,0.0,0.0,0.0,59.999996,0.0,26.0,26.0,26.0,26.0,-0.16400000000000003,0.2982,0.0557,303.2685,-2.7021,-2.8748,-1.3306,-1.3753,-272.08,216.17000000000002,190.97625,0.0,0.0,0.0,0.0,0.0036999999999999256,-5.498166666666667,-5.498166666666667,-0.6706,-0.7355,-0.06322222222222207,-0.579,65.709,-0.0665,-0.400275,1.87,100.0,1.0,1.0,202.51666666666665,0.0,0.0,0.0,0.0,0.0,0.0,0.0,8583.9,0.0,55.0,5.0,236.5233333333333,1.0,0.0,0.0,0.0,0.0,0.0,0.0,0.0,0.05699999999999861,0.05699999999999861,0.0,0.0,1.0,55.0,616.79921,10000.0,85.000001,85.000001,85.000001,85.000001,395.0,0.0,0.0,0.0,1.0,166.665,58.7005,58.7005,62.973,62.973,34.0,-30.1375,17.96,-34.68666666666667,24.945,0.0,1782.486,1.5450000000000017,100.0,22.682,22.08,27.907,27.182000000000002,0.0,0.0,100.0,0.0,0.0,0.0,0.0,3024.714285714286,2603.4,4455.0,4695.4,305.5145,306.57,313.9886666666667,313.1475,21.705875,20.5836,21.915142857142857,21.2798,314.999998,314.999998,324.999988,324.999988,99.55518571428571,99.50921666666666,99.57477142857142,99.54478571428571,-0.09433333333333316,-0.14733333333333332,-0.2152,0.01980000000000004,-0.04100000000000037,-0.05666666666667197,1.3704999999999998,1.461,36.662,29.6475,37.97,33.998999999999995,54.911,35.9005,62.3395,51.305,52.789,34.956,60.8905,49.798,51.866,34.4645,60.8955,49.3565,0.07950000000000013,-0.16399999999999992,0.10783500000000001,0.103275,0.0,205.91,205.755,202.51666666666665,202.51666666666665,0.0,0.0
2,0.0,0.0,0.0,1.0,1.0,0.0,0.0,1.0,0.0,100.0,1.0,1.1856,26.0,0.0,0.0,0.0,59.999996,0.0,26.0,26.0,26.0,26.0,-0.21250000000000002,0.2832000000000001,-0.077575,304.3365,-2.67175,-2.8593,-1.28535,-1.4302000000000001,-268.92,216.185,190.958875,0.0,0.0,0.0,0.0,0.00553333333333339,-5.498166666666667,-5.498166666666667,-0.7386999999999999,-0.3715,-0.055111111111111555,2.832,65.842,-0.09789999999999999,-0.481175,2.4875000000000007,100.0,1.0,1.0,203.48666666666668,0.0,0.0,0.0,0.0,0.0,0.0,0.0,8625.0,0.0,55.0,5.0,237.00666666666666,0.0,0.0,0.0,0.0,0.0,0.0,0.0,0.0,0.10500000000000043,0.10500000000000043,0.0,0.0,0.0,55.0,616.79921,10000.0,85.000001,85.000001,85.000001,85.000001,395.0,0.0,0.0,0.0,1.0,166.665,57.3885,57.3885,65.689,65.689,34.0,-35.379999999999995,19.422,-28.126666666666665,15.6675,0.0,1782.437,1.5249999999999986,100.0,23.286,22.062666666666665,27.424,26.308500000000002,0.0,0.0,100.0,0.0,0.0,0.0,0.0,3388.714285714286,2912.9,3700.1428571428573,3477.1,304.316,305.678,315.78633333333335,316.274,21.715125,20.5884,21.925714285714285,21.2879,314.999998,314.999998,324.999988,324.999988,99.5552,99.50923333333333,99.5749,99.54492857142857,-0.11966666666666681,-0.16866666666666674,-0.2622,-0.014399999999999968,-0.0519999999999996,-0.07333333333333059,1.657,1.742,36.72,29.677500000000002,38.036,34.049,54.908,35.934,62.367,51.356,52.786,34.9865,60.916,49.8475,51.861999999999995,34.4935,60.9195,49.405,0.07150000000000012,-0.17100000000000004,0.10862500000000001,0.115095,0.0,206.33333333333334,206.13,203.48666666666668,203.48666666666668,0.0,0.0
3,0.0,0.0,0.0,1.0,1.0,0.0,0.0,1.0,0.0,100.0,1.0,1.1856,26.0,0.0,0.0,0.0,59.999996,0.0,26.0,26.0,26.0,26.0,-0.21087500000000003,0.29679999999999995,-0.052225,304.4585,-2.80455,-2.7653,-1.3084,-1.4045,-265.56,216.195,190.9395,0.0,0.0,0.0,0.0,0.0074666666666665105,-5.498166666666667,-5.498166666666667,-0.6971,0.805,-0.01644444444444426,-1.2999999999999998,65.995,-0.1352,-0.419375,2.227500000000001,100.0,1.0,1.0,203.71666666666667,0.0,0.0,0.0,0.0,0.0,0.0,0.0,8634.7,0.0,55.0,5.0,237.55333333333334,1.0,0.0,0.0,0.0,0.0,0.0,0.0,0.0,0.1559999999999988,0.1559999999999988,0.0,0.0,1.0,55.0,616.79921,10000.0,85.000001,85.000001,85.000001,85.000001,395.0,0.0,0.0,0.0,1.0,111.11,58.8835,58.8835,63.98,63.98,34.0,-30.122500000000002,16.802,-34.73,17.189999999999998,0.0,1782.387,1.1649999999999991,100.0,22.6065,22.09466666666667,26.896,26.1825,0.0,0.0,100.0,0.0,0.0,0.0,0.0,2886.0,2673.7,4251.714285714285,3960.6000000000004,306.0,306.125,314.591,314.987,21.72475,20.5938,21.936857142857143,21.296599999999998,314.999998,314.999998,324.999988,324.999988,99.55522857142857,99.50925,99.57505714285715,99.54505714285715,-0.11999999999999988,-0.17733333333333312,-0.2754,-0.040999999999999925,-0.05000000000000071,-0.015000000000000568,1.5204999999999997,1.5899999999999999,36.778999999999996,29.7115,38.105000000000004,34.104,54.900999999999996,35.9735,62.3955,51.4155,52.778999999999996,35.022999999999996,60.942499999999995,49.903999999999996,51.855000000000004,34.5285,60.9435,49.461,0.045500000000000096,-0.13549999999999995,0.09300000000000001,0.11539500000000001,0.0,206.85333333333335,206.635,203.71666666666667,203.71666666666667,0.0,0.0
4,0.0,0.0,0.0,1.0,1.0,0.0,0.0,1.0,0.0,100.0,1.0,1.1856,26.0,0.0,0.0,0.0,59.999996,0.0,26.0,26.0,26.0,26.0,-0.23099999999999998,0.27680000000000016,0.0211,304.5045,-2.7327500000000002,-2.8258,-1.3183,-1.4163000000000001,-262.39,216.1975,190.920875,0.0,0.0,0.0,0.0,0.009333333333333305,-5.498166666666667,-5.498166666666667,-0.7239,-1.0585,-0.08999999999999986,-2.011,66.135,-0.14389999999999992,-0.44070000000000004,2.0549999999999997,100.0,1.0,1.0,204.16,0.0,0.0,0.0,0.0,0.0,0.0,0.0,8653.5,0.0,55.0,5.0,238.06333333333333,0.0,0.0,0.0,0.0,0.0,0.0,0.0,0.0,0.20400000000000063,0.20400000000000063,0.0,0.0,0.0,55.0,616.79921,10000.0,85.000001,85.000001,85.000001,85.000001,395.0,0.0,0.0,0.0,1.0,166.665,58.5175,58.5175,64.23949999999999,64.23949999999999,34.0,-34.6275,17.119999999999997,-35.00333333333333,14.99,0.0,1782.34,1.1550000000000011,100.0,22.3305,21.788666666666668,27.277,26.1455,0.0,0.0,100.0,0.0,0.0,0.0,0.0,3285.857142857143,2723.6,4216.571428571428,3553.3,305.0005,306.0566666666667,314.599,315.92575,21.7335,20.5987,21.94757142857143,21.3048,314.999998,314.999998,324.999988,324.999988,99.55524285714286,99.50926666666666,99.57518571428571,99.54518571428571,-0.1336666666666666,-0.18933333333333313,-0.2846,-0.045599999999999974,-0.038000000000000256,-0.03333333333333144,1.544,1.6179999999999999,36.834,29.741999999999997,38.172,34.155,54.891999999999996,36.0075,62.427,51.469,52.771,35.0545,60.973,49.956,51.846000000000004,34.5585,60.9715,49.512,0.04200000000000004,-0.13850000000000007,0.10946000000000002,0.11069500000000002,0.0,207.18333333333334,207.01999999999998,204.16,204.16,0.0,0.0
5,0.0,0.0,0.0,1.0,1.0,0.0,0.0,1.0,0.0,100.0,1.0,1.1856,26.0,0.0,0.0,0.0,59.999996,0.0,26.0,26.0,26.0,26.0,-0.22587499999999994,0.29990000000000006,-0.023525,304.3825,-2.7425,-2.8389,-1.3068,-1.3996,-258.81,216.1975,190.899125,0.0,0.0,0.0,0.0,0.011399999999999966,-5.498166666666667,-5.498166666666667,-0.7334,0.3405,-0.08822222222222242,-0.246,66.292,-0.14939999999999998,-0.44235,1.9325,100.0,1.0,1.0,204.67666666666668,0.0,0.0,0.0,0.0,0.0,0.0,0.0,8675.5,0.0,55.0,5.0,238.62333333333333,1.0,0.0,0.0,0.0,0.0,0.0,0.0,0.0,0.2579999999999991,0.2579999999999991,0.0,0.0,1.0,55.0,616.79921,10000.0,85.000001,85.000001,85.000001,85.000001,395.0,0.0,0.0,0.0,1.0,166.665,58.2275,58.2275,64.7735,64.7735,34.0,-34.4975,18.04,-34.65,14.75,0.0,1782.286,0.5899999999999999,100.0,22.7595,21.942666666666668,27.031,25.902,0.0,0.0,100.0,0.0,0.0,0.0,0.0,3293.714285714286,2742.1,4145.0,3791.4,304.884,306.0006666666667,314.8616666666667,315.396,21.74375,20.6043,21.95942857142857,21.3139,314.999998,314.999998,324.999988,324.999988,99.55525714285714,99.5093,99.57534285714286,99.54532857142857,-0.1213333333333333,-0.17166666666666663,-0.3,-0.0696,-0.07600000000000051,-0.023333333333326323,1.5625,1.635,36.899,29.777,38.245999999999995,34.212,54.888,36.0475,62.460499999999996,51.525999999999996,52.766999999999996,35.091499999999996,61.0045,50.0105,51.841,34.5935,61.0,49.5655,0.010000000000000009,-0.10149999999999992,0.10863,0.101775,0.0,207.73666666666668,207.54000000000002,204.67666666666668,204.67666666666668,0.0,0.0
6,0.0,0.0,0.0,1.0,1.0,0.0,0.0,1.0,0.0,100.0,1.0,1.1856,26.0,0.0,0.0,0.0,59.999996,0.0,26.0,26.0,26.0,26.0,-0.1975,0.29990000000000006,0.005875,304.2145,-2.70835,-2.8717,-1.3497,-1.397,-255.63,216.19,190.87975,0.0,0.0,0.0,0.0,0.013266666666666538,-5.498166666666667,-5.498166666666667,-0.7192000000000001,0.255,-0.07166666666666677,-0.7150000000000001,66.431,-0.14259999999999995,-0.43210000000000004,1.505,100.0,1.0,1.0,205.04333333333335,0.0,0.0,0.0,0.0,0.0,0.0,0.0,8691.0,0.0,55.0,5.0,239.12666666666667,0.0,0.0,0.0,0.0,0.0,0.0,0.0,0.0,0.30600000000000094,0.30600000000000094,0.0,0.0,0.0,55.0,616.79921,10000.0,85.000001,85.000001,85.000001,85.000001,395.0,0.0,0.0,0.0,1.0,166.665,58.2885,58.2885,64.331,64.331,34.0,-32.105000000000004,19.102,-34.64,16.4975,0.0,1782.237,0.32500000000000107,100.0,22.6535,22.081,27.096,26.1945,0.0,0.0,100.0,0.0,0.0,0.0,0.0,3205.0,2746.8,4197.714285714285,3852.3,305.12,305.901,314.73266666666666,315.23625,21.752875,20.6093,21.97,21.3221,314.999998,314.999998,324.999988,324.999988,99.55527142857143,99.5093,99.57548571428572,99.54545714285715,-0.09433333333333316,-0.15366666666666662,-0.2756,-0.04139999999999999,-0.05799999999999983,-0.03499999999999659,1.5505,1.6059999999999999,36.955,29.808500000000002,38.313,34.263,54.882,36.083,62.4905,51.5815,52.762,35.1235,61.033,50.0635,51.834,34.624,61.0265,49.6175,-0.012499999999999956,-0.08000000000000007,0.10702500000000001,0.110905,0.0,208.15666666666667,208.0,205.04333333333335,205.04333333333335,0.0,0.0
7,0.0,0.0,0.0,1.0,1.0,0.0,0.0,1.0,0.0,100.0,1.0,1.1856,26.0,0.0,0.0,0.0,59.999996,0.0,26.0,26.0,26.0,26.0,-0.16774999999999995,0.28190000000000004,0.043300000000000005,304.0465,-2.67475,-2.8348,-1.30585,-1.4384000000000001,-252.24,216.1775,190.859375,0.0,0.0,0.0,0.0,0.015233333333333321,-5.498166666666667,-5.498166666666667,-0.7276,-0.1205,-0.05866666666666642,1.206,66.578,-0.12129999999999996,-0.4489,0.9375,100.0,1.0,1.0,205.49333333333334,0.0,0.0,0.0,0.0,0.0,0.0,0.0,8710.1,0.0,55.0,5.0,239.65666666666667,1.0,0.0,0.0,0.0,0.0,0.0,0.0,0.0,0.3569999999999993,0.3569999999999993,0.0,0.0,1.0,55.0,616.79921,10000.0,85.000001,85.000001,85.000001,85.000001,395.0,0.0,0.0,0.0,1.0,111.11,57.831,57.831,64.6055,64.6055,34.0,-30.555,21.686,-31.006666666666668,18.59,0.0,1782.187,0.08999999999999986,100.0,22.975,21.982,27.261,26.268,0.0,0.0,100.0,0.0,0.0,0.0,0.0,3190.285714285714,2947.4,4002.714285714286,3898.8,304.929,305.46433333333334,315.0606666666667,315.15225,21.762375,20.6147,21.981285714285715,21.331,314.999998,314.999998,324.999988,324.999988,99.55527142857143,99.50931666666666,99.57562857142857,99.5456,-0.058666666666666645,-0.11699999999999999,-0.2454,-0.01639999999999997,-0.05000000000000071,-0.05333333333332746,1.5324999999999998,1.58,37.015,29.842,38.382999999999996,34.319,54.873999999999995,36.1185,62.522,51.64,52.754000000000005,35.1565,61.0625,50.12,51.826,34.6555,61.0535,49.673,-0.04149999999999998,-0.058499999999999996,0.111045,0.101025,0.0,208.57,208.48000000000002,205.49333333333334,205.49333333333334,0.0,0.0
8,0.0,0.0,0.0,1.0,1.0,0.0,0.0,1.0,0.0,100.0,1.0,1.1856,26.0,0.0,0.0,0.0,59.999996,0.0,26.0,26.0,26.0,26.0,-0.12137500000000001,0.27900000000000014,-0.0145,304.352,-2.76325,-2.8031,-1.2925,-1.3846,-248.64,216.16,190.837625,0.0,0.0,0.0,0.0,0.01733333333333331,-5.498166666666667,-5.498166666666667,-0.7329,-0.464,-0.03833333333333311,0.9540000000000002,66.73400000000001,-0.0925999999999999,-0.44577500000000003,0.40249999999999986,100.0,1.0,1.0,205.93666666666667,0.0,0.0,0.0,0.0,0.0,0.0,0.0,8728.8,0.0,55.0,5.0,240.21666666666667,0.0,0.0,0.0,0.0,0.0,0.0,0.0,0.0,0.41100000000000136,0.41100000000000136,0.0,0.0,0.0,55.0,616.79921,10000.0,85.000001,85.000001,85.000001,85.000001,395.0,0.0,0.0,0.0,1.0,111.11,58.548,58.548,64.1785,64.1785,34.0,-27.69,22.886,-28.949999999999996,20.62,0.0,1782.134,-0.11500000000000021,100.0,22.4735,21.947333333333333,27.203,26.305,0.0,0.0,100.0,0.0,0.0,0.0,0.0,2983.142857142857,2966.9,3992.0,3961.6000000000004,305.697,305.5,315.06733333333335,315.006,21.772375,20.6204,21.993142857142857,21.3403,314.999998,314.999998,324.999988,324.999988,99.55528571428572,99.50933333333333,99.57578571428571,99.54574285714286,-0.02966666666666673,-0.08166666666666678,-0.2086,0.02980000000000005,-0.03500000000000014,-0.03833333333332689,1.5415,1.565,37.078,29.877499999999998,38.457,34.376999999999995,54.861000000000004,36.155,62.554,51.701,52.742000000000004,35.19,61.0925,50.1785,51.813,34.6875,61.081,49.7305,-0.05499999999999994,-0.038000000000000034,0.11118000000000001,0.10798,0.0,209.01999999999998,208.96,205.93666666666667,205.93666666666667,0.0,0.0
9,0.0,0.0,0.0,1.0,1.0,0.0,0.0,1.0,0.0,100.0,1.0,1.1856,26.0,0.0,0.0,0.0,59.999996,0.0,26.0,26.0,26.0,26.0,-0.07874999999999999,0.28869999999999996,-0.0164,304.062,-2.69155,-2.7996,-1.34775,-1.3681,-245.63,216.14249999999998,190.819,0.0,0.0,0.0,0.0,0.019066666666666565,-5.498166666666667,-5.498166666666667,-0.7325999999999999,0.679,-0.04477777777777803,-0.589,66.861,-0.0673999999999999,-0.4413,0.27500000000000036,100.0,1.0,1.0,206.41666666666669,0.0,0.0,0.0,0.0,0.0,0.0,0.0,8749.3,0.0,55.0,5.0,240.67333333333335,1.0,0.0,0.0,0.0,0.0,0.0,0.0,0.0,0.4559999999999995,0.4559999999999995,0.0,0.0,1.0,55.0,616.79921,10000.0,85.000001,85.000001,85.000001,85.000001,395.0,0.0,0.0,0.0,1.0,166.665,57.556,57.556,65.048,65.048,34.0,-30.177500000000002,23.412,-28.423333333333332,20.3375,0.0,1782.086,-0.29999999999999893,100.0,22.8205,22.368666666666666,26.765,26.384999999999998,0.0,0.0,100.0,0.0,0.0,0.0,0.0,3364.5714285714284,2911.2,4005.5714285714284,3877.0,304.6215,305.415,315.23966666666666,315.209,21.780875,20.6253,22.002857142857142,21.3481,314.999998,314.999998,324.999988,324.999988,99.55528571428572,99.50933333333333,99.57591428571429,99.54585714285714,-0.009666666666666712,-0.06233333333333313,-0.19119999999999998,0.042200000000000015,-0.07499999999999929,-0.051666666666669414,1.5945,1.6139999999999999,37.131,29.908,38.518,34.425,54.852000000000004,36.186,62.577,51.751,52.732,35.2185,61.1145,50.227000000000004,51.803,34.7145,61.1005,49.778,-0.0675,-0.025500000000000078,0.113555,0.09949500000000001,0.0,209.44,209.4,206.41666666666669,206.41666666666669,0.0,0.0
10,0.0,0.0,0.0,1.0,1.0,0.0,0.0,1.0,0.0,100.0,1.0,1.1856,26.0,0.0,0.0,0.0,59.999996,0.0,26.0,26.0,26.0,26.0,-0.04712499999999997,0.2986,0.0029000000000000002,303.9245,-2.73235,-2.7835,-1.3282500000000002,-1.3448,-242.42000000000002,216.1225,190.7995,0.0,0.0,0.0,0.0,0.02093333333333336,-5.498166666666667,-5.498166666666667,-0.7068,-0.28700000000000003,-0.0031111111111110645,0.4039999999999999,67.001,-0.042199999999999904,-0.4264,-0.09250000000000025,100.0,1.0,1.0,206.62666666666667,0.0,0.0,0.0,0.0,0.0,0.0,0.0,8758.2,0.0,55.0,5.0,241.17666666666668,0.0,0.0,0.0,0.0,0.0,0.0,1.0,0.0,0.5040000000000013,0.5040000000000013,0.0,0.0,0.0,55.0,616.79921,10000.0,85.000001,85.000001,85.000001,85.000001,395.0,0.0,0.0,0.0,1.0,166.665,58.7465,58.7465,63.4155,63.4155,34.0,-24.945,22.71,-29.75,24.315,0.0,1782.039,-0.4399999999999995,100.0,22.4655,22.245,27.221,27.005499999999998,0.0,0.0,100.0,0.0,0.0,0.0,0.0,2916.142857142857,2778.4,4297.428571428572,4171.3,305.9875,305.86466666666666,314.427,314.41175,21.789749999999998,20.6304,22.013571428571428,21.3566,314.999998,314.999998,324.999988,324.999988,99.55528571428572,99.50935,99.57604285714285,99.546,0.014000000000000234,-0.043333333333333224,-0.16219999999999998,0.07720000000000016,-0.0470000000000006,-0.041666666666671404,1.4954999999999998,1.4849999999999999,37.186,29.9405,38.585,34.479,54.839,36.216,62.6065,51.809,52.721000000000004,35.2465,61.141999999999996,50.283,51.791,34.741,61.1255,49.833,-0.08150000000000002,-0.009500000000000064,0.10842500000000001,0.11218000000000002,0.0,209.83666666666664,209.82999999999998,206.62666666666667,206.62666666666667,0.0,0.0
11,0.0,0.0,0.0,1.0,1.0,0.0,0.0,1.0,0.0,100.0,1.0,1.1856,26.0,0.0,0.0,0.0,59.999996,0.0,26.0,26.0,26.0,26.0,0.012375000000000025,0.27680000000000016,-0.090975,304.55,-2.7801,-2.738,-1.38425,-1.3304,-238.8,216.1,190.777625,0.0,0.0,0.0,0.0,0.022599999999999953,-5.498166666666667,-5.498166666666667,-0.754,-0.3535,0.021777777777777896,-1.083,67.15,-0.015999999999999903,-0.464975,-0.3174999999999999,100.0,1.0,1.0,207.39666666666668,0.0,0.0,0.0,0.0,0.0,0.0,0.0,8790.8,0.0,55.0,5.0,241.71333333333334,1.0,0.0,0.0,0.0,0.0,0.0,1.0,0.0,0.5579999999999998,0.5579999999999998,0.0,0.0,1.0,55.0,616.79921,10000.0,85.000001,85.000001,85.000001,85.000001,395.0,0.0,0.0,0.0,1.0,166.665,58.0595,58.0595,65.2465,65.2465,34.0,-26.0925,25.984,-22.64,22.2875,0.0,1781.985,-0.5549999999999997,100.0,22.289,22.448,26.663,26.7825,0.0,0.0,100.0,0.0,0.0,0.0,0.0,3097.857142857143,3033.6,3660.5714285714284,3739.3,305.5205,305.047,316.06,315.5115,21.799625,20.636400000000002,22.025285714285715,21.366,314.999998,314.999998,324.999988,324.999988,99.5553,99.50935,99.5762,99.54614285714285,0.03833333333333311,-0.013666666666666716,-0.1212,0.11299999999999999,-0.03500000000000014,-0.04833333333333201,1.6574999999999998,1.6280000000000001,37.248000000000005,29.9775,38.658,34.538,54.824,36.251,62.6315,51.8715,52.706,35.2785,61.1655,50.3435,51.775999999999996,34.7715,61.1465,49.8925,-0.08899999999999997,-0.0044999999999999485,0.10197500000000001,0.11368500000000001,0.0,210.25666666666666,210.29000000000002,207.39666666666668,207.39666666666668,0.0,0.0
12,0.0,0.0,0.0,1.0,1.0,0.0,0.0,1.0,0.0,100.0,1.0,1.1856,26.0,0.0,0.0,0.0,59.999996,0.0,26.0,26.0,26.0,26.0,0.020000000000000018,0.2836000000000001,0.020200000000000003,304.001,-2.81765,-2.7709,-1.34055,-1.3426,-235.57,216.07999999999998,190.756875,0.0,0.0,0.0,0.0,0.025466666666666526,-5.498166666666667,-5.498166666666667,-0.742,0.446,-0.0013333333333331865,-0.938,67.287,0.0032000000000000917,-0.43645,-0.41249999999999964,100.0,1.0,1.0,207.64,0.0,0.0,0.0,0.0,0.0,0.0,0.0,8801.1,0.0,55.0,5.0,242.20666666666665,0.0,0.0,0.0,0.0,0.0,0.0,1.0,0.0,0.6059999999999981,0.6059999999999981,0.0,0.0,0.0,55.0,616.79921,10000.0,85.000001,85.000001,85.000001,85.000001,395.0,0.0,0.0,0.0,1.0,166.665,57.953,57.953,64.0565,64.0565,34.0,-26.4175,26.728,-25.483333333333327,25.2825,0.0,1781.937,-0.5350000000000001,100.0,22.374,22.595,26.645,26.6665,0.0,0.0,100.0,0.0,0.0,0.0,0.0,3139.5714285714284,3036.5,4138.571428571428,3979.3,305.4045,305.05266666666665,314.911,314.94125,21.808374999999998,20.6418,22.03557142857143,21.3744,314.999998,314.999998,324.999988,324.999988,99.5553,99.50936666666666,99.57634285714286,99.54628571428572,0.04833333333333334,-0.0020000000000000018,-0.10940000000000001,0.129,-0.04299999999999926,-0.04333333333332945,1.556,1.546,37.302,30.011,38.722,34.59,54.812,36.2825,62.656,51.926,52.695,35.3075,61.1885,50.396,51.763999999999996,34.7995,61.167,49.9445,-0.08899999999999997,-0.008000000000000007,0.10812000000000001,0.11354500000000001,0.0,210.71666666666667,210.73000000000002,207.64,207.64,0.0,0.0
13,0.0,0.0,0.0,1.0,1.0,0.0,0.0,1.0,0.0,100.0,1.0,1.1856,26.0,0.0,0.0,0.0,59.999996,0.0,26.0,26.0,26.0,26.0,0.04800000000000004,0.2962,0.0616,303.528,-2.8031,-2.7608,-1.41275,-1.3215,-232.34,216.0575,190.73625,0.0,0.0,0.0,0.0,0.026799999999999935,-5.498166666666667,-5.498166666666667,-0.7263,0.046,0.007777777777777883,-0.506,67.424,0.016199999999999992,-0.432825,-0.6200000000000001,100.0,1.0,1.0,207.92666666666668,0.0,0.0,0.0,0.0,0.0,0.0,0.0,8813.2,0.0,55.0,5.0,242.7,1.0,0.0,0.0,0.0,0.0,0.0,1.0,0.0,0.6539999999999999,0.6539999999999999,0.0,0.0,1.0,55.0,616.79921,10000.0,85.000001,85.000001,85.000001,85.000001,395.0,0.0,0.0,0.0,1.0,166.665,57.8155,57.8155,63.69,63.69,34.0,-24.8175,27.714,-26.68,27.4625,0.0,1781.89,-0.7799999999999994,100.0,22.506,22.644666666666666,26.905,27.201999999999998,0.0,0.0,100.0,0.0,0.0,0.0,0.0,3147.714285714286,3032.7,4223.0,4248.2,305.366,305.05966666666666,314.6913333333333,314.2485,21.817125,20.647100000000002,22.046142857142858,21.3829,314.999998,314.999998,324.999988,324.999988,99.55531428571429,99.50936666666666,99.57647142857142,99.54641428571429,0.0853333333333337,0.026333333333333098,-0.09659999999999999,0.13140000000000018,-0.05099999999999838,-0.03833333333332689,1.509,1.486,37.357,30.0445,38.788,34.643,54.802,36.314499999999995,62.682,51.985,52.686,35.337,61.213,50.453,51.754000000000005,34.8275,61.189,50.001,-0.11099999999999999,0.019000000000000017,0.110975,0.10482500000000002,0.0,211.12333333333333,211.155,207.92666666666668,207.92666666666668,0.0,0.0
14,0.0,0.0,0.0,1.0,1.0,0.0,0.0,1.0,0.0,100.0,1.0,1.1856,26.0,0.0,0.0,0.0,59.999996,0.0,26.0,26.0,26.0,26.0,0.07862499999999994,0.2852000000000001,-0.000875,303.8635,-2.79955,-2.7019,-1.39035,-1.3031000000000001,-228.69,216.0375,190.71375,0.0,0.0,0.0,0.0,0.028899999999999926,-5.498166666666667,-5.498166666666667,-0.7408,-0.325,0.03888888888888897,-0.30899999999999994,67.57300000000001,0.03600000000000003,-0.458475,-0.875,100.0,1.0,1.0,208.49666666666667,0.0,0.0,0.0,0.0,0.0,0.0,0.0,8837.4,0.0,55.0,5.0,243.24,0.0,0.0,0.0,0.0,0.0,0.0,1.0,0.0,0.7079999999999984,0.7079999999999984,0.0,0.0,0.0,55.0,616.79921,10000.0,85.000001,85.000001,85.000001,85.000001,395.0,0.0,0.0,0.0,1.0,111.11,57.892,57.892,64.102,64.102,34.0,-23.3075,28.826,-22.659999999999997,27.5475,0.0,1781.837,-0.8699999999999992,100.0,22.369,22.719,26.844,27.308,0.0,0.0,100.0,0.0,0.0,0.0,0.0,3025.857142857143,3136.3,3915.714285714286,4091.8,305.7235,304.761,315.383,314.63475,21.826999999999998,20.6532,22.05785714285714,21.3926,314.999998,314.999998,324.999988,324.999988,99.55532857142857,99.50936666666666,99.57661428571429,99.54655714285714,0.0943333333333336,0.03966666666666674,-0.0708,0.16399999999999992,-0.03200000000000003,-0.054999999999999716,1.5564999999999998,1.518,37.419,30.0825,38.861999999999995,34.704,54.791,36.3515,62.7095,52.051,52.676,35.3715,61.2385,50.5165,51.742999999999995,34.8605,61.2115,50.0635,-0.11199999999999999,0.01749999999999996,0.10600000000000001,0.11130000000000001,0.0,211.56333333333333,211.615,208.49666666666667,208.49666666666667,0.0,0.0
15,0.0,0.0,0.0,1.0,1.0,0.0,0.0,1.0,0.0,100.0,1.0,1.1856,26.0,0.0,0.0,0.0,59.999996,0.0,26.0,26.0,26.0,26.0,0.10749999999999993,0.2775000000000001,-0.052775,304.077,-2.81085,-2.6633,-1.41385,-1.2627,-225.44,216.01999999999998,190.693625,0.0,0.0,0.0,0.0,0.03079999999999994,-5.498166666666667,-5.498166666666667,-0.7338,0.296,0.06422222222222218,-0.75,67.706,0.05249999999999999,-0.441425,-1.005,100.0,1.0,1.0,208.92333333333335,0.0,0.0,0.0,0.0,0.0,0.0,0.0,8855.5,0.0,55.0,5.0,243.71666666666667,1.0,0.0,0.0,0.0,0.0,0.0,1.0,0.0,0.7560000000000002,0.7560000000000002,0.0,0.0,1.0,55.0,616.79921,10000.0,85.000001,85.000001,85.000001,85.000001,395.0,0.0,0.0,0.0,1.0,111.11,58.2275,58.2275,64.392,64.392,34.0,-21.845,28.137999999999998,-22.08,28.465,0.0,1781.788,-0.7050000000000001,100.0,22.319,22.687666666666665,26.514,27.23,0.0,0.0,100.0,0.0,0.0,0.0,0.0,2884.714285714286,3078.2,3855.714285714286,4221.0,306.143,304.91966666666667,315.5726666666667,314.351,21.835625,20.6587,22.068142857142856,21.4011,314.999998,314.999998,324.999988,324.999988,99.55534285714286,99.50936666666666,99.57674285714286,99.5467,0.10199999999999987,0.045333333333333226,-0.063,0.17379999999999995,-0.05000000000000071,-0.036666666666668846,1.5675,1.532,37.473,30.116999999999997,38.926,34.757,54.782,36.3855,62.7305,52.109,52.667,35.4025,61.257999999999996,50.5725,51.733999999999995,34.89,61.229,50.119,-0.10250000000000004,0.011499999999999955,0.11439,0.10300000000000001,0.0,212.00333333333333,212.06,208.92333333333335,208.92333333333335,0.0,0.0
16,0.0,0.0,0.0,1.0,1.0,0.0,0.0,1.0,0.0,100.0,1.0,1.1856,26.0,0.0,0.0,0.0,59.999996,0.0,26.0,26.0,26.0,26.0,0.09899999999999998,0.27370000000000005,-0.0356,304.138,-2.8632,-2.6809000000000003,-1.3797000000000001,-1.2697,-222.19,216.0025,190.672875,0.0,0.0,0.0,0.0,0.03269999999999995,-5.498166666666667,-5.498166666666667,-0.7508,-0.75,0.04377777777777769,-1.404,67.84,0.06550000000000011,-0.449475,-0.7924999999999995,100.0,1.0,1.0,209.29333333333335,0.0,0.0,0.0,0.0,0.0,0.0,0.0,8871.1,0.0,55.0,5.0,244.2,0.0,0.0,0.0,0.0,0.0,0.0,1.0,0.0,0.8039999999999985,0.8039999999999985,0.0,0.0,0.0,55.0,616.79921,10000.0,85.000001,85.000001,85.000001,85.000001,395.0,0.0,0.0,0.0,1.0,166.665,58.2885,58.2885,64.0715,64.0715,34.0,-23.912499999999998,27.624,-21.123333333333328,27.7675,0.0,1781.74,-0.27999999999999936,100.0,21.96,22.619666666666667,26.773,27.172,0.0,0.0,100.0,0.0,0.0,0.0,0.0,3003.857142857143,3101.6,3925.4285714285716,4061.3,305.906,304.89733333333334,315.3976666666667,314.7255,21.844,20.6641,22.07857142857143,21.4097,314.999998,314.999998,324.999988,324.999988,99.55535714285715,99.50938333333333,99.57688571428571,99.54684285714286,0.08466666666666667,0.02400000000000002,-0.0434,0.18440000000000012,-0.05799999999999983,-0.03499999999999659,1.5739999999999998,1.544,37.525,30.1505,38.991,34.811,54.769,36.4185,62.754999999999995,52.1665,52.653999999999996,35.433,61.2815,50.6285,51.721000000000004,34.9195,61.2495,50.174,-0.07199999999999995,-0.024499999999999966,0.10898500000000001,0.10654000000000001,0.0,212.37333333333333,212.425,209.29333333333335,209.29333333333335,0.0,0.0
17,0.0,0.0,0.0,1.0,1.0,0.0,0.0,1.0,0.0,100.0,1.0,1.1856,26.0,0.0,0.0,0.0,59.999996,0.0,26.0,26.0,26.0,26.0,0.06287500000000001,0.2861,0.0025250000000000003,303.665,-2.81105,-2.676,-1.40755,-1.3047,-218.51999999999998,215.9875,190.648875,0.0,0.0,0.0,0.0,0.03483333333333338,-5.498166666666667,-5.498166666666667,-0.7432,0.5155,0.00955555555555554,-0.9670000000000001,67.989,0.058499999999999996,-0.43667500000000004,-0.2450000000000001,100.0,1.0,1.0,209.72,0.0,0.0,0.0,0.0,0.0,0.0,0.0,8889.3,0.0,55.0,5.0,244.73000000000002,1.0,0.0,0.0,0.0,0.0,0.0,1.0,0.0,0.8580000000000005,0.8580000000000005,0.0,0.0,1.0,55.0,616.79921,10000.0,85.000001,85.000001,85.000001,85.000001,395.0,0.0,0.0,0.0,1.0,166.665,57.831,57.831,63.9345,63.9345,34.0,-25.474999999999998,26.886,-24.953333333333326,28.42,0.0,1781.686,-0.11500000000000021,100.0,22.5295,22.737333333333332,26.682000000000002,27.122,0.0,0.0,100.0,0.0,0.0,0.0,0.0,3172.142857142857,3017.7,4252.571428571428,4153.2,305.331,305.132,314.716,314.56375,21.853875,20.6703,22.090285714285713,21.4192,314.999998,314.999998,324.999988,324.999988,99.55535714285715,99.50938333333333,99.57702857142857,99.54698571428571,0.07666666666666666,0.02733333333333343,-0.066,0.17300000000000004,-0.053000000000000824,-0.045000000000001705,1.5379999999999998,1.526,37.587,30.1895,39.064,34.870000000000005,54.759,36.4565,62.78,52.231,52.644999999999996,35.4685,61.3045,50.6905,51.71,34.953,61.269999999999996,50.235,-0.05799999999999994,-0.03400000000000003,0.10259000000000001,0.11541000000000001,0.0,212.90333333333334,212.92000000000002,209.72,209.72,0.0,0.0
18,0.0,0.0,0.0,1.0,1.0,0.0,0.0,1.0,0.0,100.0,1.0,1.1856,26.0,0.0,0.0,0.0,59.999996,0.0,26.0,26.0,26.0,26.0,0.03875000000000006,0.2734000000000001,0.00615,303.665,-2.84185,-2.6517,-1.4207,-1.2519,-215.26,215.975,190.627875,0.0,0.0,0.0,0.0,0.036733333333333396,-5.498166666666667,-5.498166666666667,-0.749,-0.493,0.030444444444444274,-0.44900000000000007,68.12100000000001,0.03890000000000016,-0.44867500000000005,-0.012500000000000178,100.0,1.0,1.0,210.11,0.0,0.0,0.0,0.0,0.0,0.0,0.0,8905.8,0.0,55.0,5.0,245.21,0.0,0.0,0.0,0.0,0.0,0.0,1.0,0.0,0.9059999999999988,0.9059999999999988,0.0,0.0,0.0,55.0,616.79921,10000.0,85.000001,85.000001,85.000001,85.000001,395.0,0.0,0.0,0.0,1.0,166.665,57.831,57.831,63.736,63.736,34.0,-25.925,27.854,-25.59666666666667,26.46,0.0,1781.637,-0.16000000000000014,100.0,22.3255,22.634333333333334,27.005,27.374499999999998,0.0,0.0,100.0,0.0,0.0,0.0,0.0,3129.142857142857,3179.0,4079.5714285714284,4130.8,305.506,304.7126666666667,315.06,314.58725,21.862375,20.6758,22.100714285714286,21.4279,314.999998,314.999998,324.999988,324.999988,99.55537142857143,99.5094,99.57717142857143,99.54712857142857,0.061666666666666536,0.018000000000000238,-0.09659999999999999,0.15200000000000014,-0.045999999999999375,-0.03833333333332689,1.5335,1.532,37.64,30.2235,39.129999999999995,34.924,54.748000000000005,36.488,62.805,52.29,52.634,35.4975,61.328,50.748,51.699,34.981,61.291,50.2915,-0.057499999999999996,-0.030999999999999917,0.11335500000000001,0.11608500000000001,0.0,213.29333333333335,213.26,210.11,210.11,0.0,0.0
19,0.0,0.0,0.0,1.0,1.0,0.0,0.0,1.0,0.0,100.0,1.0,1.1856,26.0,0.0,0.0,0.0,59.999996,0.0,26.0,26.0,26.0,26.0,0.021625000000000005,0.30210000000000004,0.041550000000000004,303.375,-2.7962,-2.6583,-1.4186,-1.2498,-211.98000000000002,215.965,190.606625,0.0,0.0,0.0,0.0,0.0386333333333333,-5.498166666666667,-5.498166666666667,-0.7445999999999999,0.7545000000000001,0.021777777777777896,-1.032,68.251,0.029200000000000115,-0.44565000000000005,0.009999999999999787,100.0,1.0,1.0,210.54333333333335,0.0,0.0,0.0,0.0,0.0,0.0,0.0,8924.1,0.0,55.0,5.0,245.67666666666668,1.0,0.0,0.0,0.0,0.0,0.0,1.0,0.0,0.9540000000000006,0.9540000000000006,0.0,0.0,1.0,55.0,616.79921,10000.0,85.000001,85.000001,85.000001,85.000001,395.0,0.0,0.0,0.0,1.0,166.665,57.2205,57.2205,63.9345,63.9345,34.0,-27.4275,27.334,-25.88666666666667,26.79,0.0,1781.589,-0.009999999999999787,100.0,22.779,22.904666666666667,26.79,27.1965,0.0,0.0,100.0,0.0,0.0,0.0,0.0,3256.285714285714,3188.9,4158.0,4205.7,305.025,304.58166666666665,314.929,314.47075,21.871125,20.6814,22.11114285714286,21.4364,314.999998,314.999998,324.999988,324.999988,99.55537142857143,99.5094,99.5773,99.54727142857143,0.04899999999999993,-0.0013333333333331865,-0.0938,0.15000000000000013,-0.045999999999999375,-0.03833333333332689,1.5505,1.5390000000000001,37.695,30.258499999999998,39.195,34.977999999999994,54.738,36.5215,62.827,52.347,52.625,35.5285,61.3485,50.803,51.689,35.0105,61.309,50.346000000000004,-0.04949999999999999,-0.046499999999999986,0.11106500000000001,0.11592500000000001,0.0,213.71666666666667,213.715,210.54333333333335,210.54333333333335,0.0,0.0
20,0.0,0.0,0.0,1.0,1.0,0.0,0.0,1.0,0.0,100.0,1.0,1.1856,26.0,0.0,0.0,0.0,59.999996,0.0,26.0,26.0,26.0,26.0,0.030000000000000027,0.2714000000000001,-0.0111,303.8025,-2.8358499999999998,-2.7341,-1.3329,-1.379,-208.29,215.9525,190.583,0.0,0.0,0.0,0.0,0.04076666666666651,-5.498166666666667,-5.498166666666667,-0.746,-1.1225,0.011888888888888838,-1.08,68.4,0.016199999999999992,-0.44995,0.19500000000000028,100.0,1.0,1.0,210.87333333333333,0.0,0.0,0.0,0.0,0.0,0.0,0.0,8938.1,0.0,55.0,5.0,246.21666666666667,0.0,0.0,0.0,0.0,0.0,0.0,0.0,0.0,1.0079999999999991,1.0079999999999991,0.0,0.0,0.0,55.0,616.79921,10000.0,85.000001,85.000001,85.000001,85.000001,395.0,0.0,0.0,0.0,1.0,166.665,58.5175,58.5175,63.3545,63.3545,34.0,-25.7475,25.036,-25.589999999999996,27.37,0.0,1781.536,0.0649999999999995,100.0,22.139499999999998,22.479333333333333,27.329,27.4255,0.0,0.0,100.0,0.0,0.0,0.0,0.0,3009.714285714286,2950.7,4165.714285714285,4120.1,305.8865,305.35333333333335,314.77233333333334,314.49725,21.880625,20.6874,22.123,21.4462,314.999998,314.999998,324.999988,324.999988,99.55538571428572,99.5094,99.57745714285714,99.54742857142857,0.03500000000000014,-0.015333333333333199,-0.1022,0.13200000000000012,-0.05699999999999861,-0.03166666666666629,1.4905,1.501,37.754,30.296,39.269,35.039,54.723,36.5555,62.8575,52.413,52.611000000000004,35.56,61.3775,50.867,51.674,35.041,61.335,50.409,-0.03749999999999998,-0.04800000000000004,0.1039,0.11608,0.0,214.15666666666667,214.10500000000002,210.87333333333333,210.87333333333333,0.0,0.0
21,0.0,0.0,0.0,1.0,1.0,0.0,0.0,1.0,0.0,100.0,1.0,1.1856,26.0,0.0,0.0,0.0,59.999996,0.0,26.0,26.0,26.0,26.0,0.01187500000000008,0.2864,-0.06185,304.0925,-2.7937,-2.7436,-1.39545,-1.3417,-205.01,215.94,190.56125,0.0,0.0,0.0,0.0,0.04266666666666652,-5.498166666666667,-5.498166666666667,-0.774,0.3065,-0.008999999999999897,-1.173,68.525,-0.0011999999999999789,-0.45835000000000004,0.27749999999999986,100.0,1.0,1.0,211.53,0.0,0.0,0.0,0.0,0.0,0.0,0.0,8965.9,0.0,55.0,5.0,246.66666666666666,1.0,0.0,0.0,0.0,0.0,0.0,0.0,0.0,1.056000000000001,1.056000000000001,0.0,0.0,1.0,55.0,616.79921,10000.0,85.000001,85.000001,85.000001,85.000001,395.0,0.0,0.0,0.0,1.0,166.665,57.831,57.831,64.728,64.728,34.0,-27.435,25.688,-25.32,23.505,0.0,1781.488,-0.07000000000000028,100.0,22.592,22.660666666666668,26.747,26.928,0.0,0.0,100.0,0.0,0.0,0.0,0.0,3200.0,3028.5,3947.714285714286,3848.0,305.268,305.1306666666667,315.4293333333333,315.323,21.889375,20.6929,22.133285714285712,21.4545,314.999998,314.999998,324.999988,324.999988,99.55538571428572,99.5094,99.57758571428572,99.54755714285714,0.033333333333333215,-0.020000000000000018,-0.1246,0.11840000000000006,-0.05000000000000071,-0.03499999999999659,1.605,1.613,37.808,30.3305,39.333,35.091,54.711,36.5875,62.8775,52.466,52.599999999999994,35.5895,61.396,50.9185,51.662,35.069,61.3515,50.4595,-0.05249999999999999,-0.038000000000000034,0.105355,0.11629,0.0,214.56333333333333,214.535,211.53,211.53,0.0,0.0
22,0.0,0.0,0.0,1.0,1.0,0.0,0.0,1.0,0.0,100.0,1.0,1.1856,26.0,0.0,0.0,0.0,59.999996,0.0,26.0,26.0,26.0,26.0,-0.004874999999999963,0.27170000000000005,0.00685,303.5735,-2.7199,-2.7996,-1.38895,-1.3336999999999999,-201.70999999999998,215.93,190.53875,0.0,0.0,0.0,0.0,0.04459999999999997,-5.498166666666667,-5.498166666666667,-0.7509,0.341,-0.0032222222222220154,-0.538,68.658,-0.01079999999999992,-0.435825,0.27749999999999986,100.0,1.0,1.0,211.71333333333334,0.0,0.0,0.0,0.0,0.0,0.0,0.0,8973.7,0.0,55.0,5.0,247.14333333333335,0.0,0.0,0.0,0.0,0.0,0.0,0.0,0.0,1.1039999999999992,1.1039999999999992,0.0,0.0,0.0,55.0,616.79921,10000.0,85.000001,85.000001,85.000001,85.000001,395.0,0.0,0.0,0.0,1.0,166.665,57.953,57.953,63.553,63.553,34.0,-25.705,24.817999999999998,-29.006666666666668,25.23,0.0,1781.441,-0.1349999999999998,100.0,22.6865,22.781,27.152,27.156,0.0,0.0,100.0,0.0,0.0,0.0,0.0,3060.4285714285716,2949.0,4224.428571428572,4208.8,305.567,305.247,314.7393333333333,314.43375,21.898,20.6983,22.143857142857144,21.4631,314.999998,314.999998,324.999988,324.999988,99.55538571428572,99.5094,99.57772857142857,99.5477,0.03000000000000025,-0.038999999999999924,-0.14400000000000002,0.09440000000000004,-0.054999999999999716,-0.046666666666666856,1.4809999999999999,1.5070000000000001,37.863,30.3645,39.399,35.144,54.7,36.6195,62.9035,52.522999999999996,52.589,35.619,61.421,50.973,51.650999999999996,35.097,61.3735,50.5135,-0.056499999999999995,-0.04699999999999993,0.11188000000000001,0.10502500000000001,0.0,215.0,214.94,211.71333333333334,211.71333333333334,0.0,0.0
23,0.0,0.0,0.0,1.0,1.0,0.0,0.0,1.0,0.0,100.0,1.0,1.1856,26.0,0.0,0.0,0.0,59.999996,0.0,26.0,26.0,26.0,26.0,0.002874999999999961,0.2558,-0.043425000000000005,303.604,-2.75465,-2.7514000000000003,-1.43815,-1.3959000000000001,-198.0,215.91750000000002,190.513875,0.0,0.0,0.0,0.0,0.04676666666666651,-5.498166666666667,-5.498166666666667,-0.7662,-0.2505,-0.004555555555555646,-0.5609999999999999,68.801,-0.010199999999999987,-0.46145,0.20999999999999996,100.0,1.0,1.0,212.23666666666668,0.0,0.0,0.0,0.0,0.0,0.0,0.0,8995.9,0.0,55.0,5.0,247.66333333333336,1.0,0.0,0.0,0.0,0.0,0.0,0.0,0.0,1.1580000000000013,1.1580000000000013,0.0,0.0,1.0,55.0,616.79921,10000.0,85.000001,85.000001,85.000001,85.000001,395.0,0.0,0.0,0.0,1.0,111.11,57.4035,57.4035,64.453,64.453,34.0,-28.4325,25.332,-27.03,24.0075,0.0,1781.387,-0.10999999999999943,100.0,22.884,22.732,27.261,27.371000000000002,0.0,0.0,100.0,0.0,0.0,0.0,0.0,3303.714285714286,3022.7,4004.285714285714,3893.7,304.871,305.115,315.309,315.0975,21.90775,20.7045,22.155571428571427,21.4728,314.999998,314.999998,324.999988,324.999988,99.5554,99.50941666666667,99.57788571428571,99.54785714285714,0.02933333333333321,-0.030333333333333323,-0.13319999999999999,0.10000000000000009,-0.03999999999999915,-0.05833333333333002,1.5345,1.5510000000000002,37.924,30.403,39.473,35.205,54.687,36.655,62.932,52.5875,52.577,35.652,61.4475,51.0355,51.638,35.1285,61.3975,50.575,-0.0605,-0.040000000000000036,0.10881500000000001,0.111765,0.0,215.38666666666666,215.39,212.23666666666668,212.23666666666668,0.0,0.0
24,0.0,0.0,0.0,1.0,1.0,0.0,0.0,1.0,0.0,100.0,1.0,1.1856,26.0,0.0,0.0,0.0,59.999996,0.0,26.0,26.0,26.0,26.0,-0.021499999999999964,0.2865,-0.06655,303.955,-2.78055,-2.7619,-1.3608,-1.3339,-194.89999999999998,215.9075,190.493,0.0,0.0,0.0,0.0,0.048566666666666536,-5.498166666666667,-5.498166666666667,-0.7753,-0.549,0.011444444444444368,1.404,68.922,-0.006599999999999939,-0.45705,0.009999999999999787,100.0,1.0,1.0,212.54333333333335,0.0,0.0,0.0,0.0,0.0,0.0,0.0,9008.9,0.0,55.0,5.0,248.09666666666666,0.0,0.0,0.0,0.0,0.0,0.0,0.0,0.0,1.2029999999999994,1.2029999999999994,0.0,0.0,0.0,55.0,616.79921,10000.0,85.000001,85.000001,85.000001,85.000001,395.0,0.0,0.0,0.0,1.0,166.665,58.5785,58.5785,63.736,63.736,34.0,-24.315,25.490000000000002,-26.203333333333333,25.5775,0.0,1781.341,-0.11500000000000021,100.0,22.629,22.285666666666668,27.320999999999998,27.1385,0.0,0.0,100.0,0.0,0.0,0.0,0.0,2870.142857142857,3003.6,4123.714285714285,4088.3,306.009,305.41333333333336,314.8306666666667,314.7845,21.915875,20.7095,22.16542857142857,21.4809,314.999998,314.999998,324.999988,324.999988,99.5554,99.50941666666667,99.57801428571429,99.54798571428572,0.03533333333333344,-0.01633333333333331,-0.11359999999999999,0.1200000000000001,-0.03200000000000003,-0.05833333333333002,1.5305,1.5230000000000001,37.974000000000004,30.4345,39.534,35.254999999999995,54.675,36.6835,62.955,52.6395,52.566,35.678,61.469,51.086,51.626000000000005,35.1535,61.4165,50.6245,-0.05799999999999994,-0.03249999999999997,0.10781,0.11415000000000002,0.0,215.75666666666666,215.765,212.54333333333335,212.54333333333335,0.0,0.0
25,0.0,0.0,0.0,1.0,1.0,0.0,0.0,1.0,0.0,100.0,1.0,1.1856,26.0,0.0,0.0,0.0,59.999996,0.0,26.0,26.0,26.0,26.0,-0.02562500000000001,0.2619,-0.04265,303.879,-2.8436,-2.721,-1.37325,-1.3388,-191.18,215.89249999999998,190.466125,0.0,0.0,0.0,0.0,0.0507333333333333,-5.498166666666667,-5.498166666666667,-0.8067,0.0925,0.011111111111111072,-0.09999999999999987,69.063,-0.0047999999999999154,-0.459075,0.040000000000000036,100.0,1.0,1.0,213.14333333333332,0.0,0.0,0.0,0.0,0.0,0.0,0.0,9034.4,0.0,55.0,5.0,248.60333333333335,1.0,0.0,0.0,0.0,0.0,0.0,0.0,0.0,1.256999999999998,1.256999999999998,0.0,0.0,1.0,55.0,616.79921,10000.0,85.000001,85.000001,85.000001,85.000001,395.0,0.0,0.0,0.0,1.0,111.11,57.419,57.419,64.6665,64.6665,34.0,-27.785,27.964,-24.03,23.995,0.0,1781.287,-0.125,100.0,22.664,22.6,26.868000000000002,26.823,0.0,0.0,100.0,0.0,0.0,0.0,0.0,3199.4285714285716,3298.2,3809.8571428571427,3943.1000000000004,305.159,304.47333333333336,315.67466666666667,315.12475,21.925375,20.7157,22.17685714285714,21.4904,314.999998,314.999998,324.999988,324.999988,99.55541428571429,99.50941666666667,99.57815714285714,99.54812857142858,0.04033333333333333,-0.019333333333333202,-0.12240000000000001,0.11440000000000006,-0.04499999999999815,-0.054999999999999716,1.5989999999999998,1.603,38.034,30.473,39.605999999999995,35.315,54.66,36.719,62.9785,52.7,52.551,35.711,61.491,51.144,51.611000000000004,35.185,61.4355,50.682,-0.061999999999999944,-0.04400000000000004,0.10765500000000001,0.10812000000000001,0.0,216.21666666666667,216.195,213.14333333333332,213.14333333333332,0.0,0.0
26,0.0,0.0,0.0,1.0,1.0,0.0,0.0,1.0,0.0,100.0,1.0,1.1856,26.0,0.0,0.0,0.0,59.999996,0.0,26.0,26.0,26.0,26.0,-0.026249999999999996,0.27259999999999995,0.08132500000000001,302.7495,-2.79225,-2.8069,-1.41715,-1.3381,-187.86,215.88,190.44175,0.0,0.0,0.0,0.0,0.05263333333333331,-5.498166666666667,-5.498166666666667,-0.7588,0.9885,-0.011555555555555763,0.8279999999999998,69.194,-0.00649999999999995,-0.424775,0.04499999999999993,100.0,1.0,1.0,213.23000000000002,0.0,0.0,0.0,0.0,0.0,0.0,0.0,9038.1,0.0,55.0,5.0,249.07333333333332,0.0,0.0,0.0,0.0,0.0,0.0,0.0,0.0,1.3049999999999997,1.3049999999999997,0.0,0.0,0.0,55.0,616.79921,10000.0,85.000001,85.000001,85.000001,85.000001,395.0,0.0,0.0,0.0,1.0,166.665,57.2815,57.2815,62.6525,62.6525,34.0,-26.322499999999998,27.854,-30.42,29.13,0.0,1781.237,-0.25,100.0,23.243,22.897333333333332,27.498,27.271,0.0,0.0,100.0,0.0,0.0,0.0,0.0,3140.285714285714,3139.8,4500.857142857143,4492.8,305.182,304.8473333333333,314.05266666666665,313.869,21.93425,20.7213,22.187428571428573,21.499,314.999998,314.999998,324.999988,324.999988,99.55541428571429,99.50941666666667,99.57831428571428,99.54828571428571,0.05466666666666642,-0.006000000000000005,-0.117,0.12379999999999991,-0.05000000000000071,-0.03999999999999915,1.4474999999999998,1.459,38.089,30.508499999999998,39.671,35.369,54.65,36.754999999999995,63.007,52.760999999999996,52.543,35.744,61.518,51.2035,51.602000000000004,35.216499999999996,61.46,50.74,-0.06799999999999995,-0.028999999999999915,0.10607000000000001,0.11256500000000001,0.0,216.66,216.64,213.23000000000002,213.23000000000002,0.0,0.0
27,0.0,0.0,0.0,1.0,1.0,0.0,0.0,1.0,0.0,100.0,1.0,1.1856,26.0,0.0,0.0,0.0,59.999996,0.0,26.0,26.0,26.0,26.0,-0.008624999999999994,0.25460000000000016,-0.012225,303.238,-2.7643,-2.7706,-1.41075,-1.404,-184.53,215.8675,190.418625,0.0,0.0,0.0,0.0,0.05456666666666654,-5.498166666666667,-5.498166666666667,-0.7798,-1.202,-0.0033333333333334103,0.8559999999999999,69.32,-0.004899999999999904,-0.467175,-0.13750000000000018,100.0,1.0,1.0,213.65,0.0,0.0,0.0,0.0,0.0,0.0,0.0,9055.9,0.0,55.0,5.0,249.53,1.0,0.0,0.0,0.0,0.0,0.0,0.0,0.0,1.352999999999998,1.352999999999998,0.0,0.0,1.0,55.0,616.79921,10000.0,85.000001,85.000001,85.000001,85.000001,395.0,0.0,0.0,0.0,1.0,111.11,57.892,57.892,62.927,62.927,34.0,-24.52,27.542,-27.479999999999997,27.3,0.0,1781.191,-0.34499999999999886,100.0,22.791,22.618333333333332,28.016,27.819000000000003,0.0,0.0,100.0,0.0,0.0,0.0,0.0,2979.857142857143,3145.6,4138.714285714285,4157.2,305.6805,304.94733333333335,314.7943333333333,314.50525,21.94275,20.7268,22.19814285714286,21.5079,314.999998,314.999998,324.999988,324.999988,99.55541428571429,99.50941666666667,99.57844285714286,99.54841428571429,0.05433333333333357,-0.003666666666666707,-0.1184,0.11699999999999999,-0.04100000000000037,-0.046666666666666856,1.4845000000000002,1.468,38.141999999999996,30.5425,39.738,35.424,54.638999999999996,36.7845,63.033500000000004,52.817,52.531,35.771,61.543,51.257,51.59,35.242,61.4825,50.793,-0.07199999999999995,-0.020499999999999963,0.11237000000000001,0.10686500000000002,0.0,216.97,216.97500000000002,213.65,213.65,0.0,0.0
28,0.0,0.0,0.0,1.0,1.0,0.0,0.0,1.0,0.0,100.0,1.0,1.1856,26.0,0.0,0.0,0.0,59.999996,0.0,26.0,26.0,26.0,26.0,0.026250000000000107,0.2702,-0.07275000000000001,303.772,-2.75545,-2.7576,-1.35705,-1.3635,-181.0,215.85500000000002,190.393625,0.0,0.0,0.0,0.0,0.05663333333333331,-5.498166666666667,-5.498166666666667,-0.8018,0.468,-0.009777777777777885,-0.534,69.449,0.0033000000000000806,-0.464575,-0.11000000000000032,100.0,1.0,1.0,214.30666666666667,0.0,0.0,0.0,0.0,0.0,0.0,0.0,9083.7,0.0,55.0,5.0,249.99333333333334,0.0,0.0,0.0,0.0,0.0,0.0,0.0,0.0,1.404,1.404,0.0,0.0,0.0,55.0,616.79921,10000.0,85.000001,85.000001,85.000001,85.000001,395.0,0.0,0.0,0.0,1.0,166.665,57.5865,57.5865,64.621,64.621,34.0,-26.78,26.312,-24.343333333333327,24.8625,0.0,1781.14,-0.3049999999999997,100.0,22.779,22.806333333333335,27.047,27.22,0.0,0.0,100.0,0.0,0.0,0.0,0.0,3223.142857142857,3048.5,3907.8571428571427,3930.1000000000004,305.1075,305.01466666666664,315.5436666666667,315.11725,21.951875,20.7327,22.209,21.5169,314.999998,314.999998,324.999988,324.999988,99.55542857142858,99.50943333333333,99.57858571428571,99.54855714285715,0.049666666666666526,-0.014999999999999902,-0.12,0.12559999999999993,-0.053999999999998494,-0.04999999999999716,1.5975000000000001,1.5939999999999999,38.199,30.5795,39.806,35.480000000000004,54.628,36.8185,63.0545,52.873,52.521,35.8025,61.5625,51.3115,51.579,35.272,61.4995,50.846000000000004,-0.07350000000000001,-0.026999999999999913,0.11387000000000001,0.11364,0.0,217.41,217.42000000000002,214.30666666666667,214.30666666666667,0.0,0.0
29,0.0,0.0,0.0,1.0,1.0,0.0,0.0,1.0,0.0,100.0,1.0,1.1856,26.0,0.0,0.0,0.0,59.999996,0.0,26.0,26.0,26.0,26.0,0.024250000000000105,0.2591000000000001,0.013825,303.421,-2.74185,-2.8004,-1.3609,-1.3344,-177.45,215.8425,190.367125,0.0,0.0,0.0,0.0,0.058699999999999974,-5.498166666666667,-5.498166666666667,-0.7985,-0.47850000000000004,0.0007777777777777661,0.94,69.586,0.009500000000000064,-0.446425,-0.28500000000000014,100.0,1.0,1.0,214.48666666666668,0.0,0.0,0.0,0.0,0.0,0.0,0.0,9091.3,0.0,55.0,5.0,250.48666666666668,1.0,0.0,0.0,0.0,0.0,0.0,0.0,0.0,1.4549999999999983,1.4549999999999983,0.0,0.0,1.0,55.0,616.79921,10000.0,85.000001,85.000001,85.000001,85.000001,395.0,0.0,0.0,0.0,1.0,166.665,57.9225,57.9225,63.4005,63.4005,34.0,-23.9175,27.898,-25.58,28.22,0.0,1781.089,-0.34499999999999886,100.0,22.6495,22.595333333333333,27.402,27.3045,0.0,0.0,100.0,0.0,0.0,0.0,0.0,3003.714285714286,3123.7,4111.142857142857,4276.4,305.649,304.90233333333333,314.85566666666665,314.32025,21.960875,20.7385,22.22,21.5261,314.999998,314.999998,324.999988,324.999988,99.55542857142858,99.50943333333333,99.57872857142857,99.5487,0.06866666666666665,0.0003333333333332966,-0.0996,0.139,-0.03500000000000014,-0.05666666666667197,1.487,1.4889999999999999,38.254999999999995,30.616,39.875,35.538,54.614000000000004,36.851,63.0815,52.9335,52.507999999999996,35.832499999999996,61.588,51.3695,51.565,35.301,61.522,50.9035,-0.07750000000000001,-0.02300000000000013,0.11400500000000001,0.1116,0.0,217.8,217.825,214.48666666666668,214.48666666666668,0.0,0.0
30,0.0,0.0,0.0,1.0,1.0,0.0,0.0,1.0,0.0,100.0,1.0,1.1856,26.0,0.0,0.0,0.0,59.999996,0.0,26.0,26.0,26.0,26.0,0.026375000000000037,0.24819999999999998,0.016175000000000002,302.887,-2.75775,-2.6929,-1.33195,-1.4,-173.89999999999998,215.82999999999998,190.3405,0.0,0.0,0.0,0.0,0.060766666666666524,-5.498166666666667,-5.498166666666667,-0.7949999999999999,0.8235,-0.009888888888888836,-0.762,69.71600000000001,0.01760000000000006,-0.4524,-0.16000000000000014,100.0,1.0,1.0,214.96,0.0,0.0,0.0,0.0,0.0,0.0,0.0,9111.4,0.0,55.0,5.0,250.95666666666665,0.0,0.0,0.0,0.0,0.0,0.0,1.0,0.0,1.5060000000000002,1.5060000000000002,0.0,0.0,0.0,55.0,616.79921,10000.0,85.000001,85.000001,85.000001,85.000001,395.0,0.0,0.0,0.0,1.0,166.665,56.6865,56.6865,63.736,63.736,34.0,-27.94,27.12,-26.336666666666666,27.5175,0.0,1781.037,-0.3049999999999997,100.0,23.238500000000002,23.267,27.233,27.512999999999998,0.0,0.0,100.0,0.0,0.0,0.0,0.0,3394.4285714285716,3124.8,4200.0,4071.5,304.557,304.709,314.80033333333336,314.6795,21.970125,20.7447,22.231,21.5353,314.999998,314.999998,324.999988,324.999988,99.55544285714285,99.50943333333333,99.57888571428572,99.54885714285714,0.062333333333333574,-0.0023333333333332984,-0.113,0.13600000000000012,-0.05900000000000105,-0.03499999999999659,1.4929999999999999,1.492,38.313,30.654,39.944,35.596000000000004,54.605999999999995,36.8875,63.1055,52.993,52.5,35.866,61.6105,51.4275,51.556,35.333,61.542,50.96,-0.07699999999999996,-0.02400000000000002,0.114655,0.10965000000000001,0.0,218.25666666666666,218.25,214.96,214.96,0.0,0.0
31,0.0,0.0,0.0,1.0,1.0,0.0,0.0,1.0,0.0,100.0,1.0,1.1856,26.0,0.0,0.0,0.0,59.999996,0.0,26.0,26.0,26.0,26.0,0.02750000000000008,0.2613000000000001,0.0204,302.8715,-2.8661,-2.6747,-1.3773,-1.392,-170.55,215.8175,190.316375,0.0,0.0,0.0,0.0,0.06269999999999998,-5.498166666666667,-5.498166666666667,-0.7766,-0.3535,-0.0011111111111112848,-0.8519999999999999,69.842,0.02200000000000002,-0.451925,-0.2549999999999999,100.0,1.0,1.0,215.19,0.0,0.0,0.0,0.0,0.0,0.0,0.0,9121.2,0.0,55.0,5.0,251.41,1.0,0.0,0.0,0.0,0.0,0.0,1.0,0.0,1.5539999999999985,1.5539999999999985,0.0,0.0,1.0,55.0,616.79921,10000.0,85.000001,85.000001,85.000001,85.000001,395.0,0.0,0.0,0.0,1.0,111.11,57.602000000000004,57.602000000000004,62.286500000000004,62.286500000000004,34.0,-26.36,27.578,-27.526666666666664,29.2575,0.0,1780.99,-0.34499999999999886,100.0,22.7185,23.093333333333334,27.817,27.992,0.0,0.0,100.0,0.0,0.0,0.0,0.0,3143.0,3174.7,4376.428571428572,4256.8,305.5245,304.74533333333335,314.3066666666667,314.35025,21.978625,20.7503,22.241714285714284,21.5442,314.999998,314.999998,324.999988,324.999988,99.55545714285714,99.50945,99.57902857142857,99.549,0.05966666666666676,0.00633333333333308,-0.09440000000000001,0.14200000000000013,-0.03399999999999892,-0.041666666666671404,1.467,1.45,38.366,30.6895,40.01,35.650999999999996,54.595,36.920500000000004,63.132999999999996,53.0525,52.489999999999995,35.897,61.637,51.485,51.546,35.3625,61.5655,51.016999999999996,-0.07550000000000001,-0.022499999999999964,0.11072000000000001,0.10825000000000001,0.0,218.59,218.615,215.19,215.19,0.0,0.0
32,0.0,0.0,0.0,1.0,1.0,0.0,0.0,1.0,0.0,100.0,1.0,1.1856,26.0,0.0,0.0,0.0,59.999996,0.0,26.0,26.0,26.0,26.0,0.03887499999999999,0.27700000000000014,-0.024300000000000002,303.299,-2.7627,-2.7969,-1.3649,-1.3094999999999999,-166.76999999999998,215.805,190.289375,0.0,0.0,0.0,0.0,0.06489999999999996,-5.498166666666667,-5.498166666666667,-0.7988999999999999,-0.25,-0.03500000000000014,-1.22,69.97800000000001,0.0253000000000001,-0.46625,-0.28749999999999964,100.0,1.0,1.0,215.73000000000002,0.0,0.0,0.0,0.0,0.0,0.0,0.0,9144.0,0.0,55.0,5.0,251.9,0.0,0.0,0.0,0.0,0.0,0.0,1.0,0.0,1.6080000000000005,1.6080000000000005,0.0,0.0,0.0,55.0,616.79921,10000.0,85.000001,85.000001,85.000001,85.000001,395.0,0.0,0.0,0.0,1.0,166.665,57.7395,57.7395,63.507,63.507,34.0,-25.4525,27.296,-25.326666666666668,27.67,0.0,1780.937,-0.29999999999999893,100.0,22.7205,22.897,27.442,27.649,0.0,0.0,100.0,0.0,0.0,0.0,0.0,3167.0,3028.7,4179.428571428572,4205.1,305.2895,305.07466666666664,314.7846666666667,314.507,21.988,20.7567,22.253285714285713,21.554,314.999998,314.999998,324.999988,324.999988,99.55547142857142,99.50945,99.57918571428571,99.54915714285714,0.06966666666666654,0.006000000000000227,-0.089,0.1474000000000002,-0.036999999999999034,-0.051666666666669414,1.5274999999999999,1.51,38.425,30.7295,40.083,35.712,54.583,36.957,63.158500000000004,53.1155,52.479,35.931,61.661,51.546,51.533,35.394999999999996,61.5865,51.077,-0.07799999999999996,-0.025500000000000078,0.108185,0.11192500000000001,0.0,219.01666666666665,219.03,215.73000000000002,215.73000000000002,0.0,0.0
33,0.0,0.0,0.0,1.0,1.0,0.0,0.0,1.0,0.0,100.0,1.0,1.1856,26.0,0.0,0.0,0.0,59.999996,0.0,26.0,26.0,26.0,26.0,0.016250000000000098,0.264,-0.0555,303.5735,-2.79745,-2.7857000000000003,-1.36115,-1.389,-163.62,215.7975,190.265875,0.0,0.0,0.0,0.0,0.06673333333333331,-5.498166666666667,-5.498166666666667,-0.8113,-0.329,-0.024555555555555664,1.5390000000000001,70.093,0.023900000000000032,-0.4576,-0.20749999999999957,100.0,1.0,1.0,216.09333333333333,0.0,0.0,0.0,0.0,0.0,0.0,0.0,9159.4,0.0,55.0,5.0,252.31333333333333,1.0,0.0,0.0,0.0,0.0,0.0,1.0,0.0,1.6529999999999987,1.6529999999999987,0.0,0.0,1.0,55.0,616.79921,10000.0,85.000001,85.000001,85.000001,85.000001,395.0,0.0,0.0,0.0,1.0,333.33500000000004,58.028999999999996,58.028999999999996,63.858,63.858,34.0,-24.595,27.759999999999998,-24.35333333333333,28.4625,0.0,1780.889,-0.33999999999999986,100.0,22.753,22.543666666666667,27.362000000000002,27.3495,0.0,0.0,100.0,0.0,0.0,0.0,0.0,3033.857142857143,3096.1,4059.714285714286,4184.9,305.602,305.084,315.0366666666667,314.5785,21.995874999999998,20.7618,22.262999999999998,21.5621,314.999998,314.999998,324.999988,324.999988,99.55547142857142,99.50945,99.57931428571429,99.54928571428572,0.07033333333333358,0.009333333333333194,-0.0874,0.14559999999999995,-0.0259999999999998,-0.05666666666667197,1.529,1.52,38.474000000000004,30.761499999999998,40.143,35.763,54.573,36.9855,63.1795,53.1665,52.469,35.957,61.6805,51.5955,51.522999999999996,35.42,61.604,51.1255,-0.07499999999999996,-0.02499999999999991,0.10387500000000001,0.10973500000000001,0.0,219.36666666666667,219.4,216.09333333333333,216.09333333333333,0.0,0.0
34,0.0,0.0,0.0,1.0,1.0,0.0,0.0,1.0,0.0,100.0,1.0,1.1856,26.0,0.0,0.0,0.0,59.999996,0.0,26.0,26.0,26.0,26.0,0.009749999999999925,0.25470000000000015,-0.052750000000000005,303.8175,-2.8266999999999998,-2.7085,-1.4334500000000001,-1.3436,-159.82999999999998,215.785,190.236,0.0,0.0,0.0,0.0,0.0689333333333334,-5.498166666666667,-5.498166666666667,-0.8416,-0.8685,0.006666666666666599,1.004,70.231,0.022399999999999975,-0.4622,-0.24249999999999972,100.0,1.0,1.0,216.51999999999998,0.0,0.0,0.0,0.0,0.0,0.0,0.0,9177.6,0.0,55.0,5.0,252.81,0.0,0.0,0.0,0.0,0.0,0.0,1.0,0.0,1.7070000000000007,1.7070000000000007,0.0,0.0,0.0,55.0,616.79921,10000.0,85.000001,85.000001,85.000001,85.000001,395.0,0.0,0.0,0.0,1.0,166.665,58.3345,58.3345,64.23949999999999,64.23949999999999,34.0,-23.3525,27.102,-25.336666666666666,27.6,0.0,1780.838,-0.34499999999999886,100.0,22.6355,22.395,27.137,27.3965,0.0,0.0,100.0,0.0,0.0,0.0,0.0,2884.714285714286,3072.2,3989.1428571428573,4160.3,305.934,305.15433333333334,315.2576666666667,314.60225,22.00525,20.7679,22.274428571428572,21.5719,314.999998,314.999998,324.999988,324.999988,99.55548571428571,99.50945,99.57947142857142,99.54944285714285,0.07633333333333336,0.016000000000000014,-0.0984,0.1442000000000001,-0.047999999999998266,-0.051666666666669414,1.5274999999999999,1.525,38.532,30.799500000000002,40.215,35.824,54.559,37.019,63.203,53.230000000000004,52.457,35.988,61.7025,51.657,51.51,35.4495,61.623,51.1855,-0.07499999999999996,-0.01849999999999996,0.11329000000000002,0.10595500000000001,0.0,219.79666666666668,219.79000000000002,216.51999999999998,216.51999999999998,0.0,0.0
35,0.0,0.0,0.0,1.0,1.0,0.0,0.0,1.0,0.0,100.0,1.0,1.1856,26.0,0.0,0.0,0.0,59.999996,0.0,26.0,26.0,26.0,26.0,0.04037500000000005,0.24480000000000013,-0.03805,303.6805,-2.7996,-2.7276,-1.40245,-1.3078,-156.25,215.7775,190.20575,0.0,0.0,0.0,0.0,0.07103333333333339,-5.498166666666667,-5.498166666666667,-0.8865,-0.197,-0.01644444444444426,-1.267,70.35900000000001,0.023900000000000032,-0.476825,-0.2524999999999995,100.0,1.0,1.0,217.04333333333335,0.0,0.0,0.0,0.0,0.0,0.0,0.0,9199.6,0.0,55.0,5.0,253.26999999999998,1.0,0.0,0.0,0.0,0.0,0.0,1.0,0.0,1.7579999999999991,1.7579999999999991,0.0,0.0,1.0,55.0,616.79921,10000.0,85.000001,85.000001,85.000001,85.000001,395.0,0.0,0.0,0.0,1.0,166.665,57.312,57.312,64.0715,64.0715,34.0,-25.9425,29.56,-23.563333333333333,24.8,0.0,1780.787,-0.21499999999999986,100.0,22.5245,23.090333333333334,26.933,27.039,0.0,0.0,100.0,0.0,0.0,0.0,0.0,3170.142857142857,3327.3,3887.0,3853.0,305.3455,304.22933333333333,315.52633333333335,315.326,22.013875,20.774,22.285285714285713,21.5809,314.999998,314.999998,324.999988,324.999988,99.5555,99.50945,99.57961428571429,99.5496,0.06533333333333369,0.0033333333333334103,-0.09140000000000001,0.14859999999999984,-0.04899999999999949,-0.04999999999999716,1.585,1.561,38.587,30.8375,40.283,35.881,54.546,37.054,63.225,53.285,52.444,36.0205,61.7235,51.71,51.495999999999995,35.4805,61.6405,51.238,-0.07350000000000001,-0.03299999999999992,0.107355,0.11336,0.0,220.18333333333334,220.2,217.04333333333335,217.04333333333335,0.0,0.0
