,ABS Active,ABS Enabled,AID Allow Tire Blankets,AID Auto Blip,AID Auto Clutch,AID Auto Shift,AID Fuel Rate,AID Ideal Line,AID Mech Damage,AID Stability,AID Tire Wear Rate,Air Density,Air Temp,Ballast,Best Lap Delta,Best Lap Time,Brake Bias,Brake Pos,Brake Temp FL,Brake Temp FR,Brake Temp RL,Brake Temp RR,CG Accel Lateral,CG Accel Longitudinal,CG Accel Vertical,CG Height,Camber FL,Camber FR,Camber RL,Camber RR,Car Coord X,Car Coord Y,Car Coord Z,Car Damage Front,Car Damage Left,Car Damage Rear,Car Damage Right,Car Pos Norm,Caster FL,Caster FR,Chassis Pitch Angle,Chassis Pitch Rate,Chassis Roll Angle,Chassis Roll Rate,Chassis Velocity X,Chassis Velocity Y,Chassis Velocity Z,Chassis Yaw Rate,Clutch Pos,DRS Active,DRS Available,Drive Train Speed,ERS Heat Charging,ERS Is Charging,ERS Max Energy,ERS Power Level,ERS Recovery Level,Engine Brake Setting,Engine Limiter,Engine RPM,Flags,Fuel Level,Gear,Ground Speed,HR Sample Clock,In Pit,KERS Charge,KERS Deployed Energy,KERS Input,KERS Max Energy,LR Sample Clock,Lap Invalidated,Lap Time,Lap Time2,Last Lap Time,Last Sector Time,MR Sample Clock,Max Fuel,Max Power,Max RPM,Max Sus Travel FL,Max Sus Travel FR,Max Sus Travel RL,Max Sus Travel RR,Max Torque,Max Turbo Boost,Num Tires Off Track,Penalties Enabled,Position,Raw Data Sample Rate,Ride Height FL,Ride Height FR,Ride Height RL,Ride Height RR,Road Temp,Self Align Torque FL,Self Align Torque FR,Self Align Torque RL,Self Align Torque RR,Session Lap Count,Session Time Left,Steering Angle,Surface Grip,Suspension Travel FL,Suspension Travel FR,Suspension Travel RL,Suspension Travel RR,TC Active,TC Enabled,Throttle Pos,Tire Dirt Level FL,Tire Dirt Level FR,Tire Dirt Level RL,Tire Dirt Level RR,Tire Load FL,Tire Load FR,Tire Load RL,Tire Load RR,Tire Loaded Radius FL,Tire Loaded Radius FR,Tire Loaded Radius RL,Tire Loaded Radius RR,Tire Pressure FL,Tire Pressure FR,Tire Pressure RL,Tire Pressure RR,Tire Radius FL,Tire Radius FR,Tire Radius RL,Tire Radius RR,Tire Rubber Grip FL,Tire Rubber Grip FR,Tire Rubber Grip RL,Tire Rubber Grip RR,Tire Slip Angle FL,Tire Slip Angle FR,Tire Slip Angle RL,Tire Slip Angle RR,Tire Slip Ratio FL,Tire Slip Ratio FR,Tire Slip Ratio RL,Tire Slip Ratio RR,Tire Temp Core FL,Tire Temp Core FR,Tire Temp Core RL,Tire Temp Core RR,Tire Temp Inner FL,Tire Temp Inner FR,Tire Temp Inner RL,Tire Temp Inner RR,Tire Temp Middle FL,Tire Temp Middle FR,Tire Temp Middle RL,Tire Temp Middle RR,Tire Temp Outer FL,Tire Temp Outer FR,Tire Temp Outer RL,Tire Temp Outer RR,Toe In FL,Toe In FR,Toe In RL,Toe In RR,Turbo Boost,Wheel Angular Speed FL,Wheel Angular Speed FR,Wheel Angular Speed RL,Wheel Angular Speed RR,Wind Direction,Wind Speed
0,0.0,0.0,0.0,1.0,1.0,0.0,0.0,1.0,0.0,100.0,1.0,1.1856,26.0,0.0,0.0,0.0,59.99999,0.0,26.0,26.0,26.0,26.0,-0.025249999999999995,0.28080000000000016,0.101,293.549,-2.7955,-2.6221428571428573,-1.5528,-1.5001250000000002,-275.71,215.5025,190.988,0.0,0.0,0.0,0.0,0.0015666666666666051,-5.498166666666667,-5.498166666666667,-0.5757,1.4095,0.00374999999999992,0.23099999999999987,65.604,-0.025399999999999978,-0.23270000000000002,0.09600000000000009,100.0,1.0,1.0,202.53,0.0,0.0,0.0,0.0,0.0,0.0,0.0,8584.5,0.0,55.0,5.0,236.14333333333332,0.0,0.0,0.0,0.0,0.0,0.0,0.0,0.0,0.0030000000000001137,0.0030000000000001137,0.0,0.0,0.0,55.0,616.79921,10000.0,85.0,85.0,85.0,85.0,395.0,0.0,0.0,0.0,1.0,20.0,50.888,50.888,49.591,49.591,34.0,-29.775,33.36,-28.413333333333334,26.1425,0.0,1783.60875,0.20500000000000185,100.0,27.204,27.085,39.888,39.613,0.0,0.0,100.0,0.0,0.0,0.0,0.0,3370.142857142857,4325.7,3996.4285714285716,4088.0,304.4985,301.47333333333336,315.1186666666667,314.70775,21.765142857142855,20.5346,21.816625,21.3171,314.99999,314.99999,324.99998,324.99998,99.5587,99.50791666666667,99.56834285714285,99.54575714285714,0.026000000000000023,-0.07224999999999993,-0.1336666666666666,0.09083333333333332,-0.02833333333332888,-0.02833333333332888,1.5663333333333334,1.5685,37.033,29.341,37.354,34.232,56.223,34.976,60.163,51.8545,54.132,34.0895,58.757999999999996,50.208,53.291,33.615,58.729,49.638999999999996,-0.0625,-0.08800000000000008,0.10462,0.11099,0.0,205.54000000000002,205.505,202.53,202.53,0.0,0.0
1,0.0,0.0,0.0,1.0,1.0,0.0,0.0,1.0,0.0,100.0,1.0,1.1856,26.0,0.0,0.0,0.0,59.999996,0.0,26.0,26.0,26.0,26.0,-0.05687500000000001,0.34120000000000017,0.30073333333333335,292.435,-2.696,-2.69,-1.5916000000000001,-1.506875,-272.36,215.5125,190.96775,0.0,0.0,0.0,0.0,0.0035333333333333883,-5.498166666666667,-5.498166666666667,-0.48910000000000003,-1.431,-0.04187500000000011,-0.4830000000000001,65.761,-0.02389999999999992,-0.196775,0.6840000000000002,100.0,1.0,1.0,202.37666666666667,0.0,0.0,0.0,0.0,0.0,0.0,0.0,8578.1,0.0,55.0,5.0,236.70666666666668,1.0,0.0,0.0,0.0,0.0,0.0,0.0,0.0,0.053999999999998494,0.053999999999998494,0.0,0.0,1.0,55.0,616.79921,10000.0,85.000001,85.000001,85.000001,85.000001,395.0,0.0,0.0,0.0,1.0,333.33500000000004,53.909,53.909,47.729,47.729,34.0,-23.4875,17.2075,-40.24666666666667,41.182500000000005,0.0,1783.55625,0.40500000000000114,100.0,27.655,27.486,41.479,41.872,0.0,0.0,100.0,0.0,0.0,0.0,0.0,2880.5714285714284,2488.2,4993.714285714285,5856.5,306.0925,306.87233333333336,312.58666666666664,310.5375,21.775142857142857,20.5398,21.827875,21.3265,314.999998,314.999998,324.999988,324.999988,99.55871428571429,99.50793333333333,99.5685,99.54591428571429,0.035250000000000004,-0.10350000000000004,-0.14249999999999996,0.08200000000000007,-0.036666666666668846,-0.02499999999999858,1.2696666666666667,1.2850000000000001,37.094,29.374000000000002,37.424,34.29,56.207,35.0145,60.208,51.9235,54.117000000000004,34.125,58.8005,50.274,53.275,33.649,58.768,49.7035,-0.04800000000000004,-0.10899999999999999,0.10788500000000001,0.11113,0.0,206.01999999999998,205.965,202.37666666666667,202.37666666666667,0.0,0.0
2,0.0,0.0,0.0,1.0,1.0,0.0,0.0,1.0,0.0,100.0,1.0,1.1856,26.0,0.0,0.0,0.0,59.999996,0.0,26.0,26.0,26.0,26.0,-0.09275,0.272,-0.12996666666666667,294.891,-2.6442,-2.670571428571429,-1.5338,-1.5092500000000002,-269.0,215.5225,190.949875,0.0,0.0,0.0,0.0,0.005466666666666509,-5.498166666666667,-5.498166666666667,-0.6233000000000001,-0.02750000000000008,-0.023499999999999854,2.425,65.894,-0.03389999999999993,-0.344025,0.8820000000000006,100.0,1.0,1.0,203.89666666666668,0.0,0.0,0.0,0.0,0.0,0.0,0.0,8642.5,0.0,55.0,5.0,237.19666666666666,0.0,0.0,0.0,0.0,0.0,0.0,0.0,0.0,0.10500000000000043,0.10500000000000043,0.0,0.0,0.0,55.0,616.79921,10000.0,85.000001,85.000001,85.000001,85.000001,395.0,0.0,0.0,0.0,1.0,333.33500000000004,51.575,51.575,52.902,52.902,34.0,-28.7575,22.564999999999998,-23.703333333333326,17.6775,0.0,1783.50625,0.5,100.0,28.559,27.591,40.305,39.919,0.0,0.0,100.0,0.0,0.0,0.0,0.0,3353.4285714285716,3201.9,3360.714285714286,3180.0,304.4515,304.59133333333335,316.60333333333335,316.97025,21.785285714285713,20.545099999999998,21.8385,21.3352,314.999998,314.999998,324.999988,324.999988,99.55871428571429,99.50795,99.56862857142858,99.54604285714285,0.015249999999999986,-0.11249999999999993,-0.1735,0.0661666666666667,-0.06499999999999773,-0.06833333333332803,1.7723333333333333,1.8235000000000001,37.158,29.407,37.491,34.345,56.194,35.053,60.24,51.9755,54.105000000000004,34.1605,58.83,50.324,53.262,33.683,58.7945,49.7525,-0.04299999999999993,-0.11850000000000005,0.10550500000000002,0.11063,0.0,206.41500000000002,206.35500000000002,203.89666666666668,203.89666666666668,0.0,0.0
3,0.0,0.0,0.0,1.0,1.0,0.0,0.0,1.0,0.0,100.0,1.0,1.1856,26.0,0.0,0.0,0.0,59.999996,0.0,26.0,26.0,26.0,26.0,-0.08324999999999994,0.32289999999999996,0.12316666666666667,294.113,-2.6788,-2.6855714285714285,-1.525,-1.460375,-265.83,215.53,190.930625,0.0,0.0,0.0,0.0,0.007299999999999973,-5.498166666666667,-5.498166666666667,-0.5348,1.287,0.0058749999999998526,-1.022,66.042,-0.05019999999999991,-0.21135,0.7679999999999998,100.0,1.0,1.0,203.72333333333333,0.0,0.0,0.0,0.0,0.0,0.0,0.0,8635.1,0.0,55.0,5.0,237.72,1.0,0.0,0.0,0.0,0.0,0.0,0.0,0.0,0.1529999999999987,0.1529999999999987,0.0,0.0,1.0,55.0,616.79921,10000.0,85.000001,85.000001,85.000001,85.000001,395.0,0.0,0.0,0.0,1.0,333.33500000000004,53.452,53.452,49.53,49.53,34.0,-23.495,20.105,-33.71333333333333,26.33,0.0,1783.4575,0.5500000000000007,100.0,27.942,27.461,40.292,40.107,0.0,0.0,100.0,0.0,0.0,0.0,0.0,2783.285714285714,2905.3,4414.285714285715,4351.4,306.424,305.556,314.1326666666667,314.0115,21.794428571428572,20.5502,21.848375,21.3436,314.999998,314.999998,324.999988,324.999988,99.55871428571429,99.50795,99.56875714285714,99.54618571428571,0.004750000000000032,-0.11599999999999999,-0.16333333333333333,0.062000000000000055,-0.046666666666666856,-0.054999999999999716,1.471,1.5095,37.215,29.439,37.553,34.397,56.177,35.091499999999996,60.2715,52.034,54.089,34.196,58.859,50.3805,53.245999999999995,33.7175,58.821,49.808,-0.034499999999999975,-0.11500000000000021,0.10505500000000001,0.116705,0.0,206.95499999999998,206.885,203.72333333333333,203.72333333333333,0.0,0.0
4,0.0,0.0,0.0,1.0,1.0,0.0,0.0,1.0,0.0,100.0,1.0,1.1856,26.0,0.0,0.0,0.0,59.999996,0.0,26.0,26.0,26.0,26.0,-0.09675,0.29710000000000014,0.0347,293.961,-2.6599,-2.7522857142857142,-1.4665,-1.5761250000000002,-262.46,215.535,190.91075,0.0,0.0,0.0,0.0,0.009266666666666534,-5.498166666666667,-5.498166666666667,-0.5563,-1.315,-0.048875000000000224,-1.013,66.191,-0.0532999999999999,-0.263,1.0460000000000003,100.0,1.0,1.0,204.16666666666669,0.0,0.0,0.0,0.0,0.0,0.0,0.0,8653.8,0.0,55.0,5.0,238.25666666666666,0.0,0.0,0.0,0.0,0.0,0.0,0.0,0.0,0.20400000000000063,0.20400000000000063,0.0,0.0,0.0,55.0,616.79921,10000.0,85.000001,85.000001,85.000001,85.000001,395.0,0.0,0.0,0.0,1.0,166.665,52.872,52.872,49.942,49.942,34.0,-28.685000000000002,19.5075,-32.79,23.884999999999998,0.0,1783.4075,0.6999999999999993,100.0,27.721,27.196,41.108000000000004,40.662,0.0,0.0,100.0,0.0,0.0,0.0,0.0,3257.142857142857,2887.1,4298.428571428572,3943.2,305.0595,305.549,314.38366666666667,314.9485,21.804142857142857,20.5554,21.8595,21.3527,314.999998,314.999998,324.999988,324.999988,99.55871428571429,99.50796666666666,99.56891428571429,99.54631428571429,-0.01100000000000001,-0.14325,-0.18333333333333335,0.041166666666666796,-0.05333333333332746,-0.03499999999999659,1.5006666666666666,1.5310000000000001,37.275999999999996,29.471,37.622,34.454,56.16,35.129999999999995,60.314,52.0955,54.072,34.2315,58.8985,50.439499999999995,53.227999999999994,33.7515,58.858000000000004,49.866,-0.02499999999999991,-0.12650000000000006,0.10615500000000001,0.10516500000000001,0.0,207.32,207.23000000000002,204.16666666666669,204.16666666666669,0.0,0.0
5,0.0,0.0,0.0,1.0,1.0,0.0,0.0,1.0,0.0,100.0,1.0,1.1856,26.0,0.0,0.0,0.0,59.999996,0.0,26.0,26.0,26.0,26.0,-0.11549999999999994,0.27859999999999996,-0.05183333333333334,294.556,-2.6773,-2.696142857142857,-1.5211000000000001,-1.5594999999999999,-259.08,215.5375,190.89125,0.0,0.0,0.0,0.0,0.011233333333333317,-5.498166666666667,-5.498166666666667,-0.5823,0.6245,-0.02475000000000005,1.0949999999999998,66.332,-0.0653999999999999,-0.27887500000000004,1.0540000000000003,100.0,1.0,1.0,204.87666666666667,0.0,0.0,0.0,0.0,0.0,0.0,0.0,8683.9,0.0,55.0,5.0,238.76666666666665,1.0,0.0,0.0,0.0,0.0,0.0,0.0,0.0,0.254999999999999,0.254999999999999,0.0,0.0,1.0,55.0,616.79921,10000.0,85.000001,85.000001,85.000001,85.000001,395.0,0.0,0.0,0.0,1.0,333.33500000000004,52.765,52.765,51.193,51.193,34.0,-26.802500000000002,21.177500000000002,-29.28333333333333,21.8375,0.0,1783.35375,0.40000000000000213,100.0,28.061,27.214,40.6,40.025999999999996,0.0,0.0,100.0,0.0,0.0,0.0,0.0,3065.285714285714,3057.7,3845.285714285714,3827.1,305.34,305.12733333333335,315.484,315.4075,21.81414285714286,20.5608,21.87025,21.3615,314.999998,314.999998,324.999988,324.999988,99.55872857142857,99.50798333333333,99.56905714285715,99.54645714285714,0.0007500000000000284,-0.121,-0.1938333333333333,0.032333333333333325,-0.06333333333333258,-0.04833333333333201,1.6223333333333332,1.638,37.338,29.505,37.689,34.509,56.144999999999996,35.1715,60.3505,52.1535,54.058,34.272,58.933,50.495,53.214,33.79,58.8875,49.920500000000004,-0.04049999999999998,-0.10450000000000026,0.10840500000000002,0.10130000000000002,0.0,207.84,207.735,204.87666666666667,204.87666666666667,0.0,0.0
6,0.0,0.0,0.0,1.0,1.0,0.0,0.0,1.0,0.0,100.0,1.0,1.1856,26.0,0.0,0.0,0.0,59.999996,0.0,26.0,26.0,26.0,26.0,-0.11175000000000002,0.3053000000000001,0.015066666666666666,294.312,-2.6621,-2.769142857142857,-1.4717,-1.537875,-255.9,215.5375,190.871625,0.0,0.0,0.0,0.0,0.0131,-5.498166666666667,-5.498166666666667,-0.5531,0.019000000000000017,-0.04137499999999994,0.41900000000000004,66.473,-0.07039999999999991,-0.23145000000000002,0.8660000000000005,100.0,1.0,1.0,205.05666666666667,0.0,0.0,0.0,0.0,0.0,0.0,0.0,8691.6,0.0,55.0,5.0,239.2733333333333,0.0,0.0,0.0,0.0,0.0,0.0,0.0,0.0,0.3030000000000008,0.3030000000000008,0.0,0.0,0.0,55.0,616.79921,10000.0,85.000001,85.000001,85.000001,85.000001,395.0,0.0,0.0,0.0,1.0,333.33500000000004,53.619,53.619,49.957,49.957,34.0,-26.455,19.4625,-33.013333333333335,24.39,0.0,1783.3075,0.5450000000000017,100.0,27.626,26.785,40.882,40.224000000000004,0.0,0.0,100.0,0.0,0.0,0.0,0.0,3012.714285714286,2862.1,4301.857142857143,4130.8,305.636,305.77566666666667,314.30566666666664,314.64075,21.823285714285714,20.5657,21.880375,21.3699,314.999998,314.999998,324.999988,324.999988,99.55872857142857,99.508,99.5692,99.54658571428571,-0.011749999999999927,-0.13949999999999996,-0.1828333333333334,0.03750000000000009,-0.03333333333333144,-0.05333333333332746,1.499,1.5230000000000001,37.394999999999996,29.5355,37.751999999999995,34.562,56.129000000000005,35.208,60.3845,52.2065,54.042,34.3035,58.9645,50.546,53.197,33.820499999999996,58.918,49.97,-0.026499999999999968,-0.11649999999999983,0.10419,0.10487500000000001,0.0,208.235,208.17000000000002,205.05666666666667,205.05666666666667,0.0,0.0
7,0.0,0.0,0.0,1.0,1.0,0.0,0.0,1.0,0.0,100.0,1.0,1.1856,26.0,0.0,0.0,0.0,59.999996,0.0,26.0,26.0,26.0,26.0,-0.082125,0.2953000000000001,0.0006666666666666668,294.189,-2.6282,-2.7644285714285717,-1.5532,-1.5870000000000002,-252.5,215.535,190.851,0.0,0.0,0.0,0.0,0.015066666666666562,-5.498166666666667,-5.498166666666667,-0.5659000000000001,-0.11349999999999993,-0.037374999999999936,-0.2759999999999998,66.617,-0.07269999999999999,-0.25565,0.7779999999999996,100.0,1.0,1.0,205.56333333333333,0.0,0.0,0.0,0.0,0.0,0.0,0.0,8713.0,0.0,55.0,5.0,239.79333333333335,1.0,0.0,0.0,0.0,0.0,0.0,0.0,0.0,0.3539999999999992,0.3539999999999992,0.0,0.0,1.0,55.0,616.79921,10000.0,85.000001,85.000001,85.000001,85.000001,395.0,0.0,0.0,0.0,1.0,333.33500000000004,52.963,52.963,50.308,50.308,34.0,-27.072499999999998,21.1175,-33.723333333333336,22.7475,0.0,1783.25625,0.015000000000000568,100.0,27.722,27.136,40.85,40.409,0.0,0.0,100.0,0.0,0.0,0.0,0.0,3212.285714285714,2903.1,4204.142857142857,3913.5,305.14,305.416,314.6616666666667,315.05925,21.833142857142857,20.570999999999998,21.89125,21.3789,314.999998,314.999998,324.999988,324.999988,99.55872857142857,99.50801666666666,99.56934285714286,99.54672857142857,0.011249999999999982,-0.11175000000000002,-0.19833333333333336,0.022333333333333316,-0.06499999999999773,-0.05666666666667197,1.522,1.5605,37.457,29.569,37.82,34.617999999999995,56.114000000000004,35.248,60.423,52.265,54.028,34.34,59.0005,50.602000000000004,53.183,33.8555,58.951,50.025,-0.0714999999999999,-0.07250000000000023,0.10761000000000001,0.101845,0.0,208.685,208.615,205.56333333333333,205.56333333333333,0.0,0.0
8,0.0,0.0,0.0,1.0,1.0,0.0,0.0,1.0,0.0,100.0,1.0,1.1856,26.0,0.0,0.0,0.0,59.999996,0.0,26.0,26.0,26.0,26.0,-0.06562499999999993,0.28,-0.0204,294.35699999999997,-2.7091,-2.697571428571429,-1.5341,-1.5721250000000002,-249.1,215.53,190.8305,0.0,0.0,0.0,0.0,0.017033333333333345,-5.498166666666667,-5.498166666666667,-0.5712,-0.06000000000000005,-0.018375000000000252,0.4450000000000003,66.761,-0.06209999999999993,-0.2607,0.3279999999999994,100.0,1.0,1.0,206.03,0.0,0.0,0.0,0.0,0.0,0.0,0.0,8732.8,0.0,55.0,5.0,240.31333333333333,0.0,0.0,0.0,0.0,0.0,0.0,0.0,0.0,0.40500000000000114,0.40500000000000114,0.0,0.0,0.0,55.0,616.79921,10000.0,85.000001,85.000001,85.000001,85.000001,395.0,0.0,0.0,0.0,1.0,166.665,53.177,53.177,50.278,50.278,34.0,-25.18,22.5075,-30.733333333333334,24.8275,0.0,1783.2075,-0.07000000000000028,100.0,27.619,27.111,40.802,40.345,0.0,0.0,100.0,0.0,0.0,0.0,0.0,2985.285714285714,3079.3,4034.0,4001.1000000000004,305.6655,305.0706666666667,315.004,314.928,21.84285714285714,20.5764,21.902,21.3879,314.999998,314.999998,324.999988,324.999988,99.55872857142857,99.50803333333333,99.56948571428572,99.54687142857144,0.025500000000000078,-0.09399999999999997,-0.1738333333333334,0.05566666666666675,-0.02499999999999858,-0.046666666666666856,1.5253333333333332,1.5405,37.518,29.603,37.887,34.674,56.098,35.2875,60.4595,52.324,54.013,34.376999999999995,59.0345,50.659,53.166,33.891,58.9825,50.081,-0.0774999999999999,-0.06999999999999984,0.10994500000000001,0.10484,0.0,209.09,209.065,206.03,206.03,0.0,0.0
9,0.0,0.0,0.0,1.0,1.0,0.0,0.0,1.0,0.0,100.0,1.0,1.1856,26.0,0.0,0.0,0.0,59.999996,0.0,26.0,26.0,26.0,26.0,-0.055749999999999966,0.2955000000000001,0.0086,294.128,-2.6268,-2.7154285714285713,-1.5322,-1.536625,-245.89,215.525,190.81075,0.0,0.0,0.0,0.0,0.018933333333333358,-5.498166666666667,-5.498166666666667,-0.5653,0.236,-0.03275000000000006,0.7680000000000002,66.896,-0.04789999999999994,-0.24835000000000002,0.10000000000000053,100.0,1.0,1.0,206.40666666666667,0.0,0.0,0.0,0.0,0.0,0.0,0.0,8748.9,0.0,55.0,5.0,240.8,1.0,0.0,0.0,0.0,0.0,0.0,0.0,0.0,0.4529999999999994,0.4529999999999994,0.0,0.0,1.0,55.0,616.79921,10000.0,85.000001,85.000001,85.000001,85.000001,395.0,0.0,0.0,0.0,1.0,333.33500000000004,52.933,52.933,50.354,50.354,34.0,-24.822499999999998,23.08,-30.409999999999997,25.855,0.0,1783.1575,-0.19500000000000028,100.0,27.791,27.108,40.805,40.356,0.0,0.0,100.0,0.0,0.0,0.0,0.0,3107.0,3056.5,4094.4285714285716,4116.2,305.306,305.16833333333335,314.844,314.69075,21.85214285714286,20.5815,21.912125,21.3964,314.999998,314.999998,324.999988,324.999988,99.55872857142857,99.50803333333333,99.56961428571428,99.547,0.04475000000000007,-0.07899999999999996,-0.15666666666666662,0.06933333333333325,-0.04999999999999716,-0.04999999999999716,1.5316666666666667,1.5445,37.576,29.6345,37.951,34.727000000000004,56.084,35.324,60.494,52.379,53.998999999999995,34.4105,59.067,50.7115,53.152,33.923,59.0115,50.1325,-0.09099999999999997,-0.05750000000000011,0.10866,0.103815,0.0,209.525,209.51999999999998,206.40666666666667,206.40666666666667,0.0,0.0
10,0.0,0.0,0.0,1.0,1.0,0.0,0.0,1.0,0.0,100.0,1.0,1.1856,26.0,0.0,0.0,0.0,59.999996,0.0,26.0,26.0,26.0,26.0,-0.027249999999999996,0.28970000000000007,0.005566666666666667,294.052,-2.6869,-2.689285714285714,-1.4919,-1.5201250000000002,-242.48,215.51749999999998,190.79,0.0,0.0,0.0,0.0,0.02089999999999992,-5.498166666666667,-5.498166666666667,-0.5621,-0.34099999999999997,-0.010499999999999954,-0.040000000000000036,67.041,-0.0343,-0.25185,0.06200000000000028,100.0,1.0,1.0,206.7733333333333,0.0,0.0,0.0,0.0,0.0,0.0,0.0,8764.4,0.0,55.0,5.0,241.32,0.0,0.0,0.0,0.0,0.0,0.0,1.0,0.0,0.5040000000000013,0.5040000000000013,0.0,0.0,0.0,55.0,616.79921,10000.0,85.000001,85.000001,85.000001,85.000001,395.0,0.0,0.0,0.0,1.0,333.33500000000004,53.162,53.162,50.064,50.064,34.0,-25.2625,22.237499999999997,-30.756666666666668,26.5825,0.0,1783.1075,-0.3049999999999997,100.0,27.59,27.253,40.803,40.706,0.0,0.0,100.0,0.0,0.0,0.0,0.0,3100.714285714286,2942.1,4209.714285714285,4186.5,305.5115,305.35833333333335,314.6376666666667,314.40875,21.861857142857144,20.5869,21.923000000000002,21.4055,314.999998,314.999998,324.999988,324.999988,99.55874285714286,99.50805,99.56977142857143,99.54714285714286,0.04025000000000012,-0.07450000000000001,-0.15316666666666656,0.07216666666666671,-0.051666666666669414,-0.045000000000001705,1.5,1.509,37.637,29.668,38.018,34.784,56.069,35.361,60.5315,52.439499999999995,53.986000000000004,34.445,59.1015,50.769999999999996,53.138,33.956,59.0435,50.189499999999995,-0.09650000000000003,-0.047499999999999876,0.103285,0.11290000000000001,0.0,209.95499999999998,209.945,206.7733333333333,206.7733333333333,0.0,0.0
11,0.0,0.0,0.0,1.0,1.0,0.0,0.0,1.0,0.0,100.0,1.0,1.1856,26.0,0.0,0.0,0.0,59.999996,0.0,26.0,26.0,26.0,26.0,-0.018749999999999933,0.27390000000000003,-0.0476,294.403,-2.686,-2.692142857142857,-1.5428000000000002,-1.4957500000000001,-239.05,215.51,190.769,0.0,0.0,0.0,0.0,0.022599999999999953,-5.498166666666667,-5.498166666666667,-0.5861000000000001,-0.24249999999999994,0.011874999999999858,0.8839999999999999,67.182,-0.02169999999999994,-0.26815,-0.20199999999999996,100.0,1.0,1.0,207.33666666666667,0.0,0.0,0.0,0.0,0.0,0.0,0.0,8788.2,0.0,55.0,5.0,241.82666666666665,1.0,0.0,0.0,0.0,0.0,0.0,1.0,0.0,0.5549999999999997,0.5549999999999997,0.0,0.0,1.0,55.0,616.79921,10000.0,85.000001,85.000001,85.000001,85.000001,395.0,0.0,0.0,0.0,1.0,333.33500000000004,53.085,53.085,50.735,50.735,34.0,-23.315,24.6,-27.049999999999997,26.61,0.0,1783.05625,-0.4299999999999997,100.0,27.531,27.166,40.628,40.513,0.0,0.0,100.0,0.0,0.0,0.0,0.0,3018.5714285714284,3125.2,3901.714285714286,4054.1000000000004,305.5795,304.96866666666665,315.32933333333335,314.8405,21.87157142857143,20.5924,21.933625,21.4146,314.999998,314.999998,324.999988,324.999988,99.55875714285715,99.50805,99.56991428571429,99.54728571428572,0.07400000000000007,-0.051999999999999935,-0.123,0.10483333333333333,-0.03166666666666629,-0.060000000000002274,1.5713333333333332,1.5514999999999999,37.697,29.7025,38.085,34.841,56.054,35.3985,60.565,52.499,53.971000000000004,34.4795,59.132999999999996,50.827,53.122,33.989,59.072,50.2455,-0.10549999999999993,-0.0495000000000001,0.10340500000000001,0.11138500000000001,0.0,210.36,210.385,207.33666666666667,207.33666666666667,0.0,0.0
12,0.0,0.0,0.0,1.0,1.0,0.0,0.0,1.0,0.0,100.0,1.0,1.1856,26.0,0.0,0.0,0.0,59.999996,0.0,26.0,26.0,26.0,26.0,-0.006249999999999978,0.29890000000000017,-0.007966666666666667,294.052,-2.7114,-2.6894285714285715,-1.5218,-1.517,-235.82999999999998,215.5025,190.7485,0.0,0.0,0.0,0.0,0.025466666666666526,-5.498166666666667,-5.498166666666667,-0.5758,0.472,0.009624999999999995,0.7610000000000001,67.316,-0.006699999999999928,-0.243425,-0.3179999999999996,100.0,1.0,1.0,207.67666666666668,0.0,0.0,0.0,0.0,0.0,0.0,0.0,8802.6,0.0,55.0,5.0,242.30666666666667,0.0,0.0,0.0,0.0,0.0,0.0,1.0,0.0,0.602999999999998,0.602999999999998,0.0,0.0,0.0,55.0,616.79921,10000.0,85.000001,85.000001,85.000001,85.000001,395.0,0.0,0.0,0.0,1.0,333.33500000000004,52.917,52.917,50.049,50.049,34.0,-23.1125,24.7425,-28.253333333333337,28.6475,0.0,1783.0075,-0.379999999999999,100.0,27.63,27.368,40.618,40.455,0.0,0.0,100.0,0.0,0.0,0.0,0.0,3013.4285714285716,3151.6,4106.571428571428,4215.8,305.586,304.868,314.849,314.48225,21.88057142857143,20.5976,21.943625,21.423000000000002,314.999998,314.999998,324.999988,324.999988,99.55875714285715,99.50805,99.57004285714285,99.54741428571428,0.08350000000000013,-0.05449999999999999,-0.11649999999999994,0.11316666666666686,-0.030000000000001137,-0.06499999999999773,1.5486666666666666,1.5394999999999999,37.754,29.735,38.147999999999996,34.894,56.042,35.434,60.597,52.5545,53.959,34.512,59.1625,50.8805,53.11,34.0205,59.099000000000004,50.2985,-0.10450000000000004,-0.06150000000000011,0.11565500000000001,0.10157500000000001,0.0,210.81,210.84,207.67666666666668,207.67666666666668,0.0,0.0
13,0.0,0.0,0.0,1.0,1.0,0.0,0.0,1.0,0.0,100.0,1.0,1.1856,26.0,0.0,0.0,0.0,59.999996,0.0,26.0,26.0,26.0,26.0,0.0358750000000001,0.2825,0.033133333333333334,293.686,-2.686,-2.698,-1.5486,-1.525875,-232.39,215.4925,190.72675,0.0,0.0,0.0,0.0,0.026766666666666605,-5.498166666666667,-5.498166666666667,-0.5715,-0.361,0.00275000000000003,-0.3580000000000001,67.459,0.0029000000000001247,-0.254475,-0.26399999999999935,100.0,1.0,1.0,208.00666666666666,0.0,0.0,0.0,0.0,0.0,0.0,0.0,8816.7,0.0,55.0,5.0,242.82333333333332,1.0,0.0,0.0,0.0,0.0,0.0,1.0,0.0,0.6539999999999999,0.6539999999999999,0.0,0.0,1.0,55.0,616.79921,10000.0,85.000001,85.000001,85.000001,85.000001,395.0,0.0,0.0,0.0,1.0,333.33500000000004,52.689,52.689,49.774,49.774,34.0,-23.412499999999998,24.6525,-29.53333333333333,30.185000000000002,0.0,1782.95625,-0.3299999999999983,100.0,27.684,27.663,40.809,40.921,0.0,0.0,100.0,0.0,0.0,0.0,0.0,3157.857142857143,3024.1,4250.714285714285,4267.8,305.334,305.08866666666665,314.53766666666667,314.2165,21.890285714285714,20.6031,21.9545,21.432299999999998,314.999998,314.999998,324.999988,324.999988,99.55877142857143,99.50806666666666,99.57018571428571,99.54755714285714,0.09575,-0.035250000000000004,-0.10683333333333334,0.12233333333333318,-0.061666666666667425,-0.03333333333333144,1.4889999999999999,1.4725000000000001,37.814,29.7695,38.216,34.952,56.028999999999996,35.471000000000004,60.6345,52.617,53.947,34.5465,59.1975,50.9405,53.096000000000004,34.0535,59.1305,50.357,-0.11499999999999999,-0.0405000000000002,0.103605,0.118885,0.0,211.24,211.235,208.00666666666666,208.00666666666666,0.0,0.0
14,0.0,0.0,0.0,1.0,1.0,0.0,0.0,1.0,0.0,100.0,1.0,1.1856,26.0,0.0,0.0,0.0,59.999996,0.0,26.0,26.0,26.0,26.0,0.040124999999999966,0.2792000000000001,-0.042100000000000005,294.037,-2.7054,-2.702,-1.5452,-1.513125,-228.74,215.485,190.70425,0.0,0.0,0.0,0.0,0.028899999999999926,-5.498166666666667,-5.498166666666667,-0.5908,-0.07099999999999995,0.020499999999999963,-0.6000000000000001,67.605,0.008199999999999985,-0.27575,-0.29799999999999915,100.0,1.0,1.0,208.59,0.0,0.0,0.0,0.0,0.0,0.0,0.0,8841.4,0.0,55.0,5.0,243.35333333333335,0.0,0.0,0.0,0.0,0.0,0.0,1.0,0.0,0.7079999999999984,0.7079999999999984,0.0,0.0,0.0,55.0,616.79921,10000.0,85.000001,85.000001,85.000001,85.000001,395.0,0.0,0.0,0.0,1.0,166.665,52.612,52.612,50.461,50.461,34.0,-23.3275,24.622500000000002,-26.686666666666667,28.3425,0.0,1782.9025,-0.4299999999999997,100.0,27.759,27.923000000000002,40.588,40.835,0.0,0.0,100.0,0.0,0.0,0.0,0.0,3104.142857142857,3026.7,3979.5714285714284,4088.9,305.508,305.0196666666667,315.213,314.6785,21.90042857142857,20.609099999999998,21.965875,21.442,314.999998,314.999998,324.999988,324.999988,99.55878571428572,99.50808333333333,99.57034285714286,99.54771428571429,0.09125000000000005,-0.039000000000000035,-0.10166666666666657,0.12516666666666687,-0.051666666666669414,-0.046666666666666856,1.5523333333333333,1.536,37.878,29.8065,38.287,35.012,56.016,35.5105,60.6695,52.681,53.934,34.583,59.230000000000004,51.0025,53.083,34.088499999999996,59.16,50.417500000000004,-0.11149999999999993,-0.04400000000000004,0.10394,0.11203,0.0,211.695,211.695,208.59,208.59,0.0,0.0
15,0.0,0.0,0.0,1.0,1.0,0.0,0.0,1.0,0.0,100.0,1.0,1.1856,26.0,0.0,0.0,0.0,59.999996,0.0,26.0,26.0,26.0,26.0,0.03687499999999999,0.27470000000000017,-0.0077,293.945,-2.6885,-2.688142857142857,-1.5485,-1.5361250000000002,-225.7,215.48000000000002,190.685,0.0,0.0,0.0,0.0,0.03066666666666651,-5.498166666666667,-5.498166666666667,-0.5804,0.3345,0.0286249999999999,0.7410000000000001,67.729,0.011500000000000066,-0.256125,-0.3600000000000003,100.0,1.0,1.0,208.92666666666668,0.0,0.0,0.0,0.0,0.0,0.0,0.0,8855.6,0.0,55.0,5.0,243.79666666666668,1.0,0.0,0.0,0.0,0.0,0.0,1.0,0.0,0.7530000000000001,0.7530000000000001,0.0,0.0,1.0,55.0,616.79921,10000.0,85.000001,85.000001,85.000001,85.000001,395.0,0.0,0.0,0.0,1.0,166.665,52.734,52.734,50.186,50.186,34.0,-21.79,25.235,-26.63666666666667,31.21,0.0,1782.85875,-0.33500000000000085,100.0,27.902,27.745,40.589,40.71,0.0,0.0,100.0,0.0,0.0,0.0,0.0,2953.4285714285716,3100.5,4039.714285714286,4241.2,305.7595,304.966,315.008,314.36725,21.909,20.614,21.97525,21.4501,314.999998,314.999998,324.999988,324.999988,99.55878571428572,99.50808333333333,99.57047142857142,99.54784285714285,0.09850000000000003,-0.03300000000000003,-0.08699999999999997,0.14866666666666672,-0.03999999999999915,-0.06666666666666998,1.5376666666666667,1.512,37.931,29.8375,38.345,35.063,56.004999999999995,35.5435,60.698499999999996,52.735,53.924,34.6135,59.257,51.0545,53.072,34.118,59.1845,50.4685,-0.10650000000000004,-0.04999999999999982,0.10737500000000001,0.11450500000000001,0.0,212.07999999999998,212.12,208.92666666666668,208.92666666666668,0.0,0.0
16,0.0,0.0,0.0,1.0,1.0,0.0,0.0,1.0,0.0,100.0,1.0,1.1856,26.0,0.0,0.0,0.0,59.999996,0.0,26.0,26.0,26.0,26.0,0.03112500000000007,0.27780000000000005,-0.0041333333333333335,293.808,-2.7534,-2.632,-1.5265,-1.5317500000000002,-222.24,215.4725,190.663,0.0,0.0,0.0,0.0,0.03266666666666651,-5.498166666666667,-5.498166666666667,-0.5910000000000001,-0.4870000000000001,0.016000000000000014,-1.181,67.869,0.010700000000000154,-0.268775,-0.1639999999999997,100.0,1.0,1.0,209.31666666666666,0.0,0.0,0.0,0.0,0.0,0.0,0.0,8872.2,0.0,55.0,5.0,244.30333333333334,0.0,0.0,0.0,0.0,0.0,0.0,1.0,0.0,0.8039999999999985,0.8039999999999985,0.0,0.0,0.0,55.0,616.79921,10000.0,85.000001,85.000001,85.000001,85.000001,395.0,0.0,0.0,0.0,1.0,333.33500000000004,52.475,52.475,49.911,49.911,34.0,-24.5425,24.92,-27.949999999999996,28.4725,0.0,1782.80625,-0.3150000000000013,100.0,27.52,27.901,40.726,40.934,0.0,0.0,100.0,0.0,0.0,0.0,0.0,3203.5714285714284,3132.8,4117.142857142857,4075.5,305.2625,304.74333333333334,314.8786666666667,314.64975,21.91842857142857,20.6196,21.986,21.4594,314.999998,314.999998,324.999988,324.999988,99.5588,99.50808333333333,99.57061428571429,99.54798571428572,0.09250000000000003,-0.03925000000000001,-0.10616666666666663,0.12149999999999994,-0.03333333333333144,-0.03333333333333144,1.5190000000000001,1.518,37.989999999999995,29.872500000000002,38.412,35.120999999999995,55.991,35.58,60.7335,52.7965,53.911,34.6475,59.29,51.1135,53.057,34.1505,59.214,50.527,-0.10650000000000004,-0.05500000000000016,0.11077000000000001,0.11030500000000001,0.0,212.48000000000002,212.5,209.31666666666666,209.31666666666666,0.0,0.0
17,0.0,0.0,0.0,1.0,1.0,0.0,0.0,1.0,0.0,100.0,1.0,1.1856,26.0,0.0,0.0,0.0,59.999996,0.0,26.0,26.0,26.0,26.0,0.019500000000000073,0.28380000000000005,0.04103333333333333,293.518,-2.6212999999999997,-2.616428571428571,-1.4706000000000001,-1.497875,-218.57,215.4675,190.639375,0.0,0.0,0.0,0.0,0.03479999999999994,-5.498166666666667,-5.498166666666667,-0.5897,0.16249999999999998,-0.008875000000000188,-0.9979999999999998,68.016,0.010599999999999943,-0.26295,-0.13399999999999945,100.0,1.0,1.0,209.73000000000002,0.0,0.0,0.0,0.0,0.0,0.0,0.0,8889.7,0.0,55.0,5.0,244.82999999999998,1.0,0.0,0.0,0.0,0.0,0.0,1.0,0.0,0.8580000000000005,0.8580000000000005,0.0,0.0,1.0,55.0,616.79921,10000.0,85.000001,85.000001,85.000001,85.000001,395.0,0.0,0.0,0.0,1.0,166.665,52.246,52.246,49.667,49.667,34.0,-23.4225,24.1025,-28.53333333333333,29.585,0.0,1782.7525,-0.21999999999999886,100.0,27.935,28.055,40.683,40.855000000000004,0.0,0.0,100.0,0.0,0.0,0.0,0.0,3174.0,3107.6,4293.285714285715,4228.8,305.2245,304.811,314.4583333333333,314.3655,21.928571428571427,20.6256,21.99725,21.4691,314.999998,314.999998,324.999988,324.999988,99.55881428571429,99.50808333333333,99.57075714285715,99.54814285714286,0.08725000000000005,-0.05025000000000002,-0.10383333333333333,0.127,-0.04333333333332945,-0.04999999999999716,1.5023333333333333,1.4895,38.054,29.91,38.483000000000004,35.182,55.977999999999994,35.6205,60.7695,52.86,53.899,34.6845,59.323,51.175,53.044,34.1865,59.2445,50.587,-0.09549999999999992,-0.06300000000000017,0.10205,0.11074,0.0,212.965,212.965,209.73000000000002,209.73000000000002,0.0,0.0
18,0.0,0.0,0.0,1.0,1.0,0.0,0.0,1.0,0.0,100.0,1.0,1.1856,26.0,0.0,0.0,0.0,59.999996,0.0,26.0,26.0,26.0,26.0,0.01200000000000001,0.2721,0.043133333333333336,293.503,-2.6385,-2.7485714285714287,-1.4679,-1.458125,-215.51,215.4625,190.619625,0.0,0.0,0.0,0.0,0.036566666666666525,-5.498166666666667,-5.498166666666667,-0.6002000000000001,-0.37250000000000005,-0.0008750000000001812,0.9929999999999999,68.138,0.007800000000000029,-0.272725,-0.1479999999999997,100.0,1.0,1.0,210.08666666666667,0.0,0.0,0.0,0.0,0.0,0.0,0.0,8904.8,0.0,55.0,5.0,245.26999999999998,0.0,0.0,0.0,0.0,0.0,0.0,1.0,0.0,0.9029999999999987,0.9029999999999987,0.0,0.0,0.0,55.0,616.79921,10000.0,85.000001,85.000001,85.000001,85.000001,395.0,0.0,0.0,0.0,1.0,166.665,52.2,52.2,49.744,49.744,34.0,-23.1225,26.634999999999998,-27.733333333333327,29.92,0.0,1782.70875,-0.21999999999999886,100.0,28.026,27.816,40.872,40.803,0.0,0.0,100.0,0.0,0.0,0.0,0.0,3100.5714285714284,3217.2,4129.285714285715,4336.1,305.3235,304.5156666666667,314.71166666666664,314.176,21.937,20.6305,22.00675,21.4773,314.999998,314.999998,324.999988,324.999988,99.55882857142858,99.5081,99.57088571428571,99.54827142857143,0.08650000000000002,-0.041999999999999926,-0.10983333333333334,0.1283333333333332,-0.03499999999999659,-0.060000000000002274,1.4926666666666666,1.4849999999999999,38.105999999999995,29.941,38.542,35.233000000000004,55.966,35.6525,60.8,52.914,53.887,34.7145,59.352000000000004,51.2265,53.032,34.215,59.2705,50.638,-0.09499999999999997,-0.06150000000000011,0.11070500000000001,0.108295,0.0,213.335,213.345,210.08666666666667,210.08666666666667,0.0,0.0
19,0.0,0.0,0.0,1.0,1.0,0.0,0.0,1.0,0.0,100.0,1.0,1.1856,26.0,0.0,0.0,0.0,59.999996,0.0,26.0,26.0,26.0,26.0,0.03125,0.2713000000000001,0.04076666666666667,293.304,-2.6465,-2.7095714285714285,-1.4942,-1.579125,-212.03,215.45749999999998,190.59675,0.0,0.0,0.0,0.0,0.03859999999999997,-5.498166666666667,-5.498166666666667,-0.5935,0.5705,0.0040000000000000036,-0.903,68.274,0.00550000000000006,-0.26545,-0.07000000000000028,100.0,1.0,1.0,210.5233333333333,0.0,0.0,0.0,0.0,0.0,0.0,0.0,8923.4,0.0,55.0,5.0,245.76,1.0,0.0,0.0,0.0,0.0,0.0,1.0,0.0,0.9540000000000006,0.9540000000000006,0.0,0.0,1.0,55.0,616.79921,10000.0,85.000001,85.000001,85.000001,85.000001,395.0,0.0,0.0,0.0,1.0,333.33500000000004,51.849000000000004,51.849000000000004,49.911,49.911,34.0,-23.915,24.310000000000002,-28.873333333333335,30.29,0.0,1782.65625,-0.14000000000000057,100.0,28.425,28.451,40.698,40.991,0.0,0.0,100.0,0.0,0.0,0.0,0.0,3193.142857142857,3044.9,4208.857142857143,4264.0,305.1925,304.8876666666667,314.68733333333336,314.16925,21.946714285714286,20.6363,22.017375,21.4865,314.999998,314.999998,324.999988,324.999988,99.55884285714286,99.50811666666667,99.57104285714286,99.54841428571429,0.0847500000000001,-0.05525000000000002,-0.11599999999999999,0.10949999999999993,-0.054999999999999716,-0.03999999999999915,1.49,1.4849999999999999,38.167,29.9765,38.608999999999995,35.291,55.955,35.6915,60.833,52.9745,53.876000000000005,34.7505,59.382,51.285,53.019999999999996,34.2495,59.298,50.695,-0.10250000000000004,-0.06550000000000011,0.10709500000000001,0.10444500000000001,0.0,213.8,213.78,210.5233333333333,210.5233333333333,0.0,0.0
20,0.0,0.0,0.0,1.0,1.0,0.0,0.0,1.0,0.0,100.0,1.0,1.1856,26.0,0.0,0.0,0.0,59.999996,0.0,26.0,26.0,26.0,26.0,0.008375000000000021,0.2601,0.0016333333333333332,293.549,-2.7098,-2.6675714285714287,-1.498,-1.5630000000000002,-208.54,215.45499999999998,190.574375,0.0,0.0,0.0,0.0,0.0406333333333333,-5.498166666666667,-5.498166666666667,-0.599,-0.9115,0.007125000000000048,0.661,68.412,0.0020999999999999908,-0.2807,-0.02200000000000024,100.0,1.0,1.0,210.90666666666667,0.0,0.0,0.0,0.0,0.0,0.0,0.0,8939.5,0.0,55.0,5.0,246.25666666666666,0.0,0.0,0.0,0.0,0.0,0.0,0.0,0.0,1.004999999999999,1.004999999999999,0.0,0.0,0.0,55.0,616.79921,10000.0,85.000001,85.000001,85.000001,85.000001,395.0,0.0,0.0,0.0,1.0,333.33500000000004,52.399,52.399,49.683,49.683,34.0,-23.09,24.825,-28.253333333333337,29.835,0.0,1782.605,-0.14999999999999858,100.0,28.173000000000002,27.988,41.15,41.097,0.0,0.0,100.0,0.0,0.0,0.0,0.0,3035.714285714286,3139.2,4127.857142857143,4184.0,305.566,304.925,314.741,314.4365,21.956142857142858,20.6419,22.02825,21.4959,314.999998,314.999998,324.999988,324.999988,99.55884285714286,99.50811666666667,99.57118571428572,99.54857142857144,0.08850000000000002,-0.04525000000000001,-0.11066666666666658,0.12050000000000005,-0.04333333333332945,-0.051666666666669414,1.472,1.494,38.226,30.011499999999998,38.677,35.349000000000004,55.941,35.729,60.8695,53.036500000000004,53.863,34.7855,59.416,51.345,53.006,34.283,59.329,50.7535,-0.09050000000000002,-0.06800000000000006,0.11472,0.10768000000000001,0.0,214.17000000000002,214.185,210.90666666666667,210.90666666666667,0.0,0.0
21,0.0,0.0,0.0,1.0,1.0,0.0,0.0,1.0,0.0,100.0,1.0,1.1856,26.0,0.0,0.0,0.0,59.999996,0.0,26.0,26.0,26.0,26.0,-0.008874999999999966,0.26760000000000006,-0.06143333333333334,293.884,-2.7075,-2.6695714285714285,-1.5452,-1.502875,-205.26,215.45,190.552875,0.0,0.0,0.0,0.0,0.04253333333333331,-5.498166666666667,-5.498166666666667,-0.6209,0.05449999999999999,-0.005250000000000199,0.5840000000000001,68.537,-0.0011999999999999789,-0.282575,-0.08200000000000074,100.0,1.0,1.0,211.45333333333332,0.0,0.0,0.0,0.0,0.0,0.0,0.0,8962.8,0.0,55.0,5.0,246.70666666666665,1.0,0.0,0.0,0.0,0.0,0.0,0.0,0.0,1.0530000000000008,1.0530000000000008,0.0,0.0,1.0,55.0,616.79921,10000.0,85.000001,85.000001,85.000001,85.000001,395.0,0.0,0.0,0.0,1.0,333.33500000000004,52.231,52.231,50.552,50.552,34.0,-24.215,25.5125,-27.076666666666668,26.745,0.0,1782.55625,-0.2049999999999983,100.0,28.240000000000002,27.887,40.702,40.674,0.0,0.0,100.0,0.0,0.0,0.0,0.0,3129.857142857143,3186.8,3995.4285714285716,4029.9,305.298,304.80966666666666,315.157,314.94275,21.965,20.647199999999998,22.03825,21.5045,314.999998,314.999998,324.999988,324.999988,99.55885714285715,99.50811666666667,99.57131428571428,99.5487,0.08099999999999996,-0.039000000000000035,-0.10633333333333339,0.1096666666666668,-0.051666666666669414,-0.04999999999999716,1.5653333333333332,1.5585,38.282,30.045,38.739000000000004,35.403,55.928,35.7665,60.9005,53.094,53.851,34.82,59.445499999999996,51.4005,52.992999999999995,34.3165,59.355000000000004,50.808,-0.09199999999999986,-0.058499999999999996,0.10917,0.10054,0.0,214.595,214.575,211.45333333333332,211.45333333333332,0.0,0.0
22,0.0,0.0,0.0,1.0,1.0,0.0,0.0,1.0,0.0,100.0,1.0,1.1856,26.0,0.0,0.0,0.0,59.999996,0.0,26.0,26.0,26.0,26.0,-0.007124999999999937,0.2713000000000001,0.0025666666666666667,293.411,-2.7567,-2.6325714285714286,-1.5638,-1.50225,-201.76,215.4475,190.529125,0.0,0.0,0.0,0.0,0.04456666666666653,-5.498166666666667,-5.498166666666667,-0.6009,0.14600000000000002,0.0004999999999999449,-0.5659999999999998,68.675,-0.0006999999999999229,-0.250075,-0.07399999999999984,100.0,1.0,1.0,211.69666666666666,0.0,0.0,0.0,0.0,0.0,0.0,0.0,8973.1,0.0,55.0,5.0,247.2,0.0,0.0,0.0,0.0,0.0,0.0,0.0,0.0,1.1039999999999992,1.1039999999999992,0.0,0.0,0.0,55.0,616.79921,10000.0,85.000001,85.000001,85.000001,85.000001,395.0,0.0,0.0,0.0,1.0,166.665,52.414,52.414,49.5,49.5,34.0,-24.6675,23.2575,-31.89666666666666,29.4925,0.0,1782.5075,-0.23499999999999943,100.0,28.073999999999998,28.118000000000002,40.812,40.93,0.0,0.0,100.0,0.0,0.0,0.0,0.0,3172.285714285714,3038.5,4375.857142857143,4354.4,305.4265,305.106,314.32733333333334,314.08275,21.97457142857143,20.6528,22.048875,21.5137,314.999998,314.999998,324.999988,324.999988,99.55887142857142,99.50813333333333,99.57147142857143,99.54884285714286,0.0827500000000001,-0.057499999999999996,-0.12616666666666665,0.10349999999999993,-0.045000000000001705,-0.030000000000001137,1.4746666666666666,1.474,38.341,30.08,38.806,35.461,55.916,35.802,60.9335,53.150999999999996,53.839,34.853,59.476,51.455,52.980999999999995,34.348,59.382999999999996,50.8615,-0.10699999999999998,-0.06199999999999983,0.11198000000000001,0.10375500000000001,0.0,215.025,215.015,211.69666666666666,211.69666666666666,0.0,0.0
23,0.0,0.0,0.0,1.0,1.0,0.0,0.0,1.0,0.0,100.0,1.0,1.1856,26.0,0.0,0.0,0.0,59.999996,0.0,26.0,26.0,26.0,26.0,-0.016874999999999973,0.26750000000000007,0.0146,293.274,-2.6554,-2.6927142857142856,-1.6069,-1.476,-198.25,215.4425,190.5055,0.0,0.0,0.0,0.0,0.046599999999999975,-5.498166666666667,-5.498166666666667,-0.619,-0.4075,0.0058749999999998526,0.6440000000000001,68.809,0.0031000000000001027,-0.281575,-0.14999999999999947,100.0,1.0,1.0,212.15333333333334,0.0,0.0,0.0,0.0,0.0,0.0,0.0,8992.5,0.0,55.0,5.0,247.68666666666667,1.0,0.0,0.0,0.0,0.0,0.0,0.0,0.0,1.1550000000000011,1.1550000000000011,0.0,0.0,1.0,55.0,616.79921,10000.0,85.000001,85.000001,85.000001,85.000001,395.0,0.0,0.0,0.0,1.0,333.33500000000004,51.757999999999996,51.757999999999996,49.973,49.973,34.0,-24.18,25.5375,-29.979999999999997,29.009999999999998,0.0,1782.45625,-0.21000000000000085,100.0,28.486,28.163,40.994,41.002,0.0,0.0,100.0,0.0,0.0,0.0,0.0,3197.714285714286,3193.1,4193.285714285715,4241.2,304.9935,304.703,314.715,314.42525,21.984142857142857,20.6586,22.05975,21.5231,314.999998,314.999998,324.999988,324.999988,99.55888571428571,99.50813333333333,99.57161428571429,99.549,0.08725000000000005,-0.04749999999999999,-0.10916666666666663,0.12250000000000005,-0.051666666666669414,-0.045000000000001705,1.4963333333333333,1.504,38.400999999999996,30.116,38.873000000000005,35.519999999999996,55.903999999999996,35.8405,60.9685,53.2125,53.828,34.8885,59.5085,51.5145,52.968,34.382,59.412,50.9195,-0.09450000000000003,-0.06099999999999994,0.10669000000000001,0.10278000000000001,0.0,215.41500000000002,215.41,212.15333333333334,212.15333333333334,0.0,0.0
24,0.0,0.0,0.0,1.0,1.0,0.0,0.0,1.0,0.0,100.0,1.0,1.1856,26.0,0.0,0.0,0.0,59.999996,0.0,26.0,26.0,26.0,26.0,0.0063750000000000195,0.2715000000000001,-0.04413333333333334,293.716,-2.6761,-2.6737142857142855,-1.5102,-1.532625,-194.94,215.44,190.483,0.0,0.0,0.0,0.0,0.04853333333333332,-5.498166666666667,-5.498166666666667,-0.6349,-0.37850000000000006,0.010750000000000037,1.1390000000000002,68.935,0.00550000000000006,-0.28435,-0.16199999999999992,100.0,1.0,1.0,212.55333333333334,0.0,0.0,0.0,0.0,0.0,0.0,0.0,9009.3,0.0,55.0,5.0,248.14,0.0,0.0,0.0,0.0,0.0,0.0,0.0,0.0,1.2029999999999994,1.2029999999999994,0.0,0.0,0.0,55.0,616.79921,10000.0,85.000001,85.000001,85.000001,85.000001,395.0,0.0,0.0,0.0,1.0,333.33500000000004,52.505,52.505,50.018,50.018,34.0,-22.482499999999998,24.535,-27.673333333333332,29.09,0.0,1782.4075,-0.21499999999999986,100.0,28.374,27.957,40.891,40.849000000000004,0.0,0.0,100.0,0.0,0.0,0.0,0.0,2981.142857142857,3106.4,4143.285714285715,4169.5,305.703,305.04633333333334,314.72433333333333,314.57125,21.993,20.6638,22.06975,21.5318,314.999998,314.999998,324.999988,324.999988,99.5589,99.50813333333333,99.57174285714285,99.54912857142857,0.08550000000000013,-0.04625000000000001,-0.09716666666666662,0.12116666666666687,-0.03999999999999915,-0.05333333333332746,1.5110000000000001,1.5265,38.456,30.149,38.936,35.574,55.891999999999996,35.875,60.9995,53.268,53.816,34.920500000000004,59.5375,51.568,52.955,34.413,59.438,50.972,-0.09650000000000003,-0.06000000000000005,0.10784,0.10927,0.0,215.805,215.805,212.55333333333334,212.55333333333334,0.0,0.0
25,0.0,0.0,0.0,1.0,1.0,0.0,0.0,1.0,0.0,100.0,1.0,1.1856,26.0,0.0,0.0,0.0,59.999996,0.0,26.0,26.0,26.0,26.0,0.023749999999999938,0.26839999999999997,-0.025033333333333335,293.472,-2.7447,-2.6475714285714287,-1.5554000000000001,-1.5220000000000002,-191.42000000000002,215.4375,190.457625,0.0,0.0,0.0,0.0,0.05056666666666654,-5.498166666666667,-5.498166666666667,-0.6477,0.14700000000000002,0.016999999999999904,-0.8969999999999998,69.068,0.005400000000000071,-0.27332500000000004,-0.08999999999999986,100.0,1.0,1.0,213.01,0.0,0.0,0.0,0.0,0.0,0.0,0.0,9028.7,0.0,55.0,5.0,248.62,1.0,0.0,0.0,0.0,0.0,0.0,0.0,0.0,1.2540000000000013,1.2540000000000013,0.0,0.0,1.0,55.0,616.79921,10000.0,85.000001,85.000001,85.000001,85.000001,395.0,0.0,0.0,0.0,1.0,333.33500000000004,51.743,51.743,50.247,50.247,34.0,-26.127499999999998,25.915,-28.03,28.045,0.0,1782.35625,-0.28999999999999915,100.0,28.079,28.295,40.624,40.819,0.0,0.0,100.0,0.0,0.0,0.0,0.0,3331.4285714285716,3237.3,4086.8571428571427,4128.3,304.9305,304.45733333333334,315.05066666666664,314.6085,22.00242857142857,20.6696,22.080375,21.5411,314.999998,314.999998,324.999988,324.999988,99.5589,99.50815,99.5719,99.54927142857143,0.08125000000000004,-0.041999999999999926,-0.10766666666666658,0.11016666666666675,-0.051666666666669414,-0.03999999999999915,1.5346666666666666,1.545,38.515,30.185000000000002,39.003,35.632,55.878,35.913,61.031,53.326,53.803,34.956,59.567,51.624,52.942,34.4465,59.4645,51.027,-0.10399999999999987,-0.05049999999999999,0.10508500000000001,0.10008500000000001,0.0,216.215,216.215,213.01,213.01,0.0,0.0
26,0.0,0.0,0.0,1.0,1.0,0.0,0.0,1.0,0.0,100.0,1.0,1.1856,26.0,0.0,0.0,0.0,59.999996,0.0,26.0,26.0,26.0,26.0,0.027125000000000066,0.2775000000000001,0.06986666666666666,292.542,-2.7072,-2.652285714285714,-1.5206,-1.525,-187.69,215.4325,190.4305,0.0,0.0,0.0,0.0,0.0527333333333333,-5.498166666666667,-5.498166666666667,-0.6184000000000001,0.13849999999999996,0.005749999999999922,-0.7319999999999998,69.212,0.0051000000000001044,-0.258175,-0.09600000000000009,100.0,1.0,1.0,213.21666666666667,0.0,0.0,0.0,0.0,0.0,0.0,0.0,9037.5,0.0,55.0,5.0,249.13666666666666,0.0,0.0,0.0,0.0,0.0,0.0,0.0,0.0,1.3079999999999998,1.3079999999999998,0.0,0.0,0.0,55.0,616.79921,10000.0,85.000001,85.000001,85.000001,85.000001,395.0,0.0,0.0,0.0,1.0,166.665,51.498,51.498,48.92,48.92,34.0,-25.1425,24.485,-31.71,32.195,0.0,1782.3025,-0.3299999999999983,100.0,28.8,28.752,41.144,41.363,0.0,0.0,100.0,0.0,0.0,0.0,0.0,3289.142857142857,3092.0,4543.428571428572,4483.5,305.028,304.95166666666665,313.902,313.6885,22.012571428571427,20.6757,22.091875,21.551099999999998,314.999998,314.999998,324.999988,324.999988,99.55892857142857,99.50815,99.57205714285715,99.54944285714285,0.08725000000000005,-0.04399999999999993,-0.10433333333333339,0.119,-0.03166666666666629,-0.045000000000001705,1.4303333333333335,1.418,38.578,30.2235,39.074,35.694,55.867000000000004,35.954499999999996,61.069,53.391999999999996,53.792,34.994,59.6025,51.6875,52.93,34.4835,59.4965,51.0895,-0.10949999999999993,-0.05500000000000016,0.10356000000000001,0.10608500000000001,0.0,216.675,216.675,213.21666666666667,213.21666666666667,0.0,0.0
27,0.0,0.0,0.0,1.0,1.0,0.0,0.0,1.0,0.0,100.0,1.0,1.1856,26.0,0.0,0.0,0.0,59.999996,0.0,26.0,26.0,26.0,26.0,0.015374999999999917,0.24960000000000004,-0.05156666666666666,293.213,-2.7396,-2.6754285714285713,-1.5702,-1.508375,-184.57,215.4325,190.409,0.0,0.0,0.0,0.0,0.05456666666666654,-5.498166666666667,-5.498166666666667,-0.6506000000000001,-1.0899999999999999,0.012499999999999956,0.7770000000000001,69.327,0.006399999999999961,-0.310075,-0.25,100.0,1.0,1.0,213.7,0.0,0.0,0.0,0.0,0.0,0.0,0.0,9058.0,0.0,55.0,5.0,249.55333333333334,1.0,0.0,0.0,0.0,0.0,0.0,0.0,0.0,1.352999999999998,1.352999999999998,0.0,0.0,1.0,55.0,616.79921,10000.0,85.000001,85.000001,85.000001,85.000001,395.0,0.0,0.0,0.0,1.0,166.665,51.697,51.697,49.484,49.484,34.0,-23.33,26.1675,-28.456666666666663,29.052500000000002,0.0,1782.25875,-0.3200000000000003,100.0,28.698,28.616,41.317,41.239000000000004,0.0,0.0,100.0,0.0,0.0,0.0,0.0,3074.285714285714,3233.1,4142.571428571428,4146.2,305.526,304.61133333333333,314.7923333333333,314.66975,22.020857142857142,20.6809,22.1015,21.5595,314.999998,314.999998,324.999988,324.999988,99.55892857142857,99.50816666666667,99.57218571428571,99.54957142857143,0.09600000000000009,-0.03749999999999998,-0.09683333333333333,0.1283333333333332,-0.03333333333333144,-0.046666666666666856,1.505,1.4885,38.629999999999995,30.255499999999998,39.134,35.747,55.855999999999995,35.988,61.101,53.4465,53.782,35.025,59.632,51.74,52.918,34.513,59.5235,51.1405,-0.10650000000000004,-0.05600000000000005,0.10529500000000001,0.10888,0.0,216.99,216.985,213.7,213.7,0.0,0.0
28,0.0,0.0,0.0,1.0,1.0,0.0,0.0,1.0,0.0,100.0,1.0,1.1856,26.0,0.0,0.0,0.0,59.999996,0.0,26.0,26.0,26.0,26.0,0.03137499999999993,0.2724,-0.07306666666666667,293.503,-2.677,-2.6551428571428572,-1.5844,-1.5325000000000002,-181.03,215.43,190.38375,0.0,0.0,0.0,0.0,0.05663333333333331,-5.498166666666667,-5.498166666666667,-0.6566000000000001,0.743,-0.0017499999999999183,-1.0859999999999999,69.456,0.009600000000000053,-0.282775,-0.22200000000000042,100.0,1.0,1.0,214.24333333333334,0.0,0.0,0.0,0.0,0.0,0.0,0.0,9080.9,0.0,55.0,5.0,250.01333333333332,0.0,0.0,0.0,0.0,0.0,0.0,0.0,0.0,1.404,1.404,0.0,0.0,0.0,55.0,616.79921,10000.0,85.000001,85.000001,85.000001,85.000001,395.0,0.0,0.0,0.0,1.0,333.33500000000004,51.757999999999996,51.757999999999996,50.323,50.323,34.0,-23.73,24.57,-28.339999999999996,28.0325,0.0,1782.2075,-0.36499999999999844,100.0,28.598,28.713,40.596000000000004,40.832,0.0,0.0,100.0,0.0,0.0,0.0,0.0,3181.285714285714,3080.4,4130.857142857143,4070.1000000000004,305.2895,304.89233333333334,315.0253333333333,314.7975,22.030285714285714,20.686700000000002,22.112000000000002,21.5686,314.999998,314.999998,324.999988,324.999988,99.55894285714285,99.50816666666667,99.57232857142857,99.54971428571429,0.09275000000000011,-0.04299999999999993,-0.10333333333333339,0.11850000000000005,-0.03833333333332689,-0.054999999999999716,1.5676666666666668,1.5585,38.689,30.2915,39.2,35.804,55.845,36.0265,61.129999999999995,53.503,53.771,35.061,59.659,51.7945,52.907,34.5475,59.5475,51.194,-0.10850000000000004,-0.05250000000000021,0.10922000000000001,0.09813000000000001,0.0,217.43,217.44,214.24333333333334,214.24333333333334,0.0,0.0
29,0.0,0.0,0.0,1.0,1.0,0.0,0.0,1.0,0.0,100.0,1.0,1.1856,26.0,0.0,0.0,0.0,59.999996,0.0,26.0,26.0,26.0,26.0,0.03512500000000007,0.25649999999999995,-6.666666666666667e-05,293.243,-2.6503,-2.724285714285714,-1.5293999999999999,-1.5183750000000003,-177.49,215.43,190.357125,0.0,0.0,0.0,0.0,0.058666666666666534,-5.498166666666667,-5.498166666666667,-0.655,-0.7005000000000001,-0.006375000000000242,0.972,69.59,0.014900000000000135,-0.270625,-0.3799999999999999,100.0,1.0,1.0,214.43,0.0,0.0,0.0,0.0,0.0,0.0,0.0,9088.9,0.0,55.0,5.0,250.5,1.0,0.0,0.0,0.0,0.0,0.0,0.0,0.0,1.4549999999999983,1.4549999999999983,0.0,0.0,1.0,55.0,616.79921,10000.0,85.000001,85.000001,85.000001,85.000001,395.0,0.0,0.0,0.0,1.0,333.33500000000004,52.261,52.261,49.454,49.454,34.0,-21.607499999999998,25.5925,-28.449999999999996,32.3375,0.0,1782.15375,-0.370000000000001,100.0,28.365000000000002,28.228,41.176,41.062,0.0,0.0,100.0,0.0,0.0,0.0,0.0,3025.857142857143,3105.0,4211.714285714285,4408.5,305.6335,304.9936666666667,314.56666666666666,314.001,22.039571428571428,20.6923,22.122875,21.5781,314.999998,314.999998,324.999988,324.999988,99.55895714285714,99.50816666666667,99.5725,99.54988571428571,0.10875000000000012,-0.033499999999999974,-0.09250000000000003,0.14083333333333337,-0.04333333333332945,-0.045000000000001705,1.47,1.457,38.747,30.326999999999998,39.268,35.863,55.831,36.064499999999995,61.168,53.568,53.757999999999996,35.096000000000004,59.6945,51.8575,52.891999999999996,34.5815,59.579499999999996,51.254999999999995,-0.10799999999999987,-0.04899999999999993,0.10519500000000001,0.11267500000000001,0.0,217.81,217.825,214.43,214.43,0.0,0.0
30,0.0,0.0,0.0,1.0,1.0,0.0,0.0,1.0,0.0,100.0,1.0,1.1856,26.0,0.0,0.0,0.0,59.999996,0.0,26.0,26.0,26.0,26.0,0.049250000000000016,0.24209999999999998,0.032633333333333334,292.603,-2.7192,-2.647857142857143,-1.6011000000000002,-1.5670000000000002,-174.14999999999998,215.4275,190.33225,0.0,0.0,0.0,0.0,0.06063333333333332,-5.498166666666667,-5.498166666666667,-0.6611,0.745,0.001374999999999904,0.6480000000000001,69.71000000000001,0.01639999999999997,-0.2872,-0.3260000000000005,100.0,1.0,1.0,214.95,0.0,0.0,0.0,0.0,0.0,0.0,0.0,9111.0,0.0,55.0,5.0,250.93,0.0,0.0,0.0,0.0,0.0,0.0,1.0,0.0,1.5030000000000001,1.5030000000000001,0.0,0.0,0.0,55.0,616.79921,10000.0,85.000001,85.000001,85.000001,85.000001,395.0,0.0,0.0,0.0,1.0,333.33500000000004,50.308,50.308,49.896,49.896,34.0,-24.955,27.595,-28.206666666666663,30.345,0.0,1782.1075,-0.34499999999999886,100.0,29.354,29.157,40.919,41.073,0.0,0.0,100.0,0.0,0.0,0.0,0.0,3337.4285714285716,3394.3,4167.857142857143,4121.9,304.588,303.9313333333333,314.91966666666667,314.664,22.048571428571428,20.698,22.132875,21.5869,314.999998,314.999998,324.999988,324.999988,99.55897142857143,99.50818333333333,99.57261428571428,99.55001428571428,0.11099999999999999,-0.03874999999999995,-0.08633333333333337,0.14183333333333326,-0.03499999999999659,-0.026666666666670835,1.528,1.5125,38.804,30.362499999999997,39.33,35.918,55.824,36.1005,61.195499999999996,53.62,53.751000000000005,35.1295,59.72,51.9075,52.884,34.6135,59.6025,51.3045,-0.11499999999999999,-0.06000000000000005,0.103425,0.10622000000000001,0.0,218.20499999999998,218.215,214.95,214.95,0.0,0.0
31,0.0,0.0,0.0,1.0,1.0,0.0,0.0,1.0,0.0,100.0,1.0,1.1856,26.0,0.0,0.0,0.0,59.999996,0.0,26.0,26.0,26.0,26.0,0.025500000000000078,0.2459,0.04176666666666667,292.282,-2.6856999999999998,-2.6352857142857142,-1.5968,-1.5118749999999999,-170.38,215.43,190.305,0.0,0.0,0.0,0.0,0.06279999999999997,-5.498166666666667,-5.498166666666667,-0.6455000000000001,-0.48350000000000004,0.005749999999999922,0.6230000000000002,69.85,0.01880000000000015,-0.295625,-0.35799999999999965,100.0,1.0,1.0,215.17333333333335,0.0,0.0,0.0,0.0,0.0,0.0,0.0,9120.4,0.0,55.0,5.0,251.43666666666667,1.0,0.0,0.0,0.0,0.0,0.0,1.0,0.0,1.5569999999999986,1.5569999999999986,0.0,0.0,1.0,55.0,616.79921,10000.0,85.000001,85.000001,85.000001,85.000001,395.0,0.0,0.0,0.0,1.0,166.665,50.781,50.781,48.691,48.691,34.0,-22.345,27.9325,-30.28,32.36,0.0,1782.055,-0.4400000000000013,100.0,29.262999999999998,29.259999999999998,41.479,41.518,0.0,0.0,100.0,0.0,0.0,0.0,0.0,3121.0,3402.6,4305.714285714285,4423.4,305.2515,304.165,314.338,313.89575,22.05857142857143,20.7043,22.144375,21.5971,314.999998,314.999998,324.999988,324.999988,99.55898571428571,99.50818333333333,99.57277142857143,99.55017142857143,0.12024999999999997,-0.023499999999999965,-0.09016666666666662,0.13516666666666666,-0.026666666666670835,-0.051666666666669414,1.4313333333333333,1.416,38.866,30.402,39.403,35.982,55.812,36.141999999999996,61.234,53.688,53.739999999999995,35.168,59.756,51.973,52.872,34.65,59.635,51.368,-0.11250000000000004,-0.05549999999999988,0.10943000000000001,0.10264500000000001,0.0,218.615,218.64499999999998,215.17333333333335,215.17333333333335,0.0,0.0
32,0.0,0.0,0.0,1.0,1.0,0.0,0.0,1.0,0.0,100.0,1.0,1.1856,26.0,0.0,0.0,0.0,59.999996,0.0,26.0,26.0,26.0,26.0,0.046499999999999986,0.26859999999999995,-0.03596666666666667,292.999,-2.6826,-2.690142857142857,-1.5373,-1.5873750000000002,-167.01999999999998,215.43,190.281125,0.0,0.0,0.0,0.0,0.06476666666666653,-5.498166666666667,-5.498166666666667,-0.6692,-0.32699999999999996,-0.013250000000000206,0.44799999999999995,69.969,0.02180000000000004,-0.31217500000000004,-0.3899999999999997,100.0,1.0,1.0,215.68666666666667,0.0,0.0,0.0,0.0,0.0,0.0,0.0,9142.2,0.0,55.0,5.0,251.86333333333334,0.0,0.0,0.0,0.0,0.0,0.0,1.0,0.0,1.6050000000000004,1.6050000000000004,0.0,0.0,0.0,55.0,616.79921,10000.0,85.000001,85.000001,85.000001,85.000001,395.0,0.0,0.0,0.0,1.0,333.33500000000004,51.346000000000004,51.346000000000004,49.896,49.896,34.0,-22.3625,26.535,-26.5,32.255,0.0,1782.005,-0.40500000000000114,100.0,29.125,29.058,41.123000000000005,41.179,0.0,0.0,100.0,0.0,0.0,0.0,0.0,3092.4285714285716,3188.1,4074.5714285714284,4283.4,305.3965,304.755,314.93833333333333,314.26625,22.067285714285713,20.7098,22.1545,21.6059,314.999998,314.999998,324.999988,324.999988,99.559,99.5082,99.57291428571429,99.55031428571428,0.11224999999999996,-0.022499999999999964,-0.07750000000000001,0.14366666666666683,-0.030000000000001137,-0.05666666666667197,1.504,1.501,38.92,30.436500000000002,39.465,36.037,55.802,36.1775,61.2645,53.7435,53.730000000000004,35.201,59.784,52.0265,52.861000000000004,34.682,59.66,51.420500000000004,-0.11650000000000005,-0.05149999999999988,0.09947,0.10996,0.0,218.97500000000002,219.015,215.68666666666667,215.68666666666667,0.0,0.0
33,0.0,0.0,0.0,1.0,1.0,0.0,0.0,1.0,0.0,100.0,1.0,1.1856,26.0,0.0,0.0,0.0,59.999996,0.0,26.0,26.0,26.0,26.0,0.047125000000000083,0.26470000000000016,-0.07096666666666666,293.274,-2.7074,-2.651,-1.5493000000000001,-1.5456250000000002,-163.45,215.4325,190.254375,0.0,0.0,0.0,0.0,0.0668333333333333,-5.498166666666667,-5.498166666666667,-0.6747000000000001,-0.07650000000000001,-0.012125000000000163,-0.34899999999999975,70.09700000000001,0.021300000000000097,-0.285675,-0.31599999999999984,100.0,1.0,1.0,216.09333333333333,0.0,0.0,0.0,0.0,0.0,0.0,0.0,9159.4,0.0,55.0,5.0,252.32666666666665,1.0,0.0,0.0,0.0,0.0,0.0,1.0,0.0,1.6559999999999988,1.6559999999999988,0.0,0.0,1.0,55.0,616.79921,10000.0,85.000001,85.000001,85.000001,85.000001,395.0,0.0,0.0,0.0,1.0,166.665,51.757999999999996,51.757999999999996,50.186,50.186,34.0,-23.325,24.7325,-27.82,30.2375,0.0,1781.955,-0.41499999999999915,100.0,28.731,28.851,40.812,41.081,0.0,0.0,100.0,0.0,0.0,0.0,0.0,3170.857142857143,3052.5,4118.714285714285,4218.9,305.3735,305.09766666666667,314.93066666666664,314.44125,22.076571428571427,20.7156,22.165,21.6152,314.999998,314.999998,324.999988,324.999988,99.55901428571428,99.5082,99.57307142857142,99.55045714285714,0.10575000000000001,-0.028749999999999942,-0.09583333333333333,0.12816666666666676,-0.046666666666666856,-0.05666666666667197,1.5106666666666666,1.5030000000000001,38.977999999999994,30.472,39.532,36.095,55.791,36.213499999999996,61.295,53.8015,53.719,35.234,59.813,52.082499999999996,52.849000000000004,34.714,59.6855,51.475,-0.11299999999999999,-0.04400000000000004,0.10874500000000001,0.10377000000000002,0.0,219.405,219.425,216.09333333333333,216.09333333333333,0.0,0.0
34,0.0,0.0,0.0,1.0,1.0,0.0,0.0,1.0,0.0,100.0,1.0,1.1856,26.0,0.0,0.0,0.0,59.999996,0.0,26.0,26.0,26.0,26.0,0.042750000000000066,0.2538,-0.0734,293.442,-2.6577,-2.689,-1.5784,-1.4918749999999998,-160.07999999999998,215.4375,190.227875,0.0,0.0,0.0,0.0,0.06879999999999997,-5.498166666666667,-5.498166666666667,-0.6974,-0.8705,0.0031250000000000444,-0.46499999999999986,70.219,0.026100000000000012,-0.28950000000000004,-0.3360000000000003,100.0,1.0,1.0,216.40333333333334,0.0,0.0,0.0,0.0,0.0,0.0,0.0,9172.6,0.0,55.0,5.0,252.76333333333332,0.0,0.0,0.0,0.0,0.0,0.0,1.0,0.0,1.7040000000000006,1.7040000000000006,0.0,0.0,0.0,55.0,616.79921,10000.0,85.000001,85.000001,85.000001,85.000001,395.0,0.0,0.0,0.0,1.0,333.33500000000004,52.292,52.292,50.14,50.14,34.0,-22.7,24.485,-28.949999999999996,29.9525,0.0,1781.90625,-0.3550000000000004,100.0,28.374,28.447,40.826,41.215,0.0,0.0,100.0,0.0,0.0,0.0,0.0,3127.285714285714,3002.3,4207.571428571428,4245.6,305.536,305.275,314.756,314.35925,22.085142857142856,20.7209,22.175125,21.6241,314.999998,314.999998,324.999988,324.999988,99.55902857142857,99.5082,99.5732,99.5506,0.09975,-0.030749999999999944,-0.09499999999999997,0.13116666666666688,-0.04999999999999716,-0.03999999999999915,1.4936666666666667,1.491,39.032,30.505499999999998,39.594,36.150999999999996,55.778,36.2465,61.325,53.8585,53.707,35.2645,59.841,52.1375,52.837,34.743,59.710499999999996,51.528999999999996,-0.11099999999999999,-0.05149999999999988,0.11127000000000001,0.10246000000000001,0.0,219.745,219.765,216.40333333333334,216.40333333333334,0.0,0.0
