,ABS Active,ABS Enabled,AID Allow Tire Blankets,AID Auto Blip,AID Auto Clutch,AID Auto Shift,AID Fuel Rate,AID Ideal Line,AID Mech Damage,AID Stability,AID Tire Wear Rate,Air Density,Air Temp,Ballast,Best Lap Delta,Best Lap Time,Brake Bias,Brake Pos,Brake Temp FL,Brake Temp FR,Brake Temp RL,Brake Temp RR,CG Accel Lateral,CG Accel Longitudinal,CG Accel Vertical,CG Height,Camber FL,Camber FR,Camber RL,Camber RR,Car Coord X,Car Coord Y,Car Coord Z,Car Damage Front,Car Damage Left,Car Damage Rear,Car Damage Right,Car Pos Norm,Caster FL,Caster FR,Chassis Pitch Angle,Chassis Pitch Rate,Chassis Roll Angle,Chassis Roll Rate,Chassis Velocity X,Chassis Velocity Y,Chassis Velocity Z,Chassis Yaw Rate,Clutch Pos,DRS Active,DRS Available,Drive Train Speed,ERS Heat Charging,ERS Is Charging,ERS Max Energy,ERS Power Level,ERS Recovery Level,Engine Brake Setting,Engine Limiter,Engine RPM,Flags,Fuel Level,Gear,Ground Speed,HR Sample Clock,In Pit,KERS Charge,KERS Deployed Energy,KERS Input,KERS Max Energy,LR Sample Clock,Lap Invalidated,Lap Time,Lap Time2,Last Lap Time,Last Sector Time,MR Sample Clock,Max Fuel,Max Power,Max RPM,Max Sus Travel FL,Max Sus Travel FR,Max Sus Travel RL,Max Sus Travel RR,Max Torque,Max Turbo Boost,Num Tires Off Track,Penalties Enabled,Position,Raw Data Sample Rate,Ride Height FL,Ride Height FR,Ride Height RL,Ride Height RR,Road Temp,Self Align Torque FL,Self Align Torque FR,Self Align Torque RL,Self Align Torque RR,Session Lap Count,Session Time Left,Steering Angle,Surface Grip,Suspension Travel FL,Suspension Travel FR,Suspension Travel RL,Suspension Travel RR,TC Active,TC Enabled,Throttle Pos,Tire Dirt Level FL,Tire Dirt Level FR,Tire Dirt Level RL,Tire Dirt Level RR,Tire Load FL,Tire Load FR,Tire Load RL,Tire Load RR,Tire Loaded Radius FL,Tire Loaded Radius FR,Tire Loaded Radius RL,Tire Loaded Radius RR,Tire Pressure FL,Tire Pressure FR,Tire Pressure RL,Tire Pressure RR,Tire Radius FL,Tire Radius FR,Tire Radius RL,Tire Radius RR,Tire Rubber Grip FL,Tire Rubber Grip FR,Tire Rubber Grip RL,Tire Rubber Grip RR,Tire Slip Angle FL,Tire Slip Angle FR,Tire Slip Angle RL,Tire Slip Angle RR,Tire Slip Ratio FL,Tire Slip Ratio FR,Tire Slip Ratio RL,Tire Slip Ratio RR,Tire Temp Core FL,Tire Temp Core FR,Tire Temp Core RL,Tire Temp Core RR,Tire Temp Inner FL,Tire Temp Inner FR,Tire Temp Inner RL,Tire Temp Inner RR,Tire Temp Middle FL,Tire Temp Middle FR,Tire Temp Middle RL,Tire Temp Middle RR,Tire Temp Outer FL,Tire Temp Outer FR,Tire Temp Outer RL,Tire Temp Outer RR,Toe In FL,Toe In FR,Toe In RL,Toe In RR,Turbo Boost,Wheel Angular Speed FL,Wheel Angular Speed FR,Wheel Angular Speed RL,Wheel Angular Speed RR,Wind Direction,Wind Speed
0,0.0,0.0,0.0,1.0,1.0,0.0,0.0,1.0,0.0,100.0,1.0,1.1856,26.0,0.0,0.0,0.0,59.99999,0.0,26.0,26.0,26.0,26.0,-0.025111111111111112,0.2986,0.22642500000000002,292.938,-2.7921,-2.6141,-1.5609000000000002,-1.5081,-275.61,215.4225,190.987,0.0,0.0,0.0,0.0,0.0016333333333333332,-5.498166666666667,-5.498166666666667,-0.5595,2.0525,-0.00022222222222234578,-0.886,65.522,-0.028300000000000002,-0.222925,-0.047999999999999154,100.0,1.0,1.0,202.28,0.0,0.0,0.0,0.0,0.0,0.0,0.0,8573.9,0.0,55.0,5.0,235.8466666666667,0.0,0.0,0.0,0.0,0.0,0.0,0.0,0.0,0.0030000000000001137,0.0030000000000001137,0.0,0.0,0.0,55.0,616.79921,10000.0,85.0,85.0,85.0,85.0,395.0,0.0,0.0,0.0,1.0,20.0,50.552,50.552,48.522999999999996,48.522999999999996,34.0,-29.9425,32.828,-29.49,26.755000000000003,0.0,1779.935,0.07500000000000107,100.0,27.484,27.58,40.427,40.215,0.0,0.0,100.0,0.0,0.0,0.0,0.0,3374.857142857143,4333.5,4134.75,4112.6,304.5805,301.31,314.83375,314.57525,21.7923,20.5212,21.766,21.3106,314.99999,314.99999,324.99998,324.99998,99.5596,99.50728333333333,99.56494285714285,99.54494285714286,0.020333333333333314,-0.08266666666666667,-0.13133333333333336,0.09183333333333334,-0.07499999999999574,-0.054999999999999716,1.5675,1.5274999999999999,37.202,29.2575,37.038,34.1915,56.565,34.5905,59.0175,51.569,54.45,33.735,57.64,49.928,53.6,33.2785,57.601,49.35466666666667,-0.07050000000000001,-0.08499999999999996,0.10307000000000001,0.11037000000000001,0.0,205.315,205.305,202.28,202.28,0.0,0.0
1,0.0,0.0,0.0,1.0,1.0,0.0,0.0,1.0,0.0,100.0,1.0,1.1856,26.0,0.0,0.0,0.0,59.999996,0.0,26.0,26.0,26.0,26.0,-0.058,0.32540000000000013,0.187925,292.114,-2.6936,-2.6997,-1.6023,-1.3784,-272.26,215.4325,190.967,0.0,0.0,0.0,0.0,0.0035666666666666668,-5.498166666666667,-5.498166666666667,-0.4743,-1.8505000000000003,-0.045333333333333226,-0.192,65.68,-0.022000000000000002,-0.1789,0.5260000000000007,100.0,1.0,1.0,202.16666666666669,0.0,0.0,0.0,0.0,0.0,0.0,0.0,8569.1,0.0,55.0,5.0,236.41666666666669,1.0,0.0,0.0,0.0,0.0,0.0,0.0,0.0,0.053999999999998494,0.053999999999998494,0.0,0.0,1.0,55.0,616.79921,10000.0,85.000001,85.000001,85.000001,85.000001,395.0,0.0,0.0,0.0,1.0,333.33500000000004,54.214,54.214,47.043,47.043,34.0,-22.66,17.04,-38.33,35.465,0.0,1779.884,0.3200000000000003,100.0,27.598,27.235,42.632,43.203,0.0,0.0,100.0,0.0,0.0,0.0,0.0,2809.4285714285716,2451.4,4802.625,5463.1,306.296,307.0296666666667,312.95775,310.8835,21.802,20.5261,21.777,21.32,314.999998,314.999998,324.999988,324.999988,99.55961428571429,99.5073,99.5651,99.5451,0.03933333333333344,-0.09999999999999987,-0.138,0.07533333333333334,-0.02499999999999858,-0.03499999999999659,1.2814999999999999,1.308,37.263,29.2885,37.105999999999995,34.25,56.547,34.626999999999995,59.066,51.64,54.433,33.7685,57.6855,49.9955,53.581,33.3115,57.6435,49.42133333333334,-0.04899999999999993,-0.10250000000000004,0.11274500000000001,0.116875,0.0,205.74,205.735,202.16666666666669,202.16666666666669,0.0,0.0
2,0.0,0.0,0.0,1.0,1.0,0.0,0.0,1.0,0.0,100.0,1.0,1.1856,26.0,0.0,0.0,0.0,59.999996,0.0,26.0,26.0,26.0,26.0,-0.07688888888888888,0.2916000000000001,-0.219425,293.808,-2.6701,-2.6433,-1.5756999999999999,-1.5053,-268.71,215.44,190.947,0.0,0.0,0.0,0.0,0.005633333333333334,-5.498166666666667,-5.498166666666667,-0.5791000000000001,1.347,-0.0009999999999998899,2.072,65.82300000000001,-0.0261,-0.270775,0.7240000000000002,100.0,1.0,1.0,203.64,0.0,0.0,0.0,0.0,0.0,0.0,0.0,8631.5,0.0,55.0,5.0,236.93333333333334,0.0,0.0,0.0,0.0,0.0,0.0,0.0,0.0,0.10800000000000054,0.10800000000000054,0.0,0.0,0.0,55.0,616.79921,10000.0,85.000001,85.000001,85.000001,85.000001,395.0,0.0,0.0,0.0,1.0,166.665,51.758,51.758,50.69,50.69,34.0,-27.622500000000002,22.128,-25.28666666666666,19.65,0.0,1779.831,0.45500000000000007,100.0,28.398,27.734,41.72,41.567,0.0,0.0,100.0,0.0,0.0,0.0,0.0,3259.857142857143,3141.5,3529.0,3449.2,304.7295,304.5946666666667,316.27175,316.37925,21.8128,20.5317,21.7878,21.3288,314.999998,314.999998,324.999988,324.999988,99.55961428571429,99.50731666666667,99.56524285714286,99.54522857142857,0.026000000000000245,-0.1096666666666668,-0.16816666666666666,0.07033333333333333,-0.045000000000001705,-0.06666666666666998,1.7635,1.7970000000000002,37.33,29.323,37.174,34.3055,56.532,34.6695,59.102000000000004,51.692,54.419,33.8075,57.7185,50.045500000000004,53.567,33.349000000000004,57.674,49.470666666666666,-0.050999999999999934,-0.11250000000000004,0.10970500000000001,0.10951000000000001,0.0,206.235,206.18,203.64,203.64,0.0,0.0
3,0.0,0.0,0.0,1.0,1.0,0.0,0.0,1.0,0.0,100.0,1.0,1.1856,26.0,0.0,0.0,0.0,59.999996,0.0,26.0,26.0,26.0,26.0,-0.07188888888888889,0.30300000000000016,0.13755,292.862,-2.6848,-2.6772,-1.5542,-1.4804,-265.75,215.445,190.928875,0.0,0.0,0.0,0.0,0.007366666666666667,-5.498166666666667,-5.498166666666667,-0.4995,0.4645,0.009777777777777885,-1.5290000000000001,65.964,-0.0364,-0.184375,0.6400000000000006,100.0,1.0,1.0,203.37333333333333,0.0,0.0,0.0,0.0,0.0,0.0,0.0,8620.3,0.0,55.0,5.0,237.43666666666667,1.0,0.0,0.0,0.0,0.0,0.0,0.0,0.0,0.1529999999999987,0.1529999999999987,0.0,0.0,1.0,55.0,616.79921,10000.0,85.000001,85.000001,85.000001,85.000001,395.0,0.0,0.0,0.0,1.0,333.33500000000004,53.253,53.253,47.363,47.363,34.0,-23.28,20.345999999999997,-34.57,28.5725,0.0,1779.785,0.5649999999999995,100.0,27.906,27.585,42.123000000000005,42.168,0.0,0.0,100.0,0.0,0.0,0.0,0.0,2828.714285714286,2940.9,4530.625,4438.9,306.3225,305.4386666666667,313.77375,313.6985,21.8213,20.5363,21.7971,21.3369,314.999998,314.999998,324.999988,324.999988,99.55961428571429,99.50731666666667,99.56537142857142,99.54535714285714,0.023333333333333428,-0.11533333333333329,-0.14633333333333334,0.0775,-0.036666666666668846,-0.046666666666666856,1.4264999999999999,1.442,37.382999999999996,29.352,37.232,34.3555,56.515,34.7065,59.138,51.7525,54.403,33.842,57.751999999999995,50.104,53.55,33.3815,57.705,49.52733333333333,-0.03649999999999998,-0.12250000000000005,0.10541,0.11342500000000001,0.0,206.685,206.635,203.37333333333333,203.37333333333333,0.0,0.0
4,0.0,0.0,0.0,1.0,1.0,0.0,0.0,1.0,0.0,100.0,1.0,1.1856,26.0,0.0,0.0,0.0,59.999996,0.0,26.0,26.0,26.0,26.0,-0.08066666666666668,0.2842,0.007675,293.289,-2.6757,-2.737,-1.4959,-1.5935000000000001,-262.38,215.4475,190.9095,0.0,0.0,0.0,0.0,0.009333333333333334,-5.498166666666667,-5.498166666666667,-0.5354,-0.9605000000000001,-0.0425555555555559,-0.63,66.10900000000001,-0.0466,-0.2386,1.0839999999999996,100.0,1.0,1.0,204.05666666666667,0.0,0.0,0.0,0.0,0.0,0.0,0.0,8649.2,0.0,55.0,5.0,237.96333333333334,0.0,0.0,0.0,0.0,0.0,0.0,0.0,0.0,0.20400000000000063,0.20400000000000063,0.0,0.0,0.0,55.0,616.79921,10000.0,85.000001,85.000001,85.000001,85.000001,395.0,0.0,0.0,0.0,1.0,333.33500000000004,52.826,52.826,48.752,48.752,34.0,-28.1525,19.814,-30.353333333333335,23.700000000000003,0.0,1779.733,0.625,100.0,27.817,27.35,42.851,42.29,0.0,0.0,100.0,0.0,0.0,0.0,0.0,3232.4285714285716,2884.6,4038.5,3819.4,305.126,305.569,314.996,315.3015,21.8312,20.5414,21.8078,21.3458,314.999998,314.999998,324.999988,324.999988,99.55961428571429,99.50733333333334,99.56551428571429,99.54551428571429,-0.0003333333333332966,-0.1313333333333333,-0.18083333333333335,0.058666666666666666,-0.05333333333332746,-0.03833333333332689,1.5675,1.6085,37.445,29.384,37.298,34.411,56.497,34.7475,59.183,51.8155,54.385,33.879999999999995,57.794,50.164,53.532,33.4185,57.7435,49.586666666666666,-0.025499999999999967,-0.123,0.10372500000000001,0.11715,0.0,207.065,206.995,204.05666666666667,204.05666666666667,0.0,0.0
5,0.0,0.0,0.0,1.0,1.0,0.0,0.0,1.0,0.0,100.0,1.0,1.1856,26.0,0.0,0.0,0.0,59.999996,0.0,26.0,26.0,26.0,26.0,-0.09522222222222224,0.28690000000000015,-0.048150000000000005,293.579,-2.641,-2.7006,-1.5421,-1.5790000000000002,-259.0,215.45,190.88975,0.0,0.0,0.0,0.0,0.011300000000000001,-5.498166666666667,-5.498166666666667,-0.5403,0.6335,-0.02911111111111131,0.739,66.254,-0.06620000000000001,-0.22612500000000002,0.9539999999999997,100.0,1.0,1.0,204.58333333333331,0.0,0.0,0.0,0.0,0.0,0.0,0.0,8671.5,0.0,55.0,5.0,238.48333333333335,1.0,0.0,0.0,0.0,0.0,0.0,0.0,0.0,0.254999999999999,0.254999999999999,0.0,0.0,1.0,55.0,616.79921,10000.0,85.000001,85.000001,85.000001,85.000001,395.0,0.0,0.0,0.0,1.0,333.33500000000004,53.055,53.055,49.072,49.072,34.0,-25.482499999999998,21.084000000000003,-29.77,23.564999999999998,0.0,1779.683,0.3550000000000004,100.0,27.941,27.142,42.467,41.655,0.0,0.0,100.0,0.0,0.0,0.0,0.0,3019.5714285714284,2990.6,3938.625,3977.8,305.5125,305.331,315.2455,315.03175,21.8411,20.5466,21.8181,21.3545,314.999998,314.999998,324.999988,324.999988,99.55961428571429,99.50735,99.56565714285715,99.54562857142857,0.013333333333333197,-0.11133333333333328,-0.1765,0.03866666666666666,-0.03333333333333144,-0.05666666666667197,1.58,1.611,37.507,29.4165,37.363,34.4655,56.482,34.786,59.218,51.8695,54.370999999999995,33.9155,57.826499999999996,50.216,53.516999999999996,33.452,57.7735,49.63766666666667,-0.05399999999999994,-0.09800000000000009,0.09886,0.11160500000000001,0.0,207.57,207.47500000000002,204.58333333333331,204.58333333333331,0.0,0.0
6,0.0,0.0,0.0,1.0,1.0,0.0,0.0,1.0,0.0,100.0,1.0,1.1856,26.0,0.0,0.0,0.0,59.999996,0.0,26.0,26.0,26.0,26.0,-0.10622222222222223,0.2883,-0.030000000000000002,293.381,-2.6773,-2.7736,-1.4893,-1.5649000000000002,-255.82,215.45,190.87025,0.0,0.0,0.0,0.0,0.013133333333333335,-5.498166666666667,-5.498166666666667,-0.5291,-0.30499999999999994,-0.0474444444444444,0.41300000000000003,66.395,-0.06860000000000001,-0.207925,0.798,100.0,1.0,1.0,204.83333333333331,0.0,0.0,0.0,0.0,0.0,0.0,0.0,8682.1,0.0,55.0,5.0,238.99,0.0,0.0,0.0,0.0,0.0,0.0,0.0,0.0,0.3030000000000008,0.3030000000000008,0.0,0.0,0.0,55.0,616.79921,10000.0,85.000001,85.000001,85.000001,85.000001,395.0,0.0,0.0,0.0,1.0,166.665,53.406,53.406,48.507999999999996,48.507999999999996,34.0,-27.165,19.84,-31.703333333333333,24.75,0.0,1779.637,0.4900000000000002,100.0,27.672,26.81,42.758,41.81,0.0,0.0,100.0,0.0,0.0,0.0,0.0,3102.4285714285716,2859.2,4175.625,4104.5,305.3815,305.75,314.585,314.676,21.8504,20.5514,21.828,21.3629,314.999998,314.999998,324.999988,324.999988,99.55962857142858,99.50736666666667,99.5658,99.54577142857143,-0.0033333333333331883,-0.131,-0.17766666666666667,0.0405,-0.03499999999999659,-0.05333333333332746,1.521,1.526,37.565,29.445999999999998,37.425,34.518,56.465,34.8225,59.2565,51.928,54.355000000000004,33.949,57.863,50.272,53.5,33.4845,57.807,49.69233333333334,-0.04349999999999998,-0.10949999999999993,0.110405,0.10230500000000001,0.0,207.97500000000002,207.925,204.83333333333331,204.83333333333331,0.0,0.0
7,0.0,0.0,0.0,1.0,1.0,0.0,0.0,1.0,0.0,100.0,1.0,1.1856,26.0,0.0,0.0,0.0,59.999996,0.0,26.0,26.0,26.0,26.0,-0.09533333333333333,0.2904,-0.019375,293.365,-2.6721,-2.7759,-1.541,-1.549,-252.23,215.4475,190.8485,0.0,0.0,0.0,0.0,0.015233333333333335,-5.498166666666667,-5.498166666666667,-0.5351,0.14349999999999996,-0.04044444444444428,1.193,66.547,-0.0712,-0.2179,0.5920000000000005,100.0,1.0,1.0,205.37333333333333,0.0,0.0,0.0,0.0,0.0,0.0,0.0,8705.0,0.0,55.0,5.0,239.54000000000002,1.0,0.0,0.0,0.0,0.0,0.0,0.0,0.0,0.3569999999999993,0.3569999999999993,0.0,0.0,1.0,55.0,616.79921,10000.0,85.000001,85.000001,85.000001,85.000001,395.0,0.0,0.0,0.0,1.0,166.665,53.116,53.116,48.615,48.615,34.0,-25.87,21.792,-32.349999999999994,23.825000000000003,0.0,1779.582,-0.04499999999999993,100.0,27.938,26.926000000000002,42.784,41.726,0.0,0.0,100.0,0.0,0.0,0.0,0.0,3094.0,2952.2,4122.875,4022.3,305.3265,305.46633333333335,314.77175,314.93975,21.861,20.5569,21.8391,21.3723,314.999998,314.999998,324.999988,324.999988,99.55962857142858,99.50736666666667,99.56594285714286,99.54591428571429,0.02733333333333343,-0.10133333333333328,-0.19033333333333335,0.042333333333333334,-0.041666666666671404,-0.06499999999999773,1.547,1.5670000000000002,37.631,29.4805,37.494,34.577,56.449,34.8655,59.299,51.991,54.34,33.9885,57.9025,50.332499999999996,53.483999999999995,33.5225,57.8435,49.751333333333335,-0.07850000000000001,-0.07250000000000001,0.10830000000000001,0.10652,0.0,208.47,208.4,205.37333333333333,205.37333333333333,0.0,0.0
8,0.0,0.0,0.0,1.0,1.0,0.0,0.0,1.0,0.0,100.0,1.0,1.1856,26.0,0.0,0.0,0.0,59.999996,0.0,26.0,26.0,26.0,26.0,-0.06444444444444444,0.2945,-0.024975,293.472,-2.6647,-2.7122,-1.5518,-1.6076000000000001,-249.03,215.4425,190.82925,0.0,0.0,0.0,0.0,0.0171,-5.498166666666667,-5.498166666666667,-0.5372,-0.08899999999999997,-0.03500000000000014,0.464,66.684,-0.0627,-0.22082500000000002,0.2679999999999998,100.0,1.0,1.0,205.79333333333335,0.0,0.0,0.0,0.0,0.0,0.0,0.0,8722.8,0.0,55.0,5.0,240.03333333333333,0.0,0.0,0.0,0.0,0.0,0.0,0.0,0.0,0.40500000000000114,0.40500000000000114,0.0,0.0,0.0,55.0,616.79921,10000.0,85.000001,85.000001,85.000001,85.000001,395.0,0.0,0.0,0.0,1.0,333.33500000000004,53.284,53.284,48.477000000000004,48.477000000000004,34.0,-24.7775,22.42,-30.623333333333335,25.560000000000002,0.0,1779.532,-0.1349999999999998,100.0,27.617,26.948999999999998,42.725,41.88,0.0,0.0,100.0,0.0,0.0,0.0,0.0,3002.857142857143,3039.5,4040.625,3994.9,305.6245,305.19733333333335,314.96275,314.9325,21.8702,20.5619,21.8489,21.3807,314.999998,314.999998,324.999988,324.999988,99.55962857142858,99.50738333333334,99.56608571428572,99.54605714285714,0.0303333333333331,-0.09099999999999997,-0.16733333333333333,0.06316666666666666,-0.045000000000001705,-0.051666666666669414,1.546,1.5635,37.689,29.511499999999998,37.556,34.6295,56.432,34.905,59.338499999999996,52.052,54.324,34.025,57.939499999999995,50.391,53.467,33.5575,57.8775,49.80866666666667,-0.08499999999999996,-0.06600000000000006,0.10658500000000001,0.10715500000000001,0.0,208.875,208.835,205.79333333333335,205.79333333333335,0.0,0.0
9,0.0,0.0,0.0,1.0,1.0,0.0,0.0,1.0,0.0,100.0,1.0,1.1856,26.0,0.0,0.0,0.0,59.999996,0.0,26.0,26.0,26.0,26.0,-0.03422222222222222,0.28780000000000006,-0.00965,293.274,-2.6727,-2.7198,-1.5388000000000002,-1.56,-245.63,215.435,190.808375,0.0,0.0,0.0,0.0,0.019066666666666666,-5.498166666666667,-5.498166666666667,-0.5341,0.1845,-0.04155555555555557,-0.742,66.828,-0.0487,-0.213225,0.1280000000000001,100.0,1.0,1.0,206.21333333333334,0.0,0.0,0.0,0.0,0.0,0.0,0.0,8740.6,0.0,55.0,5.0,240.55333333333334,1.0,0.0,0.0,0.0,0.0,0.0,0.0,0.0,0.4559999999999995,0.4559999999999995,0.0,0.0,1.0,55.0,616.79921,10000.0,85.000001,85.000001,85.000001,85.000001,395.0,0.0,0.0,0.0,1.0,166.665,52.994,52.994,48.644999999999996,48.644999999999996,34.0,-26.235,22.414,-30.816666666666663,25.697499999999998,0.0,1779.483,-0.3149999999999995,100.0,27.59,27.128,42.534,41.992000000000004,0.0,0.0,100.0,0.0,0.0,0.0,0.0,3210.4285714285716,2952.3,4116.875,4068.1000000000004,305.188,305.295,314.87775,314.71,21.8801,20.5671,21.8594,21.3897,314.999998,314.999998,324.999988,324.999988,99.55962857142858,99.5074,99.56622857142857,99.5462,0.03933333333333344,-0.07899999999999996,-0.16333333333333336,0.064,-0.061666666666667425,-0.04999999999999716,1.5434999999999999,1.5314999999999999,37.751000000000005,29.5445,37.620999999999995,34.6855,56.417,34.9415,59.375,52.1085,54.31,34.059,57.9735,50.445,53.453,33.5895,57.909,49.862,-0.09750000000000003,-0.04899999999999993,0.10722500000000001,0.10279,0.0,209.325,209.29500000000002,206.21333333333334,206.21333333333334,0.0,0.0
10,0.0,0.0,0.0,1.0,1.0,0.0,0.0,1.0,0.0,100.0,1.0,1.1856,26.0,0.0,0.0,0.0,59.999996,0.0,26.0,26.0,26.0,26.0,-0.01677777777777778,0.2954000000000001,0.0028250000000000003,293.243,-2.6776,-2.7022,-1.5542,-1.5478,-242.42000000000002,215.4275,190.788875,0.0,0.0,0.0,0.0,0.020933333333333335,-5.498166666666667,-5.498166666666667,-0.5305,-0.22750000000000004,-0.014555555555555877,-0.025,66.964,-0.035500000000000004,-0.21155000000000002,-0.0259999999999998,100.0,1.0,1.0,206.56,0.0,0.0,0.0,0.0,0.0,0.0,0.0,8755.4,0.0,55.0,5.0,241.04333333333335,0.0,0.0,0.0,0.0,0.0,0.0,1.0,0.0,0.5040000000000013,0.5040000000000013,0.0,0.0,0.0,55.0,616.79921,10000.0,85.000001,85.000001,85.000001,85.000001,395.0,0.0,0.0,0.0,1.0,333.33500000000004,53.329,53.329,48.462,48.462,34.0,-24.8175,22.14,-30.476666666666663,27.240000000000002,0.0,1779.433,-0.40499999999999936,100.0,27.490000000000002,27.032,42.585,42.24,0.0,0.0,100.0,0.0,0.0,0.0,0.0,3111.857142857143,2923.5,4161.25,4186.8,305.4855,305.409,314.7335,314.41275,21.8893,20.5721,21.8692,21.3982,314.999998,314.999998,324.999988,324.999988,99.55964285714286,99.5074,99.56635714285714,99.54634285714286,0.05166666666666675,-0.07499999999999996,-0.14166666666666666,0.07816666666666668,-0.05333333333332746,-0.04333333333332945,1.524,1.5230000000000001,37.808,29.575499999999998,37.683,34.7385,56.402,34.979,59.415,52.170500000000004,54.295,34.0935,58.0105,50.5045,53.438,33.6225,57.9435,49.92,-0.10699999999999998,-0.04299999999999993,0.103705,0.11127500000000001,0.0,209.72500000000002,209.7,206.56,206.56,0.0,0.0
11,0.0,0.0,0.0,1.0,1.0,0.0,0.0,1.0,0.0,100.0,1.0,1.1856,26.0,0.0,0.0,0.0,59.999996,0.0,26.0,26.0,26.0,26.0,-0.015444444444444445,0.2872000000000001,-0.031625,293.503,-2.6844,-2.6988000000000003,-1.5617,-1.5213,-239.0,215.42000000000002,190.76775,0.0,0.0,0.0,0.0,0.022600000000000002,-5.498166666666667,-5.498166666666667,-0.5504,-0.24550000000000005,0.00822222222222213,0.923,67.106,-0.0199,-0.2237,-0.28200000000000003,100.0,1.0,1.0,207.10000000000002,0.0,0.0,0.0,0.0,0.0,0.0,0.0,8778.1,0.0,55.0,5.0,241.55333333333334,1.0,0.0,0.0,0.0,0.0,0.0,1.0,0.0,0.5549999999999997,0.5549999999999997,0.0,0.0,1.0,55.0,616.79921,10000.0,85.000001,85.000001,85.000001,85.000001,395.0,0.0,0.0,0.0,1.0,166.665,53.284,53.284,48.888999999999996,48.888999999999996,34.0,-23.455,24.578,-26.906666666666663,26.925,0.0,1779.385,-0.40499999999999936,100.0,27.373,26.922,42.480000000000004,42.176,0.0,0.0,100.0,0.0,0.0,0.0,0.0,3011.5714285714284,3121.0,3890.25,4099.3,305.6145,304.973,315.349,314.72275,21.899,20.5774,21.8796,21.4072,314.999998,314.999998,324.999988,324.999988,99.55965714285715,99.50741666666667,99.5665,99.54647142857142,0.06899999999999995,-0.052999999999999936,-0.11866666666666667,0.0985,-0.046666666666666856,-0.045000000000001705,1.5835,1.5710000000000002,37.869,29.6085,37.748000000000005,34.7945,56.388,35.013999999999996,59.4495,52.227000000000004,54.281,34.126,58.043,50.559,53.423,33.653999999999996,57.973,49.97366666666667,-0.10050000000000003,-0.040000000000000036,0.10036500000000001,0.105105,0.0,210.14499999999998,210.14499999999998,207.10000000000002,207.10000000000002,0.0,0.0
12,0.0,0.0,0.0,1.0,1.0,0.0,0.0,1.0,0.0,100.0,1.0,1.1856,26.0,0.0,0.0,0.0,59.999996,0.0,26.0,26.0,26.0,26.0,0.005222222222222223,0.2873000000000001,0.0008500000000000001,293.152,-2.7113,-2.6919,-1.5566,-1.5401,-235.76999999999998,215.4125,190.74725,0.0,0.0,0.0,0.0,0.025466666666666665,-5.498166666666667,-5.498166666666667,-0.542,0.4245,0.008333333333333304,0.758,67.24000000000001,-0.004,-0.2053,-0.3539999999999992,100.0,1.0,1.0,207.45,0.0,0.0,0.0,0.0,0.0,0.0,0.0,8793.0,0.0,55.0,5.0,242.03666666666666,0.0,0.0,0.0,0.0,0.0,0.0,1.0,0.0,0.602999999999998,0.602999999999998,0.0,0.0,0.0,55.0,616.79921,10000.0,85.000001,85.000001,85.000001,85.000001,395.0,0.0,0.0,0.0,1.0,333.33500000000004,52.994,52.994,48.309,48.309,34.0,-23.305,25.344,-27.866666666666664,29.455000000000002,0.0,1779.335,-0.4299999999999997,100.0,27.553,27.240000000000002,42.378,42.181,0.0,0.0,100.0,0.0,0.0,0.0,0.0,3014.714285714286,3151.0,4098.125,4225.8,305.591,304.857,314.85375,314.44125,21.9081,20.5825,21.8894,21.4156,314.999998,314.999998,324.999988,324.999988,99.55965714285715,99.50741666666667,99.56662857142857,99.54661428571428,0.07933333333333348,-0.04066666666666663,-0.10066666666666667,0.11883333333333333,-0.046666666666666856,-0.06833333333332803,1.539,1.5230000000000001,37.926,29.6405,37.809,34.8475,56.373999999999995,35.0505,59.4845,52.284,54.269,34.1595,58.0755,50.614,53.41,33.686,58.0025,50.027,-0.09950000000000003,-0.046499999999999986,0.106105,0.10201500000000001,0.0,210.575,210.62,207.45,207.45,0.0,0.0
13,0.0,0.0,0.0,1.0,1.0,0.0,0.0,1.0,0.0,100.0,1.0,1.1856,26.0,0.0,0.0,0.0,59.999996,0.0,26.0,26.0,26.0,26.0,0.04633333333333334,0.2752000000000001,0.01375,292.847,-2.6919,-2.6959,-1.557,-1.5453999999999999,-232.34,215.405,190.725625,0.0,0.0,0.0,0.0,0.0268,-5.498166666666667,-5.498166666666667,-0.538,-0.28,0.006444444444444253,-0.306,67.383,0.0006000000000000001,-0.213925,-0.32200000000000006,100.0,1.0,1.0,207.81333333333333,0.0,0.0,0.0,0.0,0.0,0.0,0.0,8808.4,0.0,55.0,5.0,242.55,1.0,0.0,0.0,0.0,0.0,0.0,1.0,0.0,0.6539999999999999,0.6539999999999999,0.0,0.0,1.0,55.0,616.79921,10000.0,85.000001,85.000001,85.000001,85.000001,395.0,0.0,0.0,0.0,1.0,166.665,52.872,52.872,48.096000000000004,48.096000000000004,34.0,-22.884999999999998,24.990000000000002,-28.79,29.27,0.0,1779.285,-0.4350000000000005,100.0,27.567,27.547,42.67,42.749,0.0,0.0,100.0,0.0,0.0,0.0,0.0,3126.4285714285716,3020.4,4150.5,4236.1,305.445,305.0933333333333,314.75525,314.29675,21.9178,20.5879,21.8999,21.4248,314.999998,314.999998,324.999988,324.999988,99.55967142857143,99.50743333333334,99.56677142857143,99.54674285714286,0.1030000000000002,-0.02499999999999991,-0.10766666666666667,0.10716666666666667,-0.046666666666666856,-0.051666666666669414,1.5,1.4965,37.986000000000004,29.674500000000002,37.873999999999995,34.905,56.361000000000004,35.088,59.524,52.347,54.256,34.1945,58.1125,50.6745,53.396,33.7195,58.036500000000004,50.086333333333336,-0.12649999999999995,-0.023500000000000076,0.10710000000000001,0.10961000000000001,0.0,211.005,211.025,207.81333333333333,207.81333333333333,0.0,0.0
14,0.0,0.0,0.0,1.0,1.0,0.0,0.0,1.0,0.0,100.0,1.0,1.1856,26.0,0.0,0.0,0.0,59.999996,0.0,26.0,26.0,26.0,26.0,0.02411111111111111,0.2834000000000001,-0.02325,293.091,-2.7035,-2.7081,-1.5657,-1.5406,-228.9,215.3975,190.70425,0.0,0.0,0.0,0.0,0.028800000000000003,-5.498166666666667,-5.498166666666667,-0.5507000000000001,-0.01200000000000001,0.022777777777777786,0.895,67.523,0.0094,-0.22490000000000002,-0.45399999999999974,100.0,1.0,1.0,208.3466666666667,0.0,0.0,0.0,0.0,0.0,0.0,0.0,8831.1,0.0,55.0,5.0,243.05333333333334,0.0,0.0,0.0,0.0,0.0,0.0,1.0,0.0,0.7049999999999983,0.7049999999999983,0.0,0.0,0.0,55.0,616.79921,10000.0,85.000001,85.000001,85.000001,85.000001,395.0,0.0,0.0,0.0,1.0,166.665,52.872,52.872,48.492,48.492,34.0,-22.09,25.644,-26.356666666666666,29.565,0.0,1779.235,-0.46999999999999886,100.0,27.728,27.556,42.59,42.688,0.0,0.0,100.0,0.0,0.0,0.0,0.0,2981.857142857143,3111.2,3945.75,4141.8,305.696,304.9483333333333,315.21775,314.62225,21.9274,20.5934,21.9103,21.433799999999998,314.999998,314.999998,324.999988,324.999988,99.55968571428572,99.50743333333334,99.56691428571429,99.54688571428571,0.10000000000000009,-0.028999999999999915,-0.09483333333333333,0.13583333333333333,-0.041666666666671404,-0.05666666666667197,1.5665,1.5445,38.046,29.709,37.94,34.9615,56.348,35.126,59.5605,52.408,54.242999999999995,34.2295,58.1465,50.733000000000004,53.382,33.753,58.067499999999995,50.144,-0.11099999999999999,-0.038000000000000034,0.11031,0.11034000000000001,0.0,211.43,211.45499999999998,208.3466666666667,208.3466666666667,0.0,0.0
15,0.0,0.0,0.0,1.0,1.0,0.0,0.0,1.0,0.0,100.0,1.0,1.1856,26.0,0.0,0.0,0.0,59.999996,0.0,26.0,26.0,26.0,26.0,0.041444444444444443,0.28190000000000004,-0.006725,292.969,-2.691,-2.6913,-1.5537,-1.5608,-225.66,215.39249999999998,190.68375,0.0,0.0,0.0,0.0,0.03066666666666667,-5.498166666666667,-5.498166666666667,-0.5436,0.22650000000000003,0.028666666666666618,0.782,67.655,0.0175,-0.212225,-0.4739999999999993,100.0,1.0,1.0,208.71,0.0,0.0,0.0,0.0,0.0,0.0,0.0,8846.4,0.0,55.0,5.0,243.53,1.0,0.0,0.0,0.0,0.0,0.0,1.0,0.0,0.7530000000000001,0.7530000000000001,0.0,0.0,1.0,55.0,616.79921,10000.0,85.000001,85.000001,85.000001,85.000001,395.0,0.0,0.0,0.0,1.0,333.33500000000004,52.887,52.887,48.263999999999996,48.263999999999996,34.0,-21.865,25.444,-26.576666666666664,30.545,0.0,1779.185,-0.33999999999999986,100.0,27.757,27.63,42.537,42.764,0.0,0.0,100.0,0.0,0.0,0.0,0.0,2960.714285714286,3095.5,4043.125,4185.3,305.749,304.98566666666665,314.982,314.49375,21.9364,20.5986,21.920099999999998,21.4424,314.999998,314.999998,324.999988,324.999988,99.55968571428572,99.50743333333334,99.56705714285714,99.54702857142857,0.09866666666666646,-0.026999999999999913,-0.08466666666666667,0.1385,-0.02833333333332888,-0.04999999999999716,1.5425,1.513,38.102999999999994,29.741500000000002,38.001000000000005,35.015,56.335,35.161500000000004,59.5955,52.466,54.230999999999995,34.2625,58.1785,50.789,53.369,33.785,58.097,50.199,-0.10199999999999998,-0.04499999999999993,0.10651500000000001,0.10259000000000001,0.0,211.835,211.875,208.71,208.71,0.0,0.0
16,0.0,0.0,0.0,1.0,1.0,0.0,0.0,1.0,0.0,100.0,1.0,1.1856,26.0,0.0,0.0,0.0,59.999996,0.0,26.0,26.0,26.0,26.0,0.03866666666666666,0.27280000000000015,-0.0006500000000000001,292.74,-2.7578,-2.6283000000000003,-1.5339,-1.5568,-222.2,215.3875,190.661625,0.0,0.0,0.0,0.0,0.0327,-5.498166666666667,-5.498166666666667,-0.5531,-0.3440000000000001,0.020333333333333314,-0.9570000000000001,67.795,0.0223,-0.224025,-0.20999999999999996,100.0,1.0,1.0,209.12666666666667,0.0,0.0,0.0,0.0,0.0,0.0,0.0,8864.1,0.0,55.0,5.0,244.03666666666666,0.0,0.0,0.0,0.0,0.0,0.0,1.0,0.0,0.8039999999999985,0.8039999999999985,0.0,0.0,0.0,55.0,616.79921,10000.0,85.000001,85.000001,85.000001,85.000001,395.0,0.0,0.0,0.0,1.0,166.665,52.505,52.505,47.928,47.928,34.0,-24.7575,25.168,-26.759999999999998,29.400000000000002,0.0,1779.135,-0.22499999999999964,100.0,27.487000000000002,27.886,42.681,43.071,0.0,0.0,100.0,0.0,0.0,0.0,0.0,3187.4285714285716,3136.8,4091.25,4030.0,305.313,304.71733333333333,314.913,314.77575,21.9459,20.6041,21.9306,21.4515,314.999998,314.999998,324.999988,324.999988,99.55971428571429,99.50743333333334,99.5672,99.54717142857143,0.08566666666666656,-0.033666666666666734,-0.08683333333333333,0.14100000000000001,-0.05666666666667197,-0.03499999999999659,1.5365,1.51,38.162,29.776,38.066,35.072,56.321,35.199,59.634,52.528,54.217,34.2975,58.2145,50.8485,53.355000000000004,33.8185,58.129999999999995,50.257,-0.09050000000000002,-0.05449999999999999,0.10058500000000001,0.11434500000000002,0.0,212.275,212.275,209.12666666666667,209.12666666666667,0.0,0.0
17,0.0,0.0,0.0,1.0,1.0,0.0,0.0,1.0,0.0,100.0,1.0,1.1856,26.0,0.0,0.0,0.0,59.999996,0.0,26.0,26.0,26.0,26.0,0.02766666666666667,0.2731000000000001,0.02725,292.48,-2.6277,-2.6143,-1.5513,-1.5177,-218.74,215.3825,190.6395,0.0,0.0,0.0,0.0,0.0347,-5.498166666666667,-5.498166666666667,-0.5506,0.15049999999999997,0.001777777777777878,0.396,67.934,0.0178,-0.2169,-0.20000000000000018,100.0,1.0,1.0,209.51,0.0,0.0,0.0,0.0,0.0,0.0,0.0,8880.4,0.0,55.0,5.0,244.53666666666666,1.0,0.0,0.0,0.0,0.0,0.0,1.0,0.0,0.8550000000000004,0.8550000000000004,0.0,0.0,1.0,55.0,616.79921,10000.0,85.000001,85.000001,85.000001,85.000001,395.0,0.0,0.0,0.0,1.0,166.665,52.353,52.353,47.623,47.623,34.0,-22.05,25.592,-27.993333333333336,30.4775,0.0,1779.084,-0.16499999999999915,100.0,27.907,27.861,42.781,42.963,0.0,0.0,100.0,0.0,0.0,0.0,0.0,3048.857142857143,3225.0,4170.0,4259.2,305.443,304.617,314.64575,314.37,21.9555,20.6097,21.9411,21.4606,314.999998,314.999998,324.999988,324.999988,99.55971428571429,99.50745,99.56734285714286,99.54731428571428,0.10033333333333339,-0.03499999999999992,-0.08916666666666667,0.13733333333333334,-0.05333333333332746,-0.03999999999999915,1.5070000000000001,1.5070000000000001,38.222,29.811,38.132,35.129,56.307,35.238,59.671,52.589,54.205,34.3335,58.249,50.9075,53.341,33.853,58.161,50.31466666666667,-0.09199999999999997,-0.06600000000000006,0.10766,0.10905000000000001,0.0,212.735,212.72500000000002,209.51,209.51,0.0,0.0
18,0.0,0.0,0.0,1.0,1.0,0.0,0.0,1.0,0.0,100.0,1.0,1.1856,26.0,0.0,0.0,0.0,59.999996,0.0,26.0,26.0,26.0,26.0,0.035222222222222224,0.2712000000000001,0.0376,292.465,-2.6414,-2.7499000000000002,-1.5311,-1.4874,-215.48000000000002,215.3775,190.61825,0.0,0.0,0.0,0.0,0.0366,-5.498166666666667,-5.498166666666667,-0.5615,-0.33000000000000007,-0.002666666666666817,0.851,68.066,0.0137,-0.22455,-0.1639999999999997,100.0,1.0,1.0,209.87666666666667,0.0,0.0,0.0,0.0,0.0,0.0,0.0,8895.9,0.0,55.0,5.0,245.00666666666666,0.0,0.0,0.0,0.0,0.0,0.0,1.0,0.0,0.9029999999999987,0.9029999999999987,0.0,0.0,0.0,55.0,616.79921,10000.0,85.000001,85.000001,85.000001,85.000001,395.0,0.0,0.0,0.0,1.0,333.33500000000004,52.399,52.399,47.76,47.76,34.0,-22.57,26.358,-26.883333333333333,30.400000000000002,0.0,1779.034,-0.16499999999999915,100.0,27.905,27.756,42.952,43.066,0.0,0.0,100.0,0.0,0.0,0.0,0.0,3078.4285714285716,3172.1,4083.125,4310.6,305.4045,304.67266666666666,314.8225,314.226,21.9645,20.6149,21.951,21.4692,314.999998,314.999998,324.999988,324.999988,99.55972857142856,99.50745,99.56748571428571,99.54745714285714,0.09566666666666634,-0.03766666666666674,-0.0855,0.1335,-0.05666666666667197,-0.036666666666668846,1.5045,1.4915,38.278,29.843,38.194,35.1825,56.293,35.275,59.709,52.6505,54.191,34.3675,58.2845,50.966499999999996,53.327,33.885999999999996,58.1935,50.37266666666667,-0.09099999999999997,-0.05750000000000011,0.09910500000000001,0.1072,0.0,213.12,213.10000000000002,209.87666666666667,209.87666666666667,0.0,0.0
19,0.0,0.0,0.0,1.0,1.0,0.0,0.0,1.0,0.0,100.0,1.0,1.1856,26.0,0.0,0.0,0.0,59.999996,0.0,26.0,26.0,26.0,26.0,0.03944444444444444,0.266,0.011775,292.282,-2.6376,-2.7076000000000002,-1.533,-1.6077,-212.0,215.375,190.5955,0.0,0.0,0.0,0.0,0.0386,-5.498166666666667,-5.498166666666667,-0.5518000000000001,0.5529999999999999,0.007444444444444365,-0.755,68.202,0.007500000000000001,-0.21532500000000002,0.02400000000000002,100.0,1.0,1.0,210.33666666666667,0.0,0.0,0.0,0.0,0.0,0.0,0.0,8915.4,0.0,55.0,5.0,245.5,1.0,0.0,0.0,0.0,0.0,0.0,1.0,0.0,0.9540000000000006,0.9540000000000006,0.0,0.0,1.0,55.0,616.79921,10000.0,85.000001,85.000001,85.000001,85.000001,395.0,0.0,0.0,0.0,1.0,333.33500000000004,52.078,52.078,47.821,47.821,34.0,-23.7975,23.884,-28.673333333333336,30.5275,0.0,1778.983,-0.10999999999999943,100.0,28.254,28.329,42.817,43.263,0.0,0.0,100.0,0.0,0.0,0.0,0.0,3162.4285714285716,3019.7,4168.0,4202.6,305.3035,304.96866666666665,314.75225,314.32575,21.9742,20.6205,21.9614,21.4783,314.999998,314.999998,324.999988,324.999988,99.55974285714285,99.50746666666667,99.56761428571428,99.5476,0.07933333333333348,-0.05933333333333324,-0.1085,0.11716666666666667,-0.054999999999999716,-0.041666666666671404,1.4914999999999998,1.494,38.339,29.878,38.259,35.2395,56.281,35.3125,59.743,52.708,54.18,34.4025,58.316,51.0215,53.314,33.9195,58.2225,50.42666666666666,-0.08650000000000002,-0.06750000000000012,0.10766,0.10921000000000002,0.0,213.57999999999998,213.55,210.33666666666667,210.33666666666667,0.0,0.0
20,0.0,0.0,0.0,1.0,1.0,0.0,0.0,1.0,0.0,100.0,1.0,1.1856,26.0,0.0,0.0,0.0,59.999996,0.0,26.0,26.0,26.0,26.0,0.022111111111111113,0.266,-0.0142,292.389,-2.6968,-2.6541,-1.5168,-1.5932,-208.51999999999998,215.3725,190.573,0.0,0.0,0.0,0.0,0.040633333333333334,-5.498166666666667,-5.498166666666667,-0.5551,-0.7304999999999999,0.008111111111110958,0.652,68.34,0.0022,-0.22545,0.03399999999999981,100.0,1.0,1.0,210.73333333333335,0.0,0.0,0.0,0.0,0.0,0.0,0.0,8932.3,0.0,55.0,5.0,245.99666666666667,0.0,0.0,0.0,0.0,0.0,0.0,0.0,0.0,1.004999999999999,1.004999999999999,0.0,0.0,0.0,55.0,616.79921,10000.0,85.000001,85.000001,85.000001,85.000001,395.0,0.0,0.0,0.0,1.0,166.665,52.49,52.49,47.409,47.409,34.0,-22.785,24.542,-27.343333333333334,29.3625,0.0,1778.933,-0.15499999999999936,100.0,28.071,27.914,43.487,43.567,0.0,0.0,100.0,0.0,0.0,0.0,0.0,3027.285714285714,3141.2,4065.25,4091.1000000000004,305.6005,304.9293333333333,314.88175,314.66875,21.9837,20.626,21.972,21.4876,314.999998,314.999998,324.999988,324.999988,99.55974285714285,99.50746666666667,99.56777142857143,99.54775714285714,0.09100000000000019,-0.04899999999999993,-0.10133333333333333,0.12066666666666667,-0.03499999999999659,-0.054999999999999716,1.5070000000000001,1.512,38.397999999999996,29.9125,38.325,35.2975,56.266,35.351,59.7825,52.7705,54.165,34.438,58.353,51.082,53.299,33.9535,58.256,50.48566666666667,-0.08750000000000002,-0.06600000000000006,0.10355,0.10999500000000001,0.0,213.96,213.965,210.73333333333335,210.73333333333335,0.0,0.0
21,0.0,0.0,0.0,1.0,1.0,0.0,0.0,1.0,0.0,100.0,1.0,1.1856,26.0,0.0,0.0,0.0,59.999996,0.0,26.0,26.0,26.0,26.0,-0.005555555555555556,0.27280000000000015,-0.04945,292.572,-2.7157,-2.6678,-1.5669,-1.5339,-205.24,215.37,190.5515,0.0,0.0,0.0,0.0,0.04253333333333333,-5.498166666666667,-5.498166666666667,-0.5729000000000001,-0.0004999999999999449,-0.0014444444444445814,0.598,68.46600000000001,-0.0032,-0.22407500000000002,-0.016000000000000014,100.0,1.0,1.0,211.2266666666667,0.0,0.0,0.0,0.0,0.0,0.0,0.0,8953.2,0.0,55.0,5.0,246.45333333333335,1.0,0.0,0.0,0.0,0.0,0.0,0.0,0.0,1.0530000000000008,1.0530000000000008,0.0,0.0,1.0,55.0,616.79921,10000.0,85.000001,85.000001,85.000001,85.000001,395.0,0.0,0.0,0.0,1.0,333.33500000000004,52.383,52.383,48.05,48.05,34.0,-24.0075,25.427999999999997,-27.826666666666664,27.535,0.0,1778.884,-0.23499999999999943,100.0,28.078,27.771,43.106,43.197,0.0,0.0,100.0,0.0,0.0,0.0,0.0,3122.0,3189.5,4017.625,4061.1000000000004,305.333,304.7986666666667,315.085,314.85575,21.9927,20.6312,21.9818,21.4961,314.999998,314.999998,324.999988,324.999988,99.55975714285714,99.50748333333334,99.56791428571428,99.54788571428571,0.08599999999999985,-0.040999999999999925,-0.11233333333333333,0.11266666666666668,-0.03833333333332689,-0.06499999999999773,1.5655000000000001,1.5695000000000001,38.455,29.9455,38.385999999999996,35.3505,56.251999999999995,35.388999999999996,59.818,52.8285,54.152,34.4735,58.385999999999996,51.138,53.285,33.9875,58.286,50.54066666666667,-0.10050000000000003,-0.05800000000000005,0.10953500000000001,0.10583000000000001,0.0,214.36,214.38,211.2266666666667,211.2266666666667,0.0,0.0
22,0.0,0.0,0.0,1.0,1.0,0.0,0.0,1.0,0.0,100.0,1.0,1.1856,26.0,0.0,0.0,0.0,59.999996,0.0,26.0,26.0,26.0,26.0,0.003,0.27580000000000005,0.016525,292.068,-2.7553,-2.6681,-1.5710000000000002,-1.5323,-201.53,215.3675,190.526375,0.0,0.0,0.0,0.0,0.044700000000000004,-5.498166666666667,-5.498166666666667,-0.5584,-0.008000000000000007,0.006888888888888944,0.975,68.613,-0.004,-0.2023,-0.13200000000000056,100.0,1.0,1.0,211.50666666666666,0.0,0.0,0.0,0.0,0.0,0.0,0.0,8965.0,0.0,55.0,5.0,246.97666666666666,0.0,0.0,0.0,0.0,0.0,0.0,0.0,0.0,1.1069999999999993,1.1069999999999993,0.0,0.0,0.0,55.0,616.79921,10000.0,85.000001,85.000001,85.000001,85.000001,395.0,0.0,0.0,0.0,1.0,166.665,52.307,52.307,47.195,47.195,34.0,-24.355,25.362000000000002,-29.73,31.475,0.0,1778.833,-0.27999999999999936,100.0,28.16,27.884,43.311,43.275,0.0,0.0,100.0,0.0,0.0,0.0,0.0,3112.857142857143,3193.2,4257.0,4434.2,305.4145,304.7896666666667,314.499,313.9645,22.0029,20.6372,21.9929,21.5058,314.999998,314.999998,324.999988,324.999988,99.55977142857142,99.50748333333334,99.56805714285714,99.54804285714286,0.08333333333333348,-0.04366666666666674,-0.10200000000000001,0.12116666666666667,-0.026666666666670835,-0.046666666666666856,1.4835,1.478,38.518,29.982,38.456,35.411,56.239000000000004,35.428,59.8565,52.89,54.138999999999996,34.509,58.422,51.197,53.271,34.022,58.3185,50.598333333333336,-0.09999999999999998,-0.05449999999999999,0.09886500000000001,0.11340000000000001,0.0,214.815,214.815,211.50666666666666,211.50666666666666,0.0,0.0
23,0.0,0.0,0.0,1.0,1.0,0.0,0.0,1.0,0.0,100.0,1.0,1.1856,26.0,0.0,0.0,0.0,59.999996,0.0,26.0,26.0,26.0,26.0,-0.005555555555555556,0.28170000000000006,0.02015,292.038,-2.6531,-2.6936,-1.6347,-1.509,-198.24,215.365,190.50425,0.0,0.0,0.0,0.0,0.04663333333333333,-5.498166666666667,-5.498166666666667,-0.5726,-0.258,0.0043333333333333,0.684,68.739,-0.0011,-0.22415000000000002,-0.14399999999999924,100.0,1.0,1.0,211.95666666666668,0.0,0.0,0.0,0.0,0.0,0.0,0.0,8984.0,0.0,55.0,5.0,247.43333333333334,1.0,0.0,0.0,0.0,0.0,0.0,0.0,0.0,1.1550000000000011,1.1550000000000011,0.0,0.0,1.0,55.0,616.79921,10000.0,85.000001,85.000001,85.000001,85.000001,395.0,0.0,0.0,0.0,1.0,166.665,51.987,51.987,47.47,47.47,34.0,-23.74,25.46,-30.516666666666666,29.427500000000002,0.0,1778.783,-0.26500000000000057,100.0,28.387999999999998,28.036,43.447,43.49,0.0,0.0,100.0,0.0,0.0,0.0,0.0,3165.0,3160.4,4202.875,4214.3,305.1195,304.799,314.67275,314.49,22.0119,20.6424,22.0028,21.514499999999998,314.999998,314.999998,324.999988,324.999988,99.55978571428571,99.50748333333334,99.5682,99.54818571428571,0.08999999999999986,-0.04233333333333311,-0.11233333333333333,0.12816666666666665,-0.03499999999999659,-0.06333333333333258,1.517,1.53,38.574,30.0155,38.518,35.4655,56.226,35.465,59.891999999999996,52.9475,54.126999999999995,34.5435,58.455,51.2525,53.257999999999996,34.0545,58.349000000000004,50.653,-0.09599999999999997,-0.0535000000000001,0.10981,0.11404500000000001,0.0,215.20499999999998,215.20499999999998,211.95666666666668,211.95666666666668,0.0,0.0
24,0.0,0.0,0.0,1.0,1.0,0.0,0.0,1.0,0.0,100.0,1.0,1.1856,26.0,0.0,0.0,0.0,59.999996,0.0,26.0,26.0,26.0,26.0,-0.0011111111111111111,0.2813000000000001,-0.036725,292.435,-2.6797,-2.6739,-1.545,-1.5608,-194.94,215.365,190.481625,0.0,0.0,0.0,0.0,0.04853333333333333,-5.498166666666667,-5.498166666666667,-0.5854,-0.39600000000000013,0.013111111111111073,1.147,68.866,0.0023,-0.22275,-0.22200000000000042,100.0,1.0,1.0,212.3466666666667,0.0,0.0,0.0,0.0,0.0,0.0,0.0,9000.6,0.0,55.0,5.0,247.89,0.0,0.0,0.0,0.0,0.0,0.0,0.0,0.0,1.2029999999999994,1.2029999999999994,0.0,0.0,0.0,55.0,616.79921,10000.0,85.000001,85.000001,85.000001,85.000001,395.0,0.0,0.0,0.0,1.0,166.665,52.704,52.704,47.455,47.455,34.0,-22.08,24.398,-27.753333333333334,29.3625,0.0,1778.737,-0.28999999999999915,100.0,28.191,27.822,43.416,43.418,0.0,0.0,100.0,0.0,0.0,0.0,0.0,2954.4285714285716,3095.2,4118.5,4164.6,305.799,305.081,314.774,314.57525,22.020699999999998,20.6476,22.0127,21.5231,314.999998,314.999998,324.999988,324.999988,99.5598,99.5075,99.56834285714285,99.54832857142857,0.0903333333333336,-0.04733333333333323,-0.09616666666666668,0.11916666666666667,-0.03833333333332689,-0.05666666666667197,1.541,1.52,38.629999999999995,30.0475,38.579,35.519,56.213,35.5,59.9265,53.004,54.114999999999995,34.576,58.487,51.307,53.245000000000005,34.086,58.378,50.706,-0.09950000000000003,-0.05899999999999994,0.10238000000000001,0.10259000000000001,0.0,215.59,215.60000000000002,212.3466666666667,212.3466666666667,0.0,0.0
25,0.0,0.0,0.0,1.0,1.0,0.0,0.0,1.0,0.0,100.0,1.0,1.1856,26.0,0.0,0.0,0.0,59.999996,0.0,26.0,26.0,26.0,26.0,0.02411111111111111,0.2593000000000001,-0.02075,292.175,-2.682,-2.6469,-1.59,-1.5568,-191.42000000000002,215.3625,190.456375,0.0,0.0,0.0,0.0,0.05056666666666667,-5.498166666666667,-5.498166666666667,-0.6013000000000001,0.08050000000000002,0.018000000000000016,-0.92,68.999,0.0034000000000000002,-0.21860000000000002,-0.11599999999999966,100.0,1.0,1.0,212.81,0.0,0.0,0.0,0.0,0.0,0.0,0.0,9020.3,0.0,55.0,5.0,248.37,1.0,0.0,0.0,0.0,0.0,0.0,0.0,0.0,1.2540000000000013,1.2540000000000013,0.0,0.0,1.0,55.0,616.79921,10000.0,85.000001,85.000001,85.000001,85.000001,395.0,0.0,0.0,0.0,1.0,166.665,51.804,51.804,47.76,47.76,34.0,-24.9775,25.978,-28.546666666666663,29.245,0.0,1778.686,-0.3149999999999995,100.0,28.003,28.17,43.105000000000004,43.326,0.0,0.0,100.0,0.0,0.0,0.0,0.0,3301.857142857143,3250.9,4076.875,4120.1,304.921,304.40066666666667,315.0395,314.62775,22.0301,20.6533,22.023,21.5322,314.999998,314.999998,324.999988,324.999988,99.5598,99.5075,99.56848571428571,99.54845714285715,0.08999999999999986,-0.043333333333333224,-0.11083333333333333,0.12433333333333334,-0.07000000000000028,-0.030000000000001137,1.5434999999999999,1.528,38.688,30.083,38.644,35.576,56.198,35.539,59.962,53.063,54.101,34.612,58.519999999999996,51.364,53.230000000000004,34.1205,58.408,50.76166666666667,-0.10150000000000003,-0.05249999999999999,0.103285,0.11418,0.0,216.01999999999998,215.995,212.81,212.81,0.0,0.0
26,0.0,0.0,0.0,1.0,1.0,0.0,0.0,1.0,0.0,100.0,1.0,1.1856,26.0,0.0,0.0,0.0,59.999996,0.0,26.0,26.0,26.0,26.0,0.01188888888888889,0.26760000000000006,0.07935,291.458,-2.7013,-2.6628,-1.548,-1.5590000000000002,-187.89999999999998,215.36,190.430875,0.0,0.0,0.0,0.0,0.05263333333333334,-5.498166666666667,-5.498166666666667,-0.5741,0.28400000000000003,0.006555555555555648,0.93,69.135,0.0058000000000000005,-0.202125,-0.24600000000000044,100.0,1.0,1.0,213.0233333333333,0.0,0.0,0.0,0.0,0.0,0.0,0.0,9029.3,0.0,55.0,5.0,248.86,0.0,0.0,0.0,0.0,0.0,0.0,0.0,0.0,1.3049999999999997,1.3049999999999997,0.0,0.0,0.0,55.0,616.79921,10000.0,85.000001,85.000001,85.000001,85.000001,395.0,0.0,0.0,0.0,1.0,166.665,51.772999999999996,51.772999999999996,46.722,46.722,34.0,-23.73,25.0,-30.55,32.5925,0.0,1778.635,-0.3249999999999993,100.0,28.799,28.409,43.638,43.672,0.0,0.0,100.0,0.0,0.0,0.0,0.0,3168.142857142857,3153.8,4407.5,4493.8,305.216,304.9556666666667,314.11925,313.78325,22.0397,20.659,22.0336,21.5415,314.999998,314.999998,324.999988,324.999988,99.55982857142857,99.5075,99.56862857142858,99.54861428571428,0.09866666666666646,-0.04166666666666674,-0.09633333333333333,0.12016666666666667,-0.041666666666671404,-0.05833333333333002,1.4505,1.4415,38.748000000000005,30.119,38.71,35.634,56.188,35.579,60.001,53.1255,54.09,34.649,58.5565,51.424,53.219,34.156,58.441,50.82066666666667,-0.10799999999999998,-0.05800000000000005,0.11046500000000001,0.102635,0.0,216.445,216.47500000000002,213.0233333333333,213.0233333333333,0.0,0.0
27,0.0,0.0,0.0,1.0,1.0,0.0,0.0,1.0,0.0,100.0,1.0,1.1856,26.0,0.0,0.0,0.0,59.999996,0.0,26.0,26.0,26.0,26.0,0.0074444444444444445,0.25680000000000014,-0.0523,291.855,-2.7497,-2.6734999999999998,-1.6099,-1.5403,-184.57999999999998,215.36,190.407625,0.0,0.0,0.0,0.0,0.054566666666666666,-5.498166666666667,-5.498166666666667,-0.5984,-0.7890000000000001,0.015333333333333199,0.869,69.258,0.0106,-0.23642500000000002,-0.2999999999999998,100.0,1.0,1.0,213.54000000000002,0.0,0.0,0.0,0.0,0.0,0.0,0.0,9051.1,0.0,55.0,5.0,249.30333333333334,1.0,0.0,0.0,0.0,0.0,0.0,0.0,0.0,1.352999999999998,1.352999999999998,0.0,0.0,1.0,55.0,616.79921,10000.0,85.000001,85.000001,85.000001,85.000001,395.0,0.0,0.0,0.0,1.0,333.33500000000004,52.002,52.002,46.753,46.753,34.0,-23.2175,25.82,-28.663333333333334,29.37,0.0,1778.584,-0.29999999999999893,100.0,28.477,28.399,44.028,43.996,0.0,0.0,100.0,0.0,0.0,0.0,0.0,3047.5714285714284,3214.8,4119.25,4151.0,305.6065,304.661,314.84125,314.673,22.0485,20.6644,22.043599999999998,21.5502,314.999998,314.999998,324.999988,324.999988,99.55982857142857,99.50751666666666,99.56878571428571,99.54875714285714,0.09566666666666634,-0.040999999999999925,-0.096,0.12666666666666668,-0.041666666666671404,-0.045000000000001705,1.52,1.5015,38.803,30.152,38.772,35.689,56.174,35.6175,60.039500000000004,53.187,54.078,34.685,58.5925,51.483000000000004,53.205,34.1905,58.474000000000004,50.878,-0.10549999999999993,-0.05449999999999999,0.10440500000000001,0.10305,0.0,216.785,216.79500000000002,213.54000000000002,213.54000000000002,0.0,0.0
28,0.0,0.0,0.0,1.0,1.0,0.0,0.0,1.0,0.0,100.0,1.0,1.1856,26.0,0.0,0.0,0.0,59.999996,0.0,26.0,26.0,26.0,26.0,0.02022222222222222,0.25439999999999996,-0.041475000000000005,291.977,-2.68,-2.6611000000000002,-1.6232,-1.5702,-180.82999999999998,215.36,190.38075,0.0,0.0,0.0,0.0,0.05673333333333334,-5.498166666666667,-5.498166666666667,-0.5992000000000001,0.518,0.003444444444444361,0.422,69.397,0.013300000000000001,-0.213625,-0.2920000000000007,100.0,1.0,1.0,214.01666666666665,0.0,0.0,0.0,0.0,0.0,0.0,0.0,9071.4,0.0,55.0,5.0,249.8,0.0,0.0,0.0,0.0,0.0,0.0,0.0,0.0,1.407,1.407,0.0,0.0,0.0,55.0,616.79921,10000.0,85.000001,85.000001,85.000001,85.000001,395.0,0.0,0.0,0.0,1.0,166.665,52.032,52.032,47.134,47.134,34.0,-21.825,25.726,-28.849999999999998,30.605,0.0,1778.532,-0.34999999999999964,100.0,28.531,28.374,43.499,43.66,0.0,0.0,100.0,0.0,0.0,0.0,0.0,3022.714285714286,3179.9,4199.875,4180.5,305.5535,304.7436666666667,314.75525,314.6035,22.0585,20.6704,22.0545,21.5599,314.999998,314.999998,324.999988,324.999988,99.55984285714285,99.50751666666666,99.56892857142857,99.54891428571429,0.1120000000000001,-0.03400000000000003,-0.08616666666666667,0.13933333333333334,-0.051666666666669414,-0.046666666666666856,1.5274999999999999,1.5230000000000001,38.866,30.189999999999998,38.841,35.749,56.162,35.657,60.073499999999996,53.2455,54.066,34.7215,58.624,51.539,53.192,34.2255,58.501999999999995,50.93333333333334,-0.11049999999999993,-0.0515000000000001,0.10491500000000001,0.110905,0.0,217.26,217.255,214.01666666666665,214.01666666666665,0.0,0.0
29,0.0,0.0,0.0,1.0,1.0,0.0,0.0,1.0,0.0,100.0,1.0,1.1856,26.0,0.0,0.0,0.0,59.999996,0.0,26.0,26.0,26.0,26.0,0.01966666666666667,0.25760000000000005,-0.02935,291.718,-2.7507,-2.5878,-1.603,-1.5712000000000002,-177.07999999999998,215.36,190.35275,0.0,0.0,0.0,0.0,0.0589,-5.498166666666667,-5.498166666666667,-0.6083000000000001,-0.71,0.0011111111111110628,0.718,69.538,0.015300000000000001,-0.21757500000000002,-0.3200000000000003,100.0,1.0,1.0,214.3466666666667,0.0,0.0,0.0,0.0,0.0,0.0,0.0,9085.3,0.0,55.0,5.0,250.31,1.0,0.0,0.0,0.0,0.0,0.0,0.0,0.0,1.4609999999999985,1.4609999999999985,0.0,0.0,1.0,55.0,616.79921,10000.0,85.000001,85.000001,85.000001,85.000001,395.0,0.0,0.0,0.0,1.0,111.11,51.865,51.865,47.028,47.028,34.0,-24.3,26.096,-28.613333333333333,31.302500000000002,0.0,1778.479,-0.3949999999999996,100.0,28.278,28.174,43.843,43.954,0.0,0.0,100.0,0.0,0.0,0.0,0.0,3233.857142857143,3316.7,4120.875,4253.6,305.1615,304.55066666666664,314.82675,314.339,22.0683,20.6764,22.0657,21.5697,314.999998,314.999998,324.999988,324.999988,99.55985714285714,99.50753333333333,99.56908571428572,99.54907142857142,0.10599999999999987,-0.03266666666666662,-0.09433333333333332,0.13516666666666666,-0.045000000000001705,-0.04333333333332945,1.499,1.495,38.927,30.2275,38.91,35.811,56.147,35.6965,60.114,53.3105,54.052,34.757999999999996,58.662,51.602000000000004,53.177,34.260999999999996,58.536500000000004,50.99466666666667,-0.11249999999999993,-0.056499999999999995,0.111875,0.10749500000000001,0.0,217.65,217.66,214.3466666666667,214.3466666666667,0.0,0.0
30,0.0,0.0,0.0,1.0,1.0,0.0,0.0,1.0,0.0,100.0,1.0,1.1856,26.0,0.0,0.0,0.0,59.999996,0.0,26.0,26.0,26.0,26.0,0.010777777777777778,0.26039999999999996,0.027625,291.122,-2.7279,-2.6464,-1.6419000000000001,-1.4655,-173.95,215.3625,190.329375,0.0,0.0,0.0,0.0,0.06073333333333334,-5.498166666666667,-5.498166666666667,-0.6038,0.896,0.002888888888888941,-0.383,69.652,0.0178,-0.21530000000000002,-0.3039999999999994,100.0,1.0,1.0,214.75,0.0,0.0,0.0,0.0,0.0,0.0,0.0,9102.4,0.0,55.0,5.0,250.71666666666667,0.0,0.0,0.0,0.0,0.0,0.0,1.0,0.0,1.5060000000000002,1.5060000000000002,0.0,0.0,0.0,55.0,616.79921,10000.0,85.000001,85.000001,85.000001,85.000001,395.0,0.0,0.0,0.0,1.0,166.665,50.705,50.705,46.86,46.86,34.0,-25.4175,26.37,-30.663333333333334,29.605,0.0,1778.432,-0.4350000000000005,100.0,29.059,29.09,43.556,43.979,0.0,0.0,100.0,0.0,0.0,0.0,0.0,3355.857142857143,3265.5,4322.5,4277.8,304.6985,304.2096666666667,314.55675,314.43475,22.0768,20.6816,22.0748,21.5778,314.999998,314.999998,324.999988,324.999988,99.55987142857143,99.50753333333333,99.56921428571428,99.5492,0.1030000000000002,-0.04200000000000004,-0.0975,0.13233333333333336,-0.051666666666669414,-0.04833333333333201,1.521,1.5030000000000001,38.980000000000004,30.259999999999998,38.968,35.8615,56.138999999999996,35.733000000000004,60.144999999999996,53.363,54.044,34.792,58.6905,51.6525,53.168,34.293,58.5625,51.044,-0.11299999999999999,-0.052000000000000046,0.10526,0.11292500000000001,0.0,218.04000000000002,218.055,214.75,214.75,0.0,0.0
31,0.0,0.0,0.0,1.0,1.0,0.0,0.0,1.0,0.0,100.0,1.0,1.1856,26.0,0.0,0.0,0.0,59.999996,0.0,26.0,26.0,26.0,26.0,0.033888888888888885,0.2642,0.0902,290.71,-2.7729,-2.6223,-1.6455000000000002,-1.5428000000000002,-170.6,215.365,190.305125,0.0,0.0,0.0,0.0,0.06266666666666666,-5.498166666666667,-5.498166666666667,-0.5867,-0.3860000000000001,0.013333333333333197,-0.675,69.777,0.019,-0.219225,-0.28799999999999937,100.0,1.0,1.0,214.95,0.0,0.0,0.0,0.0,0.0,0.0,0.0,9110.9,0.0,55.0,5.0,251.17333333333335,1.0,0.0,0.0,0.0,0.0,0.0,1.0,0.0,1.5539999999999985,1.5539999999999985,0.0,0.0,1.0,55.0,616.79921,10000.0,85.000001,85.000001,85.000001,85.000001,395.0,0.0,0.0,0.0,1.0,166.665,51.056,51.056,45.609,45.609,34.0,-24.205,26.536,-31.493333333333336,31.9025,0.0,1778.385,-0.46999999999999886,100.0,28.887999999999998,29.233,44.348,44.784,0.0,0.0,100.0,0.0,0.0,0.0,0.0,3247.142857142857,3280.3,4382.125,4386.7,305.2235,304.36766666666665,314.205,313.88475,22.0856,20.6871,22.0849,21.5868,314.999998,314.999998,324.999988,324.999988,99.55988571428571,99.50753333333333,99.56935714285714,99.54934285714286,0.11299999999999999,-0.03066666666666662,-0.08933333333333333,0.12333333333333334,-0.04833333333333201,-0.03499999999999659,1.4325,1.432,39.035,30.2945,39.03,35.917500000000004,56.128,35.7705,60.183,53.423500000000004,54.034,34.826499999999996,58.726,51.710499999999996,53.157,34.326499999999996,58.595,51.10066666666667,-0.12249999999999994,-0.050999999999999934,0.10407000000000001,0.09967000000000001,0.0,218.41,218.41500000000002,214.95,214.95,0.0,0.0
32,0.0,0.0,0.0,1.0,1.0,0.0,0.0,1.0,0.0,100.0,1.0,1.1856,26.0,0.0,0.0,0.0,59.999996,0.0,26.0,26.0,26.0,26.0,0.03822222222222222,0.26060000000000016,-0.037775,291.336,-2.6963,-2.685,-1.5878,-1.6214,-167.04,215.3675,190.279625,0.0,0.0,0.0,0.0,0.06476666666666667,-5.498166666666667,-5.498166666666667,-0.6067,-0.27049999999999996,-0.004777777777777992,0.23900000000000002,69.904,0.0236,-0.233025,-0.4500000000000002,100.0,1.0,1.0,215.50333333333333,0.0,0.0,0.0,0.0,0.0,0.0,0.0,9134.3,0.0,55.0,5.0,251.63,0.0,0.0,0.0,0.0,0.0,0.0,1.0,0.0,1.6050000000000004,1.6050000000000004,0.0,0.0,0.0,55.0,616.79921,10000.0,85.000001,85.000001,85.000001,85.000001,395.0,0.0,0.0,0.0,1.0,333.33500000000004,51.544,51.544,46.616,46.616,34.0,-21.97,26.124,-27.226666666666663,32.6275,0.0,1778.332,-0.3949999999999996,100.0,28.909,28.96,44.274,44.56,0.0,0.0,100.0,0.0,0.0,0.0,0.0,3066.142857142857,3172.3,4068.125,4254.8,305.492,304.7896666666667,314.942,314.331,22.0949,20.6929,22.0953,21.5961,314.999998,314.999998,324.999988,324.999988,99.5599,99.50755,99.5695,99.5495,0.11933333333333351,-0.027666666666666728,-0.08116666666666668,0.14566666666666667,-0.03333333333333144,-0.05666666666667197,1.5245,1.4889999999999999,39.093,30.3305,39.095,35.9755,56.116,35.8095,60.2185,53.4835,54.022,34.8625,58.759,51.7685,53.144,34.361000000000004,58.6245,51.157,-0.11699999999999999,-0.05800000000000005,0.10018500000000001,0.11151000000000001,0.0,218.785,218.805,215.50333333333333,215.50333333333333,0.0,0.0
33,0.0,0.0,0.0,1.0,1.0,0.0,0.0,1.0,0.0,100.0,1.0,1.1856,26.0,0.0,0.0,0.0,59.999996,0.0,26.0,26.0,26.0,26.0,0.034888888888888886,0.2553000000000001,-0.07445,291.58,-2.7258,-2.6944,-1.5916000000000001,-1.589,-163.68,215.37,190.2545,0.0,0.0,0.0,0.0,0.06670000000000001,-5.498166666666667,-5.498166666666667,-0.6146,-0.16799999999999993,-0.00655555555555587,0.978,70.025,0.0238,-0.21555000000000002,-0.32200000000000006,100.0,1.0,1.0,215.88,0.0,0.0,0.0,0.0,0.0,0.0,0.0,9150.4,0.0,55.0,5.0,252.06333333333333,1.0,0.0,0.0,0.0,0.0,0.0,1.0,0.0,1.6529999999999987,1.6529999999999987,0.0,0.0,1.0,55.0,616.79921,10000.0,85.000001,85.000001,85.000001,85.000001,395.0,0.0,0.0,0.0,1.0,166.665,51.834,51.834,46.89,46.89,34.0,-22.73,25.253999999999998,-27.723333333333333,31.2825,0.0,1778.286,-0.4299999999999997,100.0,28.735,28.744,44.067,44.345,0.0,0.0,100.0,0.0,0.0,0.0,0.0,3092.4285714285716,3088.8,4109.75,4221.2,305.484,305.04266666666666,314.8885,314.49125,22.1037,20.6982,22.105,21.6047,314.999998,314.999998,324.999988,324.999988,99.55991428571429,99.50755,99.56964285714285,99.54964285714286,0.11166666666666636,-0.03200000000000003,-0.0835,0.13766666666666666,-0.036666666666668846,-0.05333333333332746,1.5145,1.502,39.147999999999996,30.363500000000002,39.156,36.0295,56.104,35.8445,60.2515,53.5385,54.010999999999996,34.894999999999996,58.79,51.8215,53.132,34.391999999999996,58.6525,51.209,-0.10949999999999993,-0.0535000000000001,0.10543500000000001,0.10723,0.0,219.16,219.19,215.88,215.88,0.0,0.0
34,0.0,0.0,0.0,1.0,1.0,0.0,0.0,1.0,0.0,100.0,1.0,1.1856,26.0,0.0,0.0,0.0,59.999996,0.0,26.0,26.0,26.0,26.0,0.04955555555555556,0.2558,-0.068525,291.809,-2.6691,-2.6779,-1.6280000000000001,-1.5253999999999999,-160.11,215.3775,190.2265,0.0,0.0,0.0,0.0,0.06876666666666667,-5.498166666666667,-5.498166666666667,-0.6426000000000001,-0.9530000000000001,0.014111111111110963,-0.23700000000000002,70.154,0.025,-0.22155,-0.36799999999999944,100.0,1.0,1.0,216.24666666666667,0.0,0.0,0.0,0.0,0.0,0.0,0.0,9165.9,0.0,55.0,5.0,252.53,0.0,0.0,0.0,0.0,0.0,0.0,1.0,0.0,1.7040000000000006,1.7040000000000006,0.0,0.0,0.0,55.0,616.79921,10000.0,85.000001,85.000001,85.000001,85.000001,395.0,0.0,0.0,0.0,1.0,166.665,52.338,52.338,47.089,47.089,34.0,-21.849999999999998,24.352,-28.543333333333333,30.1175,0.0,1778.234,-0.4399999999999995,100.0,28.287,28.557000000000002,43.863,44.468,0.0,0.0,100.0,0.0,0.0,0.0,0.0,3089.5714285714284,3000.0,4146.0,4217.1,305.662,305.3093333333333,314.866,314.43875,22.1129,20.7038,22.1154,21.614,314.999998,314.999998,324.999988,324.999988,99.55994285714286,99.50755,99.5698,99.54978571428572,0.11466666666666647,-0.030000000000000027,-0.0855,0.131,-0.03833333333332689,-0.051666666666669414,1.5155,1.5,39.206,30.3985,39.221000000000004,36.088,56.091,35.879999999999995,60.286500000000004,53.5995,53.998000000000005,34.928,58.822,51.879999999999995,53.117999999999995,34.424,58.6815,51.266333333333336,-0.11599999999999999,-0.04200000000000004,0.10763500000000001,0.107035,0.0,219.54500000000002,219.575,216.24666666666667,216.24666666666667,0.0,0.0
35,0.0,0.0,0.0,1.0,1.0,0.0,0.0,1.0,0.0,100.0,1.0,1.1856,26.0,0.0,0.0,0.0,59.999996,0.0,26.0,26.0,26.0,26.0,0.04211111111111111,0.26290000000000013,-0.09392500000000001,291.733,-2.7986,-2.6564,-1.5403,-1.5817,-156.53,215.3825,190.1965,0.0,0.0,0.0,0.0,0.07086666666666666,-5.498166666666667,-5.498166666666667,-0.6782,-0.04200000000000004,-0.0013333333333331865,-0.148,70.281,0.026500000000000003,-0.22705,-0.347999999999999,100.0,1.0,1.0,216.72333333333333,0.0,0.0,0.0,0.0,0.0,0.0,0.0,9186.1,0.0,55.0,5.0,252.98666666666668,1.0,0.0,0.0,0.0,0.0,0.0,1.0,0.0,1.754999999999999,1.754999999999999,0.0,0.0,1.0,55.0,616.79921,10000.0,85.000001,85.000001,85.000001,85.000001,395.0,0.0,0.0,0.0,1.0,166.665,51.636,51.636,46.799,46.799,34.0,-23.61,27.872,-26.146666666666665,30.0675,0.0,1778.183,-0.26500000000000057,100.0,28.307,28.742,43.673,43.926,0.0,0.0,100.0,0.0,0.0,0.0,0.0,3092.5714285714284,3385.1,4081.125,4080.3,305.457,304.143,315.02575,314.88725,22.1221,20.709600000000002,22.1257,21.6232,314.999998,314.999998,324.999988,324.999988,99.55994285714286,99.50756666666666,99.56994285714286,99.54992857142857,0.1080000000000001,-0.028000000000000025,-0.07683333333333334,0.14583333333333334,-0.036666666666668846,-0.06833333333332803,1.5695000000000001,1.548,39.263,30.435499999999998,39.285,36.144999999999996,56.077,35.9195,60.32,53.656,53.985,34.965,58.8535,51.9345,53.104,34.4595,58.7095,51.31966666666666,-0.10499999999999998,-0.05800000000000005,0.10715500000000001,0.10906500000000001,0.0,219.94,219.98000000000002,216.72333333333333,216.72333333333333,0.0,0.0
36,0.0,0.0,0.0,1.0,1.0,0.0,0.0,1.0,0.0,100.0,1.0,1.1856,26.0,0.0,0.0,0.0,59.999996,0.0,26.0,26.0,26.0,26.0,0.044,0.2650000000000001,0.06367500000000001,291.183,-2.6443,-2.721,-1.6445,-1.5945,-153.15,215.39,190.16725,0.0,0.0,0.0,0.0,0.07283333333333335,-5.498166666666667,-5.498166666666667,-0.6609,0.051999999999999935,-0.04477777777777803,0.166,70.403,0.022600000000000002,-0.2026,-0.2320000000000002,100.0,1.0,1.0,216.89,0.0,0.0,0.0,0.0,0.0,0.0,0.0,9193.2,0.0,55.0,5.0,253.42666666666668,0.0,0.0,0.0,0.0,0.0,0.0,1.0,0.0,1.8030000000000008,1.8030000000000008,0.0,0.0,0.0,55.0,616.79921,10000.0,85.000001,85.000001,85.000001,85.000001,395.0,0.0,0.0,0.0,1.0,166.665,51.804,51.804,46.402,46.402,34.0,-21.2175,25.747999999999998,-31.08,34.0225,0.0,1778.136,-0.21999999999999886,100.0,28.871,28.664,43.926,44.179,0.0,0.0,100.0,0.0,0.0,0.0,0.0,3018.285714285714,3117.1,4378.625,4482.6,305.5275,304.90066666666667,314.23075,313.86275,22.1309,20.7151,22.1355,21.631999999999998,314.999998,314.999998,324.999988,324.999988,99.55995714285714,99.50756666666666,99.57008571428571,99.55008571428571,0.11966666666666637,-0.03400000000000003,-0.08383333333333333,0.1375,-0.021666666666668277,-0.060000000000002274,1.4475,1.4415,39.318,30.4695,39.347,36.2,56.066,35.9565,60.3545,53.714,53.974000000000004,34.999,58.8855,51.9905,53.092,34.492,58.739,51.37433333333333,-0.10399999999999998,-0.06299999999999994,0.11211000000000002,0.107505,0.0,220.35000000000002,220.365,216.89,216.89,0.0,0.0
