,ABS Active,ABS Enabled,AID Allow Tire Blankets,AID Auto Blip,AID Auto Clutch,AID Auto Shift,AID Fuel Rate,AID Ideal Line,AID Mech Damage,AID Stability,AID Tire Wear Rate,Air Density,Air Temp,Ballast,Best Lap Delta,Best Lap Time,Brake Bias,Brake Pos,Brake Temp FL,Brake Temp FR,Brake Temp RL,Brake Temp RR,CG Accel Lateral,CG Accel Longitudinal,CG Accel Vertical,CG Height,Camber FL,Camber FR,Camber RL,Camber RR,Car Coord X,Car Coord Y,Car Coord Z,Car Damage Front,Car Damage Left,Car Damage Rear,Car Damage Right,Car Pos Norm,Caster FL,Caster FR,Chassis Pitch Angle,Chassis Pitch Rate,Chassis Roll Angle,Chassis Roll Rate,Chassis Velocity X,Chassis Velocity Y,Chassis Velocity Z,Chassis Yaw Rate,Clutch Pos,DRS Active,DRS Available,Drive Train Speed,ERS Heat Charging,ERS Is Charging,ERS Max Energy,ERS Power Level,ERS Recovery Level,Engine Brake Setting,Engine Limiter,Engine RPM,Flags,Fuel Level,Gear,Ground Speed,HR Sample Clock,In Pit,KERS Charge,KERS Deployed Energy,KERS Input,KERS Max Energy,LR Sample Clock,Lap Invalidated,Lap Time,Lap Time2,Last Lap Time,Last Sector Time,MR Sample Clock,Max Fuel,Max Power,Max RPM,Max Sus Travel FL,Max Sus Travel FR,Max Sus Travel RL,Max Sus Travel RR,Max Torque,Max Turbo Boost,Num Tires Off Track,Penalties Enabled,Position,Raw Data Sample Rate,Ride Height FL,Ride Height FR,Ride Height RL,Ride Height RR,Road Temp,Self Align Torque FL,Self Align Torque FR,Self Align Torque RL,Self Align Torque RR,Session Lap Count,Session Time Left,Steering Angle,Surface Grip,Suspension Travel FL,Suspension Travel FR,Suspension Travel RL,Suspension Travel RR,TC Active,TC Enabled,Throttle Pos,Tire Dirt Level FL,Tire Dirt Level FR,Tire Dirt Level RL,Tire Dirt Level RR,Tire Load FL,Tire Load FR,Tire Load RL,Tire Load RR,Tire Loaded Radius FL,Tire Loaded Radius FR,Tire Loaded Radius RL,Tire Loaded Radius RR,Tire Pressure FL,Tire Pressure FR,Tire Pressure RL,Tire Pressure RR,Tire Radius FL,Tire Radius FR,Tire Radius RL,Tire Radius RR,Tire Rubber Grip FL,Tire Rubber Grip FR,Tire Rubber Grip RL,Tire Rubber Grip RR,Tire Slip Angle FL,Tire Slip Angle FR,Tire Slip Angle RL,Tire Slip Angle RR,Tire Slip Ratio FL,Tire Slip Ratio FR,Tire Slip Ratio RL,Tire Slip Ratio RR,Tire Temp Core FL,Tire Temp Core FR,Tire Temp Core RL,Tire Temp Core RR,Tire Temp Inner FL,Tire Temp Inner FR,Tire Temp Inner RL,Tire Temp Inner RR,Tire Temp Middle FL,Tire Temp Middle FR,Tire Temp Middle RL,Tire Temp Middle RR,Tire Temp Outer FL,Tire Temp Outer FR,Tire Temp Outer RL,Tire Temp Outer RR,Toe In FL,Toe In FR,Toe In RL,Toe In RR,Turbo Boost,Wheel Angular Speed FL,Wheel Angular Speed FR,Wheel Angular Speed RL,Wheel Angular Speed RR,Wind Direction,Wind Speed
0,0.0,0.0,0.0,1.0,1.0,0.0,0.0,1.0,0.0,100.0,1.0,1.1856,26.0,0.0,0.0,0.0,59.99999,0.0,26.0,26.0,26.0,26.0,-0.02544444444444449,0.28059999999999996,0.129925,293.06,-2.79375,-2.6162,-1.5601,-1.5086,-275.57,215.445,190.986875,0.0,0.0,0.0,0.0,0.0016333333333333755,-5.498166666666667,-5.498166666666667,-0.557,1.9063333333333332,0.0005555555555556424,-0.20500000000000007,65.526,-0.026600000000000002,-0.21932500000000002,-0.06599999999999984,100.0,1.0,1.0,202.30333333333334,0.0,0.0,0.0,0.0,0.0,0.0,0.0,8574.8,0.0,55.0,5.0,235.86333333333334,0.0,0.0,0.0,0.0,0.0,0.0,0.0,0.0,0.006000000000000227,0.006000000000000227,0.0,0.0,0.0,55.0,616.79921,10000.0,85.0,85.0,85.0,85.0,395.0,0.0,0.0,0.0,1.0,20.0,50.674,50.674,48.553,48.553,34.0,-29.362499999999997,33.76,-28.663333333333334,26.215,0.0,1783.76,0.14000000000000057,100.0,27.288,27.396,40.521,40.17,0.0,0.0,100.0,0.0,0.0,0.0,0.0,3326.4285714285716,4365.2,4039.25,4117.0,304.61,301.2033333333333,315.0165,314.63575,21.78622222222222,20.5157,21.7697,21.3074,314.99999,314.99999,324.99998,324.99998,99.55957142857143,99.50728333333333,99.56525714285715,99.54497142857143,0.02574999999999994,-0.07266666666666666,-0.1305,0.08483333333333332,-0.05666666666667197,-0.02833333333332888,1.571,1.5575,37.164,29.223,37.06,34.171,56.535,34.539500000000004,59.08,51.5465,54.428,33.6965,57.7055,49.909,53.582,33.2465,57.668,49.336,-0.0645,-0.08200000000000007,0.1096,0.09985000000000001,0.0,205.335,205.26999999999998,202.30333333333334,202.30333333333334,0.0,0.0
1,0.0,0.0,0.0,1.0,1.0,0.0,0.0,1.0,0.0,100.0,1.0,1.1856,26.0,0.0,0.0,0.0,59.999996,0.0,26.0,26.0,26.0,26.0,-0.07177777777777783,0.3107,0.21152500000000002,292.282,-2.6898,-2.7043,-1.601,-1.4522,-272.03,215.45,190.96575,0.0,0.0,0.0,0.0,0.0037333333333333663,-5.498166666666667,-5.498166666666667,-0.4833,-2.4066666666666667,-0.04899999999999993,-0.5509999999999999,65.694,-0.0177,-0.194975,0.4900000000000002,100.0,1.0,1.0,202.24666666666667,0.0,0.0,0.0,0.0,0.0,0.0,0.0,8572.5,0.0,55.0,5.0,236.47,1.0,0.0,0.0,0.0,0.0,0.0,0.0,0.0,0.05999999999999872,0.05999999999999872,0.0,0.0,1.0,55.0,616.79921,10000.0,85.000001,85.000001,85.000001,85.000001,395.0,0.0,0.0,0.0,1.0,166.665,54.199,54.199,47.348,47.348,34.0,-23.02,17.522,-37.11333333333333,32.4075,0.0,1783.707,0.379999999999999,100.0,27.531,27.042,42.736000000000004,43.915,0.0,0.0,100.0,0.0,0.0,0.0,0.0,2855.5714285714284,2485.5,4693.75,4854.1,306.1735,306.923,313.23175,311.95775,21.796555555555557,20.5209,21.7812,21.3173,314.999998,314.999998,324.999988,324.999988,99.55958571428572,99.5073,99.56541428571428,99.54511428571429,0.040000000000000036,-0.09466666666666668,-0.13716666666666666,0.07299999999999995,-0.026666666666670835,-0.03166666666666629,1.2985,1.328,37.227999999999994,29.255499999999998,37.132999999999996,34.2335,56.516,34.578,59.131,51.6215,54.41,33.732,57.753,49.981,53.563,33.281,57.7125,49.406333333333336,-0.050999999999999934,-0.10250000000000004,0.11179000000000001,0.11285500000000001,0.0,205.765,205.72500000000002,202.24666666666667,202.24666666666667,0.0,0.0
2,0.0,0.0,0.0,1.0,1.0,0.0,0.0,1.0,0.0,100.0,1.0,1.1856,26.0,0.0,0.0,0.0,59.999996,0.0,26.0,26.0,26.0,26.0,-0.0865555555555555,0.28469999999999995,-0.094525,293.793,-2.6704,-2.6481,-1.5748,-1.5105,-268.87,215.4525,190.948,0.0,0.0,0.0,0.0,0.005566666666666609,-5.498166666666667,-5.498166666666667,-0.5780000000000001,0.7923333333333333,-0.002000000000000224,2.5540000000000003,65.819,-0.0195,-0.27035000000000003,0.6739999999999995,100.0,1.0,1.0,203.62333333333333,0.0,0.0,0.0,0.0,0.0,0.0,0.0,8630.8,0.0,55.0,5.0,236.92000000000002,0.0,0.0,0.0,0.0,0.0,0.0,0.0,0.0,0.10800000000000054,0.10800000000000054,0.0,0.0,0.0,55.0,616.79921,10000.0,85.000001,85.000001,85.000001,85.000001,395.0,0.0,0.0,0.0,1.0,166.665,51.788,51.788,50.613,50.613,34.0,-27.895,22.95,-24.869999999999997,19.8975,0.0,1783.658,0.504999999999999,100.0,28.285,27.527,41.883,41.745000000000005,0.0,0.0,100.0,0.0,0.0,0.0,0.0,3272.714285714286,3234.6,3502.0,3426.2,304.7,304.4576666666667,316.30275,316.42575,21.80611111111111,20.5259,21.7908,21.3252,314.999998,314.999998,324.999988,324.999988,99.55958571428572,99.50731666666667,99.56554285714286,99.54524285714285,0.02300000000000013,-0.1056666666666668,-0.16216666666666665,0.07850000000000001,-0.07000000000000028,-0.06333333333333258,1.759,1.7905,37.288,29.2865,37.192,34.282,56.503,34.616,59.162,51.666,54.397999999999996,33.766999999999996,57.782,50.024,53.55,33.314499999999995,57.7385,49.44866666666667,-0.041999999999999926,-0.1180000000000001,0.10912000000000001,0.104815,0.0,206.22,206.16,203.62333333333333,203.62333333333333,0.0,0.0
3,0.0,0.0,0.0,1.0,1.0,0.0,0.0,1.0,0.0,100.0,1.0,1.1856,26.0,0.0,0.0,0.0,59.999996,0.0,26.0,26.0,26.0,26.0,-0.07022222222222219,0.3035000000000001,0.177325,292.877,-2.6879,-2.678,-1.5545,-1.4811999999999999,-265.71,215.4525,190.928625,0.0,0.0,0.0,0.0,0.007399999999999962,-5.498166666666667,-5.498166666666667,-0.4994,0.46,0.010333333333333306,-1.4010000000000002,65.968,-0.0323,-0.1844,0.6779999999999999,100.0,1.0,1.0,203.39666666666668,0.0,0.0,0.0,0.0,0.0,0.0,0.0,8621.2,0.0,55.0,5.0,237.45333333333332,1.0,0.0,0.0,0.0,0.0,0.0,0.0,0.0,0.1559999999999988,0.1559999999999988,0.0,0.0,1.0,55.0,616.79921,10000.0,85.000001,85.000001,85.000001,85.000001,395.0,0.0,0.0,0.0,1.0,333.33500000000004,53.268,53.268,47.363,47.363,34.0,-23.7075,20.814,-34.17666666666666,28.615000000000002,0.0,1783.609,0.5800000000000018,100.0,27.822,27.52,42.157,42.22,0.0,0.0,100.0,0.0,0.0,0.0,0.0,2847.5714285714284,2963.3,4510.875,4421.1,306.2455,305.378,313.819,313.7745,21.81522222222222,20.5309,21.8006,21.3337,314.999998,314.999998,324.999988,324.999988,99.5596,99.50731666666667,99.56567142857143,99.54538571428571,0.018000000000000238,-0.10833333333333317,-0.14200000000000002,0.08216666666666672,-0.02833333333332888,-0.04333333333332945,1.422,1.4515,37.345,29.317999999999998,37.254000000000005,34.335499999999996,56.486000000000004,34.656,59.1995,51.730000000000004,54.381,33.804,57.817,50.085,53.533,33.3495,57.771,49.50866666666667,-0.03149999999999997,-0.11949999999999994,0.11021500000000001,0.108045,0.0,206.7,206.62,203.39666666666668,203.39666666666668,0.0,0.0
4,0.0,0.0,0.0,1.0,1.0,0.0,0.0,1.0,0.0,100.0,1.0,1.1856,26.0,0.0,0.0,0.0,59.999996,0.0,26.0,26.0,26.0,26.0,-0.07044444444444442,0.2934000000000001,0.0037500000000000003,293.335,-2.67795,-2.7377000000000002,-1.4963,-1.5918999999999999,-262.34,215.45,190.909375,0.0,0.0,0.0,0.0,0.009333333333333305,-5.498166666666667,-5.498166666666667,-0.5317000000000001,-0.877,-0.041777777777777914,-0.649,66.114,-0.0443,-0.23585,1.0779999999999994,100.0,1.0,1.0,204.07333333333332,0.0,0.0,0.0,0.0,0.0,0.0,0.0,8649.9,0.0,55.0,5.0,237.9766666666667,0.0,0.0,0.0,0.0,0.0,0.0,0.0,0.0,0.20700000000000074,0.20700000000000074,0.0,0.0,0.0,55.0,616.79921,10000.0,85.000001,85.000001,85.000001,85.000001,395.0,0.0,0.0,0.0,1.0,166.665,52.994,52.994,48.691,48.691,34.0,-28.0875,19.98,-30.606666666666662,23.6725,0.0,1783.56,0.6500000000000021,100.0,27.687,27.242,42.868,42.328,0.0,0.0,100.0,0.0,0.0,0.0,0.0,3213.857142857143,2874.6,4047.375,3831.1,305.1705,305.584,314.98075,315.271,21.825111111111113,20.536,21.8113,21.3426,314.999998,314.999998,324.999988,324.999988,99.5596,99.50733333333334,99.56581428571428,99.54551428571429,-0.0024999999999999467,-0.1256666666666666,-0.18233333333333335,0.05449999999999999,-0.046666666666666856,-0.03999999999999915,1.5454999999999999,1.5795000000000001,37.407,29.35,37.32,34.3915,56.468,34.695,59.242,51.789500000000004,54.364999999999995,33.84,57.8565,50.1425,53.516,33.384,57.8075,49.56466666666667,-0.021499999999999964,-0.12450000000000006,0.10695,0.11505000000000001,0.0,207.10000000000002,207.005,204.07333333333332,204.07333333333332,0.0,0.0
5,0.0,0.0,0.0,1.0,1.0,0.0,0.0,1.0,0.0,100.0,1.0,1.1856,26.0,0.0,0.0,0.0,59.999996,0.0,26.0,26.0,26.0,26.0,-0.10244444444444445,0.27770000000000006,-0.053275,293.671,-2.6461,-2.7267,-1.5416,-1.5776,-258.96,215.4475,190.889625,0.0,0.0,0.0,0.0,0.011299999999999977,-5.498166666666667,-5.498166666666667,-0.5369,0.5916666666666667,-0.028444444444444272,0.6759999999999999,66.258,-0.0644,-0.221475,0.9740000000000002,100.0,1.0,1.0,204.61,0.0,0.0,0.0,0.0,0.0,0.0,0.0,8672.6,0.0,55.0,5.0,238.49666666666667,1.0,0.0,0.0,0.0,0.0,0.0,0.0,0.0,0.2579999999999991,0.2579999999999991,0.0,0.0,1.0,55.0,616.79921,10000.0,85.000001,85.000001,85.000001,85.000001,395.0,0.0,0.0,0.0,1.0,333.33500000000004,53.284,53.284,49.103,49.103,34.0,-25.2775,21.112000000000002,-30.32333333333333,23.927500000000002,0.0,1783.507,0.16000000000000014,100.0,27.745,26.97,42.456,41.667,0.0,0.0,100.0,0.0,0.0,0.0,0.0,3000.142857142857,2966.7,3927.375,3970.5,305.5735,305.3763333333333,315.2755,315.0465,21.835,20.5412,21.8216,21.3513,314.999998,314.999998,324.999988,324.999988,99.5596,99.50735,99.56595714285714,99.54565714285714,0.014499999999999957,-0.11199999999999988,-0.19116666666666665,0.0475000000000001,-0.046666666666666856,-0.026666666666670835,1.584,1.611,37.469,29.3825,37.385,34.446,56.452,34.7355,59.278999999999996,51.8475,54.349999999999994,33.8775,57.891,50.198,53.5,33.42,57.839,49.619,-0.05399999999999994,-0.09499999999999997,0.11072000000000001,0.11179000000000001,0.0,207.595,207.49,204.61,204.61,0.0,0.0
6,0.0,0.0,0.0,1.0,1.0,0.0,0.0,1.0,0.0,100.0,1.0,1.1856,26.0,0.0,0.0,0.0,59.999996,0.0,26.0,26.0,26.0,26.0,-0.10211111111111104,0.3055000000000001,-0.020275,293.457,-2.67795,-2.7772,-1.4898,-1.5622,-255.78,215.4425,190.870125,0.0,0.0,0.0,0.0,0.013166666666666549,-5.498166666666667,-5.498166666666667,-0.5272,-0.3283333333333333,-0.046333333333333115,0.5269999999999999,66.399,-0.068,-0.20472500000000002,0.7620000000000005,100.0,1.0,1.0,204.8466666666667,0.0,0.0,0.0,0.0,0.0,0.0,0.0,8682.7,0.0,55.0,5.0,239.00666666666666,0.0,0.0,0.0,0.0,0.0,0.0,0.0,0.0,0.30600000000000094,0.30600000000000094,0.0,0.0,0.0,55.0,616.79921,10000.0,85.000001,85.000001,85.000001,85.000001,395.0,0.0,0.0,0.0,1.0,333.33500000000004,53.543,53.543,48.522999999999996,48.522999999999996,34.0,-26.66,20.482,-31.799999999999997,24.6525,0.0,1783.458,0.3000000000000007,100.0,27.508,26.667,42.709,41.796,0.0,0.0,100.0,0.0,0.0,0.0,0.0,3103.714285714286,2868.4,4174.75,4111.9,305.366,305.73466666666667,314.58475,314.66025,21.84422222222222,20.546,21.8315,21.3598,314.999998,314.999998,324.999988,324.999988,99.55961428571429,99.50736666666667,99.5661,99.54578571428571,0.009749999999999925,-0.1166666666666667,-0.1785,0.03866666666666685,-0.03833333333332689,-0.060000000000002274,1.5105,1.5295,37.525999999999996,29.4125,37.447,34.4985,56.435,34.7715,59.317499999999995,51.906,54.333,33.9105,57.9265,50.254,53.483000000000004,33.452,57.872,49.67366666666666,-0.05399999999999994,-0.09349999999999992,0.105465,0.105535,0.0,207.99,207.94,204.8466666666667,204.84666666666666,0.0,0.0
7,0.0,0.0,0.0,1.0,1.0,0.0,0.0,1.0,0.0,100.0,1.0,1.1856,26.0,0.0,0.0,0.0,59.999996,0.0,26.0,26.0,26.0,26.0,-0.08866666666666656,0.2925,-0.0184,293.411,-2.67855,-2.7727,-1.5430000000000001,-1.5429,-252.19,215.435,190.84825,0.0,0.0,0.0,0.0,0.01526666666666654,-5.498166666666667,-5.498166666666667,-0.5338,0.12233333333333334,-0.035777777777777686,1.217,66.55199999999999,-0.06960000000000001,-0.215625,0.5120000000000005,100.0,1.0,1.0,205.38333333333333,0.0,0.0,0.0,0.0,0.0,0.0,0.0,8705.5,0.0,55.0,5.0,239.55666666666667,1.0,0.0,0.0,0.0,0.0,0.0,0.0,0.0,0.35999999999999943,0.35999999999999943,0.0,0.0,1.0,55.0,616.79921,10000.0,85.000001,85.000001,85.000001,85.000001,395.0,0.0,0.0,0.0,1.0,166.665,53.238,53.238,48.629999999999995,48.629999999999995,34.0,-25.5325,22.124000000000002,-31.883333333333333,23.747500000000002,0.0,1783.406,-0.14000000000000057,100.0,27.789,26.838,42.715,41.729,0.0,0.0,100.0,0.0,0.0,0.0,0.0,3084.285714285714,2960.7,4117.625,4040.4,305.357,305.435,314.787,314.89375,21.854777777777777,20.5515,21.8426,21.3692,314.999998,314.999998,324.999988,324.999988,99.55961428571429,99.50736666666667,99.56624285714285,99.54594285714286,0.034499999999999975,-0.09433333333333316,-0.18083333333333335,0.039166666666666794,-0.03499999999999659,-0.060000000000002274,1.5405,1.5565,37.593,29.447,37.516999999999996,34.5575,56.419,34.814499999999995,59.359,51.969,54.318,33.95,57.966,50.314499999999995,53.467,33.4895,57.908,49.733000000000004,-0.08599999999999997,-0.06299999999999994,0.10519,0.103275,0.0,208.465,208.425,205.38333333333333,205.38333333333333,0.0,0.0
8,0.0,0.0,0.0,1.0,1.0,0.0,0.0,1.0,0.0,100.0,1.0,1.1856,26.0,0.0,0.0,0.0,59.999996,0.0,26.0,26.0,26.0,26.0,-0.061999999999999944,0.2832000000000001,-0.02415,293.472,-2.6868499999999997,-2.7106,-1.5534,-1.603,-248.99,215.425,190.829,0.0,0.0,0.0,0.0,0.017100000000000004,-5.498166666666667,-5.498166666666667,-0.5363,-0.08266666666666668,-0.0303333333333331,0.352,66.688,-0.058800000000000005,-0.219525,0.22200000000000042,100.0,1.0,1.0,205.81333333333333,0.0,0.0,0.0,0.0,0.0,0.0,0.0,8723.6,0.0,55.0,5.0,240.04666666666668,0.0,0.0,0.0,0.0,0.0,0.0,0.0,0.0,0.40800000000000125,0.40800000000000125,0.0,0.0,0.0,55.0,616.79921,10000.0,85.000001,85.000001,85.000001,85.000001,395.0,0.0,0.0,0.0,1.0,166.665,53.314,53.314,48.431,48.431,34.0,-24.72,22.46,-30.406666666666666,25.5575,0.0,1783.358,-0.21499999999999986,100.0,27.541,26.94,42.718,41.906,0.0,0.0,100.0,0.0,0.0,0.0,0.0,3010.142857142857,3043.4,4037.625,3994.0,305.624,305.182,314.9775,314.932,21.864,20.5565,21.8525,21.3776,314.999998,314.999998,324.999988,324.999988,99.55961428571429,99.50738333333334,99.56638571428572,99.54607142857142,0.03750000000000009,-0.09033333333333315,-0.1635,0.06533333333333324,-0.03999999999999915,-0.05833333333333002,1.5465,1.572,37.65,29.478,37.578,34.61,56.403999999999996,34.8515,59.396,52.027,54.303,33.9845,58.0,50.37,53.451,33.5225,57.939499999999995,49.787333333333336,-0.08699999999999997,-0.06150000000000011,0.108185,0.11092500000000001,0.0,208.865,208.85500000000002,205.81333333333333,205.81333333333333,0.0,0.0
9,0.0,0.0,0.0,1.0,1.0,0.0,0.0,1.0,0.0,100.0,1.0,1.1856,26.0,0.0,0.0,0.0,59.999996,0.0,26.0,26.0,26.0,26.0,-0.04322222222222216,0.3035000000000001,0.013575,293.274,-2.67025,-2.7236000000000002,-1.5406,-1.5603,-245.79,215.41500000000002,190.809375,0.0,0.0,0.0,0.0,0.018966666666666576,-5.498166666666667,-5.498166666666667,-0.5335,0.20166666666666666,-0.037555555555555564,0.735,66.824,-0.0455,-0.21195,0.04999999999999982,100.0,1.0,1.0,206.20333333333332,0.0,0.0,0.0,0.0,0.0,0.0,0.0,8740.1,0.0,55.0,5.0,240.5366666666667,1.0,0.0,0.0,0.0,0.0,0.0,0.0,0.0,0.4559999999999995,0.4559999999999995,0.0,0.0,1.0,55.0,616.79921,10000.0,85.000001,85.000001,85.000001,85.000001,395.0,0.0,0.0,0.0,1.0,166.665,53.009,53.009,48.629999999999995,48.629999999999995,34.0,-24.465,23.25,-29.356666666666662,26.7125,0.0,1783.311,-0.370000000000001,100.0,27.714,26.968,42.661,41.957,0.0,0.0,100.0,0.0,0.0,0.0,0.0,3103.714285714286,3055.0,4041.375,4132.4,305.3255,305.158,314.985,314.63375,21.873333333333335,20.5615,21.8624,21.3861,314.999998,314.999998,324.999988,324.999988,99.55961428571429,99.5074,99.56651428571429,99.5462,0.06174999999999997,-0.07633333333333314,-0.14516666666666667,0.07666666666666666,-0.041666666666671404,-0.07166666666666544,1.547,1.5425,37.708,29.509,37.64,34.663,56.388999999999996,34.888,59.4325,52.0835,54.29,34.018,58.034,50.4245,53.437,33.5545,57.971000000000004,49.840666666666664,-0.10449999999999993,-0.05249999999999999,0.10537,0.11532500000000001,0.0,209.29500000000002,209.29500000000002,206.20333333333332,206.20333333333332,0.0,0.0
10,0.0,0.0,0.0,1.0,1.0,0.0,0.0,1.0,0.0,100.0,1.0,1.1856,26.0,0.0,0.0,0.0,59.999996,0.0,26.0,26.0,26.0,26.0,-0.013333333333333308,0.2905,0.002125,293.198,-2.6798,-2.6985,-1.5564,-1.5453999999999999,-242.38,215.4025,190.7885,0.0,0.0,0.0,0.0,0.020966666666666578,-5.498166666666667,-5.498166666666667,-0.5292,-0.24533333333333335,-0.016111111111110965,-0.13000000000000012,66.968,-0.0309,-0.21130000000000002,-0.16199999999999992,100.0,1.0,1.0,206.57999999999998,0.0,0.0,0.0,0.0,0.0,0.0,0.0,8756.1,0.0,55.0,5.0,241.05666666666667,0.0,0.0,0.0,0.0,0.0,0.0,1.0,0.0,0.5069999999999979,0.5069999999999979,0.0,0.0,0.0,55.0,616.79921,10000.0,85.000001,85.000001,85.000001,85.000001,395.0,0.0,0.0,0.0,1.0,166.665,53.299,53.299,48.37,48.37,34.0,-24.174999999999997,22.894,-30.96,26.884999999999998,0.0,1783.259,-0.48499999999999943,100.0,27.47,27.07,42.653,42.331,0.0,0.0,100.0,0.0,0.0,0.0,0.0,3106.4285714285716,2936.5,4143.0,4197.1,305.5005,305.36266666666666,314.779,314.382,21.883111111111113,20.5667,21.8729,21.3951,314.999998,314.999998,324.999988,324.999988,99.55962857142858,99.5074,99.56667142857142,99.54634285714286,0.06599999999999984,-0.05800000000000005,-0.1525,0.0708333333333333,-0.05833333333333002,-0.03166666666666629,1.5105,1.5245,37.769999999999996,29.542,37.706,34.7195,56.375,34.9255,59.472,52.1455,54.275999999999996,34.0525,58.071,50.484,53.423,33.588,58.004999999999995,49.899,-0.11249999999999993,-0.03200000000000003,0.11361,0.10039500000000001,0.0,209.75,209.72,206.57999999999998,206.57999999999998,0.0,0.0
11,0.0,0.0,0.0,1.0,1.0,0.0,0.0,1.0,0.0,100.0,1.0,1.1856,26.0,0.0,0.0,0.0,59.999996,0.0,26.0,26.0,26.0,26.0,-0.0076666666666665995,0.2814000000000001,-0.028650000000000002,293.503,-2.7019,-2.6964,-1.564,-1.5211,-238.96,215.39,190.7675,0.0,0.0,0.0,0.0,0.022599999999999953,-5.498166666666667,-5.498166666666667,-0.5498000000000001,-0.24633333333333335,0.010555555555555651,1.033,67.11,-0.0103,-0.223225,-0.38399999999999945,100.0,1.0,1.0,207.11,0.0,0.0,0.0,0.0,0.0,0.0,0.0,8778.7,0.0,55.0,5.0,241.56666666666666,1.0,0.0,0.0,0.0,0.0,0.0,1.0,0.0,0.5579999999999998,0.5579999999999998,0.0,0.0,1.0,55.0,616.79921,10000.0,85.000001,85.000001,85.000001,85.000001,395.0,0.0,0.0,0.0,1.0,333.33500000000004,53.299,53.299,48.859,48.859,34.0,-22.8525,25.082,-26.78,28.1825,0.0,1783.208,-0.6799999999999997,100.0,27.359,26.946,42.485,42.233000000000004,0.0,0.0,100.0,0.0,0.0,0.0,0.0,3000.4285714285716,3125.5,3890.125,4112.0,305.645,304.95733333333334,315.34875,314.69225,21.89288888888889,20.5721,21.8833,21.4041,314.999998,314.999998,324.999988,324.999988,99.55962857142858,99.5074,99.5668,99.5465,0.08450000000000024,-0.04133333333333322,-0.11466666666666668,0.1206666666666667,-0.026666666666670835,-0.060000000000002274,1.576,1.563,37.83,29.575499999999998,37.771,34.775999999999996,56.36,34.963,59.5085,52.206,54.262,34.087,58.105000000000004,50.542,53.407,33.621,58.036,49.956,-0.118,-0.03400000000000003,0.10617000000000001,0.114195,0.0,210.135,210.18,207.11,207.11,0.0,0.0
12,0.0,0.0,0.0,1.0,1.0,0.0,0.0,1.0,0.0,100.0,1.0,1.1856,26.0,0.0,0.0,0.0,59.999996,0.0,26.0,26.0,26.0,26.0,0.013222222222222246,0.28669999999999995,0.009875,293.121,-2.7055,-2.6795,-1.5678,-1.5312999999999999,-235.73,215.38,190.747,0.0,0.0,0.0,0.0,0.025466666666666526,-5.498166666666667,-5.498166666666667,-0.5413,0.431,0.01911111111111108,0.754,67.245,0.0054,-0.20420000000000002,-0.4720000000000004,100.0,1.0,1.0,207.46,0.0,0.0,0.0,0.0,0.0,0.0,0.0,8793.5,0.0,55.0,5.0,242.05,0.0,0.0,0.0,0.0,0.0,0.0,1.0,0.0,0.6059999999999981,0.6059999999999981,0.0,0.0,0.0,55.0,616.79921,10000.0,85.000001,85.000001,85.000001,85.000001,395.0,0.0,0.0,0.0,1.0,166.665,52.994,52.994,48.263999999999996,48.263999999999996,34.0,-22.755,25.352,-27.263333333333335,29.884999999999998,0.0,1783.16,-0.4250000000000007,100.0,27.483,27.317,42.35,42.288,0.0,0.0,100.0,0.0,0.0,0.0,0.0,2989.285714285714,3179.0,4069.375,4257.4,305.667,304.76533333333333,314.92975,314.36475,21.902,20.5772,21.8931,21.4126,314.999998,314.999998,324.999988,324.999988,99.55964285714286,99.50741666666667,99.56694285714286,99.54662857142857,0.08574999999999999,-0.04400000000000004,-0.09033333333333333,0.12516666666666687,-0.045000000000001705,-0.05833333333333002,1.5354999999999999,1.5310000000000001,37.888,29.6075,37.832,34.829,56.347,34.999,59.543,52.2635,54.248999999999995,34.1205,58.137,50.5975,53.394,33.653,58.065,50.01,-0.10299999999999998,-0.05049999999999999,0.10353000000000001,0.105325,0.0,210.585,210.63,207.46,207.46,0.0,0.0
13,0.0,0.0,0.0,1.0,1.0,0.0,0.0,1.0,0.0,100.0,1.0,1.1856,26.0,0.0,0.0,0.0,59.999996,0.0,26.0,26.0,26.0,26.0,0.0434444444444444,0.2933000000000001,0.012575000000000001,292.831,-2.6987,-2.6865,-1.5628000000000002,-1.5386,-232.3,215.3675,190.725375,0.0,0.0,0.0,0.0,0.026833333333333376,-5.498166666666667,-5.498166666666667,-0.5375,-0.28633333333333333,0.012222222222222134,-0.512,67.388,0.0122,-0.2136,-0.3179999999999996,100.0,1.0,1.0,207.82,0.0,0.0,0.0,0.0,0.0,0.0,0.0,8808.7,0.0,55.0,5.0,242.56666666666666,1.0,0.0,0.0,0.0,0.0,0.0,1.0,0.0,0.657,0.657,0.0,0.0,1.0,55.0,616.79921,10000.0,85.000001,85.000001,85.000001,85.000001,395.0,0.0,0.0,0.0,1.0,333.33500000000004,52.872,52.872,48.05,48.05,34.0,-23.322499999999998,25.03,-28.18,30.17,0.0,1783.108,-0.48499999999999943,100.0,27.511,27.602,42.586,42.876,0.0,0.0,100.0,0.0,0.0,0.0,0.0,3112.5714285714284,3027.1,4158.75,4234.6,305.491,305.06233333333336,314.73975,314.2965,21.911666666666665,20.5827,21.9037,21.4218,314.999998,314.999998,324.999988,324.999988,99.55965714285715,99.50741666666667,99.56707142857142,99.54677142857143,0.09125000000000005,-0.02400000000000002,-0.09466666666666668,0.12549999999999994,-0.041666666666671404,-0.03333333333333144,1.5195,1.4895,37.948,29.6415,37.897999999999996,34.8865,56.334,35.036500000000004,59.582499999999996,52.327,54.236000000000004,34.1555,58.174,50.658,53.379999999999995,33.6865,58.099000000000004,50.06966666666666,-0.10949999999999993,-0.03550000000000009,0.10187,0.104175,0.0,211.0,211.03,207.82,207.82,0.0,0.0
14,0.0,0.0,0.0,1.0,1.0,0.0,0.0,1.0,0.0,100.0,1.0,1.1856,26.0,0.0,0.0,0.0,59.999996,0.0,26.0,26.0,26.0,26.0,0.04800000000000004,0.2825,-0.0438,293.106,-2.69265,-2.7007,-1.6,-1.5344,-228.66,215.35750000000002,190.70275,0.0,0.0,0.0,0.0,0.028933333333333366,-5.498166666666667,-5.498166666666667,-0.5501,-0.013333333333333334,0.02544444444444438,-0.476,67.535,0.0187,-0.22312500000000002,-0.4679999999999991,100.0,1.0,1.0,208.38333333333333,0.0,0.0,0.0,0.0,0.0,0.0,0.0,8832.5,0.0,55.0,5.0,243.09666666666666,0.0,0.0,0.0,0.0,0.0,0.0,1.0,0.0,0.7109999999999985,0.7109999999999985,0.0,0.0,0.0,55.0,616.79921,10000.0,85.000001,85.000001,85.000001,85.000001,395.0,0.0,0.0,0.0,1.0,166.665,52.948,52.948,48.492,48.492,34.0,-22.375,24.817999999999998,-27.11,28.7775,0.0,1783.054,-0.504999999999999,100.0,27.498,27.72,42.458,42.865,0.0,0.0,100.0,0.0,0.0,0.0,0.0,3071.285714285714,2998.0,4001.625,4096.1,305.619,305.115,315.17075,314.66725,21.921888888888887,20.5885,21.9147,21.4314,314.999998,314.999998,324.999988,324.999988,99.55967142857143,99.50743333333334,99.56722857142857,99.54691428571428,0.10375000000000023,-0.026999999999999913,-0.09433333333333332,0.1273333333333333,-0.045000000000001705,-0.036666666666668846,1.569,1.5385,38.012,29.677999999999997,37.967,34.9465,56.32,35.076499999999996,59.621,52.3915,54.223,34.192,58.2095,50.72,53.366,33.7215,58.1315,50.13066666666667,-0.119,-0.03699999999999992,0.113445,0.10257000000000001,0.0,211.465,211.49,208.38333333333333,208.38333333333333,0.0,0.0
15,0.0,0.0,0.0,1.0,1.0,0.0,0.0,1.0,0.0,100.0,1.0,1.1856,26.0,0.0,0.0,0.0,59.999996,0.0,26.0,26.0,26.0,26.0,0.05022222222222217,0.2842,-0.00975,292.999,-2.67805,-2.6826,-1.5579,-1.5585,-225.61,215.3475,190.6835,0.0,0.0,0.0,0.0,0.03069999999999995,-5.498166666666667,-5.498166666666667,-0.5434,0.226,0.03355555555555556,0.759,67.66,0.0261,-0.211625,-0.5099999999999998,100.0,1.0,1.0,208.7266666666667,0.0,0.0,0.0,0.0,0.0,0.0,0.0,8847.1,0.0,55.0,5.0,243.54333333333335,1.0,0.0,0.0,0.0,0.0,0.0,1.0,0.0,0.7560000000000002,0.7560000000000002,0.0,0.0,1.0,55.0,616.79921,10000.0,85.000001,85.000001,85.000001,85.000001,395.0,0.0,0.0,0.0,1.0,166.665,52.933,52.933,48.263999999999996,48.263999999999996,34.0,-21.035,25.567999999999998,-26.426666666666662,31.1525,0.0,1783.011,-0.370000000000001,100.0,27.671,27.631,42.447,42.815,0.0,0.0,100.0,0.0,0.0,0.0,0.0,2946.285714285714,3100.0,4038.25,4179.0,305.7945,304.9703333333333,314.9965,314.5085,21.930444444444444,20.5933,21.9239,21.4394,314.999998,314.999998,324.999988,324.999988,99.55968571428572,99.50743333333334,99.56735714285715,99.54704285714286,0.11299999999999999,-0.02299999999999991,-0.08266666666666668,0.15366666666666684,-0.03333333333333144,-0.061666666666667425,1.558,1.5310000000000001,38.065,29.7085,38.025,34.9965,56.309,35.11,59.6535,52.446,54.212,34.223,58.2395,50.772999999999996,53.354,33.7515,58.159,50.18233333333333,-0.11099999999999999,-0.04600000000000004,0.11480000000000001,0.10525500000000002,0.0,211.845,211.89499999999998,208.7266666666667,208.7266666666667,0.0,0.0
16,0.0,0.0,0.0,1.0,1.0,0.0,0.0,1.0,0.0,100.0,1.0,1.1856,26.0,0.0,0.0,0.0,59.999996,0.0,26.0,26.0,26.0,26.0,0.050999999999999934,0.2632000000000001,-0.007350000000000001,292.755,-2.7449500000000002,-2.6238,-1.5933000000000002,-1.5525,-222.16,215.34,190.661375,0.0,0.0,0.0,0.0,0.03269999999999995,-5.498166666666667,-5.498166666666667,-0.5522,-0.2826666666666667,0.02388888888888885,-0.998,67.799,0.0327,-0.22282500000000002,-0.3099999999999996,100.0,1.0,1.0,209.14333333333332,0.0,0.0,0.0,0.0,0.0,0.0,0.0,8864.9,0.0,55.0,5.0,244.05,0.0,0.0,0.0,0.0,0.0,0.0,1.0,0.0,0.8069999999999986,0.8069999999999986,0.0,0.0,0.0,55.0,616.79921,10000.0,85.000001,85.000001,85.000001,85.000001,395.0,0.0,0.0,0.0,1.0,333.33500000000004,52.505,52.505,47.958,47.958,34.0,-24.2575,25.33,-27.263333333333335,29.564999999999998,0.0,1782.958,-0.25,100.0,27.476,27.945,42.650999999999996,43.122,0.0,0.0,100.0,0.0,0.0,0.0,0.0,3176.142857142857,3140.1,4098.875,4025.3,305.343,304.702,314.9575,314.79075,21.939888888888888,20.5989,21.9344,21.4486,314.999998,314.999998,324.999988,324.999988,99.55968571428572,99.50743333333334,99.5675,99.5472,0.09200000000000008,-0.02966666666666673,-0.08066666666666668,0.14683333333333337,-0.051666666666669414,-0.051666666666669414,1.532,1.516,38.123999999999995,29.743000000000002,38.09,35.054,56.295,35.147999999999996,59.6915,52.507999999999996,54.199,34.257999999999996,58.2755,50.832499999999996,53.34,33.785,58.1915,50.24066666666667,-0.09199999999999997,-0.05950000000000011,0.110255,0.112295,0.0,212.285,212.305,209.14333333333332,209.14333333333332,0.0,0.0
17,0.0,0.0,0.0,1.0,1.0,0.0,0.0,1.0,0.0,100.0,1.0,1.1856,26.0,0.0,0.0,0.0,59.999996,0.0,26.0,26.0,26.0,26.0,0.05366666666666675,0.2852000000000001,0.032975000000000004,292.557,-2.6704,-2.7117,-1.5535,-1.5748,-218.49,215.33249999999998,190.637875,0.0,0.0,0.0,0.0,0.03483333333333338,-5.498166666666667,-5.498166666666667,-0.5499,0.11033333333333332,0.0015555555555555323,-1.0950000000000002,67.947,0.0269,-0.216975,-0.17600000000000016,100.0,1.0,1.0,209.54333333333335,0.0,0.0,0.0,0.0,0.0,0.0,0.0,8881.8,0.0,55.0,5.0,244.57999999999998,1.0,0.0,0.0,0.0,0.0,0.0,1.0,0.0,0.8610000000000007,0.8610000000000007,0.0,0.0,1.0,55.0,616.79921,10000.0,85.000001,85.000001,85.000001,85.000001,395.0,0.0,0.0,0.0,1.0,166.665,52.551,52.551,47.668,47.668,34.0,-22.415,24.834000000000003,-28.089999999999996,30.94,0.0,1782.905,-0.21999999999999886,100.0,27.734,28.09,42.688,43.161,0.0,0.0,100.0,0.0,0.0,0.0,0.0,3095.4285714285716,3011.0,4207.5,4185.9,305.5025,304.98466666666667,314.645,314.40075,21.95,20.6048,21.9455,21.458199999999998,314.999998,314.999998,324.999988,324.999988,99.55971428571429,99.50743333333334,99.56765714285714,99.54734285714285,0.10424999999999995,-0.03466666666666662,-0.08783333333333333,0.13916666666666666,-0.030000000000001137,-0.05333333333332746,1.519,1.5075,38.188,29.78,38.159,35.114,56.281,35.1885,59.731,52.573,54.186,34.296,58.312,50.894999999999996,53.326,33.8215,58.2245,50.302,-0.09799999999999998,-0.05899999999999994,0.109395,0.11113500000000001,0.0,212.76,212.765,209.54333333333335,209.54333333333335,0.0,0.0
18,0.0,0.0,0.0,1.0,1.0,0.0,0.0,1.0,0.0,100.0,1.0,1.1856,26.0,0.0,0.0,0.0,59.999996,0.0,26.0,26.0,26.0,26.0,0.038999999999999924,0.2630000000000001,0.02155,292.496,-2.65985,-2.7417,-1.5364,-1.5863,-215.43,215.3275,190.618,0.0,0.0,0.0,0.0,0.036633333333333296,-5.498166666666667,-5.498166666666667,-0.5601,-0.3286666666666667,0.00477777777777777,0.774,68.069,0.0199,-0.22510000000000002,-0.18200000000000038,100.0,1.0,1.0,209.91333333333333,0.0,0.0,0.0,0.0,0.0,0.0,0.0,8897.4,0.0,55.0,5.0,245.01999999999998,0.0,0.0,0.0,0.0,0.0,0.0,1.0,0.0,0.9059999999999988,0.9059999999999988,0.0,0.0,0.0,55.0,616.79921,10000.0,85.000001,85.000001,85.000001,85.000001,395.0,0.0,0.0,0.0,1.0,166.665,52.475,52.475,47.836,47.836,34.0,-22.2575,26.29,-26.373333333333335,31.565,0.0,1782.861,-0.23999999999999844,100.0,27.88,27.854,42.962,43.208,0.0,0.0,100.0,0.0,0.0,0.0,0.0,3042.285714285714,3147.0,4042.0,4230.2,305.5105,304.764,314.929,314.30375,21.958444444444446,20.6096,21.9548,21.4663,314.999998,314.999998,324.999988,324.999988,99.55972857142856,99.50745,99.56778571428572,99.54748571428571,0.09949999999999992,-0.03133333333333321,-0.07966666666666668,0.13883333333333336,-0.03833333333332689,-0.051666666666669414,1.492,1.488,38.239999999999995,29.810000000000002,38.217,35.164500000000004,56.269,35.2215,59.763999999999996,52.6275,54.175,34.326499999999996,58.3425,50.9475,53.314,33.8505,58.2525,50.35366666666667,-0.09350000000000003,-0.056499999999999995,0.103385,0.10591500000000001,0.0,213.125,213.12,209.91333333333333,209.91333333333333,0.0,0.0
19,0.0,0.0,0.0,1.0,1.0,0.0,0.0,1.0,0.0,100.0,1.0,1.1856,26.0,0.0,0.0,0.0,59.999996,0.0,26.0,26.0,26.0,26.0,0.04444444444444429,0.26270000000000016,-0.003075,292.282,-2.64045,-2.7045,-1.5377,-1.6043,-211.95999999999998,215.32,190.59525,0.0,0.0,0.0,0.0,0.0386333333333333,-5.498166666666667,-5.498166666666667,-0.5507000000000001,0.5316666666666666,0.010444444444444256,-0.772,68.206,0.012400000000000001,-0.2137,-0.040000000000000036,100.0,1.0,1.0,210.35333333333335,0.0,0.0,0.0,0.0,0.0,0.0,0.0,8916.1,0.0,55.0,5.0,245.51333333333332,1.0,0.0,0.0,0.0,0.0,0.0,1.0,0.0,0.9570000000000007,0.9570000000000007,0.0,0.0,1.0,55.0,616.79921,10000.0,85.000001,85.000001,85.000001,85.000001,395.0,0.0,0.0,0.0,1.0,333.33500000000004,52.124,52.124,47.791,47.791,34.0,-23.2775,24.218,-28.07,30.2825,0.0,1782.807,-0.2049999999999983,100.0,28.227,28.366,42.838,43.36,0.0,0.0,100.0,0.0,0.0,0.0,0.0,3141.0,3006.7,4151.125,4174.1,305.3795,305.014,314.7975,314.40175,21.96811111111111,20.6152,21.9652,21.4754,314.999998,314.999998,324.999988,324.999988,99.55974285714285,99.50745,99.56792857142857,99.54762857142858,0.08700000000000019,-0.04733333333333323,-0.09933333333333333,0.11949999999999994,-0.045000000000001705,-0.060000000000002274,1.505,1.5075,38.301,29.845,38.282,35.2215,56.257,35.260999999999996,59.8,52.6885,54.163,34.363,58.376,51.0065,53.301,33.8855,58.283,50.41133333333333,-0.09399999999999997,-0.06150000000000011,0.10504000000000001,0.11199500000000001,0.0,213.59,213.57999999999998,210.35333333333335,210.35333333333335,0.0,0.0
20,0.0,0.0,0.0,1.0,1.0,0.0,0.0,1.0,0.0,100.0,1.0,1.1856,26.0,0.0,0.0,0.0,59.999996,0.0,26.0,26.0,26.0,26.0,0.021777777777777896,0.2591000000000001,-0.025975,292.389,-2.70385,-2.66,-1.6094,-1.5895,-208.48000000000002,215.315,190.57275,0.0,0.0,0.0,0.0,0.04066666666666652,-5.498166666666667,-5.498166666666667,-0.555,-0.6806666666666666,0.012666666666666604,0.524,68.344,0.0086,-0.22487500000000002,-0.11799999999999944,100.0,1.0,1.0,210.75666666666666,0.0,0.0,0.0,0.0,0.0,0.0,0.0,8933.1,0.0,55.0,5.0,246.01333333333332,0.0,0.0,0.0,0.0,0.0,0.0,0.0,0.0,1.0079999999999991,1.0079999999999991,0.0,0.0,0.0,55.0,616.79921,10000.0,85.000001,85.000001,85.000001,85.000001,395.0,0.0,0.0,0.0,1.0,166.665,52.49,52.49,47.363,47.363,34.0,-22.21,25.048000000000002,-28.85333333333333,29.245,0.0,1782.759,-0.21499999999999986,100.0,28.037,27.965,43.423,43.644,0.0,0.0,100.0,0.0,0.0,0.0,0.0,3012.142857142857,3152.7,4124.0,4067.0,305.6465,304.8833333333333,314.849,314.72925,21.977555555555554,20.6207,21.9758,21.4847,314.999998,314.999998,324.999988,324.999988,99.55974285714285,99.50745,99.56807142857143,99.54777142857142,0.1030000000000002,-0.04133333333333322,-0.09933333333333333,0.12316666666666687,-0.04833333333333201,-0.060000000000002274,1.5065,1.5130000000000001,38.36,29.8795,38.348,35.278999999999996,56.242999999999995,35.299,59.839,52.7515,54.149,34.397999999999996,58.4125,51.067,53.287,33.9195,58.3165,50.470333333333336,-0.09899999999999998,-0.06499999999999995,0.10830000000000001,0.10627500000000001,0.0,213.97,213.965,210.75666666666666,210.75666666666666,0.0,0.0
21,0.0,0.0,0.0,1.0,1.0,0.0,0.0,1.0,0.0,100.0,1.0,1.1856,26.0,0.0,0.0,0.0,59.999996,0.0,26.0,26.0,26.0,26.0,0.007888888888888834,0.27100000000000013,-0.049300000000000004,292.526,-2.71765,-2.6309,-1.5697,-1.5312,-205.19,215.31,190.55125,0.0,0.0,0.0,0.0,0.04256666666666653,-5.498166666666667,-5.498166666666667,-0.5729000000000001,0.005,0.0043333333333333,0.614,68.471,0.007500000000000001,-0.22325,-0.09600000000000009,100.0,1.0,1.0,211.23666666666668,0.0,0.0,0.0,0.0,0.0,0.0,0.0,8953.5,0.0,55.0,5.0,246.46666666666667,1.0,0.0,0.0,0.0,0.0,0.0,0.0,0.0,1.056000000000001,1.056000000000001,0.0,0.0,1.0,55.0,616.79921,10000.0,85.000001,85.000001,85.000001,85.000001,395.0,0.0,0.0,0.0,1.0,166.665,52.307,52.307,47.989,47.989,34.0,-23.7425,25.287999999999997,-26.740000000000002,28.450000000000003,0.0,1782.71,-0.23000000000000043,100.0,28.067,27.826,43.112,43.266,0.0,0.0,100.0,0.0,0.0,0.0,0.0,3121.285714285714,3207.4,4001.25,4072.4,305.3325,304.73766666666666,315.1305,314.825,21.986555555555555,20.6259,21.985500000000002,21.4932,314.999998,314.999998,324.999988,324.999988,99.55975714285714,99.50746666666667,99.5682,99.54791428571428,0.09224999999999994,-0.04033333333333311,-0.09316666666666668,0.12983333333333325,-0.046666666666666856,-0.054999999999999716,1.572,1.5675000000000001,38.416,29.912,38.409,35.332499999999996,56.230000000000004,35.335,59.8725,52.8065,54.137,34.4315,58.443,51.12,53.272999999999996,33.951499999999996,58.3445,50.522333333333336,-0.09350000000000003,-0.062000000000000055,0.10613,0.11322000000000002,0.0,214.385,214.375,211.23666666666668,211.23666666666668,0.0,0.0
22,0.0,0.0,0.0,1.0,1.0,0.0,0.0,1.0,0.0,100.0,1.0,1.1856,26.0,0.0,0.0,0.0,59.999996,0.0,26.0,26.0,26.0,26.0,0.004444444444444473,0.28059999999999996,0.030750000000000003,292.007,-2.75955,-2.6617,-1.5756000000000001,-1.5866,-201.49,215.3075,190.526,0.0,0.0,0.0,0.0,0.0447333333333334,-5.498166666666667,-5.498166666666667,-0.5585,-0.007333333333333333,0.011777777777777887,0.946,68.617,0.0058000000000000005,-0.20272500000000002,-0.1739999999999995,100.0,1.0,1.0,211.51333333333332,0.0,0.0,0.0,0.0,0.0,0.0,0.0,8965.3,0.0,55.0,5.0,246.99333333333334,0.0,0.0,0.0,0.0,0.0,0.0,0.0,0.0,1.1099999999999994,1.1099999999999994,0.0,0.0,0.0,55.0,616.79921,10000.0,85.000001,85.000001,85.000001,85.000001,395.0,0.0,0.0,0.0,1.0,166.665,52.216,52.216,47.18,47.18,34.0,-24.0,25.78,-29.619999999999997,32.1275,0.0,1782.656,-0.3299999999999983,100.0,28.141,27.935,43.278,43.368,0.0,0.0,100.0,0.0,0.0,0.0,0.0,3130.285714285714,3213.8,4258.25,4418.8,305.3535,304.713,314.49875,313.95,21.996666666666666,20.6318,21.9966,21.5029,314.999998,314.999998,324.999988,324.999988,99.55977142857142,99.50746666666667,99.56837142857142,99.54807142857143,0.09600000000000009,-0.03733333333333322,-0.09866666666666668,0.11933333333333329,-0.036666666666668846,-0.05333333333332746,1.4855,1.4755,38.479,29.948999999999998,38.479,35.393,56.216,35.376,59.9125,52.872,54.123999999999995,34.4695,58.481,51.1825,53.259,33.988,58.3785,50.583666666666666,-0.10299999999999998,-0.05699999999999994,0.100095,0.10973000000000001,0.0,214.82999999999998,214.835,211.51333333333332,211.51333333333332,0.0,0.0
23,0.0,0.0,0.0,1.0,1.0,0.0,0.0,1.0,0.0,100.0,1.0,1.1856,26.0,0.0,0.0,0.0,59.999996,0.0,26.0,26.0,26.0,26.0,0.01677777777777778,0.27980000000000005,0.030325,292.007,-2.65665,-2.686,-1.6415000000000002,-1.5385,-198.19,215.3025,190.503875,0.0,0.0,0.0,0.0,0.046633333333333304,-5.498166666666667,-5.498166666666667,-0.5720000000000001,-0.27166666666666667,0.01011111111111096,0.764,68.743,0.006,-0.22445,-0.25200000000000067,100.0,1.0,1.0,211.95666666666668,0.0,0.0,0.0,0.0,0.0,0.0,0.0,8984.0,0.0,55.0,5.0,247.44666666666666,1.0,0.0,0.0,0.0,0.0,0.0,0.0,0.0,1.1580000000000013,1.1580000000000013,0.0,0.0,1.0,55.0,616.79921,10000.0,85.000001,85.000001,85.000001,85.000001,395.0,0.0,0.0,0.0,1.0,333.33500000000004,52.032,52.032,47.333,47.333,34.0,-22.8525,25.64,-30.156666666666666,30.285,0.0,1782.607,-0.33500000000000085,100.0,28.373,28.092,43.422,43.575,0.0,0.0,100.0,0.0,0.0,0.0,0.0,3126.142857142857,3160.6,4231.625,4243.1,305.2415,304.7986666666667,314.5965,314.4135,22.005666666666666,20.6371,22.0065,21.5116,314.999998,314.999998,324.999988,324.999988,99.55978571428571,99.50748333333334,99.5685,99.5482,0.1027499999999999,-0.03633333333333311,-0.09833333333333333,0.1306666666666667,-0.05333333333332746,-0.05833333333333002,1.514,1.5165,38.535,29.982,38.541,35.447,56.204,35.4125,59.948,52.93,54.111999999999995,34.5035,58.513999999999996,51.2385,53.247,34.0205,58.408500000000004,50.638333333333335,-0.10599999999999998,-0.052000000000000046,0.10761000000000001,0.11166000000000001,0.0,215.22500000000002,215.215,211.95666666666668,211.95666666666668,0.0,0.0
24,0.0,0.0,0.0,1.0,1.0,0.0,0.0,1.0,0.0,100.0,1.0,1.1856,26.0,0.0,0.0,0.0,59.999996,0.0,26.0,26.0,26.0,26.0,0.03400000000000003,0.2552000000000001,-0.056025000000000005,292.496,-2.7143,-2.6816,-1.5538,-1.5521,-194.69,215.3,190.479875,0.0,0.0,0.0,0.0,0.048666666666666525,-5.498166666666667,-5.498166666666667,-0.5875,-0.3946666666666667,0.018888888888888955,-0.29699999999999993,68.877,0.0086,-0.22375,-0.2160000000000002,100.0,1.0,1.0,212.42000000000002,0.0,0.0,0.0,0.0,0.0,0.0,0.0,9003.6,0.0,55.0,5.0,247.93,0.0,0.0,0.0,0.0,0.0,0.0,0.0,0.0,1.2089999999999996,1.2089999999999996,0.0,0.0,0.0,55.0,616.79921,10000.0,85.000001,85.000001,85.000001,85.000001,395.0,0.0,0.0,0.0,1.0,166.665,52.719,52.719,47.623,47.623,34.0,-22.96,23.984,-28.263333333333335,28.705,0.0,1782.557,-0.3200000000000003,100.0,27.967,28.017,43.25,43.569,0.0,0.0,100.0,0.0,0.0,0.0,0.0,3048.714285714286,2999.7,4105.0,4096.2,305.722,305.14166666666665,314.89525,314.681,22.01511111111111,20.6426,22.017,21.520699999999998,314.999998,314.999998,324.999988,324.999988,99.5598,99.50748333333334,99.56864285714286,99.54835714285714,0.09074999999999989,-0.04400000000000004,-0.10616666666666667,0.11733333333333329,-0.04333333333332945,-0.03999999999999915,1.518,1.5085,38.595,30.0165,38.605999999999995,35.5045,56.19,35.45,59.984,52.9895,54.099000000000004,34.538,58.5475,51.296,53.232,34.0535,58.439,50.69466666666666,-0.10549999999999993,-0.050999999999999934,0.10830000000000001,0.10308500000000001,0.0,215.61,215.625,212.42000000000002,212.42000000000002,0.0,0.0
25,0.0,0.0,0.0,1.0,1.0,0.0,0.0,1.0,0.0,100.0,1.0,1.1856,26.0,0.0,0.0,0.0,59.999996,0.0,26.0,26.0,26.0,26.0,0.031444444444444386,0.25639999999999996,-0.017125,292.175,-2.6847,-2.6586,-1.5907,-1.5537999999999998,-191.38,215.2975,190.456,0.0,0.0,0.0,0.0,0.05059999999999998,-5.498166666666667,-5.498166666666667,-0.6005,0.15666666666666665,0.02011111111111097,-0.8920000000000001,69.003,0.015300000000000001,-0.21727500000000002,-0.24799999999999933,100.0,1.0,1.0,212.82666666666665,0.0,0.0,0.0,0.0,0.0,0.0,0.0,9021.0,0.0,55.0,5.0,248.38333333333333,1.0,0.0,0.0,0.0,0.0,0.0,0.0,0.0,1.256999999999998,1.256999999999998,0.0,0.0,1.0,55.0,616.79921,10000.0,85.000001,85.000001,85.000001,85.000001,395.0,0.0,0.0,0.0,1.0,333.33500000000004,51.819,51.819,47.684,47.684,34.0,-24.965,25.992,-28.383333333333333,29.1475,0.0,1782.508,-0.26500000000000057,100.0,28.002,28.255,43.064,43.399,0.0,0.0,100.0,0.0,0.0,0.0,0.0,3274.142857142857,3231.4,4097.375,4104.9,304.9965,304.431,314.99325,314.67325,22.024,20.648,22.0268,21.5292,314.999998,314.999998,324.999988,324.999988,99.5598,99.50748333333334,99.56878571428571,99.54848571428572,0.08550000000000013,-0.04200000000000004,-0.10350000000000001,0.12716666666666687,-0.05333333333332746,-0.023333333333326323,1.536,1.5395,38.65,30.049999999999997,38.667,35.558,56.177,35.4865,60.016999999999996,53.045500000000004,54.086,34.572,58.578,51.3495,53.219,34.086,58.467,50.747,-0.09199999999999997,-0.05800000000000005,0.114515,0.106105,0.0,216.03,216.01,212.82666666666665,212.82666666666665,0.0,0.0
26,0.0,0.0,0.0,1.0,1.0,0.0,0.0,1.0,0.0,100.0,1.0,1.1856,26.0,0.0,0.0,0.0,59.999996,0.0,26.0,26.0,26.0,26.0,0.025222222222222257,0.2623,0.066925,291.367,-2.70995,-2.653,-1.5574,-1.5541,-187.85,215.29500000000002,190.4305,0.0,0.0,0.0,0.0,0.05266666666666653,-5.498166666666667,-5.498166666666667,-0.5740000000000001,0.22366666666666665,0.014888888888888951,1.029,69.139,0.018000000000000002,-0.20270000000000002,-0.3020000000000005,100.0,1.0,1.0,213.05,0.0,0.0,0.0,0.0,0.0,0.0,0.0,9030.4,0.0,55.0,5.0,248.87,0.0,0.0,0.0,0.0,0.0,0.0,0.0,0.0,1.3079999999999998,1.3079999999999998,0.0,0.0,0.0,55.0,616.79921,10000.0,85.000001,85.000001,85.000001,85.000001,395.0,0.0,0.0,0.0,1.0,166.665,51.650999999999996,51.650999999999996,46.646,46.646,34.0,-23.544999999999998,25.82,-30.03333333333333,33.2425,0.0,1782.458,-0.3099999999999987,100.0,28.807,28.492,43.665,43.841,0.0,0.0,100.0,0.0,0.0,0.0,0.0,3159.4285714285716,3194.1,4375.875,4493.1,305.231,304.8186666666667,314.19525,313.753,22.033666666666665,20.6537,22.0373,21.5385,314.999998,314.999998,324.999988,324.999988,99.55982857142857,99.5075,99.56892857142857,99.54864285714285,0.10325000000000006,-0.02933333333333321,-0.08833333333333333,0.13149999999999995,-0.026666666666670835,-0.06666666666666998,1.4344999999999999,1.431,38.71,30.0855,38.733000000000004,35.616,56.166,35.5265,60.056,53.108000000000004,54.076,34.6085,58.6145,51.41,53.207,34.1215,58.5,50.806333333333335,-0.10399999999999998,-0.05499999999999994,0.10971000000000002,0.09790000000000001,0.0,216.435,216.47500000000002,213.05,213.05,0.0,0.0
27,0.0,0.0,0.0,1.0,1.0,0.0,0.0,1.0,0.0,100.0,1.0,1.1856,26.0,0.0,0.0,0.0,59.999996,0.0,26.0,26.0,26.0,26.0,0.015222222222222248,0.26649999999999996,-0.05965,291.779,-2.7580999999999998,-2.6624,-1.6193,-1.5329,-184.53,215.29250000000002,190.407375,0.0,0.0,0.0,0.0,0.05459999999999998,-5.498166666666667,-5.498166666666667,-0.5965,-0.759,0.026111111111110974,0.828,69.262,0.0188,-0.237325,-0.29000000000000004,100.0,1.0,1.0,213.55,0.0,0.0,0.0,0.0,0.0,0.0,0.0,9051.6,0.0,55.0,5.0,249.31666666666666,1.0,0.0,0.0,0.0,0.0,0.0,0.0,0.0,1.355999999999998,1.355999999999998,0.0,0.0,1.0,55.0,616.79921,10000.0,85.000001,85.000001,85.000001,85.000001,395.0,0.0,0.0,0.0,1.0,333.33500000000004,51.926,51.926,46.738,46.738,34.0,-22.9875,26.232,-28.496666666666663,30.2925,0.0,1782.408,-0.3200000000000003,100.0,28.493,28.506999999999998,44.004,44.144999999999996,0.0,0.0,100.0,0.0,0.0,0.0,0.0,3040.857142857143,3232.9,4108.75,4163.5,305.622,304.6,314.87125,314.62675,22.042444444444445,20.6591,22.0473,21.5473,314.999998,314.999998,324.999988,324.999988,99.55982857142857,99.5075,99.56907142857143,99.54878571428571,0.10175000000000001,-0.033666666666666734,-0.09283333333333334,0.14533333333333331,-0.04999999999999716,-0.05333333333332746,1.5305,1.516,38.766,30.119,38.796,35.670500000000004,56.153,35.563,60.092,53.166,54.064,34.6425,58.647999999999996,51.466,53.194,34.153999999999996,58.5305,50.86066666666667,-0.10350000000000004,-0.05750000000000011,0.11088500000000001,0.113875,0.0,216.8,216.81,213.55,213.55,0.0,0.0
28,0.0,0.0,0.0,1.0,1.0,0.0,0.0,1.0,0.0,100.0,1.0,1.1856,26.0,0.0,0.0,0.0,59.999996,0.0,26.0,26.0,26.0,26.0,0.05055555555555569,0.27059999999999995,-0.055475000000000003,291.901,-2.6909,-2.6475,-1.6311,-1.5636,-181.0,215.29250000000002,190.381875,0.0,0.0,0.0,0.0,0.05663333333333331,-5.498166666666667,-5.498166666666667,-0.5999,0.5173333333333334,0.007888888888888834,-1.112,69.393,0.018600000000000002,-0.2151,-0.24600000000000044,100.0,1.0,1.0,214.00666666666666,0.0,0.0,0.0,0.0,0.0,0.0,0.0,9070.9,0.0,55.0,5.0,249.78666666666666,0.0,0.0,0.0,0.0,0.0,0.0,0.0,0.0,1.407,1.407,0.0,0.0,0.0,55.0,616.79921,10000.0,85.000001,85.000001,85.000001,85.000001,395.0,0.0,0.0,0.0,1.0,333.33500000000004,51.91,51.91,47.134,47.134,34.0,-22.884999999999998,24.996,-28.979999999999997,30.0875,0.0,1782.357,-0.370000000000001,100.0,28.387,28.637,43.427,43.863,0.0,0.0,100.0,0.0,0.0,0.0,0.0,3150.5714285714284,3105.8,4212.875,4117.4,305.401,304.804,314.78575,314.695,22.05188888888889,20.6648,22.0576,21.5564,314.999998,314.999998,324.999988,324.999988,99.55984285714285,99.5075,99.56921428571428,99.54892857142858,0.10875000000000012,-0.036666666666666625,-0.0885,0.1423333333333332,-0.04999999999999716,-0.046666666666666856,1.554,1.5465,38.824,30.155,38.86,35.7275,56.141,35.6025,60.1255,53.2245,54.052,34.679,58.679,51.5225,53.182,34.189,58.5585,50.916,-0.11199999999999999,-0.052000000000000046,0.10125,0.11450500000000001,0.0,217.23000000000002,217.255,214.00666666666666,214.00666666666666,0.0,0.0
29,0.0,0.0,0.0,1.0,1.0,0.0,0.0,1.0,0.0,100.0,1.0,1.1856,26.0,0.0,0.0,0.0,59.999996,0.0,26.0,26.0,26.0,26.0,0.049555555555555575,0.26249999999999996,-0.025,291.824,-2.75435,-2.5846999999999998,-1.6057000000000001,-1.5497999999999998,-177.45,215.29250000000002,190.3555,0.0,0.0,0.0,0.0,0.058699999999999974,-5.498166666666667,-5.498166666666667,-0.6044,-0.7283333333333334,0.003444444444444361,0.819,69.526,0.016800000000000002,-0.21427500000000002,-0.33999999999999986,100.0,1.0,1.0,214.2866666666667,0.0,0.0,0.0,0.0,0.0,0.0,0.0,9082.9,0.0,55.0,5.0,250.26999999999998,1.0,0.0,0.0,0.0,0.0,0.0,0.0,0.0,1.4579999999999984,1.4579999999999984,0.0,0.0,1.0,55.0,616.79921,10000.0,85.000001,85.000001,85.000001,85.000001,395.0,0.0,0.0,0.0,1.0,333.33500000000004,52.261,52.261,46.89,46.89,34.0,-23.28,25.784,-28.133333333333333,31.885,0.0,1782.307,-0.4750000000000014,100.0,28.222,28.189,43.872,44.021,0.0,0.0,100.0,0.0,0.0,0.0,0.0,3129.142857142857,3221.0,4156.625,4320.3,305.5125,304.90233333333333,314.73625,314.202,22.061222222222224,20.6704,22.0682,21.5657,314.999998,314.999998,324.999988,324.999988,99.55985714285714,99.5075,99.56937142857143,99.54908571428571,0.1080000000000001,-0.016666666666666607,-0.07816666666666668,0.13983333333333325,-0.03999999999999915,-0.05833333333333002,1.4945,1.4765,38.882,30.189999999999998,38.926,35.786,56.126999999999995,35.6395,60.164500000000004,53.286500000000004,54.039,34.713499999999996,58.715,51.582,53.168,34.222,58.591,50.974000000000004,-0.11249999999999993,-0.04299999999999993,0.10302000000000001,0.11319000000000001,0.0,217.625,217.64,214.2866666666667,214.2866666666667,0.0,0.0
30,0.0,0.0,0.0,1.0,1.0,0.0,0.0,1.0,0.0,100.0,1.0,1.1856,26.0,0.0,0.0,0.0,59.999996,0.0,26.0,26.0,26.0,26.0,0.03922222222222227,0.2541,0.007675,291.153,-2.72515,-2.7207,-1.6513,-1.464,-174.11,215.29250000000002,190.330625,0.0,0.0,0.0,0.0,0.06063333333333332,-5.498166666666667,-5.498166666666667,-0.6062000000000001,0.8313333333333334,0.006444444444444253,0.8029999999999999,69.648,0.0183,-0.21705000000000002,-0.4479999999999995,100.0,1.0,1.0,214.75666666666666,0.0,0.0,0.0,0.0,0.0,0.0,0.0,9102.7,0.0,55.0,5.0,250.70333333333335,0.0,0.0,0.0,0.0,0.0,0.0,1.0,0.0,1.5060000000000002,1.5060000000000002,0.0,0.0,0.0,55.0,616.79921,10000.0,85.000001,85.000001,85.000001,85.000001,395.0,0.0,0.0,0.0,1.0,166.665,50.583,50.583,47.028,47.028,34.0,-24.4,29.12,-29.32333333333333,29.6875,0.0,1782.26,-0.5300000000000011,100.0,29.143,28.929000000000002,43.591,43.906,0.0,0.0,100.0,0.0,0.0,0.0,0.0,3317.285714285714,3423.7,4229.375,4280.4,304.6525,303.94933333333336,314.73975,314.49575,22.07022222222222,20.676,22.078,21.5744,314.999998,314.999998,324.999988,324.999988,99.55987142857143,99.50751666666666,99.5695,99.54921428571429,0.12049999999999983,-0.024333333333333318,-0.08466666666666667,0.13666666666666671,-0.036666666666668846,-0.06833333333332803,1.535,1.5150000000000001,38.939,30.225,38.986999999999995,35.84,56.119,35.678,60.1965,53.3425,54.031,34.749,58.745,51.635999999999996,53.159,34.256,58.618,51.027,-0.125,-0.04049999999999998,0.10454500000000001,0.106785,0.0,218.015,218.04500000000002,214.75666666666666,214.75666666666666,0.0,0.0
31,0.0,0.0,0.0,1.0,1.0,0.0,0.0,1.0,0.0,100.0,1.0,1.1856,26.0,0.0,0.0,0.0,59.999996,0.0,26.0,26.0,26.0,26.0,0.040999999999999925,0.2610000000000001,0.09865,290.695,-2.7079,-2.6196,-1.65,-1.5379,-170.56,215.29500000000002,190.30475,0.0,0.0,0.0,0.0,0.06269999999999998,-5.498166666666667,-5.498166666666667,-0.5865,-0.326,0.0173333333333332,-0.53,69.781,0.027600000000000003,-0.2189,-0.4079999999999995,100.0,1.0,1.0,214.96666666666667,0.0,0.0,0.0,0.0,0.0,0.0,0.0,9111.7,0.0,55.0,5.0,251.18333333333334,1.0,0.0,0.0,0.0,0.0,0.0,1.0,0.0,1.5569999999999986,1.5569999999999986,0.0,0.0,1.0,55.0,616.79921,10000.0,85.000001,85.000001,85.000001,85.000001,395.0,0.0,0.0,0.0,1.0,166.665,51.025,51.025,45.563,45.563,34.0,-23.13,26.311999999999998,-31.17,32.32,0.0,1782.21,-0.4250000000000007,100.0,28.9,29.264,44.334,44.799,0.0,0.0,100.0,0.0,0.0,0.0,0.0,3189.142857142857,3297.4,4384.25,4395.1,305.2405,304.3063333333333,314.2045,313.869,22.079666666666668,20.6818,22.0886,21.5839,314.999998,314.999998,324.999988,324.999988,99.55988571428571,99.50751666666666,99.56965714285714,99.54937142857143,0.1160000000000001,-0.038999999999999924,-0.08266666666666668,0.13116666666666688,-0.04833333333333201,-0.02833333333332888,1.4375,1.4335,38.998000000000005,30.261,39.054,35.899,56.108000000000004,35.7175,60.237,53.4065,54.019999999999996,34.7855,58.7825,51.6975,53.147,34.2915,58.6525,51.08733333333333,-0.11849999999999994,-0.05249999999999999,0.10124000000000001,0.10759,0.0,218.41,218.42000000000002,214.96666666666667,214.96666666666667,0.0,0.0
32,0.0,0.0,0.0,1.0,1.0,0.0,0.0,1.0,0.0,100.0,1.0,1.1856,26.0,0.0,0.0,0.0,59.999996,0.0,26.0,26.0,26.0,26.0,0.052888888888888985,0.2672000000000001,-0.0449,291.367,-2.7051,-2.6754,-1.5958,-1.6139000000000001,-167.0,215.2975,190.27925,0.0,0.0,0.0,0.0,0.06476666666666653,-5.498166666666667,-5.498166666666667,-0.6056,-0.28633333333333333,0.004666666666666597,0.252,69.908,0.0302,-0.231625,-0.49799999999999933,100.0,1.0,1.0,215.51666666666665,0.0,0.0,0.0,0.0,0.0,0.0,0.0,9134.9,0.0,55.0,5.0,251.64333333333335,0.0,0.0,0.0,0.0,0.0,0.0,1.0,0.0,1.6080000000000005,1.6080000000000005,0.0,0.0,0.0,55.0,616.79921,10000.0,85.000001,85.000001,85.000001,85.000001,395.0,0.0,0.0,0.0,1.0,166.665,51.62,51.62,46.646,46.646,34.0,-21.49,26.5,-26.89666666666666,32.3525,0.0,1782.159,-0.4450000000000003,100.0,28.825,28.975,44.229,44.649,0.0,0.0,100.0,0.0,0.0,0.0,0.0,3036.4285714285716,3186.2,4043.625,4252.1,305.5835,304.74333333333334,315.00275,314.346,22.08888888888889,20.6876,22.099,21.5932,314.999998,314.999998,324.999988,324.999988,99.5599,99.50753333333333,99.5698,99.54952857142857,0.1262500000000002,-0.020000000000000018,-0.076,0.14500000000000002,-0.03333333333333144,-0.05666666666667197,1.517,1.5095,39.056,30.2975,39.119,35.957499999999996,56.096000000000004,35.7565,60.2715,53.467,54.009,34.822,58.815,51.7555,53.134,34.326,58.6815,51.144,-0.11749999999999994,-0.050000000000000044,0.10951500000000002,0.10102000000000001,0.0,218.79000000000002,218.82999999999998,215.51666666666665,215.51666666666665,0.0,0.0
33,0.0,0.0,0.0,1.0,1.0,0.0,0.0,1.0,0.0,100.0,1.0,1.1856,26.0,0.0,0.0,0.0,59.999996,0.0,26.0,26.0,26.0,26.0,0.04555555555555557,0.2518,-0.0853,291.611,-2.71555,-2.6866,-1.5994000000000002,-1.5808,-163.64,215.3025,190.25425,0.0,0.0,0.0,0.0,0.06673333333333331,-5.498166666666667,-5.498166666666667,-0.6149,-0.15466666666666665,0.0009999999999998899,0.965,70.029,0.0325,-0.21602500000000002,-0.47999999999999954,100.0,1.0,1.0,215.90666666666667,0.0,0.0,0.0,0.0,0.0,0.0,0.0,9151.6,0.0,55.0,5.0,252.07666666666665,1.0,0.0,0.0,0.0,0.0,0.0,1.0,0.0,1.6559999999999988,1.6559999999999988,0.0,0.0,1.0,55.0,616.79921,10000.0,85.000001,85.000001,85.000001,85.000001,395.0,0.0,0.0,0.0,1.0,333.33500000000004,51.865,51.865,46.936,46.936,34.0,-21.7775,25.752000000000002,-26.75,31.975,0.0,1782.108,-0.4499999999999993,100.0,28.677,28.749,44.007,44.385999999999996,0.0,0.0,100.0,0.0,0.0,0.0,0.0,3062.142857142857,3092.3,4075.5,4216.0,305.53,305.02733333333333,314.97925,314.50575,22.097666666666665,20.6929,22.1088,21.6018,314.999998,314.999998,324.999988,324.999988,99.55991428571429,99.50753333333333,99.56994285714286,99.54965714285714,0.12650000000000006,-0.01866666666666661,-0.07,0.15416666666666679,-0.03499999999999659,-0.060000000000002274,1.5374999999999999,1.504,39.11,30.3305,39.18,36.0115,56.085,35.791,60.3045,53.522,53.998000000000005,34.854,58.8455,51.809,53.122,34.357,58.709,51.196,-0.11599999999999999,-0.04299999999999993,0.10917500000000001,0.10498500000000001,0.0,219.18,219.2,215.90666666666667,215.90666666666667,0.0,0.0
34,0.0,0.0,0.0,1.0,1.0,0.0,0.0,1.0,0.0,100.0,1.0,1.1856,26.0,0.0,0.0,0.0,59.999996,0.0,26.0,26.0,26.0,26.0,0.04888888888888898,0.2559,-0.078025,291.824,-2.6751,-2.6704,-1.6343,-1.5185,-160.06,215.31,190.226125,0.0,0.0,0.0,0.0,0.06879999999999997,-5.498166666666667,-5.498166666666667,-0.643,-0.976,0.021666666666666723,-0.18399999999999994,70.158,0.035300000000000005,-0.220725,-0.4239999999999995,100.0,1.0,1.0,216.25666666666666,0.0,0.0,0.0,0.0,0.0,0.0,0.0,9166.3,0.0,55.0,5.0,252.54333333333335,0.0,0.0,0.0,0.0,0.0,0.0,1.0,0.0,1.7070000000000007,1.7070000000000007,0.0,0.0,0.0,55.0,616.79921,10000.0,85.000001,85.000001,85.000001,85.000001,395.0,0.0,0.0,0.0,1.0,333.33500000000004,52.399,52.399,47.058,47.058,34.0,-21.28,24.796,-28.513333333333335,30.94,0.0,1782.058,-0.4299999999999997,100.0,28.262,28.59,43.82,44.537,0.0,0.0,100.0,0.0,0.0,0.0,0.0,3041.285714285714,3012.6,4133.5,4233.4,305.799,305.279,314.8965,314.39275,22.10677777777778,20.6985,22.1192,21.6111,314.999998,314.999998,324.999988,324.999988,99.55994285714286,99.50753333333333,99.5701,99.54981428571429,0.1200000000000001,-0.020000000000000018,-0.08433333333333333,0.14583333333333326,-0.041666666666671404,-0.04999999999999716,1.5045,1.5035,39.168,30.365499999999997,39.245000000000005,36.0695,56.071,35.827,60.339,53.5835,53.985,34.887,58.8775,51.8675,53.108999999999995,34.3885,58.7375,51.25333333333333,-0.11299999999999999,-0.04400000000000004,0.10901500000000001,0.10708000000000001,0.0,219.56,219.575,216.25666666666666,216.25666666666666,0.0,0.0
35,0.0,0.0,0.0,1.0,1.0,0.0,0.0,1.0,0.0,100.0,1.0,1.1856,26.0,0.0,0.0,0.0,59.999996,0.0,26.0,26.0,26.0,26.0,0.05222222222222217,0.25029999999999997,-0.0752,291.687,-2.8016,-2.6526,-1.5422,-1.5795,-156.48000000000002,215.3175,190.196125,0.0,0.0,0.0,0.0,0.07089999999999996,-5.498166666666667,-5.498166666666667,-0.6783,0.022333333333333334,0.0015555555555555323,-0.21599999999999997,70.28399999999999,0.0374,-0.2267,-0.42799999999999905,100.0,1.0,1.0,216.74,0.0,0.0,0.0,0.0,0.0,0.0,0.0,9186.7,0.0,55.0,5.0,252.99666666666667,1.0,0.0,0.0,0.0,0.0,0.0,1.0,0.0,1.7579999999999991,1.7579999999999991,0.0,0.0,1.0,55.0,616.79921,10000.0,85.000001,85.000001,85.000001,85.000001,395.0,0.0,0.0,0.0,1.0,166.665,51.528999999999996,51.528999999999996,46.829,46.829,34.0,-22.9425,28.158,-25.64333333333333,30.445,0.0,1782.008,-0.23999999999999844,100.0,28.366,28.853,43.611000000000004,44.003,0.0,0.0,100.0,0.0,0.0,0.0,0.0,3106.5714285714284,3385.1,4091.0,4070.8,305.411,304.14233333333334,315.01025,314.9175,22.11588888888889,20.7044,22.1295,21.6203,314.999998,314.999998,324.999988,324.999988,99.55995714285714,99.50753333333333,99.57024285714286,99.54995714285714,0.12674999999999992,-0.020999999999999908,-0.06466666666666668,0.1561666666666668,-0.041666666666671404,-0.06333333333333258,1.5605,1.5515,39.224000000000004,30.4025,39.309,36.1265,56.058,35.8665,60.3725,53.64,53.972,34.924,58.908500000000004,51.9225,53.094,34.424,58.7655,51.306666666666665,-0.10499999999999998,-0.06099999999999994,0.10978,0.101165,0.0,219.96,220.0,216.74,216.74,0.0,0.0
36,0.0,0.0,0.0,1.0,1.0,0.0,0.0,1.0,0.0,100.0,1.0,1.1856,26.0,0.0,0.0,0.0,59.999996,0.0,26.0,26.0,26.0,26.0,0.05166666666666675,0.2611000000000001,0.043025,291.138,-2.6501,-2.7143,-1.6532,-1.5912,-153.1,215.325,190.166875,0.0,0.0,0.0,0.0,0.07286666666666652,-5.498166666666667,-5.498166666666667,-0.6612,-0.041,-0.03811111111111121,0.30999999999999994,70.407,0.0316,-0.204025,-0.2939999999999996,100.0,1.0,1.0,216.89666666666668,0.0,0.0,0.0,0.0,0.0,0.0,0.0,9193.5,0.0,55.0,5.0,253.43666666666667,0.0,0.0,0.0,0.0,0.0,0.0,1.0,0.0,1.806000000000001,1.806000000000001,0.0,0.0,0.0,55.0,616.79921,10000.0,85.000001,85.000001,85.000001,85.000001,395.0,0.0,0.0,0.0,1.0,333.33500000000004,51.819,51.819,46.234,46.234,34.0,-20.645,25.868,-30.753333333333337,34.9125,0.0,1781.959,-0.21000000000000085,100.0,28.912,28.808,43.983000000000004,44.318,0.0,0.0,100.0,0.0,0.0,0.0,0.0,2972.0,3098.6,4381.625,4490.2,305.6655,304.97633333333334,314.21525,313.84725,22.124666666666666,20.7099,22.1393,21.6291,314.999998,314.999998,324.999988,324.999988,99.55995714285714,99.50755,99.57038571428572,99.55011428571429,0.12524999999999986,-0.024666666666666615,-0.07483333333333334,0.15283333333333338,-0.03499999999999659,-0.05666666666667197,1.445,1.438,39.278999999999996,30.436500000000002,39.370999999999995,36.182,56.047,35.903,60.407,53.698499999999996,53.962,34.957499999999996,58.941,51.9785,53.083,34.4565,58.7945,51.361666666666665,-0.10449999999999993,-0.06299999999999994,0.10612500000000001,0.109975,0.0,220.35000000000002,220.385,216.89666666666668,216.89666666666668,0.0,0.0
