,ABS Active,ABS Enabled,AID Allow Tire Blankets,AID Auto Blip,AID Auto Clutch,AID Auto Shift,AID Fuel Rate,AID Ideal Line,AID Mech Damage,AID Stability,AID Tire Wear Rate,Air Density,Air Temp,Ballast,Best Lap Delta,Best Lap Time,Brake Bias,Brake Pos,Brake Temp FL,Brake Temp FR,Brake Temp RL,Brake Temp RR,CG Accel Lateral,CG Accel Longitudinal,CG Accel Vertical,CG Height,Camber FL,Camber FR,Camber RL,Camber RR,Car Coord X,Car Coord Y,Car Coord Z,Car Damage Front,Car Damage Left,Car Damage Rear,Car Damage Right,Car Pos Norm,Caster FL,Caster FR,Chassis Pitch Angle,Chassis Pitch Rate,Chassis Roll Angle,Chassis Roll Rate,Chassis Velocity X,Chassis Velocity Y,Chassis Velocity Z,Chassis Yaw Rate,Clutch Pos,DRS Active,DRS Available,Drive Train Speed,ERS Heat Charging,ERS Is Charging,ERS Max Energy,ERS Power Level,ERS Recovery Level,Engine Brake Setting,Engine Limiter,Engine RPM,Flags,Fuel Level,Gear,Ground Speed,HR Sample Clock,In Pit,KERS Charge,KERS Deployed Energy,KERS Input,KERS Max Energy,LR Sample Clock,Lap Invalidated,Lap Time,Lap Time2,Last Lap Time,Last Sector Time,MR Sample Clock,Max Fuel,Max Power,Max RPM,Max Sus Travel FL,Max Sus Travel FR,Max Sus Travel RL,Max Sus Travel RR,Max Torque,Max Turbo Boost,Num Tires Off Track,Penalties Enabled,Position,Raw Data Sample Rate,Ride Height FL,Ride Height FR,Ride Height RL,Ride Height RR,Road Temp,Self Align Torque FL,Self Align Torque FR,Self Align Torque RL,Self Align Torque RR,Session Lap Count,Session Time Left,Steering Angle,Surface Grip,Suspension Travel FL,Suspension Travel FR,Suspension Travel RL,Suspension Travel RR,TC Active,TC Enabled,Throttle Pos,Tire Dirt Level FL,Tire Dirt Level FR,Tire Dirt Level RL,Tire Dirt Level RR,Tire Load FL,Tire Load FR,Tire Load RL,Tire Load RR,Tire Loaded Radius FL,Tire Loaded Radius FR,Tire Loaded Radius RL,Tire Loaded Radius RR,Tire Pressure FL,Tire Pressure FR,Tire Pressure RL,Tire Pressure RR,Tire Radius FL,Tire Radius FR,Tire Radius RL,Tire Radius RR,Tire Rubber Grip FL,Tire Rubber Grip FR,Tire Rubber Grip RL,Tire Rubber Grip RR,Tire Slip Angle FL,Tire Slip Angle FR,Tire Slip Angle RL,Tire Slip Angle RR,Tire Slip Ratio FL,Tire Slip Ratio FR,Tire Slip Ratio RL,Tire Slip Ratio RR,Tire Temp Core FL,Tire Temp Core FR,Tire Temp Core RL,Tire Temp Core RR,Tire Temp Inner FL,Tire Temp Inner FR,Tire Temp Inner RL,Tire Temp Inner RR,Tire Temp Middle FL,Tire Temp Middle FR,Tire Temp Middle RL,Tire Temp Middle RR,Tire Temp Outer FL,Tire Temp Outer FR,Tire Temp Outer RL,Tire Temp Outer RR,Toe In FL,Toe In FR,Toe In RL,Toe In RR,Turbo Boost,Wheel Angular Speed FL,Wheel Angular Speed FR,Wheel Angular Speed RL,Wheel Angular Speed RR,Wind Direction,Wind Speed
0,0.0,0.0,0.0,1.0,1.0,0.0,0.0,1.0,0.0,100.0,1.0,1.1856,26.0,0.0,0.0,0.0,59.99999,0.0,26.0,26.0,26.0,26.0,-0.07077777777777783,0.31330000000000013,0.0118,293.808,-2.7226,-2.6482222222222225,-1.52325,-1.5550000000000002,-275.47,216.3025,190.986125,0.0,0.0,0.0,0.0,0.0016999999999999238,-5.498166666666667,-5.498166666666667,-0.5476,1.1435,-0.004888888888888943,-1.4619999999999997,65.54599999999999,-0.0324,-0.212975,0.9620000000000006,100.0,1.0,1.0,202.36666666666667,0.0,0.0,0.0,0.0,0.0,0.0,0.0,8577.6,0.0,55.0,5.0,235.93333333333334,0.0,0.0,0.0,0.0,0.0,0.0,0.0,0.0,0.006000000000000227,0.006000000000000227,0.0,0.0,0.0,55.0,616.79921,10000.0,85.0,85.0,85.0,85.0,395.0,0.0,0.0,0.0,1.0,20.0,52.46,52.46,49.301,49.301,34.0,-26.2425,23.625,-30.54,24.4575,0.0,1783.696,0.8099999999999987,100.0,27.646,27.297,40.689,40.798,0.0,0.0,100.0,0.0,0.0,0.0,0.0,3000.285714285714,3389.9,4124.875,3922.4,305.7685,303.95225,314.862,315.0165,21.773699999999998,20.512,21.7793,21.3034,314.99999,314.99999,324.99998,324.99998,99.55872857142857,99.50713333333333,99.56582857142857,99.54492857142857,-0.0009999999999998899,-0.11849999999999994,-0.16366666666666665,0.06733333333333333,-0.060000000000002274,-0.046666666666666856,1.5635,1.597,37.086,29.2,37.120000000000005,34.1465,56.219,34.427,59.292,51.519,54.143,33.6035,57.913,49.8815,53.316,33.167500000000004,57.8785,49.308,-0.014499999999999957,-0.13549999999999995,0.10895,0.10702,0.0,205.4,205.32,202.36666666666667,202.36666666666667,0.0,0.0
1,0.0,0.0,0.0,1.0,1.0,0.0,0.0,1.0,0.0,100.0,1.0,1.1856,26.0,0.0,0.0,0.0,59.999996,0.0,26.0,26.0,26.0,26.0,-0.10722222222222211,0.3086,0.003,292.801,-2.6319,-2.761,-1.52895,-1.5508000000000002,-272.12,216.2975,190.966,0.0,0.0,0.0,0.0,0.003666666666666596,-5.498166666666667,-5.498166666666667,-0.5047,-0.5325,-0.05311111111111133,-0.35599999999999987,65.699,-0.048100000000000004,-0.2063,1.3640000000000008,100.0,1.0,1.0,202.5233333333333,0.0,0.0,0.0,0.0,0.0,0.0,0.0,8584.2,0.0,55.0,5.0,236.48666666666668,1.0,0.0,0.0,0.0,0.0,0.0,0.0,0.0,0.05699999999999861,0.05699999999999861,0.0,0.0,1.0,55.0,616.79921,10000.0,85.000001,85.000001,85.000001,85.000001,395.0,0.0,0.0,0.0,1.0,166.665,53.146,53.146,48.233000000000004,48.233000000000004,34.0,-26.6375,18.691666666666666,-33.75,29.445,0.0,1783.646,0.879999999999999,100.0,27.95,27.275,42.772999999999996,41.848,0.0,0.0,100.0,0.0,0.0,0.0,0.0,3069.0,2756.1,4286.125,4718.4,305.394,306.05075,314.32425,313.1015,21.7836,20.5171,21.7901,21.3125,314.999998,314.999998,324.999988,324.999988,99.55874285714286,99.50715,99.56598571428572,99.54507142857143,-0.006750000000000034,-0.13674999999999993,-0.1775,0.0425,-0.046666666666666856,-0.04333333333332945,1.4125,1.4735,37.147999999999996,29.232,37.188,34.203,56.204,34.4685,59.337,51.584,54.128,33.6415,57.954499999999996,49.944,53.3,33.204499999999996,57.917,49.36933333333333,-0.008000000000000007,-0.14500000000000002,0.11094000000000001,0.10405,0.0,205.84,205.765,202.5233333333333,202.5233333333333,0.0,0.0
2,0.0,0.0,0.0,1.0,1.0,0.0,0.0,1.0,0.0,100.0,1.0,1.1856,26.0,0.0,0.0,0.0,59.999996,0.0,26.0,26.0,26.0,26.0,-0.12877777777777777,0.2895000000000001,-0.00328,293.51800000000003,-2.6053,-2.784666666666667,-1.49515,-1.6049,-268.77,216.28750000000002,190.947125,0.0,0.0,0.0,0.0,0.005599999999999938,-5.498166666666667,-5.498166666666667,-0.5488000000000001,0.12549999999999994,-0.04388888888888909,1.817,65.84100000000001,-0.0687,-0.25335,1.6320000000000014,100.0,1.0,1.0,203.42000000000002,0.0,0.0,0.0,0.0,0.0,0.0,0.0,8622.2,0.0,55.0,5.0,237.0,0.0,0.0,0.0,0.0,0.0,0.0,0.0,0.0,0.10800000000000054,0.10800000000000054,0.0,0.0,0.0,55.0,616.79921,10000.0,85.000001,85.000001,85.000001,85.000001,395.0,0.0,0.0,0.0,1.0,166.665,52.261,52.261,50.018,50.018,34.0,-30.3475,19.775,-29.336666666666666,20.634999999999998,0.0,1783.594,0.7100000000000009,100.0,28.433,27.266,42.593,41.478,0.0,0.0,100.0,0.0,0.0,0.0,0.0,3373.142857142857,2924.3,3769.75,3744.9,304.5605,305.49375,315.60475,315.604,21.7938,20.522100000000002,21.8006,21.3213,314.999998,314.999998,324.999988,324.999988,99.55874285714286,99.50716666666666,99.56611428571429,99.54521428571428,-0.02849999999999997,-0.14900000000000002,-0.21566666666666667,0.008333333333333335,-0.06333333333333258,-0.06499999999999773,1.609,1.6575,37.211,29.262999999999998,37.254000000000005,34.257999999999996,56.192,34.507999999999996,59.3745,51.6415,54.116,33.678,57.99,49.999,53.288,33.239,57.9495,49.423,-0.018999999999999906,-0.13249999999999984,0.104455,0.10584,0.0,206.32,206.17000000000002,203.42000000000002,203.42000000000002,0.0,0.0
3,0.0,0.0,0.0,1.0,1.0,0.0,0.0,1.0,0.0,100.0,1.0,1.1856,26.0,0.0,0.0,0.0,59.999996,0.0,26.0,26.0,26.0,26.0,-0.12988888888888894,0.3045,0.07938,293.365,-2.7279999999999998,-2.691666666666667,-1.51475,-1.5919,-265.41,216.2775,190.927625,0.0,0.0,0.0,0.0,0.0075666666666666105,-5.498166666666667,-5.498166666666667,-0.5113,0.02100000000000002,-0.009111111111111292,-0.10499999999999998,65.993,-0.084,-0.2028,1.1320000000000014,100.0,1.0,1.0,203.57999999999998,0.0,0.0,0.0,0.0,0.0,0.0,0.0,8629.0,0.0,55.0,5.0,237.54333333333335,1.0,0.0,0.0,0.0,0.0,0.0,0.0,0.0,0.15899999999999892,0.15899999999999892,0.0,0.0,1.0,55.0,616.79921,10000.0,85.000001,85.000001,85.000001,85.000001,395.0,0.0,0.0,0.0,1.0,166.665,53.513,53.513,48.05,48.05,34.0,-24.9775,18.916666666666668,-34.50666666666666,24.5475,0.0,1783.542,0.5749999999999993,100.0,28.008,27.029,42.575,41.575,0.0,0.0,100.0,0.0,0.0,0.0,0.0,2826.285714285714,2900.9,4266.625,4258.3,306.2,305.6215,314.38,314.288,21.8036,20.5272,21.8111,21.3302,314.999998,314.999998,324.999988,324.999988,99.55875714285715,99.50718333333333,99.56625714285714,99.54535714285714,-0.009749999999999925,-0.14449999999999996,-0.20466666666666666,0.0095,-0.06666666666666998,-0.06666666666666998,1.4715000000000003,1.5295,37.272,29.295,37.319,34.3135,56.174,34.5505,59.4135,51.704499999999996,54.099999999999994,33.717,58.025999999999996,50.0595,53.271,33.2765,57.983000000000004,49.48233333333333,-0.03400000000000003,-0.12150000000000016,0.10622500000000001,0.10461000000000001,0.0,206.8,206.685,203.57999999999998,203.57999999999998,0.0,0.0
4,0.0,0.0,0.0,1.0,1.0,0.0,0.0,1.0,0.0,100.0,1.0,1.1856,26.0,0.0,0.0,0.0,59.999996,0.0,26.0,26.0,26.0,26.0,-0.14888888888888885,0.29510000000000014,-0.0304,293.61,-2.6578,-2.744111111111111,-1.52655,-1.5993000000000002,-262.24,216.2625,190.909,0.0,0.0,0.0,0.0,0.009399999999999964,-5.498166666666667,-5.498166666666667,-0.5468000000000001,-0.7475,-0.07688888888888856,-0.556,66.13,-0.08420000000000001,-0.23915,1.0899999999999999,100.0,1.0,1.0,204.16333333333333,0.0,0.0,0.0,0.0,0.0,0.0,0.0,8653.8,0.0,55.0,5.0,238.04333333333335,0.0,0.0,0.0,0.0,0.0,0.0,0.0,0.0,0.20700000000000074,0.20700000000000074,0.0,0.0,0.0,55.0,616.79921,10000.0,85.000001,85.000001,85.000001,85.000001,395.0,0.0,0.0,0.0,1.0,166.665,52.933,52.933,48.859,48.859,34.0,-28.5975,20.025,-32.22666666666666,20.8525,0.0,1783.496,0.5700000000000003,100.0,27.906,26.832,42.841,41.480000000000004,0.0,0.0,100.0,0.0,0.0,0.0,0.0,3215.142857142857,2995.0,4035.25,3685.3,305.078,305.339,314.91925,315.66625,21.8127,20.5321,21.8211,21.3385,314.999998,314.999998,324.999988,324.999988,99.55875714285715,99.5072,99.56638571428572,99.54548571428572,-0.01574999999999993,-0.14674999999999994,-0.2095,0.017833333333333333,-0.05833333333333002,-0.06333333333333258,1.5699999999999998,1.612,37.329,29.325499999999998,37.382,34.3655,56.158,34.5895,59.452,51.7595,54.084,33.7535,58.062,50.112,53.254999999999995,33.311,58.0165,49.534,-0.02849999999999997,-0.12550000000000017,0.11394000000000001,0.10383500000000001,0.0,207.16,207.085,204.16333333333333,204.16333333333333,0.0,0.0
5,0.0,0.0,0.0,1.0,1.0,0.0,0.0,1.0,0.0,100.0,1.0,1.1856,26.0,0.0,0.0,0.0,59.999996,0.0,26.0,26.0,26.0,26.0,-0.12288888888888894,0.3098000000000001,-0.00568,293.533,-2.6743,-2.763333333333333,-1.51055,-1.5848,-258.86,216.2425,190.888625,0.0,0.0,0.0,0.0,0.011366666666666525,-5.498166666666667,-5.498166666666667,-0.5357000000000001,0.36449999999999994,-0.08144444444444421,-0.28600000000000003,66.27799999999999,-0.0855,-0.21430000000000002,1.0879999999999992,100.0,1.0,1.0,204.5366666666667,0.0,0.0,0.0,0.0,0.0,0.0,0.0,8669.5,0.0,55.0,5.0,238.57,1.0,0.0,0.0,0.0,0.0,0.0,0.0,0.0,0.2579999999999991,0.2579999999999991,0.0,0.0,1.0,55.0,616.79921,10000.0,85.000001,85.000001,85.000001,85.000001,395.0,0.0,0.0,0.0,1.0,166.665,53.345,53.345,48.874,48.874,34.0,-28.259999999999998,19.093333333333334,-34.019999999999996,22.83,0.0,1783.444,0.18499999999999872,100.0,27.82,26.829,42.561,41.26,0.0,0.0,100.0,0.0,0.0,0.0,0.0,3206.4285714285716,2773.4,4225.375,4057.4,305.19,305.89375,314.60525,314.74275,21.8227,20.5372,21.8315,21.3472,314.999998,314.999998,324.999988,324.999988,99.55875714285715,99.50721666666666,99.56654285714286,99.54561428571428,-0.008999999999999897,-0.13324999999999998,-0.21183333333333335,0.0061666666666666675,-0.04333333333332945,-0.03999999999999915,1.516,1.562,37.391999999999996,29.357,37.447,34.42,56.144,34.6305,59.4915,51.817499999999995,54.071,33.791,58.099000000000004,50.167500000000004,53.241,33.347,58.0505,49.58833333333333,-0.05699999999999994,-0.09350000000000014,0.10320000000000001,0.10832000000000001,0.0,207.65,207.555,204.5366666666667,204.5366666666667,0.0,0.0
6,0.0,0.0,0.0,1.0,1.0,0.0,0.0,1.0,0.0,100.0,1.0,1.1856,26.0,0.0,0.0,0.0,59.999996,0.0,26.0,26.0,26.0,26.0,-0.11244444444444446,0.2874000000000001,0.008620000000000001,293.396,-2.6376,-2.796333333333333,-1.5553,-1.5816000000000001,-255.48,216.2225,190.868,0.0,0.0,0.0,0.0,0.013333333333333308,-5.498166666666667,-5.498166666666667,-0.5308,0.139,-0.06066666666666665,0.9129999999999998,66.424,-0.08020000000000001,-0.21530000000000002,0.6400000000000006,100.0,1.0,1.0,204.99333333333334,0.0,0.0,0.0,0.0,0.0,0.0,0.0,8688.9,0.0,55.0,5.0,239.0966666666667,0.0,0.0,0.0,0.0,0.0,0.0,0.0,0.0,0.30900000000000105,0.30900000000000105,0.0,0.0,0.0,55.0,616.79921,10000.0,85.000001,85.000001,85.000001,85.000001,395.0,0.0,0.0,0.0,1.0,166.665,53.146,53.146,48.629999999999995,48.629999999999995,34.0,-25.82,21.391666666666666,-32.81333333333333,23.9325,0.0,1783.393,0.02500000000000213,100.0,27.897,26.813,42.821,41.53,0.0,0.0,100.0,0.0,0.0,0.0,0.0,3077.142857142857,2955.4,4085.125,4078.4,305.35,305.41275,314.87125,314.76425,21.8325,20.5423,21.8421,21.3562,314.999998,314.999998,324.999988,324.999988,99.55875714285715,99.50723333333333,99.56668571428571,99.54575714285714,0.01750000000000007,-0.11749999999999994,-0.20133333333333334,0.0275,-0.04999999999999716,-0.060000000000002274,1.524,1.5685,37.453,29.389499999999998,37.513,34.476,56.129000000000005,34.671,59.531,51.8795,54.056,33.828,58.135999999999996,50.227000000000004,53.225,33.3825,58.0845,49.64633333333333,-0.0754999999999999,-0.07699999999999996,0.10911000000000001,0.09980000000000001,0.0,208.07999999999998,208.01999999999998,204.99333333333334,204.99333333333334,0.0,0.0
7,0.0,0.0,0.0,1.0,1.0,0.0,0.0,1.0,0.0,100.0,1.0,1.1856,26.0,0.0,0.0,0.0,59.999996,0.0,26.0,26.0,26.0,26.0,-0.061555555555555475,0.29380000000000006,0.010740000000000001,293.259,-2.6172,-2.7474444444444446,-1.5188000000000001,-1.6191,-252.07999999999998,216.1975,190.847625,0.0,0.0,0.0,0.0,0.01529999999999998,-5.498166666666667,-5.498166666666667,-0.5341,0.030000000000000027,-0.04733333333333345,-0.18800000000000017,66.569,-0.06430000000000001,-0.22440000000000002,0.39200000000000035,100.0,1.0,1.0,205.42666666666668,0.0,0.0,0.0,0.0,0.0,0.0,0.0,8707.3,0.0,55.0,5.0,239.62,1.0,0.0,0.0,0.0,0.0,0.0,0.0,0.0,0.35999999999999943,0.35999999999999943,0.0,0.0,1.0,55.0,616.79921,10000.0,85.000001,85.000001,85.000001,85.000001,395.0,0.0,0.0,0.0,1.0,166.665,52.872,52.872,48.828,48.828,34.0,-26.505,21.634999999999998,-30.953333333333333,24.6625,0.0,1783.342,-0.25,100.0,27.843,27.047,42.731,41.894,0.0,0.0,100.0,0.0,0.0,0.0,0.0,3220.857142857143,2921.9,4044.125,4009.2,305.052,305.327,314.9855,314.8025,21.8424,20.5475,21.8526,21.3652,314.999998,314.999998,324.999988,324.999988,99.55877142857143,99.50723333333333,99.56682857142857,99.5459,0.026000000000000245,-0.09975,-0.18266666666666667,0.038,-0.04999999999999716,-0.04833333333333201,1.5390000000000001,1.5625,37.515,29.422,37.579,34.532,56.114000000000004,34.710499999999996,59.57,51.941,54.042,33.8645,58.1725,50.286,53.211,33.417500000000004,58.118,49.704,-0.09099999999999997,-0.05449999999999999,0.10791,0.11013500000000001,0.0,208.515,208.47500000000002,205.42666666666668,205.42666666666668,0.0,0.0
8,0.0,0.0,0.0,1.0,1.0,0.0,0.0,1.0,0.0,100.0,1.0,1.1856,26.0,0.0,0.0,0.0,59.999996,0.0,26.0,26.0,26.0,26.0,-0.03988888888888886,0.27870000000000017,0.024900000000000002,293.457,-2.6952,-2.7238888888888892,-1.49935,-1.5745,-248.69,216.17000000000002,190.827,0.0,0.0,0.0,0.0,0.017299999999999982,-5.498166666666667,-5.498166666666667,-0.5394,-0.6535,-0.03155555555555578,0.625,66.715,-0.044500000000000005,-0.2184,-0.12600000000000033,100.0,1.0,1.0,205.82333333333332,0.0,0.0,0.0,0.0,0.0,0.0,0.0,8724.0,0.0,55.0,5.0,240.14666666666668,0.0,0.0,0.0,0.0,0.0,0.0,0.0,0.0,0.41100000000000136,0.41100000000000136,0.0,0.0,0.0,55.0,616.79921,10000.0,85.000001,85.000001,85.000001,85.000001,395.0,0.0,0.0,0.0,1.0,166.665,53.482,53.482,48.294,48.294,34.0,-23.7525,23.568333333333335,-29.543333333333333,26.935000000000002,0.0,1783.291,-0.375,100.0,27.505,26.802,42.769,41.903,0.0,0.0,100.0,0.0,0.0,0.0,0.0,2971.857142857143,3042.1,4052.375,4104.7,305.836,305.226,314.8715,314.627,21.852,20.5527,21.8632,21.3741,314.999998,314.999998,324.999988,324.999988,99.55877142857143,99.50725,99.56697142857143,99.54604285714285,0.05074999999999985,-0.06474999999999997,-0.1525,0.07766666666666668,-0.041666666666671404,-0.06833333333332803,1.5125000000000002,1.5155,37.575,29.4545,37.644999999999996,34.588499999999996,56.097,34.7485,59.609,52.0015,54.025999999999996,33.8995,58.2085,50.3445,53.194,33.451,58.1515,49.760999999999996,-0.10450000000000004,-0.038000000000000256,0.11448000000000001,0.1077,0.0,208.94,208.95,205.82333333333332,205.82333333333332,0.0,0.0
9,0.0,0.0,0.0,1.0,1.0,0.0,0.0,1.0,0.0,100.0,1.0,1.1856,26.0,0.0,0.0,0.0,59.999996,0.0,26.0,26.0,26.0,26.0,-0.016000000000000014,0.2921,-0.014480000000000002,293.091,-2.6267,-2.7183333333333333,-1.55325,-1.5547,-245.68,216.1475,190.808375,0.0,0.0,0.0,0.0,0.019033333333333347,-5.498166666666667,-5.498166666666667,-0.5416000000000001,0.7135,-0.034555555555555895,-0.3120000000000003,66.84,-0.022600000000000002,-0.216425,-0.17799999999999905,100.0,1.0,1.0,206.3,0.0,0.0,0.0,0.0,0.0,0.0,0.0,8744.3,0.0,55.0,5.0,240.5966666666667,1.0,0.0,0.0,0.0,0.0,0.0,0.0,0.0,0.4559999999999995,0.4559999999999995,0.0,0.0,1.0,55.0,616.79921,10000.0,85.000001,85.000001,85.000001,85.000001,395.0,0.0,0.0,0.0,1.0,166.665,52.338,52.338,49.164,49.164,34.0,-25.805,23.708333333333336,-28.476666666666663,26.3675,0.0,1783.246,-0.4400000000000013,100.0,27.91,27.385,42.351,41.968,0.0,0.0,100.0,0.0,0.0,0.0,0.0,3357.142857142857,3002.7,4037.125,4046.2,304.6535,305.09575,315.1045,314.81475,21.8607,20.5574,21.8724,21.381999999999998,314.999998,314.999998,324.999988,324.999988,99.55878571428572,99.50726666666667,99.5671,99.54617142857143,0.07125000000000004,-0.05874999999999997,-0.12983333333333336,0.08616666666666667,-0.04833333333333201,-0.061666666666667425,1.572,1.571,37.629000000000005,29.484,37.702,34.6375,56.087,34.783500000000004,59.6405,52.054,54.016,33.9315,58.238,50.3945,53.183,33.4815,58.178,49.81033333333333,-0.11650000000000005,-0.040000000000000036,0.10008,0.10371000000000001,0.0,209.345,209.36,206.3,206.3,0.0,0.0
10,0.0,0.0,0.0,1.0,1.0,0.0,0.0,1.0,0.0,100.0,1.0,1.1856,26.0,0.0,0.0,0.0,59.999996,0.0,26.0,26.0,26.0,26.0,0.02155555555555555,0.2856000000000001,0.06042000000000001,292.969,-2.6638,-2.6981111111111113,-1.54055,-1.5318,-242.26999999999998,216.12,190.787625,0.0,0.0,0.0,0.0,0.02103333333333335,-5.498166666666667,-5.498166666666667,-0.5199,-0.6475,0.013666666666666716,1.768,66.987,-0.0013000000000000002,-0.20805,-0.5620000000000003,100.0,1.0,1.0,206.55,0.0,0.0,0.0,0.0,0.0,0.0,0.0,8754.9,0.0,55.0,5.0,241.12333333333333,0.0,0.0,0.0,0.0,0.0,0.0,1.0,0.0,0.5069999999999979,0.5069999999999979,0.0,0.0,0.0,55.0,616.79921,10000.0,85.000001,85.000001,85.000001,85.000001,395.0,0.0,0.0,0.0,1.0,166.665,53.467,53.467,47.607,47.607,34.0,-20.27,24.235,-29.02,31.080000000000002,0.0,1783.195,-0.5500000000000007,100.0,27.783,27.195,42.906,42.66,0.0,0.0,100.0,0.0,0.0,0.0,0.0,2797.285714285714,2991.6,4219.5,4335.4,306.2475,305.37725,314.45925,314.093,21.8704,20.5627,21.883,21.3912,314.999998,314.999998,324.999988,324.999988,99.55878571428572,99.50726666666667,99.56724285714286,99.54631428571429,0.09675000000000011,-0.03125,-0.10066666666666667,0.128,-0.021666666666668277,-0.045000000000001705,1.48,1.4675,37.69,29.517,37.769,34.695,56.074,34.82,59.681,52.1185,54.004000000000005,33.9655,58.2755,50.4565,53.17,33.5145,58.213,49.871,-0.11949999999999994,-0.028999999999999915,0.10880500000000001,0.11170500000000001,0.0,209.765,209.79000000000002,206.55,206.55,0.0,0.0
11,0.0,0.0,0.0,1.0,1.0,0.0,0.0,1.0,0.0,100.0,1.0,1.1856,26.0,0.0,0.0,0.0,59.999996,0.0,26.0,26.0,26.0,26.0,0.055222222222222284,0.27659999999999996,-0.10478,293.503,-2.7103,-2.6802222222222225,-1.59395,-1.5207000000000002,-238.85,216.0925,190.766875,0.0,0.0,0.0,0.0,0.022599999999999953,-5.498166666666667,-5.498166666666667,-0.5621,-0.07099999999999995,0.033666666666666734,-0.7880000000000003,67.125,0.016300000000000002,-0.2364,-0.5999999999999996,100.0,1.0,1.0,207.29000000000002,0.0,0.0,0.0,0.0,0.0,0.0,0.0,8786.3,0.0,55.0,5.0,241.62333333333333,1.0,0.0,0.0,0.0,0.0,0.0,1.0,0.0,0.5579999999999998,0.5579999999999998,0.0,0.0,1.0,55.0,616.79921,10000.0,85.000001,85.000001,85.000001,85.000001,395.0,0.0,0.0,0.0,1.0,166.665,52.795,52.795,49.271,49.271,34.0,-22.4175,25.738333333333333,-24.116666666666664,26.735,0.0,1783.145,-0.620000000000001,100.0,27.49,27.634,42.252,42.616,0.0,0.0,100.0,0.0,0.0,0.0,0.0,3076.5714285714284,3093.9,3722.125,3859.4,305.5835,304.8195,315.849,315.254,21.8799,20.5682,21.8933,21.4001,314.999998,314.999998,324.999988,324.999988,99.5588,99.50726666666667,99.56738571428572,99.54644285714286,0.10775000000000023,-0.021749999999999936,-0.08633333333333333,0.13816666666666666,-0.03833333333332689,-0.05833333333333002,1.637,1.6265,37.748999999999995,29.551000000000002,37.833,34.751,56.06,34.8585,59.714,52.1785,53.989999999999995,34.001,58.3065,50.513999999999996,53.155,33.548,58.2405,49.92766666666667,-0.125,-0.028500000000000192,0.10372500000000001,0.11001500000000002,0.0,210.18,210.23000000000002,207.29000000000002,207.29000000000002,0.0,0.0
12,0.0,0.0,0.0,1.0,1.0,0.0,0.0,1.0,0.0,100.0,1.0,1.1856,26.0,0.0,0.0,0.0,59.999996,0.0,26.0,26.0,26.0,26.0,0.06133333333333324,0.29380000000000006,0.04004,292.831,-2.76,-2.6790000000000003,-1.5577,-1.5266000000000002,-235.62,216.0675,190.746,0.0,0.0,0.0,0.0,0.025466666666666526,-5.498166666666667,-5.498166666666667,-0.5457000000000001,0.2925,0.016111111111110965,-0.8570000000000002,67.262,0.0296,-0.2061,-0.5999999999999996,100.0,1.0,1.0,207.47,0.0,0.0,0.0,0.0,0.0,0.0,0.0,8793.8,0.0,55.0,5.0,242.11333333333334,0.0,0.0,0.0,0.0,0.0,0.0,1.0,0.0,0.6059999999999981,0.6059999999999981,0.0,0.0,0.0,55.0,616.79921,10000.0,85.000001,85.000001,85.000001,85.000001,395.0,0.0,0.0,0.0,1.0,333.33500000000004,52.689,52.689,47.836,47.836,34.0,-23.14,26.308333333333334,-28.099999999999998,30.650000000000002,0.0,1783.095,-0.6699999999999982,100.0,27.424,27.811,42.301,42.638,0.0,0.0,100.0,0.0,0.0,0.0,0.0,3143.142857142857,3105.9,4256.75,4182.9,305.4365,304.80975,314.54825,314.44125,21.8889,20.5733,21.9032,21.4086,314.999998,314.999998,324.999988,324.999988,99.55881428571429,99.50726666666667,99.56751428571428,99.54658571428571,0.11350000000000016,-0.009499999999999953,-0.08033333333333333,0.14916666666666667,-0.04833333333333201,-0.03999999999999915,1.5135,1.514,37.806,29.5835,37.894999999999996,34.804,56.048,34.894,59.7495,52.236000000000004,53.979,34.034,58.3395,50.5695,53.143,33.58,58.271,49.982,-0.127,-0.026000000000000245,0.10638,0.10575000000000001,0.0,210.64,210.67000000000002,207.47,207.47,0.0,0.0
13,0.0,0.0,0.0,1.0,1.0,0.0,0.0,1.0,0.0,100.0,1.0,1.1856,26.0,0.0,0.0,0.0,59.999996,0.0,26.0,26.0,26.0,26.0,0.08077777777777784,0.28100000000000014,0.040580000000000005,292.465,-2.7064,-2.6687777777777777,-1.59335,-1.5070000000000001,-231.99,216.04000000000002,190.723,0.0,0.0,0.0,0.0,0.026999999999999913,-5.498166666666667,-5.498166666666667,-0.5396000000000001,-0.13000000000000012,0.023111111111111082,-0.4660000000000002,67.413,0.037200000000000004,-0.21857500000000002,-0.7860000000000005,100.0,1.0,1.0,207.88666666666666,0.0,0.0,0.0,0.0,0.0,0.0,0.0,8811.5,0.0,55.0,5.0,242.66,1.0,0.0,0.0,0.0,0.0,0.0,1.0,0.0,0.6600000000000001,0.6600000000000001,0.0,0.0,1.0,55.0,616.79921,10000.0,85.000001,85.000001,85.000001,85.000001,395.0,0.0,0.0,0.0,1.0,166.665,52.383,52.383,47.867,47.867,34.0,-21.3125,26.71666666666667,-27.09,31.81,0.0,1783.043,-0.875,100.0,27.723,28.019,42.552,43.204,0.0,0.0,100.0,0.0,0.0,0.0,0.0,3141.285714285714,3099.5,4174.625,4297.0,305.3675,304.81675,314.708,314.1275,21.8991,20.5792,21.9144,21.4184,314.999998,314.999998,324.999988,324.999988,99.55884285714286,99.50728333333333,99.56767142857143,99.54674285714286,0.14475000000000016,0.0035000000000000586,-0.06316666666666666,0.15266666666666667,-0.04833333333333201,-0.05333333333332746,1.5150000000000001,1.4735,37.869,29.619999999999997,37.965,34.865,56.037,34.9345,59.789500000000004,52.304,53.969,34.0715,58.3765,50.635,53.131,33.6155,58.3045,50.04633333333334,-0.14949999999999997,-0.01100000000000012,0.10359000000000002,0.101915,0.0,211.075,211.12,207.88666666666666,207.88666666666666,0.0,0.0
14,0.0,0.0,0.0,1.0,1.0,0.0,0.0,1.0,0.0,100.0,1.0,1.1856,26.0,0.0,0.0,0.0,59.999996,0.0,26.0,26.0,26.0,26.0,0.08955555555555561,0.28080000000000016,-0.01206,292.801,-2.7324,-2.675222222222222,-1.5997,-1.5143,-228.54,216.01749999999998,190.701875,0.0,0.0,0.0,0.0,0.028999999999999915,-5.498166666666667,-5.498166666666667,-0.5489,-0.06150000000000011,0.05433333333333312,1.055,67.55199999999999,0.051000000000000004,-0.227825,-1.0879999999999992,100.0,1.0,1.0,208.40666666666667,0.0,0.0,0.0,0.0,0.0,0.0,0.0,8833.6,0.0,55.0,5.0,243.16,0.0,0.0,0.0,0.0,0.0,0.0,1.0,0.0,0.7109999999999985,0.7109999999999985,0.0,0.0,0.0,55.0,616.79921,10000.0,85.000001,85.000001,85.000001,85.000001,395.0,0.0,0.0,0.0,1.0,166.665,52.612,52.612,48.08,48.08,34.0,-19.1925,29.161666666666665,-24.04,31.9775,0.0,1782.992,-0.9400000000000013,100.0,27.7,27.926000000000002,42.519,43.239000000000004,0.0,0.0,100.0,0.0,0.0,0.0,0.0,2904.285714285714,3240.9,3946.125,4194.6,305.924,304.488,315.2315,314.43875,21.9087,20.5847,21.9249,21.4275,314.999998,314.999998,324.999988,324.999988,99.55885714285715,99.50728333333333,99.56781428571429,99.54688571428571,0.16049999999999986,0.029749999999999943,-0.03933333333333334,0.177,-0.030000000000001137,-0.060000000000002274,1.5710000000000002,1.5195,37.929,29.6545,38.031,34.922,56.027,34.973,59.825,52.367,53.959,34.107,58.4095,50.695499999999996,53.12,33.65,58.3345,50.105333333333334,-0.1479999999999999,-0.006000000000000227,0.09750500000000001,0.10923000000000001,0.0,211.47500000000002,211.585,208.40666666666667,208.40666666666667,0.0,0.0
15,0.0,0.0,0.0,1.0,1.0,0.0,0.0,1.0,0.0,100.0,1.0,1.1856,26.0,0.0,0.0,0.0,59.999996,0.0,26.0,26.0,26.0,26.0,0.12411111111111106,0.27770000000000006,-0.059160000000000004,292.801,-2.7475,-2.5694444444444446,-1.6294,-1.4524000000000001,-225.5,216.0,190.68275,0.0,0.0,0.0,0.0,0.03076666666666661,-5.498166666666667,-5.498166666666667,-0.5389,0.22150000000000003,0.0822222222222222,-0.41000000000000014,67.676,0.06520000000000001,-0.209425,-1.1639999999999997,100.0,1.0,1.0,208.76333333333332,0.0,0.0,0.0,0.0,0.0,0.0,0.0,8848.6,0.0,55.0,5.0,243.60333333333335,1.0,0.0,0.0,0.0,0.0,0.0,1.0,0.0,0.7560000000000002,0.7560000000000002,0.0,0.0,1.0,55.0,616.79921,10000.0,85.000001,85.000001,85.000001,85.000001,395.0,0.0,0.0,0.0,1.0,166.665,52.841,52.841,48.111,48.111,34.0,-18.875,27.348333333333333,-24.566666666666663,33.1225,0.0,1782.945,-0.9649999999999999,100.0,27.547,28.094,42.22,43.425,0.0,0.0,100.0,0.0,0.0,0.0,0.0,2866.285714285714,3139.8,3977.75,4343.1,306.206,304.708,315.2095,314.06425,21.9171,20.5896,21.9341,21.4356,314.999998,314.999998,324.999988,324.999988,99.55887142857142,99.50728333333333,99.56794285714285,99.54701428571428,0.16025,0.030999999999999917,-0.03666666666666667,0.18783333333333335,-0.041666666666671404,-0.03333333333333144,1.5460000000000003,1.504,37.982,29.685000000000002,38.088,34.9725,56.019,35.007,59.8555,52.4225,53.95,34.1385,58.4375,50.749,53.111,33.6805,58.3595,50.15833333333333,-0.15549999999999997,-0.0009999999999998899,0.104135,0.10876500000000001,0.0,211.89,211.965,208.76333333333332,208.76333333333332,0.0,0.0
16,0.0,0.0,0.0,1.0,1.0,0.0,0.0,1.0,0.0,100.0,1.0,1.1856,26.0,0.0,0.0,0.0,59.999996,0.0,26.0,26.0,26.0,26.0,0.12144444444444447,0.26290000000000013,-0.012020000000000001,292.816,-2.8025,-2.584111111111111,-1.59945,-1.5147000000000002,-222.05,215.98250000000002,190.660625,0.0,0.0,0.0,0.0,0.03276666666666661,-5.498166666666667,-5.498166666666667,-0.5634,-0.7035,0.06822222222222218,0.051000000000000156,67.816,0.0779,-0.2272,-1.2359999999999998,100.0,1.0,1.0,209.21333333333334,0.0,0.0,0.0,0.0,0.0,0.0,0.0,8867.8,0.0,55.0,5.0,244.11,0.0,0.0,0.0,0.0,0.0,0.0,1.0,0.0,0.8069999999999986,0.8069999999999986,0.0,0.0,0.0,55.0,616.79921,10000.0,85.000001,85.000001,85.000001,85.000001,395.0,0.0,0.0,0.0,1.0,333.33500000000004,52.582,52.582,47.974000000000004,47.974000000000004,34.0,-19.62,29.761666666666667,-22.826666666666668,33.254999999999995,0.0,1782.894,-0.884999999999998,100.0,27.369,28.012,42.514,43.405,0.0,0.0,100.0,0.0,0.0,0.0,0.0,2990.857142857143,3341.4,3903.5,4136.1,305.8615,304.31875,315.3085,314.5755,21.9263,20.5952,21.9446,21.4447,314.999998,314.999998,324.999988,324.999988,99.55888571428571,99.5073,99.56808571428571,99.54717142857143,0.17649999999999988,0.04299999999999993,-0.0195,0.21333333333333335,-0.03833333333332689,-0.04833333333333201,1.56,1.521,38.039,29.72,38.153999999999996,35.0295,56.006,35.047,59.8925,52.485,53.938,34.1755,58.472,50.8095,53.097,33.7155,58.391,50.217333333333336,-0.14749999999999996,-0.012500000000000178,0.10893000000000001,0.10933500000000002,0.0,212.275,212.37,209.21333333333334,209.21333333333334,0.0,0.0
17,0.0,0.0,0.0,1.0,1.0,0.0,0.0,1.0,0.0,100.0,1.0,1.1856,26.0,0.0,0.0,0.0,59.999996,0.0,26.0,26.0,26.0,26.0,0.1136666666666668,0.28859999999999997,0.030520000000000002,292.374,-2.7651,-2.5621111111111112,-1.64205,-1.4754,-218.57999999999998,215.9675,190.638,0.0,0.0,0.0,0.0,0.03479999999999994,-5.498166666666667,-5.498166666666667,-0.5478000000000001,0.473,0.05044444444444429,-0.5420000000000003,67.955,0.082,-0.20505,-1.096,100.0,1.0,1.0,209.56,0.0,0.0,0.0,0.0,0.0,0.0,0.0,8882.5,0.0,55.0,5.0,244.60666666666668,1.0,0.0,0.0,0.0,0.0,0.0,1.0,0.0,0.8580000000000005,0.8580000000000005,0.0,0.0,1.0,55.0,616.79921,10000.0,85.000001,85.000001,85.000001,85.000001,395.0,0.0,0.0,0.0,1.0,333.33500000000004,52.383,52.383,47.638,47.638,34.0,-20.2425,27.403333333333332,-26.82,33.525000000000006,0.0,1782.842,-0.9749999999999979,100.0,27.692,28.424,42.272,43.485,0.0,0.0,100.0,0.0,0.0,0.0,0.0,3110.0,3101.8,4313.375,4315.3,305.5475,304.87425,314.49,314.18525,21.9358,20.6009,21.955,21.4538,314.999998,314.999998,324.999988,324.999988,99.55891428571428,99.5073,99.56822857142858,99.54731428571428,0.17425000000000024,0.04475000000000007,-0.029500000000000002,0.19416666666666665,-0.041666666666671404,-0.051666666666669414,1.5394999999999999,1.491,38.099000000000004,29.756,38.219,35.086,55.997,35.0905,59.93,52.5515,53.93,34.216,58.5065,50.8735,53.088,33.7545,58.422,50.28033333333333,-0.15549999999999997,-0.0015000000000000568,0.1097,0.10039500000000001,0.0,212.755,212.85000000000002,209.56,209.56,0.0,0.0
18,0.0,0.0,0.0,1.0,1.0,0.0,0.0,1.0,0.0,100.0,1.0,1.1856,26.0,0.0,0.0,0.0,59.999996,0.0,26.0,26.0,26.0,26.0,0.13777777777777778,0.2803,-0.012740000000000001,292.404,-2.801,-2.5331111111111113,-1.6607,-1.4180000000000001,-215.32,215.95749999999998,190.617,0.0,0.0,0.0,0.0,0.036699999999999955,-5.498166666666667,-5.498166666666667,-0.561,-0.5310000000000001,0.07499999999999996,-0.18800000000000017,68.084,0.0839,-0.224525,-1.2759999999999998,100.0,1.0,1.0,210.00333333333333,0.0,0.0,0.0,0.0,0.0,0.0,0.0,8901.3,0.0,55.0,5.0,245.07666666666665,0.0,0.0,0.0,0.0,0.0,0.0,1.0,0.0,0.9059999999999988,0.9059999999999988,0.0,0.0,0.0,55.0,616.79921,10000.0,85.000001,85.000001,85.000001,85.000001,395.0,0.0,0.0,0.0,1.0,166.665,52.231,52.231,47.623,47.623,34.0,-19.8175,29.88,-24.866666666666664,32.207499999999996,0.0,1782.796,-1.2049999999999983,100.0,27.458,28.328,42.56,43.867000000000004,0.0,0.0,100.0,0.0,0.0,0.0,0.0,3100.4285714285716,3312.8,4050.5,4207.7,305.6315,304.25625,315.06225,314.42175,21.9446,20.6062,21.9649,21.4625,314.999998,314.999998,324.999988,324.999988,99.55892857142857,99.50731666666667,99.56835714285714,99.54745714285714,0.1884999999999999,0.05899999999999994,-0.02383333333333333,0.20383333333333334,-0.054999999999999716,-0.05666666666667197,1.5445000000000002,1.5055,38.153999999999996,29.789,38.281,35.1405,55.989000000000004,35.1265,59.9625,52.608000000000004,53.922,34.249,58.536500000000004,50.928,53.079,33.786500000000004,58.4495,50.334,-0.17399999999999993,0.01550000000000007,0.103785,0.10987500000000001,0.0,213.135,213.21,210.00333333333333,210.00333333333333,0.0,0.0
19,0.0,0.0,0.0,1.0,1.0,0.0,0.0,1.0,0.0,100.0,1.0,1.1856,26.0,0.0,0.0,0.0,59.999996,0.0,26.0,26.0,26.0,26.0,0.15388888888888896,0.29300000000000015,0.051300000000000005,291.901,-2.717,-2.637888888888889,-1.67475,-1.4025,-211.84,215.95,190.594375,0.0,0.0,0.0,0.0,0.03869999999999996,-5.498166666666667,-5.498166666666667,-0.5488000000000001,0.871,0.08722222222222209,0.8780000000000001,68.22200000000001,0.09480000000000001,-0.21052500000000002,-1.7139999999999995,100.0,1.0,1.0,210.38333333333333,0.0,0.0,0.0,0.0,0.0,0.0,0.0,8917.4,0.0,55.0,5.0,245.57,1.0,0.0,0.0,0.0,0.0,0.0,1.0,0.0,0.9570000000000007,0.9570000000000007,0.0,0.0,1.0,55.0,616.79921,10000.0,85.000001,85.000001,85.000001,85.000001,395.0,0.0,0.0,0.0,1.0,166.665,51.697,51.697,47.379,47.379,34.0,-17.072499999999998,32.361666666666665,-24.46,36.44,0.0,1782.745,-1.5150000000000006,100.0,28.103,28.711,42.375,43.807,0.0,0.0,100.0,0.0,0.0,0.0,0.0,2979.5714285714284,3355.7,4178.875,4518.9,305.639,304.01975,314.749,313.7875,21.9541,20.612099999999998,21.9753,21.4717,314.999998,314.999998,324.999988,324.999988,99.55895714285714,99.50731666666667,99.5685,99.5476,0.22100000000000009,0.08000000000000007,0.006333333333333333,0.23233333333333334,-0.045000000000001705,-0.04833333333333201,1.5354999999999999,1.4715,38.213,29.825499999999998,38.346000000000004,35.198,55.983000000000004,35.171,59.996,52.672,53.916,34.2905,58.567499999999995,50.9895,53.072,33.826499999999996,58.477000000000004,50.394333333333336,-0.19399999999999995,0.03149999999999986,0.10938500000000001,0.11073000000000001,0.0,213.57,213.685,210.38333333333333,210.38333333333333,0.0,0.0
20,0.0,0.0,0.0,1.0,1.0,0.0,0.0,1.0,0.0,100.0,1.0,1.1856,26.0,0.0,0.0,0.0,59.999996,0.0,26.0,26.0,26.0,26.0,0.1775555555555557,0.2679,-0.05276,292.374,-2.831,-2.576777777777778,-1.6047,-1.5181,-208.36,215.945,190.572,0.0,0.0,0.0,0.0,0.0407333333333334,-5.498166666666667,-5.498166666666667,-0.5572,-1.1735000000000002,0.08977777777777773,-0.9050000000000002,68.361,0.11220000000000001,-0.225575,-1.604,100.0,1.0,1.0,210.73333333333335,0.0,0.0,0.0,0.0,0.0,0.0,0.0,8932.3,0.0,55.0,5.0,246.07,0.0,0.0,0.0,0.0,0.0,0.0,0.0,0.0,1.0079999999999991,1.0079999999999991,0.0,0.0,0.0,55.0,616.79921,10000.0,85.000001,85.000001,85.000001,85.000001,395.0,0.0,0.0,0.0,1.0,166.665,52.78,52.78,47.043,47.043,34.0,-19.165,27.823333333333334,-22.35333333333333,36.417500000000004,0.0,1782.693,-0.504999999999999,100.0,27.334,28.514,42.753,44.368,0.0,0.0,100.0,0.0,0.0,0.0,0.0,2857.714285714286,3171.6,4107.5,4259.5,306.333,304.622,314.836,314.16425,21.9631,20.6177,21.9859,21.481,314.999998,314.999998,324.999988,324.999988,99.55898571428571,99.50731666666667,99.56864285714286,99.54775714285714,0.16700000000000026,0.03275000000000006,0.0205,0.24033333333333334,-0.04333333333332945,-0.041666666666671404,1.5220000000000002,1.456,38.269999999999996,29.861,38.412,35.2565,55.972,35.2125,60.0345,52.7375,53.905,34.329,58.6035,51.053,53.059,33.863,58.51,50.45666666666666,-0.12650000000000006,-0.028999999999999915,0.10256000000000001,0.10546000000000001,0.0,213.95499999999998,214.055,210.73333333333335,210.73333333333335,0.0,0.0
21,0.0,0.0,0.0,1.0,1.0,0.0,0.0,1.0,0.0,100.0,1.0,1.1856,26.0,0.0,0.0,0.0,59.999996,0.0,26.0,26.0,26.0,26.0,0.12966666666666682,0.27760000000000007,-0.05438,292.633,-2.7826,-2.641111111111111,-1.6546,-1.4923000000000002,-205.07999999999998,215.9475,190.55025,0.0,0.0,0.0,0.0,0.0426333333333333,-5.498166666666667,-5.498166666666667,-0.5781000000000001,0.579,0.05722222222222206,-1.367,68.485,0.1119,-0.222775,-0.702,100.0,1.0,1.0,211.34333333333333,0.0,0.0,0.0,0.0,0.0,0.0,0.0,8958.1,0.0,55.0,5.0,246.51666666666665,1.0,0.0,0.0,0.0,0.0,0.0,0.0,0.0,1.056000000000001,1.056000000000001,0.0,0.0,1.0,55.0,616.79921,10000.0,85.000001,85.000001,85.000001,85.000001,395.0,0.0,0.0,0.0,1.0,166.665,52.261,52.261,48.203,48.203,34.0,-22.495,26.665,-23.009999999999998,32.175,0.0,1782.646,0.25,100.0,27.665,28.618000000000002,42.185,43.835,0.0,0.0,100.0,0.0,0.0,0.0,0.0,3089.857142857143,3134.2,4023.375,4024.3,305.622,304.6605,315.204,314.9145,21.971899999999998,20.6232,21.9955,21.4895,314.999998,314.999998,324.999988,324.999988,99.559,99.50733333333334,99.56878571428571,99.54788571428571,0.12300000000000022,-0.0024999999999999467,0.0006666666666666666,0.22516666666666665,-0.05333333333332746,-0.046666666666666856,1.6135000000000002,1.5685,38.325,29.895,38.472,35.3095,55.962,35.251,60.064,52.794,53.894999999999996,34.3645,58.6305,51.107,53.049,33.8975,58.534,50.51,-0.05549999999999988,-0.09450000000000003,0.10635000000000001,0.10768000000000001,0.0,214.42000000000002,214.45,211.34333333333333,211.34333333333333,0.0,0.0
22,0.0,0.0,0.0,1.0,1.0,0.0,0.0,1.0,0.0,100.0,1.0,1.1856,26.0,0.0,0.0,0.0,59.999996,0.0,26.0,26.0,26.0,26.0,0.06311111111111112,0.26090000000000013,-0.00508,292.099,-2.6943,-2.666555555555556,-1.63565,-1.5004000000000002,-201.57999999999998,215.95,190.526375,0.0,0.0,0.0,0.0,0.04466666666666652,-5.498166666666667,-5.498166666666667,-0.5562,0.008499999999999952,0.049222222222222056,0.7079999999999997,68.623,0.0738,-0.20555,0.3380000000000001,100.0,1.0,1.0,211.56,0.0,0.0,0.0,0.0,0.0,0.0,0.0,8967.2,0.0,55.0,5.0,247.01666666666665,0.0,0.0,0.0,0.0,0.0,0.0,0.0,0.0,1.1069999999999993,1.1069999999999993,0.0,0.0,0.0,55.0,616.79921,10000.0,85.000001,85.000001,85.000001,85.000001,395.0,0.0,0.0,0.0,1.0,166.665,52.414,52.414,47.028,47.028,34.0,-21.044999999999998,25.145,-27.286666666666665,34.225,0.0,1782.595,0.6799999999999997,100.0,28.041,28.405,42.987,43.926,0.0,0.0,100.0,0.0,0.0,0.0,0.0,2852.5714285714284,3167.4,4197.75,4394.3,306.042,304.73025,314.63575,314.05525,21.9813,20.6289,22.0061,21.4988,314.999998,314.999998,324.999988,324.999988,99.55901428571428,99.50733333333334,99.56892857142857,99.54805714285715,0.09850000000000003,-0.046499999999999986,-0.048,0.18633333333333335,-0.04333333333332945,-0.041666666666671404,1.4805000000000001,1.4785,38.382999999999996,29.930500000000002,38.538,35.3675,55.949,35.2905,60.1025,52.858000000000004,53.882999999999996,34.400999999999996,58.666,51.169,53.035,33.9325,58.5665,50.57066666666667,-0.024499999999999966,-0.13450000000000006,0.10839000000000001,0.12107500000000002,0.0,214.88,214.835,211.56,211.56,0.0,0.0
23,0.0,0.0,0.0,1.0,1.0,0.0,0.0,1.0,0.0,100.0,1.0,1.1856,26.0,0.0,0.0,0.0,59.999996,0.0,26.0,26.0,26.0,26.0,-0.0010000000000000009,0.24239999999999995,-0.043460000000000006,292.13,-2.6963,-2.644333333333333,-1.6595,-1.5908,-198.07999999999998,215.95499999999998,190.503,0.0,0.0,0.0,0.0,0.046699999999999964,-5.498166666666667,-5.498166666666667,-0.5758,-0.12149999999999994,0.012444444444444258,-1.2320000000000002,68.757,0.0212,-0.23192500000000002,1.056000000000001,100.0,1.0,1.0,212.10666666666668,0.0,0.0,0.0,0.0,0.0,0.0,0.0,8990.4,0.0,55.0,5.0,247.49666666666667,1.0,0.0,0.0,0.0,0.0,0.0,0.0,0.0,1.1580000000000013,1.1580000000000013,0.0,0.0,1.0,55.0,616.79921,10000.0,85.000001,85.000001,85.000001,85.000001,395.0,0.0,0.0,0.0,1.0,333.33500000000004,51.682,51.682,48.157,48.157,34.0,-26.875,22.561666666666667,-29.466666666666665,26.5975,0.0,1782.542,0.75,100.0,28.389,28.481,43.239000000000004,43.985,0.0,0.0,100.0,0.0,0.0,0.0,0.0,3313.5714285714284,3068.8,4016.625,3909.5,304.8575,304.91975,315.23525,315.085,21.9908,20.6346,22.0167,21.508,314.999998,314.999998,324.999988,324.999988,99.55901428571428,99.50735,99.56907142857143,99.5482,0.05425000000000013,-0.08550000000000002,-0.1215,0.0995,-0.05333333333332746,-0.041666666666671404,1.524,1.5675,38.442,29.966,38.604,35.425,55.936,35.3315,60.1385,52.9195,53.870000000000005,34.439,58.6995,51.2285,53.021,33.969,58.5965,50.62866666666667,-0.020000000000000018,-0.14349999999999996,0.105075,0.10346000000000001,0.0,215.3,215.21,212.10666666666668,212.10666666666668,0.0,0.0
24,0.0,0.0,0.0,1.0,1.0,0.0,0.0,1.0,0.0,100.0,1.0,1.1856,26.0,0.0,0.0,0.0,59.999996,0.0,26.0,26.0,26.0,26.0,-0.06877777777777783,0.2743,0.00076,292.358,-2.6953,-2.679777777777778,-1.55955,-1.5514000000000001,-194.76999999999998,215.95749999999998,190.480375,0.0,0.0,0.0,0.0,0.048633333333333306,-5.498166666666667,-5.498166666666667,-0.5801000000000001,-0.5840000000000001,0.00022222222222212373,-0.26800000000000024,68.885,-0.019,-0.216375,1.1500000000000004,100.0,1.0,1.0,212.37333333333333,0.0,0.0,0.0,0.0,0.0,0.0,0.0,9001.7,0.0,55.0,5.0,247.96,0.0,0.0,0.0,0.0,0.0,0.0,0.0,0.0,1.2059999999999995,1.2059999999999995,0.0,0.0,0.0,55.0,616.79921,10000.0,85.000001,85.000001,85.000001,85.000001,395.0,0.0,0.0,0.0,1.0,166.665,52.872,52.872,47.058,47.058,34.0,-25.285,19.686666666666667,-33.2,26.2875,0.0,1782.495,0.7349999999999994,100.0,28.19,28.034,43.524,43.625,0.0,0.0,100.0,0.0,0.0,0.0,0.0,2999.285714285714,2891.2,4355.125,4081.9,305.8275,305.58425,314.2995,314.757,21.9996,20.6396,22.0266,21.5165,314.999998,314.999998,324.999988,324.999988,99.55902857142857,99.50735,99.56921428571428,99.54832857142857,0.01949999999999985,-0.12449999999999994,-0.15516666666666665,0.07466666666666667,-0.05666666666667197,-0.046666666666666856,1.5015,1.52,38.498000000000005,29.997500000000002,38.666,35.4785,55.921,35.3685,60.1745,52.975,53.855000000000004,34.473,58.7335,51.282,53.006,34.001999999999995,58.626999999999995,50.681333333333335,-0.016000000000000014,-0.14150000000000018,0.11082000000000002,0.11158000000000001,0.0,215.70499999999998,215.60000000000002,212.37333333333333,212.37333333333333,0.0,0.0
25,0.0,0.0,0.0,1.0,1.0,0.0,0.0,1.0,0.0,100.0,1.0,1.1856,26.0,0.0,0.0,0.0,59.999996,0.0,26.0,26.0,26.0,26.0,-0.10744444444444445,0.2694000000000001,-0.06204,292.175,-2.7340999999999998,-2.6643333333333334,-1.5547,-1.5739,-191.26,215.9625,190.455,0.0,0.0,0.0,0.0,0.05066666666666653,-5.498166666666667,-5.498166666666667,-0.6132000000000001,0.08750000000000002,-0.01722222222222225,-0.5150000000000001,69.017,-0.0546,-0.22592500000000001,1.266,100.0,1.0,1.0,212.94666666666666,0.0,0.0,0.0,0.0,0.0,0.0,0.0,9026.0,0.0,55.0,5.0,248.43333333333334,1.0,0.0,0.0,0.0,0.0,0.0,0.0,0.0,1.256999999999998,1.256999999999998,0.0,0.0,1.0,55.0,616.79921,10000.0,85.000001,85.000001,85.000001,85.000001,395.0,0.0,0.0,0.0,1.0,333.33500000000004,51.605,51.605,47.897,47.897,34.0,-29.362499999999997,22.531666666666666,-30.553333333333335,24.7275,0.0,1782.444,0.6449999999999996,100.0,28.479,28.065,43.474000000000004,43.107,0.0,0.0,100.0,0.0,0.0,0.0,0.0,3322.0,3285.9,3990.0,3973.3,304.8255,304.4775,315.19025,315.0525,22.0091,20.6452,22.037,21.5255,314.999998,314.999998,324.999988,324.999988,99.55904285714286,99.50736666666667,99.56935714285714,99.54847142857143,0.009749999999999925,-0.12524999999999997,-0.17566666666666667,0.06016666666666667,-0.03999999999999915,-0.05666666666667197,1.5500000000000003,1.589,38.557,30.0325,38.730999999999995,35.5345,55.903999999999996,35.411500000000004,60.209,53.032,53.839,34.513,58.7655,51.3365,52.989000000000004,34.04,58.6565,50.73466666666667,-0.02949999999999986,-0.13500000000000023,0.107535,0.111935,0.0,216.10500000000002,216.0,212.94666666666666,212.94666666666666,0.0,0.0
26,0.0,0.0,0.0,1.0,1.0,0.0,0.0,1.0,0.0,100.0,1.0,1.1856,26.0,0.0,0.0,0.0,59.999996,0.0,26.0,26.0,26.0,26.0,-0.13177777777777777,0.27670000000000017,0.10362,291.031,-2.6566,-2.771777777777778,-1.58145,-1.5922,-187.53,215.9625,190.42775,0.0,0.0,0.0,0.0,0.0528333333333334,-5.498166666666667,-5.498166666666667,-0.5675,0.4635,-0.059555555555555806,0.492,69.162,-0.0776,-0.19687500000000002,1.1219999999999999,100.0,1.0,1.0,213.06666666666666,0.0,0.0,0.0,0.0,0.0,0.0,0.0,9031.1,0.0,55.0,5.0,248.95333333333335,0.0,0.0,0.0,0.0,0.0,0.0,0.0,0.0,1.311,1.311,0.0,0.0,0.0,55.0,616.79921,10000.0,85.000001,85.000001,85.000001,85.000001,395.0,0.0,0.0,0.0,1.0,166.665,51.575,51.575,45.868,45.868,34.0,-27.427500000000002,20.653333333333336,-38.99666666666667,28.14,0.0,1782.391,0.4250000000000007,100.0,29.444,28.392,44.433,43.386,0.0,0.0,100.0,0.0,0.0,0.0,0.0,3164.5714285714284,3003.2,4682.0,4545.0,305.0775,305.293,313.52175,313.71975,22.0194,20.6512,22.0484,21.5353,314.999998,314.999998,324.999988,324.999988,99.55904285714286,99.5074,99.56952857142858,99.54862857142857,0.007750000000000146,-0.14100000000000001,-0.18866666666666665,0.030333333333333334,-0.02833333333332888,-0.041666666666671404,1.4184999999999999,1.451,38.620999999999995,30.07,38.803,35.5955,55.89,35.459,60.254,53.097,53.827,34.557,58.8075,51.399,52.976,34.082,58.695,50.79566666666666,-0.04499999999999993,-0.12250000000000005,0.10223,0.10834,0.0,216.585,216.47,213.06666666666666,213.06666666666666,0.0,0.0
27,0.0,0.0,0.0,1.0,1.0,0.0,0.0,1.0,0.0,100.0,1.0,1.1856,26.0,0.0,0.0,0.0,59.999996,0.0,26.0,26.0,26.0,26.0,-0.11399999999999999,0.25039999999999996,-0.059960000000000006,291.733,-2.6146,-2.747,-1.5652,-1.6668,-184.2,215.95749999999998,190.40475,0.0,0.0,0.0,0.0,0.05476666666666652,-5.498166666666667,-5.498166666666667,-0.6027,-0.9745000000000001,-0.06388888888888866,0.6989999999999998,69.28399999999999,-0.0848,-0.246925,0.9620000000000006,100.0,1.0,1.0,213.66333333333333,0.0,0.0,0.0,0.0,0.0,0.0,0.0,9056.3,0.0,55.0,5.0,249.39666666666665,1.0,0.0,0.0,0.0,0.0,0.0,0.0,0.0,1.3589999999999982,1.3589999999999982,0.0,0.0,1.0,55.0,616.79921,10000.0,85.000001,85.000001,85.000001,85.000001,395.0,0.0,0.0,0.0,1.0,166.665,51.743,51.743,46.921,46.921,34.0,-27.36,21.308333333333334,-32.21333333333334,24.5175,0.0,1782.344,0.3249999999999993,100.0,29.143,28.112000000000002,44.94,43.69,0.0,0.0,100.0,0.0,0.0,0.0,0.0,3207.285714285714,3094.2,3999.75,3955.3,305.1155,305.0425,315.03975,315.054,22.0284,20.6563,22.0585,21.544,314.999998,314.999998,324.999988,324.999988,99.55904285714286,99.5074,99.56965714285714,99.54877142857143,0.005250000000000199,-0.137,-0.1975,0.03,-0.026666666666670835,-0.05833333333333002,1.5125000000000002,1.5535,38.678,30.102,38.866,35.65,55.875,35.499,60.2915,53.1535,53.812,34.5935,58.843,51.453,52.961,34.117,58.7275,50.848,-0.05800000000000005,-0.10749999999999993,0.10217000000000001,0.11109500000000001,0.0,216.905,216.825,213.66333333333333,213.66333333333333,0.0,0.0
28,0.0,0.0,0.0,1.0,1.0,0.0,0.0,1.0,0.0,100.0,1.0,1.1856,26.0,0.0,0.0,0.0,59.999996,0.0,26.0,26.0,26.0,26.0,-0.11944444444444446,0.2662,-0.04582,291.84,-2.6407,-2.727555555555556,-1.5155,-1.6235000000000002,-180.87,215.9525,190.38075,0.0,0.0,0.0,0.0,0.05669999999999997,-5.498166666666667,-5.498166666666667,-0.5987,0.6885,-0.0644444444444443,0.8439999999999999,69.407,-0.0858,-0.21295,0.8279999999999994,100.0,1.0,1.0,214.06333333333333,0.0,0.0,0.0,0.0,0.0,0.0,0.0,9073.3,0.0,55.0,5.0,249.83666666666664,0.0,0.0,0.0,0.0,0.0,0.0,0.0,0.0,1.407,1.407,0.0,0.0,0.0,55.0,616.79921,10000.0,85.000001,85.000001,85.000001,85.000001,395.0,0.0,0.0,0.0,1.0,166.665,51.834,51.834,47.394,47.394,34.0,-27.195,21.03,-32.71666666666667,25.235,0.0,1782.295,0.125,100.0,29.218,28.022,44.255,43.163,0.0,0.0,100.0,0.0,0.0,0.0,0.0,3186.142857142857,3034.7,4158.875,4126.7,305.018,305.21675,314.83125,314.71,22.0375,20.6615,22.0683,21.5525,314.999998,314.999998,324.999988,324.999988,99.55904285714286,99.50741666666667,99.56981428571429,99.54891428571429,0.015000000000000124,-0.12824999999999998,-0.197,0.03183333333333333,-0.06499999999999773,-0.04833333333333201,1.532,1.5505,38.733999999999995,30.1345,38.927,35.703,55.861999999999995,35.539500000000004,60.324,53.2065,53.8,34.631,58.8735,51.504,52.948,34.1525,58.754999999999995,50.897666666666666,-0.07450000000000001,-0.09399999999999986,0.10602500000000001,0.11509000000000001,0.0,217.345,217.25,214.06333333333333,214.06333333333333,0.0,0.0
29,0.0,0.0,0.0,1.0,1.0,0.0,0.0,1.0,0.0,100.0,1.0,1.1856,26.0,0.0,0.0,0.0,59.999996,0.0,26.0,26.0,26.0,26.0,-0.0925555555555555,0.25229999999999997,-0.01362,291.641,-2.5925,-2.7796666666666665,-1.5542500000000001,-1.5992000000000002,-177.12,215.945,190.35275,0.0,0.0,0.0,0.0,0.05889999999999995,-5.498166666666667,-5.498166666666667,-0.6099,-0.7030000000000001,-0.06011111111111145,0.79,69.548,-0.0733,-0.221425,0.4720000000000004,100.0,1.0,1.0,214.37666666666667,0.0,0.0,0.0,0.0,0.0,0.0,0.0,9086.6,0.0,55.0,5.0,250.35000000000002,1.0,0.0,0.0,0.0,0.0,0.0,0.0,0.0,1.4609999999999985,1.4609999999999985,0.0,0.0,1.0,55.0,616.79921,10000.0,85.000001,85.000001,85.000001,85.000001,395.0,0.0,0.0,0.0,1.0,166.665,51.834,51.834,46.906,46.906,34.0,-26.8525,22.288333333333334,-32.4,26.6525,0.0,1782.242,0.08000000000000185,100.0,28.911,27.943,44.643,43.483000000000004,0.0,0.0,100.0,0.0,0.0,0.0,0.0,3241.142857142857,3073.2,4147.5,4183.8,304.964,305.058,314.7205,314.53625,22.0474,20.6673,22.0796,21.5623,314.999998,314.999998,324.999988,324.999988,99.55904285714286,99.50743333333334,99.56997142857144,99.54907142857142,0.021500000000000075,-0.11824999999999997,-0.17366666666666666,0.051833333333333335,-0.03166666666666629,-0.04999999999999716,1.4845000000000002,1.492,38.796,30.1705,38.998000000000005,35.7645,55.845,35.583,60.367,53.2705,53.784,34.671,58.9135,51.5655,52.93,34.191,58.7915,50.95766666666667,-0.07650000000000001,-0.08599999999999985,0.09736500000000001,0.11275500000000001,0.0,217.72,217.66,214.37666666666667,214.37666666666667,0.0,0.0
30,0.0,0.0,0.0,1.0,1.0,0.0,0.0,1.0,0.0,100.0,1.0,1.1856,26.0,0.0,0.0,0.0,59.999996,0.0,26.0,26.0,26.0,26.0,-0.0758888888888889,0.25690000000000013,0.04292,291.092,-2.6153,-2.7622222222222224,-1.5023,-1.6531,-173.78,215.935,190.32775,0.0,0.0,0.0,0.0,0.060833333333333295,-5.498166666666667,-5.498166666666667,-0.5981000000000001,0.8535,-0.053999999999999826,1.15,69.67,-0.06470000000000001,-0.21100000000000002,0.4900000000000002,100.0,1.0,1.0,214.79333333333335,0.0,0.0,0.0,0.0,0.0,0.0,0.0,9104.4,0.0,55.0,5.0,250.78666666666666,0.0,0.0,0.0,0.0,0.0,0.0,1.0,0.0,1.5090000000000003,1.5090000000000003,0.0,0.0,0.0,55.0,616.79921,10000.0,85.000001,85.000001,85.000001,85.000001,395.0,0.0,0.0,0.0,1.0,166.665,50.827,50.827,46.829,46.829,34.0,-26.8675,23.75,-32.28666666666666,27.8075,0.0,1782.194,-0.05999999999999872,100.0,29.761,28.636,44.486000000000004,43.545,0.0,0.0,100.0,0.0,0.0,0.0,0.0,3332.142857142857,3192.6,4242.0,4182.7,304.589,304.8475,314.55925,314.51475,22.0566,20.6727,22.0895,21.5709,314.999998,314.999998,324.999988,324.999988,99.55905714285714,99.50745,99.5701,99.5492,0.04800000000000004,-0.10024999999999995,-0.16916666666666666,0.058833333333333335,-0.04999999999999716,-0.04833333333333201,1.472,1.495,38.854,30.2045,39.059,35.818,55.835,35.6245,60.4005,53.3255,53.774,34.7095,58.945,51.6185,52.92,34.228,58.820499999999996,51.00933333333333,-0.09199999999999986,-0.08050000000000024,0.100885,0.11797500000000001,0.0,218.15,218.07999999999998,214.79333333333335,214.79333333333335,0.0,0.0
31,0.0,0.0,0.0,1.0,1.0,0.0,0.0,1.0,0.0,100.0,1.0,1.1856,26.0,0.0,0.0,0.0,59.999996,0.0,26.0,26.0,26.0,26.0,-0.06677777777777782,0.2549000000000001,-0.020200000000000003,290.894,-2.7234,-2.641111111111111,-1.5505499999999999,-1.647,-170.43,215.9225,190.3035,0.0,0.0,0.0,0.0,0.06276666666666653,-5.498166666666667,-5.498166666666667,-0.5906,-0.6835,-0.04588888888888887,0.621,69.794,-0.047,-0.22112500000000002,0.10200000000000031,100.0,1.0,1.0,215.06,0.0,0.0,0.0,0.0,0.0,0.0,0.0,9115.7,0.0,55.0,5.0,251.23333333333335,1.0,0.0,0.0,0.0,0.0,0.0,1.0,0.0,1.5569999999999986,1.5569999999999986,0.0,0.0,1.0,55.0,616.79921,10000.0,85.000001,85.000001,85.000001,85.000001,395.0,0.0,0.0,0.0,1.0,166.665,51.315,51.315,45.547,45.547,34.0,-25.9575,23.481666666666666,-32.75333333333333,29.61,0.0,1782.145,-0.10500000000000043,100.0,29.296,28.701999999999998,45.133,44.254999999999995,0.0,0.0,100.0,0.0,0.0,0.0,0.0,3190.285714285714,3246.0,4320.125,4292.7,305.2525,304.7185,314.279,314.32225,22.0654,20.6781,22.0997,21.5798,314.999998,314.999998,324.999988,324.999988,99.55905714285714,99.50746666666667,99.57025714285714,99.54934285714286,0.05500000000000016,-0.08999999999999997,-0.1475,0.07633333333333334,-0.021666666666668277,-0.061666666666667425,1.4580000000000002,1.462,38.909,30.238,39.123000000000005,35.8735,55.821,35.664500000000004,60.439499999999995,53.3845,53.760999999999996,34.7465,58.981,51.675,52.906,34.263,58.8535,51.06433333333334,-0.09599999999999986,-0.07500000000000018,0.10399000000000001,0.10617000000000001,0.0,218.445,218.45499999999998,215.06,215.06,0.0,0.0
32,0.0,0.0,0.0,1.0,1.0,0.0,0.0,1.0,0.0,100.0,1.0,1.1856,26.0,0.0,0.0,0.0,59.999996,0.0,26.0,26.0,26.0,26.0,-0.05499999999999994,0.27960000000000007,-0.0213,291.122,-2.6311,-2.7439999999999998,-1.54925,-1.5534000000000001,-166.66,215.9075,190.276375,0.0,0.0,0.0,0.0,0.0649666666666665,-5.498166666666667,-5.498166666666667,-0.6059,0.15549999999999997,-0.06611111111111123,0.5609999999999999,69.929,-0.033,-0.22535000000000002,0.05400000000000027,100.0,1.0,1.0,215.56666666666666,0.0,0.0,0.0,0.0,0.0,0.0,0.0,9137.1,0.0,55.0,5.0,251.72,0.0,0.0,0.0,0.0,0.0,0.0,1.0,0.0,1.6110000000000007,1.6110000000000007,0.0,0.0,0.0,55.0,616.79921,10000.0,85.000001,85.000001,85.000001,85.000001,395.0,0.0,0.0,0.0,1.0,166.665,51.361,51.361,46.341,46.341,34.0,-24.65,23.845,-30.993333333333336,28.7725,0.0,1782.09,-0.19000000000000128,100.0,29.336,28.744,44.686,44.077,0.0,0.0,100.0,0.0,0.0,0.0,0.0,3173.857142857143,3095.2,4239.875,4311.1,305.094,304.95675,314.5285,314.3125,22.0754,20.6841,22.1108,21.5895,314.999998,314.999998,324.999988,324.999988,99.55907142857143,99.50748333333334,99.57041428571429,99.5495,0.0674999999999999,-0.07950000000000002,-0.1335,0.08750000000000001,-0.04833333333333201,-0.04333333333332945,1.5005000000000002,1.5105,38.971000000000004,30.276,39.192,35.9345,55.807,35.709,60.477000000000004,53.446,53.748000000000005,34.7875,59.016,51.734,52.891999999999996,34.3025,58.885,51.122,-0.10299999999999998,-0.0665,0.10247500000000001,0.10275000000000001,0.0,218.89499999999998,218.875,215.56666666666666,215.56666666666666,0.0,0.0
33,0.0,0.0,0.0,1.0,1.0,0.0,0.0,1.0,0.0,100.0,1.0,1.1856,26.0,0.0,0.0,0.0,59.999996,0.0,26.0,26.0,26.0,26.0,-0.01911111111111108,0.2579,-0.02012,291.367,-2.6854,-2.721222222222222,-1.5573000000000001,-1.6287,-163.51,215.89249999999998,190.25275,0.0,0.0,0.0,0.0,0.06679999999999997,-5.498166666666667,-5.498166666666667,-0.6123000000000001,-0.482,-0.05411111111111122,0.028000000000000025,70.044,-0.0213,-0.216375,0.06200000000000028,100.0,1.0,1.0,215.87333333333333,0.0,0.0,0.0,0.0,0.0,0.0,0.0,9150.1,0.0,55.0,5.0,252.13333333333333,1.0,0.0,0.0,0.0,0.0,0.0,1.0,0.0,1.6559999999999988,1.6559999999999988,0.0,0.0,1.0,55.0,616.79921,10000.0,85.000001,85.000001,85.000001,85.000001,395.0,0.0,0.0,0.0,1.0,166.665,51.804,51.804,46.494,46.494,34.0,-25.32,22.675,-31.48,29.935,0.0,1782.046,-0.245000000000001,100.0,28.908,28.618000000000002,44.519999999999996,44.212,0.0,0.0,100.0,0.0,0.0,0.0,0.0,3204.857142857143,2973.9,4249.375,4253.8,305.27,305.2705,314.5535,314.3235,22.0836,20.689,22.1201,21.5977,314.999998,314.999998,324.999988,324.999988,99.55907142857143,99.50748333333334,99.57054285714285,99.54964285714286,0.06300000000000017,-0.07874999999999999,-0.139,0.092,-0.04999999999999716,-0.036666666666668846,1.487,1.479,39.022,30.3065,39.251000000000005,35.9855,55.796,35.7425,60.509,53.4985,53.736999999999995,34.8185,59.046,51.785,52.879999999999995,34.332,58.9125,51.17133333333334,-0.10099999999999998,-0.06300000000000017,0.10784,0.10959,0.0,219.245,219.22500000000002,215.87333333333333,215.87333333333333,0.0,0.0
34,0.0,0.0,0.0,1.0,1.0,0.0,0.0,1.0,0.0,100.0,1.0,1.1856,26.0,0.0,0.0,0.0,59.999996,0.0,26.0,26.0,26.0,26.0,-0.009000000000000008,0.25660000000000016,-0.10014,291.885,-2.7199999999999998,-2.699777777777778,-1.62985,-1.5790000000000002,-159.72,215.8775,190.223125,0.0,0.0,0.0,0.0,0.06899999999999995,-5.498166666666667,-5.498166666666667,-0.6469,-0.8009999999999999,-0.01866666666666683,-0.03299999999999992,70.179,-0.0102,-0.22610000000000002,-0.012000000000000455,100.0,1.0,1.0,216.36333333333334,0.0,0.0,0.0,0.0,0.0,0.0,0.0,9170.9,0.0,55.0,5.0,252.62,0.0,0.0,0.0,0.0,0.0,0.0,1.0,0.0,1.7100000000000009,1.7100000000000009,0.0,0.0,0.0,55.0,616.79921,10000.0,85.000001,85.000001,85.000001,85.000001,395.0,0.0,0.0,0.0,1.0,166.665,52.307,52.307,47.211,47.211,34.0,-23.58,23.015,-29.86,28.44,0.0,1781.992,-0.29499999999999815,100.0,28.599,28.320999999999998,44.163,44.21,0.0,0.0,100.0,0.0,0.0,0.0,0.0,3049.714285714286,2955.9,4083.125,4117.3,305.632,305.31025,315.03175,314.651,22.0933,20.6949,22.1311,21.6075,314.999998,314.999998,324.999988,324.999988,99.55908571428571,99.5075,99.5707,99.5498,0.08099999999999996,-0.06225000000000003,-0.12283333333333334,0.10166666666666667,-0.04333333333332945,-0.036666666666668846,1.5295,1.5195,39.083,30.343,39.32,36.0465,55.781,35.7825,60.544,53.5615,53.723,34.855000000000004,59.079,51.8455,52.864999999999995,34.3675,58.942,51.230666666666664,-0.10450000000000004,-0.05900000000000016,0.10392000000000001,0.10790500000000001,0.0,219.64,219.615,216.36333333333334,216.36333333333334,0.0,0.0
35,0.0,0.0,0.0,1.0,1.0,0.0,0.0,1.0,0.0,100.0,1.0,1.1856,26.0,0.0,0.0,0.0,59.999996,0.0,26.0,26.0,26.0,26.0,0.010444444444444478,0.23570000000000002,-0.060579999999999995,291.733,-2.6946,-2.658777777777778,-1.6017000000000001,-1.596,-156.35,215.8625,190.194625,0.0,0.0,0.0,0.0,0.07096666666666651,-5.498166666666667,-5.498166666666667,-0.6844,-0.23550000000000004,-0.033777777777777906,-1.0520000000000005,70.298,0.0007,-0.22742500000000002,-0.1559999999999997,100.0,1.0,1.0,216.79333333333335,0.0,0.0,0.0,0.0,0.0,0.0,0.0,9189.1,0.0,55.0,5.0,253.05,1.0,0.0,0.0,0.0,0.0,0.0,1.0,0.0,1.7579999999999991,1.7579999999999991,0.0,0.0,1.0,55.0,616.79921,10000.0,85.000001,85.000001,85.000001,85.000001,395.0,0.0,0.0,0.0,1.0,166.665,51.468,51.468,46.951,46.951,34.0,-24.565,26.218333333333334,-28.346666666666664,27.8775,0.0,1781.944,-0.23499999999999943,100.0,28.491,28.688,43.92,43.738,0.0,0.0,100.0,0.0,0.0,0.0,0.0,3221.142857142857,3312.5,4032.25,3944.8,305.212,304.24825,315.10375,315.1175,22.1018,20.7003,22.1409,21.616,314.999998,314.999998,324.999988,324.999988,99.5591,99.5075,99.57084285714286,99.54992857142857,0.08574999999999999,-0.05325000000000002,-0.1095,0.11833333333333333,-0.05666666666667197,-0.04833333333333201,1.5565000000000002,1.546,39.135999999999996,30.377000000000002,39.381,36.1,55.766,35.8195,60.576,53.614,53.709,34.89,59.108000000000004,51.896,52.85,34.4005,58.968,51.279666666666664,-0.09749999999999992,-0.06199999999999983,0.10706500000000001,0.11195000000000001,0.0,220.015,220.01,216.79333333333335,216.79333333333335,0.0,0.0
36,0.0,0.0,0.0,1.0,1.0,0.0,0.0,1.0,0.0,100.0,1.0,1.1856,26.0,0.0,0.0,0.0,59.999996,0.0,26.0,26.0,26.0,26.0,0.012111111111111184,0.26690000000000014,0.058460000000000005,290.71,-2.6289,-2.677777777777778,-1.5556,-1.5906,-152.98,215.845,190.165,0.0,0.0,0.0,0.0,0.0729333333333333,-5.498166666666667,-5.498166666666667,-0.6637000000000001,0.25749999999999995,-0.06811111111111146,-1.1280000000000001,70.42099999999999,0.0058000000000000005,-0.201625,0.02400000000000002,100.0,1.0,1.0,216.90666666666667,0.0,0.0,0.0,0.0,0.0,0.0,0.0,9193.8,0.0,55.0,5.0,253.49,0.0,0.0,0.0,0.0,0.0,0.0,1.0,0.0,1.806000000000001,1.806000000000001,0.0,0.0,0.0,55.0,616.79921,10000.0,85.000001,85.000001,85.000001,85.000001,395.0,0.0,0.0,0.0,1.0,166.665,51.147,51.147,46.036,46.036,34.0,-23.634999999999998,24.985,-31.933333333333334,33.400000000000006,0.0,1781.896,-0.21499999999999986,100.0,29.048000000000002,29.012,44.116,44.196,0.0,0.0,100.0,0.0,0.0,0.0,0.0,3215.142857142857,3142.0,4501.625,4525.3,304.9635,304.7445,314.01625,313.69375,22.110500000000002,20.7059,22.1508,21.6248,314.999998,314.999998,324.999988,324.999988,99.55911428571429,99.5075,99.57098571428571,99.55007142857143,0.09799999999999986,-0.05074999999999996,-0.10466666666666667,0.11983333333333333,-0.026666666666670835,-0.04333333333332945,1.4325,1.448,39.191,30.412,39.443,36.155,55.756,35.8585,60.61,53.6715,53.699,34.9255,59.1405,51.951499999999996,52.839,34.435,58.997,51.334,-0.10250000000000004,-0.06450000000000022,0.09734500000000001,0.11615500000000001,0.0,220.41,220.405,216.90666666666667,216.90666666666667,0.0,0.0
